[
  {
    "id": "4171200191",
    "name": "デイサービス　　なかばる紀水苑",
    "kana": "デイサービス　ナカバルキスイエン",
    "address": "佐賀県三養基郡みやき町大字簑原４２６０番地",
    "lat": 33.3638350816672,
    "lng": 130.450653628806,
    "tel": "0942-94-9215",
    "url": "http://kisuikai.net/",
    "pref": "佐賀県",
    "city": "みやき町",
    "category": "day_service",
    "serviceType": "通所介護",
    "capacity": 0,
    "openDays": [
      "平日",
      "土曜日",
      "祝日"
    ],
    "openDaysNote": "台風、積雪等で送迎ができない時は営業しません。"
  },
  {
    "id": "4171200167",
    "name": "デイサービスセンターひまわり",
    "kana": "デイサービスセンターヒマワリ",
    "address": "佐賀県三養基郡みやき町大字寄人1924-1",
    "lat": 33.2861365149672,
    "lng": 130.426831219574,
    "tel": "0942-81-9091",
    "url": "",
    "pref": "佐賀県",
    "city": "みやき町",
    "category": "day_service",
    "serviceType": "通所介護",
    "capacity": 0,
    "openDays": [
      "平日",
      "土曜日",
      "日曜日",
      "祝日"
    ],
    "openDaysNote": ""
  },
  {
    "id": "4111210441",
    "name": "デイサービスセンターゆうあい",
    "kana": "デイサービスセンターユウアイ",
    "address": "佐賀県三養基郡みやき町大字白壁４３０５－３６",
    "lat": 33.3458909436875,
    "lng": 130.460277090213,
    "tel": "０９４２－８９－９１５０",
    "url": "",
    "pref": "佐賀県",
    "city": "みやき町",
    "category": "day_service",
    "serviceType": "通所介護",
    "capacity": 0,
    "openDays": [
      "平日",
      "土曜日"
    ],
    "openDaysNote": ""
  },
  {
    "id": "4171200506",
    "name": "デイサービスみやき",
    "kana": "デイサービスミヤキ",
    "address": "三養基郡みやき町大字中津隈624番地ケアハウスみやき ケアハウスみやき",
    "lat": 33.3234407775775,
    "lng": 130.428416783514,
    "tel": "0942-89-5200",
    "url": "https://www.c-pro.jp",
    "pref": "佐賀県",
    "city": "みやき町",
    "category": "day_service",
    "serviceType": "通所介護",
    "capacity": 40,
    "openDays": [
      "平日",
      "土曜日",
      "日曜日",
      "祝日"
    ],
    "openDaysNote": "デイサービスは、年中無休で営業しております。"
  },
  {
    "id": "4171200712",
    "name": "デイサービスゆうゆう",
    "kana": "デイサービスユウユウ",
    "address": "佐賀県三養基郡みやき町大字天健寺1492番地1",
    "lat": 33.2901182269837,
    "lng": 130.446608883992,
    "tel": "0942－96－5500",
    "url": "",
    "pref": "佐賀県",
    "city": "みやき町",
    "category": "day_service",
    "serviceType": "通所介護",
    "capacity": 0,
    "openDays": [
      "平日",
      "土曜日",
      "日曜日",
      "祝日"
    ],
    "openDaysNote": ""
  },
  {
    "id": "4171200209",
    "name": "花のみねデイサービスセンター",
    "kana": "ハナノミネデイサービスセンター",
    "address": "佐賀県三養基郡みやき町大字西島２７３０番地１",
    "lat": 33.3044642,
    "lng": 130.4509966,
    "tel": "0942-96-3377",
    "url": "https://peraichi.com/landing_pages/view/mirai-hananomine1",
    "pref": "佐賀県",
    "city": "みやき町",
    "category": "day_service",
    "serviceType": "通所介護",
    "capacity": null,
    "openDays": [
      "平日",
      "土曜日",
      "祝日"
    ],
    "openDaysNote": "年始１/１・２日休み"
  },
  {
    "id": "4170500807",
    "name": "デイサービス　アイケア",
    "kana": "デイサービス　アイケア",
    "address": "佐賀県伊万里市二里町八谷搦1120",
    "lat": 33.2778539146457,
    "lng": 129.870809657455,
    "tel": "0955-22-8888",
    "url": "http://icare-grp.jp",
    "pref": "佐賀県",
    "city": "伊万里市",
    "category": "day_service",
    "serviceType": "通所介護",
    "capacity": 48,
    "openDays": [
      "平日",
      "土曜日",
      "日曜日",
      "祝日"
    ],
    "openDaysNote": ""
  },
  {
    "id": "4170500484",
    "name": "デイサービス　ウェルネス伊万里",
    "kana": "デイサービス　ウェルネスイマリ",
    "address": "二里町大里甲1714-1",
    "lat": 33.2637822215809,
    "lng": 129.87057645795,
    "tel": "0955-23-1815",
    "url": "http://www.shofu-kai.jp/wellness/index.html",
    "pref": "佐賀県",
    "city": "伊万里市",
    "category": "day_service",
    "serviceType": "通所介護",
    "capacity": 30,
    "openDays": [
      "平日",
      "土曜日",
      "祝日"
    ],
    "openDaysNote": "災害、悪天候等やむをえない事情が生じた場合は、利用者等に連絡のうえ変更する事がある。"
  },
  {
    "id": "4170500286",
    "name": "デイサービス　エスペランス",
    "kana": "デイサービス　エスペランス",
    "address": "佐賀県伊万里市大坪町乙1579番地2",
    "lat": 33.2745712,
    "lng": 129.8963092,
    "tel": "0955-23-5312",
    "url": "http://kashinkai.or.jp",
    "pref": "佐賀県",
    "city": "伊万里市",
    "category": "day_service",
    "serviceType": "通所介護",
    "capacity": 20,
    "openDays": [
      "平日",
      "土曜日",
      "祝日"
    ],
    "openDaysNote": ""
  },
  {
    "id": "4170500534",
    "name": "デイサービス　えん家・サテライト　みず穂",
    "kana": "デイサービス　エンチ・サテライト　ミズホ",
    "address": "佐賀県伊万里市木須町4931-1（えん家）・佐賀県伊万里市二里町大里甲2516-7（みず穂）",
    "lat": 33.2885628,
    "lng": 129.8633789,
    "tel": "0955-22-3285（",
    "url": "https://emuemu-imari.co.jp/",
    "pref": "佐賀県",
    "city": "伊万里市",
    "category": "day_service",
    "serviceType": "通所介護",
    "capacity": 19,
    "openDays": [
      "平日",
      "土曜日",
      "日曜日",
      "祝日"
    ],
    "openDaysNote": "年末年始の12月31日～1月1日は定休日となります。"
  },
  {
    "id": "4170500914",
    "name": "デイサービス　かりん",
    "kana": "デイサービス　カリン",
    "address": "佐賀県伊万里市立花町1465番地有料老人ホーム　かりん 有料老人ホーム　かりん",
    "lat": 33.2629544131643,
    "lng": 129.879038241248,
    "tel": "0955-21-1555",
    "url": "",
    "pref": "佐賀県",
    "city": "伊万里市",
    "category": "day_service",
    "serviceType": "通所介護",
    "capacity": 39,
    "openDays": [
      "平日",
      "土曜日",
      "日曜日",
      "祝日"
    ],
    "openDaysNote": ""
  },
  {
    "id": "4170500658",
    "name": "デイサービス　明星",
    "kana": "デイサ-ビス　ミョウジョウ",
    "address": "佐賀県伊万里市東山代町里1336番地1",
    "lat": 33.2817153745885,
    "lng": 129.827321378172,
    "tel": "0955-28-4533",
    "url": "http://care-net.biz/test/41/myojo-kaigo/",
    "pref": "佐賀県",
    "city": "伊万里市",
    "category": "day_service",
    "serviceType": "通所介護",
    "capacity": 25,
    "openDays": [
      "平日",
      "土曜日",
      "日曜日",
      "祝日"
    ],
    "openDaysNote": ""
  },
  {
    "id": "4170500732",
    "name": "デイサービス・リアン",
    "kana": "デイサービス・リアン",
    "address": "佐賀県伊万里市二里町八谷搦１１８８番地",
    "lat": 33.278884852398,
    "lng": 129.867888421396,
    "tel": "０９５５－２２－３３８３",
    "url": "http://lien-kizuna.com",
    "pref": "佐賀県",
    "city": "伊万里市",
    "category": "day_service",
    "serviceType": "通所介護",
    "capacity": 20,
    "openDays": [
      "平日",
      "土曜日",
      "日曜日",
      "祝日"
    ],
    "openDaysNote": "元日のみ休み"
  },
  {
    "id": "4170500492",
    "name": "デイサービスあさひ",
    "kana": "デイサービスアサヒ",
    "address": "佐賀県伊万里市立花町1462-2",
    "lat": 33.2629135784223,
    "lng": 129.878936607713,
    "tel": "0955-29-8766",
    "url": "",
    "pref": "佐賀県",
    "city": "伊万里市",
    "category": "day_service",
    "serviceType": "通所介護",
    "capacity": 0,
    "openDays": [
      "平日",
      "土曜日",
      "日曜日",
      "祝日"
    ],
    "openDaysNote": "日曜、祝日及び年末・年始と特別な日（会社で定めた休日）は、休む場合があります。"
  },
  {
    "id": "4170500989",
    "name": "デイサービスえにしあ",
    "kana": "デイサービスエニシア",
    "address": "佐賀県伊万里市二里町中里甲3316-3",
    "lat": 33.2441059,
    "lng": 129.8518535,
    "tel": "0955-25-8343",
    "url": "",
    "pref": "佐賀県",
    "city": "伊万里市",
    "category": "day_service",
    "serviceType": "通所介護",
    "capacity": 0,
    "openDays": [
      "平日",
      "土曜日",
      "日曜日",
      "祝日"
    ],
    "openDaysNote": ""
  },
  {
    "id": "4170500419",
    "name": "デイサービスこころ",
    "kana": "デイサービスココロ",
    "address": "佐賀県伊万里市二里町中里甲80",
    "lat": 33.2512669,
    "lng": 129.8496468,
    "tel": "0955-20-4558",
    "url": "",
    "pref": "佐賀県",
    "city": "伊万里市",
    "category": "day_service",
    "serviceType": "通所介護",
    "capacity": 35,
    "openDays": [
      "平日",
      "土曜日",
      "祝日"
    ],
    "openDaysNote": "大晦日・元旦・2日・3日は休日"
  },
  {
    "id": "4170500674",
    "name": "デイサービスセンター　いこいの里伊万里",
    "kana": "デイサービスセンター　イコイノサトイマリ",
    "address": "伊万里市立花町2394番1",
    "lat": 33.2596690316299,
    "lng": 129.8885912295,
    "tel": "0955-22-7700",
    "url": "https://ikoino-sato.com",
    "pref": "佐賀県",
    "city": "伊万里市",
    "category": "day_service",
    "serviceType": "通所介護",
    "capacity": 0,
    "openDays": [
      "平日",
      "土曜日",
      "日曜日",
      "祝日"
    ],
    "openDaysNote": ""
  },
  {
    "id": "4170500039",
    "name": "デイサービスセンター敬愛園",
    "kana": "デイサービスセンターケイアイエン",
    "address": "佐賀県伊万里市黒川町大黒川2201番地",
    "lat": 33.3352249,
    "lng": 129.8655759,
    "tel": "0955-27-2101",
    "url": "http://imari-keiaikai.com",
    "pref": "佐賀県",
    "city": "伊万里市",
    "category": "day_service",
    "serviceType": "通所介護",
    "capacity": 0,
    "openDays": [
      "平日",
      "土曜日",
      "日曜日",
      "祝日"
    ],
    "openDaysNote": ""
  },
  {
    "id": "4170500450",
    "name": "デイサービスながやまスズラン",
    "kana": "デイサービスナガヤマスズラン",
    "address": "佐賀県伊万里市大坪町甲732",
    "lat": 33.295516,
    "lng": 129.8972201,
    "tel": "0955-22-0187",
    "url": "",
    "pref": "佐賀県",
    "city": "伊万里市",
    "category": "day_service",
    "serviceType": "通所介護",
    "capacity": 25,
    "openDays": [
      "平日",
      "土曜日",
      "日曜日",
      "祝日"
    ],
    "openDaysNote": ""
  },
  {
    "id": "4170500385",
    "name": "デイサービスわきた",
    "kana": "デイサービスワキタ",
    "address": "佐賀県伊万里市脇田町1327番地1",
    "lat": 33.2834291413107,
    "lng": 129.883613714642,
    "tel": "0955-22-0888",
    "url": "http://www.",
    "pref": "佐賀県",
    "city": "伊万里市",
    "category": "day_service",
    "serviceType": "通所介護",
    "capacity": 0,
    "openDays": [
      "平日",
      "土曜日"
    ],
    "openDaysNote": "３日以上休業日にならないように調整。また、休業日においても利用者の希望により２ヶ月以上前に開催日の計画を行い営業する事がある。"
  },
  {
    "id": "4170500864",
    "name": "デイサービス紅葉",
    "kana": "デイサービス　モミジ",
    "address": "佐賀県伊万里市立花町小敷山2404―123",
    "lat": 33.269363,
    "lng": 129.879391,
    "tel": "0955－23－8061",
    "url": "",
    "pref": "佐賀県",
    "city": "伊万里市",
    "category": "day_service",
    "serviceType": "通所介護",
    "capacity": 0,
    "openDays": [
      "平日",
      "土曜日",
      "祝日"
    ],
    "openDaysNote": ""
  },
  {
    "id": "4170500856",
    "name": "ふくふくの里なごみデイサービス・宅老所",
    "kana": "フクフクノサトナゴミデイサービス・タクロウショ",
    "address": "佐賀県伊万里市大川内丙927",
    "lat": 33.2469809034454,
    "lng": 129.887347569528,
    "tel": "0955-21-0333",
    "url": "https://www.fukufukunosato.net/",
    "pref": "佐賀県",
    "city": "伊万里市",
    "category": "day_service",
    "serviceType": "通所介護",
    "capacity": 0,
    "openDays": [
      "平日",
      "土曜日",
      "日曜日",
      "祝日"
    ],
    "openDaysNote": "年末年始（12/31～1/3）を除く毎日営業（改行）時間外相談可"
  },
  {
    "id": "4170500518",
    "name": "ぽっかぽかハートケア・伊万里",
    "kana": "ポッカポカハートケア・イマリ",
    "address": "佐賀県伊万里市立花町2405-17",
    "lat": 33.2608391,
    "lng": 129.8887877,
    "tel": "0955-23-5050",
    "url": "http://www.poka2.co.jp",
    "pref": "佐賀県",
    "city": "伊万里市",
    "category": "day_service",
    "serviceType": "通所介護",
    "capacity": 35,
    "openDays": [
      "平日",
      "土曜日",
      "日曜日",
      "祝日"
    ],
    "openDaysNote": "無し"
  },
  {
    "id": "4170500021",
    "name": "伊万里市東部デイサービスセンター　ユートピア",
    "kana": "イマリシトウブデイサービスセンター　ユートピア",
    "address": "佐賀県伊万里市大川町大川野字赤坂1647番地",
    "lat": 33.2949605876484,
    "lng": 129.971941862952,
    "tel": "0955-20-8008",
    "url": "http://www.kenjin-kai.com/utopia/",
    "pref": "佐賀県",
    "city": "伊万里市",
    "category": "day_service",
    "serviceType": "通所介護",
    "capacity": 30,
    "openDays": [
      "平日",
      "土曜日",
      "祝日"
    ],
    "openDaysNote": "台風、風水害や積雪の場合など、道路状況により臨時休業あり。"
  },
  {
    "id": "4170501003",
    "name": "温泉デイ　フォレスト　イン　伊万里",
    "kana": "オンセンデイフォレストインイマリ",
    "address": "佐賀県伊万里市二里町大里甲1704-1",
    "lat": 33.2637276,
    "lng": 129.8690822,
    "tel": "0955-22-2100",
    "url": "",
    "pref": "佐賀県",
    "city": "伊万里市",
    "category": "day_service",
    "serviceType": "通所介護",
    "capacity": 0,
    "openDays": [
      "平日",
      "祝日"
    ],
    "openDaysNote": ""
  },
  {
    "id": "4170500740",
    "name": "介護ホーム　まきしま",
    "kana": "カイゴホーム　マキシマ",
    "address": "佐賀県伊万里市瀬戸町1359番地",
    "lat": 33.3036968838996,
    "lng": 129.851516147897,
    "tel": "0955-20-0200",
    "url": "http://hp.kaipoke.biz.ws7/",
    "pref": "佐賀県",
    "city": "伊万里市",
    "category": "day_service",
    "serviceType": "通所介護",
    "capacity": 20,
    "openDays": [
      "平日",
      "土曜日",
      "日曜日",
      "祝日"
    ],
    "openDaysNote": "年中無休にてサービス提供を行なっています。又、介護サービス時間外の対応も可能です。"
  },
  {
    "id": "4170500526",
    "name": "介護ホーム　もものかわ",
    "kana": "カイゴホーム　モモノカワ",
    "address": "佐賀県伊万里市松浦町桃川5997番地",
    "lat": 33.2727812645323,
    "lng": 129.958172137296,
    "tel": "0955-26-3223",
    "url": "http://hp.kaipoke.biz/ws7/",
    "pref": "佐賀県",
    "city": "伊万里市",
    "category": "day_service",
    "serviceType": "通所介護",
    "capacity": 25,
    "openDays": [
      "平日",
      "土曜日",
      "日曜日",
      "祝日"
    ],
    "openDaysNote": ""
  },
  {
    "id": "4170501011",
    "name": "株式会社はれいゆ",
    "kana": "カブシキカイシャハレイユ",
    "address": "佐賀県伊万里市伊万里町甲629",
    "lat": 33.2750026,
    "lng": 129.8750483,
    "tel": "0955-23-5070",
    "url": "",
    "pref": "佐賀県",
    "city": "伊万里市",
    "category": "day_service",
    "serviceType": "通所介護",
    "capacity": 0,
    "openDays": [
      "平日",
      "土曜日",
      "日曜日",
      "祝日"
    ],
    "openDaysNote": ""
  },
  {
    "id": "4170500799",
    "name": "高齢者支援施設　楽歳",
    "kana": "コウレイシャシエンシセツ　ラクサイ",
    "address": "山代町久原2994番地4",
    "lat": 33.316145,
    "lng": 129.8109518,
    "tel": "0955-20-2867",
    "url": "",
    "pref": "佐賀県",
    "city": "伊万里市",
    "category": "day_service",
    "serviceType": "通所介護",
    "capacity": 0,
    "openDays": [
      "平日",
      "土曜日",
      "日曜日",
      "祝日"
    ],
    "openDaysNote": "年間を通じて通所介護、通所予防介護を行っております。"
  },
  {
    "id": "4110511369",
    "name": "山口病院デイサービスセンターこしだけ",
    "kana": "ヤマグチビョウインデイサービスセンターコシダケ",
    "address": "佐賀県伊万里市新天町305番地山口病院 山口病院",
    "lat": 33.2686405,
    "lng": 129.8748195,
    "tel": "0955-23-5255",
    "url": "http://www.yamaguchi-hp-imari.jp/",
    "pref": "佐賀県",
    "city": "伊万里市",
    "category": "day_service",
    "serviceType": "通所介護",
    "capacity": 0,
    "openDays": [
      "平日",
      "土曜日",
      "祝日"
    ],
    "openDaysNote": "大晦日、正月3か日は休業します。"
  },
  {
    "id": "4170500013",
    "name": "長生園デイサービスセンター",
    "kana": "チョウセイエンデイサービスセンター",
    "address": "佐賀県伊万里市立花町２７０３番地２",
    "lat": 33.2645856,
    "lng": 129.880269,
    "tel": "0955-25-8203",
    "url": "http://chousei-imari.jp",
    "pref": "佐賀県",
    "city": "伊万里市",
    "category": "day_service",
    "serviceType": "通所介護",
    "capacity": 0,
    "openDays": [
      "平日",
      "土曜日",
      "祝日"
    ],
    "openDaysNote": ""
  },
  {
    "id": "4170500468",
    "name": "通所介護　ほのぼの",
    "kana": "ツウショカイゴ　ホノボノ",
    "address": "佐賀県伊万里市黒川町塩屋５０９番地１",
    "lat": 33.3314887,
    "lng": 129.8537491,
    "tel": "0955-27-2400",
    "url": "",
    "pref": "佐賀県",
    "city": "伊万里市",
    "category": "day_service",
    "serviceType": "通所介護",
    "capacity": 30,
    "openDays": [
      "平日",
      "土曜日",
      "日曜日",
      "祝日"
    ],
    "openDaysNote": ""
  },
  {
    "id": "4170501037",
    "name": "有料老人ホームれんげそう",
    "kana": "ユウリョウロウジンホームレンゲソウ",
    "address": "佐賀県伊万里市立花町２１８１番地77",
    "lat": 33.255962853335,
    "lng": 129.886261255681,
    "tel": "0955-22-2585",
    "url": "http:care-net.biz/renngesou/",
    "pref": "佐賀県",
    "city": "伊万里市",
    "category": "day_service",
    "serviceType": "通所介護",
    "capacity": null,
    "openDays": [
      "平日",
      "土曜日",
      "日曜日",
      "祝日"
    ],
    "openDaysNote": ""
  },
  {
    "id": "4171200746",
    "name": "デイサービスさくら",
    "kana": "デイサービスサクラ",
    "address": "佐賀県三養基郡基山町大字小倉457-2セカンドライフさくら セカンドライフさくら",
    "lat": 33.4351756,
    "lng": 130.5203448,
    "tel": "0942-85-8251",
    "url": "",
    "pref": "佐賀県",
    "city": "基山町",
    "category": "day_service",
    "serviceType": "通所介護",
    "capacity": 0,
    "openDays": [
      "平日",
      "土曜日",
      "祝日"
    ],
    "openDaysNote": ""
  },
  {
    "id": "4171200043",
    "name": "デイサービスセンター寿楽園",
    "kana": "デイサービスセンタージュラクエン",
    "address": "佐賀県三養基郡基山町大字園部2307番地",
    "lat": 33.4177836085617,
    "lng": 130.500796309123,
    "tel": "0942-92-2626",
    "url": "http://www.jurakuen.jp/",
    "pref": "佐賀県",
    "city": "基山町",
    "category": "day_service",
    "serviceType": "通所介護",
    "capacity": 40,
    "openDays": [
      "平日",
      "土曜日",
      "祝日"
    ],
    "openDaysNote": ""
  },
  {
    "id": "4170900254",
    "name": "あっとホームはなまる",
    "kana": "アットホームハナマル",
    "address": "佐賀県嬉野市嬉野町大字吉田丁３４１７",
    "lat": 33.0889708468977,
    "lng": 130.01182317365,
    "tel": "0954-43-8181",
    "url": "http://www.ktknet.ne.jp/hanamaru/",
    "pref": "佐賀県",
    "city": "嬉野市",
    "category": "day_service",
    "serviceType": "通所介護",
    "capacity": 25,
    "openDays": [
      "平日",
      "土曜日",
      "日曜日",
      "祝日"
    ],
    "openDaysNote": ""
  },
  {
    "id": "4170900288",
    "name": "あっとホーム寿",
    "kana": "アットホームコトブキ",
    "address": "佐賀県嬉野市嬉野町大字吉田丁3618",
    "lat": 33.0832852,
    "lng": 130.0154978,
    "tel": "0954-43-8282",
    "url": "https://nmc-athome.com/",
    "pref": "佐賀県",
    "city": "嬉野市",
    "category": "day_service",
    "serviceType": "通所介護",
    "capacity": 25,
    "openDays": [
      "平日",
      "土曜日",
      "日曜日",
      "祝日"
    ],
    "openDaysNote": ""
  },
  {
    "id": "4170900171",
    "name": "あっとホーム柔",
    "kana": "アットホームヤワラ",
    "address": "嬉野市嬉野町大字下野甲2255",
    "lat": 33.0930143,
    "lng": 130.0052404,
    "tel": "0954-42-0088",
    "url": "",
    "pref": "佐賀県",
    "city": "嬉野市",
    "category": "day_service",
    "serviceType": "通所介護",
    "capacity": 25,
    "openDays": [
      "平日",
      "土曜日",
      "日曜日",
      "祝日"
    ],
    "openDaysNote": ""
  },
  {
    "id": "4170900072",
    "name": "デイサービスセンター　さいかい",
    "kana": "デイサービスセンター　サイカイ",
    "address": "佐賀県嬉野市嬉野町大字岩屋川内甲111",
    "lat": 33.0940698802219,
    "lng": 129.985432318389,
    "tel": "0954-43-2800",
    "url": "",
    "pref": "佐賀県",
    "city": "嬉野市",
    "category": "day_service",
    "serviceType": "通所介護",
    "capacity": 20,
    "openDays": [
      "平日",
      "土曜日",
      "祝日"
    ],
    "openDaysNote": ""
  },
  {
    "id": "4171700059",
    "name": "デイサービスセンターうれしの",
    "kana": "デイサービスセンターウレシノ",
    "address": "佐賀県嬉野市嬉野町大字下宿甲2088",
    "lat": 33.111745,
    "lng": 129.9924025,
    "tel": "0954-43-2511",
    "url": "http：//tokuyou-ureshino.jp/",
    "pref": "佐賀県",
    "city": "嬉野市",
    "category": "day_service",
    "serviceType": "通所介護",
    "capacity": 0,
    "openDays": [
      "平日",
      "祝日"
    ],
    "openDaysNote": "施設内にご意見箱設置しています。（改行）時間外は当直者により電話受付行っています。"
  },
  {
    "id": "4170900080",
    "name": "デイサービスセンター済昭園",
    "kana": "デイサービスセンターサイショウエン",
    "address": "佐賀県嬉野市塩田町大字五町田甲３４３２番地１",
    "lat": 33.1253621,
    "lng": 130.0624031,
    "tel": "0954-66-5403",
    "url": "http://www.saisyouen.jp/",
    "pref": "佐賀県",
    "city": "嬉野市",
    "category": "day_service",
    "serviceType": "通所介護",
    "capacity": 0,
    "openDays": [
      "平日",
      "土曜日",
      "祝日"
    ],
    "openDaysNote": ""
  },
  {
    "id": "4170900239",
    "name": "デイサービスセンンター美笑庵２号館",
    "kana": "デイサービスセンターミショウアンニゴウカン",
    "address": "佐賀県嬉野市塩田町大字久間甲996番地",
    "lat": 33.1472042,
    "lng": 130.0653108,
    "tel": "0954-66-8952",
    "url": "www.saisyouenn.jp",
    "pref": "佐賀県",
    "city": "嬉野市",
    "category": "day_service",
    "serviceType": "通所介護",
    "capacity": 0,
    "openDays": [
      "平日",
      "土曜日",
      "日曜日",
      "祝日"
    ],
    "openDaysNote": "自然災害や感染症拡大時など緊急を要する場合は時間変更や休業する場合があります。"
  },
  {
    "id": "4170900205",
    "name": "デイサービスひなた",
    "kana": "ディサービスヒナタ",
    "address": "佐賀県嬉野市嬉野町下宿丁195番地８ディサービス・宅老所ひなた ディサービス・宅老所ひなた",
    "lat": 33.1125797,
    "lng": 129.9657408,
    "tel": "0954-42-0005",
    "url": "hotaru-ureshino.jp/",
    "pref": "佐賀県",
    "city": "嬉野市",
    "category": "day_service",
    "serviceType": "通所介護",
    "capacity": 2,
    "openDays": [
      "平日",
      "土曜日",
      "日曜日",
      "祝日"
    ],
    "openDaysNote": "特になし"
  },
  {
    "id": "4170900049",
    "name": "デイサービスふるさと館",
    "kana": "デイサービスフルサトカン",
    "address": "佐賀県嬉野市嬉野町大字下宿乙2351-33",
    "lat": 33.1007148798218,
    "lng": 129.991325604029,
    "tel": "0954-27-7911",
    "url": "",
    "pref": "佐賀県",
    "city": "嬉野市",
    "category": "day_service",
    "serviceType": "通所介護",
    "capacity": 0,
    "openDays": [
      "平日",
      "土曜日",
      "日曜日",
      "祝日"
    ],
    "openDaysNote": ""
  },
  {
    "id": "4170700373",
    "name": "デイサービス花みらい",
    "kana": "デイサービスハナミライ",
    "address": "佐賀県嬉野市大字馬場下甲64-1",
    "lat": 33.1280839,
    "lng": 130.0601144,
    "tel": "0954-66-8500",
    "url": "",
    "pref": "佐賀県",
    "city": "嬉野市",
    "category": "day_service",
    "serviceType": "通所介護",
    "capacity": 0,
    "openDays": [
      "平日",
      "土曜日",
      "日曜日",
      "祝日"
    ],
    "openDaysNote": ""
  },
  {
    "id": "4170900247",
    "name": "デイサービス宅老所　芽吹き",
    "kana": "デイサービス　タクロウショ　メブキ",
    "address": "佐賀県嬉野市嬉野町大字下野乙1912番地1",
    "lat": 33.0938376935296,
    "lng": 130.020610362396,
    "tel": "0954‐43‐1133",
    "url": "http://happy-mebuki.com",
    "pref": "佐賀県",
    "city": "嬉野市",
    "category": "day_service",
    "serviceType": "通所介護",
    "capacity": 24,
    "openDays": [
      "平日",
      "土曜日",
      "日曜日",
      "祝日"
    ],
    "openDaysNote": ""
  },
  {
    "id": "4111710663",
    "name": "ともなが介護院",
    "kana": "トモナガカイゴイン",
    "address": "佐賀県嬉野市嬉野町大字下宿字楓ノ木乙９００番地",
    "lat": 33.0965115649149,
    "lng": 129.984084698009,
    "tel": "0954-43-2118",
    "url": "https://www,tomonaga-kaigoin,com",
    "pref": "佐賀県",
    "city": "嬉野市",
    "category": "day_service",
    "serviceType": "通所介護",
    "capacity": 30,
    "openDays": [
      "平日",
      "土曜日",
      "祝日"
    ],
    "openDaysNote": "大雪、大雨、強風、路面凍結などの悪天候によりサービス提供時間の変更や臨時に休むこともあります。"
  },
  {
    "id": "4170900312",
    "name": "リハプライド嬉野",
    "kana": "リハプライドウレシノ",
    "address": "佐賀県嬉野市嬉野町大字吉田丁4535番地2",
    "lat": 33.0827760536842,
    "lng": 130.016351093254,
    "tel": "0954-45-9401",
    "url": "https://www.rehapride.co.jp/ureshino/",
    "pref": "佐賀県",
    "city": "嬉野市",
    "category": "day_service",
    "serviceType": "通所介護",
    "capacity": 100,
    "openDays": [
      "平日",
      "祝日"
    ],
    "openDaysNote": ""
  },
  {
    "id": "4171700075",
    "name": "嬉野デイサービスセンター「春風荘」",
    "kana": "ウレシノデイサービスセンター「ハルカゼソウ」",
    "address": "佐賀県嬉野市嬉野町大字下野甲１０５５",
    "lat": 33.1015769,
    "lng": 129.9994325,
    "tel": "0954-43-0989",
    "url": "http://tokuyou-ureshino.jp/",
    "pref": "佐賀県",
    "city": "嬉野市",
    "category": "day_service",
    "serviceType": "通所介護",
    "capacity": 0,
    "openDays": [
      "平日",
      "土曜日",
      "祝日"
    ],
    "openDaysNote": ""
  },
  {
    "id": "4171100060",
    "name": "社会福祉法人　吉野ヶ里町社会福祉協議会",
    "kana": "シャカイフクシホウジン　ヨシノガリチョウシャカイフクシキョウギカイ",
    "address": "佐賀県神埼郡吉野ヶ里町豆田１７９０番地三田川健康福祉センター内 三田川健康福祉センター内",
    "lat": 33.3142861684564,
    "lng": 130.398965347221,
    "tel": "0952-52-7831",
    "url": "http://www.yoshinogari-shakyo.or.jp",
    "pref": "佐賀県",
    "city": "吉野ヶ里町",
    "category": "day_service",
    "serviceType": "通所介護",
    "capacity": 0,
    "openDays": [
      "平日"
    ],
    "openDaysNote": "休日について、年末年始は暦により変わります。また、地震等の天災で臨時休業の場合もあります。"
  },
  {
    "id": "4171100078",
    "name": "社会福祉法人久栄会　デイサービスセンターさざんか園",
    "kana": "シャカイフクシホウジンキュウエイカイ　デイサービスセンターサザンカエン",
    "address": "佐賀県神埼郡吉野ヶ里町大曲３４７４番地１",
    "lat": 33.3429849,
    "lng": 130.3966743,
    "tel": "0952-53-2877",
    "url": "http://kyueikai.com/",
    "pref": "佐賀県",
    "city": "吉野ヶ里町",
    "category": "day_service",
    "serviceType": "通所介護",
    "capacity": 30,
    "openDays": [
      "平日",
      "土曜日",
      "祝日"
    ],
    "openDaysNote": "上記の時間の中で、本人、家族の希望する時間帯で、なるべく臨機応変に対応します。相談してください。"
  },
  {
    "id": "4171400023",
    "name": "玄海町社協デイサービスセンター",
    "kana": "ゲンカイチョウシャキョウデイサービスセンター",
    "address": "佐賀県東松浦郡玄海町大字平尾３８０番地１玄海町社協デイサービスセンター 玄海町社協デイサービスセンター",
    "lat": 33.4939790500634,
    "lng": 129.850163946974,
    "tel": "0955-52-3098",
    "url": "",
    "pref": "佐賀県",
    "city": "玄海町",
    "category": "day_service",
    "serviceType": "通所介護",
    "capacity": 30,
    "openDays": [
      "平日",
      "土曜日",
      "祝日"
    ],
    "openDaysNote": ""
  },
  {
    "id": "4171600432",
    "name": "(株)優和会いこいの家",
    "kana": "ユウワカイ　イコイノイエ",
    "address": "佐賀県杵島郡江北町惣領分3691-10",
    "lat": 33.2178681,
    "lng": 130.1821562,
    "tel": "0952-86-4633",
    "url": "https://ikoinoie.jimdo.com/",
    "pref": "佐賀県",
    "city": "江北町",
    "category": "day_service",
    "serviceType": "通所介護",
    "capacity": 0,
    "openDays": [
      "平日",
      "土曜日",
      "日曜日",
      "祝日"
    ],
    "openDaysNote": ""
  },
  {
    "id": "4170600805",
    "name": "げんき村弐号館",
    "kana": "株式会社ライフアクセス",
    "address": "佐賀県杵島郡江北町大字下小田985-2",
    "lat": 33.2101016,
    "lng": 130.141988,
    "tel": "0952-20-2800",
    "url": "",
    "pref": "佐賀県",
    "city": "江北町",
    "category": "day_service",
    "serviceType": "通所介護",
    "capacity": null,
    "openDays": [
      "平日",
      "土曜日",
      "祝日"
    ],
    "openDaysNote": "12月31日～1月3日　休み"
  },
  {
    "id": "4171600705",
    "name": "デイサービスセンターげんき村",
    "kana": "デイサービスセンターゲンキムラ",
    "address": "大字上小田1089番地1",
    "lat": 33.2180202,
    "lng": 130.1377575,
    "tel": "0952-86-2163",
    "url": "",
    "pref": "佐賀県",
    "city": "江北町",
    "category": "day_service",
    "serviceType": "通所介護",
    "capacity": null,
    "openDays": [
      "平日",
      "土曜日",
      "祝日"
    ],
    "openDaysNote": ""
  },
  {
    "id": "4171600408",
    "name": "寄り合い所「すいれん」",
    "kana": "ヨリアイショ「スイレン」",
    "address": "佐賀県杵島郡江北町大字山口３３９９番１寄り合い所「すいれん」 寄り合い所「すいれん」",
    "lat": 33.2211395,
    "lng": 130.1576666,
    "tel": "0952-71-6107",
    "url": "",
    "pref": "佐賀県",
    "city": "江北町",
    "category": "day_service",
    "serviceType": "通所介護",
    "capacity": 45,
    "openDays": [
      "平日",
      "祝日"
    ],
    "openDaysNote": "祝日は営業とする。"
  },
  {
    "id": "4171600051",
    "name": "江北町社会福祉協議会デイサービスセンター",
    "kana": "コウホクマチシャカイフクシキョウギカイ　デイサービスセンター",
    "address": "佐賀県杵島郡江北町大字山口2637番地7江北町老人福祉センター 江北町老人福祉センター",
    "lat": 33.2167122,
    "lng": 130.1495922,
    "tel": "0952-86-4317",
    "url": "",
    "pref": "佐賀県",
    "city": "江北町",
    "category": "day_service",
    "serviceType": "通所介護",
    "capacity": 25,
    "openDays": [
      "平日",
      "土曜日"
    ],
    "openDaysNote": ""
  },
  {
    "id": "4170101507",
    "name": "きんりゅうケアセンター桂寿苑　通所介護",
    "kana": "キンリュウケアセンターケイジュエン　ツウショカイゴ",
    "address": "金立町大字千布４０８８－１",
    "lat": 33.2981177,
    "lng": 130.2973069,
    "tel": "0952-71-8055",
    "url": "http://www.ryouyuukai.jp",
    "pref": "佐賀県",
    "city": "佐賀市",
    "category": "day_service",
    "serviceType": "通所介護",
    "capacity": 0,
    "openDays": [
      "平日",
      "土曜日",
      "祝日"
    ],
    "openDaysNote": "祝日・年末年始・お盆も営業しています"
  },
  {
    "id": "4170101424",
    "name": "ケアパートナー佐賀",
    "kana": "ケアパートナーサガ",
    "address": "佐賀県佐賀市兵庫北３丁目１０番２９号フレアルーチェ１Ｆ フレアルーチェ１Ｆ",
    "lat": 33.2711373073042,
    "lng": 130.305142805032,
    "tel": "0952-36-7362",
    "url": "http://www.care-partner.com/",
    "pref": "佐賀県",
    "city": "佐賀市",
    "category": "day_service",
    "serviceType": "通所介護",
    "capacity": 55,
    "openDays": [
      "平日",
      "土曜日",
      "日曜日",
      "祝日"
    ],
    "openDaysNote": ""
  },
  {
    "id": "4161090032",
    "name": "シオンの園　デイサービス大和",
    "kana": "シオンノソノ　デイサービスヤマト",
    "address": "佐賀市大和町大字久留間3865-1",
    "lat": 33.3123104,
    "lng": 130.2433294,
    "tel": "0952-62-4800",
    "url": "http://www2.saganet.ne.jp/zion",
    "pref": "佐賀県",
    "city": "佐賀市",
    "category": "day_service",
    "serviceType": "通所介護",
    "capacity": 0,
    "openDays": [
      "平日",
      "土曜日",
      "祝日"
    ],
    "openDaysNote": ""
  },
  {
    "id": "4170103487",
    "name": "シオンの園デイサービスはるかぜ",
    "kana": "シオンノソノデイサービスハルカゼ",
    "address": "佐賀県佐賀市大和町大字久池井2584-1",
    "lat": 33.3161116159149,
    "lng": 130.276922949186,
    "tel": "0952-51-2668",
    "url": "",
    "pref": "佐賀県",
    "city": "佐賀市",
    "category": "day_service",
    "serviceType": "通所介護",
    "capacity": 0,
    "openDays": [
      "平日",
      "土曜日",
      "祝日"
    ],
    "openDaysNote": "年末年始等、その他の状況により変更する事があります。"
  },
  {
    "id": "4170103719",
    "name": "しのか家デイサービス",
    "kana": "シノカヤデイサービス",
    "address": "佐賀県佐賀市南佐賀２丁目７－２０",
    "lat": 33.2375829,
    "lng": 130.3207841,
    "tel": "0952-65-5515",
    "url": "https://yumekaya-dayservice.com/",
    "pref": "佐賀県",
    "city": "佐賀市",
    "category": "day_service",
    "serviceType": "通所介護",
    "capacity": null,
    "openDays": [
      "平日",
      "祝日"
    ],
    "openDaysNote": ""
  },
  {
    "id": "4170103438",
    "name": "ツクイ　佐賀北",
    "kana": "ツクイ　サガキタ",
    "address": "佐賀市兵庫北二丁目27番18号",
    "lat": 33.2710002,
    "lng": 130.3057241,
    "tel": "0952-36-4405",
    "url": "http://www.tsukui.net/",
    "pref": "佐賀県",
    "city": "佐賀市",
    "category": "day_service",
    "serviceType": "通所介護",
    "capacity": null,
    "openDays": [
      "平日",
      "土曜日",
      "日曜日",
      "祝日"
    ],
    "openDaysNote": ""
  },
  {
    "id": "4170100103",
    "name": "つぼみ荘　デイ・サービス",
    "kana": "ツボミソウ　デイ・サービス",
    "address": "佐賀市北川副町大字光法1480-2",
    "lat": 33.2321383,
    "lng": 130.3312584,
    "tel": "0952-25-2803",
    "url": "http://itwan.main.jp/tsubomi-sou/",
    "pref": "佐賀県",
    "city": "佐賀市",
    "category": "day_service",
    "serviceType": "通所介護",
    "capacity": 53,
    "openDays": [
      "平日",
      "土曜日",
      "祝日"
    ],
    "openDaysNote": ""
  },
  {
    "id": "4170103727",
    "name": "デイGym花みずき",
    "kana": "デイジムハナミズキ",
    "address": "佐賀県佐賀市本庄町本庄3-1",
    "lat": 33.2387615,
    "lng": 130.297335,
    "tel": "0952-37-8526",
    "url": "https://kanpo-jp.net/hanamizuki/",
    "pref": "佐賀県",
    "city": "佐賀市",
    "category": "day_service",
    "serviceType": "通所介護",
    "capacity": null,
    "openDays": [
      "平日",
      "祝日"
    ],
    "openDaysNote": ""
  },
  {
    "id": "4170102547",
    "name": "デイサービス　アイケア佐賀",
    "kana": "デイサービス　アイケア　サガ",
    "address": "佐賀県佐賀市木原1丁目24番39号",
    "lat": 33.243530801246,
    "lng": 130.316202583467,
    "tel": "0952-27-8555",
    "url": "http://www.ikk-grp.jp",
    "pref": "佐賀県",
    "city": "佐賀市",
    "category": "day_service",
    "serviceType": "通所介護",
    "capacity": 0,
    "openDays": [
      "平日",
      "土曜日",
      "日曜日",
      "祝日"
    ],
    "openDaysNote": ""
  },
  {
    "id": "4170102646",
    "name": "デイサービス　あかね",
    "kana": "デイサービス　アカネ",
    "address": "佐賀県佐賀市川副町大字南里1197-8",
    "lat": 33.2201948,
    "lng": 130.3129102,
    "tel": "0952-46-0010",
    "url": "",
    "pref": "佐賀県",
    "city": "佐賀市",
    "category": "day_service",
    "serviceType": "通所介護",
    "capacity": 60,
    "openDays": [
      "平日",
      "土曜日",
      "日曜日",
      "祝日"
    ],
    "openDaysNote": ""
  },
  {
    "id": "4170102216",
    "name": "デイサービス　オリーブの苑",
    "kana": "デイサービス　オリーブノソノ",
    "address": "佐賀県佐賀市大和町大字久池井１５２１－５オリーブの苑 オリーブの苑",
    "lat": 33.3248539,
    "lng": 130.2885679,
    "tel": "0952-62-8125",
    "url": ":http://rosaryo.jp/",
    "pref": "佐賀県",
    "city": "佐賀市",
    "category": "day_service",
    "serviceType": "通所介護",
    "capacity": 23,
    "openDays": [
      "平日",
      "土曜日",
      "祝日"
    ],
    "openDaysNote": ""
  },
  {
    "id": "4170102935",
    "name": "デイサービス　カームの里",
    "kana": "デイサービス　カームノサト",
    "address": "佐賀県佐賀市富士町大字上熊川337番地4",
    "lat": 33.3630806,
    "lng": 130.235593,
    "tel": "0952-51-0777",
    "url": "",
    "pref": "佐賀県",
    "city": "佐賀市",
    "category": "day_service",
    "serviceType": "通所介護",
    "capacity": 20,
    "openDays": [
      "平日",
      "土曜日",
      "祝日"
    ],
    "openDaysNote": ""
  },
  {
    "id": "4170103172",
    "name": "デイサービス　かがやき",
    "kana": "デイサービス　カガヤキ",
    "address": "佐賀県高木瀬町大字長瀬1910-1",
    "lat": 33.2931072,
    "lng": 130.2922686,
    "tel": "0952-37-1097",
    "url": "",
    "pref": "佐賀県",
    "city": "佐賀市",
    "category": "day_service",
    "serviceType": "通所介護",
    "capacity": 0,
    "openDays": [
      "平日",
      "土曜日",
      "祝日"
    ],
    "openDaysNote": ""
  },
  {
    "id": "4170101499",
    "name": "デイサービス　かわそえ",
    "kana": "デイサービス　カワソエ",
    "address": "佐賀市川副町南里３６７－１有料老人ホーム　かわそえ 有料老人ホーム　かわそえ",
    "lat": 33.2122206,
    "lng": 130.312352,
    "tel": "0952-45-3930",
    "url": "http://paradis-care.jp/",
    "pref": "佐賀県",
    "city": "佐賀市",
    "category": "day_service",
    "serviceType": "通所介護",
    "capacity": 25,
    "openDays": [
      "平日",
      "土曜日",
      "日曜日",
      "祝日"
    ],
    "openDaysNote": ""
  },
  {
    "id": "4170101713",
    "name": "デイサービス　きらめき",
    "kana": "デイサービス　キラメキ",
    "address": "神野東４－８－１５",
    "lat": 33.2686426,
    "lng": 130.2990021,
    "tel": "0952-36-5755",
    "url": "",
    "pref": "佐賀県",
    "city": "佐賀市",
    "category": "day_service",
    "serviceType": "通所介護",
    "capacity": 0,
    "openDays": [
      "平日",
      "土曜日",
      "日曜日",
      "祝日"
    ],
    "openDaysNote": ""
  },
  {
    "id": "4170103123",
    "name": "デイサービス　きらめき新郷",
    "kana": "デイサービスキラメキシンゴウ",
    "address": "佐賀県佐賀市新郷本町23番地21号",
    "lat": 33.2330118,
    "lng": 130.3224215,
    "tel": "0952-37-1196",
    "url": "s-kirameki@villagehills.jp",
    "pref": "佐賀県",
    "city": "佐賀市",
    "category": "day_service",
    "serviceType": "通所介護",
    "capacity": 0,
    "openDays": [
      "平日",
      "土曜日",
      "日曜日",
      "祝日"
    ],
    "openDaysNote": ""
  },
  {
    "id": "4170101606",
    "name": "デイサービス　クローバー",
    "kana": "デイサービス　クローバー",
    "address": "佐賀市高木瀬町大字長瀬１２４０番地１",
    "lat": 33.2931873,
    "lng": 130.2825026,
    "tel": "0952-36-7222",
    "url": "",
    "pref": "佐賀県",
    "city": "佐賀市",
    "category": "day_service",
    "serviceType": "通所介護",
    "capacity": 25,
    "openDays": [
      "平日",
      "土曜日",
      "祝日"
    ],
    "openDaysNote": "年末年始　１２月３１日～１月３日　まで休日"
  },
  {
    "id": "4170101309",
    "name": "デイサービス　ケアビレッジ夢咲",
    "kana": "デイサービス　ケアビレッジユメサキ",
    "address": "佐賀県佐賀市兵庫北六丁目2-23",
    "lat": 33.2733454,
    "lng": 130.3119035,
    "tel": "0952-20-0501",
    "url": "",
    "pref": "佐賀県",
    "city": "佐賀市",
    "category": "day_service",
    "serviceType": "通所介護",
    "capacity": 10,
    "openDays": [
      "平日",
      "土曜日",
      "祝日"
    ],
    "openDaysNote": "当事業所電話対応可能時間　8：30～19：00"
  },
  {
    "id": "4170101473",
    "name": "デイサービス　ケアポート晴寿",
    "kana": "デイサービス　ケアポートセイジュ",
    "address": "佐賀県佐賀市高木瀬町東高木1170番",
    "lat": 33.287116,
    "lng": 130.299782,
    "tel": "0952-20-6511",
    "url": "http://www.seijyukai.com/",
    "pref": "佐賀県",
    "city": "佐賀市",
    "category": "day_service",
    "serviceType": "通所介護",
    "capacity": 0,
    "openDays": [
      "平日",
      "土曜日",
      "祝日"
    ],
    "openDaysNote": ""
  },
  {
    "id": "4110114446",
    "name": "デイサービス　げんき",
    "kana": "デイサービス　ゲンキ",
    "address": "佐賀県佐賀市開成１丁目４－２",
    "lat": 33.2681837,
    "lng": 130.2785564,
    "tel": "090-5486-2078",
    "url": "http://www.nagaenaika.jp/",
    "pref": "佐賀県",
    "city": "佐賀市",
    "category": "day_service",
    "serviceType": "通所介護",
    "capacity": 20,
    "openDays": [
      "平日",
      "土曜日",
      "祝日"
    ],
    "openDaysNote": ""
  },
  {
    "id": "4170100848",
    "name": "デイサービス　サンライズ",
    "kana": "デイサービス　サンライズ",
    "address": "佐賀市神野東３－３－６",
    "lat": 33.2675148,
    "lng": 130.2953246,
    "tel": "0952-30-1245",
    "url": "",
    "pref": "佐賀県",
    "city": "佐賀市",
    "category": "day_service",
    "serviceType": "通所介護",
    "capacity": 0,
    "openDays": [
      "平日"
    ],
    "openDaysNote": ""
  },
  {
    "id": "4170103370",
    "name": "デイサービス　ディーフェスタ東与賀",
    "kana": "デイサービス　ディーフェスタヒガシヨカ",
    "address": "東与賀町飯盛224-1ディーフェスタ東与賀 ディーフェスタ東与賀",
    "lat": 33.2137778,
    "lng": 130.2850935,
    "tel": "0952-34-7750",
    "url": "https://www.daiwaliving-care.co.jp/",
    "pref": "佐賀県",
    "city": "佐賀市",
    "category": "day_service",
    "serviceType": "通所介護",
    "capacity": 60,
    "openDays": [
      "平日",
      "土曜日",
      "日曜日",
      "祝日"
    ],
    "openDaysNote": "※日曜は不定期営業（月１回程度)"
  },
  {
    "id": "4171000245",
    "name": "デイサービス　ひかりの里",
    "kana": "デイサービス　ヒカリノサト",
    "address": "佐賀県佐賀市川副町鹿江865-7",
    "lat": 33.1911506,
    "lng": 130.3161686,
    "tel": "0952-45-3797",
    "url": "",
    "pref": "佐賀県",
    "city": "佐賀市",
    "category": "day_service",
    "serviceType": "通所介護",
    "capacity": 20,
    "openDays": [
      "平日",
      "土曜日",
      "日曜日",
      "祝日"
    ],
    "openDaysNote": "祝日は営業。"
  },
  {
    "id": "4170102448",
    "name": "デイサービス　ふくろ",
    "kana": "デイサービス　フクロ",
    "address": "佐賀県佐賀市本庄町大字袋１６７－２介護複合施設ふくろ 介護複合施設ふくろ",
    "lat": 33.2377112010352,
    "lng": 130.305402903093,
    "tel": "0952-37-8490",
    "url": "http://www.fukuro-care.co.jp",
    "pref": "佐賀県",
    "city": "佐賀市",
    "category": "day_service",
    "serviceType": "通所介護",
    "capacity": 20,
    "openDays": [
      "平日",
      "土曜日",
      "祝日"
    ],
    "openDaysNote": "１２月３０日～１月２日の年末年始は休業日とする。"
  },
  {
    "id": "4171000237",
    "name": "デイサービス　もみじ",
    "kana": "デイサービス　モミジ",
    "address": "佐賀県佐賀市川副町大字早津江津370-1",
    "lat": 33.2071937,
    "lng": 130.3380051,
    "tel": "0952-34-7374",
    "url": "http://www.",
    "pref": "佐賀県",
    "city": "佐賀市",
    "category": "day_service",
    "serviceType": "通所介護",
    "capacity": null,
    "openDays": [
      "平日",
      "土曜日",
      "祝日"
    ],
    "openDaysNote": ""
  },
  {
    "id": "4170101242",
    "name": "デイサービス　やまと",
    "kana": "デイサービス　ヤマト",
    "address": "佐賀市大和町大字久池井1943番地",
    "lat": 33.3173852,
    "lng": 130.2841129,
    "tel": "0952-51-2651",
    "url": "",
    "pref": "佐賀県",
    "city": "佐賀市",
    "category": "day_service",
    "serviceType": "通所介護",
    "capacity": 0,
    "openDays": [
      "平日",
      "土曜日",
      "日曜日",
      "祝日"
    ],
    "openDaysNote": ""
  },
  {
    "id": "4170101689",
    "name": "デイサービス　円花",
    "kana": "デイサービス　マドカ",
    "address": "佐賀市北川副町大字光法943-6",
    "lat": 33.2443368621976,
    "lng": 130.331433619791,
    "tel": "0952-20-1020",
    "url": "http://paradis-care.jp/",
    "pref": "佐賀県",
    "city": "佐賀市",
    "category": "day_service",
    "serviceType": "通所介護",
    "capacity": 0,
    "openDays": [
      "平日",
      "土曜日",
      "日曜日",
      "祝日"
    ],
    "openDaysNote": ""
  },
  {
    "id": "4170101721",
    "name": "デイサービス　東与賀",
    "kana": "デイサービス　ヒガシヨカ",
    "address": "佐賀市東与賀町大字飯盛2-5",
    "lat": 33.2228828,
    "lng": 130.2827771,
    "tel": "0952-45-1717",
    "url": "",
    "pref": "佐賀県",
    "city": "佐賀市",
    "category": "day_service",
    "serviceType": "通所介護",
    "capacity": 19,
    "openDays": [
      "平日",
      "土曜日",
      "日曜日",
      "祝日"
    ],
    "openDaysNote": "定休日の相談あり"
  },
  {
    "id": "4170101846",
    "name": "デイサービス　白百合",
    "kana": "デイサービス　シラユリ",
    "address": "佐賀市川副町大字南里１１９７番地２デイサービス白百合 デイサービス白百合",
    "lat": 33.2201948,
    "lng": 130.3129102,
    "tel": "０９５２－４５－５１０１",
    "url": "http://www6.ocn.ne.jp/~index.html",
    "pref": "佐賀県",
    "city": "佐賀市",
    "category": "day_service",
    "serviceType": "通所介護",
    "capacity": 65,
    "openDays": [
      "平日"
    ],
    "openDaysNote": ""
  },
  {
    "id": "4170103008",
    "name": "デイサービスＳｏｌａ",
    "kana": "デイサービスソラ",
    "address": "佐賀県佐賀市久保泉町大字川久保字赤井手２２２５番地１",
    "lat": 53.41291,
    "lng": -8.24388999999996,
    "tel": "0952-37-0678",
    "url": "",
    "pref": "佐賀県",
    "city": "佐賀市",
    "category": "day_service",
    "serviceType": "通所介護",
    "capacity": 0,
    "openDays": [
      "平日",
      "土曜日",
      "日曜日",
      "祝日"
    ],
    "openDaysNote": "年末年始の相談に応じます"
  },
  {
    "id": "4170103776",
    "name": "デイサービスあいあい",
    "kana": "デイサービス　アイアイ",
    "address": "佐賀県佐賀市諸富町大字山領1148番地1有料老人ホーム＆デイサービス　あいあい 有料老人ホーム＆デイサービス　あいあい",
    "lat": 33.2311481,
    "lng": 130.3341017,
    "tel": "0952-20-2281",
    "url": "",
    "pref": "佐賀県",
    "city": "佐賀市",
    "category": "day_service",
    "serviceType": "通所介護",
    "capacity": null,
    "openDays": [
      "平日",
      "土曜日",
      "日曜日"
    ],
    "openDaysNote": ""
  },
  {
    "id": "4170102489",
    "name": "デイサービスあいさぽ",
    "kana": "デイサービスアイサポ",
    "address": "久保田町大字新田3427番地3",
    "lat": 33.2251657752272,
    "lng": 130.249116237434,
    "tel": "0952-68-5170",
    "url": "",
    "pref": "佐賀県",
    "city": "佐賀市",
    "category": "day_service",
    "serviceType": "通所介護",
    "capacity": 30,
    "openDays": [
      "平日",
      "土曜日",
      "日曜日",
      "祝日"
    ],
    "openDaysNote": ""
  },
  {
    "id": "4170102604",
    "name": "デイサービスいしいび",
    "kana": "デイサービスイシイビ",
    "address": "佐賀県佐賀市大和町大字尼寺3227番地1",
    "lat": 33.3024226,
    "lng": 130.2758333,
    "tel": "0952-62-3100",
    "url": "http;//www.fjok-hsp.com/ishiibinoyakata",
    "pref": "佐賀県",
    "city": "佐賀市",
    "category": "day_service",
    "serviceType": "通所介護",
    "capacity": 20,
    "openDays": [
      "平日"
    ],
    "openDaysNote": ""
  },
  {
    "id": "4170101986",
    "name": "デイサービスきらり",
    "kana": "デイサービスキラリ",
    "address": "佐賀県佐賀市川副町南里３４０－３",
    "lat": 33.2118765355673,
    "lng": 130.314170052779,
    "tel": "0952-37-8008",
    "url": "",
    "pref": "佐賀県",
    "city": "佐賀市",
    "category": "day_service",
    "serviceType": "通所介護",
    "capacity": 0,
    "openDays": [
      "平日",
      "土曜日",
      "日曜日",
      "祝日"
    ],
    "openDaysNote": ""
  },
  {
    "id": "4170103255",
    "name": "デイサービスしあわせ工房神園",
    "kana": "デイサービス　シアワセコウボウカミゾノ",
    "address": "神園四丁目7番3号",
    "lat": 33.2700568,
    "lng": 130.2820192,
    "tel": "0952-36-7555",
    "url": "",
    "pref": "佐賀県",
    "city": "佐賀市",
    "category": "day_service",
    "serviceType": "通所介護",
    "capacity": 35,
    "openDays": [
      "平日",
      "祝日"
    ],
    "openDaysNote": "祝祭日やお盆は通常通り営業いたします。"
  },
  {
    "id": "4170102174",
    "name": "デイサービスセンター　イコロの家　昇開橋",
    "kana": "デイサービスセンター　イコロノイエ　ショウカイキョウ",
    "address": "佐賀市諸富町大字徳富19-1",
    "lat": 33.218468,
    "lng": 130.3647855,
    "tel": "0952-47-9065",
    "url": "http://www.souseikai.or.jp/",
    "pref": "佐賀県",
    "city": "佐賀市",
    "category": "day_service",
    "serviceType": "通所介護",
    "capacity": 0,
    "openDays": [
      "平日",
      "祝日"
    ],
    "openDaysNote": "祝祭日は営業"
  },
  {
    "id": "4170102372",
    "name": "デイサービスセンター　さつき苑",
    "kana": "デイサービスセンターサツキエン",
    "address": "佐賀県佐賀市鍋島町大字蛎久字二本松1377-5",
    "lat": 33.2776135,
    "lng": 130.2801921,
    "tel": "0952-36-5052",
    "url": "",
    "pref": "佐賀県",
    "city": "佐賀市",
    "category": "day_service",
    "serviceType": "通所介護",
    "capacity": 0,
    "openDays": [
      "平日",
      "土曜日",
      "祝日"
    ],
    "openDaysNote": ""
  },
  {
    "id": "4170101960",
    "name": "デイサービスセンター　シニアライフ佐賀",
    "kana": "デイサービスセンター　シニアライフサガ",
    "address": "佐賀県佐賀市高木瀬町大字長瀬1245番地1有料老人ホームシニアライフ佐賀 有料老人ホームシニアライフ佐賀",
    "lat": 33.2923429,
    "lng": 130.282511,
    "tel": "0952-37-8206",
    "url": "sagakita.com",
    "pref": "佐賀県",
    "city": "佐賀市",
    "category": "day_service",
    "serviceType": "通所介護",
    "capacity": 35,
    "openDays": [
      "平日",
      "土曜日",
      "日曜日",
      "祝日"
    ],
    "openDaysNote": ""
  },
  {
    "id": "4170101432",
    "name": "デイサービスセンター　レインボー川副",
    "kana": "デイサービスセンター　レインボーカワソエ",
    "address": "佐賀県佐賀市川副町鹿江９６０－１４",
    "lat": 33.1912006,
    "lng": 130.3154409,
    "tel": "0952-20-0710",
    "url": "http://www.medical-sanko.com",
    "pref": "佐賀県",
    "city": "佐賀市",
    "category": "day_service",
    "serviceType": "通所介護",
    "capacity": 30,
    "openDays": [
      "平日",
      "土曜日",
      "日曜日",
      "祝日"
    ],
    "openDaysNote": ""
  },
  {
    "id": "4170101895",
    "name": "デイサービスセンター　わいわい",
    "kana": "デイサービスセンター　ワイワイ",
    "address": "佐賀市金立町大字金立799",
    "lat": 33.3243694546722,
    "lng": 130.303496645786,
    "tel": "0952-71-8250",
    "url": "https://sakou21.jp/",
    "pref": "佐賀県",
    "city": "佐賀市",
    "category": "day_service",
    "serviceType": "通所介護",
    "capacity": 0,
    "openDays": [
      "平日",
      "日曜日",
      "祝日"
    ],
    "openDaysNote": "・土曜日以外は祝日も営業します。（改行）・12月29日から、1月3日までは、事業所（管理者）が必要と認めた場合、営業日とする事ができます。"
  },
  {
    "id": "4170102091",
    "name": "デイサービスセンター　希望川副",
    "kana": "デイサービスセンター　キボウカワソエ",
    "address": "佐賀市川副町鹿江９６０－２３",
    "lat": 33.1912006,
    "lng": 130.3154409,
    "tel": "0952-37-7458",
    "url": "http://www.medical-sanko.com",
    "pref": "佐賀県",
    "city": "佐賀市",
    "category": "day_service",
    "serviceType": "通所介護",
    "capacity": 0,
    "openDays": [
      "平日",
      "土曜日",
      "日曜日",
      "祝日"
    ],
    "openDaysNote": ""
  },
  {
    "id": "4170102307",
    "name": "デイサービスセンターいこいの里巨勢",
    "kana": "デイサービスセンターイコイノサトコセ",
    "address": "巨勢町大字牛島681-1",
    "lat": 33.2502311919961,
    "lng": 130.318832647221,
    "tel": "0952-27-0001",
    "url": "http://ikoino-sato.com",
    "pref": "佐賀県",
    "city": "佐賀市",
    "category": "day_service",
    "serviceType": "通所介護",
    "capacity": 0,
    "openDays": [
      "平日",
      "土曜日",
      "日曜日",
      "祝日"
    ],
    "openDaysNote": ""
  },
  {
    "id": "4170102208",
    "name": "デイサービスセンターきりん",
    "kana": "デイサービスセンターキリン",
    "address": "佐賀市久保泉町大字上和泉2232-1きりんアパートメント きりんアパートメント",
    "lat": 33.3043622,
    "lng": 130.3162966,
    "tel": "0952-98-3838",
    "url": "http://kirin-saga.or.jp/",
    "pref": "佐賀県",
    "city": "佐賀市",
    "category": "day_service",
    "serviceType": "通所介護",
    "capacity": 0,
    "openDays": [
      "平日",
      "土曜日",
      "祝日"
    ],
    "openDaysNote": "但し、上記営業時間外でも相談に応じる体制をとる"
  },
  {
    "id": "4171000054",
    "name": "デイサービスセンターけやき荘",
    "kana": "デイサービスセンターケヤキソウ",
    "address": "佐賀市川副町大字福富８２８－１",
    "lat": 33.2113929,
    "lng": 130.321751,
    "tel": "0952-20-8188",
    "url": "http://www.keyakisou.or.jp/",
    "pref": "佐賀県",
    "city": "佐賀市",
    "category": "day_service",
    "serviceType": "通所介護",
    "capacity": 45,
    "openDays": [
      "平日",
      "土曜日",
      "日曜日",
      "祝日"
    ],
    "openDaysNote": ""
  },
  {
    "id": "4170102042",
    "name": "ディサービスセンターてんゆう",
    "kana": "ディサービスセンターテンユウ",
    "address": "佐賀市天祐一丁目6番23-2シルバーランド天祐 シルバーランド天祐",
    "lat": 33.2576378275164,
    "lng": 130.281948934212,
    "tel": "0952-27-7060",
    "url": "",
    "pref": "佐賀県",
    "city": "佐賀市",
    "category": "day_service",
    "serviceType": "通所介護",
    "capacity": 30,
    "openDays": [
      "平日",
      "土曜日",
      "日曜日",
      "祝日"
    ],
    "openDaysNote": ""
  },
  {
    "id": "4170101929",
    "name": "デイサービスセンターひだまり",
    "kana": "デイサービスセンターヒダマリ",
    "address": "佐賀市金立町千布3898-6有料老人ホーム　ひだまり 有料老人ホーム　ひだまり",
    "lat": 33.300553887141,
    "lng": 130.297536882725,
    "tel": "0952-98-2433",
    "url": "hidamari-saga.com",
    "pref": "佐賀県",
    "city": "佐賀市",
    "category": "day_service",
    "serviceType": "通所介護",
    "capacity": 0,
    "openDays": [
      "平日",
      "土曜日",
      "日曜日",
      "祝日"
    ],
    "openDaysNote": ""
  },
  {
    "id": "4170102398",
    "name": "デイサービスセンターひだまり久保田館",
    "kana": "デイサービスセンターヒダマリクボタカン",
    "address": "佐賀市久保田町大字徳万2117-2有料老人ホームひだまり久保田館 有料老人ホームひだまり久保田館",
    "lat": 33.2486855663862,
    "lng": 130.23771477896,
    "tel": "0952-37-5133",
    "url": "https://hiamari-saga.com/",
    "pref": "佐賀県",
    "city": "佐賀市",
    "category": "day_service",
    "serviceType": "通所介護",
    "capacity": 30,
    "openDays": [
      "平日",
      "土曜日",
      "日曜日",
      "祝日"
    ],
    "openDaysNote": ""
  },
  {
    "id": "4170101903",
    "name": "デイサービスセンター高木瀬",
    "kana": "デイサービスセンタータカギセ",
    "address": "佐賀市高木瀬町大字東高木239-9",
    "lat": 33.2758452027789,
    "lng": 130.30020632209,
    "tel": "0952-20-5611",
    "url": "siniaho-mutakagise@celery.ocn.ne.jp",
    "pref": "佐賀県",
    "city": "佐賀市",
    "category": "day_service",
    "serviceType": "通所介護",
    "capacity": 5,
    "openDays": [
      "平日",
      "土曜日",
      "祝日"
    ],
    "openDaysNote": ""
  },
  {
    "id": "4170102588",
    "name": "デイサービスセンター佐賀",
    "kana": "デイサービスセンターサガ",
    "address": "佐賀県佐賀市高木瀬町大字長瀬1156-1デイサービスセンター佐賀 デイサービスセンター佐賀",
    "lat": 33.2927328074313,
    "lng": 130.284636317969,
    "tel": "0952-36-8550",
    "url": "",
    "pref": "佐賀県",
    "city": "佐賀市",
    "category": "day_service",
    "serviceType": "通所介護",
    "capacity": 30,
    "openDays": [
      "平日",
      "土曜日",
      "祝日"
    ],
    "openDaysNote": "年末年始（12月31日～1月3日）は休みだが、お風呂等利用の要望により営業日数を増やす事がある。"
  },
  {
    "id": "4170102422",
    "name": "デイサービスたかハウス昭栄",
    "kana": "デイサービスタカハウスショウエイ",
    "address": "佐賀市長瀬町5番地54号",
    "lat": 33.2488356,
    "lng": 130.281518,
    "tel": "0952-29-7681",
    "url": "https://fukushi-net-service.com/",
    "pref": "佐賀県",
    "city": "佐賀市",
    "category": "day_service",
    "serviceType": "通所介護",
    "capacity": 25,
    "openDays": [
      "平日",
      "土曜日",
      "祝日"
    ],
    "openDaysNote": "8/14,15　　12/30-1/3　お休みします。"
  },
  {
    "id": "4170102802",
    "name": "ディサービスたま",
    "kana": "デイサービスタマ",
    "address": "佐賀県佐賀市北川副町大字光法735-1番地",
    "lat": 33.2464191634734,
    "lng": 130.334798205557,
    "tel": "0952-97-1065",
    "url": "https://dansi.jimdosite.com/",
    "pref": "佐賀県",
    "city": "佐賀市",
    "category": "day_service",
    "serviceType": "通所介護",
    "capacity": 0,
    "openDays": [
      "平日",
      "土曜日",
      "祝日"
    ],
    "openDaysNote": "台風などの自然災害発生時は、事前に休みの連絡をいたします"
  },
  {
    "id": "4170102182",
    "name": "デイサービスながせ",
    "kana": "デイサービスナガセ",
    "address": "佐賀県佐賀市長瀬町5-21",
    "lat": 33.2498105,
    "lng": 130.2831262,
    "tel": "0952-37-7500",
    "url": "nagase37-7500",
    "pref": "佐賀県",
    "city": "佐賀市",
    "category": "day_service",
    "serviceType": "通所介護",
    "capacity": 0,
    "openDays": [
      "平日",
      "土曜日",
      "祝日"
    ],
    "openDaysNote": ""
  },
  {
    "id": "4170103453",
    "name": "デイサービスほうむ大詫間",
    "kana": "デイサービスホウムオオダクマ",
    "address": "佐賀県佐賀市川副町大字大詫間620",
    "lat": 33.1783444,
    "lng": 130.3424938,
    "tel": "0952‐37‐9148",
    "url": "",
    "pref": "佐賀県",
    "city": "佐賀市",
    "category": "day_service",
    "serviceType": "通所介護",
    "capacity": 25,
    "openDays": [
      "平日",
      "土曜日",
      "日曜日",
      "祝日"
    ],
    "openDaysNote": ""
  },
  {
    "id": "4171000286",
    "name": "デイサービスゆうゆう",
    "kana": "デイサービスユウユウ",
    "address": "佐賀市大和町大字久池井１０２０－７",
    "lat": 33.3196037647417,
    "lng": 130.293745477524,
    "tel": "０９５２－６４－９４６０",
    "url": "",
    "pref": "佐賀県",
    "city": "佐賀市",
    "category": "day_service",
    "serviceType": "通所介護",
    "capacity": 0,
    "openDays": [
      "平日",
      "土曜日",
      "祝日"
    ],
    "openDaysNote": ""
  },
  {
    "id": "4170103149",
    "name": "デイサービスよからいふ",
    "kana": "デイサービスヨカライフ",
    "address": "川副町大字犬井道８９２番地１",
    "lat": 33.1881974459115,
    "lng": 130.316393903705,
    "tel": "0952-45-2888",
    "url": "",
    "pref": "佐賀県",
    "city": "佐賀市",
    "category": "day_service",
    "serviceType": "通所介護",
    "capacity": 50,
    "openDays": [
      "平日",
      "土曜日",
      "祝日"
    ],
    "openDaysNote": "年末年始（12/31～1/3）については休みとする"
  },
  {
    "id": "4170102356",
    "name": "デイサービス縁結び",
    "kana": "デイサービスエンムスビ",
    "address": "佐賀県佐賀市伊勢町11番9号",
    "lat": 33.2525363589268,
    "lng": 130.291581742328,
    "tel": "0952-20-2299",
    "url": "http://www.osewa.jp/",
    "pref": "佐賀県",
    "city": "佐賀市",
    "category": "day_service",
    "serviceType": "通所介護",
    "capacity": 0,
    "openDays": [
      "平日",
      "土曜日",
      "日曜日",
      "祝日"
    ],
    "openDaysNote": ""
  },
  {
    "id": "4170102240",
    "name": "デイサービス花みずき",
    "kana": "デイサービスハナミズキ",
    "address": "佐賀市巨勢町牛島３９７－１１住宅型有料老人ホーム花みずき 住宅型有料老人ホーム花みずき",
    "lat": 33.2537501,
    "lng": 130.318623,
    "tel": "０９５２－２３－２０２３",
    "url": "www.nakao-c.com/hanamizuki/",
    "pref": "佐賀県",
    "city": "佐賀市",
    "category": "day_service",
    "serviceType": "通所介護",
    "capacity": 0,
    "openDays": [
      "平日",
      "土曜日",
      "祝日"
    ],
    "openDaysNote": ""
  },
  {
    "id": "4170100855",
    "name": "ディサービス華",
    "kana": "デイサービスハナ",
    "address": "佐賀市久保泉町大字川久保２１２０番地７",
    "lat": 33.324116,
    "lng": 130.3178926,
    "tel": "0952-71-8370",
    "url": "http://friendly-hana.com",
    "pref": "佐賀県",
    "city": "佐賀市",
    "category": "day_service",
    "serviceType": "通所介護",
    "capacity": 0,
    "openDays": [
      "平日",
      "土曜日",
      "日曜日",
      "祝日"
    ],
    "openDaysNote": "盆、年末、正月など利用の相談に応じます。"
  },
  {
    "id": "4170100558",
    "name": "デイサービス美則",
    "kana": "デイサービスミノリ",
    "address": "佐賀市若宮1-17-65",
    "lat": 33.2723010863838,
    "lng": 130.290004364205,
    "tel": "0952-34-4322",
    "url": "",
    "pref": "佐賀県",
    "city": "佐賀市",
    "category": "day_service",
    "serviceType": "通所介護",
    "capacity": 0,
    "openDays": [
      "平日",
      "土曜日",
      "祝日"
    ],
    "openDaysNote": "365日問い合わせや連絡は可能"
  },
  {
    "id": "4170103271",
    "name": "デイサービス陽なたぼっこ",
    "kana": "デイサービスヒナタボッコ",
    "address": "佐賀県佐賀市高木瀬町長瀬1192-3",
    "lat": 33.2939513,
    "lng": 130.2864995,
    "tel": "0952-60-6247",
    "url": "https://www.c-pro.jp",
    "pref": "佐賀県",
    "city": "佐賀市",
    "category": "day_service",
    "serviceType": "通所介護",
    "capacity": null,
    "openDays": [
      "平日",
      "土曜日",
      "日曜日",
      "祝日"
    ],
    "openDaysNote": ""
  },
  {
    "id": "4171000278",
    "name": "デイホーム家族",
    "kana": "デイホームカゾク",
    "address": "佐賀県佐賀市久保田町大字徳万2489-3",
    "lat": 33.239135770731,
    "lng": 130.239142476868,
    "tel": "0952-68-4415",
    "url": "",
    "pref": "佐賀県",
    "city": "佐賀市",
    "category": "day_service",
    "serviceType": "通所介護",
    "capacity": 30,
    "openDays": [
      "平日",
      "土曜日",
      "日曜日",
      "祝日"
    ],
    "openDaysNote": ""
  },
  {
    "id": "4171000047",
    "name": "なごみ荘デイサービスセンター",
    "kana": "ナゴミソウデイサービスセンター",
    "address": "佐賀県佐賀市富士町大字小副川562",
    "lat": 33.3650880864197,
    "lng": 130.24395373373,
    "tel": "0952-64-2314",
    "url": "https://www.kenjyu-nagomi.jp",
    "pref": "佐賀県",
    "city": "佐賀市",
    "category": "day_service",
    "serviceType": "通所介護",
    "capacity": 0,
    "openDays": [
      "平日",
      "土曜日",
      "祝日"
    ],
    "openDaysNote": ""
  },
  {
    "id": "4170102323",
    "name": "ﾆﾁｲｹｱｾﾝﾀｰ久保田",
    "kana": "ニチイケアセンタークボタ",
    "address": "佐賀市久保田町大字徳万345番地6",
    "lat": 33.2472039,
    "lng": 130.2388519,
    "tel": "0952-51-3100",
    "url": "ｈｓｔP57@nichiigakkan.co.jp",
    "pref": "佐賀県",
    "city": "佐賀市",
    "category": "day_service",
    "serviceType": "通所介護",
    "capacity": 35,
    "openDays": [
      "平日",
      "土曜日",
      "日曜日",
      "祝日"
    ],
    "openDaysNote": ""
  },
  {
    "id": "4170100319",
    "name": "ニチイケアセンターさが",
    "kana": "ニチイケアセンターサガ",
    "address": "佐賀県佐賀市鍋島３丁目１４番２８号",
    "lat": 33.2800741,
    "lng": 130.2641596,
    "tel": "0952-34-5535",
    "url": "http://www.nichiigakkan.cojp",
    "pref": "佐賀県",
    "city": "佐賀市",
    "category": "day_service",
    "serviceType": "通所介護",
    "capacity": 32,
    "openDays": [
      "平日",
      "土曜日",
      "祝日"
    ],
    "openDaysNote": ""
  },
  {
    "id": "4170100772",
    "name": "ニチイケアセンター佐賀みなみ",
    "kana": "ニチイケアセンターサガミナミ",
    "address": "佐賀県佐賀市本庄町袋142-1",
    "lat": 33.2377178,
    "lng": 130.303272,
    "tel": "0952-27-7736",
    "url": "http://www.nichiigakkan.co.jp",
    "pref": "佐賀県",
    "city": "佐賀市",
    "category": "day_service",
    "serviceType": "通所介護",
    "capacity": 48,
    "openDays": [
      "平日",
      "土曜日",
      "日曜日",
      "祝日"
    ],
    "openDaysNote": ""
  },
  {
    "id": "4170101887",
    "name": "リーガルデイサービスセンター",
    "kana": "リーガルデイサービスセンター",
    "address": "佐賀県佐賀市大和町池上1894－1",
    "lat": 33.2910842,
    "lng": 130.2501686,
    "tel": "0952-97-7152",
    "url": "http://hyu-mu.jp/",
    "pref": "佐賀県",
    "city": "佐賀市",
    "category": "day_service",
    "serviceType": "通所介護",
    "capacity": 30,
    "openDays": [
      "平日",
      "土曜日",
      "祝日"
    ],
    "openDaysNote": "時間延長なし。※火曜日のみ９時15分～15時３０分まで"
  },
  {
    "id": "4170102786",
    "name": "リハビリデイ　花みずき",
    "kana": "リハビリデイ　ハナミズキ",
    "address": "佐賀県佐賀市本庄町大字袋256-1ファインビューＳＡＧＡ　1階 ファインビューＳＡＧＡ　1階",
    "lat": 33.2392300886282,
    "lng": 130.308456570348,
    "tel": "0952-23-3323",
    "url": "http://www.nakao-c.com/hanamizuki/",
    "pref": "佐賀県",
    "city": "佐賀市",
    "category": "day_service",
    "serviceType": "通所介護",
    "capacity": 45,
    "openDays": [
      "平日",
      "土曜日",
      "祝日"
    ],
    "openDaysNote": ""
  },
  {
    "id": "4171000013",
    "name": "ロザリオの園　デイサービスセンター",
    "kana": "ロザリオノソノ　デイサービスセンター",
    "address": "佐賀市大和町大字久池井1386-2",
    "lat": 33.3257233,
    "lng": 130.2881707,
    "tel": "0952-62-3838",
    "url": "http://www.rosaryo.jp/",
    "pref": "佐賀県",
    "city": "佐賀市",
    "category": "day_service",
    "serviceType": "通所介護",
    "capacity": 30,
    "openDays": [
      "平日",
      "土曜日",
      "祝日"
    ],
    "openDaysNote": "カレンダーの状況により１月１日～３日休む場合あり。"
  },
  {
    "id": "4170100129",
    "name": "開成デイサービスセンター",
    "kana": "カイセイデイサービスセンター",
    "address": "佐賀市鍋島町森田27-5",
    "lat": 33.2673836,
    "lng": 130.270518,
    "tel": "0952-32-1730",
    "url": "http://www.scshakyou.jp/",
    "pref": "佐賀県",
    "city": "佐賀市",
    "category": "day_service",
    "serviceType": "通所介護",
    "capacity": 25,
    "openDays": [
      "平日",
      "祝日"
    ],
    "openDaysNote": "台風や大雨などで利用者が危険にさらされると判断した場合は営業を時短で提供したり中止する。"
  },
  {
    "id": "4170100111",
    "name": "扇寿荘指定通所介護センタ－",
    "kana": "センジュソウシテイツウショカイゴセンタ-",
    "address": "佐賀県佐賀市嘉瀬町大字中原2585",
    "lat": 33.2395133,
    "lng": 130.2537957,
    "tel": "0952-28-6166",
    "url": "",
    "pref": "佐賀県",
    "city": "佐賀市",
    "category": "day_service",
    "serviceType": "通所介護",
    "capacity": 0,
    "openDays": [
      "平日",
      "土曜日",
      "祝日"
    ],
    "openDaysNote": ""
  },
  {
    "id": "4170101044",
    "name": "通所介護　　春庵",
    "kana": "ツウショカイゴ　シュンアン",
    "address": "佐賀市鍋島町蛎久１３１３番地",
    "lat": 33.2879155,
    "lng": 130.2805779,
    "tel": "0952-31-0760",
    "url": "http://www.2006shunan.sakura.ne.jp",
    "pref": "佐賀県",
    "city": "佐賀市",
    "category": "day_service",
    "serviceType": "通所介護",
    "capacity": 0,
    "openDays": [
      "平日",
      "土曜日",
      "祝日"
    ],
    "openDaysNote": ""
  },
  {
    "id": "4170102612",
    "name": "通所介護事業所　SINみらい",
    "kana": "ツウショカイゴジギョウショ　シンミライ",
    "address": "佐賀県佐賀市本庄町大字末次４2－１",
    "lat": 33.2340028,
    "lng": 130.3023412,
    "tel": "0952-27-5178",
    "url": "http://www.sincere.or.jp",
    "pref": "佐賀県",
    "city": "佐賀市",
    "category": "day_service",
    "serviceType": "通所介護",
    "capacity": 50,
    "openDays": [
      "平日",
      "土曜日",
      "日曜日",
      "祝日"
    ],
    "openDaysNote": ""
  },
  {
    "id": "4170103214",
    "name": "通所介護事業所　SINみらい大輪",
    "kana": "ツウショカイゴジギョウショ　SINミライ大輪オオリン",
    "address": "佐賀県佐賀市本庄町末次41番地1",
    "lat": 33.2343411398903,
    "lng": 130.302271018385,
    "tel": "0952-27-5178",
    "url": "http://sincere.or.jp",
    "pref": "佐賀県",
    "city": "佐賀市",
    "category": "day_service",
    "serviceType": "通所介護",
    "capacity": 0,
    "openDays": [
      "平日",
      "土曜日",
      "祝日"
    ],
    "openDaysNote": ""
  },
  {
    "id": "4170101051",
    "name": "通所介護事業所　オリーブ",
    "kana": "ツウショカイゴジギョウショ　オリーブ",
    "address": "佐賀県佐賀市鍋島町蛎久１０7有料老人ホーム　青空 有料老人ホーム　青空",
    "lat": 33.2799675690781,
    "lng": 130.280224286508,
    "tel": "0952－36－7782",
    "url": "",
    "pref": "佐賀県",
    "city": "佐賀市",
    "category": "day_service",
    "serviceType": "通所介護",
    "capacity": 20,
    "openDays": [
      "平日",
      "土曜日",
      "日曜日",
      "祝日"
    ],
    "openDaysNote": "台風接近時、災害発生時及び感染症発生時等は、利用者の安全を優先して休む場合もあるとする。"
  },
  {
    "id": "4171000039",
    "name": "南鴎荘デイサービスセンター",
    "kana": "ナンオウソウデイサービスセンター",
    "address": "佐賀市久保田町大字久富３４５９番地２",
    "lat": 33.2195266,
    "lng": 130.2382026,
    "tel": "0952-68-2136",
    "url": "https://www.nanousou.com",
    "pref": "佐賀県",
    "city": "佐賀市",
    "category": "day_service",
    "serviceType": "通所介護",
    "capacity": 0,
    "openDays": [
      "平日",
      "土曜日",
      "祝日"
    ],
    "openDaysNote": ""
  },
  {
    "id": "4171000062",
    "name": "福寿園デイサービスセンター",
    "kana": "フクジュエンデイサービスセンター",
    "address": "佐賀県佐賀市諸富町大字山領２１０番地４",
    "lat": 33.2228311,
    "lng": 130.3471154,
    "tel": "0952-47-6000",
    "url": "fukujukaisaga.com",
    "pref": "佐賀県",
    "city": "佐賀市",
    "category": "day_service",
    "serviceType": "通所介護",
    "capacity": 180,
    "openDays": [
      "平日",
      "土曜日",
      "祝日"
    ],
    "openDaysNote": ""
  },
  {
    "id": "4170100210",
    "name": "福生苑デイサービスセンター",
    "kana": "フクセイエンデイサービスセンター",
    "address": "佐賀県佐賀市嘉瀬町大字中原1952番地1",
    "lat": 33.242141,
    "lng": 130.2589424,
    "tel": "0952-28-1771",
    "url": "http://www.shimada.or.jp",
    "pref": "佐賀県",
    "city": "佐賀市",
    "category": "day_service",
    "serviceType": "通所介護",
    "capacity": 0,
    "openDays": [
      "平日",
      "土曜日",
      "祝日"
    ],
    "openDaysNote": ""
  },
  {
    "id": "4170102737",
    "name": "優雅縁デイサービス",
    "kana": "ユウガエンデイサービス",
    "address": "佐賀県佐賀市巨勢町大字牛島４０２番地７",
    "lat": 33.2540699565549,
    "lng": 130.319390950926,
    "tel": "0952-23-5600",
    "url": "www.kosai-g.com",
    "pref": "佐賀県",
    "city": "佐賀市",
    "category": "day_service",
    "serviceType": "通所介護",
    "capacity": 5,
    "openDays": [
      "平日",
      "土曜日",
      "日曜日",
      "祝日"
    ],
    "openDaysNote": ""
  },
  {
    "id": "4170103693",
    "name": "有料老人ホームひだまり鍋島館",
    "kana": "ユウリョウロウジンホームヒダマリナベシマカン",
    "address": "佐賀県佐賀市鍋島町八戸1969-1有料老人ホームひだまり鍋島館 有料老人ホームひだまり鍋島館",
    "lat": 33.2549932,
    "lng": 130.2692847,
    "tel": "0952-20-1733",
    "url": "http://hidamari-saga.com",
    "pref": "佐賀県",
    "city": "佐賀市",
    "category": "day_service",
    "serviceType": "通所介護",
    "capacity": null,
    "openDays": [
      "平日",
      "土曜日",
      "日曜日",
      "祝日"
    ],
    "openDaysNote": ""
  },
  {
    "id": "4170700464",
    "name": "デイサービス　おとなり",
    "kana": "デイサービス　オトナリ",
    "address": "佐賀県鹿島市大字音成甲5069番地5",
    "lat": 33.0778995590956,
    "lng": 130.142978470035,
    "tel": "0954-60-4728",
    "url": "",
    "pref": "佐賀県",
    "city": "鹿島市",
    "category": "day_service",
    "serviceType": "通所介護",
    "capacity": 0,
    "openDays": [
      "平日",
      "土曜日",
      "日曜日",
      "祝日"
    ],
    "openDaysNote": ""
  },
  {
    "id": "4170700399",
    "name": "デイサービス　ほっとすまいる・かしま",
    "kana": "デイサービス　ホットスマイル・カシマ",
    "address": "佐賀県鹿島市大字山浦168番1デイサービス　ほっとすまいる・かしま デイサービス　ほっとすまいる・かしま",
    "lat": 33.0937631824051,
    "lng": 130.096980515728,
    "tel": "0954-68-0711",
    "url": "https://bso16354.bsj.jp/",
    "pref": "佐賀県",
    "city": "鹿島市",
    "category": "day_service",
    "serviceType": "通所介護",
    "capacity": 30,
    "openDays": [
      "平日",
      "土曜日",
      "日曜日",
      "祝日"
    ],
    "openDaysNote": ""
  },
  {
    "id": "4170700258",
    "name": "デイサービス　花水木",
    "kana": "デイサービス　ハナミズキ",
    "address": "佐賀県鹿島市大字中村２１８７番地１",
    "lat": 33.1188637,
    "lng": 130.0967748,
    "tel": "0954-68-0070",
    "url": "https://shidahp.com/",
    "pref": "佐賀県",
    "city": "鹿島市",
    "category": "day_service",
    "serviceType": "通所介護",
    "capacity": 0,
    "openDays": [
      "平日",
      "土曜日",
      "祝日"
    ],
    "openDaysNote": "※年始、災害発生時等はお休みすることがあります。"
  },
  {
    "id": "4170700449",
    "name": "デイサービス　結の舟",
    "kana": "デイサービス　ユイノフネ",
    "address": "佐賀県鹿島市浜町８９２番地１",
    "lat": 33.0923779,
    "lng": 130.1181707,
    "tel": "0954-69-1165",
    "url": "",
    "pref": "佐賀県",
    "city": "鹿島市",
    "category": "day_service",
    "serviceType": "通所介護",
    "capacity": 0,
    "openDays": [
      "平日",
      "土曜日",
      "日曜日",
      "祝日"
    ],
    "openDaysNote": ""
  },
  {
    "id": "4170700472",
    "name": "デイサービスてとて",
    "kana": "デイサービステトテ",
    "address": "佐賀県鹿島市大字三河内甲９６１－４",
    "lat": 33.0984665,
    "lng": 130.0775532,
    "tel": "０９５４－６９－０２８０",
    "url": "",
    "pref": "佐賀県",
    "city": "鹿島市",
    "category": "day_service",
    "serviceType": "通所介護",
    "capacity": 23,
    "openDays": [
      "平日",
      "土曜日",
      "日曜日",
      "祝日"
    ],
    "openDaysNote": ""
  },
  {
    "id": "4170700282",
    "name": "デイサービス夢の丘",
    "kana": "デイサービスユメノオカ",
    "address": "佐賀県鹿島市大字山浦字二俟甲2085-8",
    "lat": 33.1037238,
    "lng": 130.098769,
    "tel": "0954-69-5511",
    "url": "",
    "pref": "佐賀県",
    "city": "鹿島市",
    "category": "day_service",
    "serviceType": "通所介護",
    "capacity": 0,
    "openDays": [
      "平日",
      "土曜日",
      "日曜日",
      "祝日"
    ],
    "openDaysNote": ""
  },
  {
    "id": "4170700209",
    "name": "好日の園　デイサービスセンター　サンテ",
    "kana": "コウジツノソノ　デイサービスセンター　サンテ",
    "address": "鹿島市大字高津原６６７番地１",
    "lat": 33.1088343,
    "lng": 130.0953027,
    "tel": "0954-69-8228",
    "url": "https://www.koujitu.or.jp/",
    "pref": "佐賀県",
    "city": "鹿島市",
    "category": "day_service",
    "serviceType": "通所介護",
    "capacity": 0,
    "openDays": [
      "平日",
      "土曜日",
      "祝日"
    ],
    "openDaysNote": ""
  },
  {
    "id": "4171300389",
    "name": "ケアサポートしらたき",
    "kana": "ケアサポートシラタキ",
    "address": "佐賀県小城市小城町松尾1804番地1",
    "lat": 33.3157550785617,
    "lng": 130.216154988428,
    "tel": "（0952）73－3333",
    "url": "http://www.cs-shirataki.jp/",
    "pref": "佐賀県",
    "city": "小城市",
    "category": "day_service",
    "serviceType": "通所介護",
    "capacity": 25,
    "openDays": [
      "平日",
      "土曜日",
      "日曜日",
      "祝日"
    ],
    "openDaysNote": ""
  },
  {
    "id": "4171300629",
    "name": "ツクイ小城",
    "kana": "ツクイオギ",
    "address": "佐賀県小城市小城町松尾1024-1",
    "lat": 33.2977261,
    "lng": 130.1997799,
    "tel": "0952-71-1211",
    "url": "http//www.tsukui.net/",
    "pref": "佐賀県",
    "city": "小城市",
    "category": "day_service",
    "serviceType": "通所介護",
    "capacity": 20,
    "openDays": [
      "平日",
      "土曜日",
      "日曜日",
      "祝日"
    ],
    "openDaysNote": "自然災害時等止むを得ず休業せざるを得ない場合は休業あり。諸事情により元日のみ休業あり。"
  },
  {
    "id": "4171300306",
    "name": "デイサービス　光",
    "kana": "デイサービス　ヒカリ",
    "address": "佐賀県小城市三日月町織島３１８３",
    "lat": 33.301047,
    "lng": 130.2323471,
    "tel": "0952-73-5689",
    "url": "",
    "pref": "佐賀県",
    "city": "小城市",
    "category": "day_service",
    "serviceType": "通所介護",
    "capacity": 0,
    "openDays": [
      "平日",
      "土曜日",
      "日曜日",
      "祝日"
    ],
    "openDaysNote": ""
  },
  {
    "id": "4171300637",
    "name": "デイサービスさくら",
    "kana": "デイサービスサクラ",
    "address": "佐賀県小城市三日月町久米899",
    "lat": 33.2909238,
    "lng": 130.2038858,
    "tel": "0952-73-8055",
    "url": "https://senyuukai.com/",
    "pref": "佐賀県",
    "city": "小城市",
    "category": "day_service",
    "serviceType": "通所介護",
    "capacity": null,
    "openDays": [
      "平日",
      "土曜日"
    ],
    "openDaysNote": ""
  },
  {
    "id": "4171300462",
    "name": "デイサービスセンター　まつおざん",
    "kana": "デイサービスセンター　マツオザン",
    "address": "佐賀県小城市小城町松尾4417番地デイサービスセンター　まつおざん デイサービスセンター　まつおざん",
    "lat": 33.3023866,
    "lng": 130.1945751,
    "tel": "0952-37-7285",
    "url": "http://park18.wakwak.com/~taiseien/",
    "pref": "佐賀県",
    "city": "小城市",
    "category": "day_service",
    "serviceType": "通所介護",
    "capacity": 0,
    "openDays": [
      "平日",
      "日曜日",
      "祝日"
    ],
    "openDaysNote": "事業者が必要と認めた場合は営業日とする事ができる"
  },
  {
    "id": "4171300538",
    "name": "デイサービスセンターひらまつ",
    "kana": "デイサービスセンターヒラマツ",
    "address": "佐賀県小城市小城町803住宅型有料老人ホーム　ラ・サンテひらまつ 住宅型有料老人ホーム　ラ・サンテひらまつ",
    "lat": 33.3005569,
    "lng": 130.2072297,
    "tel": "0952-73-3000",
    "url": "",
    "pref": "佐賀県",
    "city": "小城市",
    "category": "day_service",
    "serviceType": "通所介護",
    "capacity": 0,
    "openDays": [
      "平日",
      "土曜日",
      "祝日"
    ],
    "openDaysNote": ""
  },
  {
    "id": "4171300314",
    "name": "デイサービスよしはら",
    "kana": "デイサービスヨシハラ",
    "address": "三日月町久米字吉原320番地１",
    "lat": 33.2946853,
    "lng": 130.2107436,
    "tel": "0952-72-5033",
    "url": "",
    "pref": "佐賀県",
    "city": "小城市",
    "category": "day_service",
    "serviceType": "通所介護",
    "capacity": 0,
    "openDays": [
      "平日",
      "土曜日",
      "日曜日",
      "祝日"
    ],
    "openDaysNote": ""
  },
  {
    "id": "4171300645",
    "name": "デイサービスよろず庵",
    "kana": "デイサービスヨロズアン",
    "address": "三日月町金田1071-1",
    "lat": 33.2597254337933,
    "lng": 130.229968397809,
    "tel": "0952-73-3272",
    "url": "https://www.associe-group.jp/",
    "pref": "佐賀県",
    "city": "小城市",
    "category": "day_service",
    "serviceType": "通所介護",
    "capacity": 0,
    "openDays": [
      "平日",
      "土曜日",
      "祝日"
    ],
    "openDaysNote": "夏季休暇あり（8/13-8/15）（改行）年末年始休暇あり（12/30-1/3）"
  },
  {
    "id": "4171300363",
    "name": "デイサービス光　２号館",
    "kana": "デイサービスヒカリ　２ゴウカン",
    "address": "小城市三日月町織島３１９７番地９",
    "lat": 33.3016414,
    "lng": 130.2332053,
    "tel": "０９５２－７３－５７６８",
    "url": "",
    "pref": "佐賀県",
    "city": "小城市",
    "category": "day_service",
    "serviceType": "通所介護",
    "capacity": 35,
    "openDays": [
      "平日",
      "土曜日",
      "日曜日",
      "祝日"
    ],
    "openDaysNote": "年末の前日が日曜日であった場合には、御利用者様及び御家族様のニーズに応じ年末を営業日とする事も有り得る。"
  },
  {
    "id": "4171300439",
    "name": "デイサービス光芦刈館",
    "kana": "デイサービスヒカリアシカリカン",
    "address": "芦刈館三王崎390－6",
    "lat": 33.2195165,
    "lng": 130.2070317,
    "tel": "0952－66－3858",
    "url": "",
    "pref": "佐賀県",
    "city": "小城市",
    "category": "day_service",
    "serviceType": "通所介護",
    "capacity": 30,
    "openDays": [
      "平日",
      "土曜日",
      "日曜日",
      "祝日"
    ],
    "openDaysNote": ""
  },
  {
    "id": "4171300587",
    "name": "ひなたデイサービスセンター",
    "kana": "ヒナタデイサービスセンター",
    "address": "佐賀県小城市芦刈町芦溝840－12ひなたデイサービスセンター ひなたデイサービスセンター",
    "lat": 33.2389961644251,
    "lng": 130.209389459525,
    "tel": "0952-66-3338",
    "url": "",
    "pref": "佐賀県",
    "city": "小城市",
    "category": "day_service",
    "serviceType": "通所介護",
    "capacity": 36,
    "openDays": [
      "平日",
      "土曜日"
    ],
    "openDaysNote": "（サービス利用に当たっての留意事項）利用者は、指定通所介護の提供を受ける際に、医師の診断や日常生活上の留意事項、利用当日の健康状態を職員に連絡し、心身の状況に応じたサービスの提供を受けるよう留意するものとする。"
  },
  {
    "id": "4171300165",
    "name": "村岡内科デイサービスセンター",
    "kana": "ムラオカナイカ",
    "address": "佐賀県小城市牛津町牛津６３０－９",
    "lat": 33.2471282,
    "lng": 130.2033548,
    "tel": "0952-66-0710",
    "url": "",
    "pref": "佐賀県",
    "city": "小城市",
    "category": "day_service",
    "serviceType": "通所介護",
    "capacity": 45,
    "openDays": [
      "平日",
      "土曜日",
      "祝日"
    ],
    "openDaysNote": ""
  },
  {
    "id": "4171300025",
    "name": "通所介護事業　鳳寿苑",
    "kana": "ツウショカイゴジギョウ　ホウジュエン",
    "address": "佐賀県小城市三日月町甲柳原68-1",
    "lat": 33.2726452,
    "lng": 130.2098894,
    "tel": "0952-72-8106",
    "url": "http://care-net.biz/41/houjuen-hp/company.php",
    "pref": "佐賀県",
    "city": "小城市",
    "category": "day_service",
    "serviceType": "通所介護",
    "capacity": 0,
    "openDays": [
      "平日",
      "土曜日",
      "祝日"
    ],
    "openDaysNote": ""
  },
  {
    "id": "4171200563",
    "name": "かみみねデイサービスセンター",
    "kana": "カミミネデイサービスセンター",
    "address": "佐賀県三養基郡上峰町大字前牟田１０７番地２",
    "lat": 33.3101295,
    "lng": 130.4237404,
    "tel": "０９５２－５１－１７７３",
    "url": "http://www.miki-hosp.gr.jp",
    "pref": "佐賀県",
    "city": "上峰町",
    "category": "day_service",
    "serviceType": "通所介護",
    "capacity": 0,
    "openDays": [
      "平日",
      "土曜日",
      "祝日"
    ],
    "openDaysNote": ""
  },
  {
    "id": "4171200373",
    "name": "さがケアセンターそよ風",
    "kana": "サガケアセンターソヨカゼ",
    "address": "佐賀県三養基郡上峰町大字坊所1523－53さがケアセンターそよ風 さがケアセンターそよ風",
    "lat": 33.3309582,
    "lng": 130.4149926,
    "tel": "0952-55-6050",
    "url": "http://www.unimat-rc.co.jp/",
    "pref": "佐賀県",
    "city": "上峰町",
    "category": "day_service",
    "serviceType": "通所介護",
    "capacity": 30,
    "openDays": [
      "平日",
      "土曜日",
      "祝日"
    ],
    "openDaysNote": "市町村の相談・苦情窓口でも受け付けています。　　　　　　　　　　　　　　　　　　（改行）・鳥栖地区広域市町村圏組合　介護保険課　　　0942－81－3315（改行）・佐賀県国民健康保険団体連合会苦情処理窓口　0952－26－1477"
  },
  {
    "id": "4171200662",
    "name": "デイサービスおはな",
    "kana": "デイサービスオハナ",
    "address": "佐賀県三養基郡上峰町大字坊所2553-2",
    "lat": 33.3370592,
    "lng": 130.4224428,
    "tel": "0952-20-0877",
    "url": "",
    "pref": "佐賀県",
    "city": "上峰町",
    "category": "day_service",
    "serviceType": "通所介護",
    "capacity": 0,
    "openDays": [
      "平日"
    ],
    "openDaysNote": "特になし。"
  },
  {
    "id": "4171100011",
    "name": "こすもす苑　デイサービスセンター",
    "kana": "コスモスエン　デイサービスセンター",
    "address": "佐賀県神埼市千代田町用作２０９９－３",
    "lat": 33.2667639,
    "lng": 130.3790639,
    "tel": "0952-34-6003",
    "url": "cosmosen.com",
    "pref": "佐賀県",
    "city": "神埼市",
    "category": "day_service",
    "serviceType": "通所介護",
    "capacity": 25,
    "openDays": [
      "平日",
      "祝日"
    ],
    "openDaysNote": ""
  },
  {
    "id": "4172000285",
    "name": "デイサービス　シニアライフ神埼",
    "kana": "デイサービス　シニアライフカンザキ",
    "address": "佐賀県神埼市神埼町鶴3625-1住宅型有料老人ホームシニアライフ神埼 住宅型有料老人ホームシニアライフ神埼",
    "lat": 33.3113455025427,
    "lng": 130.370934764932,
    "tel": "0952-55-8410",
    "url": "http://sagakita.com",
    "pref": "佐賀県",
    "city": "神埼市",
    "category": "day_service",
    "serviceType": "通所介護",
    "capacity": 0,
    "openDays": [
      "平日",
      "土曜日",
      "日曜日",
      "祝日"
    ],
    "openDaysNote": ""
  },
  {
    "id": "4171100037",
    "name": "デイサービスセンター　かんざき清流苑",
    "kana": "デイサービスセンター　カンザキセイリュウエン",
    "address": "佐賀県神埼市神埼町鶴2927番地2在宅サポートセンターかんざき清流苑 在宅サポートセンターかんざき清流苑",
    "lat": 33.3221697,
    "lng": 130.3700351,
    "tel": "0952-52-8915",
    "url": "http://www.saganet.ne.jp/saseishi/top.html",
    "pref": "佐賀県",
    "city": "神埼市",
    "category": "day_service",
    "serviceType": "通所介護",
    "capacity": 0,
    "openDays": [
      "平日",
      "土曜日",
      "日曜日",
      "祝日"
    ],
    "openDaysNote": "祝日は月曜～金曜を営業します。"
  },
  {
    "id": "4171100136",
    "name": "デイサービスセンター　すずらん",
    "kana": "デイサービスセンター　スズラン",
    "address": "佐賀県神埼市神埼町永歌２０１５－１",
    "lat": 33.3001443,
    "lng": 130.3760188,
    "tel": "0952-52-4811",
    "url": "suzuran-harmony.5@a011.broada.jp",
    "pref": "佐賀県",
    "city": "神埼市",
    "category": "day_service",
    "serviceType": "通所介護",
    "capacity": 0,
    "openDays": [
      "平日",
      "土曜日",
      "祝日"
    ],
    "openDaysNote": "1月1・2・3日は休み"
  },
  {
    "id": "4171100110",
    "name": "デイサービス翠晃",
    "kana": "デイサービス　スイコウ",
    "address": "佐賀県神埼市神埼町鶴2935番地2",
    "lat": 33.321367,
    "lng": 130.3696185,
    "tel": "0952-55-8111",
    "url": "http://www.shofukai-saga.com",
    "pref": "佐賀県",
    "city": "神埼市",
    "category": "day_service",
    "serviceType": "通所介護",
    "capacity": 40,
    "openDays": [
      "平日",
      "土曜日",
      "祝日"
    ],
    "openDaysNote": "お盆、祝日も営業しています。"
  },
  {
    "id": "4172000152",
    "name": "愛夢かんざきデイサービス",
    "kana": "アイムカンザキデイサービス",
    "address": "佐賀県神埼市神埼町田道ヶ里2220-1",
    "lat": 33.3119459,
    "lng": 130.3759323,
    "tel": "0952-55-7711",
    "url": "http://www.aim-kanzaki.jp/column/post-1/",
    "pref": "佐賀県",
    "city": "神埼市",
    "category": "day_service",
    "serviceType": "通所介護",
    "capacity": 65,
    "openDays": [
      "平日",
      "土曜日",
      "祝日"
    ],
    "openDaysNote": ""
  },
  {
    "id": "4170400248",
    "name": "ケアホーム　のんびり家",
    "kana": "ケアホーム　ノンビリヤ",
    "address": "多久市南多久町大字長尾3886番地2",
    "lat": 33.2788246,
    "lng": 130.1151161,
    "tel": "0952-75-8488",
    "url": "nonbiri@po.taku.ne.jp",
    "pref": "佐賀県",
    "city": "多久市",
    "category": "day_service",
    "serviceType": "通所介護",
    "capacity": 0,
    "openDays": [
      "平日",
      "土曜日",
      "日曜日",
      "祝日"
    ],
    "openDaysNote": ""
  },
  {
    "id": "4170400289",
    "name": "のんびり苑",
    "kana": "ノンビリエン",
    "address": "佐賀県多久市東多久町大字別府2949-1128",
    "lat": 33.285485,
    "lng": 130.1577262,
    "tel": "0952-71-2203",
    "url": "",
    "pref": "佐賀県",
    "city": "多久市",
    "category": "day_service",
    "serviceType": "通所介護",
    "capacity": 60,
    "openDays": [
      "平日",
      "土曜日",
      "日曜日",
      "祝日"
    ],
    "openDaysNote": ""
  },
  {
    "id": "4170400214",
    "name": "ブライトネスしもづる",
    "kana": "ブライトネスシモヅル",
    "address": "多久市多久町589-1",
    "lat": 33.266409,
    "lng": 130.1003901,
    "tel": "0952-75-8002",
    "url": "",
    "pref": "佐賀県",
    "city": "多久市",
    "category": "day_service",
    "serviceType": "通所介護",
    "capacity": 30,
    "openDays": [
      "平日",
      "土曜日",
      "日曜日",
      "祝日"
    ],
    "openDaysNote": "・希望があれば受け入れ可能"
  },
  {
    "id": "4170400073",
    "name": "地域共生ホーム愛あい　愛あいデイサービス",
    "kana": "チイキキョウセイホームアイアイ　アイアイデイサービス",
    "address": "佐賀県多久市北多久町大字多久原1652番地",
    "lat": 33.2871043,
    "lng": 130.1253424,
    "tel": "0952-75-5797",
    "url": "",
    "pref": "佐賀県",
    "city": "多久市",
    "category": "day_service",
    "serviceType": "通所介護",
    "capacity": 0,
    "openDays": [
      "平日",
      "土曜日",
      "日曜日",
      "祝日"
    ],
    "openDaysNote": ""
  },
  {
    "id": "4170400362",
    "name": "通所介護　悠愛別荘",
    "kana": "ツウショカイゴ　ユアイベッソウ",
    "address": "佐賀県多久市東多久町大字別府4647番地1",
    "lat": 33.2824043,
    "lng": 130.1416165,
    "tel": "0952-71-2200",
    "url": "yuai-bessou@a-lifesupport.co.jp",
    "pref": "佐賀県",
    "city": "多久市",
    "category": "day_service",
    "serviceType": "通所介護",
    "capacity": 20,
    "openDays": [
      "平日",
      "土曜日",
      "祝日"
    ],
    "openDaysNote": ""
  },
  {
    "id": "4171700216",
    "name": "ぬくもいホームたら",
    "kana": "ヌクモイホームタラ",
    "address": "佐賀県藤津郡太良町大字多良2052番地",
    "lat": 33.0282568,
    "lng": 130.1729153,
    "tel": "0954-67-1123",
    "url": "hrrp://yutatari.org",
    "pref": "佐賀県",
    "city": "太良町",
    "category": "day_service",
    "serviceType": "通所介護",
    "capacity": 0,
    "openDays": [
      "平日",
      "土曜日",
      "日曜日",
      "祝日"
    ],
    "openDaysNote": "定休日についても、宿泊などの自主事業は実施。台風・積雪などの悪天候、地震を含む災害時など、通所介護の実施が困難と判断される場合、サービスの提供を中止します。"
  },
  {
    "id": "4171700026",
    "name": "光風荘デイサービスセンター",
    "kana": "コウフウソウデイサービスセンター",
    "address": "佐賀県藤津郡太良町大字多良1849番地9",
    "lat": 33.0280597,
    "lng": 130.1788928,
    "tel": "0954-67-2023",
    "url": "",
    "pref": "佐賀県",
    "city": "太良町",
    "category": "day_service",
    "serviceType": "通所介護",
    "capacity": 0,
    "openDays": [
      "平日",
      "土曜日"
    ],
    "openDaysNote": ""
  },
  {
    "id": "4171600531",
    "name": "ケアホーム　笑楽",
    "kana": "ケアホーム　ワラク",
    "address": "佐賀県杵島郡大町町大字大町4564番地3",
    "lat": 33.2229804,
    "lng": 130.1143169,
    "tel": "0952-71-4036",
    "url": "",
    "pref": "佐賀県",
    "city": "大町町",
    "category": "day_service",
    "serviceType": "通所介護",
    "capacity": 0,
    "openDays": [
      "平日",
      "土曜日",
      "日曜日",
      "祝日"
    ],
    "openDaysNote": ""
  },
  {
    "id": "4171600648",
    "name": "でいさーびす　きぼうのひかり",
    "kana": "デイサービス　希望ノ光",
    "address": "佐賀県杵島郡大町町大字福母1150-1住宅型　有料老人ホーム　七彩のそら 住宅型　有料老人ホーム　七彩のそら",
    "lat": 33.2190946,
    "lng": 130.1070176,
    "tel": "0952-82-3003",
    "url": "",
    "pref": "佐賀県",
    "city": "大町町",
    "category": "day_service",
    "serviceType": "通所介護",
    "capacity": 0,
    "openDays": [
      "平日",
      "土曜日",
      "祝日"
    ],
    "openDaysNote": ""
  },
  {
    "id": "4171600465",
    "name": "デイサービス　とっとっと",
    "kana": "デイサービス　トットット",
    "address": "佐賀県杵島郡大町町大字大町8732番地10",
    "lat": 33.2118954,
    "lng": 130.1158754,
    "tel": "0952-71-3201",
    "url": "",
    "pref": "佐賀県",
    "city": "大町町",
    "category": "day_service",
    "serviceType": "通所介護",
    "capacity": 21,
    "openDays": [
      "平日",
      "土曜日",
      "日曜日",
      "祝日"
    ],
    "openDaysNote": ""
  },
  {
    "id": "4171600010",
    "name": "老人デイサービスセンター　すみれ園",
    "kana": "ロウジンデイサービスセンタースミレエン",
    "address": "佐賀県杵島郡大町町大字福母3031-1",
    "lat": 33.2193,
    "lng": 130.101293,
    "tel": "0952-82-2112",
    "url": "http://www.tokuyou-sumire.or.jp/",
    "pref": "佐賀県",
    "city": "大町町",
    "category": "day_service",
    "serviceType": "通所介護",
    "capacity": 30,
    "openDays": [
      "平日",
      "土曜日",
      "祝日"
    ],
    "openDaysNote": ""
  },
  {
    "id": "4170301115",
    "name": "ＪＡ福祉デイサービスセンター",
    "kana": "ジェイエイフクシデイサービスセンター",
    "address": "佐賀県鳥栖市田代昌町24番地",
    "lat": 33.3915661107041,
    "lng": 130.527221056633,
    "tel": "0942-81-5333",
    "url": "https://www.ja-ceremonysaga.jp/care/",
    "pref": "佐賀県",
    "city": "鳥栖市",
    "category": "day_service",
    "serviceType": "通所介護",
    "capacity": 45,
    "openDays": [
      "平日",
      "土曜日",
      "祝日"
    ],
    "openDaysNote": ""
  },
  {
    "id": "4170301107",
    "name": "デイサービスいやし",
    "kana": "デイサービスイヤシ",
    "address": "佐賀県鳥栖市萱方町160-1",
    "lat": 33.3849539674688,
    "lng": 130.507641369075,
    "tel": "0942-87-8875",
    "url": "http://www.oozono.co.jp/",
    "pref": "佐賀県",
    "city": "鳥栖市",
    "category": "day_service",
    "serviceType": "通所介護",
    "capacity": 0,
    "openDays": [
      "平日",
      "土曜日",
      "日曜日",
      "祝日"
    ],
    "openDaysNote": ""
  },
  {
    "id": "4170301164",
    "name": "デイサービスきたえるーむ鳥栖中央",
    "kana": "デイサービスキタエルームトスチュウオウ",
    "address": "佐賀県鳥栖市藤木町2番地１",
    "lat": 33.3711634,
    "lng": 130.5271829,
    "tel": "0942-87-5011",
    "url": "https://kitaeroom-tosuchuou@sakaguchigumi.com",
    "pref": "佐賀県",
    "city": "鳥栖市",
    "category": "day_service",
    "serviceType": "通所介護",
    "capacity": 25,
    "openDays": [
      "平日"
    ],
    "openDaysNote": "8月12日～15日、12月29日～1月4日はお休み（本社規定に準ずる）"
  },
  {
    "id": "4170301016",
    "name": "デイサービスセンター　セントポーリア・セカンドステージ",
    "kana": "デイサービスセンター　セントポーリア・セカンドステージ",
    "address": "佐賀県鳥栖市真木町1990番地",
    "lat": 33.3607053438196,
    "lng": 130.506349107657,
    "tel": "0942-50-5151",
    "url": "http://www.setojima-clinic.com/seto6.html",
    "pref": "佐賀県",
    "city": "鳥栖市",
    "category": "day_service",
    "serviceType": "通所介護",
    "capacity": 38,
    "openDays": [
      "平日",
      "土曜日",
      "祝日"
    ],
    "openDaysNote": ""
  },
  {
    "id": "4170300968",
    "name": "デイサービスセンター　ろしゅう",
    "kana": "デイサービスセンター　ロシュウ",
    "address": "佐賀県鳥栖市儀徳町2907番地1",
    "lat": 33.3524061,
    "lng": 130.4938813,
    "tel": "0942-82-7133",
    "url": "https://roshuu.rukkusu.com",
    "pref": "佐賀県",
    "city": "鳥栖市",
    "category": "day_service",
    "serviceType": "通所介護",
    "capacity": 24,
    "openDays": [
      "平日",
      "土曜日",
      "日曜日",
      "祝日"
    ],
    "openDaysNote": ""
  },
  {
    "id": "4170301354",
    "name": "デイサービスセンターお元気広場",
    "kana": "デイサービスセンター　オゲンキヒロバ",
    "address": "佐賀県鳥栖市立石町2157-1",
    "lat": 33.3778796,
    "lng": 130.5062434,
    "tel": "0942－84－3216",
    "url": "http//www5fbiglobe.ne.jp",
    "pref": "佐賀県",
    "city": "鳥栖市",
    "category": "day_service",
    "serviceType": "通所介護",
    "capacity": null,
    "openDays": [
      "平日",
      "土曜日",
      "日曜日",
      "祝日"
    ],
    "openDaysNote": "※年末年始は要相談"
  },
  {
    "id": "4170301339",
    "name": "デイサービスセンターセントポーリア",
    "kana": "デイサービスセンターセントポーリア",
    "address": "今泉町2434番地1",
    "lat": 33.3626497,
    "lng": 130.5137078,
    "tel": "0942-87-5172",
    "url": "https://setojima-clinic.com/",
    "pref": "佐賀県",
    "city": "鳥栖市",
    "category": "day_service",
    "serviceType": "通所介護",
    "capacity": 0,
    "openDays": [
      "平日",
      "土曜日",
      "祝日"
    ],
    "openDaysNote": "祝日も営業しております。"
  },
  {
    "id": "4170300794",
    "name": "デイサービスセンター花ノ木",
    "kana": "デイサービスセンターハナノキ",
    "address": "古賀町大字花の木554番地",
    "lat": 33.3864803,
    "lng": 130.4983642,
    "tel": "0942-87-8573",
    "url": "",
    "pref": "佐賀県",
    "city": "鳥栖市",
    "category": "day_service",
    "serviceType": "通所介護",
    "capacity": 25,
    "openDays": [
      "平日",
      "土曜日",
      "祝日"
    ],
    "openDaysNote": ""
  },
  {
    "id": "4170300851",
    "name": "デイサービスセンター花ノ木Ⅱ番館",
    "kana": "デイサービスセンターハナノキニバンカン",
    "address": "佐賀県鳥栖市古賀町大字花ノ木５５４番地",
    "lat": 33.3862966538525,
    "lng": 130.498031606082,
    "tel": "０９４２－５０－８１２２",
    "url": "",
    "pref": "佐賀県",
    "city": "鳥栖市",
    "category": "day_service",
    "serviceType": "通所介護",
    "capacity": 0,
    "openDays": [
      "平日",
      "土曜日",
      "祝日"
    ],
    "openDaysNote": ""
  },
  {
    "id": "4170300828",
    "name": "デイサービスセンター元気",
    "kana": "デイサービスセンターゲンキ",
    "address": "轟木町１４７３",
    "lat": 33.3686722,
    "lng": 130.5072389,
    "tel": "0942-84-2789",
    "url": "http://jintokukai.jp/介護施設情報/有料老人ホーム/有料老人ホーム元気/",
    "pref": "佐賀県",
    "city": "鳥栖市",
    "category": "day_service",
    "serviceType": "通所介護",
    "capacity": 30,
    "openDays": [
      "平日",
      "土曜日",
      "祝日"
    ],
    "openDaysNote": ""
  },
  {
    "id": "4170300844",
    "name": "デイサービスセンター寿楽園弐号館",
    "kana": "デイサービスセンタージュラクエンニゴウカン",
    "address": "鳥栖市弥生が丘一丁目１８番地弥生が丘地域福祉センター 弥生が丘地域福祉センター",
    "lat": 33.4020168,
    "lng": 130.5263777,
    "tel": "0942-50-8070",
    "url": "http://www.jurakuen.jp/",
    "pref": "佐賀県",
    "city": "鳥栖市",
    "category": "day_service",
    "serviceType": "通所介護",
    "capacity": 45,
    "openDays": [
      "平日",
      "土曜日",
      "祝日"
    ],
    "openDaysNote": ""
  },
  {
    "id": "4170300935",
    "name": "デイサービスセンター南風田代",
    "kana": "デイサービスセンターミナミカゼタシロ",
    "address": "佐賀県鳥栖市田代外町６９９番地４",
    "lat": 33.3875624,
    "lng": 130.5157933,
    "tel": "０９４２－５０－８６８３",
    "url": "http://minamikaze-g.jp/",
    "pref": "佐賀県",
    "city": "鳥栖市",
    "category": "day_service",
    "serviceType": "通所介護",
    "capacity": 45,
    "openDays": [
      "平日",
      "土曜日",
      "日曜日",
      "祝日"
    ],
    "openDaysNote": ""
  },
  {
    "id": "4170300810",
    "name": "デイサービスセンター未来",
    "kana": "デイサービスセンターミライ",
    "address": "鳥栖市神辺町池田1477番地",
    "lat": 33.384818,
    "lng": 130.5095242,
    "tel": "0942-81-5922",
    "url": "day-mirai.jp",
    "pref": "佐賀県",
    "city": "鳥栖市",
    "category": "day_service",
    "serviceType": "通所介護",
    "capacity": 0,
    "openDays": [
      "平日",
      "土曜日",
      "日曜日",
      "祝日"
    ],
    "openDaysNote": ""
  },
  {
    "id": "4170300646",
    "name": "デイサービスたしろの大地",
    "kana": "デイサービスタシロノダイチ",
    "address": "佐賀県鳥栖市田代本町９９８番地１",
    "lat": 33.3915635923205,
    "lng": 130.521960375734,
    "tel": "0942-84‐8087",
    "url": "https;//totalcaresupports.com",
    "pref": "佐賀県",
    "city": "鳥栖市",
    "category": "day_service",
    "serviceType": "通所介護",
    "capacity": 0,
    "openDays": [
      "平日",
      "土曜日",
      "日曜日",
      "祝日"
    ],
    "openDaysNote": ""
  },
  {
    "id": "4170301149",
    "name": "デイサービス楽笑倶楽部鳥栖中央",
    "kana": "デイサービス　ラクショウクラブ　トスチュウオウ",
    "address": "佐賀県鳥栖市本通町２丁目878-7　２F",
    "lat": 33.3723106,
    "lng": 130.5147213,
    "tel": "0942-83-3788",
    "url": "",
    "pref": "佐賀県",
    "city": "鳥栖市",
    "category": "day_service",
    "serviceType": "通所介護",
    "capacity": 0,
    "openDays": [
      "平日",
      "土曜日"
    ],
    "openDaysNote": ""
  },
  {
    "id": "4170300737",
    "name": "デイサービス楽笑倶楽部鳥栖本通",
    "kana": "デイサービス　ラクショウクラブ　トスホンドオリ",
    "address": "鳥栖市本通町２丁目８７８－７",
    "lat": 33.3723138,
    "lng": 130.5146997,
    "tel": "0942-85-8306",
    "url": "",
    "pref": "佐賀県",
    "city": "鳥栖市",
    "category": "day_service",
    "serviceType": "通所介護",
    "capacity": 0,
    "openDays": [
      "平日",
      "土曜日"
    ],
    "openDaysNote": ""
  },
  {
    "id": "4170300042",
    "name": "ひまわりの園デイサービスセンター",
    "kana": "ヒマワリノソノデイサービスセンター",
    "address": "佐賀県鳥栖市田代本町924-1",
    "lat": 33.3944258,
    "lng": 130.5181928,
    "tel": "0942-84-5737",
    "url": "http://www.kensyoukai.or.jp",
    "pref": "佐賀県",
    "city": "鳥栖市",
    "category": "day_service",
    "serviceType": "通所介護",
    "capacity": 0,
    "openDays": [
      "平日",
      "土曜日",
      "祝日"
    ],
    "openDaysNote": "年末年始以外の祝日は営業しております。"
  },
  {
    "id": "4170300836",
    "name": "プロジェクトエースきらめき",
    "kana": "プロジェクトエース　キラメキ",
    "address": "鳥栖市弥生が丘7丁目14番地",
    "lat": 33.4077603,
    "lng": 130.5142422,
    "tel": "0942-85-9330",
    "url": "http://kirameki-tosu.wix.com/hpsite",
    "pref": "佐賀県",
    "city": "鳥栖市",
    "category": "day_service",
    "serviceType": "通所介護",
    "capacity": 36,
    "openDays": [
      "平日",
      "土曜日",
      "日曜日",
      "祝日"
    ],
    "openDaysNote": ""
  },
  {
    "id": "4170300703",
    "name": "ぽっかぽか・ハートケア鳥栖",
    "kana": "ポッカポカ　ハートケア　トス",
    "address": "鳥栖市儀徳町2603-1",
    "lat": 33.3522806184036,
    "lng": 130.491613280951,
    "tel": "0942-81-3100",
    "url": "",
    "pref": "佐賀県",
    "city": "鳥栖市",
    "category": "day_service",
    "serviceType": "通所介護",
    "capacity": 0,
    "openDays": [
      "平日",
      "土曜日",
      "日曜日",
      "祝日"
    ],
    "openDaysNote": ""
  },
  {
    "id": "4170300679",
    "name": "やよいがおかデイサービスセンター",
    "kana": "ヤヨイガオカデイサービスセンター",
    "address": "佐賀県鳥栖市弥生が丘2丁目1番光寿　やよいがおかビル3階 光寿　やよいがおかビル3階",
    "lat": 33.4033028,
    "lng": 130.5250834,
    "tel": "0942-87-7533",
    "url": "totalcarelife@koju.jp",
    "pref": "佐賀県",
    "city": "鳥栖市",
    "category": "day_service",
    "serviceType": "通所介護",
    "capacity": 19,
    "openDays": [
      "平日",
      "土曜日",
      "祝日"
    ],
    "openDaysNote": ""
  },
  {
    "id": "4110311331",
    "name": "今村病院デイサービスセンター",
    "kana": "イマムラビョウインデイサービスセンター",
    "address": "佐賀県鳥栖市轟木町1572番地",
    "lat": 33.3671323,
    "lng": 130.5063943,
    "tel": "0942-83-8787",
    "url": "http://www.josuikai.or.jp",
    "pref": "佐賀県",
    "city": "鳥栖市",
    "category": "day_service",
    "serviceType": "通所介護",
    "capacity": 0,
    "openDays": [
      "平日",
      "土曜日",
      "祝日"
    ],
    "openDaysNote": ""
  },
  {
    "id": "4170300034",
    "name": "真心の園デイサービスセンター",
    "kana": "マゴコロノソノ　デイサービスセンター",
    "address": "佐賀県鳥栖市村田町1250-1",
    "lat": 33.3651630972181,
    "lng": 130.478143874236,
    "tel": "0942-82-0818",
    "url": "http://www.magokoro.or/jp",
    "pref": "佐賀県",
    "city": "鳥栖市",
    "category": "day_service",
    "serviceType": "通所介護",
    "capacity": 0,
    "openDays": [
      "平日",
      "土曜日",
      "祝日"
    ],
    "openDaysNote": ""
  },
  {
    "id": "4170300026",
    "name": "鳥栖市中央デイサービスセンター",
    "kana": "トスシチュウオウデイサービスセンター",
    "address": "鳥栖市本町3丁目1494番地10",
    "lat": 33.3787436,
    "lng": 130.508344,
    "tel": "0942-85-3666",
    "url": "http://www.magokoro.or.jp/",
    "pref": "佐賀県",
    "city": "鳥栖市",
    "category": "day_service",
    "serviceType": "通所介護",
    "capacity": 0,
    "openDays": [
      "平日",
      "土曜日",
      "祝日"
    ],
    "openDaysNote": "なし"
  },
  {
    "id": "4170300091",
    "name": "有限会社プラス",
    "kana": "ユウゲンガイシャプラス",
    "address": "佐賀県鳥栖市蔵上町６６３－１",
    "lat": 33.3755352,
    "lng": 130.498189,
    "tel": "0942-81-1665",
    "url": "ｈｔｔｐｓ：//ｃａｒｅｈｏｍｅ－ｓｕｋｏｙａｋａ．ｃｏｍ/",
    "pref": "佐賀県",
    "city": "鳥栖市",
    "category": "day_service",
    "serviceType": "通所介護",
    "capacity": 0,
    "openDays": [
      "平日",
      "土曜日",
      "祝日"
    ],
    "openDaysNote": ""
  },
  {
    "id": "4170201620",
    "name": "からっとライフ",
    "kana": "カラットライフ",
    "address": "和多田大土井3-35",
    "lat": 33.4285773,
    "lng": 129.9906456,
    "tel": "0955-80-0656",
    "url": "https://karat-life.com/",
    "pref": "佐賀県",
    "city": "唐津市",
    "category": "day_service",
    "serviceType": "通所介護",
    "capacity": null,
    "openDays": [
      "平日",
      "土曜日",
      "日曜日",
      "祝日"
    ],
    "openDaysNote": ""
  },
  {
    "id": "4170201539",
    "name": "シルバーリゾートかべしまデイサービス",
    "kana": "シルバーリゾートカベシマデイサービス",
    "address": "佐賀県唐津市呼子町加部島字鉢ノソコ262番地3",
    "lat": 33.5583217,
    "lng": 129.8836248,
    "tel": "0955-82-6050",
    "url": "",
    "pref": "佐賀県",
    "city": "唐津市",
    "category": "day_service",
    "serviceType": "通所介護",
    "capacity": null,
    "openDays": [
      "平日",
      "土曜日",
      "日曜日",
      "祝日"
    ],
    "openDaysNote": ""
  },
  {
    "id": "4170201463",
    "name": "デイサービス　アイケア東唐津",
    "kana": "デイサービス　アイケアヒガシカラツ",
    "address": "佐賀県唐津市松南町3番55号アイケア東唐津 アイケア東唐津",
    "lat": 33.4389912647033,
    "lng": 129.997720804375,
    "tel": "050-3803-8138",
    "url": "http://icare-grp.jp/",
    "pref": "佐賀県",
    "city": "唐津市",
    "category": "day_service",
    "serviceType": "通所介護",
    "capacity": 20,
    "openDays": [
      "平日",
      "土曜日",
      "祝日"
    ],
    "openDaysNote": ""
  },
  {
    "id": "4170200317",
    "name": "デイサービス　あおば",
    "kana": "デイサービス　アオバ",
    "address": "佐賀県唐津市和多田大土井６－５６",
    "lat": 33.425602,
    "lng": 129.9879545,
    "tel": "0955-72-0626",
    "url": "http://www.day-aoba.com",
    "pref": "佐賀県",
    "city": "唐津市",
    "category": "day_service",
    "serviceType": "通所介護",
    "capacity": 0,
    "openDays": [
      "平日",
      "土曜日",
      "日曜日",
      "祝日"
    ],
    "openDaysNote": ""
  },
  {
    "id": "4170201109",
    "name": "デイサービス　スマイル",
    "kana": "デイサービス　スマイル",
    "address": "原82-1",
    "lat": 33.4188484956051,
    "lng": 130.006852682179,
    "tel": "0955－77－5900",
    "url": "",
    "pref": "佐賀県",
    "city": "唐津市",
    "category": "day_service",
    "serviceType": "通所介護",
    "capacity": 0,
    "openDays": [
      "平日",
      "土曜日",
      "日曜日",
      "祝日"
    ],
    "openDaysNote": ""
  },
  {
    "id": "4170200564",
    "name": "デイサービス　はるか",
    "kana": "デイサービス　ハルカ",
    "address": "佐賀県唐津市竹木場字前田5012-1",
    "lat": 33.4193107330319,
    "lng": 129.921059035665,
    "tel": "0955-73-0959",
    "url": "http://haruka-himawari.jp/",
    "pref": "佐賀県",
    "city": "唐津市",
    "category": "day_service",
    "serviceType": "通所介護",
    "capacity": 23,
    "openDays": [
      "平日",
      "土曜日",
      "日曜日",
      "祝日"
    ],
    "openDaysNote": "お盆お正月も営業させていただいております。"
  },
  {
    "id": "4170200457",
    "name": "デイサービス　ひだまり　とうげ庵",
    "kana": "デイサービス　ヒダマリ　トウゲアン",
    "address": "佐賀県唐津市山田4025-1",
    "lat": 33.4084906,
    "lng": 129.9450358,
    "tel": "0955-78-3196",
    "url": "",
    "pref": "佐賀県",
    "city": "唐津市",
    "category": "day_service",
    "serviceType": "通所介護",
    "capacity": 0,
    "openDays": [
      "平日",
      "土曜日",
      "日曜日",
      "祝日"
    ],
    "openDaysNote": ""
  },
  {
    "id": "4170200838",
    "name": "デイサービス　ひまわり",
    "kana": "デイサービス　ヒマワリ",
    "address": "佐賀県唐津市竹木場字前田5012番地1",
    "lat": 33.4223199,
    "lng": 129.9192897,
    "tel": "0955-58-9316",
    "url": "http//haruka-himawari.jp/i/",
    "pref": "佐賀県",
    "city": "唐津市",
    "category": "day_service",
    "serviceType": "通所介護",
    "capacity": 30,
    "openDays": [
      "平日",
      "土曜日",
      "日曜日",
      "祝日"
    ],
    "openDaysNote": "お盆、お正月も営業させていただいております。"
  },
  {
    "id": "4170200994",
    "name": "デイサービス　花いちもんめ",
    "kana": "デイサービス　ハナイチモンメ",
    "address": "佐賀県唐津市竹木場字前田5010-1",
    "lat": 33.4223199,
    "lng": 129.9192897,
    "tel": "0955-58-9501",
    "url": "http://haruka-himawari.jp/i/",
    "pref": "佐賀県",
    "city": "唐津市",
    "category": "day_service",
    "serviceType": "通所介護",
    "capacity": 22,
    "openDays": [
      "平日",
      "土曜日",
      "日曜日",
      "祝日"
    ],
    "openDaysNote": "お盆、お正月も営業させていただいております。"
  },
  {
    "id": "4170200176",
    "name": "デイサービス　福寿草",
    "kana": "デイサービス　フクジュソウ",
    "address": "佐賀県唐津市呉服町１８００番地１",
    "lat": 33.4477851,
    "lng": 129.9688418,
    "tel": "0955-75-1881",
    "url": "",
    "pref": "佐賀県",
    "city": "唐津市",
    "category": "day_service",
    "serviceType": "通所介護",
    "capacity": 0,
    "openDays": [
      "平日",
      "祝日"
    ],
    "openDaysNote": ""
  },
  {
    "id": "4170200614",
    "name": "デイサービスウェルビー唐津",
    "kana": "デイサービスウェルビーカラツ",
    "address": "唐津市浜玉町大字浜崎字長田297番地8",
    "lat": 33.4501738,
    "lng": 129.9681335,
    "tel": "0955-56-2279",
    "url": "http://www.",
    "pref": "佐賀県",
    "city": "唐津市",
    "category": "day_service",
    "serviceType": "通所介護",
    "capacity": 0,
    "openDays": [
      "平日",
      "土曜日",
      "祝日"
    ],
    "openDaysNote": ""
  },
  {
    "id": "4170201521",
    "name": "デイサービスお茶しましょ虹の松原",
    "kana": "デイサービスオチャシマショニジノマツバラ",
    "address": "佐賀県唐津市鏡3769-102",
    "lat": 33.4445779,
    "lng": 130.0172767,
    "tel": "0955-74-3760",
    "url": "http://www.osewa.co.jp",
    "pref": "佐賀県",
    "city": "唐津市",
    "category": "day_service",
    "serviceType": "通所介護",
    "capacity": null,
    "openDays": [
      "平日",
      "土曜日",
      "日曜日",
      "祝日"
    ],
    "openDaysNote": ""
  },
  {
    "id": "4170201364",
    "name": "デイサービスすずらん",
    "kana": "デイサービススズラン",
    "address": "佐賀県唐津市竹木場字前田5012番地13",
    "lat": 33.4194331018506,
    "lng": 129.921087522368,
    "tel": "0955-58-9067",
    "url": "http://haruka-himawari.jp",
    "pref": "佐賀県",
    "city": "唐津市",
    "category": "day_service",
    "serviceType": "通所介護",
    "capacity": 25,
    "openDays": [
      "平日",
      "土曜日",
      "日曜日",
      "祝日"
    ],
    "openDaysNote": "サービス提供時間が午前8時00～16時10分となる"
  },
  {
    "id": "4170201083",
    "name": "デイサービスセンター　いこいの里唐津",
    "kana": "デイサービスセンター　イコイノサトカラツ",
    "address": "唐津市和多田南先石7番15号いこいの里唐津 いこいの里唐津",
    "lat": 33.4327230533423,
    "lng": 129.984417096381,
    "tel": "0955-65-7755",
    "url": "http://ikoino-sato.com",
    "pref": "佐賀県",
    "city": "唐津市",
    "category": "day_service",
    "serviceType": "通所介護",
    "capacity": 0,
    "openDays": [
      "平日",
      "土曜日",
      "日曜日",
      "祝日"
    ],
    "openDaysNote": "特になし。"
  },
  {
    "id": "4170200275",
    "name": "デイサービスセンター　こころ",
    "kana": "デイサービスセンター　ココロ",
    "address": "佐賀県唐津市佐志101番地83",
    "lat": 33.4536783,
    "lng": 129.9412101,
    "tel": "0955-72-7568",
    "url": "",
    "pref": "佐賀県",
    "city": "唐津市",
    "category": "day_service",
    "serviceType": "通所介護",
    "capacity": 0,
    "openDays": [
      "平日",
      "土曜日",
      "祝日"
    ],
    "openDaysNote": ""
  },
  {
    "id": "4110212885",
    "name": "デイサービスセンター　こはる園",
    "kana": "デイサービスセンター　コハルエン",
    "address": "佐賀県唐津市町田1丁目2398-2",
    "lat": 33.4427272,
    "lng": 129.9654114,
    "tel": "0955-79-9200",
    "url": "https://genseikai.com",
    "pref": "佐賀県",
    "city": "唐津市",
    "category": "day_service",
    "serviceType": "通所介護",
    "capacity": 25,
    "openDays": [
      "平日",
      "土曜日",
      "祝日"
    ],
    "openDaysNote": "年間を通じて営業日としていますが、日曜日を定休日としています。"
  },
  {
    "id": "4170200796",
    "name": "デイサービスセンターきたはた",
    "kana": "デイサービスセンターキタハタ",
    "address": "唐津市北波多徳須恵1201-1",
    "lat": 33.3735265,
    "lng": 129.9467998,
    "tel": "0955-64-3126",
    "url": "http://otakaro.wixsite.com/takachihoen",
    "pref": "佐賀県",
    "city": "唐津市",
    "category": "day_service",
    "serviceType": "通所介護",
    "capacity": 0,
    "openDays": [
      "平日",
      "土曜日"
    ],
    "openDaysNote": "天候不良などにより臨時的に休みとする場合あり。"
  },
  {
    "id": "4170200978",
    "name": "デイサービスのどか",
    "kana": "デイサービスノドカ",
    "address": "佐賀県唐津市浜玉町南山２２６０番地１",
    "lat": 33.4398620707489,
    "lng": 130.062442908598,
    "tel": "0955-70-5535",
    "url": "",
    "pref": "佐賀県",
    "city": "唐津市",
    "category": "day_service",
    "serviceType": "通所介護",
    "capacity": 15,
    "openDays": [
      "平日",
      "土曜日",
      "日曜日",
      "祝日"
    ],
    "openDaysNote": ""
  },
  {
    "id": "4170201687",
    "name": "デイサービスわがや",
    "kana": "デイサービスワガヤ",
    "address": "佐賀県唐津市浜玉町渕上1344-1",
    "lat": 33.4531039241026,
    "lng": 130.049606089338,
    "tel": "0955-56-8989",
    "url": "https://www.keahouseminami.com",
    "pref": "佐賀県",
    "city": "唐津市",
    "category": "day_service",
    "serviceType": "通所介護",
    "capacity": 0,
    "openDays": [
      "平日",
      "土曜日",
      "日曜日",
      "祝日"
    ],
    "openDaysNote": "通常のサービス提供時間は16：10までの７時間１０分"
  },
  {
    "id": "4170200721",
    "name": "デイサービス安寿",
    "kana": "デイサービスアンジュ",
    "address": "佐賀県唐津市鎮西町高野534-2",
    "lat": 33.4902382,
    "lng": 129.9173359,
    "tel": "0955-82-0170",
    "url": "https://sites.google.com/view/heartfeel/home",
    "pref": "佐賀県",
    "city": "唐津市",
    "category": "day_service",
    "serviceType": "通所介護",
    "capacity": 25,
    "openDays": [
      "平日",
      "土曜日",
      "祝日"
    ],
    "openDaysNote": "安全面が確保できない気象条件（例えば台風、雪、大雨など）の場合で、事業所の判断で中止にする場合があります。事前にご連絡をいたします。"
  },
  {
    "id": "4170200887",
    "name": "デイサービス運動しましょ運動しましょ神田",
    "kana": "デイサービスウンドウシマショコウダ",
    "address": "佐賀県唐津市神田2075番地1",
    "lat": 33.4392344942029,
    "lng": 129.95784236627,
    "tel": "0955-65-8349",
    "url": "http://www.osewa.co.jp",
    "pref": "佐賀県",
    "city": "唐津市",
    "category": "day_service",
    "serviceType": "通所介護",
    "capacity": 0,
    "openDays": [
      "平日",
      "土曜日",
      "日曜日",
      "祝日"
    ],
    "openDaysNote": "諸事情に勘案して、年末年始を休業とすることがあります。"
  },
  {
    "id": "4170201067",
    "name": "デイサービス果寿園",
    "kana": "デイサービス　カジュエン",
    "address": "佐賀県唐津市厳木町うつぼ木１５７番地６４",
    "lat": 33.3215428,
    "lng": 130.0506351,
    "tel": "０９５５－６３－５７８７",
    "url": "ｋａｊｙｕｅｎ＠ｖｃ．ｐｅｏｐｌｅ－ｉ．ｎｅ．ｊｐ",
    "pref": "佐賀県",
    "city": "唐津市",
    "category": "day_service",
    "serviceType": "通所介護",
    "capacity": 0,
    "openDays": [
      "平日",
      "土曜日",
      "日曜日",
      "祝日"
    ],
    "openDaysNote": ""
  },
  {
    "id": "4170201638",
    "name": "デイサービス呼子",
    "kana": "デイサービスヨブコ",
    "address": "呼子町殿ノ浦1307",
    "lat": 33.5361356,
    "lng": 129.8861955,
    "tel": "080-8258-8719",
    "url": "",
    "pref": "佐賀県",
    "city": "唐津市",
    "category": "day_service",
    "serviceType": "通所介護",
    "capacity": 0,
    "openDays": [
      "平日",
      "土曜日",
      "祝日"
    ],
    "openDaysNote": ""
  },
  {
    "id": "4170201117",
    "name": "デイサービス山茶花",
    "kana": "デイサービスサザンカ",
    "address": "佐賀県唐津市鏡新開98番地",
    "lat": 33.436482,
    "lng": 130.0006784,
    "tel": "０９５５－７７－５１５２",
    "url": "",
    "pref": "佐賀県",
    "city": "唐津市",
    "category": "day_service",
    "serviceType": "通所介護",
    "capacity": 25,
    "openDays": [
      "平日",
      "土曜日",
      "祝日"
    ],
    "openDaysNote": ""
  },
  {
    "id": "4170201562",
    "name": "デイサービス桃の木",
    "kana": "デイサービスモモノキ",
    "address": "佐賀県唐津市新興町48番レインボービル1階",
    "lat": 33.4447469,
    "lng": 129.9638115,
    "tel": "0955-53-8651",
    "url": "http://haruka-himawari.jp",
    "pref": "佐賀県",
    "city": "唐津市",
    "category": "day_service",
    "serviceType": "通所介護",
    "capacity": 25,
    "openDays": [
      "平日",
      "土曜日",
      "日曜日",
      "祝日"
    ],
    "openDaysNote": "サービス提供時間は8：50～17：00となる"
  },
  {
    "id": "4170201596",
    "name": "デイサービス浜崎のたいよう",
    "kana": "デイサービスハマサキノタイヨウ",
    "address": "浜玉町浜崎字小崎701-9",
    "lat": 33.4449158,
    "lng": 130.0347646,
    "tel": "0955-58-8632",
    "url": "http://www.taiyouhome.com/",
    "pref": "佐賀県",
    "city": "唐津市",
    "category": "day_service",
    "serviceType": "通所介護",
    "capacity": null,
    "openDays": [
      "平日",
      "土曜日",
      "祝日"
    ],
    "openDaysNote": ""
  },
  {
    "id": "4170200077",
    "name": "ニチイケアセンター唐津",
    "kana": "ニチイケアセンターカラツ",
    "address": "鏡新開9",
    "lat": 33.4372317,
    "lng": 129.9966288,
    "tel": "0955-77-6100",
    "url": "http://www.nichiigakkan.co.jp",
    "pref": "佐賀県",
    "city": "唐津市",
    "category": "day_service",
    "serviceType": "通所介護",
    "capacity": 35,
    "openDays": [
      "平日",
      "土曜日",
      "日曜日",
      "祝日"
    ],
    "openDaysNote": "休日であってもサービスの提供を行う場合がある。"
  },
  {
    "id": "4170201646",
    "name": "はたしま百花苑",
    "kana": "ハタシマヒャッカエン",
    "address": "佐賀県唐津市畑島5784-1",
    "lat": 33.3934893010475,
    "lng": 129.953465316841,
    "tel": "0955-58-7868",
    "url": "https://www.kagayaki-care.co.jp/hatashima",
    "pref": "佐賀県",
    "city": "唐津市",
    "category": "day_service",
    "serviceType": "通所介護",
    "capacity": 0,
    "openDays": [
      "平日",
      "土曜日",
      "日曜日",
      "祝日"
    ],
    "openDaysNote": ""
  },
  {
    "id": "4170201059",
    "name": "ぽっかぽか・ハートケア唐津",
    "kana": "ポッカポカ・ハートケアカラツ",
    "address": "唐津市北波多竹有２６４０－１",
    "lat": 33.3826948,
    "lng": 129.9448969,
    "tel": "0955-64-2347",
    "url": "",
    "pref": "佐賀県",
    "city": "唐津市",
    "category": "day_service",
    "serviceType": "通所介護",
    "capacity": 0,
    "openDays": [
      "平日",
      "土曜日",
      "日曜日",
      "祝日"
    ],
    "openDaysNote": ""
  },
  {
    "id": "4170200929",
    "name": "ぽっかぽかハートケア東唐津",
    "kana": "ポッカポカハートケアヒガシカラツ",
    "address": "唐津市鏡新開９５番地",
    "lat": 33.4369209,
    "lng": 130.0006979,
    "tel": "0955-77-6700",
    "url": "",
    "pref": "佐賀県",
    "city": "唐津市",
    "category": "day_service",
    "serviceType": "通所介護",
    "capacity": 0,
    "openDays": [
      "平日",
      "土曜日",
      "祝日"
    ],
    "openDaysNote": ""
  },
  {
    "id": "4170201307",
    "name": "ほのぼのデイサービス",
    "kana": "ホノボノデイサービス",
    "address": "佐賀県唐津市相知町中山3780番地6",
    "lat": 33.3499882995572,
    "lng": 130.021391793779,
    "tel": "0955-62-2298",
    "url": "http://web.people-i₋ne.jp/~sakureisou/",
    "pref": "佐賀県",
    "city": "唐津市",
    "category": "day_service",
    "serviceType": "通所介護",
    "capacity": 20,
    "openDays": [
      "平日",
      "土曜日",
      "日曜日",
      "祝日"
    ],
    "openDaysNote": ""
  },
  {
    "id": "4170201422",
    "name": "まちなかデイサービス",
    "kana": "マチナカデイサービス",
    "address": "佐賀県唐津市相知町相知1464番地4",
    "lat": 33.347662,
    "lng": 130.0159813,
    "tel": "0955-62-3566",
    "url": "",
    "pref": "佐賀県",
    "city": "唐津市",
    "category": "day_service",
    "serviceType": "通所介護",
    "capacity": 0,
    "openDays": [
      "平日",
      "土曜日",
      "日曜日",
      "祝日"
    ],
    "openDaysNote": ""
  },
  {
    "id": "4170201208",
    "name": "みどりやまひゃっかえん",
    "kana": "ミドリ山百花苑",
    "address": "相知町相知字緑山533-32",
    "lat": 33.3436776961629,
    "lng": 130.021447098286,
    "tel": "0955-62-3012",
    "url": "https://www.kagayaki-care.co.jp/midoriyama/",
    "pref": "佐賀県",
    "city": "唐津市",
    "category": "day_service",
    "serviceType": "通所介護",
    "capacity": 30,
    "openDays": [
      "平日",
      "土曜日",
      "日曜日",
      "祝日"
    ],
    "openDaysNote": ""
  },
  {
    "id": "4170200028",
    "name": "栄荘デイサービス",
    "kana": "サカエソウデイサービス",
    "address": "唐津市栄町2588-19",
    "lat": 33.4493601,
    "lng": 129.9769635,
    "tel": "0955-75-2521",
    "url": "http//k-hukushikai.jp/sakae-gaiyou.html",
    "pref": "佐賀県",
    "city": "唐津市",
    "category": "day_service",
    "serviceType": "通所介護",
    "capacity": 0,
    "openDays": [
      "平日",
      "土曜日",
      "日曜日",
      "祝日"
    ],
    "openDaysNote": ""
  },
  {
    "id": "4170200226",
    "name": "済生会指定通所介護寿楽荘",
    "kana": "サイセイカイシテイツウショカイゴジュラクソウ",
    "address": "佐賀県唐津市西旗町7番1号",
    "lat": 33.4552621,
    "lng": 129.9622477,
    "tel": "0955-70-1700",
    "url": "http://www.jurakuso.com",
    "pref": "佐賀県",
    "city": "唐津市",
    "category": "day_service",
    "serviceType": "通所介護",
    "capacity": 35,
    "openDays": [
      "平日",
      "土曜日",
      "祝日"
    ],
    "openDaysNote": ""
  },
  {
    "id": "4171400072",
    "name": "作礼荘デイサービス",
    "kana": "サクレイソウデイサービス",
    "address": "佐賀県唐津市相知町中山3544番地1",
    "lat": 33.3509978,
    "lng": 130.0159951,
    "tel": "0955-62-3903",
    "url": "http://web.people-i.ne.jp/~sakureisou/",
    "pref": "佐賀県",
    "city": "唐津市",
    "category": "day_service",
    "serviceType": "通所介護",
    "capacity": 35,
    "openDays": [
      "平日",
      "土曜日",
      "日曜日",
      "祝日"
    ],
    "openDaysNote": ""
  },
  {
    "id": "4170200846",
    "name": "指定通所介護施設　みらい",
    "kana": "シテイツウショカイゴシセツ　ミライ",
    "address": "浜玉町横田下931",
    "lat": 33.4354032,
    "lng": 130.0344282,
    "tel": "0955-56-2600",
    "url": "",
    "pref": "佐賀県",
    "city": "唐津市",
    "category": "day_service",
    "serviceType": "通所介護",
    "capacity": 0,
    "openDays": [
      "平日",
      "土曜日",
      "日曜日",
      "祝日"
    ],
    "openDaysNote": "自主事業として、お泊り・ショートステイ有り"
  },
  {
    "id": "4171400106",
    "name": "社会福祉法人唐津福祉会潮荘デイサービスちんぜい",
    "kana": "シャカイフクシホウジンカラツフクシカイウシオソウデイサービスチンゼイ",
    "address": "佐賀県唐津市鎮西町打上3075番地1",
    "lat": 33.5166544,
    "lng": 129.9012112,
    "tel": "0955-51-1132",
    "url": "http://www.k-fukushikai.jp/",
    "pref": "佐賀県",
    "city": "唐津市",
    "category": "day_service",
    "serviceType": "通所介護",
    "capacity": 0,
    "openDays": [
      "平日",
      "土曜日",
      "日曜日",
      "祝日"
    ],
    "openDaysNote": "なし"
  },
  {
    "id": "4170201497",
    "name": "虹の松原百花苑",
    "kana": "ニジノマツバラヒャッカエン",
    "address": "佐賀県唐津市浜玉町浜崎1799-57",
    "lat": 33.4494182514073,
    "lng": 130.033073133031,
    "tel": "0955-56-6211",
    "url": "https://kagayaki-care.co.jp/nijinomatsubara/",
    "pref": "佐賀県",
    "city": "唐津市",
    "category": "day_service",
    "serviceType": "通所介護",
    "capacity": 35,
    "openDays": [
      "平日",
      "土曜日",
      "日曜日",
      "祝日"
    ],
    "openDaysNote": ""
  },
  {
    "id": "4171400049",
    "name": "浜玉荘デイサービス",
    "kana": "ハマタマソウデイサービス",
    "address": "佐賀県唐津市浜玉町東山田2399番地",
    "lat": 33.4300291,
    "lng": 130.0456136,
    "tel": "0955-56-8711",
    "url": "http://k-fukusikai.jp/h_about_riyou.html",
    "pref": "佐賀県",
    "city": "唐津市",
    "category": "day_service",
    "serviceType": "通所介護",
    "capacity": null,
    "openDays": [
      "平日",
      "土曜日",
      "日曜日",
      "祝日"
    ],
    "openDaysNote": ""
  },
  {
    "id": "4170201406",
    "name": "宝寿荘デイサービス",
    "kana": "ホウジュソウデイサービス",
    "address": "佐賀県唐津市呼子町殿ノ浦797-23",
    "lat": 33.531855,
    "lng": 129.8892372,
    "tel": "0955-82-4845",
    "url": "ｋ-fukushikai.jp",
    "pref": "佐賀県",
    "city": "唐津市",
    "category": "day_service",
    "serviceType": "通所介護",
    "capacity": 25,
    "openDays": [
      "平日",
      "土曜日",
      "祝日"
    ],
    "openDaysNote": ""
  },
  {
    "id": "4171400171",
    "name": "岬荘デイサービス",
    "kana": "ミサキソウデイサービス",
    "address": "佐賀県唐津市肥前町鶴牧106番地11",
    "lat": 33.4485187,
    "lng": 129.8356074,
    "tel": "0955-51-6160",
    "url": "ｗｗｗ.k-ｆｕｋｕｓｈｉｋａｉ.ｊｐ/",
    "pref": "佐賀県",
    "city": "唐津市",
    "category": "day_service",
    "serviceType": "通所介護",
    "capacity": 0,
    "openDays": [
      "平日",
      "土曜日",
      "祝日"
    ],
    "openDaysNote": "毎週月曜日から土曜日、ただし、1月1日は休業とする。"
  },
  {
    "id": "4171600515",
    "name": "デイサービス　季楽里",
    "kana": "デイサービス　キラリ",
    "address": "佐賀県杵島郡白石町大字福田１６１９番地８",
    "lat": 33.18276,
    "lng": 130.1382408,
    "tel": "0952-84-5323",
    "url": "t-art-kirari02@ceres.ocn.ne.jp",
    "pref": "佐賀県",
    "city": "白石町",
    "category": "day_service",
    "serviceType": "通所介護",
    "capacity": 28,
    "openDays": [
      "平日",
      "土曜日",
      "日曜日",
      "祝日"
    ],
    "openDaysNote": ""
  },
  {
    "id": "4171600481",
    "name": "デイサービスいこい",
    "kana": "デイサービスイコイ",
    "address": "大字築切1146-1住宅型有料老人ホーム・デイサービスいこい 住宅型有料老人ホーム・デイサービスいこい",
    "lat": 33.1654285,
    "lng": 130.1477098,
    "tel": "0952-74-5212",
    "url": "",
    "pref": "佐賀県",
    "city": "白石町",
    "category": "day_service",
    "serviceType": "通所介護",
    "capacity": 28,
    "openDays": [
      "平日",
      "土曜日",
      "日曜日",
      "祝日"
    ],
    "openDaysNote": "利用者及び利用者の家族からの要望によって変更実施する場合有り"
  },
  {
    "id": "4171600093",
    "name": "デイサービスセンターうたがきの里",
    "kana": "デイサービスセンターウタガキノサト",
    "address": "佐賀県杵島郡白石町大字築切264-2",
    "lat": 33.16707,
    "lng": 130.1459294,
    "tel": "0952-20-3371",
    "url": "https://www.cableone.ne.jp/~utagaki-sato/",
    "pref": "佐賀県",
    "city": "白石町",
    "category": "day_service",
    "serviceType": "通所介護",
    "capacity": 0,
    "openDays": [
      "平日",
      "土曜日",
      "祝日"
    ],
    "openDaysNote": ""
  },
  {
    "id": "4171600028",
    "name": "デイサービスセンター桜の園",
    "kana": "デイサービスセンターサクラノソノ",
    "address": "佐賀県杵島郡白石町大字福富下分2387番地3",
    "lat": 33.1923049,
    "lng": 130.198964,
    "tel": "0952-87-3939",
    "url": "http://www.sakuranosono.com/",
    "pref": "佐賀県",
    "city": "白石町",
    "category": "day_service",
    "serviceType": "通所介護",
    "capacity": 0,
    "openDays": [
      "平日",
      "土曜日",
      "祝日"
    ],
    "openDaysNote": "元旦休日"
  },
  {
    "id": "4171600622",
    "name": "デイサービスそいよかね白石",
    "kana": "デイサービスソイヨカネシロイシ",
    "address": "佐賀県杵島郡白石町福田1268-１",
    "lat": 33.1827683,
    "lng": 130.1382435,
    "tel": "0952--37-5617",
    "url": "http://www.miz-pharmacy.co.jp",
    "pref": "佐賀県",
    "city": "白石町",
    "category": "day_service",
    "serviceType": "通所介護",
    "capacity": 35,
    "openDays": [
      "平日",
      "土曜日",
      "祝日"
    ],
    "openDaysNote": ""
  },
  {
    "id": "4171600689",
    "name": "デイサービスよろこび",
    "kana": "デイサービスヨロコビ",
    "address": "佐賀県杵島郡白石町大字田野上25番1",
    "lat": 33.1560829,
    "lng": 130.1158264,
    "tel": "954680766",
    "url": "",
    "pref": "佐賀県",
    "city": "白石町",
    "category": "day_service",
    "serviceType": "通所介護",
    "capacity": null,
    "openDays": [
      "平日",
      "土曜日",
      "日曜日",
      "祝日"
    ],
    "openDaysNote": ""
  },
  {
    "id": "4171600556",
    "name": "デイサービス小葉音",
    "kana": "デイサービスコハネ",
    "address": "大字福富下分2852",
    "lat": 33.1979182,
    "lng": 130.1948171,
    "tel": "0952-87-3777",
    "url": "",
    "pref": "佐賀県",
    "city": "白石町",
    "category": "day_service",
    "serviceType": "通所介護",
    "capacity": 20,
    "openDays": [
      "平日",
      "土曜日",
      "日曜日",
      "祝日"
    ],
    "openDaysNote": "12月31日、1月1日は休日"
  },
  {
    "id": "4171600507",
    "name": "デイサービス白石の杜",
    "kana": "デイサービスシロイシノモリ",
    "address": "佐賀県杵島郡白石町大字東郷１３０７番地３有料老人ホーム白石の杜 有料老人ホーム白石の杜",
    "lat": 33.1914273424186,
    "lng": 130.140009969252,
    "tel": "０９５２（７７）９１２２",
    "url": "",
    "pref": "佐賀県",
    "city": "白石町",
    "category": "day_service",
    "serviceType": "通所介護",
    "capacity": 0,
    "openDays": [
      "平日",
      "土曜日",
      "日曜日",
      "祝日"
    ],
    "openDaysNote": ""
  },
  {
    "id": "4170600656",
    "name": "スリヨンラソ",
    "kana": "スリヨンラソ",
    "address": "佐賀県武雄市武雄町永島15882番地3",
    "lat": 33.186281488407,
    "lng": 130.033804072588,
    "tel": "0954-22-3787",
    "url": "http://raso.hp.peraichi.com/top",
    "pref": "佐賀県",
    "city": "武雄市",
    "category": "day_service",
    "serviceType": "通所介護",
    "capacity": 0,
    "openDays": [
      "平日",
      "土曜日",
      "日曜日",
      "祝日"
    ],
    "openDaysNote": ""
  },
  {
    "id": "4170600474",
    "name": "デイサ-ビスセンタ-　道の家",
    "kana": "デイサービスセンター　ミチノイエ",
    "address": "佐賀県武雄市武雄町大字富岡11083番地1",
    "lat": 33.2074196536221,
    "lng": 130.022543993779,
    "tel": "0954-26-8111",
    "url": "http://npo-yutori.jp/",
    "pref": "佐賀県",
    "city": "武雄市",
    "category": "day_service",
    "serviceType": "通所介護",
    "capacity": 50,
    "openDays": [
      "平日",
      "土曜日",
      "祝日"
    ],
    "openDaysNote": ""
  },
  {
    "id": "4170600664",
    "name": "デイサービス　えるむの杜",
    "kana": "デイサービス　エルムノモリ",
    "address": "佐賀県武雄市西川登町大字小田志16799番地1",
    "lat": 33.1358753,
    "lng": 129.9872578,
    "tel": "0954-28-2213",
    "url": "https://yasaka-takeo.com/",
    "pref": "佐賀県",
    "city": "武雄市",
    "category": "day_service",
    "serviceType": "通所介護",
    "capacity": null,
    "openDays": [
      "平日",
      "土曜日",
      "日曜日",
      "祝日"
    ],
    "openDaysNote": ""
  },
  {
    "id": "4170600326",
    "name": "デイサービス　ほほえみ",
    "kana": "デイサービス　ホホエミ",
    "address": "佐賀県武雄市北方町大字大﨑４０７０番地１",
    "lat": 33.2287449612327,
    "lng": 130.045900795357,
    "tel": "０９５４－３６－５８００",
    "url": "",
    "pref": "佐賀県",
    "city": "武雄市",
    "category": "day_service",
    "serviceType": "通所介護",
    "capacity": 0,
    "openDays": [
      "平日",
      "土曜日",
      "祝日"
    ],
    "openDaysNote": "ただし、夏季（８月１５日）、年末年始（１２月３１日から１月２日）は除く。休日日及びただしの場合の日において、利用者、家族等がやむを得ない事由等により利用希望がある場合には、その限りにあらず、居宅支援事業所等と連絡協議し適時対応を検討いたします。"
  },
  {
    "id": "4170600581",
    "name": "デイサービス　永しまの里",
    "kana": "デイサービス　ナガシマノサト",
    "address": "武雄町大字永島14916-1",
    "lat": 33.1902993,
    "lng": 130.0353158,
    "tel": "0954-28-9225",
    "url": "https://www.carecompany-care.com/",
    "pref": "佐賀県",
    "city": "武雄市",
    "category": "day_service",
    "serviceType": "通所介護",
    "capacity": 35,
    "openDays": [
      "平日",
      "土曜日",
      "日曜日",
      "祝日"
    ],
    "openDaysNote": "1月1日を除く"
  },
  {
    "id": "4170600383",
    "name": "ディサービス　白岩の里",
    "kana": "デイサービス　シライワノサト",
    "address": "武雄町大字永島15027-1",
    "lat": 33.1900243,
    "lng": 130.0324022,
    "tel": "0954-26-8326",
    "url": "",
    "pref": "佐賀県",
    "city": "武雄市",
    "category": "day_service",
    "serviceType": "通所介護",
    "capacity": 30,
    "openDays": [
      "平日",
      "土曜日",
      "祝日"
    ],
    "openDaysNote": ""
  },
  {
    "id": "4170600284",
    "name": "デイサービスセンター　シニアケアたけお",
    "kana": "デイサービスセンター　シニアケアタケオ",
    "address": "佐賀県武雄市朝日町大字甘久4269番地28",
    "lat": 33.2187353,
    "lng": 130.0404231,
    "tel": "0954-26-8071",
    "url": "keiaikai.takeo．senior@ae.auone-net.jp",
    "pref": "佐賀県",
    "city": "武雄市",
    "category": "day_service",
    "serviceType": "通所介護",
    "capacity": 33,
    "openDays": [
      "平日",
      "土曜日",
      "日曜日",
      "祝日"
    ],
    "openDaysNote": "但し、担当者の勤務等や苦情内容により、即時に対応できない場合があります。"
  },
  {
    "id": "4171600069",
    "name": "デイサービスセンター　そよかぜの杜",
    "kana": "デイサービスセンター　ソヨカゼノモリ",
    "address": "佐賀県武雄市山内町大字大野7045番地",
    "lat": 33.2058735,
    "lng": 129.9350154,
    "tel": "0954-45-5155",
    "url": "https://www.seiwafukushikai.net/",
    "pref": "佐賀県",
    "city": "武雄市",
    "category": "day_service",
    "serviceType": "通所介護",
    "capacity": 40,
    "openDays": [
      "平日",
      "土曜日",
      "祝日"
    ],
    "openDaysNote": ""
  },
  {
    "id": "4170600128",
    "name": "デイサービスセンター　ひいらぎ",
    "kana": "デイサービスセンター　ヒイラギ",
    "address": "佐賀県武雄市武内町大字真手野２６３４６番地",
    "lat": 33.2454259,
    "lng": 129.9704318,
    "tel": "0954-20-8056",
    "url": "http://www.tokurou.com",
    "pref": "佐賀県",
    "city": "武雄市",
    "category": "day_service",
    "serviceType": "通所介護",
    "capacity": 0,
    "openDays": [
      "平日",
      "土曜日",
      "祝日"
    ],
    "openDaysNote": ""
  },
  {
    "id": "4171600085",
    "name": "デイサービスセンター杏花苑",
    "kana": "デイサービスセンターキョウカエン",
    "address": "佐賀県武雄市北方町大字志久4641-26",
    "lat": 33.2214902318177,
    "lng": 130.084943414422,
    "tel": "0954-36-5353",
    "url": "https://kyokaen.wixsite.com/nicelandkitagata",
    "pref": "佐賀県",
    "city": "武雄市",
    "category": "day_service",
    "serviceType": "通所介護",
    "capacity": 0,
    "openDays": [
      "平日",
      "土曜日",
      "祝日"
    ],
    "openDaysNote": ""
  },
  {
    "id": "4170600029",
    "name": "デイサービスセンター御船荘",
    "kana": "デイサービスセンターミフネソウ",
    "address": "佐賀県武雄市東川登町大字永野4058番地5",
    "lat": 33.1624876,
    "lng": 130.0160403,
    "tel": "0954-23-4065",
    "url": "https://takeo-seiwafukushikai.jp/",
    "pref": "佐賀県",
    "city": "武雄市",
    "category": "day_service",
    "serviceType": "通所介護",
    "capacity": 0,
    "openDays": [
      "平日",
      "土曜日",
      "祝日"
    ],
    "openDaysNote": ""
  },
  {
    "id": "4170600540",
    "name": "デイサービスセンター眺望の杜",
    "kana": "デイサービスセンターチョウボウノモリ",
    "address": "武雄町大字永島16243番地",
    "lat": 33.1825611,
    "lng": 130.0310248,
    "tel": "0954-28-9920",
    "url": "",
    "pref": "佐賀県",
    "city": "武雄市",
    "category": "day_service",
    "serviceType": "通所介護",
    "capacity": 0,
    "openDays": [
      "平日",
      "土曜日",
      "祝日"
    ],
    "openDaysNote": ""
  },
  {
    "id": "4170600169",
    "name": "デイサービスふれあい",
    "kana": "デイサービスフレアイ",
    "address": "佐賀県武雄市武雄町大字武雄5542番地186",
    "lat": 33.1895364744925,
    "lng": 130.014019713045,
    "tel": "0954-22-3969",
    "url": "http://takeo-fureai/co.jp",
    "pref": "佐賀県",
    "city": "武雄市",
    "category": "day_service",
    "serviceType": "通所介護",
    "capacity": 35,
    "openDays": [
      "平日",
      "土曜日",
      "日曜日",
      "祝日"
    ],
    "openDaysNote": "但し、正月元旦は、厨房でおせち料理を準備し、お屠蘇で年取りをしながら正月気分を味わって頂き（改行）1日だけは、ゆっくり正月番組等をみながら過ごして頂きます。"
  },
  {
    "id": "4170600755",
    "name": "デイサービスみふね山",
    "kana": "デイサービスミフネヤマ",
    "address": "佐賀県武雄市武雄町大字武雄104番地１",
    "lat": 33.1902532,
    "lng": 130.0068953,
    "tel": "0954-27-7073",
    "url": "",
    "pref": "佐賀県",
    "city": "武雄市",
    "category": "day_service",
    "serviceType": "通所介護",
    "capacity": 0,
    "openDays": [
      "平日",
      "土曜日",
      "日曜日",
      "祝日"
    ],
    "openDaysNote": ""
  },
  {
    "id": "4170600425",
    "name": "ぽっかぽか・ハートケア武雄",
    "kana": "ポッカポカ・ハートケアタケオ",
    "address": "佐賀県武雄市北方町大字大﨑2005-9",
    "lat": 33.2264515,
    "lng": 130.0569496,
    "tel": "0954-36-0987",
    "url": "",
    "pref": "佐賀県",
    "city": "武雄市",
    "category": "day_service",
    "serviceType": "通所介護",
    "capacity": 0,
    "openDays": [
      "平日",
      "土曜日",
      "日曜日",
      "祝日"
    ],
    "openDaysNote": ""
  },
  {
    "id": "4170600516",
    "name": "杏の丘　武雄",
    "kana": "アンズノオカ　タケオ",
    "address": "佐賀県武雄市北方町大字大﨑5025-49杏の丘　武雄 杏の丘　武雄",
    "lat": 33.2290768919382,
    "lng": 130.043455187697,
    "tel": "0954-36-0438",
    "url": "http://www.ufokai.com",
    "pref": "佐賀県",
    "city": "武雄市",
    "category": "day_service",
    "serviceType": "通所介護",
    "capacity": 35,
    "openDays": [
      "平日",
      "土曜日",
      "日曜日",
      "祝日"
    ],
    "openDaysNote": "年末年始休暇あり（日数はその年のカレンダーによる）（改行）台風・大雪・洪水などによる臨時休暇あり（改行）日曜日は定員２５名となります"
  },
  {
    "id": "4170600250",
    "name": "医療法人　清哲会　上西山デイサービスセンター",
    "kana": "イリョウホウジン　セイテツカイ　カミニシヤマデイサービスセンター",
    "address": "佐賀県武雄市武雄町大字武雄2132-2",
    "lat": 33.1837739,
    "lng": 129.9946303,
    "tel": "0954-27-8118",
    "url": "http://fujise-clinic.net/index.html",
    "pref": "佐賀県",
    "city": "武雄市",
    "category": "day_service",
    "serviceType": "通所介護",
    "capacity": 30,
    "openDays": [
      "平日",
      "土曜日"
    ],
    "openDaysNote": "大雨・大雪・凍結・強風等により、安全を考慮しサービス提供時間の変更や臨時休業の場合があります。"
  },
  {
    "id": "4111611408",
    "name": "医療法人　清哲会　藤瀬医院デイサービスセンター",
    "kana": "イリョウホウジン　セイテツカイ　フジセイインデイサービスセンター",
    "address": "佐賀県武雄市山内町大字鳥海9784番地",
    "lat": 33.1955274,
    "lng": 129.9625831,
    "tel": "0954-45-5633",
    "url": "",
    "pref": "佐賀県",
    "city": "武雄市",
    "category": "day_service",
    "serviceType": "通所介護",
    "capacity": 0,
    "openDays": [
      "平日",
      "土曜日"
    ],
    "openDaysNote": ""
  },
  {
    "id": "4110610864",
    "name": "医療法人東雲会　小野医院デイサービスセンター",
    "kana": "イリョウホウジンシノノメカイ　オノイインデイサービスセンター",
    "address": "佐賀県武雄市東川登町永野5752番地2",
    "lat": 33.1620761,
    "lng": 130.0009053,
    "tel": "0954-23-3002",
    "url": "www.shinonome-kai.net",
    "pref": "佐賀県",
    "city": "武雄市",
    "category": "day_service",
    "serviceType": "通所介護",
    "capacity": 120,
    "openDays": [
      "平日",
      "土曜日"
    ],
    "openDaysNote": ""
  },
  {
    "id": "4170600573",
    "name": "介護福祉ステーション風の音",
    "kana": "カイゴフクシステーション　カゼノネ",
    "address": "佐賀県武雄市西川登町大字小田志16859番地1",
    "lat": 33.1330617,
    "lng": 129.9866079,
    "tel": "0954-28-2077",
    "url": "https://yasaka-takeo.com/",
    "pref": "佐賀県",
    "city": "武雄市",
    "category": "day_service",
    "serviceType": "通所介護",
    "capacity": 0,
    "openDays": [
      "平日",
      "土曜日",
      "日曜日",
      "祝日"
    ],
    "openDaysNote": ""
  },
  {
    "id": "4110610633",
    "name": "持田病院デイサービスセンター",
    "kana": "モチダビョウインデイサービスセンター",
    "address": "佐賀県武雄市武雄町大字武雄５８５８番地１",
    "lat": 33.1895103929245,
    "lng": 130.009319215344,
    "tel": "0954-22-3138",
    "url": "http://www2.saganet.ne.jp/mochida3/",
    "pref": "佐賀県",
    "city": "武雄市",
    "category": "day_service",
    "serviceType": "通所介護",
    "capacity": 0,
    "openDays": [
      "平日",
      "土曜日"
    ],
    "openDaysNote": ""
  },
  {
    "id": "4171600192",
    "name": "竜門堂デイサービスセンターげんき。",
    "kana": "リュウモンドウデイサービスセンターゲンキ。",
    "address": "武雄市山内町大野６６０４－１",
    "lat": 33.2109786,
    "lng": 129.9377706,
    "tel": "0954-20-7151",
    "url": "http://www.ryumondo.or.jp",
    "pref": "佐賀県",
    "city": "武雄市",
    "category": "day_service",
    "serviceType": "通所介護",
    "capacity": 0,
    "openDays": [
      "平日",
      "土曜日",
      "祝日"
    ],
    "openDaysNote": "特になし"
  },
  {
    "id": "4170600342",
    "name": "竜門堂デイサービスセンター爽風館",
    "kana": "リュウモンドウデイサービスセンターソウフウカン",
    "address": "武雄市山内町大字三間坂甲１４０４３番地",
    "lat": 33.1915748,
    "lng": 129.9549698,
    "tel": "0954-45-0650",
    "url": "",
    "pref": "佐賀県",
    "city": "武雄市",
    "category": "day_service",
    "serviceType": "通所介護",
    "capacity": 0,
    "openDays": [
      "平日",
      "土曜日",
      "祝日"
    ],
    "openDaysNote": ""
  },
  {
    "id": "4171500129",
    "name": "デイサービス　癒赤坂",
    "kana": "デイサービス　ユアカサカ",
    "address": "佐賀県西松浦郡有田町赤坂丙2843-12デイサービス　癒赤坂 デイサービス　癒赤坂",
    "lat": 33.1963293,
    "lng": 129.8716794,
    "tel": "0955-43-3356",
    "url": "http://yuakasaka.co.jp/",
    "pref": "佐賀県",
    "city": "有田町",
    "category": "day_service",
    "serviceType": "通所介護",
    "capacity": 0,
    "openDays": [
      "平日",
      "土曜日",
      "日曜日",
      "祝日"
    ],
    "openDaysNote": "その他、天災など不測の事態が発生した場合などは危険回避のため休みといたします。"
  },
  {
    "id": "4171500012",
    "name": "デイサービスセンター「やすらぎ」",
    "kana": "デイサービスセンター「ヤスラギ」",
    "address": "佐賀県西松浦郡有田町南原甲６６４番地４",
    "lat": 33.1928923013019,
    "lng": 129.863893072075,
    "tel": "0955-41-1315",
    "url": "http://arita-shakyo.com/",
    "pref": "佐賀県",
    "city": "有田町",
    "category": "day_service",
    "serviceType": "通所介護",
    "capacity": 0,
    "openDays": [
      "平日",
      "土曜日",
      "祝日"
    ],
    "openDaysNote": ""
  },
  {
    "id": "4171500103",
    "name": "デイサービスセンターさくら苑",
    "kana": "デイサービスセンターサクラエン",
    "address": "佐賀県西松浦郡有田町仏ノ原甲1235番地2",
    "lat": 33.1982581926737,
    "lng": 129.855796557672,
    "tel": "0955-41-2601",
    "url": "",
    "pref": "佐賀県",
    "city": "有田町",
    "category": "day_service",
    "serviceType": "通所介護",
    "capacity": 25,
    "openDays": [
      "平日",
      "土曜日",
      "日曜日",
      "祝日"
    ],
    "openDaysNote": ""
  },
  {
    "id": "4171500111",
    "name": "デイサービストリムぬくもいホーム",
    "kana": "デイサービストリムヌクモイホーム",
    "address": "佐賀県西松浦郡有田町立部乙２２３６番地１",
    "lat": 33.2123326,
    "lng": 129.8490559,
    "tel": "0955-46-2903",
    "url": "www.nihon-trim.jp",
    "pref": "佐賀県",
    "city": "有田町",
    "category": "day_service",
    "serviceType": "通所介護",
    "capacity": 20,
    "openDays": [
      "平日",
      "土曜日",
      "日曜日",
      "祝日"
    ],
    "openDaysNote": "利用者の残存機能を活かし、自立へ近づけるように持っていく。（改行）年始もサロンとしてのご利用が可能です。"
  },
  {
    "id": "4171500160",
    "name": "介護付複合福祉施設　パークハウス・有田",
    "kana": "カイゴツキフクゴウフクシシセツ　パークハウス・アリタ",
    "address": "佐賀県西松浦郡有田町原明乙114番地1",
    "lat": 33.1838621002567,
    "lng": 129.851580993918,
    "tel": "0955-41-2160",
    "url": "http://jikou-kai.net/park/index.html",
    "pref": "佐賀県",
    "city": "有田町",
    "category": "day_service",
    "serviceType": "通所介護",
    "capacity": 0,
    "openDays": [
      "平日",
      "土曜日",
      "祝日"
    ],
    "openDaysNote": ""
  },
  {
    "id": "4171500087",
    "name": "社会福祉法人　慈光会　特別養護老人施設　りんでんホームズ",
    "kana": "シャカイフクシホウジンジコウカイトクベツヨウゴロウジンシセツリンデンホームズ",
    "address": "佐賀県西松浦郡有田町戸矢乙614-1",
    "lat": 33.1622573,
    "lng": 129.899439,
    "tel": "0955-41-0500",
    "url": "http://www.jikou-kai.net/ｒinden/index.html",
    "pref": "佐賀県",
    "city": "有田町",
    "category": "day_service",
    "serviceType": "通所介護",
    "capacity": 25,
    "openDays": [
      "平日",
      "土曜日",
      "祝日"
    ],
    "openDaysNote": ""
  },
  {
    "id": "4171500053",
    "name": "通所介護　それいゆホームズ",
    "kana": "ツウショカイゴ　ソレイユホームズ",
    "address": "佐賀県西松浦郡有田町二ノ瀬甲1250-1",
    "lat": 33.2353217,
    "lng": 129.85731,
    "tel": "0955-41-2150",
    "url": "http://www.jikou-kai.net/",
    "pref": "佐賀県",
    "city": "有田町",
    "category": "day_service",
    "serviceType": "通所介護",
    "capacity": 25,
    "openDays": [
      "平日",
      "土曜日",
      "祝日"
    ],
    "openDaysNote": ""
  }
]