[
  {
    "id": "3071300994",
    "name": "ＲＥＶＥ",
    "kana": "レーヴ",
    "address": "和歌山県伊都郡かつらぎ町笠田東470-1",
    "lat": 34.2872749,
    "lng": 135.4764027,
    "tel": "0736-23-2212",
    "url": "",
    "pref": "和歌山県",
    "city": "かつらぎ町",
    "category": "day_service",
    "serviceType": "通所介護",
    "capacity": 0,
    "openDays": [
      "平日",
      "祝日"
    ],
    "openDaysNote": ""
  },
  {
    "id": "3071300861",
    "name": "デイサービスひだまりの里かつらぎ",
    "kana": "デイサービスヒダマリノサトカツラギ",
    "address": "伊都郡かつらぎ町佐野613-1",
    "lat": 34.2935992240084,
    "lng": 135.486471772219,
    "tel": "0736-22-5550",
    "url": "",
    "pref": "和歌山県",
    "city": "かつらぎ町",
    "category": "day_service",
    "serviceType": "通所介護",
    "capacity": 0,
    "openDays": [
      "平日",
      "土曜日",
      "祝日"
    ],
    "openDaysNote": "事前に相談いただければ延長サービスの利用も可能。"
  },
  {
    "id": "3071300077",
    "name": "愛光園デイサービスセンター",
    "kana": "アイコウエンデイサービスセンター",
    "address": "和歌山県伊都郡かつらぎ町佐野１３８６",
    "lat": 34.288621,
    "lng": 135.4853436,
    "tel": "0736-23-2670",
    "url": "http://www.aiko-en.or.jp/",
    "pref": "和歌山県",
    "city": "かつらぎ町",
    "category": "day_service",
    "serviceType": "通所介護",
    "capacity": 20,
    "openDays": [
      "平日",
      "土曜日",
      "祝日"
    ],
    "openDaysNote": "なし"
  },
  {
    "id": "3071301018",
    "name": "医療法人南労会　かつらぎデイサービスセンター",
    "kana": "イリョウホウジンナンロウカイ　カツラギデイサービスセンター",
    "address": "笠田東15-2",
    "lat": 34.2922465,
    "lng": 135.4808247,
    "tel": "0736-22-6600",
    "url": "http://www.nanroukai.or.jp",
    "pref": "和歌山県",
    "city": "かつらぎ町",
    "category": "day_service",
    "serviceType": "通所介護",
    "capacity": 0,
    "openDays": [
      "平日",
      "土曜日",
      "祝日"
    ],
    "openDaysNote": ""
  },
  {
    "id": "3071300903",
    "name": "特別養護老人ホームあさひ",
    "kana": "トクベツヨウゴロウジンホームアサヒ",
    "address": "和歌山県伊都郡かつらぎ町大字西飯降字白田谷461番6",
    "lat": 34.3178566,
    "lng": 135.525719,
    "tel": "0736-23-3010",
    "url": "",
    "pref": "和歌山県",
    "city": "かつらぎ町",
    "category": "day_service",
    "serviceType": "通所介護",
    "capacity": 0,
    "openDays": [
      "平日",
      "土曜日",
      "祝日"
    ],
    "openDaysNote": "12月31日〜1月1日までは休日とする。"
  },
  {
    "id": "3072400801",
    "name": "社会福祉法人　すさみ町社会福祉協議会",
    "kana": "シャカイフクシホウジン　スサミチョウシャカイフクシキョウギカイ",
    "address": "和歌山県西牟婁郡すさみ町周参見４１３３すさみ町地域福祉センター すさみ町地域福祉センター",
    "lat": 33.5499592,
    "lng": 135.4955984,
    "tel": "0739-55-4104",
    "url": "https://www.shakyo.or.jp/hp/index.php?s=1308",
    "pref": "和歌山県",
    "city": "すさみ町",
    "category": "day_service",
    "serviceType": "通所介護",
    "capacity": 0,
    "openDays": [
      "平日",
      "土曜日",
      "祝日"
    ],
    "openDaysNote": ""
  },
  {
    "id": "3072100609",
    "name": "デイサービスセンター　虹",
    "kana": "デイサービスセンター　ニジ",
    "address": "和歌山県日高郡みなべ町埴田1450-１",
    "lat": 33.7514575,
    "lng": 135.327853,
    "tel": "0739-72-1018",
    "url": "http://www.seieikai.or.jp/",
    "pref": "和歌山県",
    "city": "みなべ町",
    "category": "day_service",
    "serviceType": "通所介護",
    "capacity": 0,
    "openDays": [
      "平日",
      "土曜日",
      "祝日"
    ],
    "openDaysNote": ""
  },
  {
    "id": "3072100245",
    "name": "ときわ寮梅の里デイサービスセンター",
    "kana": "トキワリョウウメノサトデイサービスセンター",
    "address": "和歌山県日高郡みなべ町滝４３７番地",
    "lat": 33.841553,
    "lng": 135.3493814,
    "tel": "0739-75-2618",
    "url": "http://www.tokiwa-roujin.jp/",
    "pref": "和歌山県",
    "city": "みなべ町",
    "category": "day_service",
    "serviceType": "通所介護",
    "capacity": 0,
    "openDays": [
      "平日",
      "土曜日",
      "祝日"
    ],
    "openDaysNote": ""
  },
  {
    "id": "3072100039",
    "name": "みなべ町社協ふれ愛センター",
    "kana": "ミナベチョウシャキョウフレアイセンター",
    "address": "和歌山県日高郡みなべ町東本庄100番地",
    "lat": 33.7930497,
    "lng": 135.3303162,
    "tel": "0739-74-3069",
    "url": "http://www.wakayamanet.or.jp/minabeshakyo/",
    "pref": "和歌山県",
    "city": "みなべ町",
    "category": "day_service",
    "serviceType": "通所介護",
    "capacity": 0,
    "openDays": [
      "平日",
      "祝日"
    ],
    "openDaysNote": ""
  },
  {
    "id": "3072100187",
    "name": "みなべ町社協ゆうゆう館",
    "kana": "ミナベチョウシャキョウユウユウカン",
    "address": "和歌山県日高郡みなべ町埴田1444番地1",
    "lat": 33.752263,
    "lng": 135.3266226,
    "tel": "0739-72-5900",
    "url": "https://minabe-shakyo.or.jp/",
    "pref": "和歌山県",
    "city": "みなべ町",
    "category": "day_service",
    "serviceType": "通所介護",
    "capacity": 35,
    "openDays": [
      "平日",
      "祝日"
    ],
    "openDaysNote": ""
  },
  {
    "id": "3072101003",
    "name": "辻の郷デイサービスセンター",
    "kana": "ツジノサトデイサービスセンター",
    "address": "和歌山県日高郡みなべ町東吉田282辻の郷 辻の郷",
    "lat": 33.7761711,
    "lng": 135.3250892,
    "tel": "0739-34-2205",
    "url": "https://care-net.biz/30/tujinosato/",
    "pref": "和歌山県",
    "city": "みなべ町",
    "category": "day_service",
    "serviceType": "通所介護",
    "capacity": 20,
    "openDays": [
      "平日",
      "祝日"
    ],
    "openDaysNote": "年末年始（12/30～1/3）"
  },
  {
    "id": "3072100203",
    "name": "特別養護老人ホーム　カルフール・ド・ルポ印南",
    "kana": "トクベツヨウゴロウジンホーム　カルフール・ド・ルポイナミ",
    "address": "和歌山県日高郡印南町山口150番地1",
    "lat": 33.8219697,
    "lng": 135.2215916,
    "tel": "0738-42-8100",
    "url": "http://carrefour-inami.jp/",
    "pref": "和歌山県",
    "city": "印南町",
    "category": "day_service",
    "serviceType": "通所介護",
    "capacity": 40,
    "openDays": [
      "平日",
      "土曜日",
      "祝日"
    ],
    "openDaysNote": ""
  },
  {
    "id": "3071400463",
    "name": "エンジョイさくら",
    "kana": "エンジョイサクラ",
    "address": "和歌山県海南市大野中４４９－３",
    "lat": 34.1530486607248,
    "lng": 135.220102582838,
    "tel": "073-484-5008",
    "url": "http://www.sakuraclinic.org/publics/index/30/",
    "pref": "和歌山県",
    "city": "海南市",
    "category": "day_service",
    "serviceType": "通所介護",
    "capacity": 30,
    "openDays": [
      "平日",
      "土曜日",
      "祝日"
    ],
    "openDaysNote": "延長サービス18時まで"
  },
  {
    "id": "3071100097",
    "name": "かぐのみ苑デイサービスセンター",
    "kana": "カグノミエンデイサービスセンター",
    "address": "和歌山県海南市下津町丸田１１１１－１",
    "lat": 34.1340373,
    "lng": 135.1573522,
    "tel": "073-492-5800",
    "url": "",
    "pref": "和歌山県",
    "city": "海南市",
    "category": "day_service",
    "serviceType": "通所介護",
    "capacity": 0,
    "openDays": [
      "平日",
      "土曜日",
      "祝日"
    ],
    "openDaysNote": ""
  },
  {
    "id": "3071401412",
    "name": "デイサービス・トレーニングセンター　こんにちはkainan",
    "kana": "デイサービストレーニングセンター　コンニチハカイナン",
    "address": "和歌山県海南市且来101-3",
    "lat": 34.1721701,
    "lng": 135.2317015,
    "tel": "073-486-2228",
    "url": "",
    "pref": "和歌山県",
    "city": "海南市",
    "category": "day_service",
    "serviceType": "通所介護",
    "capacity": 0,
    "openDays": [
      "平日",
      "土曜日",
      "祝日"
    ],
    "openDaysNote": ""
  },
  {
    "id": "3071401214",
    "name": "デイサービスジャックと豆の木",
    "kana": "デイサアビス　ジャックトマメノキ",
    "address": "藤白142-5",
    "lat": 34.1459258,
    "lng": 135.2088033,
    "tel": "073-483-2800",
    "url": "",
    "pref": "和歌山県",
    "city": "海南市",
    "category": "day_service",
    "serviceType": "通所介護",
    "capacity": 13,
    "openDays": [
      "平日",
      "土曜日",
      "祝日"
    ],
    "openDaysNote": ""
  },
  {
    "id": "3071100337",
    "name": "デイサービスセンター・こころ",
    "kana": "デイサービスセンター・ココロ",
    "address": "和歌山県海南市下津町方2151番地",
    "lat": 34.1260793,
    "lng": 135.1348245,
    "tel": "073-492-0899",
    "url": "http://cocolo4031.com/company.html",
    "pref": "和歌山県",
    "city": "海南市",
    "category": "day_service",
    "serviceType": "通所介護",
    "capacity": 19,
    "openDays": [
      "平日",
      "土曜日",
      "祝日"
    ],
    "openDaysNote": "定休日、時間外についても、転送電話にて担当職員に連絡は随時取れる体制をとっています。"
  },
  {
    "id": "3071100261",
    "name": "デイサービスセンターひだまり",
    "kana": "デイサービスセンターヒダマリ",
    "address": "和歌山県海南市下津町方498-25",
    "lat": 34.1242854,
    "lng": 135.1445011,
    "tel": "073-493-3300",
    "url": "https://www.kisan.or.jp",
    "pref": "和歌山県",
    "city": "海南市",
    "category": "day_service",
    "serviceType": "通所介護",
    "capacity": 0,
    "openDays": [
      "平日",
      "土曜日",
      "祝日"
    ],
    "openDaysNote": ""
  },
  {
    "id": "3071401297",
    "name": "デイサービスセンター南風園",
    "kana": "デイサービスセンターナンプウエン",
    "address": "和歌山県海南市木津２３３番地４０",
    "lat": 34.1548732,
    "lng": 135.2758452,
    "tel": "073-487-3616",
    "url": "https://www.wfj.or.jp",
    "pref": "和歌山県",
    "city": "海南市",
    "category": "day_service",
    "serviceType": "通所介護",
    "capacity": 20,
    "openDays": [
      "平日"
    ],
    "openDaysNote": ""
  },
  {
    "id": "3071401438",
    "name": "リハプライド海南",
    "kana": "リハプライドカイナン",
    "address": "和歌山県海南市日方330番地",
    "lat": 34.1577589437949,
    "lng": 135.209271758444,
    "tel": "073-482-4355",
    "url": "https://www.rehapride.co.jp/kainan/",
    "pref": "和歌山県",
    "city": "海南市",
    "category": "day_service",
    "serviceType": "通所介護",
    "capacity": 45,
    "openDays": [
      "平日",
      "土曜日",
      "祝日"
    ],
    "openDaysNote": ""
  },
  {
    "id": "3071401271",
    "name": "医療法人恵友会デイサービスセンターらそ恵友",
    "kana": "イリョウホウジンケイユウカイデイサービスセンターラソケイユウ",
    "address": "和歌山県海南市船尾257-7医療法人恵友会デイサービスセンターらそ恵友 医療法人恵友会デイサービスセンターらそ恵友",
    "lat": 34.1585520701087,
    "lng": 135.198926406169,
    "tel": "073-483-2220",
    "url": "http://www.keiyukai.com/main/index.html",
    "pref": "和歌山県",
    "city": "海南市",
    "category": "day_service",
    "serviceType": "通所介護",
    "capacity": 0,
    "openDays": [
      "平日",
      "土曜日"
    ],
    "openDaysNote": ""
  },
  {
    "id": "3071400661",
    "name": "海南・海草　総合介護支援センター　　デイサービスげんき",
    "kana": "カイナン・カイソウ　ソウゴウカイゴシエンセンター　　デイサービスゲンキ",
    "address": "沖野々394-3",
    "lat": 34.1604835,
    "lng": 135.2705956,
    "tel": "073-487-3388",
    "url": "http://www.w-iryoseikyo.com",
    "pref": "和歌山県",
    "city": "海南市",
    "category": "day_service",
    "serviceType": "通所介護",
    "capacity": 22,
    "openDays": [
      "平日",
      "土曜日"
    ],
    "openDaysNote": ""
  },
  {
    "id": "3071401339",
    "name": "阪井カルフール・ド・ルポ",
    "kana": "サカイカルフール・ド・ルポ",
    "address": "和歌山県海南市阪井1769番地1　1770番地1",
    "lat": 34.1603404767379,
    "lng": 135.265676415264,
    "tel": "073-488-2116",
    "url": "http://www.doujin-kai.or.jp/lavie/",
    "pref": "和歌山県",
    "city": "海南市",
    "category": "day_service",
    "serviceType": "通所介護",
    "capacity": 0,
    "openDays": [
      "平日",
      "土曜日",
      "祝日"
    ],
    "openDaysNote": ""
  },
  {
    "id": "3071401115",
    "name": "通所介護事業所　輝",
    "kana": "ツウショカイゴジギョウショ　カガヤキ",
    "address": "和歌山県海南市日方1242-6",
    "lat": 34.1562328,
    "lng": 135.2114612,
    "tel": "073-496-0007",
    "url": "",
    "pref": "和歌山県",
    "city": "海南市",
    "category": "day_service",
    "serviceType": "通所介護",
    "capacity": 0,
    "openDays": [
      "平日",
      "土曜日",
      "祝日"
    ],
    "openDaysNote": ""
  },
  {
    "id": "3011410143",
    "name": "辻秀輝整形外科",
    "kana": "ツジヒデキセイケイゲカ",
    "address": "和歌山県海南市名高１７８－１",
    "lat": 34.1535723,
    "lng": 135.2156497,
    "tel": "073-483-3131",
    "url": "http://tsujihideki.com",
    "pref": "和歌山県",
    "city": "海南市",
    "category": "day_service",
    "serviceType": "通所介護",
    "capacity": 0,
    "openDays": [
      "平日",
      "祝日"
    ],
    "openDaysNote": ""
  },
  {
    "id": "3071400075",
    "name": "特別養護老人ホーム天美苑",
    "kana": "トクベツヨウゴロウジンホームテンビエン",
    "address": "海南市七山９６４番地の１",
    "lat": 34.1961325,
    "lng": 135.3088888,
    "tel": "073-486-0663",
    "url": "http://www.tenbien.jp/",
    "pref": "和歌山県",
    "city": "海南市",
    "category": "day_service",
    "serviceType": "通所介護",
    "capacity": 0,
    "openDays": [
      "平日",
      "土曜日",
      "日曜日",
      "祝日"
    ],
    "openDaysNote": ""
  },
  {
    "id": "3071400620",
    "name": "平成デイサービスセンター海南",
    "kana": "ヘイセイデイサービスセンターカイナン",
    "address": "和歌山県海南市孟子字波免７０９－１",
    "lat": 34.190378640326,
    "lng": 135.299889157178,
    "tel": "073-486-0788",
    "url": "http://ryoku.tokuyou.jp/",
    "pref": "和歌山県",
    "city": "海南市",
    "category": "day_service",
    "serviceType": "通所介護",
    "capacity": 22,
    "openDays": [
      "平日",
      "土曜日",
      "祝日"
    ],
    "openDaysNote": ""
  },
  {
    "id": "3071800654",
    "name": "Acti-va",
    "kana": "アクティーバ",
    "address": "和歌山県岩出市根来８２３－１",
    "lat": 34.2779573666128,
    "lng": 135.299545770409,
    "tel": "0736-69-0051",
    "url": "http://www.mikurumakai.or.jp/affiliated/acti-va-2-2/",
    "pref": "和歌山県",
    "city": "岩出市",
    "category": "day_service",
    "serviceType": "通所介護",
    "capacity": 47,
    "openDays": [
      "平日",
      "土曜日",
      "祝日"
    ],
    "openDaysNote": ""
  },
  {
    "id": "3071800647",
    "name": "Livingリハ陶彩館",
    "kana": "リビングリハトウサイカン",
    "address": "和歌山県岩出市中島863-1",
    "lat": 34.2604092327962,
    "lng": 135.298907785042,
    "tel": "0736-69-1031",
    "url": "https://livingreha.tousaikan.com",
    "pref": "和歌山県",
    "city": "岩出市",
    "category": "day_service",
    "serviceType": "通所介護",
    "capacity": 40,
    "openDays": [
      "平日",
      "祝日"
    ],
    "openDaysNote": ""
  },
  {
    "id": "3011810144",
    "name": "おおみや診療所",
    "kana": "オオミヤシンリョウショ",
    "address": "岩出市宮50-1",
    "lat": 34.2550476,
    "lng": 135.3157532,
    "tel": "0736-61-6151",
    "url": "",
    "pref": "和歌山県",
    "city": "岩出市",
    "category": "day_service",
    "serviceType": "通所介護",
    "capacity": 20,
    "openDays": [
      "平日",
      "土曜日"
    ],
    "openDaysNote": ""
  },
  {
    "id": "3071800829",
    "name": "カルチャークラブ一期一笑",
    "kana": "カルチャークラブイチゴイチエ",
    "address": "和歌山県岩出市根来1418",
    "lat": 34.2825037,
    "lng": 135.3087492,
    "tel": "736605438",
    "url": "https://mizue.life",
    "pref": "和歌山県",
    "city": "岩出市",
    "category": "day_service",
    "serviceType": "通所介護",
    "capacity": 19,
    "openDays": [
      "平日",
      "土曜日",
      "祝日"
    ],
    "openDaysNote": ""
  },
  {
    "id": "3071800902",
    "name": "すずのき",
    "kana": "スズノキ",
    "address": "和歌山県岩出市岡田543-2",
    "lat": 34.2580314,
    "lng": 135.329315,
    "tel": "0736-62-3333",
    "url": "",
    "pref": "和歌山県",
    "city": "岩出市",
    "category": "day_service",
    "serviceType": "通所介護",
    "capacity": null,
    "openDays": [
      "平日",
      "土曜日",
      "祝日"
    ],
    "openDaysNote": ""
  },
  {
    "id": "3071800621",
    "name": "デイサービス　ソレイユプラス",
    "kana": "デイサービス　ソレイユプラス",
    "address": "和歌山県岩出市野上野98-3",
    "lat": 36.204824,
    "lng": 138.252924,
    "tel": "0736-67-7625",
    "url": "http://soleil-day.com",
    "pref": "和歌山県",
    "city": "岩出市",
    "category": "day_service",
    "serviceType": "通所介護",
    "capacity": 0,
    "openDays": [
      "平日",
      "祝日"
    ],
    "openDaysNote": ""
  },
  {
    "id": "3071800050",
    "name": "デイサービス・トレーニングセンターこんにちは",
    "kana": "デイサービス・トレーニングセンターコンニチハ",
    "address": "和歌山県岩出市吉田242-9",
    "lat": 34.2661715,
    "lng": 135.2810296,
    "tel": "0736-69-0294",
    "url": "",
    "pref": "和歌山県",
    "city": "岩出市",
    "category": "day_service",
    "serviceType": "通所介護",
    "capacity": 0,
    "openDays": [
      "平日",
      "土曜日",
      "祝日"
    ],
    "openDaysNote": ""
  },
  {
    "id": "3071800894",
    "name": "デイサービスセンターこんにちはRelax",
    "kana": "デイサービスセンターコンニチハリラックス",
    "address": "和歌山県岩出市清水5-1",
    "lat": 34.2508314,
    "lng": 135.3192953,
    "tel": "0736-61-3557",
    "url": "",
    "pref": "和歌山県",
    "city": "岩出市",
    "category": "day_service",
    "serviceType": "通所介護",
    "capacity": 0,
    "openDays": [
      "平日",
      "祝日"
    ],
    "openDaysNote": ""
  },
  {
    "id": "3071800803",
    "name": "デイサービスセンター晴れごこち",
    "kana": "デイサービスセンターハレゴコチ",
    "address": "和歌山県岩出市岡田695-1",
    "lat": 34.2563263,
    "lng": 135.3331267,
    "tel": "0736-61-5487",
    "url": "http:/homepage2.nifty.com/sakurano-oka/index.html",
    "pref": "和歌山県",
    "city": "岩出市",
    "category": "day_service",
    "serviceType": "通所介護",
    "capacity": 0,
    "openDays": [
      "平日",
      "祝日"
    ],
    "openDaysNote": "祝日、年末年始営業"
  },
  {
    "id": "3071200822",
    "name": "のぞみデイサービスセンター",
    "kana": "ノゾミデイサービスセンター",
    "address": "和歌山県岩出市山591番地",
    "lat": 34.2718515,
    "lng": 135.2850099,
    "tel": "0736-69-3551",
    "url": "http://kairakuen.or.jp",
    "pref": "和歌山県",
    "city": "岩出市",
    "category": "day_service",
    "serviceType": "通所介護",
    "capacity": 25,
    "openDays": [
      "平日",
      "土曜日",
      "祝日"
    ],
    "openDaysNote": ""
  },
  {
    "id": "3071800472",
    "name": "プライマリーリハビリ・デイサービス",
    "kana": "プライマリーリハビリ・デイサービス",
    "address": "和歌山県岩出市今中127-6",
    "lat": 34.2731665,
    "lng": 135.3155306,
    "tel": "0736-62-5862",
    "url": "http://primary.style",
    "pref": "和歌山県",
    "city": "岩出市",
    "category": "day_service",
    "serviceType": "通所介護",
    "capacity": 0,
    "openDays": [
      "平日"
    ],
    "openDaysNote": "年末年始休み（１２月３０日～１月３日）"
  },
  {
    "id": "3071800019",
    "name": "まりっくすデイサービスセンター岩出",
    "kana": "マリックスデイサービスセンターイワデ",
    "address": "和歌山県岩出市川尻72-4",
    "lat": 34.2668298,
    "lng": 135.3096538,
    "tel": "0736-69-0300",
    "url": "http://care-net.biz/30/marix/",
    "pref": "和歌山県",
    "city": "岩出市",
    "category": "day_service",
    "serviceType": "通所介護",
    "capacity": 25,
    "openDays": [
      "平日",
      "土曜日",
      "祝日"
    ],
    "openDaysNote": ""
  },
  {
    "id": "3071800746",
    "name": "リハビリデイサービス　ソレイユ",
    "kana": "リハビリデイサービス　ソレイユ",
    "address": "和歌山県岩出市野上野97",
    "lat": 34.2756623,
    "lng": 135.3177525,
    "tel": "0736-79-3626",
    "url": "http://soleil-day.com",
    "pref": "和歌山県",
    "city": "岩出市",
    "category": "day_service",
    "serviceType": "通所介護",
    "capacity": 0,
    "openDays": [
      "平日",
      "祝日"
    ],
    "openDaysNote": "1単位目　9：00～12：10（改行）（改行）2単位目　14：00～17：10"
  },
  {
    "id": "3071200434",
    "name": "皆楽園デイサービスセンター",
    "kana": "カイラクエンデイサービスセンター",
    "address": "和歌山県岩出市西国分６６８番地",
    "lat": 34.2651772,
    "lng": 135.330754,
    "tel": "0736-63-0250",
    "url": "http://www.kairakuenn.or.jp/",
    "pref": "和歌山県",
    "city": "岩出市",
    "category": "day_service",
    "serviceType": "通所介護",
    "capacity": 5,
    "openDays": [
      "平日",
      "土曜日",
      "祝日"
    ],
    "openDaysNote": ""
  },
  {
    "id": "3071200467",
    "name": "岩出あいあいデイサービスセンター",
    "kana": "イワデアイアイデイサービスセンター",
    "address": "和歌山県岩出市金池92",
    "lat": 34.2742818,
    "lng": 135.2954642,
    "tel": "0736-61-2051",
    "url": "http://kairakuen.or.jp",
    "pref": "和歌山県",
    "city": "岩出市",
    "category": "day_service",
    "serviceType": "通所介護",
    "capacity": 45,
    "openDays": [
      "平日",
      "祝日"
    ],
    "openDaysNote": ""
  },
  {
    "id": "3071800639",
    "name": "岩出憩い園デイサービスセンター",
    "kana": "イワデイコイエンデイサービスセンター",
    "address": "和歌山県岩出市溝川２２番地",
    "lat": 34.2549822574637,
    "lng": 135.325722006746,
    "tel": "0736-67-2012",
    "url": "https://kinokunifukujyukai.com/",
    "pref": "和歌山県",
    "city": "岩出市",
    "category": "day_service",
    "serviceType": "通所介護",
    "capacity": 25,
    "openDays": [
      "平日",
      "祝日"
    ],
    "openDaysNote": ""
  },
  {
    "id": "3071700979",
    "name": "デイサービス　りんく",
    "kana": "デイサービス　リンク",
    "address": "和歌山県紀の川市畑野上333-1",
    "lat": 34.2600289972097,
    "lng": 135.347588298148,
    "tel": "0736-79-3832",
    "url": "",
    "pref": "和歌山県",
    "city": "紀の川市",
    "category": "day_service",
    "serviceType": "通所介護",
    "capacity": null,
    "openDays": [
      "平日",
      "祝日"
    ],
    "openDaysNote": ""
  },
  {
    "id": "3071700904",
    "name": "デイサービス　花桃",
    "kana": "デイサービスハナモモ",
    "address": "和歌山県紀の川市桃山町元969-1",
    "lat": 34.2365222,
    "lng": 135.3474004,
    "tel": "0736-66-1188",
    "url": "hanamomo-w.sakura.ne.jp",
    "pref": "和歌山県",
    "city": "紀の川市",
    "category": "day_service",
    "serviceType": "通所介護",
    "capacity": 19,
    "openDays": [
      "平日",
      "土曜日",
      "日曜日",
      "祝日"
    ],
    "openDaysNote": ""
  },
  {
    "id": "3071701183",
    "name": "デイサービスNICO",
    "kana": "デイサービスニコ",
    "address": "和歌山県紀の川市下井阪605番地",
    "lat": 34.2586472,
    "lng": 135.338961,
    "tel": "736782055",
    "url": "",
    "pref": "和歌山県",
    "city": "紀の川市",
    "category": "day_service",
    "serviceType": "通所介護",
    "capacity": 0,
    "openDays": [
      "平日"
    ],
    "openDaysNote": "年末年始（12/30～1/3）を除く。"
  },
  {
    "id": "3071701134",
    "name": "デイサービスきのくに",
    "kana": "デイサービスキノクニ",
    "address": "和歌山県紀の川市貴志川町長原245-1",
    "lat": 34.2157578,
    "lng": 135.3035488,
    "tel": "0736-79-3390",
    "url": "",
    "pref": "和歌山県",
    "city": "紀の川市",
    "category": "day_service",
    "serviceType": "通所介護",
    "capacity": 0,
    "openDays": [
      "平日",
      "祝日"
    ],
    "openDaysNote": ""
  },
  {
    "id": "3071700060",
    "name": "デイサービスセンター　かがやき",
    "kana": "デイサービスセンター　カガヤキ",
    "address": "紀の川市貴志川町尼寺６６１－１",
    "lat": 34.2253174,
    "lng": 135.3099325,
    "tel": "0736-65-3817",
    "url": "",
    "pref": "和歌山県",
    "city": "紀の川市",
    "category": "day_service",
    "serviceType": "通所介護",
    "capacity": 0,
    "openDays": [
      "平日",
      "土曜日",
      "祝日"
    ],
    "openDaysNote": ""
  },
  {
    "id": "3071700458",
    "name": "デイサービスセンター　ほほえみの里",
    "kana": "デイサービスセンター　ホホエミノサト",
    "address": "和歌山県紀の川市貴志川町長山277-108",
    "lat": 34.2076971,
    "lng": 135.2876551,
    "tel": "0736-64-7500",
    "url": "",
    "pref": "和歌山県",
    "city": "紀の川市",
    "category": "day_service",
    "serviceType": "通所介護",
    "capacity": 30,
    "openDays": [
      "平日",
      "土曜日",
      "祝日"
    ],
    "openDaysNote": ""
  },
  {
    "id": "3071700565",
    "name": "デイサービスセンターきしがわ園",
    "kana": "デイサービスセンターキシガワエン",
    "address": "和歌山県紀の川市貴志川町尼寺359",
    "lat": 34.2261031366075,
    "lng": 135.313054488947,
    "tel": "0736-65-2525",
    "url": "https://seianna.jp",
    "pref": "和歌山県",
    "city": "紀の川市",
    "category": "day_service",
    "serviceType": "通所介護",
    "capacity": 25,
    "openDays": [
      "平日",
      "土曜日",
      "祝日"
    ],
    "openDaysNote": ""
  },
  {
    "id": "3071200855",
    "name": "デイサービスセンターたかお",
    "kana": "デイサービスセンタータカオ",
    "address": "和歌山県紀の川市貴志川町高尾字蟹ケ谷194番地の1",
    "lat": 34.2032487,
    "lng": 135.3231065,
    "tel": "0736-65-3380",
    "url": "",
    "pref": "和歌山県",
    "city": "紀の川市",
    "category": "day_service",
    "serviceType": "通所介護",
    "capacity": 35,
    "openDays": [
      "平日",
      "土曜日",
      "祝日"
    ],
    "openDaysNote": ""
  },
  {
    "id": "3071201200",
    "name": "デイサービスセンター後楽",
    "kana": "デイサービスセンターコウラク",
    "address": "紀の川市黒土262ケアハウス後楽荘 ケアハウス後楽荘",
    "lat": 34.2610514312833,
    "lng": 135.378810217197,
    "tel": "0736-77-3575",
    "url": "http://www.kourakusou3575.sakura.ne.jp/",
    "pref": "和歌山県",
    "city": "紀の川市",
    "category": "day_service",
    "serviceType": "通所介護",
    "capacity": 40,
    "openDays": [
      "平日",
      "土曜日",
      "祝日"
    ],
    "openDaysNote": ""
  },
  {
    "id": "3071700946",
    "name": "デイサービスセンター瑞穂",
    "kana": "デイサービスセンターミズホ",
    "address": "和歌山県紀の川市粉河775-1GrandHome瑞穂 GrandHome瑞穂",
    "lat": 34.2730802,
    "lng": 135.4044009,
    "tel": "0736-74-1003",
    "url": "http://mizuho-home.co.jp",
    "pref": "和歌山県",
    "city": "紀の川市",
    "category": "day_service",
    "serviceType": "通所介護",
    "capacity": 0,
    "openDays": [
      "平日",
      "土曜日",
      "祝日"
    ],
    "openDaysNote": ""
  },
  {
    "id": "3071701001",
    "name": "ブルーミングケアいろは紀の川",
    "kana": "ブルーミングケアイロハキノカワ",
    "address": "和歌山県紀の川市中井阪２２６番地1",
    "lat": 34.2600547105242,
    "lng": 135.34276154251,
    "tel": "０７３６－６７－７４５１",
    "url": "",
    "pref": "和歌山県",
    "city": "紀の川市",
    "category": "day_service",
    "serviceType": "通所介護",
    "capacity": 2,
    "openDays": [
      "平日",
      "土曜日",
      "日曜日",
      "祝日"
    ],
    "openDaysNote": ""
  },
  {
    "id": "3071700581",
    "name": "よっといで長山",
    "kana": "ヨットイデナガヤマ",
    "address": "和歌山県紀の川市貴志川町長山259-5",
    "lat": 34.2102386,
    "lng": 135.2914157,
    "tel": "0736-64-2798",
    "url": "https://www.pasona-lc.co.jp/",
    "pref": "和歌山県",
    "city": "紀の川市",
    "category": "day_service",
    "serviceType": "通所介護",
    "capacity": 25,
    "openDays": [
      "平日",
      "土曜日",
      "祝日"
    ],
    "openDaysNote": ""
  },
  {
    "id": "3071700086",
    "name": "医療法人慈愛会サニー倶楽部",
    "kana": "イリョウホウジンジアイカイサニークラブ",
    "address": "紀の川市粉河1912",
    "lat": 34.2748911,
    "lng": 135.4043481,
    "tel": "0736-74-3200",
    "url": "http://www.katsuda-ichouka.or.jp/sunny.html",
    "pref": "和歌山県",
    "city": "紀の川市",
    "category": "day_service",
    "serviceType": "通所介護",
    "capacity": 45,
    "openDays": [
      "平日"
    ],
    "openDaysNote": ""
  },
  {
    "id": "3071700896",
    "name": "一織庵デイサービス打田",
    "kana": "イオリアンデイサービスウチタ",
    "address": "和歌山県紀の川市中井坂358-2",
    "lat": 34.2567672,
    "lng": 135.3485888,
    "tel": "0736-77-6006",
    "url": "",
    "pref": "和歌山県",
    "city": "紀の川市",
    "category": "day_service",
    "serviceType": "通所介護",
    "capacity": 0,
    "openDays": [
      "平日",
      "土曜日",
      "日曜日",
      "祝日"
    ],
    "openDaysNote": ""
  },
  {
    "id": "3071700391",
    "name": "一般デイサービスなだい",
    "kana": "イッパンデイサービスナダイ",
    "address": "紀の川市下井阪６０５トータルケアセンターなだい トータルケアセンターなだい",
    "lat": 34.2565948,
    "lng": 135.3382342,
    "tel": "０７３６－７８－２０５５",
    "url": "http://www.tcc-nadai.com",
    "pref": "和歌山県",
    "city": "紀の川市",
    "category": "day_service",
    "serviceType": "通所介護",
    "capacity": 18,
    "openDays": [
      "平日",
      "祝日"
    ],
    "openDaysNote": ""
  },
  {
    "id": "3071200566",
    "name": "栄寿苑デイサービスセンター",
    "kana": "エイジュエン　デイサービスセンター",
    "address": "和歌山県紀の川市麻生津中字飯盛1279番地",
    "lat": 34.248245,
    "lng": 135.4621488,
    "tel": "0736-75-6888",
    "url": "http://koueikai-nate.com/",
    "pref": "和歌山県",
    "city": "紀の川市",
    "category": "day_service",
    "serviceType": "通所介護",
    "capacity": 35,
    "openDays": [
      "平日",
      "土曜日",
      "祝日"
    ],
    "openDaysNote": "通常サービス提供時間は、8：30～15：45です。"
  },
  {
    "id": "3071700151",
    "name": "皆楽園心愛デイサービスセンター",
    "kana": "カイラクエンシンアイデイサービスセンター",
    "address": "和歌山県紀の川市重行31番地",
    "lat": 34.2805983,
    "lng": 135.3701368,
    "tel": "0736-77-7575",
    "url": "http://www.kairakuen.or.jp/",
    "pref": "和歌山県",
    "city": "紀の川市",
    "category": "day_service",
    "serviceType": "通所介護",
    "capacity": 0,
    "openDays": [
      "平日",
      "祝日"
    ],
    "openDaysNote": ""
  },
  {
    "id": "3071200475",
    "name": "打田友愛デイサービスセンター",
    "kana": "ウチタユウアイデイサービスセンター",
    "address": "和歌山県紀の川市畑野上２７２番地",
    "lat": 34.2641469,
    "lng": 135.3472803,
    "tel": "0736-77-1881",
    "url": "http://kairakuen.or.jp",
    "pref": "和歌山県",
    "city": "紀の川市",
    "category": "day_service",
    "serviceType": "通所介護",
    "capacity": 30,
    "openDays": [
      "平日",
      "土曜日",
      "祝日"
    ],
    "openDaysNote": ""
  },
  {
    "id": "3071201101",
    "name": "風の里デイサービスセンター",
    "kana": "カゼノサトデイサービスセンター",
    "address": "和歌山県紀の川市粉河951-1",
    "lat": 34.2689057,
    "lng": 135.4025012,
    "tel": "0736-74-3116",
    "url": "http://www.koyokai.or.jp",
    "pref": "和歌山県",
    "city": "紀の川市",
    "category": "day_service",
    "serviceType": "通所介護",
    "capacity": 35,
    "openDays": [
      "平日",
      "祝日"
    ],
    "openDaysNote": ""
  },
  {
    "id": "3071100386",
    "name": "モモ",
    "kana": "モモ",
    "address": "和歌山県海草郡紀美野町鎌滝６３6番地",
    "lat": 34.142069,
    "lng": 135.3835824,
    "tel": "073-495-2221",
    "url": "",
    "pref": "和歌山県",
    "city": "紀美野町",
    "category": "day_service",
    "serviceType": "通所介護",
    "capacity": 0,
    "openDays": [
      "平日",
      "土曜日",
      "祝日"
    ],
    "openDaysNote": ""
  },
  {
    "id": "3071100154",
    "name": "社会福祉法人　紀美野町社会福祉協議会　通所介護事業所",
    "kana": "シャカイフクシホウジン　キミノチョウシャカイフクシキョウギカイ　ツウショカイゴジギョウショ",
    "address": "和歌山県海草郡紀美野町下佐々1408番地4紀美野町総合福祉センター 紀美野町総合福祉センター",
    "lat": 34.1521352,
    "lng": 135.3109025,
    "tel": "073-489-9963",
    "url": "",
    "pref": "和歌山県",
    "city": "紀美野町",
    "category": "day_service",
    "serviceType": "通所介護",
    "capacity": 30,
    "openDays": [
      "平日"
    ],
    "openDaysNote": ""
  },
  {
    "id": "3071100071",
    "name": "美里園デイサービス事業所",
    "kana": "ミサトエンデイサービスジギョウショ",
    "address": "和歌山県海草郡紀美野町安井6-1",
    "lat": 34.1490559,
    "lng": 135.3466156,
    "tel": "073-495-2653",
    "url": "http://seiwa-sws.or.jp/",
    "pref": "和歌山県",
    "city": "紀美野町",
    "category": "day_service",
    "serviceType": "通所介護",
    "capacity": null,
    "openDays": [
      "平日",
      "祝日"
    ],
    "openDaysNote": ""
  },
  {
    "id": "3071300622",
    "name": "ケアランド伊都",
    "kana": "ケアランドイト",
    "address": "和歌山県橋本市高野口町向島171-４",
    "lat": 34.3018482,
    "lng": 135.5493323,
    "tel": "0736-43-0710",
    "url": "",
    "pref": "和歌山県",
    "city": "橋本市",
    "category": "day_service",
    "serviceType": "通所介護",
    "capacity": null,
    "openDays": [
      "平日",
      "土曜日",
      "祝日"
    ],
    "openDaysNote": ""
  },
  {
    "id": "3071001014",
    "name": "デイサービス　みとうの里",
    "kana": "デイサービス　ミトウノサト",
    "address": "隅田町下兵庫1047-2みとうの里　1階 みとうの里　1階",
    "lat": 34.3307466354164,
    "lng": 135.630109850965,
    "tel": "0736-34-0606",
    "url": "www.mitouph.com/",
    "pref": "和歌山県",
    "city": "橋本市",
    "category": "day_service",
    "serviceType": "通所介護",
    "capacity": 23,
    "openDays": [
      "平日",
      "土曜日"
    ],
    "openDaysNote": ""
  },
  {
    "id": "3071001360",
    "name": "デイサービス　生きがい工房",
    "kana": "デイサービス　イキガイコウボウ",
    "address": "和歌山県橋本市御幸辻１４４－１",
    "lat": 34.3367576,
    "lng": 135.6061448,
    "tel": "０７３６－２０－９０１５",
    "url": "http://ikigaikoubou.sakura.ne.jp/",
    "pref": "和歌山県",
    "city": "橋本市",
    "category": "day_service",
    "serviceType": "通所介護",
    "capacity": null,
    "openDays": [
      "平日",
      "祝日"
    ],
    "openDaysNote": "12月30日～1月3日"
  },
  {
    "id": "3071300531",
    "name": "デイサービスセンター　さくら苑",
    "kana": "デイサービスセンター　サクラエン",
    "address": "和歌山県橋本市高野口町大野１８４４－１３３",
    "lat": 34.3231456,
    "lng": 135.5593115,
    "tel": "0736-44-1189",
    "url": "https://www.sakuraenn.com",
    "pref": "和歌山県",
    "city": "橋本市",
    "category": "day_service",
    "serviceType": "通所介護",
    "capacity": 30,
    "openDays": [
      "平日",
      "土曜日",
      "祝日"
    ],
    "openDaysNote": ""
  },
  {
    "id": "3071000297",
    "name": "デイサービス春林館",
    "kana": "デイサービスシュンリンカン",
    "address": "和歌山県橋本市神野々1109-2",
    "lat": 34.3046506,
    "lng": 135.5819683,
    "tel": "0736-39-5030",
    "url": "http://www.nanroukai.or.jp/nanroukai/group/shunrinkan/",
    "pref": "和歌山県",
    "city": "橋本市",
    "category": "day_service",
    "serviceType": "通所介護",
    "capacity": 0,
    "openDays": [
      "平日",
      "土曜日",
      "祝日"
    ],
    "openDaysNote": ""
  },
  {
    "id": "3071300366",
    "name": "ニチイケアセンター紀北",
    "kana": "ニチイケアセンターキホク",
    "address": "和歌山県橋本市高野口町伏原267-1",
    "lat": 34.3081557,
    "lng": 135.5727441,
    "tel": "0736-44-2186",
    "url": "http://www.nichiigakkan.co.jp",
    "pref": "和歌山県",
    "city": "橋本市",
    "category": "day_service",
    "serviceType": "通所介護",
    "capacity": 28,
    "openDays": [
      "平日",
      "土曜日",
      "祝日"
    ],
    "openDaysNote": "営業時間は、送迎時間を含みます。"
  },
  {
    "id": "3071000123",
    "name": "ひかり苑",
    "kana": "ヒカリエン",
    "address": "橋本市隅田町中島1058-56",
    "lat": 34.3381198,
    "lng": 135.6371707,
    "tel": "0736-37-3000",
    "url": "http://care-net.biz/30/koseikai/",
    "pref": "和歌山県",
    "city": "橋本市",
    "category": "day_service",
    "serviceType": "通所介護",
    "capacity": 0,
    "openDays": [
      "平日",
      "土曜日",
      "祝日"
    ],
    "openDaysNote": "年末年始及び災害・悪天候等により臨時休業する場合があります。"
  },
  {
    "id": "3071001089",
    "name": "医療法人仁清会　つくしの宿デイサービスセンター",
    "kana": "イリョウホウジンジンセイカイ　ツクシノヤドデイサービスセンター",
    "address": "和歌山県橋本市清水２７１－１",
    "lat": 34.3078757,
    "lng": 135.603827,
    "tel": "0736-39-5539",
    "url": "http://www.e-okamoto-clinic.com/dayservice.html",
    "pref": "和歌山県",
    "city": "橋本市",
    "category": "day_service",
    "serviceType": "通所介護",
    "capacity": 22,
    "openDays": [
      "平日",
      "土曜日",
      "祝日"
    ],
    "openDaysNote": "12/30～1/3は休業させていただきます。"
  },
  {
    "id": "3071001436",
    "name": "医療法人南労会　デイサービスセンター",
    "kana": "イリョウホウジンナンロウカイ　デイサービスセンター",
    "address": "高野口町名古曽610",
    "lat": 34.3029775313796,
    "lng": 135.563713653967,
    "tel": "0736-42-0032",
    "url": "http://www.nanroukai.or.jp",
    "pref": "和歌山県",
    "city": "橋本市",
    "category": "day_service",
    "serviceType": "通所介護",
    "capacity": 0,
    "openDays": [
      "平日",
      "土曜日",
      "祝日"
    ],
    "openDaysNote": ""
  },
  {
    "id": "3071000719",
    "name": "橋本市高野口デイサービスセンター",
    "kana": "ハシモトシコウヤグチデイサービスセンター",
    "address": "和歌山県橋本市高野口町名倉1202-2",
    "lat": 34.3101833,
    "lng": 135.5597702,
    "tel": "0736-43-2528",
    "url": "http://keieikai.com",
    "pref": "和歌山県",
    "city": "橋本市",
    "category": "day_service",
    "serviceType": "通所介護",
    "capacity": 0,
    "openDays": [
      "平日",
      "土曜日",
      "祝日"
    ],
    "openDaysNote": ""
  },
  {
    "id": "3071000750",
    "name": "隅田クラブ",
    "kana": "スダクラブ",
    "address": "和歌山県橋本市隅田町真土325-1",
    "lat": 34.3330233,
    "lng": 135.6581745,
    "tel": "0736-33-7800",
    "url": "https://actcare-system.com/",
    "pref": "和歌山県",
    "city": "橋本市",
    "category": "day_service",
    "serviceType": "通所介護",
    "capacity": 35,
    "openDays": [
      "平日",
      "祝日"
    ],
    "openDaysNote": ""
  },
  {
    "id": "3071000495",
    "name": "春風デイサービス",
    "kana": "ハルカゼデイサービス",
    "address": "和歌山県橋本市小原田30-1",
    "lat": 34.3240683,
    "lng": 135.6076736,
    "tel": "0736-32-8528",
    "url": "http:www.carestationharukaze",
    "pref": "和歌山県",
    "city": "橋本市",
    "category": "day_service",
    "serviceType": "通所介護",
    "capacity": 0,
    "openDays": [
      "平日",
      "土曜日",
      "祝日"
    ],
    "openDaysNote": ""
  },
  {
    "id": "3071001428",
    "name": "生きがい製作所",
    "kana": "イキガイセイサクショ",
    "address": "和歌山県橋本市高野口町小田649-5",
    "lat": 34.3003729,
    "lng": 135.5605893,
    "tel": "0736-20-4235",
    "url": "http://ikigaikoubou.sakura.ne.jp/index.html",
    "pref": "和歌山県",
    "city": "橋本市",
    "category": "day_service",
    "serviceType": "通所介護",
    "capacity": 0,
    "openDays": [
      "平日",
      "祝日"
    ],
    "openDaysNote": ""
  },
  {
    "id": "3071001410",
    "name": "通所介護ごもうのいえ",
    "kana": "ツウショカイゴゴモウノイエ",
    "address": "和歌山県橋本市胡麻生700-20",
    "lat": 34.3386124,
    "lng": 135.6105553,
    "tel": "0736-36-7700",
    "url": "http://jinsyoudou.wix.com/gomounoie",
    "pref": "和歌山県",
    "city": "橋本市",
    "category": "day_service",
    "serviceType": "通所介護",
    "capacity": null,
    "openDays": [
      "平日",
      "祝日"
    ],
    "openDaysNote": ""
  },
  {
    "id": "3071000560",
    "name": "風倶楽部デイサービスセンター",
    "kana": "カゼクラブデイサービスセンター",
    "address": "橋本市高野口町名古曽926-1",
    "lat": 34.3021398,
    "lng": 135.5585205,
    "tel": "0736-44-2668",
    "url": "http://www.koyokai.or.jp",
    "pref": "和歌山県",
    "city": "橋本市",
    "category": "day_service",
    "serviceType": "通所介護",
    "capacity": 0,
    "openDays": [
      "平日",
      "祝日"
    ],
    "openDaysNote": ""
  },
  {
    "id": "3071300390",
    "name": "デイサービスプラチナ",
    "kana": "デイサービスプラチナ",
    "address": "伊都郡九度山町九度山800",
    "lat": 34.2832365,
    "lng": 135.5663004,
    "tel": "0736-54-3111",
    "url": "",
    "pref": "和歌山県",
    "city": "九度山町",
    "category": "day_service",
    "serviceType": "通所介護",
    "capacity": 0,
    "openDays": [
      "平日",
      "土曜日",
      "祝日"
    ],
    "openDaysNote": "５月３日から５月５日、お盆休み、年末年始はお休みです。"
  },
  {
    "id": "3071301034",
    "name": "リハビリデイサービスあはは",
    "kana": "リハビリデイサービスアハハ",
    "address": "和歌山県伊都郡九度山町河根384-39",
    "lat": 34.2808577,
    "lng": 135.5741126,
    "tel": "0736-54-9056",
    "url": "",
    "pref": "和歌山県",
    "city": "九度山町",
    "category": "day_service",
    "serviceType": "通所介護",
    "capacity": 0,
    "openDays": [
      "平日",
      "土曜日"
    ],
    "openDaysNote": ""
  },
  {
    "id": "3071300176",
    "name": "社会福祉法人　九度山町社会福祉協議会",
    "kana": "シャカイフクシホウジン　クドヤマチョウシャカイフクシキョウギカイ",
    "address": "和歌山県伊都郡九度山町河根732-1　九度山町地域福祉センター内九度山町地域福祉センター 九度山町地域福祉センター",
    "lat": 34.2760929,
    "lng": 135.5788131,
    "tel": "0736-54-9294",
    "url": "http://www.shakyo.jp/hp/1295",
    "pref": "和歌山県",
    "city": "九度山町",
    "category": "day_service",
    "serviceType": "通所介護",
    "capacity": 40,
    "openDays": [
      "平日",
      "祝日"
    ],
    "openDaysNote": ""
  },
  {
    "id": "3072400298",
    "name": "にしき園指定通所介護事業所",
    "kana": "ニシキエンシテイツウショカイゴジギョウショ",
    "address": "和歌山県東牟婁郡串本町二色160・165番地",
    "lat": 33.489038,
    "lng": 135.7688606,
    "tel": "0735-62-6922",
    "url": "http://www2.ocn.ne.jp/~nisikien/",
    "pref": "和歌山県",
    "city": "串本町",
    "category": "day_service",
    "serviceType": "通所介護",
    "capacity": 45,
    "openDays": [
      "平日",
      "土曜日",
      "日曜日",
      "祝日"
    ],
    "openDaysNote": ""
  },
  {
    "id": "3072500766",
    "name": "串本町古座デイサービスセンター",
    "kana": "クシモトチョウコザデイサービスセンター",
    "address": "和歌山県東牟婁郡串本町上野山２９１－４古座福祉センター 古座福祉センター",
    "lat": 33.5183381,
    "lng": 135.8334589,
    "tel": "０７３５－７２－３５４０",
    "url": "",
    "pref": "和歌山県",
    "city": "串本町",
    "category": "day_service",
    "serviceType": "通所介護",
    "capacity": 0,
    "openDays": [
      "平日",
      "祝日"
    ],
    "openDaysNote": "運営規定の必要により、営業日以外でも営業します。"
  },
  {
    "id": "3072400017",
    "name": "串本町社会福祉協議会",
    "kana": "クシモトチョウウシャカイフクシキョウギカイ",
    "address": "和歌山県東牟婁郡串本町サンゴ台７８３番７串本町福祉総合センター",
    "lat": 33.4836944247047,
    "lng": 135.782799035635,
    "tel": "0735-62-7060",
    "url": "http://k-sainantan.sakura.ne.jp/",
    "pref": "和歌山県",
    "city": "串本町",
    "category": "day_service",
    "serviceType": "通所介護",
    "capacity": 0,
    "openDays": [
      "平日",
      "祝日"
    ],
    "openDaysNote": ""
  },
  {
    "id": "3072501079",
    "name": "明日葉の郷",
    "kana": "アシタバノサト",
    "address": "和歌山県東牟婁郡串本町潮岬2688番地の7",
    "lat": 33.4409048180435,
    "lng": 135.763476429616,
    "tel": "0735-67-7887",
    "url": "https://ashitaba.c-co.jp/",
    "pref": "和歌山県",
    "city": "串本町",
    "category": "day_service",
    "serviceType": "通所介護",
    "capacity": 5,
    "openDays": [
      "平日",
      "土曜日",
      "祝日"
    ],
    "openDaysNote": "訪問介護、居宅介護支援事業所を併設しており、年中無休で対応しています。"
  },
  {
    "id": "3072000742",
    "name": "ケアビレッジデイサービス歩",
    "kana": "ケアビレッジデイサービスアユミ",
    "address": "和歌山県御坊市湯川町財部662-1",
    "lat": 33.898991,
    "lng": 135.1532698,
    "tel": "0738-22-8181",
    "url": "http://nexvi.co.jp",
    "pref": "和歌山県",
    "city": "御坊市",
    "category": "day_service",
    "serviceType": "通所介護",
    "capacity": 0,
    "openDays": [
      "平日",
      "祝日"
    ],
    "openDaysNote": ""
  },
  {
    "id": "3072000858",
    "name": "デイサービスケアビレッジ御坊",
    "kana": "デイサービスケアビレッジゴボウ",
    "address": "和歌山県御坊市湯川町財部377-6",
    "lat": 33.9039571,
    "lng": 135.1594195,
    "tel": "0738-22-8613",
    "url": "",
    "pref": "和歌山県",
    "city": "御坊市",
    "category": "day_service",
    "serviceType": "通所介護",
    "capacity": 0,
    "openDays": [
      "平日",
      "土曜日",
      "日曜日",
      "祝日"
    ],
    "openDaysNote": ""
  },
  {
    "id": "3072000734",
    "name": "デイサービスセンター　ごぼうの郷",
    "kana": "デイサービスセンター　ゴボウノサト",
    "address": "和歌山県御坊市熊野44-4",
    "lat": 33.889893,
    "lng": 135.1764032,
    "tel": "0738－22－5500",
    "url": "http://gobo310.sakura.ne.jp/gb310/",
    "pref": "和歌山県",
    "city": "御坊市",
    "category": "day_service",
    "serviceType": "通所介護",
    "capacity": 25,
    "openDays": [
      "平日",
      "土曜日",
      "日曜日",
      "祝日"
    ],
    "openDaysNote": ""
  },
  {
    "id": "3072000684",
    "name": "デイサービスセンターキタデ",
    "kana": "デイサービスセンターキタデ",
    "address": "和歌山県御坊市湯川町財部728-4C棟４階 C棟４階",
    "lat": 33.8970905738207,
    "lng": 135.155704420435,
    "tel": "0738-24-3064",
    "url": "http://www.hck.jp/",
    "pref": "和歌山県",
    "city": "御坊市",
    "category": "day_service",
    "serviceType": "通所介護",
    "capacity": 0,
    "openDays": [
      "平日",
      "土曜日",
      "祝日"
    ],
    "openDaysNote": ""
  },
  {
    "id": "3072000759",
    "name": "やまばデイサービスセンター",
    "kana": "ヤマバデイサービスセンター",
    "address": "薗564-1",
    "lat": 34.7206934,
    "lng": 135.4831399,
    "tel": "0738-20-5056",
    "url": "https://nexvi.co.jp/",
    "pref": "和歌山県",
    "city": "御坊市",
    "category": "day_service",
    "serviceType": "通所介護",
    "capacity": 0,
    "openDays": [
      "平日",
      "土曜日"
    ],
    "openDaysNote": ""
  },
  {
    "id": "3072000486",
    "name": "三和デイサービス小松原店",
    "kana": "サンワデイサービス　コマツバラテン",
    "address": "和歌山県御坊市湯川町小松原599-12",
    "lat": 33.9032104,
    "lng": 135.1470469,
    "tel": "0738-23-0925",
    "url": "",
    "pref": "和歌山県",
    "city": "御坊市",
    "category": "day_service",
    "serviceType": "通所介護",
    "capacity": 15,
    "openDays": [
      "平日",
      "土曜日"
    ],
    "openDaysNote": "8/13～8/15　　12/30～1/3はお休みです"
  },
  {
    "id": "3072000353",
    "name": "日高博愛園第２ディサービスセンター",
    "kana": "ヒダカハクアイエンダイ２ディサービスセンター",
    "address": "和歌山県御坊市名田町野島字舎ヶ谷3321-3",
    "lat": 33.8334702,
    "lng": 135.1790392,
    "tel": "0738-29-2366",
    "url": "hakuaikai.net",
    "pref": "和歌山県",
    "city": "御坊市",
    "category": "day_service",
    "serviceType": "通所介護",
    "capacity": 0,
    "openDays": [
      "平日",
      "土曜日",
      "祝日"
    ],
    "openDaysNote": ""
  },
  {
    "id": "3072000817",
    "name": "博愛園デイサービスセンター春日",
    "kana": "ハクアイエンデイサービスセンターカスガ",
    "address": "和歌山県御坊市島２２１番地２",
    "lat": 33.89162,
    "lng": 135.1595121,
    "tel": "0738-52-5126",
    "url": "https://www.hakuaikai.net",
    "pref": "和歌山県",
    "city": "御坊市",
    "category": "day_service",
    "serviceType": "通所介護",
    "capacity": 0,
    "openDays": [
      "平日",
      "土曜日",
      "祝日"
    ],
    "openDaysNote": ""
  },
  {
    "id": "3071601391",
    "name": "デイサービス　和の郷",
    "kana": "デイサービス　ワノサト",
    "address": "和歌山県有田郡広川町広81-8",
    "lat": 34.0256108,
    "lng": 135.1814557,
    "tel": "0737-23-8080",
    "url": "http://hp.kaipoke.biz/04y/",
    "pref": "和歌山県",
    "city": "広川町",
    "category": "day_service",
    "serviceType": "通所介護",
    "capacity": 0,
    "openDays": [
      "平日",
      "土曜日",
      "祝日"
    ],
    "openDaysNote": ""
  },
  {
    "id": "3071600526",
    "name": "デイサービスセンター広川苑",
    "kana": "デイサービスセンターヒロガワエン",
    "address": "有田郡広川町和田１８",
    "lat": 34.0253103,
    "lng": 135.1640741,
    "tel": "0737-65-0555",
    "url": "http://w-himawarikai.or.jp/",
    "pref": "和歌山県",
    "city": "広川町",
    "category": "day_service",
    "serviceType": "通所介護",
    "capacity": 0,
    "openDays": [
      "平日",
      "土曜日",
      "祝日"
    ],
    "openDaysNote": ""
  },
  {
    "id": "3071600146",
    "name": "広川町デイサービスセンター",
    "kana": "ヒロガワチョウデイサービスセンター",
    "address": "和歌山県有田郡広川町大字広１５００番地広川町保健福祉センター内 広川町保健福祉センター内",
    "lat": 34.029496,
    "lng": 135.1728149,
    "tel": "0737-64-0866",
    "url": "http://www.town.hirogawa.wakayama.jp",
    "pref": "和歌山県",
    "city": "広川町",
    "category": "day_service",
    "serviceType": "通所介護",
    "capacity": 0,
    "openDays": [
      "平日"
    ],
    "openDaysNote": ""
  },
  {
    "id": "3071600351",
    "name": "在宅複合型施設ひろの里通所介護事業",
    "kana": "ザイタクフクゴウガタシセツヒロノサトツウショカイゴジギョウ",
    "address": "和歌山県有田郡広川町下津木1105-5",
    "lat": 33.9793643,
    "lng": 135.2155144,
    "tel": "0737-67-9132",
    "url": "http://www.kitabakai.jp/",
    "pref": "和歌山県",
    "city": "広川町",
    "category": "day_service",
    "serviceType": "通所介護",
    "capacity": 13,
    "openDays": [
      "平日",
      "土曜日",
      "日曜日",
      "祝日"
    ],
    "openDaysNote": ""
  },
  {
    "id": "3071300226",
    "name": "南山苑　デイサービス",
    "kana": "ナンザンエン　デイサービス",
    "address": "和歌山県伊都郡高野町高野山４４－２２",
    "lat": 34.2206737,
    "lng": 135.5926271,
    "tel": "0736-56-4990",
    "url": "https://seiaikai.jimdofree.com/",
    "pref": "和歌山県",
    "city": "高野町",
    "category": "day_service",
    "serviceType": "通所介護",
    "capacity": 0,
    "openDays": [
      "平日",
      "祝日"
    ],
    "openDaysNote": ""
  },
  {
    "id": "3072400587",
    "name": "デイサービスセンターあやとり",
    "kana": "デイサービスセンターアヤトリ",
    "address": "和歌山県西牟婁郡上富田岡１４０６－１",
    "lat": 33.7252319302272,
    "lng": 135.441833064497,
    "tel": "0739-83-2755",
    "url": "https：//ayatori-fa.com/",
    "pref": "和歌山県",
    "city": "上富田町",
    "category": "day_service",
    "serviceType": "通所介護",
    "capacity": 25,
    "openDays": [
      "平日",
      "土曜日",
      "日曜日",
      "祝日"
    ],
    "openDaysNote": ""
  },
  {
    "id": "3072400496",
    "name": "デイサービスセンター愛の園",
    "kana": "デイサービスセンターアイノソノ",
    "address": "上富田町生馬316-56",
    "lat": 33.7185325,
    "lng": 135.4276857,
    "tel": "0739-47-0105",
    "url": "http://www.shinai.or.jp",
    "pref": "和歌山県",
    "city": "上富田町",
    "category": "day_service",
    "serviceType": "通所介護",
    "capacity": 35,
    "openDays": [
      "平日",
      "土曜日",
      "祝日"
    ],
    "openDaysNote": "12/31～1/3　休館"
  },
  {
    "id": "3072401338",
    "name": "デイサービスセンター粋生",
    "kana": "デイサービスセンターイキイキ",
    "address": "和歌山県西牟婁郡上富田町市ノ瀬２０４２",
    "lat": 33.7167715949869,
    "lng": 135.467173586371,
    "tel": "0739-33-9702",
    "url": "",
    "pref": "和歌山県",
    "city": "上富田町",
    "category": "day_service",
    "serviceType": "通所介護",
    "capacity": 0,
    "openDays": [
      "平日",
      "土曜日",
      "祝日"
    ],
    "openDaysNote": ""
  },
  {
    "id": "3072400769",
    "name": "社会福祉法人　上富田町社会福祉協議会　デイサービスセンターくちくまの",
    "kana": "シャカイフクシホウジン　カミトンダチョウシャカイフクシキョウギカイ　デイサービスセンタークチクマノ",
    "address": "和歌山県西牟婁郡上富田町市ノ瀬２５０４番地の８",
    "lat": 33.7154526,
    "lng": 135.4633657,
    "tel": "0739-48-1555",
    "url": "http://kamitonda.shakyo-w.jp/",
    "pref": "和歌山県",
    "city": "上富田町",
    "category": "day_service",
    "serviceType": "通所介護",
    "capacity": 0,
    "openDays": [
      "平日",
      "祝日"
    ],
    "openDaysNote": "年末年始（仕事納め・仕事始め）は入浴日として設定されている。"
  },
  {
    "id": "3072400058",
    "name": "上富田町社会福祉協議会　上富田福祉センター",
    "kana": "カミトンダチョウシャカイフクシキョウギカイ　カミトンダフクシセンター",
    "address": "和歌山県西牟婁郡上富田町朝来７５５－１上富田福祉センター 上富田福祉センター",
    "lat": 33.6963994,
    "lng": 135.4302077,
    "tel": "0739-47-4757",
    "url": "http://kamitonda.shakyo-w.jp/",
    "pref": "和歌山県",
    "city": "上富田町",
    "category": "day_service",
    "serviceType": "通所介護",
    "capacity": 40,
    "openDays": [
      "平日",
      "土曜日",
      "祝日"
    ],
    "openDaysNote": "台風上陸・及び自然災害により事業実施が困難と判断された場合は、営業日・営業時間に関わらず、事業の休止や時間短縮での営業となる場合があります。"
  },
  {
    "id": "3072300837",
    "name": "デイサービス　紀の風",
    "kana": "デイサービス　キノカゼ",
    "address": "佐野1322-1グランドール紀の風 グランドール紀の風",
    "lat": 38.063686,
    "lng": 140.7958123,
    "tel": "0735-31-3100",
    "url": "http://www.kinokaze.net",
    "pref": "和歌山県",
    "city": "新宮市",
    "category": "day_service",
    "serviceType": "通所介護",
    "capacity": 0,
    "openDays": [
      "平日",
      "土曜日",
      "日曜日",
      "祝日"
    ],
    "openDaysNote": ""
  },
  {
    "id": "3072300142",
    "name": "デイサービスセンター悠久",
    "kana": "デイサービスセンターユウキュウ",
    "address": "和歌山県新宮市三輪崎１９６０－２",
    "lat": 33.6989496,
    "lng": 135.9866419,
    "tel": "0735-22-8371",
    "url": "https://www.kuroshioen.or.jp",
    "pref": "和歌山県",
    "city": "新宮市",
    "category": "day_service",
    "serviceType": "通所介護",
    "capacity": 0,
    "openDays": [
      "平日",
      "土曜日",
      "祝日"
    ],
    "openDaysNote": "なし"
  },
  {
    "id": "3072300068",
    "name": "ニチイケアセンター新宮",
    "kana": "ニチイケアセンターシングウ",
    "address": "和歌山県新宮市鴻田3丁目5番37号",
    "lat": 33.7092334871837,
    "lng": 135.986142913492,
    "tel": "0735-28-3022",
    "url": "http://www.nichiigakkan.co.jp",
    "pref": "和歌山県",
    "city": "新宮市",
    "category": "day_service",
    "serviceType": "通所介護",
    "capacity": 0,
    "openDays": [
      "平日",
      "土曜日",
      "日曜日",
      "祝日"
    ],
    "openDaysNote": ""
  },
  {
    "id": "3072301025",
    "name": "ひだまり　いのさわ",
    "kana": "ヒダマリ　イノサワ",
    "address": "和歌山県新宮市井の沢9-10",
    "lat": 33.7223372,
    "lng": 135.9912042,
    "tel": "0735-28-3630",
    "url": "",
    "pref": "和歌山県",
    "city": "新宮市",
    "category": "day_service",
    "serviceType": "通所介護",
    "capacity": null,
    "openDays": [
      "平日",
      "土曜日",
      "日曜日",
      "祝日"
    ],
    "openDaysNote": ""
  },
  {
    "id": "3072300944",
    "name": "ひだまり　徐福",
    "kana": "ヒダマリ　ジョフク",
    "address": "和歌山県新宮市徐福1丁目4番25号",
    "lat": 33.7260416,
    "lng": 135.9952381,
    "tel": "0735-23-2959",
    "url": "",
    "pref": "和歌山県",
    "city": "新宮市",
    "category": "day_service",
    "serviceType": "通所介護",
    "capacity": 0,
    "openDays": [
      "平日",
      "土曜日",
      "日曜日",
      "祝日"
    ],
    "openDaysNote": ""
  },
  {
    "id": "3072300746",
    "name": "リハラボ．",
    "kana": "リハラボ．",
    "address": "和歌山県新宮市谷王子町3番地2　シャトーしんぐう101号",
    "lat": 33.7279934,
    "lng": 135.9884917,
    "tel": "0735-23-0025",
    "url": "",
    "pref": "和歌山県",
    "city": "新宮市",
    "category": "day_service",
    "serviceType": "通所介護",
    "capacity": 23,
    "openDays": [
      "平日",
      "祝日"
    ],
    "openDaysNote": ""
  },
  {
    "id": "3072300605",
    "name": "丹鶴介護サービスセンター",
    "kana": "タンカクカイゴサービスセンター",
    "address": "和歌山県新宮市仲之町三丁目１番地の５",
    "lat": 33.7288545217788,
    "lng": 135.990029186508,
    "tel": "0735-22-2205",
    "url": "https://www.tankaku-kaigo.com",
    "pref": "和歌山県",
    "city": "新宮市",
    "category": "day_service",
    "serviceType": "通所介護",
    "capacity": 30,
    "openDays": [
      "平日",
      "土曜日",
      "日曜日",
      "祝日"
    ],
    "openDaysNote": ""
  },
  {
    "id": "3072301082",
    "name": "丹鶴介護サービスセンター",
    "kana": "タンカクカイゴサービスセンター",
    "address": "和歌山県新宮市仲之町3-1-5",
    "lat": 33.7288568030221,
    "lng": 135.989992461212,
    "tel": "0735-22-2205",
    "url": "https://www.tankaku-kaigo.com/tankakudei.html",
    "pref": "和歌山県",
    "city": "新宮市",
    "category": "day_service",
    "serviceType": "通所介護",
    "capacity": 0,
    "openDays": [
      "平日",
      "土曜日",
      "日曜日",
      "祝日"
    ],
    "openDaysNote": ""
  },
  {
    "id": "3072201852",
    "name": "カタチ目良",
    "kana": "カタチメラ",
    "address": "和歌山県田辺市目良37-281F",
    "lat": 33.7359436,
    "lng": 135.355113,
    "tel": "0739-33-7910",
    "url": "https://www.catachi.jp/",
    "pref": "和歌山県",
    "city": "田辺市",
    "category": "day_service",
    "serviceType": "通所介護",
    "capacity": 0,
    "openDays": [
      "平日"
    ],
    "openDaysNote": ""
  },
  {
    "id": "3072201449",
    "name": "きたえるーむ田辺滝内",
    "kana": "キタエルームタナベタキナイ",
    "address": "新庄町2915-331",
    "lat": 33.7076334,
    "lng": 135.3999188,
    "tel": "0739-24-2337",
    "url": "http://kitaeroom.com/shop/post-65.shtml",
    "pref": "和歌山県",
    "city": "田辺市",
    "category": "day_service",
    "serviceType": "通所介護",
    "capacity": 0,
    "openDays": [
      "平日",
      "土曜日"
    ],
    "openDaysNote": ""
  },
  {
    "id": "3072201886",
    "name": "コンパスウォーク神島台",
    "kana": "コンパスウォークカシマダイ",
    "address": "和歌山県田辺市神島台14-8",
    "lat": 33.7078865,
    "lng": 135.401113,
    "tel": "0739-33-2332",
    "url": "https://keigo-group-wakayama.co.jp/",
    "pref": "和歌山県",
    "city": "田辺市",
    "category": "day_service",
    "serviceType": "通所介護",
    "capacity": 0,
    "openDays": [
      "平日",
      "祝日"
    ],
    "openDaysNote": ""
  },
  {
    "id": "3072201993",
    "name": "コンパスウォーク東山",
    "kana": "コンパスウォークヒガシヤマ",
    "address": "和歌山県田辺市東山２－３１－７",
    "lat": 33.7257556312847,
    "lng": 135.395265740089,
    "tel": "0739-34-8160",
    "url": "https://keigo-group-wakayama.co.jp/",
    "pref": "和歌山県",
    "city": "田辺市",
    "category": "day_service",
    "serviceType": "通所介護",
    "capacity": null,
    "openDays": [
      "平日",
      "祝日"
    ],
    "openDaysNote": ""
  },
  {
    "id": "3072201555",
    "name": "デイサービスきたえる～む田辺下屋敷",
    "kana": "デイサービスキタエル～ムタナベシモヤシキ",
    "address": "和歌山県田辺市下屋敷町11",
    "lat": 33.7304221,
    "lng": 135.382137,
    "tel": "0739-81-0530",
    "url": "http://kitaeroom.com/shop/post-100.shtml",
    "pref": "和歌山県",
    "city": "田辺市",
    "category": "day_service",
    "serviceType": "通所介護",
    "capacity": 0,
    "openDays": [
      "平日",
      "土曜日"
    ],
    "openDaysNote": ""
  },
  {
    "id": "3072201142",
    "name": "デイサービスセンター　田辺の郷",
    "kana": "デイサービスセンター　田辺ノ郷",
    "address": "田辺市芳養松原1丁目31番10号",
    "lat": 33.7442952,
    "lng": 135.3545756,
    "tel": "0739-26-3210",
    "url": "http://sanyofukushikai.com/",
    "pref": "和歌山県",
    "city": "田辺市",
    "category": "day_service",
    "serviceType": "通所介護",
    "capacity": 0,
    "openDays": [
      "平日",
      "土曜日",
      "祝日"
    ],
    "openDaysNote": ""
  },
  {
    "id": "3072200862",
    "name": "デイサービスセンターひなたの里",
    "kana": "デイサービスセンターヒナタノサト",
    "address": "和歌山県田辺市上芳養４３７番地の３",
    "lat": 33.7992714,
    "lng": 135.3623777,
    "tel": "0739-37-1115",
    "url": "",
    "pref": "和歌山県",
    "city": "田辺市",
    "category": "day_service",
    "serviceType": "通所介護",
    "capacity": 31,
    "openDays": [
      "平日",
      "土曜日",
      "日曜日",
      "祝日"
    ],
    "openDaysNote": "１２月３１日～１月３日まで"
  },
  {
    "id": "3072200805",
    "name": "デイサービスセンター自彊館",
    "kana": "デイサービスセンタージキョウカン",
    "address": "田辺市神島台7番1号",
    "lat": 33.7058366,
    "lng": 135.4042212,
    "tel": "0739-34-6556",
    "url": "",
    "pref": "和歌山県",
    "city": "田辺市",
    "category": "day_service",
    "serviceType": "通所介護",
    "capacity": 0,
    "openDays": [
      "平日",
      "祝日"
    ],
    "openDaysNote": "平日の祝日は営業しております。（改行）１２月３０日～１月３日は休み。"
  },
  {
    "id": "3072201118",
    "name": "デイサービス小春日和",
    "kana": "デイサービスコハルビヨリ",
    "address": "和歌山県田辺市下三栖1320番9",
    "lat": 33.733744,
    "lng": 135.4238361,
    "tel": "0739-34-0993",
    "url": "",
    "pref": "和歌山県",
    "city": "田辺市",
    "category": "day_service",
    "serviceType": "通所介護",
    "capacity": 0,
    "openDays": [
      "平日",
      "土曜日",
      "日曜日",
      "祝日"
    ],
    "openDaysNote": "年中無休"
  },
  {
    "id": "3072201209",
    "name": "ニチイケアセンター田辺",
    "kana": "ニチイケアセンタータナベ",
    "address": "和歌山県田辺市稲成町77-1",
    "lat": 33.7401097,
    "lng": 135.3710825,
    "tel": "0739-24-7713",
    "url": "http://www.nichiigakkan.co.jp",
    "pref": "和歌山県",
    "city": "田辺市",
    "category": "day_service",
    "serviceType": "通所介護",
    "capacity": 0,
    "openDays": [
      "平日",
      "土曜日",
      "祝日"
    ],
    "openDaysNote": ""
  },
  {
    "id": "3072201944",
    "name": "フィットネス型デイサービス未来",
    "kana": "フィットネスガタデイサービスミラクル",
    "address": "和歌山県田辺市中万呂570番地の2",
    "lat": 33.7390064,
    "lng": 135.4040821,
    "tel": "0739-34-2307",
    "url": "",
    "pref": "和歌山県",
    "city": "田辺市",
    "category": "day_service",
    "serviceType": "通所介護",
    "capacity": 20,
    "openDays": [
      "平日",
      "祝日"
    ],
    "openDaysNote": "平日が祝祭日の場合は営業しています。"
  },
  {
    "id": "3072201761",
    "name": "プラント",
    "kana": "プラント",
    "address": "和歌山県田辺市あけぼの45-1メゾネットファイブ1階 メゾネットファイブ1階",
    "lat": 33.7313757,
    "lng": 135.39364,
    "tel": "0739-33-9813",
    "url": "",
    "pref": "和歌山県",
    "city": "田辺市",
    "category": "day_service",
    "serviceType": "通所介護",
    "capacity": 28,
    "openDays": [
      "平日",
      "祝日"
    ],
    "openDaysNote": "月曜日から金曜日に祝祭日が当たる場合は営業いたしております。"
  },
  {
    "id": "3072201746",
    "name": "リハビリ・入浴特化型デイサービス「Reha・Spa」",
    "kana": "リハビリ・ニュウヨクトッカガタデイサービス「リハ・スパ」",
    "address": "和歌山県田辺市下万呂４８２－１０",
    "lat": 33.7386308,
    "lng": 135.3926344,
    "tel": "0739-81-0567",
    "url": "http://www.ryo-so-kai.com",
    "pref": "和歌山県",
    "city": "田辺市",
    "category": "day_service",
    "serviceType": "通所介護",
    "capacity": 0,
    "openDays": [
      "平日",
      "祝日"
    ],
    "openDaysNote": "年末年始は、曜日によって変更する場合があります。"
  },
  {
    "id": "3072201571",
    "name": "医療法人竹村医院　通所介護事業所",
    "kana": "イリョウホウジンタケムライイン　ツウショカイゴジギョウショ",
    "address": "和歌山県田辺市東山1丁目7番23号介護老人保健施設セントポーリア2階 介護老人保健施設セントポーリア2階",
    "lat": 36.204824,
    "lng": 138.252924,
    "tel": "0739-33-9335",
    "url": "http://yuuga.blogdehp.ne.jp/14828993007953",
    "pref": "和歌山県",
    "city": "田辺市",
    "category": "day_service",
    "serviceType": "通所介護",
    "capacity": 0,
    "openDays": [
      "平日",
      "土曜日",
      "祝日"
    ],
    "openDaysNote": ""
  },
  {
    "id": "3072200227",
    "name": "社会福祉法人　真寿会　真寿苑",
    "kana": "シャカイフクシホウジン　シンジュカイ　シンジュエン",
    "address": "和歌山県田辺市神島台６番１号",
    "lat": 33.7072364650598,
    "lng": 135.403080912828,
    "tel": "0739-22-3639",
    "url": "http://www.sjk-tanabe.or.jp/",
    "pref": "和歌山県",
    "city": "田辺市",
    "category": "day_service",
    "serviceType": "通所介護",
    "capacity": null,
    "openDays": [
      "平日",
      "土曜日",
      "祝日"
    ],
    "openDaysNote": ""
  },
  {
    "id": "3072200615",
    "name": "真寿苑内ノ浦デイサービスセンター",
    "kana": "シンジュエンウチノウラデイサービスセンター",
    "address": "田辺市新庄町3166-1",
    "lat": 33.6944292,
    "lng": 135.3878893,
    "tel": "0739-81-3370",
    "url": "http://www.sjk-tanabe.or.jp/",
    "pref": "和歌山県",
    "city": "田辺市",
    "category": "day_service",
    "serviceType": "通所介護",
    "capacity": null,
    "openDays": [
      "平日",
      "土曜日",
      "日曜日",
      "祝日"
    ],
    "openDaysNote": ""
  },
  {
    "id": "3072201670",
    "name": "田辺市社会福祉協議会　中辺路事業所",
    "kana": "タナベシシャカイフクシキョウギカイ　ナカヘチジギョウショ",
    "address": "和歌山県田辺市中辺路町栗栖川329番地の1中辺路福祉センター 中辺路福祉センター",
    "lat": 33.7911177,
    "lng": 135.516425,
    "tel": "0739-64-1890",
    "url": "",
    "pref": "和歌山県",
    "city": "田辺市",
    "category": "day_service",
    "serviceType": "通所介護",
    "capacity": null,
    "openDays": [
      "平日",
      "祝日"
    ],
    "openDaysNote": ""
  },
  {
    "id": "3072400199",
    "name": "特別養護老人ホーム　白百合ホーム　デイサービス",
    "kana": "トクベツヨウゴロージンホーム　シラユリホーム　デイサービス",
    "address": "和歌山県田辺市中辺路町川合1800",
    "lat": 33.8004563,
    "lng": 135.5219846,
    "tel": "0739-64-1213",
    "url": "http://shirayurihome.orj",
    "pref": "和歌山県",
    "city": "田辺市",
    "category": "day_service",
    "serviceType": "通所介護",
    "capacity": 0,
    "openDays": [
      "平日",
      "土曜日",
      "日曜日",
      "祝日"
    ],
    "openDaysNote": "年末年始12/29～1/3"
  },
  {
    "id": "3071600500",
    "name": "かぐのみ苑湯浅デイサービスセンター",
    "kana": "カグノミエンユアサデイサービスセンター",
    "address": "和歌山県有田郡湯浅町湯浅2032-1",
    "lat": 34.0373952,
    "lng": 135.1856636,
    "tel": "0737-65-3636",
    "url": "http://www.heiseifukushikai.or.jp/",
    "pref": "和歌山県",
    "city": "湯浅町",
    "category": "day_service",
    "serviceType": "通所介護",
    "capacity": 0,
    "openDays": [
      "平日",
      "土曜日",
      "祝日"
    ],
    "openDaysNote": ""
  },
  {
    "id": "3071601433",
    "name": "ゆあさの郷",
    "kana": "ユアサノ郷",
    "address": "湯浅2834",
    "lat": 34.0350191317955,
    "lng": 135.171399990213,
    "tel": "0737-63-3507",
    "url": "http://gobo310.sakura.ne.jp/gb310/",
    "pref": "和歌山県",
    "city": "湯浅町",
    "category": "day_service",
    "serviceType": "通所介護",
    "capacity": 25,
    "openDays": [
      "平日",
      "土曜日",
      "日曜日",
      "祝日"
    ],
    "openDaysNote": ""
  },
  {
    "id": "3071600070",
    "name": "湯浅町社会福祉協議会",
    "kana": "ユアサチョウシャカイフクシキョウギカイ",
    "address": "和歌山県有田郡湯浅町栖原１２６",
    "lat": 34.0435159613415,
    "lng": 135.183343104206,
    "tel": "0737-63-5175",
    "url": "http://www.yuasa-shakyo.or.jp/",
    "pref": "和歌山県",
    "city": "湯浅町",
    "category": "day_service",
    "serviceType": "通所介護",
    "capacity": 0,
    "openDays": [
      "平日",
      "土曜日",
      "祝日"
    ],
    "openDaysNote": ""
  },
  {
    "id": "3072501103",
    "name": "デイサービスLino",
    "kana": "デイサービス　リノ",
    "address": "和歌山県那智勝浦町二河１５",
    "lat": 33.6132799,
    "lng": 135.9219645,
    "tel": "0735-29-2239",
    "url": "https://lino-kaigo.com/",
    "pref": "和歌山県",
    "city": "那智勝浦町",
    "category": "day_service",
    "serviceType": "通所介護",
    "capacity": 0,
    "openDays": [
      "平日",
      "土曜日",
      "日曜日",
      "祝日"
    ],
    "openDaysNote": ""
  },
  {
    "id": "3072501004",
    "name": "デイサービスえがおの杜",
    "kana": "デイサービスエガオノモリ",
    "address": "和歌山県東牟婁郡那智勝浦町天満826-1",
    "lat": 33.6323848,
    "lng": 135.9389222,
    "tel": "0735-29-7390",
    "url": "",
    "pref": "和歌山県",
    "city": "那智勝浦町",
    "category": "day_service",
    "serviceType": "通所介護",
    "capacity": 0,
    "openDays": [
      "平日",
      "土曜日",
      "日曜日",
      "祝日"
    ],
    "openDaysNote": ""
  },
  {
    "id": "3072501152",
    "name": "デイサービスセンター　やたがらす",
    "kana": "デイサービスセンター　ヤタガラス",
    "address": "和歌山県東牟婁郡那智勝浦町宇久井1396-11",
    "lat": 33.6576583172076,
    "lng": 135.965268251482,
    "tel": "0735-30-1171",
    "url": "https://tryad.co.jp/",
    "pref": "和歌山県",
    "city": "那智勝浦町",
    "category": "day_service",
    "serviceType": "通所介護",
    "capacity": 20,
    "openDays": [
      "平日",
      "土曜日",
      "祝日"
    ],
    "openDaysNote": "年末年始は12/31～1/3休み"
  },
  {
    "id": "3072501061",
    "name": "ふれあいサロン「ゆかし庵」",
    "kana": "フレアイサロンユカシアン",
    "address": "和歌山県東牟婁郡那智勝浦町湯川６１番地バーデンライフ・ケアセンター湯ごりの郷 バーデンライフ・ケアセンター湯ごりの郷",
    "lat": 33.619264,
    "lng": 135.9268803,
    "tel": "0735-52-1121",
    "url": "http://www.takasekai.or.jp/",
    "pref": "和歌山県",
    "city": "那智勝浦町",
    "category": "day_service",
    "serviceType": "通所介護",
    "capacity": 0,
    "openDays": [
      "平日",
      "土曜日",
      "祝日"
    ],
    "openDaysNote": "利用者から希望があり、それに対応可能な場合はこの限りではありません。"
  },
  {
    "id": "3072501137",
    "name": "通所介護事業所　元気",
    "kana": "ツウショカイギジギョウショ　ゲンキ",
    "address": "和歌山県東牟婁郡那智勝浦町宇久井1730-243",
    "lat": 33.6585531,
    "lng": 135.9602335,
    "tel": "0735-54-2388",
    "url": "",
    "pref": "和歌山県",
    "city": "那智勝浦町",
    "category": "day_service",
    "serviceType": "通所介護",
    "capacity": 0,
    "openDays": [
      "平日",
      "土曜日",
      "祝日"
    ],
    "openDaysNote": ""
  },
  {
    "id": "3072501053",
    "name": "那智勝浦町デイサービスセンターゆうゆう",
    "kana": "ナチカツウラチョウデイサービスセンターユウユウ",
    "address": "和歌山県東牟婁郡那智勝浦町庄520",
    "lat": 33.5870338,
    "lng": 135.9026438,
    "tel": "0735-57-8020",
    "url": "",
    "pref": "和歌山県",
    "city": "那智勝浦町",
    "category": "day_service",
    "serviceType": "通所介護",
    "capacity": null,
    "openDays": [
      "平日",
      "土曜日",
      "祝日"
    ],
    "openDaysNote": ""
  },
  {
    "id": "3072100237",
    "name": "ときわ寮川辺園デイサービスセンター",
    "kana": "トキワリョウカワベエンデイサービスセンター",
    "address": "和歌山県日高郡日高川町大字和佐２０８１番地の１０",
    "lat": 33.8978265,
    "lng": 135.2124164,
    "tel": "0738-53-0909",
    "url": "http://www.tokiwa-roujin.jp/",
    "pref": "和歌山県",
    "city": "日高川町",
    "category": "day_service",
    "serviceType": "通所介護",
    "capacity": 0,
    "openDays": [
      "平日",
      "土曜日",
      "祝日"
    ],
    "openDaysNote": ""
  },
  {
    "id": "3072100443",
    "name": "はるす・デイサービス美山",
    "kana": "ハルス・デイサービスミヤマ",
    "address": "和歌山県日高郡日高川町川原河２６４",
    "lat": 33.9829039,
    "lng": 135.3678599,
    "tel": "0738-56-7010",
    "url": "https://hals-hals.co.jp/",
    "pref": "和歌山県",
    "city": "日高川町",
    "category": "day_service",
    "serviceType": "通所介護",
    "capacity": 0,
    "openDays": [
      "平日",
      "祝日"
    ],
    "openDaysNote": ""
  },
  {
    "id": "3072100997",
    "name": "博愛デイサービスセンター日高川",
    "kana": "ハクアイデイサービスセンターヒダカガワ",
    "address": "和歌山県日高郡日高川町土生127番地6",
    "lat": 33.911116,
    "lng": 135.1856941,
    "tel": "0738-52-7008",
    "url": "http://www.hakuaikai.net/",
    "pref": "和歌山県",
    "city": "日高川町",
    "category": "day_service",
    "serviceType": "通所介護",
    "capacity": 0,
    "openDays": [
      "平日",
      "土曜日",
      "祝日"
    ],
    "openDaysNote": ""
  },
  {
    "id": "3072100260",
    "name": "白寿苑デイサービスセンター",
    "kana": "ハクジュエンデイサービスセンター",
    "address": "和歌山県日高郡日高川町船津１６６４番地",
    "lat": 33.9582033,
    "lng": 135.2687083,
    "tel": "0738-54-0072",
    "url": "http://www.keiaikai-w.or.jp/",
    "pref": "和歌山県",
    "city": "日高川町",
    "category": "day_service",
    "serviceType": "通所介護",
    "capacity": 0,
    "openDays": [
      "平日",
      "土曜日",
      "祝日"
    ],
    "openDaysNote": "年末年始、12/30〜1/3まで休み。"
  },
  {
    "id": "3072101045",
    "name": "デイサービスライフサイズひだか",
    "kana": "デイサービスライフサイズヒダカ",
    "address": "和歌山県日高郡日高町荊木115-1",
    "lat": 33.9240664,
    "lng": 135.1517895,
    "tel": "0738-63-1800",
    "url": "http://lifesize-hidaka.com/",
    "pref": "和歌山県",
    "city": "日高町",
    "category": "day_service",
    "serviceType": "通所介護",
    "capacity": 0,
    "openDays": [
      "平日",
      "祝日"
    ],
    "openDaysNote": ""
  },
  {
    "id": "3072100526",
    "name": "ひだか博愛園みちしおデイサービスセンター",
    "kana": "ヒダカハクアイエンミチシオデイサービスセンター",
    "address": "和歌山県日高郡日高町阿尾646",
    "lat": 33.9037765,
    "lng": 135.0716309,
    "tel": "0738-64-8040",
    "url": "",
    "pref": "和歌山県",
    "city": "日高町",
    "category": "day_service",
    "serviceType": "通所介護",
    "capacity": 0,
    "openDays": [
      "平日",
      "土曜日",
      "祝日"
    ],
    "openDaysNote": ""
  },
  {
    "id": "3072401304",
    "name": "ケアセンターおたっしゃ俱楽部白浜ぬくもりの里",
    "kana": "ケアセンターオタッシャクラブシラハマヌクモリノサト",
    "address": "和歌山県西牟婁郡白浜町才野1322",
    "lat": 33.6619719,
    "lng": 135.3792511,
    "tel": "0739-34-2172",
    "url": "http：//www.s-co-op.or.jp",
    "pref": "和歌山県",
    "city": "白浜町",
    "category": "day_service",
    "serviceType": "通所介護",
    "capacity": 0,
    "openDays": [
      "平日",
      "土曜日",
      "祝日"
    ],
    "openDaysNote": "１月１日～３日は休み"
  },
  {
    "id": "3072400710",
    "name": "デイサービスセンター　白浜　日置の郷",
    "kana": "デイサービスセンターシラハマヒキノサト",
    "address": "和歌山県西牟婁郡白浜町日置2037",
    "lat": 33.5723337,
    "lng": 135.4304327,
    "tel": "0739-87-2222",
    "url": "http://www.sanyoufukusikai/com/",
    "pref": "和歌山県",
    "city": "白浜町",
    "category": "day_service",
    "serviceType": "通所介護",
    "capacity": 20,
    "openDays": [
      "平日",
      "祝日"
    ],
    "openDaysNote": ""
  },
  {
    "id": "3072400520",
    "name": "デイサービスセンターぱる",
    "kana": "デイサービスセンターパル",
    "address": "西牟婁郡白浜町2927-80",
    "lat": 33.67766851553,
    "lng": 135.353988174066,
    "tel": "0739-42-3570",
    "url": "http://www.icross.co.jp/",
    "pref": "和歌山県",
    "city": "白浜町",
    "category": "day_service",
    "serviceType": "通所介護",
    "capacity": 0,
    "openDays": [
      "平日",
      "祝日"
    ],
    "openDaysNote": ""
  },
  {
    "id": "3072401437",
    "name": "デイサービスセンター内の川",
    "kana": "デイサービスセンターウチノカワ",
    "address": "和歌山県西牟婁郡白浜町保呂２５２",
    "lat": 33.6824223,
    "lng": 135.414931,
    "tel": "０７３９－４５－２６１１",
    "url": "",
    "pref": "和歌山県",
    "city": "白浜町",
    "category": "day_service",
    "serviceType": "通所介護",
    "capacity": 0,
    "openDays": [
      "平日"
    ],
    "openDaysNote": ""
  },
  {
    "id": "3072400355",
    "name": "デイサービスセンター南紀",
    "kana": "デイサービスセンターナンキ",
    "address": "和歌山県西牟婁郡白浜町中１７００－１１８番地",
    "lat": 33.6505564838448,
    "lng": 135.385692022035,
    "tel": "0739-45-8866",
    "url": "",
    "pref": "和歌山県",
    "city": "白浜町",
    "category": "day_service",
    "serviceType": "通所介護",
    "capacity": 5,
    "openDays": [
      "平日",
      "土曜日",
      "祝日"
    ],
    "openDaysNote": ""
  },
  {
    "id": "3072401080",
    "name": "社会福祉法人　白浜町社会福祉協議会　日置川支部",
    "kana": "シャカイフクシホウジン　シラハマチョウシャカイフクシキョウギカイ　ヒキガワシブ",
    "address": "和歌山県　西牟婁郡　白浜町　日置１９７－１",
    "lat": 33.5726837,
    "lng": 135.4426955,
    "tel": "０７３９－５２－２１１１",
    "url": "http://www.shirahama-syakyo.jp",
    "pref": "和歌山県",
    "city": "白浜町",
    "category": "day_service",
    "serviceType": "通所介護",
    "capacity": 0,
    "openDays": [
      "平日",
      "土曜日",
      "祝日"
    ],
    "openDaysNote": ""
  },
  {
    "id": "3072100229",
    "name": "ときわ寮美浜デイサービスセンター",
    "kana": "トキワリョウミハマデイサービスセンター",
    "address": "和歌山県日高郡美浜町大字三尾９番地",
    "lat": 33.8899778,
    "lng": 135.0844,
    "tel": "0738-22-1251",
    "url": "http://www.tokiwa-roujin.jp",
    "pref": "和歌山県",
    "city": "美浜町",
    "category": "day_service",
    "serviceType": "通所介護",
    "capacity": 0,
    "openDays": [
      "平日",
      "土曜日",
      "祝日"
    ],
    "openDaysNote": ""
  },
  {
    "id": "3072100963",
    "name": "通所介護日高リハビリセンター",
    "kana": "ツウショカイゴヒダカリハビリセンター",
    "address": "和田1901-8",
    "lat": 33.8941393,
    "lng": 135.1201185,
    "tel": "0738-52-7141",
    "url": "",
    "pref": "和歌山県",
    "city": "美浜町",
    "category": "day_service",
    "serviceType": "通所介護",
    "capacity": 0,
    "openDays": [
      "平日",
      "土曜日",
      "祝日"
    ],
    "openDaysNote": ""
  },
  {
    "id": "3071500049",
    "name": "サザンクロスありだ",
    "kana": "サザンクロスアリダ",
    "address": "和歌山県有田市野699番地",
    "lat": 34.0780683,
    "lng": 135.1310127,
    "tel": "0737-83-0567",
    "url": "",
    "pref": "和歌山県",
    "city": "有田市",
    "category": "day_service",
    "serviceType": "通所介護",
    "capacity": 29,
    "openDays": [
      "平日",
      "祝日"
    ],
    "openDaysNote": "無し"
  },
  {
    "id": "3071500759",
    "name": "サンライズケア優心",
    "kana": "サンライズケアユウシン",
    "address": "和歌山県有田市糸我町西496-1",
    "lat": 34.0735644,
    "lng": 135.1691117,
    "tel": "0737-88-7000",
    "url": "http://www.sunrisecare.co.jp/",
    "pref": "和歌山県",
    "city": "有田市",
    "category": "day_service",
    "serviceType": "通所介護",
    "capacity": 25,
    "openDays": [
      "平日",
      "土曜日",
      "祝日"
    ],
    "openDaysNote": ""
  },
  {
    "id": "3071500635",
    "name": "それいゆ",
    "kana": "ソレイユ",
    "address": "和歌山県有田市新堂97-1",
    "lat": 34.0823789,
    "lng": 135.1321791,
    "tel": "0737-82-0005",
    "url": "",
    "pref": "和歌山県",
    "city": "有田市",
    "category": "day_service",
    "serviceType": "通所介護",
    "capacity": 30,
    "openDays": [
      "平日",
      "土曜日",
      "祝日"
    ],
    "openDaysNote": "１２月２９日３０日は午前のみの営業。"
  },
  {
    "id": "3071500361",
    "name": "デイサービスセンター　愛宕苑",
    "kana": "デイサービスセンター　アタゴエン",
    "address": "和歌山県有田市港町９－１",
    "lat": 34.0892137,
    "lng": 135.1142861,
    "tel": "0737-82-0630",
    "url": "http://shukohkai.or.jp/",
    "pref": "和歌山県",
    "city": "有田市",
    "category": "day_service",
    "serviceType": "通所介護",
    "capacity": 40,
    "openDays": [
      "平日",
      "土曜日",
      "日曜日",
      "祝日"
    ],
    "openDaysNote": ""
  },
  {
    "id": "3071500593",
    "name": "デイサービスセンターありだ橘苑",
    "kana": "デイサービスセンター　アリダタチバナエン",
    "address": "和歌山県有田市野639-2",
    "lat": 34.0761927447748,
    "lng": 135.135203392096,
    "tel": "0737-83-6256",
    "url": "http://www.shukohkai.or.jp/",
    "pref": "和歌山県",
    "city": "有田市",
    "category": "day_service",
    "serviceType": "通所介護",
    "capacity": 0,
    "openDays": [
      "平日",
      "土曜日",
      "日曜日",
      "祝日"
    ],
    "openDaysNote": "悪天候にてサービス提供に危険が生じる場合、サービスを中止する場合があります。"
  },
  {
    "id": "3071500460",
    "name": "デイサービスセンター田鶴苑",
    "kana": "デイサービスセンタータヅエン",
    "address": "有田市宮崎町841番地1",
    "lat": 34.0755553064907,
    "lng": 135.11259179259,
    "tel": "0737-82-6644",
    "url": "http://shukohkai.or.jp/",
    "pref": "和歌山県",
    "city": "有田市",
    "category": "day_service",
    "serviceType": "通所介護",
    "capacity": 0,
    "openDays": [
      "平日",
      "土曜日",
      "日曜日",
      "祝日"
    ],
    "openDaysNote": ""
  },
  {
    "id": "3071500288",
    "name": "ひまわりケアサービス",
    "kana": "ヒマワリケアサービス",
    "address": "和歌山県有田市箕島22-1",
    "lat": 34.0837785,
    "lng": 135.1227716,
    "tel": "0737-83-5833",
    "url": "",
    "pref": "和歌山県",
    "city": "有田市",
    "category": "day_service",
    "serviceType": "通所介護",
    "capacity": 20,
    "openDays": [
      "平日",
      "土曜日",
      "祝日"
    ],
    "openDaysNote": ""
  },
  {
    "id": "3071500619",
    "name": "ひまわりケアサービス保田",
    "kana": "ヒマワリケアサービスヤスダ",
    "address": "和歌山県有田市辻堂936.937",
    "lat": 34.0755756416729,
    "lng": 135.141479682109,
    "tel": "0737-83-5083",
    "url": "",
    "pref": "和歌山県",
    "city": "有田市",
    "category": "day_service",
    "serviceType": "通所介護",
    "capacity": 30,
    "openDays": [
      "平日",
      "土曜日"
    ],
    "openDaysNote": ""
  },
  {
    "id": "3071500023",
    "name": "社会福祉法人　有田市社会福祉協議会",
    "kana": "シャカイフクシホウジン　アリダシシャカイフクシキョウギカイ",
    "address": "和歌山県有田市宮原町東215番地有田市福祉館なごみ 有田市福祉館なごみ",
    "lat": 34.0810166,
    "lng": 135.178302,
    "tel": "0737-88-2750",
    "url": "info@aridashi-shakyo.jp",
    "pref": "和歌山県",
    "city": "有田市",
    "category": "day_service",
    "serviceType": "通所介護",
    "capacity": null,
    "openDays": [
      "平日"
    ],
    "openDaysNote": ""
  },
  {
    "id": "3071600039",
    "name": "寿楽園",
    "kana": "ジュラクエン",
    "address": "和歌山県有田郡有田川町大字小川字矢本992番地",
    "lat": 34.0653217,
    "lng": 135.2544316,
    "tel": "0737-32-3221",
    "url": "https://ikkeikai.recruitment.jp",
    "pref": "和歌山県",
    "city": "有田川町",
    "category": "day_service",
    "serviceType": "通所介護",
    "capacity": 0,
    "openDays": [
      "平日",
      "土曜日",
      "祝日"
    ],
    "openDaysNote": "令和7年1月より木曜日、日曜日を定休日とした。"
  },
  {
    "id": "3071600419",
    "name": "特別養護老人ホーム吉備苑デイサービスセンター",
    "kana": "トクベツヨウゴロウジンホームキビエンデイサービスセンター",
    "address": "和歌山県有田郡有田川町大字奥222-1",
    "lat": 34.0484421,
    "lng": 135.2097666,
    "tel": "0737-53-2251",
    "url": "http://www.kibien.com/",
    "pref": "和歌山県",
    "city": "有田川町",
    "category": "day_service",
    "serviceType": "通所介護",
    "capacity": 35,
    "openDays": [
      "平日",
      "土曜日",
      "祝日"
    ],
    "openDaysNote": "留意事項無し"
  },
  {
    "id": "3071600997",
    "name": "有田川町社会福祉協議会　通所介護",
    "kana": "アリダガワチョウシャカイフクシキョウギカイ　ツウショカイゴ",
    "address": "和歌山県有田郡有田川町角75番地1きび保健福祉センター きび保健福祉センター",
    "lat": 34.0736388,
    "lng": 135.2161848,
    "tel": "0737-52-8886",
    "url": "http://aridagawa‐shakyo.or.jp/",
    "pref": "和歌山県",
    "city": "有田川町",
    "category": "day_service",
    "serviceType": "通所介護",
    "capacity": 0,
    "openDays": [
      "平日",
      "祝日"
    ],
    "openDaysNote": ""
  },
  {
    "id": "3071600989",
    "name": "有田川町社会福祉協議会清水事務所通所介護",
    "kana": "アリダカワチョウシャカイフクシキョウギカイシミズジムショツウショカイゴ",
    "address": "和歌山県有田郡有田川町二川820番地1",
    "lat": 34.0608216,
    "lng": 135.3556799,
    "tel": "0737-23-0838",
    "url": "",
    "pref": "和歌山県",
    "city": "有田川町",
    "category": "day_service",
    "serviceType": "通所介護",
    "capacity": 5,
    "openDays": [
      "平日",
      "土曜日",
      "祝日"
    ],
    "openDaysNote": "12月31日から1月3日まで休日"
  },
  {
    "id": "3072100419",
    "name": "ゆら博愛園デイサービスセンター",
    "kana": "ユラハクアイエンデイサービスセンター",
    "address": "和歌山県日高郡由良町大字吹井９１０番地の１",
    "lat": 33.9699191,
    "lng": 135.1061829,
    "tel": "0738-35-2505",
    "url": "http://www.hakuaikai.net/",
    "pref": "和歌山県",
    "city": "由良町",
    "category": "day_service",
    "serviceType": "通所介護",
    "capacity": 0,
    "openDays": [
      "平日",
      "土曜日",
      "祝日"
    ],
    "openDaysNote": ""
  },
  {
    "id": "3072100088",
    "name": "社会福祉法人　由良町社会福祉協議会",
    "kana": "シャカイフクシホウジン　ユラチョウシャカイフクシキョウギカイ",
    "address": "和歌山県日高郡由良町吹井80-88",
    "lat": 33.970233,
    "lng": 135.1089799,
    "tel": "0738-65-3500",
    "url": "http://www.shakyo.or.jp/hp/news/detail.php?s=1302&a=13408",
    "pref": "和歌山県",
    "city": "由良町",
    "category": "day_service",
    "serviceType": "通所介護",
    "capacity": 0,
    "openDays": [
      "平日",
      "土曜日",
      "祝日"
    ],
    "openDaysNote": ""
  },
  {
    "id": "3070100205",
    "name": "あいの里",
    "kana": "アイノサト",
    "address": "和歌山市松原３０６－５",
    "lat": 34.1949581,
    "lng": 135.2244155,
    "tel": "073-479-2500",
    "url": "http://www.ainosato-wa.-or.jp",
    "pref": "和歌山県",
    "city": "和歌山市",
    "category": "day_service",
    "serviceType": "通所介護",
    "capacity": 0,
    "openDays": [
      "平日",
      "土曜日",
      "祝日"
    ],
    "openDaysNote": ""
  },
  {
    "id": "3070112218",
    "name": "アップルデイサービス",
    "kana": "アップルデイサービス",
    "address": "築港５丁目１１－２２",
    "lat": 34.4956444,
    "lng": 133.9576285,
    "tel": "073-427-7101",
    "url": "",
    "pref": "和歌山県",
    "city": "和歌山市",
    "category": "day_service",
    "serviceType": "通所介護",
    "capacity": 0,
    "openDays": [
      "平日",
      "土曜日",
      "日曜日",
      "祝日"
    ],
    "openDaysNote": ""
  },
  {
    "id": "3070108646",
    "name": "アトリオつつじⅢデイサービスセンター",
    "kana": "アトリオツツジスリーデイサービスセンター",
    "address": "和歌山市つつじヶ丘５丁目３番地の３",
    "lat": 34.2666037,
    "lng": 135.101264,
    "tel": "073-454-7171",
    "url": "httpｓ://www.medi-wel.ip/",
    "pref": "和歌山県",
    "city": "和歌山市",
    "category": "day_service",
    "serviceType": "通所介護",
    "capacity": null,
    "openDays": [
      "平日",
      "土曜日",
      "祝日"
    ],
    "openDaysNote": "12月30日から1月3日まで休みとする。"
  },
  {
    "id": "3070108547",
    "name": "アトリオつつじⅡデイサービスセンター",
    "kana": "アトリオツツジツーデイサービスセンター",
    "address": "和歌山市つつじヶ丘5丁目3番地の３",
    "lat": 34.2666037,
    "lng": 135.101264,
    "tel": "073－454－7171",
    "url": "httpｓ://www.medi-wel.jp/",
    "pref": "和歌山県",
    "city": "和歌山市",
    "category": "day_service",
    "serviceType": "通所介護",
    "capacity": 0,
    "openDays": [
      "平日",
      "土曜日",
      "祝日"
    ],
    "openDaysNote": "12月30日から1月3日まで休みとする。"
  },
  {
    "id": "3070107739",
    "name": "アトリオつつじIデイサービスセンター",
    "kana": "アトリオツツジワンデイサービスセンター",
    "address": "和歌山市つつじヶ丘５丁目３番地の３",
    "lat": 34.2666037,
    "lng": 135.101264,
    "tel": "073-454-7171",
    "url": "http://www.medi-wel.jp/",
    "pref": "和歌山県",
    "city": "和歌山市",
    "category": "day_service",
    "serviceType": "通所介護",
    "capacity": 30,
    "openDays": [
      "平日",
      "土曜日",
      "祝日"
    ],
    "openDaysNote": "１２月３０日から１月３日まで休みとする。"
  },
  {
    "id": "3070112507",
    "name": "アンジュール",
    "kana": "アンジュール",
    "address": "和歌山市和歌浦南３丁目１番１７号",
    "lat": 34.1873225970771,
    "lng": 135.169742138432,
    "tel": "073-499-8450",
    "url": "",
    "pref": "和歌山県",
    "city": "和歌山市",
    "category": "day_service",
    "serviceType": "通所介護",
    "capacity": 0,
    "openDays": [
      "平日",
      "祝日"
    ],
    "openDaysNote": ""
  },
  {
    "id": "3070107267",
    "name": "あんだんて",
    "kana": "アンダンテ",
    "address": "和歌山市楠見中47-1",
    "lat": 34.2541155198982,
    "lng": 135.17268125939,
    "tel": "073-488-3715",
    "url": "http://www.sankoukai-ym.jp/",
    "pref": "和歌山県",
    "city": "和歌山市",
    "category": "day_service",
    "serviceType": "通所介護",
    "capacity": 30,
    "openDays": [
      "平日",
      "土曜日"
    ],
    "openDaysNote": ""
  },
  {
    "id": "3070109826",
    "name": "いのうえデイサービス",
    "kana": "イノウエデイサービス",
    "address": "和歌山県和歌山市土佐町２丁目２０－１",
    "lat": 34.2229669006643,
    "lng": 135.161682631227,
    "tel": "073-488-5133",
    "url": "",
    "pref": "和歌山県",
    "city": "和歌山市",
    "category": "day_service",
    "serviceType": "通所介護",
    "capacity": null,
    "openDays": [
      "平日",
      "土曜日",
      "祝日"
    ],
    "openDaysNote": "上記営業時間外でも相談等に応じる体制をとる。"
  },
  {
    "id": "3070100502",
    "name": "カーサ・デ・ソコロ・アンシアナトー",
    "kana": "カーサ・デ・ソコロ・アンシアナトー",
    "address": "和歌山市松江東1丁目7番25号",
    "lat": 34.2438399,
    "lng": 135.1345461,
    "tel": "073-454-8900",
    "url": "https://www.ancianatio.com/",
    "pref": "和歌山県",
    "city": "和歌山市",
    "category": "day_service",
    "serviceType": "通所介護",
    "capacity": 0,
    "openDays": [
      "平日",
      "土曜日",
      "日曜日",
      "祝日"
    ],
    "openDaysNote": ""
  },
  {
    "id": "3070102714",
    "name": "かがやきくらぶ",
    "kana": "カガヤキクラブ",
    "address": "和歌山市楠見中47-19",
    "lat": 34.2541951,
    "lng": 135.1723517,
    "tel": "073-480-5337",
    "url": "http://www.sankoukai-ym.jp",
    "pref": "和歌山県",
    "city": "和歌山市",
    "category": "day_service",
    "serviceType": "通所介護",
    "capacity": 35,
    "openDays": [
      "平日",
      "土曜日"
    ],
    "openDaysNote": ""
  },
  {
    "id": "3070100999",
    "name": "グランリーフデイサービスセンター",
    "kana": "グランリーフ　デイサービス　センター",
    "address": "和歌山市南片原2丁目12番地",
    "lat": 34.2238236,
    "lng": 135.1843267,
    "tel": "073-436-6363",
    "url": "asibe-so＠crocus.ocn.ne.jp",
    "pref": "和歌山県",
    "city": "和歌山市",
    "category": "day_service",
    "serviceType": "通所介護",
    "capacity": 30,
    "openDays": [
      "平日",
      "日曜日",
      "祝日"
    ],
    "openDaysNote": ""
  },
  {
    "id": "3070111806",
    "name": "クレールアイル",
    "kana": "クレールアイル",
    "address": "和歌山県和歌山市松江北７丁目１１−２１",
    "lat": 34.2533549685308,
    "lng": 135.125092779373,
    "tel": "073-499-5761",
    "url": "http://www.restfrom.com/",
    "pref": "和歌山県",
    "city": "和歌山市",
    "category": "day_service",
    "serviceType": "通所介護",
    "capacity": 20,
    "openDays": [
      "平日"
    ],
    "openDaysNote": "12月29日から翌年1月3日までは休み"
  },
  {
    "id": "3070107150",
    "name": "クレール松江デイサービスセンター",
    "kana": "クレールマツエデイサービスセンター",
    "address": "和歌山市松江北7丁目11－13",
    "lat": 34.253011,
    "lng": 135.1260687,
    "tel": "073-499-5472",
    "url": "http://www.restfrom.com/",
    "pref": "和歌山県",
    "city": "和歌山市",
    "category": "day_service",
    "serviceType": "通所介護",
    "capacity": 24,
    "openDays": [
      "平日"
    ],
    "openDaysNote": ""
  },
  {
    "id": "3070105048",
    "name": "ケアパートナー和歌山",
    "kana": "ケアパートナーワカヤマ",
    "address": "和歌山市新中島105-1",
    "lat": 34.2175663,
    "lng": 135.1960954,
    "tel": "(073)-475-751",
    "url": "http://www.care-partner.com",
    "pref": "和歌山県",
    "city": "和歌山市",
    "category": "day_service",
    "serviceType": "通所介護",
    "capacity": 0,
    "openDays": [
      "平日",
      "土曜日",
      "日曜日",
      "祝日"
    ],
    "openDaysNote": "ただし、第３日曜日はお客様の要望に応じて他の週の日曜日に変更することがある。（改行）尚、第３日曜日は利用予定日の２日前までに希望者がいなければ営業日としない。"
  },
  {
    "id": "3070100015",
    "name": "ケアランド和歌山",
    "kana": "ケアランドワカヤマ",
    "address": "和歌山県和歌山市黒田２７９－４",
    "lat": 34.2361892,
    "lng": 135.1985474,
    "tel": "073-474-4210",
    "url": "",
    "pref": "和歌山県",
    "city": "和歌山市",
    "category": "day_service",
    "serviceType": "通所介護",
    "capacity": null,
    "openDays": [
      "平日",
      "土曜日",
      "祝日"
    ],
    "openDaysNote": ""
  },
  {
    "id": "3070113901",
    "name": "コスモス",
    "kana": "コスモス",
    "address": "加納２０６番地２",
    "lat": 34.245466853661,
    "lng": 135.20404100423,
    "tel": "（073）474-7224",
    "url": "https://www.care-cosmos.com",
    "pref": "和歌山県",
    "city": "和歌山市",
    "category": "day_service",
    "serviceType": "通所介護",
    "capacity": 20,
    "openDays": [
      "平日",
      "祝日"
    ],
    "openDaysNote": "年末年始休業：１２月３１日～１月３日"
  },
  {
    "id": "3070114420",
    "name": "シニアデイサービスCOCOfine",
    "kana": "シニアデイサービスココファイン",
    "address": "和歌山県和歌山市延時84-1",
    "lat": 34.2518174,
    "lng": 135.1498525,
    "tel": "073-455-5101",
    "url": "",
    "pref": "和歌山県",
    "city": "和歌山市",
    "category": "day_service",
    "serviceType": "通所介護",
    "capacity": null,
    "openDays": [
      "平日",
      "土曜日",
      "祝日"
    ],
    "openDaysNote": ""
  },
  {
    "id": "3070102615",
    "name": "ソンリッサきみさとデイサービスセンター",
    "kana": "ソンリッサキミサトデイサービスセンター",
    "address": "和歌山市つつじが丘５丁目３番地２",
    "lat": 34.265976,
    "lng": 135.1014751,
    "tel": "073-480-5888",
    "url": "http://www.medi-wel.jp/",
    "pref": "和歌山県",
    "city": "和歌山市",
    "category": "day_service",
    "serviceType": "通所介護",
    "capacity": 45,
    "openDays": [
      "平日",
      "土曜日",
      "祝日"
    ],
    "openDaysNote": "１２月３０日から１月３日まで休みとする。"
  },
  {
    "id": "3070104975",
    "name": "ツクイ和歌山神前",
    "kana": "ツクイ　ワカヤマコウザキ",
    "address": "和歌山市神前246-1",
    "lat": 34.2128307,
    "lng": 135.201845,
    "tel": "073-475-5090",
    "url": "http://www.tsukui.net/",
    "pref": "和歌山県",
    "city": "和歌山市",
    "category": "day_service",
    "serviceType": "通所介護",
    "capacity": 0,
    "openDays": [
      "平日",
      "土曜日",
      "日曜日",
      "祝日"
    ],
    "openDaysNote": "営業時間外は留守番電話に対応しております。"
  },
  {
    "id": "3070109032",
    "name": "デイサービス　あおぞら　夢",
    "kana": "デイサービス　アオゾラ　ユメ",
    "address": "和歌山市小雑賀726-14",
    "lat": 34.1992599,
    "lng": 135.1861744,
    "tel": "073-426-3001",
    "url": "",
    "pref": "和歌山県",
    "city": "和歌山市",
    "category": "day_service",
    "serviceType": "通所介護",
    "capacity": 0,
    "openDays": [
      "平日",
      "土曜日",
      "祝日"
    ],
    "openDaysNote": "年末年始１２月３１日～１月３日定休日"
  },
  {
    "id": "3070110808",
    "name": "デイサービス　あけぼの",
    "kana": "デイサービス　アケボノ",
    "address": "和歌山県和歌山市和歌川町３番１号",
    "lat": 34.1966439079878,
    "lng": 135.180279229855,
    "tel": "073-444-3010",
    "url": "http://www.wachuohp.or.jp/",
    "pref": "和歌山県",
    "city": "和歌山市",
    "category": "day_service",
    "serviceType": "通所介護",
    "capacity": 24,
    "openDays": [
      "平日"
    ],
    "openDaysNote": ""
  },
  {
    "id": "3070104314",
    "name": "デイサービス　オアシス",
    "kana": "デイサービス　オアシス",
    "address": "和歌山市つつじが丘2丁目6-1",
    "lat": 34.2688035,
    "lng": 135.0994918,
    "tel": "073-455-1330",
    "url": "",
    "pref": "和歌山県",
    "city": "和歌山市",
    "category": "day_service",
    "serviceType": "通所介護",
    "capacity": 32,
    "openDays": [
      "平日",
      "土曜日",
      "日曜日",
      "祝日"
    ],
    "openDaysNote": "悪天候などにより送迎が困難な場合においては、臨時休業する場合があります。"
  },
  {
    "id": "3070107630",
    "name": "デイサービス　サン・クレール",
    "kana": "デイサービス　サン・クレール",
    "address": "和歌山県和歌山市松江北七丁目9-18",
    "lat": 34.2526055,
    "lng": 135.125752,
    "tel": "073-499-5771",
    "url": "http://www.restfrom.com/",
    "pref": "和歌山県",
    "city": "和歌山市",
    "category": "day_service",
    "serviceType": "通所介護",
    "capacity": 30,
    "openDays": [
      "平日",
      "土曜日",
      "日曜日",
      "祝日"
    ],
    "openDaysNote": "12月29日から翌年1月3日までは休み"
  },
  {
    "id": "3070104348",
    "name": "デイサービス　シルバーネスト",
    "kana": "デイサービス　シルバーネスト",
    "address": "和歌山市塩屋４丁目５－１６",
    "lat": 34.1997552326137,
    "lng": 135.177596867923,
    "tel": "073-444-1126",
    "url": "http://care-net.biz/30/silvernest/index.html",
    "pref": "和歌山県",
    "city": "和歌山市",
    "category": "day_service",
    "serviceType": "通所介護",
    "capacity": 26,
    "openDays": [
      "平日",
      "土曜日",
      "祝日"
    ],
    "openDaysNote": "年末12/30～年始1/3はお休み"
  },
  {
    "id": "3070111988",
    "name": "デイサービス　ステップ",
    "kana": "デイサービス　ステップ",
    "address": "和歌山市府中132",
    "lat": 34.2661603124869,
    "lng": 135.223507832889,
    "tel": "073-462-6700",
    "url": "http://www.168wakayama.com",
    "pref": "和歌山県",
    "city": "和歌山市",
    "category": "day_service",
    "serviceType": "通所介護",
    "capacity": 20,
    "openDays": [
      "平日",
      "祝日"
    ],
    "openDaysNote": "年末12/30年始～1/3"
  },
  {
    "id": "3070101609",
    "name": "デイサービス　たがみ",
    "kana": "デイサービス　タガミ",
    "address": "和歌山市友田町３丁目２０番地",
    "lat": 34.2335142,
    "lng": 135.1872207,
    "tel": "073-422-4386",
    "url": "https://tagami-joto.co.jp/",
    "pref": "和歌山県",
    "city": "和歌山市",
    "category": "day_service",
    "serviceType": "通所介護",
    "capacity": 5,
    "openDays": [
      "平日",
      "土曜日",
      "祝日"
    ],
    "openDaysNote": ""
  },
  {
    "id": "3070112994",
    "name": "デイサービス　ピース＆ピース",
    "kana": "デイサービス　ピースアンドピース",
    "address": "和歌山市北出島12-7",
    "lat": 34.2230629601182,
    "lng": 135.195092939287,
    "tel": "073-499-5525",
    "url": "http://wpap.ciao.jp/",
    "pref": "和歌山県",
    "city": "和歌山市",
    "category": "day_service",
    "serviceType": "通所介護",
    "capacity": null,
    "openDays": [
      "平日",
      "土曜日",
      "祝日"
    ],
    "openDaysNote": ""
  },
  {
    "id": "3070114008",
    "name": "デイサービス　ピース＆ピースⅡ",
    "kana": "デイサービス　ピースアンドピース　ツー",
    "address": "和歌山市神前546-1",
    "lat": 34.2095445,
    "lng": 135.2082908,
    "tel": "073-488-9125",
    "url": "http://wpap.ciao.jp",
    "pref": "和歌山県",
    "city": "和歌山市",
    "category": "day_service",
    "serviceType": "通所介護",
    "capacity": 0,
    "openDays": [
      "平日",
      "土曜日"
    ],
    "openDaysNote": ""
  },
  {
    "id": "3070106988",
    "name": "デイサービス　よしはら",
    "kana": "デイサービス　ヨシハラ",
    "address": "和歌山県和歌山市吉原７４７番地の１",
    "lat": 34.1960077,
    "lng": 135.2030924,
    "tel": "073-479-2829",
    "url": "",
    "pref": "和歌山県",
    "city": "和歌山市",
    "category": "day_service",
    "serviceType": "通所介護",
    "capacity": 20,
    "openDays": [
      "平日",
      "祝日"
    ],
    "openDaysNote": ""
  },
  {
    "id": "3070114412",
    "name": "デイサービス　ラフテル",
    "kana": "デイサービス　ラフテル",
    "address": "和歌山県和歌山市木ノ本243‐1",
    "lat": 34.2617409402403,
    "lng": 135.125014575778,
    "tel": "073‐418‐2666",
    "url": "",
    "pref": "和歌山県",
    "city": "和歌山市",
    "category": "day_service",
    "serviceType": "通所介護",
    "capacity": 0,
    "openDays": [
      "平日",
      "祝日"
    ],
    "openDaysNote": ""
  },
  {
    "id": "3070106111",
    "name": "デイサービス　わをん",
    "kana": "デイサービス　ワヲン",
    "address": "和歌山市吐前263-1",
    "lat": 34.2401291,
    "lng": 135.2736888,
    "tel": "073-494-4100",
    "url": "minori-kaigo.net/",
    "pref": "和歌山県",
    "city": "和歌山市",
    "category": "day_service",
    "serviceType": "通所介護",
    "capacity": 0,
    "openDays": [
      "平日",
      "土曜日",
      "祝日"
    ],
    "openDaysNote": ""
  },
  {
    "id": "3070105733",
    "name": "デイサービスＴｗｉｎｋｌｅ",
    "kana": "デイサービストゥインクル",
    "address": "和歌山市舟津町３丁目３２－３パレ・ロワイヤル舟津１階 パレ・ロワイヤル舟津１階",
    "lat": 34.2192984,
    "lng": 135.1600342,
    "tel": "073-435-0566",
    "url": "",
    "pref": "和歌山県",
    "city": "和歌山市",
    "category": "day_service",
    "serviceType": "通所介護",
    "capacity": 0,
    "openDays": [
      "平日",
      "土曜日",
      "祝日"
    ],
    "openDaysNote": ""
  },
  {
    "id": "3070108505",
    "name": "デイサービスあい向",
    "kana": "デイサービス　アイムカイ",
    "address": "和歌山市向143あい向 あい向",
    "lat": 34.2580219,
    "lng": 135.1448423,
    "tel": "073-452-8766",
    "url": "http://www.nakae.or.jp/contents/ai_mukai/day.html",
    "pref": "和歌山県",
    "city": "和歌山市",
    "category": "day_service",
    "serviceType": "通所介護",
    "capacity": 30,
    "openDays": [
      "平日",
      "土曜日",
      "祝日"
    ],
    "openDaysNote": "元日休業日"
  },
  {
    "id": "3070110907",
    "name": "デイサービスあい船所",
    "kana": "デイサービスアイフナドコロ",
    "address": "和歌山県和歌山市楠見中206-8",
    "lat": 34.2556254854199,
    "lng": 135.180398539951,
    "tel": "073-453-8751",
    "url": "http://www.nakae.or.jp/contents/ai/index.html",
    "pref": "和歌山県",
    "city": "和歌山市",
    "category": "day_service",
    "serviceType": "通所介護",
    "capacity": 0,
    "openDays": [
      "平日",
      "土曜日",
      "祝日"
    ],
    "openDaysNote": "正月３日間は休み"
  },
  {
    "id": "3070104421",
    "name": "デイサービスあさか",
    "kana": "デイサービスアサカ",
    "address": "和歌山市新庄465",
    "lat": 34.2475456173454,
    "lng": 135.286951878049,
    "tel": "073-477-5255",
    "url": "https://asaka-c.jp/",
    "pref": "和歌山県",
    "city": "和歌山市",
    "category": "day_service",
    "serviceType": "通所介護",
    "capacity": 27,
    "openDays": [
      "平日",
      "土曜日",
      "祝日"
    ],
    "openDaysNote": "12/31～1/3は休み"
  },
  {
    "id": "3070105972",
    "name": "デイサービスいちごの里",
    "kana": "デイサービスイチゴノサト",
    "address": "和歌山市岩橋973-1",
    "lat": 34.2350527079961,
    "lng": 135.230273407195,
    "tel": "073-471-4766",
    "url": "http://www.ichigonosato.jp",
    "pref": "和歌山県",
    "city": "和歌山市",
    "category": "day_service",
    "serviceType": "通所介護",
    "capacity": 0,
    "openDays": [
      "平日",
      "土曜日",
      "祝日"
    ],
    "openDaysNote": ""
  },
  {
    "id": "3070114099",
    "name": "デイサービスいぶき",
    "kana": "デイサービスiBUKi",
    "address": "和歌山県和歌山市小雑賀696-1",
    "lat": 34.2002673,
    "lng": 135.1836882,
    "tel": "073-463-6410",
    "url": "",
    "pref": "和歌山県",
    "city": "和歌山市",
    "category": "day_service",
    "serviceType": "通所介護",
    "capacity": 0,
    "openDays": [
      "平日"
    ],
    "openDaysNote": "12月29日～1月4日は休日"
  },
  {
    "id": "3070114305",
    "name": "デイサービスウェイ",
    "kana": "デイサービスウェイ",
    "address": "和歌山市西高松二丁目15-5",
    "lat": 34.2038794000001,
    "lng": 135.1703768,
    "tel": "073‐488‐9775",
    "url": "",
    "pref": "和歌山県",
    "city": "和歌山市",
    "category": "day_service",
    "serviceType": "通所介護",
    "capacity": 0,
    "openDays": [
      "平日",
      "祝日"
    ],
    "openDaysNote": "年末年始（１２月３１日から１月３日まで）は休みとなっています。"
  },
  {
    "id": "3070112879",
    "name": "デイサービスエレック",
    "kana": "デイサービスエレック",
    "address": "和歌山県和歌山市堀止東1丁目1-9",
    "lat": 34.2154051,
    "lng": 135.1708533,
    "tel": "073-498-1120",
    "url": "",
    "pref": "和歌山県",
    "city": "和歌山市",
    "category": "day_service",
    "serviceType": "通所介護",
    "capacity": 0,
    "openDays": [
      "平日",
      "土曜日"
    ],
    "openDaysNote": ""
  },
  {
    "id": "3070107333",
    "name": "デイサービスオアシスII",
    "kana": "デイサービスオアシスツー",
    "address": "和歌山県和歌山市つつじが丘2丁目6-1",
    "lat": 34.268932062177,
    "lng": 135.099534715344,
    "tel": "073-455-1161",
    "url": "",
    "pref": "和歌山県",
    "city": "和歌山市",
    "category": "day_service",
    "serviceType": "通所介護",
    "capacity": 32,
    "openDays": [
      "平日",
      "土曜日",
      "日曜日",
      "祝日"
    ],
    "openDaysNote": ""
  },
  {
    "id": "3070110063",
    "name": "デイサービスオアシスⅢ",
    "kana": "デイサービスオアシススリー",
    "address": "和歌山県　和歌山市　つつじが丘　5丁目3-5",
    "lat": 34.2661267331176,
    "lng": 135.10221002527,
    "tel": "073-455-2100",
    "url": "",
    "pref": "和歌山県",
    "city": "和歌山市",
    "category": "day_service",
    "serviceType": "通所介護",
    "capacity": 35,
    "openDays": [
      "平日",
      "土曜日",
      "日曜日",
      "祝日"
    ],
    "openDaysNote": ""
  },
  {
    "id": "3070105220",
    "name": "デイサービスかがやき",
    "kana": "デイサービスカガヤキ",
    "address": "和歌山市禰宜９２０－１",
    "lat": 34.2340763,
    "lng": 135.2491131,
    "tel": "073-465-2222",
    "url": "",
    "pref": "和歌山県",
    "city": "和歌山市",
    "category": "day_service",
    "serviceType": "通所介護",
    "capacity": 20,
    "openDays": [
      "平日",
      "土曜日",
      "祝日"
    ],
    "openDaysNote": "年末年始"
  },
  {
    "id": "3070111566",
    "name": "デイサービスかなえ",
    "kana": "デイサービスカナエ",
    "address": "和歌山県和歌山市向２２８番地の１８デイサービスかなえ デイサービスかなえ",
    "lat": 34.2550028412577,
    "lng": 135.146177039032,
    "tel": "734551173",
    "url": "",
    "pref": "和歌山県",
    "city": "和歌山市",
    "category": "day_service",
    "serviceType": "通所介護",
    "capacity": 21,
    "openDays": [
      "平日",
      "土曜日",
      "祝日"
    ],
    "openDaysNote": ""
  },
  {
    "id": "3070104033",
    "name": "デイサービスささゆり",
    "kana": "デイサービスササユリ",
    "address": "和歌山県和歌山市田尻496-4",
    "lat": 34.200696,
    "lng": 135.1904518,
    "tel": "073-474-1600",
    "url": "http://care-net.biz/30/sasayuri/",
    "pref": "和歌山県",
    "city": "和歌山市",
    "category": "day_service",
    "serviceType": "通所介護",
    "capacity": 0,
    "openDays": [
      "平日",
      "祝日"
    ],
    "openDaysNote": "12/31、1/1、1/2、1/3は休みとする。"
  },
  {
    "id": "3070103431",
    "name": "デイサービスセンターサン",
    "kana": "デイサービスセンターサン",
    "address": "和歌山市和田1205-1",
    "lat": 34.2071888921663,
    "lng": 135.208642316008,
    "tel": "073-471-8795",
    "url": "http://www.iryohoujin-sun.com",
    "pref": "和歌山県",
    "city": "和歌山市",
    "category": "day_service",
    "serviceType": "通所介護",
    "capacity": 45,
    "openDays": [
      "平日",
      "土曜日",
      "日曜日",
      "祝日"
    ],
    "openDaysNote": ""
  },
  {
    "id": "3070105006",
    "name": "デイサービスセンターしんぼり",
    "kana": "デイサービスセンターシンボリ",
    "address": "和歌山市新堀東2丁目2-2紀の国医療福祉センター・ほっと生活館しんぼり",
    "lat": 34.2142689,
    "lng": 135.1727139,
    "tel": "073-432-7611",
    "url": "http://care-net.biz/30/kinokuniiryo/index.php",
    "pref": "和歌山県",
    "city": "和歌山市",
    "category": "day_service",
    "serviceType": "通所介護",
    "capacity": 28,
    "openDays": [
      "平日",
      "土曜日",
      "祝日"
    ],
    "openDaysNote": ""
  },
  {
    "id": "3070107952",
    "name": "デイサービスセンターせいがの森",
    "kana": "デイサービスセンターセイガノモリ",
    "address": "和歌山市栄谷58-2",
    "lat": 34.2551474,
    "lng": 135.1567083,
    "tel": "073-455-6660",
    "url": "http://w-himawarikai.or.jp/",
    "pref": "和歌山県",
    "city": "和歌山市",
    "category": "day_service",
    "serviceType": "通所介護",
    "capacity": 25,
    "openDays": [
      "平日",
      "祝日"
    ],
    "openDaysNote": ""
  },
  {
    "id": "3070101963",
    "name": "デイサービスセンターマブル",
    "kana": "デイサアビスセンタアマアブル",
    "address": "和歌山市小瀬田１０９－２",
    "lat": 34.1793995,
    "lng": 135.229893,
    "tel": "073-479-5077",
    "url": "ｈｔｔｐｓ：//em.cloud-mail.jp/CMAO/",
    "pref": "和歌山県",
    "city": "和歌山市",
    "category": "day_service",
    "serviceType": "通所介護",
    "capacity": 20,
    "openDays": [
      "平日"
    ],
    "openDaysNote": ""
  },
  {
    "id": "3070109776",
    "name": "デイサービスセンターまんぼう",
    "kana": "デイサービスセンターマンボウ",
    "address": "和歌山県和歌山市有本303番地3まんぼうのお家 まんぼうのお家",
    "lat": 34.2475085325471,
    "lng": 135.199473353426,
    "tel": "073－497－8067",
    "url": "k.manbou@lake.ocn.ne.jp",
    "pref": "和歌山県",
    "city": "和歌山市",
    "category": "day_service",
    "serviceType": "通所介護",
    "capacity": 0,
    "openDays": [
      "平日",
      "土曜日",
      "祝日"
    ],
    "openDaysNote": ""
  },
  {
    "id": "3070113000",
    "name": "デイサービスセンターレサンテ和歌山",
    "kana": "デイサービスセンターレサンテワカヤマ",
    "address": "和歌山県和歌山市布引874番地の1",
    "lat": 34.1707855,
    "lng": 135.1880392,
    "tel": "073-488-1956",
    "url": "https://www.kawasho-gr.jp/lessantewakayama.html",
    "pref": "和歌山県",
    "city": "和歌山市",
    "category": "day_service",
    "serviceType": "通所介護",
    "capacity": 0,
    "openDays": [
      "平日",
      "祝日"
    ],
    "openDaysNote": ""
  },
  {
    "id": "3070111426",
    "name": "デイサービスセンターロコ",
    "kana": "デイサービスセンターロコ",
    "address": "和歌山県和歌山市紀三井寺539番４デイサービスセンターロコ デイサービスセンターロコ",
    "lat": 34.1787318,
    "lng": 135.1866966,
    "tel": "０７３－４４７－２０８７",
    "url": "",
    "pref": "和歌山県",
    "city": "和歌山市",
    "category": "day_service",
    "serviceType": "通所介護",
    "capacity": 20,
    "openDays": [
      "平日",
      "土曜日",
      "祝日"
    ],
    "openDaysNote": "年末年始(12月30日～1月3日)は定休日。"
  },
  {
    "id": "3070113968",
    "name": "デイサービスセンター花音",
    "kana": "デイサービスセンターカノン",
    "address": "和歌山県和歌山市冬野１４１５番地1",
    "lat": 34.1736869,
    "lng": 135.2090508,
    "tel": "073-488-6004",
    "url": "",
    "pref": "和歌山県",
    "city": "和歌山市",
    "category": "day_service",
    "serviceType": "通所介護",
    "capacity": 0,
    "openDays": [
      "平日",
      "土曜日",
      "祝日"
    ],
    "openDaysNote": ""
  },
  {
    "id": "3070110550",
    "name": "デイサービスセンター山口葵園",
    "kana": "デイサービスセンターヤマグチアオイエン",
    "address": "和歌山県和歌山市藤田２５－１",
    "lat": 34.2647688,
    "lng": 135.2629974,
    "tel": "073-461-5757",
    "url": "http://www.y-aoikai.or.jp",
    "pref": "和歌山県",
    "city": "和歌山市",
    "category": "day_service",
    "serviceType": "通所介護",
    "capacity": 0,
    "openDays": [
      "平日",
      "祝日"
    ],
    "openDaysNote": ""
  },
  {
    "id": "3070114875",
    "name": "デイサービスセンター十色",
    "kana": "デイサービスセンタートイロ",
    "address": "和歌山県和歌山市小倉130番地2",
    "lat": 34.2500135,
    "lng": 135.2871164,
    "tel": "073-463-6401",
    "url": "",
    "pref": "和歌山県",
    "city": "和歌山市",
    "category": "day_service",
    "serviceType": "通所介護",
    "capacity": null,
    "openDays": [
      "平日",
      "土曜日",
      "祝日"
    ],
    "openDaysNote": ""
  },
  {
    "id": "3070106541",
    "name": "デイサービスセンター内原",
    "kana": "デイサービスセンターウチハラ",
    "address": "和歌山市毛見１６８番地７",
    "lat": 34.1650307,
    "lng": 135.1872162,
    "tel": "073-448-1206",
    "url": "",
    "pref": "和歌山県",
    "city": "和歌山市",
    "category": "day_service",
    "serviceType": "通所介護",
    "capacity": 0,
    "openDays": [
      "平日",
      "土曜日"
    ],
    "openDaysNote": ""
  },
  {
    "id": "3070111392",
    "name": "デイサービスたいむ",
    "kana": "デイサービスタイム",
    "address": "和歌山市新庄565",
    "lat": 34.2470667113361,
    "lng": 135.284859755017,
    "tel": "073-477-7752",
    "url": "https://asaka-c.jp/",
    "pref": "和歌山県",
    "city": "和歌山市",
    "category": "day_service",
    "serviceType": "通所介護",
    "capacity": 40,
    "openDays": [
      "平日",
      "土曜日",
      "祝日"
    ],
    "openDaysNote": ""
  },
  {
    "id": "3070112283",
    "name": "デイサービスてんとうむし",
    "kana": "デイサービステントウムシ",
    "address": "和歌山県和歌山市松島52番地3",
    "lat": 34.2491816,
    "lng": 135.2114745,
    "tel": "073-471-5366",
    "url": "https//tentomushi-wakayama.jp",
    "pref": "和歌山県",
    "city": "和歌山市",
    "category": "day_service",
    "serviceType": "通所介護",
    "capacity": 0,
    "openDays": [
      "平日",
      "土曜日",
      "日曜日",
      "祝日"
    ],
    "openDaysNote": "緊急の時はこの場合ではない。"
  },
  {
    "id": "3070105212",
    "name": "デイサービスぱなさんぶる",
    "kana": "デイサービスパナサンブル",
    "address": "和歌山市狐島和歌山市狐島266-4",
    "lat": 34.2428652684293,
    "lng": 135.151172063096,
    "tel": "073-452-2650",
    "url": "",
    "pref": "和歌山県",
    "city": "和歌山市",
    "category": "day_service",
    "serviceType": "通所介護",
    "capacity": 25,
    "openDays": [
      "平日",
      "土曜日",
      "祝日"
    ],
    "openDaysNote": ""
  },
  {
    "id": "3070114990",
    "name": "でいさーびすひじり",
    "kana": "デイサービスヒジリ",
    "address": "和歌山県和歌山市土佐町2丁目20-1",
    "lat": 34.2227321,
    "lng": 135.1617229,
    "tel": "073-497-5575",
    "url": "",
    "pref": "和歌山県",
    "city": "和歌山市",
    "category": "day_service",
    "serviceType": "通所介護",
    "capacity": 25,
    "openDays": [
      "平日",
      "土曜日",
      "祝日"
    ],
    "openDaysNote": ""
  },
  {
    "id": "3070108943",
    "name": "デイサービスゆうゆう福島",
    "kana": "デイサービスユウユウフクシマ",
    "address": "和歌山市福島269-8",
    "lat": 34.2505981,
    "lng": 135.1681105,
    "tel": "073-457-1131",
    "url": "",
    "pref": "和歌山県",
    "city": "和歌山市",
    "category": "day_service",
    "serviceType": "通所介護",
    "capacity": 0,
    "openDays": [
      "平日",
      "土曜日",
      "祝日"
    ],
    "openDaysNote": "12月29日～1月3日"
  },
  {
    "id": "3070113927",
    "name": "デイサービス成幸花山",
    "kana": "デイサービスセイコウハナヤマ",
    "address": "岩橋1630-4",
    "lat": 34.2308,
    "lng": 135.221887,
    "tel": "073-488-9561",
    "url": "",
    "pref": "和歌山県",
    "city": "和歌山市",
    "category": "day_service",
    "serviceType": "通所介護",
    "capacity": 0,
    "openDays": [
      "平日",
      "祝日"
    ],
    "openDaysNote": ""
  },
  {
    "id": "3070114768",
    "name": "デイサービス絆",
    "kana": "デイサービスキズナ",
    "address": "和歌山県和歌山市井戸192-1",
    "lat": 34.1974618,
    "lng": 135.2266403,
    "tel": "073-460-2613",
    "url": "",
    "pref": "和歌山県",
    "city": "和歌山市",
    "category": "day_service",
    "serviceType": "通所介護",
    "capacity": 0,
    "openDays": [
      "平日",
      "土曜日",
      "日曜日",
      "祝日"
    ],
    "openDaysNote": ""
  },
  {
    "id": "3070110105",
    "name": "なごみの郷　あゆむ",
    "kana": "ナゴミノサト　アユム",
    "address": "西庄92-７、８",
    "lat": 34.2625403,
    "lng": 135.119569,
    "tel": "073-488-5366",
    "url": "",
    "pref": "和歌山県",
    "city": "和歌山市",
    "category": "day_service",
    "serviceType": "通所介護",
    "capacity": 0,
    "openDays": [
      "平日",
      "祝日"
    ],
    "openDaysNote": "天災等によりサービス提供に困難や危険等が生じる恐れがある場合には、やむなく当日のサービスを中止させて頂く事があります。"
  },
  {
    "id": "3070101666",
    "name": "ニチイケアセンター大浦",
    "kana": "ニチイケアセンターオオウラ",
    "address": "和歌山県和歌山市西小二里3－6－46　　ＡＹビル3F",
    "lat": 34.209199,
    "lng": 135.159648,
    "tel": "073-402-0902",
    "url": "http://www.nichiigakkan.co.jp",
    "pref": "和歌山県",
    "city": "和歌山市",
    "category": "day_service",
    "serviceType": "通所介護",
    "capacity": 0,
    "openDays": [
      "平日",
      "土曜日",
      "祝日"
    ],
    "openDaysNote": "(1)居宅サービス計画により、営業時間外であってもサービスの提供を行う場合がある。（改行）(2)延長サービスは17時～19時までの最大2時間とする。"
  },
  {
    "id": "3070106269",
    "name": "ハートケアデイサービス",
    "kana": "ハートケアデイサービス",
    "address": "和歌山県和歌山市南出島２８－１６",
    "lat": 34.216994,
    "lng": 135.191543,
    "tel": "073-474-1630",
    "url": "http://www.heart-careservice.jp/",
    "pref": "和歌山県",
    "city": "和歌山市",
    "category": "day_service",
    "serviceType": "通所介護",
    "capacity": 0,
    "openDays": [
      "平日",
      "土曜日",
      "祝日"
    ],
    "openDaysNote": ""
  },
  {
    "id": "3070112713",
    "name": "パソナライフケア栄谷",
    "kana": "パソナライフケアサカエダニ",
    "address": "和歌山県和歌山市栄谷179-1",
    "lat": 34.2565472,
    "lng": 135.1532196,
    "tel": "073-455-3833",
    "url": "https://www.pasona-lc.co.jp/",
    "pref": "和歌山県",
    "city": "和歌山市",
    "category": "day_service",
    "serviceType": "通所介護",
    "capacity": 0,
    "openDays": [
      "平日",
      "土曜日",
      "祝日"
    ],
    "openDaysNote": ""
  },
  {
    "id": "3070112093",
    "name": "パナソニックエイジフリー株式会社",
    "kana": "パナソニックエイジフリーカブシキガイシャ",
    "address": "和歌山県和歌山市北島325-25パナソニックエイジフリーケアセンター和歌山北島・デイサービス パナソニックエイジフリーケアセンター和歌山北島・デイサービス",
    "lat": 36.204824,
    "lng": 138.252924,
    "tel": "073-455-5522",
    "url": "",
    "pref": "和歌山県",
    "city": "和歌山市",
    "category": "day_service",
    "serviceType": "通所介護",
    "capacity": 25,
    "openDays": [
      "平日",
      "土曜日",
      "祝日"
    ],
    "openDaysNote": "12/30～1/3はその年により休みの日にちが変わります。"
  },
  {
    "id": "3070105816",
    "name": "ひまわり福祉サービス",
    "kana": "ヒマワリフクシサービス",
    "address": "和歌山県和歌山市新中島63-5",
    "lat": 34.2157248,
    "lng": 135.1984424,
    "tel": "073-476-4810",
    "url": "http://www.himawari-welfare.jp",
    "pref": "和歌山県",
    "city": "和歌山市",
    "category": "day_service",
    "serviceType": "通所介護",
    "capacity": 0,
    "openDays": [
      "平日",
      "土曜日",
      "日曜日",
      "祝日"
    ],
    "openDaysNote": ""
  },
  {
    "id": "3070107275",
    "name": "ひまわり福祉サービス塩屋事業所",
    "kana": "ヒマワリフクシサービスシオヤジギョウショ",
    "address": "和歌山市塩屋4丁目5-6",
    "lat": 34.2004730571329,
    "lng": 135.177758741139,
    "tel": "073-444-3358",
    "url": "http://www.himawari-welfare.jp",
    "pref": "和歌山県",
    "city": "和歌山市",
    "category": "day_service",
    "serviceType": "通所介護",
    "capacity": 0,
    "openDays": [
      "平日",
      "土曜日",
      "祝日"
    ],
    "openDaysNote": ""
  },
  {
    "id": "3070114479",
    "name": "ふくろうデイサービス",
    "kana": "フクロウデイサービス",
    "address": "和歌山県和歌山市中之島784-1",
    "lat": 34.2398560501328,
    "lng": 135.17912410333,
    "tel": "073-499-5057",
    "url": "https://hukurou-lp.com/",
    "pref": "和歌山県",
    "city": "和歌山市",
    "category": "day_service",
    "serviceType": "通所介護",
    "capacity": null,
    "openDays": [
      "平日",
      "土曜日",
      "祝日"
    ],
    "openDaysNote": "月曜日～土曜日、祝日も営業します。ただし、12月30日から翌年1月3日までを除く。"
  },
  {
    "id": "3070115096",
    "name": "ふくろうデイサービス",
    "kana": "フクロウデイサービス",
    "address": "和歌山県和歌山市中之島784-1",
    "lat": 34.2417354,
    "lng": 135.1857186,
    "tel": "073-499-5057",
    "url": "",
    "pref": "和歌山県",
    "city": "和歌山市",
    "category": "day_service",
    "serviceType": "通所介護",
    "capacity": null,
    "openDays": [
      "平日",
      "土曜日",
      "祝日"
    ],
    "openDaysNote": "月曜日から土曜日、祝日も営業します。ただし、１２月３０日から１月３日までを除く。"
  },
  {
    "id": "3070113406",
    "name": "ポシブルわかやま狐島",
    "kana": "ポシブルワカヤマキツネジマ",
    "address": "和歌山県和歌山市狐島262-4",
    "lat": 34.2429987,
    "lng": 135.1514019,
    "tel": "073-488-3408",
    "url": "https://www.possible-plus.co.jp/store/390/",
    "pref": "和歌山県",
    "city": "和歌山市",
    "category": "day_service",
    "serviceType": "通所介護",
    "capacity": 0,
    "openDays": [
      "平日",
      "祝日"
    ],
    "openDaysNote": ""
  },
  {
    "id": "3070107895",
    "name": "ほすぴ小倉",
    "kana": "ホスピオグラ",
    "address": "満屋127番地",
    "lat": 45.3749878,
    "lng": 19.7092892000001,
    "tel": "073-477-7877",
    "url": "",
    "pref": "和歌山県",
    "city": "和歌山市",
    "category": "day_service",
    "serviceType": "通所介護",
    "capacity": 20,
    "openDays": [
      "平日",
      "土曜日",
      "祝日"
    ],
    "openDaysNote": "上記以外の定休日として12/30～1/3"
  },
  {
    "id": "3010112005",
    "name": "ぽぽろデイサービスセンター",
    "kana": "ポポロデイサービスセンター",
    "address": "和歌山市西庄223-5",
    "lat": 34.2619487,
    "lng": 135.1178413,
    "tel": "073-455-6644",
    "url": "www.medi-wel.jp/",
    "pref": "和歌山県",
    "city": "和歌山市",
    "category": "day_service",
    "serviceType": "通所介護",
    "capacity": 45,
    "openDays": [
      "平日",
      "土曜日",
      "祝日"
    ],
    "openDaysNote": "年末年始１２月３０日から１月３日までを休みとする。"
  },
  {
    "id": "3070103720",
    "name": "ぽぽろ紀ノ川デイサービスセンター",
    "kana": "ポポロキノカワデイサービスセンター",
    "address": "和歌山市善明寺354-1",
    "lat": 34.2621143,
    "lng": 135.1861171,
    "tel": "073-454-6556",
    "url": "http://www.medi-wel.jp",
    "pref": "和歌山県",
    "city": "和歌山市",
    "category": "day_service",
    "serviceType": "通所介護",
    "capacity": 30,
    "openDays": [
      "平日",
      "土曜日",
      "祝日"
    ],
    "openDaysNote": "年末年始１２月３０日から１月３日までを休みとする。"
  },
  {
    "id": "3070107457",
    "name": "まつい訪問看護ステーション　キュアルーム",
    "kana": "マツイホウモンカンゴステーション　キュアルーム",
    "address": "和歌山県和歌山市砂山南四丁目1番37号",
    "lat": 34.2166015,
    "lng": 135.1597648,
    "tel": "073-402-2207",
    "url": "http://matsui-houmonkango.co.jp/",
    "pref": "和歌山県",
    "city": "和歌山市",
    "category": "day_service",
    "serviceType": "通所介護",
    "capacity": 0,
    "openDays": [
      "平日",
      "土曜日",
      "祝日"
    ],
    "openDaysNote": ""
  },
  {
    "id": "3070100379",
    "name": "みどりケアステーション",
    "kana": "ミドリケアステーション",
    "address": "和歌山県和歌山市和佐中２１３番の１",
    "lat": 34.234679,
    "lng": 135.2377999,
    "tel": "073-477-5266",
    "url": "https://www.w-midori.jp",
    "pref": "和歌山県",
    "city": "和歌山市",
    "category": "day_service",
    "serviceType": "通所介護",
    "capacity": 40,
    "openDays": [
      "平日",
      "土曜日",
      "祝日"
    ],
    "openDaysNote": "警報発令や大雨・大雪・災害時等の理由により、サービス提供時間の短縮や臨時休業の場合あり。"
  },
  {
    "id": "3070114180",
    "name": "みどりデイサービスセンター",
    "kana": "ミドリデイサービスセンター",
    "address": "和歌山県和歌山市土佐町3丁目25番地",
    "lat": 34.220035,
    "lng": 135.1603054,
    "tel": "073-427-0770",
    "url": "https://www.w-midori.jp",
    "pref": "和歌山県",
    "city": "和歌山市",
    "category": "day_service",
    "serviceType": "通所介護",
    "capacity": 0,
    "openDays": [
      "平日"
    ],
    "openDaysNote": "警報発令や大雨・大雪・災害時等の理由により、サービス提供時間の短縮や臨時休業の場合あり。"
  },
  {
    "id": "3070105097",
    "name": "ゆたかデイサービス",
    "kana": "ユタカデイサービス",
    "address": "和歌山県和歌山市中島452‐7ユタカ創造ビル3階 ユタカ創造ビル3階",
    "lat": 34.201593,
    "lng": 135.1859633,
    "tel": "073‐402‐3135",
    "url": "http://lifeaccess.co.jp/",
    "pref": "和歌山県",
    "city": "和歌山市",
    "category": "day_service",
    "serviceType": "通所介護",
    "capacity": 25,
    "openDays": [
      "平日",
      "祝日"
    ],
    "openDaysNote": ""
  },
  {
    "id": "3070114453",
    "name": "ライフ",
    "kana": "ライフ",
    "address": "和歌山県和歌山市1325-8",
    "lat": 34.2432117,
    "lng": 135.2465276,
    "tel": "073-480-5001",
    "url": "",
    "pref": "和歌山県",
    "city": "和歌山市",
    "category": "day_service",
    "serviceType": "通所介護",
    "capacity": null,
    "openDays": [
      "平日",
      "祝日"
    ],
    "openDaysNote": ""
  },
  {
    "id": "3070103365",
    "name": "ライフパートナー内原」デイサービスセンター",
    "kana": "ライフパートナーウチハラデイサービスセンター",
    "address": "和歌山県和歌山市内原634-1",
    "lat": 34.1751382,
    "lng": 135.1984845,
    "tel": "073-447-2545",
    "url": "",
    "pref": "和歌山県",
    "city": "和歌山市",
    "category": "day_service",
    "serviceType": "通所介護",
    "capacity": 0,
    "openDays": [
      "平日"
    ],
    "openDaysNote": ""
  },
  {
    "id": "3070111939",
    "name": "リハビリデイサービス自然倶楽部",
    "kana": "リハビリデイサービスジネンクラブ",
    "address": "和歌山県和歌山市西庄337-3",
    "lat": 34.2573243,
    "lng": 135.1160525,
    "tel": "073-460-5680",
    "url": "http://www.jinen-club.com/",
    "pref": "和歌山県",
    "city": "和歌山市",
    "category": "day_service",
    "serviceType": "通所介護",
    "capacity": 0,
    "openDays": [
      "平日"
    ],
    "openDaysNote": ""
  },
  {
    "id": "3070108919",
    "name": "ルミエール・デイサービスセンター",
    "kana": "ルミエール・デイサービスセンター",
    "address": "和歌山市粟128-6",
    "lat": 34.2493845,
    "lng": 135.1732713,
    "tel": "073-499-8550",
    "url": "http://care-net.biz/30/ｌumiere/",
    "pref": "和歌山県",
    "city": "和歌山市",
    "category": "day_service",
    "serviceType": "通所介護",
    "capacity": 30,
    "openDays": [
      "平日",
      "土曜日"
    ],
    "openDaysNote": ""
  },
  {
    "id": "3070112903",
    "name": "加納の手デイサービスセンター",
    "kana": "カノウノテデイサービスセンター",
    "address": "和歌山県和歌山市加納407-1有料老人ホーム　きのくにの手 有料老人ホーム　きのくにの手",
    "lat": 34.2459369,
    "lng": 135.2044487,
    "tel": "073-474-0021",
    "url": "",
    "pref": "和歌山県",
    "city": "和歌山市",
    "category": "day_service",
    "serviceType": "通所介護",
    "capacity": null,
    "openDays": [
      "平日",
      "土曜日",
      "祝日"
    ],
    "openDaysNote": "年末年始（12/31～1/2）はお休み"
  },
  {
    "id": "3070103753",
    "name": "皆楽園小倉デイサービスセンター",
    "kana": "カイラクエンオグラデイサービスセンター",
    "address": "和歌山県和歌山市吐前６２０－１",
    "lat": 34.2429316,
    "lng": 135.2747025,
    "tel": "073-465-3751",
    "url": "http://kairakuen.or.jp",
    "pref": "和歌山県",
    "city": "和歌山市",
    "category": "day_service",
    "serviceType": "通所介護",
    "capacity": 40,
    "openDays": [
      "平日",
      "土曜日",
      "祝日"
    ],
    "openDaysNote": ""
  },
  {
    "id": "3070104512",
    "name": "喜成会デイサービス「有本の家」",
    "kana": "キセイカイデイサービス「アリモトノイエ」",
    "address": "和歌山県和歌山市有本１２７－１",
    "lat": 34.2470826,
    "lng": 135.1952446,
    "tel": "073-402-3838",
    "url": "http://www.kiseikai-w.or.jp/",
    "pref": "和歌山県",
    "city": "和歌山市",
    "category": "day_service",
    "serviceType": "通所介護",
    "capacity": 0,
    "openDays": [
      "平日",
      "土曜日",
      "祝日"
    ],
    "openDaysNote": "※万一災害等[地震、台風、雷、火災、人災など）で送迎が困難になった場合は、デイサービスの営業を中止する事がある。"
  },
  {
    "id": "3070101203",
    "name": "喜成会デイサービスセンター",
    "kana": "キセイカイデイサービスセンター",
    "address": "和歌山県和歌山市北野１１８番地の２",
    "lat": 34.2654352,
    "lng": 135.2476486,
    "tel": "073-462-1165",
    "url": "http://www.kiseikai-w.or.jp",
    "pref": "和歌山県",
    "city": "和歌山市",
    "category": "day_service",
    "serviceType": "通所介護",
    "capacity": 0,
    "openDays": [
      "平日",
      "土曜日",
      "日曜日",
      "祝日"
    ],
    "openDaysNote": "※万一災害等（地震、台風、雷、火災、人災など）で送迎が困難になった場合は、デイサービスの営業を中止する事があります。（改行）※提供時間については利用者様、家族様、担当ケアマネージャーと相談し、できる限り本人様に合った利用時間を提供させていただいております。"
  },
  {
    "id": "3070100833",
    "name": "紀伊てまり苑",
    "kana": "キイテマリエン",
    "address": "和歌山県和歌山市西田井224番地",
    "lat": 34.2574743,
    "lng": 135.2329527,
    "tel": "073-462-6020",
    "url": "https://www.kii-fukushikai.or.jp/kiitemarien/index.html",
    "pref": "和歌山県",
    "city": "和歌山市",
    "category": "day_service",
    "serviceType": "通所介護",
    "capacity": 45,
    "openDays": [
      "平日",
      "土曜日",
      "祝日"
    ],
    "openDaysNote": "紀伊てまり苑サテライト事業所てまりの里デイサービスセンターの定休日は水曜日・土曜日・日曜日と1月1日～1月3日となります。"
  },
  {
    "id": "3070101534",
    "name": "紀伊松風苑デイサービスセンター",
    "kana": "キイショウフウエンデイサービスセンター",
    "address": "和歌山市園部1668番地の1",
    "lat": 34.2717885,
    "lng": 135.18885,
    "tel": "073-455-3676",
    "url": "http://www.kii-shoufuuen.jp/",
    "pref": "和歌山県",
    "city": "和歌山市",
    "category": "day_service",
    "serviceType": "通所介護",
    "capacity": 45,
    "openDays": [
      "平日",
      "土曜日",
      "祝日"
    ],
    "openDaysNote": ""
  },
  {
    "id": "3070109222",
    "name": "紀三井寺苑デイサービスセンター",
    "kana": "キミイデラエンデイサービスセンター",
    "address": "和歌山市紀三井寺560-2",
    "lat": 34.1813398,
    "lng": 135.1847245,
    "tel": "073--448-2289",
    "url": "http://www.kisan.or.jp",
    "pref": "和歌山県",
    "city": "和歌山市",
    "category": "day_service",
    "serviceType": "通所介護",
    "capacity": 25,
    "openDays": [
      "平日",
      "土曜日",
      "祝日"
    ],
    "openDaysNote": ""
  },
  {
    "id": "3070114289",
    "name": "紀州こざいか",
    "kana": "キシュウコザイカ",
    "address": "和歌山県和歌山市小雑賀664番地1",
    "lat": 34.2011622307125,
    "lng": 135.182445309787,
    "tel": "073-435-6288",
    "url": "https://www.lets-club.jp/shop/kishukozaika/",
    "pref": "和歌山県",
    "city": "和歌山市",
    "category": "day_service",
    "serviceType": "通所介護",
    "capacity": 30,
    "openDays": [
      "平日",
      "土曜日",
      "祝日"
    ],
    "openDaysNote": "年末年始休暇12月31日～1月3日"
  },
  {
    "id": "3070114727",
    "name": "紀州ふきあげ",
    "kana": "キシュウフキアゲ",
    "address": "和歌山県和歌山市吹上2丁目3-37",
    "lat": 34.2215555,
    "lng": 135.1695226,
    "tel": "073-424-0577",
    "url": "https://www.lets-club.jp/shop/kishufukiage/",
    "pref": "和歌山県",
    "city": "和歌山市",
    "category": "day_service",
    "serviceType": "通所介護",
    "capacity": 20,
    "openDays": [
      "平日",
      "土曜日",
      "祝日"
    ],
    "openDaysNote": "年末年始休暇　12月31日～1月3日"
  },
  {
    "id": "3070111194",
    "name": "紀州リハビリケアデイサービスセンター",
    "kana": "キシュウリハビリケアデイサービスセンター",
    "address": "和歌山県和歌山市冬野1335-1",
    "lat": 34.1769129,
    "lng": 135.2115293,
    "tel": "073-488-4180",
    "url": "http://www.kisyuuriha.com/",
    "pref": "和歌山県",
    "city": "和歌山市",
    "category": "day_service",
    "serviceType": "通所介護",
    "capacity": 20,
    "openDays": [
      "平日",
      "祝日"
    ],
    "openDaysNote": ""
  },
  {
    "id": "3010111114",
    "name": "今福診療所",
    "kana": "イマブクシンリョウショ",
    "address": "和歌山市今福2丁目1番16号",
    "lat": 34.2111578,
    "lng": 135.160612,
    "tel": "073-494-7800",
    "url": "http://care-net.biz/30/kinokuniiryo/",
    "pref": "和歌山県",
    "city": "和歌山市",
    "category": "day_service",
    "serviceType": "通所介護",
    "capacity": 29,
    "openDays": [
      "平日",
      "土曜日",
      "祝日"
    ],
    "openDaysNote": ""
  },
  {
    "id": "3070101336",
    "name": "在宅ケアセンターしあわせ　デイサービス",
    "kana": "ザイタクケアセンターシアワセ　デイサービス",
    "address": "和歌山市中之島５００－１０",
    "lat": 34.2428022,
    "lng": 135.1879398,
    "tel": "073-435-1519",
    "url": "http://shiawase-kaigo.or.jp",
    "pref": "和歌山県",
    "city": "和歌山市",
    "category": "day_service",
    "serviceType": "通所介護",
    "capacity": 0,
    "openDays": [
      "平日",
      "祝日"
    ],
    "openDaysNote": ""
  },
  {
    "id": "3070113729",
    "name": "社会福祉法人　桃の木会　デイサービス三田山",
    "kana": "シャカイフクシホウジンモモノキカイデイサービスサンタヤマ",
    "address": "和歌山県和歌山市坂田348",
    "lat": 34.2031131,
    "lng": 135.2040828,
    "tel": "073‐471‐3380",
    "url": "",
    "pref": "和歌山県",
    "city": "和歌山市",
    "category": "day_service",
    "serviceType": "通所介護",
    "capacity": 0,
    "openDays": [
      "平日",
      "土曜日",
      "祝日"
    ],
    "openDaysNote": ""
  },
  {
    "id": "3010112625",
    "name": "生協中之島",
    "kana": "セイキョウナカノシマ",
    "address": "和歌山市中之島880-2",
    "lat": 34.2434854,
    "lng": 135.1860232,
    "tel": "073-422-2003",
    "url": "http://www.w-iryoseikyo.com/",
    "pref": "和歌山県",
    "city": "和歌山市",
    "category": "day_service",
    "serviceType": "通所介護",
    "capacity": 0,
    "openDays": [
      "平日",
      "土曜日"
    ],
    "openDaysNote": ""
  },
  {
    "id": "3070100353",
    "name": "西庄園",
    "kana": "セイショウエン",
    "address": "和歌山市西庄１１３３－２",
    "lat": 34.2642096,
    "lng": 135.1128914,
    "tel": "073-452-8856",
    "url": "http://seisyoen-minori.jp/",
    "pref": "和歌山県",
    "city": "和歌山市",
    "category": "day_service",
    "serviceType": "通所介護",
    "capacity": 40,
    "openDays": [
      "平日",
      "土曜日",
      "祝日"
    ],
    "openDaysNote": "家庭の状況等により、やむを得ない場合は１９：００まで。"
  },
  {
    "id": "3070111632",
    "name": "大日倶楽部　オリオン",
    "kana": "ダイニチクラブ　オリオン",
    "address": "鳴神１２０番地の5大日倶楽部　オリオン 大日倶楽部　オリオン",
    "lat": 34.2260954606381,
    "lng": 135.210613539951,
    "tel": "073-476-1155",
    "url": "http://www.kikyokai.or.jp/",
    "pref": "和歌山県",
    "city": "和歌山市",
    "category": "day_service",
    "serviceType": "通所介護",
    "capacity": 0,
    "openDays": [
      "平日",
      "土曜日",
      "祝日"
    ],
    "openDaysNote": ""
  },
  {
    "id": "3070100916",
    "name": "大日倶楽部オラ",
    "kana": "ダイニチクラブオラ",
    "address": "和歌山市平尾8-1",
    "lat": 34.2071357660254,
    "lng": 135.245632930164,
    "tel": "073-478-4165",
    "url": "http://www.jukeikai.jp",
    "pref": "和歌山県",
    "city": "和歌山市",
    "category": "day_service",
    "serviceType": "通所介護",
    "capacity": 0,
    "openDays": [
      "平日",
      "土曜日",
      "日曜日",
      "祝日"
    ],
    "openDaysNote": ""
  },
  {
    "id": "3070110675",
    "name": "大日倶楽部ハルジオン",
    "kana": "ダイニチクラブハルジオン",
    "address": "和歌山県和歌山市平尾2番地1",
    "lat": 34.2069139442123,
    "lng": 135.244828267459,
    "tel": "073-478-3479",
    "url": "http://www.jukeikai.jp/",
    "pref": "和歌山県",
    "city": "和歌山市",
    "category": "day_service",
    "serviceType": "通所介護",
    "capacity": 35,
    "openDays": [
      "平日",
      "土曜日",
      "祝日"
    ],
    "openDaysNote": ""
  },
  {
    "id": "3070105089",
    "name": "第Ⅱ竹の里園デイサービスセンター",
    "kana": "ダイニタケノサトエンデイサービスセンター",
    "address": "和歌山市明王寺１７－１",
    "lat": 34.2141342,
    "lng": 135.2553106,
    "tel": "073-466-2233",
    "url": "https://www.takenosatoen.jp",
    "pref": "和歌山県",
    "city": "和歌山市",
    "category": "day_service",
    "serviceType": "通所介護",
    "capacity": 0,
    "openDays": [
      "平日",
      "祝日"
    ],
    "openDaysNote": ""
  },
  {
    "id": "3070105923",
    "name": "第二紀三井寺苑デイサービスセンター",
    "kana": "ダイニキミイデラエンデイサービスセンター",
    "address": "和歌山市紀三井寺754",
    "lat": 34.1853977,
    "lng": 135.18623,
    "tel": "073-446-8777",
    "url": "https://www.kisan.or.jp",
    "pref": "和歌山県",
    "city": "和歌山市",
    "category": "day_service",
    "serviceType": "通所介護",
    "capacity": 23,
    "openDays": [
      "平日",
      "土曜日",
      "祝日"
    ],
    "openDaysNote": ""
  },
  {
    "id": "3070113554",
    "name": "地域密着型特別養護老人冬野の郷通所介護事業所",
    "kana": "チイキミッチャクガタトクベツヨウゴロウジンホウムフユノノサトツウショカイゴジギョウショ",
    "address": "和歌山県和歌山市冬野2037",
    "lat": 34.1818632,
    "lng": 135.2079614,
    "tel": "073-488-3607",
    "url": "http://www.kitabakai.jp/",
    "pref": "和歌山県",
    "city": "和歌山市",
    "category": "day_service",
    "serviceType": "通所介護",
    "capacity": 0,
    "openDays": [
      "平日",
      "土曜日",
      "祝日"
    ],
    "openDaysNote": ""
  },
  {
    "id": "3070100296",
    "name": "竹の里園デイサービスセンター",
    "kana": "タケノサトエンデイサービスセンター",
    "address": "和歌山市明王寺３－１",
    "lat": 34.2133121,
    "lng": 135.2541912,
    "tel": "073-466-2233",
    "url": "https://www.takenosatoen.jp",
    "pref": "和歌山県",
    "city": "和歌山市",
    "category": "day_service",
    "serviceType": "通所介護",
    "capacity": 0,
    "openDays": [
      "平日",
      "土曜日",
      "祝日"
    ],
    "openDaysNote": "１２月３０日～１月３日までを除く"
  },
  {
    "id": "3070109271",
    "name": "通所介護セレン",
    "kana": "ツウショカイゴセレン",
    "address": "和歌山県和歌山市築港四丁目9-1",
    "lat": 34.2209037,
    "lng": 135.152843,
    "tel": "073-433-1234",
    "url": "http://www.seren.wakayama.jp/",
    "pref": "和歌山県",
    "city": "和歌山市",
    "category": "day_service",
    "serviceType": "通所介護",
    "capacity": 25,
    "openDays": [
      "平日",
      "祝日"
    ],
    "openDaysNote": ""
  },
  {
    "id": "3070113612",
    "name": "通所介護事業所さくら",
    "kana": "ツウショカイゴジギョウショサクラ",
    "address": "和歌山県和歌山市船所191-1",
    "lat": 34.253341795002,
    "lng": 135.183904378797,
    "tel": "073-488-8016",
    "url": "",
    "pref": "和歌山県",
    "city": "和歌山市",
    "category": "day_service",
    "serviceType": "通所介護",
    "capacity": null,
    "openDays": [
      "平日",
      "土曜日"
    ],
    "openDaysNote": ""
  },
  {
    "id": "3070102763",
    "name": "楠見デイサービスセンターすずらん",
    "kana": "クスミデイサービスセンタースズラン",
    "address": "和歌山市楠見中148-2楠見第3介護センターすずらん 楠見第3介護センターすずらん",
    "lat": 34.2544274042244,
    "lng": 135.17598888833,
    "tel": "073-488-7573",
    "url": "",
    "pref": "和歌山県",
    "city": "和歌山市",
    "category": "day_service",
    "serviceType": "通所介護",
    "capacity": 35,
    "openDays": [
      "平日",
      "土曜日",
      "日曜日",
      "祝日"
    ],
    "openDaysNote": ""
  },
  {
    "id": "3070113281",
    "name": "楠見第2デイサービスセンターすずらん",
    "kana": "クスミダイニデイサービスセンタースズラン",
    "address": "楠見中295-5楠見介護センターすずらん 楠見介護センターすずらん",
    "lat": 34.2572492,
    "lng": 135.1755384,
    "tel": "073-480-5580",
    "url": "",
    "pref": "和歌山県",
    "city": "和歌山市",
    "category": "day_service",
    "serviceType": "通所介護",
    "capacity": 30,
    "openDays": [
      "平日",
      "土曜日",
      "日曜日",
      "祝日"
    ],
    "openDaysNote": ""
  },
  {
    "id": "3070108695",
    "name": "楠見第３デイサービスセンターすずらん",
    "kana": "クスミダイ3デイサービスセンタースズラン",
    "address": "和歌山県和歌山市楠見中26-1楠見第２介護センターすずらん 楠見第２介護センターすずらん",
    "lat": 34.2537425,
    "lng": 135.1764792,
    "tel": "073-488-7399",
    "url": "",
    "pref": "和歌山県",
    "city": "和歌山市",
    "category": "day_service",
    "serviceType": "通所介護",
    "capacity": 35,
    "openDays": [
      "平日",
      "土曜日",
      "日曜日",
      "祝日"
    ],
    "openDaysNote": ""
  },
  {
    "id": "3070114073",
    "name": "楠見第5デイサービスセンターすずらん",
    "kana": "クスミダイ5デイサービスセンタースズラン",
    "address": "楠見中296-4楠見第4介護センターすずらん 楠見第4介護センターすずらん",
    "lat": 34.2572497327117,
    "lng": 135.175306781805,
    "tel": "073-488-9017",
    "url": "",
    "pref": "和歌山県",
    "city": "和歌山市",
    "category": "day_service",
    "serviceType": "通所介護",
    "capacity": 35,
    "openDays": [
      "平日",
      "土曜日",
      "日曜日",
      "祝日"
    ],
    "openDaysNote": ""
  },
  {
    "id": "3070100445",
    "name": "有限会社　成介",
    "kana": "ユウゲンガイシャ　セイカイ",
    "address": "吉原778番地2",
    "lat": 34.1941359846028,
    "lng": 135.202456660399,
    "tel": "073-479-2211",
    "url": "http://wakayamaseikai.jp/",
    "pref": "和歌山県",
    "city": "和歌山市",
    "category": "day_service",
    "serviceType": "通所介護",
    "capacity": 19,
    "openDays": [
      "平日",
      "土曜日",
      "祝日"
    ],
    "openDaysNote": "他休日　12/30～1/3"
  },
  {
    "id": "3070108968",
    "name": "和　株式会社",
    "kana": "ナゴミ　カブシキガイシャ",
    "address": "内原７６３－１０",
    "lat": 34.1701527,
    "lng": 135.1968068,
    "tel": "073-446-1118",
    "url": "",
    "pref": "和歌山県",
    "city": "和歌山市",
    "category": "day_service",
    "serviceType": "通所介護",
    "capacity": 0,
    "openDays": [
      "平日"
    ],
    "openDaysNote": ""
  }
]