[
  {
    "id": "4471100422",
    "name": "いこいの里　駅水デイサービスセンター",
    "kana": "イコイノサト　エキスイデイサービスセンター",
    "address": "大分県宇佐市江須賀２７４８－１０",
    "lat": 33.5643075,
    "lng": 131.3689644,
    "tel": "０９７８－３８－６１５５",
    "url": "",
    "pref": "大分県",
    "city": "宇佐市",
    "category": "day_service",
    "serviceType": "通所介護",
    "capacity": 0,
    "openDays": [
      "平日",
      "祝日"
    ],
    "openDaysNote": "お盆　　　　１３日～１５日まで休み　　　　　　　　　　　　　　　　　　　　　　　　　　　　　　　　　お正月　　　１２月３０日～１月３日まで休み"
  },
  {
    "id": "4471101230",
    "name": "デイサービス　オラレア",
    "kana": "デイサービス　オラレア",
    "address": "大分県宇佐市葛原780-2",
    "lat": 33.5358542,
    "lng": 131.3297295,
    "tel": "0978-34-6220",
    "url": "http://www.lifestageolalea.com/",
    "pref": "大分県",
    "city": "宇佐市",
    "category": "day_service",
    "serviceType": "通所介護",
    "capacity": 25,
    "openDays": [
      "平日",
      "祝日"
    ],
    "openDaysNote": "悪天候時は営業を中止することもあります。"
  },
  {
    "id": "4471100638",
    "name": "デイサービス　オリーブ宇佐",
    "kana": "デイサービス　オリーブウサ",
    "address": "大分県宇佐市大字東高家984番地1デイサービス　オリーブ宇佐 デイサービス　オリーブ宇佐",
    "lat": 33.565606550403,
    "lng": 131.316961194477,
    "tel": "0978-34-9027",
    "url": "http://www.olive-care.com/",
    "pref": "大分県",
    "city": "宇佐市",
    "category": "day_service",
    "serviceType": "通所介護",
    "capacity": 0,
    "openDays": [
      "平日",
      "土曜日",
      "祝日"
    ],
    "openDaysNote": "平日の営業時間外・日曜日は電話対応可能。"
  },
  {
    "id": "4471101081",
    "name": "デイサービスあいの里",
    "kana": "デイサービスアイノサト",
    "address": "大分県宇佐市大字青森481番地1",
    "lat": 33.547341,
    "lng": 131.4171592,
    "tel": "0978-34-7555",
    "url": "http://aikaigojapan.web.fc2.com",
    "pref": "大分県",
    "city": "宇佐市",
    "category": "day_service",
    "serviceType": "通所介護",
    "capacity": 0,
    "openDays": [
      "平日",
      "土曜日",
      "祝日"
    ],
    "openDaysNote": ""
  },
  {
    "id": "4471101354",
    "name": "デイサービスかがやき",
    "kana": "デイサービスカガヤキ",
    "address": "大分県宇佐市大字四日市萱壁851－1",
    "lat": 33.5343377660542,
    "lng": 131.318477701599,
    "tel": "０９７８－２５－５７８５",
    "url": "",
    "pref": "大分県",
    "city": "宇佐市",
    "category": "day_service",
    "serviceType": "通所介護",
    "capacity": null,
    "openDays": [
      "平日",
      "土曜日",
      "祝日"
    ],
    "openDaysNote": ""
  },
  {
    "id": "4471101560",
    "name": "デイサービスかがやき",
    "kana": "デイサービスカガヤキ",
    "address": "大分県宇佐市大字四日市萱壁1049-1",
    "lat": 33.525506,
    "lng": 131.3235072,
    "tel": "0978-25-5785",
    "url": "",
    "pref": "大分県",
    "city": "宇佐市",
    "category": "day_service",
    "serviceType": "通所介護",
    "capacity": 0,
    "openDays": [
      "平日",
      "土曜日",
      "祝日"
    ],
    "openDaysNote": ""
  },
  {
    "id": "4471100497",
    "name": "デイサービスセンター　さくら",
    "kana": "デイサービスセンター　サクラ",
    "address": "大分県宇佐市大字南敷田762-1",
    "lat": 33.5500344,
    "lng": 131.2786392,
    "tel": "0978-33-5133",
    "url": "",
    "pref": "大分県",
    "city": "宇佐市",
    "category": "day_service",
    "serviceType": "通所介護",
    "capacity": 0,
    "openDays": [
      "平日",
      "土曜日",
      "祝日"
    ],
    "openDaysNote": ""
  },
  {
    "id": "4471100901",
    "name": "デイサービスセンター　よりよ",
    "kana": "デイサービスセンター　ヨリヨ",
    "address": "大分県宇佐市院内町原口字柿添589-2",
    "lat": 33.4141991,
    "lng": 131.3118631,
    "tel": "0978-34-3033",
    "url": "",
    "pref": "大分県",
    "city": "宇佐市",
    "category": "day_service",
    "serviceType": "通所介護",
    "capacity": null,
    "openDays": [
      "平日"
    ],
    "openDaysNote": "年末年始12月31日、１月１日２日、３日（改行）５月ゴールデンウィーク３日、４日、５日（改行）盆休み８月13日、14日、15日"
  },
  {
    "id": "4471100968",
    "name": "デイサービスセンター「ぶどう」",
    "kana": "デイサービスセンター「ブドウ」",
    "address": "大分県宇佐市安心院町木裳364-1",
    "lat": 33.4400719,
    "lng": 131.3565699,
    "tel": "0978-44-2090",
    "url": "http://www.yu-ryu.co.jp/",
    "pref": "大分県",
    "city": "宇佐市",
    "category": "day_service",
    "serviceType": "通所介護",
    "capacity": 0,
    "openDays": [
      "平日",
      "土曜日",
      "祝日"
    ],
    "openDaysNote": ""
  },
  {
    "id": "4471101644",
    "name": "デイサービスセンターえーる宇佐",
    "kana": "デイサービスセンターエールウサ",
    "address": "大分県宇佐市東高家1209-6",
    "lat": 33.564875,
    "lng": 131.3227823,
    "tel": "0978-25-8282",
    "url": "",
    "pref": "大分県",
    "city": "宇佐市",
    "category": "day_service",
    "serviceType": "通所介護",
    "capacity": null,
    "openDays": [
      "平日",
      "土曜日",
      "祝日"
    ],
    "openDaysNote": ""
  },
  {
    "id": "4471101610",
    "name": "デイサービスセンターきのも",
    "kana": "デイサービスセンターキノモ",
    "address": "安心院町木裳字西光寺413-1",
    "lat": 33.4399062,
    "lng": 131.3598591,
    "tel": "0978-44-0601",
    "url": "",
    "pref": "大分県",
    "city": "宇佐市",
    "category": "day_service",
    "serviceType": "通所介護",
    "capacity": null,
    "openDays": [
      "平日",
      "土曜日",
      "祝日"
    ],
    "openDaysNote": "風水害時、積雪時に休止となることがあります。"
  },
  {
    "id": "4471100794",
    "name": "デイサービスセンターすこやか",
    "kana": "デイサービスセンタースコヤカ",
    "address": "大分県宇佐市大字川部1500番地",
    "lat": 33.5382354,
    "lng": 131.3621184,
    "tel": "0978－37－3071",
    "url": "http://www.sukoyaka-usa.com/",
    "pref": "大分県",
    "city": "宇佐市",
    "category": "day_service",
    "serviceType": "通所介護",
    "capacity": 0,
    "openDays": [
      "平日",
      "土曜日"
    ],
    "openDaysNote": ""
  },
  {
    "id": "4471101255",
    "name": "デイサービスセンターなごみ宇佐",
    "kana": "デイサービスセンターナゴミウサ",
    "address": "大分県宇佐市大字閤字沼口４０９",
    "lat": 33.5267443,
    "lng": 131.3347655,
    "tel": "0978-25-5661",
    "url": "",
    "pref": "大分県",
    "city": "宇佐市",
    "category": "day_service",
    "serviceType": "通所介護",
    "capacity": 0,
    "openDays": [
      "平日",
      "土曜日",
      "祝日"
    ],
    "openDaysNote": ""
  },
  {
    "id": "4471100893",
    "name": "デイサービスセンターほりかわ",
    "kana": "デイサービスセンターホリカワ",
    "address": "大分県宇佐市院内町櫛野165-1",
    "lat": 33.4541734,
    "lng": 131.3281497,
    "tel": "0978-42-5071",
    "url": "http://www.care-horikawa.info/care/index.html",
    "pref": "大分県",
    "city": "宇佐市",
    "category": "day_service",
    "serviceType": "通所介護",
    "capacity": 31,
    "openDays": [
      "平日",
      "土曜日",
      "祝日"
    ],
    "openDaysNote": "台風や大雪等、送迎に安全が認められない場合、臨時休業となる日があります。"
  },
  {
    "id": "4471101313",
    "name": "デイサービスセンターらふ法鏡寺",
    "kana": "デイサービスセンターラフホウキョウジ",
    "address": "大分県宇佐市法鏡寺153-1",
    "lat": 33.5270613,
    "lng": 131.345698,
    "tel": "0978-25-5571",
    "url": "",
    "pref": "大分県",
    "city": "宇佐市",
    "category": "day_service",
    "serviceType": "通所介護",
    "capacity": 0,
    "openDays": [
      "平日",
      "土曜日",
      "祝日"
    ],
    "openDaysNote": ""
  },
  {
    "id": "4471101263",
    "name": "デイサービスセンター下元重",
    "kana": "デイサービスセンターシモモトシゲ",
    "address": "大分県宇佐市下元重4-2",
    "lat": 33.525952,
    "lng": 131.3108231,
    "tel": "0978-32-0200",
    "url": "https://meguminokai.co.jp",
    "pref": "大分県",
    "city": "宇佐市",
    "category": "day_service",
    "serviceType": "通所介護",
    "capacity": 0,
    "openDays": [
      "平日",
      "土曜日",
      "日曜日",
      "祝日"
    ],
    "openDaysNote": ""
  },
  {
    "id": "4471100299",
    "name": "めずらの里デイサービスセンター",
    "kana": "メズラノサトデイサービスセンター",
    "address": "大分県宇佐市大字下時枝555-2",
    "lat": 33.5555986,
    "lng": 131.3063807,
    "tel": "0978-33-3008",
    "url": "https://mezura.jp/",
    "pref": "大分県",
    "city": "宇佐市",
    "category": "day_service",
    "serviceType": "通所介護",
    "capacity": 0,
    "openDays": [
      "平日",
      "土曜日",
      "日曜日",
      "祝日"
    ],
    "openDaysNote": "悪天候や災害時で安全な通常営業が危ぶまれる場合は、利用時間やサービス内容の変更、臨時休業等をする場合がある。"
  },
  {
    "id": "4473100164",
    "name": "安心院老人デイサービスセンター",
    "kana": "アジムロウジンデイサービスセンター",
    "address": "大分県宇佐市安心院町六郎丸344番地の2",
    "lat": 33.389261,
    "lng": 131.3966515,
    "tel": "0978-48-2620",
    "url": "",
    "pref": "大分県",
    "city": "宇佐市",
    "category": "day_service",
    "serviceType": "通所介護",
    "capacity": null,
    "openDays": [
      "平日",
      "祝日"
    ],
    "openDaysNote": ""
  },
  {
    "id": "4473100123",
    "name": "院内町老人デイサービスセンター",
    "kana": "インナイマチロウジンデイサービスセンター",
    "address": "大分県宇佐市院内町御沓５５６番地の４",
    "lat": 33.4541679,
    "lng": 131.3243834,
    "tel": "0978-42-6986",
    "url": "",
    "pref": "大分県",
    "city": "宇佐市",
    "category": "day_service",
    "serviceType": "通所介護",
    "capacity": null,
    "openDays": [
      "平日",
      "祝日"
    ],
    "openDaysNote": ""
  },
  {
    "id": "4471100224",
    "name": "宇水園デイサービスセンター高森",
    "kana": "ウスイエンデイサービスセンタータカモリ",
    "address": "大分県宇佐市高森723",
    "lat": 33.5416314095555,
    "lng": 131.367060073016,
    "tel": "0978-37-3333",
    "url": "https;//www.usuien.org/",
    "pref": "大分県",
    "city": "宇佐市",
    "category": "day_service",
    "serviceType": "通所介護",
    "capacity": 0,
    "openDays": [
      "平日",
      "土曜日"
    ],
    "openDaysNote": ""
  },
  {
    "id": "4473100172",
    "name": "介護保険サービスセンター　「あさぎり」",
    "kana": "カイゴホケン　サービスセンター　「アサギリ」",
    "address": "大分県宇佐市安心院町木裳字西光寺４１３－１",
    "lat": 33.4400719,
    "lng": 131.3565699,
    "tel": "0978-44-0601",
    "url": "",
    "pref": "大分県",
    "city": "宇佐市",
    "category": "day_service",
    "serviceType": "通所介護",
    "capacity": 0,
    "openDays": [
      "平日",
      "土曜日",
      "祝日"
    ],
    "openDaysNote": "風水害時、積雪時は休みになる事がある"
  },
  {
    "id": "4471101362",
    "name": "丸三グロリアデイサービス",
    "kana": "マルサングロリアデイサービス",
    "address": "大分県宇佐市大字芝原147番地",
    "lat": 33.5396125,
    "lng": 131.3409755,
    "tel": "0978-33-1822",
    "url": "https://www.care-maru3.jp/",
    "pref": "大分県",
    "city": "宇佐市",
    "category": "day_service",
    "serviceType": "通所介護",
    "capacity": 34,
    "openDays": [
      "平日",
      "祝日"
    ],
    "openDaysNote": ""
  },
  {
    "id": "4471101404",
    "name": "共生型デイサービス懐",
    "kana": "キョウセイガタデイサービスカイ",
    "address": "大分県宇佐市大字別府１６番地の５",
    "lat": 33.5242422,
    "lng": 131.345262,
    "tel": "0978-25-7875",
    "url": "http://www.human-totalcare.co.jp/",
    "pref": "大分県",
    "city": "宇佐市",
    "category": "day_service",
    "serviceType": "通所介護",
    "capacity": 0,
    "openDays": [
      "平日",
      "祝日"
    ],
    "openDaysNote": ""
  },
  {
    "id": "4473100081",
    "name": "妻垣荘デイサービスセンター",
    "kana": "ツマガキソウデイサービスセンター",
    "address": "大分県宇佐市安心院町妻垣401番地",
    "lat": 33.4287233,
    "lng": 131.3632862,
    "tel": "0978-34-4015",
    "url": "http://care-net.biz/44/tumagaki/",
    "pref": "大分県",
    "city": "宇佐市",
    "category": "day_service",
    "serviceType": "通所介護",
    "capacity": 0,
    "openDays": [
      "平日",
      "土曜日",
      "祝日"
    ],
    "openDaysNote": "特になし"
  },
  {
    "id": "4471101487",
    "name": "八つ星の丘　デイサービスセンター和々",
    "kana": "ヤツボシノオカ　デイサービスセンターワイワイ",
    "address": "大分県宇佐市大字上時枝1223－10",
    "lat": 33.5485742,
    "lng": 131.3031313,
    "tel": "0978－25－6882",
    "url": "http://www.oitaswo.jp/",
    "pref": "大分県",
    "city": "宇佐市",
    "category": "day_service",
    "serviceType": "通所介護",
    "capacity": null,
    "openDays": [
      "平日"
    ],
    "openDaysNote": ""
  },
  {
    "id": "4471100208",
    "name": "薬膳の里デイサービスセンター",
    "kana": "ヤクゼンノサトデイサービスセンター",
    "address": "大分県宇佐市大字佐野440",
    "lat": 33.5340833,
    "lng": 131.2736707,
    "tel": "0978-33-1339",
    "url": "http://yakuzen01.sakura.ne.jp/",
    "pref": "大分県",
    "city": "宇佐市",
    "category": "day_service",
    "serviceType": "通所介護",
    "capacity": 30,
    "openDays": [
      "平日",
      "祝日"
    ],
    "openDaysNote": "特になし。"
  },
  {
    "id": "4470601107",
    "name": "コープおおいた　デイサービスセンターにじいろ2号館",
    "kana": "コープオオイタ　デイサービスセンターニジイロ2ゴウカン",
    "address": "大字江無田２８０－２",
    "lat": 33.1249592075946,
    "lng": 131.791985126984,
    "tel": "0972-62-3355",
    "url": "",
    "pref": "大分県",
    "city": "臼杵市",
    "category": "day_service",
    "serviceType": "通所介護",
    "capacity": 25,
    "openDays": [
      "平日",
      "土曜日",
      "祝日"
    ],
    "openDaysNote": ""
  },
  {
    "id": "4470600935",
    "name": "デイサービスさわらび",
    "kana": "デイサービスサワラビ",
    "address": "大字井村１４３２番地の1",
    "lat": 33.1412809,
    "lng": 131.7772465,
    "tel": "０９７２-６３-４２１１",
    "url": "",
    "pref": "大分県",
    "city": "臼杵市",
    "category": "day_service",
    "serviceType": "通所介護",
    "capacity": 30,
    "openDays": [
      "平日",
      "土曜日",
      "祝日"
    ],
    "openDaysNote": ""
  },
  {
    "id": "4470601016",
    "name": "デイサービスセンター　はれやか・すえひろ",
    "kana": "デイサービスセンター　ハレヤカ・スエヒロ",
    "address": "大分県臼杵市大字井村字山ノ下2719番地",
    "lat": 33.136045,
    "lng": 131.786499,
    "tel": "０９７２－６２－３１９１",
    "url": "http://www4.ocn.ne.jp/hareyaka/",
    "pref": "大分県",
    "city": "臼杵市",
    "category": "day_service",
    "serviceType": "通所介護",
    "capacity": null,
    "openDays": [
      "平日",
      "土曜日",
      "祝日"
    ],
    "openDaysNote": "特になし"
  },
  {
    "id": "4472600552",
    "name": "デイサービスセンター　ゆうあい",
    "kana": "デイサービスセンター　ユウアイ",
    "address": "大分県臼杵市野津町大字落谷５３０番地",
    "lat": 33.0202797,
    "lng": 131.7048748,
    "tel": "0974-32-7715",
    "url": "http://www.eijuso.or.jp/",
    "pref": "大分県",
    "city": "臼杵市",
    "category": "day_service",
    "serviceType": "通所介護",
    "capacity": null,
    "openDays": [
      "平日",
      "土曜日",
      "祝日"
    ],
    "openDaysNote": ""
  },
  {
    "id": "4470601081",
    "name": "デイサービスセンター・もみじ",
    "kana": "デイサービスセンター・モミジ",
    "address": "野津町大字野津市1050番地",
    "lat": 33.0405837,
    "lng": 131.6921504,
    "tel": "0974-24-3320",
    "url": "",
    "pref": "大分県",
    "city": "臼杵市",
    "category": "day_service",
    "serviceType": "通所介護",
    "capacity": 30,
    "openDays": [
      "平日",
      "土曜日",
      "祝日"
    ],
    "openDaysNote": ""
  },
  {
    "id": "4470600463",
    "name": "デイサービスセンターひあたり良好",
    "kana": "デイサービスセンターヒアタリリョウコウ",
    "address": "大分県臼杵市大字福良字塩入1841-3",
    "lat": 33.1130345240617,
    "lng": 131.791786223749,
    "tel": "０９７２－６４－７１５５",
    "url": "",
    "pref": "大分県",
    "city": "臼杵市",
    "category": "day_service",
    "serviceType": "通所介護",
    "capacity": 0,
    "openDays": [
      "平日",
      "土曜日",
      "祝日"
    ],
    "openDaysNote": ""
  },
  {
    "id": "4470600760",
    "name": "デイサービスセンター喫茶去",
    "kana": "デイサービスセンターキッサコ",
    "address": "大分県臼杵市大字海添551番地",
    "lat": 33.1116242,
    "lng": 131.8063661,
    "tel": "0972-63-0333",
    "url": "http://www.kissako.co.jp/",
    "pref": "大分県",
    "city": "臼杵市",
    "category": "day_service",
    "serviceType": "通所介護",
    "capacity": 23,
    "openDays": [
      "平日",
      "土曜日",
      "祝日"
    ],
    "openDaysNote": ""
  },
  {
    "id": "4470600406",
    "name": "デイサービスセンター城東",
    "kana": "デイサービスセンタージョウトウ",
    "address": "大分県臼杵市大字臼杵字浜2の107番地の715",
    "lat": 33.1222019629649,
    "lng": 131.806257114572,
    "tel": "0972-62-3339",
    "url": "http://hiiragikai.or.jp/",
    "pref": "大分県",
    "city": "臼杵市",
    "category": "day_service",
    "serviceType": "通所介護",
    "capacity": null,
    "openDays": [
      "平日",
      "土曜日",
      "祝日"
    ],
    "openDaysNote": ""
  },
  {
    "id": "4470600489",
    "name": "デイサービスセンター明日風",
    "kana": "デイサービスセンターアスカ",
    "address": "大分県臼杵市大字前田37番地",
    "lat": 33.1037655,
    "lng": 131.7671225,
    "tel": "0972-63-0303",
    "url": "https://www.big-advance.site/s/207/1367",
    "pref": "大分県",
    "city": "臼杵市",
    "category": "day_service",
    "serviceType": "通所介護",
    "capacity": 0,
    "openDays": [
      "平日",
      "土曜日",
      "祝日"
    ],
    "openDaysNote": ""
  },
  {
    "id": "4470600877",
    "name": "臼杵デイサービスセンターひととき",
    "kana": "ウスキデイサービスセンターヒトトキ",
    "address": "大分県臼杵市大字野田字森の木６番４",
    "lat": 33.1098377,
    "lng": 131.7745433,
    "tel": "０９７２－６４－７３３７",
    "url": "http://fukushi-greencoop.or.jp/prog/dbs/96",
    "pref": "大分県",
    "city": "臼杵市",
    "category": "day_service",
    "serviceType": "通所介護",
    "capacity": 0,
    "openDays": [
      "平日",
      "土曜日",
      "祝日"
    ],
    "openDaysNote": ""
  },
  {
    "id": "4410611422",
    "name": "臼杵病院デイサービスセンター",
    "kana": "ウスキビョウインデイサービスセンター",
    "address": "大分県臼杵市大字江無田1154番地1臼杵病院 臼杵病院",
    "lat": 33.1252819005149,
    "lng": 131.78033214929,
    "tel": "0972-83-8111",
    "url": "http://usuki-hospital.or.jp/",
    "pref": "大分県",
    "city": "臼杵市",
    "category": "day_service",
    "serviceType": "通所介護",
    "capacity": null,
    "openDays": [
      "平日",
      "土曜日",
      "日曜日",
      "祝日"
    ],
    "openDaysNote": ""
  },
  {
    "id": "4470601057",
    "name": "臼杵病院デイサービスセンター",
    "kana": "ウスキビョウインデイサービスセンター",
    "address": "大分県臼杵市大字江無田1154番地1臼杵病院 臼杵病院",
    "lat": 33.1251661,
    "lng": 131.7801353,
    "tel": "0972-83-8111",
    "url": "http://usuki-hospital.or.jp/",
    "pref": "大分県",
    "city": "臼杵市",
    "category": "day_service",
    "serviceType": "通所介護",
    "capacity": 0,
    "openDays": [
      "平日",
      "土曜日",
      "祝日"
    ],
    "openDaysNote": ""
  },
  {
    "id": "4470600968",
    "name": "輝デイサービスセンター",
    "kana": "カガヤキデイサービスセンター",
    "address": "大分県臼杵市大字戸室字大迫937番地",
    "lat": 33.1224132,
    "lng": 131.784436,
    "tel": "0972-64-6122",
    "url": "https://www.mizuhokousei.com",
    "pref": "大分県",
    "city": "臼杵市",
    "category": "day_service",
    "serviceType": "通所介護",
    "capacity": 40,
    "openDays": [
      "平日",
      "祝日"
    ],
    "openDaysNote": "1単位目　9:00～12:00　　2単位目　13:30～16:30　の2単位制"
  },
  {
    "id": "4470600281",
    "name": "四季の郷デイサービスセンター",
    "kana": "シキノサトデイサービスセンター",
    "address": "大分県臼杵市大字江無田1119番地の5",
    "lat": 33.1240606,
    "lng": 131.7782715,
    "tel": "0972-64-0178",
    "url": "http://mizuhokouseicenter.planet.bindcloud.jp/",
    "pref": "大分県",
    "city": "臼杵市",
    "category": "day_service",
    "serviceType": "通所介護",
    "capacity": 5,
    "openDays": [
      "平日",
      "土曜日",
      "祝日"
    ],
    "openDaysNote": ""
  },
  {
    "id": "4470600307",
    "name": "指定通所介護いいあんばい",
    "kana": "シテイツウショカイゴ　イイアンバイ",
    "address": "大分県臼杵市大字大野字友田大道西３番４",
    "lat": 33.1462782,
    "lng": 131.7923004,
    "tel": "0972-64-0909",
    "url": "",
    "pref": "大分県",
    "city": "臼杵市",
    "category": "day_service",
    "serviceType": "通所介護",
    "capacity": 0,
    "openDays": [
      "平日",
      "土曜日"
    ],
    "openDaysNote": ""
  },
  {
    "id": "4472600644",
    "name": "野津町デイサービスセンター",
    "kana": "ノツマチデイサービスセンター",
    "address": "大分県臼杵市野津町大字野津市1050番地",
    "lat": 33.0408689,
    "lng": 131.6921413,
    "tel": "0974-32-4008",
    "url": "",
    "pref": "大分県",
    "city": "臼杵市",
    "category": "day_service",
    "serviceType": "通所介護",
    "capacity": 0,
    "openDays": [
      "平日",
      "土曜日",
      "祝日"
    ],
    "openDaysNote": ""
  },
  {
    "id": "4470600141",
    "name": "緑の園デイサービスセンターふれあい",
    "kana": "ミドリノソノデイサービスセンターフレアイ",
    "address": "大分県臼杵市大字諏訪289番地の1",
    "lat": 33.134355,
    "lng": 131.8039521,
    "tel": "0972-63-2660",
    "url": "http://fuku-doushinkai.or.jp/",
    "pref": "大分県",
    "city": "臼杵市",
    "category": "day_service",
    "serviceType": "通所介護",
    "capacity": 0,
    "openDays": [
      "平日",
      "土曜日",
      "祝日"
    ],
    "openDaysNote": "特になし"
  },
  {
    "id": "4471000051",
    "name": "きつきの里デイサービスセンター",
    "kana": "キツキノサトデイサービスセンター",
    "address": "大分県杵築市大字守江字王子1864番地",
    "lat": 33.4226456,
    "lng": 131.6584528,
    "tel": "0978-66-5500",
    "url": "https://etoh-g.jp",
    "pref": "大分県",
    "city": "杵築市",
    "category": "day_service",
    "serviceType": "通所介護",
    "capacity": 0,
    "openDays": [
      "平日",
      "土曜日",
      "祝日"
    ],
    "openDaysNote": ""
  },
  {
    "id": "4471000572",
    "name": "デイサービスセンター　風の唄",
    "kana": "デイサービスセンター　カゼノウタ",
    "address": "大分県杵築市山香町大字野原字竜頭1405-9",
    "lat": 33.4429462937028,
    "lng": 131.505983491719,
    "tel": "0977-75-1501",
    "url": "http://isshinkai-oita-kituki.jp/sp/kazenouta-m.html",
    "pref": "大分県",
    "city": "杵築市",
    "category": "day_service",
    "serviceType": "通所介護",
    "capacity": 0,
    "openDays": [
      "平日",
      "祝日"
    ],
    "openDaysNote": ""
  },
  {
    "id": "4471000143",
    "name": "デイサービスセンターとどろきの里",
    "kana": "デイサービスセンタートドロキノサト",
    "address": "大分県杵築市船部中津屋2167-30",
    "lat": 33.4491504,
    "lng": 131.6001173,
    "tel": "0978-62-1300",
    "url": "http//todoroki3.wix.com/kaigo",
    "pref": "大分県",
    "city": "杵築市",
    "category": "day_service",
    "serviceType": "通所介護",
    "capacity": 0,
    "openDays": [
      "平日",
      "土曜日",
      "祝日"
    ],
    "openDaysNote": "特に無し"
  },
  {
    "id": "4471000333",
    "name": "デイサービスセンター初音の里",
    "kana": "デイサービスセンターハツネノサト",
    "address": "大分県杵築市溝井1609番地",
    "lat": 33.4302446704159,
    "lng": 131.59329427791,
    "tel": "0978-63-5891",
    "url": "http://www.kimura-corp.co.jp",
    "pref": "大分県",
    "city": "杵築市",
    "category": "day_service",
    "serviceType": "通所介護",
    "capacity": 0,
    "openDays": [
      "平日",
      "祝日"
    ],
    "openDaysNote": "特になし"
  },
  {
    "id": "4471000481",
    "name": "ハートフルケア笑顔",
    "kana": "ハートフルケアエガオ",
    "address": "大分県杵築市山香町大字野原1682番地1",
    "lat": 33.4467663,
    "lng": 131.5064491,
    "tel": "0977-75-1733",
    "url": "http://npoegao.web.fc2.com/",
    "pref": "大分県",
    "city": "杵築市",
    "category": "day_service",
    "serviceType": "通所介護",
    "capacity": null,
    "openDays": [
      "平日",
      "土曜日",
      "祝日"
    ],
    "openDaysNote": ""
  },
  {
    "id": "4472000118",
    "name": "杵築市社会福祉協議会デイサービスセンター大田",
    "kana": "キツキシシャカイフクシキョウギカイデイサービスセンターオオタ",
    "address": "大分県杵築市大田沓掛1404番地",
    "lat": 33.5082751,
    "lng": 131.5518467,
    "tel": "0978-52-2724",
    "url": "",
    "pref": "大分県",
    "city": "杵築市",
    "category": "day_service",
    "serviceType": "通所介護",
    "capacity": null,
    "openDays": [
      "平日",
      "祝日"
    ],
    "openDaysNote": ""
  },
  {
    "id": "4471000275",
    "name": "三楽園デイサービスセンター",
    "kana": "サンラクエンデイサービスセンター",
    "address": "大分県杵築市大字大内字茅場１２１番地2",
    "lat": 33.4391691196073,
    "lng": 131.646970484131,
    "tel": "0978-66-4100",
    "url": "https://etoh-g.jp/publics/index/31/",
    "pref": "大分県",
    "city": "杵築市",
    "category": "day_service",
    "serviceType": "通所介護",
    "capacity": null,
    "openDays": [
      "平日",
      "土曜日",
      "祝日"
    ],
    "openDaysNote": "特になし"
  },
  {
    "id": "4471000309",
    "name": "菩提樹デイサービスセンター「風と樹々と空と」",
    "kana": "ボダイジュデイサービスセンターカゼトキギトソラト",
    "address": "大分県杵築市大字日野1921番の7",
    "lat": 33.3938583,
    "lng": 131.598349,
    "tel": "0978-64-0500",
    "url": "http//www.minorimura.or.jp/",
    "pref": "大分県",
    "city": "杵築市",
    "category": "day_service",
    "serviceType": "通所介護",
    "capacity": 0,
    "openDays": [
      "平日",
      "土曜日",
      "祝日"
    ],
    "openDaysNote": "法人の行事により定休日に変更あり"
  },
  {
    "id": "4472800186",
    "name": "ここのえ介護事業センター",
    "kana": "ココノエ　カイゴ　ジギョウ　センター",
    "address": "大分県玖珠郡九重町大字後野上１７番地の１",
    "lat": 33.2278241,
    "lng": 131.1904917,
    "tel": "０９７３－７６－３２６７",
    "url": "ｈｔｔｐ//www.oct-net.ne.jp/~smile9/syakyoTop.html",
    "pref": "大分県",
    "city": "九重町",
    "category": "day_service",
    "serviceType": "通所介護",
    "capacity": null,
    "openDays": [
      "平日",
      "土曜日",
      "祝日"
    ],
    "openDaysNote": "必要に応じて、日曜日、国民の休日及び年末年始であっても臨時的に営業します。"
  },
  {
    "id": "4472800376",
    "name": "デイサービスセンターともだち村",
    "kana": "デイサービスセンタートモダチムラ",
    "address": "大分県玖珠郡九重町大字右田914番地の3",
    "lat": 33.2322272693806,
    "lng": 131.204772224576,
    "tel": "0973－77－7001",
    "url": "",
    "pref": "大分県",
    "city": "九重町",
    "category": "day_service",
    "serviceType": "通所介護",
    "capacity": 0,
    "openDays": [
      "平日",
      "土曜日",
      "祝日"
    ],
    "openDaysNote": "年末年始、お盆、祝日は関係なく、火曜日、水曜日、金曜日、土曜日は営業。"
  },
  {
    "id": "4472800087",
    "name": "デイサービスセンター春日荘",
    "kana": "デイサービスセンターカスガソウ",
    "address": "大分県玖珠郡九重町大字右田3156番地の7",
    "lat": 33.2522023,
    "lng": 131.1745328,
    "tel": "0973-76-2100",
    "url": "http://www.daijukai-meruhen.com",
    "pref": "大分県",
    "city": "九重町",
    "category": "day_service",
    "serviceType": "通所介護",
    "capacity": 25,
    "openDays": [
      "平日",
      "土曜日"
    ],
    "openDaysNote": "年末年始休業（12月31日～1月2日）"
  },
  {
    "id": "4472800632",
    "name": "亀鶴苑デイサービスセンター",
    "kana": "キカクエンデイサービスセンター",
    "address": "大分県玖珠郡九重町大字町田４６番地の１養護老人ホーム　亀鶴苑 養護老人ホーム　亀鶴苑",
    "lat": 33.2043671128431,
    "lng": 131.169394966834,
    "tel": "0973－78－8668",
    "url": "http://www.kusuen.or.jp",
    "pref": "大分県",
    "city": "九重町",
    "category": "day_service",
    "serviceType": "通所介護",
    "capacity": 0,
    "openDays": [
      "平日",
      "土曜日",
      "祝日"
    ],
    "openDaysNote": "１２月３１日から１月３日までは休業。"
  },
  {
    "id": "4472800616",
    "name": "明友サービスセンター",
    "kana": "メイユウサービスセンター",
    "address": "大分県玖珠郡九重町大字菅原736番地",
    "lat": 33.1821458,
    "lng": 131.127066,
    "tel": "0973-78-9765",
    "url": "",
    "pref": "大分県",
    "city": "九重町",
    "category": "day_service",
    "serviceType": "通所介護",
    "capacity": 0,
    "openDays": [
      "平日",
      "土曜日",
      "日曜日",
      "祝日"
    ],
    "openDaysNote": ""
  },
  {
    "id": "4472800764",
    "name": "ディサービス　きりかぶ",
    "kana": "ディサービス　キリカブ",
    "address": "大分県玖珠郡玖珠町大字塚脇678番地10",
    "lat": 33.272914,
    "lng": 131.161261,
    "tel": "0973-72-4580",
    "url": "",
    "pref": "大分県",
    "city": "玖珠町",
    "category": "day_service",
    "serviceType": "通所介護",
    "capacity": 0,
    "openDays": [
      "平日",
      "土曜日",
      "祝日"
    ],
    "openDaysNote": "現在、土曜日を休業中。"
  },
  {
    "id": "4472800699",
    "name": "デイサービス　きりかぶ",
    "kana": "デイサービス　キリカブ",
    "address": "大分県玖珠郡玖珠町大字塚脇678番地10",
    "lat": 33.2729139,
    "lng": 131.1612608,
    "tel": "0973-72-4580",
    "url": "",
    "pref": "大分県",
    "city": "玖珠町",
    "category": "day_service",
    "serviceType": "通所介護",
    "capacity": 0,
    "openDays": [
      "平日",
      "土曜日",
      "祝日"
    ],
    "openDaysNote": ""
  },
  {
    "id": "4472800715",
    "name": "デイサービスきりかぶ",
    "kana": "デイサービスキリカブ",
    "address": "大分県玖珠郡玖珠町大字塚脇字梅迫678-10",
    "lat": 33.2726912842193,
    "lng": 131.16149776628,
    "tel": "0973-72-4580",
    "url": "",
    "pref": "大分県",
    "city": "玖珠町",
    "category": "day_service",
    "serviceType": "通所介護",
    "capacity": 0,
    "openDays": [
      "平日",
      "土曜日",
      "祝日"
    ],
    "openDaysNote": ""
  },
  {
    "id": "4472800798",
    "name": "デイサービスきりかぶ",
    "kana": "デイサービスキリカブ",
    "address": "大分県玖珠郡玖珠町大字塚脇678番地10",
    "lat": 33.272914,
    "lng": 131.161261,
    "tel": "0973-72-4580",
    "url": "",
    "pref": "大分県",
    "city": "玖珠町",
    "category": "day_service",
    "serviceType": "通所介護",
    "capacity": 0,
    "openDays": [
      "平日",
      "祝日"
    ],
    "openDaysNote": ""
  },
  {
    "id": "4472800517",
    "name": "デイサービスセンター　れざんの木",
    "kana": "デイサービスセンター　レザンノキ",
    "address": "大分県玖珠郡玖珠町大字綾垣1086-1",
    "lat": 33.2918863,
    "lng": 131.13327,
    "tel": "0973-72-3211",
    "url": "",
    "pref": "大分県",
    "city": "玖珠町",
    "category": "day_service",
    "serviceType": "通所介護",
    "capacity": 0,
    "openDays": [
      "平日",
      "土曜日",
      "祝日"
    ],
    "openDaysNote": ""
  },
  {
    "id": "4472800145",
    "name": "玖珠園デイサービスセンター",
    "kana": "クスエンデイサービスセンター",
    "address": "大分県玖珠郡玖珠町大字大隈３１５番地の５",
    "lat": 33.2700421,
    "lng": 131.166791,
    "tel": "０９７３－７２－１６４９",
    "url": "http://www.kusuen.or.jp",
    "pref": "大分県",
    "city": "玖珠町",
    "category": "day_service",
    "serviceType": "通所介護",
    "capacity": 0,
    "openDays": [
      "平日",
      "祝日"
    ],
    "openDaysNote": "特になし"
  },
  {
    "id": "4472800244",
    "name": "玖珠町介護保険サービスセンター通所介護",
    "kana": "クスマチカイゴホケンサービスセンターツウショカイゴ",
    "address": "大分県玖珠郡玖珠町大字岩室24番地の１玖珠町老人福祉センター 玖珠町老人福祉センター",
    "lat": 33.2825213,
    "lng": 131.1597632,
    "tel": "0973-72-9225",
    "url": "https://www.kusushakyo.or.jp/index.php/care/2016-03-17-06-45-13",
    "pref": "大分県",
    "city": "玖珠町",
    "category": "day_service",
    "serviceType": "通所介護",
    "capacity": 0,
    "openDays": [
      "平日",
      "祝日"
    ],
    "openDaysNote": ""
  },
  {
    "id": "4472100363",
    "name": "くにさきケアセンターなのはな　通所介護事業所",
    "kana": "クニサキケアセンターナノハナ　ツウショカイゴジギョウショ",
    "address": "大分県国東市武蔵町古市１０８６番地１国東市武蔵町保健福祉センター 国東市武蔵町保健福祉センター",
    "lat": 33.5024343,
    "lng": 131.7198069,
    "tel": "0978-68-0605",
    "url": "",
    "pref": "大分県",
    "city": "国東市",
    "category": "day_service",
    "serviceType": "通所介護",
    "capacity": 0,
    "openDays": [
      "平日",
      "土曜日",
      "祝日"
    ],
    "openDaysNote": "特になし"
  },
  {
    "id": "4472100199",
    "name": "くにさきケアセンターなのみ通所介護事業所",
    "kana": "クニサキケアセンターナノミツウショカイゴジギョウショ",
    "address": "大分県国東市国東町浜崎2757番地5",
    "lat": 33.5896718,
    "lng": 131.7175511,
    "tel": "0978-74-1151",
    "url": "",
    "pref": "大分県",
    "city": "国東市",
    "category": "day_service",
    "serviceType": "通所介護",
    "capacity": null,
    "openDays": [
      "平日",
      "祝日"
    ],
    "openDaysNote": "特になし"
  },
  {
    "id": "4471400046",
    "name": "福永デイサービスセンター",
    "kana": "フクナガデイサービスセンター",
    "address": "大分県国東市国東町鶴川１０６番地",
    "lat": 33.5627025,
    "lng": 131.7332459,
    "tel": "0978-72-3838",
    "url": "",
    "pref": "大分県",
    "city": "国東市",
    "category": "day_service",
    "serviceType": "通所介護",
    "capacity": null,
    "openDays": [
      "平日",
      "土曜日"
    ],
    "openDaysNote": "大雪・台風などが予想される場合は、事故防止の為お休みとなる事があります。"
  },
  {
    "id": "4470501356",
    "name": "さいき長寿苑そよ風",
    "kana": "サイキチョウジュエンソヨカゼ",
    "address": "大分県佐伯市鶴岡西町二丁目２６９番地",
    "lat": 32.9584301,
    "lng": 131.8646325,
    "tel": "0972-20-5218",
    "url": "",
    "pref": "大分県",
    "city": "佐伯市",
    "category": "day_service",
    "serviceType": "通所介護",
    "capacity": 0,
    "openDays": [
      "平日",
      "土曜日",
      "祝日"
    ],
    "openDaysNote": ""
  },
  {
    "id": "4470501331",
    "name": "デイ・サービスセンターロイヤルなおかわ",
    "kana": "デイ・サービスセンターロイヤルナオカワ",
    "address": "大分県佐伯市直川大字上直見２９２０番地１号デイ・サービスセンターロイヤルなおかわ デイ・サービスセンターロイヤルなおかわ",
    "lat": 32.9067735015911,
    "lng": 131.796286862955,
    "tel": "0972-58-5110",
    "url": "tky-royal.co.jp",
    "pref": "大分県",
    "city": "佐伯市",
    "category": "day_service",
    "serviceType": "通所介護",
    "capacity": 40,
    "openDays": [
      "平日",
      "土曜日",
      "祝日"
    ],
    "openDaysNote": "特に無し"
  },
  {
    "id": "4470501448",
    "name": "デイサービス　きぼう",
    "kana": "デイサービス　キボウ",
    "address": "大分県佐伯市字女島7439",
    "lat": 32.9573373,
    "lng": 131.9145591,
    "tel": "0972-20-3357",
    "url": "saiki-kibou.jp",
    "pref": "大分県",
    "city": "佐伯市",
    "category": "day_service",
    "serviceType": "通所介護",
    "capacity": 25,
    "openDays": [
      "平日",
      "祝日"
    ],
    "openDaysNote": ""
  },
  {
    "id": "4470501653",
    "name": "デイサービスいきいき",
    "kana": "デイサービスイキイキ",
    "address": "大分県佐伯市大字木立5597-1",
    "lat": 32.9252209155706,
    "lng": 131.939483267004,
    "tel": "0972-28-3382",
    "url": "",
    "pref": "大分県",
    "city": "佐伯市",
    "category": "day_service",
    "serviceType": "通所介護",
    "capacity": 43,
    "openDays": [
      "平日",
      "土曜日",
      "祝日"
    ],
    "openDaysNote": ""
  },
  {
    "id": "4470500887",
    "name": "デイサービスセンター　潮の風",
    "kana": "デイサービスセンター　ウシオノカゼ",
    "address": "大分県佐伯市蒲江大字丸市尾浦21番地",
    "lat": 32.7936556,
    "lng": 131.8772809,
    "tel": "0972-44-5101",
    "url": "http://ushionokaze.net/",
    "pref": "大分県",
    "city": "佐伯市",
    "category": "day_service",
    "serviceType": "通所介護",
    "capacity": null,
    "openDays": [
      "平日",
      "土曜日",
      "祝日"
    ],
    "openDaysNote": "・特になし。"
  },
  {
    "id": "4470500945",
    "name": "デイサービスセンター　彦岳の太陽",
    "kana": "デイサービスセンター　ヒコダケノタイヨウ",
    "address": "大分県佐伯市大字狩生418番地2",
    "lat": 33.0163783,
    "lng": 131.9017056,
    "tel": "0972-27-8622",
    "url": "http://www.hikodake.net/",
    "pref": "大分県",
    "city": "佐伯市",
    "category": "day_service",
    "serviceType": "通所介護",
    "capacity": 20,
    "openDays": [
      "平日",
      "祝日"
    ],
    "openDaysNote": "12/31～1/1の間はお休みすることがあります。（改行）（年末年始状況に応じて日曜日に振り替えて営業するがことあります）"
  },
  {
    "id": "4470501802",
    "name": "デイサービスセンター　悠凪",
    "kana": "デイサービスセンター　ユウナギ",
    "address": "佐伯市中の島1-2-3",
    "lat": 32.9580153,
    "lng": 131.9008058,
    "tel": "0972-28-5175",
    "url": "http://yamanokai.co.jp",
    "pref": "大分県",
    "city": "佐伯市",
    "category": "day_service",
    "serviceType": "通所介護",
    "capacity": 0,
    "openDays": [
      "平日",
      "土曜日",
      "日曜日",
      "祝日"
    ],
    "openDaysNote": ""
  },
  {
    "id": "4470501208",
    "name": "デイサービスセンター　遊友館",
    "kana": "デイサービスセンター　ユウユウカン",
    "address": "大分県佐伯市上灘10077番地1",
    "lat": 32.944330464391,
    "lng": 131.91107851553,
    "tel": "0972-29-5055",
    "url": "",
    "pref": "大分県",
    "city": "佐伯市",
    "category": "day_service",
    "serviceType": "通所介護",
    "capacity": 0,
    "openDays": [
      "平日",
      "土曜日",
      "祝日"
    ],
    "openDaysNote": ""
  },
  {
    "id": "4470501760",
    "name": "デイサービスセンターうめの里",
    "kana": "デイサービスセンターウメノサト",
    "address": "大分県佐伯市宇目大字小野市字井ノ上3754-1",
    "lat": 32.8556928,
    "lng": 131.631422,
    "tel": "0972-54-3577",
    "url": "http://r.goope.jp/choyokai",
    "pref": "大分県",
    "city": "佐伯市",
    "category": "day_service",
    "serviceType": "通所介護",
    "capacity": 0,
    "openDays": [
      "平日",
      "土曜日",
      "日曜日",
      "祝日"
    ],
    "openDaysNote": ""
  },
  {
    "id": "4470501455",
    "name": "デイサービスセンターきづな",
    "kana": "デイサービスセンターキヅナ",
    "address": "大分県佐伯市本匠大字笠掛1589番地1みどりの郷優しい風1階 みどりの郷優しい風1階",
    "lat": 32.9536553558627,
    "lng": 131.799732720255,
    "tel": "0972-56-5888",
    "url": "",
    "pref": "大分県",
    "city": "佐伯市",
    "category": "day_service",
    "serviceType": "通所介護",
    "capacity": 0,
    "openDays": [
      "平日",
      "土曜日",
      "祝日"
    ],
    "openDaysNote": ""
  },
  {
    "id": "4470501737",
    "name": "デイサービスセンターこでら",
    "kana": "デイサービスセンンター　コデラ",
    "address": "大分県佐伯市鶴見大字沖松浦508－2佐伯市鶴見高齢者福祉センター 佐伯市鶴見高齢者福祉センター",
    "lat": 32.9624966,
    "lng": 131.876351,
    "tel": "0972－33－1310",
    "url": "",
    "pref": "大分県",
    "city": "佐伯市",
    "category": "day_service",
    "serviceType": "通所介護",
    "capacity": 0,
    "openDays": [
      "平日",
      "土曜日",
      "祝日"
    ],
    "openDaysNote": ""
  },
  {
    "id": "4470500242",
    "name": "デイサービスセンター愛情苑",
    "kana": "デイサービスセンターアイジョウエン",
    "address": "大分県佐伯市大字長良4954番地",
    "lat": 32.9365425,
    "lng": 131.9117266,
    "tel": "0972-28-3321",
    "url": "http://r.goopejp/choyokai",
    "pref": "大分県",
    "city": "佐伯市",
    "category": "day_service",
    "serviceType": "通所介護",
    "capacity": null,
    "openDays": [
      "平日",
      "土曜日",
      "日曜日",
      "祝日"
    ],
    "openDaysNote": ""
  },
  {
    "id": "4470502008",
    "name": "デイサービスセンター愛情苑八幡",
    "kana": "デイサービスセンターアイジョウエンヤハタ",
    "address": "大分県佐伯市大字戸穴字首山619-9",
    "lat": 33.0145227,
    "lng": 131.8824233,
    "tel": "0972-27-5533",
    "url": "http://r.goope.jp/choyokai",
    "pref": "大分県",
    "city": "佐伯市",
    "category": "day_service",
    "serviceType": "通所介護",
    "capacity": null,
    "openDays": [
      "平日",
      "土曜日",
      "日曜日",
      "祝日"
    ],
    "openDaysNote": ""
  },
  {
    "id": "4470500747",
    "name": "デイサービスセンター鶴望園",
    "kana": "デイサービスセンターツルミエン",
    "address": "大分県佐伯市大字鶴望5156-1",
    "lat": 32.9695959,
    "lng": 131.8819226,
    "tel": "0972-22-5751",
    "url": "http://tsurumien.com/",
    "pref": "大分県",
    "city": "佐伯市",
    "category": "day_service",
    "serviceType": "通所介護",
    "capacity": 35,
    "openDays": [
      "平日",
      "土曜日",
      "祝日"
    ],
    "openDaysNote": "祝日は通常通り営業しております。"
  },
  {
    "id": "4470501620",
    "name": "デイサービス樹の里",
    "kana": "デイサービス　キノサト",
    "address": "大分県佐伯市弥生大字井崎字中道957",
    "lat": 32.9751779,
    "lng": 131.8443972,
    "tel": "0972-46-1052",
    "url": "",
    "pref": "大分県",
    "city": "佐伯市",
    "category": "day_service",
    "serviceType": "通所介護",
    "capacity": 0,
    "openDays": [
      "平日",
      "土曜日",
      "祝日"
    ],
    "openDaysNote": "年末年始の12/31～1/2は営業をお休みさせて頂く場合がございます。"
  },
  {
    "id": "4470501703",
    "name": "バンジョウノシラベツウショカイゴジギョウショ",
    "kana": "番匠ノシラベ通所介護事業所",
    "address": "大分県佐伯市弥生大字門田173番地1",
    "lat": 32.948784618052,
    "lng": 131.842361964025,
    "tel": "0972-25-3811",
    "url": "",
    "pref": "大分県",
    "city": "佐伯市",
    "category": "day_service",
    "serviceType": "通所介護",
    "capacity": 0,
    "openDays": [
      "平日",
      "土曜日",
      "祝日"
    ],
    "openDaysNote": ""
  },
  {
    "id": "4470500606",
    "name": "介護予防センター愛情苑女島",
    "kana": "カイゴヨボウセンターアイジョウエンメジマ",
    "address": "大分県佐伯市字女島6945番1",
    "lat": 32.9540203,
    "lng": 131.9085214,
    "tel": "0972-25-1717",
    "url": "http://r.goope.jp/choyokai",
    "pref": "大分県",
    "city": "佐伯市",
    "category": "day_service",
    "serviceType": "通所介護",
    "capacity": null,
    "openDays": [
      "平日",
      "土曜日",
      "日曜日",
      "祝日"
    ],
    "openDaysNote": ""
  },
  {
    "id": "4470500879",
    "name": "介護予防センター愛情苑鶴岡",
    "kana": "カイゴヨボウセンターアイジョウエンツルオカ",
    "address": "大分県佐伯市上岡1237番地8",
    "lat": 32.9573191,
    "lng": 131.8647548,
    "tel": "0972-22-2255",
    "url": "http://r.goopejp/choyokai",
    "pref": "大分県",
    "city": "佐伯市",
    "category": "day_service",
    "serviceType": "通所介護",
    "capacity": null,
    "openDays": [
      "平日",
      "土曜日",
      "日曜日",
      "祝日"
    ],
    "openDaysNote": ""
  },
  {
    "id": "4470500226",
    "name": "介護予防センター愛情苑八幡",
    "kana": "カイゴヨボウセンターアイジョウエンヤハタ",
    "address": "大分県佐伯市大字戸穴字首山619-9",
    "lat": 33.0014572,
    "lng": 131.8915598,
    "tel": "0972-27-5533",
    "url": "http://r.goope.jp/choyokai",
    "pref": "大分県",
    "city": "佐伯市",
    "category": "day_service",
    "serviceType": "通所介護",
    "capacity": null,
    "openDays": [
      "平日",
      "土曜日",
      "日曜日",
      "祝日"
    ],
    "openDaysNote": ""
  },
  {
    "id": "4470500184",
    "name": "楽々園　指定通所介護事業所",
    "kana": "ラクラクエン　シテイツウショカイゴジギョウショ",
    "address": "大分県佐伯市長島町4丁目14番28号",
    "lat": 32.9532319,
    "lng": 131.9055295,
    "tel": "0972－22－9230",
    "url": "http://www.nagato.or.jp",
    "pref": "大分県",
    "city": "佐伯市",
    "category": "day_service",
    "serviceType": "通所介護",
    "capacity": 30,
    "openDays": [
      "平日",
      "土曜日",
      "祝日"
    ],
    "openDaysNote": ""
  },
  {
    "id": "4472500315",
    "name": "蒲江デイサービスセンター",
    "kana": "カマエデイサービスセンター",
    "address": "大分県佐伯市蒲江大字蒲江浦１３４４番地１",
    "lat": 32.8040462,
    "lng": 131.9414767,
    "tel": "0972-42-1836",
    "url": "http://www.saiki.tv/~kamae-1886/",
    "pref": "大分県",
    "city": "佐伯市",
    "category": "day_service",
    "serviceType": "通所介護",
    "capacity": null,
    "openDays": [
      "平日",
      "土曜日",
      "祝日"
    ],
    "openDaysNote": ""
  },
  {
    "id": "4472500158",
    "name": "佐伯市社協デイサービスセンター「うめ」",
    "kana": "サイキシシャキョウデイサービスセンターウメ",
    "address": "大分県佐伯市宇目大字小野市3374番地1佐伯市宇目高齢者生活福祉センター「通所介護部門」 佐伯市宇目高齢者生活福祉センター「通所介護部門」",
    "lat": 32.8521071,
    "lng": 131.6305083,
    "tel": "0972-54-3434",
    "url": "http://www.sashakyo.or.jp/",
    "pref": "大分県",
    "city": "佐伯市",
    "category": "day_service",
    "serviceType": "通所介護",
    "capacity": 0,
    "openDays": [
      "平日",
      "土曜日",
      "祝日"
    ],
    "openDaysNote": "特に無し"
  },
  {
    "id": "4472500224",
    "name": "佐伯市社協デイサービスセンター「なおかわ」",
    "kana": "サイキシシャキョウデイサービスセンター「ナオカワ」",
    "address": "大分県佐伯市直川大字赤木1235番地",
    "lat": 32.8732064,
    "lng": 131.7846685,
    "tel": "0972-58-2041",
    "url": "http://www.sashakyo/or/jp/",
    "pref": "大分県",
    "city": "佐伯市",
    "category": "day_service",
    "serviceType": "通所介護",
    "capacity": 30,
    "openDays": [
      "平日",
      "土曜日",
      "祝日"
    ],
    "openDaysNote": "自然災害等で送迎等危険が予想される場合、臨時休業や時間変更等行う場合がある。"
  },
  {
    "id": "4472500323",
    "name": "佐伯市社協デイサービスセンター「やよい」",
    "kana": "サイキシシャキョウ　デイサーピスセンター　ヤヨイ",
    "address": "大分県佐伯市弥生大字上小倉1208番地",
    "lat": 32.9692841,
    "lng": 131.8407311,
    "tel": "0972-46-1616",
    "url": "http://sashakyo.or.jp/publics/index/1/",
    "pref": "大分県",
    "city": "佐伯市",
    "category": "day_service",
    "serviceType": "通所介護",
    "capacity": 0,
    "openDays": [
      "平日",
      "土曜日",
      "祝日"
    ],
    "openDaysNote": "休日や営業時間外であっても、転送電話により連絡が取れる体制を整えています。"
  },
  {
    "id": "4472500281",
    "name": "佐伯市社協デイサービスセンター「上浦ふれあい荘」",
    "kana": "サイキシシャキョウデイサービスセンター「カミウラフレアイソウ」",
    "address": "大分県佐伯市上浦大字浅海井浦489番地10",
    "lat": 33.0421729,
    "lng": 131.9205967,
    "tel": "0972-32-3395",
    "url": "http://www.sashakyo.or.jp/index.html",
    "pref": "大分県",
    "city": "佐伯市",
    "category": "day_service",
    "serviceType": "通所介護",
    "capacity": 0,
    "openDays": [
      "平日",
      "土曜日",
      "祝日"
    ],
    "openDaysNote": ""
  },
  {
    "id": "4470501901",
    "name": "佐伯市弥生デイサービスセンター",
    "kana": "サイキシヤヨイデイサービスセンター",
    "address": "大分県佐伯市大字小倉１２０８番地",
    "lat": 32.959827,
    "lng": 131.9000563,
    "tel": "0972-46-1616",
    "url": "http://kodomomirai.saiki.jp/",
    "pref": "大分県",
    "city": "佐伯市",
    "category": "day_service",
    "serviceType": "通所介護",
    "capacity": null,
    "openDays": [
      "平日",
      "土曜日",
      "祝日"
    ],
    "openDaysNote": ""
  },
  {
    "id": "4470501232",
    "name": "佐伯市老人デイサービスセンターB型「中川園」",
    "kana": "サイキシロウジンデイサービスセンタービーガタナカガワエン",
    "address": "大分県佐伯市向島１丁目３番８号佐伯市保険福祉総合センター　和楽内 佐伯市保険福祉総合センター　和楽内",
    "lat": 32.9586506,
    "lng": 131.9001576,
    "tel": "０９７２－２３－３０６４",
    "url": "http//www.nagato.or.jp",
    "pref": "大分県",
    "city": "佐伯市",
    "category": "day_service",
    "serviceType": "通所介護",
    "capacity": 0,
    "openDays": [
      "平日",
      "土曜日",
      "日曜日",
      "祝日"
    ],
    "openDaysNote": "緊急時の連絡については、平日またはそれ以外の日（祝日、休日、年末休暇）でも受付可能。（改行）時間帯：８：００～１８：００（改行）上記の時間帯以外：夜勤職員対応（改行）（改行）通所介護　月・水・木・土（改行）短期集中Ｃ　火・金（改行）日常生活支援総合事業　いきいき支援　月・水・木・土（改行）　　　　　　　　　　　元気アップ事業　月・水・木"
  },
  {
    "id": "4470501976",
    "name": "社会福祉法人双樹会ながと通所介護事業所",
    "kana": "シャカイフクシホウジンソウジュカイナガトツウショカイゴジギョウショ",
    "address": "大分県佐伯市弥生大字井崎字中道957番地",
    "lat": 32.9722015945335,
    "lng": 131.842444556227,
    "tel": "0972-46-1052",
    "url": "https://www.nagato.or.jp/index.html",
    "pref": "大分県",
    "city": "佐伯市",
    "category": "day_service",
    "serviceType": "通所介護",
    "capacity": null,
    "openDays": [
      "平日",
      "土曜日",
      "祝日"
    ],
    "openDaysNote": ""
  },
  {
    "id": "4470501745",
    "name": "長門デイサービスセンター",
    "kana": "ナガトデイサービスセンター",
    "address": "大分県佐伯市鶴岡町1丁目6番3号",
    "lat": 32.9582057,
    "lng": 131.8831201,
    "tel": "0972-22-5120",
    "url": "http://www.nagato.or.jp",
    "pref": "大分県",
    "city": "佐伯市",
    "category": "day_service",
    "serviceType": "通所介護",
    "capacity": 0,
    "openDays": [
      "平日",
      "土曜日",
      "祝日"
    ],
    "openDaysNote": "上記以外の祝日は営業いたします"
  },
  {
    "id": "4470111321",
    "name": "DayserviceKOKORO",
    "kana": "デイサービスココロ",
    "address": "大分県大分市大字細字赤迫1718-4",
    "lat": 33.1905692,
    "lng": 131.7071912,
    "tel": "9073708586",
    "url": "https://lig-care.com/",
    "pref": "大分県",
    "city": "大分市",
    "category": "day_service",
    "serviceType": "通所介護",
    "capacity": 32,
    "openDays": [
      "平日",
      "土曜日",
      "祝日"
    ],
    "openDaysNote": ""
  },
  {
    "id": "4470109192",
    "name": "Greenガーデン南大分デイサービス",
    "kana": "グリーンガーデンミナミオオイタデイサービス",
    "address": "大分県大分市上田町一丁目12番5号Greenガーデン南大分 Greenガーデン南大分",
    "lat": 33.2174485,
    "lng": 131.5999844,
    "tel": "097-574-9781",
    "url": "http://taisyoukai.jp/",
    "pref": "大分県",
    "city": "大分市",
    "category": "day_service",
    "serviceType": "通所介護",
    "capacity": 35,
    "openDays": [
      "平日",
      "土曜日",
      "祝日"
    ],
    "openDaysNote": ""
  },
  {
    "id": "4470105430",
    "name": "JAおおいたデイサービスセンターグラティ丹生の郷",
    "kana": "ジェイエーオオイタデイサービスセンターグラティニュウノサト",
    "address": "大分県大分市大字丹生147番地の3",
    "lat": 33.2183468,
    "lng": 131.7207071,
    "tel": "097－592－8100",
    "url": "",
    "pref": "大分県",
    "city": "大分市",
    "category": "day_service",
    "serviceType": "通所介護",
    "capacity": 45,
    "openDays": [
      "平日",
      "土曜日",
      "日曜日",
      "祝日"
    ],
    "openDaysNote": "業務都合上、現在第4日曜日も定休日となっております。"
  },
  {
    "id": "4470109739",
    "name": "SJR大分デイサービスセンター",
    "kana": "エスジェイアールオオイタデイサービスセンター",
    "address": "大分県大分市要町6番32号SJR大分 SJR大分",
    "lat": 33.2301201033904,
    "lng": 131.608979859525,
    "tel": "097-573-6543",
    "url": "www.sjr-jr.co.jp",
    "pref": "大分県",
    "city": "大分市",
    "category": "day_service",
    "serviceType": "通所介護",
    "capacity": 31,
    "openDays": [
      "平日",
      "土曜日",
      "祝日"
    ],
    "openDaysNote": ""
  },
  {
    "id": "4470108517",
    "name": "アイリスあけのデイサービスセンター",
    "kana": "アイリスアケノデイサービスセンター",
    "address": "大分市大字横尾4457番地の1サービス付き高齢者向け住宅アイリスあけの サービス付き高齢者向け住宅アイリスあけの",
    "lat": 33.2161931781578,
    "lng": 131.64799818387,
    "tel": "097-578-7378",
    "url": "http：//www.nijiｰiris.ｃｏｍ",
    "pref": "大分県",
    "city": "大分市",
    "category": "day_service",
    "serviceType": "通所介護",
    "capacity": 0,
    "openDays": [
      "平日",
      "土曜日",
      "祝日"
    ],
    "openDaysNote": ""
  },
  {
    "id": "4470102502",
    "name": "アイリスおおいたデイサービスセンター",
    "kana": "アイリスオオイタデイサービスセンター",
    "address": "大分県大分市大字横尾4451-8",
    "lat": 33.2170615,
    "lng": 131.6499444,
    "tel": "097-503-1754",
    "url": "http://www.niji-iris.com",
    "pref": "大分県",
    "city": "大分市",
    "category": "day_service",
    "serviceType": "通所介護",
    "capacity": 32,
    "openDays": [
      "平日",
      "土曜日",
      "祝日"
    ],
    "openDaysNote": "自然災害が起こる恐れがある時は予防の為、関係事業者と連絡を取り対応を行うことあり。"
  },
  {
    "id": "4470110661",
    "name": "アイリスつるさきデイサービスセンター",
    "kana": "アイリスツルサキデイサービスセンター",
    "address": "大分県大分市大字迫徳平538番地の2サービス付き高齢者向け住宅　アイリスつるさき サービス付き高齢者向け住宅　アイリスつるさき",
    "lat": 33.2274009,
    "lng": 131.7036651,
    "tel": "097-574-6593",
    "url": "http://www.niji-iris.com",
    "pref": "大分県",
    "city": "大分市",
    "category": "day_service",
    "serviceType": "通所介護",
    "capacity": 25,
    "openDays": [
      "平日",
      "祝日"
    ],
    "openDaysNote": ""
  },
  {
    "id": "4470107881",
    "name": "いずみリハビリ倶楽部",
    "kana": "イズミリハビリクラブ",
    "address": "大分県大分市大在北一丁目12番12号",
    "lat": 33.2520987,
    "lng": 131.7100075,
    "tel": "097-560-0628",
    "url": "https://www.eff-izumi.com/",
    "pref": "大分県",
    "city": "大分市",
    "category": "day_service",
    "serviceType": "通所介護",
    "capacity": 0,
    "openDays": [
      "平日",
      "土曜日",
      "祝日"
    ],
    "openDaysNote": ""
  },
  {
    "id": "4470107246",
    "name": "いまじんデイルーム下郡",
    "kana": "イマジンデイルームシモゴオリ",
    "address": "下郡北2丁目3番40号",
    "lat": 33.2275624,
    "lng": 131.6294564,
    "tel": "097-567-2525",
    "url": "http://f-imagine.net/",
    "pref": "大分県",
    "city": "大分市",
    "category": "day_service",
    "serviceType": "通所介護",
    "capacity": 30,
    "openDays": [
      "平日",
      "祝日"
    ],
    "openDaysNote": ""
  },
  {
    "id": "4470110562",
    "name": "いまじんデイルーム下郡",
    "kana": "イマジンデイルームシモゴオリ",
    "address": "大分県大分市下郡北二丁目3番40号",
    "lat": 33.2275624,
    "lng": 131.6294564,
    "tel": "097-567-1771",
    "url": "http://f-imagine.net/",
    "pref": "大分県",
    "city": "大分市",
    "category": "day_service",
    "serviceType": "通所介護",
    "capacity": 0,
    "openDays": [
      "平日",
      "土曜日",
      "祝日"
    ],
    "openDaysNote": ""
  },
  {
    "id": "4470106321",
    "name": "いまじんデイルーム南大分",
    "kana": "イマジンデイルームミナミオオイタ",
    "address": "大分県大分市二又町１丁目４番３４号",
    "lat": 33.2133309229848,
    "lng": 131.59481040741,
    "tel": "097-574-8288",
    "url": "http://f-imagine.net/",
    "pref": "大分県",
    "city": "大分市",
    "category": "day_service",
    "serviceType": "通所介護",
    "capacity": 60,
    "openDays": [
      "平日",
      "土曜日",
      "日曜日",
      "祝日"
    ],
    "openDaysNote": ""
  },
  {
    "id": "4470105646",
    "name": "かぶしき　がいしゃくるみ",
    "kana": "株式会社　来夢",
    "address": "大分県大分市津守字船橋1221番地ケアホーム来夢 ケアホーム来夢",
    "lat": 33.2102056,
    "lng": 131.615833,
    "tel": "097-529-9595",
    "url": "kurumihome.com",
    "pref": "大分県",
    "city": "大分市",
    "category": "day_service",
    "serviceType": "通所介護",
    "capacity": 0,
    "openDays": [
      "平日",
      "土曜日",
      "日曜日",
      "祝日"
    ],
    "openDaysNote": ""
  },
  {
    "id": "4470105216",
    "name": "ケアパートナー賀来",
    "kana": "ケアパートナーカク",
    "address": "大分県大分市賀来西２－４－１２ヴィラネオユニゾン　１階 ヴィラネオユニゾン　１階",
    "lat": 33.2126716,
    "lng": 131.5554552,
    "tel": "097-548-7115",
    "url": "http://www.care-partｎｅr.com",
    "pref": "大分県",
    "city": "大分市",
    "category": "day_service",
    "serviceType": "通所介護",
    "capacity": 0,
    "openDays": [
      "平日",
      "土曜日",
      "祝日"
    ],
    "openDaysNote": ""
  },
  {
    "id": "4470104318",
    "name": "ケアパートナー明野",
    "kana": "ケアパートナーアケノ",
    "address": "大分県大分市明野北５－１－４８グレイス天然館１Ｆ グレイス天然館１Ｆ",
    "lat": 33.2268968,
    "lng": 131.6588018,
    "tel": "097-503-1720",
    "url": "http://www.care-partner.com/",
    "pref": "大分県",
    "city": "大分市",
    "category": "day_service",
    "serviceType": "通所介護",
    "capacity": 0,
    "openDays": [
      "平日",
      "土曜日",
      "日曜日",
      "祝日"
    ],
    "openDaysNote": "なし"
  },
  {
    "id": "4470112246",
    "name": "コンパスウォークわさだ",
    "kana": "コンパスウォークワサダ",
    "address": "大分県大分市市1188番地2デサキパーク１階　１０２号 デサキパーク１階　１０２号",
    "lat": 33.1865921,
    "lng": 131.5741551,
    "tel": "097-576-7200",
    "url": "https://cw-oita.com",
    "pref": "大分県",
    "city": "大分市",
    "category": "day_service",
    "serviceType": "通所介護",
    "capacity": 0,
    "openDays": [
      "平日",
      "祝日"
    ],
    "openDaysNote": ""
  },
  {
    "id": "4470111362",
    "name": "コンパスウォーク大分宗方",
    "kana": "コンパスウォークオオイタムナカタ",
    "address": "大分県大分市大字上宗方390-1",
    "lat": 33.2008242,
    "lng": 131.5824635,
    "tel": "097-547-7166",
    "url": "https://cw-oita.com/",
    "pref": "大分県",
    "city": "大分市",
    "category": "day_service",
    "serviceType": "通所介護",
    "capacity": 0,
    "openDays": [
      "平日",
      "祝日"
    ],
    "openDaysNote": ""
  },
  {
    "id": "4470100738",
    "name": "さわやか荘デイサービスセンター",
    "kana": "サワヤカソウデイサービスセンター",
    "address": "大分県大分市大字鶴崎２１８９番地",
    "lat": 33.2438797,
    "lng": 131.6849962,
    "tel": "097-521-8777",
    "url": "nishihamakai.jp",
    "pref": "大分県",
    "city": "大分市",
    "category": "day_service",
    "serviceType": "通所介護",
    "capacity": 0,
    "openDays": [
      "平日",
      "土曜日",
      "祝日"
    ],
    "openDaysNote": "上記の休み以外は祝日も営業致します。"
  },
  {
    "id": "4470107535",
    "name": "しきどデイサービスセンター",
    "kana": "シキドデイサービスセンター",
    "address": "大分県大分市大字曲595番地",
    "lat": 33.1921217,
    "lng": 131.6249133,
    "tel": "097-560-0381",
    "url": "https://fujinokai.co.jp",
    "pref": "大分県",
    "city": "大分市",
    "category": "day_service",
    "serviceType": "通所介護",
    "capacity": 0,
    "openDays": [
      "平日",
      "土曜日",
      "日曜日",
      "祝日"
    ],
    "openDaysNote": ""
  },
  {
    "id": "4470107642",
    "name": "すくすく・いきいき村横丁",
    "kana": "スクスク・イキイキムラヨコチョウ",
    "address": "大分県大分市緑ヶ丘5丁目23-1",
    "lat": 33.1777911,
    "lng": 131.5264549,
    "tel": "097-542-5571",
    "url": "https://sukuiki.jp/index.html",
    "pref": "大分県",
    "city": "大分市",
    "category": "day_service",
    "serviceType": "通所介護",
    "capacity": 0,
    "openDays": [
      "平日",
      "土曜日",
      "祝日"
    ],
    "openDaysNote": "12月30日より1月2日の年末年始を休業日"
  },
  {
    "id": "4470100845",
    "name": "そうだ藤の森デイサービスセンター",
    "kana": "ソウダフジノモリデイサービスセンター",
    "address": "大分県大分市大字寒田202番地",
    "lat": 33.1742016939628,
    "lng": 131.599689236478,
    "tel": "097-578-6561",
    "url": "http://san-ai-kai.or.jp/",
    "pref": "大分県",
    "city": "大分市",
    "category": "day_service",
    "serviceType": "通所介護",
    "capacity": 45,
    "openDays": [
      "平日",
      "土曜日",
      "祝日"
    ],
    "openDaysNote": ""
  },
  {
    "id": "4470109408",
    "name": "そうりんデイサービス森町",
    "kana": "ソウリンデイサービスモリマチ",
    "address": "大分県大分市大字森577番地1",
    "lat": 33.220293,
    "lng": 131.6808445,
    "tel": "097-527-5700",
    "url": "http://www.fukujyukai.net/",
    "pref": "大分県",
    "city": "大分市",
    "category": "day_service",
    "serviceType": "通所介護",
    "capacity": 0,
    "openDays": [
      "平日",
      "土曜日",
      "祝日"
    ],
    "openDaysNote": "その他年間の休日：12月31日から1月3日までの4日間"
  },
  {
    "id": "4470103674",
    "name": "ツクイ　大分賀来北",
    "kana": "ツクイ　オオイタカクキタ",
    "address": "大分市賀来北2-10-7",
    "lat": 33.2155946,
    "lng": 131.5738147,
    "tel": "097-586-5425",
    "url": "ooita-kakukita@tsukui.net",
    "pref": "大分県",
    "city": "大分市",
    "category": "day_service",
    "serviceType": "通所介護",
    "capacity": 0,
    "openDays": [
      "平日",
      "土曜日",
      "日曜日",
      "祝日"
    ],
    "openDaysNote": ""
  },
  {
    "id": "4470111081",
    "name": "ツクイ　大分賀来北",
    "kana": "ツクイ　オオイタカクキタ",
    "address": "大分県大分市賀来北12-0-7",
    "lat": 33.2137067,
    "lng": 131.5693572,
    "tel": "097-586-5425",
    "url": "ooita-kakukita@tsukui.net",
    "pref": "大分県",
    "city": "大分市",
    "category": "day_service",
    "serviceType": "通所介護",
    "capacity": null,
    "openDays": [
      "平日",
      "土曜日",
      "日曜日",
      "祝日"
    ],
    "openDaysNote": ""
  },
  {
    "id": "4470111099",
    "name": "ツクイ大分下郡",
    "kana": "ツクイオオイタシモゴオリ",
    "address": "大分県大分市下郡中央2－10－29",
    "lat": 33.2246445,
    "lng": 131.6341186,
    "tel": "097－504－8130",
    "url": "http://www.tsukui.net",
    "pref": "大分県",
    "city": "大分市",
    "category": "day_service",
    "serviceType": "通所介護",
    "capacity": 0,
    "openDays": [
      "平日",
      "土曜日",
      "日曜日",
      "祝日"
    ],
    "openDaysNote": "365日土日祝日も営業しております。"
  },
  {
    "id": "4470109994",
    "name": "デイサービス　おおるり",
    "kana": "デイサービス　オオルリ",
    "address": "大分県大分市高江中央1丁目1304-1",
    "lat": 33.1665015,
    "lng": 131.6181949,
    "tel": "097-535-7115",
    "url": "http://loveloving.co.jp",
    "pref": "大分県",
    "city": "大分市",
    "category": "day_service",
    "serviceType": "通所介護",
    "capacity": 0,
    "openDays": [
      "平日",
      "祝日"
    ],
    "openDaysNote": ""
  },
  {
    "id": "4470110281",
    "name": "デイサービス　カリス中島",
    "kana": "デイサービス　カリスナカシマ",
    "address": "大分県大分市中島中央１丁目2番6号",
    "lat": 33.243118858348,
    "lng": 131.613640025027,
    "tel": "097-535-7828",
    "url": "http://makarios-shimai.com",
    "pref": "大分県",
    "city": "大分市",
    "category": "day_service",
    "serviceType": "通所介護",
    "capacity": 0,
    "openDays": [
      "平日",
      "土曜日",
      "日曜日",
      "祝日"
    ],
    "openDaysNote": ""
  },
  {
    "id": "4470111875",
    "name": "デイサービス　スマイル",
    "kana": "デイサービス　スマイル",
    "address": "大分県大分市賀来2085番地の1",
    "lat": 33.2153965058677,
    "lng": 131.566168797612,
    "tel": "097-535-7670",
    "url": "http://smile-enokuma.com",
    "pref": "大分県",
    "city": "大分市",
    "category": "day_service",
    "serviceType": "通所介護",
    "capacity": 0,
    "openDays": [
      "平日",
      "土曜日",
      "祝日"
    ],
    "openDaysNote": ""
  },
  {
    "id": "4470108491",
    "name": "デイサービス　ソレイユガーデン",
    "kana": "デイサービス　ソレイユガーデン",
    "address": "大分県大分市中島西2丁目2番15号",
    "lat": 33.2442134405444,
    "lng": 131.609986981615,
    "tel": "097-532-2111",
    "url": "",
    "pref": "大分県",
    "city": "大分市",
    "category": "day_service",
    "serviceType": "通所介護",
    "capacity": 30,
    "openDays": [
      "平日",
      "土曜日",
      "日曜日",
      "祝日"
    ],
    "openDaysNote": ""
  },
  {
    "id": "4470107154",
    "name": "デイサービス　ななみ",
    "kana": "デイサービス　ナナミ",
    "address": "大分県大分市政所3158-26",
    "lat": 33.2341327491624,
    "lng": 131.715448323943,
    "tel": "097-592-7731",
    "url": "https://sites.google.com/view/nanami773",
    "pref": "大分県",
    "city": "大分市",
    "category": "day_service",
    "serviceType": "通所介護",
    "capacity": 0,
    "openDays": [
      "平日",
      "土曜日",
      "日曜日",
      "祝日"
    ],
    "openDaysNote": ""
  },
  {
    "id": "4470106982",
    "name": "デイサービス　ぷちとまと",
    "kana": "デイサービス　プチトマト",
    "address": "大分県大分市城原字尾崎2551-14",
    "lat": 33.238353,
    "lng": 131.7275092,
    "tel": "097-576-7751",
    "url": "http://www.oita-tomato.com",
    "pref": "大分県",
    "city": "大分市",
    "category": "day_service",
    "serviceType": "通所介護",
    "capacity": 0,
    "openDays": [
      "平日",
      "土曜日",
      "日曜日",
      "祝日"
    ],
    "openDaysNote": ""
  },
  {
    "id": "4470108145",
    "name": "デイサービス　ぷちとまと２",
    "kana": "デイサービス　プチトマト　ツー",
    "address": "大分市大字城原字尾崎2600-25",
    "lat": 33.239806706688,
    "lng": 131.723898946666,
    "tel": "097-574-7600",
    "url": "http://www.oita-tomato.com/",
    "pref": "大分県",
    "city": "大分市",
    "category": "day_service",
    "serviceType": "通所介護",
    "capacity": 0,
    "openDays": [
      "平日",
      "土曜日",
      "祝日"
    ],
    "openDaysNote": ""
  },
  {
    "id": "4470108673",
    "name": "デイサービス　みなはるの里",
    "kana": "デイサービスミナハルノサト",
    "address": "大分県大分市大字皆春266番地５みなはるの里　別館 みなはるの里　別館",
    "lat": 33.2371411599408,
    "lng": 131.676557951455,
    "tel": "097－522－1551",
    "url": "雄山会　みなはるの里",
    "pref": "大分県",
    "city": "大分市",
    "category": "day_service",
    "serviceType": "通所介護",
    "capacity": 0,
    "openDays": [
      "平日",
      "土曜日",
      "祝日"
    ],
    "openDaysNote": ""
  },
  {
    "id": "4470109879",
    "name": "デイサービス　ようこう",
    "kana": "デイサービス　ヨウコウ",
    "address": "大分県大分市中戸次寺ノ内5111-1",
    "lat": 33.1513493,
    "lng": 131.6555243,
    "tel": "097-597-3100",
    "url": "http://www.tenshindo.org/",
    "pref": "大分県",
    "city": "大分市",
    "category": "day_service",
    "serviceType": "通所介護",
    "capacity": 0,
    "openDays": [
      "平日",
      "土曜日",
      "日曜日",
      "祝日"
    ],
    "openDaysNote": ""
  },
  {
    "id": "4470109135",
    "name": "デイサービス　ラファミリア",
    "kana": "デイサービス　ラファミリア",
    "address": "大分県大分市南鶴崎２丁目６番５号つるさきクリニックビル２階 つるさきクリニックビル２階",
    "lat": 33.239111,
    "lng": 131.6906819,
    "tel": "097-527-2880",
    "url": "www.kakuyukai.com/",
    "pref": "大分県",
    "city": "大分市",
    "category": "day_service",
    "serviceType": "通所介護",
    "capacity": null,
    "openDays": [
      "平日",
      "土曜日",
      "日曜日",
      "祝日"
    ],
    "openDaysNote": "日曜・祝祭日もご利用いただけます。"
  },
  {
    "id": "4470109341",
    "name": "デイサービス　ルームス",
    "kana": "デイサービス　ルームス",
    "address": "大分県大分市牧２丁目１７番－５号牧ロイヤルプラザ203号 牧ロイヤルプラザ203号",
    "lat": 33.2417595481786,
    "lng": 131.641296495107,
    "tel": "097-574-8131",
    "url": "http://www.unonaika.net",
    "pref": "大分県",
    "city": "大分市",
    "category": "day_service",
    "serviceType": "通所介護",
    "capacity": 20,
    "openDays": [
      "平日",
      "土曜日"
    ],
    "openDaysNote": "特になし。"
  },
  {
    "id": "4470108855",
    "name": "デイサービス　森のコーラス",
    "kana": "デイサービスモリノコーラス",
    "address": "大分県大分市羽屋四丁目3番26号",
    "lat": 33.2113333871648,
    "lng": 131.599268621502,
    "tel": "097-543-6400",
    "url": "http://oitamh.jp",
    "pref": "大分県",
    "city": "大分市",
    "category": "day_service",
    "serviceType": "通所介護",
    "capacity": 0,
    "openDays": [
      "平日",
      "祝日"
    ],
    "openDaysNote": ""
  },
  {
    "id": "4470110992",
    "name": "デイサービス　福寿",
    "kana": "デイサービス　フクジュ",
    "address": "大分県大分市明野南町2丁目1－1－2有料老人ホーム福寿の郷 有料老人ホーム福寿の郷",
    "lat": 33.2255644,
    "lng": 131.6478945,
    "tel": "097-574-4488",
    "url": "福寿の郷.com",
    "pref": "大分県",
    "city": "大分市",
    "category": "day_service",
    "serviceType": "通所介護",
    "capacity": null,
    "openDays": [
      "平日"
    ],
    "openDaysNote": ""
  },
  {
    "id": "4470111685",
    "name": "デイサービスCLUBFOOT",
    "kana": "デイサービスクラブフット",
    "address": "大分市大字千歳字米竹1760番1",
    "lat": 33.2385937,
    "lng": 131.6722509,
    "tel": "097-547-8490",
    "url": "https://smile-lib.com",
    "pref": "大分県",
    "city": "大分市",
    "category": "day_service",
    "serviceType": "通所介護",
    "capacity": 0,
    "openDays": [
      "平日",
      "土曜日",
      "日曜日",
      "祝日"
    ],
    "openDaysNote": ""
  },
  {
    "id": "4470105034",
    "name": "デイサービスおおつか",
    "kana": "デイサービスオオツカ",
    "address": "大分市住吉町1丁目2番16号",
    "lat": 33.2454017,
    "lng": 131.6052558,
    "tel": "097-535-1222",
    "url": "http://www.otsuka-mc.jp/",
    "pref": "大分県",
    "city": "大分市",
    "category": "day_service",
    "serviceType": "通所介護",
    "capacity": 0,
    "openDays": [
      "平日",
      "土曜日",
      "祝日"
    ],
    "openDaysNote": ""
  },
  {
    "id": "4470111917",
    "name": "デイサービスオルタナここ笑み",
    "kana": "デイサービスオルタナココエミ",
    "address": "大分県大分市大字寒田字-池添1044-1",
    "lat": 33.1823926,
    "lng": 131.6049242,
    "tel": "097-568-7711",
    "url": "https://cocoemi.net",
    "pref": "大分県",
    "city": "大分市",
    "category": "day_service",
    "serviceType": "通所介護",
    "capacity": null,
    "openDays": [
      "平日",
      "土曜日",
      "祝日"
    ],
    "openDaysNote": ""
  },
  {
    "id": "4470107857",
    "name": "デイサービスかつらぎ",
    "kana": "デイサービスカツラギ",
    "address": "大分県大分市大字葛木825番地",
    "lat": 33.2182707,
    "lng": 131.6750506,
    "tel": "097-523-2039",
    "url": "http://care-net.biz/44/hobasira/index.php",
    "pref": "大分県",
    "city": "大分市",
    "category": "day_service",
    "serviceType": "通所介護",
    "capacity": 0,
    "openDays": [
      "平日",
      "土曜日",
      "日曜日",
      "祝日"
    ],
    "openDaysNote": ""
  },
  {
    "id": "4470109663",
    "name": "デイサービスここ笑み",
    "kana": "デイサービスココエミ",
    "address": "大分県大分市判田台南2丁目2-1-1",
    "lat": 33.1606832,
    "lng": 131.6292267,
    "tel": "097-574-5811",
    "url": "https://cocoemi.net",
    "pref": "大分県",
    "city": "大分市",
    "category": "day_service",
    "serviceType": "通所介護",
    "capacity": 39,
    "openDays": [
      "平日",
      "土曜日",
      "日曜日",
      "祝日"
    ],
    "openDaysNote": ""
  },
  {
    "id": "4470107592",
    "name": "デイサービスさとしん",
    "kana": "デイサービスサトシン",
    "address": "大分県大分市大字曲597番地",
    "lat": 33.1921745,
    "lng": 131.6252271,
    "tel": "097-560-0392",
    "url": "",
    "pref": "大分県",
    "city": "大分市",
    "category": "day_service",
    "serviceType": "通所介護",
    "capacity": 0,
    "openDays": [
      "平日",
      "土曜日",
      "日曜日",
      "祝日"
    ],
    "openDaysNote": ""
  },
  {
    "id": "4470102171",
    "name": "ディサービスすこやか",
    "kana": "ディサービススコヤカ",
    "address": "大分県大分市大字津留字六本松1970-7",
    "lat": 33.2334264,
    "lng": 131.6296164,
    "tel": "097-504-7728",
    "url": "http://www.oita-iryou.coop",
    "pref": "大分県",
    "city": "大分市",
    "category": "day_service",
    "serviceType": "通所介護",
    "capacity": null,
    "openDays": [
      "平日",
      "土曜日",
      "祝日"
    ],
    "openDaysNote": ""
  },
  {
    "id": "4470111594",
    "name": "デイサービスセンター　アリエ",
    "kana": "デイサービスセンター　アリエ",
    "address": "大分県大分市明野北五丁目１番５号",
    "lat": 33.2257044,
    "lng": 131.658786,
    "tel": "097-547-8605",
    "url": "http://torefuru001.html.xdomain.jp/",
    "pref": "大分県",
    "city": "大分市",
    "category": "day_service",
    "serviceType": "通所介護",
    "capacity": null,
    "openDays": [
      "平日",
      "土曜日",
      "日曜日",
      "祝日"
    ],
    "openDaysNote": ""
  },
  {
    "id": "4470108384",
    "name": "デイサービスセンター　かざおと",
    "kana": "デイサービスセンター　カザオト",
    "address": "大分県大分市三芳字庄原1296番地18グランドホーム　祥雲 グランドホーム　祥雲",
    "lat": 33.2258830297186,
    "lng": 131.577580456639,
    "tel": "097-545-3553",
    "url": "http://kabujuun.wixsite.com/syoun",
    "pref": "大分県",
    "city": "大分市",
    "category": "day_service",
    "serviceType": "通所介護",
    "capacity": 0,
    "openDays": [
      "平日",
      "土曜日",
      "日曜日",
      "祝日"
    ],
    "openDaysNote": ""
  },
  {
    "id": "4470104078",
    "name": "デイサービスセンター　かざぐるま",
    "kana": "デイサービスセンター　カザグルマ",
    "address": "大分県大分市荏隈1220番地の23",
    "lat": 33.2115312,
    "lng": 131.576645,
    "tel": "097-549-6800",
    "url": "https://www.shikisai-oita.com/",
    "pref": "大分県",
    "city": "大分市",
    "category": "day_service",
    "serviceType": "通所介護",
    "capacity": 20,
    "openDays": [
      "平日",
      "土曜日",
      "祝日"
    ],
    "openDaysNote": "・土曜日、祝日も関係なく通常どおり営業いたしております。"
  },
  {
    "id": "4470107089",
    "name": "デイサービスセンター　しらかば",
    "kana": "デイサービスセンター　シラカバ",
    "address": "大分県大分市高松東１丁目4－7",
    "lat": 33.2466336,
    "lng": 131.6583735,
    "tel": "097－556－6100",
    "url": "https://care-net.biz/44/shirakaba/",
    "pref": "大分県",
    "city": "大分市",
    "category": "day_service",
    "serviceType": "通所介護",
    "capacity": 30,
    "openDays": [
      "平日",
      "土曜日",
      "日曜日",
      "祝日"
    ],
    "openDaysNote": "大雨・台風等気象状況により臨時休業する事がある"
  },
  {
    "id": "4470108442",
    "name": "デイサービスセンター　だいなんの郷",
    "kana": "デイサービスセンター　ダイナンノサト",
    "address": "高江北１丁目１７－３住宅型有料老人ホーム　だいなんの郷 住宅型有料老人ホーム　だいなんの郷",
    "lat": 33.1714011,
    "lng": 131.6196142,
    "tel": "097-535-7070",
    "url": "",
    "pref": "大分県",
    "city": "大分市",
    "category": "day_service",
    "serviceType": "通所介護",
    "capacity": 35,
    "openDays": [
      "平日",
      "土曜日",
      "祝日"
    ],
    "openDaysNote": "内容によっては、時間曜日関係なく随時対応。"
  },
  {
    "id": "4470110554",
    "name": "デイサービスセンター　だんのはるの郷",
    "kana": "デイサービスセンター　ダンノハルノサト",
    "address": "高江北1丁目１７－１",
    "lat": 33.1714012,
    "lng": 131.6198253,
    "tel": "097-529-6033",
    "url": "",
    "pref": "大分県",
    "city": "大分市",
    "category": "day_service",
    "serviceType": "通所介護",
    "capacity": 0,
    "openDays": [
      "平日",
      "土曜日",
      "祝日"
    ],
    "openDaysNote": "デイサービス提供時間"
  },
  {
    "id": "4470107071",
    "name": "デイサービスセンター　はんだの郷",
    "kana": "デイサービスセンター　ハンダノサト",
    "address": "大分県大分市判田台北４丁目１番２番",
    "lat": 33.1617107,
    "lng": 131.6291136,
    "tel": "097-560-4441",
    "url": "",
    "pref": "大分県",
    "city": "大分市",
    "category": "day_service",
    "serviceType": "通所介護",
    "capacity": 0,
    "openDays": [
      "平日",
      "土曜日",
      "日曜日",
      "祝日"
    ],
    "openDaysNote": "1月1日のサービス提供時間は、8時40分～16時00分となっています。日曜日対応となります。"
  },
  {
    "id": "4470108806",
    "name": "デイサービスセンター　ほなみ",
    "kana": "デイサービスセンターホナミ",
    "address": "大分県大分市坂ノ市南３丁目９番３６号",
    "lat": 33.2296187,
    "lng": 131.7535765,
    "tel": "097-599-7320",
    "url": "http://honami-g.com/",
    "pref": "大分県",
    "city": "大分市",
    "category": "day_service",
    "serviceType": "通所介護",
    "capacity": 0,
    "openDays": [
      "平日",
      "土曜日",
      "祝日"
    ],
    "openDaysNote": ""
  },
  {
    "id": "4470110042",
    "name": "デイサービスセンター　メモリー猪野",
    "kana": "デイサービスセンター　メモリーイノ",
    "address": "大分県大分市猪野５６７－３メモリー猪野 メモリー猪野",
    "lat": 33.2267388859791,
    "lng": 131.667795696326,
    "tel": "097-535-7888",
    "url": "",
    "pref": "大分県",
    "city": "大分市",
    "category": "day_service",
    "serviceType": "通所介護",
    "capacity": null,
    "openDays": [
      "平日",
      "土曜日",
      "日曜日",
      "祝日"
    ],
    "openDaysNote": ""
  },
  {
    "id": "4470109093",
    "name": "デイサービスセンター　ゆいの杜",
    "kana": "デイサービスセンター　ユイノモリ",
    "address": "大分県大分市大字田尻53－1",
    "lat": 33.192033589808,
    "lng": 131.594658812797,
    "tel": "097－578－7766",
    "url": "http://www.kcc-fukushi.co.jp",
    "pref": "大分県",
    "city": "大分市",
    "category": "day_service",
    "serviceType": "通所介護",
    "capacity": 20,
    "openDays": [
      "平日",
      "祝日"
    ],
    "openDaysNote": ""
  },
  {
    "id": "4470109234",
    "name": "デイサービスセンター　魁",
    "kana": "デイサービスセンター　サキガケ",
    "address": "大分市城南北二丁目2番10号",
    "lat": 33.2221163293539,
    "lng": 131.583732457234,
    "tel": "097-578-8538",
    "url": "http://grandhome-yakumo.com/corporate/",
    "pref": "大分県",
    "city": "大分市",
    "category": "day_service",
    "serviceType": "通所介護",
    "capacity": 0,
    "openDays": [
      "平日",
      "土曜日",
      "日曜日",
      "祝日"
    ],
    "openDaysNote": ""
  },
  {
    "id": "4470103088",
    "name": "デイサービスセンター　浮き雲",
    "kana": "デイサービスセンター　ウキグモ",
    "address": "大分県大分市大字田尻字中ノ尾1100番地の165",
    "lat": 33.1778120383426,
    "lng": 131.593284544192,
    "tel": "097-568-8898",
    "url": "",
    "pref": "大分県",
    "city": "大分市",
    "category": "day_service",
    "serviceType": "通所介護",
    "capacity": 35,
    "openDays": [
      "平日",
      "土曜日",
      "祝日"
    ],
    "openDaysNote": ""
  },
  {
    "id": "4470107188",
    "name": "デイサービスセンターアザレア",
    "kana": "デイサービスセンターアザレア",
    "address": "大分県大分市下判田205番地8",
    "lat": 33.1710409243153,
    "lng": 131.635881890074,
    "tel": "097-597-6520",
    "url": "https://meguminokai.co.jp",
    "pref": "大分県",
    "city": "大分市",
    "category": "day_service",
    "serviceType": "通所介護",
    "capacity": 0,
    "openDays": [
      "平日",
      "土曜日",
      "日曜日",
      "祝日"
    ],
    "openDaysNote": ""
  },
  {
    "id": "4470111693",
    "name": "デイサービスセンターあしすと",
    "kana": "デイサービスセンターアシスト",
    "address": "大字永興846番地サービス付き高齢者向け住宅あしすと サービス付き高齢者向け住宅あしすと",
    "lat": 33.2214452,
    "lng": 131.5800022,
    "tel": "097-543-4141",
    "url": "",
    "pref": "大分県",
    "city": "大分市",
    "category": "day_service",
    "serviceType": "通所介護",
    "capacity": null,
    "openDays": [
      "平日",
      "土曜日",
      "祝日"
    ],
    "openDaysNote": ""
  },
  {
    "id": "4470107725",
    "name": "デイサービスセンターあんじゅ",
    "kana": "デイサービスセンターアンジュ",
    "address": "大分県大分市大字森731-1有料老人ホーム安寿の森 有料老人ホーム安寿の森",
    "lat": 33.2213317,
    "lng": 131.6789557,
    "tel": "097-523-2325",
    "url": "https://anjyunomoriweb.wixsite.com/anjyunomori",
    "pref": "大分県",
    "city": "大分市",
    "category": "day_service",
    "serviceType": "通所介護",
    "capacity": 0,
    "openDays": [
      "平日",
      "土曜日",
      "祝日"
    ],
    "openDaysNote": "正月は1日・2日は休日"
  },
  {
    "id": "4470107675",
    "name": "デイサービスセンターイルカ",
    "kana": "デイサアビスセンタアイルカ",
    "address": "大分県大分市大字曲949番地1",
    "lat": 33.1993787,
    "lng": 131.6116086,
    "tel": "097-568-2220",
    "url": "http://www.small-west.net",
    "pref": "大分県",
    "city": "大分市",
    "category": "day_service",
    "serviceType": "通所介護",
    "capacity": 0,
    "openDays": [
      "平日",
      "土曜日",
      "日曜日",
      "祝日"
    ],
    "openDaysNote": ""
  },
  {
    "id": "4470110349",
    "name": "デイサービスセンターイルカテラス",
    "kana": "デイサアビスセンタアイルカテラス",
    "address": "大分県大分市大字片島445番地1",
    "lat": 33.215322,
    "lng": 131.6227072,
    "tel": "097-504-7555",
    "url": "http://www.small-west.net",
    "pref": "大分県",
    "city": "大分市",
    "category": "day_service",
    "serviceType": "通所介護",
    "capacity": 0,
    "openDays": [
      "平日",
      "土曜日",
      "日曜日",
      "祝日"
    ],
    "openDaysNote": ""
  },
  {
    "id": "4470102908",
    "name": "デイサービスセンターうさぎとかめ",
    "kana": "デイサービスセンターウサギトカメ",
    "address": "大分市緑が丘４丁目２６番８号",
    "lat": 33.1820762375993,
    "lng": 131.528920962566,
    "tel": "097-542-6638",
    "url": "https://usagi-kame.com/",
    "pref": "大分県",
    "city": "大分市",
    "category": "day_service",
    "serviceType": "通所介護",
    "capacity": 0,
    "openDays": [
      "平日",
      "土曜日",
      "日曜日",
      "祝日"
    ],
    "openDaysNote": ""
  },
  {
    "id": "4470108103",
    "name": "デイサービスセンターくじら",
    "kana": "デイサービスセンタークジラ",
    "address": "大分県大分市中春日町166番地翼ビル１F 翼ビル１F",
    "lat": 33.2389102,
    "lng": 131.5957598,
    "tel": "097-538-1009",
    "url": "",
    "pref": "大分県",
    "city": "大分市",
    "category": "day_service",
    "serviceType": "通所介護",
    "capacity": 0,
    "openDays": [
      "平日",
      "土曜日",
      "祝日"
    ],
    "openDaysNote": "夏季休暇・冬季休暇は変更する場合があります。"
  },
  {
    "id": "4470112311",
    "name": "デイサービスセンタージーナ",
    "kana": "デイサービスセンタージーナ",
    "address": "大分県大分市寒田１１１６番地の10",
    "lat": 33.189914,
    "lng": 131.6123889,
    "tel": "097-567-8881",
    "url": "",
    "pref": "大分県",
    "city": "大分市",
    "category": "day_service",
    "serviceType": "通所介護",
    "capacity": null,
    "openDays": [
      "平日",
      "土曜日"
    ],
    "openDaysNote": ""
  },
  {
    "id": "4470111537",
    "name": "デイサービスセンタージーナ",
    "kana": "デイサービスセンタージーナ",
    "address": "大分県大分市大字寒田1116番地の10",
    "lat": 33.1898946,
    "lng": 131.612404,
    "tel": "097-567-8881",
    "url": "",
    "pref": "大分県",
    "city": "大分市",
    "category": "day_service",
    "serviceType": "通所介護",
    "capacity": 0,
    "openDays": [
      "平日",
      "土曜日",
      "祝日"
    ],
    "openDaysNote": ""
  },
  {
    "id": "4470108913",
    "name": "デイサービスセンターすずね",
    "kana": "デイサービスセンタースズネ",
    "address": "大分県大分市羽屋4－3－3",
    "lat": 33.2110213,
    "lng": 131.6002761,
    "tel": "097-546-3885",
    "url": "http://meguminokai.co.jp",
    "pref": "大分県",
    "city": "大分市",
    "category": "day_service",
    "serviceType": "通所介護",
    "capacity": 0,
    "openDays": [
      "平日",
      "土曜日",
      "日曜日",
      "祝日"
    ],
    "openDaysNote": ""
  },
  {
    "id": "4470108277",
    "name": "デイサービスセンターせつげっか",
    "kana": "デイサービスセンターセツゲッカ",
    "address": "大分県大分市三川上1丁目4番28号",
    "lat": 33.2435326,
    "lng": 131.6769039,
    "tel": "097-551-6200",
    "url": "meguminokai.co.jp/",
    "pref": "大分県",
    "city": "大分市",
    "category": "day_service",
    "serviceType": "通所介護",
    "capacity": 0,
    "openDays": [
      "平日",
      "土曜日",
      "日曜日",
      "祝日"
    ],
    "openDaysNote": ""
  },
  {
    "id": "4470101744",
    "name": "デイサービスセンターそよ風",
    "kana": "デイサービスセンターソヨカゼ",
    "address": "大分市生石1丁目80番",
    "lat": 33.2443261461234,
    "lng": 131.586330845508,
    "tel": "097-533-7850",
    "url": "",
    "pref": "大分県",
    "city": "大分市",
    "category": "day_service",
    "serviceType": "通所介護",
    "capacity": null,
    "openDays": [
      "平日",
      "土曜日",
      "祝日"
    ],
    "openDaysNote": ""
  },
  {
    "id": "4470112303",
    "name": "デイサービスセンターたかはし",
    "kana": "デイサービスセンタータカハシ",
    "address": "大分県大分市大字寒田1048番地1",
    "lat": 33.1873759764592,
    "lng": 131.611468789996,
    "tel": "097-574-8973",
    "url": "http://www.takahasi-hp.net/kaigo.html",
    "pref": "大分県",
    "city": "大分市",
    "category": "day_service",
    "serviceType": "通所介護",
    "capacity": null,
    "openDays": [
      "平日",
      "土曜日",
      "祝日"
    ],
    "openDaysNote": ""
  },
  {
    "id": "4470110422",
    "name": "デイサービスセンターたかはし",
    "kana": "デイサービスセンタータカハシ",
    "address": "大分県大分市大字寒田1048番地1",
    "lat": 33.1873921769726,
    "lng": 131.611419929551,
    "tel": "097-574-8973",
    "url": "kaigo.en@kohsin0008.jp",
    "pref": "大分県",
    "city": "大分市",
    "category": "day_service",
    "serviceType": "通所介護",
    "capacity": 0,
    "openDays": [
      "平日",
      "土曜日",
      "祝日"
    ],
    "openDaysNote": ""
  },
  {
    "id": "4470107097",
    "name": "デイサービスセンターつながり",
    "kana": "デイサービスセンターツナガリ",
    "address": "大分県大分市大字政所　3365-1サービス付き高齢者向け住宅　つながりの郷 サービス付き高齢者向け住宅　つながりの郷",
    "lat": 33.2373668,
    "lng": 131.717324,
    "tel": "097-574-8220",
    "url": "http://www.kcc-fukushi.co.jp/tsunagari/",
    "pref": "大分県",
    "city": "大分市",
    "category": "day_service",
    "serviceType": "通所介護",
    "capacity": 30,
    "openDays": [
      "平日",
      "土曜日",
      "祝日"
    ],
    "openDaysNote": "営業日、月曜日から土曜日までとする。但し、年末年始は12月31日から1月3日まで休業とする。"
  },
  {
    "id": "4470111495",
    "name": "デイサービスセンターはなえみ",
    "kana": "デイサービスセンターハナエミ",
    "address": "大分県大分市曙台4丁目1-2",
    "lat": 33.2363148,
    "lng": 131.7291491,
    "tel": "097-578-7911",
    "url": "",
    "pref": "大分県",
    "city": "大分市",
    "category": "day_service",
    "serviceType": "通所介護",
    "capacity": 0,
    "openDays": [
      "平日",
      "祝日"
    ],
    "openDaysNote": ""
  },
  {
    "id": "4470107758",
    "name": "デイサービスセンターはなみずき",
    "kana": "デイサービスセンターハナミズキ",
    "address": "大分県大分市高城新町12番12号",
    "lat": 33.2428809,
    "lng": 131.6539517,
    "tel": "097-552-8800",
    "url": "meguminokai.co.jp/",
    "pref": "大分県",
    "city": "大分市",
    "category": "day_service",
    "serviceType": "通所介護",
    "capacity": 0,
    "openDays": [
      "平日",
      "土曜日",
      "日曜日",
      "祝日"
    ],
    "openDaysNote": ""
  },
  {
    "id": "4470106834",
    "name": "デイサービスセンターはるか",
    "kana": "デイサービスセンターハルカ",
    "address": "大分県大分市大字下徳丸字上鶴52-1番地",
    "lat": 33.2112581,
    "lng": 131.6900439,
    "tel": "097-522-3300",
    "url": "http://yamanokai.co.jp/index.html",
    "pref": "大分県",
    "city": "大分市",
    "category": "day_service",
    "serviceType": "通所介護",
    "capacity": null,
    "openDays": [
      "平日",
      "土曜日",
      "日曜日",
      "祝日"
    ],
    "openDaysNote": ""
  },
  {
    "id": "4470107006",
    "name": "デイサービスセンターひまわり",
    "kana": "デイサービスセンターヒマワリ",
    "address": "大分県大分市大字太田３２６番地の３",
    "lat": 33.1436389,
    "lng": 131.5019365,
    "tel": "097-588-2201",
    "url": "",
    "pref": "大分県",
    "city": "大分市",
    "category": "day_service",
    "serviceType": "通所介護",
    "capacity": 32,
    "openDays": [
      "平日",
      "土曜日",
      "祝日"
    ],
    "openDaysNote": ""
  },
  {
    "id": "4470107808",
    "name": "デイサービスセンターふれあい",
    "kana": "デイサービスセンターフレアイ",
    "address": "大分県大分市新貝７番２９号",
    "lat": 33.2465249,
    "lng": 131.6469076,
    "tel": "097-551-3305",
    "url": "",
    "pref": "大分県",
    "city": "大分市",
    "category": "day_service",
    "serviceType": "通所介護",
    "capacity": null,
    "openDays": [
      "平日",
      "土曜日",
      "日曜日",
      "祝日"
    ],
    "openDaysNote": ""
  },
  {
    "id": "4470107576",
    "name": "デイサービスセンターぽっぽっぽはとぽっぽ",
    "kana": "デイサービスセンターポッポッポハトポッポ",
    "address": "廻栖野字田吹原3231-45",
    "lat": 33.1712605,
    "lng": 131.5407178,
    "tel": "097-586-4155",
    "url": "https://usagi-kame.com/",
    "pref": "大分県",
    "city": "大分市",
    "category": "day_service",
    "serviceType": "通所介護",
    "capacity": 0,
    "openDays": [
      "平日",
      "土曜日",
      "日曜日",
      "祝日"
    ],
    "openDaysNote": ""
  },
  {
    "id": "4470108418",
    "name": "デイサービスセンターほのか",
    "kana": "デイサービスセンターホノカ",
    "address": "大分県大分市大字下郡字尻込3708番地19",
    "lat": 33.2289678418262,
    "lng": 131.626170874083,
    "tel": "097-568-3355",
    "url": "meguminokai.co.jp/",
    "pref": "大分県",
    "city": "大分市",
    "category": "day_service",
    "serviceType": "通所介護",
    "capacity": 0,
    "openDays": [
      "平日",
      "土曜日",
      "日曜日",
      "祝日"
    ],
    "openDaysNote": ""
  },
  {
    "id": "4470109325",
    "name": "デイサービスセンターぽれぽれ",
    "kana": "デイサービスセンターポレポレ",
    "address": "大分県大分市大字津守824番地の4",
    "lat": 33.2091419,
    "lng": 131.6178717,
    "tel": "097‐504-7245",
    "url": "http://i-kyouseinokai.com/",
    "pref": "大分県",
    "city": "大分市",
    "category": "day_service",
    "serviceType": "通所介護",
    "capacity": 25,
    "openDays": [
      "平日",
      "土曜日",
      "祝日"
    ],
    "openDaysNote": ""
  },
  {
    "id": "4470109077",
    "name": "デイサービスセンターマイウェイ",
    "kana": "デイサービスセンターマイウェイ",
    "address": "大字永興846番地サービス付き高齢者向け住宅あしすと サービス付き高齢者向け住宅あしすと",
    "lat": 33.2214666,
    "lng": 131.5798225,
    "tel": "097-543-4141",
    "url": "",
    "pref": "大分県",
    "city": "大分市",
    "category": "day_service",
    "serviceType": "通所介護",
    "capacity": 0,
    "openDays": [
      "平日",
      "土曜日",
      "祝日"
    ],
    "openDaysNote": ""
  },
  {
    "id": "4470107212",
    "name": "デイサービスセンターみくに小町",
    "kana": "デイサービスセンターミクニコマチ",
    "address": "大分市大字旦野原１６７番地みくにハートヒルズ響 みくにハートヒルズ響",
    "lat": 33.1767915,
    "lng": 131.6066066,
    "tel": "097-568-3920",
    "url": "mikuni392.com",
    "pref": "大分県",
    "city": "大分市",
    "category": "day_service",
    "serviceType": "通所介護",
    "capacity": null,
    "openDays": [
      "平日",
      "祝日"
    ],
    "openDaysNote": ""
  },
  {
    "id": "4470111115",
    "name": "デイサービスセンターめいわ",
    "kana": "デイサービスセンターメイワ",
    "address": "大分県大分市花津留１丁目１１番１５号",
    "lat": 33.2453837,
    "lng": 131.632869,
    "tel": "097-552-2001",
    "url": "",
    "pref": "大分県",
    "city": "大分市",
    "category": "day_service",
    "serviceType": "通所介護",
    "capacity": null,
    "openDays": [
      "平日",
      "土曜日"
    ],
    "openDaysNote": ""
  },
  {
    "id": "4470111438",
    "name": "デイサービスセンターメモリー賀来南",
    "kana": "デイサービスセンターカクミナミ",
    "address": "大分県大分市賀来南1丁目4番32号有料老人ホームメモリー賀来南 有料老人ホームメモリー賀来南",
    "lat": 33.2106822,
    "lng": 131.568577,
    "tel": "097-549-0088",
    "url": "https://www.sephaid-memory.co.jp",
    "pref": "大分県",
    "city": "大分市",
    "category": "day_service",
    "serviceType": "通所介護",
    "capacity": null,
    "openDays": [
      "平日",
      "土曜日",
      "日曜日",
      "祝日"
    ],
    "openDaysNote": ""
  },
  {
    "id": "4470111016",
    "name": "デイサービスセンターメモリー三芳",
    "kana": "デイサービスセンターミヨシ",
    "address": "大分県大分市大字三芳1065番1有料老人ホームメモリー三芳 有料老人ホームメモリー三芳",
    "lat": 33.2256697,
    "lng": 131.5899514,
    "tel": "097-546-5005",
    "url": "https://www.sephaid-memory.co.jp/",
    "pref": "大分県",
    "city": "大分市",
    "category": "day_service",
    "serviceType": "通所介護",
    "capacity": null,
    "openDays": [
      "平日",
      "土曜日",
      "日曜日",
      "祝日"
    ],
    "openDaysNote": ""
  },
  {
    "id": "4470107626",
    "name": "デイサービスセンターメモリー津守",
    "kana": "デイサービスセンターメモリーツモリ",
    "address": "大分県大分市大字津守392番地3",
    "lat": 33.2111111,
    "lng": 131.6166329,
    "tel": "097-567-3946",
    "url": "https://www.sephaid-memory.co.jp/",
    "pref": "大分県",
    "city": "大分市",
    "category": "day_service",
    "serviceType": "通所介護",
    "capacity": 60,
    "openDays": [
      "平日",
      "土曜日",
      "日曜日",
      "祝日"
    ],
    "openDaysNote": ""
  },
  {
    "id": "4470109622",
    "name": "デイサービスセンターメモリー明野北",
    "kana": "デイサービスセンターメモリーアケノキタ",
    "address": "大分県大分市明野北３丁目３番１号",
    "lat": 33.2305819332782,
    "lng": 131.654689141,
    "tel": "097-574-6661",
    "url": "",
    "pref": "大分県",
    "city": "大分市",
    "category": "day_service",
    "serviceType": "通所介護",
    "capacity": 0,
    "openDays": [
      "平日",
      "土曜日",
      "日曜日",
      "祝日"
    ],
    "openDaysNote": ""
  },
  {
    "id": "4470110455",
    "name": "デイサービスセンターメモリー明野北Ⅱ",
    "kana": "デイサービスセンターメモリーアケノキタツー",
    "address": "明野北３丁目３番９号",
    "lat": 33.2313627,
    "lng": 131.6553436,
    "tel": "０９７－５５２－００１０",
    "url": "https://www.sephaid-memory.co.jp/",
    "pref": "大分県",
    "city": "大分市",
    "category": "day_service",
    "serviceType": "通所介護",
    "capacity": 0,
    "openDays": [
      "平日",
      "土曜日",
      "日曜日",
      "祝日"
    ],
    "openDaysNote": ""
  },
  {
    "id": "4470111552",
    "name": "デイサービスセンターメモリー木上",
    "kana": "デイサービスセンターメモリーキノウエ",
    "address": "大分県大分市大字木上567番地1",
    "lat": 33.181414,
    "lng": 131.5618527,
    "tel": "975410003",
    "url": "https://www.sephaid-memory.co.jp",
    "pref": "大分県",
    "city": "大分市",
    "category": "day_service",
    "serviceType": "通所介護",
    "capacity": null,
    "openDays": [
      "平日",
      "土曜日",
      "日曜日",
      "祝日"
    ],
    "openDaysNote": ""
  },
  {
    "id": "4470111750",
    "name": "デイサービスセンターやさしさPlus",
    "kana": "デイサービスセンターヤサシサプラス",
    "address": "角子原１丁目11番41号",
    "lat": 33.2485308,
    "lng": 131.7100859,
    "tel": "097-578-9813",
    "url": "https://careplus-oita.com/",
    "pref": "大分県",
    "city": "大分市",
    "category": "day_service",
    "serviceType": "通所介護",
    "capacity": 0,
    "openDays": [
      "平日",
      "土曜日",
      "日曜日",
      "祝日"
    ],
    "openDaysNote": ""
  },
  {
    "id": "4470109069",
    "name": "デイサービスセンターゆう",
    "kana": "デイサービスセンターユウ",
    "address": "大分県大分市大字葛木816番地",
    "lat": 33.2182707,
    "lng": 131.6750506,
    "tel": "097-523-2282",
    "url": "care-net.biz/44/hobasira/company.php",
    "pref": "大分県",
    "city": "大分市",
    "category": "day_service",
    "serviceType": "通所介護",
    "capacity": 0,
    "openDays": [
      "平日",
      "土曜日",
      "祝日"
    ],
    "openDaysNote": ""
  },
  {
    "id": "4470105554",
    "name": "デイサービスセンターゆらら",
    "kana": "デイサービスセンターユララ",
    "address": "大分県大分市大字曲283番地",
    "lat": 33.1996838606327,
    "lng": 131.617140220902,
    "tel": "097-504-7800",
    "url": "http://k-suwanomori.com",
    "pref": "大分県",
    "city": "大分市",
    "category": "day_service",
    "serviceType": "通所介護",
    "capacity": 0,
    "openDays": [
      "平日",
      "土曜日",
      "祝日"
    ],
    "openDaysNote": ""
  },
  {
    "id": "4470109721",
    "name": "デイサービスセンター花ごころ",
    "kana": "デイサービスセンターハナゴコロ",
    "address": "大分県大分市大字上戸次６０６７番地",
    "lat": 33.1429524584679,
    "lng": 131.659538796104,
    "tel": "097-597-5660",
    "url": "",
    "pref": "大分県",
    "city": "大分市",
    "category": "day_service",
    "serviceType": "通所介護",
    "capacity": 22,
    "openDays": [
      "平日",
      "土曜日",
      "祝日"
    ],
    "openDaysNote": ""
  },
  {
    "id": "4470109499",
    "name": "デイサービスセンター花咲の里",
    "kana": "デイサービスセンターハナサキノサト",
    "address": "花高松2丁目10-39",
    "lat": 33.2509974,
    "lng": 131.6658449,
    "tel": "097-529-7455",
    "url": "",
    "pref": "大分県",
    "city": "大分市",
    "category": "day_service",
    "serviceType": "通所介護",
    "capacity": 20,
    "openDays": [
      "平日",
      "土曜日",
      "祝日"
    ],
    "openDaysNote": ""
  },
  {
    "id": "4470108129",
    "name": "デイサービスセンター花埜家",
    "kana": "デイサービスセンターハナノイエ",
    "address": "大分県大分市東原2丁目6番54号",
    "lat": 33.2350477697351,
    "lng": 131.650642584656,
    "tel": "097-574-8259",
    "url": "",
    "pref": "大分県",
    "city": "大分市",
    "category": "day_service",
    "serviceType": "通所介護",
    "capacity": 44,
    "openDays": [
      "平日",
      "土曜日",
      "日曜日",
      "祝日"
    ],
    "openDaysNote": ""
  },
  {
    "id": "4470104672",
    "name": "デイサービスセンター楽",
    "kana": "デイサービスセンター　ラク",
    "address": "大分県大分市大字毛井553－1",
    "lat": 33.1932398,
    "lng": 131.673104,
    "tel": "097－529－9025",
    "url": "http://www.lifely.co.jp",
    "pref": "大分県",
    "city": "大分市",
    "category": "day_service",
    "serviceType": "通所介護",
    "capacity": 0,
    "openDays": [
      "平日",
      "祝日"
    ],
    "openDaysNote": ""
  },
  {
    "id": "4470108731",
    "name": "デイサービスセンター月の舟",
    "kana": "デイサービスセンターツキノフネ",
    "address": "大分県大分市大字城原648-1",
    "lat": 33.2345619,
    "lng": 131.7336476,
    "tel": "097-593-5600",
    "url": "http://www.tukinofune.jp",
    "pref": "大分県",
    "city": "大分市",
    "category": "day_service",
    "serviceType": "通所介護",
    "capacity": 0,
    "openDays": [
      "平日",
      "土曜日",
      "祝日"
    ],
    "openDaysNote": ""
  },
  {
    "id": "4470112154",
    "name": "デイサービスセンター紫苑",
    "kana": "デイサービスセンターシオン",
    "address": "大分県大分市大字森255-1悠久の里三番館敷地内 悠久の里三番館敷地内",
    "lat": 33.2206292015729,
    "lng": 131.683883996959,
    "tel": "097-527-3323",
    "url": "yuku3.com",
    "pref": "大分県",
    "city": "大分市",
    "category": "day_service",
    "serviceType": "通所介護",
    "capacity": null,
    "openDays": [
      "平日",
      "土曜日",
      "日曜日",
      "祝日"
    ],
    "openDaysNote": ""
  },
  {
    "id": "4470111834",
    "name": "デイサービスセンター実の里",
    "kana": "デイサービスセンターミノリ",
    "address": "大分県大分市大字三芳642番地",
    "lat": 33.2260239,
    "lng": 131.5924277,
    "tel": "097-578-8275",
    "url": "",
    "pref": "大分県",
    "city": "大分市",
    "category": "day_service",
    "serviceType": "通所介護",
    "capacity": null,
    "openDays": [
      "平日",
      "土曜日",
      "祝日"
    ],
    "openDaysNote": ""
  },
  {
    "id": "4470109440",
    "name": "デイサービスセンター笑咲",
    "kana": "デイサービスセンターワラサク",
    "address": "大分市大字市字垣ノ内357-6",
    "lat": 33.1861038690526,
    "lng": 131.572638644088,
    "tel": "097-541-6888",
    "url": "http://warasaku.jp",
    "pref": "大分県",
    "city": "大分市",
    "category": "day_service",
    "serviceType": "通所介護",
    "capacity": 40,
    "openDays": [
      "平日",
      "土曜日",
      "祝日"
    ],
    "openDaysNote": ""
  },
  {
    "id": "4470108863",
    "name": "デイサービスセンター仁",
    "kana": "デイサービスセンタージン",
    "address": "大分県大分市大字丹生930番地の12",
    "lat": 33.2175692,
    "lng": 131.7239457,
    "tel": "097-528-9828",
    "url": "",
    "pref": "大分県",
    "city": "大分市",
    "category": "day_service",
    "serviceType": "通所介護",
    "capacity": 0,
    "openDays": [
      "平日",
      "土曜日",
      "日曜日",
      "祝日"
    ],
    "openDaysNote": ""
  },
  {
    "id": "4470102288",
    "name": "デイサービスセンター清流苑",
    "kana": "デイサービスセンターセイリュウエン",
    "address": "大分県大分市大字森400番地１",
    "lat": 33.2167837748511,
    "lng": 131.680886191454,
    "tel": "097-547-7859",
    "url": "http://www.eiseikai.or.jp",
    "pref": "大分県",
    "city": "大分市",
    "category": "day_service",
    "serviceType": "通所介護",
    "capacity": 0,
    "openDays": [
      "平日",
      "土曜日",
      "祝日"
    ],
    "openDaysNote": "盆・年末年始（12/31～1/3）は休み。"
  },
  {
    "id": "4470107238",
    "name": "デイサービスセンター千の郷",
    "kana": "デイサービスセンターセンノサト",
    "address": "大分県大分市中尾４４９番地１",
    "lat": 33.2056721,
    "lng": 131.5559469,
    "tel": "097-578-7805",
    "url": "",
    "pref": "大分県",
    "city": "大分市",
    "category": "day_service",
    "serviceType": "通所介護",
    "capacity": 0,
    "openDays": [
      "平日",
      "祝日"
    ],
    "openDaysNote": ""
  },
  {
    "id": "4470107766",
    "name": "デイサービスセンター千歳",
    "kana": "デイサービスセンターセンザイ",
    "address": "大分県大分市千歳1810番地3",
    "lat": 33.2367478441441,
    "lng": 131.669266316174,
    "tel": "097-551-5686",
    "url": "http://sachinokai.com/",
    "pref": "大分県",
    "city": "大分市",
    "category": "day_service",
    "serviceType": "通所介護",
    "capacity": 0,
    "openDays": [
      "平日",
      "土曜日",
      "日曜日",
      "祝日"
    ],
    "openDaysNote": ""
  },
  {
    "id": "4470101322",
    "name": "デイサービスセンター川添清流苑",
    "kana": "デイサービスセンターカワゾエセイリュウエン",
    "address": "大分県大分市大字種具１４１番地",
    "lat": 33.2064893,
    "lng": 131.6990235,
    "tel": "097-529-2959",
    "url": "https://seiryu-kyousei.org/",
    "pref": "大分県",
    "city": "大分市",
    "category": "day_service",
    "serviceType": "通所介護",
    "capacity": 0,
    "openDays": [
      "平日",
      "土曜日",
      "祝日"
    ],
    "openDaysNote": "特になし。"
  },
  {
    "id": "4470105539",
    "name": "ﾃﾞｲサービスセンター蔵掛母家",
    "kana": "デイサービスセンタークラカケオモヤ",
    "address": "大分県大分市坂ノ市南1-7-26",
    "lat": 33.231685,
    "lng": 131.7497546,
    "tel": "097-524-3855",
    "url": "",
    "pref": "大分県",
    "city": "大分市",
    "category": "day_service",
    "serviceType": "通所介護",
    "capacity": 0,
    "openDays": [
      "平日",
      "土曜日",
      "日曜日",
      "祝日"
    ],
    "openDaysNote": ""
  },
  {
    "id": "4470106206",
    "name": "デイサービスセンター丹生なごみ",
    "kana": "デイサービスセンターニュウナゴミ",
    "address": "大分県大分市大字丹川185番地2デイサービスセンター丹生なごみ デイサービスセンター丹生なごみ",
    "lat": 33.2143028,
    "lng": 131.7190684,
    "tel": "097-574-5753",
    "url": "",
    "pref": "大分県",
    "city": "大分市",
    "category": "day_service",
    "serviceType": "通所介護",
    "capacity": 30,
    "openDays": [
      "平日",
      "土曜日",
      "日曜日",
      "祝日"
    ],
    "openDaysNote": ""
  },
  {
    "id": "4470111172",
    "name": "デイサービスセンター智泉の園",
    "kana": "デイサービスセンターチセンノソノ",
    "address": "大分県大分市荏隈字中洲1230番地",
    "lat": 33.211137,
    "lng": 131.5799673,
    "tel": "097-549-5522",
    "url": "https://www.gotogakuen.ac.jp/chisen-nosono",
    "pref": "大分県",
    "city": "大分市",
    "category": "day_service",
    "serviceType": "通所介護",
    "capacity": 0,
    "openDays": [
      "平日",
      "土曜日",
      "祝日"
    ],
    "openDaysNote": ""
  },
  {
    "id": "4470109291",
    "name": "デイサービスセンター天神ヴィラ",
    "kana": "デイサービスセンター　テンジンウ゛ィラ",
    "address": "大分県大分市大字駄原天神平1670番地1デイサービスセンター天神ヴィラ デイサービスセンター天神ヴィラ",
    "lat": 33.2311752872043,
    "lng": 131.58791399584,
    "tel": "097‐535‐9080",
    "url": "http://isshinkai-oita-kitsuki-jp",
    "pref": "大分県",
    "city": "大分市",
    "category": "day_service",
    "serviceType": "通所介護",
    "capacity": 30,
    "openDays": [
      "平日",
      "土曜日",
      "祝日"
    ],
    "openDaysNote": ""
  },
  {
    "id": "4470106065",
    "name": "デイサービスセンター鳩",
    "kana": "デイサービスセンターキュウ",
    "address": "大分県大分市上宗方1352-1",
    "lat": 33.2023434,
    "lng": 131.5826723,
    "tel": "097-541-6639",
    "url": "http:www,ds-kyu.com",
    "pref": "大分県",
    "city": "大分市",
    "category": "day_service",
    "serviceType": "通所介護",
    "capacity": 6,
    "openDays": [
      "平日",
      "土曜日",
      "日曜日",
      "祝日"
    ],
    "openDaysNote": ""
  },
  {
    "id": "4470102916",
    "name": "デイサービスセンター舞鶴清流苑",
    "kana": "デイサービスセンターマイヅルセイリュウエン",
    "address": "大分県大分市西新地2丁目5番40号",
    "lat": 33.2523074,
    "lng": 131.6249258,
    "tel": "097-573-2088",
    "url": "http://www.eiseikai.or.jp",
    "pref": "大分県",
    "city": "大分市",
    "category": "day_service",
    "serviceType": "通所介護",
    "capacity": 0,
    "openDays": [
      "平日",
      "土曜日",
      "祝日"
    ],
    "openDaysNote": "変更する場合があります。"
  },
  {
    "id": "4470110034",
    "name": "デイサービスセンター風の丘",
    "kana": "デイサービスセンターカゼノオカ",
    "address": "大分県大分市大字旦野原167番地",
    "lat": 33.1767915,
    "lng": 131.6066066,
    "tel": "097-568-3920",
    "url": "",
    "pref": "大分県",
    "city": "大分市",
    "category": "day_service",
    "serviceType": "通所介護",
    "capacity": null,
    "openDays": [
      "平日",
      "祝日"
    ],
    "openDaysNote": ""
  },
  {
    "id": "4470105372",
    "name": "デイサービスセンター風雅",
    "kana": "デイサービスセンター　フウガ",
    "address": "大分県大分市大字三芳288番地1",
    "lat": 33.222509,
    "lng": 131.5988595,
    "tel": "097－535－8900",
    "url": "https://tenjukai.company/free/tokuyou",
    "pref": "大分県",
    "city": "大分市",
    "category": "day_service",
    "serviceType": "通所介護",
    "capacity": 40,
    "openDays": [
      "平日",
      "土曜日",
      "祝日"
    ],
    "openDaysNote": "１２月３１日、１月１日は休業日"
  },
  {
    "id": "4470108939",
    "name": "デイサービスセンター母家",
    "kana": "デイサービスセンターオモヤ",
    "address": "大分県大分市坂ノ市南2-11-29",
    "lat": 33.2284798,
    "lng": 131.7507962,
    "tel": "097-576-7335",
    "url": "",
    "pref": "大分県",
    "city": "大分市",
    "category": "day_service",
    "serviceType": "通所介護",
    "capacity": 0,
    "openDays": [
      "平日",
      "土曜日",
      "日曜日",
      "祝日"
    ],
    "openDaysNote": ""
  },
  {
    "id": "4470108160",
    "name": "デイサービスセンター夢見草",
    "kana": "デイサービスセンターユメミグサ",
    "address": "大分県大分市大字猪野876番地の1",
    "lat": 33.2298358599376,
    "lng": 131.665110224179,
    "tel": "097-547-9688",
    "url": "",
    "pref": "大分県",
    "city": "大分市",
    "category": "day_service",
    "serviceType": "通所介護",
    "capacity": 20,
    "openDays": [
      "平日",
      "土曜日",
      "日曜日",
      "祝日"
    ],
    "openDaysNote": ""
  },
  {
    "id": "4470104458",
    "name": "デイサービスセンター明治清流苑",
    "kana": "デイサービスセンターメイジセイリュウエン",
    "address": "大分県大分市大字猪野729番地1",
    "lat": 33.23228,
    "lng": 131.6688452,
    "tel": "097-524-3330",
    "url": "http://www.seiryu-kyousei.org",
    "pref": "大分県",
    "city": "大分市",
    "category": "day_service",
    "serviceType": "通所介護",
    "capacity": 0,
    "openDays": [
      "平日",
      "土曜日",
      "祝日"
    ],
    "openDaysNote": "変更する場合あり。"
  },
  {
    "id": "4470110885",
    "name": "デイサービスセンター悠映",
    "kana": "デイサービスセンター　ユウバエ",
    "address": "大分県大分市大字羽田其平41-1",
    "lat": 33.2190194519676,
    "lng": 131.636191852153,
    "tel": "097-529-7808",
    "url": "http://yamanokai.co.jp",
    "pref": "大分県",
    "city": "大分市",
    "category": "day_service",
    "serviceType": "通所介護",
    "capacity": 0,
    "openDays": [
      "平日",
      "土曜日",
      "日曜日",
      "祝日"
    ],
    "openDaysNote": ""
  },
  {
    "id": "4470108558",
    "name": "デイサービスセンター悠楽々",
    "kana": "デイサービスセンターユララ",
    "address": "大分県大分市大字森255-1",
    "lat": 33.2205764,
    "lng": 131.6837025,
    "tel": "097-527-3323",
    "url": "http://yamanokai.co.jp/index.html",
    "pref": "大分県",
    "city": "大分市",
    "category": "day_service",
    "serviceType": "通所介護",
    "capacity": null,
    "openDays": [
      "平日",
      "土曜日",
      "日曜日",
      "祝日"
    ],
    "openDaysNote": ""
  },
  {
    "id": "4470110448",
    "name": "デイサービスセンター悠藤里",
    "kana": "デイサービスセンターユトリ",
    "address": "大分県大分市大字横尾3647-1",
    "lat": 33.2127667507618,
    "lng": 131.666992339638,
    "tel": "097-535-7336",
    "url": "http://yukyu-yokoo.com/",
    "pref": "大分県",
    "city": "大分市",
    "category": "day_service",
    "serviceType": "通所介護",
    "capacity": null,
    "openDays": [
      "平日",
      "土曜日",
      "日曜日",
      "祝日"
    ],
    "openDaysNote": ""
  },
  {
    "id": "4470106750",
    "name": "デイサービスセンター陽だまり",
    "kana": "デイサービスセンターヒダマリ",
    "address": "大分県大分市千歳1770番地5",
    "lat": 33.2376933,
    "lng": 131.6690672,
    "tel": "097-556-7661",
    "url": "meguminokai.co.jp",
    "pref": "大分県",
    "city": "大分市",
    "category": "day_service",
    "serviceType": "通所介護",
    "capacity": 0,
    "openDays": [
      "平日",
      "土曜日",
      "日曜日",
      "祝日"
    ],
    "openDaysNote": ""
  },
  {
    "id": "4470112147",
    "name": "デイサービスセンター鈴蘭",
    "kana": "デイサービスセンタースズラン",
    "address": "大分県大分市大字森町255-1悠久の里三番館敷地内 悠久の里三番館敷地内",
    "lat": 33.2206579433704,
    "lng": 131.683843618663,
    "tel": "097-527-3323",
    "url": "yuku3.com",
    "pref": "大分県",
    "city": "大分市",
    "category": "day_service",
    "serviceType": "通所介護",
    "capacity": null,
    "openDays": [
      "平日",
      "土曜日",
      "日曜日",
      "祝日"
    ],
    "openDaysNote": ""
  },
  {
    "id": "4470107402",
    "name": "デイサービスたかまつ",
    "kana": "デイサービスタカマツ",
    "address": "大分県大分市高松１丁目９番33号",
    "lat": 33.2469195,
    "lng": 131.6552765,
    "tel": "097-574-8456",
    "url": "ｈｔｔｐ：//ｗｗｗ．ｏｉｔａ－ｍｉｎ．ｏｒ．ｊｐ",
    "pref": "大分県",
    "city": "大分市",
    "category": "day_service",
    "serviceType": "通所介護",
    "capacity": 0,
    "openDays": [
      "平日",
      "土曜日",
      "祝日"
    ],
    "openDaysNote": "年始１月1日～3日まで休業"
  },
  {
    "id": "4470111149",
    "name": "デイサービスてぃーだ",
    "kana": "デイサービスティーダ",
    "address": "大分県大分市大字常行140番1",
    "lat": 33.2168696,
    "lng": 131.6898639,
    "tel": "097-578-8225",
    "url": "https://www.mirai-no-oto.com",
    "pref": "大分県",
    "city": "大分市",
    "category": "day_service",
    "serviceType": "通所介護",
    "capacity": 0,
    "openDays": [
      "平日",
      "土曜日",
      "祝日"
    ],
    "openDaysNote": ""
  },
  {
    "id": "4470110786",
    "name": "デイサービスなないろ",
    "kana": "デイサービス　ナナイロ",
    "address": "大字常行211番1",
    "lat": 33.21624,
    "lng": 131.6872012,
    "tel": "097-547-9229",
    "url": "",
    "pref": "大分県",
    "city": "大分市",
    "category": "day_service",
    "serviceType": "通所介護",
    "capacity": 0,
    "openDays": [
      "平日",
      "土曜日"
    ],
    "openDaysNote": ""
  },
  {
    "id": "4470104029",
    "name": "デイサービスひだまりの里",
    "kana": "デイサービスヒダマリノサト",
    "address": "大分県大分市大字中戸次4339番地の14",
    "lat": 33.1523319,
    "lng": 131.6585892,
    "tel": "097-597-6033",
    "url": "http://www.sunsunkai.com/",
    "pref": "大分県",
    "city": "大分市",
    "category": "day_service",
    "serviceType": "通所介護",
    "capacity": 27,
    "openDays": [
      "平日",
      "土曜日",
      "祝日"
    ],
    "openDaysNote": "特になし"
  },
  {
    "id": "4470109028",
    "name": "デイサービスふるさと",
    "kana": "デイサービスフルサト",
    "address": "大分県大分市高江北1丁目8番1号",
    "lat": 33.170964040882,
    "lng": 131.616438870295,
    "tel": "097-596-7755",
    "url": "http://www.oita-yuima-ru.com/",
    "pref": "大分県",
    "city": "大分市",
    "category": "day_service",
    "serviceType": "通所介護",
    "capacity": 0,
    "openDays": [
      "平日",
      "土曜日",
      "祝日"
    ],
    "openDaysNote": ""
  },
  {
    "id": "4470107220",
    "name": "デイサービスふれあい",
    "kana": "デイサービスフレアイ",
    "address": "大分県大分市大字木佐上字関田4536-1",
    "lat": 33.2286423,
    "lng": 131.7983363,
    "tel": "097-576-0066",
    "url": "http://fureai-oita.jp/",
    "pref": "大分県",
    "city": "大分市",
    "category": "day_service",
    "serviceType": "通所介護",
    "capacity": 0,
    "openDays": [
      "平日",
      "土曜日",
      "祝日"
    ],
    "openDaysNote": ""
  },
  {
    "id": "4470106891",
    "name": "デイサービスゆいまーる",
    "kana": "デイサービスユイマール",
    "address": "大分県大分市大字中判田１６５５番地１",
    "lat": 33.166194,
    "lng": 131.6413375,
    "tel": "097-597-5800",
    "url": "http://www.oita-yuima-ru.com/",
    "pref": "大分県",
    "city": "大分市",
    "category": "day_service",
    "serviceType": "通所介護",
    "capacity": 0,
    "openDays": [
      "平日",
      "祝日"
    ],
    "openDaysNote": "自然災害時等は突発的にお休みになる事もございます。"
  },
  {
    "id": "4470108236",
    "name": "デイサービスよもぎ",
    "kana": "デイサービスヨモギ",
    "address": "大分県大分市松岡５３７番地の２",
    "lat": 33.1734105,
    "lng": 131.6554861,
    "tel": "097-574-6894",
    "url": "",
    "pref": "大分県",
    "city": "大分市",
    "category": "day_service",
    "serviceType": "通所介護",
    "capacity": null,
    "openDays": [
      "平日",
      "土曜日",
      "祝日"
    ],
    "openDaysNote": ""
  },
  {
    "id": "4470106966",
    "name": "デイサービス賀来",
    "kana": "デイサービスカク",
    "address": "大石町５丁目３－３組ひだまり荘 ひだまり荘",
    "lat": 33.2136366,
    "lng": 131.5783504,
    "tel": "097-549-5212",
    "url": "https://www.hidamariso.com/",
    "pref": "大分県",
    "city": "大分市",
    "category": "day_service",
    "serviceType": "通所介護",
    "capacity": 0,
    "openDays": [
      "平日",
      "土曜日",
      "祝日"
    ],
    "openDaysNote": ""
  },
  {
    "id": "4470106586",
    "name": "デイサービス楽　二目川センター",
    "kana": "デイサービスラク　フタメガワセンター",
    "address": "大分県大分市横尾1939-4",
    "lat": 33.2066299,
    "lng": 131.6652296,
    "tel": "097-547-7586",
    "url": "http://www.lifely.co.jp",
    "pref": "大分県",
    "city": "大分市",
    "category": "day_service",
    "serviceType": "通所介護",
    "capacity": 0,
    "openDays": [
      "平日",
      "祝日"
    ],
    "openDaysNote": "大分市パワーアップ教室の委託を得ているため（改行）火曜日の通所介護サービスの営業時間は（改行）　・12:30～17:30（改行）としている。（改行）なお、火曜日の大分市パワーアップ教室の営業時間は（改行）　・8:30～12:29（改行）としている。"
  },
  {
    "id": "4470105877",
    "name": "デイサービス楽横尾センター",
    "kana": "デイサービスラクヨコオセンター",
    "address": "大分県大分市大字横尾1939－1",
    "lat": 33.2066438,
    "lng": 131.6654518,
    "tel": "097－547－7520",
    "url": "http://www.lifely.co.jp",
    "pref": "大分県",
    "city": "大分市",
    "category": "day_service",
    "serviceType": "通所介護",
    "capacity": 0,
    "openDays": [
      "平日",
      "祝日"
    ],
    "openDaysNote": ""
  },
  {
    "id": "4470106057",
    "name": "デイサービス国分",
    "kana": "デイサービスコクブ",
    "address": "大分県大分市大字国分1907番地",
    "lat": 33.2021097686918,
    "lng": 131.558353112303,
    "tel": "097-547-8809",
    "url": "",
    "pref": "大分県",
    "city": "大分市",
    "category": "day_service",
    "serviceType": "通所介護",
    "capacity": 0,
    "openDays": [
      "平日",
      "祝日"
    ],
    "openDaysNote": ""
  },
  {
    "id": "4470111198",
    "name": "デイサービス桜の庵　大分",
    "kana": "デイサービスサクラノアン　オオイタ",
    "address": "大分県大分市大字廻栖野1779番地",
    "lat": 33.1705300034482,
    "lng": 131.546366541989,
    "tel": "097‐574‐5622",
    "url": "http://www.toneriko.co.jp",
    "pref": "大分県",
    "city": "大分市",
    "category": "day_service",
    "serviceType": "通所介護",
    "capacity": 30,
    "openDays": [
      "平日",
      "土曜日",
      "祝日"
    ],
    "openDaysNote": ""
  },
  {
    "id": "4470108152",
    "name": "デイサービス心葉",
    "kana": "デイサービスシンヨウ",
    "address": "大分県大分市希望ヶ丘1丁目1045番地の2",
    "lat": 33.2347479,
    "lng": 131.6389528,
    "tel": "097-574-5566",
    "url": "http://www.shinyo-geka.or.jp/",
    "pref": "大分県",
    "city": "大分市",
    "category": "day_service",
    "serviceType": "通所介護",
    "capacity": 30,
    "openDays": [
      "平日",
      "土曜日",
      "祝日"
    ],
    "openDaysNote": "年末年始（12月30日～1月3日）はお休み（改行）台風や雪などの際はご利用者様の安全を考慮しお休みすることがあります。"
  },
  {
    "id": "4470106800",
    "name": "デイサービス仁友",
    "kana": "デイサービスジンユウ",
    "address": "大分県大分市古国府一丁目３番７３号有料老人ホーム仁友の邑 有料老人ホーム仁友の邑",
    "lat": 33.2176518,
    "lng": 131.6121943,
    "tel": "097-574-5575",
    "url": "http://www.oct-net.ne.jp/~jinikai/mura/",
    "pref": "大分県",
    "city": "大分市",
    "category": "day_service",
    "serviceType": "通所介護",
    "capacity": 20,
    "openDays": [
      "平日",
      "土曜日"
    ],
    "openDaysNote": ""
  },
  {
    "id": "4470111701",
    "name": "デイサービス大分YYパーク",
    "kana": "デイサービスオオイタワイワイパーク",
    "address": "大分県大分市森町西5丁目5番1号",
    "lat": 33.2281340449505,
    "lng": 131.679849749738,
    "tel": "097-535-8600",
    "url": "https://e-rin.com/",
    "pref": "大分県",
    "city": "大分市",
    "category": "day_service",
    "serviceType": "通所介護",
    "capacity": null,
    "openDays": [
      "平日",
      "土曜日",
      "祝日"
    ],
    "openDaysNote": ""
  },
  {
    "id": "4470110406",
    "name": "デイサービス大分ふぁみりん",
    "kana": "デイサービスオオイタファミリン",
    "address": "大分県大分市大字旦野原167番地",
    "lat": 33.1767915,
    "lng": 131.6066066,
    "tel": "097-535-8600",
    "url": "http://e-rin.com",
    "pref": "大分県",
    "city": "大分市",
    "category": "day_service",
    "serviceType": "通所介護",
    "capacity": null,
    "openDays": [
      "平日",
      "土曜日",
      "祝日"
    ],
    "openDaysNote": ""
  },
  {
    "id": "4470110182",
    "name": "デイサービス凪の木",
    "kana": "デイサービスナギノキ",
    "address": "大分県大分市畑中二丁目9番18号住宅型有料老人ホーム凪ぎ 住宅型有料老人ホーム凪ぎ",
    "lat": 33.2033691,
    "lng": 131.5972823,
    "tel": "097-543-7788",
    "url": "",
    "pref": "大分県",
    "city": "大分市",
    "category": "day_service",
    "serviceType": "通所介護",
    "capacity": 0,
    "openDays": [
      "平日",
      "土曜日",
      "日曜日",
      "祝日"
    ],
    "openDaysNote": ""
  },
  {
    "id": "4470109937",
    "name": "デイサービス畑中",
    "kana": "デイサービスハタケナカ",
    "address": "大分県大分市大字畑中五丁目3番63号住宅型有料老人ホーム畑中 住宅型有料老人ホーム畑中",
    "lat": 33.201586,
    "lng": 131.5975126,
    "tel": "097-535-7137",
    "url": "",
    "pref": "大分県",
    "city": "大分市",
    "category": "day_service",
    "serviceType": "通所介護",
    "capacity": 0,
    "openDays": [
      "平日",
      "土曜日",
      "祝日"
    ],
    "openDaysNote": ""
  },
  {
    "id": "4470108285",
    "name": "デイサービス夢・ほほえみ",
    "kana": "デイサービスユメホホエミ",
    "address": "大分県大分市萩原３丁目２２番２２号",
    "lat": 33.2441870864379,
    "lng": 131.6458281652,
    "tel": "097-556-3111",
    "url": "",
    "pref": "大分県",
    "city": "大分市",
    "category": "day_service",
    "serviceType": "通所介護",
    "capacity": 20,
    "openDays": [
      "平日",
      "土曜日",
      "祝日"
    ],
    "openDaysNote": ""
  },
  {
    "id": "4470105760",
    "name": "デイサービス夢工房",
    "kana": "デイサービスユメコウボウ",
    "address": "大分市大字中尾３１１番地１",
    "lat": 33.2082218,
    "lng": 131.5516055,
    "tel": "097-540-7676",
    "url": "http://www.inobe.or.jp/inobe/",
    "pref": "大分県",
    "city": "大分市",
    "category": "day_service",
    "serviceType": "通所介護",
    "capacity": 0,
    "openDays": [
      "平日",
      "土曜日",
      "祝日"
    ],
    "openDaysNote": "特になし"
  },
  {
    "id": "4470110794",
    "name": "なでしこガーデンデイサービス",
    "kana": "ナデシコガーデンデイサービス",
    "address": "中戸次７９８番地",
    "lat": 33.1446363,
    "lng": 131.6641421,
    "tel": "097-548-8125",
    "url": "",
    "pref": "大分県",
    "city": "大分市",
    "category": "day_service",
    "serviceType": "通所介護",
    "capacity": 0,
    "openDays": [
      "平日",
      "祝日"
    ],
    "openDaysNote": ""
  },
  {
    "id": "4470108350",
    "name": "なでしこデイサービス",
    "kana": "ナデシコデイサービス",
    "address": "東鶴崎2丁目2番20号",
    "lat": 33.2390027,
    "lng": 131.6951676,
    "tel": "097-521-7722",
    "url": "http://oasis-hp.jp",
    "pref": "大分県",
    "city": "大分市",
    "category": "day_service",
    "serviceType": "通所介護",
    "capacity": 0,
    "openDays": [
      "平日",
      "土曜日",
      "日曜日",
      "祝日"
    ],
    "openDaysNote": ""
  },
  {
    "id": "4470105620",
    "name": "なでしこ横町デイサービス",
    "kana": "ナデシコヨコチョウデイサービス",
    "address": "大分県大分市千歳字林967-1",
    "lat": 33.2407827212096,
    "lng": 131.663328440203,
    "tel": "097-535-8375",
    "url": "",
    "pref": "大分県",
    "city": "大分市",
    "category": "day_service",
    "serviceType": "通所介護",
    "capacity": 0,
    "openDays": [
      "平日",
      "土曜日",
      "日曜日",
      "祝日"
    ],
    "openDaysNote": "時間外対応相談可能"
  },
  {
    "id": "4470108947",
    "name": "ななせデイサービスセンター",
    "kana": "ナナセデイサービスセンター",
    "address": "大分県大分市椿が丘二丁目14番6号",
    "lat": 33.1948556571361,
    "lng": 131.573259931847,
    "tel": "097-579-6807",
    "url": "",
    "pref": "大分県",
    "city": "大分市",
    "category": "day_service",
    "serviceType": "通所介護",
    "capacity": 0,
    "openDays": [
      "平日",
      "土曜日",
      "祝日"
    ],
    "openDaysNote": ""
  },
  {
    "id": "4470100043",
    "name": "ニチイケアセンター大分",
    "kana": "ニチイケアセンターオオイタ",
    "address": "大分県大分市下郡東一丁目9番23号",
    "lat": 33.2280264,
    "lng": 131.6360199,
    "tel": "097-554-8090",
    "url": "",
    "pref": "大分県",
    "city": "大分市",
    "category": "day_service",
    "serviceType": "通所介護",
    "capacity": 0,
    "openDays": [
      "平日",
      "土曜日",
      "祝日"
    ],
    "openDaysNote": ""
  },
  {
    "id": "4470101652",
    "name": "はなぞのデイサービスセンター",
    "kana": "ハナゾノデイサービスセンター",
    "address": "大分県大分市花江川４－２８ケアマンションはなぞの・１F ケアマンションはなぞの・１F",
    "lat": 33.2458659,
    "lng": 131.7079329,
    "tel": "０９７－５２１－２７４０",
    "url": "http://www.hyakkaen.or.jp/hanazono/z_tuusyo.htm",
    "pref": "大分県",
    "city": "大分市",
    "category": "day_service",
    "serviceType": "通所介護",
    "capacity": 0,
    "openDays": [
      "平日",
      "土曜日",
      "祝日"
    ],
    "openDaysNote": "その他の休み、8月13～8月15、12月31～1月3日"
  },
  {
    "id": "4470109838",
    "name": "はなはなデイサービスセンター",
    "kana": "ハナハナデイサービスセンター",
    "address": "大分県大分市大字玉沢1027番地1",
    "lat": 33.1940639,
    "lng": 131.5831553,
    "tel": "097-547-7878",
    "url": "http://hanahana-care.jp/",
    "pref": "大分県",
    "city": "大分市",
    "category": "day_service",
    "serviceType": "通所介護",
    "capacity": 0,
    "openDays": [
      "平日",
      "土曜日",
      "祝日"
    ],
    "openDaysNote": ""
  },
  {
    "id": "4470106347",
    "name": "はなまるデイサービス",
    "kana": "ハナマルデイサービス",
    "address": "大分県大分市大字小野鶴字原437番地1",
    "lat": 33.2037440860317,
    "lng": 131.569201671164,
    "tel": "097-541-3232",
    "url": "http://kabujuun.wix.com/ayamo",
    "pref": "大分県",
    "city": "大分市",
    "category": "day_service",
    "serviceType": "通所介護",
    "capacity": 0,
    "openDays": [
      "平日",
      "土曜日",
      "日曜日",
      "祝日"
    ],
    "openDaysNote": ""
  },
  {
    "id": "4470103633",
    "name": "ブンゴヤ・ファインケア豊（デイサービスセンター）",
    "kana": "ブンゴヤ・ファインケアユタカ（デイサービスセンター）",
    "address": "大分県大分市西大道２丁目５６７－１",
    "lat": 33.2285897031814,
    "lng": 131.595360508598,
    "tel": "097-513-7300",
    "url": "https://www.bungoya.co.jp/yutaka/",
    "pref": "大分県",
    "city": "大分市",
    "category": "day_service",
    "serviceType": "通所介護",
    "capacity": 70,
    "openDays": [
      "平日",
      "祝日"
    ],
    "openDaysNote": "以下の期間は休業となります。（改行）GW休み（5月3・4・5日）（改行）年末・年始休み（12月30・31、１月1・2・3日）（改行）お盆休み（8月13・14・15日）"
  },
  {
    "id": "4470106461",
    "name": "ほたるデイサービスセンター",
    "kana": "ホタルデイサービスセンター",
    "address": "大分県大分市大字寒田字矢羽田265番地の１",
    "lat": 33.1762955636209,
    "lng": 131.600847050896,
    "tel": "097-567-2026",
    "url": "https://miyu-oita.com/",
    "pref": "大分県",
    "city": "大分市",
    "category": "day_service",
    "serviceType": "通所介護",
    "capacity": 40,
    "openDays": [
      "平日",
      "土曜日",
      "祝日"
    ],
    "openDaysNote": "なし"
  },
  {
    "id": "4470107311",
    "name": "ライフサポートまなと",
    "kana": "ライフサポートマナト",
    "address": "大分県大分市高江中央３丁目4629番4ライフサポートまなと ライフサポートまなと",
    "lat": 33.1678566,
    "lng": 131.6125786,
    "tel": "097-574-8777",
    "url": "http://www.manato.co.jp",
    "pref": "大分県",
    "city": "大分市",
    "category": "day_service",
    "serviceType": "通所介護",
    "capacity": 40,
    "openDays": [
      "平日",
      "土曜日",
      "祝日"
    ],
    "openDaysNote": "５月３日～５日、８月１５日、１２月３０日～１月３日は休業します。（改行）土曜日は行事などにより臨時休業することがあります。"
  },
  {
    "id": "4470102155",
    "name": "リバーサイド桃花苑デイサービスセンター",
    "kana": "リバーサイドトウカエンデイサービスセンター",
    "address": "大分県大分市大字曲字箕久保320番",
    "lat": 33.2010369,
    "lng": 131.6123918,
    "tel": "097-578-6771",
    "url": "http://www.riverside-toukaen.jp",
    "pref": "大分県",
    "city": "大分市",
    "category": "day_service",
    "serviceType": "通所介護",
    "capacity": 0,
    "openDays": [
      "平日",
      "土曜日",
      "祝日"
    ],
    "openDaysNote": ""
  },
  {
    "id": "4470110125",
    "name": "リハビリ型デイサービス　さんさん",
    "kana": "リハビリガタデイサービス　サンサン",
    "address": "大分市中島東一丁目3番5号ｼｬｶﾞｰﾙ中島1F ｼｬｶﾞｰﾙ中島1F",
    "lat": 33.2439632,
    "lng": 131.6155879,
    "tel": "097-532-0660",
    "url": "",
    "pref": "大分県",
    "city": "大分市",
    "category": "day_service",
    "serviceType": "通所介護",
    "capacity": 8,
    "openDays": [
      "平日"
    ],
    "openDaysNote": "祝日がある週の土曜日は振替で営業"
  },
  {
    "id": "4470111511",
    "name": "レッツ倶楽部中島",
    "kana": "レッツクラブナカシマ",
    "address": "大分県大分市中島中央2－4－30",
    "lat": 33.2448041,
    "lng": 131.6151644,
    "tel": "097-532-5050",
    "url": "",
    "pref": "大分県",
    "city": "大分市",
    "category": "day_service",
    "serviceType": "通所介護",
    "capacity": 0,
    "openDays": [
      "平日",
      "土曜日",
      "祝日"
    ],
    "openDaysNote": ""
  },
  {
    "id": "4470112170",
    "name": "レッツ倶楽部中島2番館",
    "kana": "レッツクラブナカシマニバンカン",
    "address": "大分県大分市中島中央3-3-9",
    "lat": 33.2458889,
    "lng": 131.6120067,
    "tel": "097-573-7780",
    "url": "https://www.lets-club.jp/shop/nakashima-nibankan/",
    "pref": "大分県",
    "city": "大分市",
    "category": "day_service",
    "serviceType": "通所介護",
    "capacity": 0,
    "openDays": [
      "平日",
      "土曜日",
      "祝日"
    ],
    "openDaysNote": ""
  },
  {
    "id": "4470103872",
    "name": "わさだデイサービスセンター",
    "kana": "ワサダデイサービスセンター",
    "address": "大分県大分市大字小野鶴1601番地",
    "lat": 33.1981663544733,
    "lng": 131.570276779599,
    "tel": "097-541-4106",
    "url": "https://fujinokai.co.jp",
    "pref": "大分県",
    "city": "大分市",
    "category": "day_service",
    "serviceType": "通所介護",
    "capacity": 0,
    "openDays": [
      "平日",
      "土曜日",
      "日曜日",
      "祝日"
    ],
    "openDaysNote": "なし"
  },
  {
    "id": "4470107378",
    "name": "介護予防デイサービスＳＡＫＵＲＡ-ＳＡＫＵ",
    "kana": "カイゴヨボウデイサービス　サクラ-サク",
    "address": "大分市大字津守376-1第一奈良勘ビル102号 第一奈良勘ビル102号",
    "lat": 33.2121499,
    "lng": 131.6174661,
    "tel": "097-574-4715",
    "url": "http：//sakura-saku100.com",
    "pref": "大分県",
    "city": "大分市",
    "category": "day_service",
    "serviceType": "通所介護",
    "capacity": 23,
    "openDays": [
      "平日",
      "祝日"
    ],
    "openDaysNote": ""
  },
  {
    "id": "4470103930",
    "name": "株式会社　ツクイ大分皆春",
    "kana": "カブシキガイシャ　ツクイ　オオイタミナハル",
    "address": "大分県大分市皆春312-4",
    "lat": 33.2343858,
    "lng": 131.6757056,
    "tel": "097-524-1015",
    "url": "http://www.tsukui.net",
    "pref": "大分県",
    "city": "大分市",
    "category": "day_service",
    "serviceType": "通所介護",
    "capacity": 0,
    "openDays": [
      "平日",
      "土曜日",
      "日曜日",
      "祝日"
    ],
    "openDaysNote": "365日土日祝日も営業しております。"
  },
  {
    "id": "4470107832",
    "name": "株式会社　椋の樹",
    "kana": "カブシキガイシャ　ムクノキ",
    "address": "大分県大分市大字角子原字花田８７０番地有料老人ホーム椋の樹 有料老人ホーム椋の樹",
    "lat": 33.245402491608,
    "lng": 131.71223370571,
    "tel": "097-574-6912",
    "url": "http://mukunoki-oita.com/",
    "pref": "大分県",
    "city": "大分市",
    "category": "day_service",
    "serviceType": "通所介護",
    "capacity": 30,
    "openDays": [
      "平日",
      "土曜日"
    ],
    "openDaysNote": "年末年始営業について（改行）12月31日～1月3日までは休業とする。"
  },
  {
    "id": "4470102460",
    "name": "居宅介護支援総合福祉施設「憩いの館」デイサービスセンター",
    "kana": "キョタクカイゴシエンソウゴウフクシシセツ「イコイノヤカタ」デイサービスセンター",
    "address": "大分県大分市大字津守2547番地の6",
    "lat": 33.2096979,
    "lng": 131.6292931,
    "tel": "097‐504‐7530",
    "url": "https://www.ikoinoyakata.com",
    "pref": "大分県",
    "city": "大分市",
    "category": "day_service",
    "serviceType": "通所介護",
    "capacity": 50,
    "openDays": [
      "平日",
      "土曜日",
      "祝日"
    ],
    "openDaysNote": "12月30・31日・1月1・2・3日は休み"
  },
  {
    "id": "4470105323",
    "name": "元気デイ　きらら",
    "kana": "ゲンキデイ　キララ",
    "address": "大分県大分市大字田尻字高尾７８３－１",
    "lat": 33.1854659242498,
    "lng": 131.597183576192,
    "tel": "097-578-7320",
    "url": "http://san-ai-kai.or.jp/",
    "pref": "大分県",
    "city": "大分市",
    "category": "day_service",
    "serviceType": "通所介護",
    "capacity": 35,
    "openDays": [
      "平日",
      "土曜日",
      "祝日"
    ],
    "openDaysNote": ""
  },
  {
    "id": "4472400060",
    "name": "光明園デイサービスセンター",
    "kana": "コウミョウエンデイサービスセンター",
    "address": "大分県大分市大字志生木字西岡145番地の9",
    "lat": 33.2461105,
    "lng": 131.8348677,
    "tel": "097-574-0634",
    "url": "http://www.koumyoen.or.jp",
    "pref": "大分県",
    "city": "大分市",
    "category": "day_service",
    "serviceType": "通所介護",
    "capacity": 0,
    "openDays": [
      "平日",
      "土曜日",
      "日曜日",
      "祝日"
    ],
    "openDaysNote": ""
  },
  {
    "id": "4470106933",
    "name": "紅葉苑デイサービスセンターこころ",
    "kana": "モミジエンデイサービスセンターココロ",
    "address": "大字羽田字菖蒲田70番1社会福祉法人　松山会　紅葉苑　1階 社会福祉法人　松山会　紅葉苑　1階",
    "lat": 33.21939,
    "lng": 131.636656,
    "tel": "097-574-5885",
    "url": "http://syozankai.com/",
    "pref": "大分県",
    "city": "大分市",
    "category": "day_service",
    "serviceType": "通所介護",
    "capacity": 50,
    "openDays": [
      "平日",
      "土曜日",
      "祝日"
    ],
    "openDaysNote": "上記以外の祝日は営業いたしております。"
  },
  {
    "id": "4470111008",
    "name": "合同会社　インテリアフェスタ",
    "kana": "ゴウドウガイシャ　インテリアフェスタ",
    "address": "大分市大字野津原字久保１５０５－１３",
    "lat": 33.1610204,
    "lng": 131.527342,
    "tel": "097-574-6500",
    "url": "https://shinshouka.com",
    "pref": "大分県",
    "city": "大分市",
    "category": "day_service",
    "serviceType": "通所介護",
    "capacity": 39,
    "openDays": [
      "平日",
      "土曜日",
      "祝日"
    ],
    "openDaysNote": ""
  },
  {
    "id": "4470105505",
    "name": "菜の花デイサービス",
    "kana": "ナノハナデイサービス",
    "address": "大字佐賀関335番地菜の花デイサービス 菜の花デイサービス",
    "lat": 33.2458092,
    "lng": 131.8634055,
    "tel": "097-575-0007",
    "url": "http://www.oasis-hp.jp/",
    "pref": "大分県",
    "city": "大分市",
    "category": "day_service",
    "serviceType": "通所介護",
    "capacity": 0,
    "openDays": [
      "平日",
      "土曜日",
      "祝日"
    ],
    "openDaysNote": "※カレンダーによって変更あり"
  },
  {
    "id": "4470111859",
    "name": "菜の花デイサービス",
    "kana": "ナノハナデイサービス",
    "address": "大分市大字佐賀関335番地",
    "lat": 33.2458074664715,
    "lng": 131.863302799371,
    "tel": "097-575-0007",
    "url": "",
    "pref": "大分県",
    "city": "大分市",
    "category": "day_service",
    "serviceType": "通所介護",
    "capacity": 0,
    "openDays": [
      "平日",
      "土曜日",
      "祝日"
    ],
    "openDaysNote": ""
  },
  {
    "id": "4470100779",
    "name": "指定通所介護事業所　白水長久苑",
    "kana": "シテイツウショカイゴジギョウショ　シラミズチョウキュウエン",
    "address": "大字横尾字大原1897番地2",
    "lat": 33.2050651463458,
    "lng": 131.664690175282,
    "tel": "097-520-1116",
    "url": "http://chokyuen.jp/",
    "pref": "大分県",
    "city": "大分市",
    "category": "day_service",
    "serviceType": "通所介護",
    "capacity": null,
    "openDays": [
      "平日",
      "土曜日",
      "祝日"
    ],
    "openDaysNote": "特になし。"
  },
  {
    "id": "4472400177",
    "name": "社会医療法人関愛会デイサービスひまわり",
    "kana": "シャカイイリョウホウジンセキアイカイデイサービスヒマワリ",
    "address": "大分県大分市大字佐賀関８８０番地１",
    "lat": 33.2489396,
    "lng": 131.868033,
    "tel": "097-524-4141",
    "url": "",
    "pref": "大分県",
    "city": "大分市",
    "category": "day_service",
    "serviceType": "通所介護",
    "capacity": 0,
    "openDays": [
      "平日",
      "土曜日",
      "祝日"
    ],
    "openDaysNote": ""
  },
  {
    "id": "4470107345",
    "name": "社会福祉法人グリーンコープ旦の原デイサービスセンターひととき",
    "kana": "シャカイフクシホウジングリーンコープダンノハルディサービスセンターヒトトキ",
    "address": "大分県大分市旦の原ディサービスセンターひととき 旦の原ディサービスセンターひととき",
    "lat": 33.2395578,
    "lng": 131.609272,
    "tel": "097-504-7200",
    "url": "http://fukushi-greencoop.or.jp/prog/dbs/95",
    "pref": "大分県",
    "city": "大分市",
    "category": "day_service",
    "serviceType": "通所介護",
    "capacity": null,
    "openDays": [
      "平日",
      "土曜日",
      "祝日"
    ],
    "openDaysNote": "延長利用、ご相談に応じます。"
  },
  {
    "id": "4470104193",
    "name": "寿志の里デイサービスセンター",
    "kana": "ジュシノサトデイサービスセンター",
    "address": "大分県大分市大字中判田１３４２番地の３",
    "lat": 33.1675018,
    "lng": 131.6266943,
    "tel": "097-548-8201",
    "url": "http://jyushinosato.com/",
    "pref": "大分県",
    "city": "大分市",
    "category": "day_service",
    "serviceType": "通所介護",
    "capacity": 0,
    "openDays": [
      "平日",
      "土曜日",
      "祝日"
    ],
    "openDaysNote": "特になし"
  },
  {
    "id": "4470101074",
    "name": "庄の原苑デイサービスセンター",
    "kana": "ショウノハルエンデイサービスセンター",
    "address": "大分県大分市大字荏隈字庄ノ原1798番地",
    "lat": 33.2217954,
    "lng": 131.5728682,
    "tel": "097-544-4335",
    "url": "http://shonoharuen.com/",
    "pref": "大分県",
    "city": "大分市",
    "category": "day_service",
    "serviceType": "通所介護",
    "capacity": 35,
    "openDays": [
      "平日",
      "土曜日",
      "祝日"
    ],
    "openDaysNote": ""
  },
  {
    "id": "4470100878",
    "name": "清静園指定通所介護事業所",
    "kana": "セイジョウエンシテイツウショカイゴジギョウショ",
    "address": "大分県大分市大字竹中5268番地",
    "lat": 33.1331697,
    "lng": 131.6539872,
    "tel": "097-597-4363",
    "url": "http://www.seijyoen.or.jp",
    "pref": "大分県",
    "city": "大分市",
    "category": "day_service",
    "serviceType": "通所介護",
    "capacity": 0,
    "openDays": [
      "平日",
      "土曜日",
      "祝日"
    ],
    "openDaysNote": "但し、祝日に関しては場合によっては営業とする。"
  },
  {
    "id": "4470101215",
    "name": "誠寿園デイサービスセンター",
    "kana": "セイジュエンデイサービスセンター",
    "address": "大分県大分市大字辻933番地",
    "lat": 33.1100157752732,
    "lng": 131.692746359772,
    "tel": "097-595-0058",
    "url": "https://seijuen.org",
    "pref": "大分県",
    "city": "大分市",
    "category": "day_service",
    "serviceType": "通所介護",
    "capacity": 60,
    "openDays": [
      "平日",
      "土曜日",
      "祝日"
    ],
    "openDaysNote": ""
  },
  {
    "id": "4470101264",
    "name": "創生の里デイサービスセンター",
    "kana": "ソウセイノサトデイサービスセンター",
    "address": "大分県大分市大字野田３０７番地の８",
    "lat": 33.2033588336207,
    "lng": 131.536468337049,
    "tel": "097-549-3880",
    "url": "http://www.wakakusakai.jp",
    "pref": "大分県",
    "city": "大分市",
    "category": "day_service",
    "serviceType": "通所介護",
    "capacity": 0,
    "openDays": [
      "平日",
      "土曜日",
      "祝日"
    ],
    "openDaysNote": ""
  },
  {
    "id": "4470102429",
    "name": "太平の里デイサービスセンター",
    "kana": "タイヘイノサトデイサービスセンター",
    "address": "大分県大分市南太平寺2丁目4番15号",
    "lat": 33.2181205304406,
    "lng": 131.596793893501,
    "tel": "097-514-0023",
    "url": "http://www.wakakusakai.jp",
    "pref": "大分県",
    "city": "大分市",
    "category": "day_service",
    "serviceType": "通所介護",
    "capacity": 0,
    "openDays": [
      "平日",
      "土曜日",
      "祝日"
    ],
    "openDaysNote": ""
  },
  {
    "id": "4470101470",
    "name": "滝尾デイサービスセンター",
    "kana": "タキオデイサービスセンター",
    "address": "大字下郡941番地の3",
    "lat": 33.2227023,
    "lng": 131.6446029,
    "tel": "097-567-2258",
    "url": "http://www.shahuku-houtokukai.jp",
    "pref": "大分県",
    "city": "大分市",
    "category": "day_service",
    "serviceType": "通所介護",
    "capacity": 35,
    "openDays": [
      "平日",
      "土曜日",
      "祝日"
    ],
    "openDaysNote": ""
  },
  {
    "id": "4470109226",
    "name": "通所介護事業所　デイサービス　ふうせんかずら",
    "kana": "ツウショカイゴジギョウショ　デイサービス　フウセンカズラ",
    "address": "光吉新町２－１",
    "lat": 33.1912134353715,
    "lng": 131.596937627509,
    "tel": "０９７－５６８－４０４０",
    "url": "http://www.heart-cl.com",
    "pref": "大分県",
    "city": "大分市",
    "category": "day_service",
    "serviceType": "通所介護",
    "capacity": 40,
    "openDays": [
      "平日",
      "土曜日",
      "祝日"
    ],
    "openDaysNote": ""
  },
  {
    "id": "4470106222",
    "name": "田尻誠寿園デイサービスセンター",
    "kana": "タジリセイジュエンデイサービスセンター",
    "address": "大分県大分市大字高瀬562番地の3",
    "lat": 33.18279,
    "lng": 131.5895105,
    "tel": "097-541-6060",
    "url": "https://seijuen.org",
    "pref": "大分県",
    "city": "大分市",
    "category": "day_service",
    "serviceType": "通所介護",
    "capacity": 35,
    "openDays": [
      "平日",
      "土曜日",
      "祝日"
    ],
    "openDaysNote": ""
  },
  {
    "id": "4470100480",
    "name": "湯屋すくすく・いきいき館横瀬",
    "kana": "ユヤスクスク・イキイキカンヨコセ",
    "address": "大分県大分市大字横瀬1050番地",
    "lat": 33.1868182,
    "lng": 131.5419118,
    "tel": "097-542-5581",
    "url": "https://sukuiki.jp/index.html",
    "pref": "大分県",
    "city": "大分市",
    "category": "day_service",
    "serviceType": "通所介護",
    "capacity": 0,
    "openDays": [
      "平日",
      "土曜日",
      "祝日"
    ],
    "openDaysNote": "利用者の要請により、18時30分まで延長してサービス提供を行う。"
  },
  {
    "id": "4470103559",
    "name": "湯屋すくすく・いきいき館和みの郷",
    "kana": "ユヤスクスク・イキイキカンナゴミノサト",
    "address": "大分県大分市大字横瀬1050番地",
    "lat": 33.1868182,
    "lng": 131.5419118,
    "tel": "097-542-5581",
    "url": "https://sukuiki.jp/index.html",
    "pref": "大分県",
    "city": "大分市",
    "category": "day_service",
    "serviceType": "通所介護",
    "capacity": 0,
    "openDays": [
      "平日",
      "土曜日",
      "祝日"
    ],
    "openDaysNote": "利用者の要請により、18時30分まで延長してサービス提供を行う。"
  },
  {
    "id": "4470101280",
    "name": "百華苑デイサービスセンター",
    "kana": "ヒャクカエンデイサービスセンター",
    "address": "大分県大分市大字東上野1800番地",
    "lat": 33.2293997,
    "lng": 131.770325,
    "tel": "097-592-3775",
    "url": "http://www.hyakkaen.or.jp/",
    "pref": "大分県",
    "city": "大分市",
    "category": "day_service",
    "serviceType": "通所介護",
    "capacity": 0,
    "openDays": [
      "平日",
      "土曜日",
      "祝日"
    ],
    "openDaysNote": ""
  },
  {
    "id": "4470100928",
    "name": "緑風苑デイサービスセンターB型",
    "kana": "リョクフウエンデイサービスセンタービーガタ",
    "address": "大分県大分市下郡山の手2番16号",
    "lat": 33.2210663460611,
    "lng": 131.638489490327,
    "tel": "097-567-3733",
    "url": "http://syouzankai.jp/ryokufu-en/",
    "pref": "大分県",
    "city": "大分市",
    "category": "day_service",
    "serviceType": "通所介護",
    "capacity": 0,
    "openDays": [
      "平日",
      "土曜日",
      "祝日"
    ],
    "openDaysNote": ""
  },
  {
    "id": "4472300302",
    "name": "和泉デイサービスセンター",
    "kana": "イズミデイサービスセンター",
    "address": "大分県大分市大字大分市大字竹矢1024-1",
    "lat": 33.1618658,
    "lng": 131.5456619,
    "tel": "097-588-1110",
    "url": "http://izumisou.com/",
    "pref": "大分県",
    "city": "大分市",
    "category": "day_service",
    "serviceType": "通所介護",
    "capacity": 0,
    "openDays": [
      "平日",
      "土曜日",
      "祝日"
    ],
    "openDaysNote": ""
  },
  {
    "id": "4470100688",
    "name": "柞原の里指定通所介護事業所",
    "kana": "ユスハラノサトシテイツウショカイゴジギョウショ",
    "address": "大分県大分市大字八幡320番地1",
    "lat": 33.2337649,
    "lng": 131.55838,
    "tel": "097-535-2388",
    "url": "http://yusuhara.org/",
    "pref": "大分県",
    "city": "大分市",
    "category": "day_service",
    "serviceType": "通所介護",
    "capacity": null,
    "openDays": [
      "平日",
      "土曜日",
      "祝日"
    ],
    "openDaysNote": ""
  },
  {
    "id": "4470800394",
    "name": "ディサービスセンター　長湯ぽっかぽかの家",
    "kana": "ディサービスセンター　ナガユポッカポカノイエ",
    "address": "直入町大字長湯8242-5",
    "lat": 33.0756852,
    "lng": 131.3865085,
    "tel": "0974-75-2335",
    "url": "",
    "pref": "大分県",
    "city": "竹田市",
    "category": "day_service",
    "serviceType": "通所介護",
    "capacity": 0,
    "openDays": [
      "平日",
      "土曜日",
      "日曜日",
      "祝日"
    ],
    "openDaysNote": ""
  },
  {
    "id": "4470800493",
    "name": "デイサービスセンター野の花",
    "kana": "デイサービスセンター野ノ花",
    "address": "大分県竹田市大字飛田川1577番地1ライフホーム野の花 ライフホーム野の花",
    "lat": 32.9658953,
    "lng": 131.3833203,
    "tel": "0974－64－0011",
    "url": "",
    "pref": "大分県",
    "city": "竹田市",
    "category": "day_service",
    "serviceType": "通所介護",
    "capacity": 0,
    "openDays": [
      "平日",
      "土曜日",
      "祝日"
    ],
    "openDaysNote": ""
  },
  {
    "id": "4472700071",
    "name": "荻町介護保険サービスセンター",
    "kana": "オギマチカイゴホケンサービスセンター",
    "address": "竹田市荻町恵良原1772番地7",
    "lat": 32.9213677,
    "lng": 131.302481,
    "tel": "0974-68-3050",
    "url": "",
    "pref": "大分県",
    "city": "竹田市",
    "category": "day_service",
    "serviceType": "通所介護",
    "capacity": 0,
    "openDays": [
      "平日",
      "土曜日",
      "祝日"
    ],
    "openDaysNote": "天災　　地震・洪水・暴風雨・雪等"
  },
  {
    "id": "4472700121",
    "name": "久住デイサービスセンター",
    "kana": "クジュウデイサービスセンター",
    "address": "大分県竹田市久住大字久住6485番地1",
    "lat": 33.0204360264784,
    "lng": 131.297154914912,
    "tel": "0974-76-0112",
    "url": "",
    "pref": "大分県",
    "city": "竹田市",
    "category": "day_service",
    "serviceType": "通所介護",
    "capacity": 25,
    "openDays": [
      "平日",
      "土曜日",
      "祝日"
    ],
    "openDaysNote": "気象条件等により送迎時間の変更、営業の中止をする場合があります。"
  },
  {
    "id": "4470800576",
    "name": "長湯憩の家デイサービスセンター",
    "kana": "ナガユイコイノイエデイサービスセンター",
    "address": "大分県竹田市直入町長湯3050-2",
    "lat": 33.066772,
    "lng": 131.3747121,
    "tel": "0974-75-2124",
    "url": "http://www.kaiseien-bungo-ohno.com/",
    "pref": "大分県",
    "city": "竹田市",
    "category": "day_service",
    "serviceType": "通所介護",
    "capacity": 20,
    "openDays": [
      "平日",
      "祝日"
    ],
    "openDaysNote": ""
  },
  {
    "id": "4470800147",
    "name": "悠々居デイサービスセンター",
    "kana": "ユウユウキョデイサービスセンター",
    "address": "大分県竹田市大字三宅1763番地1",
    "lat": 32.9909934,
    "lng": 131.4138924,
    "tel": "0974-63-3200",
    "url": "https://yuyukyo.com",
    "pref": "大分県",
    "city": "竹田市",
    "category": "day_service",
    "serviceType": "通所介護",
    "capacity": 0,
    "openDays": [
      "平日",
      "土曜日",
      "祝日"
    ],
    "openDaysNote": ""
  },
  {
    "id": "4470300510",
    "name": "いずみの園デイサービスセンターかきぜ",
    "kana": "イズミノソノデイサービスセンターカキゼ",
    "address": "大分県中津市蛎瀬643福祉の里センター　サマリア館 福祉の里センター　サマリア館",
    "lat": 33.6034127,
    "lng": 131.201215,
    "tel": "0979-26-0039",
    "url": "http://www.izuminosono.jp",
    "pref": "大分県",
    "city": "中津市",
    "category": "day_service",
    "serviceType": "通所介護",
    "capacity": 0,
    "openDays": [
      "平日",
      "土曜日",
      "祝日"
    ],
    "openDaysNote": ""
  },
  {
    "id": "4470300130",
    "name": "いずみの園デイサービスセンターふれんど館",
    "kana": "イズミノソノデイサービスセンターフレンドカン",
    "address": "大分県中津市永添2744",
    "lat": 33.5613134862987,
    "lng": 131.198195611746,
    "tel": "0979-22-5858",
    "url": "http://www.izuminosono.jp/",
    "pref": "大分県",
    "city": "中津市",
    "category": "day_service",
    "serviceType": "通所介護",
    "capacity": 0,
    "openDays": [
      "平日",
      "土曜日",
      "祝日"
    ],
    "openDaysNote": ""
  },
  {
    "id": "4470301021",
    "name": "いずみの園リハビリセンターふれあい館",
    "kana": "イズミノソノリハビリセンターフレアイカン",
    "address": "大分県中津市永添2744",
    "lat": 33.5616209506791,
    "lng": 131.19858709824,
    "tel": "0979-64-9058",
    "url": "http://www.izuminosono.jp/",
    "pref": "大分県",
    "city": "中津市",
    "category": "day_service",
    "serviceType": "通所介護",
    "capacity": 0,
    "openDays": [
      "平日",
      "祝日"
    ],
    "openDaysNote": ""
  },
  {
    "id": "4470300700",
    "name": "デイサービスおぐす",
    "kana": "デイサービスオグス",
    "address": "大分県中津市牛神19番地1",
    "lat": 33.6014435,
    "lng": 131.2033038,
    "tel": "0979-24-7212",
    "url": "http：//www.taizenkai.com/",
    "pref": "大分県",
    "city": "中津市",
    "category": "day_service",
    "serviceType": "通所介護",
    "capacity": 0,
    "openDays": [
      "平日",
      "土曜日",
      "祝日"
    ],
    "openDaysNote": ""
  },
  {
    "id": "4470300536",
    "name": "デイサービスセンター　うちお",
    "kana": "デイサービスセンター　ウチオ",
    "address": "大分県中津市大字上宮永３３１番地２",
    "lat": 33.5842611,
    "lng": 131.1843143,
    "tel": "０９７９－２４－６１０１",
    "url": "www.uchio-seikei.com",
    "pref": "大分県",
    "city": "中津市",
    "category": "day_service",
    "serviceType": "通所介護",
    "capacity": null,
    "openDays": [
      "平日"
    ],
    "openDaysNote": ""
  },
  {
    "id": "4470301443",
    "name": "デイサービスセンター　ゆるりと",
    "kana": "デイサービスセンター　ユルリト",
    "address": "大分県中津市大字大塚544-1",
    "lat": 33.6097318,
    "lng": 131.2042577,
    "tel": "0979-24-3111",
    "url": "",
    "pref": "大分県",
    "city": "中津市",
    "category": "day_service",
    "serviceType": "通所介護",
    "capacity": 0,
    "openDays": [
      "平日",
      "土曜日",
      "祝日"
    ],
    "openDaysNote": ""
  },
  {
    "id": "4470301377",
    "name": "デイサービスセンターえーる",
    "kana": "デイサービスセンターエール",
    "address": "大分県中津市大字大貞371-356",
    "lat": 33.566359346877,
    "lng": 131.209566689449,
    "tel": "0979-32-0255",
    "url": "",
    "pref": "大分県",
    "city": "中津市",
    "category": "day_service",
    "serviceType": "通所介護",
    "capacity": null,
    "openDays": [
      "平日",
      "土曜日",
      "祝日"
    ],
    "openDaysNote": ""
  },
  {
    "id": "4470301252",
    "name": "デイサービスセンターおうま",
    "kana": "デイサービスセンターオウマ",
    "address": "大分県中津市大字合馬字池ノ手2－1",
    "lat": 33.5853205052622,
    "lng": 131.222449197623,
    "tel": "0979-53-9429",
    "url": "",
    "pref": "大分県",
    "city": "中津市",
    "category": "day_service",
    "serviceType": "通所介護",
    "capacity": 25,
    "openDays": [
      "平日",
      "祝日"
    ],
    "openDaysNote": ""
  },
  {
    "id": "4470301401",
    "name": "デイサービスセンターかなで",
    "kana": "デイサービスセンターカナデ",
    "address": "大分県中津市大字上如水379番地",
    "lat": 33.5825202012072,
    "lng": 131.228686625656,
    "tel": "0979-64-7483",
    "url": "https://meguminokai.co.jp",
    "pref": "大分県",
    "city": "中津市",
    "category": "day_service",
    "serviceType": "通所介護",
    "capacity": null,
    "openDays": [
      "平日",
      "土曜日",
      "日曜日",
      "祝日"
    ],
    "openDaysNote": ""
  },
  {
    "id": "4470301294",
    "name": "デイサービスセンターグリーンヴィレッジ",
    "kana": "デイサービスセンターグリーンウ゛ィレッジ",
    "address": "大分県中津市大字犬丸763-1",
    "lat": 33.5648864580481,
    "lng": 131.25566128129,
    "tel": "0979-32-5355",
    "url": "",
    "pref": "大分県",
    "city": "中津市",
    "category": "day_service",
    "serviceType": "通所介護",
    "capacity": 32,
    "openDays": [
      "平日",
      "土曜日",
      "祝日"
    ],
    "openDaysNote": ""
  },
  {
    "id": "4470300833",
    "name": "デイサービスセンターなごみ",
    "kana": "デイサービスセンターナゴミ",
    "address": "大分県中津市大字万田57番地1",
    "lat": 33.5734565,
    "lng": 131.1855228,
    "tel": "0979-24-6355",
    "url": "",
    "pref": "大分県",
    "city": "中津市",
    "category": "day_service",
    "serviceType": "通所介護",
    "capacity": 0,
    "openDays": [
      "平日",
      "土曜日",
      "祝日"
    ],
    "openDaysNote": ""
  },
  {
    "id": "4470301104",
    "name": "デイサービスセンターよつ葉",
    "kana": "デイサービスセンターヨツバ",
    "address": "大分県中津市大字永添2636-114",
    "lat": 33.5623198,
    "lng": 131.202402,
    "tel": "0979-24-2428",
    "url": "http://www.kaigo-yotsuba.com/",
    "pref": "大分県",
    "city": "中津市",
    "category": "day_service",
    "serviceType": "通所介護",
    "capacity": 0,
    "openDays": [
      "平日",
      "土曜日",
      "祝日"
    ],
    "openDaysNote": "12/31、1/1、1/2、1/3　は休み。"
  },
  {
    "id": "4470301062",
    "name": "デイサービスセンター花しょうぶ",
    "kana": "デイサービスセンターハナショウブ",
    "address": "大字下池永227-1",
    "lat": 33.5884453,
    "lng": 131.2151503,
    "tel": "0979-22-4165",
    "url": "hanasyoubu@kcc-fukushi.co.jp",
    "pref": "大分県",
    "city": "中津市",
    "category": "day_service",
    "serviceType": "通所介護",
    "capacity": 0,
    "openDays": [
      "平日",
      "土曜日",
      "祝日"
    ],
    "openDaysNote": ""
  },
  {
    "id": "4470300767",
    "name": "デイサービスセンター喜楽",
    "kana": "デイサービスセンターキラク",
    "address": "大分県中津市山国町守実112番地の12",
    "lat": 33.4030786,
    "lng": 131.0424,
    "tel": "0979-62-3883",
    "url": "",
    "pref": "大分県",
    "city": "中津市",
    "category": "day_service",
    "serviceType": "通所介護",
    "capacity": null,
    "openDays": [
      "平日",
      "土曜日"
    ],
    "openDaysNote": ""
  },
  {
    "id": "4470300650",
    "name": "デイサービスセンター玄々堂",
    "kana": "デイサービスセンターゲンゲンドウ",
    "address": "大分県中津市下池永13番地",
    "lat": 33.5884257,
    "lng": 131.2102119,
    "tel": "0979-24-7229",
    "url": "http://act-group.jp/care/",
    "pref": "大分県",
    "city": "中津市",
    "category": "day_service",
    "serviceType": "通所介護",
    "capacity": 0,
    "openDays": [
      "平日",
      "土曜日",
      "日曜日",
      "祝日"
    ],
    "openDaysNote": "なし"
  },
  {
    "id": "4473000158",
    "name": "デイサービスセンター三光",
    "kana": "デイサービスセンターサンコウ",
    "address": "大分県中津市三光成恒421番地1中津市三光福祉保健センター 中津市三光福祉保健センター",
    "lat": 33.5378843,
    "lng": 131.2095153,
    "tel": "0979-43-6696",
    "url": "",
    "pref": "大分県",
    "city": "中津市",
    "category": "day_service",
    "serviceType": "通所介護",
    "capacity": 0,
    "openDays": [
      "平日",
      "土曜日",
      "祝日"
    ],
    "openDaysNote": "特になし"
  },
  {
    "id": "4473000240",
    "name": "デイサービスセンター山国",
    "kana": "デイサービスセンターヤマクニ",
    "address": "大分県中津市山国町守実57番地1中津市山国高齢者生活福祉センター内 中津市山国高齢者生活福祉センター内",
    "lat": 33.4048783,
    "lng": 131.0412417,
    "tel": "0979-62-3093",
    "url": "",
    "pref": "大分県",
    "city": "中津市",
    "category": "day_service",
    "serviceType": "通所介護",
    "capacity": 0,
    "openDays": [
      "平日",
      "土曜日",
      "祝日"
    ],
    "openDaysNote": "特になし"
  },
  {
    "id": "4470300965",
    "name": "デイサービスセンター新生",
    "kana": "デイサービスセンターシンセイ",
    "address": "大分県中津市大字万田５９４",
    "lat": 33.5838639,
    "lng": 131.1852642,
    "tel": "０９７９－２３－８８３２",
    "url": "www.uchio-seikei.com",
    "pref": "大分県",
    "city": "中津市",
    "category": "day_service",
    "serviceType": "通所介護",
    "capacity": null,
    "openDays": [
      "平日"
    ],
    "openDaysNote": ""
  },
  {
    "id": "4473000109",
    "name": "デイサービスセンター本耶馬渓",
    "kana": "デイサービスセンターホンヤバケイ",
    "address": "大分県中津市本耶馬渓折元1243番地中津市本耶馬渓総合福祉センター内 中津市本耶馬渓総合福祉センター内",
    "lat": 33.4566785,
    "lng": 131.1856919,
    "tel": "0979-53-2244",
    "url": "",
    "pref": "大分県",
    "city": "中津市",
    "category": "day_service",
    "serviceType": "通所介護",
    "capacity": 0,
    "openDays": [
      "平日",
      "土曜日",
      "祝日"
    ],
    "openDaysNote": "特になし"
  },
  {
    "id": "4473000166",
    "name": "デイサービスセンター耶馬溪",
    "kana": "デイサービスセンターヤバケイ",
    "address": "大分県中津市耶馬溪町大字樋山路25番地1中津市耶馬溪老人デイサービスセンター 中津市耶馬溪老人デイサービスセンター",
    "lat": 33.4309126,
    "lng": 131.0979247,
    "tel": "0979－56－3020",
    "url": "",
    "pref": "大分県",
    "city": "中津市",
    "category": "day_service",
    "serviceType": "通所介護",
    "capacity": 0,
    "openDays": [
      "平日",
      "土曜日",
      "祝日"
    ],
    "openDaysNote": "携帯電話の転送にて時間外でも連絡できます。"
  },
  {
    "id": "4470300858",
    "name": "デイサービスセンター悠々",
    "kana": "デイサービスセンターユウユウ",
    "address": "大分県中津市豊田町6番地2",
    "lat": 33.5972684,
    "lng": 131.1895579,
    "tel": "0979-23-7755",
    "url": "http://www8.plala.or.jp/yuyu/",
    "pref": "大分県",
    "city": "中津市",
    "category": "day_service",
    "serviceType": "通所介護",
    "capacity": 0,
    "openDays": [
      "平日",
      "土曜日",
      "祝日"
    ],
    "openDaysNote": "特になし"
  },
  {
    "id": "4470301161",
    "name": "デイサービスひだまり",
    "kana": "デイサービスヒダマリ",
    "address": "大分県中津市大字宮夫14番地1かわしま介護ケアセンター かわしま介護ケアセンター",
    "lat": 33.5929809,
    "lng": 131.2135448,
    "tel": "0979-24-3880",
    "url": "http//kawashimahp.jp",
    "pref": "大分県",
    "city": "中津市",
    "category": "day_service",
    "serviceType": "通所介護",
    "capacity": 35,
    "openDays": [
      "平日",
      "土曜日",
      "祝日"
    ],
    "openDaysNote": "サービス提供時間はいずれも9時00分～17時00分"
  },
  {
    "id": "4470300775",
    "name": "デイサービス赤とんぼ中津いっちょう",
    "kana": "デイサービスアカトンボナカツイッチョウ",
    "address": "大分県中津市三光佐知930-1",
    "lat": 33.5584224,
    "lng": 131.1919252,
    "tel": "0979-26-8001",
    "url": "",
    "pref": "大分県",
    "city": "中津市",
    "category": "day_service",
    "serviceType": "通所介護",
    "capacity": 0,
    "openDays": [
      "平日",
      "土曜日",
      "祝日"
    ],
    "openDaysNote": ""
  },
  {
    "id": "4470301542",
    "name": "リハケアあるく",
    "kana": "リハケアアルク",
    "address": "大分県中津市大字大貞371-129リハケア リハケア",
    "lat": 33.5681432893994,
    "lng": 131.212593514078,
    "tel": "0979-64-9551",
    "url": "https://www.reha-care.jp/",
    "pref": "大分県",
    "city": "中津市",
    "category": "day_service",
    "serviceType": "通所介護",
    "capacity": 0,
    "openDays": [
      "平日"
    ],
    "openDaysNote": "年末12/31～1/3"
  },
  {
    "id": "4470300742",
    "name": "老人デイサービスセンター燦燦館中央",
    "kana": "ロウジンデイサービスセンターサンサンカンチュウオウ",
    "address": "大分県中津市中央町１丁目３－５４",
    "lat": 33.5923523,
    "lng": 131.1920856,
    "tel": "0979-33-7002",
    "url": "",
    "pref": "大分県",
    "city": "中津市",
    "category": "day_service",
    "serviceType": "通所介護",
    "capacity": 0,
    "openDays": [
      "平日",
      "土曜日",
      "祝日"
    ],
    "openDaysNote": "自然災害時にはお休みを頂く場合があります。"
  },
  {
    "id": "4470301211",
    "name": "老人デイサービスセンター燦燦館東なかつ",
    "kana": "ロウジンデイサービスセンターサンサンカンヒガシナカツ",
    "address": "大分県中津市大字上如水字野田1825番10",
    "lat": 33.5757372437357,
    "lng": 131.239851915358,
    "tel": "0979-26-2212",
    "url": "",
    "pref": "大分県",
    "city": "中津市",
    "category": "day_service",
    "serviceType": "通所介護",
    "capacity": 0,
    "openDays": [
      "平日",
      "土曜日",
      "祝日"
    ],
    "openDaysNote": "自然災害時はお休みを頂く場合があります。"
  },
  {
    "id": "4470700453",
    "name": "デイサービスセンターえん",
    "kana": "デイサービスセンターエン",
    "address": "大分県津久見市大字津久見1487-1",
    "lat": 33.0545341000843,
    "lng": 131.872660984825,
    "tel": "0972-82-6272",
    "url": "www.home-en.net",
    "pref": "大分県",
    "city": "津久見市",
    "category": "day_service",
    "serviceType": "通所介護",
    "capacity": 0,
    "openDays": [
      "平日",
      "土曜日",
      "祝日"
    ],
    "openDaysNote": "年末年始(12月31日、1月1日）休業"
  },
  {
    "id": "4470700230",
    "name": "デイサービスセンターおあしす",
    "kana": "デイサービスセンターオアシス",
    "address": "大分県津久見市大字津久見1270番地",
    "lat": 33.0595486,
    "lng": 131.8713432,
    "tel": "0972-82-7313",
    "url": "",
    "pref": "大分県",
    "city": "津久見市",
    "category": "day_service",
    "serviceType": "通所介護",
    "capacity": 0,
    "openDays": [
      "平日",
      "土曜日",
      "祝日"
    ],
    "openDaysNote": "特に無し"
  },
  {
    "id": "4470700347",
    "name": "デイサービスセンターやわらぎ",
    "kana": "デイサービスセンターヤワラギ",
    "address": "大分県津久見市大字上青江４８６６番地",
    "lat": 33.0805787,
    "lng": 131.8374951,
    "tel": "0972-82-8822",
    "url": "yawaragi@orchid.plala.or.jp",
    "pref": "大分県",
    "city": "津久見市",
    "category": "day_service",
    "serviceType": "通所介護",
    "capacity": 0,
    "openDays": [
      "平日",
      "土曜日",
      "祝日"
    ],
    "openDaysNote": ""
  },
  {
    "id": "4470700461",
    "name": "デイサービス寿楽",
    "kana": "デイサービスジュラク",
    "address": "大分県津久見市大字千怒1533番地",
    "lat": 33.0667901,
    "lng": 131.8872722,
    "tel": "0972-83-5581",
    "url": "https://jyuraku-tsukumi.com",
    "pref": "大分県",
    "city": "津久見市",
    "category": "day_service",
    "serviceType": "通所介護",
    "capacity": 0,
    "openDays": [
      "平日",
      "土曜日",
      "祝日"
    ],
    "openDaysNote": ""
  },
  {
    "id": "4470700081",
    "name": "白梅デイサービスセンターいこい",
    "kana": "シラウメデイサービスセンターイコイ",
    "address": "大分県津久見市徳浦宮町420番地",
    "lat": 33.0911334,
    "lng": 131.8508496,
    "tel": "0972－82－0345",
    "url": "",
    "pref": "大分県",
    "city": "津久見市",
    "category": "day_service",
    "serviceType": "通所介護",
    "capacity": null,
    "openDays": [
      "平日",
      "土曜日",
      "祝日"
    ],
    "openDaysNote": ""
  },
  {
    "id": "4472200627",
    "name": "うのスマイルデイサービスセンター",
    "kana": "ウノスマイルデイサービスセンター",
    "address": "大分県速見郡日出町２５１２番地１",
    "lat": 33.369261651252,
    "lng": 131.526769794393,
    "tel": "０９７７－７６－５８７１",
    "url": "",
    "pref": "大分県",
    "city": "日出町",
    "category": "day_service",
    "serviceType": "通所介護",
    "capacity": 0,
    "openDays": [
      "平日",
      "土曜日",
      "祝日"
    ],
    "openDaysNote": "特になし"
  },
  {
    "id": "4472200817",
    "name": "デイサービスセンター　すいれん　日出",
    "kana": "デイサービスセンター　スイレン　ヒジ",
    "address": "速見郡日出町3568-2",
    "lat": 33.369216,
    "lng": 131.5326365,
    "tel": "0977-73-0202",
    "url": "",
    "pref": "大分県",
    "city": "日出町",
    "category": "day_service",
    "serviceType": "通所介護",
    "capacity": null,
    "openDays": [
      "平日",
      "土曜日",
      "日曜日",
      "祝日"
    ],
    "openDaysNote": ""
  },
  {
    "id": "4472200841",
    "name": "デイサービスセンターいろは",
    "kana": "デイサービスセンターイロハ",
    "address": "大分県速見郡日出町藤原字里2303番地1、2305番地1",
    "lat": 33.3815857606838,
    "lng": 131.543035768672,
    "tel": "0977-75-8020",
    "url": "https://meguminokai.co.jp",
    "pref": "大分県",
    "city": "日出町",
    "category": "day_service",
    "serviceType": "通所介護",
    "capacity": null,
    "openDays": [
      "平日",
      "土曜日",
      "日曜日",
      "祝日"
    ],
    "openDaysNote": ""
  },
  {
    "id": "4472200221",
    "name": "デイサービスセンターぬくもりの里",
    "kana": "デイサービスセンターヌクモリノサト",
    "address": "大分県速見郡日出町大字藤原5708番地の3",
    "lat": 33.3958108433561,
    "lng": 131.552434905577,
    "tel": "0977-72-9711",
    "url": "http://www.youkoku.or.jp/",
    "pref": "大分県",
    "city": "日出町",
    "category": "day_service",
    "serviceType": "通所介護",
    "capacity": 0,
    "openDays": [
      "平日",
      "祝日"
    ],
    "openDaysNote": ""
  },
  {
    "id": "4472200684",
    "name": "デイサービスセンターまれぞら",
    "kana": "デイサービスセンターマレゾラ",
    "address": "大分県日出町大字豊岡字辻間6100番250",
    "lat": 33.3710066635921,
    "lng": 131.514526239745,
    "tel": "0977-72-1289",
    "url": "https://meguminokai.co.jp",
    "pref": "大分県",
    "city": "日出町",
    "category": "day_service",
    "serviceType": "通所介護",
    "capacity": 0,
    "openDays": [
      "平日",
      "土曜日",
      "日曜日",
      "祝日"
    ],
    "openDaysNote": ""
  },
  {
    "id": "4472200700",
    "name": "デイサービスセンター紬寿里",
    "kana": "デイサービスセンターユズリ",
    "address": "大分県速見郡日出町3568-2",
    "lat": 33.3751469,
    "lng": 131.5376904,
    "tel": "0977-73-0202",
    "url": "http://yamanokai.co.jp/index.html",
    "pref": "大分県",
    "city": "日出町",
    "category": "day_service",
    "serviceType": "通所介護",
    "capacity": null,
    "openDays": [
      "平日",
      "土曜日",
      "日曜日",
      "祝日"
    ],
    "openDaysNote": ""
  },
  {
    "id": "4472200775",
    "name": "デイリーライフかい福",
    "kana": "デイリーライフ　カイフク",
    "address": "大分県速見郡日出町大字川崎４８６４番地１",
    "lat": 33.3596248453792,
    "lng": 131.551233476235,
    "tel": "０９７７－７６－５９０７",
    "url": "http://dailylife3.wix.com/dailylife-kaigo",
    "pref": "大分県",
    "city": "日出町",
    "category": "day_service",
    "serviceType": "通所介護",
    "capacity": 10,
    "openDays": [
      "平日",
      "土曜日",
      "祝日"
    ],
    "openDaysNote": "営業時間外の緊急の時は管理者の携帯電話へ転送されます。"
  },
  {
    "id": "4472200452",
    "name": "ライフホームまないﾃﾞｲｻｰﾋﾞｽｾﾝﾀｰ",
    "kana": "ライフホームマナイデイサービスセンター",
    "address": "大分県速見郡日出町真那井1871番地",
    "lat": 33.3725024,
    "lng": 131.5985496,
    "tel": "0977-72-1212",
    "url": "",
    "pref": "大分県",
    "city": "日出町",
    "category": "day_service",
    "serviceType": "通所介護",
    "capacity": 0,
    "openDays": [
      "平日",
      "祝日"
    ],
    "openDaysNote": ""
  },
  {
    "id": "4472200551",
    "name": "通所介護デイサービスセンター・サンライズ",
    "kana": "ツウショカイゴデイサービスセンター・サンライズ",
    "address": "大分県速見郡日出町1827番地1サンライズケアセンター サンライズケアセンター",
    "lat": 33.3709851028531,
    "lng": 131.52923662524,
    "tel": "0977-72-1111",
    "url": "http://www.heiseikai.com/",
    "pref": "大分県",
    "city": "日出町",
    "category": "day_service",
    "serviceType": "通所介護",
    "capacity": 0,
    "openDays": [
      "平日",
      "土曜日",
      "祝日"
    ],
    "openDaysNote": ""
  },
  {
    "id": "4470401441",
    "name": "あいのてる丘デイサービス",
    "kana": "アイノテルオカデイサービス",
    "address": "大分県日田市大字十二町４８４－３住宅型有料老人ホームあいのてる丘 住宅型有料老人ホームあいのてる丘",
    "lat": 33.3245597731621,
    "lng": 130.920253295601,
    "tel": "0973-28-6363",
    "url": "http://horita-clinic.com/",
    "pref": "大分県",
    "city": "日田市",
    "category": "day_service",
    "serviceType": "通所介護",
    "capacity": 30,
    "openDays": [
      "平日",
      "土曜日",
      "祝日"
    ],
    "openDaysNote": "毎週月曜日～土曜日の営業（祭日も営業）、１月１日はお休みいたします。"
  },
  {
    "id": "4470400658",
    "name": "デイサービスセンター　ゆあーじゅ",
    "kana": "デイサービスセンター　　ユアージュ",
    "address": "大分県日田市大字三和825番3",
    "lat": 33.3464749471902,
    "lng": 130.939841291988,
    "tel": "0973-26-0889",
    "url": "",
    "pref": "大分県",
    "city": "日田市",
    "category": "day_service",
    "serviceType": "通所介護",
    "capacity": null,
    "openDays": [
      "平日",
      "土曜日",
      "祝日"
    ],
    "openDaysNote": "お盆、祝日通常どおり営業。年末は12/31まで通常どおり営業。"
  },
  {
    "id": "4470401656",
    "name": "デイサービスセンターすいれん",
    "kana": "デイサービスセンター　スイレン",
    "address": "大分県日田市日高2309-1",
    "lat": 33.30369,
    "lng": 130.9587606,
    "tel": "0973-24-7222",
    "url": "",
    "pref": "大分県",
    "city": "日田市",
    "category": "day_service",
    "serviceType": "通所介護",
    "capacity": null,
    "openDays": [
      "平日",
      "土曜日",
      "日曜日",
      "祝日"
    ],
    "openDaysNote": ""
  },
  {
    "id": "4470400989",
    "name": "デイサービスセンターソレイユの郷",
    "kana": "デイサービスセンターソレイユノサト",
    "address": "大分県日田市日高町２３０９－１ソレイユの郷日高 ソレイユの郷日高",
    "lat": 33.3038351943357,
    "lng": 130.959097484023,
    "tel": "0973-24-7222",
    "url": "",
    "pref": "大分県",
    "city": "日田市",
    "category": "day_service",
    "serviceType": "通所介護",
    "capacity": 35,
    "openDays": [
      "平日",
      "土曜日",
      "日曜日",
      "祝日"
    ],
    "openDaysNote": "原則年中無休にて営業をしておりますが、事業所内での感染症の蔓延等がある際には予告なく営業を中止することがございます。"
  },
  {
    "id": "4472900101",
    "name": "デイサービスセンター喜楽苑",
    "kana": "デイサービスセンターキラクエン",
    "address": "大分県日田市天瀬町桜竹1115-87",
    "lat": 33.2425558,
    "lng": 131.0118788,
    "tel": "973267811",
    "url": "http://care-net.biz/44/kirakuen/index.php",
    "pref": "大分県",
    "city": "日田市",
    "category": "day_service",
    "serviceType": "通所介護",
    "capacity": 0,
    "openDays": [
      "平日",
      "土曜日",
      "祝日"
    ],
    "openDaysNote": ""
  },
  {
    "id": "4470401581",
    "name": "デイサービスセンター日田ゆうあい",
    "kana": "デイサービスセンターヒタユウアイ",
    "address": "大分県日田市亀山町4-16",
    "lat": 33.3180049,
    "lng": 130.9300418,
    "tel": "0973-28-6617",
    "url": "",
    "pref": "大分県",
    "city": "日田市",
    "category": "day_service",
    "serviceType": "通所介護",
    "capacity": 0,
    "openDays": [
      "平日",
      "土曜日",
      "祝日"
    ],
    "openDaysNote": ""
  },
  {
    "id": "4470401714",
    "name": "デイサービスセンター日田ゆうあい",
    "kana": "デイサービスセンターヒタユウアイ",
    "address": "大分県日田市亀山町4-16",
    "lat": 33.3173705657166,
    "lng": 130.929739831352,
    "tel": "0973-28-6617",
    "url": "https://a-lifesupport.co.jp",
    "pref": "大分県",
    "city": "日田市",
    "category": "day_service",
    "serviceType": "通所介護",
    "capacity": null,
    "openDays": [
      "平日",
      "土曜日",
      "祝日"
    ],
    "openDaysNote": ""
  },
  {
    "id": "4470400914",
    "name": "ディサービスゆめ倶楽部",
    "kana": "ディサービスユメクラブ",
    "address": "大分県日田市神来町607-5",
    "lat": 33.3129200432325,
    "lng": 130.960066347083,
    "tel": "0973-22-7888",
    "url": "http://www.suimei.or.jp",
    "pref": "大分県",
    "city": "日田市",
    "category": "day_service",
    "serviceType": "通所介護",
    "capacity": 0,
    "openDays": [
      "平日",
      "土曜日",
      "祝日"
    ],
    "openDaysNote": "特になし"
  },
  {
    "id": "4470400807",
    "name": "デイサービス翔",
    "kana": "デイサービスショウ",
    "address": "大分県日田市大字友田1424－2",
    "lat": 33.3295813,
    "lng": 130.9205397,
    "tel": "973276676",
    "url": "",
    "pref": "大分県",
    "city": "日田市",
    "category": "day_service",
    "serviceType": "通所介護",
    "capacity": 0,
    "openDays": [
      "平日",
      "土曜日",
      "祝日"
    ],
    "openDaysNote": ""
  },
  {
    "id": "4470401391",
    "name": "デイサービス蹈青",
    "kana": "デイサービストウセイ",
    "address": "大分県日田市南元町304番2",
    "lat": 33.3123974813909,
    "lng": 130.942293177663,
    "tel": "0973-22-8808",
    "url": "",
    "pref": "大分県",
    "city": "日田市",
    "category": "day_service",
    "serviceType": "通所介護",
    "capacity": 0,
    "openDays": [
      "平日",
      "土曜日",
      "祝日"
    ],
    "openDaysNote": ""
  },
  {
    "id": "4470400096",
    "name": "ニチイケアセンター日田",
    "kana": "ニチイケアセンターヒタ",
    "address": "大分県日田市三芳小渕町36番",
    "lat": 33.3049484,
    "lng": 130.9508045,
    "tel": "0973-27-6513",
    "url": "",
    "pref": "大分県",
    "city": "日田市",
    "category": "day_service",
    "serviceType": "通所介護",
    "capacity": 0,
    "openDays": [
      "平日",
      "土曜日",
      "祝日"
    ],
    "openDaysNote": ""
  },
  {
    "id": "4470400021",
    "name": "介護保険サービスセンター花月園",
    "kana": "カイゴホケンサービスセンターカゲツエン",
    "address": "大分県日田市日ノ出町156",
    "lat": 33.3347398,
    "lng": 130.939713,
    "tel": "0973-26-3500",
    "url": "www.kagetsuen-swc.com/",
    "pref": "大分県",
    "city": "日田市",
    "category": "day_service",
    "serviceType": "通所介護",
    "capacity": 0,
    "openDays": [
      "平日",
      "土曜日",
      "祝日"
    ],
    "openDaysNote": ""
  },
  {
    "id": "4470400237",
    "name": "日田デイサービスセンター",
    "kana": "ヒタデイサービスセンター",
    "address": "日田市大字石井字池ノ瀬271番地の2",
    "lat": 33.3125761318072,
    "lng": 130.911911942744,
    "tel": "0973-23-3536",
    "url": "http://www.hitaen.jp/",
    "pref": "大分県",
    "city": "日田市",
    "category": "day_service",
    "serviceType": "通所介護",
    "capacity": 0,
    "openDays": [
      "平日",
      "土曜日",
      "祝日"
    ],
    "openDaysNote": "特になし"
  },
  {
    "id": "4470400955",
    "name": "日田園ヘルスケアセンター",
    "kana": "ヒタエンヘルスケアセンター",
    "address": "大分県日田市大字石井字池ノ瀬271番地の2",
    "lat": 33.3180349,
    "lng": 130.9150458,
    "tel": "0973-28-6990",
    "url": "http://www.hitaen.jp/",
    "pref": "大分県",
    "city": "日田市",
    "category": "day_service",
    "serviceType": "通所介護",
    "capacity": 0,
    "openDays": [
      "平日"
    ],
    "openDaysNote": ""
  },
  {
    "id": "4472900036",
    "name": "日田市社協　介護保険サービスセンター「おおやま」",
    "kana": "ヒタシシャキョウ　カイゴホケンサービスセンター「オオヤマ」",
    "address": "大分県日田市大山町西大山3610番地１大山総合福祉センター 大山総合福祉センター",
    "lat": 33.2581539456593,
    "lng": 130.968976196295,
    "tel": "0973-52-3454",
    "url": "http://www.hitashakyo.jp/",
    "pref": "大分県",
    "city": "日田市",
    "category": "day_service",
    "serviceType": "通所介護",
    "capacity": 0,
    "openDays": [
      "平日",
      "土曜日",
      "祝日"
    ],
    "openDaysNote": ""
  },
  {
    "id": "4472900200",
    "name": "日田市社協デイサービスセンター「あまがせ」",
    "kana": "ヒタシシャキョウデイサービスセンター「アマガセ」",
    "address": "大分県日田市天瀬町合田1986-2",
    "lat": 33.2835573,
    "lng": 131.0075613,
    "tel": "0973-57-3157",
    "url": "https://www.hitashakyo.jp",
    "pref": "大分県",
    "city": "日田市",
    "category": "day_service",
    "serviceType": "通所介護",
    "capacity": null,
    "openDays": [
      "平日",
      "祝日"
    ],
    "openDaysNote": ""
  },
  {
    "id": "4470401748",
    "name": "日田市社協デイサービスセンター「つえ」",
    "kana": "ヒタシシャキョウデイサービスセンター「ツエ」",
    "address": "大分県日田市中津江村栃野4344番地1日田市津江高齢者生活福祉センター「長寿苑」 日田市津江高齢者生活福祉センター「長寿苑」",
    "lat": 33.1391695,
    "lng": 130.9743575,
    "tel": "0973-54-3300",
    "url": "www.hitasyakyo.jo",
    "pref": "大分県",
    "city": "日田市",
    "category": "day_service",
    "serviceType": "通所介護",
    "capacity": 0,
    "openDays": [
      "平日",
      "土曜日",
      "祝日"
    ],
    "openDaysNote": ""
  },
  {
    "id": "4470401508",
    "name": "悠愛デイサービス",
    "kana": "ユウアイデイサービス",
    "address": "大分県日田市亀山町5-30",
    "lat": 33.3178799,
    "lng": 130.9305584,
    "tel": "0973-28-5366",
    "url": "",
    "pref": "大分県",
    "city": "日田市",
    "category": "day_service",
    "serviceType": "通所介護",
    "capacity": 0,
    "openDays": [
      "平日",
      "土曜日",
      "祝日"
    ],
    "openDaysNote": ""
  },
  {
    "id": "4470400161",
    "name": "有田ひまわりデイサービスセンター",
    "kana": "アリタヒマワリデイサービスセンター",
    "address": "大分県日田市大字東有田字町ノ坪2番4",
    "lat": 33.3324471528365,
    "lng": 130.972592742965,
    "tel": "0973-23-7320",
    "url": "",
    "pref": "大分県",
    "city": "日田市",
    "category": "day_service",
    "serviceType": "通所介護",
    "capacity": 0,
    "openDays": [
      "平日",
      "土曜日",
      "祝日"
    ],
    "openDaysNote": ""
  },
  {
    "id": "4472100157",
    "name": "姫島村老人福祉施設姫寿苑",
    "kana": "ヒメシマムラロウジンフクシシセツヒメジュエン",
    "address": "大分県東国東郡姫島村１５６２番地",
    "lat": 33.723890454744,
    "lng": 131.646759054245,
    "tel": "0978-87-3703",
    "url": "",
    "pref": "大分県",
    "city": "姫島村",
    "category": "day_service",
    "serviceType": "通所介護",
    "capacity": 0,
    "openDays": [
      "平日",
      "土曜日",
      "祝日"
    ],
    "openDaysNote": ""
  },
  {
    "id": "4470201718",
    "name": "ＪＡべっぷ「グラティほっとパル」",
    "kana": "ジエイエイベップ「グラティホットパル」",
    "address": "大分県別府市大字鶴見４５番地の３",
    "lat": 33.3106262618367,
    "lng": 131.484435032222,
    "tel": "0977-66-1313",
    "url": "",
    "pref": "大分県",
    "city": "別府市",
    "category": "day_service",
    "serviceType": "通所介護",
    "capacity": 0,
    "openDays": [
      "平日",
      "土曜日",
      "祝日"
    ],
    "openDaysNote": "・台風及び降雪等により安全な送迎が出来ないと判断した場合は臨時休業及び時間短縮する場合があります。"
  },
  {
    "id": "4470202575",
    "name": "アイリス別府デイサービスセンター",
    "kana": "アイリスベップデイサービスセンター",
    "address": "大分県別府市観海寺3組",
    "lat": 33.2817472144124,
    "lng": 131.476805730827,
    "tel": "0977－76－5577",
    "url": "http://www.niji-iris.com/",
    "pref": "大分県",
    "city": "別府市",
    "category": "day_service",
    "serviceType": "通所介護",
    "capacity": 0,
    "openDays": [
      "平日",
      "土曜日",
      "祝日"
    ],
    "openDaysNote": ""
  },
  {
    "id": "4470202476",
    "name": "アンジュ別府デイサービスセンター",
    "kana": "アンジュベップデイサービスセンター",
    "address": "大分県別府市大字鉄輪671番地住宅型有料老人ホーム　アンジュ別府 住宅型有料老人ホーム　アンジュ別府",
    "lat": 33.3175441,
    "lng": 131.4760235,
    "tel": "0977-85-8563",
    "url": "http://www.anju-beppu",
    "pref": "大分県",
    "city": "別府市",
    "category": "day_service",
    "serviceType": "通所介護",
    "capacity": null,
    "openDays": [
      "平日",
      "祝日"
    ],
    "openDaysNote": "夏季休暇（8月14日、8月15日）　年末年始休暇（12月31日～1月3日）"
  },
  {
    "id": "4470202724",
    "name": "いまじんデイルーム別府朝見",
    "kana": "イマジンデイルームベップアサミ",
    "address": "大分県別府市朝見3丁目3955番2ケアいまじん別府朝見弐番館 ケアいまじん別府朝見弐番館",
    "lat": 33.2719021,
    "lng": 131.4908694,
    "tel": "0977-21-1007",
    "url": "http://f-imagine.net/",
    "pref": "大分県",
    "city": "別府市",
    "category": "day_service",
    "serviceType": "通所介護",
    "capacity": 0,
    "openDays": [
      "平日",
      "土曜日",
      "祝日"
    ],
    "openDaysNote": ""
  },
  {
    "id": "4470202435",
    "name": "サクラデマリデサービス",
    "kana": "サクラデマリデイサービス",
    "address": "大分県別府市扇山21組10",
    "lat": 33.293723368508,
    "lng": 131.472487526677,
    "tel": "0977-75-8821",
    "url": "http://koroh.x0.com/",
    "pref": "大分県",
    "city": "別府市",
    "category": "day_service",
    "serviceType": "通所介護",
    "capacity": 0,
    "openDays": [
      "平日",
      "土曜日",
      "日曜日",
      "祝日"
    ],
    "openDaysNote": ""
  },
  {
    "id": "4470203060",
    "name": "デイサーセンター別府中島",
    "kana": "デイサービスセンターベップナカシマ",
    "address": "大分県別府市中島町12－21",
    "lat": 33.2751993942671,
    "lng": 131.490348549074,
    "tel": "0977-85-7788",
    "url": "sachinokai.com",
    "pref": "大分県",
    "city": "別府市",
    "category": "day_service",
    "serviceType": "通所介護",
    "capacity": null,
    "openDays": [
      "平日",
      "土曜日",
      "日曜日",
      "祝日"
    ],
    "openDaysNote": ""
  },
  {
    "id": "4470201726",
    "name": "デイサービス　ひなたぼっこ",
    "kana": "デイサービス　ヒナタボッコ",
    "address": "大分県別府市南立石1区2組1",
    "lat": 33.2859016306187,
    "lng": 131.481742539519,
    "tel": "0977-21-8100",
    "url": "",
    "pref": "大分県",
    "city": "別府市",
    "category": "day_service",
    "serviceType": "通所介護",
    "capacity": 0,
    "openDays": [
      "平日",
      "土曜日",
      "祝日"
    ],
    "openDaysNote": ""
  },
  {
    "id": "4470203763",
    "name": "デイサービスｂ・cafe",
    "kana": "デイサービス・ビーカフェ",
    "address": "大分県別府市堀田4-2さわやか別府の里 さわやか別府の里",
    "lat": 33.2924143381321,
    "lng": 131.458400707138,
    "tel": "0977-26-1117",
    "url": "https://sawayakaclub.jp/beppunosato",
    "pref": "大分県",
    "city": "別府市",
    "category": "day_service",
    "serviceType": "通所介護",
    "capacity": 0,
    "openDays": [
      "平日",
      "祝日"
    ],
    "openDaysNote": ""
  },
  {
    "id": "4470203458",
    "name": "デイサービスせいか南立石",
    "kana": "デイサービスセイカミナミタテイシ",
    "address": "大分県別府市南立石本町１組",
    "lat": 33.2863371957889,
    "lng": 131.464731010312,
    "tel": "0977-76-8388",
    "url": "",
    "pref": "大分県",
    "city": "別府市",
    "category": "day_service",
    "serviceType": "通所介護",
    "capacity": null,
    "openDays": [
      "平日",
      "土曜日",
      "日曜日",
      "祝日"
    ],
    "openDaysNote": ""
  },
  {
    "id": "4470200330",
    "name": "デイサービスセンター　ゲンジョウ",
    "kana": "デイサービスセンター　ゲンジョウ",
    "address": "大分県別府市大字鉄輪字水落1068番地デイサービスセンター　ゲンジョウ デイサービスセンター　ゲンジョウ",
    "lat": 33.3173914,
    "lng": 131.4786427,
    "tel": "0977-66-7727",
    "url": "rouran-beppu.com",
    "pref": "大分県",
    "city": "別府市",
    "category": "day_service",
    "serviceType": "通所介護",
    "capacity": 8,
    "openDays": [
      "平日",
      "祝日"
    ],
    "openDaysNote": ""
  },
  {
    "id": "4470202211",
    "name": "デイサービスセンター　清水の郷",
    "kana": "デイサービスセンター　セイスイノサト",
    "address": "石垣東9丁目1番37号有料老人ホーム・デイサービスセンター清水の郷 有料老人ホーム・デイサービスセンター清水の郷",
    "lat": 33.3032511,
    "lng": 131.4993689,
    "tel": "0977-73-5510",
    "url": "",
    "pref": "大分県",
    "city": "別府市",
    "category": "day_service",
    "serviceType": "通所介護",
    "capacity": 33,
    "openDays": [
      "平日",
      "土曜日",
      "日曜日",
      "祝日"
    ],
    "openDaysNote": ""
  },
  {
    "id": "4470202526",
    "name": "デイサービスセンター　白梅の花",
    "kana": "デイサービスセンターシラウメノハナ",
    "address": "大分県別府市中島町11番25号",
    "lat": 33.2746212,
    "lng": 131.4906361,
    "tel": "0977-24-2000",
    "url": "",
    "pref": "大分県",
    "city": "別府市",
    "category": "day_service",
    "serviceType": "通所介護",
    "capacity": 51,
    "openDays": [
      "平日",
      "土曜日",
      "日曜日",
      "祝日"
    ],
    "openDaysNote": ""
  },
  {
    "id": "4470202492",
    "name": "デイサービスセンター　里庵",
    "kana": "デイサービスセンター　リアン",
    "address": "大分県別府市石垣東10丁目1番25号",
    "lat": 33.3050787,
    "lng": 131.4989051,
    "tel": "0977-76-5256",
    "url": "http://www.kubota-clinic.com/aion/",
    "pref": "大分県",
    "city": "別府市",
    "category": "day_service",
    "serviceType": "通所介護",
    "capacity": 0,
    "openDays": [
      "平日",
      "土曜日",
      "祝日"
    ],
    "openDaysNote": ""
  },
  {
    "id": "4470202989",
    "name": "デイサービスセンターエミアス鉄輪",
    "kana": "デイサービスセンターエミアスカンナワ",
    "address": "鉄輪御幸9組",
    "lat": 33.3166558971509,
    "lng": 131.474728388886,
    "tel": "0977－76－5221",
    "url": "http://www.bls-oita.co.jp/",
    "pref": "大分県",
    "city": "別府市",
    "category": "day_service",
    "serviceType": "通所介護",
    "capacity": 30,
    "openDays": [
      "平日",
      "土曜日",
      "祝日"
    ],
    "openDaysNote": ""
  },
  {
    "id": "4470202864",
    "name": "デイサービスセンターくろき",
    "kana": "デイサービスセンタークロキ",
    "address": "大分県別府市平田町2-2",
    "lat": 33.3201942,
    "lng": 131.4974689,
    "tel": "0977-84-7186",
    "url": "http://www.kuroki-hp.or.jp",
    "pref": "大分県",
    "city": "別府市",
    "category": "day_service",
    "serviceType": "通所介護",
    "capacity": 0,
    "openDays": [
      "平日",
      "土曜日",
      "祝日"
    ],
    "openDaysNote": "年末年始12/31～1/3休業"
  },
  {
    "id": "4470203003",
    "name": "デイサービスセンターこはる",
    "kana": "デイサービスセンターコハル",
    "address": "大分県別府市中島町2番4号",
    "lat": 33.2733075,
    "lng": 131.4931664,
    "tel": "0977-26-6001",
    "url": "https://meguminokai.co.jp",
    "pref": "大分県",
    "city": "別府市",
    "category": "day_service",
    "serviceType": "通所介護",
    "capacity": 0,
    "openDays": [
      "平日",
      "土曜日",
      "日曜日",
      "祝日"
    ],
    "openDaysNote": ""
  },
  {
    "id": "4470202641",
    "name": "デイサービスセンターつどい",
    "kana": "デイサービスセンターツドイ",
    "address": "別府市末広町3番1号内田病院5階 内田病院5階",
    "lat": 33.2735408,
    "lng": 131.5028461,
    "tel": "0977-21-5111",
    "url": "http://uchida-hp.jp",
    "pref": "大分県",
    "city": "別府市",
    "category": "day_service",
    "serviceType": "通所介護",
    "capacity": 0,
    "openDays": [
      "平日",
      "土曜日",
      "祝日"
    ],
    "openDaysNote": ""
  },
  {
    "id": "4470201817",
    "name": "デイサービスセンターはるかぜ庵",
    "kana": "デイサービスセンターハルカゼ　イホリ",
    "address": "大分県別府市石垣西10丁目2942番地",
    "lat": 33.3034678,
    "lng": 131.4915111,
    "tel": "0977-25-8688",
    "url": "http://www.harukaze.or.jp/",
    "pref": "大分県",
    "city": "別府市",
    "category": "day_service",
    "serviceType": "通所介護",
    "capacity": 20,
    "openDays": [
      "平日",
      "土曜日",
      "祝日"
    ],
    "openDaysNote": "年末最終日は9：35～15：35分までのサービス提供（6～7h）"
  },
  {
    "id": "4470201601",
    "name": "デイサービスセンターふれあい",
    "kana": "デイサービスセンターフレアイ",
    "address": "大分県別府市中島町19番29号",
    "lat": 33.2761571,
    "lng": 131.4901834,
    "tel": "0977-21-7171",
    "url": "http://www.hata.or.jp",
    "pref": "大分県",
    "city": "別府市",
    "category": "day_service",
    "serviceType": "通所介護",
    "capacity": 0,
    "openDays": [
      "平日",
      "土曜日",
      "祝日"
    ],
    "openDaysNote": "年末年始等その年ごとに仁泉会が必要に応じて休日を追加する事がある。"
  },
  {
    "id": "4470203250",
    "name": "デイサービスセンターぽれぽれ",
    "kana": "デイサービスセンターポレポレ",
    "address": "大分県別府市火売8組4",
    "lat": 33.3085033,
    "lng": 131.4734876,
    "tel": "0977-66-0887",
    "url": "",
    "pref": "大分県",
    "city": "別府市",
    "category": "day_service",
    "serviceType": "通所介護",
    "capacity": 0,
    "openDays": [
      "平日",
      "土曜日",
      "祝日"
    ],
    "openDaysNote": ""
  },
  {
    "id": "4470203243",
    "name": "デイサービスセンターマイウェイ別府",
    "kana": "デイサービスセンターマイウェイベップ",
    "address": "別府市鉄輪東11組",
    "lat": 33.3171212017343,
    "lng": 131.480287723413,
    "tel": "0977-85-7090",
    "url": "http://www.beppu-myway.jp/index.php",
    "pref": "大分県",
    "city": "別府市",
    "category": "day_service",
    "serviceType": "通所介護",
    "capacity": 0,
    "openDays": [
      "平日",
      "土曜日",
      "祝日"
    ],
    "openDaysNote": ""
  },
  {
    "id": "4470203334",
    "name": "デイサービスセンターまほろば",
    "kana": "デイサービスセンターマホロバ",
    "address": "大分県別府市上人ヶ浜町7番48号",
    "lat": 33.3186712213852,
    "lng": 131.499163908598,
    "tel": "0977-67-0789",
    "url": "http://meguminokai.co.jp",
    "pref": "大分県",
    "city": "別府市",
    "category": "day_service",
    "serviceType": "通所介護",
    "capacity": 50,
    "openDays": [
      "平日",
      "土曜日",
      "日曜日",
      "祝日"
    ],
    "openDaysNote": ""
  },
  {
    "id": "4470203029",
    "name": "デイサービスセンターわだち",
    "kana": "デイサービスセンターワダチ",
    "address": "別府市大字鶴見字古殿434番2",
    "lat": 33.3131613,
    "lng": 131.4803176,
    "tel": "0977-84-7676",
    "url": "info@beppu-shu.com",
    "pref": "大分県",
    "city": "別府市",
    "category": "day_service",
    "serviceType": "通所介護",
    "capacity": 0,
    "openDays": [
      "平日",
      "土曜日",
      "日曜日",
      "祝日"
    ],
    "openDaysNote": ""
  },
  {
    "id": "4470202385",
    "name": "デイサービスセンター火売",
    "kana": "デイサービスセンターホノメ",
    "address": "別府市大字鶴見字古殿434番1",
    "lat": 33.311474,
    "lng": 131.474656,
    "tel": "0977-75-8814",
    "url": "info@beppu-shu.com",
    "pref": "大分県",
    "city": "別府市",
    "category": "day_service",
    "serviceType": "通所介護",
    "capacity": 0,
    "openDays": [
      "平日",
      "土曜日",
      "日曜日",
      "祝日"
    ],
    "openDaysNote": ""
  },
  {
    "id": "4470203052",
    "name": "デイサービスセンター春花",
    "kana": "デイサービスセンターハルカ",
    "address": "大分県別府市大字鶴見1951番地の30はーとふるほーむ春花 はーとふるほーむ春花",
    "lat": 33.2995263498218,
    "lng": 131.463442789024,
    "tel": "0977-21-0015",
    "url": "https://yuuwa1122.jp/",
    "pref": "大分県",
    "city": "別府市",
    "category": "day_service",
    "serviceType": "通所介護",
    "capacity": 0,
    "openDays": [
      "平日",
      "土曜日",
      "日曜日",
      "祝日"
    ],
    "openDaysNote": ""
  },
  {
    "id": "4470203128",
    "name": "デイサービスセンター心和の里",
    "kana": "デイサービスセンターシンワノサト",
    "address": "大分県別府市大字鶴見４５４８番地２９１",
    "lat": 33.2967418302831,
    "lng": 131.466905114095,
    "tel": "0977-24-3911",
    "url": "",
    "pref": "大分県",
    "city": "別府市",
    "category": "day_service",
    "serviceType": "通所介護",
    "capacity": 40,
    "openDays": [
      "平日",
      "土曜日",
      "祝日"
    ],
    "openDaysNote": "盆休み：８月１４日・１５日（改行）年始休業：１月１日～１月３日"
  },
  {
    "id": "4470201031",
    "name": "デイサービスセンター新別府一燈園",
    "kana": "デイサービスセンター　シンベップイットウエン",
    "address": "大分県別府市大字鶴見字新別府3051番地3新別府一燈園 新別府一燈園",
    "lat": 33.3084058,
    "lng": 131.4806128,
    "tel": "0977-23-1818",
    "url": "http://www.ittouen.or.jp/",
    "pref": "大分県",
    "city": "別府市",
    "category": "day_service",
    "serviceType": "通所介護",
    "capacity": 0,
    "openDays": [
      "平日",
      "土曜日",
      "祝日"
    ],
    "openDaysNote": "特になし"
  },
  {
    "id": "4470202799",
    "name": "デイサービスセンター生活俱楽部",
    "kana": "デイサービスセンターセイカツクラブ",
    "address": "大分県別府市上原町６番２２号",
    "lat": 33.2787515484372,
    "lng": 131.486131137434,
    "tel": "0977-22-2220",
    "url": "",
    "pref": "大分県",
    "city": "別府市",
    "category": "day_service",
    "serviceType": "通所介護",
    "capacity": null,
    "openDays": [
      "平日",
      "土曜日",
      "日曜日",
      "祝日"
    ],
    "openDaysNote": ""
  },
  {
    "id": "4470202146",
    "name": "デイサービスセンター大学通り一燈園",
    "kana": "デイサービスセンターダイガクドオリイットウエン",
    "address": "大分県別府市上人南１０組",
    "lat": 33.3122726,
    "lng": 131.4962941,
    "tel": "０９７７－２７－８３３０",
    "url": "http://www@ittouen.or.jp",
    "pref": "大分県",
    "city": "別府市",
    "category": "day_service",
    "serviceType": "通所介護",
    "capacity": 0,
    "openDays": [
      "平日",
      "土曜日",
      "祝日"
    ],
    "openDaysNote": "年末年始については、別途休業日あり。"
  },
  {
    "id": "4470201262",
    "name": "デイサービスセンター大観苑",
    "kana": "デイサービスセンターダイカンエン",
    "address": "大分県別府市鉄輪東8組",
    "lat": 33.3177747,
    "lng": 131.483234,
    "tel": "0977－67－7878",
    "url": "http://www.daikanen.jp",
    "pref": "大分県",
    "city": "別府市",
    "category": "day_service",
    "serviceType": "通所介護",
    "capacity": 0,
    "openDays": [
      "平日",
      "土曜日",
      "祝日"
    ],
    "openDaysNote": "特になし"
  },
  {
    "id": "4470200256",
    "name": "デイサービスセンター南立石一燈園",
    "kana": "デイサービスセンターミナミタテイシイットウエン",
    "address": "大分県別府市大字南立石字板地中須賀１９２７番地１",
    "lat": 33.2871003220893,
    "lng": 131.473818498503,
    "tel": "0977-27-1060",
    "url": "http://www.ittouen.or.jp/",
    "pref": "大分県",
    "city": "別府市",
    "category": "day_service",
    "serviceType": "通所介護",
    "capacity": 0,
    "openDays": [
      "平日",
      "土曜日",
      "祝日"
    ],
    "openDaysNote": "台風や地震などの自然災害等で急遽休業したり、サービス提供時間を変更する可能性があります。"
  },
  {
    "id": "4470202013",
    "name": "デイサービスセンター浜脇一燈園",
    "kana": "デイサービスセンターハマワキイットウエン",
    "address": "大分県別府市浜脇1丁目8番20号",
    "lat": 33.2696387824659,
    "lng": 131.507940199336,
    "tel": "0977－73－4747",
    "url": "http://www.ittouen.or.jp/",
    "pref": "大分県",
    "city": "別府市",
    "category": "day_service",
    "serviceType": "通所介護",
    "capacity": 0,
    "openDays": [
      "平日",
      "土曜日",
      "祝日"
    ],
    "openDaysNote": "年末年始は別途取り決め告示します。"
  },
  {
    "id": "4470202708",
    "name": "デイサービスセンター福笑居",
    "kana": "デイサービスセンター　フクワライ",
    "address": "大分県別府市南荘園町６組",
    "lat": 33.2903942,
    "lng": 131.4802425,
    "tel": "0977-75-8788",
    "url": "https://www.fukuwarai-inc.com/",
    "pref": "大分県",
    "city": "別府市",
    "category": "day_service",
    "serviceType": "通所介護",
    "capacity": 35,
    "openDays": [
      "平日",
      "土曜日",
      "日曜日",
      "祝日"
    ],
    "openDaysNote": "年末年始の１２月３１日～１月２日までの三日間のみお休みします。"
  },
  {
    "id": "4470200413",
    "name": "デイサービスセンター別府石垣園",
    "kana": "デイサービスセンターベップイシガキエン",
    "address": "大分県別府市石垣西2-1-31",
    "lat": 33.2919582126387,
    "lng": 131.495260542425,
    "tel": "0977-25-3200",
    "url": "day@beppu-ishigakien.jp",
    "pref": "大分県",
    "city": "別府市",
    "category": "day_service",
    "serviceType": "通所介護",
    "capacity": 0,
    "openDays": [
      "平日",
      "土曜日",
      "祝日"
    ],
    "openDaysNote": ""
  },
  {
    "id": "4470202062",
    "name": "デイサービスセンター歩",
    "kana": "デイサービスセンター　アユミ",
    "address": "大分県別府市大字鶴見4548番1878",
    "lat": 33.2971461,
    "lng": 131.4635717,
    "tel": "0977-75-8704",
    "url": "info@beppu-shu.com",
    "pref": "大分県",
    "city": "別府市",
    "category": "day_service",
    "serviceType": "通所介護",
    "capacity": 0,
    "openDays": [
      "平日",
      "土曜日",
      "日曜日",
      "祝日"
    ],
    "openDaysNote": ""
  },
  {
    "id": "4470203789",
    "name": "デイサービスセンター豊海",
    "kana": "デイサービスセンタートヨミ",
    "address": "大分県別府市スパランド豊海14-7",
    "lat": 33.3415409438617,
    "lng": 131.484411448139,
    "tel": "0977-77-3090",
    "url": "",
    "pref": "大分県",
    "city": "別府市",
    "category": "day_service",
    "serviceType": "通所介護",
    "capacity": 0,
    "openDays": [
      "平日",
      "祝日"
    ],
    "openDaysNote": ""
  },
  {
    "id": "4470202609",
    "name": "デイサービスセンター祐",
    "kana": "デイサービスセンターユウ",
    "address": "大分県別府市大字鶴見字鶴見原4548-396",
    "lat": 33.2934872951904,
    "lng": 131.464512167766,
    "tel": "0977-25-3100",
    "url": "",
    "pref": "大分県",
    "city": "別府市",
    "category": "day_service",
    "serviceType": "通所介護",
    "capacity": 40,
    "openDays": [
      "平日",
      "土曜日",
      "日曜日",
      "祝日"
    ],
    "openDaysNote": ""
  },
  {
    "id": "4470202518",
    "name": "デイサービスまごころ",
    "kana": "デイサービス　マゴコロ",
    "address": "大分県別府市字鶴見字竹の内2169-1",
    "lat": 33.3023323,
    "lng": 131.467668,
    "tel": "0977-75-8851",
    "url": "http://www.beppu-magokoro.com",
    "pref": "大分県",
    "city": "別府市",
    "category": "day_service",
    "serviceType": "通所介護",
    "capacity": 20,
    "openDays": [
      "平日",
      "土曜日",
      "日曜日",
      "祝日"
    ],
    "openDaysNote": ""
  },
  {
    "id": "4470203367",
    "name": "デイサービスみらい",
    "kana": "デイサービスミライ",
    "address": "大分県別府市浜脇1丁目2-5",
    "lat": 33.2704495,
    "lng": 131.5091928,
    "tel": "0977-73-6600",
    "url": "https://www.sephaid-memory.co.jp/facility/index.html",
    "pref": "大分県",
    "city": "別府市",
    "category": "day_service",
    "serviceType": "通所介護",
    "capacity": 0,
    "openDays": [
      "平日",
      "祝日"
    ],
    "openDaysNote": ""
  },
  {
    "id": "4470203037",
    "name": "デイサービス大宮司",
    "kana": "デイサービスダイグウジ",
    "address": "大分県別府市火売6組２",
    "lat": 33.3131192754374,
    "lng": 131.470476247405,
    "tel": "0977-27-9888",
    "url": "http://lightcare-oita.com/",
    "pref": "大分県",
    "city": "別府市",
    "category": "day_service",
    "serviceType": "通所介護",
    "capacity": 40,
    "openDays": [
      "平日",
      "土曜日",
      "日曜日",
      "祝日"
    ],
    "openDaysNote": ""
  },
  {
    "id": "4470202674",
    "name": "デイサービス年輪",
    "kana": "デイサービスネンリン",
    "address": "大分県別府市堀田４組ー２",
    "lat": 33.2919164637372,
    "lng": 131.458498274704,
    "tel": "0977-22-2128",
    "url": "http://www.genkihinata1.com",
    "pref": "大分県",
    "city": "別府市",
    "category": "day_service",
    "serviceType": "通所介護",
    "capacity": 0,
    "openDays": [
      "平日",
      "土曜日",
      "祝日"
    ],
    "openDaysNote": ""
  },
  {
    "id": "4470203656",
    "name": "ローズガーデンデイサービス",
    "kana": "ローズガーデンデイサービス",
    "address": "大分県別府市野口元町1775",
    "lat": 33.2814284188903,
    "lng": 131.500710904887,
    "tel": "0977-21-6261",
    "url": "https://rosegarden-beppu.jp",
    "pref": "大分県",
    "city": "別府市",
    "category": "day_service",
    "serviceType": "通所介護",
    "capacity": 0,
    "openDays": [
      "平日",
      "祝日"
    ],
    "openDaysNote": ""
  },
  {
    "id": "4470201478",
    "name": "ローランデイサービスセンター",
    "kana": "ローランデイサービスセンター",
    "address": "大分県別府市大字薬師田字1750－2ローランデイサービスセンター ローランデイサービスセンター",
    "lat": 33.3080075489603,
    "lng": 131.464953900631,
    "tel": "0977－25－0007",
    "url": "",
    "pref": "大分県",
    "city": "別府市",
    "category": "day_service",
    "serviceType": "通所介護",
    "capacity": 0,
    "openDays": [
      "平日",
      "祝日"
    ],
    "openDaysNote": "年末年始"
  },
  {
    "id": "4470200371",
    "name": "恵幸園デイサービスセンター",
    "kana": "ケイコウエンデイサービスセンター",
    "address": "大分県別府市大字鶴見字津留山1340番地1",
    "lat": 33.3017985,
    "lng": 131.4808481,
    "tel": "0977-66-8488",
    "url": "",
    "pref": "大分県",
    "city": "別府市",
    "category": "day_service",
    "serviceType": "通所介護",
    "capacity": 0,
    "openDays": [
      "平日",
      "土曜日",
      "祝日"
    ],
    "openDaysNote": ""
  },
  {
    "id": "4470201833",
    "name": "扇山デイサービス",
    "kana": "オウギヤマデイサービス",
    "address": "大分県別府市扇山6-1-3",
    "lat": 33.2972867516473,
    "lng": 131.469034274503,
    "tel": "0977-25-4555",
    "url": "http://koroh.x0.com/",
    "pref": "大分県",
    "city": "別府市",
    "category": "day_service",
    "serviceType": "通所介護",
    "capacity": 0,
    "openDays": [
      "平日",
      "土曜日",
      "日曜日",
      "祝日"
    ],
    "openDaysNote": "ただし緊急時にはこの限りではない。"
  },
  {
    "id": "4470203730",
    "name": "多機能型事業所Bro'sGarden",
    "kana": "タキノウガタジギョウショ　ブロスガーデン",
    "address": "大分県別府市野田1459番地",
    "lat": 33.3242924,
    "lng": 131.476549,
    "tel": "977665800",
    "url": "https://www.broskoubou.jp",
    "pref": "大分県",
    "city": "別府市",
    "category": "day_service",
    "serviceType": "通所介護",
    "capacity": null,
    "openDays": [
      "平日",
      "土曜日",
      "祝日"
    ],
    "openDaysNote": ""
  },
  {
    "id": "4470201387",
    "name": "通所介護センター　ゆうゆうの郷　白雲山荘",
    "kana": "ツウショカイゴセンター　ユウユウノサト　ハクウンサンソウ",
    "address": "大分県別府市大字南立石2488番地の1",
    "lat": 33.2823534,
    "lng": 131.4754705,
    "tel": "0977-21-8050",
    "url": "http://www.hakuun.co.jp",
    "pref": "大分県",
    "city": "別府市",
    "category": "day_service",
    "serviceType": "通所介護",
    "capacity": 0,
    "openDays": [
      "平日",
      "土曜日",
      "祝日"
    ],
    "openDaysNote": ""
  },
  {
    "id": "4470203318",
    "name": "通所介護デイサービスミスト",
    "kana": "ツウショカイゴデイサービスミスト",
    "address": "大分県別府市鶴見6組の１グランドハウスミスト グランドハウスミスト",
    "lat": 33.2971462,
    "lng": 131.4763373,
    "tel": "0977-24-3310",
    "url": "http://grandhousemyst.jp/",
    "pref": "大分県",
    "city": "別府市",
    "category": "day_service",
    "serviceType": "通所介護",
    "capacity": 10,
    "openDays": [
      "平日",
      "土曜日",
      "日曜日",
      "祝日"
    ],
    "openDaysNote": ""
  },
  {
    "id": "4470203888",
    "name": "通所介護ロイヤルハウスミスト",
    "kana": "ツウショカイゴロイヤルハウスミスト",
    "address": "大分県別府市東荘園5丁目8番26号ロイヤルハウスミスト ロイヤルハウスミスト",
    "lat": 33.294813,
    "lng": 131.4852293,
    "tel": "0977-23-0017",
    "url": "https://grandhousemyst.jp/",
    "pref": "大分県",
    "city": "別府市",
    "category": "day_service",
    "serviceType": "通所介護",
    "capacity": 5,
    "openDays": [
      "平日",
      "土曜日"
    ],
    "openDaysNote": ""
  },
  {
    "id": "4470203359",
    "name": "別府湾リゾートデイサービス",
    "kana": "ベップワンリゾートデイサービス",
    "address": "大分県別府市大字浜脇29-11",
    "lat": 33.2667609,
    "lng": 131.5126979,
    "tel": "0977-27-1333",
    "url": "",
    "pref": "大分県",
    "city": "別府市",
    "category": "day_service",
    "serviceType": "通所介護",
    "capacity": 0,
    "openDays": [
      "平日",
      "土曜日",
      "日曜日",
      "祝日"
    ],
    "openDaysNote": ""
  },
  {
    "id": "4470201486",
    "name": "偕楽園指定通所介護事業所",
    "kana": "カイラクエンシテイツウショカイゴジギョウショ",
    "address": "大分県別府市大字南立石2170-15",
    "lat": 33.2876584,
    "lng": 131.4795925,
    "tel": "0977-26-6464",
    "url": "http://www.kairakuen-sunny.com/",
    "pref": "大分県",
    "city": "別府市",
    "category": "day_service",
    "serviceType": "通所介護",
    "capacity": 0,
    "openDays": [
      "平日",
      "土曜日",
      "祝日"
    ],
    "openDaysNote": ""
  },
  {
    "id": "4471100984",
    "name": "デイサービスオリーブ高田",
    "kana": "デイサービスオリーブタカダ",
    "address": "大分県豊後高田市新地1169番地デイサービスオリーブ高田 デイサービスオリーブ高田",
    "lat": 33.5543587115454,
    "lng": 131.43960267084,
    "tel": "0978-23-0115",
    "url": "http://olive-care.com/",
    "pref": "大分県",
    "city": "豊後高田市",
    "category": "day_service",
    "serviceType": "通所介護",
    "capacity": 0,
    "openDays": [
      "平日",
      "土曜日",
      "祝日"
    ],
    "openDaysNote": ""
  },
  {
    "id": "4472000134",
    "name": "デイサービスセンターふれあい館",
    "kana": "デイサービスセンターフレアイカン",
    "address": "大分県豊後高田市見目１０４番地",
    "lat": 33.664115,
    "lng": 131.5289105,
    "tel": "０９７８－５４－３１１０",
    "url": "syakyo-kakaji@rice.ne.jp",
    "pref": "大分県",
    "city": "豊後高田市",
    "category": "day_service",
    "serviceType": "通所介護",
    "capacity": 0,
    "openDays": [
      "平日",
      "土曜日"
    ],
    "openDaysNote": "特になし"
  },
  {
    "id": "4472000043",
    "name": "デイサービスセンター周防苑",
    "kana": "デイサービスセンタースオウエン",
    "address": "大分県豊後高田市臼野4335番地3",
    "lat": 33.6304172,
    "lng": 131.4763164,
    "tel": "0978-53-4666",
    "url": "http://www.buntaka.syuako.jp",
    "pref": "大分県",
    "city": "豊後高田市",
    "category": "day_service",
    "serviceType": "通所介護",
    "capacity": 0,
    "openDays": [
      "平日",
      "土曜日"
    ],
    "openDaysNote": ""
  },
  {
    "id": "4470900343",
    "name": "デイホーム玄々堂",
    "kana": "デイホームゲンゲンドウ",
    "address": "大分県豊後高田市呉崎３１５８－２あっとほーむ玄々堂・高田 あっとほーむ玄々堂・高田",
    "lat": 33.5689395,
    "lng": 131.4352991,
    "tel": "０９７８－２２－２８１１",
    "url": "",
    "pref": "大分県",
    "city": "豊後高田市",
    "category": "day_service",
    "serviceType": "通所介護",
    "capacity": 0,
    "openDays": [
      "平日",
      "土曜日",
      "祝日"
    ],
    "openDaysNote": ""
  },
  {
    "id": "4470900111",
    "name": "やすらぎの里デイサービスセンター",
    "kana": "ヤスラギノサトデイサービスセンター",
    "address": "大分県豊後高田市呉崎755-1",
    "lat": 33.5759609,
    "lng": 131.4321462,
    "tel": "0978-22-1311",
    "url": "http://s-yasuragi.org",
    "pref": "大分県",
    "city": "豊後高田市",
    "category": "day_service",
    "serviceType": "通所介護",
    "capacity": null,
    "openDays": [
      "平日",
      "土曜日",
      "祝日"
    ],
    "openDaysNote": "特に無し"
  },
  {
    "id": "4471200834",
    "name": "デイサービスさくらの",
    "kana": "デイサービスサクラノ",
    "address": "大分県豊後大野市三重町芦刈字津留前495番2",
    "lat": 33.0005846,
    "lng": 131.6086667,
    "tel": "0974－24－9026",
    "url": "hanaemisakurano.com",
    "pref": "大分県",
    "city": "豊後大野市",
    "category": "day_service",
    "serviceType": "通所介護",
    "capacity": null,
    "openDays": [
      "平日",
      "土曜日",
      "日曜日",
      "祝日"
    ],
    "openDaysNote": ""
  },
  {
    "id": "4471200313",
    "name": "デイサービスセンター　ケンコー",
    "kana": "デイサービスセンター　ケンコー",
    "address": "大分県豊後大野市犬飼町田原７７－７",
    "lat": 33.0682472209614,
    "lng": 131.6358860295,
    "tel": "097-578-1177",
    "url": "https://www.kenkoh-home.net/",
    "pref": "大分県",
    "city": "豊後大野市",
    "category": "day_service",
    "serviceType": "通所介護",
    "capacity": 0,
    "openDays": [
      "平日",
      "土曜日",
      "祝日"
    ],
    "openDaysNote": "特になし"
  },
  {
    "id": "4471200636",
    "name": "デイサービスセンター　フィットネスひかり",
    "kana": "デイサービスセンター　フィッネスヒカリ",
    "address": "大分県豊後大野市犬飼町田原302-1",
    "lat": 33.0639347,
    "lng": 131.6375006,
    "tel": "097-578-0623",
    "url": "",
    "pref": "大分県",
    "city": "豊後大野市",
    "category": "day_service",
    "serviceType": "通所介護",
    "capacity": 25,
    "openDays": [
      "平日",
      "祝日"
    ],
    "openDaysNote": "天候悪化等の予期せぬ状況で、利用者等の安全が確保できない恐れがある場合は、臨時に休日とします。（改行）感染症のクラスターの恐れがある場合。"
  },
  {
    "id": "4471200750",
    "name": "デイサービスセンター　フェリス",
    "kana": "デイサービスセンター　フェリス",
    "address": "大分県豊後大野市千歳町前田1157番地",
    "lat": 33.0198094,
    "lng": 131.58366,
    "tel": "0974-37-3070",
    "url": "http://www.citydo.com/prf/oita/guide/sg/520002912.html",
    "pref": "大分県",
    "city": "豊後大野市",
    "category": "day_service",
    "serviceType": "通所介護",
    "capacity": null,
    "openDays": [
      "平日",
      "土曜日",
      "日曜日",
      "祝日"
    ],
    "openDaysNote": ""
  },
  {
    "id": "4471200644",
    "name": "デイサービスセンターえがおの丘",
    "kana": "デイサービスセンターエガオノオカ",
    "address": "大分県豊後大野市犬飼町田原字石井3074番地の1",
    "lat": 33.0516099511843,
    "lng": 131.620992253581,
    "tel": "097-578-1150",
    "url": "",
    "pref": "大分県",
    "city": "豊後大野市",
    "category": "day_service",
    "serviceType": "通所介護",
    "capacity": 32,
    "openDays": [
      "平日",
      "土曜日",
      "祝日"
    ],
    "openDaysNote": ""
  },
  {
    "id": "4472600545",
    "name": "デイサービスセンターなごみ塾",
    "kana": "デイサービスセンターナゴミジュク",
    "address": "大分県豊後大野市緒方町馬場７９６－１",
    "lat": 32.9742163,
    "lng": 131.4779117,
    "tel": "０９７４－４２－４２００",
    "url": "http://ninun.or.jp/",
    "pref": "大分県",
    "city": "豊後大野市",
    "category": "day_service",
    "serviceType": "通所介護",
    "capacity": 30,
    "openDays": [
      "平日",
      "祝日"
    ],
    "openDaysNote": "ご利用日は１２月３０日までとなります。"
  },
  {
    "id": "4471200784",
    "name": "デイサービスセンターニコニコ村",
    "kana": "デイサービスセンターニコニコムラ",
    "address": "大分県豊後大野市三重町菅生1-154",
    "lat": 32.9982381,
    "lng": 131.6187575,
    "tel": "0974-22-5850",
    "url": "",
    "pref": "大分県",
    "city": "豊後大野市",
    "category": "day_service",
    "serviceType": "通所介護",
    "capacity": null,
    "openDays": [
      "平日"
    ],
    "openDaysNote": ""
  },
  {
    "id": "4471200677",
    "name": "デイサービスセンターふくろう",
    "kana": "デイサービスセンターフクロウ",
    "address": "大分県豊後大野市三重町小坂4109-22デイサービスセンター　ふくろう デイサービスセンター　ふくろう",
    "lat": 32.9933368205254,
    "lng": 131.616058438623,
    "tel": "0974-24-0301",
    "url": "",
    "pref": "大分県",
    "city": "豊後大野市",
    "category": "day_service",
    "serviceType": "通所介護",
    "capacity": 0,
    "openDays": [
      "平日",
      "土曜日",
      "祝日"
    ],
    "openDaysNote": ""
  },
  {
    "id": "4471200610",
    "name": "デイサービスセンターゆりかご",
    "kana": "デイサービスセンターユリカゴ",
    "address": "大分県豊後大野市三重町菅生９２１番地１",
    "lat": 33.0103593,
    "lng": 131.6239456,
    "tel": "０９７４－２２－８１００",
    "url": "",
    "pref": "大分県",
    "city": "豊後大野市",
    "category": "day_service",
    "serviceType": "通所介護",
    "capacity": 0,
    "openDays": [
      "平日",
      "土曜日",
      "祝日"
    ],
    "openDaysNote": ""
  },
  {
    "id": "4472600859",
    "name": "デイサービスセンターよしちゃん家",
    "kana": "デイサービスセンターヨシチャンチ",
    "address": "大分県豊後大野市大野町屋原３８３番地１",
    "lat": 33.0358103638814,
    "lng": 131.485251285042,
    "tel": "0974-34-2270",
    "url": "",
    "pref": "大分県",
    "city": "豊後大野市",
    "category": "day_service",
    "serviceType": "通所介護",
    "capacity": 0,
    "openDays": [
      "平日",
      "土曜日",
      "日曜日",
      "祝日"
    ],
    "openDaysNote": ""
  },
  {
    "id": "4472600396",
    "name": "ディサービスセンター偕生園",
    "kana": "ディサービスセンターカイセイエン",
    "address": "大分県豊後大野市大野町田中700番地2",
    "lat": 33.0379578,
    "lng": 131.493298,
    "tel": "0974-34-3802",
    "url": "http://ｗｗｗ.kaiseien-bungo-ohno.com",
    "pref": "大分県",
    "city": "豊後大野市",
    "category": "day_service",
    "serviceType": "通所介護",
    "capacity": null,
    "openDays": [
      "平日",
      "祝日"
    ],
    "openDaysNote": ""
  },
  {
    "id": "4472600271",
    "name": "紫雲荘デイサービスセンター",
    "kana": "シウンソウデイサービスセンター",
    "address": "大分県豊後大野市三重町本城2054番地",
    "lat": 32.972688399257,
    "lng": 131.572248771828,
    "tel": "0974-22-7010",
    "url": "http://siunkai.com",
    "pref": "大分県",
    "city": "豊後大野市",
    "category": "day_service",
    "serviceType": "通所介護",
    "capacity": 0,
    "openDays": [
      "平日",
      "土曜日",
      "祝日"
    ],
    "openDaysNote": "悪天候(台風、積雪)による営業中止あり。"
  },
  {
    "id": "4471200537",
    "name": "常楽荘デイサービスセンター",
    "kana": "ジョウラクソウデイサービスセンター",
    "address": "豊後大野市緒方町下自在123番地１",
    "lat": 32.9708575750799,
    "lng": 131.471010826398,
    "tel": "０９７４-４２-２２７０",
    "url": "http://www.kaiseien-bungo-ohno.com/contentsogatadayservice.html",
    "pref": "大分県",
    "city": "豊後大野市",
    "category": "day_service",
    "serviceType": "通所介護",
    "capacity": 20,
    "openDays": [
      "平日",
      "祝日"
    ],
    "openDaysNote": ""
  },
  {
    "id": "4471200107",
    "name": "明日暦",
    "kana": "アシタコヨミ",
    "address": "大分県豊後大野市三重町小坂3862番地14",
    "lat": 32.9859887,
    "lng": 131.6056479,
    "tel": "0974-24-0111",
    "url": "",
    "pref": "大分県",
    "city": "豊後大野市",
    "category": "day_service",
    "serviceType": "通所介護",
    "capacity": 30,
    "openDays": [
      "平日",
      "土曜日",
      "祝日"
    ],
    "openDaysNote": ""
  },
  {
    "id": "4471300188",
    "name": "さとしんデイサービスセンター",
    "kana": "サトシンデイサービスセンター",
    "address": "大分県由布市挾間町下市438番地2",
    "lat": 33.1989517860279,
    "lng": 131.523368130688,
    "tel": "097-560-3145",
    "url": "",
    "pref": "大分県",
    "city": "由布市",
    "category": "day_service",
    "serviceType": "通所介護",
    "capacity": 0,
    "openDays": [
      "平日",
      "土曜日",
      "日曜日",
      "祝日"
    ],
    "openDaysNote": ""
  },
  {
    "id": "4471300261",
    "name": "デイサービスセンター　虹色",
    "kana": "デイサービスセンター　ニジイロ",
    "address": "湯布院町川北1005-1",
    "lat": 33.2612232,
    "lng": 131.3438726,
    "tel": "0977-84-4186",
    "url": "",
    "pref": "大分県",
    "city": "由布市",
    "category": "day_service",
    "serviceType": "通所介護",
    "capacity": 0,
    "openDays": [
      "平日",
      "土曜日",
      "日曜日",
      "祝日"
    ],
    "openDaysNote": ""
  },
  {
    "id": "4471300097",
    "name": "デイサービスセンターあすか",
    "kana": "デイサービスセンターアスカ",
    "address": "大分県由布市庄内町柿原1569番地1",
    "lat": 33.1758772,
    "lng": 131.4203311,
    "tel": "097-582-1777",
    "url": "http://www.jyueikai.jp/",
    "pref": "大分県",
    "city": "由布市",
    "category": "day_service",
    "serviceType": "通所介護",
    "capacity": 0,
    "openDays": [
      "平日",
      "土曜日",
      "祝日"
    ],
    "openDaysNote": "夏季休業(8/13～8/15)（改行）年末年始休業(12/31～1/4)"
  },
  {
    "id": "4471300378",
    "name": "デイサービスセンターやすらぎ",
    "kana": "デイサービスセンターヤスラギ",
    "address": "大分県由布市挾間町古野625番地1",
    "lat": 33.2144928,
    "lng": 131.5233405,
    "tel": "975833777",
    "url": "https://www.goto-kikaku.net",
    "pref": "大分県",
    "city": "由布市",
    "category": "day_service",
    "serviceType": "通所介護",
    "capacity": 0,
    "openDays": [
      "平日",
      "土曜日",
      "祝日"
    ],
    "openDaysNote": "１２月３１日～１月３日"
  },
  {
    "id": "4471300204",
    "name": "デイサービスセンター虹",
    "kana": "デイサービスセンターニジ",
    "address": "大分県由布市湯布院町川北1006番地1",
    "lat": 33.2611787,
    "lng": 131.3442975,
    "tel": "0977-84-4186",
    "url": "",
    "pref": "大分県",
    "city": "由布市",
    "category": "day_service",
    "serviceType": "通所介護",
    "capacity": 0,
    "openDays": [
      "平日",
      "土曜日",
      "祝日"
    ],
    "openDaysNote": "正月休み（1月1日）"
  },
  {
    "id": "4472300740",
    "name": "デイサービスひだまり",
    "kana": "デイサービスヒダマリ",
    "address": "大分県由布市庄内町高岡491",
    "lat": 33.1834324587114,
    "lng": 131.414140451554,
    "tel": "097-582-8200",
    "url": "https://www.hidamariso.com",
    "pref": "大分県",
    "city": "由布市",
    "category": "day_service",
    "serviceType": "通所介護",
    "capacity": 0,
    "openDays": [
      "平日",
      "土曜日",
      "祝日"
    ],
    "openDaysNote": ""
  },
  {
    "id": "4471300469",
    "name": "デイサービス瑞泉",
    "kana": "デイサービスズイセン",
    "address": "大分県由布市庄内町東長宝653",
    "lat": 33.1865134,
    "lng": 131.4579812,
    "tel": "097-582-3566",
    "url": "",
    "pref": "大分県",
    "city": "由布市",
    "category": "day_service",
    "serviceType": "通所介護",
    "capacity": 0,
    "openDays": [
      "平日",
      "土曜日"
    ],
    "openDaysNote": ""
  },
  {
    "id": "4471300238",
    "name": "デイサービス絆",
    "kana": "デイサービスキズナ",
    "address": "大分県由布市庄内町柿原1121-1",
    "lat": 33.1791464,
    "lng": 131.4071239,
    "tel": "097-586-2220",
    "url": "",
    "pref": "大分県",
    "city": "由布市",
    "category": "day_service",
    "serviceType": "通所介護",
    "capacity": 0,
    "openDays": [
      "平日",
      "土曜日"
    ],
    "openDaysNote": ""
  },
  {
    "id": "4471300337",
    "name": "株式会社　TONERIKO",
    "kana": "カブシキガイシャ　トネリコ",
    "address": "大分県由布市湯布院町中川806番地",
    "lat": 33.2414414,
    "lng": 131.3375098,
    "tel": "0977-84-5200",
    "url": "http://www.toneriko.co.jp",
    "pref": "大分県",
    "city": "由布市",
    "category": "day_service",
    "serviceType": "通所介護",
    "capacity": 30,
    "openDays": [
      "平日",
      "土曜日",
      "祝日"
    ],
    "openDaysNote": ""
  },
  {
    "id": "4472300427",
    "name": "若葉苑デイサービスセンター「ドリーム」",
    "kana": "ワカバエンデイサービスセンター「ドリーム」",
    "address": "大分県由布市挾間町向原1215番地2",
    "lat": 33.1964659,
    "lng": 131.5029176,
    "tel": "097-540-7882",
    "url": "http://care-net.biz/44/wakabaen/",
    "pref": "大分県",
    "city": "由布市",
    "category": "day_service",
    "serviceType": "通所介護",
    "capacity": null,
    "openDays": [
      "平日",
      "土曜日",
      "祝日"
    ],
    "openDaysNote": ""
  },
  {
    "id": "4471300196",
    "name": "庄内厚生館デイサービスセンター長宝",
    "kana": "ショウナイコウセイカンデイサービスセンターチョウホウ",
    "address": "大分県由布市庄内町東長宝613番地1",
    "lat": 33.1845996,
    "lng": 131.451815,
    "tel": "097-582-2020",
    "url": "http://www.kouseikan.jp/",
    "pref": "大分県",
    "city": "由布市",
    "category": "day_service",
    "serviceType": "通所介護",
    "capacity": 0,
    "openDays": [
      "平日",
      "土曜日",
      "祝日"
    ],
    "openDaysNote": ""
  },
  {
    "id": "4472300229",
    "name": "情和園デイサービスセンター",
    "kana": "ジョウワエンデイサービスセンター",
    "address": "大分県由布市庄内町西長宝870番地1",
    "lat": 33.1960899,
    "lng": 131.4424514,
    "tel": "097-547-7255",
    "url": "http://www.jyowaen.com/",
    "pref": "大分県",
    "city": "由布市",
    "category": "day_service",
    "serviceType": "通所介護",
    "capacity": 0,
    "openDays": [
      "平日",
      "土曜日",
      "祝日"
    ],
    "openDaysNote": ""
  },
  {
    "id": "4471300014",
    "name": "情和園リハビリテーションデイサービスみもざ",
    "kana": "ジョウワエンリハビリテーションデイサービスミモザ",
    "address": "大分県由布市庄内町櫟木亀ノ甲982番地",
    "lat": 33.1894938,
    "lng": 131.4677606,
    "tel": "097-582-0880",
    "url": "http://www.jyowaen.com",
    "pref": "大分県",
    "city": "由布市",
    "category": "day_service",
    "serviceType": "通所介護",
    "capacity": 0,
    "openDays": [
      "平日",
      "土曜日",
      "祝日"
    ],
    "openDaysNote": ""
  },
  {
    "id": "4471300535",
    "name": "大分県のぞみ園",
    "kana": "オオイタケンノゾミエン",
    "address": "大分県由布市挾間町赤野３３９番地１",
    "lat": 33.2108089,
    "lng": 131.504767,
    "tel": "０９７－５８３－０３５０",
    "url": "http://www.oitaswo.ip",
    "pref": "大分県",
    "city": "由布市",
    "category": "day_service",
    "serviceType": "通所介護",
    "capacity": 0,
    "openDays": [
      "平日",
      "土曜日",
      "日曜日",
      "祝日"
    ],
    "openDaysNote": ""
  },
  {
    "id": "4472300146",
    "name": "由布市社会福祉協議会通所介護事業所",
    "kana": "ユフシシャカイフクシキョウギカイツウショカイゴジギョウショ",
    "address": "大分県由布市庄内町庄内原365番地1",
    "lat": 33.1839987,
    "lng": 131.3999577,
    "tel": "097-582-2756",
    "url": "",
    "pref": "大分県",
    "city": "由布市",
    "category": "day_service",
    "serviceType": "通所介護",
    "capacity": 0,
    "openDays": [
      "平日",
      "土曜日",
      "祝日"
    ],
    "openDaysNote": "営業日（月曜日・火曜日・水曜日・木曜日・金曜日・土曜日）、電話等により２４時間常時連絡が可能な体制をとっています。"
  },
  {
    "id": "4472300401",
    "name": "老人デイサービスセンター豊友",
    "kana": "ロウジンデイサービスセンターホウユウ",
    "address": "大分県由布市挾間町鬼崎4-16",
    "lat": 33.1945502,
    "lng": 131.52686,
    "tel": "097-583-5080",
    "url": "https://www.hojukai-oita.jp",
    "pref": "大分県",
    "city": "由布市",
    "category": "day_service",
    "serviceType": "通所介護",
    "capacity": 0,
    "openDays": [
      "平日",
      "土曜日",
      "祝日"
    ],
    "openDaysNote": "特になし"
  }
]