[
  {
    "id": "2971700261",
    "name": "あくなみ苑デイサービスセンター",
    "kana": "アクナミエンデイサービスセンター",
    "address": "奈良県生駒郡安堵町岡崎33-1",
    "lat": 34.6084817,
    "lng": 135.7673436,
    "tel": "0743-59-0070",
    "url": "https://akunami.hozanji-wel.org",
    "pref": "奈良県",
    "city": "安堵町",
    "category": "day_service",
    "serviceType": "通所介護",
    "capacity": 20,
    "openDays": [
      "平日",
      "土曜日",
      "祝日"
    ],
    "openDaysNote": "事業所の営業時間は8：30～17：30　サービス提供時間は9：00～17：00（改行）サービス提供時間は７～８時間が基本提供。短縮利用や延長利用も相談対応可。"
  },
  {
    "id": "2971700188",
    "name": "デイサービスげんき",
    "kana": "デイサービスゲンキ",
    "address": "奈良県生駒郡安堵町東安堵248-8",
    "lat": 34.6140846,
    "lng": 135.7576778,
    "tel": "0743-23-1515",
    "url": "http://www.genki-group.com",
    "pref": "奈良県",
    "city": "安堵町",
    "category": "day_service",
    "serviceType": "通所介護",
    "capacity": 0,
    "openDays": [
      "平日",
      "土曜日",
      "祝日"
    ],
    "openDaysNote": ""
  },
  {
    "id": "2971700246",
    "name": "特別養護老人ホーム　通所介護　もちの木",
    "kana": "トクベツヨウゴロウジンホーム　ツウショカイゴ　モチノキ",
    "address": "東安堵218番1",
    "lat": 34.6156301,
    "lng": 135.7584138,
    "tel": "0743-59-3977",
    "url": "http://www.mochinoki-nara.com",
    "pref": "奈良県",
    "city": "安堵町",
    "category": "day_service",
    "serviceType": "通所介護",
    "capacity": 0,
    "openDays": [
      "平日",
      "土曜日",
      "日曜日",
      "祝日"
    ],
    "openDaysNote": ""
  },
  {
    "id": "2972200071",
    "name": "デイサービスセンターやまびこ",
    "kana": "デイサービスセンターヤマビコ",
    "address": "奈良県宇陀市菟田野平井135番地特別養護老人ホームやまびこ 特別養護老人ホームやまびこ",
    "lat": 34.4895093,
    "lng": 135.9785044,
    "tel": "0745-84-9800",
    "url": "",
    "pref": "奈良県",
    "city": "宇陀市",
    "category": "day_service",
    "serviceType": "通所介護",
    "capacity": 0,
    "openDays": [
      "平日",
      "祝日"
    ],
    "openDaysNote": ""
  },
  {
    "id": "2974900082",
    "name": "ポシブル室生",
    "kana": "ポシブルムロウ",
    "address": "宇陀市室生大野2393-1",
    "lat": 34.5612677,
    "lng": 136.0123362,
    "tel": "0745-92-5510",
    "url": "http://www.possible-plus.co.jp",
    "pref": "奈良県",
    "city": "宇陀市",
    "category": "day_service",
    "serviceType": "通所介護",
    "capacity": 0,
    "openDays": [
      "平日",
      "土曜日",
      "祝日"
    ],
    "openDaysNote": ""
  },
  {
    "id": "2972300012",
    "name": "ゆぁほうむ榛原",
    "kana": "ユァホウムハイバラ",
    "address": "奈良県宇陀市榛原長峯200番地の1",
    "lat": 34.5414637,
    "lng": 135.9642044,
    "tel": "0745-82-8111",
    "url": "http:/www.e-yourhome.com",
    "pref": "奈良県",
    "city": "宇陀市",
    "category": "day_service",
    "serviceType": "通所介護",
    "capacity": 0,
    "openDays": [
      "平日",
      "祝日"
    ],
    "openDaysNote": ""
  },
  {
    "id": "2974900090",
    "name": "指定通所介護四つ葉のクローバー",
    "kana": "シテイツウショカイゴヨツバノクローバー",
    "address": "奈良県宇陀市菟田野古市場４７０番地",
    "lat": 34.4734195,
    "lng": 135.9738437,
    "tel": "0745-84-2950",
    "url": "http://www.grandsoul.co.jp/clover/",
    "pref": "奈良県",
    "city": "宇陀市",
    "category": "day_service",
    "serviceType": "通所介護",
    "capacity": 0,
    "openDays": [
      "平日",
      "土曜日",
      "日曜日",
      "祝日"
    ],
    "openDaysNote": "なし"
  },
  {
    "id": "2974900272",
    "name": "大宇陀グループホームラガール",
    "kana": "オオウダグループホームラガール",
    "address": "奈良県宇陀市大宇陀迫間１６６－１",
    "lat": 34.4792035,
    "lng": 135.927066,
    "tel": "0745-83-0088",
    "url": "",
    "pref": "奈良県",
    "city": "宇陀市",
    "category": "day_service",
    "serviceType": "通所介護",
    "capacity": 30,
    "openDays": [
      "平日",
      "土曜日",
      "日曜日",
      "祝日"
    ],
    "openDaysNote": "サービス利用時間は９：００～１７：３０迄（改行）但し、利用者より延長の要望があった時、此の限りでない"
  },
  {
    "id": "2972100024",
    "name": "大宇陀特別養護老人ホ－ムラガ－ル",
    "kana": "オオウダトクベツヨウゴロウジンホ－ムラガ－ル",
    "address": "奈良県宇陀市大宇陀拾生２５０－６",
    "lat": 34.4716571,
    "lng": 135.9267549,
    "tel": "0745-83-2080",
    "url": "http://www.koudoukai.or.jp/oouda/",
    "pref": "奈良県",
    "city": "宇陀市",
    "category": "day_service",
    "serviceType": "通所介護",
    "capacity": 0,
    "openDays": [
      "平日",
      "土曜日",
      "日曜日",
      "祝日"
    ],
    "openDaysNote": ""
  },
  {
    "id": "2972400028",
    "name": "特別養護老人ホーム室生園（室生園デイサービスセンター）",
    "kana": "トクベツヨウゴロウジンホームムロウエン（ムロウエンデイサービスセンター）",
    "address": "奈良県宇陀市室生下田口１２１６番地",
    "lat": 34.5251934,
    "lng": 136.051681,
    "tel": "0745-93-2288",
    "url": "http://murouen.jp/",
    "pref": "奈良県",
    "city": "宇陀市",
    "category": "day_service",
    "serviceType": "通所介護",
    "capacity": 35,
    "openDays": [
      "平日",
      "祝日"
    ],
    "openDaysNote": "年末年始休日あり"
  },
  {
    "id": "2972300020",
    "name": "特別養護老人ホーム悠楽園　悠楽園デイサービスセンター",
    "kana": "トクベツヨウゴロウジンホーム　ユウラクエン　ユウラクエンデイサービスセンター",
    "address": "奈良県宇陀市榛原檜牧５８４番地",
    "lat": 34.5162161310187,
    "lng": 135.96509154418,
    "tel": "0745-82-7771",
    "url": "www.yuurakuen.jp",
    "pref": "奈良県",
    "city": "宇陀市",
    "category": "day_service",
    "serviceType": "通所介護",
    "capacity": 20,
    "openDays": [
      "平日",
      "土曜日",
      "日曜日",
      "祝日"
    ],
    "openDaysNote": ""
  },
  {
    "id": "2973200096",
    "name": "デイサービスセンターかがやき",
    "kana": "デイサービスセンターカガヤキ",
    "address": "奈良県北葛城郡王寺町久度4-3-13",
    "lat": 34.59886246858,
    "lng": 135.697946407732,
    "tel": "0745-34-0355",
    "url": "https://www.kokori.net/",
    "pref": "奈良県",
    "city": "王寺町",
    "category": "day_service",
    "serviceType": "通所介護",
    "capacity": 40,
    "openDays": [
      "平日",
      "土曜日",
      "祝日"
    ],
    "openDaysNote": "勤務体制によりサービス提供時間外でのサービス提供を行う事がある"
  },
  {
    "id": "2973200385",
    "name": "デイサービスセンターぎんのすず",
    "kana": "デイサービスセンターギンノスズ",
    "address": "久度３－１－１２",
    "lat": 34.5973799,
    "lng": 135.6992131,
    "tel": "０７４５－３１－２７７５",
    "url": "",
    "pref": "奈良県",
    "city": "王寺町",
    "category": "day_service",
    "serviceType": "通所介護",
    "capacity": 0,
    "openDays": [
      "平日",
      "土曜日",
      "日曜日",
      "祝日"
    ],
    "openDaysNote": ""
  },
  {
    "id": "2973200443",
    "name": "デイサービスセンターここから王寺町",
    "kana": "デイサービスセンターココカラオウジチョウ",
    "address": "奈良県北葛城郡王寺町本町4丁目4番19号",
    "lat": 34.583429,
    "lng": 135.7057185,
    "tel": "0745-31-1577",
    "url": "http://www.cocokara-ojicho.jp/",
    "pref": "奈良県",
    "city": "王寺町",
    "category": "day_service",
    "serviceType": "通所介護",
    "capacity": 0,
    "openDays": [
      "平日",
      "土曜日",
      "祝日"
    ],
    "openDaysNote": ""
  },
  {
    "id": "2973200492",
    "name": "てんとう虫デイサービスセンター",
    "kana": "テントウムシデイサービスセンター",
    "address": "奈良県北葛城郡王寺町畠田8丁目1507",
    "lat": 34.5757180498595,
    "lng": 135.700884986925,
    "tel": "0745-34-0980",
    "url": "",
    "pref": "奈良県",
    "city": "王寺町",
    "category": "day_service",
    "serviceType": "通所介護",
    "capacity": 0,
    "openDays": [
      "平日",
      "祝日"
    ],
    "openDaysNote": ""
  },
  {
    "id": "2973200351",
    "name": "ニチイケアセンター奈良王寺",
    "kana": "ニチイケアセンターナラオウジ",
    "address": "奈良県北葛城郡王寺町本町4-44-19",
    "lat": 34.5819152,
    "lng": 135.7029271,
    "tel": "0745-33-0717",
    "url": "",
    "pref": "奈良県",
    "city": "王寺町",
    "category": "day_service",
    "serviceType": "通所介護",
    "capacity": 0,
    "openDays": [
      "平日",
      "土曜日",
      "祝日"
    ],
    "openDaysNote": ""
  },
  {
    "id": "2973200062",
    "name": "大和園王寺デイサービスセンター",
    "kana": "ヤマトエンオウジデイサービスセンター",
    "address": "奈良県北葛城郡王寺町葛下3丁目161-1",
    "lat": 34.5852511,
    "lng": 135.7083265,
    "tel": "0745-72-8580",
    "url": "http://www.yamatoen.or.jp/ohji/index.html",
    "pref": "奈良県",
    "city": "王寺町",
    "category": "day_service",
    "serviceType": "通所介護",
    "capacity": 52,
    "openDays": [
      "平日",
      "土曜日",
      "祝日"
    ],
    "openDaysNote": ""
  },
  {
    "id": "2973700178",
    "name": "デイサービス彩の里",
    "kana": "デイサービスイロドリノサト",
    "address": "奈良県吉野郡下市町阿知賀１１２２番の１",
    "lat": 34.3800265,
    "lng": 135.7949711,
    "tel": "0747-52-0240",
    "url": "http://www.irodorinosato.com/",
    "pref": "奈良県",
    "city": "下市町",
    "category": "day_service",
    "serviceType": "通所介護",
    "capacity": null,
    "openDays": [
      "平日",
      "祝日"
    ],
    "openDaysNote": ""
  },
  {
    "id": "2984400024",
    "name": "社会福祉法人　下北山村社会福祉協議会",
    "kana": "シャカイフクシホウジン　シモキタヤマムラシャカイフクシキョウギカイ",
    "address": "奈良県吉野郡下北山村大字浦向３７１番地",
    "lat": 34.0005015,
    "lng": 135.9568433,
    "tel": "07468-6-0360",
    "url": "",
    "pref": "奈良県",
    "city": "下北山村",
    "category": "day_service",
    "serviceType": "通所介護",
    "capacity": null,
    "openDays": [
      "平日"
    ],
    "openDaysNote": "デイサービス営業日は、月水金の週3回です。月水金が祝祭日等で休みの場合は、振替で火木にデイサービスを行う事があります。"
  },
  {
    "id": "2974400018",
    "name": "社会福祉法人下北山村社会福祉協議会",
    "kana": "シャカイフクシホウジンシモキタヤマムラシャカイフクシキョウギカイ",
    "address": "奈良県吉野郡下北山村大字浦向３７１番地",
    "lat": 34.0006632,
    "lng": 135.9566164,
    "tel": "07468-6-0360",
    "url": "",
    "pref": "奈良県",
    "city": "下北山村",
    "category": "day_service",
    "serviceType": "通所介護",
    "capacity": 0,
    "openDays": [
      "平日"
    ],
    "openDaysNote": "デイサービス営業日は、月水金の週３回です。月水金が祝祭日等で休みの場合は、振替で火木にデイサービスを行うことがあります。"
  },
  {
    "id": "2973400290",
    "name": "デイサービスそらまめ星和台",
    "kana": "デイサービスソラマメセイワダイ",
    "address": "奈良県北葛城郡河合町星和台2-1-20",
    "lat": 34.5858124,
    "lng": 135.7168313,
    "tel": "0745-43-6671",
    "url": "http://www.kouseikai-med.com",
    "pref": "奈良県",
    "city": "河合町",
    "category": "day_service",
    "serviceType": "通所介護",
    "capacity": 0,
    "openDays": [
      "平日",
      "土曜日",
      "祝日"
    ],
    "openDaysNote": "12/30－1/3は休業日（改行）サービス提供時間について＝午前の部9:00～12:15／午後の部13:00～16:15（改行）土曜は午前のみの営業"
  },
  {
    "id": "2973400456",
    "name": "リハビリデイサービスさみた",
    "kana": "リハビリデイサービスサミタ",
    "address": "奈良県北葛城郡河合町佐味田198-1",
    "lat": 34.5692643326487,
    "lng": 135.732758953822,
    "tel": "0745-58-3020",
    "url": "http://www.yamabikokai-samita.com/",
    "pref": "奈良県",
    "city": "河合町",
    "category": "day_service",
    "serviceType": "通所介護",
    "capacity": 0,
    "openDays": [
      "平日",
      "土曜日",
      "祝日"
    ],
    "openDaysNote": "年末年始（12月31日～1月2日）はお休みとなります。"
  },
  {
    "id": "2973400308",
    "name": "大和の里　通所介護",
    "kana": "ヤマトノサト　ツウショカイゴ",
    "address": "奈良県北葛城郡河合町池部三丁目5番5号",
    "lat": 34.5776718,
    "lng": 135.7359216,
    "tel": "0745-58-2525",
    "url": "http://www.yamatonosato.com/",
    "pref": "奈良県",
    "city": "河合町",
    "category": "day_service",
    "serviceType": "通所介護",
    "capacity": 0,
    "openDays": [
      "平日",
      "土曜日",
      "祝日"
    ],
    "openDaysNote": ""
  },
  {
    "id": "2970501561",
    "name": "GOOD・PLACE",
    "kana": "グッドプレイス",
    "address": "奈良県橿原市東坊城町340-1",
    "lat": 34.4905970867732,
    "lng": 135.764015609388,
    "tel": "0744-28-8805",
    "url": "http://place1201.com",
    "pref": "奈良県",
    "city": "橿原市",
    "category": "day_service",
    "serviceType": "通所介護",
    "capacity": 19,
    "openDays": [
      "平日",
      "土曜日",
      "祝日"
    ],
    "openDaysNote": ""
  },
  {
    "id": "2970500688",
    "name": "アシストひまわりデイサービスセンター",
    "kana": "アシストヒマワリデイサービスセンター",
    "address": "奈良県橿原市石川町504番地の1",
    "lat": 34.480803142768,
    "lng": 135.801391274097,
    "tel": "0744-26-6877",
    "url": "https://assist-himawari.com/",
    "pref": "奈良県",
    "city": "橿原市",
    "category": "day_service",
    "serviceType": "通所介護",
    "capacity": 30,
    "openDays": [
      "平日",
      "土曜日",
      "祝日"
    ],
    "openDaysNote": ""
  },
  {
    "id": "2970502536",
    "name": "デイサービス　ロハスの木",
    "kana": "デイサービス　ロハスノキ",
    "address": "奈良県橿原市北八木町1-6-12",
    "lat": 34.5127566,
    "lng": 135.7946635,
    "tel": "0744-47-4343",
    "url": "https://hp.kaipoke.biz/bcp/",
    "pref": "奈良県",
    "city": "橿原市",
    "category": "day_service",
    "serviceType": "通所介護",
    "capacity": null,
    "openDays": [
      "平日",
      "祝日"
    ],
    "openDaysNote": ""
  },
  {
    "id": "2970501272",
    "name": "デイサービスセンター　エクサ",
    "kana": "デイサービスセンター　エクサ",
    "address": "奈良県橿原市醍醐町131-1",
    "lat": 34.5071789,
    "lng": 135.7998892,
    "tel": "0744-20-3125",
    "url": "",
    "pref": "奈良県",
    "city": "橿原市",
    "category": "day_service",
    "serviceType": "通所介護",
    "capacity": 25,
    "openDays": [
      "平日",
      "土曜日",
      "祝日"
    ],
    "openDaysNote": ""
  },
  {
    "id": "2970501751",
    "name": "デイサービスセンター　ティエール",
    "kana": "デイサービスセンター　ティエール",
    "address": "奈良県橿原市曽我町８０３－１",
    "lat": 34.5179715,
    "lng": 135.77848,
    "tel": "０７４４－２５－７３３７",
    "url": "",
    "pref": "奈良県",
    "city": "橿原市",
    "category": "day_service",
    "serviceType": "通所介護",
    "capacity": 0,
    "openDays": [
      "平日",
      "土曜日",
      "祝日"
    ],
    "openDaysNote": ""
  },
  {
    "id": "2970501819",
    "name": "デイサービスセンター　華やぎ",
    "kana": "デイサービスセンター　ハナヤギ",
    "address": "奈良県橿原市今井町3丁目12番15号",
    "lat": 34.5048806448669,
    "lng": 135.782830485458,
    "tel": "0744-20-1148",
    "url": "http://www.youthful21.com",
    "pref": "奈良県",
    "city": "橿原市",
    "category": "day_service",
    "serviceType": "通所介護",
    "capacity": 0,
    "openDays": [
      "平日",
      "土曜日",
      "祝日"
    ],
    "openDaysNote": "夏季、年末年始休暇は変更になる場合があります。"
  },
  {
    "id": "2970502486",
    "name": "デイサービスセンターエルシア橿原",
    "kana": "デイサービスセンターエルシアカシハラ",
    "address": "十市町1181-1",
    "lat": 34.528409,
    "lng": 135.8066399,
    "tel": "0744-29-7070",
    "url": "https://www.spirit-care.co.jp",
    "pref": "奈良県",
    "city": "橿原市",
    "category": "day_service",
    "serviceType": "通所介護",
    "capacity": 0,
    "openDays": [
      "平日",
      "土曜日",
      "日曜日",
      "祝日"
    ],
    "openDaysNote": ""
  },
  {
    "id": "2970502379",
    "name": "デイサービスセンターともに",
    "kana": "デイサービスセンタートモニ",
    "address": "石川町185番地",
    "lat": 34.4832296,
    "lng": 135.800692,
    "tel": "0744-28-8130",
    "url": "http;//www.kagirohi-tomoni.co.jp",
    "pref": "奈良県",
    "city": "橿原市",
    "category": "day_service",
    "serviceType": "通所介護",
    "capacity": 3,
    "openDays": [
      "平日",
      "土曜日",
      "祝日"
    ],
    "openDaysNote": ""
  },
  {
    "id": "2970501165",
    "name": "デイサービスセンター華やぎ二番館花笑み",
    "kana": "デイサービスセンターハナヤギニバンカンハナエミ",
    "address": "奈良県橿原市今井町3丁目12番16号",
    "lat": 34.5049163693317,
    "lng": 135.782942058475,
    "tel": "0744-23-2376",
    "url": "https://www.useful21.co.jp/",
    "pref": "奈良県",
    "city": "橿原市",
    "category": "day_service",
    "serviceType": "通所介護",
    "capacity": 0,
    "openDays": [
      "平日",
      "祝日"
    ],
    "openDaysNote": "夏季、年末年始休暇は変更になる場合があります。"
  },
  {
    "id": "2970501033",
    "name": "デイサービスセンター橿原の郷",
    "kana": "デイサービスセンターカシハラノサト",
    "address": "奈良県橿原市飯高町７－１",
    "lat": 34.5311449,
    "lng": 135.7798577,
    "tel": "0744-21-1101",
    "url": "www.sanyofukushikai.com/",
    "pref": "奈良県",
    "city": "橿原市",
    "category": "day_service",
    "serviceType": "通所介護",
    "capacity": 0,
    "openDays": [
      "平日",
      "土曜日",
      "祝日"
    ],
    "openDaysNote": ""
  },
  {
    "id": "2970502601",
    "name": "デイサービスセンター鈴",
    "kana": "デイサービスセンタースズ",
    "address": "奈良県橿原市土橋町495",
    "lat": 34.5256293684348,
    "lng": 135.781120349074,
    "tel": "0744-33-9822",
    "url": "https://www.ds-suzu.net",
    "pref": "奈良県",
    "city": "橿原市",
    "category": "day_service",
    "serviceType": "通所介護",
    "capacity": null,
    "openDays": [
      "平日",
      "土曜日",
      "祝日"
    ],
    "openDaysNote": ""
  },
  {
    "id": "2970502130",
    "name": "デイサービスバンデ（絆）",
    "kana": "デイサービスバンデ（キズナ）",
    "address": "奈良県橿原市東竹田町１０４番１",
    "lat": 34.5256967,
    "lng": 135.8245725,
    "tel": "0744-23-3227",
    "url": "http://www.bande.or.jp",
    "pref": "奈良県",
    "city": "橿原市",
    "category": "day_service",
    "serviceType": "通所介護",
    "capacity": 0,
    "openDays": [
      "平日",
      "土曜日",
      "祝日"
    ],
    "openDaysNote": ""
  },
  {
    "id": "2970502650",
    "name": "でいさーびすふじのはな",
    "kana": "デイサービス藤ノ花",
    "address": "奈良県橿原市醍醐町142-6藤の花 藤の花",
    "lat": 34.507073,
    "lng": 135.8020142,
    "tel": "744339678",
    "url": "http://fujino87.com",
    "pref": "奈良県",
    "city": "橿原市",
    "category": "day_service",
    "serviceType": "通所介護",
    "capacity": 25,
    "openDays": [
      "平日",
      "土曜日",
      "祝日"
    ],
    "openDaysNote": ""
  },
  {
    "id": "2970500266",
    "name": "ニチイケアセンター橿原",
    "kana": "ニチイケアセンターカシハラ",
    "address": "奈良県橿原市曽我町７２３－４",
    "lat": 34.5150914,
    "lng": 135.7793661,
    "tel": "0744-21-8770",
    "url": "http://www.nichiigakkan.co.jp",
    "pref": "奈良県",
    "city": "橿原市",
    "category": "day_service",
    "serviceType": "通所介護",
    "capacity": 25,
    "openDays": [
      "平日",
      "土曜日",
      "祝日"
    ],
    "openDaysNote": "災害・震災等、安全を考慮して休業する場合もあります"
  },
  {
    "id": "2970501694",
    "name": "ぽれぽれケアセンター白橿",
    "kana": "ポレポレケアセンターシラカシ",
    "address": "北越智町322番地",
    "lat": 34.48079,
    "lng": 135.7781752,
    "tel": "0744-28-6511",
    "url": "www.porepore.co.jp",
    "pref": "奈良県",
    "city": "橿原市",
    "category": "day_service",
    "serviceType": "通所介護",
    "capacity": 5,
    "openDays": [
      "平日",
      "土曜日",
      "日曜日",
      "祝日"
    ],
    "openDaysNote": "年末年始12/31～1/2までは休業とさせて頂きます。（改行）但し必要な場合時間外営業を行います。"
  },
  {
    "id": "2970502502",
    "name": "ぽれぽれ八木西スクエア",
    "kana": "ポレポレヤギニシスクエア",
    "address": "奈良県橿原市小綱町11-7",
    "lat": 34.5110017,
    "lng": 135.7854334,
    "tel": "0744-23-6100",
    "url": "http://www.porepore.co.jp/office/kashihara3.html",
    "pref": "奈良県",
    "city": "橿原市",
    "category": "day_service",
    "serviceType": "通所介護",
    "capacity": 0,
    "openDays": [
      "平日",
      "土曜日",
      "祝日"
    ],
    "openDaysNote": "年末年始は12/31、1/1、1/2の3日間休業"
  },
  {
    "id": "2970502452",
    "name": "やまとの里",
    "kana": "ヤマトノサト",
    "address": "奈良県橿原市北妙法寺町５９２",
    "lat": 34.5213963,
    "lng": 135.7826674,
    "tel": "744351404",
    "url": "",
    "pref": "奈良県",
    "city": "橿原市",
    "category": "day_service",
    "serviceType": "通所介護",
    "capacity": 0,
    "openDays": [
      "平日",
      "土曜日",
      "祝日"
    ],
    "openDaysNote": ""
  },
  {
    "id": "2970502387",
    "name": "ゆうけいの里デイサービスセンター",
    "kana": "ユウケイノサトデイサービスセンター",
    "address": "奈良県橿原市新賀町87番地１ゆうけいの里 ゆうけいの里",
    "lat": 34.5190762,
    "lng": 135.8018325,
    "tel": "0744-21-1228",
    "url": "",
    "pref": "奈良県",
    "city": "橿原市",
    "category": "day_service",
    "serviceType": "通所介護",
    "capacity": null,
    "openDays": [
      "平日"
    ],
    "openDaysNote": "祝日が月曜日～金曜日の場合、営業時間は平日と同じです。（改行）8/14～8/16（お盆）12/30～1/3（年末年始）は休みとなります。"
  },
  {
    "id": "2970501090",
    "name": "リハビリあ・える",
    "kana": "リハビリア・エル",
    "address": "奈良県橿原市葛本町299-1",
    "lat": 34.5255461,
    "lng": 135.7990419,
    "tel": "0744-21-8080",
    "url": "http://www.a-el.co.jp",
    "pref": "奈良県",
    "city": "橿原市",
    "category": "day_service",
    "serviceType": "通所介護",
    "capacity": 80,
    "openDays": [
      "平日",
      "土曜日"
    ],
    "openDaysNote": "二部制（改行）午後からの営業時間（改行）13：00～16：15（改行）（改行）年末年始（12/30～1/3）休み"
  },
  {
    "id": "2970501363",
    "name": "リハビリデイサービス　ポシブルあす香",
    "kana": "リハビリデイサービス　ポシブルアスカ",
    "address": "奈良県橿原市見瀬町595-3岡寺複合ビル２階 岡寺複合ビル２階",
    "lat": 34.47509058612,
    "lng": 135.796524587311,
    "tel": "0744-26-1580",
    "url": "https://www.possible-plus.co.jp/store/リハビリデイサービスポシブルあす香/",
    "pref": "奈良県",
    "city": "橿原市",
    "category": "day_service",
    "serviceType": "通所介護",
    "capacity": 0,
    "openDays": [
      "平日",
      "祝日"
    ],
    "openDaysNote": "年末年始等、事業所が事前に休みと定めた日を上記以外の休みとします。"
  },
  {
    "id": "2970501900",
    "name": "リハビリデイサービスセンター輝き",
    "kana": "リハビリデイサービスセンターカガヤキ",
    "address": "奈良県橿原市雲梯町28番地",
    "lat": 34.5033424115156,
    "lng": 135.7673833295,
    "tel": "0744-26-2622",
    "url": "http://kanahashien.iinaa.net/",
    "pref": "奈良県",
    "city": "橿原市",
    "category": "day_service",
    "serviceType": "通所介護",
    "capacity": 0,
    "openDays": [
      "平日",
      "祝日"
    ],
    "openDaysNote": "緊急時は24時間受け付けます。⇒　TEL0744-24-5551"
  },
  {
    "id": "2970501652",
    "name": "リハビリへいせい神宮前",
    "kana": "リハビリヘイセイジングウマエ",
    "address": "奈良県橿原市久米町558",
    "lat": 34.481886150752,
    "lng": 135.793514378526,
    "tel": "0744-47-3670",
    "url": "http://www.heisei-h.or.jp/a-el/index.html",
    "pref": "奈良県",
    "city": "橿原市",
    "category": "day_service",
    "serviceType": "通所介護",
    "capacity": 0,
    "openDays": [
      "平日",
      "土曜日",
      "祝日"
    ],
    "openDaysNote": "年末年始12/30～1/3"
  },
  {
    "id": "2970500019",
    "name": "橿原園",
    "kana": "カシハラエン",
    "address": "奈良県橿原市見瀬町265番地",
    "lat": 34.4795014,
    "lng": 135.7913407,
    "tel": "0744-27-2424",
    "url": "http://wwwkashiharaen.or.jp",
    "pref": "奈良県",
    "city": "橿原市",
    "category": "day_service",
    "serviceType": "通所介護",
    "capacity": 0,
    "openDays": [
      "平日",
      "土曜日",
      "祝日"
    ],
    "openDaysNote": ""
  },
  {
    "id": "2970500076",
    "name": "桃寿園",
    "kana": "トウジュエン",
    "address": "奈良県橿原市北越智町345番地",
    "lat": 34.4740242,
    "lng": 135.7775004,
    "tel": "0744-27-7260",
    "url": "http://www.choseikai.or.jp",
    "pref": "奈良県",
    "city": "橿原市",
    "category": "day_service",
    "serviceType": "通所介護",
    "capacity": 0,
    "openDays": [
      "平日",
      "土曜日",
      "日曜日",
      "祝日"
    ],
    "openDaysNote": "天候の状態により、臨時休業させていただく場合があります。"
  },
  {
    "id": "2970500035",
    "name": "特別養護老人ホームかなはし苑",
    "kana": "トクベツヨウゴロウジンホームカナハシエン",
    "address": "橿原市雲梯町９４－１",
    "lat": 34.5021375,
    "lng": 135.7679255,
    "tel": "0744-24-5551",
    "url": "http://kanahashien.iinaa.net/",
    "pref": "奈良県",
    "city": "橿原市",
    "category": "day_service",
    "serviceType": "通所介護",
    "capacity": 0,
    "openDays": [
      "平日",
      "土曜日",
      "祝日"
    ],
    "openDaysNote": "緊急時は24時間受け付けます。⇒TEL0744-24-5551"
  },
  {
    "id": "2970500027",
    "name": "特別養護老人ホーム香久山インパレス",
    "kana": "トクベツヨウゴロウジンホームカグヤマインパレス",
    "address": "奈良県橿原市戒外町７番地",
    "lat": 34.4945838,
    "lng": 135.8234651,
    "tel": "0744-29-5001",
    "url": "http://shoufukukai.or.jp/",
    "pref": "奈良県",
    "city": "橿原市",
    "category": "day_service",
    "serviceType": "通所介護",
    "capacity": 40,
    "openDays": [
      "平日",
      "土曜日",
      "祝日"
    ],
    "openDaysNote": ""
  },
  {
    "id": "2974800761",
    "name": "Careこことも",
    "kana": "ケアココトモ",
    "address": "奈良県葛城市兵家641番地",
    "lat": 34.5012845,
    "lng": 135.6995948,
    "tel": "0745-49-0461",
    "url": "https://www.cocoronotomo.com/",
    "pref": "奈良県",
    "city": "葛城市",
    "category": "day_service",
    "serviceType": "通所介護",
    "capacity": null,
    "openDays": [
      "平日",
      "土曜日",
      "祝日"
    ],
    "openDaysNote": ""
  },
  {
    "id": "2974800688",
    "name": "デイサービスおもいやり",
    "kana": "デイサービスオモイヤリ",
    "address": "葛城市脇田309-1",
    "lat": 34.4717111524644,
    "lng": 135.723809057811,
    "tel": "0745-44-3144",
    "url": "https://www.care-support.omoiyari.com",
    "pref": "奈良県",
    "city": "葛城市",
    "category": "day_service",
    "serviceType": "通所介護",
    "capacity": 0,
    "openDays": [
      "平日",
      "土曜日",
      "祝日"
    ],
    "openDaysNote": ""
  },
  {
    "id": "2974800118",
    "name": "デイサービスセンター　一休",
    "kana": "デイサービスセンター　イッキュウ",
    "address": "奈良県葛城市北花内429-1",
    "lat": 34.4858776,
    "lng": 135.7330624,
    "tel": "0745-69-1919",
    "url": "ikkyuu19@ares.eonet.ne.jp",
    "pref": "奈良県",
    "city": "葛城市",
    "category": "day_service",
    "serviceType": "通所介護",
    "capacity": 50,
    "openDays": [
      "平日",
      "土曜日",
      "祝日"
    ],
    "openDaysNote": ""
  },
  {
    "id": "2972900035",
    "name": "ニチイケアセンター新庄",
    "kana": "ニチイケアセンターシンジョウ",
    "address": "葛城市北花内286-4",
    "lat": 34.4846832,
    "lng": 135.7297877,
    "tel": "0745-69-1301",
    "url": "http://www.nichiigakkan.co.jp/",
    "pref": "奈良県",
    "city": "葛城市",
    "category": "day_service",
    "serviceType": "通所介護",
    "capacity": 0,
    "openDays": [
      "平日",
      "土曜日",
      "祝日"
    ],
    "openDaysNote": "災害時等安全面を考慮し休業の場合有り"
  },
  {
    "id": "2974800357",
    "name": "憩い空間ともデイサービスセンター",
    "kana": "イコイクウカントモデンサービスセンター",
    "address": "奈良県葛城市兵家１４５０－１",
    "lat": 34.5040362,
    "lng": 135.69834,
    "tel": "0745-60-4650",
    "url": "",
    "pref": "奈良県",
    "city": "葛城市",
    "category": "day_service",
    "serviceType": "通所介護",
    "capacity": 23,
    "openDays": [
      "平日",
      "祝日"
    ],
    "openDaysNote": "夏期休暇８／１４～８／１６　年末年始１２／３０～１／３"
  },
  {
    "id": "2974800613",
    "name": "社会福祉法人陽幸会",
    "kana": "シャカイフクシホウジンヨウコウカイ",
    "address": "奈良県葛城市平岡４４１番地１",
    "lat": 34.4805625980747,
    "lng": 135.709517375394,
    "tel": "745448001",
    "url": "www.yo-ko-kai.or.jp",
    "pref": "奈良県",
    "city": "葛城市",
    "category": "day_service",
    "serviceType": "通所介護",
    "capacity": null,
    "openDays": [
      "平日"
    ],
    "openDaysNote": ""
  },
  {
    "id": "2972900019",
    "name": "特別養護老人ホームウォームヴィラ新庄園",
    "kana": "トクベツヨウゴロウジンホームウォームウ゛ィラシンジョウエン",
    "address": "奈良県葛城市平岡528番地",
    "lat": 34.4733593103799,
    "lng": 135.705511260158,
    "tel": "0745-63-1150",
    "url": "http://www.geocities.jp/shinjyouen/",
    "pref": "奈良県",
    "city": "葛城市",
    "category": "day_service",
    "serviceType": "通所介護",
    "capacity": 0,
    "openDays": [
      "平日",
      "土曜日",
      "祝日"
    ],
    "openDaysNote": ""
  },
  {
    "id": "2973500081",
    "name": "デイサービスセンター吉野上市",
    "kana": "デイサービスセンターヨシノカミイチ",
    "address": "吉野郡吉野町上市2016番地の1",
    "lat": 34.3945038672808,
    "lng": 135.843709415344,
    "tel": "0746-32-5515",
    "url": "http://www.choseikai.or.jp",
    "pref": "奈良県",
    "city": "吉野町",
    "category": "day_service",
    "serviceType": "通所介護",
    "capacity": 30,
    "openDays": [
      "平日",
      "土曜日",
      "祝日"
    ],
    "openDaysNote": "台風や降雪など、天候の状況により短縮営業、営業中止の可能性があります。"
  },
  {
    "id": "2973500180",
    "name": "デイサービス柳光",
    "kana": "デイサービス　リュウコウ",
    "address": "奈良県吉野郡吉野町大字柳1395番１",
    "lat": 34.4176988190133,
    "lng": 135.918512910451,
    "tel": "0746-35-9294",
    "url": "https://www.taiyounomura.org/ryuko/",
    "pref": "奈良県",
    "city": "吉野町",
    "category": "day_service",
    "serviceType": "通所介護",
    "capacity": 0,
    "openDays": [
      "平日",
      "土曜日",
      "祝日"
    ],
    "openDaysNote": "9時間以上、12時間以下の利用も申し出により可能とする。（改行）年末年始等は、1月1日～1月3日を特別休業とする。"
  },
  {
    "id": "2973500024",
    "name": "吉野三町村老人福祉施設",
    "kana": "ヨシノサンチョウソンロウジンフクシシセツ",
    "address": "奈良県吉野郡吉野町楢井６０５－１",
    "lat": 34.3837253,
    "lng": 135.8881359,
    "tel": "0746-32-8950",
    "url": "",
    "pref": "奈良県",
    "city": "吉野町",
    "category": "day_service",
    "serviceType": "通所介護",
    "capacity": 20,
    "openDays": [
      "平日",
      "祝日"
    ],
    "openDaysNote": ""
  },
  {
    "id": "2970700577",
    "name": "ハートランド五條　デイサービスセンター",
    "kana": "ハートランドゴジョウ　デイサービスセンター",
    "address": "奈良県五條市二見5丁目3番63号",
    "lat": 34.3404375019923,
    "lng": 135.691288367091,
    "tel": "0747-26-0006",
    "url": "http://www.heartland.or.jp/gojo/",
    "pref": "奈良県",
    "city": "五條市",
    "category": "day_service",
    "serviceType": "通所介護",
    "capacity": 30,
    "openDays": [
      "平日",
      "土曜日",
      "祝日"
    ],
    "openDaysNote": ""
  },
  {
    "id": "2970700049",
    "name": "社会福祉法人祥水園",
    "kana": "シャカイフクシホウジンショウスイエン",
    "address": "奈良県五條市野原西3丁目3番41号",
    "lat": 34.3458261151236,
    "lng": 135.702400515361,
    "tel": "0747-23-0767",
    "url": "http://www.shousuien.or.jp",
    "pref": "奈良県",
    "city": "五條市",
    "category": "day_service",
    "serviceType": "通所介護",
    "capacity": 38,
    "openDays": [
      "平日",
      "土曜日",
      "祝日"
    ],
    "openDaysNote": ""
  },
  {
    "id": "2970700031",
    "name": "特別養護老人ホームまきの苑",
    "kana": "トクベツヨウゴロウジンホームマキノエン",
    "address": "奈良県五條市大沢町5-25",
    "lat": 34.3613289,
    "lng": 135.668103,
    "tel": "0747-22-5511",
    "url": "http://www.seiwakai-gojo.or.jp/",
    "pref": "奈良県",
    "city": "五條市",
    "category": "day_service",
    "serviceType": "通所介護",
    "capacity": null,
    "openDays": [
      "平日",
      "土曜日",
      "祝日"
    ],
    "openDaysNote": "利用サービスの変更につきましてはご相談下さい"
  },
  {
    "id": "2970700189",
    "name": "友語苑デイサービスセンター",
    "kana": "ユウゴエンデイサービスセンター",
    "address": "奈良県五條市住川町１４２６番地",
    "lat": 34.3877942,
    "lng": 135.7240791,
    "tel": "0747-26-1818",
    "url": "http://www.sanju.or.jp/",
    "pref": "奈良県",
    "city": "五條市",
    "category": "day_service",
    "serviceType": "通所介護",
    "capacity": 0,
    "openDays": [
      "平日",
      "土曜日",
      "祝日"
    ],
    "openDaysNote": "年末はご利用者の希望により営業の可能性あり。"
  },
  {
    "id": "2970800724",
    "name": "いぶきデイサービスセンター",
    "kana": "イブキデイサービスセンター",
    "address": "奈良県御所市南十三66-3",
    "lat": 34.466598,
    "lng": 135.7472522,
    "tel": "0745-62-5833",
    "url": "http://www.ibuki-k.net/",
    "pref": "奈良県",
    "city": "御所市",
    "category": "day_service",
    "serviceType": "通所介護",
    "capacity": 25,
    "openDays": [
      "平日",
      "土曜日",
      "祝日"
    ],
    "openDaysNote": "5月.8月その他の理由により休むことがあります（不定休あり）"
  },
  {
    "id": "2970800278",
    "name": "さうす国見",
    "kana": "サウスクニミ",
    "address": "奈良県御所市柏原1320",
    "lat": 34.4520129,
    "lng": 135.7649133,
    "tel": "0745-64-3530",
    "url": "http://www.jinnankai.jp/",
    "pref": "奈良県",
    "city": "御所市",
    "category": "day_service",
    "serviceType": "通所介護",
    "capacity": 0,
    "openDays": [
      "平日",
      "土曜日",
      "日曜日",
      "祝日"
    ],
    "openDaysNote": "但し1月1日～1月3日のみ休業。"
  },
  {
    "id": "2970800765",
    "name": "デイサービス　ウイル",
    "kana": "デイサービス　ウイル",
    "address": "奈良県御所市東辻99-11",
    "lat": 34.4675011100979,
    "lng": 135.742286778772,
    "tel": "0745-62-5000",
    "url": "",
    "pref": "奈良県",
    "city": "御所市",
    "category": "day_service",
    "serviceType": "通所介護",
    "capacity": 20,
    "openDays": [
      "平日",
      "祝日"
    ],
    "openDaysNote": "自然災害、大型台風等により臨時休業する可能性があります。"
  },
  {
    "id": "2970800310",
    "name": "デイサービス　ときの森",
    "kana": "デイサービス　トキノモリ",
    "address": "奈良県御所市８４番地",
    "lat": 34.4651823513114,
    "lng": 135.736903019049,
    "tel": "0745-64-2151",
    "url": "https://tokigr.jp",
    "pref": "奈良県",
    "city": "御所市",
    "category": "day_service",
    "serviceType": "通所介護",
    "capacity": 40,
    "openDays": [
      "平日",
      "土曜日",
      "祝日"
    ],
    "openDaysNote": ""
  },
  {
    "id": "2970800328",
    "name": "デイサービスあゆみ",
    "kana": "デイサービスアユミ",
    "address": "奈良県御所市大字元町３７４番地の２",
    "lat": 34.469524,
    "lng": 135.7310742,
    "tel": "0745-63-1886",
    "url": "",
    "pref": "奈良県",
    "city": "御所市",
    "category": "day_service",
    "serviceType": "通所介護",
    "capacity": 15,
    "openDays": [
      "平日",
      "土曜日",
      "祝日"
    ],
    "openDaysNote": "利用者から特段の申し出があり介護職員等が対応可能な場合に限り、利用者の負担により延長することが出来る。"
  },
  {
    "id": "2970800591",
    "name": "デイサービスセンターしあわせ",
    "kana": "デイサービスセンターシアワセ",
    "address": "奈良県御所市大字櫛羅１５２番地の２、１５２番地の４",
    "lat": 34.4636920358368,
    "lng": 135.722527023943,
    "tel": "0745-64-0312",
    "url": "",
    "pref": "奈良県",
    "city": "御所市",
    "category": "day_service",
    "serviceType": "通所介護",
    "capacity": 0,
    "openDays": [
      "平日",
      "土曜日"
    ],
    "openDaysNote": "随時対応"
  },
  {
    "id": "2970800013",
    "name": "テンダーヒル御所",
    "kana": "テンダーヒルゴセ",
    "address": "奈良県御所市船路415番地",
    "lat": 34.4107779,
    "lng": 135.7201901,
    "tel": "0745-66-2500",
    "url": "https://www.tender.or.jp",
    "pref": "奈良県",
    "city": "御所市",
    "category": "day_service",
    "serviceType": "通所介護",
    "capacity": 25,
    "openDays": [
      "平日",
      "土曜日",
      "祝日"
    ],
    "openDaysNote": "サービス提供時間は８：５０～１６：２０（改行）変速時間でのご利用も行っています。（改行）（例）食事までコース８：５０～１３：００（改行）　　　午後からコース１３：００～１６：２０"
  },
  {
    "id": "2970800351",
    "name": "テンダーヒル御所わかば館",
    "kana": "テンダーヒルゴセワカバカン",
    "address": "奈良県御所市３６４－１",
    "lat": 34.4657357,
    "lng": 135.7362377,
    "tel": "0745-64-2500",
    "url": "http://www.tender.or.jp",
    "pref": "奈良県",
    "city": "御所市",
    "category": "day_service",
    "serviceType": "通所介護",
    "capacity": 0,
    "openDays": [
      "平日",
      "土曜日",
      "祝日"
    ],
    "openDaysNote": ""
  },
  {
    "id": "2970800427",
    "name": "介護老人福祉施設　友幸苑",
    "kana": "カイゴロウジンフクシシセツ　ユウコウエン",
    "address": "奈良県御所市重阪７７１番１",
    "lat": 34.3884914,
    "lng": 135.7259289,
    "tel": "0747-26-1177",
    "url": "http://www.sanju.or.jp/",
    "pref": "奈良県",
    "city": "御所市",
    "category": "day_service",
    "serviceType": "通所介護",
    "capacity": 0,
    "openDays": [
      "平日",
      "土曜日",
      "祝日"
    ],
    "openDaysNote": ""
  },
  {
    "id": "2970800575",
    "name": "株式会社デイサービス虹",
    "kana": "カブシキガイシャデイサービスニジ",
    "address": "奈良県御所市稲宿561番地",
    "lat": 34.434741387332,
    "lng": 135.751431258861,
    "tel": "0745-60-0475",
    "url": "",
    "pref": "奈良県",
    "city": "御所市",
    "category": "day_service",
    "serviceType": "通所介護",
    "capacity": 0,
    "openDays": [
      "平日",
      "祝日"
    ],
    "openDaysNote": ""
  },
  {
    "id": "2970800674",
    "name": "有限会社ふたば介護センター",
    "kana": "ユウゲンガイシャフタバカイゴセンター",
    "address": "奈良県御所市三室589",
    "lat": 34.4523529,
    "lng": 135.7296889,
    "tel": "0745‐62‐8828",
    "url": "",
    "pref": "奈良県",
    "city": "御所市",
    "category": "day_service",
    "serviceType": "通所介護",
    "capacity": 20,
    "openDays": [
      "平日",
      "土曜日"
    ],
    "openDaysNote": "盆休み、正月休みあり"
  },
  {
    "id": "2972600064",
    "name": "みつえ秀華苑デイサービスセンター",
    "kana": "ミツエシュウカエンデイサービスセンター",
    "address": "奈良県宇陀郡御杖村大字神末５８０番地",
    "lat": 34.498697,
    "lng": 136.1932596,
    "tel": "0745-95-2356",
    "url": "http://www.seikoukai-fukushi.or.jp",
    "pref": "奈良県",
    "city": "御杖村",
    "category": "day_service",
    "serviceType": "通所介護",
    "capacity": 25,
    "openDays": [
      "平日",
      "土曜日",
      "祝日"
    ],
    "openDaysNote": ""
  },
  {
    "id": "2973300615",
    "name": "ﾃﾞｲｻｰﾋﾞｽｾﾝﾀｰポシブルはしお",
    "kana": "デイサービスセンターポシブルハシオ",
    "address": "奈良県北葛城郡広陵町的場144-3",
    "lat": 34.5664821,
    "lng": 135.7550451,
    "tel": "0745-44-3023",
    "url": "http://www.nakahori.jp/hashio.html",
    "pref": "奈良県",
    "city": "広陵町",
    "category": "day_service",
    "serviceType": "通所介護",
    "capacity": null,
    "openDays": [
      "平日",
      "祝日"
    ],
    "openDaysNote": "8月13日から8月15日（改行）12月29日から1月3日までは定休日"
  },
  {
    "id": "2973300300",
    "name": "デイサービスセンターこもれび",
    "kana": "デイサービスセンターコモレビ",
    "address": "奈良県北葛城郡広陵町沢３９６－１",
    "lat": 34.5776135,
    "lng": 135.74166,
    "tel": "0745-58-2883",
    "url": "http://www.kenseikai-nara.jp/top.html",
    "pref": "奈良県",
    "city": "広陵町",
    "category": "day_service",
    "serviceType": "通所介護",
    "capacity": 0,
    "openDays": [
      "平日",
      "土曜日"
    ],
    "openDaysNote": "年末年始等の特別休業期間（改行）１２月３０日～１月３日（改行）但し、連休が続く場合は臨時営業の場合あり。"
  },
  {
    "id": "2973300391",
    "name": "ニチイケアセンター広陵",
    "kana": "ニチイケアセンター　コウリョウ",
    "address": "北葛城郡広陵町大字笠343-1",
    "lat": 34.5498335,
    "lng": 135.746974,
    "tel": "0745-54-1225",
    "url": "",
    "pref": "奈良県",
    "city": "広陵町",
    "category": "day_service",
    "serviceType": "通所介護",
    "capacity": 0,
    "openDays": [
      "平日",
      "土曜日",
      "祝日"
    ],
    "openDaysNote": "居宅介護計画書により、上記以外でもサービス提供する場合あり"
  },
  {
    "id": "2973300565",
    "name": "リハビリデイサービスＵＴ広陵",
    "kana": "リハビリデイサービスユーティコウリョウ",
    "address": "奈良県北葛城郡広陵町大字笠161-2広陵町総合保険福祉会館内（さわやかホール内） 広陵町総合保険福祉会館内（さわやかホール内）",
    "lat": 34.5427396,
    "lng": 135.7445611,
    "tel": "0745-43-7570",
    "url": "http://utcaresystem.com/",
    "pref": "奈良県",
    "city": "広陵町",
    "category": "day_service",
    "serviceType": "通所介護",
    "capacity": 30,
    "openDays": [
      "平日",
      "祝日"
    ],
    "openDaysNote": ""
  },
  {
    "id": "2973300649",
    "name": "リハビリデイサービスいきいき広陵",
    "kana": "リハビリデイサービスイキイキコウリョウ",
    "address": "奈良県北葛城郡広陵町沢506-1",
    "lat": 34.5753066804081,
    "lng": 135.743239050262,
    "tel": "0745-27-5838",
    "url": "https://iki-iki-r.com/",
    "pref": "奈良県",
    "city": "広陵町",
    "category": "day_service",
    "serviceType": "通所介護",
    "capacity": null,
    "openDays": [
      "平日"
    ],
    "openDaysNote": ""
  },
  {
    "id": "2973300607",
    "name": "リハビリ処FreeStyle",
    "kana": "リハビリドコロ　フリースタイル",
    "address": "奈良県北葛城郡広陵町南郷417-4",
    "lat": 34.5416245250066,
    "lng": 135.75477854418,
    "tel": "0745-49-0031",
    "url": "",
    "pref": "奈良県",
    "city": "広陵町",
    "category": "day_service",
    "serviceType": "通所介護",
    "capacity": 20,
    "openDays": [
      "平日",
      "祝日"
    ],
    "openDaysNote": "8／13-8/15夏季休暇（改行）12/30-1/3冬期休暇"
  },
  {
    "id": "2973300698",
    "name": "リハプライド広陵",
    "kana": "リハプライドコウリョウ",
    "address": "奈良県北葛城郡広陵町大塚509-1",
    "lat": 34.5285406,
    "lng": 135.7330376,
    "tel": "0745-43-7603",
    "url": "https://www.rehapride.co.jp/koryo/",
    "pref": "奈良県",
    "city": "広陵町",
    "category": "day_service",
    "serviceType": "通所介護",
    "capacity": 0,
    "openDays": [
      "平日",
      "祝日"
    ],
    "openDaysNote": ""
  },
  {
    "id": "2973300268",
    "name": "介護サービスステーション　あっとほーむ",
    "kana": "カイゴサービスステーション　アットホーム",
    "address": "奈良県北葛城郡広陵町馬見北１丁目７－２１",
    "lat": 34.5559411,
    "lng": 135.7332388,
    "tel": "0745-55-4129",
    "url": "",
    "pref": "奈良県",
    "city": "広陵町",
    "category": "day_service",
    "serviceType": "通所介護",
    "capacity": 0,
    "openDays": [
      "平日",
      "土曜日",
      "祝日"
    ],
    "openDaysNote": "夏期８/１３～８/１５　年末年始１２/２９～１/３は休業"
  },
  {
    "id": "2973300482",
    "name": "大和園デイサービスセンター広陵温泉",
    "kana": "ヤマトエンデイサービスセンターコウリョウオンセン",
    "address": "奈良県北葛城郡広陵町大字三吉１７３ー１",
    "lat": 34.5575745255801,
    "lng": 135.746840924359,
    "tel": "０７４５－５５－１１２６",
    "url": "http.//www.yamatoen.or.jp",
    "pref": "奈良県",
    "city": "広陵町",
    "category": "day_service",
    "serviceType": "通所介護",
    "capacity": 70,
    "openDays": [
      "平日",
      "土曜日",
      "祝日"
    ],
    "openDaysNote": "１２月３０日から１月３日を除く（改行）２０２２年１月より日曜日の営業はありません"
  },
  {
    "id": "2973300474",
    "name": "老人デイサービス翁の杜",
    "kana": "ロウジンデイサービスオキナノモリ",
    "address": "奈良県北葛城郡広陵町南郷84番地1",
    "lat": 34.5330634,
    "lng": 135.7544599,
    "tel": "0745-55-5551",
    "url": "https://carehouse.jp/",
    "pref": "奈良県",
    "city": "広陵町",
    "category": "day_service",
    "serviceType": "通所介護",
    "capacity": 25,
    "openDays": [
      "平日",
      "土曜日",
      "祝日"
    ],
    "openDaysNote": ""
  },
  {
    "id": "2971001603",
    "name": "けいはんなデイサービスセンター香芝",
    "kana": "ケイハンナデイサービスセンターカシバ",
    "address": "奈良県香芝市瓦口43-1",
    "lat": 34.5352549,
    "lng": 135.7198087,
    "tel": "0745-71-1670",
    "url": "https://careterrace.co.jp/",
    "pref": "奈良県",
    "city": "香芝市",
    "category": "day_service",
    "serviceType": "通所介護",
    "capacity": 0,
    "openDays": [
      "平日",
      "土曜日",
      "祝日"
    ],
    "openDaysNote": "1/1は休業"
  },
  {
    "id": "2971001025",
    "name": "デイサービス　まほろば",
    "kana": "デイサービス　マホロバ",
    "address": "上中116-1サービス付き高齢者向け住宅まほろば サービス付き高齢者向け住宅まほろば",
    "lat": 34.5611414177135,
    "lng": 135.699644228836,
    "tel": "0745-71-7788",
    "url": "http://www.mahoroba.jp.net",
    "pref": "奈良県",
    "city": "香芝市",
    "category": "day_service",
    "serviceType": "通所介護",
    "capacity": 35,
    "openDays": [
      "平日",
      "土曜日",
      "祝日"
    ],
    "openDaysNote": ""
  },
  {
    "id": "2971001314",
    "name": "デイサービス　倖寿の丘",
    "kana": "デイサービスコウジュノオカ",
    "address": "奈良県香芝市藤山２丁目１２２０－１",
    "lat": 34.545539,
    "lng": 135.699487,
    "tel": "745715416",
    "url": "",
    "pref": "奈良県",
    "city": "香芝市",
    "category": "day_service",
    "serviceType": "通所介護",
    "capacity": 0,
    "openDays": [
      "平日",
      "土曜日",
      "祝日"
    ],
    "openDaysNote": "年末年始休業12月30日～1月3日"
  },
  {
    "id": "2971001645",
    "name": "でぃさーびす　紬",
    "kana": "ディサービス　ツムギ",
    "address": "奈良県香芝市畑３丁目９４３番地１",
    "lat": 34.5405753,
    "lng": 135.6923137,
    "tel": "0745-43-5611",
    "url": "https://www.dayservice-tsumugi.com/",
    "pref": "奈良県",
    "city": "香芝市",
    "category": "day_service",
    "serviceType": "通所介護",
    "capacity": 0,
    "openDays": [
      "平日"
    ],
    "openDaysNote": ""
  },
  {
    "id": "2971000233",
    "name": "デイサービスセンターすばる",
    "kana": "デイサービスセンタースバル",
    "address": "奈良県香芝市鎌田157-1",
    "lat": 34.5218367,
    "lng": 135.7125633,
    "tel": "0745-71-7172",
    "url": "https://s-subaru.com",
    "pref": "奈良県",
    "city": "香芝市",
    "category": "day_service",
    "serviceType": "通所介護",
    "capacity": 35,
    "openDays": [
      "平日",
      "土曜日",
      "祝日"
    ],
    "openDaysNote": ""
  },
  {
    "id": "2971000829",
    "name": "デイサービスセンター希",
    "kana": "デイサービスセンターノゾミ",
    "address": "奈良県香芝市穴虫1046-1",
    "lat": 34.5470496,
    "lng": 135.6860241,
    "tel": "745437090",
    "url": "http://nozomi4186.com/",
    "pref": "奈良県",
    "city": "香芝市",
    "category": "day_service",
    "serviceType": "通所介護",
    "capacity": 30,
    "openDays": [
      "平日",
      "土曜日",
      "祝日"
    ],
    "openDaysNote": ""
  },
  {
    "id": "2971001249",
    "name": "デイサービス縁",
    "kana": "デイサービスエン",
    "address": "奈良県香芝市磯壁6丁目452-1",
    "lat": 34.5320671883851,
    "lng": 135.703673524886,
    "tel": "0745-43-7555",
    "url": "http://hp.kaipoke.biz/1fh/",
    "pref": "奈良県",
    "city": "香芝市",
    "category": "day_service",
    "serviceType": "通所介護",
    "capacity": 0,
    "openDays": [
      "平日",
      "土曜日",
      "祝日"
    ],
    "openDaysNote": ""
  },
  {
    "id": "2971001652",
    "name": "デイサービス縁結び",
    "kana": "デイサービスエンムスビ",
    "address": "奈良県香芝市鎌田362-1",
    "lat": 34.5236342757265,
    "lng": 135.707217923279,
    "tel": "0745-71-3055",
    "url": "",
    "pref": "奈良県",
    "city": "香芝市",
    "category": "day_service",
    "serviceType": "通所介護",
    "capacity": null,
    "openDays": [
      "平日",
      "土曜日",
      "祝日"
    ],
    "openDaysNote": ""
  },
  {
    "id": "2971000860",
    "name": "デイサービス笑音",
    "kana": "デイサービスワオン",
    "address": "奈良県香芝市尼寺2-55-1",
    "lat": 34.5742593595562,
    "lng": 135.70161444418,
    "tel": "0745-60-5344",
    "url": "http://shift-waon.com",
    "pref": "奈良県",
    "city": "香芝市",
    "category": "day_service",
    "serviceType": "通所介護",
    "capacity": 10,
    "openDays": [
      "平日",
      "日曜日",
      "祝日"
    ],
    "openDaysNote": "最大、延長19時まで可（要相談）"
  },
  {
    "id": "2971001736",
    "name": "ほねつぎデイサービス香芝",
    "kana": "ホネツギデイサービスカシバ",
    "address": "奈良県香芝市下田西1丁目11-18",
    "lat": 34.5451176,
    "lng": 135.7037236,
    "tel": "0745-51-1900",
    "url": "",
    "pref": "奈良県",
    "city": "香芝市",
    "category": "day_service",
    "serviceType": "通所介護",
    "capacity": 20,
    "openDays": [
      "平日",
      "祝日"
    ],
    "openDaysNote": "ただし、夏季（８月１３日から８月１５日）、年末年始（１２月２９日から１月３日）は休業とする"
  },
  {
    "id": "2971000399",
    "name": "リハビリデイサービスセンターここから真美ヶ丘",
    "kana": "ココカラマミガオカ",
    "address": "香芝市真美ヶ丘6丁目１－３",
    "lat": 34.544348,
    "lng": 135.7207704,
    "tel": "0745-78-8633",
    "url": "",
    "pref": "奈良県",
    "city": "香芝市",
    "category": "day_service",
    "serviceType": "通所介護",
    "capacity": 2,
    "openDays": [
      "平日",
      "土曜日"
    ],
    "openDaysNote": "お盆休み　8/14～8/16　　　　正月休み　12/30～1/4"
  },
  {
    "id": "2971001421",
    "name": "リハビリデイサービス人楽アシスト",
    "kana": "リハビリデイサービスジンラクアシスト",
    "address": "奈良県香芝市上中196-1",
    "lat": 34.5600306222146,
    "lng": 135.700988523314,
    "tel": "0745-44-9455",
    "url": "https://jinraku.co.jp/",
    "pref": "奈良県",
    "city": "香芝市",
    "category": "day_service",
    "serviceType": "通所介護",
    "capacity": null,
    "openDays": [
      "平日"
    ],
    "openDaysNote": ""
  },
  {
    "id": "2971000746",
    "name": "リハビリトゥモロー香芝",
    "kana": "リハビリトゥモローカシバ",
    "address": "香芝市畑2丁目812－1",
    "lat": 34.5397394,
    "lng": 135.6927681,
    "tel": "0745-78-7311",
    "url": "http://www.tomorrow-hs.co.jp",
    "pref": "奈良県",
    "city": "香芝市",
    "category": "day_service",
    "serviceType": "通所介護",
    "capacity": 0,
    "openDays": [
      "平日",
      "祝日"
    ],
    "openDaysNote": ""
  },
  {
    "id": "2971000050",
    "name": "大和園くうる",
    "kana": "ヤマトエン　クウル",
    "address": "奈良県香芝市今泉８４１番地２",
    "lat": 34.55753366336,
    "lng": 135.698368183142,
    "tel": "0745-71-5501",
    "url": "http://www.yamatoen.or.jp/index.html",
    "pref": "奈良県",
    "city": "香芝市",
    "category": "day_service",
    "serviceType": "通所介護",
    "capacity": 65,
    "openDays": [
      "平日",
      "土曜日",
      "祝日"
    ],
    "openDaysNote": "年末年始は休業。"
  },
  {
    "id": "2971000043",
    "name": "特別養護老人ホーム大和園白鳳",
    "kana": "ヤマトエンハクホウ",
    "address": "奈良県香芝市尼寺594-2",
    "lat": 34.5707495,
    "lng": 135.6870761,
    "tel": "0745-79-5500",
    "url": "https://www.yamatoen.or.jp",
    "pref": "奈良県",
    "city": "香芝市",
    "category": "day_service",
    "serviceType": "通所介護",
    "capacity": 0,
    "openDays": [
      "平日",
      "土曜日",
      "祝日"
    ],
    "openDaysNote": ""
  },
  {
    "id": "2971001769",
    "name": "奈良香芝ケアセンターそよ風",
    "kana": "ナラカシバケアセンターソヨカゼ",
    "address": "瓦口16-2",
    "lat": 34.5371052,
    "lng": 135.7177574,
    "tel": "0745-77-7076",
    "url": "https://www.sykz.co.jp/",
    "pref": "奈良県",
    "city": "香芝市",
    "category": "day_service",
    "serviceType": "通所介護",
    "capacity": 0,
    "openDays": [
      "平日",
      "土曜日",
      "日曜日",
      "祝日"
    ],
    "openDaysNote": ""
  },
  {
    "id": "2971001686",
    "name": "和里（にこり）香芝",
    "kana": "ニコリカシバ",
    "address": "奈良県香芝市鎌田594",
    "lat": 34.5246892,
    "lng": 135.7163159,
    "tel": "0745-78-0125",
    "url": "htt://www.nicori.or.jp",
    "pref": "奈良県",
    "city": "香芝市",
    "category": "day_service",
    "serviceType": "通所介護",
    "capacity": 0,
    "openDays": [
      "平日",
      "土曜日"
    ],
    "openDaysNote": ""
  },
  {
    "id": "2972700054",
    "name": "デイサービスセンター陽明荘",
    "kana": "デイサービスセンターヨウメイソウ",
    "address": "高市郡高取町清水谷１４９－５",
    "lat": 34.4421171,
    "lng": 135.7954248,
    "tel": "0744-52-4666",
    "url": "https://shutokukai.or.jp/",
    "pref": "奈良県",
    "city": "高取町",
    "category": "day_service",
    "serviceType": "通所介護",
    "capacity": 0,
    "openDays": [
      "平日",
      "土曜日",
      "祝日"
    ],
    "openDaysNote": "特になし"
  },
  {
    "id": "2972700203",
    "name": "デイサービスたかとり",
    "kana": "デイサービスタカトリ",
    "address": "奈良県高市郡高取町大字兵庫196番地",
    "lat": 34.4471399289452,
    "lng": 135.776039252809,
    "tel": "0744-52-1500",
    "url": "http://www.heisei-fukushi.or.jp/index.html",
    "pref": "奈良県",
    "city": "高取町",
    "category": "day_service",
    "serviceType": "通所介護",
    "capacity": null,
    "openDays": [
      "平日",
      "土曜日",
      "祝日"
    ],
    "openDaysNote": ""
  },
  {
    "id": "2970601320",
    "name": "かぐやまのさと",
    "kana": "カグヤマノサト",
    "address": "吉備５１２－１",
    "lat": null,
    "lng": null,
    "tel": "0744-49-4165",
    "url": "",
    "pref": "奈良県",
    "city": "桜井市",
    "category": "day_service",
    "serviceType": "通所介護",
    "capacity": null,
    "openDays": [
      "平日",
      "土曜日",
      "祝日"
    ],
    "openDaysNote": ""
  },
  {
    "id": "2970600900",
    "name": "きび秀華苑デイサービスセンター",
    "kana": "キビシュウカエンデイサービスセンター",
    "address": "奈良県桜井市吉備５４２番地２",
    "lat": 34.5086780681821,
    "lng": 135.833266500664,
    "tel": "0744-44-2601",
    "url": "http://www.seikoukai-fukushi.or.jp",
    "pref": "奈良県",
    "city": "桜井市",
    "category": "day_service",
    "serviceType": "通所介護",
    "capacity": 25,
    "openDays": [
      "平日",
      "土曜日",
      "祝日"
    ],
    "openDaysNote": "年末年始休業（１２月３１日から１月３日）"
  },
  {
    "id": "2970601197",
    "name": "デイサービスおたがいさん",
    "kana": "デイサービスオタガイサン",
    "address": "奈良県桜井市河西775エンプレス南 エンプレス南",
    "lat": 34.5004259,
    "lng": 135.8472763,
    "tel": "0744-47-4562",
    "url": "https://ookinigroup.com/",
    "pref": "奈良県",
    "city": "桜井市",
    "category": "day_service",
    "serviceType": "通所介護",
    "capacity": 0,
    "openDays": [
      "平日",
      "土曜日",
      "祝日"
    ],
    "openDaysNote": ""
  },
  {
    "id": "2970601171",
    "name": "デイサービスしんしんリハビリテーション菜の花",
    "kana": "デイサービスシンシンリハビリテーションナノハナ",
    "address": "桜井市生田243-3",
    "lat": 34.4950752186877,
    "lng": 135.839994104507,
    "tel": "0744-49-3988",
    "url": "https://care-net.biz/29/yoriai/b15.php",
    "pref": "奈良県",
    "city": "桜井市",
    "category": "day_service",
    "serviceType": "通所介護",
    "capacity": null,
    "openDays": [
      "平日",
      "土曜日",
      "日曜日",
      "祝日"
    ],
    "openDaysNote": ""
  },
  {
    "id": "2970601189",
    "name": "デイサービスセンターエルシア桜井",
    "kana": "デイサービスセンターエルシアサクライ",
    "address": "奈良県桜井市大福296",
    "lat": 34.5137156072936,
    "lng": 135.830616860883,
    "tel": "0744-43-2700",
    "url": "https://www.spirit-care.co.jp",
    "pref": "奈良県",
    "city": "桜井市",
    "category": "day_service",
    "serviceType": "通所介護",
    "capacity": 0,
    "openDays": [
      "平日",
      "土曜日",
      "日曜日",
      "祝日"
    ],
    "openDaysNote": ""
  },
  {
    "id": "2970601387",
    "name": "デイサービスセンターグランビレッジ倉橋",
    "kana": "デイサービスセンターグランビレッジクラハシ",
    "address": "奈良県桜井市倉橋1088-1",
    "lat": 34.491234,
    "lng": 135.859951,
    "tel": "0744-46-1005",
    "url": "https://www.taiyounomura.org/kurahashi/",
    "pref": "奈良県",
    "city": "桜井市",
    "category": "day_service",
    "serviceType": "通所介護",
    "capacity": null,
    "openDays": [
      "平日",
      "土曜日",
      "祝日"
    ],
    "openDaysNote": ""
  },
  {
    "id": "2970600884",
    "name": "デイサービスセンター幸和",
    "kana": "デンサービスセンターコウワ",
    "address": "奈良県桜井市三輪419番",
    "lat": 34.5248968,
    "lng": 135.8479097,
    "tel": "744474510",
    "url": "",
    "pref": "奈良県",
    "city": "桜井市",
    "category": "day_service",
    "serviceType": "通所介護",
    "capacity": null,
    "openDays": [
      "平日",
      "土曜日",
      "祝日"
    ],
    "openDaysNote": "日曜日を除く祝日は営業（改行）但し、12月29日～1月3日を除く"
  },
  {
    "id": "2970600348",
    "name": "デイサービスやまのべ",
    "kana": "デイサービスヤマノベ",
    "address": "奈良県桜井市大豆越104-1",
    "lat": 34.5495068251033,
    "lng": 135.836598221426,
    "tel": "0744-45-0280",
    "url": "https://www.yamanobe.or.jp",
    "pref": "奈良県",
    "city": "桜井市",
    "category": "day_service",
    "serviceType": "通所介護",
    "capacity": 0,
    "openDays": [
      "平日",
      "土曜日",
      "日曜日",
      "祝日"
    ],
    "openDaysNote": "早朝・延長等のご希望は相談に応じます。"
  },
  {
    "id": "2970600116",
    "name": "ニチイケアセンター桜井",
    "kana": "ニチイケアセンターサクライ",
    "address": "桜井市粟殿1027-1",
    "lat": 34.5183615,
    "lng": 135.8456711,
    "tel": "0744-44-6455",
    "url": "http://www.nichiigakkan.co.jp",
    "pref": "奈良県",
    "city": "桜井市",
    "category": "day_service",
    "serviceType": "通所介護",
    "capacity": 0,
    "openDays": [
      "平日",
      "土曜日",
      "祝日"
    ],
    "openDaysNote": "毎月1回（第2）日曜日営業あり"
  },
  {
    "id": "2970601262",
    "name": "みやこデイサービス桜井",
    "kana": "ミヤコデイサービスサクライ",
    "address": "奈良県桜井市桜井295番地",
    "lat": 34.5109044945026,
    "lng": 135.84774933663,
    "tel": "0744-47-3851",
    "url": "",
    "pref": "奈良県",
    "city": "桜井市",
    "category": "day_service",
    "serviceType": "通所介護",
    "capacity": 0,
    "openDays": [
      "平日",
      "土曜日",
      "祝日"
    ],
    "openDaysNote": ""
  },
  {
    "id": "2970600942",
    "name": "リハビリデイサービスセンター四つ葉のクローバー桜井",
    "kana": "リハビリデイサービスセンターヨツバノクローバーサクライ",
    "address": "奈良県桜井市粟殿318-1リハビリデイサービスセンター四つ葉のクローバー桜井 リハビリデイサービスセンター四つ葉のクローバー桜井",
    "lat": 34.5172526994943,
    "lng": 135.849941395384,
    "tel": "0744-42-0968",
    "url": "http://www.grandsoul.co.jp/clover/",
    "pref": "奈良県",
    "city": "桜井市",
    "category": "day_service",
    "serviceType": "通所介護",
    "capacity": 30,
    "openDays": [
      "平日",
      "土曜日",
      "祝日"
    ],
    "openDaysNote": ""
  },
  {
    "id": "2970601213",
    "name": "レッツ倶楽部桜井",
    "kana": "レッツクラブサクライ",
    "address": "奈良県桜井市大字谷1152-2",
    "lat": 34.5004036,
    "lng": 135.8462865,
    "tel": "0744-46-2800",
    "url": "https://www.lets-club.jp/shop/sakurai/",
    "pref": "奈良県",
    "city": "桜井市",
    "category": "day_service",
    "serviceType": "通所介護",
    "capacity": 0,
    "openDays": [
      "平日",
      "祝日"
    ],
    "openDaysNote": "午前・午後の半日型と1日型の施設です。入浴・食事の提供あります。（改行）マシンを使った運動施設です。"
  },
  {
    "id": "2970600082",
    "name": "三輪の里デイサービスセンター",
    "kana": "ミワノサトデイサービスセンター",
    "address": "奈良県桜井市慈恩寺285",
    "lat": 34.5192004,
    "lng": 135.863456,
    "tel": "0744-46-1808",
    "url": "http://miwanosato.jp/",
    "pref": "奈良県",
    "city": "桜井市",
    "category": "day_service",
    "serviceType": "通所介護",
    "capacity": 35,
    "openDays": [
      "平日",
      "土曜日",
      "祝日"
    ],
    "openDaysNote": ""
  },
  {
    "id": "2970600017",
    "name": "社会福祉法人　大和桜井園",
    "kana": "シャカイフクシホウジン　ヤマトサクライエン",
    "address": "奈良県桜井市大字阿部１０７０番地",
    "lat": 34.5014621257688,
    "lng": 135.844817586539,
    "tel": "0744-42-2090",
    "url": "http://www.sakuraien.jp/",
    "pref": "奈良県",
    "city": "桜井市",
    "category": "day_service",
    "serviceType": "通所介護",
    "capacity": 0,
    "openDays": [
      "平日",
      "祝日"
    ],
    "openDaysNote": ""
  },
  {
    "id": "2970600546",
    "name": "秀華苑デイサービスセンター",
    "kana": "シュウカエンデイサービスセンター",
    "address": "奈良県桜井市出雲1642番地",
    "lat": 34.5217756,
    "lng": 135.8956485,
    "tel": "0744-44-3218",
    "url": "http://www.seikoukai-fukushi.or.jp",
    "pref": "奈良県",
    "city": "桜井市",
    "category": "day_service",
    "serviceType": "通所介護",
    "capacity": 0,
    "openDays": [
      "平日",
      "土曜日",
      "祝日"
    ],
    "openDaysNote": "大晦日・正月等は休業の時有"
  },
  {
    "id": "2971500182",
    "name": "デイサービス　LUPIN勢野",
    "kana": "デイサービス　ルーピンセヤ",
    "address": "奈良県生駒郡三郷町勢野北1-4-25",
    "lat": 34.6091646,
    "lng": 135.6950438,
    "tel": "0745-31-6688",
    "url": "https://www.lupin-inc.co.jp/",
    "pref": "奈良県",
    "city": "三郷町",
    "category": "day_service",
    "serviceType": "通所介護",
    "capacity": 33,
    "openDays": [
      "平日",
      "土曜日",
      "祝日"
    ],
    "openDaysNote": ""
  },
  {
    "id": "2971500620",
    "name": "デイサービスセンタービオスの丘三郷",
    "kana": "デイサービスセンタービオスノオカサンゴウ",
    "address": "奈良県生駒郡三郷町信貴南畑1-7-26ビオスの丘三郷 ビオスの丘三郷",
    "lat": 34.6047843,
    "lng": 135.6563163,
    "tel": "0745-33-3335",
    "url": "http://www.jinpu-kai.jp",
    "pref": "奈良県",
    "city": "三郷町",
    "category": "day_service",
    "serviceType": "通所介護",
    "capacity": 30,
    "openDays": [
      "平日"
    ],
    "openDaysNote": "上記以外にも年末年始１２月３０日から１月３日まで定休日としています。"
  },
  {
    "id": "2971500661",
    "name": "デイサービスはあとの杜しぎさん",
    "kana": "デイサービス　ハアトノモリシギサン",
    "address": "奈良県生駒郡三郷町勢野北4-3-2",
    "lat": 34.606748,
    "lng": 135.68555,
    "tel": "0745-33-5700",
    "url": "http://heartland.or.jp/shigisan/",
    "pref": "奈良県",
    "city": "三郷町",
    "category": "day_service",
    "serviceType": "通所介護",
    "capacity": 20,
    "openDays": [
      "平日",
      "土曜日",
      "祝日"
    ],
    "openDaysNote": ""
  },
  {
    "id": "2971500745",
    "name": "朋デイサービスセンター三郷",
    "kana": "トモデイサービスセンターサンゴウ",
    "address": "奈良県生駒郡三郷町立野南1丁目10-21",
    "lat": 34.6004107,
    "lng": 135.6953605,
    "tel": "0745-72-6449",
    "url": "http://medical-tomo.com",
    "pref": "奈良県",
    "city": "三郷町",
    "category": "day_service",
    "serviceType": "通所介護",
    "capacity": null,
    "openDays": [
      "平日",
      "土曜日",
      "祝日"
    ],
    "openDaysNote": ""
  },
  {
    "id": "2971900085",
    "name": "mottoおたがいさんmiyake",
    "kana": "モットオタガイサンミヤケ",
    "address": "奈良県磯城郡三宅町伴堂848-1あざさ苑3階 あざさ苑3階",
    "lat": 34.5733267,
    "lng": 135.77113,
    "tel": "0745-43-7456",
    "url": "",
    "pref": "奈良県",
    "city": "三宅町",
    "category": "day_service",
    "serviceType": "通所介護",
    "capacity": 0,
    "openDays": [
      "平日",
      "土曜日",
      "日曜日"
    ],
    "openDaysNote": "年末年始12月29日～1月3日までは休み"
  },
  {
    "id": "2971900101",
    "name": "生活支援事業所わたぼうし",
    "kana": "セイカツシエンジギョウショワタボウシ",
    "address": "奈良県磯城郡三宅町上但馬176-1",
    "lat": 34.5662591,
    "lng": 135.7648717,
    "tel": "745436601",
    "url": "https://www.tanpopo.nara.jp",
    "pref": "奈良県",
    "city": "三宅町",
    "category": "day_service",
    "serviceType": "通所介護",
    "capacity": null,
    "openDays": [
      "平日",
      "土曜日",
      "祝日"
    ],
    "openDaysNote": ""
  },
  {
    "id": "2971300054",
    "name": "つつじの丘",
    "kana": "ツツジノオカ",
    "address": "奈良県山辺郡山添村大字大西1181番地",
    "lat": 34.681911,
    "lng": 136.0396342,
    "tel": "0743-85-1181",
    "url": "https://www.yamatokai-tsutsuji.com/",
    "pref": "奈良県",
    "city": "山添村",
    "category": "day_service",
    "serviceType": "通所介護",
    "capacity": null,
    "openDays": [
      "平日"
    ],
    "openDaysNote": ""
  },
  {
    "id": "2974500015",
    "name": "社会福祉法人上北山村社会福祉協議会",
    "kana": "シャカイフクシホウジンカミキタヤマムラシャカイフクシキョウギカイ",
    "address": "奈良県吉野郡上北山村大字河合381番地",
    "lat": 34.1325913,
    "lng": 136.0020688,
    "tel": "07468-2-0129",
    "url": "",
    "pref": "奈良県",
    "city": "上北山村",
    "category": "day_service",
    "serviceType": "通所介護",
    "capacity": 0,
    "openDays": [
      "平日"
    ],
    "openDaysNote": ""
  },
  {
    "id": "2973100742",
    "name": "デイサービス　六花",
    "kana": "デイサービスロッカ",
    "address": "奈良県北葛城郡上牧町上牧537-10",
    "lat": 34.5617601,
    "lng": 135.7115986,
    "tel": "0745-43-6987",
    "url": "https://www.rokka-fukushi.jp/",
    "pref": "奈良県",
    "city": "上牧町",
    "category": "day_service",
    "serviceType": "通所介護",
    "capacity": 0,
    "openDays": [
      "平日",
      "土曜日",
      "日曜日",
      "祝日"
    ],
    "openDaysNote": ""
  },
  {
    "id": "2973100312",
    "name": "デイサービスセンターさらさ",
    "kana": "デイサービスセンターサラサ",
    "address": "奈良県北葛城郡上牧町服部台５丁目４－１",
    "lat": 34.5719806,
    "lng": 135.7152597,
    "tel": "0745-76-8918",
    "url": "",
    "pref": "奈良県",
    "city": "上牧町",
    "category": "day_service",
    "serviceType": "通所介護",
    "capacity": 0,
    "openDays": [
      "平日",
      "土曜日",
      "日曜日",
      "祝日"
    ],
    "openDaysNote": "営業日は月～日曜日です。（祝日を含む）但し12／30～1／3を除きます。"
  },
  {
    "id": "2973100585",
    "name": "リハビリデイサービス　春の風",
    "kana": "リハビリデイサービス　ハルノカゼ",
    "address": "奈良県北葛城郡上牧町上牧1413-1",
    "lat": 34.5566773756902,
    "lng": 135.720207553781,
    "tel": "0745-71-3123",
    "url": "http://rehabili-harunokaze.com",
    "pref": "奈良県",
    "city": "上牧町",
    "category": "day_service",
    "serviceType": "通所介護",
    "capacity": 25,
    "openDays": [
      "平日",
      "土曜日",
      "祝日"
    ],
    "openDaysNote": ""
  },
  {
    "id": "2973100171",
    "name": "杏デイサービスセンター",
    "kana": "アンズデイサービスセンター",
    "address": "奈良県北葛城郡上牧町下牧1-2-25",
    "lat": 34.5735696,
    "lng": 135.722284,
    "tel": "0745-72-1333",
    "url": "http://www.yamabiko-kanmaki.com",
    "pref": "奈良県",
    "city": "上牧町",
    "category": "day_service",
    "serviceType": "通所介護",
    "capacity": 33,
    "openDays": [
      "平日",
      "祝日"
    ],
    "openDaysNote": ""
  },
  {
    "id": "2970900698",
    "name": "あすならホーム　菜畑",
    "kana": "アスナラホーム　ナバタ",
    "address": "生駒市中菜畑2丁目１１２９－１",
    "lat": 34.6817079,
    "lng": 135.7056556,
    "tel": "0743-75-1141",
    "url": "http://www.asunaraen.com",
    "pref": "奈良県",
    "city": "生駒市",
    "category": "day_service",
    "serviceType": "通所介護",
    "capacity": 0,
    "openDays": [
      "平日",
      "土曜日",
      "日曜日",
      "祝日"
    ],
    "openDaysNote": "年中無休"
  },
  {
    "id": "2970900367",
    "name": "たわらぐちデイサービスセンター",
    "kana": "タワラグチデイサービスセンター",
    "address": "奈良県生駒市俵口町1069-5",
    "lat": 34.7041142,
    "lng": 135.6957976,
    "tel": "0743-71-9001",
    "url": "http://care-net.biz/29/tawaraguchi-ds/",
    "pref": "奈良県",
    "city": "生駒市",
    "category": "day_service",
    "serviceType": "通所介護",
    "capacity": 30,
    "openDays": [
      "平日",
      "土曜日",
      "祝日"
    ],
    "openDaysNote": "悪天候時は、営業を中止にすることもあります。"
  },
  {
    "id": "2970901647",
    "name": "デイサービス　ほのほの",
    "kana": "デイサービス　ホノホノ",
    "address": "奈良県生駒市緑ヶ丘２３４６－５",
    "lat": 34.684796912336,
    "lng": 135.69807867666,
    "tel": "0743-25-2585",
    "url": "",
    "pref": "奈良県",
    "city": "生駒市",
    "category": "day_service",
    "serviceType": "通所介護",
    "capacity": 0,
    "openDays": [
      "平日",
      "土曜日",
      "祝日"
    ],
    "openDaysNote": "年末年始12月３０日から１月３日は休みとさせて頂きます。"
  },
  {
    "id": "2970901068",
    "name": "デイサービスあおいとり",
    "kana": "デイサービス　アオイトリ",
    "address": "奈良県生駒市小明町1523-1",
    "lat": 34.6996674,
    "lng": 135.7057054,
    "tel": "0743-85-5025",
    "url": "https://dcaoitori.xrea.jp/あおいとり.html",
    "pref": "奈良県",
    "city": "生駒市",
    "category": "day_service",
    "serviceType": "通所介護",
    "capacity": 0,
    "openDays": [
      "平日",
      "土曜日",
      "日曜日",
      "祝日"
    ],
    "openDaysNote": "12月31日～1月3日休み"
  },
  {
    "id": "2970900953",
    "name": "デイサービスセンター高山ちどり",
    "kana": "デイサービスセンタータカヤマチドリ",
    "address": "奈良県生駒市高山町8030番地",
    "lat": 34.7279288,
    "lng": 135.726281,
    "tel": "0743-70-1832",
    "url": "https://www.chidori.or.jp/facility/takayama/",
    "pref": "奈良県",
    "city": "生駒市",
    "category": "day_service",
    "serviceType": "通所介護",
    "capacity": 20,
    "openDays": [
      "平日",
      "土曜日",
      "祝日"
    ],
    "openDaysNote": ""
  },
  {
    "id": "2970901688",
    "name": "デイサービスたまゆら",
    "kana": "デイサービスタマユラ",
    "address": "奈良県生駒市東山町211-18",
    "lat": 34.6489442,
    "lng": 135.7092141,
    "tel": "0743-76-2355",
    "url": "http://lifecare-ikoma.co.jp/tamayura",
    "pref": "奈良県",
    "city": "生駒市",
    "category": "day_service",
    "serviceType": "通所介護",
    "capacity": 20,
    "openDays": [
      "平日",
      "土曜日",
      "祝日"
    ],
    "openDaysNote": "利用者の状況により時間帯は対応します。"
  },
  {
    "id": "2970901324",
    "name": "デイサービス梅家",
    "kana": "デイサービスウメヤ",
    "address": "萩の台4-4-1",
    "lat": 34.6545321611075,
    "lng": 135.715101052779,
    "tel": "0743-76-2050",
    "url": "http://www.sousei-ikoma.com",
    "pref": "奈良県",
    "city": "生駒市",
    "category": "day_service",
    "serviceType": "通所介護",
    "capacity": 15,
    "openDays": [
      "平日",
      "祝日"
    ],
    "openDaysNote": ""
  },
  {
    "id": "2970900276",
    "name": "デイセンター延寿",
    "kana": "デイセンターエンジュ",
    "address": "奈良県生駒市小瀬町１１００番地",
    "lat": 34.6646762,
    "lng": 135.7231709,
    "tel": "0743-76-2266",
    "url": "http://www.enju.net",
    "pref": "奈良県",
    "city": "生駒市",
    "category": "day_service",
    "serviceType": "通所介護",
    "capacity": 30,
    "openDays": [
      "平日",
      "土曜日",
      "日曜日",
      "祝日"
    ],
    "openDaysNote": ""
  },
  {
    "id": "2970900755",
    "name": "フォレストデイセンター鹿ノ台",
    "kana": "フォレストデイセンター　シカノダイ",
    "address": "奈良県生駒市鹿ノ台西1丁目5-1",
    "lat": 34.7341643,
    "lng": 135.7454957,
    "tel": "0743-78-3360",
    "url": "http://www.cyomeisou.or.jp",
    "pref": "奈良県",
    "city": "生駒市",
    "category": "day_service",
    "serviceType": "通所介護",
    "capacity": 0,
    "openDays": [
      "平日",
      "祝日"
    ],
    "openDaysNote": ""
  },
  {
    "id": "2970902017",
    "name": "ゆりの会デイサービスセンター",
    "kana": "ユリノカイ　デイサービスセンター",
    "address": "奈良県生駒市高山町8075",
    "lat": 34.7289945,
    "lng": 135.723695,
    "tel": "0743-70-1014",
    "url": "http://yurino-kai.jp",
    "pref": "奈良県",
    "city": "生駒市",
    "category": "day_service",
    "serviceType": "通所介護",
    "capacity": null,
    "openDays": [
      "平日",
      "土曜日",
      "祝日"
    ],
    "openDaysNote": "居宅介護サービス計画と勤務体制に応じて、時間外のサービス提供を行うことがある。"
  },
  {
    "id": "2970901670",
    "name": "リハビリデイサービスリバティ",
    "kana": "リハビリデイサービスリバティ",
    "address": "小明町445-1ジュネス東生駒102号 ジュネス東生駒102号",
    "lat": 34.7071834,
    "lng": 135.7059719,
    "tel": "0743-74-3130",
    "url": "http://rehabili-liberty.com",
    "pref": "奈良県",
    "city": "生駒市",
    "category": "day_service",
    "serviceType": "通所介護",
    "capacity": 19,
    "openDays": [
      "平日",
      "祝日"
    ],
    "openDaysNote": "祝日は営業しています。"
  },
  {
    "id": "2970901761",
    "name": "リハビリハウスてるてる",
    "kana": "リハビリハウステルテル",
    "address": "奈良県生駒市壱分町1220-4",
    "lat": 34.6746844,
    "lng": 135.7062541,
    "tel": "0743-25-2363",
    "url": "http://teruteru-koh.com/",
    "pref": "奈良県",
    "city": "生駒市",
    "category": "day_service",
    "serviceType": "通所介護",
    "capacity": 19,
    "openDays": [
      "平日",
      "土曜日",
      "祝日"
    ],
    "openDaysNote": "夏季休暇　及び年末年始は年度によって決定"
  },
  {
    "id": "2970901142",
    "name": "リハビリ専科デイサービス　ヒューマンリハ",
    "kana": "リハビリセンカデイサービス　ヒューマンリハ",
    "address": "奈良県生駒市壱分町１７１－１",
    "lat": 34.6699618,
    "lng": 135.7081695,
    "tel": "0743-77-0721",
    "url": "",
    "pref": "奈良県",
    "city": "生駒市",
    "category": "day_service",
    "serviceType": "通所介護",
    "capacity": 25,
    "openDays": [
      "平日",
      "祝日"
    ],
    "openDaysNote": "祝祭日は営業"
  },
  {
    "id": "2970901944",
    "name": "リハプライド東生駒",
    "kana": "リハプライドヒガシイコマ",
    "address": "辻町762-1パストラール東生駒202 パストラール東生駒202",
    "lat": 34.6928113,
    "lng": 135.7096384,
    "tel": "0743-99-2550",
    "url": "https://www.rehapride.co.jp/higashiikoma/",
    "pref": "奈良県",
    "city": "生駒市",
    "category": "day_service",
    "serviceType": "通所介護",
    "capacity": 0,
    "openDays": [
      "平日",
      "土曜日",
      "祝日"
    ],
    "openDaysNote": ""
  },
  {
    "id": "2970900995",
    "name": "愛友ケアデイサービス　ひだまり",
    "kana": "アイユウケアデイサービス　ヒダマリ",
    "address": "奈良県生駒市南田原町1036-1",
    "lat": 34.7137271,
    "lng": 135.7050024,
    "tel": "0743-75-1477",
    "url": "http://iyou-care.com",
    "pref": "奈良県",
    "city": "生駒市",
    "category": "day_service",
    "serviceType": "通所介護",
    "capacity": 24,
    "openDays": [
      "平日",
      "土曜日",
      "祝日"
    ],
    "openDaysNote": ""
  },
  {
    "id": "2970901605",
    "name": "医療法人社団　松下会　リハビリ特化型デイサービス　エリクシール",
    "kana": "イリョウホウジンシャダンマツシタカイリハビリトッカガタデイサービスエリクシール",
    "address": "奈良県生駒市上町４１３７",
    "lat": 34.7240988391608,
    "lng": 135.721336298256,
    "tel": "0743-70-0070",
    "url": "http://www.allpines.jp",
    "pref": "奈良県",
    "city": "生駒市",
    "category": "day_service",
    "serviceType": "通所介護",
    "capacity": 0,
    "openDays": [
      "平日",
      "土曜日",
      "祝日"
    ],
    "openDaysNote": ""
  },
  {
    "id": "2970900037",
    "name": "社会福祉法人　生駒市社会福祉協議会",
    "kana": "シャカイフクシホウジン　イコマシシャカイフクシキョウギカイ",
    "address": "奈良県生駒市北新町3番1号",
    "lat": 34.6929569,
    "lng": 135.6943118,
    "tel": "0743-74-3333",
    "url": "http://www4.kcn.ne.jp/~i-shakyo/jigyo/kaigohoken/day_service.html",
    "pref": "奈良県",
    "city": "生駒市",
    "category": "day_service",
    "serviceType": "通所介護",
    "capacity": 35,
    "openDays": [
      "平日",
      "土曜日",
      "祝日"
    ],
    "openDaysNote": ""
  },
  {
    "id": "2970900177",
    "name": "通所介護事業所「デイセンター寿楽」",
    "kana": "ツウショカイゴジギョウショ　「デイセンタージュラク」",
    "address": "奈良県生駒市有里町９５－２",
    "lat": 34.6696812,
    "lng": 135.7059363,
    "tel": "0743-77-0061",
    "url": "http://www1.kcn.ne.jp/~juraku/",
    "pref": "奈良県",
    "city": "生駒市",
    "category": "day_service",
    "serviceType": "通所介護",
    "capacity": 32,
    "openDays": [
      "平日",
      "土曜日",
      "祝日"
    ],
    "openDaysNote": ""
  },
  {
    "id": "2970900151",
    "name": "通所介護事業所「梅寿荘デイセンター」",
    "kana": "ツウショカイゴジギョウショ「バイジュソウディセンター」",
    "address": "奈良県生駒市元町２丁目１４番８号桃李館 桃李館",
    "lat": 34.6897155,
    "lng": 135.689465,
    "tel": "0743-74-6644",
    "url": "http://baiday.hozanji-wel.org",
    "pref": "奈良県",
    "city": "生駒市",
    "category": "day_service",
    "serviceType": "通所介護",
    "capacity": 35,
    "openDays": [
      "平日",
      "土曜日",
      "祝日"
    ],
    "openDaysNote": "通常の営業時間は午前8時30分から午後5時30分までとなっていますがご利用者の求めに応じて最長、午後7時30分まで延長します。"
  },
  {
    "id": "2970900029",
    "name": "特別養護老人ホーム　フォレストホーム",
    "kana": "トクベツヨウゴロウジンホーム　フォレストホーム",
    "address": "奈良県生駒市北田原町2429-4",
    "lat": 34.7328586,
    "lng": 135.7107794,
    "tel": "0743-78-8116",
    "url": "http://www.cyomeisou.or.jp",
    "pref": "奈良県",
    "city": "生駒市",
    "category": "day_service",
    "serviceType": "通所介護",
    "capacity": 0,
    "openDays": [
      "平日",
      "土曜日",
      "祝日"
    ],
    "openDaysNote": ""
  },
  {
    "id": "2971800103",
    "name": "社会福祉法人　いわれ会　ぬくもりの郷　デイサービスセンター",
    "kana": "シャカイフクシホウジン　イワレカイ　ヌクモリノサト　デイサービスセンター",
    "address": "奈良県磯城郡川西町大字吐田94番地",
    "lat": 34.5942654,
    "lng": 135.777421,
    "tel": "0745-42-2720",
    "url": "http://tawaramotoen.jp",
    "pref": "奈良県",
    "city": "川西町",
    "category": "day_service",
    "serviceType": "通所介護",
    "capacity": 30,
    "openDays": [
      "平日",
      "土曜日",
      "日曜日",
      "祝日"
    ],
    "openDaysNote": ""
  },
  {
    "id": "2973600444",
    "name": "デイサービスセンターエルシア吉野",
    "kana": "デイサービスセンターエルシアヨシノ",
    "address": "奈良県吉野郡大淀町下渕783-1",
    "lat": 34.3855439,
    "lng": 135.7860384,
    "tel": "0747-52-0303",
    "url": "",
    "pref": "奈良県",
    "city": "大淀町",
    "category": "day_service",
    "serviceType": "通所介護",
    "capacity": null,
    "openDays": [
      "平日",
      "土曜日",
      "日曜日",
      "祝日"
    ],
    "openDaysNote": ""
  },
  {
    "id": "2973600154",
    "name": "ディサービスセンターさくらの里",
    "kana": "ディサービスセンターサクラノサト",
    "address": "奈良県吉野郡大淀町今木880番地",
    "lat": 34.3988965,
    "lng": 135.7710393,
    "tel": "0745-67-9110",
    "url": "",
    "pref": "奈良県",
    "city": "大淀町",
    "category": "day_service",
    "serviceType": "通所介護",
    "capacity": 0,
    "openDays": [
      "平日",
      "土曜日",
      "祝日"
    ],
    "openDaysNote": ""
  },
  {
    "id": "2973600402",
    "name": "株式会社ケアテック　リハプライド吉野",
    "kana": "カブシキガイシャケアテック　リハプライドヨシノ",
    "address": "奈良県吉野郡大淀町北野78-10",
    "lat": 34.4008663,
    "lng": 135.8235874,
    "tel": "0746-34-3355",
    "url": "https://www.rehapride.co.jp/yoshino/",
    "pref": "奈良県",
    "city": "大淀町",
    "category": "day_service",
    "serviceType": "通所介護",
    "capacity": 0,
    "openDays": [
      "平日",
      "祝日"
    ],
    "openDaysNote": ""
  },
  {
    "id": "2973600345",
    "name": "社会福祉法人仁風会デイサービスセンター吉野のあかり",
    "kana": "シャカイフクシホウジンジンプウカイヨシノノアカリ",
    "address": "吉野郡大淀町比曽107番6",
    "lat": 34.4021999,
    "lng": 135.835739,
    "tel": "0746-34-5600",
    "url": "",
    "pref": "奈良県",
    "city": "大淀町",
    "category": "day_service",
    "serviceType": "通所介護",
    "capacity": 30,
    "openDays": [
      "平日",
      "土曜日",
      "祝日"
    ],
    "openDaysNote": "Ｈ25．9月より土曜日営業"
  },
  {
    "id": "2970301681",
    "name": "あすならホーム郡山デイサービス",
    "kana": "アスナラホームコオリヤマデイサービス",
    "address": "奈良県大和郡山市新木町365－1",
    "lat": 34.6421069319307,
    "lng": 135.773468771856,
    "tel": "0743－51－1165",
    "url": "http://www.asunaraen.or.jp/",
    "pref": "奈良県",
    "city": "大和郡山市",
    "category": "day_service",
    "serviceType": "通所介護",
    "capacity": null,
    "openDays": [
      "平日",
      "土曜日",
      "日曜日",
      "祝日"
    ],
    "openDaysNote": ""
  },
  {
    "id": "2970300923",
    "name": "あすならホーム筒井",
    "kana": "アスナラホームツツイ",
    "address": "大和郡山市筒井町250-1",
    "lat": 34.6244666300292,
    "lng": 135.780250904893,
    "tel": "0743-59-3033",
    "url": "http//www.asunaraen.com",
    "pref": "奈良県",
    "city": "大和郡山市",
    "category": "day_service",
    "serviceType": "通所介護",
    "capacity": 0,
    "openDays": [
      "平日",
      "土曜日",
      "日曜日",
      "祝日"
    ],
    "openDaysNote": "年中無休"
  },
  {
    "id": "2970300121",
    "name": "あすなら苑",
    "kana": "アスナラエン",
    "address": "奈良県大和郡山市宮堂町字青木160番7",
    "lat": 34.6019069,
    "lng": 135.7864811,
    "tel": "0743-57-1180",
    "url": "https://asunaraen.or.jp",
    "pref": "奈良県",
    "city": "大和郡山市",
    "category": "day_service",
    "serviceType": "通所介護",
    "capacity": 0,
    "openDays": [
      "平日",
      "土曜日",
      "日曜日",
      "祝日"
    ],
    "openDaysNote": "年中無休"
  },
  {
    "id": "2970301988",
    "name": "デイサービスりあん郡山",
    "kana": "デイサービスリアンコオリヤマ",
    "address": "奈良県大和郡山市馬司町630-1片山ハイツ103 片山ハイツ103",
    "lat": 34.6161848,
    "lng": 135.7862813,
    "tel": "0743-57-0090",
    "url": "",
    "pref": "奈良県",
    "city": "大和郡山市",
    "category": "day_service",
    "serviceType": "通所介護",
    "capacity": 200,
    "openDays": [
      "平日",
      "土曜日"
    ],
    "openDaysNote": ""
  },
  {
    "id": "2970300840",
    "name": "デイサービス発志院あいあいの郷",
    "kana": "デイサービス　ハッシイン　アイアイノサト",
    "address": "奈良県大和郡山市発志院町183-1",
    "lat": 34.6276626,
    "lng": 135.8034676,
    "tel": "0743-56-3959",
    "url": "http://あいあいの郷.com/",
    "pref": "奈良県",
    "city": "大和郡山市",
    "category": "day_service",
    "serviceType": "通所介護",
    "capacity": 25,
    "openDays": [
      "平日",
      "土曜日"
    ],
    "openDaysNote": ""
  },
  {
    "id": "2970300881",
    "name": "ポシブル大和郡山",
    "kana": "ポシブルヤマトコオリヤマ",
    "address": "大和郡山市小泉町2849",
    "lat": 34.6281474705663,
    "lng": 135.74998730085,
    "tel": "0743-58-1100",
    "url": "http://www.possible-plus.co.jp",
    "pref": "奈良県",
    "city": "大和郡山市",
    "category": "day_service",
    "serviceType": "通所介護",
    "capacity": 0,
    "openDays": [
      "平日",
      "土曜日",
      "祝日"
    ],
    "openDaysNote": "年末年始・事業所が定めた日は休みとなる。"
  },
  {
    "id": "2970301269",
    "name": "大和園こおりやまデイサービスセンター",
    "kana": "ヤマトエンコオリヤマデイサービスセンター",
    "address": "北郡山町205-4",
    "lat": 34.6531901,
    "lng": 135.7828887,
    "tel": "0743-52-1700",
    "url": "http://www.yamatoen.or.jp/yamato_kooriyama/index.html",
    "pref": "奈良県",
    "city": "大和郡山市",
    "category": "day_service",
    "serviceType": "通所介護",
    "capacity": 0,
    "openDays": [
      "平日",
      "土曜日",
      "祝日"
    ],
    "openDaysNote": ""
  },
  {
    "id": "2970301731",
    "name": "大和園りおん",
    "kana": "ヤマトエン　リオン",
    "address": "筒井町883-3大和園りおん 大和園りおん",
    "lat": 34.6191213944768,
    "lng": 135.783615414086,
    "tel": "0743-23-1500",
    "url": "http://www.yamatoen.or.jp",
    "pref": "奈良県",
    "city": "大和郡山市",
    "category": "day_service",
    "serviceType": "通所介護",
    "capacity": 0,
    "openDays": [
      "平日",
      "土曜日",
      "祝日"
    ],
    "openDaysNote": "平日　9：00～12：10　　13：15～16：25（改行）土曜　9：00～12：10　　13：15～16：25（改行）祝日　9：00～12：10　　13：15～16：25"
  },
  {
    "id": "2970301749",
    "name": "特定非営利活動法人わかくさもえぎ",
    "kana": "トクヒ)ワカクサモエギ",
    "address": "奈良県大和郡山市九条町295番地の1",
    "lat": 34.6592707124561,
    "lng": 135.783713487172,
    "tel": "0743－58－1411",
    "url": "www.wakakusamoegi.com/",
    "pref": "奈良県",
    "city": "大和郡山市",
    "category": "day_service",
    "serviceType": "通所介護",
    "capacity": null,
    "openDays": [
      "平日"
    ],
    "openDaysNote": "年末年始12月29日～1月3日（改行）夏季休日　8月に3日"
  },
  {
    "id": "2970300162",
    "name": "特別養護老人ホーム瑞祥苑",
    "kana": "トクベツヨウゴロウジンホーム　ズイショウエン",
    "address": "大和郡山市矢田町4739番地の4",
    "lat": 34.6490312,
    "lng": 135.750169,
    "tel": "0743-54-6180",
    "url": "https://zuishouen.or.jp/",
    "pref": "奈良県",
    "city": "大和郡山市",
    "category": "day_service",
    "serviceType": "通所介護",
    "capacity": 45,
    "openDays": [
      "平日",
      "土曜日",
      "祝日"
    ],
    "openDaysNote": ""
  },
  {
    "id": "2970300089",
    "name": "特別養護老人ホーム大和園平和",
    "kana": "トクベツヨウゴロウジンホームヤマトエンヘイワ",
    "address": "奈良県大和郡山市美濃庄町236-1",
    "lat": 34.6393253,
    "lng": 135.8063422,
    "tel": "0743-58-2700",
    "url": "http://www.yamatoen.or.jp/",
    "pref": "奈良県",
    "city": "大和郡山市",
    "category": "day_service",
    "serviceType": "通所介護",
    "capacity": 0,
    "openDays": [
      "平日",
      "土曜日",
      "日曜日",
      "祝日"
    ],
    "openDaysNote": "12月30日～1月3日は休み"
  },
  {
    "id": "2970300626",
    "name": "矢田の郷",
    "kana": "ヤタノサト",
    "address": "奈良県大和郡山市新町991",
    "lat": 34.6350154,
    "lng": 135.7386312,
    "tel": "0743-53-5552",
    "url": "http://www.fukushiin.com",
    "pref": "奈良県",
    "city": "大和郡山市",
    "category": "day_service",
    "serviceType": "通所介護",
    "capacity": 0,
    "openDays": [
      "平日",
      "土曜日",
      "祝日"
    ],
    "openDaysNote": "夏季休業（８／１３前後に２日程度)"
  },
  {
    "id": "2970300600",
    "name": "有限会社　奈良ライフサポート　　デイサ-ビスどれみ郡山",
    "kana": "ユウゲンガイシャ　ナラライフサポ-ト　デイサ-ビスドレミコオリヤマ",
    "address": "奈良県大和郡山市発志院町１８５番地1",
    "lat": 34.6279015,
    "lng": 135.8031287,
    "tel": "0743-58-4170",
    "url": "http://lsupport.co.jp/",
    "pref": "奈良県",
    "city": "大和郡山市",
    "category": "day_service",
    "serviceType": "通所介護",
    "capacity": 0,
    "openDays": [
      "平日",
      "土曜日",
      "祝日"
    ],
    "openDaysNote": ""
  },
  {
    "id": "2970200560",
    "name": "デイ・サンライフ高田",
    "kana": "デイ・サンライフタカダ",
    "address": "奈良県大和高田市今里１６番地の２７",
    "lat": 34.5094197,
    "lng": 135.7533851,
    "tel": "0745-25-3344",
    "url": "",
    "pref": "奈良県",
    "city": "大和高田市",
    "category": "day_service",
    "serviceType": "通所介護",
    "capacity": 0,
    "openDays": [
      "平日",
      "土曜日",
      "祝日"
    ],
    "openDaysNote": "年末年始も営業しております"
  },
  {
    "id": "2970201592",
    "name": "デイサービスセンターTeToTe",
    "kana": "デイサービスセンターテトテ",
    "address": "奈良県大和高田市材木町7-1",
    "lat": 34.5170399586397,
    "lng": 135.755226507271,
    "tel": "0745-21-5230",
    "url": "",
    "pref": "奈良県",
    "city": "大和高田市",
    "category": "day_service",
    "serviceType": "通所介護",
    "capacity": null,
    "openDays": [
      "平日",
      "土曜日",
      "日曜日",
      "祝日"
    ],
    "openDaysNote": ""
  },
  {
    "id": "2970201519",
    "name": "デイサービスセンターみらい日記",
    "kana": "デイサービスセンターミライニッキ",
    "address": "奈良県大和高田市大字田井117番地15",
    "lat": 34.5003558650143,
    "lng": 135.755238571689,
    "tel": "0745-21-0373",
    "url": "",
    "pref": "奈良県",
    "city": "大和高田市",
    "category": "day_service",
    "serviceType": "通所介護",
    "capacity": null,
    "openDays": [
      "平日",
      "土曜日",
      "祝日"
    ],
    "openDaysNote": ""
  },
  {
    "id": "2970200420",
    "name": "デイサービスセンター平沼",
    "kana": "デイサービスセンターヒラヌマ",
    "address": "大和高田市西坊城７３－１",
    "lat": 34.491336,
    "lng": 135.7573795,
    "tel": "0745-52-1540",
    "url": "http://web1.kcn.jp/hiranuma/",
    "pref": "奈良県",
    "city": "大和高田市",
    "category": "day_service",
    "serviceType": "通所介護",
    "capacity": 0,
    "openDays": [
      "平日",
      "土曜日",
      "祝日"
    ],
    "openDaysNote": ""
  },
  {
    "id": "2970200453",
    "name": "デイサービスはる",
    "kana": "デイサービスハル",
    "address": "大和高田市礒野北町8-8",
    "lat": 34.5096769274278,
    "lng": 135.734586735582,
    "tel": "0745-25-2086",
    "url": "http//www.naracare-haru.com",
    "pref": "奈良県",
    "city": "大和高田市",
    "category": "day_service",
    "serviceType": "通所介護",
    "capacity": 30,
    "openDays": [
      "平日",
      "土曜日",
      "日曜日",
      "祝日"
    ],
    "openDaysNote": "利用時間はご利用者の状況により、対応します。"
  },
  {
    "id": "2970201261",
    "name": "リハビリデイサービス　いきいき",
    "kana": "リハビリデイサービスイキイキ",
    "address": "大和高田市市場720-5",
    "lat": 34.5107385,
    "lng": 135.7338895,
    "tel": "0745-27-3969",
    "url": "http://iki-iki-r.com/",
    "pref": "奈良県",
    "city": "大和高田市",
    "category": "day_service",
    "serviceType": "通所介護",
    "capacity": 23,
    "openDays": [
      "平日",
      "土曜日"
    ],
    "openDaysNote": ""
  },
  {
    "id": "2970201758",
    "name": "リハビリデイサービスかぐらびと",
    "kana": "リハビリデイサービスカグラビト",
    "address": "奈良県大和高田市神楽２５４－３",
    "lat": 34.5249486,
    "lng": 135.7436063,
    "tel": "0745-43-7448",
    "url": "https://kagurabito.com/",
    "pref": "奈良県",
    "city": "大和高田市",
    "category": "day_service",
    "serviceType": "通所介護",
    "capacity": 19,
    "openDays": [
      "平日",
      "土曜日"
    ],
    "openDaysNote": ""
  },
  {
    "id": "2970201485",
    "name": "リハビリデイサービスはあとぷらす",
    "kana": "リハビリデイサービスハアトプラス",
    "address": "奈良県大和高田市材木町2番5号",
    "lat": 34.5162485717054,
    "lng": 135.752789665223,
    "tel": "0745－60－6891",
    "url": "http://www.rehabili-heart.com/",
    "pref": "奈良県",
    "city": "大和高田市",
    "category": "day_service",
    "serviceType": "通所介護",
    "capacity": 35,
    "openDays": [
      "平日",
      "祝日"
    ],
    "openDaysNote": ""
  },
  {
    "id": "2970200990",
    "name": "リハビリデイサービス楽の樹",
    "kana": "リハビリデイサービスラクノキ",
    "address": "大和高田市田井新町１１－８",
    "lat": 34.5033927,
    "lng": 135.7490771,
    "tel": "0745-43-5689",
    "url": "rakunoki.rct45@bronze.ocn.ne.jp",
    "pref": "奈良県",
    "city": "大和高田市",
    "category": "day_service",
    "serviceType": "通所介護",
    "capacity": 0,
    "openDays": [
      "平日",
      "祝日"
    ],
    "openDaysNote": "定休日は突然変更する場合がありますので、電話にて確認お願いします。"
  },
  {
    "id": "2970200842",
    "name": "リハビリトゥモロー",
    "kana": "リハビリトゥモロー",
    "address": "奈良県大和高田市春日町2丁目1-8　スタンドアップ大和高田1階スタンドアップ大和高田1階 スタンドアップ大和高田1階",
    "lat": 34.5033423748721,
    "lng": 135.738910549578,
    "tel": "0745-23-3113",
    "url": "http://www.tomorrow-hs.co.jp",
    "pref": "奈良県",
    "city": "大和高田市",
    "category": "day_service",
    "serviceType": "通所介護",
    "capacity": 0,
    "openDays": [
      "平日",
      "祝日"
    ],
    "openDaysNote": ""
  },
  {
    "id": "2970200115",
    "name": "特別養護老人ホーム慈光園",
    "kana": "トクベツヨウゴロウジンホームジコウエン",
    "address": "奈良県大和高田市大字池田444番地",
    "lat": 34.5203789,
    "lng": 135.7316811,
    "tel": "0745-52-3006",
    "url": "http://www.jikohen.com/",
    "pref": "奈良県",
    "city": "大和高田市",
    "category": "day_service",
    "serviceType": "通所介護",
    "capacity": 0,
    "openDays": [
      "平日",
      "土曜日",
      "祝日"
    ],
    "openDaysNote": ""
  },
  {
    "id": "2970200651",
    "name": "有限会社デイサービスらぶ",
    "kana": "デイサービスラブ",
    "address": "奈良県大和高田市礒野490番地4",
    "lat": 34.5046223289519,
    "lng": 135.735686435153,
    "tel": "0745-22-2010",
    "url": "",
    "pref": "奈良県",
    "city": "大和高田市",
    "category": "day_service",
    "serviceType": "通所介護",
    "capacity": 30,
    "openDays": [
      "平日",
      "土曜日",
      "祝日"
    ],
    "openDaysNote": ""
  },
  {
    "id": "2970200750",
    "name": "和里（にこり）",
    "kana": "ニコリ",
    "address": "大和高田市野口325番3",
    "lat": 34.5250476,
    "lng": 135.7210262,
    "tel": "0745-52-0125",
    "url": "http://www.nicori.or.jp",
    "pref": "奈良県",
    "city": "大和高田市",
    "category": "day_service",
    "serviceType": "通所介護",
    "capacity": 38,
    "openDays": [
      "平日",
      "土曜日",
      "祝日"
    ],
    "openDaysNote": "自然災害(地震・台風・豪雪・コロナ流行など)による休業"
  },
  {
    "id": "2970400806",
    "name": "あすならホーム二階堂",
    "kana": "アスナラホーム　ニカイドウ",
    "address": "天理市荒蒔町61-2",
    "lat": 34.5993378,
    "lng": 135.8038292,
    "tel": "0743-64-5963",
    "url": "http://www.asunaraen.com",
    "pref": "奈良県",
    "city": "天理市",
    "category": "day_service",
    "serviceType": "通所介護",
    "capacity": 0,
    "openDays": [
      "平日",
      "土曜日",
      "日曜日",
      "祝日"
    ],
    "openDaysNote": "年中無休"
  },
  {
    "id": "2970401077",
    "name": "あすならホーム檪本　デイサービス",
    "kana": "アスナラホームイチノモト　デイサービス",
    "address": "天理市櫟本町3012-1",
    "lat": 34.6190169,
    "lng": 135.8325287,
    "tel": "0743-65-3665",
    "url": "http://www.asunaraenn.com",
    "pref": "奈良県",
    "city": "天理市",
    "category": "day_service",
    "serviceType": "通所介護",
    "capacity": 0,
    "openDays": [
      "平日",
      "土曜日",
      "祝日"
    ],
    "openDaysNote": "年中無休"
  },
  {
    "id": "2970401416",
    "name": "シンシア奈良デイサービス",
    "kana": "シンシアナラデイサービス",
    "address": "奈良県天理市田部町160-1",
    "lat": 34.6069973,
    "lng": 135.8309397,
    "tel": "0743-63-0968",
    "url": "https://www.sincere-gri.com/037_narads/index.html",
    "pref": "奈良県",
    "city": "天理市",
    "category": "day_service",
    "serviceType": "通所介護",
    "capacity": 0,
    "openDays": [
      "平日",
      "土曜日",
      "祝日"
    ],
    "openDaysNote": ""
  },
  {
    "id": "2970401408",
    "name": "すまいるリハビリデイサービス",
    "kana": "スマイルリハビリデイサービス",
    "address": "奈良県天理市岸田町202",
    "lat": 34.564268,
    "lng": 135.831533,
    "tel": "0743-85-6568",
    "url": "",
    "pref": "奈良県",
    "city": "天理市",
    "category": "day_service",
    "serviceType": "通所介護",
    "capacity": null,
    "openDays": [
      "平日",
      "土曜日",
      "祝日"
    ],
    "openDaysNote": ""
  },
  {
    "id": "2970401515",
    "name": "ツクイ天理別所",
    "kana": "ツクイ　テンリベッショ",
    "address": "天理市別所町16",
    "lat": 34.6055126,
    "lng": 135.8352783,
    "tel": "0743-69-6555",
    "url": "",
    "pref": "奈良県",
    "city": "天理市",
    "category": "day_service",
    "serviceType": "通所介護",
    "capacity": 0,
    "openDays": [
      "平日",
      "土曜日",
      "日曜日",
      "祝日"
    ],
    "openDaysNote": ""
  },
  {
    "id": "2970400277",
    "name": "デイサービス　みやぎ",
    "kana": "デイサービス　ミヤギ",
    "address": "天理市守目堂町170",
    "lat": 34.5952667,
    "lng": 135.838584,
    "tel": "0743-69-5200",
    "url": "http://care-miyagi.net/miyagi/index.html",
    "pref": "奈良県",
    "city": "天理市",
    "category": "day_service",
    "serviceType": "通所介護",
    "capacity": 36,
    "openDays": [
      "平日",
      "土曜日",
      "祝日"
    ],
    "openDaysNote": ""
  },
  {
    "id": "2970400673",
    "name": "デイサービス　夢広場",
    "kana": "デイサービス　ユメヒロバ",
    "address": "天理市嘉幡町１０５ー５",
    "lat": 34.58835,
    "lng": 135.8005744,
    "tel": "0743-64-6377",
    "url": "http://www.yume-gp.com/",
    "pref": "奈良県",
    "city": "天理市",
    "category": "day_service",
    "serviceType": "通所介護",
    "capacity": 22,
    "openDays": [
      "平日",
      "土曜日",
      "日曜日",
      "祝日"
    ],
    "openDaysNote": ""
  },
  {
    "id": "2970401366",
    "name": "デイサービスセンターりらいふ",
    "kana": "デイサービスセンターリライフ",
    "address": "奈良県天理市海知町457番地",
    "lat": 34.5674368366377,
    "lng": 135.820223837687,
    "tel": "0743-66-2211",
    "url": "",
    "pref": "奈良県",
    "city": "天理市",
    "category": "day_service",
    "serviceType": "通所介護",
    "capacity": 0,
    "openDays": [
      "平日",
      "土曜日",
      "祝日"
    ],
    "openDaysNote": ""
  },
  {
    "id": "2970401382",
    "name": "デイサービスセンター桜紅葉",
    "kana": "デイサービスセンターサクラモミジ",
    "address": "奈良県天理市櫟本町2947-1",
    "lat": 34.6190490424671,
    "lng": 135.836808556232,
    "tel": "0743-61-5667",
    "url": "",
    "pref": "奈良県",
    "city": "天理市",
    "category": "day_service",
    "serviceType": "通所介護",
    "capacity": null,
    "openDays": [
      "平日",
      "土曜日",
      "日曜日",
      "祝日"
    ],
    "openDaysNote": ""
  },
  {
    "id": "2970400012",
    "name": "デイサービスセンター清寿苑",
    "kana": "デイサービスセンターセイジュエン",
    "address": "奈良県天理市中之庄町５３２－１社会福祉法人大和清寿会　特別養護老人ホーム清寿苑 社会福祉法人大和清寿会　特別養護老人ホーム清寿苑",
    "lat": 34.6365684,
    "lng": 135.8426861,
    "tel": "0743-65-3551",
    "url": "http://www.fureai-net.com",
    "pref": "奈良県",
    "city": "天理市",
    "category": "day_service",
    "serviceType": "通所介護",
    "capacity": 60,
    "openDays": [
      "平日",
      "土曜日",
      "日曜日",
      "祝日"
    ],
    "openDaysNote": "介護予防（改行）※営業時間（改行）月曜日～土曜日:10:00～15:30（改行）※定休日（改行）日曜日・年末年始12月30日～1月3日（改行）８月第４土曜日（ふれあいの里祭り）"
  },
  {
    "id": "2970401424",
    "name": "デイサービスつむぎ",
    "kana": "デイサービスツムギ",
    "address": "天理市東井戸堂町372-1",
    "lat": 34.5913376194626,
    "lng": 135.823194368123,
    "tel": "0743-68-1517",
    "url": "http://www.ainetgroup.net",
    "pref": "奈良県",
    "city": "天理市",
    "category": "day_service",
    "serviceType": "通所介護",
    "capacity": 0,
    "openDays": [
      "平日",
      "土曜日",
      "祝日"
    ],
    "openDaysNote": ""
  },
  {
    "id": "2970401481",
    "name": "デイサービスりあん指柳",
    "kana": "デイサービスリアンサシヤナギ",
    "address": "奈良県天理市指柳町301‐3",
    "lat": 34.6042563,
    "lng": 135.8246736,
    "tel": "0743-62-2020",
    "url": "",
    "pref": "奈良県",
    "city": "天理市",
    "category": "day_service",
    "serviceType": "通所介護",
    "capacity": 100,
    "openDays": [
      "平日",
      "祝日"
    ],
    "openDaysNote": ""
  },
  {
    "id": "2970401721",
    "name": "リハビリデイサービスセンター帆帆",
    "kana": "リハビリデイサービスセンターホホ",
    "address": "奈良県天理市富堂町300-57天理メディカルイースト 天理メディカルイースト",
    "lat": 34.5977496,
    "lng": 135.8180044,
    "tel": "0743-63-7690",
    "url": "https://www.tenri-medicaleast.jp/",
    "pref": "奈良県",
    "city": "天理市",
    "category": "day_service",
    "serviceType": "通所介護",
    "capacity": null,
    "openDays": [
      "平日",
      "土曜日",
      "祝日"
    ],
    "openDaysNote": ""
  },
  {
    "id": "2970400939",
    "name": "柳本デイサービスセンター",
    "kana": "ヤナギモトデイサービスセンター",
    "address": "奈良県天理市柳本町　１１９４－１",
    "lat": 34.5594376,
    "lng": 135.8456177,
    "tel": "0743-67-0055",
    "url": "https://kisoudai1.hp.peraichi.com/asahi/",
    "pref": "奈良県",
    "city": "天理市",
    "category": "day_service",
    "serviceType": "通所介護",
    "capacity": 0,
    "openDays": [
      "平日",
      "土曜日",
      "祝日"
    ],
    "openDaysNote": ""
  },
  {
    "id": "2970401358",
    "name": "有限会社夢グループ夢広場Ⅱ",
    "kana": "ユウゲンガイシャユメグループユメヒロバⅡ",
    "address": "奈良県天理市西長柄町164番地",
    "lat": 34.5711295,
    "lng": 135.8220413,
    "tel": "0743-67-1975",
    "url": "yumehiroba@2015gmail.com",
    "pref": "奈良県",
    "city": "天理市",
    "category": "day_service",
    "serviceType": "通所介護",
    "capacity": 0,
    "openDays": [
      "平日"
    ],
    "openDaysNote": ""
  },
  {
    "id": "2972000760",
    "name": "デイ・ナイトサービスセンター咲楽",
    "kana": "デイナイトサービスセンターサクラ",
    "address": "奈良県磯城郡田原本町三笠３１－７",
    "lat": 34.5505579924227,
    "lng": 135.790072657672,
    "tel": "0744-47-4014",
    "url": "",
    "pref": "奈良県",
    "city": "田原本町",
    "category": "day_service",
    "serviceType": "通所介護",
    "capacity": 0,
    "openDays": [
      "平日",
      "土曜日",
      "日曜日",
      "祝日"
    ],
    "openDaysNote": ""
  },
  {
    "id": "2972000968",
    "name": "デイサービスアマル",
    "kana": "デイサービスアマル",
    "address": "奈良県磯城郡田原本町薬王寺344-1",
    "lat": 34.5504123,
    "lng": 135.7777369,
    "tel": "0744-34-0100",
    "url": "",
    "pref": "奈良県",
    "city": "田原本町",
    "category": "day_service",
    "serviceType": "通所介護",
    "capacity": 35,
    "openDays": [
      "平日",
      "祝日"
    ],
    "openDaysNote": ""
  },
  {
    "id": "2972000935",
    "name": "デイサービスセンターエルシア田原本",
    "kana": "デイサービスセンターエルシアタワラモト",
    "address": "奈良県磯城郡田原本町千代587-1",
    "lat": 34.5458056,
    "lng": 135.7970976,
    "tel": "0744-33-1758",
    "url": "",
    "pref": "奈良県",
    "city": "田原本町",
    "category": "day_service",
    "serviceType": "通所介護",
    "capacity": null,
    "openDays": [
      "平日",
      "土曜日",
      "日曜日",
      "祝日"
    ],
    "openDaysNote": ""
  },
  {
    "id": "2972000950",
    "name": "デイサービスセンターカナ・エル田原本",
    "kana": "デイサービスセンターカナエルタワラモト",
    "address": "奈良県磯城郡田原本町八尾624-1",
    "lat": 34.5625875,
    "lng": 135.7931701,
    "tel": "0744-32-6680",
    "url": "",
    "pref": "奈良県",
    "city": "田原本町",
    "category": "day_service",
    "serviceType": "通所介護",
    "capacity": null,
    "openDays": [
      "平日",
      "土曜日",
      "日曜日",
      "祝日"
    ],
    "openDaysNote": ""
  },
  {
    "id": "2972000265",
    "name": "デイサービスセンターグロリア",
    "kana": "デイサービスセンターグロリア",
    "address": "磯城郡田原本町千代632-1",
    "lat": 34.5462854,
    "lng": 135.8035357,
    "tel": "0744-32-0904",
    "url": "",
    "pref": "奈良県",
    "city": "田原本町",
    "category": "day_service",
    "serviceType": "通所介護",
    "capacity": 0,
    "openDays": [
      "平日",
      "土曜日",
      "祝日"
    ],
    "openDaysNote": ""
  },
  {
    "id": "2972000687",
    "name": "デイサービス春うらら",
    "kana": "デイサービスハルウララ",
    "address": "奈良県田原本町薬王寺137－6",
    "lat": 34.5440197,
    "lng": 135.8512648,
    "tel": "0744-32-0544",
    "url": "",
    "pref": "奈良県",
    "city": "田原本町",
    "category": "day_service",
    "serviceType": "通所介護",
    "capacity": 0,
    "openDays": [
      "平日",
      "土曜日",
      "祝日"
    ],
    "openDaysNote": ""
  },
  {
    "id": "2972000448",
    "name": "ポシブル田原本",
    "kana": "ポシブルタワラモト",
    "address": "奈良県磯城郡田原本町阪手９８－１",
    "lat": 34.5586949,
    "lng": 135.801011,
    "tel": "0744-34-6789",
    "url": "http://www.possible-plus.co.jp",
    "pref": "奈良県",
    "city": "田原本町",
    "category": "day_service",
    "serviceType": "通所介護",
    "capacity": 270,
    "openDays": [
      "平日",
      "土曜日",
      "祝日"
    ],
    "openDaysNote": ""
  },
  {
    "id": "2972000653",
    "name": "リハビリデイサービス千代",
    "kana": "リハビリデイサービスチシロ",
    "address": "磯城郡田原本町坂手６５５－２",
    "lat": 34.5518709931913,
    "lng": 135.797186421841,
    "tel": "０７４４－３２－０１０４",
    "url": "",
    "pref": "奈良県",
    "city": "田原本町",
    "category": "day_service",
    "serviceType": "通所介護",
    "capacity": 20,
    "openDays": [
      "平日",
      "祝日"
    ],
    "openDaysNote": ""
  },
  {
    "id": "2972000729",
    "name": "リハビリへいせい田原本",
    "kana": "ツウショカイゴジギョウショ　リハビリヘイセイタワラモト",
    "address": "大字八尾582番1",
    "lat": 34.5616971,
    "lng": 135.7930814,
    "tel": "0744-33-0222",
    "url": "http://www.heisei-h.or.jp/a-el2/index.html",
    "pref": "奈良県",
    "city": "田原本町",
    "category": "day_service",
    "serviceType": "通所介護",
    "capacity": 0,
    "openDays": [
      "平日",
      "土曜日",
      "祝日"
    ],
    "openDaysNote": "年末年始12/30～1/3"
  },
  {
    "id": "2972000067",
    "name": "特別養護老人ホーム　田原本園",
    "kana": "トクベツヨウゴロウジンホーム　タワラモトエン",
    "address": "奈良県磯城郡田原本町大字味間５２３－１",
    "lat": 34.5354676,
    "lng": 135.8166924,
    "tel": "0744-33-6066",
    "url": "https://tawaramotoen.jp/",
    "pref": "奈良県",
    "city": "田原本町",
    "category": "day_service",
    "serviceType": "通所介護",
    "capacity": 40,
    "openDays": [
      "平日",
      "土曜日",
      "日曜日",
      "祝日"
    ],
    "openDaysNote": ""
  },
  {
    "id": "2970108169",
    "name": "IKIIKI",
    "kana": "イキイキ",
    "address": "奈良県奈良市秋篠三和町1丁目1-7秋篠タウンハイツ1F 秋篠タウンハイツ1F",
    "lat": 34.7010878,
    "lng": 135.7783502,
    "tel": "742440081",
    "url": "http://www.ikiiki-dayservice.com/",
    "pref": "奈良県",
    "city": "奈良市",
    "category": "day_service",
    "serviceType": "通所介護",
    "capacity": 0,
    "openDays": [
      "平日",
      "土曜日",
      "祝日"
    ],
    "openDaysNote": ""
  },
  {
    "id": "2970106726",
    "name": "KiyoリハビリPROS",
    "kana": "キヨリハビリプロズ",
    "address": "奈良県奈良市石木町845-1",
    "lat": 34.6677082884601,
    "lng": 135.756466507101,
    "tel": "0742-45-2620",
    "url": "http://kiyo-pros.com",
    "pref": "奈良県",
    "city": "奈良市",
    "category": "day_service",
    "serviceType": "通所介護",
    "capacity": 60,
    "openDays": [
      "平日",
      "祝日"
    ],
    "openDaysNote": ""
  },
  {
    "id": "2970190498",
    "name": "KiyoリハビリPROS　2号館",
    "kana": "キヨリハビリプロズ　ニゴウカン",
    "address": "奈良県奈良市石木町847",
    "lat": 34.6677105137294,
    "lng": 135.75603559256,
    "tel": "0742-95-6333",
    "url": "http://kiyo-pros.com/",
    "pref": "奈良県",
    "city": "奈良市",
    "category": "day_service",
    "serviceType": "通所介護",
    "capacity": 300,
    "openDays": [
      "平日",
      "祝日"
    ],
    "openDaysNote": ""
  },
  {
    "id": "2970107526",
    "name": "ＬａＬａあやめ池デイサービス",
    "kana": "ララアヤメイケデイサービス",
    "address": "奈良県奈良市あやめ池南４丁目１－１２",
    "lat": 34.6964222,
    "lng": 135.7652532,
    "tel": "0742-81-9033",
    "url": "web1.kcn.jp/videoheart/LaLa",
    "pref": "奈良県",
    "city": "奈良市",
    "category": "day_service",
    "serviceType": "通所介護",
    "capacity": 19,
    "openDays": [
      "平日",
      "土曜日",
      "祝日"
    ],
    "openDaysNote": "年末年始休業あり。"
  },
  {
    "id": "2970190613",
    "name": "REPA　HORAI",
    "kana": "レパ　ホウライ",
    "address": "奈良県奈良市宝来町928-1奈良宝来ビル1階北 奈良宝来ビル1階北",
    "lat": 34.6846925,
    "lng": 135.7739753,
    "tel": "0742-81-4150",
    "url": "https://tk-repa.com/",
    "pref": "奈良県",
    "city": "奈良市",
    "category": "day_service",
    "serviceType": "通所介護",
    "capacity": 19,
    "openDays": [
      "平日",
      "土曜日",
      "祝日"
    ],
    "openDaysNote": ""
  },
  {
    "id": "2970104713",
    "name": "あすならホーム富雄",
    "kana": "アスナラホーム　トミオ",
    "address": "奈良市鳥見町3丁目11-1",
    "lat": 34.6939735,
    "lng": 135.724943,
    "tel": "0742-53-1165",
    "url": "http://www.asunaraen.com",
    "pref": "奈良県",
    "city": "奈良市",
    "category": "day_service",
    "serviceType": "通所介護",
    "capacity": 0,
    "openDays": [
      "平日",
      "土曜日",
      "日曜日",
      "祝日"
    ],
    "openDaysNote": "年中無休"
  },
  {
    "id": "2970106650",
    "name": "アロハデイサービス",
    "kana": "アロハデイサービス",
    "address": "奈良県奈良市高畑町783番地の4",
    "lat": 34.677189719527,
    "lng": 135.839551519049,
    "tel": "0742-27-6739",
    "url": "https://comfortable-space.co.jp",
    "pref": "奈良県",
    "city": "奈良市",
    "category": "day_service",
    "serviceType": "通所介護",
    "capacity": 20,
    "openDays": [
      "平日",
      "土曜日",
      "日曜日",
      "祝日"
    ],
    "openDaysNote": ""
  },
  {
    "id": "2970108847",
    "name": "アロハデイサービスHauoli",
    "kana": "アロハデイサービスハウオリ",
    "address": "奈良県奈良市紀寺町414‐2‐1F",
    "lat": 34.6707511,
    "lng": 135.8344068,
    "tel": "0742－81－3723",
    "url": "https://comfortable-space.co.jp/",
    "pref": "奈良県",
    "city": "奈良市",
    "category": "day_service",
    "serviceType": "通所介護",
    "capacity": null,
    "openDays": [
      "平日",
      "祝日"
    ],
    "openDaysNote": ""
  },
  {
    "id": "2970108623",
    "name": "エミライズケアセンター",
    "kana": "エミライズケアセンター",
    "address": "奈良県奈良市西木辻町206やぎもとビル1F やぎもとビル1F",
    "lat": 34.6747799734999,
    "lng": 135.82562536627,
    "tel": "0742-21-6015",
    "url": "",
    "pref": "奈良県",
    "city": "奈良市",
    "category": "day_service",
    "serviceType": "通所介護",
    "capacity": 40,
    "openDays": [
      "平日",
      "土曜日",
      "祝日"
    ],
    "openDaysNote": "気象状況により営業が困難と判断される場合は、時間を変更または休業します。"
  },
  {
    "id": "2970190472",
    "name": "エリシオン学園前",
    "kana": "エリシオンガクエンマエ",
    "address": "奈良県奈良市中登美ケ丘一丁目１９９４番６",
    "lat": 34.7170875,
    "lng": 135.7515776,
    "tel": "0742-95-6512",
    "url": "http://elysion-gr.com/",
    "pref": "奈良県",
    "city": "奈良市",
    "category": "day_service",
    "serviceType": "通所介護",
    "capacity": null,
    "openDays": [
      "平日",
      "祝日"
    ],
    "openDaysNote": ""
  },
  {
    "id": "2970190951",
    "name": "エリシオン学園前",
    "kana": "エリシオンガクエンマエ",
    "address": "奈良県奈良市中登美ケ丘１丁目１９９４－６",
    "lat": 34.7171175458336,
    "lng": 135.751527416425,
    "tel": "0742-95-6512",
    "url": "https://elsion.jp/",
    "pref": "奈良県",
    "city": "奈良市",
    "category": "day_service",
    "serviceType": "通所介護",
    "capacity": 0,
    "openDays": [
      "平日"
    ],
    "openDaysNote": ""
  },
  {
    "id": "2970103731",
    "name": "かがやきのそのデイサービスセンター",
    "kana": "カガヤキノソノデイサービスセンター",
    "address": "奈良市奈良阪２７８９－１",
    "lat": 34.7033185,
    "lng": 135.8371162,
    "tel": "0742-25-2020",
    "url": "",
    "pref": "奈良県",
    "city": "奈良市",
    "category": "day_service",
    "serviceType": "通所介護",
    "capacity": 30,
    "openDays": [
      "平日",
      "土曜日",
      "祝日"
    ],
    "openDaysNote": "12月29日から1月3日まで休業"
  },
  {
    "id": "2970102071",
    "name": "けいはんなデイサービスセンター",
    "kana": "ケイハンナデイサービスセンター",
    "address": "奈良県奈良市二名3丁目952-1",
    "lat": 34.7051558,
    "lng": 135.7322839,
    "tel": "0742-52-7555",
    "url": "http://www.khs.91918.com",
    "pref": "奈良県",
    "city": "奈良市",
    "category": "day_service",
    "serviceType": "通所介護",
    "capacity": 0,
    "openDays": [
      "平日",
      "土曜日",
      "祝日"
    ],
    "openDaysNote": "年始１日間は休業"
  },
  {
    "id": "2970107757",
    "name": "けいはんなデイサービスセンター中山町",
    "kana": "ケイハンナデイサービスセンターナカヤマチョウ",
    "address": "奈良県奈良市中山町2番１けいはんなデイサービスセンター中山町 けいはんなデイサービスセンター中山町",
    "lat": 34.7097907,
    "lng": 135.7718868,
    "tel": "0742-93-5903",
    "url": "http://khs91918.com/",
    "pref": "奈良県",
    "city": "奈良市",
    "category": "day_service",
    "serviceType": "通所介護",
    "capacity": 20,
    "openDays": [
      "平日",
      "土曜日",
      "祝日"
    ],
    "openDaysNote": ""
  },
  {
    "id": "2970100414",
    "name": "サンタ・マリア",
    "kana": "サンタ・マリア",
    "address": "奈良県奈良市朱雀４丁目３番地１０",
    "lat": 34.7210772,
    "lng": 135.7989413,
    "tel": "0742-71-7733",
    "url": "http://www.yozefu-home.or.jp/",
    "pref": "奈良県",
    "city": "奈良市",
    "category": "day_service",
    "serviceType": "通所介護",
    "capacity": 0,
    "openDays": [
      "平日",
      "土曜日",
      "祝日"
    ],
    "openDaysNote": "１月１日～３日は、年末年始休業"
  },
  {
    "id": "2970106494",
    "name": "シニア青春倶楽部",
    "kana": "シニアセイシュンクラブ",
    "address": "南京終町19-1",
    "lat": 34.670986,
    "lng": 135.8271847,
    "tel": "0742-23-4165",
    "url": "http://www.s-rakuji.com",
    "pref": "奈良県",
    "city": "奈良市",
    "category": "day_service",
    "serviceType": "通所介護",
    "capacity": 0,
    "openDays": [
      "平日",
      "土曜日",
      "祝日"
    ],
    "openDaysNote": "12月31日が日曜でない限り大晦日まで営業。正月は1、2日か、1、2、3、日が休みかは年により変化あり。"
  },
  {
    "id": "2970108433",
    "name": "ツクイ奈良",
    "kana": "ツクイナラ",
    "address": "奈良市川之上突抜町10-1",
    "lat": 34.6739191,
    "lng": 135.831962,
    "tel": "0742-20-1277",
    "url": "http://www.tsukui.net",
    "pref": "奈良県",
    "city": "奈良市",
    "category": "day_service",
    "serviceType": "通所介護",
    "capacity": 30,
    "openDays": [
      "平日",
      "土曜日",
      "日曜日",
      "祝日"
    ],
    "openDaysNote": "年中無休です。"
  },
  {
    "id": "2970108441",
    "name": "ツクイ奈良みあと",
    "kana": "ツクイナラミアト",
    "address": "奈良県奈良市四条大路5丁目4-37",
    "lat": 34.6793836,
    "lng": 135.7890446,
    "tel": "0742-32-3130",
    "url": "http://www.tskui.net",
    "pref": "奈良県",
    "city": "奈良市",
    "category": "day_service",
    "serviceType": "通所介護",
    "capacity": 0,
    "openDays": [
      "平日",
      "土曜日",
      "日曜日",
      "祝日"
    ],
    "openDaysNote": ""
  },
  {
    "id": "2970103335",
    "name": "デイ・サンライフ明日香",
    "kana": "デイ・サンライフアスカ",
    "address": "奈良市紀寺町５５６－１",
    "lat": 34.6715334,
    "lng": 135.8345118,
    "tel": "742201177",
    "url": "sunlife.asuka@seiwakai-group.or.jp",
    "pref": "奈良県",
    "city": "奈良市",
    "category": "day_service",
    "serviceType": "通所介護",
    "capacity": 30,
    "openDays": [
      "平日",
      "土曜日",
      "祝日"
    ],
    "openDaysNote": ""
  },
  {
    "id": "2970106759",
    "name": "デイサービス　あおい",
    "kana": "デイサービス　アオイ",
    "address": "中山町1250-7",
    "lat": 34.7106334,
    "lng": 135.7664223,
    "tel": "0742-45-7600",
    "url": "http://www.anshingakuename.jp",
    "pref": "奈良県",
    "city": "奈良市",
    "category": "day_service",
    "serviceType": "通所介護",
    "capacity": 0,
    "openDays": [
      "平日",
      "土曜日",
      "祝日"
    ],
    "openDaysNote": ""
  },
  {
    "id": "2970107880",
    "name": "デイサービス　さきょう",
    "kana": "デイサービス　サキョウ",
    "address": "奈良県奈良市左京4丁目3-6",
    "lat": 34.7171331,
    "lng": 135.8047128,
    "tel": "0742-70-2121",
    "url": "Iidasc.jp",
    "pref": "奈良県",
    "city": "奈良市",
    "category": "day_service",
    "serviceType": "通所介護",
    "capacity": 0,
    "openDays": [
      "平日",
      "祝日"
    ],
    "openDaysNote": "12月30日～1月3日　8月15日"
  },
  {
    "id": "2970107120",
    "name": "デイサービス　どんぐり",
    "kana": "デイサービス　ドングリ",
    "address": "奈良市神殿町２９２－２",
    "lat": 34.6631035,
    "lng": 135.8201798,
    "tel": "0742-95-7737",
    "url": "http://donguri.mond.jp",
    "pref": "奈良県",
    "city": "奈良市",
    "category": "day_service",
    "serviceType": "通所介護",
    "capacity": 0,
    "openDays": [
      "平日",
      "土曜日",
      "祝日"
    ],
    "openDaysNote": "研修やメンテンナンスで臨時休業日が発生する場合もある"
  },
  {
    "id": "2970108771",
    "name": "デイサービス・幸の鳥",
    "kana": "デイサービス・コウノトリ",
    "address": "奈良県奈良市東九条町641番地",
    "lat": 34.6583917439437,
    "lng": 135.815660076195,
    "tel": "0742-61-0050",
    "url": "http://amenitylife-assist.org",
    "pref": "奈良県",
    "city": "奈良市",
    "category": "day_service",
    "serviceType": "通所介護",
    "capacity": 30,
    "openDays": [
      "平日",
      "土曜日",
      "日曜日",
      "祝日"
    ],
    "openDaysNote": "※新年1～3日はお休みをいただいております。"
  },
  {
    "id": "2970105264",
    "name": "デイサービス・青い鳥",
    "kana": "デイサービス・アオイトリ",
    "address": "奈良県奈良市東九条町640-1",
    "lat": 34.6581262,
    "lng": 135.8153775,
    "tel": "0742-63-1837",
    "url": "http://amenitylife-assist.org",
    "pref": "奈良県",
    "city": "奈良市",
    "category": "day_service",
    "serviceType": "通所介護",
    "capacity": 0,
    "openDays": [
      "平日",
      "土曜日",
      "祝日"
    ],
    "openDaysNote": "新年1～3日はお休みをいただいております。"
  },
  {
    "id": "2970190373",
    "name": "デイサービスアルモニー",
    "kana": "デイサービスアルモニー",
    "address": "朱雀１丁目2-26",
    "lat": 34.711387,
    "lng": 135.7976153,
    "tel": "0742-70-1488",
    "url": "",
    "pref": "奈良県",
    "city": "奈良市",
    "category": "day_service",
    "serviceType": "通所介護",
    "capacity": 0,
    "openDays": [
      "平日",
      "祝日"
    ],
    "openDaysNote": ""
  },
  {
    "id": "2970107567",
    "name": "デイサービスクオーレ",
    "kana": "デイサービスクオーレ",
    "address": "古市町1773番地の1",
    "lat": 34.6612431,
    "lng": 135.8404419,
    "tel": "0742-63-8007",
    "url": "",
    "pref": "奈良県",
    "city": "奈良市",
    "category": "day_service",
    "serviceType": "通所介護",
    "capacity": 25,
    "openDays": [
      "平日",
      "祝日"
    ],
    "openDaysNote": ""
  },
  {
    "id": "2970108136",
    "name": "デイサービスココピタ押熊",
    "kana": "デイサービスココピタオシクマ",
    "address": "奈良県奈良市押熊町779番地17",
    "lat": 34.7162710950302,
    "lng": 135.779645607494,
    "tel": "0742-53-6501",
    "url": "",
    "pref": "奈良県",
    "city": "奈良市",
    "category": "day_service",
    "serviceType": "通所介護",
    "capacity": 0,
    "openDays": [
      "平日",
      "土曜日",
      "祝日"
    ],
    "openDaysNote": "時間延長についてはご相談ください。"
  },
  {
    "id": "2970103863",
    "name": "デイサービスセンター　らくじ苑　”集い”",
    "kana": "デイサービスセンター　ラクジエン　ツドイ",
    "address": "奈良県奈良市八条５丁目４３７番地１１号",
    "lat": 34.6672196,
    "lng": 135.8000344,
    "tel": "0742-30-1800",
    "url": "http://www.s-rakuji.com/",
    "pref": "奈良県",
    "city": "奈良市",
    "category": "day_service",
    "serviceType": "通所介護",
    "capacity": 22,
    "openDays": [
      "平日",
      "土曜日",
      "日曜日",
      "祝日"
    ],
    "openDaysNote": ""
  },
  {
    "id": "2970105181",
    "name": "デイサービスセンター　太陽",
    "kana": "デイサービスセンター　タイヨウ",
    "address": "奈良県奈良市高天市町22番地の1",
    "lat": 34.6858675,
    "lng": 135.825615,
    "tel": "0742-81-8501",
    "url": "http://www5.kcn.ne.jp/~ace-101/",
    "pref": "奈良県",
    "city": "奈良市",
    "category": "day_service",
    "serviceType": "通所介護",
    "capacity": 29,
    "openDays": [
      "平日",
      "土曜日",
      "日曜日",
      "祝日"
    ],
    "openDaysNote": ""
  },
  {
    "id": "2970104689",
    "name": "デイサービスセンターグッドライフ",
    "kana": "デイサービスセンターグッドライフ",
    "address": "奈良市朱雀5町目3-10",
    "lat": 34.7198384,
    "lng": 135.7966166,
    "tel": "0742-70-5013",
    "url": "",
    "pref": "奈良県",
    "city": "奈良市",
    "category": "day_service",
    "serviceType": "通所介護",
    "capacity": 20,
    "openDays": [
      "平日",
      "土曜日",
      "祝日"
    ],
    "openDaysNote": ""
  },
  {
    "id": "2970190449",
    "name": "デイサービスセンターぴいの",
    "kana": "デイサ-ビスセンタ-ピイノ",
    "address": "古市町295-1",
    "lat": 36.3716795,
    "lng": 139.0445237,
    "tel": "0742-93-8985",
    "url": "",
    "pref": "奈良県",
    "city": "奈良市",
    "category": "day_service",
    "serviceType": "通所介護",
    "capacity": null,
    "openDays": [
      "平日",
      "土曜日",
      "日曜日",
      "祝日"
    ],
    "openDaysNote": ""
  },
  {
    "id": "2970101784",
    "name": "デイサービスセンターらくじ苑",
    "kana": "デイサービスセンターラクジエン",
    "address": "奈良市南京終町１３－４",
    "lat": 34.6715137,
    "lng": 135.8273014,
    "tel": "0742-25-3550",
    "url": "http://www.rakuji.com/rakujien/",
    "pref": "奈良県",
    "city": "奈良市",
    "category": "day_service",
    "serviceType": "通所介護",
    "capacity": 55,
    "openDays": [
      "平日",
      "土曜日",
      "日曜日",
      "祝日"
    ],
    "openDaysNote": "年中無休"
  },
  {
    "id": "2970107054",
    "name": "デイサービスセンター時の刻",
    "kana": "デイサービスセンタートキノキザミ",
    "address": "古市町１６９７－１",
    "lat": 36.3766332,
    "lng": 139.0493881,
    "tel": "０７４２－６３－３０１５",
    "url": "https://www.spirit-care.co.jp",
    "pref": "奈良県",
    "city": "奈良市",
    "category": "day_service",
    "serviceType": "通所介護",
    "capacity": 0,
    "openDays": [
      "平日",
      "土曜日",
      "日曜日",
      "祝日"
    ],
    "openDaysNote": ""
  },
  {
    "id": "2970103210",
    "name": "デイサービスセンター聚楽苑",
    "kana": "デイサービスセンタージュラクエン",
    "address": "奈良市三松3丁目4番6号",
    "lat": 34.7010762692003,
    "lng": 135.729141486508,
    "tel": "0742-43-1139",
    "url": "http://www.well-heart.ecnet.jp/",
    "pref": "奈良県",
    "city": "奈良市",
    "category": "day_service",
    "serviceType": "通所介護",
    "capacity": 25,
    "openDays": [
      "平日",
      "土曜日",
      "祝日"
    ],
    "openDaysNote": ""
  },
  {
    "id": "2970102840",
    "name": "デイサービスそれいゆ学園前",
    "kana": "デイサービスソレイユガクエンマエ",
    "address": "奈良市学園朝日町7番9-1号",
    "lat": 34.7022033,
    "lng": 135.7544625,
    "tel": "0742-41-6402",
    "url": "https://www.micro-fukushikai.or.jp/",
    "pref": "奈良県",
    "city": "奈良市",
    "category": "day_service",
    "serviceType": "通所介護",
    "capacity": 0,
    "openDays": [
      "平日",
      "土曜日",
      "祝日"
    ],
    "openDaysNote": ""
  },
  {
    "id": "2970104119",
    "name": "デイサービスみやび",
    "kana": "デイサービスミヤビ",
    "address": "西ノ京町250-1",
    "lat": 34.6705414,
    "lng": 135.7872272,
    "tel": "0742-35-2356",
    "url": "http://www.anshingakuenmae.jp",
    "pref": "奈良県",
    "city": "奈良市",
    "category": "day_service",
    "serviceType": "通所介護",
    "capacity": 15,
    "openDays": [
      "平日",
      "土曜日",
      "祝日"
    ],
    "openDaysNote": ""
  },
  {
    "id": "2970107856",
    "name": "デイサービス太陽　あさひ",
    "kana": "デイサービスタイヨウアサヒ",
    "address": "奈良市高天市町22-1エース高天　2Ｆ エース高天　2Ｆ",
    "lat": 34.6857526754063,
    "lng": 135.82561133842,
    "tel": "0742-23-1389",
    "url": "http://www5.kcn.ne.jp/~ace-101/",
    "pref": "奈良県",
    "city": "奈良市",
    "category": "day_service",
    "serviceType": "通所介護",
    "capacity": 19,
    "openDays": [
      "平日"
    ],
    "openDaysNote": ""
  },
  {
    "id": "2970108573",
    "name": "デイサービス奈良の森",
    "kana": "デイサービスナラノモリ",
    "address": "奈良県奈良市南肘塚町220-1",
    "lat": 34.6683922,
    "lng": 135.8326772,
    "tel": "0742-55-0610",
    "url": "",
    "pref": "奈良県",
    "city": "奈良市",
    "category": "day_service",
    "serviceType": "通所介護",
    "capacity": null,
    "openDays": [
      "平日",
      "祝日"
    ],
    "openDaysNote": ""
  },
  {
    "id": "2970100810",
    "name": "デイサービス八重桜",
    "kana": "デイサービスヤエザクラ",
    "address": "奈良市法蓮町410-2",
    "lat": 34.691214,
    "lng": 135.8157435,
    "tel": "0742-20-7205",
    "url": "https://www.yaezakura.co.jp",
    "pref": "奈良県",
    "city": "奈良市",
    "category": "day_service",
    "serviceType": "通所介護",
    "capacity": 57,
    "openDays": [
      "平日",
      "土曜日",
      "日曜日",
      "祝日"
    ],
    "openDaysNote": ""
  },
  {
    "id": "2970106924",
    "name": "デイサービス八重桜　押熊館",
    "kana": "デイサービスヤエザクラ　押熊館",
    "address": "押熊町560",
    "lat": 34.7139166,
    "lng": 135.7778573,
    "tel": "0742-40-3300",
    "url": "http://www.yaezakura.co.jp/",
    "pref": "奈良県",
    "city": "奈良市",
    "category": "day_service",
    "serviceType": "通所介護",
    "capacity": 0,
    "openDays": [
      "平日",
      "土曜日",
      "日曜日",
      "祝日"
    ],
    "openDaysNote": ""
  },
  {
    "id": "2970106601",
    "name": "デイサービス八重桜　朱雀",
    "kana": "デイサービスヤエザクラ　スザク",
    "address": "奈良県奈良市朱雀1-3-15",
    "lat": 34.7121421,
    "lng": 135.7968001,
    "tel": "0742-72-1131",
    "url": "https://www.yaezakura.co.jp",
    "pref": "奈良県",
    "city": "奈良市",
    "category": "day_service",
    "serviceType": "通所介護",
    "capacity": 30,
    "openDays": [
      "平日",
      "土曜日",
      "日曜日",
      "祝日"
    ],
    "openDaysNote": ""
  },
  {
    "id": "2970107872",
    "name": "デイサービス八重桜　平城",
    "kana": "デイサービスヤエザクラ　ヘイジョウ",
    "address": "奈良県奈良市佐保台西町123番地",
    "lat": 34.7116416,
    "lng": 135.8110161,
    "tel": "0742-71-0243",
    "url": "www.yaezakura.co.jp/",
    "pref": "奈良県",
    "city": "奈良市",
    "category": "day_service",
    "serviceType": "通所介護",
    "capacity": 0,
    "openDays": [
      "平日",
      "土曜日",
      "祝日"
    ],
    "openDaysNote": ""
  },
  {
    "id": "2970108425",
    "name": "デイサービス八重桜西奈良",
    "kana": "デイサービスヤエザクラニシナラ",
    "address": "奈良県あ奈良市平松一丁目29-9",
    "lat": 34.6791515913342,
    "lng": 135.776260353967,
    "tel": "0742-51-1010",
    "url": "www.yaezakura.co.jp/",
    "pref": "奈良県",
    "city": "奈良市",
    "category": "day_service",
    "serviceType": "通所介護",
    "capacity": 0,
    "openDays": [
      "平日",
      "土曜日",
      "日曜日",
      "祝日"
    ],
    "openDaysNote": ""
  },
  {
    "id": "2970105868",
    "name": "デイサービス友舞山陵",
    "kana": "デイサービスユウマイミササギ",
    "address": "奈良県奈良市山陵町９７５番地－１",
    "lat": 34.7070799067922,
    "lng": 135.782512143581,
    "tel": "０７４２－４５－６５１１",
    "url": "https://www.yuumai.co.jp/",
    "pref": "奈良県",
    "city": "奈良市",
    "category": "day_service",
    "serviceType": "通所介護",
    "capacity": 0,
    "openDays": [
      "平日",
      "土曜日",
      "祝日"
    ],
    "openDaysNote": "時間延長については、対応します。"
  },
  {
    "id": "2970108334",
    "name": "デイサービス和",
    "kana": "デイサービスナゴミ",
    "address": "奈良県奈良市中山町西3丁目204-1",
    "lat": 34.7105377878728,
    "lng": 135.7656679,
    "tel": "0742-53-0101",
    "url": "https://careterrace.co.jp",
    "pref": "奈良県",
    "city": "奈良市",
    "category": "day_service",
    "serviceType": "通所介護",
    "capacity": 0,
    "openDays": [
      "平日",
      "土曜日",
      "祝日"
    ],
    "openDaysNote": ""
  },
  {
    "id": "2970102030",
    "name": "ナイスケアサポート・デイサービス「桜」",
    "kana": "ナイスケアサポート・デイサービス「サクラ」",
    "address": "奈良市学園緑ヶ丘3-5-11",
    "lat": 34.7018032219054,
    "lng": 135.74495406758,
    "tel": "0742-47-6309",
    "url": "http://www.nicecare-support.com/",
    "pref": "奈良県",
    "city": "奈良市",
    "category": "day_service",
    "serviceType": "通所介護",
    "capacity": 0,
    "openDays": [
      "平日",
      "土曜日",
      "祝日"
    ],
    "openDaysNote": "日曜以外(祝日も)営業（改行）年末年始はその年により休業日に変動あり"
  },
  {
    "id": "2970100752",
    "name": "ならやま園デイサービスセンター",
    "kana": "ナラヤマエンデイサービスセンター",
    "address": "奈良市山陵町1085",
    "lat": 34.7116197,
    "lng": 135.7819542,
    "tel": "0742-41-8088",
    "url": "http://fukujukai.or.jp",
    "pref": "奈良県",
    "city": "奈良市",
    "category": "day_service",
    "serviceType": "通所介護",
    "capacity": 39,
    "openDays": [
      "平日",
      "土曜日",
      "祝日"
    ],
    "openDaysNote": "やむなく休業させて頂く場合は、事前に連絡させていただきます。"
  },
  {
    "id": "2970100489",
    "name": "ニチイケアセンター大和西大寺",
    "kana": "ニチイケアセンター　ヤマトサイダイジ",
    "address": "奈良県奈良市菅原東１丁目23番22号",
    "lat": 34.6862671,
    "lng": 135.7813688,
    "tel": "0742-53-6711",
    "url": "http://www.nichiigakkan.co.jp",
    "pref": "奈良県",
    "city": "奈良市",
    "category": "day_service",
    "serviceType": "通所介護",
    "capacity": 27,
    "openDays": [
      "平日",
      "土曜日",
      "祝日"
    ],
    "openDaysNote": ""
  },
  {
    "id": "2970107443",
    "name": "はぁ～と奈良デイサービス",
    "kana": "ハァ～トナラデイサービス",
    "address": "奈良県奈良市大森町299-6",
    "lat": 34.6776278,
    "lng": 135.8233336,
    "tel": "0742-22-2315",
    "url": "http://heart-toka.com/",
    "pref": "奈良県",
    "city": "奈良市",
    "category": "day_service",
    "serviceType": "通所介護",
    "capacity": 0,
    "openDays": [
      "平日",
      "祝日"
    ],
    "openDaysNote": ""
  },
  {
    "id": "2970102170",
    "name": "ハッピーデイサービスセンター",
    "kana": "ハッピーデイサービスセンター",
    "address": "奈良市六条二丁目7-28",
    "lat": 34.6689459108148,
    "lng": 135.77556355706,
    "tel": "0742-52-8870",
    "url": "http://www.happy-service.co.jp/",
    "pref": "奈良県",
    "city": "奈良市",
    "category": "day_service",
    "serviceType": "通所介護",
    "capacity": 0,
    "openDays": [
      "平日",
      "土曜日",
      "祝日"
    ],
    "openDaysNote": ""
  },
  {
    "id": "2970104796",
    "name": "ハッピーデイリハビリ館　西ノ京",
    "kana": "ハッピーデイリハビリカン　ニシノキョウ",
    "address": "奈良市六条２丁目3-12",
    "lat": 34.6686746,
    "lng": 135.7766362,
    "tel": "0742-52-8811",
    "url": "http://www.happy-service.co.jp/",
    "pref": "奈良県",
    "city": "奈良市",
    "category": "day_service",
    "serviceType": "通所介護",
    "capacity": 32,
    "openDays": [
      "平日",
      "土曜日",
      "祝日"
    ],
    "openDaysNote": ""
  },
  {
    "id": "2970107625",
    "name": "パナソニックエイジフリーケアセンター奈良登美ヶ丘",
    "kana": "パナソニックエイジフリーケアセンターナラトミガオカ",
    "address": "奈良県奈良市南登美ヶ丘15-1",
    "lat": 34.705178,
    "lng": 135.743944,
    "tel": "0742-53-7801",
    "url": "https://panasonic.co.jp/paf/",
    "pref": "奈良県",
    "city": "奈良市",
    "category": "day_service",
    "serviceType": "通所介護",
    "capacity": 40,
    "openDays": [
      "平日",
      "日曜日",
      "祝日"
    ],
    "openDaysNote": "年末年始　12/31～1/3休業"
  },
  {
    "id": "2970108722",
    "name": "びぃとぅぎゃざ～",
    "kana": "ビィトゥギャザ～",
    "address": "奈良市南京終町７丁目564－6",
    "lat": 34.6656855238137,
    "lng": 135.827391464418,
    "tel": "0742－81－3443",
    "url": "http://wakisaka.org",
    "pref": "奈良県",
    "city": "奈良市",
    "category": "day_service",
    "serviceType": "通所介護",
    "capacity": 5,
    "openDays": [
      "平日"
    ],
    "openDaysNote": ""
  },
  {
    "id": "2970104762",
    "name": "ヒューマンライフケア奈良デイサービスセンター",
    "kana": "ヒューマンライフケアナラデイサービスセンター",
    "address": "奈良県奈良市三条町３２１－３",
    "lat": 34.6794487,
    "lng": 135.8202351,
    "tel": "0742-85-1611",
    "url": "http://hlc.athuman.com/caresearch/nara/364031/index.php?sisetu=69",
    "pref": "奈良県",
    "city": "奈良市",
    "category": "day_service",
    "serviceType": "通所介護",
    "capacity": 25,
    "openDays": [
      "平日",
      "土曜日",
      "祝日"
    ],
    "openDaysNote": ""
  },
  {
    "id": "2970103988",
    "name": "ポシブルイオン高の原店",
    "kana": "ポシブルイオンタカノハラテン",
    "address": "奈良市右京1－6－1イオンモール高の原3階 イオンモール高の原3階",
    "lat": 34.7239634349349,
    "lng": 135.791035309332,
    "tel": "0774-75-2266",
    "url": "http://www.possible-plus.co.jp",
    "pref": "奈良県",
    "city": "奈良市",
    "category": "day_service",
    "serviceType": "通所介護",
    "capacity": 32,
    "openDays": [
      "平日",
      "土曜日",
      "祝日"
    ],
    "openDaysNote": "年末年始・夏期など事業所が定めた日は休みとなる。"
  },
  {
    "id": "2970101255",
    "name": "ポシブル高の原",
    "kana": "ポシブル　タカノハラ",
    "address": "奈良市押熊町１２７８－１",
    "lat": 34.722235,
    "lng": 135.7690384,
    "tel": "0742-53-7000",
    "url": "http://www.possible-plus.co.jp",
    "pref": "奈良県",
    "city": "奈良市",
    "category": "day_service",
    "serviceType": "通所介護",
    "capacity": 45,
    "openDays": [
      "平日",
      "土曜日",
      "祝日"
    ],
    "openDaysNote": ""
  },
  {
    "id": "2970105223",
    "name": "ポシブル高の原ｎｅｘｔ",
    "kana": "ポシブルタカノハラネクスト",
    "address": "奈良市押熊町１２７８－１",
    "lat": 34.722235,
    "lng": 135.7690384,
    "tel": "0742-53-7000",
    "url": "http://www.possible-plus.co.jp",
    "pref": "奈良県",
    "city": "奈良市",
    "category": "day_service",
    "serviceType": "通所介護",
    "capacity": 46,
    "openDays": [
      "平日",
      "土曜日",
      "祝日"
    ],
    "openDaysNote": ""
  },
  {
    "id": "2970103913",
    "name": "ポシブル春日野",
    "kana": "ポシブルカスガノ",
    "address": "奈良県奈良市雑司町368-2",
    "lat": 34.690400875857,
    "lng": 135.835406206746,
    "tel": "0742-24-0016",
    "url": "http://www.possible-plus.co.jp/",
    "pref": "奈良県",
    "city": "奈良市",
    "category": "day_service",
    "serviceType": "通所介護",
    "capacity": 30,
    "openDays": [
      "平日",
      "土曜日",
      "祝日"
    ],
    "openDaysNote": ""
  },
  {
    "id": "2970190464",
    "name": "ぽれぽれケアセンター青山",
    "kana": "ポレポレケアセンターアオヤマ",
    "address": "青山４丁目3-3",
    "lat": 39.7289107,
    "lng": 141.1177618,
    "tel": "0742-20-0200",
    "url": "https://www.porepore.co.jp/",
    "pref": "奈良県",
    "city": "奈良市",
    "category": "day_service",
    "serviceType": "通所介護",
    "capacity": null,
    "openDays": [
      "平日",
      "土曜日",
      "祝日"
    ],
    "openDaysNote": ""
  },
  {
    "id": "2970108045",
    "name": "ぽれぽれ四条大路リハサロン",
    "kana": "ポレポレシジョウオオジリハサロン",
    "address": "奈良市四条大路2-860-1",
    "lat": 34.6805546929941,
    "lng": 135.798787591674,
    "tel": "0742-30-5319",
    "url": "http://www.porepore.co.jp/",
    "pref": "奈良県",
    "city": "奈良市",
    "category": "day_service",
    "serviceType": "通所介護",
    "capacity": null,
    "openDays": [
      "平日",
      "土曜日",
      "祝日"
    ],
    "openDaysNote": ""
  },
  {
    "id": "2970102576",
    "name": "ぽれぽれ登美ヶ丘",
    "kana": "ポレポレトミガオカ",
    "address": "奈良市登美ヶ丘2-2-15",
    "lat": 34.7120746,
    "lng": 135.7500904,
    "tel": "0742-30-5103",
    "url": "http://www.porepore.co.jp",
    "pref": "奈良県",
    "city": "奈良市",
    "category": "day_service",
    "serviceType": "通所介護",
    "capacity": 19,
    "openDays": [
      "平日",
      "土曜日",
      "日曜日",
      "祝日"
    ],
    "openDaysNote": ""
  },
  {
    "id": "2970103491",
    "name": "ミック登美ヶ丘デイサービスセンターゆめ",
    "kana": "ミックトミガオカデイサービスセンターユメ",
    "address": "奈良県奈良市押熊町2261",
    "lat": 34.716641,
    "lng": 135.7618226,
    "tel": "0742-40-2350",
    "url": "http://www.mic-tomigaoka.com",
    "pref": "奈良県",
    "city": "奈良市",
    "category": "day_service",
    "serviceType": "通所介護",
    "capacity": 35,
    "openDays": [
      "平日",
      "土曜日",
      "祝日"
    ],
    "openDaysNote": "年末年始（12/31～1/2）は休日とする"
  },
  {
    "id": "2970107955",
    "name": "メビウスまほろばデイサービスセンター",
    "kana": "メビウスマホロバデイサービスセンター",
    "address": "奈良県奈良市六条西四丁目6番20号",
    "lat": 34.6649016643399,
    "lng": 135.771183489024,
    "tel": "0742-81-7828",
    "url": "https://www.nishinokyo.or.jp/kaigo/mahoroba/index.html",
    "pref": "奈良県",
    "city": "奈良市",
    "category": "day_service",
    "serviceType": "通所介護",
    "capacity": 0,
    "openDays": [
      "平日",
      "土曜日",
      "祝日"
    ],
    "openDaysNote": "年始（1/1～1/3）は除く"
  },
  {
    "id": "2970102089",
    "name": "モミの木デイサービスセンター",
    "kana": "モミノキデイサービスセンター",
    "address": "奈良県奈良市法蓮町１１８５",
    "lat": 34.6906904621301,
    "lng": 135.827684923873,
    "tel": "0742-26-6056",
    "url": "http://mominokidss.blog62.fc2.com/",
    "pref": "奈良県",
    "city": "奈良市",
    "category": "day_service",
    "serviceType": "通所介護",
    "capacity": 23,
    "openDays": [
      "平日",
      "祝日"
    ],
    "openDaysNote": ""
  },
  {
    "id": "2970104747",
    "name": "ゆうゆうあやめ池デイサービス",
    "kana": "ユウユウアヤメイケデイサービス",
    "address": "あやめ池南6-1-43",
    "lat": 34.696557,
    "lng": 135.7611953,
    "tel": "0742-52-1165",
    "url": "",
    "pref": "奈良県",
    "city": "奈良市",
    "category": "day_service",
    "serviceType": "通所介護",
    "capacity": null,
    "openDays": [
      "平日",
      "土曜日",
      "祝日"
    ],
    "openDaysNote": ""
  },
  {
    "id": "2970102980",
    "name": "ライフアートコミュニティ佐保の里",
    "kana": "ライフアートコミュニティサホノサト",
    "address": "奈良市佐保台2丁目902番241",
    "lat": 34.7082954,
    "lng": 135.815468,
    "tel": "0742-70-5020",
    "url": "http://www.lifeartcommunitry.com",
    "pref": "奈良県",
    "city": "奈良市",
    "category": "day_service",
    "serviceType": "通所介護",
    "capacity": 50,
    "openDays": [
      "平日",
      "土曜日",
      "祝日"
    ],
    "openDaysNote": ""
  },
  {
    "id": "2970106197",
    "name": "ライフアートコミュニティ佐保の里　新大宮デイサービスセンター",
    "kana": "ライフアートコミュニティサホノサト　シンオオミヤデイサービスセンター",
    "address": "奈良県奈良市大宮町３丁目４－１８",
    "lat": 34.6840409888254,
    "lng": 135.813306349074,
    "tel": "０７４２－３０－３５６０",
    "url": "http://www.lifeartcommunity.com/",
    "pref": "奈良県",
    "city": "奈良市",
    "category": "day_service",
    "serviceType": "通所介護",
    "capacity": 35,
    "openDays": [
      "平日",
      "土曜日",
      "祝日"
    ],
    "openDaysNote": ""
  },
  {
    "id": "2970105942",
    "name": "ライフアートコミュニティ佐保の里　菅原デイサービスセンター",
    "kana": "ライフアートコミュニティサホノサト　スガワラデイサービスセンター",
    "address": "奈良県奈良市菅原町２９８－１",
    "lat": 34.68502,
    "lng": 135.779619,
    "tel": "0742-53-2020",
    "url": "http://www.lifeartcommunity.com",
    "pref": "奈良県",
    "city": "奈良市",
    "category": "day_service",
    "serviceType": "通所介護",
    "capacity": 40,
    "openDays": [
      "平日",
      "土曜日",
      "祝日"
    ],
    "openDaysNote": ""
  },
  {
    "id": "2970104440",
    "name": "ライフアートコミュニティ佐保の里　青山デイサービスセンター",
    "kana": "ライフアートコミュニティサホノサト　アオヤマデイサービスセンター",
    "address": "奈良県奈良市青山４丁目３番",
    "lat": 34.7071127,
    "lng": 135.8376521,
    "tel": "0742-23-1020",
    "url": "http://www.lifeartcommunity.com/",
    "pref": "奈良県",
    "city": "奈良市",
    "category": "day_service",
    "serviceType": "通所介護",
    "capacity": 22,
    "openDays": [
      "平日",
      "土曜日",
      "祝日"
    ],
    "openDaysNote": ""
  },
  {
    "id": "2970107245",
    "name": "リールデイサービス都祁",
    "kana": "リールデイサービスツゲ",
    "address": "奈良県奈良市都祁白石町1178",
    "lat": 34.6058565668239,
    "lng": 135.958729843933,
    "tel": "0743-82-5700",
    "url": "https://rirestage.co.jp/",
    "pref": "奈良県",
    "city": "奈良市",
    "category": "day_service",
    "serviceType": "通所介護",
    "capacity": 0,
    "openDays": [
      "平日",
      "土曜日",
      "日曜日",
      "祝日"
    ],
    "openDaysNote": ""
  },
  {
    "id": "2970107302",
    "name": "リールデイサービス宝来",
    "kana": "リールデイサービスホウライ",
    "address": "奈良市宝来四丁目4-12",
    "lat": 34.6828562,
    "lng": 135.7739,
    "tel": "0742-93-8470",
    "url": "https://www.rirestage.co.jp",
    "pref": "奈良県",
    "city": "奈良市",
    "category": "day_service",
    "serviceType": "通所介護",
    "capacity": 30,
    "openDays": [
      "平日",
      "土曜日",
      "日曜日",
      "祝日"
    ],
    "openDaysNote": "年末年始の休み　12/31～1/2まで"
  },
  {
    "id": "2970107021",
    "name": "リゾートデイサービス　ハッピーリライフ",
    "kana": "リゾートデイサービス　ハッピーリライフ",
    "address": "奈良市六条西1丁目1-33",
    "lat": 34.6723596769824,
    "lng": 135.771791675988,
    "tel": "0742-52-8837",
    "url": "http://happy-service.co.jp/",
    "pref": "奈良県",
    "city": "奈良市",
    "category": "day_service",
    "serviceType": "通所介護",
    "capacity": 0,
    "openDays": [
      "平日",
      "土曜日",
      "祝日"
    ],
    "openDaysNote": ""
  },
  {
    "id": "2970108870",
    "name": "リゾートデイサービスハッピーリライフplus",
    "kana": "リゾートデイサービスハッピーリライフプラス",
    "address": "六条二丁目10番9号",
    "lat": 35.6899667,
    "lng": 139.7082999,
    "tel": "0742-52-8825",
    "url": "https://www.happy-service.co.jp",
    "pref": "奈良県",
    "city": "奈良市",
    "category": "day_service",
    "serviceType": "通所介護",
    "capacity": 40,
    "openDays": [
      "平日",
      "土曜日",
      "祝日"
    ],
    "openDaysNote": "その他：12月31日～翌年1月3日までは休業。（改行）祝日やお盆は営業。（改行）※水曜日は要支援の方のみ利用可。"
  },
  {
    "id": "2970107864",
    "name": "リッスンデイサービスセンター新大宮",
    "kana": "リッスンデイサービスセンターシンオオミヤ",
    "address": "奈良県奈良市芝辻町2-9-15",
    "lat": 34.6861786,
    "lng": 135.8134933,
    "tel": "0742-93-5930",
    "url": "http://listen33.jp",
    "pref": "奈良県",
    "city": "奈良市",
    "category": "day_service",
    "serviceType": "通所介護",
    "capacity": null,
    "openDays": [
      "平日",
      "土曜日",
      "日曜日",
      "祝日"
    ],
    "openDaysNote": ""
  },
  {
    "id": "2970108557",
    "name": "リハビリデイサービス　ルピナス朱雀",
    "kana": "リハビリデイサービス　ルピナススザク",
    "address": "奈良市朱雀1丁目8番5号",
    "lat": 34.7135531,
    "lng": 135.7953561,
    "tel": "0742-71-8639",
    "url": "http://www.rupinasu-inc.co.jp",
    "pref": "奈良県",
    "city": "奈良市",
    "category": "day_service",
    "serviceType": "通所介護",
    "capacity": 0,
    "openDays": [
      "平日",
      "土曜日",
      "祝日"
    ],
    "openDaysNote": ""
  },
  {
    "id": "2970107641",
    "name": "リハビリデイサービスアイリス",
    "kana": "リハビリデイサービスアイリス",
    "address": "奈良県奈良市法蓮町632-2",
    "lat": 34.6918397493941,
    "lng": 135.815649660713,
    "tel": "0742-77-7900",
    "url": "https://www.rehabili-iris.com/",
    "pref": "奈良県",
    "city": "奈良市",
    "category": "day_service",
    "serviceType": "通所介護",
    "capacity": 0,
    "openDays": [
      "平日",
      "土曜日",
      "祝日"
    ],
    "openDaysNote": ""
  },
  {
    "id": "2970190316",
    "name": "リハビリデイサービスアイリスアップ",
    "kana": "リハビリデイサービスアイリスアップ",
    "address": "奈良県奈良市法蓮町632-2",
    "lat": 34.6918899,
    "lng": 135.8157949,
    "tel": "0742-77-7900",
    "url": "https://rehabili-iris.com/",
    "pref": "奈良県",
    "city": "奈良市",
    "category": "day_service",
    "serviceType": "通所介護",
    "capacity": 0,
    "openDays": [
      "平日",
      "土曜日",
      "祝日"
    ],
    "openDaysNote": ""
  },
  {
    "id": "2970101594",
    "name": "リハビリデイサービスセンターひまわり奈良",
    "kana": "リハビリデイサービスセンターヒマワリナラ",
    "address": "奈良市左京4丁目6-1",
    "lat": 34.71735,
    "lng": 135.8054825,
    "tel": "0742-70-2278",
    "url": "http://www.fureai-net.com",
    "pref": "奈良県",
    "city": "奈良市",
    "category": "day_service",
    "serviceType": "通所介護",
    "capacity": 30,
    "openDays": [
      "平日",
      "土曜日",
      "祝日"
    ],
    "openDaysNote": "正月（12／30～1／3）は休み"
  },
  {
    "id": "2970106049",
    "name": "リハビリデイサービスルピナス",
    "kana": "リハビリデイサービスルピナス",
    "address": "奈良県奈良市西木辻町200-58",
    "lat": 34.6743778308546,
    "lng": 135.825694623418,
    "tel": "0742-25-5070",
    "url": "http://www.rupinasu-inc.co.jp/",
    "pref": "奈良県",
    "city": "奈良市",
    "category": "day_service",
    "serviceType": "通所介護",
    "capacity": 0,
    "openDays": [
      "平日",
      "土曜日",
      "祝日"
    ],
    "openDaysNote": ""
  },
  {
    "id": "2970107542",
    "name": "リハビリデイまーめいど",
    "kana": "リハビリデイマーメイド",
    "address": "奈良県奈良市神殿町６４５-１",
    "lat": 34.6572582808053,
    "lng": 135.818898450093,
    "tel": "0742－63－7221",
    "url": "http://www.tanikake.com/",
    "pref": "奈良県",
    "city": "奈良市",
    "category": "day_service",
    "serviceType": "通所介護",
    "capacity": 2,
    "openDays": [
      "平日",
      "土曜日",
      "祝日"
    ],
    "openDaysNote": "祝日営業ですが※５月ゴールデンウィーク、８月１２日～８月１６日の間、数日休業する場合があります。"
  },
  {
    "id": "2970107997",
    "name": "リハプライド富雄",
    "kana": "リハプライドトミオ",
    "address": "富雄北二丁目8番15号ガーデンハイツ高川1F ガーデンハイツ高川1F",
    "lat": 34.6975376627375,
    "lng": 135.735951886508,
    "tel": "0742-77-3180",
    "url": "https://www.rehapride.co.jp/tomio/",
    "pref": "奈良県",
    "city": "奈良市",
    "category": "day_service",
    "serviceType": "通所介護",
    "capacity": 0,
    "openDays": [
      "平日",
      "土曜日",
      "祝日"
    ],
    "openDaysNote": ""
  },
  {
    "id": "2970106205",
    "name": "愛奈リハビリデイサービス",
    "kana": "アイナリハビリデイサービス",
    "address": "奈良県　奈良市　芝辻町　4丁目　2の9コーポラス新大宮　1Ｆ コーポラス新大宮　1Ｆ",
    "lat": 34.6862674,
    "lng": 135.8115523,
    "tel": "0742-93-4790",
    "url": "https://kisoudai1.hp.peraichi.com/asahi/",
    "pref": "奈良県",
    "city": "奈良市",
    "category": "day_service",
    "serviceType": "通所介護",
    "capacity": 0,
    "openDays": [
      "平日",
      "土曜日",
      "祝日"
    ],
    "openDaysNote": ""
  },
  {
    "id": "2970101669",
    "name": "医療法人岡谷会デイサービスセンターせいび",
    "kana": "イリョウホウジンオカタニカイデイサービスセンターセイビ",
    "address": "奈良市西木辻町２００番地",
    "lat": 34.6740856,
    "lng": 135.8250348,
    "tel": "0742-24-4553",
    "url": "http://www.okatani.or.jp/zaitaku/",
    "pref": "奈良県",
    "city": "奈良市",
    "category": "day_service",
    "serviceType": "通所介護",
    "capacity": 35,
    "openDays": [
      "平日",
      "土曜日",
      "祝日"
    ],
    "openDaysNote": ""
  },
  {
    "id": "2910102371",
    "name": "医療法人尚学会ながみクリニック",
    "kana": "イリョウホウジンショウガクカイナガミクリニック",
    "address": "奈良市西登美ヶ丘5-3-8",
    "lat": 34.7134412,
    "lng": 135.738197,
    "tel": "0742-43-3325",
    "url": "http://www.nagami-clinic.com",
    "pref": "奈良県",
    "city": "奈良市",
    "category": "day_service",
    "serviceType": "通所介護",
    "capacity": null,
    "openDays": [
      "平日"
    ],
    "openDaysNote": "その他年間の休日：夏期休暇8/13～8/16（改行）年末年始12/29～1/4"
  },
  {
    "id": "2970101636",
    "name": "学園前西デイサービスセンター",
    "kana": "ガクエンマエニシデイサービスセンター",
    "address": "奈良市二名三丁目１１５１番地１",
    "lat": 34.7040559,
    "lng": 135.7260178,
    "tel": "0742-45-1243",
    "url": "https://www.naraen.or.jp",
    "pref": "奈良県",
    "city": "奈良市",
    "category": "day_service",
    "serviceType": "通所介護",
    "capacity": 30,
    "openDays": [
      "平日",
      "土曜日",
      "祝日"
    ],
    "openDaysNote": ""
  },
  {
    "id": "2970101123",
    "name": "近鉄スマイルあやめ池ケアセンター",
    "kana": "キンテツスマイルアヤメイケケアセンター",
    "address": "奈良県奈良市あやめ池北2丁目4番17号",
    "lat": 34.7025396,
    "lng": 135.762684,
    "tel": "0742-49-1248",
    "url": "http://www.k-smile.com",
    "pref": "奈良県",
    "city": "奈良市",
    "category": "day_service",
    "serviceType": "通所介護",
    "capacity": 0,
    "openDays": [
      "平日",
      "土曜日",
      "祝日"
    ],
    "openDaysNote": ""
  },
  {
    "id": "2970103970",
    "name": "近鉄スマイルあやめ池トレ＆リハ",
    "kana": "キンテツスマイルアヤメイケトレアンドリハ",
    "address": "奈良市あやめ池北２－１－１",
    "lat": 34.7002843,
    "lng": 135.7625118,
    "tel": "0742-53-3525",
    "url": "https://www.k-smile.com/",
    "pref": "奈良県",
    "city": "奈良市",
    "category": "day_service",
    "serviceType": "通所介護",
    "capacity": 35,
    "openDays": [
      "平日",
      "土曜日",
      "祝日"
    ],
    "openDaysNote": "年末年始の休業：12/31～1/3"
  },
  {
    "id": "2970101743",
    "name": "近鉄スマイル北登美ヶ丘ケアセンター",
    "kana": "キンテツスマイルキタトミガオカケアセンター",
    "address": "奈良県奈良市北登美ヶ丘2丁目15番7号",
    "lat": 34.7269761,
    "lng": 135.7576949,
    "tel": "0742-41-1804",
    "url": "http://www.k-smile.com",
    "pref": "奈良県",
    "city": "奈良市",
    "category": "day_service",
    "serviceType": "通所介護",
    "capacity": 45,
    "openDays": [
      "平日",
      "土曜日",
      "祝日"
    ],
    "openDaysNote": ""
  },
  {
    "id": "2971100041",
    "name": "香梅苑通所介護事業所",
    "kana": "コウバイエンツウショカイゴジギョウショ",
    "address": "奈良県奈良市月ヶ瀬尾山817番地5",
    "lat": 34.7148687,
    "lng": 136.0471171,
    "tel": "0743-92-2222",
    "url": "",
    "pref": "奈良県",
    "city": "奈良市",
    "category": "day_service",
    "serviceType": "通所介護",
    "capacity": 0,
    "openDays": [
      "平日"
    ],
    "openDaysNote": "特になし"
  },
  {
    "id": "2970100760",
    "name": "社会福祉法人ならのは",
    "kana": "シャカイフクシホウジンナラノハ",
    "address": "奈良市神功4丁目25番地の9",
    "lat": 34.7209214,
    "lng": 135.7780765,
    "tel": "0742-70-3100",
    "url": "https://naranoha.jimdo.com/",
    "pref": "奈良県",
    "city": "奈良市",
    "category": "day_service",
    "serviceType": "通所介護",
    "capacity": 40,
    "openDays": [
      "平日",
      "土曜日",
      "日曜日",
      "祝日"
    ],
    "openDaysNote": ""
  },
  {
    "id": "2970108342",
    "name": "春デイサービス",
    "kana": "ハルデイサービス",
    "address": "奈良県奈良市北市町89番地の2",
    "lat": 34.6872689,
    "lng": 135.8243672,
    "tel": "0742-20-6680",
    "url": "https://careterrace.co.jp",
    "pref": "奈良県",
    "city": "奈良市",
    "category": "day_service",
    "serviceType": "通所介護",
    "capacity": 0,
    "openDays": [
      "平日",
      "土曜日",
      "日曜日",
      "祝日"
    ],
    "openDaysNote": "延長サービスあり、実費でのお泊りサービスあり、年中無休"
  },
  {
    "id": "2970105629",
    "name": "沢井病院　デイサービスセンター",
    "kana": "サワイビョウイン　デイサービスセンター",
    "address": "奈良市法蓮町602-1",
    "lat": 34.6939303,
    "lng": 135.8149018,
    "tel": "0742-23-6541",
    "url": "http://sawai.or.jp",
    "pref": "奈良県",
    "city": "奈良市",
    "category": "day_service",
    "serviceType": "通所介護",
    "capacity": 30,
    "openDays": [
      "平日",
      "日曜日",
      "祝日"
    ],
    "openDaysNote": "年末年始休業　１２月３０日～１月３日"
  },
  {
    "id": "2970100281",
    "name": "特別養護老人ホーム　あじさい園",
    "kana": "トクベツヨウゴロウジンホームアジサイエン",
    "address": "奈良市茗荷町808-１",
    "lat": 34.6570114,
    "lng": 135.9022247,
    "tel": "0742-81-0878",
    "url": "http://www.ajisaien.or.jp",
    "pref": "奈良県",
    "city": "奈良市",
    "category": "day_service",
    "serviceType": "通所介護",
    "capacity": 0,
    "openDays": [
      "平日",
      "土曜日",
      "祝日"
    ],
    "openDaysNote": ""
  },
  {
    "id": "2970100943",
    "name": "特別養護老人ホーム　西ノ京苑",
    "kana": "トクベツヨウゴロウジンホーム　ニシノキョウエン",
    "address": "奈良市六条西五丁目17番43号",
    "lat": 34.6646052,
    "lng": 135.765362,
    "tel": "0742-52-0888",
    "url": "https://www.nisinokyoen.org/",
    "pref": "奈良県",
    "city": "奈良市",
    "category": "day_service",
    "serviceType": "通所介護",
    "capacity": 0,
    "openDays": [
      "平日",
      "土曜日",
      "祝日"
    ],
    "openDaysNote": ""
  },
  {
    "id": "2970100232",
    "name": "特別養護老人ホーム長曽根寮　指定通所介護事業所",
    "kana": "トクベツヨウゴロウジンホームナガソネリョウ　シテイツウショカイゴジギョウショ",
    "address": "奈良県奈良市大倭町４番１号",
    "lat": 34.680781,
    "lng": 135.7581872,
    "tel": "0742-44-9346",
    "url": "http://www.asukaen.net/",
    "pref": "奈良県",
    "city": "奈良市",
    "category": "day_service",
    "serviceType": "通所介護",
    "capacity": 0,
    "openDays": [
      "平日",
      "祝日"
    ],
    "openDaysNote": ""
  },
  {
    "id": "2970100737",
    "name": "奈良デイサービスセンター",
    "kana": "ナラデイサービスセンター",
    "address": "奈良県奈良市山陵町1485サービス付き高齢者住宅　グレイス福寿内 サービス付き高齢者住宅　グレイス福寿内",
    "lat": 34.7123467642453,
    "lng": 135.781960082031,
    "tel": "0742-53-8200",
    "url": "http://fukujukai.or.jp/",
    "pref": "奈良県",
    "city": "奈良市",
    "category": "day_service",
    "serviceType": "通所介護",
    "capacity": 0,
    "openDays": [
      "平日",
      "土曜日",
      "祝日"
    ],
    "openDaysNote": ""
  },
  {
    "id": "2970190282",
    "name": "奈良京終ケアセンターそよ風",
    "kana": "ナラキョウバテケアセンターソヨカゼ",
    "address": "奈良県奈良市南京終町６８１番地",
    "lat": 34.6646521,
    "lng": 135.8225604,
    "tel": "0742-64-9002",
    "url": "http://www.sykz.co.jp",
    "pref": "奈良県",
    "city": "奈良市",
    "category": "day_service",
    "serviceType": "通所介護",
    "capacity": 0,
    "openDays": [
      "平日",
      "土曜日",
      "祝日"
    ],
    "openDaysNote": ""
  },
  {
    "id": "2970108409",
    "name": "福助デイサービスセンター",
    "kana": "フクスケデイサービスセンター",
    "address": "奈良県奈良市南京終町８９－４",
    "lat": 34.6682146,
    "lng": 135.8244141,
    "tel": "０７４２－６３－００８０",
    "url": "",
    "pref": "奈良県",
    "city": "奈良市",
    "category": "day_service",
    "serviceType": "通所介護",
    "capacity": 0,
    "openDays": [
      "平日"
    ],
    "openDaysNote": ""
  },
  {
    "id": "2970100604",
    "name": "万葉苑デイサービスセンター",
    "kana": "マンヨウエンデイサービスセンター",
    "address": "奈良市川上町281",
    "lat": 34.6959139,
    "lng": 135.8390773,
    "tel": "0742-95-5617",
    "url": "http://www.manyoen.jp",
    "pref": "奈良県",
    "city": "奈良市",
    "category": "day_service",
    "serviceType": "通所介護",
    "capacity": 0,
    "openDays": [
      "平日",
      "土曜日",
      "祝日"
    ],
    "openDaysNote": ""
  },
  {
    "id": "2971600693",
    "name": "ウォーキングスタジオたいむ",
    "kana": "ウォーキングスタジオタイム",
    "address": "奈良県生駒郡斑鳩町龍田2-2-15",
    "lat": 34.6070571,
    "lng": 135.7227727,
    "tel": "0745-61-7323",
    "url": "",
    "pref": "奈良県",
    "city": "斑鳩町",
    "category": "day_service",
    "serviceType": "通所介護",
    "capacity": null,
    "openDays": [
      "平日",
      "土曜日"
    ],
    "openDaysNote": "水曜日、土曜日は8：30～12：30"
  },
  {
    "id": "2971600594",
    "name": "ココロとカラダのデイサービス",
    "kana": "ココロトカラダノデイサービス",
    "address": "龍田1丁目9-31",
    "lat": 34.6090635,
    "lng": 135.7275059,
    "tel": "0745-75-0311",
    "url": "https://www.ne.jp/asahi/day-service/kokoro-to-karada/",
    "pref": "奈良県",
    "city": "斑鳩町",
    "category": "day_service",
    "serviceType": "通所介護",
    "capacity": 10,
    "openDays": [
      "平日",
      "土曜日",
      "祝日"
    ],
    "openDaysNote": ""
  },
  {
    "id": "2971600560",
    "name": "デイサービス　ロハスの森",
    "kana": "デイサービス　ロハスノモリ",
    "address": "奈良県生駒郡斑鳩町服部1-4-35",
    "lat": 34.6029700461731,
    "lng": 135.732993082208,
    "tel": "0745-74-6842",
    "url": "http://www.shishin.co.jp/",
    "pref": "奈良県",
    "city": "斑鳩町",
    "category": "day_service",
    "serviceType": "通所介護",
    "capacity": 0,
    "openDays": [
      "平日",
      "祝日"
    ],
    "openDaysNote": "5月のゴールデンウィーク、年末年始はお休みいただきます。"
  },
  {
    "id": "2971600610",
    "name": "デイサービスLUPIN斑鳩",
    "kana": "デイサービスルーピンイカルガ",
    "address": "奈良県生駒郡斑鳩町龍田2丁目1番12号",
    "lat": 34.6073749,
    "lng": 135.7245275,
    "tel": "0745-43-7640",
    "url": "https://www.lupin-inc.co.jp/",
    "pref": "奈良県",
    "city": "斑鳩町",
    "category": "day_service",
    "serviceType": "通所介護",
    "capacity": null,
    "openDays": [
      "平日",
      "土曜日",
      "祝日"
    ],
    "openDaysNote": "12/31～1/3は休日"
  },
  {
    "id": "2971600446",
    "name": "デイサービスセンター　いかるがの郷",
    "kana": "デイサービスセンター　イカルガノサト",
    "address": "奈良県生駒郡斑鳩町法隆寺1-7-23",
    "lat": 34.6073766,
    "lng": 135.7244801,
    "tel": "0745-75-2805",
    "url": "http://sankei.nara.jp/",
    "pref": "奈良県",
    "city": "斑鳩町",
    "category": "day_service",
    "serviceType": "通所介護",
    "capacity": 0,
    "openDays": [
      "平日",
      "土曜日",
      "祝日"
    ],
    "openDaysNote": ""
  },
  {
    "id": "2971600552",
    "name": "デイサービスセンター　一樹",
    "kana": "デイサービスセンター　イチジュ",
    "address": "奈良県生駒郡斑鳩町目安３丁目4-36特別養護老人ホーム　一樹 特別養護老人ホーム　一樹",
    "lat": 34.5948005563583,
    "lng": 135.738209034918,
    "tel": "0745-75-1212",
    "url": "http://www.ichiju.or.jp/",
    "pref": "奈良県",
    "city": "斑鳩町",
    "category": "day_service",
    "serviceType": "通所介護",
    "capacity": 25,
    "openDays": [
      "平日",
      "土曜日",
      "祝日"
    ],
    "openDaysNote": "12/29～1/3は休業"
  },
  {
    "id": "2971600156",
    "name": "デイサービスセンターすまいる",
    "kana": "デイサービスセンタースマイル",
    "address": "奈良県生駒郡斑鳩町法隆寺南1-3-15",
    "lat": 34.608296,
    "lng": 135.7362321,
    "tel": "0745-75-3337",
    "url": "https://care-smile.co.jp/",
    "pref": "奈良県",
    "city": "斑鳩町",
    "category": "day_service",
    "serviceType": "通所介護",
    "capacity": 0,
    "openDays": [
      "平日",
      "土曜日",
      "祝日"
    ],
    "openDaysNote": ""
  },
  {
    "id": "2971600339",
    "name": "デイサービスセンターほっとプラザ",
    "kana": "デイサービスセンターホットプラザ",
    "address": "奈良県生駒郡斑鳩町小吉田２丁目７番１５号",
    "lat": 34.6029688,
    "lng": 135.7277189,
    "tel": "0745-70-0002",
    "url": "http://seiwa-medicalcare-center.co.jp/",
    "pref": "奈良県",
    "city": "斑鳩町",
    "category": "day_service",
    "serviceType": "通所介護",
    "capacity": 0,
    "openDays": [
      "平日",
      "土曜日",
      "祝日"
    ],
    "openDaysNote": ""
  },
  {
    "id": "2971600677",
    "name": "斑鳩町障害者支援センター　虹の家",
    "kana": "イカルガチョウショウガイシャシエンセンター　ニジノイエ",
    "address": "奈良県生駒郡斑鳩町神南2-5-8",
    "lat": 34.5967171,
    "lng": 135.7199793,
    "tel": "0745-75-0008",
    "url": "",
    "pref": "奈良県",
    "city": "斑鳩町",
    "category": "day_service",
    "serviceType": "通所介護",
    "capacity": 0,
    "openDays": [
      "平日"
    ],
    "openDaysNote": "第４土曜日、祝日において、生活介護事業所（障害福祉サービス）の年間行事予定に沿って開所する。"
  },
  {
    "id": "2971400185",
    "name": "デイサービスセンター　グレース",
    "kana": "デイサービスセンター　グレース",
    "address": "奈良県生駒郡平群町越木塚336-1",
    "lat": 34.6224904890774,
    "lng": 135.686425068787,
    "tel": "0745-45-0865",
    "url": "http://shinaikai.net",
    "pref": "奈良県",
    "city": "平群町",
    "category": "day_service",
    "serviceType": "通所介護",
    "capacity": 0,
    "openDays": [
      "平日",
      "土曜日",
      "祝日"
    ],
    "openDaysNote": ""
  },
  {
    "id": "2971400441",
    "name": "デイサービスセンターくまがし",
    "kana": "デイサービスセンタークマガシ",
    "address": "奈良県生駒郡平群町椿井244特別養護老人ホーム第二グレースの里 特別養護老人ホーム第二グレースの里",
    "lat": 34.6167090804375,
    "lng": 135.707954641,
    "tel": "0745-46-2383",
    "url": "http://shinaikai.net",
    "pref": "奈良県",
    "city": "平群町",
    "category": "day_service",
    "serviceType": "通所介護",
    "capacity": 30,
    "openDays": [
      "平日",
      "土曜日",
      "祝日"
    ],
    "openDaysNote": ""
  },
  {
    "id": "2971400490",
    "name": "リハビリデイサービス　春の空",
    "kana": "リハビリデイサービス　ハルノソラ",
    "address": "奈良県生駒郡平群町北信貴ヶ丘1丁目2-29",
    "lat": 34.6126308995658,
    "lng": 135.707128906221,
    "tel": "0745-27-2660",
    "url": "rehabili-harunosora.com",
    "pref": "奈良県",
    "city": "平群町",
    "category": "day_service",
    "serviceType": "通所介護",
    "capacity": 0,
    "openDays": [
      "平日",
      "土曜日",
      "祝日"
    ],
    "openDaysNote": ""
  },
  {
    "id": "2971400029",
    "name": "社会福祉法人平群町社会福祉協議会",
    "kana": "シャカイフクシホウジンヘグリチョウシャカイフクシキョウギカイ",
    "address": "生駒郡平群町西宮2-1-6",
    "lat": 34.6200304,
    "lng": 135.7051983,
    "tel": "0745-45-8099",
    "url": "http://www.heguri-shakyo.jp",
    "pref": "奈良県",
    "city": "平群町",
    "category": "day_service",
    "serviceType": "通所介護",
    "capacity": 0,
    "openDays": [
      "平日",
      "祝日"
    ],
    "openDaysNote": ""
  },
  {
    "id": "2972800151",
    "name": "ケアヴィレッジおてんとさん",
    "kana": "ケアヴィレッジオテントサン",
    "address": "奈良県高市郡明日香村大字岡62-1",
    "lat": 34.4712512,
    "lng": 135.8211318,
    "tel": "0744-55-0057",
    "url": "https://otentsun.mystrikingly.com",
    "pref": "奈良県",
    "city": "明日香村",
    "category": "day_service",
    "serviceType": "通所介護",
    "capacity": null,
    "openDays": [
      "平日",
      "土曜日",
      "日曜日",
      "祝日"
    ],
    "openDaysNote": ""
  },
  {
    "id": "2972800052",
    "name": "デイサービスセンターあすかの里",
    "kana": "デイサービスセンターアスカノサト",
    "address": "奈良県高市郡明日香村大字越280番地特別養護老人ホームあすかの里 特別養護老人ホームあすかの里",
    "lat": 34.465667,
    "lng": 135.7951547,
    "tel": "0744-54-5577",
    "url": "http://asukarakuen.jp",
    "pref": "奈良県",
    "city": "明日香村",
    "category": "day_service",
    "serviceType": "通所介護",
    "capacity": 0,
    "openDays": [
      "平日",
      "土曜日",
      "祝日"
    ],
    "openDaysNote": ""
  },
  {
    "id": "2972800011",
    "name": "特別養護老人ホームあまがし苑",
    "kana": "トクベツヨウゴロウジンホ-ムアマガシエン",
    "address": "奈良県高市郡明日香村大字栗原421番地2",
    "lat": 34.455988,
    "lng": 135.8062651,
    "tel": "0744-54-5454",
    "url": "http://www.amagashien.com",
    "pref": "奈良県",
    "city": "明日香村",
    "category": "day_service",
    "serviceType": "通所介護",
    "capacity": null,
    "openDays": [
      "平日",
      "土曜日",
      "祝日"
    ],
    "openDaysNote": ""
  }
]