[
  {
    "id": "4570900276",
    "name": "さくら苑京町デイサービス",
    "kana": "サクラエンキョウマチデイサービス",
    "address": "宮崎県えびの市島内６２７番地",
    "lat": 32.0573309,
    "lng": 130.7771211,
    "tel": "0984-21-7007",
    "url": "https://kyk.or.jp",
    "pref": "宮崎県",
    "city": "えびの市",
    "category": "day_service",
    "serviceType": "通所介護",
    "capacity": 0,
    "openDays": [
      "平日",
      "土曜日",
      "祝日"
    ],
    "openDaysNote": ""
  },
  {
    "id": "4570900326",
    "name": "さくら苑新館デイサービス",
    "kana": "サクラエンシンカンデイサービス",
    "address": "宮崎県えびの市大字大河平4633-10",
    "lat": 32.0408058,
    "lng": 130.9113907,
    "tel": "0984-27-3137",
    "url": "https://kyk.or.jp",
    "pref": "宮崎県",
    "city": "えびの市",
    "category": "day_service",
    "serviceType": "通所介護",
    "capacity": 0,
    "openDays": [
      "平日",
      "土曜日",
      "祝日"
    ],
    "openDaysNote": ""
  },
  {
    "id": "4570900151",
    "name": "シルバーケアステーションほうよう",
    "kana": "シルバーケアステーションホウヨウ",
    "address": "宮崎県えびの市大字原田2216-10",
    "lat": 32.0308362,
    "lng": 130.8700308,
    "tel": "0984-25-3311",
    "url": "https://www.keiwakai-hoyo.com",
    "pref": "宮崎県",
    "city": "えびの市",
    "category": "day_service",
    "serviceType": "通所介護",
    "capacity": 29,
    "openDays": [
      "平日",
      "土曜日",
      "祝日"
    ],
    "openDaysNote": ""
  },
  {
    "id": "4570900086",
    "name": "加久藤デイサービスセンター",
    "kana": "カクトウデイサービスセンター",
    "address": "宮崎県えびの市大字西郷字大溝原６４８－２",
    "lat": 32.0407332920684,
    "lng": 130.792342601978,
    "tel": "0984-35-1282",
    "url": "",
    "pref": "宮崎県",
    "city": "えびの市",
    "category": "day_service",
    "serviceType": "通所介護",
    "capacity": 0,
    "openDays": [
      "平日",
      "土曜日",
      "祝日"
    ],
    "openDaysNote": ""
  },
  {
    "id": "4571901083",
    "name": "デイサービスひなた",
    "kana": "デイサービスヒナタ",
    "address": "宮崎県東諸県郡綾町大字南俣622-3",
    "lat": 31.9968984977553,
    "lng": 131.25223062209,
    "tel": "0985-77-2202",
    "url": "",
    "pref": "宮崎県",
    "city": "綾町",
    "category": "day_service",
    "serviceType": "通所介護",
    "capacity": 0,
    "openDays": [
      "平日",
      "土曜日",
      "祝日"
    ],
    "openDaysNote": ""
  },
  {
    "id": "4571900135",
    "name": "社会福祉法人綾町社会福祉協議会綾町デイサービスセンター",
    "kana": "シャカイフクシホウジンアヤチョウシャカイフクシキョウギカイアヤチョウデイサービスセンター",
    "address": "宮崎県東諸県郡綾町大字南俣553-1",
    "lat": 31.9948802,
    "lng": 131.2556291,
    "tel": "0985-77-2005",
    "url": "",
    "pref": "宮崎県",
    "city": "綾町",
    "category": "day_service",
    "serviceType": "通所介護",
    "capacity": 35,
    "openDays": [
      "平日",
      "土曜日",
      "祝日"
    ],
    "openDaysNote": ""
  },
  {
    "id": "4572100339",
    "name": "きたがわ荘指定通所介護事業所",
    "kana": "キタガワソウシテイツウショカイゴジギョウショ",
    "address": "宮崎県延岡市北川町長井5565-8",
    "lat": 32.6654257,
    "lng": 131.7047374,
    "tel": "0982-46-3061",
    "url": "http://www.kitagawa-houjukai.com",
    "pref": "宮崎県",
    "city": "延岡市",
    "category": "day_service",
    "serviceType": "通所介護",
    "capacity": 0,
    "openDays": [
      "平日",
      "土曜日",
      "祝日"
    ],
    "openDaysNote": ""
  },
  {
    "id": "4570301442",
    "name": "グランドヒルデイサービス",
    "kana": "グランドヒルデイサービス",
    "address": "宮崎県延岡市鶴ヶ丘2丁目2002番地2グランドヒル鶴ヶ丘 グランドヒル鶴ヶ丘",
    "lat": 32.5448484,
    "lng": 131.6707943,
    "tel": "0982-20-7111",
    "url": "",
    "pref": "宮崎県",
    "city": "延岡市",
    "category": "day_service",
    "serviceType": "通所介護",
    "capacity": 0,
    "openDays": [
      "平日",
      "土曜日",
      "日曜日",
      "祝日"
    ],
    "openDaysNote": ""
  },
  {
    "id": "4570302945",
    "name": "コンパスウォーク延岡塩浜",
    "kana": "コンパスウォークノベオカシオハマ",
    "address": "宮崎県延岡市塩浜町3丁目1795-3",
    "lat": 32.5396522,
    "lng": 131.674412,
    "tel": "0982-20-0390",
    "url": "http://tofuku-g.jp/",
    "pref": "宮崎県",
    "city": "延岡市",
    "category": "day_service",
    "serviceType": "通所介護",
    "capacity": 0,
    "openDays": [
      "平日",
      "祝日"
    ],
    "openDaysNote": ""
  },
  {
    "id": "4570302879",
    "name": "コンパスウォーク延岡富美山",
    "kana": "コンパスウォークノベオカトミヤマ",
    "address": "宮崎県延岡市富美山町151番地1",
    "lat": 32.5970646,
    "lng": 131.6642222,
    "tel": "0982-29-2101",
    "url": "http://tofuku-g.jp",
    "pref": "宮崎県",
    "city": "延岡市",
    "category": "day_service",
    "serviceType": "通所介護",
    "capacity": null,
    "openDays": [
      "平日"
    ],
    "openDaysNote": ""
  },
  {
    "id": "4570301210",
    "name": "サンハート延岡デイサービスセンター",
    "kana": "サンハートノベオカデイサービスセンター",
    "address": "宮崎県延岡市浜町５０９０番地",
    "lat": 32.5603888,
    "lng": 131.6793735,
    "tel": "0982-31-3050",
    "url": "",
    "pref": "宮崎県",
    "city": "延岡市",
    "category": "day_service",
    "serviceType": "通所介護",
    "capacity": 65,
    "openDays": [
      "平日",
      "土曜日",
      "日曜日",
      "祝日"
    ],
    "openDaysNote": "なし"
  },
  {
    "id": "4570302820",
    "name": "だんだん東桜ケ丘デイサービス",
    "kana": "ダンダンヒガシサクラガオカデイサービス",
    "address": "宮崎県延岡市稲葉崎町5丁目7421-15",
    "lat": 32.6152649,
    "lng": 131.6712072,
    "tel": "0982-32-5650",
    "url": "https://dandans.8wixsite.com/dandan",
    "pref": "宮崎県",
    "city": "延岡市",
    "category": "day_service",
    "serviceType": "通所介護",
    "capacity": 0,
    "openDays": [
      "平日",
      "土曜日",
      "日曜日",
      "祝日"
    ],
    "openDaysNote": "年中無休で営業しています。"
  },
  {
    "id": "4570301814",
    "name": "でいさーびす　かのん　かのん",
    "kana": "デイサービス　カノン　花音",
    "address": "宮崎県延岡市平原町１丁目８５３番地3",
    "lat": 32.5549655454077,
    "lng": 131.674128941734,
    "tel": "0982-29-2823",
    "url": "",
    "pref": "宮崎県",
    "city": "延岡市",
    "category": "day_service",
    "serviceType": "通所介護",
    "capacity": 28,
    "openDays": [
      "平日",
      "土曜日",
      "祝日"
    ],
    "openDaysNote": ""
  },
  {
    "id": "4570302044",
    "name": "デイサービス　広洋園",
    "kana": "デイサービス　コウヨウエン",
    "address": "恒富町3丁目7番地3",
    "lat": 32.5685064,
    "lng": 131.661952,
    "tel": "0982-28-0084",
    "url": "",
    "pref": "宮崎県",
    "city": "延岡市",
    "category": "day_service",
    "serviceType": "通所介護",
    "capacity": 0,
    "openDays": [
      "平日",
      "土曜日",
      "祝日"
    ],
    "openDaysNote": ""
  },
  {
    "id": "4570301632",
    "name": "デイサービスあくた東海店",
    "kana": "デイサービスアクタトウミテン",
    "address": "延岡市無鹿町1丁目2148",
    "lat": 32.6094572,
    "lng": 131.6844788,
    "tel": "0982-28-0055",
    "url": "https://kaihou-g.jp/",
    "pref": "宮崎県",
    "city": "延岡市",
    "category": "day_service",
    "serviceType": "通所介護",
    "capacity": 0,
    "openDays": [
      "平日",
      "土曜日",
      "祝日"
    ],
    "openDaysNote": "お盆期間中１日、年末年始"
  },
  {
    "id": "4570302713",
    "name": "デイサービスあくた南店",
    "kana": "デイサービスアクタ南店",
    "address": "宮崎県延岡市下伊形町2番地３３４",
    "lat": 32.5252332,
    "lng": 131.6750934,
    "tel": "0982-23-8003",
    "url": "https://ds-acta.com/",
    "pref": "宮崎県",
    "city": "延岡市",
    "category": "day_service",
    "serviceType": "通所介護",
    "capacity": 0,
    "openDays": [
      "平日",
      "祝日"
    ],
    "openDaysNote": "お盆期間中に1日休み（年度により、休み日は変動）（改行）年末年始は休み（12月30日～1月3日まで）"
  },
  {
    "id": "4570300956",
    "name": "デイサービスセンター「あまみや」",
    "kana": "デイサービスセンター「アマミヤ」",
    "address": "宮崎県延岡市野地町1丁目4070－1",
    "lat": 32.573797,
    "lng": 131.6433949,
    "tel": "0982-33-0598",
    "url": "http://www.yu-ryu.co.jp",
    "pref": "宮崎県",
    "city": "延岡市",
    "category": "day_service",
    "serviceType": "通所介護",
    "capacity": 0,
    "openDays": [
      "平日",
      "土曜日",
      "祝日"
    ],
    "openDaysNote": "その他の休日　12/31～1/1変更あり"
  },
  {
    "id": "4570301699",
    "name": "デイサービスセンター「なないろ」",
    "kana": "デイサービスセンター「ナナイロ」",
    "address": "延岡市山下町2丁目3998-67",
    "lat": 32.5919718682717,
    "lng": 131.667038234531,
    "tel": "0982-29-2301",
    "url": "",
    "pref": "宮崎県",
    "city": "延岡市",
    "category": "day_service",
    "serviceType": "通所介護",
    "capacity": 0,
    "openDays": [
      "平日",
      "土曜日",
      "祝日"
    ],
    "openDaysNote": "年末年始休館日　12月31日～1月1日（但し、事情により変更する場合がある）"
  },
  {
    "id": "4570300725",
    "name": "デイサービスセンターかぼちゃの家",
    "kana": "デイサービスセンターカボチャノイエ",
    "address": "宮崎県延岡市無鹿町2丁目3281番地",
    "lat": 32.609799,
    "lng": 131.6914644,
    "tel": "0982-31-0824",
    "url": "",
    "pref": "宮崎県",
    "city": "延岡市",
    "category": "day_service",
    "serviceType": "通所介護",
    "capacity": 25,
    "openDays": [
      "平日",
      "土曜日",
      "祝日"
    ],
    "openDaysNote": "利用時間は相談に応じます.（改行）利用時間・送迎時間は相談に応じます。"
  },
  {
    "id": "4570302663",
    "name": "デイサービスセンターきたかた",
    "kana": "デイサービスセンター　キタカタ",
    "address": "宮崎県延岡市北方町角田丑１３６９－９０有料老人ホーム　きたかた内 有料老人ホーム　きたかた内",
    "lat": 32.5591346,
    "lng": 131.5298133,
    "tel": "0982－28－5064",
    "url": "",
    "pref": "宮崎県",
    "city": "延岡市",
    "category": "day_service",
    "serviceType": "通所介護",
    "capacity": 30,
    "openDays": [
      "平日",
      "土曜日",
      "日曜日",
      "祝日"
    ],
    "openDaysNote": ""
  },
  {
    "id": "4570301129",
    "name": "デイサービスセンターこのみの郷",
    "kana": "デイサービスセンターコノミノサト",
    "address": "宮崎県延岡市三須町1221番地",
    "lat": 32.558157,
    "lng": 131.6483703,
    "tel": "0982-32-2022",
    "url": "http://www.adoniskaigo.com/",
    "pref": "宮崎県",
    "city": "延岡市",
    "category": "day_service",
    "serviceType": "通所介護",
    "capacity": 702,
    "openDays": [
      "平日",
      "土曜日",
      "祝日"
    ],
    "openDaysNote": ""
  },
  {
    "id": "4572100669",
    "name": "デイサービスセンターひまわり",
    "kana": "デイサービスセンターヒマワリ",
    "address": "宮崎県延岡市北川町川内名8307番地",
    "lat": 32.7169295726132,
    "lng": 131.661447062723,
    "tel": "0982-46-3470",
    "url": "http://himawari-nobeoka.com/",
    "pref": "宮崎県",
    "city": "延岡市",
    "category": "day_service",
    "serviceType": "通所介護",
    "capacity": 30,
    "openDays": [
      "平日",
      "土曜日",
      "祝日"
    ],
    "openDaysNote": "なし"
  },
  {
    "id": "4570302168",
    "name": "デイサービスセンターリラケア",
    "kana": "デイサービスセンターリラケア",
    "address": "小野町４６６３番１",
    "lat": 32.5458314430274,
    "lng": 131.649246520884,
    "tel": "０９８２－２７－４６１８",
    "url": "",
    "pref": "宮崎県",
    "city": "延岡市",
    "category": "day_service",
    "serviceType": "通所介護",
    "capacity": 30,
    "openDays": [
      "平日",
      "土曜日",
      "祝日"
    ],
    "openDaysNote": ""
  },
  {
    "id": "4570302887",
    "name": "デイサービスセンター元気の里　延岡館",
    "kana": "デイサービスセンターゲンキノサト　ノベオカカン",
    "address": "延岡市小峰町6964番地",
    "lat": 32.5820009,
    "lng": 131.628116,
    "tel": "0982-38-0012",
    "url": "http://www.sun3.jp/genki-nobeoka/",
    "pref": "宮崎県",
    "city": "延岡市",
    "category": "day_service",
    "serviceType": "通所介護",
    "capacity": 0,
    "openDays": [
      "平日",
      "土曜日",
      "祝日"
    ],
    "openDaysNote": ""
  },
  {
    "id": "4570302341",
    "name": "デイサービスふるかわ",
    "kana": "デイサービスフルカワ",
    "address": "宮崎県延岡市古川町３７７番地",
    "lat": 32.589777,
    "lng": 131.653632,
    "tel": "0982-20-5688",
    "url": "",
    "pref": "宮崎県",
    "city": "延岡市",
    "category": "day_service",
    "serviceType": "通所介護",
    "capacity": 31,
    "openDays": [
      "平日",
      "土曜日",
      "祝日"
    ],
    "openDaysNote": ""
  },
  {
    "id": "4570302101",
    "name": "デイサービス花てまり",
    "kana": "デイサービスハナテマリ",
    "address": "宮崎県延岡市土々呂町５丁目２３７８番地１サービス付き高齢者向け住宅　花みずき　同一建物内 サービス付き高齢者向け住宅　花みずき　同一建物内",
    "lat": 32.5064106317086,
    "lng": 131.670444493254,
    "tel": "０９８２－２０－７８７３",
    "url": "http://miyaharakaigo.co.jp/",
    "pref": "宮崎県",
    "city": "延岡市",
    "category": "day_service",
    "serviceType": "通所介護",
    "capacity": 25,
    "openDays": [
      "平日",
      "土曜日",
      "日曜日",
      "祝日"
    ],
    "openDaysNote": ""
  },
  {
    "id": "4570303117",
    "name": "デイサービス広洋園",
    "kana": "デイサービスコウヨウエン",
    "address": "宮崎県延岡市恒富町３丁目７番地３",
    "lat": 32.5682119,
    "lng": 131.6619313,
    "tel": "0982-28-0084",
    "url": "",
    "pref": "宮崎県",
    "city": "延岡市",
    "category": "day_service",
    "serviceType": "通所介護",
    "capacity": null,
    "openDays": [
      "平日",
      "土曜日",
      "祝日"
    ],
    "openDaysNote": ""
  },
  {
    "id": "4570302192",
    "name": "デイサービス桜華",
    "kana": "デイサービスオウカ",
    "address": "宮崎県延岡市恒富町3丁目5番地6",
    "lat": 32.5688175,
    "lng": 131.662602,
    "tel": "0982-28-0022",
    "url": "",
    "pref": "宮崎県",
    "city": "延岡市",
    "category": "day_service",
    "serviceType": "通所介護",
    "capacity": 25,
    "openDays": [
      "平日",
      "土曜日",
      "祝日"
    ],
    "openDaysNote": ""
  },
  {
    "id": "4570303133",
    "name": "デイサービス桜華",
    "kana": "ディサービスオウカ",
    "address": "宮崎県延岡市恒富町3丁目5番地6",
    "lat": 32.5683519,
    "lng": 131.6624816,
    "tel": "0982-28-0022",
    "url": "",
    "pref": "宮崎県",
    "city": "延岡市",
    "category": "day_service",
    "serviceType": "通所介護",
    "capacity": null,
    "openDays": [
      "平日",
      "土曜日",
      "祝日"
    ],
    "openDaysNote": ""
  },
  {
    "id": "4570301194",
    "name": "デイサービス城山",
    "kana": "デイサービスシロヤマ",
    "address": "宮崎県延岡市南町２丁目１－１０",
    "lat": 32.5810224,
    "lng": 131.6659566,
    "tel": "0982-22-1000",
    "url": "",
    "pref": "宮崎県",
    "city": "延岡市",
    "category": "day_service",
    "serviceType": "通所介護",
    "capacity": 20,
    "openDays": [
      "平日",
      "土曜日"
    ],
    "openDaysNote": ""
  },
  {
    "id": "4570301731",
    "name": "デイサービス萩",
    "kana": "デイサービスハギ",
    "address": "宮崎県延岡市萩町６２番地",
    "lat": 32.5916025,
    "lng": 131.6722834,
    "tel": "0982-26-7000",
    "url": "",
    "pref": "宮崎県",
    "city": "延岡市",
    "category": "day_service",
    "serviceType": "通所介護",
    "capacity": 0,
    "openDays": [
      "平日",
      "土曜日",
      "日曜日",
      "祝日"
    ],
    "openDaysNote": ""
  },
  {
    "id": "4570300402",
    "name": "ニチイケアセンター延岡",
    "kana": "ニチイケアセンターノベオカ",
    "address": "宮崎県延岡市古城町４丁目１４０番地",
    "lat": 32.5663953,
    "lng": 131.6566608,
    "tel": "0982-26-8837",
    "url": "http://www.nichiigakkan.co.jp",
    "pref": "宮崎県",
    "city": "延岡市",
    "category": "day_service",
    "serviceType": "通所介護",
    "capacity": 0,
    "openDays": [
      "平日",
      "土曜日",
      "日曜日",
      "祝日"
    ],
    "openDaysNote": "居宅サービス計画により、休業日及び営業時間外であってもサービスを提供する場合があります。"
  },
  {
    "id": "4570300071",
    "name": "ふれあいの里デイサービス",
    "kana": "フレアイノサトデイサービス",
    "address": "宮崎県延岡市沖田町2240-1",
    "lat": 32.5412653,
    "lng": 131.6689002,
    "tel": "0982-35-0058",
    "url": "http://www.heart-fureai.jp",
    "pref": "宮崎県",
    "city": "延岡市",
    "category": "day_service",
    "serviceType": "通所介護",
    "capacity": 40,
    "openDays": [
      "平日",
      "土曜日",
      "祝日"
    ],
    "openDaysNote": ""
  },
  {
    "id": "4570300238",
    "name": "みのり園指定通所介護事業所",
    "kana": "ミノリエンシテイツウショカイゴジギョウショ",
    "address": "宮崎県延岡市岡元町789番地3",
    "lat": 32.5667109,
    "lng": 131.562837,
    "tel": "0982-39-0592",
    "url": "",
    "pref": "宮崎県",
    "city": "延岡市",
    "category": "day_service",
    "serviceType": "通所介護",
    "capacity": 0,
    "openDays": [
      "平日",
      "土曜日",
      "日曜日",
      "祝日"
    ],
    "openDaysNote": "・年末に年末年始の利用の有無を文書にて確認し利用希望者の人数によって年始の営業、休業を決定"
  },
  {
    "id": "4570302085",
    "name": "医療法人久康会　通所介護　S-Beach倶楽部",
    "kana": "イリョウホウジンキュウコウカイ　ツウショカイゴ　エスビーチクラブ",
    "address": "宮崎県延岡市塩浜町４丁目1640-23リサーチパーク向洋台 リサーチパーク向洋台",
    "lat": 32.5383937,
    "lng": 131.6774856,
    "tel": "0982-28-0015",
    "url": "http://kyukoukai.or.jp/publics/index/49/",
    "pref": "宮崎県",
    "city": "延岡市",
    "category": "day_service",
    "serviceType": "通所介護",
    "capacity": 45,
    "openDays": [
      "平日",
      "土曜日",
      "祝日"
    ],
    "openDaysNote": "年末年始等で利用希望がない場合は休み。"
  },
  {
    "id": "4570300345",
    "name": "延岡市東海デイサービスセンター",
    "kana": "ノベオカシトウミデイサービスセンター",
    "address": "宮崎県延岡市無鹿町１丁目２０３１番地５",
    "lat": 32.6141662872848,
    "lng": 131.68322939238,
    "tel": "0982-32-5688",
    "url": "http://www.mitubakai.jp/kaedesou",
    "pref": "宮崎県",
    "city": "延岡市",
    "category": "day_service",
    "serviceType": "通所介護",
    "capacity": 0,
    "openDays": [
      "平日",
      "土曜日",
      "祝日"
    ],
    "openDaysNote": ""
  },
  {
    "id": "4570302440",
    "name": "延岡文化村　梅の驛",
    "kana": "ノベオカブンカムラ　ウメノエキ",
    "address": "宮崎県延岡市恒富町2丁目13-1",
    "lat": 32.5704622868823,
    "lng": 131.661096600052,
    "tel": "0982-29-3221",
    "url": "http://oidenosato.zashiki.com/",
    "pref": "宮崎県",
    "city": "延岡市",
    "category": "day_service",
    "serviceType": "通所介護",
    "capacity": 0,
    "openDays": [
      "平日",
      "土曜日",
      "日曜日",
      "祝日"
    ],
    "openDaysNote": "通常の祭日は営業します、年末12月31日・年始1月1日2日3日はお休みになります。"
  },
  {
    "id": "4570300246",
    "name": "岡富デイサービス",
    "kana": "オカトミデイサービス",
    "address": "宮崎県延岡市中川原町2丁目4591番地２",
    "lat": 32.5946522,
    "lng": 131.6714166,
    "tel": "0982-21-8570",
    "url": "http://emu-emukai.jp",
    "pref": "宮崎県",
    "city": "延岡市",
    "category": "day_service",
    "serviceType": "通所介護",
    "capacity": 0,
    "openDays": [
      "平日",
      "土曜日",
      "祝日"
    ],
    "openDaysNote": ""
  },
  {
    "id": "4570302200",
    "name": "株式会社サン・ルーム　デイサービスみなみかた",
    "kana": "カブシキカイシャサン・ルーム　デイサービスミナミカタ",
    "address": "宮崎県延岡市松山町1221-33",
    "lat": 32.5830906,
    "lng": 131.6362366,
    "tel": "0982-32-0603",
    "url": "https://sunroom-kaigo.com",
    "pref": "宮崎県",
    "city": "延岡市",
    "category": "day_service",
    "serviceType": "通所介護",
    "capacity": 30,
    "openDays": [
      "平日",
      "土曜日",
      "祝日"
    ],
    "openDaysNote": ""
  },
  {
    "id": "4570302689",
    "name": "株式会社サン・ルーム　デイサービス干支の里",
    "kana": "カブシキカイシャサン・ルームデイサービスエトノサト",
    "address": "宮崎県延岡市北方町早中巳909-1",
    "lat": 32.6030383,
    "lng": 131.4809807,
    "tel": "0982-28-8001",
    "url": "http://care-net.biz/45/sun-room/company.php",
    "pref": "宮崎県",
    "city": "延岡市",
    "category": "day_service",
    "serviceType": "通所介護",
    "capacity": null,
    "openDays": [
      "平日",
      "土曜日",
      "祝日"
    ],
    "openDaysNote": ""
  },
  {
    "id": "4570300253",
    "name": "敬寿園デイサービスセンター",
    "kana": "ケイジュエンデイサービスセンター",
    "address": "宮崎県延岡市桜小路３５６番地１１",
    "lat": 32.5784002,
    "lng": 131.6637041,
    "tel": "0982-35-0395",
    "url": "//kousei-kai.jp/",
    "pref": "宮崎県",
    "city": "延岡市",
    "category": "day_service",
    "serviceType": "通所介護",
    "capacity": 0,
    "openDays": [
      "平日",
      "土曜日",
      "祝日"
    ],
    "openDaysNote": ""
  },
  {
    "id": "4572100461",
    "name": "社会福祉法人延岡市社会福祉協議会北方デイサービスセンター",
    "kana": "シャカイフクシホウジンノベオカシシャカイフクシキョウギカイキタカタデイサービスセンター",
    "address": "宮崎県延岡市北方町川水流卯１４２０番地",
    "lat": 32.5592373,
    "lng": 131.5218376,
    "tel": "0982-47-2260",
    "url": "http://www.nobesha.net",
    "pref": "宮崎県",
    "city": "延岡市",
    "category": "day_service",
    "serviceType": "通所介護",
    "capacity": 2,
    "openDays": [
      "平日",
      "祝日"
    ],
    "openDaysNote": ""
  },
  {
    "id": "4570301483",
    "name": "大貫デイサービス",
    "kana": "オオヌキデイサービス",
    "address": "宮崎県延岡市大貫町５丁目１７１３番地",
    "lat": 32.568344319461,
    "lng": 131.649035578821,
    "tel": "0982-20-5505",
    "url": "http://www.tokyu.from.tv/riverside/",
    "pref": "宮崎県",
    "city": "延岡市",
    "category": "day_service",
    "serviceType": "通所介護",
    "capacity": 75,
    "openDays": [
      "平日",
      "土曜日",
      "祝日"
    ],
    "openDaysNote": ""
  },
  {
    "id": "4570302986",
    "name": "通所介護　くしつの庭",
    "kana": "ツウショカイゴ　クシツノニワ",
    "address": "土々呂町６丁目１７７６－２",
    "lat": 32.505315,
    "lng": 131.6727961,
    "tel": "0982-40-6062",
    "url": "https://www.big-advance.site/c/184/1733",
    "pref": "宮崎県",
    "city": "延岡市",
    "category": "day_service",
    "serviceType": "通所介護",
    "capacity": null,
    "openDays": [
      "平日",
      "土曜日",
      "祝日"
    ],
    "openDaysNote": ""
  },
  {
    "id": "4570302960",
    "name": "通所介護事業所　櫻",
    "kana": "ツウショカイゴジギョウショ　サクラ",
    "address": "宮崎県延岡市下伊形町5972-1",
    "lat": 32.5261346828211,
    "lng": 131.673145186508,
    "tel": "0982-37-6211",
    "url": "https://care-line.jp/sakura-syouwamachi/",
    "pref": "宮崎県",
    "city": "延岡市",
    "category": "day_service",
    "serviceType": "通所介護",
    "capacity": null,
    "openDays": [
      "平日",
      "土曜日",
      "祝日"
    ],
    "openDaysNote": ""
  },
  {
    "id": "4570300139",
    "name": "特別養護老人ホーム水明荘",
    "kana": "トクベツヨウゴロウジンホームスイメイソウ",
    "address": "宮崎県延岡市鯛名町908-1",
    "lat": 32.5064888,
    "lng": 131.6955461,
    "tel": "0982-37-7731",
    "url": "http:kousei-kai.jp/",
    "pref": "宮崎県",
    "city": "延岡市",
    "category": "day_service",
    "serviceType": "通所介護",
    "capacity": 0,
    "openDays": [
      "平日",
      "土曜日",
      "祝日"
    ],
    "openDaysNote": ""
  },
  {
    "id": "4570302291",
    "name": "有限会社　はーと介護",
    "kana": "ユウゲンカイシャハートカイゴ",
    "address": "古川町５０番地５",
    "lat": 32.5868101,
    "lng": 131.6434302,
    "tel": "0982-26-0008",
    "url": "http://www.kaigo@heartcare.link",
    "pref": "宮崎県",
    "city": "延岡市",
    "category": "day_service",
    "serviceType": "通所介護",
    "capacity": 0,
    "openDays": [
      "平日"
    ],
    "openDaysNote": ""
  },
  {
    "id": "4570300824",
    "name": "有限会社ひだまりの家",
    "kana": "ユウゲンカイシャヒダマリノイエ",
    "address": "宮崎県延岡市川原崎町84番地1",
    "lat": 32.5915057,
    "lng": 131.6823939,
    "tel": "0982-23-9077",
    "url": "",
    "pref": "宮崎県",
    "city": "延岡市",
    "category": "day_service",
    "serviceType": "通所介護",
    "capacity": null,
    "openDays": [
      "平日",
      "土曜日",
      "祝日"
    ],
    "openDaysNote": "12月31日はサービス提供は14:00で終了します。"
  },
  {
    "id": "4570107229",
    "name": "ALIFEディサービスセンター月虹",
    "kana": "アライフディサービスセンターゲッコウ",
    "address": "宮崎県宮崎市大字恒久吉永1236番地住宅型有料老人ホーム月虹 住宅型有料老人ホーム月虹",
    "lat": 31.8873089,
    "lng": 131.4200732,
    "tel": "0985-41-5585",
    "url": "http://www.miyazakikaigo-gekkou.jp/",
    "pref": "宮崎県",
    "city": "宮崎市",
    "category": "day_service",
    "serviceType": "通所介護",
    "capacity": 0,
    "openDays": [
      "平日",
      "土曜日",
      "祝日"
    ],
    "openDaysNote": ""
  },
  {
    "id": "4570102584",
    "name": "あおしま優亜館",
    "kana": "アオシマユウアカン",
    "address": "宮崎県宮崎市大字加江田4910番地",
    "lat": 31.8127876,
    "lng": 131.4544828,
    "tel": "0985-55-4277",
    "url": "htt://a-yuakan.com/",
    "pref": "宮崎県",
    "city": "宮崎市",
    "category": "day_service",
    "serviceType": "通所介護",
    "capacity": 0,
    "openDays": [
      "平日",
      "土曜日",
      "日曜日",
      "祝日"
    ],
    "openDaysNote": ""
  },
  {
    "id": "4571500646",
    "name": "アリビオさくらデイサービス",
    "kana": "アリビオサクラデイサービス",
    "address": "宮崎県宮崎市清武町加納甲1318番地1",
    "lat": 31.8721445,
    "lng": 131.3898866,
    "tel": "0985-78-5111",
    "url": "http://tokueikai.lar.jp/",
    "pref": "宮崎県",
    "city": "宮崎市",
    "category": "day_service",
    "serviceType": "通所介護",
    "capacity": 25,
    "openDays": [
      "平日",
      "土曜日",
      "祝日"
    ],
    "openDaysNote": "なし"
  },
  {
    "id": "4570107443",
    "name": "カーリハ＆菜園デイ　みなみ",
    "kana": "カーリハアンドサイエンデイ　ミナミ",
    "address": "宮崎県宮崎市大字島之内３５３５番地２",
    "lat": 32.0010491895902,
    "lng": 131.442453063615,
    "tel": "0985-39-5522",
    "url": "http://minamikyusyu-car.main.jp/carReha/",
    "pref": "宮崎県",
    "city": "宮崎市",
    "category": "day_service",
    "serviceType": "通所介護",
    "capacity": 20,
    "openDays": [
      "平日",
      "土曜日",
      "祝日"
    ],
    "openDaysNote": "年末年始休暇あり"
  },
  {
    "id": "4570100679",
    "name": "ケアトピアデイサービスセンター",
    "kana": "ケアトピアデイサービスセンター",
    "address": "宮崎県宮崎市大字郡司分丙９２７３番地",
    "lat": 31.86443,
    "lng": 131.4158964,
    "tel": "0985-65-3115",
    "url": "http://www.care.or.jp",
    "pref": "宮崎県",
    "city": "宮崎市",
    "category": "day_service",
    "serviceType": "通所介護",
    "capacity": 30,
    "openDays": [
      "平日",
      "土曜日",
      "祝日"
    ],
    "openDaysNote": "年末年始については暦により変更ある場合あり。"
  },
  {
    "id": "4570103806",
    "name": "この気なんの気　住吉センター",
    "kana": "コノキナンノキ　スミヨシセンター",
    "address": "宮崎県宮崎市大字塩路字大久保535-1",
    "lat": 31.972663,
    "lng": 131.462675,
    "tel": "0985-36-3601",
    "url": "http://www.konoki.co.jp",
    "pref": "宮崎県",
    "city": "宮崎市",
    "category": "day_service",
    "serviceType": "通所介護",
    "capacity": 0,
    "openDays": [
      "平日",
      "土曜日",
      "日曜日",
      "祝日"
    ],
    "openDaysNote": "サービス提供時間は９時００分～１６時３０分で、延長利用も可能です。"
  },
  {
    "id": "4570109803",
    "name": "コモン久峰",
    "kana": "コモンヒサミネ",
    "address": "宮崎県宮崎市佐土原町下那珂４５１８－４０３",
    "lat": 32.0281088,
    "lng": 131.4299391,
    "tel": "０９８５－７１－２５２９",
    "url": "https://commons-company.jimdofree.com",
    "pref": "宮崎県",
    "city": "宮崎市",
    "category": "day_service",
    "serviceType": "通所介護",
    "capacity": null,
    "openDays": [
      "平日"
    ],
    "openDaysNote": "お盆（8/13～8/15）・年末年始（12/30～1/3）休業"
  },
  {
    "id": "4570109605",
    "name": "コンパスウォーク宮崎島之内",
    "kana": "コンパスウォークミヤザキシマノウチ",
    "address": "宮崎市大字島之内10578‐17",
    "lat": 31.986575,
    "lng": 131.4649027,
    "tel": "0985‐33‐9880",
    "url": "http://tofuku-g.jp",
    "pref": "宮崎県",
    "city": "宮崎市",
    "category": "day_service",
    "serviceType": "通所介護",
    "capacity": null,
    "openDays": [
      "平日",
      "祝日"
    ],
    "openDaysNote": ""
  },
  {
    "id": "4570110413",
    "name": "こんふぉた",
    "kana": "コンフォタ",
    "address": "宮崎県宮崎市大字大瀬町３７９番地１",
    "lat": 31.9635821164384,
    "lng": 131.377515276938,
    "tel": "0985-41-5817",
    "url": "https://gcomfort2.wixsite.com/comfort",
    "pref": "宮崎県",
    "city": "宮崎市",
    "category": "day_service",
    "serviceType": "通所介護",
    "capacity": 5,
    "openDays": [
      "平日"
    ],
    "openDaysNote": ""
  },
  {
    "id": "4570109944",
    "name": "さくらんぼ",
    "kana": "サクランボ",
    "address": "宮﨑県宮崎市清武町大字木原下鶴5522番1",
    "lat": 31.8427715,
    "lng": 131.4062045,
    "tel": "0985（67）4052",
    "url": "",
    "pref": "宮崎県",
    "city": "宮崎市",
    "category": "day_service",
    "serviceType": "通所介護",
    "capacity": 0,
    "openDays": [
      "平日",
      "土曜日"
    ],
    "openDaysNote": ""
  },
  {
    "id": "4570108367",
    "name": "しおじデイサービスセンター",
    "kana": "シオジデイサービスセンター",
    "address": "大字塩路字江良ノ上2782-74",
    "lat": 31.9668194,
    "lng": 131.4657621,
    "tel": "0985-86-7100",
    "url": "",
    "pref": "宮崎県",
    "city": "宮崎市",
    "category": "day_service",
    "serviceType": "通所介護",
    "capacity": null,
    "openDays": [
      "平日",
      "祝日"
    ],
    "openDaysNote": ""
  },
  {
    "id": "4570102733",
    "name": "ツクイ宮崎吉村",
    "kana": "ツクイミヤザキヨシムラ",
    "address": "宮崎県宮崎市吉村町長田甲2344-1",
    "lat": 31.9231749,
    "lng": 131.4413279,
    "tel": "0985-35-2184",
    "url": "http//www.tsukui.net",
    "pref": "宮崎県",
    "city": "宮崎市",
    "category": "day_service",
    "serviceType": "通所介護",
    "capacity": 40,
    "openDays": [
      "平日",
      "土曜日",
      "日曜日",
      "祝日"
    ],
    "openDaysNote": "なし"
  },
  {
    "id": "4570104614",
    "name": "ツクイ宮崎天満橋",
    "kana": "ツクイミヤザキテンマンバシ",
    "address": "宮崎県宮崎市福島町3031-1",
    "lat": 31.9098585,
    "lng": 131.4033509,
    "tel": "0985-64-1588",
    "url": "http://www.tsukui.net",
    "pref": "宮崎県",
    "city": "宮崎市",
    "category": "day_service",
    "serviceType": "通所介護",
    "capacity": 30,
    "openDays": [
      "平日",
      "土曜日",
      "日曜日",
      "祝日"
    ],
    "openDaysNote": "年中無休"
  },
  {
    "id": "4570102790",
    "name": "ツクイ宮崎矢の先",
    "kana": "ツクイミヤザキヤノサキ",
    "address": "宮崎県宮崎市矢の先町20番地",
    "lat": 31.941067,
    "lng": 131.4208595,
    "tel": "0985-60-6589",
    "url": "http://www.tsuki.net/search",
    "pref": "宮崎県",
    "city": "宮崎市",
    "category": "day_service",
    "serviceType": "通所介護",
    "capacity": 35,
    "openDays": [
      "平日",
      "土曜日",
      "日曜日",
      "祝日"
    ],
    "openDaysNote": "365日稼動致しております。"
  },
  {
    "id": "4570105777",
    "name": "ﾃﾞｲｻｰﾋﾞｽｾﾝﾀｰはまゆう赤江",
    "kana": "デイサービスセンターハマユウアカエ",
    "address": "大字赤江1406-2",
    "lat": 31.8847596,
    "lng": 131.4497198,
    "tel": "0985-75-0088",
    "url": "http://hamayuu.com",
    "pref": "宮崎県",
    "city": "宮崎市",
    "category": "day_service",
    "serviceType": "通所介護",
    "capacity": 45,
    "openDays": [
      "平日",
      "土曜日",
      "日曜日",
      "祝日"
    ],
    "openDaysNote": "但し1月1日は、お休みとします。"
  },
  {
    "id": "4570106379",
    "name": "デイサービス　いちごの里",
    "kana": "デイサービス　イチゴノサト",
    "address": "新城町44",
    "lat": 31.9263161,
    "lng": 131.4386836,
    "tel": "0985-78-0015",
    "url": "https://ringo-ichigo.jp/",
    "pref": "宮崎県",
    "city": "宮崎市",
    "category": "day_service",
    "serviceType": "通所介護",
    "capacity": 45,
    "openDays": [
      "平日",
      "土曜日",
      "祝日"
    ],
    "openDaysNote": ""
  },
  {
    "id": "4570106429",
    "name": "デイサービス　さくらさん家",
    "kana": "デイサービス　サクラサンチ",
    "address": "宮崎市大字本郷北方2994番地",
    "lat": 31.8732421222515,
    "lng": 131.418983215344,
    "tel": "0985-52-3700",
    "url": "",
    "pref": "宮崎県",
    "city": "宮崎市",
    "category": "day_service",
    "serviceType": "通所介護",
    "capacity": 35,
    "openDays": [
      "平日",
      "土曜日",
      "祝日"
    ],
    "openDaysNote": ""
  },
  {
    "id": "4570108813",
    "name": "デイサービス　サニーサンデイ",
    "kana": "デイサービス　サニーサンデイ",
    "address": "宮崎県宮崎市大字浮田3321番地",
    "lat": 31.9279641,
    "lng": 131.378105,
    "tel": "0985－62－3281",
    "url": "http://www.okada-seikeigeka.com",
    "pref": "宮崎県",
    "city": "宮崎市",
    "category": "day_service",
    "serviceType": "通所介護",
    "capacity": 0,
    "openDays": [
      "平日",
      "土曜日",
      "祝日"
    ],
    "openDaysNote": ""
  },
  {
    "id": "4570107278",
    "name": "デイサービス　すずらん",
    "kana": "デイサービス　スズラン",
    "address": "清武町加納2丁目５１－３",
    "lat": 31.8720813331425,
    "lng": 131.397945207935,
    "tel": "０９８５－８５－６３９１",
    "url": "http://nttbj.itp.ne.jp/0985856006/",
    "pref": "宮崎県",
    "city": "宮崎市",
    "category": "day_service",
    "serviceType": "通所介護",
    "capacity": 0,
    "openDays": [
      "平日",
      "土曜日",
      "祝日"
    ],
    "openDaysNote": "但し、12月31日～1月1日は休日とする。"
  },
  {
    "id": "4570103764",
    "name": "デイサービス　そう・けん・び福島町",
    "kana": "デイサービス　ソウ・ケン・ビフクシマチョウ",
    "address": "宮崎県宮崎市福島町寺山3106-8",
    "lat": 31.9085487,
    "lng": 131.4033482,
    "tel": "0985-74-5010",
    "url": "http://sou-ken-bi.com",
    "pref": "宮崎県",
    "city": "宮崎市",
    "category": "day_service",
    "serviceType": "通所介護",
    "capacity": 37,
    "openDays": [
      "平日",
      "土曜日",
      "祝日"
    ],
    "openDaysNote": ""
  },
  {
    "id": "4570109076",
    "name": "デイサービス　ひびき",
    "kana": "デイサービス　ヒビキ",
    "address": "宮崎県宮崎市大塚町池ノ内1199番地",
    "lat": 31.9235081197129,
    "lng": 131.3937653569,
    "tel": "0985-72-3330",
    "url": "http://www.okada-seikeigeka.com",
    "pref": "宮崎県",
    "city": "宮崎市",
    "category": "day_service",
    "serviceType": "通所介護",
    "capacity": 30,
    "openDays": [
      "平日",
      "土曜日",
      "祝日"
    ],
    "openDaysNote": "なし"
  },
  {
    "id": "4570109852",
    "name": "デイサービス　ヒロト",
    "kana": "デイサービス　ヒロト",
    "address": "宮崎県宮崎市佐土原町下田島6989-11",
    "lat": 32.027296,
    "lng": 131.4512603,
    "tel": "0985-66-1245",
    "url": "",
    "pref": "宮崎県",
    "city": "宮崎市",
    "category": "day_service",
    "serviceType": "通所介護",
    "capacity": null,
    "openDays": [
      "平日"
    ],
    "openDaysNote": ""
  },
  {
    "id": "4570105991",
    "name": "デイサービス　ほほえみ",
    "kana": "デイサービス　ホホエミ",
    "address": "宮崎県宮崎市佐土原町下田島12183-3",
    "lat": 32.0332525,
    "lng": 131.4731928,
    "tel": "0985-30-1510",
    "url": "",
    "pref": "宮崎県",
    "city": "宮崎市",
    "category": "day_service",
    "serviceType": "通所介護",
    "capacity": 0,
    "openDays": [
      "平日",
      "土曜日",
      "祝日"
    ],
    "openDaysNote": ""
  },
  {
    "id": "4570107716",
    "name": "デイサービス　ルミナス江田原",
    "kana": "デイサービス　ルミナスエダバル",
    "address": "宮崎市吉村町江田原甲177番地1",
    "lat": 31.9321941326606,
    "lng": 131.441185890383,
    "tel": "0985-55-0311",
    "url": "",
    "pref": "宮崎県",
    "city": "宮崎市",
    "category": "day_service",
    "serviceType": "通所介護",
    "capacity": 30,
    "openDays": [
      "平日",
      "土曜日",
      "祝日"
    ],
    "openDaysNote": "正月1月1日～2日は休みになります。"
  },
  {
    "id": "4570106254",
    "name": "デイサービス　平和台の杜",
    "kana": "デイサービス　ヘイワダイノモリ",
    "address": "宮崎市下北方町塚原5711番地1",
    "lat": 31.9416139,
    "lng": 131.4103964,
    "tel": "0985－73－9534",
    "url": "",
    "pref": "宮崎県",
    "city": "宮崎市",
    "category": "day_service",
    "serviceType": "通所介護",
    "capacity": 0,
    "openDays": [
      "平日",
      "土曜日",
      "日曜日",
      "祝日"
    ],
    "openDaysNote": "1/1～1/3は休み"
  },
  {
    "id": "4570109266",
    "name": "デイサービス　陽のあたる場所",
    "kana": "デイサービスヒノアタルバショ",
    "address": "宮崎県宮崎市松橋1-4-8",
    "lat": 31.9102533,
    "lng": 131.419336,
    "tel": "0985-71-0451",
    "url": "https://yushin-wd.co.jp/company/",
    "pref": "宮崎県",
    "city": "宮崎市",
    "category": "day_service",
    "serviceType": "通所介護",
    "capacity": 24,
    "openDays": [
      "平日",
      "土曜日",
      "日曜日",
      "祝日"
    ],
    "openDaysNote": ""
  },
  {
    "id": "4570110249",
    "name": "デイサービスオアシスケア南宮崎",
    "kana": "デイサービスオアシスケアミナミミヤザアキ",
    "address": "大字恒久字上代1544-1",
    "lat": 31.8912351,
    "lng": 131.4087086,
    "tel": "0985-51-3839",
    "url": "kaigonomori.jp",
    "pref": "宮崎県",
    "city": "宮崎市",
    "category": "day_service",
    "serviceType": "通所介護",
    "capacity": null,
    "openDays": [
      "平日",
      "土曜日",
      "祝日"
    ],
    "openDaysNote": ""
  },
  {
    "id": "4570108011",
    "name": "デイサービスこさい",
    "kana": "デイサービスコサイ",
    "address": "宮崎県宮崎市大字島之内字野入６７３３番地住宅型有料老人ホームべにたけ荘 住宅型有料老人ホームべにたけ荘",
    "lat": 31.9842867865548,
    "lng": 131.448206019938,
    "tel": "0985-78-3115",
    "url": "",
    "pref": "宮崎県",
    "city": "宮崎市",
    "category": "day_service",
    "serviceType": "通所介護",
    "capacity": 0,
    "openDays": [
      "平日",
      "土曜日",
      "祝日"
    ],
    "openDaysNote": ""
  },
  {
    "id": "4570103814",
    "name": "デイサービスしらふじ",
    "kana": "デイサービスシラフジ",
    "address": "宮崎県宮崎市大字糸原400番地",
    "lat": 31.95795,
    "lng": 131.3686346,
    "tel": "0985-41-0012",
    "url": "http://www.ryoundo.or.jp/",
    "pref": "宮崎県",
    "city": "宮崎市",
    "category": "day_service",
    "serviceType": "通所介護",
    "capacity": 25,
    "openDays": [
      "平日",
      "土曜日",
      "祝日"
    ],
    "openDaysNote": ""
  },
  {
    "id": "4570107583",
    "name": "デイサービスステーションアルバ",
    "kana": "デイサービスステーションアルバ",
    "address": "宮崎県宮崎市大字小松1133番地カーサ・アルバ壱番館4階 カーサ・アルバ壱番館4階",
    "lat": 31.9355392,
    "lng": 131.4019474,
    "tel": "0985-62-3033",
    "url": "http://www.casa.junwakai.com/facility/",
    "pref": "宮崎県",
    "city": "宮崎市",
    "category": "day_service",
    "serviceType": "通所介護",
    "capacity": 0,
    "openDays": [
      "平日"
    ],
    "openDaysNote": "サービス提供時間は、9時20分～15時30分としております。"
  },
  {
    "id": "4570105223",
    "name": "デイサービスセンター　エリア宮崎",
    "kana": "デイサービスセンター　エリアミヤザキ",
    "address": "宮崎県宮崎市佐土原町下田島12219-136",
    "lat": 32.0372324,
    "lng": 131.4689762,
    "tel": "0985-64-8880",
    "url": "",
    "pref": "宮崎県",
    "city": "宮崎市",
    "category": "day_service",
    "serviceType": "通所介護",
    "capacity": 0,
    "openDays": [
      "平日",
      "祝日"
    ],
    "openDaysNote": ""
  },
  {
    "id": "4570108623",
    "name": "デイサービスセンター　ビオラ",
    "kana": "デイサービスセンター　ビオラ",
    "address": "宮崎県宮崎市下北方町常盤元997番地1",
    "lat": 31.9420849753836,
    "lng": 131.425989224095,
    "tel": "0985-82-7500",
    "url": "http://www.keimeisw.or.jp/",
    "pref": "宮崎県",
    "city": "宮崎市",
    "category": "day_service",
    "serviceType": "通所介護",
    "capacity": 0,
    "openDays": [
      "平日",
      "土曜日",
      "祝日"
    ],
    "openDaysNote": ""
  },
  {
    "id": "4570106007",
    "name": "デイサービスセンター　住吉ふれあいホーム",
    "kana": "デイサービスセンター　スミヨシフレアイホーム",
    "address": "宮崎市大字島之内字井手下7402番1",
    "lat": 31.9915666,
    "lng": 131.4617324,
    "tel": "0985-89-0208",
    "url": "http://www.keimeisw.or.jp",
    "pref": "宮崎県",
    "city": "宮崎市",
    "category": "day_service",
    "serviceType": "通所介護",
    "capacity": 0,
    "openDays": [
      "平日",
      "土曜日",
      "祝日"
    ],
    "openDaysNote": ""
  },
  {
    "id": "4570104374",
    "name": "デイサービスセンターあしあと",
    "kana": "デイサービスセンターアシアト",
    "address": "宮崎県宮崎市高岡町花見字向川原107-3",
    "lat": 31.9429671,
    "lng": 131.3370041,
    "tel": "0985-36-8081",
    "url": "http://www.genki0203.com/",
    "pref": "宮崎県",
    "city": "宮崎市",
    "category": "day_service",
    "serviceType": "通所介護",
    "capacity": 0,
    "openDays": [
      "平日",
      "土曜日",
      "祝日"
    ],
    "openDaysNote": "カレンダーによって変更がございます。"
  },
  {
    "id": "4570103228",
    "name": "デイサービスセンターうしたに",
    "kana": "デイサービスセンターウシタニ",
    "address": "宮崎市大字恒久宇西原5064番地",
    "lat": 31.8902251816218,
    "lng": 131.412788772894,
    "tel": "0985-50-6800",
    "url": "http://www.ushitani.com/",
    "pref": "宮崎県",
    "city": "宮崎市",
    "category": "day_service",
    "serviceType": "通所介護",
    "capacity": 40,
    "openDays": [
      "平日",
      "土曜日",
      "祝日"
    ],
    "openDaysNote": ""
  },
  {
    "id": "4570108821",
    "name": "でいさーびすせんたーえがお",
    "kana": "デイサ－ビスセンタ－エガオ",
    "address": "宮崎県宮崎市青島一丁目１０番２７号なごみの里青島 なごみの里青島",
    "lat": 31.8028752,
    "lng": 131.4639764,
    "tel": "0985-55-4020",
    "url": "http://www.nagominosato.in/",
    "pref": "宮崎県",
    "city": "宮崎市",
    "category": "day_service",
    "serviceType": "通所介護",
    "capacity": 0,
    "openDays": [
      "平日",
      "土曜日",
      "祝日"
    ],
    "openDaysNote": "年末年始(12月31日～1月1日)は休みです。"
  },
  {
    "id": "4570105926",
    "name": "デイサービスセンターこのはなガーデン",
    "kana": "デイサービスセンターコノハナガーデン",
    "address": "宮崎県宮崎市清武町木原3207-1",
    "lat": 31.8426495657992,
    "lng": 131.412793023012,
    "tel": "0985-84-8200",
    "url": "http://konohana-garden.com/",
    "pref": "宮崎県",
    "city": "宮崎市",
    "category": "day_service",
    "serviceType": "通所介護",
    "capacity": 0,
    "openDays": [
      "平日",
      "土曜日",
      "祝日"
    ],
    "openDaysNote": "12/31～1/3は、年末年始の為、休みです。"
  },
  {
    "id": "4570104135",
    "name": "デイサービスセンターこの気なんの気",
    "kana": "デイサービスセンターコノキナンノキ",
    "address": "宮崎県宮崎市大字本郷南方5468-82",
    "lat": 31.8655803,
    "lng": 131.4263899,
    "tel": "0985-56-9600",
    "url": "http://prev.famt.jp/yuakan/",
    "pref": "宮崎県",
    "city": "宮崎市",
    "category": "day_service",
    "serviceType": "通所介護",
    "capacity": 0,
    "openDays": [
      "平日",
      "土曜日",
      "日曜日",
      "祝日"
    ],
    "openDaysNote": ""
  },
  {
    "id": "4570108904",
    "name": "デイサービスセンターささえ愛",
    "kana": "デイサービスセンターササエアイ",
    "address": "宮崎県宮崎市大字島之9686番地9",
    "lat": 31.9903443,
    "lng": 131.4579884,
    "tel": "0985-73-9412",
    "url": "",
    "pref": "宮崎県",
    "city": "宮崎市",
    "category": "day_service",
    "serviceType": "通所介護",
    "capacity": 1,
    "openDays": [
      "平日",
      "祝日"
    ],
    "openDaysNote": ""
  },
  {
    "id": "4570104481",
    "name": "デイサービスセンターぬくもり",
    "kana": "デイサービスセンターヌクモリ",
    "address": "宮崎県宮崎市淀川3丁目6番8号",
    "lat": 31.8984143274815,
    "lng": 131.415896372422,
    "tel": "0985-64-0811",
    "url": "",
    "pref": "宮崎県",
    "city": "宮崎市",
    "category": "day_service",
    "serviceType": "通所介護",
    "capacity": 25,
    "openDays": [
      "平日",
      "土曜日",
      "日曜日",
      "祝日"
    ],
    "openDaysNote": "365日運営。"
  },
  {
    "id": "4570108680",
    "name": "デイサービスセンターはくじゅ",
    "kana": "デイサービスセンターハクジュ",
    "address": "宮崎県宮崎市大字田吉東前島２４７８－１",
    "lat": 31.8896395,
    "lng": 131.4529378,
    "tel": "０９８５ー６４－０２５５",
    "url": "http://www.day-hakujyu.jp/",
    "pref": "宮崎県",
    "city": "宮崎市",
    "category": "day_service",
    "serviceType": "通所介護",
    "capacity": 5,
    "openDays": [
      "平日",
      "土曜日",
      "祝日"
    ],
    "openDaysNote": ""
  },
  {
    "id": "4571900333",
    "name": "デイサービスセンターはまゆう",
    "kana": "デイサービスセンターハマユウ",
    "address": "宮崎県宮崎市高岡町小山田八久保212-5",
    "lat": 31.9333122,
    "lng": 131.331191,
    "tel": "0985-36-8035",
    "url": "htttp://www.hamayuu.com",
    "pref": "宮崎県",
    "city": "宮崎市",
    "category": "day_service",
    "serviceType": "通所介護",
    "capacity": 0,
    "openDays": [
      "平日",
      "土曜日",
      "日曜日",
      "祝日"
    ],
    "openDaysNote": ""
  },
  {
    "id": "4570103418",
    "name": "デイサービスセンターひだまり２号館",
    "kana": "デイサービスセンターヒダマリニゴウカン",
    "address": "宮崎県宮崎市佐土原町下那珂2967番地78",
    "lat": 31.992689,
    "lng": 131.4670374,
    "tel": "0985-73-7657",
    "url": "http://www.meisyo-wa.jp/hidamari2/index.html",
    "pref": "宮崎県",
    "city": "宮崎市",
    "category": "day_service",
    "serviceType": "通所介護",
    "capacity": 28,
    "openDays": [
      "平日",
      "土曜日",
      "祝日"
    ],
    "openDaysNote": "年末年始の営業日は毎年の曜日等により変更する可能性あり。"
  },
  {
    "id": "4570108359",
    "name": "デイサービスセンターもっときっと",
    "kana": "デイサービスセンターモットキット",
    "address": "宮崎県宮崎市大字恒久字上代1544番地1",
    "lat": 31.887359,
    "lng": 131.423633,
    "tel": "0985-51-3839",
    "url": "http://www.mottokitto.co.jp/dayservice/index.html",
    "pref": "宮崎県",
    "city": "宮崎市",
    "category": "day_service",
    "serviceType": "通所介護",
    "capacity": 40,
    "openDays": [
      "平日",
      "土曜日",
      "祝日"
    ],
    "openDaysNote": "年末年始　12/30～1/3　休業"
  },
  {
    "id": "4570102808",
    "name": "デイサービスセンターゆっとねす",
    "kana": "デイサービスセンターユットネス",
    "address": "宮崎県宮崎市大字小松1158-9",
    "lat": 31.9343005696835,
    "lng": 131.404065783328,
    "tel": "0985-62-3121",
    "url": "http://waqu2.jp/yuttones/",
    "pref": "宮崎県",
    "city": "宮崎市",
    "category": "day_service",
    "serviceType": "通所介護",
    "capacity": 0,
    "openDays": [
      "平日",
      "土曜日",
      "祝日"
    ],
    "openDaysNote": "なし"
  },
  {
    "id": "4571900549",
    "name": "デイサービスセンター杏園",
    "kana": "デイサービスセンターアンズエン",
    "address": "宮崎県宮崎市高岡町内山3466番地",
    "lat": 31.9585007,
    "lng": 131.2991832,
    "tel": "0985-83-1001",
    "url": "http://care-net.biz/45/anzuen/",
    "pref": "宮崎県",
    "city": "宮崎市",
    "category": "day_service",
    "serviceType": "通所介護",
    "capacity": null,
    "openDays": [
      "平日",
      "土曜日",
      "祝日"
    ],
    "openDaysNote": ""
  },
  {
    "id": "4570101545",
    "name": "デイサービスセンター橘公園",
    "kana": "デイサービスセンタータチバナコウエン",
    "address": "宮崎県宮崎市松山2丁目23-1",
    "lat": 31.9052561447278,
    "lng": 131.429413349213,
    "tel": "0985-61-1188",
    "url": "http://www.mediwel.jp/",
    "pref": "宮崎県",
    "city": "宮崎市",
    "category": "day_service",
    "serviceType": "通所介護",
    "capacity": null,
    "openDays": [
      "平日",
      "土曜日",
      "祝日"
    ],
    "openDaysNote": ""
  },
  {
    "id": "4570105348",
    "name": "デイサービスセンター憩いの広場",
    "kana": "デイサービスセンターイコイノヒロバ",
    "address": "宮崎県宮崎市吉村町浮之城甲１６－１",
    "lat": 31.9311114970449,
    "lng": 131.438011932738,
    "tel": "0985-61-2990",
    "url": "http://www.altidea.com/navi/ds_ikoinohiroba.html",
    "pref": "宮崎県",
    "city": "宮崎市",
    "category": "day_service",
    "serviceType": "通所介護",
    "capacity": 29,
    "openDays": [
      "平日",
      "土曜日",
      "祝日"
    ],
    "openDaysNote": "2022年度　年末年始　12/31　1/1　1/2　非稼働日"
  },
  {
    "id": "4570105322",
    "name": "デイサービスセンター桂",
    "kana": "デイサービスセンターカツラ",
    "address": "宮崎県宮崎市高岡町飯田１丁目７番地３",
    "lat": 31.9568632767221,
    "lng": 131.306526382938,
    "tel": "0985-82-8800",
    "url": "http://www.nishizononaika.jp/katsura",
    "pref": "宮崎県",
    "city": "宮崎市",
    "category": "day_service",
    "serviceType": "通所介護",
    "capacity": 20,
    "openDays": [
      "平日",
      "祝日"
    ],
    "openDaysNote": ""
  },
  {
    "id": "4570105082",
    "name": "デイサービスセンター月見ヶ丘",
    "kana": "デイサービスセンターツキミガオカ",
    "address": "宮崎県宮崎市大字本郷北方２５８９番地",
    "lat": 31.8745873713195,
    "lng": 131.420587030688,
    "tel": "0985-71-4622",
    "url": "www.tukimigaoka-yumekaigo.com",
    "pref": "宮崎県",
    "city": "宮崎市",
    "category": "day_service",
    "serviceType": "通所介護",
    "capacity": 0,
    "openDays": [
      "平日",
      "祝日"
    ],
    "openDaysNote": "－"
  },
  {
    "id": "4570106627",
    "name": "デイサービスセンター春風",
    "kana": "デイサービスセンターハルカゼ",
    "address": "宮崎市城ヶ崎3丁目3番3デイサービスセンター春風 デイサービスセンター春風",
    "lat": 31.8979026,
    "lng": 131.4325697,
    "tel": "０９８５－８３－０１０２",
    "url": "",
    "pref": "宮崎県",
    "city": "宮崎市",
    "category": "day_service",
    "serviceType": "通所介護",
    "capacity": 30,
    "openDays": [
      "平日",
      "土曜日",
      "祝日"
    ],
    "openDaysNote": ""
  },
  {
    "id": "4570107450",
    "name": "デイサービスセンター千本桜坂",
    "kana": "デイサービスセンターセンボンサクラザカ",
    "address": "宮崎県宮崎市佐土原町下田島20510番35",
    "lat": 32.021224930654,
    "lng": 131.47480332527,
    "tel": "0985-34-9301",
    "url": "http://hp.kaipoke.biz/k59/",
    "pref": "宮崎県",
    "city": "宮崎市",
    "category": "day_service",
    "serviceType": "通所介護",
    "capacity": 28,
    "openDays": [
      "平日",
      "土曜日",
      "祝日"
    ],
    "openDaysNote": ""
  },
  {
    "id": "4570108961",
    "name": "デイサービスセンター田園いきめ",
    "kana": "デイサービスセンターデンエンイキメ",
    "address": "宮崎市跡江3511番地",
    "lat": 31.9366718,
    "lng": 131.3809379,
    "tel": "0985-77-8360",
    "url": "",
    "pref": "宮崎県",
    "city": "宮崎市",
    "category": "day_service",
    "serviceType": "通所介護",
    "capacity": 0,
    "openDays": [
      "平日",
      "土曜日",
      "祝日"
    ],
    "openDaysNote": ""
  },
  {
    "id": "4570106460",
    "name": "デイサービスセンター田野ひまわり",
    "kana": "デイサービスセンタータノヒマワリ",
    "address": "甲5229番地13",
    "lat": 31.8290914046269,
    "lng": 131.318493364514,
    "tel": "0985-86-0170",
    "url": "",
    "pref": "宮崎県",
    "city": "宮崎市",
    "category": "day_service",
    "serviceType": "通所介護",
    "capacity": 58,
    "openDays": [
      "平日",
      "土曜日",
      "日曜日",
      "祝日"
    ],
    "openDaysNote": "※12月31日～1月1日は除く"
  },
  {
    "id": "4570105488",
    "name": "デイサービスセンター美修苑",
    "kana": "デイサービスセンタービシュウエン",
    "address": "宮崎県宮崎市田野町甲1671番地3",
    "lat": 31.8356602509493,
    "lng": 131.308878254669,
    "tel": "0985-64-6007",
    "url": "https://www.bishuen.com/company",
    "pref": "宮崎県",
    "city": "宮崎市",
    "category": "day_service",
    "serviceType": "通所介護",
    "capacity": 40,
    "openDays": [
      "平日",
      "祝日"
    ],
    "openDaysNote": ""
  },
  {
    "id": "4570110108",
    "name": "デイサービスたちばな",
    "kana": "デイサービスタチバナ",
    "address": "宮崎市祇園二丁目１７番地",
    "lat": 31.9287994,
    "lng": 131.4105445,
    "tel": "0985-67-6678",
    "url": "",
    "pref": "宮崎県",
    "city": "宮崎市",
    "category": "day_service",
    "serviceType": "通所介護",
    "capacity": null,
    "openDays": [
      "平日",
      "土曜日"
    ],
    "openDaysNote": ""
  },
  {
    "id": "4570202913",
    "name": "デイサービスなかま",
    "kana": "デイサービスナカマ",
    "address": "宮崎県都城市太郎坊町1530番地",
    "lat": 31.7786107,
    "lng": 131.0876042,
    "tel": "0986-36-7002",
    "url": "http://nakama-ds.net",
    "pref": "宮崎県",
    "city": "宮崎市",
    "category": "day_service",
    "serviceType": "通所介護",
    "capacity": 23,
    "openDays": [
      "平日",
      "土曜日",
      "祝日"
    ],
    "openDaysNote": "災害等により事業所を開所できない時"
  },
  {
    "id": "4570105199",
    "name": "デイサービスはつらつ佐土原",
    "kana": "デイサービスハツラツサドワラ",
    "address": "宮崎県宮崎市佐土原町下田島９６０４－１",
    "lat": 32.027542,
    "lng": 131.4750652,
    "tel": "0985-74-5110",
    "url": "haturatu-sadowara@koujunkai.jp",
    "pref": "宮崎県",
    "city": "宮崎市",
    "category": "day_service",
    "serviceType": "通所介護",
    "capacity": 10,
    "openDays": [
      "平日",
      "土曜日",
      "祝日"
    ],
    "openDaysNote": ""
  },
  {
    "id": "4570105876",
    "name": "デイサービスはつらつ青葉",
    "kana": "ハツラツアオバ",
    "address": "宮崎県宮崎市宮崎駅東三丁目９番１０",
    "lat": 31.9194659897632,
    "lng": 131.43245215159,
    "tel": "0985-27-8851",
    "url": "https//www.kouwakai-f.jp",
    "pref": "宮崎県",
    "city": "宮崎市",
    "category": "day_service",
    "serviceType": "通所介護",
    "capacity": 12,
    "openDays": [
      "平日",
      "土曜日",
      "祝日"
    ],
    "openDaysNote": ""
  },
  {
    "id": "4570102634",
    "name": "デイサービスふれあい",
    "kana": "デイサービスフレアイ",
    "address": "宮崎県宮崎市大字島之内９７０３－２２",
    "lat": 31.9894416,
    "lng": 131.4594438,
    "tel": "0985-30-2588",
    "url": "",
    "pref": "宮崎県",
    "city": "宮崎市",
    "category": "day_service",
    "serviceType": "通所介護",
    "capacity": 0,
    "openDays": [
      "平日",
      "土曜日",
      "祝日"
    ],
    "openDaysNote": ""
  },
  {
    "id": "4570109142",
    "name": "デイサービスラスベガス宮崎大塚",
    "kana": "デイサービスラスベガスミヤザキオオツカ",
    "address": "宮崎県宮崎市大塚町天神後2663番地1",
    "lat": 31.9151928,
    "lng": 131.3917979,
    "tel": "0985-41-5588",
    "url": "http://las-vegas.jp/",
    "pref": "宮崎県",
    "city": "宮崎市",
    "category": "day_service",
    "serviceType": "通所介護",
    "capacity": 0,
    "openDays": [
      "平日",
      "祝日"
    ],
    "openDaysNote": "平日の祝祭日は営業いたします。"
  },
  {
    "id": "4570108102",
    "name": "デイサービスりんごの里",
    "kana": "デイサービスリンゴノサト",
    "address": "宮崎県宮崎市吉村町西田甲647番地17",
    "lat": 31.921225,
    "lng": 131.44275,
    "tel": "0985-74-5015",
    "url": "https://ringo-ichigo.jp/ringo/",
    "pref": "宮崎県",
    "city": "宮崎市",
    "category": "day_service",
    "serviceType": "通所介護",
    "capacity": 0,
    "openDays": [
      "平日",
      "土曜日",
      "祝日"
    ],
    "openDaysNote": "年末年始は12/31～1/2まで休業"
  },
  {
    "id": "4570109365",
    "name": "デイサービスわらわ",
    "kana": "デイサービスワラワ",
    "address": "清武町今泉甲3785番地1",
    "lat": 31.8490607949788,
    "lng": 131.348527919006,
    "tel": "0985-89-2291",
    "url": "http://www.warawa-kiyotake.com/",
    "pref": "宮崎県",
    "city": "宮崎市",
    "category": "day_service",
    "serviceType": "通所介護",
    "capacity": null,
    "openDays": [
      "平日",
      "土曜日"
    ],
    "openDaysNote": ""
  },
  {
    "id": "4570106791",
    "name": "デイサービス一里山",
    "kana": "デイサービスイチリヤマ",
    "address": "高岡町浦之名5073-2デイサービス一里山 デイサービス一里山",
    "lat": 31.9608576,
    "lng": 131.2021834,
    "tel": "0985-89-1511",
    "url": "",
    "pref": "宮崎県",
    "city": "宮崎市",
    "category": "day_service",
    "serviceType": "通所介護",
    "capacity": 0,
    "openDays": [
      "平日",
      "土曜日",
      "祝日"
    ],
    "openDaysNote": ""
  },
  {
    "id": "4570106312",
    "name": "デイサービス源藤の里こころ",
    "kana": "デイサービスゲンドウノサトココロ",
    "address": "宮崎市源藤町堤下５０９番地",
    "lat": 31.8858780618019,
    "lng": 131.415493138623,
    "tel": "0985-63-0213",
    "url": "http://www.jiaikai-fuk.or.jp/",
    "pref": "宮崎県",
    "city": "宮崎市",
    "category": "day_service",
    "serviceType": "通所介護",
    "capacity": 30,
    "openDays": [
      "平日",
      "土曜日",
      "祝日"
    ],
    "openDaysNote": "定休日以外に年末年始の１２月３１日～１月３日は休業"
  },
  {
    "id": "4570104226",
    "name": "デイサービス自由ヶ丘",
    "kana": "デイサービスジユウガオカ",
    "address": "宮崎県宮崎市吉村町井手ノ中甲793-1",
    "lat": 31.9231510425285,
    "lng": 131.443684769728,
    "tel": "0985-61-7818",
    "url": "",
    "pref": "宮崎県",
    "city": "宮崎市",
    "category": "day_service",
    "serviceType": "通所介護",
    "capacity": 25,
    "openDays": [
      "平日",
      "祝日"
    ],
    "openDaysNote": "事業所に電話して頂ければ、転送により随時対応いたします。"
  },
  {
    "id": "4570102139",
    "name": "デイサービス島之内",
    "kana": "デイサービスシマノウチ",
    "address": "宮崎県宮崎市大字島之内2345番地3",
    "lat": 31.9913857,
    "lng": 131.4543969,
    "tel": "0985-36-3866",
    "url": "http://www.dojunkai.com",
    "pref": "宮崎県",
    "city": "宮崎市",
    "category": "day_service",
    "serviceType": "通所介護",
    "capacity": 0,
    "openDays": [
      "平日",
      "土曜日",
      "日曜日",
      "祝日"
    ],
    "openDaysNote": "毎週日曜日営業"
  },
  {
    "id": "4570108128",
    "name": "デイサービス燈",
    "kana": "デイサービスアカリ",
    "address": "宮崎県宮崎市佐土原町東上那珂15773番地2",
    "lat": 32.0360717949883,
    "lng": 131.428674268123,
    "tel": "0985-72-3400",
    "url": "",
    "pref": "宮崎県",
    "city": "宮崎市",
    "category": "day_service",
    "serviceType": "通所介護",
    "capacity": 35,
    "openDays": [
      "平日",
      "土曜日",
      "祝日"
    ],
    "openDaysNote": ""
  },
  {
    "id": "4570106486",
    "name": "デイサービス平和の里",
    "kana": "デイサービスヘイワノサト",
    "address": "宮崎県宮崎市大字芳士573-1",
    "lat": 31.9643931,
    "lng": 131.43723,
    "tel": "0985-88-1166",
    "url": "http://www.care-okabe.com/",
    "pref": "宮崎県",
    "city": "宮崎市",
    "category": "day_service",
    "serviceType": "通所介護",
    "capacity": 0,
    "openDays": [
      "平日",
      "土曜日",
      "祝日"
    ],
    "openDaysNote": ""
  },
  {
    "id": "4570109696",
    "name": "デイサービス平和台の杜２号館",
    "kana": "デイサービス　ヘイワダイノモリ　ニゴウカン",
    "address": "宮崎市下北方町塚原5701番地1",
    "lat": 31.9415932,
    "lng": 131.4101366,
    "tel": "0985-74-7574",
    "url": "https://haru-miyazaki.jp/",
    "pref": "宮崎県",
    "city": "宮崎市",
    "category": "day_service",
    "serviceType": "通所介護",
    "capacity": null,
    "openDays": [
      "平日",
      "土曜日",
      "日曜日",
      "祝日"
    ],
    "openDaysNote": ""
  },
  {
    "id": "4570108748",
    "name": "デイサービス六角堂",
    "kana": "デイサービスロッカクドウ",
    "address": "宮崎市大字島之内7391番地",
    "lat": 31.9837779,
    "lng": 131.4487005,
    "tel": "0985-88-8880",
    "url": "http://www.dojunkai.com",
    "pref": "宮崎県",
    "city": "宮崎市",
    "category": "day_service",
    "serviceType": "通所介護",
    "capacity": null,
    "openDays": [
      "平日",
      "土曜日",
      "日曜日",
      "祝日"
    ],
    "openDaysNote": ""
  },
  {
    "id": "4570105264",
    "name": "デイサービス和知川原",
    "kana": "デイサービスワチガワラ",
    "address": "宮崎県宮崎市和知川原2丁目25-1",
    "lat": 31.923688,
    "lng": 131.4116053,
    "tel": "0985-32-3414",
    "url": "https://www.miyazaki-iryou.coop/",
    "pref": "宮崎県",
    "city": "宮崎市",
    "category": "day_service",
    "serviceType": "通所介護",
    "capacity": 40,
    "openDays": [
      "平日",
      "祝日"
    ],
    "openDaysNote": ""
  },
  {
    "id": "4570100265",
    "name": "ニチイケアセンター神宮",
    "kana": "ニチイケアセンタージングウ",
    "address": "宮崎県宮崎市神宮西２丁目１３８番地",
    "lat": 31.9385311,
    "lng": 131.4211179,
    "tel": "0985-35-7161",
    "url": "http://www.nichiigakkan.co.jp",
    "pref": "宮崎県",
    "city": "宮崎市",
    "category": "day_service",
    "serviceType": "通所介護",
    "capacity": 0,
    "openDays": [
      "平日",
      "土曜日",
      "日曜日",
      "祝日"
    ],
    "openDaysNote": "居宅サービス計画により、営業時間外であってもサービスを提供する場合があります。"
  },
  {
    "id": "4570105843",
    "name": "ニチイケアセンター南宮崎",
    "kana": "ニチイケアセンターミナミミヤザキ",
    "address": "宮崎県宮崎市花山手西１丁目５－１",
    "lat": 31.9041312,
    "lng": 131.4008124,
    "tel": "0985-64-1630",
    "url": "http://www.nichiigakkan.co.jp/",
    "pref": "宮崎県",
    "city": "宮崎市",
    "category": "day_service",
    "serviceType": "通所介護",
    "capacity": 0,
    "openDays": [
      "平日",
      "土曜日",
      "祝日"
    ],
    "openDaysNote": "居宅サービス計画により、定休日・営業時間外であっても、サービスを提供する場合があります。"
  },
  {
    "id": "4570108490",
    "name": "のんびりデイあうん住吉",
    "kana": "ノンビリデイアウンスミヨシ",
    "address": "宮崎県宮崎市大字新名爪1288-11",
    "lat": 31.9756954,
    "lng": 131.4526424,
    "tel": "0985-71-0716",
    "url": "",
    "pref": "宮崎県",
    "city": "宮崎市",
    "category": "day_service",
    "serviceType": "通所介護",
    "capacity": 0,
    "openDays": [
      "平日",
      "土曜日",
      "祝日"
    ],
    "openDaysNote": ""
  },
  {
    "id": "4570107971",
    "name": "のんびりデイあうん神宮",
    "kana": "ノンビリデイアウンジングウ",
    "address": "宮崎県宮崎市神宮1丁目16",
    "lat": 31.9311237,
    "lng": 131.4220513,
    "tel": "0985-71-0278",
    "url": "http://www.aunsec.com/",
    "pref": "宮崎県",
    "city": "宮崎市",
    "category": "day_service",
    "serviceType": "通所介護",
    "capacity": 0,
    "openDays": [
      "平日",
      "土曜日",
      "祝日"
    ],
    "openDaysNote": ""
  },
  {
    "id": "4570106221",
    "name": "ハートフル・ケア小松",
    "kana": "ハートフルケアコマツ",
    "address": "大字小松３２５９",
    "lat": 31.9256479,
    "lng": 131.3868018,
    "tel": "０９８５－４７－０８６６",
    "url": "www.heartful-komatsu.com/",
    "pref": "宮崎県",
    "city": "宮崎市",
    "category": "day_service",
    "serviceType": "通所介護",
    "capacity": 37,
    "openDays": [
      "平日",
      "土曜日",
      "祝日"
    ],
    "openDaysNote": ""
  },
  {
    "id": "4570108755",
    "name": "はまゆうケアセンター",
    "kana": "ハマユウケアセンター",
    "address": "宮崎県宮崎市一の宮町64番地１",
    "lat": 31.9061475,
    "lng": 131.4465263,
    "tel": "0985-38-2581",
    "url": "",
    "pref": "宮崎県",
    "city": "宮崎市",
    "category": "day_service",
    "serviceType": "通所介護",
    "capacity": null,
    "openDays": [
      "平日",
      "土曜日",
      "祝日"
    ],
    "openDaysNote": "年始休業日（1月1日～1月3日）"
  },
  {
    "id": "4570108953",
    "name": "はるのもり",
    "kana": "ハルノモリ",
    "address": "小松204－2",
    "lat": 36.4084209,
    "lng": 136.4458532,
    "tel": "0985－65－4777",
    "url": "http：//www.harunomori.co.jp",
    "pref": "宮崎県",
    "city": "宮崎市",
    "category": "day_service",
    "serviceType": "通所介護",
    "capacity": 0,
    "openDays": [
      "平日"
    ],
    "openDaysNote": ""
  },
  {
    "id": "4570109191",
    "name": "ひばりデイサービス",
    "kana": "ヒバリデイサービス",
    "address": "宮崎市高岡町花見2809番地住宅型有料老人ホームみかんの里ひばり 住宅型有料老人ホームみかんの里ひばり",
    "lat": 31.9566429,
    "lng": 131.3204311,
    "tel": "0985-89-3633",
    "url": "https://hibari-service.com/",
    "pref": "宮崎県",
    "city": "宮崎市",
    "category": "day_service",
    "serviceType": "通所介護",
    "capacity": 0,
    "openDays": [
      "平日",
      "土曜日",
      "祝日"
    ],
    "openDaysNote": ""
  },
  {
    "id": "4570109886",
    "name": "ライブリーサロン波島",
    "kana": "ライブリーサロンナミシマ",
    "address": "宮崎県宮崎市波島１丁目１‐69",
    "lat": 31.9414805,
    "lng": 131.4461414,
    "tel": "985550380",
    "url": "",
    "pref": "宮崎県",
    "city": "宮崎市",
    "category": "day_service",
    "serviceType": "通所介護",
    "capacity": 0,
    "openDays": [
      "平日",
      "土曜日"
    ],
    "openDaysNote": ""
  },
  {
    "id": "4570106338",
    "name": "リハ・ケアステーションあかえ",
    "kana": "リハ・ケアステーションアカエ",
    "address": "宮崎県宮崎市大字本郷南方上無田３４９８番１リハ・ケアステーションあかえ リハ・ケアステーションあかえ",
    "lat": 31.8692549203517,
    "lng": 131.433019143747,
    "tel": "０９８５－５５－２２０７",
    "url": "",
    "pref": "宮崎県",
    "city": "宮崎市",
    "category": "day_service",
    "serviceType": "通所介護",
    "capacity": 20,
    "openDays": [
      "平日",
      "土曜日",
      "祝日"
    ],
    "openDaysNote": ""
  },
  {
    "id": "4570104408",
    "name": "リバーサイド・デイサービスおおよど",
    "kana": "リバーサイド・デイサービスオオヨド",
    "address": "宮崎県宮崎市大淀1丁目1番3号",
    "lat": 31.9018744,
    "lng": 131.4239354,
    "tel": "0985-71-3114",
    "url": "http://riversideoyodo.com",
    "pref": "宮崎県",
    "city": "宮崎市",
    "category": "day_service",
    "serviceType": "通所介護",
    "capacity": 28,
    "openDays": [
      "平日",
      "土曜日",
      "祝日"
    ],
    "openDaysNote": "年末年始はお休みとなります。"
  },
  {
    "id": "4570103715",
    "name": "リバティ宮崎デイサービスセンター",
    "kana": "リバティミヤザキデイサービスセンター",
    "address": "宮崎県宮崎市大字芳士字祝田1334番地1",
    "lat": 31.9637145281516,
    "lng": 131.444161039995,
    "tel": "0985-39-5555",
    "url": "http://www.libertymiyazaki.com",
    "pref": "宮崎県",
    "city": "宮崎市",
    "category": "day_service",
    "serviceType": "通所介護",
    "capacity": 0,
    "openDays": [
      "平日",
      "祝日"
    ],
    "openDaysNote": "事業所営業時間帯外・年末年始・土曜・日曜日には、隣接している施設に繋がり対応を行っている"
  },
  {
    "id": "4570107476",
    "name": "リハビリセンターであい",
    "kana": "リハビリセンターデアイ",
    "address": "宮崎県宮崎市清武町正手1丁目41番地",
    "lat": 31.8576780436827,
    "lng": 131.386962196959,
    "tel": "0985-84-2458",
    "url": "",
    "pref": "宮崎県",
    "city": "宮崎市",
    "category": "day_service",
    "serviceType": "通所介護",
    "capacity": 25,
    "openDays": [
      "平日",
      "土曜日",
      "祝日"
    ],
    "openDaysNote": "日曜日のみが事業所の休みになります。（改行）12/31～1/2休みになります。"
  },
  {
    "id": "4570107799",
    "name": "リハビリ特化型デイサービス　繋　kei",
    "kana": "リハビリトッカガタデイサービスケイ",
    "address": "宮崎県宮崎市大字広原296番地１",
    "lat": 31.9960614922602,
    "lng": 131.437637062729,
    "tel": "0985-78-0910",
    "url": "http://e-care910.com/index.html",
    "pref": "宮崎県",
    "city": "宮崎市",
    "category": "day_service",
    "serviceType": "通所介護",
    "capacity": 33,
    "openDays": [
      "平日",
      "土曜日"
    ],
    "openDaysNote": ""
  },
  {
    "id": "4570110579",
    "name": "ルミエールサロン波島",
    "kana": "ルミエールサロンナミシマ",
    "address": "宮崎県宮崎市波島1丁目1-69",
    "lat": 31.9415004,
    "lng": 131.4460995,
    "tel": "0985-41-5225",
    "url": "",
    "pref": "宮崎県",
    "city": "宮崎市",
    "category": "day_service",
    "serviceType": "通所介護",
    "capacity": 0,
    "openDays": [
      "平日",
      "土曜日"
    ],
    "openDaysNote": ""
  },
  {
    "id": "4570108250",
    "name": "医療法人社団　誠友会　通所介護事業所　陽だまりの薫",
    "kana": "イリョウホウジンシャダンセイユウカイツウショカイゴジギョウショヒダマリノカオリ",
    "address": "宮崎県宮崎市大字本郷北方字津和田3373-1",
    "lat": 31.8725359,
    "lng": 131.4263484,
    "tel": "0985-67-6503",
    "url": "http://nanbunomori.com/",
    "pref": "宮崎県",
    "city": "宮崎市",
    "category": "day_service",
    "serviceType": "通所介護",
    "capacity": 0,
    "openDays": [
      "平日",
      "土曜日",
      "祝日"
    ],
    "openDaysNote": ""
  },
  {
    "id": "4570109985",
    "name": "一ツ葉医研有限会社",
    "kana": "ヒトツバイケンユウゲンガイシャ",
    "address": "宮崎市吉村町今村甲４１１９番地１",
    "lat": 31.911985524092,
    "lng": 131.448301137434,
    "tel": "985202612",
    "url": "https://dshitotuba.wixsite.com/-site",
    "pref": "宮崎県",
    "city": "宮崎市",
    "category": "day_service",
    "serviceType": "通所介護",
    "capacity": 30,
    "openDays": [
      "平日",
      "祝日"
    ],
    "openDaysNote": "年末年始休暇、その他会社が指定した日を休日とする場合がございます。"
  },
  {
    "id": "4570107070",
    "name": "海人の空",
    "kana": "カイトノソラ",
    "address": "宮崎県宮崎市大字加江田4910番地",
    "lat": 31.8127876,
    "lng": 131.4544828,
    "tel": "0985-55-4277",
    "url": "http://a-yuakan.com/",
    "pref": "宮崎県",
    "city": "宮崎市",
    "category": "day_service",
    "serviceType": "通所介護",
    "capacity": null,
    "openDays": [
      "平日",
      "土曜日",
      "日曜日",
      "祝日"
    ],
    "openDaysNote": ""
  },
  {
    "id": "4570106866",
    "name": "株式会社　いちごの里　デイサービス　いちごの里　桜町",
    "kana": "カブシキカイシャ　イチゴノサト　デイサービス　イチゴノサト　サクラマチ",
    "address": "宮崎県宮崎市桜町13-18有料老人ホーム　いちごの里　桜町 有料老人ホーム　いちごの里　桜町",
    "lat": 31.949608719527,
    "lng": 131.437384786508,
    "tel": "0985-24-0015",
    "url": "http:/www.ichigokigo-nosato.com",
    "pref": "宮崎県",
    "city": "宮崎市",
    "category": "day_service",
    "serviceType": "通所介護",
    "capacity": 0,
    "openDays": [
      "平日",
      "土曜日",
      "祝日"
    ],
    "openDaysNote": "12月31日～1月2日は休みになります。"
  },
  {
    "id": "4570101578",
    "name": "祇園デイサービスセンター",
    "kana": "ギオンデイサービスセンター",
    "address": "宮崎県宮崎市和知川原3－１７－１",
    "lat": 31.923053414379,
    "lng": 131.409445954639,
    "tel": "0985-83-2212",
    "url": "http//www.sanyu-kai.jp/",
    "pref": "宮崎県",
    "city": "宮崎市",
    "category": "day_service",
    "serviceType": "通所介護",
    "capacity": 0,
    "openDays": [
      "平日"
    ],
    "openDaysNote": ""
  },
  {
    "id": "4570100661",
    "name": "宮崎大淀デイサービスセンター",
    "kana": "ミヤザキオオヨドデイサービスセンター",
    "address": "宮崎県宮崎市古城町柳町5157-1",
    "lat": 31.8945086611,
    "lng": 131.38161281645,
    "tel": "0985-59-5050",
    "url": "http://miyazaki-chojukai.com/",
    "pref": "宮崎県",
    "city": "宮崎市",
    "category": "day_service",
    "serviceType": "通所介護",
    "capacity": 0,
    "openDays": [
      "平日",
      "土曜日",
      "祝日"
    ],
    "openDaysNote": ""
  },
  {
    "id": "4570108797",
    "name": "宮崎通所介護サービス",
    "kana": "ミヤザキツウショカイゴサービス",
    "address": "恒久5丁目2-11",
    "lat": 31.8935591817564,
    "lng": 131.436867531384,
    "tel": "0985-65-3311",
    "url": "",
    "pref": "宮崎県",
    "city": "宮崎市",
    "category": "day_service",
    "serviceType": "通所介護",
    "capacity": null,
    "openDays": [
      "平日",
      "祝日"
    ],
    "openDaysNote": "土・日曜日以外の祝日に関しては営業実施"
  },
  {
    "id": "4570109324",
    "name": "宮崎通所介護サービス壱号館",
    "kana": "ミヤザキツウショカイゴサービスイチゴウカン",
    "address": "宮崎市恒久5丁目2-11",
    "lat": 31.8935308336953,
    "lng": 131.436845012112,
    "tel": "0985-65-3311",
    "url": "",
    "pref": "宮崎県",
    "city": "宮崎市",
    "category": "day_service",
    "serviceType": "通所介護",
    "capacity": null,
    "openDays": [
      "平日",
      "祝日"
    ],
    "openDaysNote": ""
  },
  {
    "id": "4570100695",
    "name": "宮崎南デイサービスセンター",
    "kana": "ミヤザキミナミデイサービスセンター",
    "address": "宮崎県宮崎市大字加江田曽山寺４５１４－２",
    "lat": 31.8118267587193,
    "lng": 131.445067918355,
    "tel": "0985-65-2899",
    "url": "aishin@face.ne.jp",
    "pref": "宮崎県",
    "city": "宮崎市",
    "category": "day_service",
    "serviceType": "通所介護",
    "capacity": 30,
    "openDays": [
      "平日",
      "土曜日",
      "祝日"
    ],
    "openDaysNote": "年末年始のみお休み・自然災害等による臨時休業もあり。"
  },
  {
    "id": "4570107864",
    "name": "健幸くらぶ万智",
    "kana": "ケンコウクラブ　マチ",
    "address": "霧島4丁目111番地",
    "lat": 31.9350773391062,
    "lng": 131.415966410451,
    "tel": "0985-89-3800",
    "url": "http://www.sanyu-kai.jp/index.html",
    "pref": "宮崎県",
    "city": "宮崎市",
    "category": "day_service",
    "serviceType": "通所介護",
    "capacity": 3,
    "openDays": [
      "平日"
    ],
    "openDaysNote": ""
  },
  {
    "id": "4570106874",
    "name": "合同会社　アズマ　デイサービスほおずき",
    "kana": "ゴウドウガイシャ　アズマ　デイサービスホオズキ",
    "address": "宮崎県宮崎市佐土原町下田島11408-2合同会社アズマ 合同会社アズマ",
    "lat": 32.0261371,
    "lng": 131.483945,
    "tel": "0985-77-5606",
    "url": "",
    "pref": "宮崎県",
    "city": "宮崎市",
    "category": "day_service",
    "serviceType": "通所介護",
    "capacity": 0,
    "openDays": [
      "平日",
      "土曜日",
      "祝日"
    ],
    "openDaysNote": ""
  },
  {
    "id": "4570106320",
    "name": "国富倶楽部",
    "kana": "クドミクラブ",
    "address": "宮崎県宮崎市本郷南方５",
    "lat": 31.856678,
    "lng": 131.4341033,
    "tel": "0985-55-2200",
    "url": "http://www.kudomi.com",
    "pref": "宮崎県",
    "city": "宮崎市",
    "category": "day_service",
    "serviceType": "通所介護",
    "capacity": 0,
    "openDays": [
      "平日",
      "土曜日",
      "日曜日",
      "祝日"
    ],
    "openDaysNote": ""
  },
  {
    "id": "4571500307",
    "name": "佐土原中央デイサービスセンター",
    "kana": "サドワラチュウオウデイサービスセンター",
    "address": "宮崎県宮崎市佐土原町東上那珂１２９４８番地１宮崎市社会福祉協議会　佐土原支所 宮崎市社会福祉協議会　佐土原支所",
    "lat": 32.0213713,
    "lng": 131.434138,
    "tel": "090-4358-8596",
    "url": "http://www.my-shakyo.jp/",
    "pref": "宮崎県",
    "city": "宮崎市",
    "category": "day_service",
    "serviceType": "通所介護",
    "capacity": 5,
    "openDays": [
      "平日",
      "祝日"
    ],
    "openDaysNote": "祝日営業（土曜日の祝日は除く）"
  },
  {
    "id": "4571500208",
    "name": "社会福祉法人デイサービスセンターあおばの里",
    "kana": "シャカイフクシホウジンデイサービスセンターアオバノサト",
    "address": "宮崎県宮崎市田野町乙9178-11",
    "lat": 31.8434954,
    "lng": 131.3005048,
    "tel": "0985-86-5488",
    "url": "",
    "pref": "宮崎県",
    "city": "宮崎市",
    "category": "day_service",
    "serviceType": "通所介護",
    "capacity": 0,
    "openDays": [
      "平日",
      "土曜日",
      "祝日"
    ],
    "openDaysNote": "年末年始（12月31日～1月3日）の4日間は休業"
  },
  {
    "id": "4570100687",
    "name": "社会福祉法人柑翔福祉会飛江田デイサービスセンター",
    "kana": "シャカイフクシホウジンカンショウフクシカイヒエダデイサービスセンター",
    "address": "宮崎県宮崎市大字赤江字飛江田813-3",
    "lat": 31.8830441,
    "lng": 131.446989,
    "tel": "0985-52-2289",
    "url": "http://www.ans.co.jp/n/hieda/",
    "pref": "宮崎県",
    "city": "宮崎市",
    "category": "day_service",
    "serviceType": "通所介護",
    "capacity": 0,
    "openDays": [
      "平日",
      "祝日"
    ],
    "openDaysNote": ""
  },
  {
    "id": "4570108482",
    "name": "社会福祉法人信愛会みやづるデイサービスセンター",
    "kana": "シャカイフクシホウジンシンアイカイ",
    "address": "宮崎県宮崎市高岡町下倉永字宮水流５６６－２みやづるデイサービスセンター みやづるデイサービスセンター",
    "lat": 31.931732,
    "lng": 131.333394,
    "tel": "０９８５－６７－６６２２",
    "url": "http://www.sin-ai-kai.jp",
    "pref": "宮崎県",
    "city": "宮崎市",
    "category": "day_service",
    "serviceType": "通所介護",
    "capacity": 0,
    "openDays": [
      "平日",
      "土曜日",
      "祝日"
    ],
    "openDaysNote": "営業日　：　月～土　但し年末年始（12月31日～１月3日）を除く"
  },
  {
    "id": "4570100638",
    "name": "社会福祉法人日向更生センター皇寿園デイサービスセンター",
    "kana": "シャカイフクシホウジンヒュウガコウセイセンターコウジュエンデイサービスセンター",
    "address": "宮崎県宮崎市阿波岐原町前浜4276番地710",
    "lat": 31.9398452,
    "lng": 131.4625653,
    "tel": "0985-31-6263",
    "url": "tttp://www.hyugakosei.jp/",
    "pref": "宮崎県",
    "city": "宮崎市",
    "category": "day_service",
    "serviceType": "通所介護",
    "capacity": 30,
    "openDays": [
      "平日",
      "土曜日",
      "祝日"
    ],
    "openDaysNote": "＊災害(台風等)により臨時休業や時間等の変更の可能性あり"
  },
  {
    "id": "4570100752",
    "name": "社会福祉法人芳生会　芳生苑デイサービスセンター",
    "kana": "シャカイフクシホウジンホウセイカイホウセイエンデイサービスセンター",
    "address": "宮崎県宮崎市大字大瀬町3190番地",
    "lat": 31.9842369,
    "lng": 131.3794856,
    "tel": "0985-41-3003",
    "url": "http://www.houseien.jp",
    "pref": "宮崎県",
    "city": "宮崎市",
    "category": "day_service",
    "serviceType": "通所介護",
    "capacity": 40,
    "openDays": [
      "平日"
    ],
    "openDaysNote": ""
  },
  {
    "id": "4571500216",
    "name": "社会福祉法人明照福祉会明照デイサービスセンター",
    "kana": "シャカイフクシホウジンメイショウフクシカイメイショウデイサービスセンター",
    "address": "宮崎県宮崎市佐土原町下田島4568",
    "lat": 32.0491494,
    "lng": 131.4419944,
    "tel": "0985-74-4769",
    "url": "http://www.meisyo-wa.jp",
    "pref": "宮崎県",
    "city": "宮崎市",
    "category": "day_service",
    "serviceType": "通所介護",
    "capacity": 45,
    "openDays": [
      "平日",
      "土曜日",
      "日曜日",
      "祝日"
    ],
    "openDaysNote": "年末年始の休みは、年度によって変更あり。"
  },
  {
    "id": "4570100737",
    "name": "社会福祉法人凌雲堂宮崎デイサービスセンター",
    "kana": "シャカイフクシホウジンリョウウンドウミヤザキデイサービスセンター",
    "address": "宮崎県宮崎市大字跡江２３６６",
    "lat": 31.9379969,
    "lng": 131.3908067,
    "tel": "0985-47-0781",
    "url": "http://www.ryoundo.or.jp/",
    "pref": "宮崎県",
    "city": "宮崎市",
    "category": "day_service",
    "serviceType": "通所介護",
    "capacity": 0,
    "openDays": [
      "平日",
      "土曜日",
      "祝日"
    ],
    "openDaysNote": ""
  },
  {
    "id": "4571500299",
    "name": "社協デイサービスセンター清武",
    "kana": "シャキョウデイサービスセンターキヨタケ",
    "address": "宮崎県宮崎市清武町西新町8番地6　清武総合福祉センター内",
    "lat": 31.85401970322,
    "lng": 131.38930372632,
    "tel": "0985-64-5320",
    "url": "",
    "pref": "宮崎県",
    "city": "宮崎市",
    "category": "day_service",
    "serviceType": "通所介護",
    "capacity": 15,
    "openDays": [
      "平日",
      "祝日"
    ],
    "openDaysNote": "月曜から金曜までの祝祭日は営業を実施"
  },
  {
    "id": "4571500141",
    "name": "寿幸園デイサービスセンター",
    "kana": "ジュコウエンデイサービスセンター",
    "address": "宮崎県宮崎市清武町木原5254番地2",
    "lat": 31.8424448,
    "lng": 131.4010234,
    "tel": "0985-84-2142",
    "url": "http://www.koujikai.com/",
    "pref": "宮崎県",
    "city": "宮崎市",
    "category": "day_service",
    "serviceType": "通所介護",
    "capacity": 0,
    "openDays": [
      "平日",
      "土曜日",
      "祝日"
    ],
    "openDaysNote": ""
  },
  {
    "id": "4570100620",
    "name": "住之江デイサービスセンター",
    "kana": "スミノエデイサービスセンター",
    "address": "宮崎県宮崎市大字島之内2752番地",
    "lat": 31.9937381,
    "lng": 131.4503165,
    "tel": "0985-37-0605",
    "url": "http://www.m-shinwakai.jp/",
    "pref": "宮崎県",
    "city": "宮崎市",
    "category": "day_service",
    "serviceType": "通所介護",
    "capacity": 50,
    "openDays": [
      "平日",
      "土曜日",
      "祝日"
    ],
    "openDaysNote": "祝祭日営業"
  },
  {
    "id": "4570103160",
    "name": "昭和村大島館",
    "kana": "ショウワムラオオシマカン",
    "address": "宮崎県宮崎市大島町平原953-3",
    "lat": 31.9335589,
    "lng": 131.441603,
    "tel": "0985-29-1508",
    "url": "http://www.tofuku.jp/index.html",
    "pref": "宮崎県",
    "city": "宮崎市",
    "category": "day_service",
    "serviceType": "通所介護",
    "capacity": 0,
    "openDays": [
      "平日",
      "祝日"
    ],
    "openDaysNote": "月曜～金曜日までの間は、年末年始及びお盆以外は祝日でも営業いたします。"
  },
  {
    "id": "4570108938",
    "name": "障がい者デイサービス　サニースマイル",
    "kana": "ショウガイシャデイサービス　サニースマイル",
    "address": "宮崎県宮崎市大字小松1030番地1",
    "lat": 31.9377732194687,
    "lng": 131.403584044838,
    "tel": "0985-71-2281",
    "url": "http://fureai-fukushi.co.jp/",
    "pref": "宮崎県",
    "city": "宮崎市",
    "category": "day_service",
    "serviceType": "通所介護",
    "capacity": null,
    "openDays": [
      "平日",
      "祝日"
    ],
    "openDaysNote": ""
  },
  {
    "id": "4571500232",
    "name": "星空の都ディサービスセンターさどわら",
    "kana": "ホシゾラノミヤコディサービスセンターサドワラ",
    "address": "宮崎県宮崎市佐土原町下那珂３１６５－１",
    "lat": 32.0018854,
    "lng": 131.4663314,
    "tel": "070-7665-1538",
    "url": "sadowara.info@fujimoto.or.jp",
    "pref": "宮崎県",
    "city": "宮崎市",
    "category": "day_service",
    "serviceType": "通所介護",
    "capacity": 0,
    "openDays": [
      "平日",
      "土曜日",
      "祝日"
    ],
    "openDaysNote": "特になし"
  },
  {
    "id": "4570100653",
    "name": "生目台デイサービスセンター",
    "kana": "イキメダイデイサービスセンター",
    "address": "宮崎県宮崎市生目台東4丁目5-3",
    "lat": 31.9048400601621,
    "lng": 131.37864645582,
    "tel": "0985-50-1180",
    "url": "http://miyazaki-chojukai.com/",
    "pref": "宮崎県",
    "city": "宮崎市",
    "category": "day_service",
    "serviceType": "通所介護",
    "capacity": 0,
    "openDays": [
      "平日",
      "土曜日",
      "祝日"
    ],
    "openDaysNote": ""
  },
  {
    "id": "4570104192",
    "name": "多機能リハビリステーションケアふる",
    "kana": "タキノウリハビリステーションケアフル",
    "address": "宮崎県宮崎市吉村町南田甲1051番地12",
    "lat": 31.9173433887478,
    "lng": 131.45325086818,
    "tel": "0985-25-1136",
    "url": "http://www.care-project.co.jp/",
    "pref": "宮崎県",
    "city": "宮崎市",
    "category": "day_service",
    "serviceType": "通所介護",
    "capacity": 42,
    "openDays": [
      "平日",
      "祝日"
    ],
    "openDaysNote": ""
  },
  {
    "id": "4570109167",
    "name": "通所介護　よりそい",
    "kana": "ツウショカイゴ　ヨリソイ",
    "address": "宮崎県宮崎市大字恒久5314番地5",
    "lat": 31.8907852,
    "lng": 131.4122626,
    "tel": "0985-72-3200",
    "url": "http://www.kanae-kai.com/",
    "pref": "宮崎県",
    "city": "宮崎市",
    "category": "day_service",
    "serviceType": "通所介護",
    "capacity": null,
    "openDays": [
      "平日",
      "土曜日",
      "祝日"
    ],
    "openDaysNote": ""
  },
  {
    "id": "4570106189",
    "name": "通所介護さわやか",
    "kana": "ツウショカイゴサワヤカ",
    "address": "宮崎市本郷北方２１１８番地",
    "lat": 31.8776071,
    "lng": 131.426706,
    "tel": "0985-50-2824",
    "url": "",
    "pref": "宮崎県",
    "city": "宮崎市",
    "category": "day_service",
    "serviceType": "通所介護",
    "capacity": 45,
    "openDays": [
      "平日",
      "土曜日",
      "日曜日",
      "祝日"
    ],
    "openDaysNote": ""
  },
  {
    "id": "4570109738",
    "name": "通所介護なみしま",
    "kana": "ツウショカイゴナミシマ",
    "address": "宮崎県宮崎市波島1丁目41-48",
    "lat": 31.9405440611625,
    "lng": 131.446779760713,
    "tel": "0985-38-5008",
    "url": "",
    "pref": "宮崎県",
    "city": "宮崎市",
    "category": "day_service",
    "serviceType": "通所介護",
    "capacity": 0,
    "openDays": [
      "平日",
      "土曜日",
      "祝日"
    ],
    "openDaysNote": ""
  },
  {
    "id": "4570108300",
    "name": "通所介護ぷらす",
    "kana": "ツウショカイゴプラス",
    "address": "宮崎県宮崎市大字熊野２９９１番地１",
    "lat": 31.8392001116828,
    "lng": 131.434930971685,
    "tel": "０９８５－７２－８３００",
    "url": "",
    "pref": "宮崎県",
    "city": "宮崎市",
    "category": "day_service",
    "serviceType": "通所介護",
    "capacity": 0,
    "openDays": [
      "平日"
    ],
    "openDaysNote": ""
  },
  {
    "id": "4570108995",
    "name": "通所介護事業所デイサービス心春",
    "kana": "ツウショカイゴジギョウショデイサービスコハル",
    "address": "宮崎市大字本郷北方4348番地6",
    "lat": 31.8706376,
    "lng": 131.4309476,
    "tel": "0985-56‐3390",
    "url": "https://www.yumekanosato.life/",
    "pref": "宮崎県",
    "city": "宮崎市",
    "category": "day_service",
    "serviceType": "通所介護",
    "capacity": 0,
    "openDays": [
      "平日",
      "祝日"
    ],
    "openDaysNote": ""
  },
  {
    "id": "4571500547",
    "name": "特別養護老人ホームわにつか荘",
    "kana": "トクベツヨウゴロウジンホームワニツカソウ",
    "address": "宮崎県宮崎市田野町乙１７４２－３０",
    "lat": 31.8379007,
    "lng": 131.2766124,
    "tel": "0985-86-3033",
    "url": "http://www.fukushi-zenjinkai.jp/wanitsuka/",
    "pref": "宮崎県",
    "city": "宮崎市",
    "category": "day_service",
    "serviceType": "通所介護",
    "capacity": 0,
    "openDays": [
      "平日",
      "土曜日",
      "祝日"
    ],
    "openDaysNote": ""
  },
  {
    "id": "4570108540",
    "name": "風のガーデンデイサービスセンター",
    "kana": "カゼノガーデンデイサービスセンター",
    "address": "宮崎県宮崎市大塚町原ノ前1587-1",
    "lat": 31.9202571,
    "lng": 131.3963151,
    "tel": "0985-59-9190",
    "url": "",
    "pref": "宮崎県",
    "city": "宮崎市",
    "category": "day_service",
    "serviceType": "通所介護",
    "capacity": null,
    "openDays": [
      "平日",
      "土曜日",
      "祝日"
    ],
    "openDaysNote": ""
  },
  {
    "id": "4570108045",
    "name": "芳生平和が丘館デイサービスセンター",
    "kana": "ホウセイヘイワガオカカンデイサービスセンター",
    "address": "宮崎県宮崎市平和が丘西町24番1住宅型有料老人ホーム　芳生平和が丘館 住宅型有料老人ホーム　芳生平和が丘館",
    "lat": 31.9567459,
    "lng": 131.4116818,
    "tel": "0985-71-1191",
    "url": "http://www.houseien.jp/",
    "pref": "宮崎県",
    "city": "宮崎市",
    "category": "day_service",
    "serviceType": "通所介護",
    "capacity": 20,
    "openDays": [
      "平日",
      "土曜日",
      "祝日"
    ],
    "openDaysNote": "・提供時間は利用者に合わせて短縮したり等臨機応変に対応している。"
  },
  {
    "id": "4570108375",
    "name": "妙なる千寿の里　いずみ",
    "kana": "タエナルセンジュノサト　イズミ",
    "address": "宮崎県宮崎市田野町甲2884番地11有料老人ホーム　いずみ 有料老人ホーム　いずみ",
    "lat": 31.8366684,
    "lng": 131.3048326,
    "tel": "0985-86-5310",
    "url": "",
    "pref": "宮崎県",
    "city": "宮崎市",
    "category": "day_service",
    "serviceType": "通所介護",
    "capacity": null,
    "openDays": [
      "平日",
      "土曜日",
      "祝日"
    ],
    "openDaysNote": "12月30日～翌年1月3日休業。"
  },
  {
    "id": "4570102501",
    "name": "有限会社ケアホーム・こんぺいとう",
    "kana": "ユウゲンガイシャケアホーム・コンペイトウ",
    "address": "宮崎県宮崎市大字芳士1319-2",
    "lat": 31.9641406198581,
    "lng": 131.442477101952,
    "tel": "0985-78-2220",
    "url": "",
    "pref": "宮崎県",
    "city": "宮崎市",
    "category": "day_service",
    "serviceType": "通所介護",
    "capacity": 25,
    "openDays": [
      "平日",
      "土曜日",
      "日曜日",
      "祝日"
    ],
    "openDaysNote": ""
  },
  {
    "id": "4570103368",
    "name": "有限会社セカンドステージ　デイサービス・グランパ",
    "kana": "ユウゲンカイシャセカンドステージ　デイサービス・グランパ",
    "address": "宮崎県宮崎市大字生目１５６番地",
    "lat": 31.9197894190829,
    "lng": 131.379506148549,
    "tel": "0985-62-3011",
    "url": "",
    "pref": "宮崎県",
    "city": "宮崎市",
    "category": "day_service",
    "serviceType": "通所介護",
    "capacity": 27,
    "openDays": [
      "平日",
      "土曜日",
      "祝日"
    ],
    "openDaysNote": ""
  },
  {
    "id": "4570700445",
    "name": "デイサービスほたるの郷",
    "kana": "デイサービスホタルノサト",
    "address": "宮崎県串間市本城7610番地住宅型有料老人ホーム 住宅型有料老人ホーム",
    "lat": 31.4307118478018,
    "lng": 131.263440662566,
    "tel": "0987-75-2550",
    "url": "https://mesotes-hotarunosato.com/about/",
    "pref": "宮崎県",
    "city": "串間市",
    "category": "day_service",
    "serviceType": "通所介護",
    "capacity": null,
    "openDays": [
      "平日",
      "土曜日",
      "祝日"
    ],
    "openDaysNote": ""
  },
  {
    "id": "4570700098",
    "name": "ゆうゆうの森デイサービスセンター",
    "kana": "ユウユウノモリデイサービスセンター",
    "address": "宮崎県串間市大字串間１０９４番地",
    "lat": 31.496258,
    "lng": 131.2509038,
    "tel": "0987-72-3010",
    "url": "http://www.y-mori.com",
    "pref": "宮崎県",
    "city": "串間市",
    "category": "day_service",
    "serviceType": "通所介護",
    "capacity": 30,
    "openDays": [
      "平日",
      "土曜日",
      "祝日"
    ],
    "openDaysNote": ""
  },
  {
    "id": "4570700080",
    "name": "寿楽園デイサービスセンター",
    "kana": "ジュラクエンデイサービスセンター",
    "address": "宮崎県串間市西方４３４１－１",
    "lat": 31.4699098459562,
    "lng": 131.229320775655,
    "tel": "0987-72-3130",
    "url": "https://kuroshiokai.com",
    "pref": "宮崎県",
    "city": "串間市",
    "category": "day_service",
    "serviceType": "通所介護",
    "capacity": 0,
    "openDays": [
      "平日",
      "土曜日",
      "祝日"
    ],
    "openDaysNote": ""
  },
  {
    "id": "4571800145",
    "name": "ミューズの朝高原デイサービスセンター",
    "kana": "ミューズノアサタカハルデイサービスセンター",
    "address": "宮崎県西諸県郡高原町大字広原４９６５番地1",
    "lat": 31.9590489,
    "lng": 130.9882127,
    "tel": "0984-42-5556",
    "url": "http://hoshakai.com",
    "pref": "宮崎県",
    "city": "高原町",
    "category": "day_service",
    "serviceType": "通所介護",
    "capacity": null,
    "openDays": [
      "平日",
      "土曜日",
      "日曜日",
      "祝日"
    ],
    "openDaysNote": "利用者からの相談希望等がありそれに対応可能な場合は営業時間外であっても対応します。"
  },
  {
    "id": "4571800582",
    "name": "ミューズの朝高原二番館デイサービスセンター",
    "kana": "ミューズノアサタカハルニバンカンデイサービスセンター",
    "address": "宮崎県西諸県郡高原町大字蒲牟田7348番地2",
    "lat": 31.8948077,
    "lng": 130.9895672,
    "tel": "0984-42-4601",
    "url": "http://hoshakai.com",
    "pref": "宮崎県",
    "city": "高原町",
    "category": "day_service",
    "serviceType": "通所介護",
    "capacity": null,
    "openDays": [
      "平日",
      "土曜日",
      "日曜日",
      "祝日"
    ],
    "openDaysNote": "ただし利用者から希望があり、それに対応可能な場合は、この限りではありません。"
  },
  {
    "id": "4571800590",
    "name": "リハビリケアセンター音いろ",
    "kana": "リハビリケアセンターネイロ",
    "address": "宮崎県西諸県郡高原町大字広原2103",
    "lat": 31.9590132750613,
    "lng": 130.988619798148,
    "tel": "0984-47-5599",
    "url": "",
    "pref": "宮崎県",
    "city": "高原町",
    "category": "day_service",
    "serviceType": "通所介護",
    "capacity": 0,
    "openDays": [
      "平日"
    ],
    "openDaysNote": "12月30日～1月3日休み"
  },
  {
    "id": "4571800210",
    "name": "医療法人豊寿会川井田医院通所介護",
    "kana": "イリョウホウジンホウジュカイカワイダイインツウショカイゴ",
    "address": "宮崎県西諸県郡高原町大字西麓１７３番地3",
    "lat": 31.923683,
    "lng": 131.0006763,
    "tel": "0984-42-3775",
    "url": "https://kawaidaclinic.com/",
    "pref": "宮崎県",
    "city": "高原町",
    "category": "day_service",
    "serviceType": "通所介護",
    "capacity": 0,
    "openDays": [
      "平日",
      "土曜日",
      "祝日"
    ],
    "openDaysNote": ""
  },
  {
    "id": "4571800392",
    "name": "夢の村デイサービスセンター",
    "kana": "ユメノムラデイサービスセンター",
    "address": "宮崎県西諸県郡高原町大字広原3821番地1",
    "lat": 31.9356454,
    "lng": 130.9857852,
    "tel": "0984-25-6338",
    "url": "http://www4.ocn.ne.jp/~ricskiri/mypage9.htm",
    "pref": "宮崎県",
    "city": "高原町",
    "category": "day_service",
    "serviceType": "通所介護",
    "capacity": 0,
    "openDays": [
      "平日",
      "土曜日",
      "祝日"
    ],
    "openDaysNote": ""
  },
  {
    "id": "4572200295",
    "name": "デイサービスセンターふじ",
    "kana": "デイサービスセンターフジ",
    "address": "宮崎県西臼杵郡高千穂町大字三田井６５９３番地２",
    "lat": 32.7029799,
    "lng": 131.3152861,
    "tel": "0982-72-2800",
    "url": "",
    "pref": "宮崎県",
    "city": "高千穂町",
    "category": "day_service",
    "serviceType": "通所介護",
    "capacity": 0,
    "openDays": [
      "平日",
      "土曜日",
      "祝日"
    ],
    "openDaysNote": "但し、１２月３１日～１月３日はお休みになります。"
  },
  {
    "id": "4572200253",
    "name": "デイサービス喜楽館",
    "kana": "デイサービスキラクカン",
    "address": "宮崎県西臼杵郡高千穂町大字押方941番地1有料老人ホーム鶺鴒 有料老人ホーム鶺鴒",
    "lat": 32.7100758,
    "lng": 131.2917329,
    "tel": "0982-72-9595",
    "url": "",
    "pref": "宮崎県",
    "city": "高千穂町",
    "category": "day_service",
    "serviceType": "通所介護",
    "capacity": 0,
    "openDays": [
      "平日",
      "土曜日",
      "祝日"
    ],
    "openDaysNote": "年末年始の12月31日～1月3日は休日"
  },
  {
    "id": "4572200204",
    "name": "株式会社　サン・ルーム　デイサービス　皇寿の里",
    "kana": "カブシキガイシャ　サン・ルーム　デイサービス　コウジュノサト",
    "address": "宮崎県西臼杵郡高千穂町大字三田井5152-1",
    "lat": 32.7165378,
    "lng": 131.3394479,
    "tel": "0982-73-2601",
    "url": "http://care-net.biz/45/sr-4611/index.php",
    "pref": "宮崎県",
    "city": "高千穂町",
    "category": "day_service",
    "serviceType": "通所介護",
    "capacity": 28,
    "openDays": [
      "平日",
      "土曜日",
      "日曜日",
      "祝日"
    ],
    "openDaysNote": ""
  },
  {
    "id": "4572200311",
    "name": "株式会社サン・ルームデイサービス雲海",
    "kana": "カブシキガイシャサン・ルームデイサービスウンカイ",
    "address": "宮崎県西臼杵郡高千穂町大字三田井6186－5",
    "lat": 32.707263,
    "lng": 131.3211327,
    "tel": "0982-72-2155",
    "url": "http://care-net.biz/45/sun-room",
    "pref": "宮崎県",
    "city": "高千穂町",
    "category": "day_service",
    "serviceType": "通所介護",
    "capacity": 20,
    "openDays": [
      "平日",
      "土曜日",
      "祝日"
    ],
    "openDaysNote": "留守番電話にて対応"
  },
  {
    "id": "4572002022",
    "name": "アクティブリハスタジオELL'S",
    "kana": "アクティブリハスタジオエルズ",
    "address": "宮崎県児湯郡高鍋町大字北高鍋5130",
    "lat": 32.1309643,
    "lng": 131.5058773,
    "tel": "983325215",
    "url": "",
    "pref": "宮崎県",
    "city": "高鍋町",
    "category": "day_service",
    "serviceType": "通所介護",
    "capacity": 20,
    "openDays": [
      "平日",
      "祝日"
    ],
    "openDaysNote": ""
  },
  {
    "id": "4572001099",
    "name": "デイサービスエンゼルたかなべ",
    "kana": "デイサービスエンゼルタカナベ",
    "address": "宮崎県児湯郡高鍋町大字持田1741-3",
    "lat": 32.1391752,
    "lng": 131.511609,
    "tel": "0983-35-3325",
    "url": "",
    "pref": "宮崎県",
    "city": "高鍋町",
    "category": "day_service",
    "serviceType": "通所介護",
    "capacity": 0,
    "openDays": [
      "平日",
      "土曜日",
      "祝日"
    ],
    "openDaysNote": ""
  },
  {
    "id": "4572001735",
    "name": "デイサービスしゃちんぼの濱",
    "kana": "デイサービスシャチンボノハマ",
    "address": "宮崎県児湯郡高鍋町大字蚊口浦6195番地6",
    "lat": 32.1252742,
    "lng": 131.5351545,
    "tel": "0983-35-3965",
    "url": "http://shachinbo.jp",
    "pref": "宮崎県",
    "city": "高鍋町",
    "category": "day_service",
    "serviceType": "通所介護",
    "capacity": 0,
    "openDays": [
      "平日",
      "土曜日",
      "祝日"
    ],
    "openDaysNote": ""
  },
  {
    "id": "4572000885",
    "name": "通所介護　埴生の里",
    "kana": "ツウショカイゴ　ハニュウノサト",
    "address": "宮崎県児湯郡高鍋町大字北高鍋4773番地",
    "lat": 32.1260934,
    "lng": 131.5218696,
    "tel": "0983-22-1661",
    "url": "http://www.sanjinkai.jp",
    "pref": "宮崎県",
    "city": "高鍋町",
    "category": "day_service",
    "serviceType": "通所介護",
    "capacity": 0,
    "openDays": [
      "平日",
      "土曜日",
      "祝日"
    ],
    "openDaysNote": "なし"
  },
  {
    "id": "4572001677",
    "name": "通所介護事業所　めいりん",
    "kana": "ツウショカイゴジギョウショ　メイリン",
    "address": "宮崎県児湯郡高鍋町大字上江6649番地123",
    "lat": 53.41291,
    "lng": -8.24388999999996,
    "tel": "0983-35-3525",
    "url": "https://care-line.jp/sakura-takanabe/",
    "pref": "宮崎県",
    "city": "高鍋町",
    "category": "day_service",
    "serviceType": "通所介護",
    "capacity": 35,
    "openDays": [
      "平日",
      "土曜日",
      "日曜日",
      "祝日"
    ],
    "openDaysNote": ""
  },
  {
    "id": "4572000604",
    "name": "鈴山荘デイサービスセンター",
    "kana": "レイザンソウデイサービスセンター",
    "address": "宮崎県児湯郡高鍋町大字上江6956番地2",
    "lat": 32.1227847,
    "lng": 131.4775821,
    "tel": "0983-22-0834",
    "url": "",
    "pref": "宮崎県",
    "city": "高鍋町",
    "category": "day_service",
    "serviceType": "通所介護",
    "capacity": null,
    "openDays": [
      "平日",
      "土曜日",
      "祝日"
    ],
    "openDaysNote": ""
  },
  {
    "id": "4571900994",
    "name": "あっぱれ　デイサービスセンター",
    "kana": "アッパレ　デイサービスセンター",
    "address": "宮崎県東諸県郡国富町大字田尻49-1",
    "lat": 31.9821856,
    "lng": 131.3184806,
    "tel": "0985-65-7566",
    "url": "",
    "pref": "宮崎県",
    "city": "国富町",
    "category": "day_service",
    "serviceType": "通所介護",
    "capacity": 0,
    "openDays": [
      "平日",
      "土曜日"
    ],
    "openDaysNote": "但し、4/30.5/1.5/2新しくできた休日に限り営業"
  },
  {
    "id": "4571900150",
    "name": "さくら苑ふれあいホーム",
    "kana": "サクラエンフレアイホーム",
    "address": "宮崎県東諸郡国富町大字三名2621番6",
    "lat": 32.0079618,
    "lng": 131.349475000306,
    "tel": "0985-75-8154",
    "url": "http://www.keimeisw.or.jp/sakurafreai",
    "pref": "宮崎県",
    "city": "国富町",
    "category": "day_service",
    "serviceType": "通所介護",
    "capacity": 0,
    "openDays": [
      "平日",
      "土曜日",
      "祝日"
    ],
    "openDaysNote": ""
  },
  {
    "id": "4571900804",
    "name": "デイサービス　風の杜",
    "kana": "デイサービス　カゼノモリ",
    "address": "宮崎県東諸県郡国富町大字宮王丸136",
    "lat": 31.9889745,
    "lng": 131.3442207,
    "tel": "0985-75-6270",
    "url": "http://care-net.biz/45/kazenomori/",
    "pref": "宮崎県",
    "city": "国富町",
    "category": "day_service",
    "serviceType": "通所介護",
    "capacity": 0,
    "openDays": [
      "平日",
      "土曜日",
      "祝日"
    ],
    "openDaysNote": ""
  },
  {
    "id": "4571901158",
    "name": "デイサービス　風の杜",
    "kana": "デイサービス　カゼノモリ",
    "address": "宮崎県東諸県郡国富町大字宮王丸136",
    "lat": 31.9887448,
    "lng": 131.3442714,
    "tel": "0985-75-6270",
    "url": "https：//amecs-estate.co.jp",
    "pref": "宮崎県",
    "city": "国富町",
    "category": "day_service",
    "serviceType": "通所介護",
    "capacity": null,
    "openDays": [
      "平日",
      "土曜日",
      "祝日"
    ],
    "openDaysNote": ""
  },
  {
    "id": "4571900770",
    "name": "デイサービスセンター国富荘",
    "kana": "デイサービスセンタークニトミソウ",
    "address": "宮崎県東諸県郡国富町大字森永2466番地19",
    "lat": 32.0015472,
    "lng": 131.2814736,
    "tel": "0985-36-6272",
    "url": "",
    "pref": "宮崎県",
    "city": "国富町",
    "category": "day_service",
    "serviceType": "通所介護",
    "capacity": 0,
    "openDays": [
      "平日",
      "土曜日",
      "日曜日",
      "祝日"
    ],
    "openDaysNote": ""
  },
  {
    "id": "4571900853",
    "name": "ミューズの朝国富デイサービスセンター",
    "kana": "ミューズノアサクニトミデイサービスセンター",
    "address": "宮崎県東諸県郡国富町大字本庄６５２２番地１",
    "lat": 31.992782,
    "lng": 131.3119748,
    "tel": "０９８５－３３－９７６１",
    "url": "http://hoshakai.com",
    "pref": "宮崎県",
    "city": "国富町",
    "category": "day_service",
    "serviceType": "通所介護",
    "capacity": 0,
    "openDays": [
      "平日",
      "土曜日",
      "日曜日",
      "祝日"
    ],
    "openDaysNote": "利用者から相談希望等がありそれに対応可能な場合は営業時間外であっても対応します。"
  },
  {
    "id": "4571900820",
    "name": "介護予防中心デイサービス　宮王丸生きがい養成所",
    "kana": "カイゴヨボウチュウシンデイサービス　ミヤオウマルイキガイヨウセイジョ",
    "address": "大字宮王丸504－11",
    "lat": 31.9873801,
    "lng": 131.3414737,
    "tel": "0985(75)5117",
    "url": "http://www.ichigoichie-kunitomi.com",
    "pref": "宮崎県",
    "city": "国富町",
    "category": "day_service",
    "serviceType": "通所介護",
    "capacity": 0,
    "openDays": [
      "平日",
      "土曜日",
      "祝日"
    ],
    "openDaysNote": "その他管理者が特に認めた日"
  },
  {
    "id": "4571900580",
    "name": "古民家デイサービスやはた",
    "kana": "コミンカデイサービスヤハタ",
    "address": "宮崎県東諸県郡国富町大字本庄7960-2",
    "lat": 31.9982431,
    "lng": 131.3283237,
    "tel": "0985-75-9285",
    "url": "http://www.yahata.ecnet.jp/",
    "pref": "宮崎県",
    "city": "国富町",
    "category": "day_service",
    "serviceType": "通所介護",
    "capacity": 30,
    "openDays": [
      "平日",
      "土曜日",
      "祝日"
    ],
    "openDaysNote": ""
  },
  {
    "id": "4571900127",
    "name": "国富町森永デイサービスセンター",
    "kana": "クニトミチョウモリナガデイサービスセンター",
    "address": "宮崎県東諸県郡国富町大字竹田１４１－１",
    "lat": 31.9966283,
    "lng": 131.2879011,
    "tel": "0985-30-6123",
    "url": "",
    "pref": "宮崎県",
    "city": "国富町",
    "category": "day_service",
    "serviceType": "通所介護",
    "capacity": 0,
    "openDays": [
      "平日",
      "土曜日",
      "祝日"
    ],
    "openDaysNote": "留守番電話等で随時対応いたします。"
  },
  {
    "id": "4571900168",
    "name": "国富町中央デイサービスセンター",
    "kana": "クニトミチョウチュウオウデイサービスセンター",
    "address": "宮崎県東諸県郡国富町本庄８１０７番地",
    "lat": 31.9972626,
    "lng": 131.3299181,
    "tel": "0985-30-6000",
    "url": "",
    "pref": "宮崎県",
    "city": "国富町",
    "category": "day_service",
    "serviceType": "通所介護",
    "capacity": 0,
    "openDays": [
      "平日",
      "土曜日",
      "祝日"
    ],
    "openDaysNote": "年末年始１２月３０日～１月３日まで休業(土日祝日が重なる場合は変更有)"
  },
  {
    "id": "4571900465",
    "name": "不老閣デイサービスセンター",
    "kana": "フロウカクデイサービスセンター",
    "address": "宮崎県東諸県郡国富町大字八代南俣２０４７－１",
    "lat": 32.029051,
    "lng": 131.3034732,
    "tel": "0985-36-6610",
    "url": "",
    "pref": "宮崎県",
    "city": "国富町",
    "category": "day_service",
    "serviceType": "通所介護",
    "capacity": 0,
    "openDays": [
      "平日",
      "祝日"
    ],
    "openDaysNote": ""
  },
  {
    "id": "4571701160",
    "name": "うぇりんぐデイサービスココ",
    "kana": "ウェリングデイサービスココ",
    "address": "宮崎県北諸県郡三股町大字樺山1153番地4",
    "lat": 31.7143467590845,
    "lng": 131.122469617556,
    "tel": "0986-36-6789",
    "url": "http://www.welling-npo.com",
    "pref": "宮崎県",
    "city": "三股町",
    "category": "day_service",
    "serviceType": "通所介護",
    "capacity": 24,
    "openDays": [
      "平日",
      "土曜日",
      "祝日"
    ],
    "openDaysNote": ""
  },
  {
    "id": "4571701004",
    "name": "エスプリ都城デイサービスセンター",
    "kana": "エスプリミヤコノジョウデイサービスセンター",
    "address": "宮崎県北諸県郡三股町宮村一万城２７５１－２５エスプリ都城 エスプリ都城",
    "lat": 31.7204267,
    "lng": 131.0991063,
    "tel": "0986-53-3636",
    "url": "http://takachika.noblog.net/",
    "pref": "宮崎県",
    "city": "三股町",
    "category": "day_service",
    "serviceType": "通所介護",
    "capacity": 158,
    "openDays": [
      "平日",
      "土曜日",
      "祝日"
    ],
    "openDaysNote": ""
  },
  {
    "id": "4571701244",
    "name": "コンパスウォーク三股",
    "kana": "コンパスウォークミマタ",
    "address": "宮崎県北諸県郡三股町稗田40-13",
    "lat": 31.7334831,
    "lng": 131.1056268,
    "tel": "0986-51-7012",
    "url": "",
    "pref": "宮崎県",
    "city": "三股町",
    "category": "day_service",
    "serviceType": "通所介護",
    "capacity": 0,
    "openDays": [
      "平日",
      "祝日"
    ],
    "openDaysNote": ""
  },
  {
    "id": "4571701145",
    "name": "デイサービス　ぽっぽフォーラム",
    "kana": "デイサービス　ポッポフォーラム",
    "address": "宮崎県北諸県郡三股町大字宮村2774-29",
    "lat": 31.7200867,
    "lng": 131.1038369,
    "tel": "0986-58-8708",
    "url": "",
    "pref": "宮崎県",
    "city": "三股町",
    "category": "day_service",
    "serviceType": "通所介護",
    "capacity": 0,
    "openDays": [
      "平日",
      "祝日"
    ],
    "openDaysNote": ""
  },
  {
    "id": "4571701061",
    "name": "デイサービスセンター　たでいけ至福の園",
    "kana": "デイサービスセンター　タデイケシフクノソノ",
    "address": "宮崎県北諸県郡三股町大字蓼池３６３７番地１",
    "lat": 31.762438,
    "lng": 131.1131504,
    "tel": "0986-58-7608",
    "url": "http://hara-care.com/",
    "pref": "宮崎県",
    "city": "三股町",
    "category": "day_service",
    "serviceType": "通所介護",
    "capacity": 0,
    "openDays": [
      "平日",
      "土曜日",
      "祝日"
    ],
    "openDaysNote": ""
  },
  {
    "id": "4570201329",
    "name": "デイサービスセンターとしみ",
    "kana": "デイサービスセンタートシミ",
    "address": "宮崎県北諸県三股町大字樺山4836番26",
    "lat": 31.7347318,
    "lng": 131.1026935,
    "tel": "0986-53-3325",
    "url": "https://www.heart-care.biz",
    "pref": "宮崎県",
    "city": "三股町",
    "category": "day_service",
    "serviceType": "通所介護",
    "capacity": 0,
    "openDays": [
      "平日",
      "土曜日",
      "祝日"
    ],
    "openDaysNote": ""
  },
  {
    "id": "4571700907",
    "name": "デイサービスセンター三股ひまわり",
    "kana": "デイサービスセンターミマタヒマワリ",
    "address": "宮崎県北諸県郡三股町大字樺山4717番地1",
    "lat": 31.7331787403953,
    "lng": 131.110285995107,
    "tel": "0986-36-5111",
    "url": "https://stepup-m.jp/",
    "pref": "宮崎県",
    "city": "三股町",
    "category": "day_service",
    "serviceType": "通所介護",
    "capacity": 50,
    "openDays": [
      "平日",
      "土曜日",
      "日曜日",
      "祝日"
    ],
    "openDaysNote": ""
  },
  {
    "id": "4571700899",
    "name": "デイサービス餅原",
    "kana": "デイサービスモチバル",
    "address": "宮崎県北諸県郡三股町大字餅原１２３８番地",
    "lat": 31.7522893,
    "lng": 131.1300191,
    "tel": "0986-36-5837",
    "url": "",
    "pref": "宮崎県",
    "city": "三股町",
    "category": "day_service",
    "serviceType": "通所介護",
    "capacity": 22,
    "openDays": [
      "平日",
      "土曜日",
      "祝日"
    ],
    "openDaysNote": "利用者がいない日は休日とする"
  },
  {
    "id": "4571701103",
    "name": "デイサポート　明輝",
    "kana": "デイサポート　アキラ",
    "address": "宮崎県北諸県郡三股町大字蓼池3536番地3",
    "lat": 31.7631492,
    "lng": 131.1207499,
    "tel": "0986-77-4863",
    "url": "https：//akiraday3588-work.wixsite.com/akiraday",
    "pref": "宮崎県",
    "city": "三股町",
    "category": "day_service",
    "serviceType": "通所介護",
    "capacity": 21,
    "openDays": [
      "平日",
      "土曜日",
      "祝日"
    ],
    "openDaysNote": ""
  },
  {
    "id": "4571700873",
    "name": "ミューズの朝　三股　デイサービスセンター",
    "kana": "ミューズノアサ　ミマタ　デイサービスセンター",
    "address": "宮崎県北諸県郡三股町大字樺山４５６８番地１",
    "lat": 31.7319015817335,
    "lng": 131.118572769559,
    "tel": "0986-36-5270",
    "url": "http://hoshakai.com/hanausagi/index.html",
    "pref": "宮崎県",
    "city": "三股町",
    "category": "day_service",
    "serviceType": "通所介護",
    "capacity": 45,
    "openDays": [
      "平日",
      "土曜日",
      "日曜日",
      "祝日"
    ],
    "openDaysNote": "利用者から相談希望があり、それに対応可能な場合は営業時間外の場合でも対応します。"
  },
  {
    "id": "4571700964",
    "name": "医療法人　社団白水会　通所介護いきいき",
    "kana": "イリョウホウジン　シャダンハクスイカイ　ツウショカイゴイキイキ",
    "address": "宮崎県北諸県郡三股町稗田４７－５",
    "lat": 31.7335014,
    "lng": 131.1050961,
    "tel": "０９８６－５２－１１４２",
    "url": "",
    "pref": "宮崎県",
    "city": "三股町",
    "category": "day_service",
    "serviceType": "通所介護",
    "capacity": 0,
    "openDays": [
      "平日",
      "土曜日"
    ],
    "openDaysNote": "８月１４日～８月１５日までと１２月３１日から１月３日までを除く。"
  },
  {
    "id": "4571701251",
    "name": "江夏整形外科デイサービスセンターProp",
    "kana": "エナツセイケイゲカデイサービスセンタープロップ",
    "address": "宮崎県北諸県郡三股町大字宮村2846-1",
    "lat": 31.7193365873521,
    "lng": 131.100574143719,
    "tel": "0986-36-7840",
    "url": "http://enatsu-seikeigeka.com",
    "pref": "宮崎県",
    "city": "三股町",
    "category": "day_service",
    "serviceType": "通所介護",
    "capacity": null,
    "openDays": [
      "平日",
      "土曜日",
      "祝日"
    ],
    "openDaysNote": ""
  },
  {
    "id": "4571700279",
    "name": "星空の都デイサービスセンターみまた",
    "kana": "ホシゾラノミヤコデイサービスセンターミマタ",
    "address": "宮崎県北諸県郡三股町大字長田1266番地1",
    "lat": 31.7438455,
    "lng": 131.1321916,
    "tel": "0986-52-8455",
    "url": "http://mimata.fujimoto.com",
    "pref": "宮崎県",
    "city": "三股町",
    "category": "day_service",
    "serviceType": "通所介護",
    "capacity": 0,
    "openDays": [
      "平日",
      "土曜日",
      "日曜日",
      "祝日"
    ],
    "openDaysNote": ""
  },
  {
    "id": "4571701111",
    "name": "野の花",
    "kana": "ノノハナ",
    "address": "宮崎県北諸県郡三股町大字樺山4407-1",
    "lat": 31.7358711,
    "lng": 131.1185564,
    "tel": "0986-36-4368",
    "url": "",
    "pref": "宮崎県",
    "city": "三股町",
    "category": "day_service",
    "serviceType": "通所介護",
    "capacity": 19,
    "openDays": [
      "平日",
      "土曜日",
      "祝日"
    ],
    "openDaysNote": ""
  },
  {
    "id": "4570500191",
    "name": "コスモス温泉デイサービスセンター",
    "kana": "コスモスオンセンデイサービスセンター",
    "address": "宮崎県小林市南西方１１３０－７７",
    "lat": 31.974594,
    "lng": 130.936494,
    "tel": "0984-21-0370",
    "url": "",
    "pref": "宮崎県",
    "city": "小林市",
    "category": "day_service",
    "serviceType": "通所介護",
    "capacity": 55,
    "openDays": [
      "平日",
      "土曜日",
      "日曜日",
      "祝日"
    ],
    "openDaysNote": ""
  },
  {
    "id": "4570500118",
    "name": "シルバーランド望峰の里",
    "kana": "シルバーランドボウホウノサト",
    "address": "宮崎県小林市北西方7125-1",
    "lat": 32.0287713,
    "lng": 130.9357613,
    "tel": "0984-27-1000",
    "url": "http://kobayashi-syakyo.jimdo.com/ホーム/シルバーランド望峰の里/",
    "pref": "宮崎県",
    "city": "小林市",
    "category": "day_service",
    "serviceType": "通所介護",
    "capacity": 0,
    "openDays": [
      "平日",
      "土曜日",
      "日曜日",
      "祝日"
    ],
    "openDaysNote": ""
  },
  {
    "id": "4570500928",
    "name": "デイサービス　へいわ",
    "kana": "デイサービス　ヘイワ",
    "address": "宮崎県小林市野尻町東麓2558-9",
    "lat": 31.963074208454,
    "lng": 131.085152556774,
    "tel": "0984-44-3217",
    "url": "",
    "pref": "宮崎県",
    "city": "小林市",
    "category": "day_service",
    "serviceType": "通所介護",
    "capacity": 23,
    "openDays": [
      "平日",
      "土曜日",
      "祝日"
    ],
    "openDaysNote": ""
  },
  {
    "id": "4570501140",
    "name": "デイサービス　七ころび八起き",
    "kana": "デイサービス　ナナコロビヤオキ",
    "address": "水流迫229番地7",
    "lat": 31.9815402,
    "lng": 131.002252,
    "tel": "0984-25-1801",
    "url": "",
    "pref": "宮崎県",
    "city": "小林市",
    "category": "day_service",
    "serviceType": "通所介護",
    "capacity": 0,
    "openDays": [
      "平日",
      "祝日"
    ],
    "openDaysNote": "ゴールデンウィーク（5/3～5/5）（改行）年末年始休暇（12/30～1/3）は営業休止とする。"
  },
  {
    "id": "4571800525",
    "name": "デイサービス　創",
    "kana": "デイサービス　ソウ",
    "address": "宮崎県小林市野尻町東麓２６５７-２",
    "lat": 31.9572917958865,
    "lng": 131.081878430531,
    "tel": "0984-44-0311",
    "url": "http://www.yukichannoie.info",
    "pref": "宮崎県",
    "city": "小林市",
    "category": "day_service",
    "serviceType": "通所介護",
    "capacity": 0,
    "openDays": [
      "平日",
      "土曜日",
      "祝日"
    ],
    "openDaysNote": "年末年始及び夏期休業あり"
  },
  {
    "id": "4570501033",
    "name": "デイサービスくわの美",
    "kana": "デイサービスクワノミ",
    "address": "細野4420番地1",
    "lat": 31.9744181,
    "lng": 130.9689854,
    "tel": "0984-48-0133",
    "url": "",
    "pref": "宮崎県",
    "city": "小林市",
    "category": "day_service",
    "serviceType": "通所介護",
    "capacity": 0,
    "openDays": [
      "平日",
      "祝日"
    ],
    "openDaysNote": ""
  },
  {
    "id": "4570500977",
    "name": "デイサービスセンター　のかいどう",
    "kana": "デイサービスセンター　ノカイドウ",
    "address": "宮崎県小林市南西方7750番地",
    "lat": 31.9796569711295,
    "lng": 130.918161643037,
    "tel": "0984-25-2205",
    "url": "http://nokaidou.pctech.jp/",
    "pref": "宮崎県",
    "city": "小林市",
    "category": "day_service",
    "serviceType": "通所介護",
    "capacity": 0,
    "openDays": [
      "平日",
      "土曜日",
      "祝日"
    ],
    "openDaysNote": ""
  },
  {
    "id": "4570500753",
    "name": "デイサービスセンターこころ湯",
    "kana": "デイサービスセンターココロユ",
    "address": "南西方1112番地141",
    "lat": 31.9742880227673,
    "lng": 130.937191834779,
    "tel": "0984‐22‐3450",
    "url": "https://kokoroyu.com/",
    "pref": "宮崎県",
    "city": "小林市",
    "category": "day_service",
    "serviceType": "通所介護",
    "capacity": 28,
    "openDays": [
      "平日",
      "土曜日",
      "祝日"
    ],
    "openDaysNote": ""
  },
  {
    "id": "4570500860",
    "name": "デイサービスセンターふくじゅ",
    "kana": "デイサービスセンターフクジュ",
    "address": "宮崎県小林市堤２４１３－５",
    "lat": 31.9733117,
    "lng": 130.9956397,
    "tel": "０９８４ー２２－２４１３",
    "url": "",
    "pref": "宮崎県",
    "city": "小林市",
    "category": "day_service",
    "serviceType": "通所介護",
    "capacity": 20,
    "openDays": [
      "平日",
      "祝日"
    ],
    "openDaysNote": ""
  },
  {
    "id": "4570500829",
    "name": "デイサービスセンター小林ひまわり荘",
    "kana": "デイサービスセンターコバヤシヒマワリソウ",
    "address": "宮崎県小林市北西方3130番地2デイサービスセンター小林ひまわり荘 デイサービスセンター小林ひまわり荘",
    "lat": 32.0232465,
    "lng": 130.9175322,
    "tel": "0984-25-2031",
    "url": "",
    "pref": "宮崎県",
    "city": "小林市",
    "category": "day_service",
    "serviceType": "通所介護",
    "capacity": 0,
    "openDays": [
      "平日",
      "土曜日",
      "日曜日",
      "祝日"
    ],
    "openDaysNote": ""
  },
  {
    "id": "4571800376",
    "name": "デイサービスセンター霧島",
    "kana": "デイサービスセンターキリシマ",
    "address": "宮崎県小林市野尻町三ヶ野山３２７２－２",
    "lat": 31.9734179,
    "lng": 131.0268565,
    "tel": "0984-21-6230",
    "url": "http://www.welcourt.jp",
    "pref": "宮崎県",
    "city": "小林市",
    "category": "day_service",
    "serviceType": "通所介護",
    "capacity": 0,
    "openDays": [
      "平日",
      "土曜日",
      "祝日"
    ],
    "openDaysNote": ""
  },
  {
    "id": "4570500837",
    "name": "デイサービスセンター悠・水流迫",
    "kana": "デイサービスセンターハルカ・ツルザコ",
    "address": "小林市水流迫569-13",
    "lat": 31.9940791,
    "lng": 130.9910444,
    "tel": "0984-27-3644",
    "url": "https://www.haruka-fukushi.com",
    "pref": "宮崎県",
    "city": "小林市",
    "category": "day_service",
    "serviceType": "通所介護",
    "capacity": 30,
    "openDays": [
      "平日",
      "土曜日",
      "祝日"
    ],
    "openDaysNote": ""
  },
  {
    "id": "4570500100",
    "name": "ひなもり園デイサービス",
    "kana": "ヒナモリエンデイサービス",
    "address": "宮崎県小林市堤4380番地",
    "lat": 31.9614924,
    "lng": 131.0106517,
    "tel": "0984-23-1717",
    "url": "http://www.tokiwa-kai.or.jp/hinamori/",
    "pref": "宮崎県",
    "city": "小林市",
    "category": "day_service",
    "serviceType": "通所介護",
    "capacity": 30,
    "openDays": [
      "平日",
      "土曜日",
      "祝日"
    ],
    "openDaysNote": ""
  },
  {
    "id": "4570500720",
    "name": "ホームライフひむかデイサービス",
    "kana": "ホームライフヒムカデイサービス",
    "address": "小林市堤２０７６番地１",
    "lat": 31.9603714,
    "lng": 131.0041031,
    "tel": "０９８４－２７－３７５１",
    "url": "",
    "pref": "宮崎県",
    "city": "小林市",
    "category": "day_service",
    "serviceType": "通所介護",
    "capacity": 0,
    "openDays": [
      "平日",
      "土曜日",
      "祝日"
    ],
    "openDaysNote": ""
  },
  {
    "id": "4570500654",
    "name": "ミューズの朝小林デイサービスセンター",
    "kana": "ミューズノアサコバヤシデイサービスセンター",
    "address": "宮崎県小林市細野1478番地",
    "lat": 31.9879182,
    "lng": 130.9696909,
    "tel": "0984-27-3460",
    "url": "http://hoshakai.com",
    "pref": "宮崎県",
    "city": "小林市",
    "category": "day_service",
    "serviceType": "通所介護",
    "capacity": 45,
    "openDays": [
      "平日",
      "土曜日",
      "日曜日",
      "祝日"
    ],
    "openDaysNote": "利用者から相談希望等がありそれに対応可能な場合は営業時間外であっても対応します。"
  },
  {
    "id": "4571800137",
    "name": "特別養護老人ホームきりしまの園",
    "kana": "トクベツヨウゴロウジンホームキリシマノソノ",
    "address": "宮崎県小林市野尻町三ヶ野山４３３６番地７４",
    "lat": 31.963678,
    "lng": 131.0776781,
    "tel": "0984-44-3108",
    "url": "kirishimanosono.com",
    "pref": "宮崎県",
    "city": "小林市",
    "category": "day_service",
    "serviceType": "通所介護",
    "capacity": 0,
    "openDays": [
      "平日",
      "土曜日",
      "日曜日",
      "祝日"
    ],
    "openDaysNote": ""
  },
  {
    "id": "4570501108",
    "name": "陽光の里デイサービスセンター",
    "kana": "ヨウコウノサト　デイサービスセンター",
    "address": "宮崎県小林市真方5038番地1",
    "lat": 32.0014114,
    "lng": 130.9957885,
    "tel": "0984-23-5667",
    "url": "http://www.kosumosukai.or.jp/",
    "pref": "宮崎県",
    "city": "小林市",
    "category": "day_service",
    "serviceType": "通所介護",
    "capacity": 0,
    "openDays": [
      "平日",
      "土曜日",
      "祝日"
    ],
    "openDaysNote": "年末年始は休み"
  },
  {
    "id": "4572001917",
    "name": "しんとみデイサービスセンター",
    "kana": "シントミデイサービスセンター",
    "address": "宮崎県児湯郡新富町大字新田1928-1",
    "lat": 32.0653437,
    "lng": 131.4556569,
    "tel": "0983-33-6651",
    "url": "",
    "pref": "宮崎県",
    "city": "新富町",
    "category": "day_service",
    "serviceType": "通所介護",
    "capacity": null,
    "openDays": [
      "平日",
      "土曜日",
      "日曜日",
      "祝日"
    ],
    "openDaysNote": ""
  },
  {
    "id": "4572000216",
    "name": "しんとみ希望の里デイサービスセンター",
    "kana": "シントミキボウノサトデイサービスセンター",
    "address": "宮崎県児湯郡新富町大字下富田字小島江629-1",
    "lat": 32.0553100758185,
    "lng": 131.499326389441,
    "tel": "0983-33-4561",
    "url": "http://www.kouseikai.biz/",
    "pref": "宮崎県",
    "city": "新富町",
    "category": "day_service",
    "serviceType": "通所介護",
    "capacity": 0,
    "openDays": [
      "平日",
      "土曜日",
      "祝日"
    ],
    "openDaysNote": "なし"
  },
  {
    "id": "4572001412",
    "name": "デイサービスセンター　優",
    "kana": "デイサービスセンター　ユウ",
    "address": "宮崎県児湯郡新富町大字上富田3809番地",
    "lat": 32.0625604,
    "lng": 131.4896479,
    "tel": "0983-32-5302",
    "url": "http://www.roujinhome-yuu.jp",
    "pref": "宮崎県",
    "city": "新富町",
    "category": "day_service",
    "serviceType": "通所介護",
    "capacity": 0,
    "openDays": [
      "平日",
      "祝日"
    ],
    "openDaysNote": ""
  },
  {
    "id": "4572001529",
    "name": "デイサービスセンターにゅうた",
    "kana": "デイサービスセンターニュウタ",
    "address": "大字新田5859番地1",
    "lat": 32.0691721001607,
    "lng": 131.44564606361,
    "tel": "0983-35-3816",
    "url": "",
    "pref": "宮崎県",
    "city": "新富町",
    "category": "day_service",
    "serviceType": "通所介護",
    "capacity": 0,
    "openDays": [
      "平日",
      "土曜日",
      "祝日"
    ],
    "openDaysNote": "電話による相談　：　年中無休　24時間対応可能"
  },
  {
    "id": "4572000539",
    "name": "デイサービス陽",
    "kana": "デイサービスハル",
    "address": "宮崎県児湯郡新富町大字上富田2933番地3",
    "lat": 32.0558873203501,
    "lng": 131.4788132595,
    "tel": "0983-33-2014",
    "url": "",
    "pref": "宮崎県",
    "city": "新富町",
    "category": "day_service",
    "serviceType": "通所介護",
    "capacity": 35,
    "openDays": [
      "平日",
      "土曜日",
      "祝日"
    ],
    "openDaysNote": ""
  },
  {
    "id": "4570800443",
    "name": "デイサービスセンター　向陵台",
    "kana": "デイサービスセンターコウリョウダイ",
    "address": "宮崎県西都市調殿字千田前1287-15",
    "lat": 32.1139732393205,
    "lng": 131.417305479918,
    "tel": "0983-32-0377",
    "url": "",
    "pref": "宮崎県",
    "city": "西都市",
    "category": "day_service",
    "serviceType": "通所介護",
    "capacity": 40,
    "openDays": [
      "平日",
      "土曜日",
      "日曜日",
      "祝日"
    ],
    "openDaysNote": "12月31日　1月1日はサービスの提供はしない"
  },
  {
    "id": "4570800088",
    "name": "とのこおり荘デイサービスセンター",
    "kana": "トノコオリソウデイサービスセンター",
    "address": "宮崎県西都市大字岩爪１６４５",
    "lat": 32.0451788,
    "lng": 131.384021,
    "tel": "0983-44-6541",
    "url": "",
    "pref": "宮崎県",
    "city": "西都市",
    "category": "day_service",
    "serviceType": "通所介護",
    "capacity": null,
    "openDays": [
      "平日",
      "土曜日",
      "祝日"
    ],
    "openDaysNote": ""
  },
  {
    "id": "4570800526",
    "name": "ミューズの朝西都デイサービスセンター",
    "kana": "ミューズノアササイトデイサービスセンター",
    "address": "宮崎県西都市岡富大字九桝園658番地2",
    "lat": 32.0796985,
    "lng": 131.411698,
    "tel": "0983-35-3571",
    "url": "http://hoshakai.com",
    "pref": "宮崎県",
    "city": "西都市",
    "category": "day_service",
    "serviceType": "通所介護",
    "capacity": 0,
    "openDays": [
      "平日",
      "土曜日",
      "日曜日",
      "祝日"
    ],
    "openDaysNote": "利用者から相談、希望等があり、それに対応可能な場合は営業時間外であっても対応します。"
  },
  {
    "id": "4570800476",
    "name": "医療法人雅会　デイサービスさくらスクール",
    "kana": "イリョウホウジンミヤビカイ　デイサービスサクラスクール",
    "address": "1丁目66番地",
    "lat": 35.2796749,
    "lng": 136.8716222,
    "tel": "0983-35-3416",
    "url": "http://miyabi-kai.jp/",
    "pref": "宮崎県",
    "city": "西都市",
    "category": "day_service",
    "serviceType": "通所介護",
    "capacity": 35,
    "openDays": [
      "平日",
      "土曜日",
      "祝日"
    ],
    "openDaysNote": ""
  },
  {
    "id": "4570800096",
    "name": "幸楽荘デイサービスセンター",
    "kana": "コウラクソウデイサービスセンター",
    "address": "宮崎県西都市大字茶臼原字轟941番地1",
    "lat": 32.1402669106985,
    "lng": 131.417365095848,
    "tel": "0983-42-3675",
    "url": "http://www.m-shinwakai.jp/",
    "pref": "宮崎県",
    "city": "西都市",
    "category": "day_service",
    "serviceType": "通所介護",
    "capacity": 0,
    "openDays": [
      "平日",
      "土曜日",
      "祝日"
    ],
    "openDaysNote": "12/29～31の何れかで希望者を対象に入浴ボランティアを実施します。"
  },
  {
    "id": "4570800823",
    "name": "西都ひまわりデイサービスＡ",
    "kana": "サイトヒマワリデイサービスエー",
    "address": "宮崎県西都市右松3292-40",
    "lat": 32.11512,
    "lng": 131.4315278,
    "tel": "0983-32-1550",
    "url": "",
    "pref": "宮崎県",
    "city": "西都市",
    "category": "day_service",
    "serviceType": "通所介護",
    "capacity": null,
    "openDays": [
      "平日",
      "土曜日",
      "日曜日",
      "祝日"
    ],
    "openDaysNote": "12月31日　1月1日はサービスの提供はしない"
  },
  {
    "id": "4570800831",
    "name": "西都ひまわりデイサービスB",
    "kana": "サイトヒマワリデイサービスビー",
    "address": "宮崎県西都市右松3292-40",
    "lat": 32.11512,
    "lng": 131.4315278,
    "tel": "0983-32-1650",
    "url": "",
    "pref": "宮崎県",
    "city": "西都市",
    "category": "day_service",
    "serviceType": "通所介護",
    "capacity": null,
    "openDays": [
      "平日",
      "土曜日",
      "日曜日",
      "祝日"
    ],
    "openDaysNote": "12月31日　1月1日はサービスの提供はしない"
  },
  {
    "id": "4570800146",
    "name": "静和園デイサービスセンター",
    "kana": "セイワエンデイサービスセンター",
    "address": "宮崎県西都市大字清水792番地1",
    "lat": 32.1006184,
    "lng": 131.3813569,
    "tel": "0983-43-1545",
    "url": "http://nissho-fukushi.jp/fukushi/sp",
    "pref": "宮崎県",
    "city": "西都市",
    "category": "day_service",
    "serviceType": "通所介護",
    "capacity": 25,
    "openDays": [
      "平日",
      "土曜日",
      "祝日"
    ],
    "openDaysNote": ""
  },
  {
    "id": "4570800104",
    "name": "白馬デイサービスセンター",
    "kana": "シロウマデイサービスセンター",
    "address": "西都市白馬町4番地3",
    "lat": 32.1093259,
    "lng": 131.4093853,
    "tel": "0983-43-1078",
    "url": "http://www.tsubasa-f.or.jp",
    "pref": "宮崎県",
    "city": "西都市",
    "category": "day_service",
    "serviceType": "通所介護",
    "capacity": 25,
    "openDays": [
      "平日",
      "土曜日"
    ],
    "openDaysNote": "年末年始はこの限りではありません"
  },
  {
    "id": "4572001354",
    "name": "デイサービスセンターかわみなみ",
    "kana": "デイサービスセンターカワミナミ",
    "address": "宮崎県児湯郡川南町大字川南24773番地7",
    "lat": 32.1714412,
    "lng": 131.5060552,
    "tel": "0983-47-0411",
    "url": "",
    "pref": "宮崎県",
    "city": "川南町",
    "category": "day_service",
    "serviceType": "通所介護",
    "capacity": 41,
    "openDays": [
      "平日",
      "土曜日",
      "祝日"
    ],
    "openDaysNote": ""
  },
  {
    "id": "4572001586",
    "name": "デイサービスセンターさくらの里",
    "kana": "デイサービスセンターサクラノサト",
    "address": "宮崎県児湯郡川南町大字平田字卒手911-3",
    "lat": 32.2021759233425,
    "lng": 131.541885054631,
    "tel": "0983-27-7860",
    "url": "http://www.maruyoshi-sakuranosato.jp",
    "pref": "宮崎県",
    "city": "川南町",
    "category": "day_service",
    "serviceType": "通所介護",
    "capacity": 0,
    "openDays": [
      "平日",
      "土曜日",
      "祝日"
    ],
    "openDaysNote": ""
  },
  {
    "id": "4572002006",
    "name": "デイサービスセンターはぴねす",
    "kana": "デイサービスセンターハピネス",
    "address": "宮崎県児湯郡川南町大字川南27486番地１",
    "lat": 32.1825238,
    "lng": 131.4858577,
    "tel": "0983-27-2990",
    "url": "",
    "pref": "宮崎県",
    "city": "川南町",
    "category": "day_service",
    "serviceType": "通所介護",
    "capacity": null,
    "openDays": [
      "平日",
      "土曜日"
    ],
    "openDaysNote": ""
  },
  {
    "id": "4572001552",
    "name": "デイサービスセンター花ほたる",
    "kana": "デイサービスセンターハナホタル",
    "address": "宮崎県児湯郡川南町大字川南２０２０８番地１",
    "lat": 32.2296906216942,
    "lng": 131.544649464957,
    "tel": "0983-35-4802",
    "url": "hanahotaru@sakumatsu.jp",
    "pref": "宮崎県",
    "city": "川南町",
    "category": "day_service",
    "serviceType": "通所介護",
    "capacity": 0,
    "openDays": [
      "平日",
      "土曜日",
      "日曜日",
      "祝日"
    ],
    "openDaysNote": ""
  },
  {
    "id": "4572001636",
    "name": "デイサービスみのり",
    "kana": "デイサービスミノリ",
    "address": "宮崎県児湯郡川南町大字川南19568番地",
    "lat": 32.2068660766497,
    "lng": 131.530317505975,
    "tel": "0983-32-7977",
    "url": "",
    "pref": "宮崎県",
    "city": "川南町",
    "category": "day_service",
    "serviceType": "通所介護",
    "capacity": 0,
    "openDays": [
      "平日",
      "土曜日",
      "祝日"
    ],
    "openDaysNote": ""
  },
  {
    "id": "4572001479",
    "name": "デイサービス湯癒亭",
    "kana": "デイサービスユウユウテイ",
    "address": "宮崎県児湯郡川南町大字平田2379番地1",
    "lat": 32.1938167434503,
    "lng": 131.52818399259,
    "tel": "0983-35-4305",
    "url": "https://yuuyuutei.jp/",
    "pref": "宮崎県",
    "city": "川南町",
    "category": "day_service",
    "serviceType": "通所介護",
    "capacity": 0,
    "openDays": [
      "平日",
      "土曜日",
      "祝日"
    ],
    "openDaysNote": ""
  },
  {
    "id": "4572000620",
    "name": "番野地の家デイサービスセンター",
    "kana": "バンノジノイエデイサービスセンター",
    "address": "宮崎県児湯郡川南町大字川南23090番地",
    "lat": 32.1761051,
    "lng": 131.5179313,
    "tel": "0983-27-6562",
    "url": "http://www.suzunaminosato.com/",
    "pref": "宮崎県",
    "city": "川南町",
    "category": "day_service",
    "serviceType": "通所介護",
    "capacity": 0,
    "openDays": [
      "平日",
      "土曜日",
      "祝日"
    ],
    "openDaysNote": ""
  },
  {
    "id": "4572000224",
    "name": "鈴南の里デイサービスセンター",
    "kana": "スズナミノサトデイサービスセンター",
    "address": "宮崎県児湯郡川南町大字川南１２７０７番地",
    "lat": 32.2092444,
    "lng": 131.5383581,
    "tel": "(代)0983-27-09",
    "url": "http://www.suzunaminosato.com/",
    "pref": "宮崎県",
    "city": "川南町",
    "category": "day_service",
    "serviceType": "通所介護",
    "capacity": 0,
    "openDays": [
      "平日",
      "土曜日",
      "祝日"
    ],
    "openDaysNote": ""
  },
  {
    "id": "4572100453",
    "name": "特別養護老人ホーム平寿園",
    "kana": "トクベツヨウゴロウジンホームヘイジュエン",
    "address": "宮崎県東臼杵郡椎葉村大字下福良54-337",
    "lat": 32.446692867783,
    "lng": 131.149654805322,
    "tel": "0982-67-2488",
    "url": "",
    "pref": "宮崎県",
    "city": "椎葉村",
    "category": "day_service",
    "serviceType": "通所介護",
    "capacity": 0,
    "openDays": [
      "平日",
      "祝日"
    ],
    "openDaysNote": ""
  },
  {
    "id": "4570203168",
    "name": "ウエルライフデイサービスセンター",
    "kana": "ウエルライフデイサービスセンター",
    "address": "宮崎県都城市南鷹尾町１１－５",
    "lat": 31.7191539,
    "lng": 131.0436232,
    "tel": "０９８６－５１－７０８８",
    "url": "http://www.mwg.or.jp",
    "pref": "宮崎県",
    "city": "都城市",
    "category": "day_service",
    "serviceType": "通所介護",
    "capacity": 0,
    "openDays": [
      "平日",
      "土曜日",
      "祝日"
    ],
    "openDaysNote": ""
  },
  {
    "id": "4570203960",
    "name": "カクレミノデイサービス",
    "kana": "カクレミノデイサービス",
    "address": "梅北町8965番1",
    "lat": 31.6672520860621,
    "lng": 131.042045180304,
    "tel": "0986-39-6828",
    "url": "",
    "pref": "宮崎県",
    "city": "都城市",
    "category": "day_service",
    "serviceType": "通所介護",
    "capacity": 0,
    "openDays": [
      "平日",
      "土曜日",
      "祝日"
    ],
    "openDaysNote": ""
  },
  {
    "id": "4570204547",
    "name": "コンパスウォーク都城鷹尾",
    "kana": "コンパスウォークミヤコノジョウタカオ",
    "address": "宮崎県都城市鷹尾一丁目26-13",
    "lat": 31.7253308,
    "lng": 131.0535594,
    "tel": "0986-51-9981",
    "url": "https://keigo-group.co.jp/shop/miyazakiken/25953/",
    "pref": "宮崎県",
    "city": "都城市",
    "category": "day_service",
    "serviceType": "通所介護",
    "capacity": 0,
    "openDays": [
      "平日",
      "祝日"
    ],
    "openDaysNote": ""
  },
  {
    "id": "4570202640",
    "name": "さくらハウス横市通所介護事業所",
    "kana": "サクラハウスヨコイチツウショカイゴジギョウショ",
    "address": "宮崎県都城市南横市町3682",
    "lat": 31.7386487,
    "lng": 131.0309686,
    "tel": "0986-36-6356",
    "url": "http://keijuen.net/",
    "pref": "宮崎県",
    "city": "都城市",
    "category": "day_service",
    "serviceType": "通所介護",
    "capacity": 0,
    "openDays": [
      "平日",
      "土曜日",
      "日曜日",
      "祝日"
    ],
    "openDaysNote": ""
  },
  {
    "id": "4570204042",
    "name": "シニアのためのフィットネス遊癒",
    "kana": "シニアノタメノフィットネスユウユ",
    "address": "宮崎県都城市早鈴町1990番地イオン都城ショッピングセンター２Ｆ イオン都城ショッピングセンター２Ｆ",
    "lat": 31.7148035428543,
    "lng": 131.075900969837,
    "tel": "0986-36-7872",
    "url": "https://thoughtful-yuyu.com",
    "pref": "宮崎県",
    "city": "都城市",
    "category": "day_service",
    "serviceType": "通所介護",
    "capacity": 43,
    "openDays": [
      "平日",
      "土曜日",
      "祝日"
    ],
    "openDaysNote": "年末年始の12月31日、1月1日は休日とする。"
  },
  {
    "id": "4570204703",
    "name": "すまいる１デイサービス",
    "kana": "スマイルワンデイサービス",
    "address": "宮崎県都城市妻ヶ丘町40街区3号",
    "lat": 31.7279559250337,
    "lng": 131.07816068532,
    "tel": "0986-77-0777",
    "url": "",
    "pref": "宮崎県",
    "city": "都城市",
    "category": "day_service",
    "serviceType": "通所介護",
    "capacity": null,
    "openDays": [
      "平日",
      "土曜日",
      "祝日"
    ],
    "openDaysNote": ""
  },
  {
    "id": "4570201915",
    "name": "スマイルライフ早水の杜通所介護事業所",
    "kana": "スマイルライフハヤミズノモリツウショカイゴジギョウショ",
    "address": "宮崎県都城市早水町4503番95スマイルライフ早水の杜 スマイルライフ早水の杜",
    "lat": 31.7380034,
    "lng": 131.0922662,
    "tel": "0986-23-0003",
    "url": "https://hayamizu.0986green.com/",
    "pref": "宮崎県",
    "city": "都城市",
    "category": "day_service",
    "serviceType": "通所介護",
    "capacity": 0,
    "openDays": [
      "平日",
      "土曜日",
      "祝日"
    ],
    "openDaysNote": "なし"
  },
  {
    "id": "4570203929",
    "name": "デイサービス　かりん",
    "kana": "デイサービス　カリン",
    "address": "志比田町4536番地",
    "lat": 31.7414602,
    "lng": 131.0520717,
    "tel": "986366283",
    "url": "http://www.hidamarinosato.net/",
    "pref": "宮崎県",
    "city": "都城市",
    "category": "day_service",
    "serviceType": "通所介護",
    "capacity": 30,
    "openDays": [
      "平日",
      "土曜日",
      "祝日"
    ],
    "openDaysNote": ""
  },
  {
    "id": "4570203978",
    "name": "デイサービス　かわせみ",
    "kana": "デイサービス　カワセミ",
    "address": "宮崎県都城市上川東四丁目2号8番地",
    "lat": 31.7451718,
    "lng": 131.0769976,
    "tel": "0986-51-4811",
    "url": "",
    "pref": "宮崎県",
    "city": "都城市",
    "category": "day_service",
    "serviceType": "通所介護",
    "capacity": 0,
    "openDays": [
      "平日",
      "土曜日",
      "祝日"
    ],
    "openDaysNote": ""
  },
  {
    "id": "4570204562",
    "name": "デイサービス　こまつばら",
    "kana": "デイサービス　コマツバラ",
    "address": "宮崎県都城市平江町4街区7-3号",
    "lat": 31.7332590405753,
    "lng": 131.069209696851,
    "tel": "0686-36-6522",
    "url": "http://www.totalcareservice.info/",
    "pref": "宮崎県",
    "city": "都城市",
    "category": "day_service",
    "serviceType": "通所介護",
    "capacity": 0,
    "openDays": [
      "平日",
      "土曜日",
      "祝日"
    ],
    "openDaysNote": ""
  },
  {
    "id": "4570204018",
    "name": "デイサービス　サルビア　乙房事業所",
    "kana": "デイサービス　サルビア　オトボウジギョウショ",
    "address": "宮崎県都城市乙房町1711番地1",
    "lat": 31.7674859,
    "lng": 131.0600486,
    "tel": "0986-58-8500",
    "url": "",
    "pref": "宮崎県",
    "city": "都城市",
    "category": "day_service",
    "serviceType": "通所介護",
    "capacity": 0,
    "openDays": [
      "平日",
      "土曜日",
      "日曜日",
      "祝日"
    ],
    "openDaysNote": "特になし"
  },
  {
    "id": "4570202269",
    "name": "デイサービス　たかじょう",
    "kana": "デイサービス　タカジョウ",
    "address": "宮崎県都城市高城町石山3942番地1",
    "lat": 31.8304910061771,
    "lng": 131.13703002124,
    "tel": "0986-58-5517",
    "url": "",
    "pref": "宮崎県",
    "city": "都城市",
    "category": "day_service",
    "serviceType": "通所介護",
    "capacity": 40,
    "openDays": [
      "平日",
      "土曜日",
      "祝日"
    ],
    "openDaysNote": "利用者様のご利用状況により変更する場合がございます。"
  },
  {
    "id": "4570202475",
    "name": "デイサービス　ねお",
    "kana": "デイサービス　ネオ",
    "address": "宮崎県都城市金田町2263デイサービス　ねお デイサービス　ねお",
    "lat": 31.7701989408953,
    "lng": 131.081742344705,
    "tel": "0986-38-5656",
    "url": "https://mmshp.com",
    "pref": "宮崎県",
    "city": "都城市",
    "category": "day_service",
    "serviceType": "通所介護",
    "capacity": 20,
    "openDays": [
      "平日",
      "土曜日",
      "祝日"
    ],
    "openDaysNote": "定休日以外は土曜日・祭日も通常通り営業しております。"
  },
  {
    "id": "4570202335",
    "name": "デイサービス　わくわく",
    "kana": "デイサービス　ワクワク",
    "address": "南鷹尾町２５－１０",
    "lat": 34.4967286,
    "lng": 135.4722142,
    "tel": "0986-21-1117",
    "url": "http://まごころ.jjp",
    "pref": "宮崎県",
    "city": "都城市",
    "category": "day_service",
    "serviceType": "通所介護",
    "capacity": 0,
    "openDays": [
      "平日",
      "土曜日",
      "祝日"
    ],
    "openDaysNote": ""
  },
  {
    "id": "4570204539",
    "name": "デイサービス　一心",
    "kana": "デイサービス　イッシン",
    "address": "宮崎県都城市梅北町8965番3",
    "lat": 31.6674538730802,
    "lng": 131.040631999857,
    "tel": "0986-39-5553",
    "url": "",
    "pref": "宮崎県",
    "city": "都城市",
    "category": "day_service",
    "serviceType": "通所介護",
    "capacity": 0,
    "openDays": [
      "平日",
      "土曜日",
      "祝日"
    ],
    "openDaysNote": "ただし、12月31日から1月3日までを除く"
  },
  {
    "id": "4570202343",
    "name": "デイサービス　楽癒",
    "kana": "デイサービス　ラクユ",
    "address": "宮崎県都城市高城町大井手2166番地1",
    "lat": 31.7865008,
    "lng": 131.150916,
    "tel": "0986-58-4816",
    "url": "https://thoughtful-yuyu.com/",
    "pref": "宮崎県",
    "city": "都城市",
    "category": "day_service",
    "serviceType": "通所介護",
    "capacity": 0,
    "openDays": [
      "平日",
      "土曜日",
      "日曜日",
      "祝日"
    ],
    "openDaysNote": "営業日：年中無休"
  },
  {
    "id": "4570202699",
    "name": "デイサービス　侑久之里",
    "kana": "デイサービス　ユウキュウノサト",
    "address": "宮崎県都城市平江町26号21番地",
    "lat": 31.7371611,
    "lng": 131.0677566,
    "tel": "0986-21-2088",
    "url": "",
    "pref": "宮崎県",
    "city": "都城市",
    "category": "day_service",
    "serviceType": "通所介護",
    "capacity": 0,
    "openDays": [
      "平日",
      "土曜日",
      "祝日"
    ],
    "openDaysNote": "正月(12月31日～1月2日)"
  },
  {
    "id": "4570203796",
    "name": "デイサービスうきうき",
    "kana": "デイサービスウキウキ",
    "address": "宮崎県都城市都原町７２７９番地",
    "lat": 31.7367603,
    "lng": 131.0386066,
    "tel": "０９８６－５１－６６６３",
    "url": "まごころ．ｊＰ",
    "pref": "宮崎県",
    "city": "都城市",
    "category": "day_service",
    "serviceType": "通所介護",
    "capacity": 0,
    "openDays": [
      "平日",
      "土曜日",
      "祝日"
    ],
    "openDaysNote": ""
  },
  {
    "id": "4570204026",
    "name": "デイサービスかみながえ",
    "kana": "デイサービスカミナガエ",
    "address": "宮崎県都城市上長飯町5247番地9",
    "lat": 31.7139297852927,
    "lng": 131.090988693254,
    "tel": "0986-51-8856",
    "url": "http://www.totalcareservice.info/",
    "pref": "宮崎県",
    "city": "都城市",
    "category": "day_service",
    "serviceType": "通所介護",
    "capacity": 0,
    "openDays": [
      "平日",
      "土曜日",
      "日曜日",
      "祝日"
    ],
    "openDaysNote": ""
  },
  {
    "id": "4570202384",
    "name": "デイサービスきごころ",
    "kana": "デイサービスキゴコロ",
    "address": "都城市立野町3655-2ｼﾙﾊﾞｰﾀｳﾝたての2号棟1階 ｼﾙﾊﾞｰﾀｳﾝたての2号棟1階",
    "lat": 31.7286222018427,
    "lng": 131.1035102,
    "tel": "0986-22-2297",
    "url": "http://www.fukushitateno.jp/",
    "pref": "宮崎県",
    "city": "都城市",
    "category": "day_service",
    "serviceType": "通所介護",
    "capacity": 30,
    "openDays": [
      "平日",
      "土曜日",
      "祝日"
    ],
    "openDaysNote": "8月13日、8月14日、8月15日、12月30日、1月3日、1月4日は8：50～12：30までのサービス提供時間。"
  },
  {
    "id": "4570204802",
    "name": "デイサービスきりん",
    "kana": "デイサービスキリン",
    "address": "高崎町大牟田2110-16",
    "lat": 31.863547376924,
    "lng": 131.082164072353,
    "tel": "0986-62-2933",
    "url": "",
    "pref": "宮崎県",
    "city": "都城市",
    "category": "day_service",
    "serviceType": "通所介護",
    "capacity": 0,
    "openDays": [
      "平日",
      "土曜日",
      "日曜日",
      "祝日"
    ],
    "openDaysNote": ""
  },
  {
    "id": "4570204034",
    "name": "でいさーびすこんにちわせんたー",
    "kana": "デイサービスコンニチワセンター",
    "address": "宮崎県都城市松元町15-10",
    "lat": 36.204824,
    "lng": 138.252924,
    "tel": "0986-22-5757",
    "url": "http://konnichiwa-center.com",
    "pref": "宮崎県",
    "city": "都城市",
    "category": "day_service",
    "serviceType": "通所介護",
    "capacity": 0,
    "openDays": [
      "平日",
      "祝日"
    ],
    "openDaysNote": ""
  },
  {
    "id": "4570203226",
    "name": "デイサービスセンター　きらら",
    "kana": "デイサービスセンター　キララ",
    "address": "宮崎県都城市下長飯町1568",
    "lat": 31.7007894,
    "lng": 131.0681189,
    "tel": "0986-39-2526",
    "url": "",
    "pref": "宮崎県",
    "city": "都城市",
    "category": "day_service",
    "serviceType": "通所介護",
    "capacity": 0,
    "openDays": [
      "平日",
      "土曜日",
      "祝日"
    ],
    "openDaysNote": ""
  },
  {
    "id": "4570201691",
    "name": "デイサービスセンター　そよ風",
    "kana": "デイサービスセンター　ソヨカゼ",
    "address": "宮崎県都城市野々美谷町９０８番地４",
    "lat": 31.7848459,
    "lng": 131.0752244,
    "tel": "0986-45-3366",
    "url": "http://www.totalcareservice.info",
    "pref": "宮崎県",
    "city": "都城市",
    "category": "day_service",
    "serviceType": "通所介護",
    "capacity": 40,
    "openDays": [
      "平日",
      "土曜日",
      "日曜日",
      "祝日"
    ],
    "openDaysNote": ""
  },
  {
    "id": "4570202624",
    "name": "デイサービスセンター　とまり樹",
    "kana": "デイサービスセンター　トマリギ",
    "address": "宮崎県都城市郡元町2976-6",
    "lat": 31.7441029,
    "lng": 131.092366,
    "tel": "0986-36-6061",
    "url": "http://www.urara-miyakonojo.jp/",
    "pref": "宮崎県",
    "city": "都城市",
    "category": "day_service",
    "serviceType": "通所介護",
    "capacity": 35,
    "openDays": [
      "平日",
      "土曜日",
      "祝日"
    ],
    "openDaysNote": "年末年始３１日～１月２日は休み"
  },
  {
    "id": "4570200750",
    "name": "デイサービスセンターまりあ",
    "kana": "デイサービスセンターマリア",
    "address": "宮崎県都城市志比田町9541番地",
    "lat": 31.7523064,
    "lng": 131.0484887,
    "tel": "0986-46-9030",
    "url": "http://www.maria-f.jp/",
    "pref": "宮崎県",
    "city": "都城市",
    "category": "day_service",
    "serviceType": "通所介護",
    "capacity": 45,
    "openDays": [
      "平日",
      "土曜日",
      "祝日"
    ],
    "openDaysNote": "自然災害等でやむを得ない場合の休業、または、営業時間の変更あり。（改行）祝祭日も営業。ご利用者の状況を勘案し、対応出来ます。"
  },
  {
    "id": "4570202483",
    "name": "デイサービスセンターめぐる",
    "kana": "デイサービスセンターメグル",
    "address": "宮崎県都城市高城町大井手2651番地1",
    "lat": 31.8009394365352,
    "lng": 131.133731574869,
    "tel": "０９８６－５３－２０１２",
    "url": "http://meguru.info/",
    "pref": "宮崎県",
    "city": "都城市",
    "category": "day_service",
    "serviceType": "通所介護",
    "capacity": 38,
    "openDays": [
      "平日",
      "土曜日",
      "祝日"
    ],
    "openDaysNote": "8/14.15　　12/30～1/3"
  },
  {
    "id": "4571700758",
    "name": "デイサービスセンター花てまり",
    "kana": "デイサービスセンターハナテマリ",
    "address": "宮崎県都城市山之口町花木2205-9",
    "lat": 31.7797512,
    "lng": 131.1444223,
    "tel": "0986-29-1488",
    "url": "http://www.urara-miyakonojo.jp/",
    "pref": "宮崎県",
    "city": "都城市",
    "category": "day_service",
    "serviceType": "通所介護",
    "capacity": 7,
    "openDays": [
      "平日",
      "土曜日",
      "祝日"
    ],
    "openDaysNote": ""
  },
  {
    "id": "4570202061",
    "name": "デイサービスセンター元気の里",
    "kana": "デイサービスセンターゲンキノサト",
    "address": "宮崎県都城市上川東二丁目４号１３番地",
    "lat": 31.7401587738431,
    "lng": 131.07346833866,
    "tel": "0986-46-3607",
    "url": "http://www.sun3.jp/nisinihon/ds-genkinosato/",
    "pref": "宮崎県",
    "city": "都城市",
    "category": "day_service",
    "serviceType": "通所介護",
    "capacity": 0,
    "openDays": [
      "平日",
      "土曜日",
      "祝日"
    ],
    "openDaysNote": ""
  },
  {
    "id": "4570203465",
    "name": "デイサービスセンター元気の里　山之口館",
    "kana": "デイサービスセンターゲンキノサト　ヤマノクチカン",
    "address": "宮崎県都城市山之口町富吉3027番地9",
    "lat": 31.7805117495693,
    "lng": 131.140908161436,
    "tel": "0986-57-5155",
    "url": "http://www.sun3.jp/genki-yamanokuchi/",
    "pref": "宮崎県",
    "city": "都城市",
    "category": "day_service",
    "serviceType": "通所介護",
    "capacity": 0,
    "openDays": [
      "平日",
      "土曜日",
      "祝日"
    ],
    "openDaysNote": ""
  },
  {
    "id": "4570202988",
    "name": "デイサービスセンター志比田の里",
    "kana": "デイサービスセンターシビタノサト",
    "address": "宮崎県都城市志比田町７３８９番地",
    "lat": 31.7508205,
    "lng": 131.0518383,
    "tel": "０９８６－３６－７１５８",
    "url": "http://www.mj-careservice.co.jp/shibita/",
    "pref": "宮崎県",
    "city": "都城市",
    "category": "day_service",
    "serviceType": "通所介護",
    "capacity": 0,
    "openDays": [
      "平日",
      "土曜日",
      "祝日"
    ],
    "openDaysNote": ""
  },
  {
    "id": "4570201733",
    "name": "デイサービスセンター長遊園",
    "kana": "デイサービスセンターチョウユウエン",
    "address": "宮崎県都城市蔵原町12街区3号",
    "lat": 31.7215708,
    "lng": 131.0671988,
    "tel": "0986-46-3881",
    "url": "http://www.kanjikai.or.jp/",
    "pref": "宮崎県",
    "city": "都城市",
    "category": "day_service",
    "serviceType": "通所介護",
    "capacity": 50,
    "openDays": [
      "平日",
      "土曜日",
      "祝日"
    ],
    "openDaysNote": ""
  },
  {
    "id": "4570202566",
    "name": "デイサービスなごみの里",
    "kana": "デイサービスナゴミノサト",
    "address": "蓑原町8113番地",
    "lat": 31.7332633000003,
    "lng": 131.034113101189,
    "tel": "0986-21-3350",
    "url": "",
    "pref": "宮崎県",
    "city": "都城市",
    "category": "day_service",
    "serviceType": "通所介護",
    "capacity": 0,
    "openDays": [
      "平日",
      "土曜日",
      "祝日"
    ],
    "openDaysNote": "事業所は午前８時より営業。（改行）サービス提供開始は午前９時より。"
  },
  {
    "id": "4570204174",
    "name": "デイサービスなごみ苑",
    "kana": "デイサービスナゴミエン",
    "address": "宮崎県都城市上長飯町７－１２",
    "lat": 31.7184105,
    "lng": 131.0830525,
    "tel": "０９８６－５７－０１７３",
    "url": "",
    "pref": "宮崎県",
    "city": "都城市",
    "category": "day_service",
    "serviceType": "通所介護",
    "capacity": 0,
    "openDays": [
      "平日",
      "土曜日",
      "祝日"
    ],
    "openDaysNote": ""
  },
  {
    "id": "4570204893",
    "name": "デイサービスねお",
    "kana": "デイサービスネオ",
    "address": "宮崎県都城市金田町2263",
    "lat": 31.7704286,
    "lng": 131.0824612,
    "tel": "０９８６‐３８‐５６５６",
    "url": "https://mmshp.com/",
    "pref": "宮崎県",
    "city": "都城市",
    "category": "day_service",
    "serviceType": "通所介護",
    "capacity": 0,
    "openDays": [
      "平日",
      "土曜日",
      "祝日"
    ],
    "openDaysNote": "定休日以外は土曜日・祝祭日も通常通り営業しております。"
  },
  {
    "id": "4570203804",
    "name": "デイサービスふるさと七つ星",
    "kana": "デイサービスフルサトナナツボシ",
    "address": "菓子野町10298-1ふるさと七つ星 ふるさと七つ星",
    "lat": 31.7843652618,
    "lng": 131.05496574418,
    "tel": "0986-37-0603",
    "url": "http://www.sun3.jp/foryou/nanatuboshi/",
    "pref": "宮崎県",
    "city": "都城市",
    "category": "day_service",
    "serviceType": "通所介護",
    "capacity": 0,
    "openDays": [
      "平日",
      "土曜日",
      "祝日"
    ],
    "openDaysNote": ""
  },
  {
    "id": "4570200693",
    "name": "デイサービスふるる",
    "kana": "デイサービスフルル",
    "address": "宮崎県都城市安久町5596番地3",
    "lat": 31.6884574494064,
    "lng": 131.079405797417,
    "tel": "0986-27-6571",
    "url": "",
    "pref": "宮崎県",
    "city": "都城市",
    "category": "day_service",
    "serviceType": "通所介護",
    "capacity": null,
    "openDays": [
      "平日",
      "土曜日",
      "祝日"
    ],
    "openDaysNote": ""
  },
  {
    "id": "4570204323",
    "name": "デイサービスほっとん",
    "kana": "デイサービスホットン",
    "address": "宮崎県都城市高木町4343番地1",
    "lat": 31.7914131,
    "lng": 131.1066528,
    "tel": "0986-36-5563",
    "url": "https://www.human-town.com",
    "pref": "宮崎県",
    "city": "都城市",
    "category": "day_service",
    "serviceType": "通所介護",
    "capacity": 25,
    "openDays": [
      "平日",
      "土曜日",
      "日曜日",
      "祝日"
    ],
    "openDaysNote": ""
  },
  {
    "id": "4570204257",
    "name": "デイサービスみらい",
    "kana": "デイサービスミライ",
    "address": "宮崎県都城市上川東四丁目7号3番地",
    "lat": 31.745083,
    "lng": 131.077198,
    "tel": "0986－25－0551",
    "url": "",
    "pref": "宮崎県",
    "city": "都城市",
    "category": "day_service",
    "serviceType": "通所介護",
    "capacity": 0,
    "openDays": [
      "平日",
      "土曜日",
      "祝日"
    ],
    "openDaysNote": ""
  },
  {
    "id": "4570204299",
    "name": "デイサービスもちお",
    "kana": "デイサービスモチオ",
    "address": "宮崎県都城市横市町6644番地4",
    "lat": 31.7515303,
    "lng": 131.0146145,
    "tel": "0986-36-8825",
    "url": "https://greenhills-mochio.com",
    "pref": "宮崎県",
    "city": "都城市",
    "category": "day_service",
    "serviceType": "通所介護",
    "capacity": 0,
    "openDays": [
      "平日",
      "土曜日",
      "日曜日",
      "祝日"
    ],
    "openDaysNote": ""
  },
  {
    "id": "4570202236",
    "name": "デイサービスやまのくち",
    "kana": "デイサービスヤマノクチ",
    "address": "宮崎県都城市山之口町富吉2907番地",
    "lat": 31.7777096,
    "lng": 131.1409282,
    "tel": "0986-29-1135",
    "url": "http://www.totalcareservice.info/",
    "pref": "宮崎県",
    "city": "都城市",
    "category": "day_service",
    "serviceType": "通所介護",
    "capacity": 0,
    "openDays": [
      "平日",
      "土曜日",
      "祝日"
    ],
    "openDaysNote": "定休日は日曜日です。その他の月～土曜日は営業いたしております。（改行）また、祝祭日やお盆、年末年始も日曜日以外であれば営業いたしております。"
  },
  {
    "id": "4570203606",
    "name": "デイサービスよこいち",
    "kana": "デイサービスヨコイチ",
    "address": "宮崎県都城市横市町5876番地9",
    "lat": 31.7548777232555,
    "lng": 131.037125422615,
    "tel": "0986-36-8836",
    "url": "www.totalcareservice.info/",
    "pref": "宮崎県",
    "city": "都城市",
    "category": "day_service",
    "serviceType": "通所介護",
    "capacity": 0,
    "openDays": [
      "平日",
      "土曜日",
      "日曜日",
      "祝日"
    ],
    "openDaysNote": "年中無休（年末年始、お盆、祝祭日も営業）です。"
  },
  {
    "id": "4570201956",
    "name": "デイサービス春籠",
    "kana": "デイサービスハルカゴ",
    "address": "宮崎県都城市山之口町山之口3941番地4",
    "lat": 31.8014496,
    "lng": 131.1612397,
    "tel": "0986-29-1105",
    "url": "",
    "pref": "宮崎県",
    "city": "都城市",
    "category": "day_service",
    "serviceType": "通所介護",
    "capacity": 0,
    "openDays": [
      "平日",
      "土曜日",
      "祝日"
    ],
    "openDaysNote": "定休日であっても利用者の状況・希望等により対応する事が可能である。"
  },
  {
    "id": "4570201436",
    "name": "デイサービス正寿の都",
    "kana": "デイサービスショウジュノミヤコ",
    "address": "宮崎県都城市北原町２１街区１６号",
    "lat": 31.7331655799463,
    "lng": 131.077782252948,
    "tel": "0986-23-1256",
    "url": "http://www.yoshihara-c.co.jp/carelife2/index.html",
    "pref": "宮崎県",
    "city": "都城市",
    "category": "day_service",
    "serviceType": "通所介護",
    "capacity": 25,
    "openDays": [
      "平日",
      "土曜日",
      "祝日"
    ],
    "openDaysNote": ""
  },
  {
    "id": "4570202749",
    "name": "デイサービス弥埜",
    "kana": "デイサービスヤヤ",
    "address": "宮崎県都城市高崎町江平２３２７番地６",
    "lat": 31.8907722326826,
    "lng": 131.097958207935,
    "tel": "０９８６－６２－０７７１",
    "url": "",
    "pref": "宮崎県",
    "city": "都城市",
    "category": "day_service",
    "serviceType": "通所介護",
    "capacity": 30,
    "openDays": [
      "平日",
      "土曜日",
      "祝日"
    ],
    "openDaysNote": ""
  },
  {
    "id": "4570203895",
    "name": "デイサービス弥埜　新館",
    "kana": "デイサービスヤヤ　シンカン",
    "address": "宮崎県都城市高崎町江平2327番地6",
    "lat": 31.8908861,
    "lng": 131.0982157,
    "tel": "0986-62-3312",
    "url": "",
    "pref": "宮崎県",
    "city": "都城市",
    "category": "day_service",
    "serviceType": "通所介護",
    "capacity": 20,
    "openDays": [
      "平日",
      "土曜日",
      "祝日"
    ],
    "openDaysNote": ""
  },
  {
    "id": "4570204638",
    "name": "デイドリーム",
    "kana": "デイドリーム",
    "address": "宮崎県都城市吉尾町１９５８番地２",
    "lat": 31.7584504,
    "lng": 131.0755847,
    "tel": "986514165",
    "url": "",
    "pref": "宮崎県",
    "city": "都城市",
    "category": "day_service",
    "serviceType": "通所介護",
    "capacity": 0,
    "openDays": [
      "平日",
      "土曜日",
      "祝日"
    ],
    "openDaysNote": "12月31日と1月1日を休日とする。"
  },
  {
    "id": "4570203291",
    "name": "ハートケアデイサービス　早水事業所",
    "kana": "ハートケアデイサービス　ハヤミズジギョウショ",
    "address": "宮崎県　都城市　早水町　35号1番13",
    "lat": 31.732282,
    "lng": 131.1003937,
    "tel": "0986-36-6886",
    "url": "http://heart-care.biz/",
    "pref": "宮崎県",
    "city": "都城市",
    "category": "day_service",
    "serviceType": "通所介護",
    "capacity": 35,
    "openDays": [
      "平日",
      "土曜日",
      "祝日"
    ],
    "openDaysNote": "上記祭日が日曜日の場合、変更する場合がございます。"
  },
  {
    "id": "4570204711",
    "name": "ホームラン",
    "kana": "ホームラン",
    "address": "宮崎県都城市鷹尾三丁目７街区６号",
    "lat": 31.7218623943155,
    "lng": 131.042780418316,
    "tel": "0986-51-7621",
    "url": "https://homelan.life",
    "pref": "宮崎県",
    "city": "都城市",
    "category": "day_service",
    "serviceType": "通所介護",
    "capacity": 0,
    "openDays": [
      "平日"
    ],
    "openDaysNote": ""
  },
  {
    "id": "4570202194",
    "name": "ミューズの朝　栄町デイサービスセンター",
    "kana": "ミューズノアササカエマチデイサービスセンター",
    "address": "宮崎県都城市栄町２－２－１",
    "lat": 31.7360698,
    "lng": 131.0781227,
    "tel": "0986-21-1278",
    "url": "http://hoshakai.com",
    "pref": "宮崎県",
    "city": "都城市",
    "category": "day_service",
    "serviceType": "通所介護",
    "capacity": 0,
    "openDays": [
      "平日",
      "土曜日",
      "日曜日",
      "祝日"
    ],
    "openDaysNote": "利用者からの相談・希望があり、それに対応可能な場合に営業時間外であっても対応します。"
  },
  {
    "id": "4570204125",
    "name": "ミューズの朝高崎デイサービスセンター",
    "kana": "ミューズノアサタカザキデイサービスセンター",
    "address": "宮崎県都城市高崎町大牟田6486番地",
    "lat": 31.8713014,
    "lng": 131.0733739,
    "tel": "0986-62-4188",
    "url": "http://hoshakai.com/",
    "pref": "宮崎県",
    "city": "都城市",
    "category": "day_service",
    "serviceType": "通所介護",
    "capacity": 0,
    "openDays": [
      "平日",
      "土曜日",
      "日曜日",
      "祝日"
    ],
    "openDaysNote": "利用者から相談希望等がありそれに対応可能な場合は、営業時間外であっても対応します。"
  },
  {
    "id": "4570202012",
    "name": "ミューズの朝志比田デイサービスセンター",
    "kana": "ミューズノアサシビタデイサービスセンター",
    "address": "宮崎県都城市志比田町４５２６－１",
    "lat": 31.742924,
    "lng": 131.0520911,
    "tel": "0986-36-4537",
    "url": "http://hoshakai.com",
    "pref": "宮崎県",
    "city": "都城市",
    "category": "day_service",
    "serviceType": "通所介護",
    "capacity": 30,
    "openDays": [
      "平日",
      "土曜日",
      "日曜日",
      "祝日"
    ],
    "openDaysNote": "ただし利用者から希望があり、それに対応可能な場合は、この限りではありません。"
  },
  {
    "id": "4570203952",
    "name": "よかとこ鷹尾",
    "kana": "ヨカトコタカオ",
    "address": "宮崎県都城市鷹尾1丁目25街区61号",
    "lat": 31.72450573212,
    "lng": 131.049561171967,
    "tel": "0986-77-4300",
    "url": "",
    "pref": "宮崎県",
    "city": "都城市",
    "category": "day_service",
    "serviceType": "通所介護",
    "capacity": null,
    "openDays": [
      "平日",
      "土曜日",
      "祝日"
    ],
    "openDaysNote": ""
  },
  {
    "id": "4570201873",
    "name": "リハケアセンター都城",
    "kana": "リハケアセンターミヤコノジョウ",
    "address": "宮崎県都城市上長飯町３８号１番地",
    "lat": 31.7182072676637,
    "lng": 131.089971622754,
    "tel": "0986-36-4802",
    "url": "http://rehacare-will.jp",
    "pref": "宮崎県",
    "city": "都城市",
    "category": "day_service",
    "serviceType": "通所介護",
    "capacity": 50,
    "openDays": [
      "平日",
      "土曜日",
      "祝日"
    ],
    "openDaysNote": "定休日以外は土曜日・祝日も通常通り営業しております。"
  },
  {
    "id": "4570203622",
    "name": "リハシャインみやこんじょ",
    "kana": "リハシャインミヤコンジョ",
    "address": "宮崎県都城市蓑原町3224-2",
    "lat": 31.7282083,
    "lng": 131.0339102,
    "tel": "0986-36-8880",
    "url": "http://wing-smile.com/miyakonojyo",
    "pref": "宮崎県",
    "city": "都城市",
    "category": "day_service",
    "serviceType": "通所介護",
    "capacity": 40,
    "openDays": [
      "平日",
      "土曜日",
      "祝日"
    ],
    "openDaysNote": ""
  },
  {
    "id": "4570202137",
    "name": "リハビリステーション　ケアふる都城",
    "kana": "リハビリステーションケアフルミヤコノジョウ",
    "address": "宮崎県都城市鷹尾3丁目34街区1",
    "lat": 31.7280895415653,
    "lng": 131.047437673402,
    "tel": "0986-80-4117",
    "url": "http://www.care-project.co.jp",
    "pref": "宮崎県",
    "city": "都城市",
    "category": "day_service",
    "serviceType": "通所介護",
    "capacity": 40,
    "openDays": [
      "平日",
      "祝日"
    ],
    "openDaysNote": ""
  },
  {
    "id": "4570204307",
    "name": "リハビリデイサービス　暮らシャキッ",
    "kana": "リハビリデイサービスクラシャキッ",
    "address": "宮崎県都城市上水流町1182番地8",
    "lat": 31.8085639,
    "lng": 131.0983526,
    "tel": "0986-36-6643",
    "url": "",
    "pref": "宮崎県",
    "city": "都城市",
    "category": "day_service",
    "serviceType": "通所介護",
    "capacity": 30,
    "openDays": [
      "平日",
      "土曜日",
      "祝日"
    ],
    "openDaysNote": ""
  },
  {
    "id": "4570203036",
    "name": "わらべの里デイサービスセンター",
    "kana": "ワラベノサトデイサービスセンター",
    "address": "宮崎県都城市広原町20-8",
    "lat": 31.7270727510979,
    "lng": 131.09428576627,
    "tel": "0986-36-8133",
    "url": "",
    "pref": "宮崎県",
    "city": "都城市",
    "category": "day_service",
    "serviceType": "通所介護",
    "capacity": 45,
    "openDays": [
      "平日",
      "土曜日",
      "祝日"
    ],
    "openDaysNote": ""
  },
  {
    "id": "4570200487",
    "name": "横市デイサービスセンター",
    "kana": "ヨコイチデイサービスセンター",
    "address": "宮崎県都城市南横市町４０００番地",
    "lat": 31.7448928,
    "lng": 131.0360374,
    "tel": "0986-22-3688",
    "url": "http://mjfj.net",
    "pref": "宮崎県",
    "city": "都城市",
    "category": "day_service",
    "serviceType": "通所介護",
    "capacity": 0,
    "openDays": [
      "平日",
      "祝日"
    ],
    "openDaysNote": ""
  },
  {
    "id": "4570204976",
    "name": "温泉デイサービス　なぎさの風",
    "kana": "オンセンデイサービス　ナギサノカゼ",
    "address": "宮崎県都城市高崎町大牟田1332-8",
    "lat": 31.8820887,
    "lng": 131.06526,
    "tel": "0986-62-5527",
    "url": "http://laspa.sun.bindcloud.jp/nagisa_takazaki/.",
    "pref": "宮崎県",
    "city": "都城市",
    "category": "day_service",
    "serviceType": "通所介護",
    "capacity": null,
    "openDays": [
      "平日",
      "祝日"
    ],
    "openDaysNote": ""
  },
  {
    "id": "4570202947",
    "name": "株式会社　ハートハンズ",
    "kana": "カブシキカイシャ　ハートハンズ",
    "address": "都城市平塚町３１７２－１",
    "lat": 31.7180591,
    "lng": 131.0189096,
    "tel": "０９８６－２１－８０７７",
    "url": "",
    "pref": "宮崎県",
    "city": "都城市",
    "category": "day_service",
    "serviceType": "通所介護",
    "capacity": 20,
    "openDays": [
      "平日",
      "土曜日",
      "日曜日",
      "祝日"
    ],
    "openDaysNote": ""
  },
  {
    "id": "4570203416",
    "name": "株式会社　フォーハート",
    "kana": "カブシキガイシャ",
    "address": "宮崎県都城市山之口町花木１４８６番１皆福デイサービスセンター 皆福デイサービスセンター",
    "lat": 31.7776132624517,
    "lng": 131.152932369945,
    "tel": "0986-57-5555",
    "url": "http://www.4heart-kaigo.com/",
    "pref": "宮崎県",
    "city": "都城市",
    "category": "day_service",
    "serviceType": "通所介護",
    "capacity": 35,
    "openDays": [
      "平日",
      "土曜日",
      "祝日"
    ],
    "openDaysNote": ""
  },
  {
    "id": "4570203903",
    "name": "株式会社ケアサポート都城",
    "kana": "カブシキガイシャケアサポートミヤコノジョウ",
    "address": "宮崎県都城市金田町２５３８番地１",
    "lat": 31.7760142471861,
    "lng": 131.079985694579,
    "tel": "０９８６－３６－８３５８",
    "url": "",
    "pref": "宮崎県",
    "city": "都城市",
    "category": "day_service",
    "serviceType": "通所介護",
    "capacity": 40,
    "openDays": [
      "平日",
      "土曜日",
      "祝日"
    ],
    "openDaysNote": ""
  },
  {
    "id": "4570204224",
    "name": "元気印ＷＡＹＷＡＹ",
    "kana": "ゲンキジルシワイワイ",
    "address": "宮崎県都城市南鷹尾町15街区15号",
    "lat": 31.7171540310656,
    "lng": 131.039014163914,
    "tel": "0986-46-2687",
    "url": "https://yu-himawari.net/company.html",
    "pref": "宮崎県",
    "city": "都城市",
    "category": "day_service",
    "serviceType": "通所介護",
    "capacity": 0,
    "openDays": [
      "平日",
      "土曜日",
      "祝日"
    ],
    "openDaysNote": "災害等でやむを得ない場合の休業、営業時間の変更あり。（改行）祝祭日も営業。（改行）ご利用者の状況を勘案し、対応出来ます。"
  },
  {
    "id": "4570200040",
    "name": "五十市デイサービスセンターばら苑",
    "kana": "イソイチデイサービスセンターバラエン",
    "address": "宮崎県都城市鷹尾4丁目4389番地",
    "lat": 31.7247449,
    "lng": 131.0387042,
    "tel": "0986-24-8272",
    "url": "http://www.houei-group.or.jp/",
    "pref": "宮崎県",
    "city": "都城市",
    "category": "day_service",
    "serviceType": "通所介護",
    "capacity": 45,
    "openDays": [
      "平日",
      "土曜日",
      "祝日"
    ],
    "openDaysNote": "台風等の自然災害発生、感染症拡大時、危険を及ぼす可能性が高い場合は、急遽営業を中止する場合があります。"
  },
  {
    "id": "4571700071",
    "name": "高崎苑デイサービスセンター",
    "kana": "タカサキエンデイサービスセンター",
    "address": "宮崎県都城市高崎町縄瀬１６２２番地１７",
    "lat": 31.8526842,
    "lng": 131.0863321,
    "tel": "0986-62-5005",
    "url": "http://www.kenseikai.mocha.ocn.ne.jp",
    "pref": "宮崎県",
    "city": "都城市",
    "category": "day_service",
    "serviceType": "通所介護",
    "capacity": 25,
    "openDays": [
      "平日",
      "土曜日",
      "祝日"
    ],
    "openDaysNote": "年末年始は、定休日の変更あり。"
  },
  {
    "id": "4571700303",
    "name": "高城園デイサービスセンター",
    "kana": "タカジョウエンデイサービスセンター",
    "address": "宮崎県都城市高城町穂満坊3416番地",
    "lat": 31.8192249,
    "lng": 131.1272084,
    "tel": "0986-58-4550",
    "url": "https://www.takajyouen.jp/",
    "pref": "宮崎県",
    "city": "都城市",
    "category": "day_service",
    "serviceType": "通所介護",
    "capacity": 20,
    "openDays": [
      "平日",
      "土曜日",
      "祝日"
    ],
    "openDaysNote": ""
  },
  {
    "id": "4570200099",
    "name": "高齢者総合福祉施設恵寿苑デイサービスセンター",
    "kana": "コウレイシャソウゴウフクシシセツケイジュエンデイサービスセンター",
    "address": "宮崎県都城市太郎坊町５６３－１",
    "lat": 31.7891627,
    "lng": 131.0935952,
    "tel": "0986-38-8818",
    "url": "http://www.keijuen.net",
    "pref": "宮崎県",
    "city": "都城市",
    "category": "day_service",
    "serviceType": "通所介護",
    "capacity": 0,
    "openDays": [
      "平日",
      "土曜日",
      "祝日"
    ],
    "openDaysNote": ""
  },
  {
    "id": "4571700584",
    "name": "指定通所介護事業所あすなろ",
    "kana": "シテイツウショカイゴジギョウショアスナロ",
    "address": "宮崎県都城市高崎町縄瀬３１２８－１",
    "lat": 31.8566704,
    "lng": 131.1074665,
    "tel": "0986-45-8327",
    "url": "",
    "pref": "宮崎県",
    "city": "都城市",
    "category": "day_service",
    "serviceType": "通所介護",
    "capacity": 0,
    "openDays": [
      "平日",
      "土曜日",
      "祝日"
    ],
    "openDaysNote": ""
  },
  {
    "id": "4571700287",
    "name": "社会福祉法人あさぎり福祉会あさぎり園デイサービスセンター",
    "kana": "シャカイフクシホウジンアサギリフクシカイアサギリエンデイサービスセンター",
    "address": "宮崎県都城市山田町中霧島2546番地6",
    "lat": 31.7971356,
    "lng": 131.04584,
    "tel": "0986-64-3622",
    "url": "http://asagirien.jp/",
    "pref": "宮崎県",
    "city": "都城市",
    "category": "day_service",
    "serviceType": "通所介護",
    "capacity": 35,
    "openDays": [
      "平日",
      "土曜日",
      "祝日"
    ],
    "openDaysNote": ""
  },
  {
    "id": "4570200297",
    "name": "庄内デイサービスセンター",
    "kana": "ショウナイデイサービスセンター",
    "address": "宮崎県都城市庄内町8673番地3",
    "lat": 31.7699893294744,
    "lng": 131.02228054736,
    "tel": "0986-37-0894",
    "url": "http://mjfj.net//syounai-day/",
    "pref": "宮崎県",
    "city": "都城市",
    "category": "day_service",
    "serviceType": "通所介護",
    "capacity": 0,
    "openDays": [
      "平日",
      "祝日"
    ],
    "openDaysNote": ""
  },
  {
    "id": "4570201279",
    "name": "大地",
    "kana": "ダイチ",
    "address": "宮崎県都城市高崎町大牟田９０３番地９",
    "lat": 31.8788392893407,
    "lng": 131.062367778299,
    "tel": "0986-45-8010",
    "url": "www.daichi-takasaki.info",
    "pref": "宮崎県",
    "city": "都城市",
    "category": "day_service",
    "serviceType": "通所介護",
    "capacity": 30,
    "openDays": [
      "平日",
      "土曜日",
      "祝日"
    ],
    "openDaysNote": "特になし。"
  },
  {
    "id": "4571700311",
    "name": "都城市社会福祉協議会山田指定通所介護事業所",
    "kana": "ミヤコノジョウシシャカイフクシキョウギカイヤマダシテイツウショカイゴジギョウショ",
    "address": "宮崎県都城市山田町山田４３１９番地２",
    "lat": 31.8158812,
    "lng": 131.0421838,
    "tel": "0986-64-2200",
    "url": "",
    "pref": "宮崎県",
    "city": "都城市",
    "category": "day_service",
    "serviceType": "通所介護",
    "capacity": 0,
    "openDays": [
      "平日",
      "祝日"
    ],
    "openDaysNote": ""
  },
  {
    "id": "4570200362",
    "name": "都城市社会福祉協議会志和池福祉センター指定通所介護事業所",
    "kana": "ミヤコノジョウシシャカイフクシキョウギカイシワチフクシセンターシテイツウショカイゴジギョウショ",
    "address": "宮崎県都城市上水流町１５４０番地都城市志和池福祉センター 都城市志和池福祉センター",
    "lat": 31.8074639,
    "lng": 131.0941862,
    "tel": "0986-36-3111",
    "url": "https://www.miyakonojoshakyo.or.jp",
    "pref": "宮崎県",
    "city": "都城市",
    "category": "day_service",
    "serviceType": "通所介護",
    "capacity": 40,
    "openDays": [
      "平日",
      "祝日"
    ],
    "openDaysNote": ""
  },
  {
    "id": "4570203408",
    "name": "働くデイサービスセンターほほえみの園",
    "kana": "ハタラクデイサービスセンターホホエミノソノ",
    "address": "宮崎県都城市丸谷町386-1",
    "lat": 31.8108065481754,
    "lng": 131.056526451946,
    "tel": "0986-45-3101",
    "url": "www.smilehohoemi.com",
    "pref": "宮崎県",
    "city": "都城市",
    "category": "day_service",
    "serviceType": "通所介護",
    "capacity": 45,
    "openDays": [
      "平日",
      "土曜日",
      "日曜日",
      "祝日"
    ],
    "openDaysNote": "年中無休で営業"
  },
  {
    "id": "4570200156",
    "name": "豊望園デイサービスホーム",
    "kana": "ホウボウエンデイサービスホーム",
    "address": "宮崎県都城市下長飯町1640番地",
    "lat": 31.70147,
    "lng": 131.0723242,
    "tel": "0986-39-3993",
    "url": "http://www.houei-group.or.jp/index.htm",
    "pref": "宮崎県",
    "city": "都城市",
    "category": "day_service",
    "serviceType": "通所介護",
    "capacity": 60,
    "openDays": [
      "平日",
      "土曜日",
      "祝日"
    ],
    "openDaysNote": ""
  },
  {
    "id": "4570201451",
    "name": "有限会社ゆず",
    "kana": "ユウゲンカイシャユズ",
    "address": "宮崎県都城市高崎町大牟田８１７－２２",
    "lat": 31.8841166,
    "lng": 131.0599248,
    "tel": "0986-62-1007",
    "url": "",
    "pref": "宮崎県",
    "city": "都城市",
    "category": "day_service",
    "serviceType": "通所介護",
    "capacity": 28,
    "openDays": [
      "平日",
      "土曜日",
      "祝日"
    ],
    "openDaysNote": ""
  },
  {
    "id": "4570200552",
    "name": "老人短期入所施設あやめ苑デイサービス",
    "kana": "ロウジンタンキニュウショシセツアヤメエン",
    "address": "宮崎県都城市早水町3389番地2",
    "lat": 31.7399561,
    "lng": 131.0946244,
    "tel": "0986-26-3993",
    "url": "http://www.houei-group.or.jp/",
    "pref": "宮崎県",
    "city": "都城市",
    "category": "day_service",
    "serviceType": "通所介護",
    "capacity": 0,
    "openDays": [
      "平日",
      "土曜日",
      "祝日"
    ],
    "openDaysNote": ""
  },
  {
    "id": "4572000414",
    "name": "尾鈴荘デイサービスセンター",
    "kana": "オスズソウデイサービスセンター",
    "address": "宮崎県児湯郡都農町大字川北18913番地18",
    "lat": 32.2565595,
    "lng": 131.5575849,
    "tel": "0983-25-3421",
    "url": "",
    "pref": "宮崎県",
    "city": "都農町",
    "category": "day_service",
    "serviceType": "通所介護",
    "capacity": 0,
    "openDays": [
      "平日",
      "土曜日",
      "祝日"
    ],
    "openDaysNote": ""
  },
  {
    "id": "4572001925",
    "name": "尾鈴荘デイサービスセンター2号館",
    "kana": "オスズソウデイサービスセンターニゴウカン",
    "address": "宮崎県児湯郡都農町大字川北1141-5",
    "lat": 32.2487791,
    "lng": 131.5523625,
    "tel": "0983-21-2055",
    "url": "",
    "pref": "宮崎県",
    "city": "都農町",
    "category": "day_service",
    "serviceType": "通所介護",
    "capacity": 0,
    "openDays": [
      "平日",
      "土曜日",
      "祝日"
    ],
    "openDaysNote": ""
  },
  {
    "id": "4570600645",
    "name": "ＪＡ日向デイサービスセンター「あぐり」",
    "kana": "ジェイエイヒュウガデイサービスセンター「アグリ」",
    "address": "宮崎県日向市鶴町１丁目２６番地",
    "lat": 32.4262912,
    "lng": 131.6287814,
    "tel": "0982-55-1885",
    "url": "",
    "pref": "宮崎県",
    "city": "日向市",
    "category": "day_service",
    "serviceType": "通所介護",
    "capacity": 35,
    "openDays": [
      "平日",
      "土曜日",
      "祝日"
    ],
    "openDaysNote": "台風など自然災害で、危険性の高い日はお休みさせていただきます。"
  },
  {
    "id": "4570601577",
    "name": "コンパスウォーク日向北町",
    "kana": "コンパスウォークヒュウガキタマチ",
    "address": "宮崎県日向市北町1丁目60番",
    "lat": 32.4299256217511,
    "lng": 131.62703222209,
    "tel": "0982-57-3620",
    "url": "",
    "pref": "宮崎県",
    "city": "日向市",
    "category": "day_service",
    "serviceType": "通所介護",
    "capacity": null,
    "openDays": [
      "平日",
      "祝日"
    ],
    "openDaysNote": "法人の定める休日あり、取得2週間前までには告知する。"
  },
  {
    "id": "4570600975",
    "name": "デイサービス　みすず",
    "kana": "デイサービス　ミスズ",
    "address": "宮崎県日向市東郷町山陰辛613番地5",
    "lat": 32.3913413,
    "lng": 131.5139313,
    "tel": "0982-69-2503",
    "url": "",
    "pref": "宮崎県",
    "city": "日向市",
    "category": "day_service",
    "serviceType": "通所介護",
    "capacity": 20,
    "openDays": [
      "平日",
      "土曜日",
      "日曜日",
      "祝日"
    ],
    "openDaysNote": ""
  },
  {
    "id": "4570601437",
    "name": "デイサービス　やすらぎの里",
    "kana": "デイサービス　ヤスラギノサト",
    "address": "宮崎県日向市大字塩見１４００５番地",
    "lat": 32.402204,
    "lng": 131.602151,
    "tel": "0982-56-2550",
    "url": "",
    "pref": "宮崎県",
    "city": "日向市",
    "category": "day_service",
    "serviceType": "通所介護",
    "capacity": null,
    "openDays": [
      "平日",
      "土曜日",
      "日曜日",
      "祝日"
    ],
    "openDaysNote": ""
  },
  {
    "id": "4570600371",
    "name": "デイサービス　伊勢ヶ浜",
    "kana": "デイサービス　イセガハマ",
    "address": "宮崎県日向市大字日知屋字深溝622番地116",
    "lat": 32.4155624,
    "lng": 131.65343,
    "tel": "0982-50-1710",
    "url": "http://www.hakuyou.or.jp/",
    "pref": "宮崎県",
    "city": "日向市",
    "category": "day_service",
    "serviceType": "通所介護",
    "capacity": 30,
    "openDays": [
      "平日",
      "土曜日",
      "日曜日",
      "祝日"
    ],
    "openDaysNote": "但し、気象条件等によりサービスの提供が困難と思われる時はお休みする場合があります。"
  },
  {
    "id": "4570601122",
    "name": "デイサービス　緑の風",
    "kana": "デイサービス　ミドリノカゼ",
    "address": "宮崎県日向市東郷町山陰辛264番2",
    "lat": 32.3906844820811,
    "lng": 131.514371182278,
    "tel": "0982-68-3510",
    "url": "bozanso.main.jp",
    "pref": "宮崎県",
    "city": "日向市",
    "category": "day_service",
    "serviceType": "通所介護",
    "capacity": 0,
    "openDays": [
      "平日",
      "土曜日",
      "祝日"
    ],
    "openDaysNote": "1月1日も休みとさせてもらっています。（改行）（改行）また、営業時間は8時となっていますが、8～9時までは職員が立て込んでいます。（改行）緊急時を除いて、ご連絡は9時以降にお願いします。"
  },
  {
    "id": "4570601452",
    "name": "デイサービスあくた東郷店",
    "kana": "デイサービスアクタトウゴウテン",
    "address": "宮崎県日向市東郷町山陰字後口原辛826-2株式会社　アワダホーム 株式会社　アワダホーム",
    "lat": 32.3941192435377,
    "lng": 131.510036281615,
    "tel": "0982-50-7050",
    "url": "",
    "pref": "宮崎県",
    "city": "日向市",
    "category": "day_service",
    "serviceType": "通所介護",
    "capacity": 0,
    "openDays": [
      "平日",
      "祝日"
    ],
    "openDaysNote": "・夏季（お盆）休暇【１日間】（改行）・年末年始休暇(１２月３１日～１月３日）４日間"
  },
  {
    "id": "4570600827",
    "name": "デイサービスセンター　だんらん",
    "kana": "デイサービスセンター　ダンラン",
    "address": "宮崎県日向市日知屋３３８９番地１５",
    "lat": 32.4295861,
    "lng": 131.6516904,
    "tel": "0982-57-3432",
    "url": "",
    "pref": "宮崎県",
    "city": "日向市",
    "category": "day_service",
    "serviceType": "通所介護",
    "capacity": 0,
    "openDays": [
      "平日",
      "土曜日",
      "祝日"
    ],
    "openDaysNote": ""
  },
  {
    "id": "4570600850",
    "name": "デイサービスセンター美しき海",
    "kana": "デイサービスセンターウツクシキウミ",
    "address": "宮崎県日向市大字平岩448番地",
    "lat": 32.3702999,
    "lng": 131.6289673,
    "tel": "0982-50-6517",
    "url": "sunmarine@toriton.ocn.ne.jp",
    "pref": "宮崎県",
    "city": "日向市",
    "category": "day_service",
    "serviceType": "通所介護",
    "capacity": 0,
    "openDays": [
      "平日",
      "土曜日",
      "祝日"
    ],
    "openDaysNote": ""
  },
  {
    "id": "4570601189",
    "name": "ファーストカラーデイサービス",
    "kana": "ファストカラーデイサアビス",
    "address": "宮崎県日向市都町9番地１２号",
    "lat": 32.4269522,
    "lng": 131.6253233,
    "tel": "０９８２－５４－３４５３",
    "url": "",
    "pref": "宮崎県",
    "city": "日向市",
    "category": "day_service",
    "serviceType": "通所介護",
    "capacity": 2,
    "openDays": [
      "平日",
      "土曜日",
      "祝日"
    ],
    "openDaysNote": ""
  },
  {
    "id": "4570600272",
    "name": "ラフィネデイサービスセンター",
    "kana": "ラフィネデイサービスセンター",
    "address": "宮崎県日向市原町３丁目１－２４",
    "lat": 32.4235888,
    "lng": 131.6323173,
    "tel": "0982-53-7188",
    "url": "",
    "pref": "宮崎県",
    "city": "日向市",
    "category": "day_service",
    "serviceType": "通所介護",
    "capacity": 0,
    "openDays": [
      "平日",
      "土曜日",
      "日曜日",
      "祝日"
    ],
    "openDaysNote": ""
  },
  {
    "id": "4510610472",
    "name": "医療法人社団慶城会瀧井病院",
    "kana": "イリョウホウジンシャダンケイジョウカイタキイビョウイン",
    "address": "宮崎県日向市大字塩見１１６５２",
    "lat": 32.4117584,
    "lng": 131.6011426,
    "tel": "0982-55-9018",
    "url": "",
    "pref": "宮崎県",
    "city": "日向市",
    "category": "day_service",
    "serviceType": "通所介護",
    "capacity": 0,
    "openDays": [
      "平日",
      "土曜日",
      "祝日"
    ],
    "openDaysNote": ""
  },
  {
    "id": "4570600207",
    "name": "永寿園デイサービスセンター",
    "kana": "エイジュエンデイサービスセンター",
    "address": "宮崎県日向市大字富高546-1",
    "lat": 32.4213802,
    "lng": 131.6177019,
    "tel": "0982-53-4081",
    "url": "www.himawarikai.or.jp/",
    "pref": "宮崎県",
    "city": "日向市",
    "category": "day_service",
    "serviceType": "通所介護",
    "capacity": 0,
    "openDays": [
      "平日",
      "土曜日",
      "祝日"
    ],
    "openDaysNote": "ほか、自然災害等により利用に危険性のあるときは休み"
  },
  {
    "id": "4570600892",
    "name": "永寿園デイサービスセンターざいこうじ",
    "kana": "エイジュエンデイサ－ビスセンターザイコウジ",
    "address": "大字財光寺６５４７番地５",
    "lat": 32.4162725,
    "lng": 131.6224238,
    "tel": "0982-54-7055",
    "url": "www.himawarikai.or.jp/",
    "pref": "宮崎県",
    "city": "日向市",
    "category": "day_service",
    "serviceType": "通所介護",
    "capacity": null,
    "openDays": [
      "平日",
      "土曜日",
      "祝日"
    ],
    "openDaysNote": "ほか、自然災害等により利用に危険性のあるときは休み"
  },
  {
    "id": "4572100321",
    "name": "社会福祉法人玉峰会牧水園デイサービスセンター",
    "kana": "シャカイフクシホウジンギョクホウカイボクスイエンデイサービスセンター",
    "address": "宮崎県日向市東郷町山陰丙1246",
    "lat": 32.3922894,
    "lng": 131.5362656,
    "tel": "0982-69-2166",
    "url": "http://gyokuhou-kai.or.jp/",
    "pref": "宮崎県",
    "city": "日向市",
    "category": "day_service",
    "serviceType": "通所介護",
    "capacity": 0,
    "openDays": [
      "平日",
      "土曜日",
      "祝日"
    ],
    "openDaysNote": ""
  },
  {
    "id": "4570601510",
    "name": "竹島デイサービスセンター",
    "kana": "タケシマデイサービスセンター",
    "address": "宮崎県日向市竹島町１番地４７",
    "lat": 32.4355497652659,
    "lng": 131.654717128836,
    "tel": "0982-66-0233",
    "url": "",
    "pref": "宮崎県",
    "city": "日向市",
    "category": "day_service",
    "serviceType": "通所介護",
    "capacity": 0,
    "openDays": [
      "平日",
      "祝日"
    ],
    "openDaysNote": ""
  },
  {
    "id": "4570600959",
    "name": "天生堂デイサービスセンター",
    "kana": "テンセイドウデイサービスセンター",
    "address": "宮崎県日向市亀崎西１丁目２９番地",
    "lat": 32.4392206,
    "lng": 131.6290947,
    "tel": "0982-57-3477",
    "url": "http://www.tenseidou.jp",
    "pref": "宮崎県",
    "city": "日向市",
    "category": "day_service",
    "serviceType": "通所介護",
    "capacity": 25,
    "openDays": [
      "平日",
      "土曜日",
      "祝日"
    ],
    "openDaysNote": ""
  },
  {
    "id": "4570600165",
    "name": "立縫の里デイサービスセンター",
    "kana": "タチヌイノサトデイサービスセンター",
    "address": "宮崎県日向市美々津町4074番地",
    "lat": 32.3328453501163,
    "lng": 131.597247962566,
    "tel": "0982-58-1100",
    "url": "http://www.tachinuikai.or.jp",
    "pref": "宮崎県",
    "city": "日向市",
    "category": "day_service",
    "serviceType": "通所介護",
    "capacity": 0,
    "openDays": [
      "平日",
      "土曜日",
      "祝日"
    ],
    "openDaysNote": ""
  },
  {
    "id": "4570400376",
    "name": "おひさまデイサービス",
    "kana": "オヒサマデイサービス",
    "address": "宮崎県日南市吾田西１－４－３０",
    "lat": 31.6061955,
    "lng": 131.3768529,
    "tel": "0987-23-6517",
    "url": "",
    "pref": "宮崎県",
    "city": "日南市",
    "category": "day_service",
    "serviceType": "通所介護",
    "capacity": null,
    "openDays": [
      "平日",
      "土曜日",
      "日曜日",
      "祝日"
    ],
    "openDaysNote": ""
  },
  {
    "id": "4570401481",
    "name": "デイサービス　はいびすかす",
    "kana": "デイサービス　ハイビスカス",
    "address": "宮崎県日南市北郷町北河内5754",
    "lat": 31.7242629,
    "lng": 131.3293416,
    "tel": "0987-56-1505",
    "url": "https://www.hanatate.com/",
    "pref": "宮崎県",
    "city": "日南市",
    "category": "day_service",
    "serviceType": "通所介護",
    "capacity": 0,
    "openDays": [
      "平日"
    ],
    "openDaysNote": ""
  },
  {
    "id": "4570401069",
    "name": "デイサービス　はなたて",
    "kana": "デイサービス　ハナタテ",
    "address": "宮崎県日南市北郷町郷之原甲３５９８番地１",
    "lat": 31.692182,
    "lng": 131.3730894,
    "tel": "0987-21-7701",
    "url": "http://www.hanatate.com/",
    "pref": "宮崎県",
    "city": "日南市",
    "category": "day_service",
    "serviceType": "通所介護",
    "capacity": 10,
    "openDays": [
      "平日",
      "祝日"
    ],
    "openDaysNote": ""
  },
  {
    "id": "4570401226",
    "name": "デイサービスセンター　あじさい",
    "kana": "デイサービスセンター　アジサイ",
    "address": "宮崎県日南市大字楠原７００番地１",
    "lat": 31.6201051,
    "lng": 131.3385045,
    "tel": "0987-27-3956",
    "url": "",
    "pref": "宮崎県",
    "city": "日南市",
    "category": "day_service",
    "serviceType": "通所介護",
    "capacity": null,
    "openDays": [
      "平日",
      "祝日"
    ],
    "openDaysNote": ""
  },
  {
    "id": "4570401044",
    "name": "デイサービスセンターさくら",
    "kana": "デイサービスセンターサクラ",
    "address": "宮崎県日南市大字隈谷甲878-1デイサービスセンターさくら デイサービスセンターさくら",
    "lat": 31.5748819,
    "lng": 131.3748159,
    "tel": "0987-32-6011",
    "url": "",
    "pref": "宮崎県",
    "city": "日南市",
    "category": "day_service",
    "serviceType": "通所介護",
    "capacity": 40,
    "openDays": [
      "平日",
      "土曜日",
      "祝日"
    ],
    "openDaysNote": ""
  },
  {
    "id": "4570400707",
    "name": "デイサービスセンターびろうの里",
    "kana": "デイサービスセンタービロウノサト",
    "address": "宮崎県日南市南郷町中村乙6947-2",
    "lat": 31.5295536916946,
    "lng": 131.364901355156,
    "tel": "0987-64-1630",
    "url": "https://biroukaibirounosato.wixsite.com/mysite",
    "pref": "宮崎県",
    "city": "日南市",
    "category": "day_service",
    "serviceType": "通所介護",
    "capacity": 0,
    "openDays": [
      "平日",
      "土曜日",
      "祝日"
    ],
    "openDaysNote": "通常時間内対応"
  },
  {
    "id": "4570400608",
    "name": "デイサービスセンターファミリー",
    "kana": "デイサービスセンターファミリー",
    "address": "宮崎県日南市南郷町中村甲2367番地3",
    "lat": 31.5465170536711,
    "lng": 131.361906412238,
    "tel": "0987-55-5021",
    "url": "http://www.family-nichinan.com/",
    "pref": "宮崎県",
    "city": "日南市",
    "category": "day_service",
    "serviceType": "通所介護",
    "capacity": 35,
    "openDays": [
      "平日",
      "祝日"
    ],
    "openDaysNote": ""
  },
  {
    "id": "4570400830",
    "name": "デイサービスにじ",
    "kana": "デイサービスニジ",
    "address": "宮崎県日南市大字平山５４１番地２",
    "lat": 31.5967301,
    "lng": 131.4087624,
    "tel": "0987-23-7755",
    "url": "",
    "pref": "宮崎県",
    "city": "日南市",
    "category": "day_service",
    "serviceType": "通所介護",
    "capacity": 0,
    "openDays": [
      "平日",
      "土曜日",
      "日曜日",
      "祝日"
    ],
    "openDaysNote": ""
  },
  {
    "id": "4570400632",
    "name": "デイサービスぽぽの木",
    "kana": "デイサービスポポノキ",
    "address": "宮崎県日南市東弁分甲1112番地１",
    "lat": 31.6299816075359,
    "lng": 131.390502933782,
    "tel": "0987－23－7280",
    "url": "",
    "pref": "宮崎県",
    "city": "日南市",
    "category": "day_service",
    "serviceType": "通所介護",
    "capacity": 30,
    "openDays": [
      "平日",
      "土曜日",
      "祝日"
    ],
    "openDaysNote": "但し１月１日・２日休業"
  },
  {
    "id": "4570400988",
    "name": "デイサービス貴崇",
    "kana": "デイサービス　タカソウ",
    "address": "南郷町谷之口2384番地7",
    "lat": 31.5314079,
    "lng": 131.3397985,
    "tel": "0987-21-8516",
    "url": "takasou@sage.ocn.ne.jp",
    "pref": "宮崎県",
    "city": "日南市",
    "category": "day_service",
    "serviceType": "通所介護",
    "capacity": 30,
    "openDays": [
      "平日",
      "土曜日",
      "祝日"
    ],
    "openDaysNote": ""
  },
  {
    "id": "4570400194",
    "name": "はまゆうの里デイサービス",
    "kana": "ハマユウノサトデイサービス",
    "address": "宮崎県日南市大字楠原１８４０番地",
    "lat": 31.6179051,
    "lng": 131.3426768,
    "tel": "0987-21-2080",
    "url": "http://tokueikai.lar.jp/hamayudayservice",
    "pref": "宮崎県",
    "city": "日南市",
    "category": "day_service",
    "serviceType": "通所介護",
    "capacity": 50,
    "openDays": [
      "平日",
      "土曜日",
      "祝日"
    ],
    "openDaysNote": "日曜日以外無休の予定であるが、年始については利用者の意向により休業を行う場合がある"
  },
  {
    "id": "4570400756",
    "name": "よつば通所介護事業所",
    "kana": "ヨツバツウショカイゴジギョウショ",
    "address": "宮崎県日南市平野1512番地3",
    "lat": 31.6096897,
    "lng": 131.3855245,
    "tel": "0987-23-4280",
    "url": "",
    "pref": "宮崎県",
    "city": "日南市",
    "category": "day_service",
    "serviceType": "通所介護",
    "capacity": null,
    "openDays": [
      "平日",
      "土曜日",
      "日曜日",
      "祝日"
    ],
    "openDaysNote": ""
  },
  {
    "id": "4570400871",
    "name": "リハステップ郷",
    "kana": "リハステップゴウ",
    "address": "北郷町郷之原乙２０５８－１",
    "lat": 31.6748785,
    "lng": 131.3736316,
    "tel": "0987-55-2050",
    "url": "https://www.1step16.com/",
    "pref": "宮崎県",
    "city": "日南市",
    "category": "day_service",
    "serviceType": "通所介護",
    "capacity": 0,
    "openDays": [
      "平日"
    ],
    "openDaysNote": ""
  },
  {
    "id": "4570400368",
    "name": "ロイヤルガーデン日南",
    "kana": "ロイヤルガーデンニチナン",
    "address": "宮崎県日南市大字星倉１０９９番地2",
    "lat": 31.6254106,
    "lng": 131.3695305,
    "tel": "0987-23-1165",
    "url": "http://www.keiwakai.co.jp",
    "pref": "宮崎県",
    "city": "日南市",
    "category": "day_service",
    "serviceType": "通所介護",
    "capacity": null,
    "openDays": [
      "平日",
      "土曜日",
      "祝日"
    ],
    "openDaysNote": ""
  },
  {
    "id": "4571600057",
    "name": "河鹿の里通所介護事業所",
    "kana": "カジカノサトツウショカイゴジギョウショ",
    "address": "宮崎県日南市北郷町大藤字折生田甲1384番地５",
    "lat": 31.6571580563588,
    "lng": 131.382368060249,
    "tel": "0987-55-3905",
    "url": "http://www.aienkai.jp/",
    "pref": "宮崎県",
    "city": "日南市",
    "category": "day_service",
    "serviceType": "通所介護",
    "capacity": 40,
    "openDays": [
      "平日",
      "土曜日",
      "祝日"
    ],
    "openDaysNote": ""
  },
  {
    "id": "4570401283",
    "name": "花みずきデイサービス",
    "kana": "ハナミズキ　デイサービス",
    "address": "宮崎県日南市中央通１丁目４番地１６号住宅型有料老人ホーム　花みずき併設 住宅型有料老人ホーム　花みずき併設",
    "lat": 31.6034553581728,
    "lng": 131.380665098688,
    "tel": "0987-23-8105",
    "url": "ｈｔｔｐ：//ｔｏｋｕｅｉｋａｉ．ｌａｒ．ｊｐ/",
    "pref": "宮崎県",
    "city": "日南市",
    "category": "day_service",
    "serviceType": "通所介護",
    "capacity": 0,
    "openDays": [
      "平日",
      "土曜日",
      "日曜日",
      "祝日"
    ],
    "openDaysNote": ""
  },
  {
    "id": "4570401101",
    "name": "社会福祉法人　デイサービスセンター　日南ふれあいホーム",
    "kana": "シャカイフクシホウジン　デイサービスセンター　ニチナンフレアイホーム",
    "address": "宮崎県日南市飫肥六丁目6番62号",
    "lat": 31.6241938,
    "lng": 131.3549148,
    "tel": "0987-21-2570",
    "url": "http://www.keimeisw.or.jp",
    "pref": "宮崎県",
    "city": "日南市",
    "category": "day_service",
    "serviceType": "通所介護",
    "capacity": 0,
    "openDays": [
      "平日",
      "土曜日",
      "祝日"
    ],
    "openDaysNote": ""
  },
  {
    "id": "4570400103",
    "name": "昭寿園通所介護事業所",
    "kana": "ショウジュエンツウショカイゴジギョウショ",
    "address": "宮崎県日南市大字風田３８９５番地",
    "lat": 31.6117073,
    "lng": 131.4219278,
    "tel": "0987-31-0661",
    "url": "http;//shojuen.jp/",
    "pref": "宮崎県",
    "city": "日南市",
    "category": "day_service",
    "serviceType": "通所介護",
    "capacity": 30,
    "openDays": [
      "平日",
      "土曜日",
      "祝日"
    ],
    "openDaysNote": ""
  },
  {
    "id": "4570401572",
    "name": "通所介護施設　星のグリーンテラス",
    "kana": "ツウショカイゴシセツ　ホシノグリーンテラス",
    "address": "宮崎県日南市吾田西三丁目8番23号",
    "lat": 31.6098577,
    "lng": 131.3716056,
    "tel": "0987-55-1606",
    "url": "moritokaze-sato.com",
    "pref": "宮崎県",
    "city": "日南市",
    "category": "day_service",
    "serviceType": "通所介護",
    "capacity": 0,
    "openDays": [
      "平日",
      "土曜日"
    ],
    "openDaysNote": ""
  },
  {
    "id": "4571600065",
    "name": "特別養護老人ホームくろしおの里",
    "kana": "トクベツヨウゴロウジンホームクロシオノサト",
    "address": "宮崎県日南市南郷町中村乙7051番地111",
    "lat": 31.5216095,
    "lng": 131.3776322,
    "tel": "0987-64-3143",
    "url": "kurosionosato.or.jp",
    "pref": "宮崎県",
    "city": "日南市",
    "category": "day_service",
    "serviceType": "通所介護",
    "capacity": 0,
    "openDays": [
      "平日",
      "土曜日",
      "祝日"
    ],
    "openDaysNote": ""
  },
  {
    "id": "4572200089",
    "name": "デイサービス天神荘",
    "kana": "デイサアビステンジンソウ",
    "address": "宮崎県西臼杵郡日之影町大字七折８８４０番地",
    "lat": 32.6586045,
    "lng": 131.3839406,
    "tel": "0982-87-2680",
    "url": "http://www.shakyo.or.jp/hp/1728/",
    "pref": "宮崎県",
    "city": "日之影町",
    "category": "day_service",
    "serviceType": "通所介護",
    "capacity": 0,
    "openDays": [
      "平日",
      "土曜日",
      "祝日"
    ],
    "openDaysNote": ""
  },
  {
    "id": "4572200105",
    "name": "株式会社サン・ルーム西臼杵営業所",
    "kana": "カブシキカイシャサン・ルームニシウスキエイギョウショ",
    "address": "宮崎県西臼杵郡日之影町大字七折12190-1",
    "lat": 32.6746285973419,
    "lng": 131.364693838867,
    "tel": "0982-87-3006",
    "url": "http://care-net.biz/45/sun-room",
    "pref": "宮崎県",
    "city": "日之影町",
    "category": "day_service",
    "serviceType": "通所介護",
    "capacity": 0,
    "openDays": [
      "平日",
      "土曜日",
      "祝日"
    ],
    "openDaysNote": ""
  },
  {
    "id": "4572100347",
    "name": "特別養護老人ホームシルバースターうなまの里通所介護事業所",
    "kana": "トクベツヨウゴロウジンホームシルバースターウナマノサトツウショカイゴジギョウショ",
    "address": "宮崎県東臼杵郡美郷町北郷宇納間170",
    "lat": 32.5049572,
    "lng": 131.4436881,
    "tel": "0982-62-6155",
    "url": "https://www.unamanosato.jp/",
    "pref": "宮崎県",
    "city": "美郷町",
    "category": "day_service",
    "serviceType": "通所介護",
    "capacity": 0,
    "openDays": [
      "平日",
      "祝日"
    ],
    "openDaysNote": "平日の祝日は営業してます。（改行）ただし利用者から希望があり、それに対応可能な場合はこの限りではありません。"
  },
  {
    "id": "4572100297",
    "name": "美郷町社会福祉協議会西郷事業所",
    "kana": "ミサトチョウシャカイフクシキョウギカイサイゴウジギョウショ",
    "address": "宮崎県東臼杵郡美郷町西郷田代１６６３番地西郷デイサービスセンター梅香園 西郷デイサービスセンター梅香園",
    "lat": 32.4309959,
    "lng": 131.4267206,
    "tel": "0982-66-2464",
    "url": "http://www.misato-syakyou.jp/",
    "pref": "宮崎県",
    "city": "美郷町",
    "category": "day_service",
    "serviceType": "通所介護",
    "capacity": 0,
    "openDays": [
      "平日",
      "祝日"
    ],
    "openDaysNote": ""
  },
  {
    "id": "4572100305",
    "name": "美郷町社会福祉協議会南郷事業所",
    "kana": "ミサトチョウシャカイフクシキョウギカイナンゴウジギョウショ",
    "address": "宮崎県東臼杵郡美郷町南郷神門1071番地5",
    "lat": 32.4374035,
    "lng": 131.422493,
    "tel": "0982-59-0939",
    "url": "http://wwwmisato-syakyou.jp",
    "pref": "宮崎県",
    "city": "美郷町",
    "category": "day_service",
    "serviceType": "通所介護",
    "capacity": 30,
    "openDays": [
      "平日",
      "土曜日"
    ],
    "openDaysNote": ""
  },
  {
    "id": "4572000828",
    "name": "ケアポート木の瀬",
    "kana": "ケアポートキノセ",
    "address": "宮崎県児湯郡木城町大字椎木６０２７－１",
    "lat": 32.154601,
    "lng": 131.4822667,
    "tel": "0983-26-6023",
    "url": "",
    "pref": "宮崎県",
    "city": "木城町",
    "category": "day_service",
    "serviceType": "通所介護",
    "capacity": 0,
    "openDays": [
      "平日",
      "土曜日",
      "祝日"
    ],
    "openDaysNote": ""
  },
  {
    "id": "4572001776",
    "name": "木城地域ふれあい館　輝らら",
    "kana": "キジョウチイキフレアイカン　キララ",
    "address": "宮崎県児湯郡木城町大字高城1427-1",
    "lat": 32.1678189654709,
    "lng": 131.479245362303,
    "tel": "0983-32-4624",
    "url": "",
    "pref": "宮崎県",
    "city": "木城町",
    "category": "day_service",
    "serviceType": "通所介護",
    "capacity": null,
    "openDays": [
      "平日",
      "土曜日",
      "祝日"
    ],
    "openDaysNote": ""
  },
  {
    "id": "4572000315",
    "name": "木城町通所介護事業所",
    "kana": "キジョウチョウツウショカイゴジギョウショ",
    "address": "宮崎県児湯郡木城町大字高城3064番地",
    "lat": 32.1667912,
    "lng": 131.4634097,
    "tel": "0983-32-3388",
    "url": "",
    "pref": "宮崎県",
    "city": "木城町",
    "category": "day_service",
    "serviceType": "通所介護",
    "capacity": 0,
    "openDays": [
      "平日",
      "土曜日",
      "祝日"
    ],
    "openDaysNote": "日曜以外の祝日は営業しています。"
  },
  {
    "id": "4572100867",
    "name": "いきいきデイサービス",
    "kana": "イキイキデイサービス",
    "address": "宮崎県東臼杵郡門川町須賀崎４丁目５２番地",
    "lat": 32.4895666,
    "lng": 131.6676733,
    "tel": "0982-63-4557",
    "url": "",
    "pref": "宮崎県",
    "city": "門川町",
    "category": "day_service",
    "serviceType": "通所介護",
    "capacity": 0,
    "openDays": [
      "平日",
      "土曜日",
      "祝日"
    ],
    "openDaysNote": ""
  },
  {
    "id": "4570600769",
    "name": "デイサービス　フェイス",
    "kana": "デイサービス　フェイス",
    "address": "宮崎県東臼杵郡門川町大字門川尾末9099番地1",
    "lat": 32.4708721,
    "lng": 131.6220407,
    "tel": "0982-66-9990",
    "url": "",
    "pref": "宮崎県",
    "city": "門川町",
    "category": "day_service",
    "serviceType": "通所介護",
    "capacity": 0,
    "openDays": [
      "平日",
      "土曜日",
      "祝日"
    ],
    "openDaysNote": ""
  },
  {
    "id": "4572101253",
    "name": "デイサービスあくた門川店",
    "kana": "デイサービスアクタカドガワテン",
    "address": "宮崎県東臼杵郡門川町西栄町四丁目２０番地",
    "lat": 32.4793242264711,
    "lng": 131.646789568123,
    "tel": "0982-63-1515",
    "url": "http://ds-acta.com",
    "pref": "宮崎県",
    "city": "門川町",
    "category": "day_service",
    "serviceType": "通所介護",
    "capacity": 5,
    "openDays": [
      "平日",
      "祝日"
    ],
    "openDaysNote": ""
  },
  {
    "id": "4572101279",
    "name": "デイサービスひむか",
    "kana": "デイサービスヒムカ",
    "address": "宮崎県東臼杵郡門川町大字加草１５４１番地１",
    "lat": 32.489065,
    "lng": 131.6620385,
    "tel": "0982-63-3331",
    "url": "http://care-net.biz/45/himukafs/",
    "pref": "宮崎県",
    "city": "門川町",
    "category": "day_service",
    "serviceType": "通所介護",
    "capacity": null,
    "openDays": [
      "平日",
      "土曜日",
      "祝日"
    ],
    "openDaysNote": ""
  },
  {
    "id": "4572101006",
    "name": "デイサービスふれあい",
    "kana": "デイサービスフレアイ",
    "address": "宮崎県東臼杵郡門川町南町１丁目5",
    "lat": 32.4626018177808,
    "lng": 131.646083911379,
    "tel": "0982-63-5510",
    "url": "https://fufu-fureai.com",
    "pref": "宮崎県",
    "city": "門川町",
    "category": "day_service",
    "serviceType": "通所介護",
    "capacity": 0,
    "openDays": [
      "平日",
      "土曜日",
      "祝日"
    ],
    "openDaysNote": ""
  },
  {
    "id": "4572100990",
    "name": "やわらぎデイサービス",
    "kana": "ヤワラギデイサービス",
    "address": "宮崎県東臼杵郡門川町南町4丁目131-１",
    "lat": 32.4579494,
    "lng": 131.6465841,
    "tel": "0982-57-3332",
    "url": "",
    "pref": "宮崎県",
    "city": "門川町",
    "category": "day_service",
    "serviceType": "通所介護",
    "capacity": 0,
    "openDays": [
      "平日",
      "土曜日",
      "日曜日",
      "祝日"
    ],
    "openDaysNote": ""
  },
  {
    "id": "4512110281",
    "name": "医療法人浩洋会田中病院",
    "kana": "イリョウホウジンコウヨウカイタナカビョウイン",
    "address": "宮崎県東臼杵郡門川町宮ヶ原４丁目８０番地",
    "lat": 32.4812277,
    "lng": 131.6537996,
    "tel": "0982-63-2211",
    "url": "http://tanaka-hp.or.jp/",
    "pref": "宮崎県",
    "city": "門川町",
    "category": "day_service",
    "serviceType": "通所介護",
    "capacity": 0,
    "openDays": [
      "平日",
      "土曜日",
      "祝日"
    ],
    "openDaysNote": "年に一度田中病院文化祭が開催される日のみ日曜日も営業する。"
  },
  {
    "id": "4572100313",
    "name": "社会福祉法人門川町社会福祉協議会",
    "kana": "シャカイフクシホウジンカドガワチョウシャカイフクシキョウギカイ",
    "address": "宮崎県東臼杵郡門川町庵川西6丁目６０番地",
    "lat": 32.4826732,
    "lng": 131.6738147,
    "tel": "0982-63-7210",
    "url": "http://kadogawa-shakyo.org",
    "pref": "宮崎県",
    "city": "門川町",
    "category": "day_service",
    "serviceType": "通所介護",
    "capacity": 0,
    "openDays": [
      "平日",
      "祝日"
    ],
    "openDaysNote": "天災等により営業を中止する場合あり"
  }
]