[
  {
    "id": "1670600541",
    "name": "いきいき元気クラブ滑川",
    "kana": "イキイキゲンキクラブナメリカワ",
    "address": "富山県滑川市魚躬107",
    "lat": 36.7541973831517,
    "lng": 137.323205486508,
    "tel": "076-407-4080",
    "url": "https://ikiiki-namerikawa.jp/",
    "pref": "富山県",
    "city": "滑川市",
    "category": "day_service",
    "serviceType": "通所介護",
    "capacity": 20,
    "openDays": [
      "平日",
      "土曜日",
      "祝日"
    ],
    "openDaysNote": ""
  },
  {
    "id": "1670600376",
    "name": "デイサービス　あったかホーム",
    "kana": "デイサービス　アッタカホーム",
    "address": "滑川市中川原134",
    "lat": 36.7721994,
    "lng": 137.3487339,
    "tel": "076-471-5608",
    "url": "http://www.nashakyo.net/",
    "pref": "富山県",
    "city": "滑川市",
    "category": "day_service",
    "serviceType": "通所介護",
    "capacity": 0,
    "openDays": [
      "平日",
      "土曜日",
      "祝日"
    ],
    "openDaysNote": "必要により延長利用可能"
  },
  {
    "id": "1670600244",
    "name": "デイサービスセンターシンシア",
    "kana": "デイサービスセンターシンシア",
    "address": "富山県滑川市大崎野207",
    "lat": 36.747877318288,
    "lng": 137.398399354611,
    "tel": "076-474-8050",
    "url": "",
    "pref": "富山県",
    "city": "滑川市",
    "category": "day_service",
    "serviceType": "通所介護",
    "capacity": 0,
    "openDays": [
      "平日"
    ],
    "openDaysNote": ""
  },
  {
    "id": "1670600434",
    "name": "デイサービス滑川倶楽部",
    "kana": "デイサービスナメリカワクラブ",
    "address": "富山県滑川市中野島2763番地",
    "lat": 36.7709665,
    "lng": 137.3613247,
    "tel": "076-471-8015",
    "url": "http://www.nagomien.or.jp",
    "pref": "富山県",
    "city": "滑川市",
    "category": "day_service",
    "serviceType": "通所介護",
    "capacity": 0,
    "openDays": [
      "平日",
      "土曜日",
      "祝日"
    ],
    "openDaysNote": "祝日は営業しています"
  },
  {
    "id": "1670600038",
    "name": "滑川市老人デイサービスセンター",
    "kana": "ナメリカワシロウジンデイサービスセンター",
    "address": "富山県滑川市赤浜５７３番地の１",
    "lat": 36.735293,
    "lng": 137.3640236,
    "tel": "076-475-3600",
    "url": "care-net.biz/16/seijusou",
    "pref": "富山県",
    "city": "滑川市",
    "category": "day_service",
    "serviceType": "通所介護",
    "capacity": 0,
    "openDays": [
      "平日",
      "土曜日",
      "祝日"
    ],
    "openDaysNote": "特になし"
  },
  {
    "id": "1670600129",
    "name": "滑川市老人デイサービスセンター　カモメ荘",
    "kana": "ナメリカワシロウジンデイサービスセンター　カモメソウ",
    "address": "富山県滑川市吉浦13番地",
    "lat": 36.7925923,
    "lng": 137.3720422,
    "tel": "076-476-5200",
    "url": "http://care-net.biz/16/kouwakai/",
    "pref": "富山県",
    "city": "滑川市",
    "category": "day_service",
    "serviceType": "通所介護",
    "capacity": 0,
    "openDays": [
      "平日",
      "土曜日",
      "祝日"
    ],
    "openDaysNote": ""
  },
  {
    "id": "1670600236",
    "name": "高野接骨院デイサービスきらきら",
    "kana": "タカノセッコツインデイサービスキラキラ",
    "address": "富山県滑川市魚躬202-1",
    "lat": 36.7565817214105,
    "lng": 137.324294302863,
    "tel": "076-476-0866",
    "url": "",
    "pref": "富山県",
    "city": "滑川市",
    "category": "day_service",
    "serviceType": "通所介護",
    "capacity": 0,
    "openDays": [
      "平日",
      "土曜日",
      "祝日"
    ],
    "openDaysNote": "ゴールデンウイーク（5月3～5日）、お盆（8月14～16日）、年末年始（12月31日～1月3日）は運営規程により休み。"
  },
  {
    "id": "1670600160",
    "name": "社会福祉法人　福梅会　デイサービスほたるの里",
    "kana": "シャカイフクシホウジン　フクウメカイ　デイサービスホタルノサト",
    "address": "富山県滑川市下梅沢424番地",
    "lat": 36.7468991,
    "lng": 137.3342034,
    "tel": "076-476-2166",
    "url": "",
    "pref": "富山県",
    "city": "滑川市",
    "category": "day_service",
    "serviceType": "通所介護",
    "capacity": 0,
    "openDays": [
      "平日",
      "土曜日",
      "祝日"
    ],
    "openDaysNote": "年末年始の１２月３０日・３１日、１月１日・２日・３日は休業"
  },
  {
    "id": "1670400306",
    "name": "あんどの里デイサービスセンター",
    "kana": "アンドノサト　デイサービスセンター",
    "address": "富山県魚津市仏田3468番地",
    "lat": 36.8418411,
    "lng": 137.4063948,
    "tel": "0765-33-4680",
    "url": "http://www.kaiboufukushi.com/",
    "pref": "富山県",
    "city": "魚津市",
    "category": "day_service",
    "serviceType": "通所介護",
    "capacity": 0,
    "openDays": [
      "平日",
      "土曜日",
      "祝日"
    ],
    "openDaysNote": "祝日、お盆も営業しております。"
  },
  {
    "id": "1670400512",
    "name": "魚津市身体障害者デイサービスセンター",
    "kana": "ウオヅシシンタイショウガイシャデイサービスセンター",
    "address": "富山県魚津市本町一丁目4番32号",
    "lat": 36.8135571,
    "lng": 137.395669,
    "tel": "0765-22-1250",
    "url": "",
    "pref": "富山県",
    "city": "魚津市",
    "category": "day_service",
    "serviceType": "通所介護",
    "capacity": 0,
    "openDays": [
      "平日",
      "祝日"
    ],
    "openDaysNote": "センター休館日が連続3日以上続く場合は営業日を設けることがある。"
  },
  {
    "id": "1670400066",
    "name": "魚津市西部デイサービスセンター",
    "kana": "ウオヅシセイブデイサービスセンター",
    "address": "富山県魚津市大光寺467-1",
    "lat": 36.810294,
    "lng": 137.4104434,
    "tel": "0765-32-5566",
    "url": "http://www.niikawa-fukushi.net",
    "pref": "富山県",
    "city": "魚津市",
    "category": "day_service",
    "serviceType": "通所介護",
    "capacity": null,
    "openDays": [
      "平日",
      "土曜日",
      "祝日"
    ],
    "openDaysNote": ""
  },
  {
    "id": "1670400157",
    "name": "魚津市東部デイサービスセンター",
    "kana": "ウオヅシトウブデイサービスセンター",
    "address": "富山県魚津市吉島1095番地2",
    "lat": 36.8312812,
    "lng": 137.416289,
    "tel": "0765-22-7772",
    "url": "www.uoshakyo.net",
    "pref": "富山県",
    "city": "魚津市",
    "category": "day_service",
    "serviceType": "通所介護",
    "capacity": 0,
    "openDays": [
      "平日",
      "土曜日",
      "祝日"
    ],
    "openDaysNote": "特になし"
  },
  {
    "id": "1670400231",
    "name": "新川ヴィーラデイサービスセンター",
    "kana": "ニイカワヴィーラデイサービスセンター",
    "address": "富山県魚津市大光寺450",
    "lat": 36.8102051,
    "lng": 137.4102184,
    "tel": "0765-22-2879",
    "url": "http://www.niikawa-fukushi.net",
    "pref": "富山県",
    "city": "魚津市",
    "category": "day_service",
    "serviceType": "通所介護",
    "capacity": null,
    "openDays": [
      "平日",
      "土曜日",
      "祝日"
    ],
    "openDaysNote": ""
  },
  {
    "id": "1670400314",
    "name": "深川病院デイサービスセンター",
    "kana": "フカガワビョウインデイサービスセンター",
    "address": "富山県魚津市東尾崎３４８４番１",
    "lat": 36.8421585,
    "lng": 137.4380817,
    "tel": "0765-31-6200",
    "url": "http://www.fukagawa-hp.or.jp",
    "pref": "富山県",
    "city": "魚津市",
    "category": "day_service",
    "serviceType": "通所介護",
    "capacity": 0,
    "openDays": [
      "平日",
      "祝日"
    ],
    "openDaysNote": ""
  },
  {
    "id": "1670201571",
    "name": "ＪＡ高岡デイサービスもえぎの里",
    "kana": "ジェイエイタカオカデイサービスモエギノサト",
    "address": "富山県高岡市二塚３３９－２",
    "lat": 36.7223111,
    "lng": 137.0173532,
    "tel": "0766-20-6025",
    "url": "http://www.ja-takaoka.or.jp/",
    "pref": "富山県",
    "city": "高岡市",
    "category": "day_service",
    "serviceType": "通所介護",
    "capacity": 0,
    "openDays": [
      "平日",
      "土曜日",
      "祝日"
    ],
    "openDaysNote": "特になし"
  },
  {
    "id": "1672100094",
    "name": "アルテン赤丸デイサービスセンター",
    "kana": "アルテンアカマルデイサービスセンター",
    "address": "富山県高岡市福岡町赤丸１１０３番地１",
    "lat": 36.7377992,
    "lng": 136.9323302,
    "tel": "0766-31-5223",
    "url": "http://www.aruten.or.ip/",
    "pref": "富山県",
    "city": "高岡市",
    "category": "day_service",
    "serviceType": "通所介護",
    "capacity": 0,
    "openDays": [
      "平日",
      "土曜日",
      "祝日"
    ],
    "openDaysNote": ""
  },
  {
    "id": "1670201746",
    "name": "アルプス介護予防センター姫野",
    "kana": "アルプスカイゴヨボウセンターヒメノ",
    "address": "姫野506",
    "lat": 36.7720231,
    "lng": 137.0865282,
    "tel": "0766-73-2666",
    "url": "http://www.alps-fitness.com",
    "pref": "富山県",
    "city": "高岡市",
    "category": "day_service",
    "serviceType": "通所介護",
    "capacity": 30,
    "openDays": [
      "平日"
    ],
    "openDaysNote": ""
  },
  {
    "id": "1670201274",
    "name": "かざぐるま　デイサービス",
    "kana": "カザグルマ　デイサービス",
    "address": "富山県高岡市熊野町２番２号",
    "lat": 36.7621982,
    "lng": 137.0192144,
    "tel": "0766-23-3838",
    "url": "https://www.kazaguruma-care.com/",
    "pref": "富山県",
    "city": "高岡市",
    "category": "day_service",
    "serviceType": "通所介護",
    "capacity": 34,
    "openDays": [
      "平日",
      "土曜日",
      "祝日"
    ],
    "openDaysNote": "特になし"
  },
  {
    "id": "1670202736",
    "name": "きたえるーむ高岡野村",
    "kana": "キタエルームタカオカノムラ",
    "address": "富山県高岡市野村1357-3",
    "lat": 36.7557301794058,
    "lng": 137.041023948445,
    "tel": "0766-95-5200",
    "url": "https://kitaeroom.com/shop/post-141.shtml",
    "pref": "富山県",
    "city": "高岡市",
    "category": "day_service",
    "serviceType": "通所介護",
    "capacity": 20,
    "openDays": [
      "平日",
      "土曜日"
    ],
    "openDaysNote": ""
  },
  {
    "id": "1670202330",
    "name": "きらく　たかおか",
    "kana": "樹楽　高岡",
    "address": "富山県高岡市明野町6-1",
    "lat": 36.7564879,
    "lng": 137.0176412,
    "tel": "0766-54-0732",
    "url": "https://www.kiraku-ac.com/shisetsu/list/toyama/takaoka/",
    "pref": "富山県",
    "city": "高岡市",
    "category": "day_service",
    "serviceType": "通所介護",
    "capacity": 0,
    "openDays": [
      "平日",
      "土曜日",
      "日曜日",
      "祝日"
    ],
    "openDaysNote": ""
  },
  {
    "id": "1670201928",
    "name": "サニーデイサービスセンター",
    "kana": "サニーデイサービスセンター",
    "address": "福岡町本領259－7",
    "lat": 36.6954816,
    "lng": 136.9097151,
    "tel": "0766-64-6032",
    "url": "",
    "pref": "富山県",
    "city": "高岡市",
    "category": "day_service",
    "serviceType": "通所介護",
    "capacity": 34,
    "openDays": [
      "平日",
      "土曜日"
    ],
    "openDaysNote": ""
  },
  {
    "id": "1670202850",
    "name": "デイサービス　えにし",
    "kana": "デイサービス　エニシ",
    "address": "富山県高岡市野村1029-1有料老人ホーム　縁高岡　1階 有料老人ホーム　縁高岡　1階",
    "lat": 36.7515713567231,
    "lng": 137.033366786416,
    "tel": "0766-28-8155",
    "url": "https://syoei-group.co.jp/facility/enishi_takaoka/",
    "pref": "富山県",
    "city": "高岡市",
    "category": "day_service",
    "serviceType": "通所介護",
    "capacity": 0,
    "openDays": [
      "平日"
    ],
    "openDaysNote": "15：15以降の利用も相談に応じる（改行）365日、相談に応じる"
  },
  {
    "id": "1670202918",
    "name": "デイサービス　えにし",
    "kana": "デイサービス　エニシ",
    "address": "富山県高岡市野村1029-1有料老人ホーム　縁高岡　1階 有料老人ホーム　縁高岡　1階",
    "lat": 36.7516257131945,
    "lng": 137.033157705144,
    "tel": "0766-28-8155",
    "url": "",
    "pref": "富山県",
    "city": "高岡市",
    "category": "day_service",
    "serviceType": "通所介護",
    "capacity": null,
    "openDays": [
      "平日"
    ],
    "openDaysNote": "15：15以降の利用も相談に応じる（改行）365日、相談に応じる"
  },
  {
    "id": "1670202827",
    "name": "デイサービス　やべの里",
    "kana": "デイサービス　ヤベノサト",
    "address": "富山県高岡市福岡町矢部1088番地",
    "lat": 36.6877409,
    "lng": 136.9326903,
    "tel": "0766-54-5974",
    "url": "yabenosato@vesta.ocn.ne.jp",
    "pref": "富山県",
    "city": "高岡市",
    "category": "day_service",
    "serviceType": "通所介護",
    "capacity": 0,
    "openDays": [
      "平日"
    ],
    "openDaysNote": "土曜日は、イベント時のみ開設日あり。"
  },
  {
    "id": "1670201340",
    "name": "デイサービス　ゆめ",
    "kana": "デイサービス　ユメ",
    "address": "富山県高岡市戸出町３丁目１－７５",
    "lat": 36.6868028,
    "lng": 136.9780261,
    "tel": "0766-62-1255",
    "url": "http://www.daigoen.com",
    "pref": "富山県",
    "city": "高岡市",
    "category": "day_service",
    "serviceType": "通所介護",
    "capacity": 45,
    "openDays": [
      "平日",
      "土曜日",
      "日曜日",
      "祝日"
    ],
    "openDaysNote": ""
  },
  {
    "id": "1670202421",
    "name": "デイサービスあさひの里",
    "kana": "デイサービスアサヒノサト",
    "address": "富山県高岡市鷲北新185番地あさひの里 あさひの里",
    "lat": 36.7617955,
    "lng": 137.0356604,
    "tel": "0766-23-8688",
    "url": "http://akanekai.toyama.jp/",
    "pref": "富山県",
    "city": "高岡市",
    "category": "day_service",
    "serviceType": "通所介護",
    "capacity": 40,
    "openDays": [
      "平日",
      "土曜日",
      "祝日"
    ],
    "openDaysNote": "積雪・降雪が多く、送迎が困難な場合、あるいは、コロナウィルス等の感染症が拡大し営業が困難な場合に、営業日を休業日に変更することがあります。"
  },
  {
    "id": "1670202934",
    "name": "デイサービスいちごいちえ",
    "kana": "デイサービスイチゴイチエ",
    "address": "富山県高岡市問屋町211",
    "lat": 36.7307024,
    "lng": 137.0272207,
    "tel": "0766-73-2261",
    "url": "https://www.ichigoichie-toyama.com/",
    "pref": "富山県",
    "city": "高岡市",
    "category": "day_service",
    "serviceType": "通所介護",
    "capacity": null,
    "openDays": [
      "平日",
      "土曜日",
      "祝日"
    ],
    "openDaysNote": "12月30日～1月3日までは休業いたします。"
  },
  {
    "id": "1670201316",
    "name": "デイサービスセンター　のむら藤園苑",
    "kana": "デイサービスセンター　ノムラフジソノエン",
    "address": "富山県高岡市野村921番地1",
    "lat": 36.7507468,
    "lng": 137.0361109,
    "tel": "0766-20-8950",
    "url": "http://www.fujisonoen.jp/",
    "pref": "富山県",
    "city": "高岡市",
    "category": "day_service",
    "serviceType": "通所介護",
    "capacity": 0,
    "openDays": [
      "平日",
      "土曜日",
      "日曜日",
      "祝日"
    ],
    "openDaysNote": "時間延長サービスあり（対応時間：7時から19時まで）"
  },
  {
    "id": "1670201480",
    "name": "デイサービスセンターはるかぜ",
    "kana": "デイサービスセンターハルカゼ",
    "address": "富山県　高岡市　オフィスパーク13番",
    "lat": 36.6720308,
    "lng": 136.9991016,
    "tel": "0766-63-8825",
    "url": "http://harukaze-takaoka.or.jp",
    "pref": "富山県",
    "city": "高岡市",
    "category": "day_service",
    "serviceType": "通所介護",
    "capacity": null,
    "openDays": [
      "平日",
      "土曜日",
      "祝日"
    ],
    "openDaysNote": ""
  },
  {
    "id": "1670202751",
    "name": "デイサービスセンター紬",
    "kana": "デイサービスセンターツムギ",
    "address": "富山県高岡市野村1542-1",
    "lat": 36.7575723,
    "lng": 137.0409838,
    "tel": "0766-30-6220",
    "url": "www.aim-care.jp",
    "pref": "富山県",
    "city": "高岡市",
    "category": "day_service",
    "serviceType": "通所介護",
    "capacity": null,
    "openDays": [
      "平日",
      "土曜日",
      "祝日"
    ],
    "openDaysNote": "年末年始（1月1日）を除く"
  },
  {
    "id": "1670200672",
    "name": "デイサービスセンター藤園苑",
    "kana": "デイサービスセンターフジソノエン",
    "address": "富山県高岡市早川390-1",
    "lat": 36.7465688,
    "lng": 136.9882882,
    "tel": "0766-27-8050",
    "url": "http://www.fujisonoen.or.jp/",
    "pref": "富山県",
    "city": "高岡市",
    "category": "day_service",
    "serviceType": "通所介護",
    "capacity": 0,
    "openDays": [
      "平日",
      "土曜日",
      "日曜日",
      "祝日"
    ],
    "openDaysNote": ""
  },
  {
    "id": "1670201910",
    "name": "デイサービスひだまり",
    "kana": "デイサービスヒダマリ",
    "address": "高岡市佐野1095番地2",
    "lat": 36.728973988194,
    "lng": 136.99444448747,
    "tel": "0766-23-3350",
    "url": "www.hidamari-tmt.com/",
    "pref": "富山県",
    "city": "高岡市",
    "category": "day_service",
    "serviceType": "通所介護",
    "capacity": 30,
    "openDays": [
      "平日",
      "土曜日",
      "祝日"
    ],
    "openDaysNote": ""
  },
  {
    "id": "1670202041",
    "name": "デイサービス清水館つどい",
    "kana": "デイサービスシミズカンツドイ",
    "address": "清水町3丁目3－58",
    "lat": 36.7377201,
    "lng": 137.0038983,
    "tel": "0766－50－8251",
    "url": "http://www.daigoen.com",
    "pref": "富山県",
    "city": "高岡市",
    "category": "day_service",
    "serviceType": "通所介護",
    "capacity": 0,
    "openDays": [
      "平日",
      "土曜日",
      "日曜日",
      "祝日"
    ],
    "openDaysNote": ""
  },
  {
    "id": "1670200318",
    "name": "ニチイケアセンター能町",
    "kana": "ニチイケアセンターノウマチ",
    "address": "富山県高岡市能町南2-25",
    "lat": 36.7647118,
    "lng": 137.0430376,
    "tel": "0766-27-5220",
    "url": "http://wwwnichiigakkan.co.jp",
    "pref": "富山県",
    "city": "高岡市",
    "category": "day_service",
    "serviceType": "通所介護",
    "capacity": null,
    "openDays": [
      "平日",
      "土曜日",
      "祝日"
    ],
    "openDaysNote": ""
  },
  {
    "id": "1670201753",
    "name": "ハートフルケアデイサービスセンター",
    "kana": "ハートフルケアデイサービスセンター",
    "address": "富山県高岡市古定塚5-45",
    "lat": 36.7522772,
    "lng": 137.0336138,
    "tel": "0766-20-8890",
    "url": "http://www.heartfulcare.net/",
    "pref": "富山県",
    "city": "高岡市",
    "category": "day_service",
    "serviceType": "通所介護",
    "capacity": 60,
    "openDays": [
      "平日",
      "土曜日",
      "祝日"
    ],
    "openDaysNote": ""
  },
  {
    "id": "1670200847",
    "name": "ふしき苑デイサービスセンター",
    "kana": "フシキエンデイサービスセンター",
    "address": "富山県高岡市伏木国分１丁目１０番１０号",
    "lat": 36.8001945,
    "lng": 137.0539238,
    "tel": "0766-44-7887",
    "url": "http://www2.tcnet.ne.jp/fusikien/",
    "pref": "富山県",
    "city": "高岡市",
    "category": "day_service",
    "serviceType": "通所介護",
    "capacity": 0,
    "openDays": [
      "平日",
      "土曜日",
      "日曜日",
      "祝日"
    ],
    "openDaysNote": "なし"
  },
  {
    "id": "1670201803",
    "name": "プラトーケアセンター高岡",
    "kana": "プラトーケアセンタータカオカ",
    "address": "富山県高岡市佐野1552",
    "lat": 36.7230981466421,
    "lng": 136.996911446365,
    "tel": "0766-28-4521",
    "url": "",
    "pref": "富山県",
    "city": "高岡市",
    "category": "day_service",
    "serviceType": "通所介護",
    "capacity": 0,
    "openDays": [
      "平日",
      "土曜日",
      "祝日"
    ],
    "openDaysNote": "祝日も営業する。（改行）事業所の都合で休業する日がある。"
  },
  {
    "id": "1670202090",
    "name": "プラトーケアセンター中保",
    "kana": "プラトーケアセンターナカホ",
    "address": "富山県高岡市中保1294",
    "lat": 36.721773578463,
    "lng": 136.965326477424,
    "tel": "0766-31-6661",
    "url": "",
    "pref": "富山県",
    "city": "高岡市",
    "category": "day_service",
    "serviceType": "通所介護",
    "capacity": 0,
    "openDays": [
      "平日",
      "土曜日",
      "祝日"
    ],
    "openDaysNote": ""
  },
  {
    "id": "1670201100",
    "name": "みどりデイサービスセンター",
    "kana": "ミドリデイサービスセンター",
    "address": "富山県高岡市横田町1丁目2番25号",
    "lat": 36.7474052,
    "lng": 137.0020311,
    "tel": "0766-21-3960",
    "url": "https://carehome-midori.com",
    "pref": "富山県",
    "city": "高岡市",
    "category": "day_service",
    "serviceType": "通所介護",
    "capacity": 0,
    "openDays": [
      "平日",
      "土曜日",
      "祝日"
    ],
    "openDaysNote": "特になし"
  },
  {
    "id": "1670202454",
    "name": "ユートピア大滝デイサービスセンター",
    "kana": "ユートピアオオタキデイサービスセンター",
    "address": "富山県高岡市福岡町大滝928番地1",
    "lat": 36.6942266,
    "lng": 136.9215918,
    "tel": "0766-64-0060",
    "url": "http://www.utopia-ootaki.com/",
    "pref": "富山県",
    "city": "高岡市",
    "category": "day_service",
    "serviceType": "通所介護",
    "capacity": 0,
    "openDays": [
      "平日",
      "土曜日",
      "祝日"
    ],
    "openDaysNote": "年末年始(12/30～1/3)は休業日"
  },
  {
    "id": "1670202884",
    "name": "リハビリデイサービス泉",
    "kana": "リハビリデイサービスイズミ",
    "address": "富山県高岡市佐野845番地1",
    "lat": 36.731105,
    "lng": 136.989346,
    "tel": "0766-28-2580",
    "url": "https://www.hidamari-tmt.com/",
    "pref": "富山県",
    "city": "高岡市",
    "category": "day_service",
    "serviceType": "通所介護",
    "capacity": 0,
    "openDays": [
      "平日",
      "土曜日"
    ],
    "openDaysNote": "※8/15、8/16及び1/1～1/3は休日（改行）※水曜・金曜は要支援・総合事業運営"
  },
  {
    "id": "1670200201",
    "name": "雨晴苑　デイサービスセンター",
    "kana": "アマハラシエン　デイサービスセンター",
    "address": "富山県高岡市太田５８番地",
    "lat": 36.8154082,
    "lng": 137.0148648,
    "tel": "0766-44-0604",
    "url": "http://www.amaharashien.jp/",
    "pref": "富山県",
    "city": "高岡市",
    "category": "day_service",
    "serviceType": "通所介護",
    "capacity": null,
    "openDays": [
      "平日",
      "祝日"
    ],
    "openDaysNote": "臨時休業の際は、ご連絡します。"
  },
  {
    "id": "1670200383",
    "name": "香野苑デイサービスセンター",
    "kana": "カノエンデイサービスセンター",
    "address": "富山県高岡市上渡161番地",
    "lat": 36.7296946,
    "lng": 136.9578727,
    "tel": "0766-31-5702",
    "url": "https://tatenofukushikai-kanoen.com",
    "pref": "富山県",
    "city": "高岡市",
    "category": "day_service",
    "serviceType": "通所介護",
    "capacity": 0,
    "openDays": [
      "平日",
      "土曜日",
      "日曜日",
      "祝日"
    ],
    "openDaysNote": ""
  },
  {
    "id": "1670200714",
    "name": "高岡デイサービスセンターきらら",
    "kana": "タカオカデイサービスセンターキララ",
    "address": "富山県高岡市千木屋町１５番地",
    "lat": 36.7491885,
    "lng": 137.0123465,
    "tel": "0766-26-7747",
    "url": "http://www.hokuriku-ph.jp/",
    "pref": "富山県",
    "city": "高岡市",
    "category": "day_service",
    "serviceType": "通所介護",
    "capacity": 50,
    "openDays": [
      "平日"
    ],
    "openDaysNote": ""
  },
  {
    "id": "1670201092",
    "name": "高岡デイサービスセンターゆ楽",
    "kana": "タカオカデイサービスセンターユラク",
    "address": "富山県高岡市石瀬７５１番地",
    "lat": 36.7581459,
    "lng": 137.0465904,
    "tel": "0766-28-9797",
    "url": "",
    "pref": "富山県",
    "city": "高岡市",
    "category": "day_service",
    "serviceType": "通所介護",
    "capacity": 0,
    "openDays": [
      "平日"
    ],
    "openDaysNote": ""
  },
  {
    "id": "1670201373",
    "name": "高岡市だいごデイサービスセンター",
    "kana": "タカオカシダイゴデイサービスセンター",
    "address": "富山県高岡市醍醐１２５７番地",
    "lat": 36.6961986,
    "lng": 136.9616544,
    "tel": "0766-62-0270",
    "url": "http://www.daigoen.com",
    "pref": "富山県",
    "city": "高岡市",
    "category": "day_service",
    "serviceType": "通所介護",
    "capacity": 45,
    "openDays": [
      "平日",
      "土曜日",
      "日曜日",
      "祝日"
    ],
    "openDaysNote": ""
  },
  {
    "id": "1670201993",
    "name": "高志の郷デイサービスセンター",
    "kana": "コシノサトデイサービスセンター",
    "address": "高岡市横田本町５番２１号",
    "lat": 36.7518352,
    "lng": 136.9996837,
    "tel": "0766-25-8855",
    "url": "http://www.fukuhoukai.jp/",
    "pref": "富山県",
    "city": "高岡市",
    "category": "day_service",
    "serviceType": "通所介護",
    "capacity": 0,
    "openDays": [
      "平日",
      "土曜日",
      "祝日"
    ],
    "openDaysNote": ""
  },
  {
    "id": "1610212555",
    "name": "高陵クリニック在宅介護総合支援センター　まいけ",
    "kana": "コウリョウクリニックザイタクカイゴソウゴウシエンセンター　マイケ",
    "address": "富山県高岡市野村２３－１",
    "lat": 36.7378317,
    "lng": 137.0274012,
    "tel": "0766-27-0070",
    "url": "http://www.ko-cli.com/",
    "pref": "富山県",
    "city": "高岡市",
    "category": "day_service",
    "serviceType": "通所介護",
    "capacity": 0,
    "openDays": [
      "平日",
      "土曜日"
    ],
    "openDaysNote": ""
  },
  {
    "id": "1670200185",
    "name": "社協デイサービスセンター",
    "kana": "シャキョウデイサービスセンター",
    "address": "富山県高岡市清水町１丁目７番30号",
    "lat": 36.7409086,
    "lng": 137.0028954,
    "tel": "0766-21-7727",
    "url": "",
    "pref": "富山県",
    "city": "高岡市",
    "category": "day_service",
    "serviceType": "通所介護",
    "capacity": 0,
    "openDays": [
      "平日"
    ],
    "openDaysNote": "但し長期間休日がある場合は開所することもある。"
  },
  {
    "id": "1670200821",
    "name": "二上万葉苑デイサービスセンター",
    "kana": "フタガミマンヨウエンデイサービスセンター",
    "address": "富山県高岡市二上町1004番地",
    "lat": 36.773994,
    "lng": 137.0081146,
    "tel": "0766-29-0171",
    "url": "http://www.imizu-manyoukai.or.jp/",
    "pref": "富山県",
    "city": "高岡市",
    "category": "day_service",
    "serviceType": "通所介護",
    "capacity": 55,
    "openDays": [
      "平日",
      "土曜日",
      "日曜日",
      "祝日"
    ],
    "openDaysNote": ""
  },
  {
    "id": "1670200953",
    "name": "富綜ケアセンターいわせの",
    "kana": "トミソウケアセンターイワセノ",
    "address": "高岡市石瀬830-1",
    "lat": 36.762526,
    "lng": 137.0466263,
    "tel": "0766-21-3302",
    "url": "http://www.toyama-alsok.co.jp",
    "pref": "富山県",
    "city": "高岡市",
    "category": "day_service",
    "serviceType": "通所介護",
    "capacity": null,
    "openDays": [
      "平日",
      "土曜日",
      "祝日"
    ],
    "openDaysNote": ""
  },
  {
    "id": "1670200243",
    "name": "鳳鳴苑デイサービスセンター",
    "kana": "ホウメイエンデイサービスセンター",
    "address": "富山県高岡市蔵野町3番地",
    "lat": 36.7229736,
    "lng": 136.9781604,
    "tel": "0766-31-4414",
    "url": "http://www.fukuhoukai.jp/",
    "pref": "富山県",
    "city": "高岡市",
    "category": "day_service",
    "serviceType": "通所介護",
    "capacity": 0,
    "openDays": [
      "平日",
      "土曜日",
      "祝日"
    ],
    "openDaysNote": "特になし"
  },
  {
    "id": "1670202314",
    "name": "和の郷高岡",
    "kana": "ナゴミノサトタカオカ",
    "address": "富山県高岡市長江464番地1",
    "lat": 36.7648593332055,
    "lng": 136.982759094443,
    "tel": "0766-54-0352",
    "url": "http://www.shinminato-nagomi.com",
    "pref": "富山県",
    "city": "高岡市",
    "category": "day_service",
    "serviceType": "通所介護",
    "capacity": 0,
    "openDays": [
      "平日",
      "土曜日",
      "祝日"
    ],
    "openDaysNote": ""
  },
  {
    "id": "1670700440",
    "name": "（健康増進プラザ）デイサービス　リハトレ中新",
    "kana": "（ケンコウゾウシンプラザ）　デイサービス　リハトレ　ナカシン",
    "address": "中新31‐3",
    "lat": 36.8871169,
    "lng": 137.4282288,
    "tel": "0765－54－0388",
    "url": "http://www.eisac.co.jp",
    "pref": "富山県",
    "city": "黒部市",
    "category": "day_service",
    "serviceType": "通所介護",
    "capacity": 35,
    "openDays": [
      "平日",
      "土曜日"
    ],
    "openDaysNote": ""
  },
  {
    "id": "1670700267",
    "name": "デイサービス隠居くらぶ",
    "kana": "デイサービスインキョクラブ",
    "address": "富山県黒部市田家新765番地2",
    "lat": 36.8517353,
    "lng": 137.4379371,
    "tel": "0765-56-5703",
    "url": "https://inkyokurabu.com/",
    "pref": "富山県",
    "city": "黒部市",
    "category": "day_service",
    "serviceType": "通所介護",
    "capacity": 30,
    "openDays": [
      "平日",
      "土曜日",
      "祝日"
    ],
    "openDaysNote": "12月31日及び1月1・2・3日は休みます。"
  },
  {
    "id": "1670700481",
    "name": "ニチイケアセンター黒部",
    "kana": "ニチイケアセンタークロベ",
    "address": "富山県黒部市荻生2897-1",
    "lat": 36.874144,
    "lng": 137.4589679,
    "tel": "0765-56-8111",
    "url": "http：/www.nichiigakkan.co.jp",
    "pref": "富山県",
    "city": "黒部市",
    "category": "day_service",
    "serviceType": "通所介護",
    "capacity": 0,
    "openDays": [
      "平日",
      "土曜日",
      "祝日"
    ],
    "openDaysNote": ""
  },
  {
    "id": "1670700077",
    "name": "やわらぎデイサービスセンター",
    "kana": "ヤワラギデイサービスセンター",
    "address": "富山県黒部市牧野693番地",
    "lat": 36.8706769574568,
    "lng": 137.442281687975,
    "tel": "0765-57-2250",
    "url": "http://med-kurobe.jp/dayservice/",
    "pref": "富山県",
    "city": "黒部市",
    "category": "day_service",
    "serviceType": "通所介護",
    "capacity": 35,
    "openDays": [
      "平日",
      "祝日"
    ],
    "openDaysNote": ""
  },
  {
    "id": "1671700142",
    "name": "宇奈月デイサービスセンター",
    "kana": "ウナヅキデイサービスセンター",
    "address": "富山県黒部市宇奈月町下立３７番地",
    "lat": 36.8642892,
    "lng": 137.5267138,
    "tel": "0765-65-2666",
    "url": "",
    "pref": "富山県",
    "city": "黒部市",
    "category": "day_service",
    "serviceType": "通所介護",
    "capacity": null,
    "openDays": [
      "平日",
      "祝日"
    ],
    "openDaysNote": ""
  },
  {
    "id": "1670700119",
    "name": "越之湖デイサ－ビスセンタ－",
    "kana": "コシノコデイサ－ビスセンタ－",
    "address": "富山県黒部市堀切1002",
    "lat": 36.8806373,
    "lng": 137.4246572,
    "tel": "0765-57-3512",
    "url": "http://koshinoko.e-294.net/",
    "pref": "富山県",
    "city": "黒部市",
    "category": "day_service",
    "serviceType": "通所介護",
    "capacity": 0,
    "openDays": [
      "平日",
      "土曜日",
      "祝日"
    ],
    "openDaysNote": ""
  },
  {
    "id": "1670700093",
    "name": "越野荘デイサービスセンター",
    "kana": "コシノソウデイサービスセンター",
    "address": "富山県黒部市若栗　2111",
    "lat": 36.8658266,
    "lng": 137.488287,
    "tel": "0765-54-1680",
    "url": "http://koshinosou.e-294.net/",
    "pref": "富山県",
    "city": "黒部市",
    "category": "day_service",
    "serviceType": "通所介護",
    "capacity": 0,
    "openDays": [
      "平日",
      "土曜日",
      "祝日"
    ],
    "openDaysNote": ""
  },
  {
    "id": "1670700325",
    "name": "黒部温泉デイサービスセンター",
    "kana": "クロベオンセンデイサービスセンター",
    "address": "富山県黒部市窪野９２９番地",
    "lat": 36.8512925714955,
    "lng": 137.444433531352,
    "tel": "0765-52-2588",
    "url": "http://www.yuuai-byouinkai.or.jp",
    "pref": "富山県",
    "city": "黒部市",
    "category": "day_service",
    "serviceType": "通所介護",
    "capacity": 30,
    "openDays": [
      "平日",
      "土曜日"
    ],
    "openDaysNote": ""
  },
  {
    "id": "1670700291",
    "name": "三日市デイサービス　まちなか",
    "kana": "ミッカイチディサービス　マチナカ",
    "address": "黒部市三日市3872-1",
    "lat": 36.8752003096449,
    "lng": 137.446227831738,
    "tel": "0765-57-3044",
    "url": "https://shinsei.me/",
    "pref": "富山県",
    "city": "黒部市",
    "category": "day_service",
    "serviceType": "通所介護",
    "capacity": 0,
    "openDays": [
      "平日",
      "土曜日"
    ],
    "openDaysNote": ""
  },
  {
    "id": "1670700283",
    "name": "通所介護事業所　さくら",
    "kana": "ツウショカイゴジギョウショ　サクラ",
    "address": "富山県黒部市荻生８２１番地",
    "lat": 36.8878395,
    "lng": 137.469502,
    "tel": "0765-54-2201",
    "url": "http://www4.nsk.ne.jp/ikeda-reha/",
    "pref": "富山県",
    "city": "黒部市",
    "category": "day_service",
    "serviceType": "通所介護",
    "capacity": 25,
    "openDays": [
      "平日",
      "土曜日"
    ],
    "openDaysNote": "特になし"
  },
  {
    "id": "1670700069",
    "name": "老人デイサービスセンター　つばき苑",
    "kana": "ロウジンデイサービスセンター　ツバキエン",
    "address": "富山県黒部市荒俣4378",
    "lat": 36.9104162,
    "lng": 137.4269472,
    "tel": "0765-57-3127",
    "url": "",
    "pref": "富山県",
    "city": "黒部市",
    "category": "day_service",
    "serviceType": "通所介護",
    "capacity": 0,
    "openDays": [
      "平日",
      "土曜日",
      "祝日"
    ],
    "openDaysNote": ""
  },
  {
    "id": "1671100848",
    "name": "Re-have",
    "kana": "リ・ハブ",
    "address": "富山県射水市太閤山7-108",
    "lat": 36.7084518940482,
    "lng": 137.089290205488,
    "tel": "0766-50-9072",
    "url": "http://hp.kaipoke.biz/zfk/",
    "pref": "富山県",
    "city": "射水市",
    "category": "day_service",
    "serviceType": "通所介護",
    "capacity": 0,
    "openDays": [
      "平日",
      "土曜日",
      "祝日"
    ],
    "openDaysNote": ""
  },
  {
    "id": "1671900106",
    "name": "エスポワールこすぎデイサービスセンター",
    "kana": "エスポワールコスギデイサービスセンター",
    "address": "富山県射水市池多８２２番地",
    "lat": 36.6847427,
    "lng": 137.1097248,
    "tel": "0766-56-0871",
    "url": "http://kosugifukusikai.jp",
    "pref": "富山県",
    "city": "射水市",
    "category": "day_service",
    "serviceType": "通所介護",
    "capacity": null,
    "openDays": [
      "平日",
      "土曜日",
      "日曜日",
      "祝日"
    ],
    "openDaysNote": ""
  },
  {
    "id": "1671100178",
    "name": "くなとデイサービスセンター",
    "kana": "クナトデイサービスセンター",
    "address": "射水市久々湊448番地",
    "lat": 36.7589024,
    "lng": 137.0940194,
    "tel": "0766-83-0521",
    "url": "http://kijukai.or.jp",
    "pref": "富山県",
    "city": "射水市",
    "category": "day_service",
    "serviceType": "通所介護",
    "capacity": 0,
    "openDays": [
      "平日",
      "土曜日",
      "祝日"
    ],
    "openDaysNote": "元旦休業"
  },
  {
    "id": "1671900080",
    "name": "こぶし園デイサービスセンター",
    "kana": "コブシエンデイサービスセンター",
    "address": "富山県射水市中村２０番地",
    "lat": 36.7229811,
    "lng": 137.0561602,
    "tel": "0766-52-4700",
    "url": "",
    "pref": "富山県",
    "city": "射水市",
    "category": "day_service",
    "serviceType": "通所介護",
    "capacity": 0,
    "openDays": [
      "平日",
      "土曜日",
      "日曜日",
      "祝日"
    ],
    "openDaysNote": "特になし"
  },
  {
    "id": "1671900247",
    "name": "すずらんデイサービスセンター",
    "kana": "スズランデイサービスセンター",
    "address": "富山県射水市大島北野３３番地",
    "lat": 36.7445059,
    "lng": 137.0529237,
    "tel": "0766-52-7520",
    "url": "https://suzuran-imizu.jp/",
    "pref": "富山県",
    "city": "射水市",
    "category": "day_service",
    "serviceType": "通所介護",
    "capacity": 0,
    "openDays": [
      "平日",
      "土曜日",
      "祝日"
    ],
    "openDaysNote": ""
  },
  {
    "id": "1670300209",
    "name": "デイサービスセンター　りらいあんす",
    "kana": "デイサービスセンター　リライアンス",
    "address": "富山県射水市寺塚原１８８番地りらいあんす りらいあんす",
    "lat": 36.7496416,
    "lng": 137.0623977,
    "tel": "0766-83-7200",
    "url": "",
    "pref": "富山県",
    "city": "射水市",
    "category": "day_service",
    "serviceType": "通所介護",
    "capacity": 25,
    "openDays": [
      "平日",
      "土曜日",
      "祝日"
    ],
    "openDaysNote": ""
  },
  {
    "id": "1671100657",
    "name": "デイサービス愛のて",
    "kana": "デイサービスアイノテ",
    "address": "かもめ台97",
    "lat": 36.7576823,
    "lng": 137.1753024,
    "tel": "0766-50-9152",
    "url": "care-net.biz/16/belive-ainote/indication",
    "pref": "富山県",
    "city": "射水市",
    "category": "day_service",
    "serviceType": "通所介護",
    "capacity": 22,
    "openDays": [
      "平日",
      "祝日"
    ],
    "openDaysNote": ""
  },
  {
    "id": "1671100210",
    "name": "デイサービス癒さぁ",
    "kana": "デイサービスイヤサァ",
    "address": "射水市本町１丁目１３番１号",
    "lat": 36.7831467,
    "lng": 137.0743316,
    "tel": "0766-73-8155",
    "url": "http://www.hakushikai.jp",
    "pref": "富山県",
    "city": "射水市",
    "category": "day_service",
    "serviceType": "通所介護",
    "capacity": 30,
    "openDays": [
      "平日",
      "土曜日",
      "祝日"
    ],
    "openDaysNote": ""
  },
  {
    "id": "1671100285",
    "name": "ニチイケアセンターいみず",
    "kana": "ニチイケアセンターイミズ",
    "address": "富山県射水市二口３１５９番の2",
    "lat": 36.7283831,
    "lng": 137.0530576,
    "tel": "0766-52-7762",
    "url": "http://www.nichiigakkan.co.jp",
    "pref": "富山県",
    "city": "射水市",
    "category": "day_service",
    "serviceType": "通所介護",
    "capacity": 0,
    "openDays": [
      "平日",
      "土曜日",
      "祝日"
    ],
    "openDaysNote": ""
  },
  {
    "id": "1670300308",
    "name": "ぶどうの木デイサービス",
    "kana": "ブドウノキデイサービス",
    "address": "富山県射水市桜町19-3",
    "lat": 36.7765893,
    "lng": 137.0854615,
    "tel": "0766-82-1808",
    "url": "",
    "pref": "富山県",
    "city": "射水市",
    "category": "day_service",
    "serviceType": "通所介護",
    "capacity": 35,
    "openDays": [
      "平日",
      "土曜日",
      "祝日"
    ],
    "openDaysNote": ""
  },
  {
    "id": "1671100301",
    "name": "ぶどうの木桜町ディサービス",
    "kana": "ブドウノキサクラマチディサービス",
    "address": "射水市桜町18-15",
    "lat": 36.7758421,
    "lng": 137.0851338,
    "tel": "0766-84-2122",
    "url": "https://ojima.clinic/",
    "pref": "富山県",
    "city": "射水市",
    "category": "day_service",
    "serviceType": "通所介護",
    "capacity": 35,
    "openDays": [
      "平日",
      "土曜日",
      "祝日"
    ],
    "openDaysNote": ""
  },
  {
    "id": "1671100863",
    "name": "リハビリ特化型ﾃﾞｲｻｰﾋﾞｽｾﾝﾀｰ　りらいあんす",
    "kana": "リハビリトッカガタデイサービスセンターリライアンス",
    "address": "富山県射水市寺塚原188",
    "lat": 36.7496535,
    "lng": 137.0623939,
    "tel": "0766－83－7200",
    "url": "",
    "pref": "富山県",
    "city": "射水市",
    "category": "day_service",
    "serviceType": "通所介護",
    "capacity": null,
    "openDays": [
      "平日"
    ],
    "openDaysNote": ""
  },
  {
    "id": "1671100814",
    "name": "海王デイサービス",
    "kana": "カイオウデイサービス",
    "address": "富山県射水市海王町25番地",
    "lat": 36.7774225,
    "lng": 137.1070706,
    "tel": "0766-83-7111",
    "url": "",
    "pref": "富山県",
    "city": "射水市",
    "category": "day_service",
    "serviceType": "通所介護",
    "capacity": 0,
    "openDays": [
      "平日",
      "土曜日",
      "日曜日",
      "祝日"
    ],
    "openDaysNote": "12月３０日から1月3日休業"
  },
  {
    "id": "1670300076",
    "name": "射水万葉苑デイサービスセンター",
    "kana": "イミズマンヨウエン　デイサービスセンター",
    "address": "富山県射水市朴木２１１番地の１",
    "lat": 36.759302,
    "lng": 137.0786599,
    "tel": "0766-82-8282",
    "url": "http://www.imizu-manyoukai.or.jp",
    "pref": "富山県",
    "city": "射水市",
    "category": "day_service",
    "serviceType": "通所介護",
    "capacity": 0,
    "openDays": [
      "平日",
      "土曜日",
      "祝日"
    ],
    "openDaysNote": ""
  },
  {
    "id": "1670300084",
    "name": "社会福祉法人喜寿会　七美ことぶき苑デイサービスセンター",
    "kana": "シャカイフクシホウジンキジュカイ　シチミコトブキエン",
    "address": "富山県射水市七美891番地",
    "lat": 36.7522429,
    "lng": 137.1423728,
    "tel": "0766-86-4173",
    "url": "https://kijukai.or.jp/",
    "pref": "富山県",
    "city": "射水市",
    "category": "day_service",
    "serviceType": "通所介護",
    "capacity": 35,
    "openDays": [
      "平日",
      "土曜日",
      "祝日"
    ],
    "openDaysNote": ""
  },
  {
    "id": "1671100160",
    "name": "太閤の杜デイサービスセンター",
    "kana": "タイコウノモリデイサービスセンター",
    "address": "富山県射水市中太閤山18丁目1番地の2",
    "lat": 36.6996346,
    "lng": 137.0894661,
    "tel": "0766-56-8730",
    "url": "http://kosugifukushikai.jp/",
    "pref": "富山県",
    "city": "射水市",
    "category": "day_service",
    "serviceType": "通所介護",
    "capacity": 50,
    "openDays": [
      "平日",
      "土曜日",
      "祝日"
    ],
    "openDaysNote": ""
  },
  {
    "id": "1671900122",
    "name": "大江苑デイサービスセンター",
    "kana": "オオゴエンデイサービスセンター",
    "address": "富山県射水市大江３３３番地の１",
    "lat": 36.7283541,
    "lng": 137.1151734,
    "tel": "0766-55-8887",
    "url": "http://kosugifukushikai.jp/",
    "pref": "富山県",
    "city": "射水市",
    "category": "day_service",
    "serviceType": "通所介護",
    "capacity": 0,
    "openDays": [
      "平日",
      "土曜日",
      "日曜日",
      "祝日"
    ],
    "openDaysNote": "早朝利用、延長利用をしております。通常（送迎つき）利用は、8：30～16：30の利用になります。日曜日は、総合事業緩和型対象とした運動を実施しています。"
  },
  {
    "id": "1671100251",
    "name": "福祉プラザ七美通所介護",
    "kana": "フクシプラザシチミツウショカイゴ",
    "address": "富山県射水市七美879－1",
    "lat": 36.7521046,
    "lng": 137.1407428,
    "tel": "0766ー86－4545",
    "url": "http://www.imizu-manyoukai.or.jp/",
    "pref": "富山県",
    "city": "射水市",
    "category": "day_service",
    "serviceType": "通所介護",
    "capacity": null,
    "openDays": [
      "平日",
      "土曜日"
    ],
    "openDaysNote": "土曜日は緩和型サービス"
  },
  {
    "id": "1671100277",
    "name": "片口デイサービスわが家",
    "kana": "カタグチデイサービスワガヤ",
    "address": "富山県射水市片口８２８番地",
    "lat": 36.7599678816175,
    "lng": 137.119821278837,
    "tel": "0766-86-6686",
    "url": "http://kataguchi-wagaya.jp",
    "pref": "富山県",
    "city": "射水市",
    "category": "day_service",
    "serviceType": "通所介護",
    "capacity": 30,
    "openDays": [
      "平日",
      "土曜日",
      "祝日"
    ],
    "openDaysNote": ""
  },
  {
    "id": "1671600987",
    "name": "ふなはし荘デイサービスセンター",
    "kana": "フナハシソウデイサービスセンター",
    "address": "富山県中新川郡舟橋村舟橋６０番地１",
    "lat": 36.7086311,
    "lng": 137.3102336,
    "tel": "076-462-9876",
    "url": "http://care-net.biz/16/funahashisou/",
    "pref": "富山県",
    "city": "舟橋村",
    "category": "day_service",
    "serviceType": "通所介護",
    "capacity": null,
    "openDays": [
      "平日",
      "土曜日",
      "祝日"
    ],
    "openDaysNote": "１２／３１～１／３は特別休暇"
  },
  {
    "id": "1670900453",
    "name": "JAいなばディサービスセンターさんごの家",
    "kana": "ジェイエイイナバディサービスセンターサンゴノイエ",
    "address": "富山県小矢部市水島680番地",
    "lat": 36.6382202327501,
    "lng": 136.902598487542,
    "tel": "0766-61-2266",
    "url": "http://www.ja-inaba.or.jp",
    "pref": "富山県",
    "city": "小矢部市",
    "category": "day_service",
    "serviceType": "通所介護",
    "capacity": 0,
    "openDays": [
      "平日",
      "土曜日",
      "祝日"
    ],
    "openDaysNote": ""
  },
  {
    "id": "1670900578",
    "name": "サニーデイサービスセンター小矢部",
    "kana": "サニーデイサービスセンターオヤベ",
    "address": "富山県小矢部市島440－2サニーデイサービスセンター小矢部 サニーデイサービスセンター小矢部",
    "lat": 36.667115,
    "lng": 136.8778383,
    "tel": "0766－53－5332",
    "url": "",
    "pref": "富山県",
    "city": "小矢部市",
    "category": "day_service",
    "serviceType": "通所介護",
    "capacity": 25,
    "openDays": [
      "平日",
      "土曜日"
    ],
    "openDaysNote": ""
  },
  {
    "id": "1670900081",
    "name": "ほっとはうす千羽デイサービスセンター",
    "kana": "ホットハウスセンバデイサービスセンター",
    "address": "富山県小矢部市浅地１２１",
    "lat": 36.6233822,
    "lng": 136.875473,
    "tel": "0766-61-8555",
    "url": "http://www.hot-senba.net/",
    "pref": "富山県",
    "city": "小矢部市",
    "category": "day_service",
    "serviceType": "通所介護",
    "capacity": 35,
    "openDays": [
      "平日",
      "土曜日",
      "祝日"
    ],
    "openDaysNote": ""
  },
  {
    "id": "1670900560",
    "name": "花かごデイサービス",
    "kana": "ハナカゴデイサービス",
    "address": "富山県小矢部市桜町1800番地",
    "lat": 36.6854572,
    "lng": 136.8726882,
    "tel": "0766-68-0555",
    "url": "https://www.hanakago2015.com/",
    "pref": "富山県",
    "city": "小矢部市",
    "category": "day_service",
    "serviceType": "通所介護",
    "capacity": 0,
    "openDays": [
      "平日",
      "土曜日"
    ],
    "openDaysNote": "営業日　通常月曜日から土曜日までとします。ただし12月30日～1月3日を除く。（改行）8月15、16日は夏季休暇期間。"
  },
  {
    "id": "1670900610",
    "name": "共生型ディサービス　ぴーすあけぼの",
    "kana": "キョウセイガタディサービス　ピースアケボノ",
    "address": "富山県小矢部市綾子5596",
    "lat": 36.6709558,
    "lng": 136.8621512,
    "tel": "0766-30-5858",
    "url": "",
    "pref": "富山県",
    "city": "小矢部市",
    "category": "day_service",
    "serviceType": "通所介護",
    "capacity": 0,
    "openDays": [
      "平日"
    ],
    "openDaysNote": ""
  },
  {
    "id": "1670900107",
    "name": "清楽園デイサービスセンター",
    "kana": "セイラクエンデイサービスセンター",
    "address": "富山県小矢部市八和町10番32号",
    "lat": 36.680886332914,
    "lng": 136.870019647191,
    "tel": "0766-68-3150",
    "url": "https://seirakuen.site/",
    "pref": "富山県",
    "city": "小矢部市",
    "category": "day_service",
    "serviceType": "通所介護",
    "capacity": 30,
    "openDays": [
      "平日",
      "土曜日",
      "祝日"
    ],
    "openDaysNote": "年末年始（12/30～1/3）は休業"
  },
  {
    "id": "1671600730",
    "name": "デイサービス　スマイル・ハート",
    "kana": "デイサービス　スマイル・ハート",
    "address": "富山県中新川郡上市町森尻375",
    "lat": 36.7177172,
    "lng": 137.3586024,
    "tel": "076－473－2670",
    "url": "http://shk1.jp",
    "pref": "富山県",
    "city": "上市町",
    "category": "day_service",
    "serviceType": "通所介護",
    "capacity": 0,
    "openDays": [
      "平日",
      "土曜日",
      "祝日"
    ],
    "openDaysNote": "祝日は営業しています。（改行）お盆8/13～8/16お休み（改行）年末年始12/31～1/3お休み"
  },
  {
    "id": "1671600409",
    "name": "デイサービスやまやまハウス",
    "kana": "デイサービスヤマヤマハウス",
    "address": "富山県中新川郡上市町稗田13-16",
    "lat": 36.6975693,
    "lng": 137.3528729,
    "tel": "076-473-8056",
    "url": "",
    "pref": "富山県",
    "city": "上市町",
    "category": "day_service",
    "serviceType": "通所介護",
    "capacity": 0,
    "openDays": [
      "平日",
      "土曜日",
      "祝日"
    ],
    "openDaysNote": "特になし"
  },
  {
    "id": "1671600177",
    "name": "ニチイケアセンター上市",
    "kana": "ニチイケアセンターカミイチ",
    "address": "富山県中新川郡上市町神田20-5",
    "lat": 36.6984134,
    "lng": 137.340799,
    "tel": "076-473-9156",
    "url": "http://www.nichiigakkan.co.jp",
    "pref": "富山県",
    "city": "上市町",
    "category": "day_service",
    "serviceType": "通所介護",
    "capacity": 0,
    "openDays": [
      "平日",
      "土曜日",
      "祝日"
    ],
    "openDaysNote": ""
  },
  {
    "id": "1671600391",
    "name": "ひなたぼっこ上市デイサービスセンター",
    "kana": "ヒナタボッコカミイチデイサービスセンター",
    "address": "富山県中新川郡上市町稗田33-1ひなたぼっこ上市 ひなたぼっこ上市",
    "lat": 36.695192,
    "lng": 137.3601918,
    "tel": "076-473-3520",
    "url": "http://kaigosoudan.com/",
    "pref": "富山県",
    "city": "上市町",
    "category": "day_service",
    "serviceType": "通所介護",
    "capacity": 20,
    "openDays": [
      "平日",
      "土曜日",
      "日曜日",
      "祝日"
    ],
    "openDaysNote": "日曜日は定員が少ない為、定期的にと言うよりは、臨時でのデイ利用にお役立て下さい。（改行）要相談。"
  },
  {
    "id": "1671600185",
    "name": "常楽園デイサービスセンター",
    "kana": "ジョウラクエンデイサービスセンター",
    "address": "富山県中新川郡上市町舘２０９番",
    "lat": 36.6728135,
    "lng": 137.3631477,
    "tel": "076-472-3993",
    "url": "http://www.seimaria.jp/jyorakuen/",
    "pref": "富山県",
    "city": "上市町",
    "category": "day_service",
    "serviceType": "通所介護",
    "capacity": 0,
    "openDays": [
      "平日",
      "祝日"
    ],
    "openDaysNote": ""
  },
  {
    "id": "1671601019",
    "name": "福祉コミュニティあいの風デイサービスひまわり",
    "kana": "フクシコミュニティアイノカゼデイサービスヒマワリ",
    "address": "富山県中新川郡上市町中小泉68番地4",
    "lat": 36.7084662076378,
    "lng": 137.347892471164,
    "tel": "076-473-2518",
    "url": "https://www.ainokaze.ne.jp",
    "pref": "富山県",
    "city": "上市町",
    "category": "day_service",
    "serviceType": "通所介護",
    "capacity": null,
    "openDays": [
      "平日",
      "土曜日",
      "祝日"
    ],
    "openDaysNote": ""
  },
  {
    "id": "1671600524",
    "name": "民間デイサービスひまわり",
    "kana": "ミンカンデイサービスヒマワリ",
    "address": "富山県中新川郡上市町中小泉68-4",
    "lat": 36.7080260908193,
    "lng": 137.347897104026,
    "tel": "076-473-2518",
    "url": "",
    "pref": "富山県",
    "city": "上市町",
    "category": "day_service",
    "serviceType": "通所介護",
    "capacity": 0,
    "openDays": [
      "平日",
      "土曜日",
      "祝日"
    ],
    "openDaysNote": ""
  },
  {
    "id": "1671700100",
    "name": "朝日町デイサービスセンター",
    "kana": "アサヒマチデイサービスセンター",
    "address": "富山県下新川郡朝日町泊５５５",
    "lat": 36.9620405,
    "lng": 137.5631932,
    "tel": "0765-83-2880",
    "url": "http:www.arisokai.jp/",
    "pref": "富山県",
    "city": "朝日町",
    "category": "day_service",
    "serviceType": "通所介護",
    "capacity": 0,
    "openDays": [
      "平日",
      "祝日"
    ],
    "openDaysNote": "特になし。"
  },
  {
    "id": "1672000229",
    "name": "ケアポート庄川デイサービスセンター",
    "kana": "ケアポートショウガワデイサービスセンター",
    "address": "富山県砺波市庄川町金屋字岩黒３８－１",
    "lat": 36.5733191,
    "lng": 136.9877191,
    "tel": "0763-82-6871",
    "url": "http://www.shogawa.jp",
    "pref": "富山県",
    "city": "砺波市",
    "category": "day_service",
    "serviceType": "通所介護",
    "capacity": null,
    "openDays": [
      "平日",
      "土曜日",
      "祝日"
    ],
    "openDaysNote": ""
  },
  {
    "id": "1670800760",
    "name": "デイサービス　うみとそら",
    "kana": "デイサービス　ウミトソラ",
    "address": "富山県砺波市新富町2-10",
    "lat": 36.6402847,
    "lng": 136.9487264,
    "tel": "0763-77-4170",
    "url": "",
    "pref": "富山県",
    "city": "砺波市",
    "category": "day_service",
    "serviceType": "通所介護",
    "capacity": 0,
    "openDays": [
      "平日"
    ],
    "openDaysNote": ""
  },
  {
    "id": "1670800604",
    "name": "ニチイケアセンター石丸",
    "kana": "ニチイケアセンターイシマル",
    "address": "砺波市石丸４０１番地",
    "lat": 36.6646561,
    "lng": 136.9795819,
    "tel": "0763-34-1020",
    "url": "http://www.nichiigakkan.co.jp",
    "pref": "富山県",
    "city": "砺波市",
    "category": "day_service",
    "serviceType": "通所介護",
    "capacity": 35,
    "openDays": [
      "平日",
      "土曜日",
      "祝日"
    ],
    "openDaysNote": ""
  },
  {
    "id": "1670800224",
    "name": "ニチイケアセンター砺波",
    "kana": "ニチイケアセンタートナミ",
    "address": "富山県砺波市太郎丸1-8-12",
    "lat": 36.6320722,
    "lng": 136.9599673,
    "tel": "0763-34-7261",
    "url": "http://www.nichiigakkan.co.jp",
    "pref": "富山県",
    "city": "砺波市",
    "category": "day_service",
    "serviceType": "通所介護",
    "capacity": 0,
    "openDays": [
      "平日",
      "土曜日",
      "日曜日",
      "祝日"
    ],
    "openDaysNote": ""
  },
  {
    "id": "1670800711",
    "name": "プラトーケアセンター栄町",
    "kana": "プラトーケアセンターサカエマチ",
    "address": "富山県砺波市栄町224",
    "lat": 36.6472308,
    "lng": 136.9588364,
    "tel": "0763-55-6804",
    "url": "",
    "pref": "富山県",
    "city": "砺波市",
    "category": "day_service",
    "serviceType": "通所介護",
    "capacity": 0,
    "openDays": [
      "平日",
      "土曜日"
    ],
    "openDaysNote": "ただし、管理者が定める日はこの限りではないが要介護者に限る"
  },
  {
    "id": "1670800141",
    "name": "やなぜ苑デイサービスセンター",
    "kana": "ヤナゼエンデイサービスセンター",
    "address": "富山県砺波市柳瀬３番地",
    "lat": 36.6471732,
    "lng": 136.9958472,
    "tel": "0763-32-3050",
    "url": "http://yanaze.org/",
    "pref": "富山県",
    "city": "砺波市",
    "category": "day_service",
    "serviceType": "通所介護",
    "capacity": null,
    "openDays": [
      "平日",
      "祝日"
    ],
    "openDaysNote": ""
  },
  {
    "id": "1670800315",
    "name": "砺波ふれあいの杜　デイサービスセンター",
    "kana": "トナミフレアイノモリ　デイサービスセンター",
    "address": "富山県砺波市神島756-1",
    "lat": 36.6358074,
    "lng": 136.9393554,
    "tel": "0763-33-0807",
    "url": "http://www.furemori.com",
    "pref": "富山県",
    "city": "砺波市",
    "category": "day_service",
    "serviceType": "通所介護",
    "capacity": 0,
    "openDays": [
      "平日",
      "土曜日",
      "祝日"
    ],
    "openDaysNote": ""
  },
  {
    "id": "1670800273",
    "name": "砺波市庄東デイサービスセンター",
    "kana": "トナミシショウトウデイサービスセンター",
    "address": "富山県砺波市安川２９７番地",
    "lat": 36.6275714,
    "lng": 137.0115621,
    "tel": "0763-37-2161",
    "url": "http://yanaze.org/",
    "pref": "富山県",
    "city": "砺波市",
    "category": "day_service",
    "serviceType": "通所介護",
    "capacity": null,
    "openDays": [
      "平日",
      "土曜日",
      "祝日"
    ],
    "openDaysNote": ""
  },
  {
    "id": "1670800265",
    "name": "砺波市南部デイサービスセンター",
    "kana": "トナミシナンブデイサービスセンター",
    "address": "富山県砺波市苗加824番地の１",
    "lat": 36.6175069,
    "lng": 136.9445999,
    "tel": "0763-32-7295",
    "url": "",
    "pref": "富山県",
    "city": "砺波市",
    "category": "day_service",
    "serviceType": "通所介護",
    "capacity": 0,
    "openDays": [
      "平日",
      "土曜日",
      "祝日"
    ],
    "openDaysNote": ""
  },
  {
    "id": "1670800471",
    "name": "砺波市北部デイサービスセンター",
    "kana": "トナミシホクブデイサービスセンター",
    "address": "富山県砺波市林１２０２番地",
    "lat": 36.651863,
    "lng": 136.9377442,
    "tel": "0763-33-3082",
    "url": "",
    "pref": "富山県",
    "city": "砺波市",
    "category": "day_service",
    "serviceType": "通所介護",
    "capacity": 0,
    "openDays": [
      "平日",
      "土曜日",
      "祝日"
    ],
    "openDaysNote": ""
  },
  {
    "id": "1670800331",
    "name": "特定非営利活動法人　デイサービス青空",
    "kana": "トクテイヒエイリカツドウホウジン　デイサービスアオゾラ",
    "address": "富山県砺波市矢木222番1特定非営利活動法人　デイサービス青空 特定非営利活動法人　デイサービス青空",
    "lat": 36.6347413,
    "lng": 136.9737857,
    "tel": "0763-33-1504",
    "url": "aozora1504@chic.ocn.ne.jp",
    "pref": "富山県",
    "city": "砺波市",
    "category": "day_service",
    "serviceType": "通所介護",
    "capacity": 48,
    "openDays": [
      "平日",
      "土曜日",
      "日曜日",
      "祝日"
    ],
    "openDaysNote": "業務の都合等で休業することがあります。"
  },
  {
    "id": "1671000089",
    "name": "ＪＡ福光デイサ－ビス日向ぼっこ",
    "kana": "ジェイエイフクミツデイサ-ビスヒナタボッコ",
    "address": "富山県南砺市福光1192番地",
    "lat": 36.5542855,
    "lng": 136.8704001,
    "tel": "0763-52-3939",
    "url": "http://ja.fuku3.com/",
    "pref": "富山県",
    "city": "南砺市",
    "category": "day_service",
    "serviceType": "通所介護",
    "capacity": 30,
    "openDays": [
      "平日",
      "土曜日"
    ],
    "openDaysNote": "但し、管理者が認めた場合はこの限りではない。"
  },
  {
    "id": "1671000253",
    "name": "きららデイサービスセンター",
    "kana": "キララデイサービスセンター",
    "address": "富山県南砺市理休247番地1",
    "lat": 36.5120613000001,
    "lng": 136.9104814,
    "tel": "0763-62-2651",
    "url": "http://fukuju.jp",
    "pref": "富山県",
    "city": "南砺市",
    "category": "day_service",
    "serviceType": "通所介護",
    "capacity": 0,
    "openDays": [
      "平日",
      "土曜日",
      "祝日"
    ],
    "openDaysNote": "平日のほか、土曜日、祝日の送迎にも対応しています。（改行）サービス提供時間は、午前８時４５分から午後４時１５分までです。"
  },
  {
    "id": "1672000153",
    "name": "デイサービスセンターいなみ",
    "kana": "デイサービスセンターイナミ",
    "address": "富山県南砺市井波1310番地1",
    "lat": 36.5678305,
    "lng": 136.9760731,
    "tel": "0763-82-7030",
    "url": "http://fukuju.jp",
    "pref": "富山県",
    "city": "南砺市",
    "category": "day_service",
    "serviceType": "通所介護",
    "capacity": 0,
    "openDays": [
      "平日",
      "土曜日"
    ],
    "openDaysNote": "祝祭日に営業する場合があります。"
  },
  {
    "id": "1671000402",
    "name": "ニチイケアセンター南砺",
    "kana": "ニチイケアセンター　ナント",
    "address": "富山県南砺市八幡13-1",
    "lat": 36.568345,
    "lng": 136.8728435,
    "tel": "0763-52-8087",
    "url": "http://www.nichiigakkan.co.jp",
    "pref": "富山県",
    "city": "南砺市",
    "category": "day_service",
    "serviceType": "通所介護",
    "capacity": 30,
    "openDays": [
      "平日",
      "土曜日",
      "祝日"
    ],
    "openDaysNote": ""
  },
  {
    "id": "1671000071",
    "name": "はぴねすデイサービス和みの里",
    "kana": "ハピネスデイサービスナゴミノサト",
    "address": "富山県南砺市二日町2077-1",
    "lat": 36.6001973,
    "lng": 136.9203994,
    "tel": "0763-22-8800",
    "url": "http://www.hokufuku.com/",
    "pref": "富山県",
    "city": "南砺市",
    "category": "day_service",
    "serviceType": "通所介護",
    "capacity": 20,
    "openDays": [
      "平日",
      "土曜日",
      "祝日"
    ],
    "openDaysNote": ""
  },
  {
    "id": "1672100193",
    "name": "ふく満デイサービスセンター",
    "kana": "フクミツデイサービスセンター",
    "address": "富山県南砺市福光1045番地",
    "lat": 36.5548104,
    "lng": 136.867542,
    "tel": "0763-53-0055",
    "url": "http://fukuju.jp/",
    "pref": "富山県",
    "city": "南砺市",
    "category": "day_service",
    "serviceType": "通所介護",
    "capacity": 0,
    "openDays": [
      "平日",
      "祝日"
    ],
    "openDaysNote": "異なる事もあります（連休等）"
  },
  {
    "id": "1672100060",
    "name": "やすらぎ荘デイサービスセンター",
    "kana": "ヤスラギソウデイサービスセンター",
    "address": "富山県南砺市天池１５７０番地",
    "lat": 36.5400488,
    "lng": 136.886369,
    "tel": "0763-52-7206",
    "url": "http://fukuju.jp/",
    "pref": "富山県",
    "city": "南砺市",
    "category": "day_service",
    "serviceType": "通所介護",
    "capacity": 0,
    "openDays": [
      "平日",
      "土曜日",
      "祝日"
    ],
    "openDaysNote": ""
  },
  {
    "id": "1671000428",
    "name": "井口デイサービスセンター",
    "kana": "イノクチデイサービスセンター",
    "address": "富山県南砺市蛇喰1010井口デイサービスセンター 井口デイサービスセンター",
    "lat": 36.5424498,
    "lng": 136.930718,
    "tel": "0763‐64‐8801",
    "url": "",
    "pref": "富山県",
    "city": "南砺市",
    "category": "day_service",
    "serviceType": "通所介護",
    "capacity": 35,
    "openDays": [
      "平日",
      "土曜日",
      "祝日"
    ],
    "openDaysNote": "祝日もサービスを提供しています。（改行）お盆・年末年始等、特別に休暇をいただく場合がございます。"
  },
  {
    "id": "1672000112",
    "name": "福野通所介護施設",
    "kana": "フクノツウショカイゴシセツ",
    "address": "富山県南砺市松原500番地2",
    "lat": 36.5958953,
    "lng": 136.9278156,
    "tel": "0763-22-1050",
    "url": "http://fukuju.jp/",
    "pref": "富山県",
    "city": "南砺市",
    "category": "day_service",
    "serviceType": "通所介護",
    "capacity": 0,
    "openDays": [
      "平日"
    ],
    "openDaysNote": "12月29日は営業する場合もある。（改行）祝日が続いた場合、営業する。"
  },
  {
    "id": "1672000120",
    "name": "旅川通所介護施設",
    "kana": "タビカワツウショカイゴシセツ",
    "address": "富山県南砺市院林92番地1",
    "lat": 36.5909874,
    "lng": 136.9089925,
    "tel": "0763-22-6542",
    "url": "http://fukuju.jp/",
    "pref": "富山県",
    "city": "南砺市",
    "category": "day_service",
    "serviceType": "通所介護",
    "capacity": null,
    "openDays": [
      "平日",
      "土曜日",
      "祝日"
    ],
    "openDaysNote": "その年によってお盆や年末年始に営業する日もあります。"
  },
  {
    "id": "1671700175",
    "name": "デイサービスセンター　おあしす新川",
    "kana": "デイサービスセンター　オアシスニイカワ",
    "address": "富山県下新川郡入善町上野２８０３",
    "lat": 36.9246901,
    "lng": 137.5023589,
    "tel": "0765-74-2655",
    "url": "http://oasis-niikawa.jp",
    "pref": "富山県",
    "city": "入善町",
    "category": "day_service",
    "serviceType": "通所介護",
    "capacity": 0,
    "openDays": [
      "平日",
      "土曜日",
      "祝日"
    ],
    "openDaysNote": "通常は６時間以上７時間未満のサービスを提供する"
  },
  {
    "id": "1671700373",
    "name": "デイサービスセンター　お達者くらぶ小摺戸",
    "kana": "デイサービスセンター　オタッシャクラブコスリド",
    "address": "富山県下新川郡入善町一宿260番地",
    "lat": 36.8982992019565,
    "lng": 137.509251011917,
    "tel": "0765-78-8010",
    "url": "",
    "pref": "富山県",
    "city": "入善町",
    "category": "day_service",
    "serviceType": "通所介護",
    "capacity": 0,
    "openDays": [
      "平日",
      "土曜日",
      "祝日"
    ],
    "openDaysNote": "特になし"
  },
  {
    "id": "1671700639",
    "name": "デイサービスにゅうぜんの里",
    "kana": "デイサービスニュウゼンノサト",
    "address": "富山県下新川郡入善町入膳343番地にゅうぜんの里 にゅうぜんの里",
    "lat": 36.9237637,
    "lng": 137.5080432,
    "tel": "0765-74-7112",
    "url": "http://www.nyuzennosato.com",
    "pref": "富山県",
    "city": "入善町",
    "category": "day_service",
    "serviceType": "通所介護",
    "capacity": 0,
    "openDays": [
      "平日",
      "祝日"
    ],
    "openDaysNote": ""
  },
  {
    "id": "1671700050",
    "name": "舟見寿楽苑デイサービスセンター",
    "kana": "フナミジュラクエンデイサービスセンター",
    "address": "富山県下新川郡入善町舟見１６６４番地",
    "lat": 36.8779188,
    "lng": 137.5595303,
    "tel": "0765-78-1940",
    "url": "http://www.funamijurakuen.jp/",
    "pref": "富山県",
    "city": "入善町",
    "category": "day_service",
    "serviceType": "通所介護",
    "capacity": 0,
    "openDays": [
      "平日",
      "土曜日",
      "祝日"
    ],
    "openDaysNote": "なし"
  },
  {
    "id": "1670500287",
    "name": "JA氷見市いこいの家",
    "kana": "ジェイエイヒミシイコイノイエ",
    "address": "富山県氷見市谷屋1633",
    "lat": 36.8650679,
    "lng": 136.9203562,
    "tel": "0766-76-8086",
    "url": "",
    "pref": "富山県",
    "city": "氷見市",
    "category": "day_service",
    "serviceType": "通所介護",
    "capacity": 0,
    "openDays": [
      "平日",
      "土曜日",
      "祝日"
    ],
    "openDaysNote": "なし"
  },
  {
    "id": "1670500469",
    "name": "ＪＡ氷見市福祉センター結の里",
    "kana": "ジェイエイヒミシユイノサト",
    "address": "富山県氷見市窪１９０８番の１",
    "lat": 36.8378718536337,
    "lng": 136.994366702516,
    "tel": "0766-91-8620",
    "url": "https://himi.ja-toyama.jp/",
    "pref": "富山県",
    "city": "氷見市",
    "category": "day_service",
    "serviceType": "通所介護",
    "capacity": 0,
    "openDays": [
      "平日",
      "土曜日",
      "日曜日",
      "祝日"
    ],
    "openDaysNote": "特になし（改行）（改行）特になし"
  },
  {
    "id": "1670500667",
    "name": "さっさきテルマエデイサービスセンター",
    "kana": "サッサキテルマエデイサービスセンター",
    "address": "富山県氷見市指崎字上野1700番地",
    "lat": 36.8892959,
    "lng": 136.9746223,
    "tel": "0766-74-7455",
    "url": "http://www.drshiraishi.or.jp",
    "pref": "富山県",
    "city": "氷見市",
    "category": "day_service",
    "serviceType": "通所介護",
    "capacity": 0,
    "openDays": [
      "平日",
      "土曜日",
      "祝日"
    ],
    "openDaysNote": ""
  },
  {
    "id": "1670500493",
    "name": "そよ風ホーム",
    "kana": "ソヨカゼホーム",
    "address": "富山県氷見市窪2073",
    "lat": 36.8394181,
    "lng": 137.0014103,
    "tel": "0766-91-5100",
    "url": "www1.cnh.ne.jp/soyokaze/",
    "pref": "富山県",
    "city": "氷見市",
    "category": "day_service",
    "serviceType": "通所介護",
    "capacity": 0,
    "openDays": [
      "平日",
      "土曜日",
      "祝日"
    ],
    "openDaysNote": ""
  },
  {
    "id": "1670500071",
    "name": "つまま園デイサービスセンター",
    "kana": "ツママエンデイサービスセンター",
    "address": "富山県氷見市阿尾410番地",
    "lat": 36.887549,
    "lng": 136.9809856,
    "tel": "0766-72-3724",
    "url": "https://himifukushikai.com/",
    "pref": "富山県",
    "city": "氷見市",
    "category": "day_service",
    "serviceType": "通所介護",
    "capacity": 40,
    "openDays": [
      "平日",
      "土曜日",
      "日曜日",
      "祝日"
    ],
    "openDaysNote": ""
  },
  {
    "id": "1670500329",
    "name": "デイサービスセンターほのぼの苑",
    "kana": "デイサービスセンターホノボノエン",
    "address": "富山県氷見市加納４９５－１",
    "lat": 36.8625246,
    "lng": 136.9716821,
    "tel": "0766-74-7580",
    "url": "http://www.hakuju-kai.jp/",
    "pref": "富山県",
    "city": "氷見市",
    "category": "day_service",
    "serviceType": "通所介護",
    "capacity": null,
    "openDays": [
      "平日",
      "土曜日",
      "祝日"
    ],
    "openDaysNote": ""
  },
  {
    "id": "1670500261",
    "name": "なごみの郷",
    "kana": "ナゴミノサト",
    "address": "富山県氷見市湖光271-2",
    "lat": 36.8409724,
    "lng": 136.9784377,
    "tel": "0766-72-6753",
    "url": "https://www.nagomi-himi.com/",
    "pref": "富山県",
    "city": "氷見市",
    "category": "day_service",
    "serviceType": "通所介護",
    "capacity": 0,
    "openDays": [
      "平日",
      "土曜日",
      "祝日"
    ],
    "openDaysNote": "特になし(日曜日と年始3日間は送迎なし）"
  },
  {
    "id": "1670500121",
    "name": "はまなす苑氷見デイサービスセンター",
    "kana": "ハマナスエンヒミデイサービスセンター",
    "address": "富山県氷見市島尾791番地特別養護老人ホームはまなす苑氷見 特別養護老人ホームはまなす苑氷見",
    "lat": 36.8240264,
    "lng": 137.0106345,
    "tel": "0766-91-7700",
    "url": "https://www.hamanasu-himi.jp/",
    "pref": "富山県",
    "city": "氷見市",
    "category": "day_service",
    "serviceType": "通所介護",
    "capacity": 0,
    "openDays": [
      "平日",
      "土曜日",
      "祝日"
    ],
    "openDaysNote": "特になし"
  },
  {
    "id": "1670500816",
    "name": "フイットネスデイサービス　オレンジ・ＦＩＴ",
    "kana": "フイットネスデイサービス　オレンジフイット",
    "address": "富山県氷見市北大町11番17号",
    "lat": 36.863932,
    "lng": 136.9844588,
    "tel": "0766-50-9096",
    "url": "https://orange-fit.net/",
    "pref": "富山県",
    "city": "氷見市",
    "category": "day_service",
    "serviceType": "通所介護",
    "capacity": 0,
    "openDays": [
      "平日"
    ],
    "openDaysNote": ""
  },
  {
    "id": "1670500857",
    "name": "プラトーケアセンター氷見",
    "kana": "プラトーケアセンターヒミ",
    "address": "富山県氷見市大浦10番地3",
    "lat": 36.8273123,
    "lng": 136.9834726,
    "tel": "0766-54-6364",
    "url": "https://ts8008.jp/",
    "pref": "富山県",
    "city": "氷見市",
    "category": "day_service",
    "serviceType": "通所介護",
    "capacity": 0,
    "openDays": [
      "平日",
      "祝日"
    ],
    "openDaysNote": "土日以外の祝日は、営業しております。"
  },
  {
    "id": "1670500527",
    "name": "みんなの家のどか",
    "kana": "ミンナノイエノドカ",
    "address": "富山県氷見市中村４８５番地１",
    "lat": 36.8669210843241,
    "lng": 136.93378722209,
    "tel": "0766-73-6321",
    "url": "http://toyamagata.com/nodoka/",
    "pref": "富山県",
    "city": "氷見市",
    "category": "day_service",
    "serviceType": "通所介護",
    "capacity": 0,
    "openDays": [
      "平日",
      "土曜日",
      "祝日"
    ],
    "openDaysNote": "サービス提供時間は、９：００～１７：００となっております。（改行）８：００～９：００、１７：００～１９：００までのうち、最長２時間まで延長利用可能です。"
  },
  {
    "id": "1670500709",
    "name": "リハ・ハウス来夢通所介護事業所",
    "kana": "リハ・ハウスライムツウショカイゴジギョウショ",
    "address": "富山県氷見市伊勢大町二丁目14番20号",
    "lat": 36.8481335956561,
    "lng": 136.98969888532,
    "tel": "0766-54-5519",
    "url": "https://raimucare-t.jp",
    "pref": "富山県",
    "city": "氷見市",
    "category": "day_service",
    "serviceType": "通所介護",
    "capacity": 30,
    "openDays": [
      "平日",
      "土曜日",
      "祝日"
    ],
    "openDaysNote": ""
  },
  {
    "id": "1670500758",
    "name": "花みち",
    "kana": "ハナミチ",
    "address": "富山県氷見市加納115番1",
    "lat": 36.8714146866782,
    "lng": 136.974920771658,
    "tel": "0766-72-0873",
    "url": "http://www.toyamagata.com/wakaba/",
    "pref": "富山県",
    "city": "氷見市",
    "category": "day_service",
    "serviceType": "通所介護",
    "capacity": 20,
    "openDays": [
      "平日",
      "土曜日",
      "祝日"
    ],
    "openDaysNote": ""
  },
  {
    "id": "1670500832",
    "name": "機能訓練特化型デイサービス　まほろば氷見",
    "kana": "キノウクンレントッカガタデイサービス　マホロバヒミ",
    "address": "富山県氷見市加納77-2",
    "lat": 36.8719352,
    "lng": 136.9773784,
    "tel": "766303838",
    "url": "",
    "pref": "富山県",
    "city": "氷見市",
    "category": "day_service",
    "serviceType": "通所介護",
    "capacity": 20,
    "openDays": [
      "平日",
      "祝日"
    ],
    "openDaysNote": ""
  },
  {
    "id": "1670500576",
    "name": "大浦デイサービスセンター笑笑",
    "kana": "オオウラデイサービスセンターワラワラ",
    "address": "富山県氷見市大浦字細越１０－３",
    "lat": 36.8273324929343,
    "lng": 136.983391992235,
    "tel": "0766-91-9071",
    "url": "http://kaigo-warawara.com",
    "pref": "富山県",
    "city": "氷見市",
    "category": "day_service",
    "serviceType": "通所介護",
    "capacity": 0,
    "openDays": [
      "平日",
      "祝日"
    ],
    "openDaysNote": "8月13日～8月15日、12月30日～1月3日　休業"
  },
  {
    "id": "1670500162",
    "name": "鶴亀荘",
    "kana": "ツルカメソウ",
    "address": "富山県氷見市柳田1355-2",
    "lat": 36.8268337,
    "lng": 136.9986163,
    "tel": "0766-91-5533",
    "url": "",
    "pref": "富山県",
    "city": "氷見市",
    "category": "day_service",
    "serviceType": "通所介護",
    "capacity": 34,
    "openDays": [
      "平日",
      "土曜日",
      "祝日"
    ],
    "openDaysNote": ""
  },
  {
    "id": "1670500436",
    "name": "氷見苑デイサービスセンター",
    "kana": "ヒミエンデイサービスセンター",
    "address": "富山県氷見市薮田2063番地",
    "lat": 36.8929735,
    "lng": 136.9977587,
    "tel": "0766-72-8913",
    "url": "http://www.himien.jp/",
    "pref": "富山県",
    "city": "氷見市",
    "category": "day_service",
    "serviceType": "通所介護",
    "capacity": 0,
    "openDays": [
      "平日",
      "土曜日",
      "祝日"
    ],
    "openDaysNote": ""
  },
  {
    "id": "1670500634",
    "name": "明善寺デイサービスあんのん",
    "kana": "ミョウゼンジデイサービスアンノン",
    "address": "富山県氷見市堀田1195－1番地",
    "lat": 36.81179817233,
    "lng": 136.97796327686,
    "tel": "0766－92－7008",
    "url": "",
    "pref": "富山県",
    "city": "氷見市",
    "category": "day_service",
    "serviceType": "通所介護",
    "capacity": 25,
    "openDays": [
      "平日",
      "土曜日",
      "祝日"
    ],
    "openDaysNote": ""
  },
  {
    "id": "1670500253",
    "name": "陽和温泉デイサービスセンター福来喜",
    "kana": "ヨウワオンセンデイサービスセンターフクラギ",
    "address": "富山県氷見市堀田4-1",
    "lat": 36.8123404,
    "lng": 136.9726525,
    "tel": "0766-91-0007",
    "url": "http://www.yuuai－byouinkai.or.jp",
    "pref": "富山県",
    "city": "氷見市",
    "category": "day_service",
    "serviceType": "通所介護",
    "capacity": 30,
    "openDays": [
      "平日",
      "土曜日"
    ],
    "openDaysNote": ""
  },
  {
    "id": "1670104643",
    "name": "あいあいデイサービス",
    "kana": "アイアイデイサービス",
    "address": "富山県富山市窪新町６－２１",
    "lat": 36.7062988052629,
    "lng": 137.230866225353,
    "tel": "076-411-5161",
    "url": "https://aiaiokudanoie.amebaownd.com",
    "pref": "富山県",
    "city": "富山市",
    "category": "day_service",
    "serviceType": "通所介護",
    "capacity": 30,
    "openDays": [
      "平日",
      "土曜日",
      "祝日"
    ],
    "openDaysNote": "お盆休み、年末年始の期間に関しては社内カレンダーによる。"
  },
  {
    "id": "1670112828",
    "name": "あしたねの森デイサービス",
    "kana": "アシタネノモリデイサービス",
    "address": "富山県富山市新庄町2丁目15-32",
    "lat": 36.6997302,
    "lng": 137.2557399,
    "tel": "076-442-9002",
    "url": "http://www.alpen.or.jp",
    "pref": "富山県",
    "city": "富山市",
    "category": "day_service",
    "serviceType": "通所介護",
    "capacity": 5,
    "openDays": [
      "平日",
      "土曜日",
      "祝日"
    ],
    "openDaysNote": ""
  },
  {
    "id": "1670102712",
    "name": "あすなろの郷デイサービスセンター",
    "kana": "アスナロノサトデイサービスセンター",
    "address": "富山県富山市下新北町6-45",
    "lat": 36.717002,
    "lng": 137.2201223,
    "tel": "076-433-8800",
    "url": "http://www.asunaronosato.jp",
    "pref": "富山県",
    "city": "富山市",
    "category": "day_service",
    "serviceType": "通所介護",
    "capacity": 35,
    "openDays": [
      "平日",
      "土曜日",
      "祝日"
    ],
    "openDaysNote": "・祝日も開所しております。（改行）・定員に空きがありましたら、臨時利用も可能です。担当の介護支援専門員の方へ申出、ご相談ください。"
  },
  {
    "id": "1670100716",
    "name": "アルペンデイサービス",
    "kana": "アルペンデイサービス",
    "address": "富山市小西１７０番地",
    "lat": 36.7246772,
    "lng": 137.257864,
    "tel": "076-451-9998",
    "url": "http://www.alpen.or.jp",
    "pref": "富山県",
    "city": "富山市",
    "category": "day_service",
    "serviceType": "通所介護",
    "capacity": 80,
    "openDays": [
      "平日",
      "土曜日",
      "祝日"
    ],
    "openDaysNote": ""
  },
  {
    "id": "1670113024",
    "name": "いきいき元気クラブ",
    "kana": "イキイキゲンキクラブ",
    "address": "富山市上大久保1308-2",
    "lat": 36.5981004394692,
    "lng": 137.203895441083,
    "tel": "076-467-0580",
    "url": "https://ikiiki.toyama.jp",
    "pref": "富山県",
    "city": "富山市",
    "category": "day_service",
    "serviceType": "通所介護",
    "capacity": 35,
    "openDays": [
      "平日",
      "土曜日",
      "祝日"
    ],
    "openDaysNote": ""
  },
  {
    "id": "1670115243",
    "name": "うめばちふちゅう",
    "kana": "ウメバチフチュウ",
    "address": "富山県富山市婦中町蔵島1058-2",
    "lat": 36.6455478,
    "lng": 137.1714506,
    "tel": "076-466-0010",
    "url": "http://raffi-ne.com/",
    "pref": "富山県",
    "city": "富山市",
    "category": "day_service",
    "serviceType": "通所介護",
    "capacity": null,
    "openDays": [
      "平日",
      "土曜日",
      "祝日"
    ],
    "openDaysNote": ""
  },
  {
    "id": "1670114352",
    "name": "かえでデイサービス黒崎",
    "kana": "カエデデイサービスクロサキ",
    "address": "富山県富山市黒崎291",
    "lat": 36.6508996,
    "lng": 137.2098929,
    "tel": "076-481-6271",
    "url": "https://if-d.net",
    "pref": "富山県",
    "city": "富山市",
    "category": "day_service",
    "serviceType": "通所介護",
    "capacity": 0,
    "openDays": [
      "平日",
      "土曜日"
    ],
    "openDaysNote": ""
  },
  {
    "id": "1670115334",
    "name": "かえでデイサービス石坂",
    "kana": "カエデデイサービスイシサカ",
    "address": "富山県富山市石坂3322-1",
    "lat": 36.7171589,
    "lng": 137.2002662,
    "tel": "076-482-3062",
    "url": "https://if-d.net",
    "pref": "富山県",
    "city": "富山市",
    "category": "day_service",
    "serviceType": "通所介護",
    "capacity": 0,
    "openDays": [
      "平日",
      "土曜日"
    ],
    "openDaysNote": ""
  },
  {
    "id": "1670112638",
    "name": "かえるの楽笑",
    "kana": "カエルノガッショウ",
    "address": "蓮町２丁目７-１２",
    "lat": 36.7438855,
    "lng": 137.2292599,
    "tel": "076-438-7023",
    "url": "",
    "pref": "富山県",
    "city": "富山市",
    "category": "day_service",
    "serviceType": "通所介護",
    "capacity": 0,
    "openDays": [
      "平日",
      "土曜日",
      "祝日"
    ],
    "openDaysNote": ""
  },
  {
    "id": "1670114105",
    "name": "きたえるーむ富山萩原",
    "kana": "キタエル－ムトヤマハギワラ",
    "address": "富山県富山市萩原416-1",
    "lat": 36.6659696,
    "lng": 137.1967053,
    "tel": "076-425-7377",
    "url": "",
    "pref": "富山県",
    "city": "富山市",
    "category": "day_service",
    "serviceType": "通所介護",
    "capacity": 40,
    "openDays": [
      "平日",
      "土曜日"
    ],
    "openDaysNote": "年末・年始・お盆休み"
  },
  {
    "id": "1670115060",
    "name": "きたえるーむ富山本郷",
    "kana": "キタエルームトヤマホンゴウ",
    "address": "富山県富山市本郷町63-1",
    "lat": 36.6632584,
    "lng": 137.2339288,
    "tel": "076-494-1080",
    "url": "https://kitaeroom.com/shop/post-142.shtml",
    "pref": "富山県",
    "city": "富山市",
    "category": "day_service",
    "serviceType": "通所介護",
    "capacity": 0,
    "openDays": [
      "平日",
      "土曜日"
    ],
    "openDaysNote": ""
  },
  {
    "id": "1670104049",
    "name": "ケアサポート・まき　吉作",
    "kana": "ケアサポート・マキ　ヨシヅクリ",
    "address": "富山市吉作４７０４－２",
    "lat": 36.7064995,
    "lng": 137.1631665,
    "tel": "076-434-8511",
    "url": "http://care-net.biz/16/care-maki/",
    "pref": "富山県",
    "city": "富山市",
    "category": "day_service",
    "serviceType": "通所介護",
    "capacity": 0,
    "openDays": [
      "平日",
      "土曜日",
      "祝日"
    ],
    "openDaysNote": "会社の営業時間は、午前８時１５分～午後５時"
  },
  {
    "id": "1670102522",
    "name": "ケアパートナー富山デイサービスセンター",
    "kana": "ケアパートナートヤマデイサービスセンター",
    "address": "富山市天正寺１２９１番地",
    "lat": 36.680038,
    "lng": 137.2504437,
    "tel": "076-492-8838",
    "url": "http://www.care-partner.com/",
    "pref": "富山県",
    "city": "富山市",
    "category": "day_service",
    "serviceType": "通所介護",
    "capacity": 0,
    "openDays": [
      "平日",
      "土曜日",
      "日曜日",
      "祝日"
    ],
    "openDaysNote": "年末年始の休業有り１２月３０日～１月３日まで"
  },
  {
    "id": "1670104155",
    "name": "コスモスの里　大江干",
    "kana": "コスモスノサト　オオエボシ",
    "address": "富山市大江干３４番地１",
    "lat": 36.6914815,
    "lng": 137.2652588,
    "tel": "076-407-1566",
    "url": "http.//www.kosumosu-sato.co.jp",
    "pref": "富山県",
    "city": "富山市",
    "category": "day_service",
    "serviceType": "通所介護",
    "capacity": 19,
    "openDays": [
      "平日",
      "土曜日",
      "祝日"
    ],
    "openDaysNote": ""
  },
  {
    "id": "1671500153",
    "name": "ささづ苑デイサービスセンター",
    "kana": "ササヅエン　デイサービスセンター",
    "address": "富山市下タ林141",
    "lat": 36.5633484,
    "lng": 137.2054348,
    "tel": "076-467-5155",
    "url": "http://www.sasazuen.or.jp",
    "pref": "富山県",
    "city": "富山市",
    "category": "day_service",
    "serviceType": "通所介護",
    "capacity": 0,
    "openDays": [
      "平日",
      "土曜日"
    ],
    "openDaysNote": "特になし"
  },
  {
    "id": "1670103447",
    "name": "サポートハウス神通さくら野",
    "kana": "サポートハウス　ジンヅウサクラノ",
    "address": "富山市八尾町西神通８８２－１",
    "lat": 36.5904282,
    "lng": 137.182047,
    "tel": "076-455-8011",
    "url": "http://sakurano.or.jp/",
    "pref": "富山県",
    "city": "富山市",
    "category": "day_service",
    "serviceType": "通所介護",
    "capacity": 25,
    "openDays": [
      "平日",
      "土曜日",
      "祝日"
    ],
    "openDaysNote": ""
  },
  {
    "id": "1670103009",
    "name": "しみずまち敬寿苑デイサービスセンター",
    "kana": "シミズマチケイジュエンデイサービスセンター",
    "address": "富山市清水町二丁目6-23",
    "lat": 36.6888635421447,
    "lng": 137.225916388361,
    "tel": "076-492-6636",
    "url": "https://toyamajonankai.mutsumi-gr.jp",
    "pref": "富山県",
    "city": "富山市",
    "category": "day_service",
    "serviceType": "通所介護",
    "capacity": 0,
    "openDays": [
      "平日",
      "土曜日",
      "祝日"
    ],
    "openDaysNote": ""
  },
  {
    "id": "1670100823",
    "name": "しらいわ苑　デイサービスセンター",
    "kana": "シライワエン　デイサービスセンター",
    "address": "富山県富山市水橋新堀17-1",
    "lat": 36.7148715,
    "lng": 137.3041768,
    "tel": "076-479-2080",
    "url": "http://www.nijinokai.net/index.html",
    "pref": "富山県",
    "city": "富山市",
    "category": "day_service",
    "serviceType": "通所介護",
    "capacity": 0,
    "openDays": [
      "平日",
      "土曜日",
      "祝日"
    ],
    "openDaysNote": "特になし"
  },
  {
    "id": "1670114972",
    "name": "すずらん",
    "kana": "スズラン",
    "address": "富山市清水中町1番9号",
    "lat": 36.687551,
    "lng": 137.2278382,
    "tel": "076-461-6435",
    "url": "",
    "pref": "富山県",
    "city": "富山市",
    "category": "day_service",
    "serviceType": "通所介護",
    "capacity": null,
    "openDays": [
      "平日",
      "祝日"
    ],
    "openDaysNote": ""
  },
  {
    "id": "1670115375",
    "name": "すずらん",
    "kana": "スズラン",
    "address": "富山市清水中町1番9号",
    "lat": 36.6875248,
    "lng": 137.2278606,
    "tel": "076-461-6435",
    "url": "",
    "pref": "富山県",
    "city": "富山市",
    "category": "day_service",
    "serviceType": "通所介護",
    "capacity": 0,
    "openDays": [
      "平日"
    ],
    "openDaysNote": ""
  },
  {
    "id": "1670100476",
    "name": "すみれ苑デイサービスセンター",
    "kana": "スミレエンデイサービスセンター",
    "address": "富山市横越180番地",
    "lat": 36.7515253,
    "lng": 137.2837831,
    "tel": "076-437-4666",
    "url": "http://www.sumireen.jp",
    "pref": "富山県",
    "city": "富山市",
    "category": "day_service",
    "serviceType": "通所介護",
    "capacity": null,
    "openDays": [
      "平日",
      "土曜日",
      "祝日"
    ],
    "openDaysNote": "延長サービスについては１８時から２１時までとする"
  },
  {
    "id": "1670103553",
    "name": "ソレイユデイサービスセンター",
    "kana": "ソレイユデイサービスセンター",
    "address": "富山県富山市下堀50-6",
    "lat": 36.6625096,
    "lng": 137.2284157,
    "tel": "076-425-6207",
    "url": "http://www.t-soleil.jp/",
    "pref": "富山県",
    "city": "富山市",
    "category": "day_service",
    "serviceType": "通所介護",
    "capacity": 25,
    "openDays": [
      "平日",
      "土曜日",
      "祝日"
    ],
    "openDaysNote": ""
  },
  {
    "id": "1670104403",
    "name": "ちゅらさん婦中デイサービスセンター",
    "kana": "チュラサンフチュウデイサービスセンター",
    "address": "富山市婦中町下轡田90-1",
    "lat": 36.6656356,
    "lng": 137.1730132,
    "tel": "076-466-0851",
    "url": "http://www.churasan.jp/",
    "pref": "富山県",
    "city": "富山市",
    "category": "day_service",
    "serviceType": "通所介護",
    "capacity": 0,
    "openDays": [
      "平日",
      "土曜日"
    ],
    "openDaysNote": "祝日でも営業する場合がある"
  },
  {
    "id": "1670102282",
    "name": "ツクイ富山",
    "kana": "ツクイトヤマ",
    "address": "富山市稲荷元町2丁目8-9アクトピアトヤマ　1階 アクトピアトヤマ　1階",
    "lat": 36.6961577,
    "lng": 137.2284446,
    "tel": "076-431-3133",
    "url": "https://www.tsukui.net/home-care/2046/",
    "pref": "富山県",
    "city": "富山市",
    "category": "day_service",
    "serviceType": "通所介護",
    "capacity": 42,
    "openDays": [
      "平日",
      "土曜日",
      "日曜日",
      "祝日"
    ],
    "openDaysNote": "365日年中無休"
  },
  {
    "id": "1670103199",
    "name": "ツクイ富山上冨居",
    "kana": "ツクイトヤマカミフゴ",
    "address": "富山市上冨居3-1-29",
    "lat": 36.7115144,
    "lng": 137.2404655,
    "tel": "076-452-5455",
    "url": "https://www.tsukui.net",
    "pref": "富山県",
    "city": "富山市",
    "category": "day_service",
    "serviceType": "通所介護",
    "capacity": 35,
    "openDays": [
      "平日",
      "土曜日",
      "日曜日",
      "祝日"
    ],
    "openDaysNote": "365日年中無休"
  },
  {
    "id": "1670113180",
    "name": "ツクイ富山赤田",
    "kana": "ツクイトヤマアカダ",
    "address": "富山県富山市赤田535-1ツクイ富山赤田 ツクイ富山赤田",
    "lat": 36.6544172,
    "lng": 137.2174645,
    "tel": "076-424-6131",
    "url": "http://www.tsukui.net",
    "pref": "富山県",
    "city": "富山市",
    "category": "day_service",
    "serviceType": "通所介護",
    "capacity": 60,
    "openDays": [
      "平日",
      "土曜日",
      "日曜日",
      "祝日"
    ],
    "openDaysNote": "年中無休で運営しております。利用時間帯に関しては、別途ご相談ください。"
  },
  {
    "id": "1670105012",
    "name": "ツクイ富山藤ノ木",
    "kana": "ツクイトヤマフジノキ",
    "address": "富山県富山市藤木1847-2",
    "lat": 36.6841713,
    "lng": 137.2684559,
    "tel": "076-425-1207",
    "url": "http://www.tsukui.net/search/detail.php?officeid=500",
    "pref": "富山県",
    "city": "富山市",
    "category": "day_service",
    "serviceType": "通所介護",
    "capacity": 0,
    "openDays": [
      "平日",
      "土曜日",
      "日曜日",
      "祝日"
    ],
    "openDaysNote": ""
  },
  {
    "id": "1670102449",
    "name": "ツクイ富山萩原",
    "kana": "ツクイトヤマハギハラ",
    "address": "富山市萩原179-1",
    "lat": 36.6640615,
    "lng": 137.1967414,
    "tel": "076-420-2488",
    "url": "https://www.tsukui.net",
    "pref": "富山県",
    "city": "富山市",
    "category": "day_service",
    "serviceType": "通所介護",
    "capacity": 40,
    "openDays": [
      "平日",
      "土曜日",
      "日曜日",
      "祝日"
    ],
    "openDaysNote": "365日運営"
  },
  {
    "id": "1670101870",
    "name": "デイサ－ビスセンタ－ふなん苑",
    "kana": "デイサ－ビスセンタ－フナンエン",
    "address": "富山市石屋237番地",
    "lat": 36.6525803,
    "lng": 137.2576967,
    "tel": "076-422-1200",
    "url": "http://www.funankai.jp/",
    "pref": "富山県",
    "city": "富山市",
    "category": "day_service",
    "serviceType": "通所介護",
    "capacity": 0,
    "openDays": [
      "平日",
      "祝日"
    ],
    "openDaysNote": ""
  },
  {
    "id": "1670103157",
    "name": "デイサービス　このゆびとーまれ向い",
    "kana": "デイサービス　コノユビトーマレムカイ",
    "address": "富山県富山市富岡町３６５番地",
    "lat": 36.6943977,
    "lng": 137.2623256,
    "tel": "076-493-0030",
    "url": "http://www.geocities.jp/kono_yubi/",
    "pref": "富山県",
    "city": "富山市",
    "category": "day_service",
    "serviceType": "通所介護",
    "capacity": 0,
    "openDays": [
      "平日",
      "土曜日",
      "日曜日",
      "祝日"
    ],
    "openDaysNote": ""
  },
  {
    "id": "1670105137",
    "name": "デイサービス　すまいる",
    "kana": "デイサービス　スマイル",
    "address": "富山市上大久保８９３－１",
    "lat": 36.5976692,
    "lng": 137.2066391,
    "tel": "076-467-5220",
    "url": "",
    "pref": "富山県",
    "city": "富山市",
    "category": "day_service",
    "serviceType": "通所介護",
    "capacity": 0,
    "openDays": [
      "平日",
      "土曜日",
      "祝日"
    ],
    "openDaysNote": "祝日営業"
  },
  {
    "id": "1670114121",
    "name": "デイサービス　ふぁみりー　南町",
    "kana": "デイサービス　ファミリーミナミチョウ",
    "address": "富山県富山市四方212-3",
    "lat": 36.7564166,
    "lng": 137.1960776,
    "tel": "076-435-5325",
    "url": "http://www.siawase-team.com/",
    "pref": "富山県",
    "city": "富山市",
    "category": "day_service",
    "serviceType": "通所介護",
    "capacity": 0,
    "openDays": [
      "平日",
      "土曜日"
    ],
    "openDaysNote": ""
  },
  {
    "id": "1670113396",
    "name": "デイサービス　まちなか",
    "kana": "デイサービス　マチナカ",
    "address": "千石町四丁目５番１号",
    "lat": 36.5476537,
    "lng": 140.6240269,
    "tel": "076-461-3911",
    "url": "http://www.auone-net.jp/^funankai",
    "pref": "富山県",
    "city": "富山市",
    "category": "day_service",
    "serviceType": "通所介護",
    "capacity": null,
    "openDays": [
      "平日",
      "祝日"
    ],
    "openDaysNote": ""
  },
  {
    "id": "1670103504",
    "name": "デイサービス　萩の里　ぬくもり",
    "kana": "デイサービス　ハギノサト　ヌクモリ",
    "address": "富山市蓮町２－３－２３",
    "lat": 36.7436911,
    "lng": 137.2319597,
    "tel": "076-438-6787",
    "url": "",
    "pref": "富山県",
    "city": "富山市",
    "category": "day_service",
    "serviceType": "通所介護",
    "capacity": 0,
    "openDays": [
      "平日",
      "土曜日"
    ],
    "openDaysNote": "国民の祝日、８月１４・１５、１２月３１日、１月１・２・３日は休業させていただきます。（改行）その年のカレンダーにより、休みが変更になる場合もございます。"
  },
  {
    "id": "1670113719",
    "name": "デイサービスあおば",
    "kana": "デイサービスアオバ",
    "address": "富山県富山市八尾町黒田2702-1",
    "lat": 36.6010836583012,
    "lng": 137.163672655163,
    "tel": "076-454-3106",
    "url": "https://ja-aoba.jp/",
    "pref": "富山県",
    "city": "富山市",
    "category": "day_service",
    "serviceType": "通所介護",
    "capacity": 30,
    "openDays": [
      "平日",
      "土曜日",
      "祝日"
    ],
    "openDaysNote": ""
  },
  {
    "id": "1670113735",
    "name": "デイサービスあんじゅ",
    "kana": "デイサービスアンジュ",
    "address": "富山県富山市大島2丁目596-19",
    "lat": 36.6769444,
    "lng": 137.2683867,
    "tel": "076-461-4568",
    "url": "",
    "pref": "富山県",
    "city": "富山市",
    "category": "day_service",
    "serviceType": "通所介護",
    "capacity": 19,
    "openDays": [
      "平日",
      "土曜日",
      "祝日"
    ],
    "openDaysNote": "職員の学校行事などで休業する場合がある。その際は、振替利用などで対応する。"
  },
  {
    "id": "1670112091",
    "name": "デイサービスおあしす中島",
    "kana": "デイサービスオアシスナカジマ",
    "address": "富山市中島3-8-33",
    "lat": 36.7198517,
    "lng": 137.2206749,
    "tel": "076-431-4976",
    "url": "",
    "pref": "富山県",
    "city": "富山市",
    "category": "day_service",
    "serviceType": "通所介護",
    "capacity": 30,
    "openDays": [
      "平日",
      "土曜日",
      "祝日"
    ],
    "openDaysNote": ""
  },
  {
    "id": "1670113909",
    "name": "デイサービスおきな",
    "kana": "デイサービスオキナ",
    "address": "富山県富山市石金一丁目２番３０号",
    "lat": 36.6910447,
    "lng": 137.2342695,
    "tel": "076-461-4403",
    "url": "www.okina.salon/",
    "pref": "富山県",
    "city": "富山市",
    "category": "day_service",
    "serviceType": "通所介護",
    "capacity": 0,
    "openDays": [
      "平日",
      "土曜日",
      "日曜日",
      "祝日"
    ],
    "openDaysNote": "お盆、年末年始に法人が定める休みあり"
  },
  {
    "id": "1670115292",
    "name": "デイサービスきたえるーむ富山奥田",
    "kana": "デイサービスキタエルームトヤマオクダ",
    "address": "富山県富山市下新本町3番17号",
    "lat": 36.7156969,
    "lng": 137.2196777,
    "tel": "076-439-3002",
    "url": "http://www.shoei-welfare.net/",
    "pref": "富山県",
    "city": "富山市",
    "category": "day_service",
    "serviceType": "通所介護",
    "capacity": 0,
    "openDays": [
      "平日",
      "土曜日"
    ],
    "openDaysNote": ""
  },
  {
    "id": "1670112158",
    "name": "デイサービスきたえるーむ富山長江",
    "kana": "デイサービスキタエルームトヤマナガエ",
    "address": "富山市長江1丁目5番20号",
    "lat": 36.6897647092165,
    "lng": 137.245371437356,
    "tel": "076-423-7558",
    "url": "http://kitaeroom.com/",
    "pref": "富山県",
    "city": "富山市",
    "category": "day_service",
    "serviceType": "通所介護",
    "capacity": 40,
    "openDays": [
      "平日",
      "土曜日"
    ],
    "openDaysNote": ""
  },
  {
    "id": "1670104080",
    "name": "デイサービスくつろぎ日和",
    "kana": "デイサービスクツロギビヨリ",
    "address": "富山市飯野1-2",
    "lat": 36.7399284,
    "lng": 137.2579109,
    "tel": "076-451-4123",
    "url": "https://www.aikou-g.jp/",
    "pref": "富山県",
    "city": "富山市",
    "category": "day_service",
    "serviceType": "通所介護",
    "capacity": 0,
    "openDays": [
      "平日",
      "祝日"
    ],
    "openDaysNote": ""
  },
  {
    "id": "1670111978",
    "name": "デイサービスセンター　おおくぼ",
    "kana": "デイサービスセンター　オオクボ",
    "address": "富山県富山市下大久保1530－1ケアパークおおくぼ ケアパークおおくぼ",
    "lat": 36.6099095,
    "lng": 137.2077081,
    "tel": "０７６－４６８－２００１",
    "url": "",
    "pref": "富山県",
    "city": "富山市",
    "category": "day_service",
    "serviceType": "通所介護",
    "capacity": 30,
    "openDays": [
      "平日",
      "土曜日",
      "祝日"
    ],
    "openDaysNote": "ご利用につきましては居宅ケアマネ及び当施設相談員にご相談してください"
  },
  {
    "id": "1670102977",
    "name": "デイサービスセンター「夢・元気」",
    "kana": "デイサービスセンター「ユメ・ゲンキ」",
    "address": "富山市下赤江町2丁目３－１４",
    "lat": 36.7161967694862,
    "lng": 137.232833927298,
    "tel": "076-443-9255",
    "url": "http://miraiclub-toyama.jp/publics/index/23/",
    "pref": "富山県",
    "city": "富山市",
    "category": "day_service",
    "serviceType": "通所介護",
    "capacity": 0,
    "openDays": [
      "平日",
      "祝日"
    ],
    "openDaysNote": ""
  },
  {
    "id": "1670102662",
    "name": "デイサービスセンター1・2の3",
    "kana": "デイサービスセンターイチニノサン",
    "address": "富山市中川原399-1",
    "lat": 36.6752073364708,
    "lng": 137.246665354631,
    "tel": "076-420-1203",
    "url": "info@corridor.site",
    "pref": "富山県",
    "city": "富山市",
    "category": "day_service",
    "serviceType": "通所介護",
    "capacity": 35,
    "openDays": [
      "平日",
      "土曜日"
    ],
    "openDaysNote": "夏季・冬季休暇有り"
  },
  {
    "id": "1670104312",
    "name": "デイサービスセンターあざみ",
    "kana": "デイサービスセンターアザミ",
    "address": "富山市辰巳町2丁目4-12",
    "lat": 36.6838011,
    "lng": 137.2219319,
    "tel": "076-493-3811",
    "url": "http://sanjyukai.jp/",
    "pref": "富山県",
    "city": "富山市",
    "category": "day_service",
    "serviceType": "通所介護",
    "capacity": 0,
    "openDays": [
      "平日",
      "祝日"
    ],
    "openDaysNote": ""
  },
  {
    "id": "1670115482",
    "name": "デイサービスセンターおおくぼ",
    "kana": "デイサービスセンター　オオクボ",
    "address": "下大久保1530-1ケアパーク「おおくぼ」 ケアパーク「おおくぼ」",
    "lat": 36.609727,
    "lng": 137.2078789,
    "tel": "076-468-2001",
    "url": "https://osawano.com",
    "pref": "富山県",
    "city": "富山市",
    "category": "day_service",
    "serviceType": "通所介護",
    "capacity": 0,
    "openDays": [
      "平日",
      "土曜日",
      "祝日"
    ],
    "openDaysNote": ""
  },
  {
    "id": "1670103223",
    "name": "デイサービスセンターふる里の風",
    "kana": "デイサービスセンターフルサトノカゼ",
    "address": "富山県富山市住吉町2-6-19",
    "lat": 36.6909286921668,
    "lng": 137.230275906746,
    "tel": "076-407-0078",
    "url": "https://furusatonokaze.com/",
    "pref": "富山県",
    "city": "富山市",
    "category": "day_service",
    "serviceType": "通所介護",
    "capacity": 34,
    "openDays": [
      "平日",
      "土曜日",
      "祝日"
    ],
    "openDaysNote": "祝日休業の場合は事前に連絡します。"
  },
  {
    "id": "1670104320",
    "name": "デイサービスセンターふる里の風　中田",
    "kana": "デイサービスセンターフルサトノカゼ　ナカダ",
    "address": "富山市中田１丁目１１－１６",
    "lat": 36.7452387,
    "lng": 137.2447562,
    "tel": "076-481-7738",
    "url": "https://furusatonokaze.com/",
    "pref": "富山県",
    "city": "富山市",
    "category": "day_service",
    "serviceType": "通所介護",
    "capacity": 60,
    "openDays": [
      "平日",
      "土曜日",
      "祝日"
    ],
    "openDaysNote": "祝日営業"
  },
  {
    "id": "1670111481",
    "name": "デイサービスセンターふる里の風　堀川",
    "kana": "デイサービスセンターフルサトノカゼ　ホリカワ",
    "address": "富山市堀川町475",
    "lat": 36.6601071,
    "lng": 137.2189945,
    "tel": "076-491-6228",
    "url": "https://furusatonokaze.com/",
    "pref": "富山県",
    "city": "富山市",
    "category": "day_service",
    "serviceType": "通所介護",
    "capacity": 60,
    "openDays": [
      "平日",
      "土曜日",
      "祝日"
    ],
    "openDaysNote": "祝日営業"
  },
  {
    "id": "1670103454",
    "name": "デイサービスセンターほほえみ",
    "kana": "デイサービスセンターホホエミ",
    "address": "富山市古鍛冶町2番27号",
    "lat": 36.6876976,
    "lng": 137.2175073,
    "tel": "076-422-2517",
    "url": "",
    "pref": "富山県",
    "city": "富山市",
    "category": "day_service",
    "serviceType": "通所介護",
    "capacity": 40,
    "openDays": [
      "平日",
      "祝日"
    ],
    "openDaysNote": ""
  },
  {
    "id": "1670113891",
    "name": "デイサービスセンター呉羽あいの風",
    "kana": "デイサービスセンタークレハアイノカゼ",
    "address": "富山県富山市野々上340",
    "lat": 36.720761,
    "lng": 137.1428654,
    "tel": "076-436-1213",
    "url": "www.ainokaze.ne.jp",
    "pref": "富山県",
    "city": "富山市",
    "category": "day_service",
    "serviceType": "通所介護",
    "capacity": null,
    "openDays": [
      "平日",
      "土曜日",
      "祝日"
    ],
    "openDaysNote": ""
  },
  {
    "id": "1670105061",
    "name": "デイサービスにながわ",
    "kana": "デイサービスニナガワ",
    "address": "富山県富山市二俣319-1",
    "lat": 36.6447227,
    "lng": 137.217334,
    "tel": "076-428-3000",
    "url": "http://www.toyamajonankai.jp/",
    "pref": "富山県",
    "city": "富山市",
    "category": "day_service",
    "serviceType": "通所介護",
    "capacity": 0,
    "openDays": [
      "平日",
      "土曜日",
      "祝日"
    ],
    "openDaysNote": "年末年始（12月31日～1月3日）はお休みを頂いております"
  },
  {
    "id": "1670104742",
    "name": "デイサービスぽんぽこ",
    "kana": "デイサービスポンポコ",
    "address": "富山県富山市上二杉407-1",
    "lat": 36.5891176419602,
    "lng": 137.202792958861,
    "tel": "076-461-4545",
    "url": "",
    "pref": "富山県",
    "city": "富山市",
    "category": "day_service",
    "serviceType": "通所介護",
    "capacity": 30,
    "openDays": [
      "平日",
      "土曜日"
    ],
    "openDaysNote": ""
  },
  {
    "id": "1670112364",
    "name": "ディサービスマーガレット",
    "kana": "ディサービスマーガレット",
    "address": "富山県富山市小泉町11番地",
    "lat": 36.6766531456527,
    "lng": 137.21917820367,
    "tel": "076-493-1165",
    "url": "http://margaret.toyama.jp",
    "pref": "富山県",
    "city": "富山市",
    "category": "day_service",
    "serviceType": "通所介護",
    "capacity": 25,
    "openDays": [
      "平日",
      "土曜日",
      "祝日"
    ],
    "openDaysNote": ""
  },
  {
    "id": "1670115342",
    "name": "デイサービスまみ～ずが～でん黒瀬",
    "kana": "デイサービスマミ～ズガ～デンクロセ",
    "address": "富山市黒瀬４３５－１",
    "lat": 36.6612844395575,
    "lng": 137.201762571328,
    "tel": "076-461-4885",
    "url": "https://feel-kaigo.jp/",
    "pref": "富山県",
    "city": "富山市",
    "category": "day_service",
    "serviceType": "通所介護",
    "capacity": null,
    "openDays": [
      "平日"
    ],
    "openDaysNote": ""
  },
  {
    "id": "1670111853",
    "name": "デイサービスまみーずがーでん",
    "kana": "デイサービスマミーズガーデン",
    "address": "富山市婦中町速星204番",
    "lat": 36.6631471483221,
    "lng": 137.16779036723,
    "tel": "076-461-6122",
    "url": "http://feel-kaigo.jp/",
    "pref": "富山県",
    "city": "富山市",
    "category": "day_service",
    "serviceType": "通所介護",
    "capacity": 30,
    "openDays": [
      "平日",
      "土曜日",
      "祝日"
    ],
    "openDaysNote": ""
  },
  {
    "id": "1670112380",
    "name": "デイサービスみんなの輪　おおさわの",
    "kana": "デイサービスミンナノ輪　オオサワノ",
    "address": "富山県富山市南野田70番地",
    "lat": 36.5892493774384,
    "lng": 137.223234167737,
    "tel": "076-467-1622",
    "url": "http://www.minnanowa.co.jp",
    "pref": "富山県",
    "city": "富山市",
    "category": "day_service",
    "serviceType": "通所介護",
    "capacity": null,
    "openDays": [
      "平日",
      "土曜日",
      "日曜日",
      "祝日"
    ],
    "openDaysNote": "12月30日から1月3日までは休業いたします。"
  },
  {
    "id": "1670114188",
    "name": "デイサービスももの花",
    "kana": "デイサービスモモノハナ",
    "address": "藤木422番地１",
    "lat": 36.6893431,
    "lng": 137.2738247,
    "tel": "076-424-3561",
    "url": "",
    "pref": "富山県",
    "city": "富山市",
    "category": "day_service",
    "serviceType": "通所介護",
    "capacity": 0,
    "openDays": [
      "平日",
      "祝日"
    ],
    "openDaysNote": ""
  },
  {
    "id": "1670102902",
    "name": "デイサービス花みずき",
    "kana": "デイサービスハナミズキ",
    "address": "富山市稲荷町4丁目3－16",
    "lat": 36.696355,
    "lng": 137.233586,
    "tel": "076-444-5353",
    "url": "https://www.kaiboufukushi.com/",
    "pref": "富山県",
    "city": "富山市",
    "category": "day_service",
    "serviceType": "通所介護",
    "capacity": 0,
    "openDays": [
      "平日",
      "祝日"
    ],
    "openDaysNote": ""
  },
  {
    "id": "1670112141",
    "name": "デイサービス金泉寺",
    "kana": "デイサービスキンセンジ",
    "address": "富山市手屋三丁目8‐39",
    "lat": 36.7184369003829,
    "lng": 137.265988264418,
    "tel": "076－452－3880",
    "url": "http://selfcaresupport.racms.jp/",
    "pref": "富山県",
    "city": "富山市",
    "category": "day_service",
    "serviceType": "通所介護",
    "capacity": 30,
    "openDays": [
      "平日",
      "土曜日",
      "祝日"
    ],
    "openDaysNote": "台風接近時、災害時または感染予防対策強化が必要な場合、利用者の安全を優先し、休む場合もあります。"
  },
  {
    "id": "1670104254",
    "name": "デイサービス笑美寿",
    "kana": "デイサービスエビス",
    "address": "富山市中島2丁目1－43",
    "lat": 36.7253177,
    "lng": 137.2203637,
    "tel": "076-431-7741",
    "url": "http://care-net.biz/16/cc-ebisu/",
    "pref": "富山県",
    "city": "富山市",
    "category": "day_service",
    "serviceType": "通所介護",
    "capacity": 0,
    "openDays": [
      "平日",
      "土曜日",
      "祝日"
    ],
    "openDaysNote": "12月30日～1月3日まで休み"
  },
  {
    "id": "1670111960",
    "name": "デイサービス笑美寿東",
    "kana": "デイサービスエビスヒガシ",
    "address": "田畑852-3",
    "lat": 36.7450308,
    "lng": 137.2546084,
    "tel": "076-471-7841",
    "url": "http://care-net.biz/16/cc-ebisu",
    "pref": "富山県",
    "city": "富山市",
    "category": "day_service",
    "serviceType": "通所介護",
    "capacity": 30,
    "openDays": [
      "平日",
      "土曜日",
      "祝日"
    ],
    "openDaysNote": "12月30日～1月3日まで休み"
  },
  {
    "id": "1670101979",
    "name": "デイサービス虹の丘三郷",
    "kana": "デイサービスニジノオカサンゴウ",
    "address": "富山市水橋小路287-1",
    "lat": 36.7208898,
    "lng": 137.2914333,
    "tel": "076-478-5681",
    "url": "http;//www.jecs.jp/",
    "pref": "富山県",
    "city": "富山市",
    "category": "day_service",
    "serviceType": "通所介護",
    "capacity": 35,
    "openDays": [
      "平日",
      "土曜日",
      "祝日"
    ],
    "openDaysNote": "年末年始の１２月３１日～１月３日は休み"
  },
  {
    "id": "1670114873",
    "name": "デイサービス百たろう",
    "kana": "デイサービスモモタロウ",
    "address": "富山県富山市北新町二丁目1番14号",
    "lat": 36.6928051,
    "lng": 137.2202468,
    "tel": "076-482-4403",
    "url": "",
    "pref": "富山県",
    "city": "富山市",
    "category": "day_service",
    "serviceType": "通所介護",
    "capacity": 0,
    "openDays": [
      "平日",
      "土曜日",
      "日曜日",
      "祝日"
    ],
    "openDaysNote": ""
  },
  {
    "id": "1670102142",
    "name": "デイホーム福祉の里",
    "kana": "デイホームフクシノサト",
    "address": "富山市下新町16-11",
    "lat": 36.7132634,
    "lng": 137.2144594,
    "tel": "076-439-1551",
    "url": "",
    "pref": "富山県",
    "city": "富山市",
    "category": "day_service",
    "serviceType": "通所介護",
    "capacity": 20,
    "openDays": [
      "平日",
      "土曜日",
      "祝日"
    ],
    "openDaysNote": "※お盆休業8/13～15　（改行）※年末年始休業12/31～1/3"
  },
  {
    "id": "1670102225",
    "name": "とやまケアセンターそよ風",
    "kana": "トヤマケアセンターソヨカゼ",
    "address": "富山市上袋518-1",
    "lat": 36.6598903,
    "lng": 137.2167447,
    "tel": "076-407-1380",
    "url": "http://www.unimat-rc.co.jp",
    "pref": "富山県",
    "city": "富山市",
    "category": "day_service",
    "serviceType": "通所介護",
    "capacity": 40,
    "openDays": [
      "平日",
      "土曜日",
      "日曜日",
      "祝日"
    ],
    "openDaysNote": "特になし"
  },
  {
    "id": "1670114642",
    "name": "とやま金泉寺ケアセンターそよ風",
    "kana": "トヤマキンセンジケアセンターソヨカゼ",
    "address": "富山市中野新29番1",
    "lat": 36.720408,
    "lng": 137.2731656,
    "tel": "076-451-1016",
    "url": "https://www.unimat-rc.co.jp/",
    "pref": "富山県",
    "city": "富山市",
    "category": "day_service",
    "serviceType": "通所介護",
    "capacity": null,
    "openDays": [
      "平日",
      "土曜日",
      "祝日"
    ],
    "openDaysNote": ""
  },
  {
    "id": "1670111846",
    "name": "ニチイケアセンター安養坊",
    "kana": "ニチイケアセンターアンヨウボウ",
    "address": "富山県富山市安養坊256-1",
    "lat": 36.7103159,
    "lng": 137.1931293,
    "tel": "076-439-6566",
    "url": "http://www.nichiigakkan.co.jp",
    "pref": "富山県",
    "city": "富山市",
    "category": "day_service",
    "serviceType": "通所介護",
    "capacity": 0,
    "openDays": [
      "平日",
      "土曜日",
      "祝日"
    ],
    "openDaysNote": ""
  },
  {
    "id": "1671800223",
    "name": "ニチイケアセンター婦中",
    "kana": "ニチイケアセンターフチュウ",
    "address": "富山県富山市婦中町上田島32-2",
    "lat": 36.6689491,
    "lng": 137.1739103,
    "tel": "076-466-0701",
    "url": "http://www.nichiigakkan.co.jp",
    "pref": "富山県",
    "city": "富山市",
    "category": "day_service",
    "serviceType": "通所介護",
    "capacity": 7,
    "openDays": [
      "平日",
      "土曜日",
      "祝日"
    ],
    "openDaysNote": ""
  },
  {
    "id": "1670111747",
    "name": "ニチイケアセンター富山",
    "kana": "ニチイケアセンタートヤマ",
    "address": "富山県富山市下奥井1-19-16",
    "lat": 36.7126499,
    "lng": 137.2232165,
    "tel": "076-431-1622",
    "url": "http://www.nichiigakkan.co.jp",
    "pref": "富山県",
    "city": "富山市",
    "category": "day_service",
    "serviceType": "通所介護",
    "capacity": 10,
    "openDays": [
      "平日",
      "土曜日",
      "祝日"
    ],
    "openDaysNote": ""
  },
  {
    "id": "1670100450",
    "name": "ニチイケアセンター堀川",
    "kana": "ニチイケアセンターホリカワ",
    "address": "富山県富山市本郷新３６",
    "lat": 36.6698671,
    "lng": 137.2293682,
    "tel": "076-420-3440",
    "url": "http://www.nichiigakkan.co,jp",
    "pref": "富山県",
    "city": "富山市",
    "category": "day_service",
    "serviceType": "通所介護",
    "capacity": 24,
    "openDays": [
      "平日",
      "土曜日",
      "祝日"
    ],
    "openDaysNote": ""
  },
  {
    "id": "1670100633",
    "name": "にながわ光風苑",
    "kana": "ニナガワコウフウエン",
    "address": "富山市蜷川89番地",
    "lat": 36.6442948,
    "lng": 137.2104041,
    "tel": "076-461-7484",
    "url": "https://www.koufuukai.jp/",
    "pref": "富山県",
    "city": "富山市",
    "category": "day_service",
    "serviceType": "通所介護",
    "capacity": 30,
    "openDays": [
      "平日",
      "土曜日",
      "祝日"
    ],
    "openDaysNote": "8月14日が日曜のときには翌日に振り替える。"
  },
  {
    "id": "1671800108",
    "name": "のりみねデイサービスセンター",
    "kana": "ノリミネデイサービスセンター",
    "address": "富山県富山市八尾町福島７－４２",
    "lat": 36.5962413245155,
    "lng": 137.138215567829,
    "tel": "076-454-5505",
    "url": "http://www.keiju-kai.jp/",
    "pref": "富山県",
    "city": "富山市",
    "category": "day_service",
    "serviceType": "通所介護",
    "capacity": 30,
    "openDays": [
      "平日",
      "土曜日"
    ],
    "openDaysNote": ""
  },
  {
    "id": "1671500070",
    "name": "はなさき苑デイサービスセンター",
    "kana": "ハナサキエンデイサービスセンター",
    "address": "富山県富山市花崎80番地",
    "lat": 36.6100076,
    "lng": 137.2798627,
    "tel": "076-483-3111",
    "url": "http://www.hanasakien.or.jp",
    "pref": "富山県",
    "city": "富山市",
    "category": "day_service",
    "serviceType": "通所介護",
    "capacity": 0,
    "openDays": [
      "平日",
      "祝日"
    ],
    "openDaysNote": ""
  },
  {
    "id": "1670104619",
    "name": "ひなたぼっことやまデイサービスセンター",
    "kana": "ヒナタボッコトヤマデイサービスセンター",
    "address": "富山県富山市高畠町一丁目10番17号",
    "lat": 36.7499489,
    "lng": 137.2303015,
    "tel": "076-438-8455",
    "url": "www.kaigosoudan.co.jp",
    "pref": "富山県",
    "city": "富山市",
    "category": "day_service",
    "serviceType": "通所介護",
    "capacity": 0,
    "openDays": [
      "平日",
      "土曜日",
      "祝日"
    ],
    "openDaysNote": ""
  },
  {
    "id": "1670112026",
    "name": "ふくし百選　デイサービスあずみ",
    "kana": "フクシヒャクセン　デイサービスアズミ",
    "address": "富山市舟橋南町７－４",
    "lat": 36.6950863720258,
    "lng": 137.207551589024,
    "tel": "076-405-0880",
    "url": "http://www.hs-k.co.jp",
    "pref": "富山県",
    "city": "富山市",
    "category": "day_service",
    "serviceType": "通所介護",
    "capacity": 0,
    "openDays": [
      "平日"
    ],
    "openDaysNote": "祝日に関しては営業日も設定"
  },
  {
    "id": "1670102068",
    "name": "ふるさとのあかり",
    "kana": "フルサトノアカリ",
    "address": "富山県富山市四方荒屋３２２３番地",
    "lat": 36.7505337,
    "lng": 137.193317,
    "tel": "076-435-6511",
    "url": "http://www.toyamagata.com/furusatono_akari",
    "pref": "富山県",
    "city": "富山市",
    "category": "day_service",
    "serviceType": "通所介護",
    "capacity": null,
    "openDays": [
      "平日",
      "土曜日",
      "祝日"
    ],
    "openDaysNote": "但し、利用者及び家族の事情により、営業日以外の利用を希望された場合は管理者を通じ対応するものとする。"
  },
  {
    "id": "1671800322",
    "name": "ふるさと敬寿苑デイサービスセンター",
    "kana": "フルサトケイジュエンデイサービスセンター",
    "address": "富山県富山市婦中町羽根1092番２",
    "lat": 36.6600741,
    "lng": 137.1404733,
    "tel": "076-469-1002",
    "url": "http://www.toyamajonankai-mutsumi.gr.jp/",
    "pref": "富山県",
    "city": "富山市",
    "category": "day_service",
    "serviceType": "通所介護",
    "capacity": 0,
    "openDays": [
      "平日",
      "祝日"
    ],
    "openDaysNote": "特になし"
  },
  {
    "id": "1670104387",
    "name": "ふれあい工房",
    "kana": "フレアイコウボウ",
    "address": "富山市上野799-2",
    "lat": 36.6389105374934,
    "lng": 137.21857204785,
    "tel": "076-429-6769",
    "url": "https://fureai-kobo.net",
    "pref": "富山県",
    "city": "富山市",
    "category": "day_service",
    "serviceType": "通所介護",
    "capacity": 34,
    "openDays": [
      "平日",
      "土曜日",
      "祝日"
    ],
    "openDaysNote": ""
  },
  {
    "id": "1670115284",
    "name": "リハビリ特化型デイサービスRe-TAC",
    "kana": "リハビリトッカガタデイサービスリタック",
    "address": "富山県富山市日俣157-1",
    "lat": 36.6967726186316,
    "lng": 137.2713546,
    "tel": "076-460-3034",
    "url": "https://re-tac.net/",
    "pref": "富山県",
    "city": "富山市",
    "category": "day_service",
    "serviceType": "通所介護",
    "capacity": 0,
    "openDays": [
      "平日"
    ],
    "openDaysNote": "お盆休日、年末年始の休日があります。"
  },
  {
    "id": "1670113487",
    "name": "ロコモ予防貯筋デイかがやき",
    "kana": "ロコモヨボウチョキンデイカガヤキ",
    "address": "富山県富山市つばめ野1-53",
    "lat": 36.7516196,
    "lng": 137.1892675,
    "tel": "076-435-5755",
    "url": "http://kohakuday.web.fc2.com/",
    "pref": "富山県",
    "city": "富山市",
    "category": "day_service",
    "serviceType": "通所介護",
    "capacity": 0,
    "openDays": [
      "平日"
    ],
    "openDaysNote": ""
  },
  {
    "id": "1670102696",
    "name": "医療法人社団城南会　　もなみデイサービス",
    "kana": "イリョウホウジンシャダンジョウナンカイ　モナミデイサービス",
    "address": "富山県富山市太郎丸本町1丁目7-10住宅型有料老人ホーム　シニアライフもなみ内 住宅型有料老人ホーム　シニアライフもなみ内",
    "lat": 36.6774784918236,
    "lng": 137.21222541377,
    "tel": "076-491-6333",
    "url": "http://jonankai.mutsumi-gr.jp/",
    "pref": "富山県",
    "city": "富山市",
    "category": "day_service",
    "serviceType": "通所介護",
    "capacity": 0,
    "openDays": [
      "平日",
      "土曜日",
      "祝日"
    ],
    "openDaysNote": "12月31日～1月3日"
  },
  {
    "id": "1670104296",
    "name": "一休庵デイサービスセンター",
    "kana": "イッキュウアンデイサービスセンター",
    "address": "富山市四方1133－1",
    "lat": 36.7525974,
    "lng": 137.1932198,
    "tel": "076-435-6888",
    "url": "https://ikkyuan.net.",
    "pref": "富山県",
    "city": "富山市",
    "category": "day_service",
    "serviceType": "通所介護",
    "capacity": 5,
    "openDays": [
      "平日",
      "土曜日",
      "祝日"
    ],
    "openDaysNote": ""
  },
  {
    "id": "1670103421",
    "name": "花いちご　デイサービス",
    "kana": "ハナイチゴ　デイサービス",
    "address": "富山市上冨居二丁目９番３８号",
    "lat": 36.7084232,
    "lng": 137.2435043,
    "tel": "076-452-2155",
    "url": "https://www.hokusei-hospi.jp",
    "pref": "富山県",
    "city": "富山市",
    "category": "day_service",
    "serviceType": "通所介護",
    "capacity": 20,
    "openDays": [
      "平日",
      "土曜日",
      "祝日"
    ],
    "openDaysNote": "特になし"
  },
  {
    "id": "1671800132",
    "name": "喜寿苑デイサービスセンター",
    "kana": "キジュエンデイサービスセンター",
    "address": "富山市婦中町塚原122",
    "lat": 36.6596672,
    "lng": 137.1844566,
    "tel": "076-466-3265",
    "url": "http://kijuen.or.jp",
    "pref": "富山県",
    "city": "富山市",
    "category": "day_service",
    "serviceType": "通所介護",
    "capacity": 30,
    "openDays": [
      "平日",
      "土曜日",
      "祝日"
    ],
    "openDaysNote": ""
  },
  {
    "id": "1670101946",
    "name": "吉田内科クリニックデイサービスセンター　「あゆみ」",
    "kana": "ヨシダナイカクリニックデイサービスセンター　「アユミ」",
    "address": "富山県富山市吉作364番地2",
    "lat": 36.7107017,
    "lng": 137.1639663,
    "tel": "076-436-1338",
    "url": "https://yoshidanaika-clinic.com",
    "pref": "富山県",
    "city": "富山市",
    "category": "day_service",
    "serviceType": "通所介護",
    "capacity": 0,
    "openDays": [
      "平日",
      "土曜日"
    ],
    "openDaysNote": "なし"
  },
  {
    "id": "1670100492",
    "name": "敬寿苑デイサービスセンター",
    "kana": "ケイジュエンデイサービスセンター",
    "address": "富山県富山市今泉西部町1番地3",
    "lat": 36.673905,
    "lng": 137.2091452,
    "tel": "076-491-0333",
    "url": "https://toyamajonankai.mutsumi-gr.jp/keijuen/",
    "pref": "富山県",
    "city": "富山市",
    "category": "day_service",
    "serviceType": "通所介護",
    "capacity": 0,
    "openDays": [
      "平日",
      "土曜日",
      "祝日"
    ],
    "openDaysNote": "特になし"
  },
  {
    "id": "1670112463",
    "name": "桜谷の里デイサービスセンター",
    "kana": "サクラダニノサトデイサービスセンター",
    "address": "富山市石坂新８３０番地1",
    "lat": 36.7153905,
    "lng": 137.1990116,
    "tel": "076－444－8830",
    "url": "http://www.byakkouen.jp",
    "pref": "富山県",
    "city": "富山市",
    "category": "day_service",
    "serviceType": "通所介護",
    "capacity": 13,
    "openDays": [
      "平日",
      "土曜日",
      "祝日"
    ],
    "openDaysNote": ""
  },
  {
    "id": "1670100401",
    "name": "三寿苑デイサービスセンター",
    "kana": "サンジュエンデイサービスセンター",
    "address": "富山市大島３丁目１４７番地",
    "lat": 36.6740811,
    "lng": 137.2780304,
    "tel": "076-493-3096",
    "url": "http://www.sanjukai.jp/",
    "pref": "富山県",
    "city": "富山市",
    "category": "day_service",
    "serviceType": "通所介護",
    "capacity": 0,
    "openDays": [
      "平日",
      "土曜日",
      "祝日"
    ],
    "openDaysNote": "年末年始の休業日は12月30日～1月3日（改行）※必要に応じて臨時営業日の設定あり"
  },
  {
    "id": "1670104270",
    "name": "笑ひ　デイサービス",
    "kana": "ワライ　デイサービス",
    "address": "富山市五福4区116",
    "lat": 36.7037788,
    "lng": 137.1860629,
    "tel": "076-433-0128",
    "url": "",
    "pref": "富山県",
    "city": "富山市",
    "category": "day_service",
    "serviceType": "通所介護",
    "capacity": 0,
    "openDays": [
      "平日",
      "祝日"
    ],
    "openDaysNote": "特に無し"
  },
  {
    "id": "1670104809",
    "name": "新庄ヒルズデイサービスセンター",
    "kana": "シンジョウヒルズデイサービスセンター",
    "address": "富山県富山市新庄町四丁目１４番４８",
    "lat": 36.7036775,
    "lng": 137.2670989,
    "tel": "076-451-8016",
    "url": "http://www.shinjyou-hills.jp/",
    "pref": "富山県",
    "city": "富山市",
    "category": "day_service",
    "serviceType": "通所介護",
    "capacity": 0,
    "openDays": [
      "平日",
      "土曜日",
      "祝日"
    ],
    "openDaysNote": "災害時等は利用者の安全を優先して休む場合あり"
  },
  {
    "id": "1670103538",
    "name": "水橋生活サポートセンターかけはし　デイサービスかけはし",
    "kana": "ミズハシセイカツサポートセンターカケハシ　デイサービスカケハシ",
    "address": "富山市水橋中村町２－２",
    "lat": 36.7545727,
    "lng": 137.3123161,
    "tel": "076-478-4003",
    "url": "kakehasi@nijinokai.net",
    "pref": "富山県",
    "city": "富山市",
    "category": "day_service",
    "serviceType": "通所介護",
    "capacity": 0,
    "openDays": [
      "平日",
      "土曜日",
      "祝日"
    ],
    "openDaysNote": "サテライト虹の橋の営業時間に関しては、営業日：月曜日～金曜日、営業時間：9時30分～12時30分、13時～16時となっている。（改行）休みに関しては、本体休日に加え、ショッピングセンターの専門店休日も含める。（ショッピングセンターの専門店休日はおおよそ第3火曜日となっている）"
  },
  {
    "id": "1670104353",
    "name": "晴風荘デイサービスセンターうみかぜ",
    "kana": "セイフウソウデイサービスセンターウミカゼ",
    "address": "富山県富山市水橋辻",
    "lat": 36.7459844,
    "lng": 137.2978486,
    "tel": "076-478-5999",
    "url": "http://seifusou.e-294.net/",
    "pref": "富山県",
    "city": "富山市",
    "category": "day_service",
    "serviceType": "通所介護",
    "capacity": 0,
    "openDays": [
      "平日",
      "祝日"
    ],
    "openDaysNote": "平日、祝日の営業日は8：00から16：45まで、受付いたします。（改行）営業時間外の電話連絡については、特養の日直者、管理宿直者（8：00から20：00）が連絡を受付できます。"
  },
  {
    "id": "1670114543",
    "name": "青い鳥デイサービス",
    "kana": "アオイトリデイサービス",
    "address": "富山県富山市根塚町3丁目9-12",
    "lat": 36.6705765,
    "lng": 137.2071331,
    "tel": "076-424-2655",
    "url": "",
    "pref": "富山県",
    "city": "富山市",
    "category": "day_service",
    "serviceType": "通所介護",
    "capacity": null,
    "openDays": [
      "平日"
    ],
    "openDaysNote": "お客様の身体状態により、上記期間でも営業することがある。"
  },
  {
    "id": "1670104536",
    "name": "青鳥寺デイサービスセンター",
    "kana": "セイチョウジデイサービスセンター",
    "address": "富山市二口町１丁目９－３",
    "lat": 36.6715857,
    "lng": 137.2019767,
    "tel": "076-423-8911",
    "url": "",
    "pref": "富山県",
    "city": "富山市",
    "category": "day_service",
    "serviceType": "通所介護",
    "capacity": 0,
    "openDays": [
      "平日"
    ],
    "openDaysNote": "お客様の身体状態により、上記期間でも営業することがある。"
  },
  {
    "id": "1670103215",
    "name": "通所介護　あい",
    "kana": "ツウショカイゴ　アイ",
    "address": "富山県富山市婦中町熊野道357",
    "lat": 36.6268841,
    "lng": 137.1426197,
    "tel": "076-469-6552",
    "url": "http://care-rise.co.jp/",
    "pref": "富山県",
    "city": "富山市",
    "category": "day_service",
    "serviceType": "通所介護",
    "capacity": 0,
    "openDays": [
      "平日",
      "土曜日",
      "祝日"
    ],
    "openDaysNote": "祝、祭日は営業"
  },
  {
    "id": "1671800421",
    "name": "椿寿荘デイサービスセンター",
    "kana": "チンジュソウデイサービスセンター",
    "address": "富山県富山市八尾町奥田80番地",
    "lat": 36.6186518,
    "lng": 137.1311624,
    "tel": "076-455-3806",
    "url": "http://www.keiju-kai.jp/",
    "pref": "富山県",
    "city": "富山市",
    "category": "day_service",
    "serviceType": "通所介護",
    "capacity": 0,
    "openDays": [
      "平日",
      "土曜日"
    ],
    "openDaysNote": ""
  },
  {
    "id": "1670100682",
    "name": "白光苑デイサービスセンター",
    "kana": "ビャッコウエンデイサービスセンター",
    "address": "富山市山岸９５番地",
    "lat": 36.7184513,
    "lng": 137.2019972,
    "tel": "076-433-8890",
    "url": "http://www.byakkouen.jp/",
    "pref": "富山県",
    "city": "富山市",
    "category": "day_service",
    "serviceType": "通所介護",
    "capacity": 0,
    "openDays": [
      "平日",
      "土曜日",
      "祝日"
    ],
    "openDaysNote": ""
  },
  {
    "id": "1670101821",
    "name": "富山医療生活協同組合　在宅福祉総合センターえがお　デイサービスセンター",
    "kana": "トヤマイリョウセイカツキョウドウクミアイ　ザイタクフクシソウゴウセンターエガオ　デイサービスセンター",
    "address": "富山市山室82-1",
    "lat": 36.6740026,
    "lng": 137.2397643,
    "tel": "076-407-0161",
    "url": "http://www.toyama-hcoop.com/",
    "pref": "富山県",
    "city": "富山市",
    "category": "day_service",
    "serviceType": "通所介護",
    "capacity": 35,
    "openDays": [
      "平日",
      "土曜日",
      "祝日"
    ],
    "openDaysNote": "８月１５日と１６日、１２月３０日から１月３日は休み"
  },
  {
    "id": "1671800462",
    "name": "富山医療生活協同組合　在宅福祉総合センターぽぷら",
    "kana": "トヤマイリョウセイカツキョウドウクミアイ　ザイタクフクシソウゴウセンターポプラ",
    "address": "富山市婦中町速星398番地１",
    "lat": 36.6638911,
    "lng": 137.1654862,
    "tel": "076-466-5228",
    "url": "www.toyama-hcoop.com",
    "pref": "富山県",
    "city": "富山市",
    "category": "day_service",
    "serviceType": "通所介護",
    "capacity": 0,
    "openDays": [
      "平日",
      "土曜日",
      "祝日"
    ],
    "openDaysNote": "定休日に臨時営業の場合有"
  },
  {
    "id": "1670100161",
    "name": "富山医療生活協同組合在宅福祉総合センターきずなデイサービスセンター",
    "kana": "トヤマイリョウセイカツキョウドウクミアイザイタクフクシソウゴウセンターキズナデイサービスセンター",
    "address": "富山市柳町1丁目２－１８",
    "lat": 36.692847,
    "lng": 137.2221175,
    "tel": "076-439-3650",
    "url": "http://www/toyama-hcoop.com/",
    "pref": "富山県",
    "city": "富山市",
    "category": "day_service",
    "serviceType": "通所介護",
    "capacity": 0,
    "openDays": [
      "平日",
      "土曜日",
      "祝日"
    ],
    "openDaysNote": "ご希望に応じて、延長利用対応しています。"
  },
  {
    "id": "1670101995",
    "name": "富山医療生活協同組合在宅福祉総合センターひまわり通所介護",
    "kana": "トヤマイリョウセイカツキョウドウクミアイザイタクフクシソウゴウセンターヒマワリツウショカイゴ",
    "address": "富山市粟島２丁目２－１",
    "lat": 36.724432,
    "lng": 137.2311796,
    "tel": "076-433-7873",
    "url": "htt://www.toyama-hcoop.com/",
    "pref": "富山県",
    "city": "富山市",
    "category": "day_service",
    "serviceType": "通所介護",
    "capacity": 60,
    "openDays": [
      "平日",
      "土曜日",
      "祝日"
    ],
    "openDaysNote": "但し、延長希望あれば対応"
  },
  {
    "id": "1670114204",
    "name": "富山西デイサービス",
    "kana": "トヤマニシデイサービス",
    "address": "富山県富山市婦中町下轡田1001ラ・サンテ富山西 ラ・サンテ富山西",
    "lat": 36.6598144038702,
    "lng": 137.172881402763,
    "tel": "076-405-9311",
    "url": "http://toyama-nishi.jp",
    "pref": "富山県",
    "city": "富山市",
    "category": "day_service",
    "serviceType": "通所介護",
    "capacity": null,
    "openDays": [
      "平日",
      "土曜日"
    ],
    "openDaysNote": ""
  },
  {
    "id": "1670111622",
    "name": "北陸メディカルサービス株式会社　デイサービスてんまり",
    "kana": "ホクリクメディカルサービスカブシキガイシャ　デイサービステンマリ",
    "address": "富山市奥井町4番36号",
    "lat": 36.7044451327262,
    "lng": 137.224820817197,
    "tel": "076-471-5678",
    "url": "http://www.hokuriku-medical.co.jp",
    "pref": "富山県",
    "city": "富山市",
    "category": "day_service",
    "serviceType": "通所介護",
    "capacity": 0,
    "openDays": [
      "平日",
      "土曜日",
      "祝日"
    ],
    "openDaysNote": "営業時間は上記の通りですが、上記以外の時間でもご利用者のご希望により延長することがありますので、ご相談ください。"
  },
  {
    "id": "1671800496",
    "name": "北陸メディカルサービス株式会社デイサービスふわり",
    "kana": "ホクリクメディカルサービスカブシキガイシャデイサービスフワリ",
    "address": "富山市八尾町福島字牧野１０１番地１",
    "lat": 36.5803092,
    "lng": 137.1341875,
    "tel": "076-455-2597",
    "url": "http://www.hokuriku-medical.co.jp",
    "pref": "富山県",
    "city": "富山市",
    "category": "day_service",
    "serviceType": "通所介護",
    "capacity": 150,
    "openDays": [
      "平日",
      "土曜日",
      "祝日"
    ],
    "openDaysNote": "曳山祭り・おわら風の盆開催中は、交通規制のため営業時間などが変更となります。詳細についてはお問い合わせください。"
  },
  {
    "id": "1670102852",
    "name": "堀川南光風苑",
    "kana": "ホリカワミナミコウフウエン",
    "address": "富山市本郷町２６２－１５",
    "lat": 36.6630331566594,
    "lng": 137.232890118403,
    "tel": "076-464-3139",
    "url": "https://www.koufuukai.jp/",
    "pref": "富山県",
    "city": "富山市",
    "category": "day_service",
    "serviceType": "通所介護",
    "capacity": 30,
    "openDays": [
      "平日",
      "土曜日",
      "祝日"
    ],
    "openDaysNote": "祝日は定休日以外営業"
  },
  {
    "id": "1670100799",
    "name": "有限会社　尚栄",
    "kana": "ユウゲンカイシャ　ショウエイ",
    "address": "富山県富山市西宮1番地1",
    "lat": 36.7512827926116,
    "lng": 137.22706641866,
    "tel": "076-471-6402",
    "url": "",
    "pref": "富山県",
    "city": "富山市",
    "category": "day_service",
    "serviceType": "通所介護",
    "capacity": 0,
    "openDays": [
      "平日",
      "土曜日",
      "祝日"
    ],
    "openDaysNote": ""
  },
  {
    "id": "1670100229",
    "name": "梨雲苑デイサ－ビスセンタ－",
    "kana": "リウンエンデイサービスセンター",
    "address": "富山県富山市吉作1725番地",
    "lat": 36.7122291,
    "lng": 137.1532702,
    "tel": "076-436-2002",
    "url": "https://www.riunen.com",
    "pref": "富山県",
    "city": "富山市",
    "category": "day_service",
    "serviceType": "通所介護",
    "capacity": 0,
    "openDays": [
      "平日",
      "土曜日",
      "祝日"
    ],
    "openDaysNote": ""
  },
  {
    "id": "1670112679",
    "name": "梨雲苑ゆうゆうデイサービスセンター",
    "kana": "リウンエンユウユウデイサービスセンター",
    "address": "富山県富山市野口南部121",
    "lat": 36.7133625412132,
    "lng": 137.15284912104,
    "tel": "076-436-6541",
    "url": "http://www.riunen.com",
    "pref": "富山県",
    "city": "富山市",
    "category": "day_service",
    "serviceType": "通所介護",
    "capacity": 0,
    "openDays": [
      "平日",
      "土曜日",
      "祝日"
    ],
    "openDaysNote": ""
  },
  {
    "id": "1670103819",
    "name": "老人デイサービスセンターくれは苑",
    "kana": "ロウジンデイサービスセンタークレハエン",
    "address": "富山県富山市中老田８４５番地",
    "lat": 36.6999579,
    "lng": 137.1302142,
    "tel": "076-436-7816",
    "url": "http://www.youkou-fukushikai.or.jp/kurehaen/",
    "pref": "富山県",
    "city": "富山市",
    "category": "day_service",
    "serviceType": "通所介護",
    "capacity": 35,
    "openDays": [
      "平日",
      "土曜日",
      "祝日"
    ],
    "openDaysNote": ""
  },
  {
    "id": "1670102175",
    "name": "老人介護事業所　あさひホーム",
    "kana": "ロウジンカイゴジギョウショ　アサヒホーム",
    "address": "富山市北代189",
    "lat": 36.7199866,
    "lng": 137.1756507,
    "tel": "076-427-0770",
    "url": "http://www.asahicare.com/",
    "pref": "富山県",
    "city": "富山市",
    "category": "day_service",
    "serviceType": "通所介護",
    "capacity": 0,
    "openDays": [
      "平日",
      "土曜日",
      "日曜日",
      "祝日"
    ],
    "openDaysNote": "相談に応じます。"
  },
  {
    "id": "1670100807",
    "name": "和合ハイツデイサービスセンター",
    "kana": "ワゴウハイツデイサービスセンター",
    "address": "富山市布目1966番地1",
    "lat": 36.7468618,
    "lng": 137.1904314,
    "tel": "076-435-4850",
    "url": "https://wagoufukushi.com",
    "pref": "富山県",
    "city": "富山市",
    "category": "day_service",
    "serviceType": "通所介護",
    "capacity": 35,
    "openDays": [
      "平日",
      "土曜日",
      "祝日"
    ],
    "openDaysNote": "正月休みあり"
  },
  {
    "id": "1671600672",
    "name": "デイサービスまんてん米沢",
    "kana": "デイサービスマンテンヨネザワ",
    "address": "富山県中新川郡立山町米沢21",
    "lat": 36.6713773505973,
    "lng": 137.317288666666,
    "tel": "076-463-6650",
    "url": "",
    "pref": "富山県",
    "city": "立山町",
    "category": "day_service",
    "serviceType": "通所介護",
    "capacity": 0,
    "openDays": [
      "平日",
      "土曜日",
      "祝日"
    ],
    "openDaysNote": ""
  },
  {
    "id": "1671600748",
    "name": "デイサービス宮路やまの湯",
    "kana": "デイサービスミヤジヤマノユ",
    "address": "宮路34-1",
    "lat": 36.6052436915122,
    "lng": 137.323874096465,
    "tel": "076-483-4384",
    "url": "http://384yamanoyu.jp/",
    "pref": "富山県",
    "city": "立山町",
    "category": "day_service",
    "serviceType": "通所介護",
    "capacity": 0,
    "openDays": [
      "平日",
      "土曜日",
      "祝日"
    ],
    "openDaysNote": "お盆・年末・年始休業あり。"
  },
  {
    "id": "1671600961",
    "name": "医療法人財団　恵仁会　藤木病院　デイサービスセンター　スマイルレーベル",
    "kana": "イリョウホウジンザイダン　ケイジンカイ　フジキビョウイン　デイサービスセンター　スマイルレーベル",
    "address": "富山県中新川郡立山町大石原２２５",
    "lat": 36.6652434,
    "lng": 137.2979688,
    "tel": "764613270",
    "url": "http://www.keijinkai-f.or.jp",
    "pref": "富山県",
    "city": "立山町",
    "category": "day_service",
    "serviceType": "通所介護",
    "capacity": 0,
    "openDays": [
      "平日",
      "土曜日",
      "祝日"
    ],
    "openDaysNote": ""
  },
  {
    "id": "1671600763",
    "name": "株式会社アピアウエルネス　フィットリハたてやま",
    "kana": "カブシキカイシャアピアウエルネス　フィトリハタテヤマ",
    "address": "富山県中新川郡立山町前沢1880",
    "lat": 36.6644219,
    "lng": 137.3051976,
    "tel": "076-481-6452",
    "url": "http://www.apa-wellness.com",
    "pref": "富山県",
    "city": "立山町",
    "category": "day_service",
    "serviceType": "通所介護",
    "capacity": 20,
    "openDays": [
      "平日",
      "祝日"
    ],
    "openDaysNote": "年末、年始の休みは12月29日から1月3日まで"
  },
  {
    "id": "1671600342",
    "name": "吉峰温泉デイサービスセンター",
    "kana": "ヨシミネオンセンデイサービスセンター",
    "address": "富山県中新川郡立山町下田字川除山割27-2",
    "lat": 36.6138214,
    "lng": 137.3234493,
    "tel": "076-483-8560",
    "url": "www.yuuai-byouinkai.or.jp/",
    "pref": "富山県",
    "city": "立山町",
    "category": "day_service",
    "serviceType": "通所介護",
    "capacity": 35,
    "openDays": [
      "平日",
      "土曜日"
    ],
    "openDaysNote": "お盆（8/14,15,16）　年末年始（12/30～1/3）"
  },
  {
    "id": "1671600680",
    "name": "赤いふうせん　メルヘン",
    "kana": "アカイフウセン　メルヘン",
    "address": "富山県中新川郡立山町前沢２５３０番地４５",
    "lat": 36.6619585,
    "lng": 137.3147245,
    "tel": "076-464-2888",
    "url": "http://toyama-aroma.jp",
    "pref": "富山県",
    "city": "立山町",
    "category": "day_service",
    "serviceType": "通所介護",
    "capacity": 0,
    "openDays": [
      "平日",
      "土曜日",
      "祝日"
    ],
    "openDaysNote": "利用時間について、早朝及び１７時以降の延長についてはご相談下さい。"
  },
  {
    "id": "1671600482",
    "name": "赤いふうせん富山型デイサービス",
    "kana": "アカイフウセン　トヤマガタ　デイサービス",
    "address": "富山県中新川郡立山町前沢新町１６３番地",
    "lat": 36.670102,
    "lng": 137.3101026,
    "tel": "076-462-0888",
    "url": "",
    "pref": "富山県",
    "city": "立山町",
    "category": "day_service",
    "serviceType": "通所介護",
    "capacity": null,
    "openDays": [
      "平日",
      "土曜日",
      "祝日"
    ],
    "openDaysNote": "特になし"
  },
  {
    "id": "1671600326",
    "name": "虹の丘たてやま",
    "kana": "ニジノオカタテヤマ",
    "address": "中新川郡立山町米沢44-14",
    "lat": 36.6649945,
    "lng": 137.3274261,
    "tel": "076-462-9366",
    "url": "http://www.jecs.jp/",
    "pref": "富山県",
    "city": "立山町",
    "category": "day_service",
    "serviceType": "通所介護",
    "capacity": 30,
    "openDays": [
      "平日",
      "土曜日",
      "日曜日",
      "祝日"
    ],
    "openDaysNote": "年末年始の１２月２９日～１月３日は休み"
  },
  {
    "id": "1671600052",
    "name": "立山町デイサービスセンター竜ヶ浜荘",
    "kana": "タテヤママチデイサービスセンターリュウガハマソウ",
    "address": "富山県中新川郡立山町末上野267番地の7",
    "lat": 36.6506294,
    "lng": 137.3352311,
    "tel": "076-462-1361",
    "url": "http://www.ryugahama.jp",
    "pref": "富山県",
    "city": "立山町",
    "category": "day_service",
    "serviceType": "通所介護",
    "capacity": 0,
    "openDays": [
      "平日",
      "祝日"
    ],
    "openDaysNote": "特になし"
  }
]