[
  {
    "id": "672300779",
    "name": "い～かお　えがお",
    "kana": "イ～カオ　エガオ",
    "address": "山形県西村山郡河北町谷地中央三丁目16-12",
    "lat": 38.4193051,
    "lng": 140.3126388,
    "tel": "0237-85-0501",
    "url": "",
    "pref": "山形県",
    "city": "河北町",
    "category": "day_service",
    "serviceType": "通所介護",
    "capacity": 0,
    "openDays": [
      "平日",
      "土曜日",
      "祝日"
    ],
    "openDaysNote": "祝日は営業しております。"
  },
  {
    "id": "672300712",
    "name": "ケアセンター縁",
    "kana": "ケアセンターエニシ",
    "address": "山形県西村山郡河北町谷地字東566番地1",
    "lat": 38.4329176700326,
    "lng": 140.3172039272,
    "tel": "0237-85-1726",
    "url": "",
    "pref": "山形県",
    "city": "河北町",
    "category": "day_service",
    "serviceType": "通所介護",
    "capacity": 30,
    "openDays": [
      "平日",
      "祝日"
    ],
    "openDaysNote": "居宅サービス計画により、営業時間外であってもサービスの提供を行う場合があります。"
  },
  {
    "id": "672300654",
    "name": "ココロリビング河北",
    "kana": "ココロリビングカホク",
    "address": "西村山郡河北町谷地中央五丁目５－２６",
    "lat": 38.4183437,
    "lng": 140.3074793,
    "tel": "0237-85-1604",
    "url": "http://www.care-w.com/",
    "pref": "山形県",
    "city": "河北町",
    "category": "day_service",
    "serviceType": "通所介護",
    "capacity": 0,
    "openDays": [
      "平日",
      "祝日"
    ],
    "openDaysNote": "月曜から金曜の間における祝日は営業日とするが、土曜が祝日の場合は定休日とする。"
  },
  {
    "id": "672300480",
    "name": "デイサービスセンターひいな通所介護事業所",
    "kana": "デイサービスセンターヒイナツウショカイゴジギョウショ",
    "address": "山形県西村山郡河北町谷地字月山堂1217-5",
    "lat": 38.4126332,
    "lng": 140.308585,
    "tel": "0237-71-1885",
    "url": "https://miyuki-fukushi.jp/",
    "pref": "山形県",
    "city": "河北町",
    "category": "day_service",
    "serviceType": "通所介護",
    "capacity": 0,
    "openDays": [
      "平日",
      "土曜日",
      "祝日"
    ],
    "openDaysNote": "特に無し。"
  },
  {
    "id": "672300761",
    "name": "青空つどいの家",
    "kana": "アオゾラツドイノイエ",
    "address": "山形県西村山郡河北町西里字白山堂737番地の1",
    "lat": 38.4184389834062,
    "lng": 140.287281850718,
    "tel": "0237-72-6558",
    "url": "http://aozora-kaigo.com",
    "pref": "山形県",
    "city": "河北町",
    "category": "day_service",
    "serviceType": "通所介護",
    "capacity": 30,
    "openDays": [
      "平日",
      "土曜日",
      "祝日"
    ],
    "openDaysNote": "12月30日～1月3日は休みとなっています"
  },
  {
    "id": "671200137",
    "name": "さがえ西村山農業協同組合",
    "kana": "サガエニシムラヤマノウギョウキョウドウクミアイ",
    "address": "山形県寒河江市大字寒河江字久保２番地ＪＡ健康福祉センター ＪＡ健康福祉センター",
    "lat": 38.3649787,
    "lng": 140.2565106,
    "tel": "0237-86-8165",
    "url": "http://www.ic-net.or.jp/home/jasagae/",
    "pref": "山形県",
    "city": "寒河江市",
    "category": "day_service",
    "serviceType": "通所介護",
    "capacity": 0,
    "openDays": [
      "平日",
      "土曜日",
      "祝日"
    ],
    "openDaysNote": "年末年始休　12/31～1/3まで（改行）サービス延長時間　サービス提供時間の前１時間20分～後２時間30分"
  },
  {
    "id": "671200327",
    "name": "ソーレホーム寒河江デイサービス",
    "kana": "ソーレホームサガエデイサービス",
    "address": "寒河江市越井坂町142番1号",
    "lat": 38.3731675,
    "lng": 140.2858272,
    "tel": "0237-83-3330",
    "url": "http://www.sole.ne.jp",
    "pref": "山形県",
    "city": "寒河江市",
    "category": "day_service",
    "serviceType": "通所介護",
    "capacity": 0,
    "openDays": [
      "平日",
      "土曜日",
      "祝日"
    ],
    "openDaysNote": ""
  },
  {
    "id": "671200715",
    "name": "ツクイ寒河江",
    "kana": "ツクイサガエ",
    "address": "山形県寒河江市緑町108-2",
    "lat": 38.3834045,
    "lng": 140.2586977,
    "tel": "0237-83-1288",
    "url": "",
    "pref": "山形県",
    "city": "寒河江市",
    "category": "day_service",
    "serviceType": "通所介護",
    "capacity": 0,
    "openDays": [
      "平日",
      "土曜日",
      "日曜日",
      "祝日"
    ],
    "openDaysNote": "365日休まずお客様のニーズに対応いたします。"
  },
  {
    "id": "671200525",
    "name": "デイサービス　み～んな　えがお",
    "kana": "デイサービス　ミーンナ　エガオ",
    "address": "寒河江市大字西根字石川西269-1",
    "lat": 38.3870989,
    "lng": 140.2770804,
    "tel": "0237-85-1201",
    "url": "",
    "pref": "山形県",
    "city": "寒河江市",
    "category": "day_service",
    "serviceType": "通所介護",
    "capacity": 30,
    "openDays": [
      "平日",
      "土曜日",
      "日曜日",
      "祝日"
    ],
    "openDaysNote": "なし。"
  },
  {
    "id": "671200350",
    "name": "デイサービスセンター　しらいわ",
    "kana": "デイサービスセンター　シライワ",
    "address": "山形県寒河江市大字白岩６３２４番地",
    "lat": 38.4099113,
    "lng": 140.2200383,
    "tel": "0237-87-5110",
    "url": "https://www.sagae-yuuyuukai.org/",
    "pref": "山形県",
    "city": "寒河江市",
    "category": "day_service",
    "serviceType": "通所介護",
    "capacity": 0,
    "openDays": [
      "平日",
      "祝日"
    ],
    "openDaysNote": "特になし"
  },
  {
    "id": "671200418",
    "name": "デイサービスなごみ",
    "kana": "デイサービスナゴミ",
    "address": "寒河江市大字日和田６番地の11",
    "lat": 38.4067321,
    "lng": 140.2538288,
    "tel": "0237-85-0753",
    "url": "https://vesita.co.jp/",
    "pref": "山形県",
    "city": "寒河江市",
    "category": "day_service",
    "serviceType": "通所介護",
    "capacity": 35,
    "openDays": [
      "平日",
      "土曜日",
      "祝日"
    ],
    "openDaysNote": ""
  },
  {
    "id": "671200293",
    "name": "デイサービス花",
    "kana": "デイサービスハナ",
    "address": "山形県寒河江市大字日和田6番地の14",
    "lat": 38.4064793,
    "lng": 140.2539538,
    "tel": "0237-83-2487",
    "url": "https://vesita.co.jp/",
    "pref": "山形県",
    "city": "寒河江市",
    "category": "day_service",
    "serviceType": "通所介護",
    "capacity": 49,
    "openDays": [
      "平日",
      "土曜日",
      "祝日"
    ],
    "openDaysNote": ""
  },
  {
    "id": "671200723",
    "name": "リハビリセンターVESTA",
    "kana": "リハビリセンターヴェスタ",
    "address": "寒河江市栄町8-41SAKAECHOU841 SAKAECHOU841",
    "lat": 38.3682137,
    "lng": 140.2793645,
    "tel": "0237-84-1907",
    "url": "https://vesita.co.jp",
    "pref": "山形県",
    "city": "寒河江市",
    "category": "day_service",
    "serviceType": "通所介護",
    "capacity": 0,
    "openDays": [
      "平日",
      "土曜日",
      "祝日"
    ],
    "openDaysNote": ""
  },
  {
    "id": "671200475",
    "name": "笑和感",
    "kana": "ショウワカン",
    "address": "寒河江市大字白岩８番地１",
    "lat": 38.4080036,
    "lng": 140.2352905,
    "tel": "0237-85-0366",
    "url": "https://aozora-kaigo.com/",
    "pref": "山形県",
    "city": "寒河江市",
    "category": "day_service",
    "serviceType": "通所介護",
    "capacity": 28,
    "openDays": [
      "平日",
      "土曜日",
      "祝日"
    ],
    "openDaysNote": "時間外対応として、8時00分～19時05分まで営業を行っています"
  },
  {
    "id": "671200566",
    "name": "宅老所南さがえ",
    "kana": "タクロウショミナミサガエ",
    "address": "山形県寒河江市大字島字島東30-1",
    "lat": 38.3558638,
    "lng": 140.2773229,
    "tel": "0237-83-1147",
    "url": "http://www.t-fukushi-service.co.jp/dayservice/sagae.html",
    "pref": "山形県",
    "city": "寒河江市",
    "category": "day_service",
    "serviceType": "通所介護",
    "capacity": 0,
    "openDays": [
      "平日",
      "土曜日",
      "日曜日",
      "祝日"
    ],
    "openDaysNote": "年中無休で営業しております。"
  },
  {
    "id": "671200087",
    "name": "長生園指定通所介護事業所",
    "kana": "チョウセイエンシテイツウショカイゴジギョウショ",
    "address": "寒河江市大字柴橋2246番地の1",
    "lat": 38.3697503,
    "lng": 140.2544496,
    "tel": "0237-86-5855",
    "url": "http://www.chouseien.or.jp",
    "pref": "山形県",
    "city": "寒河江市",
    "category": "day_service",
    "serviceType": "通所介護",
    "capacity": 35,
    "openDays": [
      "平日",
      "土曜日",
      "日曜日",
      "祝日"
    ],
    "openDaysNote": "特になし"
  },
  {
    "id": "671200541",
    "name": "通所介護つつじの家",
    "kana": "ツウショカイゴツツジノイエ",
    "address": "山形県寒河江市大字寒河江字塩水6-1つつじの家 つつじの家",
    "lat": 38.3792512901984,
    "lng": 140.260925497835,
    "tel": "0237-85-1326",
    "url": "https://www.npo-ajisai.jp/",
    "pref": "山形県",
    "city": "寒河江市",
    "category": "day_service",
    "serviceType": "通所介護",
    "capacity": 36,
    "openDays": [
      "平日",
      "土曜日",
      "日曜日",
      "祝日"
    ],
    "openDaysNote": ""
  },
  {
    "id": "672500295",
    "name": "高齢者生活福祉センター「みすぎ荘」",
    "kana": "コウレイシャセイカツフクシセンターミスギソウ",
    "address": "山形県最上郡金山町大字金山字荒屋829番地1",
    "lat": 38.8777591,
    "lng": 140.317889,
    "tel": "0233-52-3300",
    "url": "https://www.kaneyamakouseikai.or.jp/",
    "pref": "山形県",
    "city": "金山町",
    "category": "day_service",
    "serviceType": "通所介護",
    "capacity": 22,
    "openDays": [
      "平日",
      "土曜日",
      "日曜日",
      "祝日"
    ],
    "openDaysNote": "特になし"
  },
  {
    "id": "672500170",
    "name": "デイサービスセンターあさぎり",
    "kana": "デイサービスセンターアサギリ",
    "address": "山形県最上郡戸沢村大字蔵岡２７５９番地",
    "lat": 38.7349906765191,
    "lng": 140.17427131698,
    "tel": "0233-34-7011",
    "url": "http://www.seiryu-magokoro.or.jp/",
    "pref": "山形県",
    "city": "戸沢村",
    "category": "day_service",
    "serviceType": "通所介護",
    "capacity": 0,
    "openDays": [
      "平日",
      "祝日"
    ],
    "openDaysNote": "なし"
  },
  {
    "id": "672600525",
    "name": "デイサービスすみれの花",
    "kana": "デイサービススミレノハナ",
    "address": "山形県東置賜郡高畠町大字佐沢2733番地3",
    "lat": 37.9453046,
    "lng": 140.1784937,
    "tel": "0238-33-3378",
    "url": "",
    "pref": "山形県",
    "city": "高畠町",
    "category": "day_service",
    "serviceType": "通所介護",
    "capacity": 0,
    "openDays": [
      "平日",
      "土曜日",
      "日曜日",
      "祝日"
    ],
    "openDaysNote": "お盆期間8月13日～15日、年末年始12月31日～1月3日は休業。"
  },
  {
    "id": "672600426",
    "name": "デイサービスたちばな",
    "kana": "デイサービスタチバナ",
    "address": "山形県東置賜郡高畠町大字山崎２９０－５番地",
    "lat": 37.9921585,
    "lng": 140.153121,
    "tel": "０２３８－４９－７４７７",
    "url": "https://www.office-yamagata.co.jp/",
    "pref": "山形県",
    "city": "高畠町",
    "category": "day_service",
    "serviceType": "通所介護",
    "capacity": 25,
    "openDays": [
      "平日",
      "土曜日",
      "日曜日",
      "祝日"
    ],
    "openDaysNote": "なし"
  },
  {
    "id": "672600442",
    "name": "デイサービス糠ノ目",
    "kana": "デイサービスヌカノメ",
    "address": "高畠町大字福沢５６３番地の１０",
    "lat": 37.9959251378046,
    "lng": 140.14407615582,
    "tel": "0238－40－1110",
    "url": "https://www.office-yamagata.co.jp/",
    "pref": "山形県",
    "city": "高畠町",
    "category": "day_service",
    "serviceType": "通所介護",
    "capacity": 30,
    "openDays": [
      "平日",
      "土曜日",
      "日曜日",
      "祝日"
    ],
    "openDaysNote": ""
  },
  {
    "id": "672600509",
    "name": "デイサービス歩夢",
    "kana": "デイサービスアユム",
    "address": "山形県東置賜郡高畠町大字高畠173-2",
    "lat": 37.9981076,
    "lng": 140.1930862,
    "tel": "0238-40-0777",
    "url": "ｈｔｔｐ：//ｆ-ｈ-ｔ.ｊｐ/",
    "pref": "山形県",
    "city": "高畠町",
    "category": "day_service",
    "serviceType": "通所介護",
    "capacity": 0,
    "openDays": [
      "平日",
      "土曜日",
      "祝日"
    ],
    "openDaysNote": ""
  },
  {
    "id": "672600467",
    "name": "デイフィットネス　が.あ.べ.ら",
    "kana": "デイフィットネス　ガ.ア.ベ.ラ",
    "address": "山形県東置賜郡高畠町大字福沢289番地1",
    "lat": 37.9883614,
    "lng": 140.1476632,
    "tel": "0238-57-3310",
    "url": "",
    "pref": "山形県",
    "city": "高畠町",
    "category": "day_service",
    "serviceType": "通所介護",
    "capacity": 0,
    "openDays": [
      "平日",
      "土曜日",
      "祝日"
    ],
    "openDaysNote": "※月曜・金曜は二部制の為、午前9：05～12：10　　午後13：15～16：20"
  },
  {
    "id": "672600087",
    "name": "はとみね荘デイサービスセンター",
    "kana": "ハトミネソウデイサービスセンター",
    "address": "山形県高畠町大字高畠303番地",
    "lat": 38.0002755,
    "lng": 140.1904212,
    "tel": "0238-51-2071",
    "url": "http://www.shoufukai.net/",
    "pref": "山形県",
    "city": "高畠町",
    "category": "day_service",
    "serviceType": "通所介護",
    "capacity": 25,
    "openDays": [
      "平日",
      "祝日"
    ],
    "openDaysNote": "特になし"
  },
  {
    "id": "672600160",
    "name": "株式会社デイサービスセンターひまわり",
    "kana": "カブシキガイシャデイサービスセンターヒマワリ",
    "address": "山形県東置賜郡高畠町大字上平柳2167",
    "lat": 37.9928777817851,
    "lng": 140.141017209787,
    "tel": "0238-57-5311",
    "url": "",
    "pref": "山形県",
    "city": "高畠町",
    "category": "day_service",
    "serviceType": "通所介護",
    "capacity": 20,
    "openDays": [
      "平日",
      "祝日"
    ],
    "openDaysNote": "祝日が平日の場合は営業日、土・日曜日の場合は定休日になります。"
  },
  {
    "id": "672600327",
    "name": "天然温泉竹とんぼ彩時季",
    "kana": "テンネンオンセンタケトンボサイジキ",
    "address": "山形県東置賜郡高畠町入生田2068-1",
    "lat": 37.9794985,
    "lng": 140.1547324,
    "tel": "0238-58-5161",
    "url": "http://www.cessna.co.jp/taketonbo",
    "pref": "山形県",
    "city": "高畠町",
    "category": "day_service",
    "serviceType": "通所介護",
    "capacity": 0,
    "openDays": [
      "平日",
      "土曜日",
      "日曜日",
      "祝日"
    ],
    "openDaysNote": "特になし"
  },
  {
    "id": "672500105",
    "name": "通所介護事業所「グリーン」",
    "kana": "ツウショカイゴジギョウショ「グリーン」",
    "address": "山形県最上郡最上町大字向町43番地の1",
    "lat": 38.7529816,
    "lng": 140.5172595,
    "tel": "0233-43-3112",
    "url": "http://www.mogami-shakyo.net",
    "pref": "山形県",
    "city": "最上町",
    "category": "day_service",
    "serviceType": "通所介護",
    "capacity": 0,
    "openDays": [
      "平日",
      "土曜日",
      "日曜日",
      "祝日"
    ],
    "openDaysNote": "なし"
  },
  {
    "id": "672500147",
    "name": "デイサービスセンターひめゆり",
    "kana": "デイサービスセンターヒメユリ",
    "address": "山形県最上郡鮭川村大字石名坂589番7",
    "lat": 38.835377,
    "lng": 140.2874183,
    "tel": "0233-55-3480",
    "url": "",
    "pref": "山形県",
    "city": "鮭川村",
    "category": "day_service",
    "serviceType": "通所介護",
    "capacity": 0,
    "openDays": [
      "平日",
      "土曜日",
      "祝日"
    ],
    "openDaysNote": ""
  },
  {
    "id": "673000279",
    "name": "指定通所介護施設デイサービスセンターなの花荘",
    "kana": "シテイツウショカイゴシセツデイサービスセンターナノハナソウ",
    "address": "山形県東田川郡三川町大字横山字堤189番地2",
    "lat": 38.7817436,
    "lng": 139.8493075,
    "tel": "0235-66-4832",
    "url": "https://www.nanohanaso.or.jp",
    "pref": "山形県",
    "city": "三川町",
    "category": "day_service",
    "serviceType": "通所介護",
    "capacity": 40,
    "openDays": [
      "平日",
      "土曜日",
      "祝日"
    ],
    "openDaysNote": ""
  },
  {
    "id": "670103159",
    "name": "ＪＡやまがた福祉センター青田",
    "kana": "ジェイエイヤマガタフクシセンターアオタ",
    "address": "山形市青田一丁目４番２１号",
    "lat": 38.2261331,
    "lng": 140.3294647,
    "tel": "023-616-8002",
    "url": "http://www.jayamagata.or.jp",
    "pref": "山形県",
    "city": "山形市",
    "category": "day_service",
    "serviceType": "通所介護",
    "capacity": 0,
    "openDays": [
      "平日",
      "土曜日",
      "祝日"
    ],
    "openDaysNote": "非常時については、２４時間体制。"
  },
  {
    "id": "670104538",
    "name": "ＳＯＭＰＯケア　山形あかねヶ丘　デイサービス",
    "kana": "ソンポケア　ヤマガタアカネガオカ　デイサービス",
    "address": "山形県山形市あかねヶ丘一丁目2番33号結城貸店舗　1Ｆ 結城貸店舗　1Ｆ",
    "lat": 38.2523005527479,
    "lng": 140.310605303161,
    "tel": "023-647-6531",
    "url": "http://www.sompocare.com",
    "pref": "山形県",
    "city": "山形市",
    "category": "day_service",
    "serviceType": "通所介護",
    "capacity": null,
    "openDays": [
      "平日",
      "土曜日",
      "祝日"
    ],
    "openDaysNote": "日曜日が祝日の場合は休業"
  },
  {
    "id": "670101500",
    "name": "あかねヶ丘ケアセンター",
    "kana": "アカネガオカケアセンター",
    "address": "山形県山形市あかねヶ丘3丁目15-8",
    "lat": 38.2410538063023,
    "lng": 140.311281586508,
    "tel": "023-647-6630",
    "url": "http://rakusei-kai.or.jp/service/day/akane-day",
    "pref": "山形県",
    "city": "山形市",
    "category": "day_service",
    "serviceType": "通所介護",
    "capacity": 23,
    "openDays": [
      "平日",
      "土曜日",
      "日曜日",
      "祝日"
    ],
    "openDaysNote": ""
  },
  {
    "id": "670104009",
    "name": "ウェルハウス桜田",
    "kana": "ウェルハウスサクラダ",
    "address": "山形県山形市桜田西三丁目6番12号",
    "lat": 38.2193944,
    "lng": 140.3134415,
    "tel": "023-615-0607",
    "url": "http://www.t-fukushi-service.co.jp",
    "pref": "山形県",
    "city": "山形市",
    "category": "day_service",
    "serviceType": "通所介護",
    "capacity": null,
    "openDays": [
      "平日",
      "土曜日",
      "日曜日",
      "祝日"
    ],
    "openDaysNote": "年中無休で営業しております。"
  },
  {
    "id": "670104025",
    "name": "ウェルハウス成沢",
    "kana": "ウェルハウスナリサワ",
    "address": "山形県山形市成沢西四丁目3番30号",
    "lat": 38.2060957,
    "lng": 140.3185107,
    "tel": "023-689-1185",
    "url": "http://www.t-fukushi-service.co.jp",
    "pref": "山形県",
    "city": "山形市",
    "category": "day_service",
    "serviceType": "通所介護",
    "capacity": null,
    "openDays": [
      "平日",
      "土曜日",
      "日曜日",
      "祝日"
    ],
    "openDaysNote": "年中無休で営業しております。"
  },
  {
    "id": "670103993",
    "name": "ウェルハウス大野目",
    "kana": "ウェルハウスダイノメ",
    "address": "山形県山形市早乙女46番1",
    "lat": 38.2751676,
    "lng": 140.3611465,
    "tel": "023-615-1390",
    "url": "http://www.t-fukushi-service.co.jp",
    "pref": "山形県",
    "city": "山形市",
    "category": "day_service",
    "serviceType": "通所介護",
    "capacity": null,
    "openDays": [
      "平日",
      "土曜日",
      "日曜日",
      "祝日"
    ],
    "openDaysNote": "年中無休で営業しております。"
  },
  {
    "id": "670104017",
    "name": "ウェルハウス嶋",
    "kana": "ウェルハウスシマ",
    "address": "山形県山形市嶋南一丁目2番14号",
    "lat": 38.2789501,
    "lng": 140.3202475,
    "tel": "023-682-1056",
    "url": "http://www.t-fukushi-service.co.jp",
    "pref": "山形県",
    "city": "山形市",
    "category": "day_service",
    "serviceType": "通所介護",
    "capacity": null,
    "openDays": [
      "平日",
      "土曜日",
      "日曜日",
      "祝日"
    ],
    "openDaysNote": "年中無休で営業しております。"
  },
  {
    "id": "670104447",
    "name": "くつろ木吉の原通所介護事業所",
    "kana": "クツロギヨシノハラツウショカイゴジギョウショ",
    "address": "山形県山形市若宮四丁目1番1号",
    "lat": 38.228049,
    "lng": 140.3084029,
    "tel": "023-646-0772",
    "url": "https://kutsurogi-home.net/",
    "pref": "山形県",
    "city": "山形市",
    "category": "day_service",
    "serviceType": "通所介護",
    "capacity": 5,
    "openDays": [
      "平日",
      "土曜日",
      "祝日"
    ],
    "openDaysNote": "サービス提供時間は8:45～17:00までとする。"
  },
  {
    "id": "670104033",
    "name": "げんきサロン　Gillnexus",
    "kana": "ゲンキサロン　ジル　ネクサス",
    "address": "山形県山形市北町二丁目２番４５号山形ファミリーボウル内 山形ファミリーボウル内",
    "lat": 38.2687977518414,
    "lng": 140.329605305557,
    "tel": "023-681-6820",
    "url": "http://www.maruwi.co.jp/genki_salon.html",
    "pref": "山形県",
    "city": "山形市",
    "category": "day_service",
    "serviceType": "通所介護",
    "capacity": 200,
    "openDays": [
      "平日",
      "祝日"
    ],
    "openDaysNote": "・営業日は月曜日～金曜日（改行）　　※月曜～金曜の祝日も営業日（改行）・土日が祝日の場合は休業（改行）・お盆休業は8/13～8/15（改行）・年末年始休業は12/29～12/31、1/1～1/3"
  },
  {
    "id": "670100312",
    "name": "サンシャイン大森デイサービスセンター",
    "kana": "サンシャインオオモリデイサービスセンター",
    "address": "山形市大字大森２１３９番地１",
    "lat": 38.3069126,
    "lng": 140.3865776,
    "tel": "023-685-1223",
    "url": "https://sunshine-oomori.jp/",
    "pref": "山形県",
    "city": "山形市",
    "category": "day_service",
    "serviceType": "通所介護",
    "capacity": 36,
    "openDays": [
      "平日",
      "祝日"
    ],
    "openDaysNote": "なし"
  },
  {
    "id": "670104413",
    "name": "シャイン下条",
    "kana": "シャインシモジョウ",
    "address": "山形県山形市下条町三丁目13番14号シャイン下条 シャイン下条",
    "lat": 38.2676489801874,
    "lng": 140.322994500642,
    "tel": "023-673-0807",
    "url": "kirakira-life.care",
    "pref": "山形県",
    "city": "山形市",
    "category": "day_service",
    "serviceType": "通所介護",
    "capacity": 0,
    "openDays": [
      "平日",
      "土曜日",
      "日曜日",
      "祝日"
    ],
    "openDaysNote": ""
  },
  {
    "id": "670102813",
    "name": "ソーレヒルズ花楯デイサービス",
    "kana": "ソーレヒルズハナダテデイサービス",
    "address": "山形市花楯二丁目18番78-101号",
    "lat": 38.2755896,
    "lng": 140.3528945,
    "tel": "023-615-6267",
    "url": "https://www.sole.ne.jp",
    "pref": "山形県",
    "city": "山形市",
    "category": "day_service",
    "serviceType": "通所介護",
    "capacity": 0,
    "openDays": [
      "平日",
      "土曜日",
      "祝日"
    ],
    "openDaysNote": "祝日は、営業いたします。"
  },
  {
    "id": "670102383",
    "name": "ソーレホーム吉原デイサービス",
    "kana": "ソーレホームヨシハラデイサービス",
    "address": "山形市若宮二丁目9-12",
    "lat": 38.2246105,
    "lng": 140.3108194,
    "tel": "023-645-8226",
    "url": "https://www.sole.ne.jp",
    "pref": "山形県",
    "city": "山形市",
    "category": "day_service",
    "serviceType": "通所介護",
    "capacity": 0,
    "openDays": [
      "平日",
      "土曜日",
      "祝日"
    ],
    "openDaysNote": "祝日は営業いたします。"
  },
  {
    "id": "670102391",
    "name": "ソーレホーム江俣デイサービス",
    "kana": "ソーレホームエマタデイサービス",
    "address": "山形市嶋南一丁目１番２号",
    "lat": 38.2777891,
    "lng": 140.3213446,
    "tel": "023-681-2225",
    "url": "http://www.sole.ne.jp",
    "pref": "山形県",
    "city": "山形市",
    "category": "day_service",
    "serviceType": "通所介護",
    "capacity": 0,
    "openDays": [
      "平日",
      "土曜日",
      "祝日"
    ],
    "openDaysNote": ""
  },
  {
    "id": "670102219",
    "name": "ソーレホーム前田デイサービス",
    "kana": "ソーレホームマエダデイサービス",
    "address": "山形市前田町１４－８",
    "lat": 38.238802,
    "lng": 140.3514289,
    "tel": "023-615-2344",
    "url": "http://www.sole.ne.jp",
    "pref": "山形県",
    "city": "山形市",
    "category": "day_service",
    "serviceType": "通所介護",
    "capacity": 30,
    "openDays": [
      "平日",
      "土曜日",
      "祝日"
    ],
    "openDaysNote": "元日、日曜日以外は営業しております。"
  },
  {
    "id": "670104793",
    "name": "ツクイ山形江俣",
    "kana": "ツクイヤマガタエマタ",
    "address": "山形県山形市江俣4-6-15",
    "lat": 38.276985,
    "lng": 140.3187217,
    "tel": "023-682-3386",
    "url": "https://www.tsukui.net",
    "pref": "山形県",
    "city": "山形市",
    "category": "day_service",
    "serviceType": "通所介護",
    "capacity": 30,
    "openDays": [
      "平日",
      "土曜日",
      "日曜日",
      "祝日"
    ],
    "openDaysNote": "年中無休で営業しております"
  },
  {
    "id": "670104801",
    "name": "ツクイ山形東青田",
    "kana": "ツクイヤマガタヒガシアオタ",
    "address": "山形県山形市東青田1-4-15",
    "lat": 38.2260563,
    "lng": 140.3396147,
    "tel": "023-629-6835",
    "url": "yamagata_higasiaota@tsukui.net",
    "pref": "山形県",
    "city": "山形市",
    "category": "day_service",
    "serviceType": "通所介護",
    "capacity": 33,
    "openDays": [
      "平日",
      "土曜日",
      "日曜日",
      "祝日"
    ],
    "openDaysNote": "年中無休で営業しております"
  },
  {
    "id": "670103951",
    "name": "つつじの里浄光苑",
    "kana": "ツツジノサトジョウコウエン",
    "address": "山形県山形市八日町二丁目4番10号",
    "lat": 38.2413484,
    "lng": 140.3312251,
    "tel": "023-635-2226",
    "url": "http://joukouen.jp/about.html",
    "pref": "山形県",
    "city": "山形市",
    "category": "day_service",
    "serviceType": "通所介護",
    "capacity": 34,
    "openDays": [
      "平日",
      "土曜日",
      "日曜日",
      "祝日"
    ],
    "openDaysNote": ""
  },
  {
    "id": "670103100",
    "name": "デイサービス　樫の木",
    "kana": "デイサービス　カシノキ",
    "address": "山形市上町４丁目６-２４",
    "lat": 38.2444227,
    "lng": 140.3133296,
    "tel": "023-673-9701",
    "url": "https://daiwa-med.co.jp",
    "pref": "山形県",
    "city": "山形市",
    "category": "day_service",
    "serviceType": "通所介護",
    "capacity": 0,
    "openDays": [
      "平日",
      "土曜日",
      "祝日"
    ],
    "openDaysNote": ""
  },
  {
    "id": "670103001",
    "name": "デイサービス「ぬくもりの里」",
    "kana": "デイサービス「ヌクモリノサト」",
    "address": "山形市上柳28番地",
    "lat": 38.3006625,
    "lng": 140.3598494,
    "tel": "023-679-4792",
    "url": "",
    "pref": "山形県",
    "city": "山形市",
    "category": "day_service",
    "serviceType": "通所介護",
    "capacity": 25,
    "openDays": [
      "平日",
      "土曜日",
      "祝日"
    ],
    "openDaysNote": ""
  },
  {
    "id": "670103860",
    "name": "デイサービスグランドホーム樫の木",
    "kana": "デイサービスグランドホームカシノキ",
    "address": "山形県山形市桧町一丁目１０番１０号",
    "lat": 38.2750034,
    "lng": 140.3377792,
    "tel": "023-665-0512",
    "url": "https://daiwa-med.co.jp",
    "pref": "山形県",
    "city": "山形市",
    "category": "day_service",
    "serviceType": "通所介護",
    "capacity": 0,
    "openDays": [
      "平日",
      "土曜日",
      "祝日"
    ],
    "openDaysNote": ""
  },
  {
    "id": "670100411",
    "name": "デイサービスセンター小白川",
    "kana": "デイサービスセンターコジラカワ",
    "address": "山形県山形市小白川町二丁目３番１号　小白川ケアセンター内",
    "lat": 38.2496364117542,
    "lng": 140.350365950783,
    "tel": "023-616-5080",
    "url": "https://yamagata-saiseikai.org/",
    "pref": "山形県",
    "city": "山形市",
    "category": "day_service",
    "serviceType": "通所介護",
    "capacity": 0,
    "openDays": [
      "平日",
      "祝日"
    ],
    "openDaysNote": "特になし"
  },
  {
    "id": "670104553",
    "name": "デイサービスセンター馬見ヶ崎",
    "kana": "デイサービスセンターマミガサキ",
    "address": "山形県山形市桧町1丁目17-23",
    "lat": 38.2783031,
    "lng": 140.3359682,
    "tel": "023-682-7555",
    "url": "http://kjg-net.jp",
    "pref": "山形県",
    "city": "山形市",
    "category": "day_service",
    "serviceType": "通所介護",
    "capacity": 25,
    "openDays": [
      "平日",
      "土曜日",
      "祝日"
    ],
    "openDaysNote": "月曜日～土曜日祝日は営業します。日曜日は、休みです。年末年始12月31日～1月3日(4日間)お休みをいただきます。"
  },
  {
    "id": "670101583",
    "name": "デイサービスセンター友結",
    "kana": "デイサービスセンターユウユ",
    "address": "山形県山形市桜田西1丁目13番9号",
    "lat": 38.220561,
    "lng": 140.31603,
    "tel": "023-615-2201",
    "url": "http:/www.ryokuaikai.com/",
    "pref": "山形県",
    "city": "山形市",
    "category": "day_service",
    "serviceType": "通所介護",
    "capacity": 30,
    "openDays": [
      "平日",
      "土曜日",
      "日曜日",
      "祝日"
    ],
    "openDaysNote": "なし"
  },
  {
    "id": "670104330",
    "name": "デイサービス虹",
    "kana": "デイサービスニジ",
    "address": "山形県山形市北町三丁目1-37協同の家虹 協同の家虹",
    "lat": 38.2720399,
    "lng": 140.3292604,
    "tel": "023-674-0362",
    "url": "http://y-mcoop.com/",
    "pref": "山形県",
    "city": "山形市",
    "category": "day_service",
    "serviceType": "通所介護",
    "capacity": 25,
    "openDays": [
      "平日",
      "祝日"
    ],
    "openDaysNote": ""
  },
  {
    "id": "670103738",
    "name": "デイドリームセンター笑顔のたね",
    "kana": "デイドリームセンターエガオノタネ",
    "address": "山形市西田1丁目2-5",
    "lat": 38.2622720395444,
    "lng": 140.317227710961,
    "tel": "023-664-3386",
    "url": "http://www.egao-tane.com/",
    "pref": "山形県",
    "city": "山形市",
    "category": "day_service",
    "serviceType": "通所介護",
    "capacity": 0,
    "openDays": [
      "平日",
      "土曜日",
      "祝日"
    ],
    "openDaysNote": "その他の定休日（改行）・8/15,16（改行）・12/31,1/1"
  },
  {
    "id": "670100601",
    "name": "とかみ共生苑デイサービスセンター",
    "kana": "トカミキョウセイエンデイサービスセンター",
    "address": "山形県山形市富神前６番地",
    "lat": 38.237519,
    "lng": 140.2633399,
    "tel": "023-646-5056",
    "url": "http://www.y-shiminhukushikai.org",
    "pref": "山形県",
    "city": "山形市",
    "category": "day_service",
    "serviceType": "通所介護",
    "capacity": 20,
    "openDays": [
      "平日",
      "土曜日",
      "祝日"
    ],
    "openDaysNote": ""
  },
  {
    "id": "670101062",
    "name": "なごみの里指定通所介護事業所",
    "kana": "ナゴミノサトシテイツウショカイゴジギョウショ",
    "address": "山形県山形市吉原三丁目10番8号",
    "lat": 38.2305487,
    "lng": 140.3068169,
    "tel": "023-647-8864",
    "url": "http://www.jifukai.org",
    "pref": "山形県",
    "city": "山形市",
    "category": "day_service",
    "serviceType": "通所介護",
    "capacity": 0,
    "openDays": [
      "平日",
      "土曜日",
      "祝日"
    ],
    "openDaysNote": "なし"
  },
  {
    "id": "670100486",
    "name": "ニチイケアセンター山形",
    "kana": "ニチイケアセンターヤマガタ",
    "address": "山形市上町三丁目12-6",
    "lat": 38.2400066,
    "lng": 140.3194068,
    "tel": "023-647-1951",
    "url": "http://www/nichiigakkan.co.jp",
    "pref": "山形県",
    "city": "山形市",
    "category": "day_service",
    "serviceType": "通所介護",
    "capacity": 31,
    "openDays": [
      "平日",
      "土曜日",
      "祝日"
    ],
    "openDaysNote": ""
  },
  {
    "id": "670100585",
    "name": "ニチイケアセンター山形五十鈴",
    "kana": "ニチイケアセンターヤマガタイスズ",
    "address": "山形県山形市五十鈴２丁目２-６８",
    "lat": 38.2733675,
    "lng": 140.3528417,
    "tel": "023-626-4520",
    "url": "http://www.nichiigakkan.co.jp",
    "pref": "山形県",
    "city": "山形市",
    "category": "day_service",
    "serviceType": "通所介護",
    "capacity": 30,
    "openDays": [
      "平日",
      "土曜日",
      "祝日"
    ],
    "openDaysNote": "日曜日以外は、正月お盆など含め年中営業"
  },
  {
    "id": "670100924",
    "name": "ニチイケアセンター山形中央",
    "kana": "ニチイケアセンターヤマガタチュウオウ",
    "address": "山形市城西町四丁目18番30号",
    "lat": 38.2598132,
    "lng": 140.3222809,
    "tel": "023-647-7366",
    "url": "http://www.nichiigakkan.co.jp",
    "pref": "山形県",
    "city": "山形市",
    "category": "day_service",
    "serviceType": "通所介護",
    "capacity": 30,
    "openDays": [
      "平日",
      "土曜日",
      "祝日"
    ],
    "openDaysNote": "祝日、大晦日、元旦も営業"
  },
  {
    "id": "670104322",
    "name": "ほっとin福寿草",
    "kana": "ホットインフクジュソウ",
    "address": "山形市飯田５丁目1-53",
    "lat": 38.2130452,
    "lng": 140.3233739,
    "tel": "023-631-1122",
    "url": "www.fukujukai.ｊｐ",
    "pref": "山形県",
    "city": "山形市",
    "category": "day_service",
    "serviceType": "通所介護",
    "capacity": 25,
    "openDays": [
      "平日",
      "土曜日",
      "祝日"
    ],
    "openDaysNote": "利用定員　２５人"
  },
  {
    "id": "670103753",
    "name": "ほほえみデイ七日町",
    "kana": "ホホエミデイナヌカマチ",
    "address": "七日町二丁目7番43号",
    "lat": 38.2526364,
    "lng": 140.3400573,
    "tel": "023-666-7300",
    "url": "https://hohoemi-yamagata.com/",
    "pref": "山形県",
    "city": "山形市",
    "category": "day_service",
    "serviceType": "通所介護",
    "capacity": 50,
    "openDays": [
      "平日",
      "土曜日",
      "祝日"
    ],
    "openDaysNote": ""
  },
  {
    "id": "670100288",
    "name": "みこころの園指定通所介護事業所",
    "kana": "ミココロノソノシテイツウショカイゴジギョウショ",
    "address": "山形県山形市大字沼木字下河原1129-1",
    "lat": 38.2505440573496,
    "lng": 140.285698707024,
    "tel": "023-644-7103",
    "url": "http://www.mikokoronosono.or.jp",
    "pref": "山形県",
    "city": "山形市",
    "category": "day_service",
    "serviceType": "通所介護",
    "capacity": 0,
    "openDays": [
      "平日",
      "土曜日",
      "祝日"
    ],
    "openDaysNote": "特になし"
  },
  {
    "id": "670102342",
    "name": "やすらぎの里半郷指定通所介護事業所",
    "kana": "ヤスラギノサトハンゴウシテイツウショカイゴジギョウショ",
    "address": "山形市蔵王半郷７９番地７",
    "lat": 38.1898948,
    "lng": 140.3178449,
    "tel": "023-688-8288",
    "url": "http://care-net.biz06/yasuragi-h/",
    "pref": "山形県",
    "city": "山形市",
    "category": "day_service",
    "serviceType": "通所介護",
    "capacity": 0,
    "openDays": [
      "平日"
    ],
    "openDaysNote": "特になし"
  },
  {
    "id": "670101815",
    "name": "介護ホーム　みのりの里",
    "kana": "カイゴホーム　ミノリノサト",
    "address": "山形市漆山１８３５介護ホーム　みのりの里 介護ホーム　みのりの里",
    "lat": 38.3167286629748,
    "lng": 140.354426735396,
    "tel": "023-686-9035",
    "url": "http://aiwacc.com/",
    "pref": "山形県",
    "city": "山形市",
    "category": "day_service",
    "serviceType": "通所介護",
    "capacity": 20,
    "openDays": [
      "平日",
      "祝日"
    ],
    "openDaysNote": "なし"
  },
  {
    "id": "670102235",
    "name": "介護福祉施設　燦燦",
    "kana": "カイゴフクシシセツ　サンサン",
    "address": "山形県山形市大字十文字字大原848番1",
    "lat": 38.3100263114568,
    "lng": 140.377667777385,
    "tel": "023-686-9885",
    "url": "http://san-san.jp",
    "pref": "山形県",
    "city": "山形市",
    "category": "day_service",
    "serviceType": "通所介護",
    "capacity": 25,
    "openDays": [
      "平日",
      "土曜日",
      "祝日"
    ],
    "openDaysNote": ""
  },
  {
    "id": "670103555",
    "name": "介護予防センターさくら山形",
    "kana": "カイゴヨボウセンターサクラヤマガタ",
    "address": "山形市嶋北三丁目14-24",
    "lat": 38.2908403,
    "lng": 140.3195336,
    "tel": "023-674-6303",
    "url": "http://www.sakura-welfare.jp/",
    "pref": "山形県",
    "city": "山形市",
    "category": "day_service",
    "serviceType": "通所介護",
    "capacity": 0,
    "openDays": [
      "平日",
      "土曜日",
      "日曜日",
      "祝日"
    ],
    "openDaysNote": ""
  },
  {
    "id": "670103985",
    "name": "楽しく元気になれるデイサービス笑顔のたね",
    "kana": "タノシクゲンキニナレルデイサービスエガオノタネ",
    "address": "山形市あかねヶ丘二丁目12番15号",
    "lat": 38.2434180553671,
    "lng": 140.310178815869,
    "tel": "023-666-6691",
    "url": "http://www.egao-tane.com/",
    "pref": "山形県",
    "city": "山形市",
    "category": "day_service",
    "serviceType": "通所介護",
    "capacity": 0,
    "openDays": [
      "平日",
      "土曜日",
      "祝日"
    ],
    "openDaysNote": "年中無休（12/31及び1/1、8/15及び8/16を除く）"
  },
  {
    "id": "670100577",
    "name": "敬寿園通所介護事業所",
    "kana": "ケイジュエンツウショカイゴジギョウショ",
    "address": "山形県山形市大字妙見寺５００－１",
    "lat": 38.2370975,
    "lng": 140.3778432,
    "tel": "023-634-2308",
    "url": "http://www.keijuen.or.jp",
    "pref": "山形県",
    "city": "山形市",
    "category": "day_service",
    "serviceType": "通所介護",
    "capacity": 0,
    "openDays": [
      "平日",
      "土曜日",
      "祝日"
    ],
    "openDaysNote": "２０１１年４月１日より、日曜日営業なし。"
  },
  {
    "id": "670102367",
    "name": "山形ケアセンターそよ風",
    "kana": "ヤマガタケアセンターソヨカゼ",
    "address": "山形市荒楯町1丁目4-1",
    "lat": 38.2340826,
    "lng": 140.3357721,
    "tel": "023-615-4335",
    "url": "http://www.sykz.co.jp",
    "pref": "山形県",
    "city": "山形市",
    "category": "day_service",
    "serviceType": "通所介護",
    "capacity": 0,
    "openDays": [
      "平日",
      "土曜日",
      "日曜日",
      "祝日"
    ],
    "openDaysNote": ""
  },
  {
    "id": "670100544",
    "name": "指定通所介護事業所　菅沢デイサービスセンター",
    "kana": "シテイツウショカイゴジギョウショ　スゲサワデイサービスセンター",
    "address": "山形県山形市すげさわの丘４６",
    "lat": 38.2265453,
    "lng": 140.2676733,
    "tel": "023-646-1168",
    "url": "yamagatashi-si.or.jp",
    "pref": "山形県",
    "city": "山形市",
    "category": "day_service",
    "serviceType": "通所介護",
    "capacity": null,
    "openDays": [
      "平日",
      "祝日"
    ],
    "openDaysNote": ""
  },
  {
    "id": "670100460",
    "name": "指定通所介護事業所ながまち荘",
    "kana": "シテイツウショカイゴジギョウショナガマチソウ",
    "address": "山形市長町751番地",
    "lat": 38.2907628,
    "lng": 140.3338601,
    "tel": "023-681-7589",
    "url": "http://www.yamagata-saiseikai.org",
    "pref": "山形県",
    "city": "山形市",
    "category": "day_service",
    "serviceType": "通所介護",
    "capacity": 0,
    "openDays": [
      "平日",
      "土曜日",
      "祝日"
    ],
    "openDaysNote": "特に無し"
  },
  {
    "id": "670100114",
    "name": "総合福祉施設いきいきの郷",
    "kana": "ソウゴウフクシシセツイキイキノサト",
    "address": "山形県山形市大字成安425番地2",
    "lat": 38.3232722,
    "lng": 140.310952,
    "tel": "023-681-4768",
    "url": "https://kagayakinokai.or.jp/rouday/",
    "pref": "山形県",
    "city": "山形市",
    "category": "day_service",
    "serviceType": "通所介護",
    "capacity": 30,
    "openDays": [
      "平日",
      "土曜日",
      "祝日"
    ],
    "openDaysNote": ""
  },
  {
    "id": "670100346",
    "name": "蔵王やすらぎの里　指定通所介護事業所",
    "kana": "ザオウヤスラギノサト　シテイツウショカイゴジギョウショ",
    "address": "山形県山形市蔵王上野９２０番地",
    "lat": 38.1759214,
    "lng": 140.3168542,
    "tel": "023-688-7022",
    "url": "http://care-net.biz/06/z-yasuragi/",
    "pref": "山形県",
    "city": "山形市",
    "category": "day_service",
    "serviceType": "通所介護",
    "capacity": 0,
    "openDays": [
      "平日",
      "土曜日",
      "祝日"
    ],
    "openDaysNote": "なし"
  },
  {
    "id": "670104041",
    "name": "宅老所いんやく",
    "kana": "タクロウショインヤク",
    "address": "山形市印役町二丁目5番5号",
    "lat": 38.2645605496469,
    "lng": 140.353065650262,
    "tel": "023-615-4277",
    "url": "http://www.t-fukushi-service.co.jp",
    "pref": "山形県",
    "city": "山形市",
    "category": "day_service",
    "serviceType": "通所介護",
    "capacity": null,
    "openDays": [
      "平日",
      "土曜日",
      "日曜日",
      "祝日"
    ],
    "openDaysNote": "年末年始も休まず営業しております。"
  },
  {
    "id": "670102771",
    "name": "宅老所ど～む中野",
    "kana": "タクロウショドウムナカノ",
    "address": "山形市大字中野３２７番地",
    "lat": 38.3053998,
    "lng": 140.3085401,
    "tel": "023-666-8015",
    "url": "http://do-mu.seesaa.net",
    "pref": "山形県",
    "city": "山形市",
    "category": "day_service",
    "serviceType": "通所介護",
    "capacity": 18,
    "openDays": [
      "平日",
      "土曜日",
      "祝日"
    ],
    "openDaysNote": "介護保険利用日は、日曜日以外の月曜日から土曜日と祝日。お盆、年末年始も開催。"
  },
  {
    "id": "670102888",
    "name": "宅老所嶋",
    "kana": "タクロウショシマ",
    "address": "山形県山形市嶋南一丁目10番13号",
    "lat": 38.2800361,
    "lng": 140.3208641,
    "tel": "023-682-1176",
    "url": "http://www.t‐fukushi‐service.co.jp",
    "pref": "山形県",
    "city": "山形市",
    "category": "day_service",
    "serviceType": "通所介護",
    "capacity": 34,
    "openDays": [
      "平日",
      "土曜日",
      "日曜日",
      "祝日"
    ],
    "openDaysNote": "土・日曜日及び年末年始も休まず営業をしています。"
  },
  {
    "id": "670103084",
    "name": "宅老所飯田",
    "kana": "タクロウショイイダ",
    "address": "山形市飯田西4-5-30",
    "lat": 38.2141972,
    "lng": 140.3214567,
    "tel": "023-674-0211",
    "url": "http://www.t-fukushi-service.co.jp",
    "pref": "山形県",
    "city": "山形市",
    "category": "day_service",
    "serviceType": "通所介護",
    "capacity": 34,
    "openDays": [
      "平日",
      "土曜日",
      "日曜日",
      "祝日"
    ],
    "openDaysNote": "年末年始も休まず営業しております。"
  },
  {
    "id": "670101765",
    "name": "通所介護事業所　六日町あいあい",
    "kana": "ツウショカイゴジギョウショ　ムイカマチアイアイ",
    "address": "山形県山形市六日町２－７",
    "lat": 38.2604744,
    "lng": 140.3406848,
    "tel": "023-634-6017",
    "url": "https://aiai-yamagata.org/",
    "pref": "山形県",
    "city": "山形市",
    "category": "day_service",
    "serviceType": "通所介護",
    "capacity": 0,
    "openDays": [
      "平日",
      "土曜日",
      "祝日"
    ],
    "openDaysNote": "年末年始（１２／２９～１／３）休み"
  },
  {
    "id": "670102987",
    "name": "天然温泉湯の郷くろさわ",
    "kana": "テンネンオンセンユノサトクロサワ",
    "address": "山形市大字黒沢547番地67",
    "lat": 38.1934023,
    "lng": 140.3040991,
    "tel": "023-674-0039",
    "url": "http://www.yuuai-kai.or.jp/",
    "pref": "山形県",
    "city": "山形市",
    "category": "day_service",
    "serviceType": "通所介護",
    "capacity": 0,
    "openDays": [
      "平日",
      "土曜日",
      "日曜日",
      "祝日"
    ],
    "openDaysNote": "特になし"
  },
  {
    "id": "670102052",
    "name": "天然温泉老人デイサービスセンターくろさわ",
    "kana": "テンネンオンセンロウジンデイサービスセンタークロサワ",
    "address": "山形市大字黒沢440番地",
    "lat": 38.1936685,
    "lng": 140.3043297,
    "tel": "023-689-9630",
    "url": "http://www.yuuai-kai.or.jp/",
    "pref": "山形県",
    "city": "山形市",
    "category": "day_service",
    "serviceType": "通所介護",
    "capacity": 0,
    "openDays": [
      "平日",
      "土曜日",
      "日曜日",
      "祝日"
    ],
    "openDaysNote": "大晦日、元旦、1/2日の計3日は休業"
  },
  {
    "id": "670102789",
    "name": "特定非営利活動法人エンジェル・ハート「通所介護サービス事業所」",
    "kana": "トクテイヒエイリカツドウホウジンエンジェル・ハート「ツウショカイゴサービスジギョウショ」",
    "address": "山形県山形市松波一丁目１１-８",
    "lat": 38.2383351810831,
    "lng": 140.358212297706,
    "tel": "023-625-2383",
    "url": "",
    "pref": "山形県",
    "city": "山形市",
    "category": "day_service",
    "serviceType": "通所介護",
    "capacity": 0,
    "openDays": [
      "平日",
      "土曜日",
      "日曜日",
      "祝日"
    ],
    "openDaysNote": ""
  },
  {
    "id": "672200037",
    "name": "指定通所介護事業所やまのべ荘",
    "kana": "シテイツウショカイゴジギョウショヤマノベソウ",
    "address": "山形県東村山郡山辺町大字大塚８１４番地２",
    "lat": 38.2788934,
    "lng": 140.2746131,
    "tel": "023-665-7869",
    "url": "http://www.yamagata-saiseikai.org",
    "pref": "山形県",
    "city": "山辺町",
    "category": "day_service",
    "serviceType": "通所介護",
    "capacity": 0,
    "openDays": [
      "平日",
      "祝日"
    ],
    "openDaysNote": ""
  },
  {
    "id": "670801778",
    "name": "ＪＡ庄内みどりデイサービス　結い・なかひらた",
    "kana": "ジェイエイショウナイミドリデイサービス　ユイナカヒラタ",
    "address": "山形県酒田市熊手島字道の下熊興屋17番1",
    "lat": 38.9064418640308,
    "lng": 139.893547953967,
    "tel": "0234-24-5411",
    "url": "http://midorinet.or.jp",
    "pref": "山形県",
    "city": "酒田市",
    "category": "day_service",
    "serviceType": "通所介護",
    "capacity": 0,
    "openDays": [
      "平日",
      "土曜日",
      "祝日"
    ],
    "openDaysNote": ""
  },
  {
    "id": "673200390",
    "name": "いこいの家",
    "kana": "イコイノイエ",
    "address": "山形県酒田市麓字横道10-8",
    "lat": 38.9697074,
    "lng": 139.9466394,
    "tel": "0234-64-3321",
    "url": "http://care-net.biz/06/choukai/",
    "pref": "山形県",
    "city": "酒田市",
    "category": "day_service",
    "serviceType": "通所介護",
    "capacity": 20,
    "openDays": [
      "平日",
      "土曜日",
      "祝日"
    ],
    "openDaysNote": "特になし"
  },
  {
    "id": "670801083",
    "name": "ケアホーム　わかみやの郷",
    "kana": "ケアホーム　ワカミヤノサト",
    "address": "酒田市若宮町二丁目２番２９号",
    "lat": 38.9006284,
    "lng": 139.8116536,
    "tel": "0234-41-2556",
    "url": "http://www.hikari-sato.jp/",
    "pref": "山形県",
    "city": "酒田市",
    "category": "day_service",
    "serviceType": "通所介護",
    "capacity": 23,
    "openDays": [
      "平日",
      "土曜日",
      "日曜日",
      "祝日"
    ],
    "openDaysNote": "なし"
  },
  {
    "id": "670801661",
    "name": "こもれびの郷浜中",
    "kana": "コモレビノサトハマナカ",
    "address": "山形県酒田市浜中字上村378番地1",
    "lat": 38.8236907448831,
    "lng": 139.783867307054,
    "tel": "0234-92-3170",
    "url": "http://syokaku-lc.com/",
    "pref": "山形県",
    "city": "酒田市",
    "category": "day_service",
    "serviceType": "通所介護",
    "capacity": 20,
    "openDays": [
      "平日",
      "祝日"
    ],
    "openDaysNote": ""
  },
  {
    "id": "670801844",
    "name": "コンフォート樫の木",
    "kana": "コンフォートカシノキ",
    "address": "山形県酒田市こあら２丁目４番地の６",
    "lat": 38.9149159486884,
    "lng": 139.86248358109,
    "tel": "０２３４－４３－１２４５",
    "url": "http://www.kashink.jp",
    "pref": "山形県",
    "city": "酒田市",
    "category": "day_service",
    "serviceType": "通所介護",
    "capacity": 0,
    "openDays": [
      "平日",
      "土曜日",
      "祝日"
    ],
    "openDaysNote": ""
  },
  {
    "id": "670800176",
    "name": "サン・シティ指定通所介護事業所",
    "kana": "サン・シティシテイツウショカイゴジギョウショ",
    "address": "山形県酒田市曙町二丁目28番地の5サン・シティ別館 サン・シティ別館",
    "lat": 38.9189807,
    "lng": 139.8630632,
    "tel": "0234-26-7770",
    "url": "www.fuku-yuwakai.jp",
    "pref": "山形県",
    "city": "酒田市",
    "category": "day_service",
    "serviceType": "通所介護",
    "capacity": 0,
    "openDays": [
      "平日",
      "土曜日",
      "祝日"
    ],
    "openDaysNote": ""
  },
  {
    "id": "670802032",
    "name": "ソーシャルいずみ",
    "kana": "ソーシャルイズミ",
    "address": "山形県酒田市東泉町5-5-6",
    "lat": 38.9344329,
    "lng": 139.8498602,
    "tel": "0234-21-2207",
    "url": "http//:www.t-fukushi-service.co.jp",
    "pref": "山形県",
    "city": "酒田市",
    "category": "day_service",
    "serviceType": "通所介護",
    "capacity": null,
    "openDays": [
      "平日",
      "土曜日",
      "日曜日",
      "祝日"
    ],
    "openDaysNote": "年中無休で営業しております。"
  },
  {
    "id": "670802040",
    "name": "ソーシャルさつき",
    "kana": "ソーシャルサツキ",
    "address": "酒田市東泉町5-5-1",
    "lat": 38.9343095,
    "lng": 139.8490722,
    "tel": "0234-43-1530",
    "url": "http://www.t-fukushi-service.co.jp",
    "pref": "山形県",
    "city": "酒田市",
    "category": "day_service",
    "serviceType": "通所介護",
    "capacity": null,
    "openDays": [
      "平日",
      "土曜日",
      "日曜日",
      "祝日"
    ],
    "openDaysNote": "年中無休で営業しております。"
  },
  {
    "id": "670802057",
    "name": "ソーシャルわかば",
    "kana": "ソーシャルワカバ",
    "address": "酒田市亀ヶ崎4-11-5",
    "lat": 38.899937,
    "lng": 139.8438111,
    "tel": "0234-43-6725",
    "url": "http://www.t-fukushi-service.co.jp",
    "pref": "山形県",
    "city": "酒田市",
    "category": "day_service",
    "serviceType": "通所介護",
    "capacity": null,
    "openDays": [
      "平日",
      "土曜日",
      "日曜日",
      "祝日"
    ],
    "openDaysNote": "年中無休で営業しております。"
  },
  {
    "id": "670800234",
    "name": "ディサ－ビスセンタ－あずま",
    "kana": "ディサ-ビスセンタ-アズマ",
    "address": "山形県酒田市関字向126番地の2",
    "lat": 38.9290315,
    "lng": 139.9217956,
    "tel": "0234-94-2377",
    "url": "http://www.east-azuma.or.jp/outline/",
    "pref": "山形県",
    "city": "酒田市",
    "category": "day_service",
    "serviceType": "通所介護",
    "capacity": 0,
    "openDays": [
      "平日",
      "土曜日",
      "祝日"
    ],
    "openDaysNote": "なし"
  },
  {
    "id": "670802081",
    "name": "デイサービスあらた",
    "kana": "デイサービスアラタ",
    "address": "山形県酒田市東町1-15-25",
    "lat": 38.9092788,
    "lng": 139.8648651,
    "tel": "0234-26-0488",
    "url": "https://idealfaro.com",
    "pref": "山形県",
    "city": "酒田市",
    "category": "day_service",
    "serviceType": "通所介護",
    "capacity": 25,
    "openDays": [
      "平日",
      "祝日"
    ],
    "openDaysNote": "土、日に祝日の場合は定休になります。"
  },
  {
    "id": "670802206",
    "name": "デイサービスグラン",
    "kana": "デイサービスグラン",
    "address": "山形県酒田市新橋3丁目1番地の1",
    "lat": 38.9165579,
    "lng": 139.8518731,
    "tel": "0234-31-8255",
    "url": "https://s-fukushi.jp/",
    "pref": "山形県",
    "city": "酒田市",
    "category": "day_service",
    "serviceType": "通所介護",
    "capacity": 0,
    "openDays": [
      "平日",
      "土曜日",
      "祝日"
    ],
    "openDaysNote": ""
  },
  {
    "id": "670801562",
    "name": "デイサービスセンター　クローバー",
    "kana": "デイサービスセンター　クローバー",
    "address": "山形県酒田市山居町二丁目１０番７号",
    "lat": 38.9112833,
    "lng": 139.83341,
    "tel": "0234-28-8870",
    "url": "",
    "pref": "山形県",
    "city": "酒田市",
    "category": "day_service",
    "serviceType": "通所介護",
    "capacity": 20,
    "openDays": [
      "平日",
      "土曜日",
      "日曜日",
      "祝日"
    ],
    "openDaysNote": "送迎時間について、道路事情、天候等により、予定時間を前後する場合があります。（改行）　体調確認について、ご利用時に健康チェックを行いますが、居宅で体調の変化、通院等がありましたら、必ずお知らせ下さい。健康状態がすぐれない場合は、サービスの中止又は、内容の変更をすることがあります。（改行）　施設内の設備、器具は本来の用途に従ってご利用下さい。（改行）　施設内での当事業所の職員や他の利用者に対し、迷惑を及ぼすような勧誘活動を行うことはできません。"
  },
  {
    "id": "670801471",
    "name": "デイサービスセンター　すまいる",
    "kana": "デイサービスセンター　スマイル",
    "address": "山形県酒田市船場町1丁目9番10号",
    "lat": 38.917227,
    "lng": 139.8284129,
    "tel": "0234-23-6155",
    "url": "",
    "pref": "山形県",
    "city": "酒田市",
    "category": "day_service",
    "serviceType": "通所介護",
    "capacity": 20,
    "openDays": [
      "平日",
      "土曜日",
      "日曜日",
      "祝日"
    ],
    "openDaysNote": "特になし"
  },
  {
    "id": "670801794",
    "name": "デイサービスセンター　ハート",
    "kana": "デイサービスセンター　ハート",
    "address": "山形県酒田市山居町二丁目１１番２３号",
    "lat": 38.9118138,
    "lng": 139.8338405,
    "tel": "0234-43-6127",
    "url": "",
    "pref": "山形県",
    "city": "酒田市",
    "category": "day_service",
    "serviceType": "通所介護",
    "capacity": 23,
    "openDays": [
      "平日",
      "土曜日",
      "日曜日",
      "祝日"
    ],
    "openDaysNote": "利用者は、他の利用者がサービスを受けるための権利、機会等を侵害してはならない。　　　　　　　　利用者は、事業所の設備、備品等の使用に当たっては、本来の用途に従い使用するものとし、これに反した使用により、事業者に損害が生じた場合は、賠償するものとする。（改行）　事業所は、利用者の重大な過失により、利用者の身体等に被った損害に対しては、賠償を減じることが出来るものとする。"
  },
  {
    "id": "670801554",
    "name": "デイサービスセンターすずかぜ",
    "kana": "デイサービスセンタースズカゼ",
    "address": "山形県酒田市東両羽町6-2",
    "lat": 38.8945744,
    "lng": 139.8489205,
    "tel": "0234-28-8067",
    "url": "http://www.maruoka.or.jp",
    "pref": "山形県",
    "city": "酒田市",
    "category": "day_service",
    "serviceType": "通所介護",
    "capacity": 50,
    "openDays": [
      "平日",
      "土曜日",
      "日曜日",
      "祝日"
    ],
    "openDaysNote": "特になし"
  },
  {
    "id": "670800259",
    "name": "デイサービスセンターたんぽぽ",
    "kana": "デイサービスセンタータンポポ",
    "address": "山形県酒田市宮野浦３－２０－１",
    "lat": 38.9143746390201,
    "lng": 139.811857050401,
    "tel": "0234-31-2244",
    "url": "http://www.kofukai.or.jp",
    "pref": "山形県",
    "city": "酒田市",
    "category": "day_service",
    "serviceType": "通所介護",
    "capacity": 0,
    "openDays": [
      "平日",
      "土曜日",
      "祝日"
    ],
    "openDaysNote": ""
  },
  {
    "id": "670801356",
    "name": "デイサービスセンターめぐみ",
    "kana": "デイサービスセンターメグミ",
    "address": "山形県酒田市こがね町1-20-11",
    "lat": 38.9019566346376,
    "lng": 139.859796758271,
    "tel": "0234-43-0470",
    "url": "http://megumiday.com/",
    "pref": "山形県",
    "city": "酒田市",
    "category": "day_service",
    "serviceType": "通所介護",
    "capacity": 0,
    "openDays": [
      "平日",
      "土曜日",
      "日曜日",
      "祝日"
    ],
    "openDaysNote": "サービス提供時間は9時00分～16時30分まで"
  },
  {
    "id": "670801679",
    "name": "デイサービスまごころひばり",
    "kana": "デイサービスマゴコロヒバリ",
    "address": "山形県酒田市こあら三丁目6番18",
    "lat": 38.911706,
    "lng": 139.8630408,
    "tel": "0234-21-8750",
    "url": "",
    "pref": "山形県",
    "city": "酒田市",
    "category": "day_service",
    "serviceType": "通所介護",
    "capacity": 25,
    "openDays": [
      "平日",
      "土曜日",
      "日曜日",
      "祝日"
    ],
    "openDaysNote": "サービス提供時間は8時45分～16時45分までですが、申出により時間延長可能。"
  },
  {
    "id": "670802180",
    "name": "デイサービス春",
    "kana": "デイサービスハル",
    "address": "法連寺字村前13-2",
    "lat": 38.9647399,
    "lng": 139.930743,
    "tel": "0234-31-8900",
    "url": "",
    "pref": "山形県",
    "city": "酒田市",
    "category": "day_service",
    "serviceType": "通所介護",
    "capacity": 16,
    "openDays": [
      "平日",
      "土曜日",
      "日曜日",
      "祝日"
    ],
    "openDaysNote": ""
  },
  {
    "id": "670801299",
    "name": "デイサービス眺海",
    "kana": "デイサービスチョウカイ",
    "address": "酒田市山寺字宅地１５９番地",
    "lat": 38.8481327,
    "lng": 139.961984,
    "tel": "0234-62-3555",
    "url": "http://www.kashin.jp",
    "pref": "山形県",
    "city": "酒田市",
    "category": "day_service",
    "serviceType": "通所介護",
    "capacity": 0,
    "openDays": [
      "平日",
      "土曜日",
      "日曜日",
      "祝日"
    ],
    "openDaysNote": ""
  },
  {
    "id": "670801968",
    "name": "デイサービス明日葉",
    "kana": "デイサービスアシタバ",
    "address": "駅東２丁目３番地の６多機能複合施設明日葉 多機能複合施設明日葉",
    "lat": 38.9226132,
    "lng": 139.848706,
    "tel": "0234-23-1125",
    "url": "https://www.s-fukushi.jp/",
    "pref": "山形県",
    "city": "酒田市",
    "category": "day_service",
    "serviceType": "通所介護",
    "capacity": 0,
    "openDays": [
      "平日",
      "土曜日",
      "祝日"
    ],
    "openDaysNote": ""
  },
  {
    "id": "670800853",
    "name": "ニチイケアセンターこあら",
    "kana": "ニチイケアセンターコアラ",
    "address": "山形県酒田市こあら２丁目５番地の２",
    "lat": 38.9146672,
    "lng": 139.8633299,
    "tel": "0234-21-8581",
    "url": "hittp://www.ninciigakkan.co.jp",
    "pref": "山形県",
    "city": "酒田市",
    "category": "day_service",
    "serviceType": "通所介護",
    "capacity": 0,
    "openDays": [
      "平日",
      "土曜日",
      "日曜日",
      "祝日"
    ],
    "openDaysNote": "但し、営業時間以外であってもサービスを提供する場合があります"
  },
  {
    "id": "670800564",
    "name": "ニチイケアセンター酒田みずほ",
    "kana": "ニチイケアセンターサカタミズホ",
    "address": "山形県酒田市亀ヶ崎3丁目5-55",
    "lat": 38.9047675,
    "lng": 139.8440651,
    "tel": "0234-21-8920",
    "url": "http://www.nichiigakkan.co.jp",
    "pref": "山形県",
    "city": "酒田市",
    "category": "day_service",
    "serviceType": "通所介護",
    "capacity": 0,
    "openDays": [
      "平日",
      "土曜日",
      "日曜日",
      "祝日"
    ],
    "openDaysNote": "但し、居宅サービス計画により、休業日、営業時間以外であってもサービスの提供を行う場合がある。"
  },
  {
    "id": "670800739",
    "name": "ニチイケアセンター東泉",
    "kana": "ニチイケアセンターヒガシイズミ",
    "address": "山形県酒田市東泉町五丁目8-10",
    "lat": 38.9328791,
    "lng": 139.8531665,
    "tel": "0234-21-7311",
    "url": "http://www.nichiigakkan.co.jp",
    "pref": "山形県",
    "city": "酒田市",
    "category": "day_service",
    "serviceType": "通所介護",
    "capacity": 0,
    "openDays": [
      "平日",
      "土曜日",
      "祝日"
    ],
    "openDaysNote": "但し、居宅サービス計画により、休業日、営業時間外であってもサービスの提供を行なう場合がある。"
  },
  {
    "id": "670802271",
    "name": "パワーリハデイサービス酒田",
    "kana": "パワーリハデイサービスサカタ",
    "address": "山形県酒田市こあら3丁目1-5",
    "lat": 38.9123099,
    "lng": 139.8586425,
    "tel": "0234-21-0305",
    "url": "",
    "pref": "山形県",
    "city": "酒田市",
    "category": "day_service",
    "serviceType": "通所介護",
    "capacity": 65,
    "openDays": [
      "平日",
      "土曜日",
      "祝日"
    ],
    "openDaysNote": "夏季休業（８月１３日～１５日まで）及び年末年始休業（１２月３１日～１月３日まで）があります。"
  },
  {
    "id": "673200093",
    "name": "みすみ指定通所介護事業所",
    "kana": "ミスミシテイツウショカイゴジギョウショ",
    "address": "山形県酒田市楢橋字大柳1番地16",
    "lat": 38.8917528,
    "lng": 139.9508697,
    "tel": "0234-52-3470",
    "url": "www.hirata.or.jp/",
    "pref": "山形県",
    "city": "酒田市",
    "category": "day_service",
    "serviceType": "通所介護",
    "capacity": 0,
    "openDays": [
      "平日",
      "土曜日",
      "祝日"
    ],
    "openDaysNote": "特にありません。"
  },
  {
    "id": "670801604",
    "name": "ゆたかの家",
    "kana": "ユタカノイエ",
    "address": "山形県酒田市ゆたか２丁目５番地の１",
    "lat": 38.9364424,
    "lng": 139.8441253,
    "tel": "0234-43-1661",
    "url": "http://third-stage.net",
    "pref": "山形県",
    "city": "酒田市",
    "category": "day_service",
    "serviceType": "通所介護",
    "capacity": 25,
    "openDays": [
      "平日",
      "土曜日",
      "日曜日",
      "祝日"
    ],
    "openDaysNote": ""
  },
  {
    "id": "670800481",
    "name": "ライフケア黒森指定通所介護事業所",
    "kana": "ライフケアクロモリシテイツウショカイゴジギョウショ",
    "address": "山形県酒田市黒森字葭葉山５４番１０",
    "lat": 38.8530683,
    "lng": 139.8171768,
    "tel": "0234-25-4500",
    "url": "http://syokaku-lc.com/",
    "pref": "山形県",
    "city": "酒田市",
    "category": "day_service",
    "serviceType": "通所介護",
    "capacity": 36,
    "openDays": [
      "平日",
      "土曜日",
      "祝日"
    ],
    "openDaysNote": "年末に関しては、営業日であれば利用予定日以外でも入浴等の希望があれば定員内で利用の相談可能"
  },
  {
    "id": "670801257",
    "name": "介護予防センターさくら",
    "kana": "カイゴヨボウセンターサクラ",
    "address": "山形県酒田市山居町2丁目1-7",
    "lat": 38.9125987758159,
    "lng": 139.834209767892,
    "tel": "0234-22-3520",
    "url": "http://.sakura.welfare.jp/",
    "pref": "山形県",
    "city": "酒田市",
    "category": "day_service",
    "serviceType": "通所介護",
    "capacity": 0,
    "openDays": [
      "平日",
      "土曜日",
      "祝日"
    ],
    "openDaysNote": "なし"
  },
  {
    "id": "670801430",
    "name": "介護予防センターさくらの里",
    "kana": "カイゴヨボウセンターサクラノサト",
    "address": "山形県酒田市字山田32-2",
    "lat": 38.857551,
    "lng": 139.9518538,
    "tel": "0234-61-4871",
    "url": "http://www.sakura-welfare.jp/",
    "pref": "山形県",
    "city": "酒田市",
    "category": "day_service",
    "serviceType": "通所介護",
    "capacity": 0,
    "openDays": [
      "平日",
      "土曜日",
      "日曜日",
      "祝日"
    ],
    "openDaysNote": "元日のみ休業。他364日稼働"
  },
  {
    "id": "670800887",
    "name": "介護予防センターさくら広野",
    "kana": "カイゴヨボウセンターサクラヒロノ",
    "address": "山形県酒田市広野字末広102-1",
    "lat": 38.84888,
    "lng": 139.8472742,
    "tel": "0234-92-4531",
    "url": "http://www.sakura-welfare.jp",
    "pref": "山形県",
    "city": "酒田市",
    "category": "day_service",
    "serviceType": "通所介護",
    "capacity": 60,
    "openDays": [
      "平日",
      "土曜日",
      "祝日"
    ],
    "openDaysNote": ""
  },
  {
    "id": "670801364",
    "name": "介護予防センターさくら東泉",
    "kana": "カイゴヨボウセンター　サクラヒガシイズミ",
    "address": "山形県酒田市東泉町6丁目1-9",
    "lat": 38.9329597,
    "lng": 139.8539443,
    "tel": "0234-31-9130",
    "url": "http://www.sakura-welfare.jp/",
    "pref": "山形県",
    "city": "酒田市",
    "category": "day_service",
    "serviceType": "通所介護",
    "capacity": 60,
    "openDays": [
      "平日",
      "土曜日",
      "日曜日",
      "祝日"
    ],
    "openDaysNote": "なし"
  },
  {
    "id": "670802172",
    "name": "丸岡医院通所介護事業所いぶき",
    "kana": "マルオカイインツウショカイゴジギョウショイブキ",
    "address": "山形県酒田市亀ヶ崎6丁目9番15号",
    "lat": 38.8971705,
    "lng": 139.8460353,
    "tel": "0234-25-5702",
    "url": "http://maruoka.or.jp/",
    "pref": "山形県",
    "city": "酒田市",
    "category": "day_service",
    "serviceType": "通所介護",
    "capacity": 0,
    "openDays": [
      "平日"
    ],
    "openDaysNote": ""
  },
  {
    "id": "670800861",
    "name": "健生ふれあいクリニック通所介護",
    "kana": "ケンセイフレアイクリニックツウショカイゴ",
    "address": "山形県酒田市泉町１番地１６",
    "lat": 38.9339594,
    "lng": 139.847178,
    "tel": "0234-35-1339",
    "url": "http://www.ken-sei.or.jp",
    "pref": "山形県",
    "city": "酒田市",
    "category": "day_service",
    "serviceType": "通所介護",
    "capacity": 0,
    "openDays": [
      "平日",
      "土曜日",
      "祝日"
    ],
    "openDaysNote": "なし"
  },
  {
    "id": "670801174",
    "name": "在宅介護複合施設ほづみ通所介護事業所",
    "kana": "ザイタクカイゴフクゴウシセツホヅミツウショカイゴジギョウショ",
    "address": "山形県酒田市宮海字林内23番地",
    "lat": 38.9734911,
    "lng": 139.8517089,
    "tel": "0234-33-1150",
    "url": "http://www.hodumi.info/",
    "pref": "山形県",
    "city": "酒田市",
    "category": "day_service",
    "serviceType": "通所介護",
    "capacity": 0,
    "openDays": [
      "平日",
      "土曜日",
      "祝日"
    ],
    "openDaysNote": ""
  },
  {
    "id": "670800788",
    "name": "指定通所デイサービスセンターキャット",
    "kana": "シテイツウショデイサービスセンターキャット",
    "address": "山形県酒田市東泉町3丁目2-11",
    "lat": 38.9312429,
    "lng": 139.8456976,
    "tel": "0234-21-9088",
    "url": "https://catsgp.com",
    "pref": "山形県",
    "city": "酒田市",
    "category": "day_service",
    "serviceType": "通所介護",
    "capacity": 0,
    "openDays": [
      "平日",
      "土曜日",
      "日曜日",
      "祝日"
    ],
    "openDaysNote": "特になし"
  },
  {
    "id": "670800135",
    "name": "酒田市デイサービスセンターいずみ",
    "kana": "サカタシデイサービスセンターイズミ",
    "address": "山形県酒田市東泉町4丁目6-13",
    "lat": 38.9310522,
    "lng": 139.8521491,
    "tel": "0234-26-7345",
    "url": "http://www.sakata-shakyo.or.jp",
    "pref": "山形県",
    "city": "酒田市",
    "category": "day_service",
    "serviceType": "通所介護",
    "capacity": 30,
    "openDays": [
      "平日",
      "土曜日",
      "祝日"
    ],
    "openDaysNote": "なし"
  },
  {
    "id": "673200275",
    "name": "酒田市デイサービスセンター松山",
    "kana": "サカタシデイサービスセンターマツヤマ",
    "address": "酒田市字西田6番地",
    "lat": 38.8568456,
    "lng": 139.9558285,
    "tel": "0234-62-2843",
    "url": "http://www.sakata-syakyo.or.jp/",
    "pref": "山形県",
    "city": "酒田市",
    "category": "day_service",
    "serviceType": "通所介護",
    "capacity": 0,
    "openDays": [
      "平日",
      "土曜日",
      "祝日"
    ],
    "openDaysNote": ""
  },
  {
    "id": "670801042",
    "name": "多機能型介護ステーション　ぬくもり",
    "kana": "タキノウガタカイゴステーション　ヌクモリ",
    "address": "山形県酒田市泉町９－１９",
    "lat": 38.9311262,
    "lng": 139.8421422,
    "tel": "0234-34-7300",
    "url": "",
    "pref": "山形県",
    "city": "酒田市",
    "category": "day_service",
    "serviceType": "通所介護",
    "capacity": 30,
    "openDays": [
      "平日",
      "土曜日",
      "日曜日",
      "祝日"
    ],
    "openDaysNote": "３６５日受け入れ可能です。"
  },
  {
    "id": "673200143",
    "name": "通所介護事業所　幸楽荘",
    "kana": "ツウショカイゴジギョウショ　コウラクソウ",
    "address": "山形県酒田市市条字荒瀬115番地",
    "lat": 38.9655746,
    "lng": 139.9318964,
    "tel": "0234-64-4380",
    "url": "http://www.kourakusou.or.jp",
    "pref": "山形県",
    "city": "酒田市",
    "category": "day_service",
    "serviceType": "通所介護",
    "capacity": 40,
    "openDays": [
      "平日",
      "土曜日",
      "日曜日",
      "祝日"
    ],
    "openDaysNote": "特になし"
  },
  {
    "id": "670801950",
    "name": "通所介護八重櫻",
    "kana": "ツウショカイゴヤエザクラ",
    "address": "山形県酒田市牧曽根字宮ノ越９２番地３サービス付き高齢者向け住宅八重櫻 サービス付き高齢者向け住宅八重櫻",
    "lat": 38.9359961,
    "lng": 139.8745525,
    "tel": "0234-43-6955",
    "url": "",
    "pref": "山形県",
    "city": "酒田市",
    "category": "day_service",
    "serviceType": "通所介護",
    "capacity": 19,
    "openDays": [
      "平日",
      "祝日"
    ],
    "openDaysNote": "１２月３１日～１月２日は、年末・年始のお休みとなります。"
  },
  {
    "id": "670800457",
    "name": "福祉のひろば通所介護事業所",
    "kana": "フクシノヒロバツウショカイゴジギョウショ",
    "address": "山形県酒田市穂積字上市神139-5",
    "lat": 38.9762354,
    "lng": 139.8630356,
    "tel": "0234-33-2210",
    "url": "https://www.f-hiroba.co.jp/",
    "pref": "山形県",
    "city": "酒田市",
    "category": "day_service",
    "serviceType": "通所介護",
    "capacity": 44,
    "openDays": [
      "平日",
      "土曜日",
      "祝日"
    ],
    "openDaysNote": "お盆休暇　８月１３日（改行）年末年始休業　１２月３１日～１月３日"
  },
  {
    "id": "670801133",
    "name": "北のかがやき",
    "kana": "キタノカガヤキ",
    "address": "酒田市漆曽根字腰廻34番地",
    "lat": 38.9327885,
    "lng": 139.8870162,
    "tel": "0234-35-8600",
    "url": "http://www.syokaku-lc.com/",
    "pref": "山形県",
    "city": "酒田市",
    "category": "day_service",
    "serviceType": "通所介護",
    "capacity": 20,
    "openDays": [
      "平日",
      "土曜日",
      "祝日"
    ],
    "openDaysNote": "特になし"
  },
  {
    "id": "672500204",
    "name": "デイサービスセンターえんじゅ",
    "kana": "デイサービスセンターエンジュ",
    "address": "山形県最上郡舟形町長者原１７１２－１",
    "lat": 38.7000731,
    "lng": 140.2992495,
    "tel": "0233-32-3555",
    "url": "",
    "pref": "山形県",
    "city": "舟形町",
    "category": "day_service",
    "serviceType": "通所介護",
    "capacity": 0,
    "openDays": [
      "平日",
      "土曜日",
      "祝日"
    ],
    "openDaysNote": "特になし。"
  },
  {
    "id": "672700200",
    "name": "さいわい荘デイサービスセンター通所介護事業所",
    "kana": "サイワイソウデイサービスセンターツウショカイゴジギョウショ",
    "address": "山形県西置賜郡小国町大字岩井沢563番地1",
    "lat": 38.0582974,
    "lng": 139.7536692,
    "tel": "0238-62-4142",
    "url": "https://saiwaiso.jp/",
    "pref": "山形県",
    "city": "小国町",
    "category": "day_service",
    "serviceType": "通所介護",
    "capacity": 0,
    "openDays": [
      "平日",
      "祝日"
    ],
    "openDaysNote": ""
  },
  {
    "id": "672700317",
    "name": "デイサービスセンター満天の家",
    "kana": "デイサービスセンターマンテンノイエ",
    "address": "山形県西置賜郡小国町大字幸町６番１号",
    "lat": 38.0681292,
    "lng": 139.7416975,
    "tel": "0238-62-3311",
    "url": "http://www.ryokuaikai.com/",
    "pref": "山形県",
    "city": "小国町",
    "category": "day_service",
    "serviceType": "通所介護",
    "capacity": 10,
    "openDays": [
      "平日",
      "祝日"
    ],
    "openDaysNote": ""
  },
  {
    "id": "673000188",
    "name": "ソラーナデイサービスセンター",
    "kana": "ソラーナデイサービスセンター",
    "address": "山形県東田川郡庄内町南野字北野１００番地２号",
    "lat": 38.8160276,
    "lng": 139.9420983,
    "tel": "0234-44-2011",
    "url": "http://www.minori-f.or.jp",
    "pref": "山形県",
    "city": "庄内町",
    "category": "day_service",
    "serviceType": "通所介護",
    "capacity": 0,
    "openDays": [
      "平日",
      "土曜日",
      "祝日"
    ],
    "openDaysNote": "なし"
  },
  {
    "id": "673000162",
    "name": "山水園指定通所介護事業所",
    "kana": "サンスイエンシテイツウショカイゴジギョウショ",
    "address": "山形県東田川郡庄内町狩川字笠山４３３番地３",
    "lat": 38.7823987,
    "lng": 139.9681306,
    "tel": "0234-25-0087",
    "url": "http://www.tk-kouseikai.or.jp/",
    "pref": "山形県",
    "city": "庄内町",
    "category": "day_service",
    "serviceType": "通所介護",
    "capacity": 28,
    "openDays": [
      "平日",
      "土曜日",
      "祝日"
    ],
    "openDaysNote": ""
  },
  {
    "id": "671300648",
    "name": "コンパスウォーク上山石崎店",
    "kana": "コンパスウォークカミノヤマイシザキテン",
    "address": "山形県上山市石崎1丁目2番地41",
    "lat": 38.1524229404887,
    "lng": 140.273807607365,
    "tel": "023-666-5180",
    "url": "",
    "pref": "山形県",
    "city": "上山市",
    "category": "day_service",
    "serviceType": "通所介護",
    "capacity": 200,
    "openDays": [
      "平日",
      "土曜日",
      "祝日"
    ],
    "openDaysNote": "年末年始（12月30日～1月3日）は定休日"
  },
  {
    "id": "671300184",
    "name": "デイサービスセンターまる指定通所介護事業所",
    "kana": "デイサービスセンターマルシテイツウショカイゴジギョウショ",
    "address": "山形県上山市牧野字清水21-1",
    "lat": 38.1158696,
    "lng": 140.3016313,
    "tel": "023-674-3380",
    "url": "http://www.miyuki-fukushi.jp/",
    "pref": "山形県",
    "city": "上山市",
    "category": "day_service",
    "serviceType": "通所介護",
    "capacity": 30,
    "openDays": [
      "平日",
      "土曜日",
      "祝日"
    ],
    "openDaysNote": ""
  },
  {
    "id": "671300283",
    "name": "みゆきデイサービス金生",
    "kana": "ミユキデイサービスカナオイ",
    "address": "山形県上山市金生東二丁目6-41",
    "lat": 38.1424134,
    "lng": 140.2853062,
    "tel": "023-672-5201",
    "url": "",
    "pref": "山形県",
    "city": "上山市",
    "category": "day_service",
    "serviceType": "通所介護",
    "capacity": 0,
    "openDays": [
      "平日",
      "土曜日"
    ],
    "openDaysNote": "なし"
  },
  {
    "id": "671101202",
    "name": "ＳＯＭＰＯケア　新庄金沢　デイサービス",
    "kana": "ソンポケア　シンジョウカナザワ　デイサービス",
    "address": "山形県新庄市金沢1863-1",
    "lat": 38.7535226,
    "lng": 140.3114416,
    "tel": "0233-23-5351",
    "url": "https://www.sompocare.com",
    "pref": "山形県",
    "city": "新庄市",
    "category": "day_service",
    "serviceType": "通所介護",
    "capacity": 0,
    "openDays": [
      "平日",
      "土曜日",
      "祝日"
    ],
    "openDaysNote": ""
  },
  {
    "id": "671100766",
    "name": "カイセイデイサービス",
    "kana": "カイセイデイサービス",
    "address": "新庄市末広町7-4",
    "lat": 38.7563332,
    "lng": 140.3044335,
    "tel": "0233-29-2912",
    "url": "http://www.kaisei-company.com",
    "pref": "山形県",
    "city": "新庄市",
    "category": "day_service",
    "serviceType": "通所介護",
    "capacity": 0,
    "openDays": [
      "平日",
      "土曜日",
      "日曜日",
      "祝日"
    ],
    "openDaysNote": ""
  },
  {
    "id": "671101152",
    "name": "カイセイホーム・デイ",
    "kana": "カイセイホーム・デイ",
    "address": "山形県新庄市末広町7-3",
    "lat": 38.7564434803718,
    "lng": 140.304480600664,
    "tel": "0233-29-2912",
    "url": "http://www.kaisei-company.com/",
    "pref": "山形県",
    "city": "新庄市",
    "category": "day_service",
    "serviceType": "通所介護",
    "capacity": 19,
    "openDays": [
      "平日",
      "土曜日",
      "祝日"
    ],
    "openDaysNote": ""
  },
  {
    "id": "671101186",
    "name": "カイセイほっと新庄",
    "kana": "カイセイホットシンジョウ",
    "address": "山形県新庄市大字泉田字下村西19-72",
    "lat": 38.8098912,
    "lng": 140.3109231,
    "tel": "0233-25-2312",
    "url": "http://www.kaisei-company.com",
    "pref": "山形県",
    "city": "新庄市",
    "category": "day_service",
    "serviceType": "通所介護",
    "capacity": 25,
    "openDays": [
      "平日",
      "土曜日"
    ],
    "openDaysNote": ""
  },
  {
    "id": "671101178",
    "name": "デイサービスいぶき",
    "kana": "デイサービスイブキ",
    "address": "山形県新庄市大字松本３９３番地の９",
    "lat": 38.7492783,
    "lng": 140.3005034,
    "tel": "０２３３－２２－１３７２",
    "url": "",
    "pref": "山形県",
    "city": "新庄市",
    "category": "day_service",
    "serviceType": "通所介護",
    "capacity": null,
    "openDays": [
      "平日",
      "土曜日",
      "日曜日",
      "祝日"
    ],
    "openDaysNote": "祝日は、営業しています。"
  },
  {
    "id": "671101145",
    "name": "デイサービスカナン",
    "kana": "デイサービスカナン",
    "address": "山形県新庄市金沢2864番地",
    "lat": 38.7501146,
    "lng": 140.3085862,
    "tel": "0233-22-2911",
    "url": "http://care-home-canaan.com",
    "pref": "山形県",
    "city": "新庄市",
    "category": "day_service",
    "serviceType": "通所介護",
    "capacity": 25,
    "openDays": [
      "平日",
      "土曜日",
      "日曜日",
      "祝日"
    ],
    "openDaysNote": ""
  },
  {
    "id": "671100956",
    "name": "デイサービスセカンドライフ",
    "kana": "デイサービスセカンドライフ",
    "address": "山形県新庄市鳥越９９９－２１",
    "lat": 38.7467115855377,
    "lng": 140.305362507271,
    "tel": "０２３３－３２－０９１３",
    "url": "",
    "pref": "山形県",
    "city": "新庄市",
    "category": "day_service",
    "serviceType": "通所介護",
    "capacity": 0,
    "openDays": [
      "平日",
      "土曜日",
      "日曜日",
      "祝日"
    ],
    "openDaysNote": ""
  },
  {
    "id": "671100493",
    "name": "デイサービスセンター　ネスト・デイ",
    "kana": "デイサービスセンター　ネストデイ",
    "address": "山形県新庄市住吉町３番３号",
    "lat": 38.7655181,
    "lng": 140.3025972,
    "tel": "0233-23-3993",
    "url": "http://www.dreamnest.or.jp",
    "pref": "山形県",
    "city": "新庄市",
    "category": "day_service",
    "serviceType": "通所介護",
    "capacity": 0,
    "openDays": [
      "平日",
      "土曜日",
      "日曜日",
      "祝日"
    ],
    "openDaysNote": "なし"
  },
  {
    "id": "671100832",
    "name": "デイサービスセンターぱれっと新庄",
    "kana": "デイサービスセンターパレットシンジョウ",
    "address": "山形県新庄市大字萩野字横根山101-1",
    "lat": 38.825465258401,
    "lng": 140.329060379762,
    "tel": "0233-25-2231",
    "url": "https://www.yis-palette.co.jp/",
    "pref": "山形県",
    "city": "新庄市",
    "category": "day_service",
    "serviceType": "通所介護",
    "capacity": 60,
    "openDays": [
      "平日",
      "土曜日",
      "日曜日",
      "祝日"
    ],
    "openDaysNote": ""
  },
  {
    "id": "671100725",
    "name": "ディサービスセンター三光舎・新庄",
    "kana": "ディサービスセンターサンコウシャ・シンジョウ",
    "address": "山形県新庄市万場町３番地の２９",
    "lat": 38.769537,
    "lng": 140.3009806,
    "tel": "0233-22-0786",
    "url": "",
    "pref": "山形県",
    "city": "新庄市",
    "category": "day_service",
    "serviceType": "通所介護",
    "capacity": 0,
    "openDays": [
      "平日",
      "土曜日",
      "日曜日",
      "祝日"
    ],
    "openDaysNote": ""
  },
  {
    "id": "671100089",
    "name": "デイサービスセンター第二あじさい",
    "kana": "デイサービスセンターダイニアジサイ",
    "address": "山形県新庄市大字泉田字上村西170番地",
    "lat": 38.8111912,
    "lng": 140.3141805,
    "tel": "0233-25-2223",
    "url": "",
    "pref": "山形県",
    "city": "新庄市",
    "category": "day_service",
    "serviceType": "通所介護",
    "capacity": 0,
    "openDays": [
      "平日",
      "土曜日",
      "祝日"
    ],
    "openDaysNote": ""
  },
  {
    "id": "671101061",
    "name": "デイサービスマイライフ",
    "kana": "デイサービスマイライフ",
    "address": "山形県新庄市大字泉田字上村西１２１",
    "lat": 38.8117799001621,
    "lng": 140.313305599799,
    "tel": "0233-32-1648",
    "url": "",
    "pref": "山形県",
    "city": "新庄市",
    "category": "day_service",
    "serviceType": "通所介護",
    "capacity": 0,
    "openDays": [
      "平日",
      "土曜日",
      "日曜日",
      "祝日"
    ],
    "openDaysNote": ""
  },
  {
    "id": "671101285",
    "name": "デイサロン日和",
    "kana": "デイサロンヒヨリ",
    "address": "山形県新庄市本町4番33号こらっせ新庄2階 こらっせ新庄2階",
    "lat": 38.7670217,
    "lng": 140.3008553,
    "tel": "233320565",
    "url": "http://hiyori.colasse.jp/",
    "pref": "山形県",
    "city": "新庄市",
    "category": "day_service",
    "serviceType": "通所介護",
    "capacity": null,
    "openDays": [
      "平日",
      "土曜日",
      "祝日"
    ],
    "openDaysNote": ""
  },
  {
    "id": "671101087",
    "name": "福祉ステーション・つばさ",
    "kana": "フクシステーション・ツバサ",
    "address": "山形県新庄市大町3番34号",
    "lat": 38.7625961,
    "lng": 140.2989253,
    "tel": "0233－32－0320",
    "url": "",
    "pref": "山形県",
    "city": "新庄市",
    "category": "day_service",
    "serviceType": "通所介護",
    "capacity": 0,
    "openDays": [
      "平日",
      "土曜日",
      "祝日"
    ],
    "openDaysNote": ""
  },
  {
    "id": "671100303",
    "name": "老人デイサービスセンター「かつろく」",
    "kana": "ロウジンデイサービスセンター「カツロク」",
    "address": "山形県新庄市金沢字西ノ山3027-10",
    "lat": 38.7729627,
    "lng": 140.3374027,
    "tel": "0233-28-7870",
    "url": "",
    "pref": "山形県",
    "city": "新庄市",
    "category": "day_service",
    "serviceType": "通所介護",
    "capacity": 0,
    "openDays": [
      "平日"
    ],
    "openDaysNote": "特になし"
  },
  {
    "id": "672500469",
    "name": "老人デイサービスセンター「ゆうゆう」",
    "kana": "ロウジンデイサービスセンター「ユウユウ」",
    "address": "山形県最上郡真室川町大字新町４６９番５",
    "lat": 38.8514617741003,
    "lng": 140.247753323943,
    "tel": "0233-62-3431",
    "url": "",
    "pref": "山形県",
    "city": "真室川町",
    "category": "day_service",
    "serviceType": "通所介護",
    "capacity": 0,
    "openDays": [
      "平日",
      "土曜日",
      "祝日"
    ],
    "openDaysNote": "特になし"
  },
  {
    "id": "672300084",
    "name": "デイサービスセンターケアハイツ西川",
    "kana": "デイサービスセンターケアハイツニシカワ",
    "address": "山形県西村山郡西川町大字海味５４８",
    "lat": 38.4269955985019,
    "lng": 140.146179486508,
    "tel": "0237-74-4065",
    "url": "https://care-h-n.or.jp/",
    "pref": "山形県",
    "city": "西川町",
    "category": "day_service",
    "serviceType": "通所介護",
    "capacity": 33,
    "openDays": [
      "平日",
      "土曜日",
      "祝日"
    ],
    "openDaysNote": "特になし"
  },
  {
    "id": "672600434",
    "name": "けんしんリハビリデイサービス",
    "kana": "ケンシンリハビリデイサービス",
    "address": "山形県東置賜郡川西町大字西大塚1374番1号ビューライト西大塚　A号室 ビューライト西大塚　A号室",
    "lat": 38.0490616,
    "lng": 140.0574501,
    "tel": "0238-46-3919",
    "url": "",
    "pref": "山形県",
    "city": "川西町",
    "category": "day_service",
    "serviceType": "通所介護",
    "capacity": 0,
    "openDays": [
      "平日"
    ],
    "openDaysNote": "火曜日午後、木曜日午後について、事業所は営業しておりますがサービスの提供はございません。"
  },
  {
    "id": "672600301",
    "name": "デイサービスセンター薬師温泉",
    "kana": "デイサービスセンターヤクシオンセン",
    "address": "山形県東置賜郡川西町西大塚１３５４－１３介護センター薬師温泉 介護センター薬師温泉",
    "lat": 38.0489977,
    "lng": 140.0560669,
    "tel": "0238-46-2255",
    "url": "http://yakushi-onsen.com",
    "pref": "山形県",
    "city": "川西町",
    "category": "day_service",
    "serviceType": "通所介護",
    "capacity": 0,
    "openDays": [
      "平日",
      "土曜日",
      "日曜日",
      "祝日"
    ],
    "openDaysNote": "特になし"
  },
  {
    "id": "671400265",
    "name": "デイサービス　にしごう",
    "kana": "デイサービス　ニシゴウ",
    "address": "山形県村山市大字名取1020番地",
    "lat": 38.4950367,
    "lng": 140.3647591,
    "tel": "0237-52-1020",
    "url": "",
    "pref": "山形県",
    "city": "村山市",
    "category": "day_service",
    "serviceType": "通所介護",
    "capacity": 25,
    "openDays": [
      "平日",
      "土曜日",
      "祝日"
    ],
    "openDaysNote": ""
  },
  {
    "id": "671400273",
    "name": "デイサービスセンター　香紅の里",
    "kana": "デイサービスセンター　カコウノサト",
    "address": "村山市楯岡俵町20－19",
    "lat": 38.4753529,
    "lng": 140.3854328,
    "tel": "0237-52-1001",
    "url": "http://www.ryokuaikai.com",
    "pref": "山形県",
    "city": "村山市",
    "category": "day_service",
    "serviceType": "通所介護",
    "capacity": 18,
    "openDays": [
      "平日",
      "土曜日",
      "日曜日",
      "祝日"
    ],
    "openDaysNote": "なし"
  },
  {
    "id": "671400240",
    "name": "デイサービスセンターひがしざわ",
    "kana": "デイサービスセンターヒガシザワ",
    "address": "山形県村山市楯岡笛田二丁目１９番５７号",
    "lat": 38.4794836,
    "lng": 140.4036616,
    "tel": "0237-52-1511",
    "url": "http://kjg-net.jp/",
    "pref": "山形県",
    "city": "村山市",
    "category": "day_service",
    "serviceType": "通所介護",
    "capacity": 0,
    "openDays": [
      "平日",
      "土曜日",
      "祝日"
    ],
    "openDaysNote": "特にありません"
  },
  {
    "id": "671400323",
    "name": "デイサービスセンター菊香",
    "kana": "デイサービスセンターキッカ",
    "address": "山形県村山市中央二丁目５番４３号",
    "lat": 38.4828728992355,
    "lng": 140.372663996959,
    "tel": "0237-53-0168",
    "url": "",
    "pref": "山形県",
    "city": "村山市",
    "category": "day_service",
    "serviceType": "通所介護",
    "capacity": 75,
    "openDays": [
      "平日",
      "土曜日",
      "祝日"
    ],
    "openDaysNote": ""
  },
  {
    "id": "671400422",
    "name": "デイサービスまごころ村山",
    "kana": "デイサービスマゴコロムラヤマ",
    "address": "山形県村山市櫤山字金谷西4752-1",
    "lat": 38.5122603890356,
    "lng": 140.391977828692,
    "tel": "0237-53-8471",
    "url": "",
    "pref": "山形県",
    "city": "村山市",
    "category": "day_service",
    "serviceType": "通所介護",
    "capacity": null,
    "openDays": [
      "平日",
      "土曜日",
      "祝日"
    ],
    "openDaysNote": ""
  },
  {
    "id": "671400158",
    "name": "ニチイケアセンター村山",
    "kana": "ニチイケアセンタームラヤマ",
    "address": "山形県村山市楯岡五日町16-15",
    "lat": 38.4780527,
    "lng": 140.3870354,
    "tel": "0237-52-0233",
    "url": "http://www.nichiigakkan.co.jp",
    "pref": "山形県",
    "city": "村山市",
    "category": "day_service",
    "serviceType": "通所介護",
    "capacity": 20,
    "openDays": [
      "平日",
      "土曜日",
      "日曜日",
      "祝日"
    ],
    "openDaysNote": "居宅サービス計画により、休業日であってもサービスを提供する場合があります。"
  },
  {
    "id": "671400059",
    "name": "指定通所介護事業所ふもと",
    "kana": "シテイツウショカイゴジギョウショフモト",
    "address": "山形県村山市大字湯野沢956番地の3",
    "lat": 38.4621504,
    "lng": 140.3071552,
    "tel": "0237-54-2010",
    "url": "http://murayama-hikari-kouseikai.jp/",
    "pref": "山形県",
    "city": "村山市",
    "category": "day_service",
    "serviceType": "通所介護",
    "capacity": 0,
    "openDays": [
      "平日",
      "土曜日",
      "祝日"
    ],
    "openDaysNote": "特になし。"
  },
  {
    "id": "672300316",
    "name": "老人デイサービス事業所らふらんす大江",
    "kana": "ロウジンデイサービスジギョウショラフランスオオエ",
    "address": "山形県西村山郡大江町大字左沢1277番地",
    "lat": 38.3843888,
    "lng": 140.200496,
    "tel": "0237-83-4800",
    "url": "http://care-net.biz/06/lafrance-ooe/",
    "pref": "山形県",
    "city": "大江町",
    "category": "day_service",
    "serviceType": "通所介護",
    "capacity": 0,
    "openDays": [
      "平日",
      "祝日"
    ],
    "openDaysNote": "特になし"
  },
  {
    "id": "672400025",
    "name": "仁風荘デイサービスセンター",
    "kana": "ジンプウソウデイサービスセンター",
    "address": "山形県北村山郡大石田町大字大石田甲５７４番地",
    "lat": 38.5990957749545,
    "lng": 140.376113127539,
    "tel": "0237-35-2920",
    "url": "https://keitenkai.or.jp",
    "pref": "山形県",
    "city": "大石田町",
    "category": "day_service",
    "serviceType": "通所介護",
    "capacity": 0,
    "openDays": [
      "平日",
      "土曜日",
      "祝日"
    ],
    "openDaysNote": ""
  },
  {
    "id": "672500071",
    "name": "指定通所介護事業所　デイサービスセンターすいめい",
    "kana": "シテイツウショカイゴジギョウショデイサービスセンタースイメイ",
    "address": "山形県最上郡大蔵村大字清水3137番地60",
    "lat": 38.694706,
    "lng": 140.2324962,
    "tel": "0233-75-2601",
    "url": "http://www.suimeisou.net",
    "pref": "山形県",
    "city": "大蔵村",
    "category": "day_service",
    "serviceType": "通所介護",
    "capacity": 0,
    "openDays": [
      "平日",
      "祝日"
    ],
    "openDaysNote": ""
  },
  {
    "id": "672200482",
    "name": "ケアガーデンえびす邸",
    "kana": "ケアガーデンエビステイ",
    "address": "山形県東村山郡中山町大字長崎４５４番地",
    "lat": 38.3350497,
    "lng": 140.2817277,
    "tel": "023-666-3755",
    "url": "care-garden-ebite.jp",
    "pref": "山形県",
    "city": "中山町",
    "category": "day_service",
    "serviceType": "通所介護",
    "capacity": null,
    "openDays": [
      "平日",
      "土曜日",
      "日曜日"
    ],
    "openDaysNote": ""
  },
  {
    "id": "672200102",
    "name": "中山ひまわり荘指定通所介護事業所",
    "kana": "ナカヤマヒマワリソウシテイツウショカイゴジギョウショ",
    "address": "山形県東村山郡中山町大字柳沢2333番地",
    "lat": 38.3292051,
    "lng": 140.2597557,
    "tel": "023-662-6633",
    "url": "",
    "pref": "山形県",
    "city": "中山町",
    "category": "day_service",
    "serviceType": "通所介護",
    "capacity": 0,
    "openDays": [
      "平日",
      "祝日"
    ],
    "openDaysNote": ""
  },
  {
    "id": "672300142",
    "name": "ふれあい荘デイサービスセンター",
    "kana": "フレアイソウデイサービスセンター",
    "address": "山形県西村山郡朝日町大字四ノ沢８７０番地",
    "lat": 38.3062199,
    "lng": 140.1580358,
    "tel": "0237-67-3701",
    "url": "www.fureaiso.or.jp/dayservice",
    "pref": "山形県",
    "city": "朝日町",
    "category": "day_service",
    "serviceType": "通所介護",
    "capacity": 0,
    "openDays": [
      "平日",
      "土曜日",
      "祝日"
    ],
    "openDaysNote": "なし。"
  },
  {
    "id": "671500569",
    "name": "ツクイ長井",
    "kana": "ツクイナガイ",
    "address": "山形県長井市九野本268番地",
    "lat": 38.0906617,
    "lng": 140.0339354,
    "tel": "0238-83-3770",
    "url": "http://www.tsukui.net/",
    "pref": "山形県",
    "city": "長井市",
    "category": "day_service",
    "serviceType": "通所介護",
    "capacity": 30,
    "openDays": [
      "平日",
      "土曜日",
      "日曜日",
      "祝日"
    ],
    "openDaysNote": "なし"
  },
  {
    "id": "671500403",
    "name": "デイサービスセンター　風ぐるま",
    "kana": "デイサービスセンター　カザグルマ",
    "address": "山形県長井市今泉2944-3",
    "lat": 38.0525443,
    "lng": 140.046262,
    "tel": "0238-88-5660",
    "url": "curedream.com",
    "pref": "山形県",
    "city": "長井市",
    "category": "day_service",
    "serviceType": "通所介護",
    "capacity": 0,
    "openDays": [
      "平日",
      "祝日"
    ],
    "openDaysNote": "なし"
  },
  {
    "id": "671500361",
    "name": "リバーヒルデイサービスセンターすこやか",
    "kana": "リバーヒルデイサービスセンタースコヤカ",
    "address": "山形県長井市中道２丁目２－３７",
    "lat": 38.1065773036731,
    "lng": 140.031822487135,
    "tel": "0238-88-1013",
    "url": "https://www.riverhill.jp",
    "pref": "山形県",
    "city": "長井市",
    "category": "day_service",
    "serviceType": "通所介護",
    "capacity": 0,
    "openDays": [
      "平日",
      "土曜日",
      "祝日"
    ],
    "openDaysNote": "特になし"
  },
  {
    "id": "671500106",
    "name": "慈光園デイサービスセンター",
    "kana": "ジコウエンデイサービスセンター",
    "address": "山形県長井市小出3453番地",
    "lat": 38.1093409,
    "lng": 140.0498673,
    "tel": "0238-84-3021",
    "url": "http://www2.jan.ne.jp/jikouen1/",
    "pref": "山形県",
    "city": "長井市",
    "category": "day_service",
    "serviceType": "通所介護",
    "capacity": 0,
    "openDays": [
      "平日",
      "土曜日",
      "日曜日",
      "祝日"
    ],
    "openDaysNote": "なし"
  },
  {
    "id": "671500114",
    "name": "慈光園中央デイサービスセンター",
    "kana": "ジコウエンチュウオウ　デイサービスセンター",
    "address": "山形県長井市ままの上７番１０号保健センター内 保健センター内",
    "lat": 38.1055994,
    "lng": 140.0415099,
    "tel": "0238-84-6801",
    "url": "http://www2.jan.ne.jp/~jikouen1/",
    "pref": "山形県",
    "city": "長井市",
    "category": "day_service",
    "serviceType": "通所介護",
    "capacity": 35,
    "openDays": [
      "平日",
      "祝日"
    ],
    "openDaysNote": "特になし"
  },
  {
    "id": "670700590",
    "name": "JA鶴岡げんき館デイサービスセンター",
    "kana": "ジェイエイツルオカゲンキカンデイサービスセンター",
    "address": "山形県鶴岡市青龍寺字村下34-1",
    "lat": 38.6908757,
    "lng": 139.8186853,
    "tel": "0235-29-7725",
    "url": "https:/www.ja-tsuruoka.or.jp",
    "pref": "山形県",
    "city": "鶴岡市",
    "category": "day_service",
    "serviceType": "通所介護",
    "capacity": 25,
    "openDays": [
      "平日",
      "土曜日",
      "祝日"
    ],
    "openDaysNote": "特になし"
  },
  {
    "id": "670700707",
    "name": "あかり",
    "kana": "アカリ",
    "address": "山形県鶴岡市小真木原町10－17",
    "lat": 38.7159841,
    "lng": 139.8170819,
    "tel": "0235-29-8203",
    "url": "http://www.mutumi-kaigo.jp/",
    "pref": "山形県",
    "city": "鶴岡市",
    "category": "day_service",
    "serviceType": "通所介護",
    "capacity": 0,
    "openDays": [
      "平日",
      "土曜日",
      "日曜日",
      "祝日"
    ],
    "openDaysNote": "なし"
  },
  {
    "id": "670701481",
    "name": "オープンハウス　奏",
    "kana": "オープンハウス　カナデ",
    "address": "山形県鶴岡市藤沢字石渡15-13",
    "lat": 38.6974712,
    "lng": 139.7756497,
    "tel": "0235-33-8571",
    "url": "http://www.toyomi-rd.jp/",
    "pref": "山形県",
    "city": "鶴岡市",
    "category": "day_service",
    "serviceType": "通所介護",
    "capacity": 25,
    "openDays": [
      "平日",
      "祝日"
    ],
    "openDaysNote": ""
  },
  {
    "id": "670702018",
    "name": "デイサービス　えがお・デ・あいと",
    "kana": "デイサービス　エガオ・デ・アイト",
    "address": "山形県鶴岡市長沼字宮前23番1",
    "lat": 38.8058855475582,
    "lng": 139.874320708132,
    "tel": "0235-33-8165",
    "url": "http://www.ja-shonai.or.jp/",
    "pref": "山形県",
    "city": "鶴岡市",
    "category": "day_service",
    "serviceType": "通所介護",
    "capacity": 0,
    "openDays": [
      "平日"
    ],
    "openDaysNote": ""
  },
  {
    "id": "670701663",
    "name": "デイサービス　すずらん・ケア",
    "kana": "デイサービス　スズラン・ケア",
    "address": "鶴岡市柳田字田中30番地1",
    "lat": 38.7229743720826,
    "lng": 139.808882766559,
    "tel": "0235-24-9370",
    "url": "",
    "pref": "山形県",
    "city": "鶴岡市",
    "category": "day_service",
    "serviceType": "通所介護",
    "capacity": 0,
    "openDays": [
      "平日",
      "土曜日",
      "祝日"
    ],
    "openDaysNote": "延長サービス　最長　20時まで利用可能"
  },
  {
    "id": "670701838",
    "name": "デイサービス　はなの里",
    "kana": "デイサービス　ハナノサト",
    "address": "山形県鶴岡市田川字八幡212",
    "lat": 38.6883584,
    "lng": 139.7524542,
    "tel": "０２３５－６４－０４７１",
    "url": "http://hananosato.biz",
    "pref": "山形県",
    "city": "鶴岡市",
    "category": "day_service",
    "serviceType": "通所介護",
    "capacity": 0,
    "openDays": [
      "平日",
      "土曜日",
      "日曜日",
      "祝日"
    ],
    "openDaysNote": ""
  },
  {
    "id": "670701655",
    "name": "デイサービス　ぽぽろ",
    "kana": "デイサービス　ポポロ",
    "address": "山形県鶴岡市大東町３番１７号",
    "lat": 38.7265754300191,
    "lng": 139.836316416811,
    "tel": "0235-64-8978",
    "url": "",
    "pref": "山形県",
    "city": "鶴岡市",
    "category": "day_service",
    "serviceType": "通所介護",
    "capacity": 0,
    "openDays": [
      "平日",
      "土曜日",
      "祝日"
    ],
    "openDaysNote": ""
  },
  {
    "id": "673000402",
    "name": "デイサービスかみじ荘",
    "kana": "デイサービスカミジソウ",
    "address": "山形県鶴岡市羽黒町手向字薬師沢198番地３",
    "lat": 38.7180786,
    "lng": 139.9411353,
    "tel": "0235-62-2007",
    "url": "https://www.kamiji.or.jp/",
    "pref": "山形県",
    "city": "鶴岡市",
    "category": "day_service",
    "serviceType": "通所介護",
    "capacity": 30,
    "openDays": [
      "平日",
      "土曜日",
      "祝日"
    ],
    "openDaysNote": ""
  },
  {
    "id": "670701184",
    "name": "デイサービスきらり",
    "kana": "デイサービスキラリ",
    "address": "山形県鶴岡市日枝字海老島３６番４号",
    "lat": 38.7131513,
    "lng": 139.8261617,
    "tel": "0235-24-5628",
    "url": "http://shonai-niji.jp/",
    "pref": "山形県",
    "city": "鶴岡市",
    "category": "day_service",
    "serviceType": "通所介護",
    "capacity": 25,
    "openDays": [
      "平日",
      "祝日"
    ],
    "openDaysNote": ""
  },
  {
    "id": "670700699",
    "name": "デイサービスセンター　そよ風の森",
    "kana": "デイサービスセンターソヨカゼノモリ",
    "address": "山形県鶴岡市下川字龍花崎41番1039号",
    "lat": 38.7840419,
    "lng": 139.7745809,
    "tel": "0235-76-2170",
    "url": "https://care-net.biz/06/soyokazenomori/",
    "pref": "山形県",
    "city": "鶴岡市",
    "category": "day_service",
    "serviceType": "通所介護",
    "capacity": 0,
    "openDays": [
      "平日",
      "土曜日",
      "祝日"
    ],
    "openDaysNote": ""
  },
  {
    "id": "670701432",
    "name": "デイサービスセンター　みどり",
    "kana": "デイサービスセンター　ミドリ",
    "address": "山形県鶴岡市大西町3番35号",
    "lat": 38.7285214445423,
    "lng": 139.810931820762,
    "tel": "0235-26-8812",
    "url": "http://yamagata.koureikyou.or.jp",
    "pref": "山形県",
    "city": "鶴岡市",
    "category": "day_service",
    "serviceType": "通所介護",
    "capacity": 35,
    "openDays": [
      "平日",
      "土曜日",
      "祝日"
    ],
    "openDaysNote": ""
  },
  {
    "id": "670700848",
    "name": "デイサービスセンターおおやま",
    "kana": "デイサービスセンターオオヤマ",
    "address": "鶴岡市大山3丁目34番1号",
    "lat": 38.7513726927022,
    "lng": 139.763872842853,
    "tel": "0235-38-0255",
    "url": "http://www.shk01.jp/",
    "pref": "山形県",
    "city": "鶴岡市",
    "category": "day_service",
    "serviceType": "通所介護",
    "capacity": 0,
    "openDays": [
      "平日",
      "土曜日",
      "日曜日",
      "祝日"
    ],
    "openDaysNote": "特になし"
  },
  {
    "id": "670700988",
    "name": "デイサービスセンターキャット藤島",
    "kana": "デイサービスセンターキャットフジシマ",
    "address": "山形県鶴岡市藤島字笹花48-12",
    "lat": 38.7664437,
    "lng": 139.9065418,
    "tel": "0235-64-6042",
    "url": "https://catsgp.com/",
    "pref": "山形県",
    "city": "鶴岡市",
    "category": "day_service",
    "serviceType": "通所介護",
    "capacity": 18,
    "openDays": [
      "平日",
      "土曜日"
    ],
    "openDaysNote": "年末年始休業（12/31～1/3）"
  },
  {
    "id": "673000105",
    "name": "デイサービスセンターくしびき",
    "kana": "デイサービスセンタークシビキ",
    "address": "山形県鶴岡市上山添字成田２１－９櫛 櫛",
    "lat": 38.6785502110262,
    "lng": 139.84843535656,
    "tel": "0235-57-5080",
    "url": "http://www.shk01.jp/shisetsu_14_ksbk_sukoyaka.html",
    "pref": "山形県",
    "city": "鶴岡市",
    "category": "day_service",
    "serviceType": "通所介護",
    "capacity": 0,
    "openDays": [
      "平日",
      "土曜日",
      "日曜日",
      "祝日"
    ],
    "openDaysNote": ""
  },
  {
    "id": "670700178",
    "name": "デイサービスセンターたかだて",
    "kana": "デイサービスセンタータカダテ",
    "address": "山形県鶴岡市友江町23番14号",
    "lat": 38.7499209,
    "lng": 139.7697823,
    "tel": "0235-33-0833",
    "url": "http://www/.biz.biglobe.ne.jp/~t-shakyo.",
    "pref": "山形県",
    "city": "鶴岡市",
    "category": "day_service",
    "serviceType": "通所介護",
    "capacity": 0,
    "openDays": [
      "平日",
      "土曜日",
      "祝日"
    ],
    "openDaysNote": "今年度から日曜日休業となる"
  },
  {
    "id": "670700368",
    "name": "デイサービスセンターとようら",
    "kana": "デイサービスセンタートヨウラ",
    "address": "鶴岡市三瀬字菖蒲田67-1",
    "lat": 38.7011536,
    "lng": 139.6741044,
    "tel": "0235-38-8155",
    "url": "http://www1.biz.biglobe.ne.jp/^t-shakyo",
    "pref": "山形県",
    "city": "鶴岡市",
    "category": "day_service",
    "serviceType": "通所介護",
    "capacity": 0,
    "openDays": [
      "平日",
      "土曜日",
      "日曜日",
      "祝日"
    ],
    "openDaysNote": ""
  },
  {
    "id": "670700186",
    "name": "デイサービスセンターなえづ",
    "kana": "デイサービスセンターナエヅ",
    "address": "山形県鶴岡市ほなみ町3番1号地域福祉センターなえづ 地域福祉センターなえづ",
    "lat": 38.718365,
    "lng": 139.8440266,
    "tel": "0235-25-9255",
    "url": "http://www.shk01.jp/",
    "pref": "山形県",
    "city": "鶴岡市",
    "category": "day_service",
    "serviceType": "通所介護",
    "capacity": 0,
    "openDays": [
      "平日",
      "土曜日",
      "祝日"
    ],
    "openDaysNote": "年末年始3日間休館日となります"
  },
  {
    "id": "670700517",
    "name": "デイサービスセンターふれあい",
    "kana": "デイサービスセンターフレアイ",
    "address": "山形県鶴岡市西新斎町14番26号",
    "lat": 38.7378404,
    "lng": 139.8144204,
    "tel": "0235-29-0370",
    "url": "http://www.shk01.jp/",
    "pref": "山形県",
    "city": "鶴岡市",
    "category": "day_service",
    "serviceType": "通所介護",
    "capacity": 0,
    "openDays": [
      "平日",
      "土曜日",
      "日曜日",
      "祝日"
    ],
    "openDaysNote": ""
  },
  {
    "id": "670700319",
    "name": "デイサービスセンター健楽園",
    "kana": "デイサービスセンターケンラクエン",
    "address": "山形県鶴岡市美原町４番４０号",
    "lat": 38.7220309,
    "lng": 139.821573,
    "tel": "0235-25-2881",
    "url": "http://www.ikkoukai.or.jp",
    "pref": "山形県",
    "city": "鶴岡市",
    "category": "day_service",
    "serviceType": "通所介護",
    "capacity": 30,
    "openDays": [
      "平日",
      "土曜日",
      "祝日"
    ],
    "openDaysNote": ""
  },
  {
    "id": "670701911",
    "name": "デイサービスセンター澄花",
    "kana": "デイサービスセンタースミカ",
    "address": "山形県鶴岡市友江字川向６１番地８",
    "lat": 38.7481383230653,
    "lng": 139.778886633868,
    "tel": "0235-64-1665",
    "url": "http://third-stage.net",
    "pref": "山形県",
    "city": "鶴岡市",
    "category": "day_service",
    "serviceType": "通所介護",
    "capacity": 0,
    "openDays": [
      "平日",
      "土曜日",
      "祝日"
    ],
    "openDaysNote": ""
  },
  {
    "id": "670700772",
    "name": "デイサービスセンター西目",
    "kana": "デイサービスセンターニシメ",
    "address": "山形県鶴岡市西目123－8",
    "lat": 38.734014,
    "lng": 139.7300273,
    "tel": "0235-35-3880",
    "url": "http://www.mutumi-kaigo.jp",
    "pref": "山形県",
    "city": "鶴岡市",
    "category": "day_service",
    "serviceType": "通所介護",
    "capacity": 30,
    "openDays": [
      "平日",
      "土曜日",
      "日曜日",
      "祝日"
    ],
    "openDaysNote": "なし"
  },
  {
    "id": "670701762",
    "name": "デイサービスひまわりアプラ",
    "kana": "デイサービスヒマワリアプラ",
    "address": "山形県鶴岡市稲生一丁目4番53号",
    "lat": 38.7206681438538,
    "lng": 139.811431326459,
    "tel": "0235-64-0302",
    "url": "https://himawari-s.co.jp",
    "pref": "山形県",
    "city": "鶴岡市",
    "category": "day_service",
    "serviceType": "通所介護",
    "capacity": 35,
    "openDays": [
      "平日",
      "土曜日",
      "祝日"
    ],
    "openDaysNote": ""
  },
  {
    "id": "670701291",
    "name": "デイサービスひまわりいいずん",
    "kana": "デイサ-ビスヒマワリイイズン",
    "address": "山形県鶴岡市稲生一丁目３番４５号",
    "lat": 38.720503,
    "lng": 139.8119155,
    "tel": "0235-64-0604",
    "url": "https://www.himawari-s.co.jp",
    "pref": "山形県",
    "city": "鶴岡市",
    "category": "day_service",
    "serviceType": "通所介護",
    "capacity": 35,
    "openDays": [
      "平日",
      "祝日"
    ],
    "openDaysNote": ""
  },
  {
    "id": "670702091",
    "name": "デイサービスみんなの家",
    "kana": "デイサービスミンナノイエ",
    "address": "山形県鶴岡市齋藤川原字林俣234-28",
    "lat": 38.7105791,
    "lng": 139.8459479,
    "tel": "0235-26-8910",
    "url": "",
    "pref": "山形県",
    "city": "鶴岡市",
    "category": "day_service",
    "serviceType": "通所介護",
    "capacity": null,
    "openDays": [
      "平日",
      "土曜日",
      "日曜日",
      "祝日"
    ],
    "openDaysNote": ""
  },
  {
    "id": "673100046",
    "name": "デイサービス温寿荘",
    "kana": "デイサービスオンジュソウ",
    "address": "山形県鶴岡市槙代丁５３番地１",
    "lat": 38.6012141,
    "lng": 139.593908,
    "tel": "0235-43-2173",
    "url": "http://atsumifukusikai.jp",
    "pref": "山形県",
    "city": "鶴岡市",
    "category": "day_service",
    "serviceType": "通所介護",
    "capacity": 0,
    "openDays": [
      "平日",
      "祝日"
    ],
    "openDaysNote": "特になし"
  },
  {
    "id": "670700376",
    "name": "ニチイケアセンター鶴岡",
    "kana": "ニチイケアセンターツルオカ",
    "address": "山形県鶴岡市若葉町23番38号",
    "lat": 38.7317523,
    "lng": 139.8270361,
    "tel": "0235-29-6889",
    "url": "http://www.nichiigakkan.co.jp",
    "pref": "山形県",
    "city": "鶴岡市",
    "category": "day_service",
    "serviceType": "通所介護",
    "capacity": 0,
    "openDays": [
      "平日",
      "土曜日",
      "日曜日",
      "祝日"
    ],
    "openDaysNote": "但し、居宅介護サービス計画により、営業時間以外であってもサービスの提供を行う場合がある。"
  },
  {
    "id": "670700491",
    "name": "ニチイケアセンター鶴岡みさき",
    "kana": "ニチイケアセンターツルオカミサキ",
    "address": "山形県鶴岡市美咲町７－１６",
    "lat": 38.7359652,
    "lng": 139.80043,
    "tel": "0235-29-0305",
    "url": "http://www.nichiigakkan.co.jp",
    "pref": "山形県",
    "city": "鶴岡市",
    "category": "day_service",
    "serviceType": "通所介護",
    "capacity": 0,
    "openDays": [
      "平日",
      "土曜日",
      "日曜日",
      "祝日"
    ],
    "openDaysNote": "但し、居宅サービス計画により、休業日、営業時間外であってもサービスの提供を行う場合がある。"
  },
  {
    "id": "670701861",
    "name": "リラクゼーション型デイサービスふらっと",
    "kana": "リラクゼーションガタデイサービスフラット",
    "address": "山形県鶴岡市日和田町１９番地１",
    "lat": 38.7429969131306,
    "lng": 139.829413771202,
    "tel": "0235-29-2303",
    "url": "http://flat-yamagata.jp/index.html",
    "pref": "山形県",
    "city": "鶴岡市",
    "category": "day_service",
    "serviceType": "通所介護",
    "capacity": 25,
    "openDays": [
      "平日",
      "土曜日",
      "祝日"
    ],
    "openDaysNote": ""
  },
  {
    "id": "670700244",
    "name": "永寿荘デイサービスセンター",
    "kana": "エイジュソウデイサービスセンター",
    "address": "山形県鶴岡市茅原町２８番１０号",
    "lat": 38.7526249,
    "lng": 139.8424563,
    "tel": "0235-25-6111",
    "url": "http://www.keisen-swc.jp",
    "pref": "山形県",
    "city": "鶴岡市",
    "category": "day_service",
    "serviceType": "通所介護",
    "capacity": 0,
    "openDays": [
      "平日",
      "土曜日",
      "祝日"
    ],
    "openDaysNote": ""
  },
  {
    "id": "670701895",
    "name": "銀座夢ハウスデイサービスステーション",
    "kana": "ギンザユメハウスデイサービスステーション",
    "address": "山形県鶴岡市本町一丁目5番6号",
    "lat": 38.7283362885632,
    "lng": 139.831901390877,
    "tel": "0235-64-8800",
    "url": "",
    "pref": "山形県",
    "city": "鶴岡市",
    "category": "day_service",
    "serviceType": "通所介護",
    "capacity": 0,
    "openDays": [
      "平日",
      "土曜日",
      "祝日"
    ],
    "openDaysNote": ""
  },
  {
    "id": "670701887",
    "name": "古民家かふぇ　はなだま",
    "kana": "コミンカカフェ　ハナダマ",
    "address": "山形県鶴岡市民田字十二前１９６",
    "lat": 38.7009773,
    "lng": 139.8220541,
    "tel": "0235-64-8244",
    "url": "",
    "pref": "山形県",
    "city": "鶴岡市",
    "category": "day_service",
    "serviceType": "通所介護",
    "capacity": 25,
    "openDays": [
      "平日",
      "土曜日",
      "祝日"
    ],
    "openDaysNote": ""
  },
  {
    "id": "673000121",
    "name": "指定通所デイサービスセンターふじの花荘",
    "kana": "シテイツウショデイサービスセンターフジノハナソウ",
    "address": "山形県鶴岡市藤の花１丁目１８番地-1",
    "lat": 38.7725758722234,
    "lng": 139.908058638623,
    "tel": "0235-64-5880",
    "url": "http://www.fujino-sato.or.jp/dayservice/",
    "pref": "山形県",
    "city": "鶴岡市",
    "category": "day_service",
    "serviceType": "通所介護",
    "capacity": 50,
    "openDays": [
      "平日",
      "土曜日",
      "祝日"
    ],
    "openDaysNote": ""
  },
  {
    "id": "673000253",
    "name": "指定通所介護事業所「デイサービスセンターであい」",
    "kana": "シテイツウショカイゴジギョウショデイサービスセンターデアイ",
    "address": "山形県鶴岡市熊出字東村１５７－２",
    "lat": 38.6339028,
    "lng": 139.8500602,
    "tel": "0235-53-2850",
    "url": "httb://care-net.biz/o6/bunanoki/",
    "pref": "山形県",
    "city": "鶴岡市",
    "category": "day_service",
    "serviceType": "通所介護",
    "capacity": 0,
    "openDays": [
      "平日",
      "祝日"
    ],
    "openDaysNote": "電話により２４時間連絡が可能な体制にしている。"
  },
  {
    "id": "670701218",
    "name": "瑞穂の郷　デイサービスセンター本館",
    "kana": "ミズホノサト　デイサービスセンターホンカン",
    "address": "鶴岡市羽黒町細谷字北田１２８－１",
    "lat": 38.737413,
    "lng": 139.8616022,
    "tel": "0235-29-1025",
    "url": "http://www.hcp-net.co.jp",
    "pref": "山形県",
    "city": "鶴岡市",
    "category": "day_service",
    "serviceType": "通所介護",
    "capacity": 35,
    "openDays": [
      "平日",
      "土曜日",
      "祝日"
    ],
    "openDaysNote": ""
  },
  {
    "id": "670701119",
    "name": "福祉のひろば　いなおい",
    "kana": "フクシノヒロバ　イナオイ",
    "address": "鶴岡市稲生2丁目39番4号",
    "lat": 38.713009,
    "lng": 139.8044414,
    "tel": "0235-23-3205",
    "url": "http:/www.f-hiroba.co.jp/",
    "pref": "山形県",
    "city": "鶴岡市",
    "category": "day_service",
    "serviceType": "通所介護",
    "capacity": 44,
    "openDays": [
      "平日",
      "土曜日",
      "祝日"
    ],
    "openDaysNote": "休日、営業時間外は留守番電話にて対応いたします。"
  },
  {
    "id": "650780000",
    "name": "老人保健施設のぞみの園",
    "kana": "ロウジンホケンシセツノゾミノソノ",
    "address": "山形県鶴岡市茅原町２６－２３",
    "lat": 38.753822,
    "lng": 139.8412175,
    "tel": "0235-25-8255",
    "url": "http://www.mituwakai.com",
    "pref": "山形県",
    "city": "鶴岡市",
    "category": "day_service",
    "serviceType": "通所介護",
    "capacity": 30,
    "openDays": [
      "平日",
      "土曜日",
      "祝日"
    ],
    "openDaysNote": ""
  },
  {
    "id": "671600906",
    "name": "ソーシャル支援デイサービス",
    "kana": "ソーシャルシエンデイサービス",
    "address": "天童市中里7丁目3-13",
    "lat": 38.3257013,
    "lng": 140.362932,
    "tel": "023-655-5955",
    "url": "http://care-net.biz/06/office-yamagata/company.php",
    "pref": "山形県",
    "city": "天童市",
    "category": "day_service",
    "serviceType": "通所介護",
    "capacity": 10,
    "openDays": [
      "平日",
      "土曜日",
      "祝日"
    ],
    "openDaysNote": ""
  },
  {
    "id": "671600856",
    "name": "デイサービスセンターわらうつるかめ",
    "kana": "デイサービスセンターワラウツルカメ",
    "address": "山形県天童市北久野本１丁目２－３０",
    "lat": 38.3762577,
    "lng": 140.3737496,
    "tel": "023-687-1122",
    "url": "",
    "pref": "山形県",
    "city": "天童市",
    "category": "day_service",
    "serviceType": "通所介護",
    "capacity": 45,
    "openDays": [
      "平日",
      "土曜日",
      "祝日"
    ],
    "openDaysNote": ""
  },
  {
    "id": "671601151",
    "name": "デイフィットたび空",
    "kana": "デイフィットタビゾラ",
    "address": "山形県天童市一日町4丁目2ｰ6",
    "lat": 38.3471204161056,
    "lng": 140.368787880426,
    "tel": "023ｰ615ｰ9787",
    "url": "",
    "pref": "山形県",
    "city": "天童市",
    "category": "day_service",
    "serviceType": "通所介護",
    "capacity": 45,
    "openDays": [
      "平日",
      "祝日"
    ],
    "openDaysNote": "祝日は営業　土曜日稼働は2025年を予定"
  },
  {
    "id": "671600989",
    "name": "リハビリ特化型デイサービス　カラダラボ　天童老野森",
    "kana": "リハビリトッカガタデイサービス　カラダラボ　テンドウオイノモリ",
    "address": "山形県天童市老野森１丁目６－１０",
    "lat": 38.3649071,
    "lng": 140.3781427,
    "tel": "023-665-5893",
    "url": "",
    "pref": "山形県",
    "city": "天童市",
    "category": "day_service",
    "serviceType": "通所介護",
    "capacity": 35,
    "openDays": [
      "平日",
      "祝日"
    ],
    "openDaysNote": "祝祭日は営業しております。"
  },
  {
    "id": "671601052",
    "name": "介護予防センター歩くつるかめ",
    "kana": "カイゴヨボウセンターアルクツルカメ",
    "address": "山形県天童市北久野本二丁目4-6",
    "lat": 38.3759984959455,
    "lng": 140.378532180577,
    "tel": "023-674-0348",
    "url": "http://care-net.biz/06/turukame/",
    "pref": "山形県",
    "city": "天童市",
    "category": "day_service",
    "serviceType": "通所介護",
    "capacity": 0,
    "openDays": [
      "平日",
      "土曜日",
      "祝日"
    ],
    "openDaysNote": ""
  },
  {
    "id": "671600500",
    "name": "久遠の湯デイサービス",
    "kana": "クオンノユデイサービス",
    "address": "山形県天童市鎌田一丁目１－１１",
    "lat": 38.3605512,
    "lng": 140.3818883,
    "tel": "023-651-5667",
    "url": "http://www.kuon-tendo.jp",
    "pref": "山形県",
    "city": "天童市",
    "category": "day_service",
    "serviceType": "通所介護",
    "capacity": 0,
    "openDays": [
      "平日",
      "祝日"
    ],
    "openDaysNote": ""
  },
  {
    "id": "671600377",
    "name": "指定通所介護事業所　デイサービスセンターあこがれ",
    "kana": "シテイツウショカイゴジギョウショ　デイサービスセンターアコガレ",
    "address": "天童市大字荒谷1973番地1345",
    "lat": 38.3273018,
    "lng": 140.3871247,
    "tel": "023-652-2711",
    "url": "",
    "pref": "山形県",
    "city": "天童市",
    "category": "day_service",
    "serviceType": "通所介護",
    "capacity": 0,
    "openDays": [
      "平日",
      "土曜日",
      "祝日"
    ],
    "openDaysNote": ""
  },
  {
    "id": "671601078",
    "name": "社会福祉法人みらい　デイサービス　きらめきの里",
    "kana": "シャカイフクシホウジンミライ　デイサービス　キラメキノサト",
    "address": "山形県天童市大字山口4540-1",
    "lat": 38.3864044,
    "lng": 140.4089213,
    "tel": "023-665-5803",
    "url": "http://www.mirai-welfare.jp/",
    "pref": "山形県",
    "city": "天童市",
    "category": "day_service",
    "serviceType": "通所介護",
    "capacity": 0,
    "openDays": [
      "平日",
      "土曜日",
      "祝日"
    ],
    "openDaysNote": ""
  },
  {
    "id": "671600195",
    "name": "清幸園デイサービスセンター",
    "kana": "セイコウエンデイサービスセンター",
    "address": "天童市大清水４９１－１",
    "lat": 38.3875423,
    "lng": 140.3527558,
    "tel": "023-651-3326",
    "url": "http://www.seikouen.or.jp",
    "pref": "山形県",
    "city": "天童市",
    "category": "day_service",
    "serviceType": "通所介護",
    "capacity": 0,
    "openDays": [
      "平日",
      "土曜日",
      "祝日"
    ],
    "openDaysNote": "特になし"
  },
  {
    "id": "671600617",
    "name": "天童デイサービスセンター　となりのつるかめ",
    "kana": "テンドウデイサービスセンター　トナリノツルカメ",
    "address": "山形県天童市大字小関1204-6",
    "lat": 38.3632059,
    "lng": 140.3624621,
    "tel": "023-676-7755",
    "url": "http://care-net.biz/06/turukame/",
    "pref": "山形県",
    "city": "天童市",
    "category": "day_service",
    "serviceType": "通所介護",
    "capacity": 10,
    "openDays": [
      "平日",
      "土曜日",
      "祝日"
    ],
    "openDaysNote": "特になし"
  },
  {
    "id": "671600468",
    "name": "天童デイサービスセンターつるかめ",
    "kana": "テンドウデイサービスセンターツルカメ",
    "address": "山形県天童市大字小関１２０４－５",
    "lat": 38.3634559,
    "lng": 140.3625205,
    "tel": "023-654-6478",
    "url": "http://care-net.biz/06/turukame/index.php",
    "pref": "山形県",
    "city": "天童市",
    "category": "day_service",
    "serviceType": "通所介護",
    "capacity": 45,
    "openDays": [
      "平日",
      "土曜日",
      "祝日"
    ],
    "openDaysNote": ""
  },
  {
    "id": "671600609",
    "name": "天童もみじ館",
    "kana": "テンドウモミジカン",
    "address": "山形県天童市鎌田1-6-37",
    "lat": 38.3592597,
    "lng": 140.3858853,
    "tel": "023-652-0223",
    "url": "http://www.t-fukushi-service.co.jp/",
    "pref": "山形県",
    "city": "天童市",
    "category": "day_service",
    "serviceType": "通所介護",
    "capacity": 50,
    "openDays": [
      "平日",
      "土曜日",
      "日曜日",
      "祝日"
    ],
    "openDaysNote": ""
  },
  {
    "id": "671600187",
    "name": "明幸園デイサービスセンター",
    "kana": "メイコウエンデイサービスセンター",
    "address": "山形県天童市大字矢野目150番地",
    "lat": 38.3531371,
    "lng": 140.350452,
    "tel": "023-653-1530",
    "url": "http://www.meikouen.or.jp",
    "pref": "山形県",
    "city": "天童市",
    "category": "day_service",
    "serviceType": "通所介護",
    "capacity": 0,
    "openDays": [
      "平日",
      "土曜日",
      "祝日"
    ],
    "openDaysNote": "なし"
  },
  {
    "id": "671700482",
    "name": "デイこもれび",
    "kana": "デイコモレビ",
    "address": "山形県東根市中央四丁目３番１０号",
    "lat": 38.4341305123881,
    "lng": 140.393106655811,
    "tel": "0237-53-0212",
    "url": "http://higashine-komorebi.com/",
    "pref": "山形県",
    "city": "東根市",
    "category": "day_service",
    "serviceType": "通所介護",
    "capacity": 20,
    "openDays": [
      "平日",
      "祝日"
    ],
    "openDaysNote": ""
  },
  {
    "id": "671700615",
    "name": "デイサービス　まごころ",
    "kana": "デイサービス　マゴコロ",
    "address": "山形県東根市中央一丁目11-3ー ー",
    "lat": 38.4325122677052,
    "lng": 140.392727928989,
    "tel": "0237-53-6636",
    "url": "https://dayservicemagokoro.jimdo.com/",
    "pref": "山形県",
    "city": "東根市",
    "category": "day_service",
    "serviceType": "通所介護",
    "capacity": 30,
    "openDays": [
      "平日",
      "土曜日",
      "祝日"
    ],
    "openDaysNote": ""
  },
  {
    "id": "671700342",
    "name": "デイサービスセンターおさなぎ",
    "kana": "デイサービスセンターオサナギ",
    "address": "山形県東根市中島通り一丁目25号",
    "lat": 38.411682,
    "lng": 140.4028433,
    "tel": "0237-47-1234",
    "url": "https://ims-tohoku.com>osanagi",
    "pref": "山形県",
    "city": "東根市",
    "category": "day_service",
    "serviceType": "通所介護",
    "capacity": 35,
    "openDays": [
      "平日",
      "土曜日",
      "祝日"
    ],
    "openDaysNote": ""
  },
  {
    "id": "671700169",
    "name": "デイサービスセンター第二白水荘",
    "kana": "デイサービスセンターダイニシロミズソウ",
    "address": "東根市大字蟹沢897-1",
    "lat": 38.4442363,
    "lng": 140.3693611,
    "tel": "0237-41-1132",
    "url": "http://www.shiromizu.org",
    "pref": "山形県",
    "city": "東根市",
    "category": "day_service",
    "serviceType": "通所介護",
    "capacity": 0,
    "openDays": [
      "平日",
      "土曜日",
      "祝日"
    ],
    "openDaysNote": "特になし。"
  },
  {
    "id": "671700136",
    "name": "デイサービスセンター白水荘",
    "kana": "デイサービスセンターシロミズソウ",
    "address": "山形県東根市大字野川2074番地の99",
    "lat": 38.4087471,
    "lng": 140.4315993,
    "tel": "0237-44-2784",
    "url": "http://www.higashine-fukushikai.org",
    "pref": "山形県",
    "city": "東根市",
    "category": "day_service",
    "serviceType": "通所介護",
    "capacity": 0,
    "openDays": [
      "平日",
      "土曜日",
      "祝日"
    ],
    "openDaysNote": ""
  },
  {
    "id": "671700110",
    "name": "ニチイケアセンター東根",
    "kana": "ニチイケアセンターヒガシネ",
    "address": "山形県東根市神町東1-17-30",
    "lat": 38.4102707,
    "lng": 140.383864,
    "tel": "0237-49-1553",
    "url": "http://www.nichiigakkan.co.jp",
    "pref": "山形県",
    "city": "東根市",
    "category": "day_service",
    "serviceType": "通所介護",
    "capacity": 0,
    "openDays": [
      "平日",
      "土曜日",
      "日曜日",
      "祝日"
    ],
    "openDaysNote": "居宅サービス計画により、休業日及び営業時間外であっても、サービスを提供する場合があります。"
  },
  {
    "id": "671700367",
    "name": "ほっとデイサ-ビスセンター水晶館",
    "kana": "ホットデイサービスセンタースイショウカン",
    "address": "東根市温泉町1-15-10",
    "lat": 38.4566381,
    "lng": 140.3924627,
    "tel": "0237-43-2133",
    "url": "hot.s@extra.ocn.ne.jp",
    "pref": "山形県",
    "city": "東根市",
    "category": "day_service",
    "serviceType": "通所介護",
    "capacity": 0,
    "openDays": [
      "平日",
      "土曜日",
      "祝日"
    ],
    "openDaysNote": ""
  },
  {
    "id": "671700656",
    "name": "ゆいケア",
    "kana": "ユイケア",
    "address": "山形県東根市温泉町二丁目２番２０号",
    "lat": 38.4587691,
    "lng": 140.3894671,
    "tel": "０２３７－４３－５６７８",
    "url": "",
    "pref": "山形県",
    "city": "東根市",
    "category": "day_service",
    "serviceType": "通所介護",
    "capacity": null,
    "openDays": [
      "平日",
      "土曜日",
      "日曜日",
      "祝日"
    ],
    "openDaysNote": ""
  },
  {
    "id": "671700557",
    "name": "月あかり神町",
    "kana": "ツキアカリジンマチ",
    "address": "山形県東根市神町北4-2-3",
    "lat": 38.417057,
    "lng": 140.3855175,
    "tel": "0237-53-1889",
    "url": "http://www.t-fukushi-service.co.jp",
    "pref": "山形県",
    "city": "東根市",
    "category": "day_service",
    "serviceType": "通所介護",
    "capacity": 0,
    "openDays": [
      "平日",
      "土曜日",
      "日曜日",
      "祝日"
    ],
    "openDaysNote": "年末年始期間も休まず営業しております。"
  },
  {
    "id": "671700466",
    "name": "宅老所じんまち",
    "kana": "タクロウショジンマチ",
    "address": "山形県東根市神町西３丁目4-62",
    "lat": 38.4124843,
    "lng": 140.3751254,
    "tel": "0237-49-1556",
    "url": "http://www.fukushi-service.co.jp",
    "pref": "山形県",
    "city": "東根市",
    "category": "day_service",
    "serviceType": "通所介護",
    "capacity": 35,
    "openDays": [
      "平日",
      "土曜日",
      "日曜日",
      "祝日"
    ],
    "openDaysNote": "年末年始も休まず営業しています。"
  },
  {
    "id": "671700458",
    "name": "通所介護事業所ソーレ東根",
    "kana": "ツウショカイゴジギョウショソーレヒガシネ",
    "address": "山形県東根市温泉町二丁目5番3-5号",
    "lat": 38.4600765,
    "lng": 140.3881603,
    "tel": "0237-53-8803",
    "url": "https://www.taiyo-fukushikai.jp",
    "pref": "山形県",
    "city": "東根市",
    "category": "day_service",
    "serviceType": "通所介護",
    "capacity": 30,
    "openDays": [
      "平日",
      "土曜日",
      "祝日"
    ],
    "openDaysNote": ""
  },
  {
    "id": "671900264",
    "name": "ケアステージARK赤湯駅西",
    "kana": "ケアステージアルクアカユエキニシ",
    "address": "山形県南陽市島貫599番地4",
    "lat": 38.0473704145449,
    "lng": 140.144452228914,
    "tel": "0238-50-1422",
    "url": "http://www.tokoshie.net",
    "pref": "山形県",
    "city": "南陽市",
    "category": "day_service",
    "serviceType": "通所介護",
    "capacity": 0,
    "openDays": [
      "平日",
      "土曜日",
      "日曜日",
      "祝日"
    ],
    "openDaysNote": "なし"
  },
  {
    "id": "671900520",
    "name": "デイサービス　カインド・ホーム萩生田",
    "kana": "デイサービス　カインド・ホームハギウダ",
    "address": "山形県南陽市萩生田1114-5",
    "lat": 38.0529877,
    "lng": 140.1420142,
    "tel": "0238-43-6523",
    "url": "",
    "pref": "山形県",
    "city": "南陽市",
    "category": "day_service",
    "serviceType": "通所介護",
    "capacity": 0,
    "openDays": [
      "平日",
      "土曜日"
    ],
    "openDaysNote": "年末年始は12月30日～1月3日まで"
  },
  {
    "id": "671900595",
    "name": "リハビリデイ　てのひら",
    "kana": "リハビリデイ　テノヒラ",
    "address": "山形県南陽市宮内2833-38",
    "lat": 38.0693178,
    "lng": 140.1326854,
    "tel": "0238-40-1511",
    "url": "reha-tenohira.com",
    "pref": "山形県",
    "city": "南陽市",
    "category": "day_service",
    "serviceType": "通所介護",
    "capacity": 0,
    "openDays": [
      "平日"
    ],
    "openDaysNote": ""
  },
  {
    "id": "671900124",
    "name": "南陽市社会福祉協議会　通所介護事業所",
    "kana": "ナンヨウシシャカイフクシキョウギカイ　ツウショカイゴジギョウショ",
    "address": "山形県南陽市赤湯215番地の2",
    "lat": 38.0466121,
    "lng": 140.1663002,
    "tel": "0238-43-3288",
    "url": "http://www.nanyoshishakyo.or.jp",
    "pref": "山形県",
    "city": "南陽市",
    "category": "day_service",
    "serviceType": "通所介護",
    "capacity": 0,
    "openDays": [
      "平日"
    ],
    "openDaysNote": ""
  },
  {
    "id": "671900165",
    "name": "老人デイサービスセンター太陽の里ふたば",
    "kana": "ロウジンデイサービスセンタータイヨウノサトフタバ",
    "address": "山形県南陽市宮内２３８１番地",
    "lat": 38.072678,
    "lng": 140.1451079,
    "tel": "0238-59-4321",
    "url": "http://futaba-nanyo.sakura.ne.jp/",
    "pref": "山形県",
    "city": "南陽市",
    "category": "day_service",
    "serviceType": "通所介護",
    "capacity": 0,
    "openDays": [
      "平日",
      "土曜日"
    ],
    "openDaysNote": "なし"
  },
  {
    "id": "672700135",
    "name": "白光園デイサービスセンター",
    "kana": "ハッコウエンデイサービスセンター",
    "address": "山形県西置賜郡白鷹町大字荒砥甲377番地",
    "lat": 38.1829865,
    "lng": 140.093327,
    "tel": "0238-85-0033",
    "url": "http://www.shirafuku.jp/",
    "pref": "山形県",
    "city": "白鷹町",
    "category": "day_service",
    "serviceType": "通所介護",
    "capacity": 60,
    "openDays": [
      "平日",
      "土曜日",
      "祝日"
    ],
    "openDaysNote": ""
  },
  {
    "id": "672700432",
    "name": "白鷹介護サービスセンターふれあいの里",
    "kana": "シラタカカイゴサービスセンターフレアイノサト",
    "address": "山形県西置賜郡白鷹町大字畔藤５０４９",
    "lat": 38.1645659,
    "lng": 140.0854201,
    "tel": "0238-85-3332",
    "url": "",
    "pref": "山形県",
    "city": "白鷹町",
    "category": "day_service",
    "serviceType": "通所介護",
    "capacity": 0,
    "openDays": [
      "平日",
      "土曜日",
      "日曜日",
      "祝日"
    ],
    "openDaysNote": ""
  },
  {
    "id": "672700499",
    "name": "日帰り介護センター福祉の里めざみ",
    "kana": "ヒガエリカイゴセンターフクシノサトメザミ",
    "address": "山形県西置賜郡飯豊町大字椿3642",
    "lat": 38.044444,
    "lng": 139.9951269,
    "tel": "0238-86-2237",
    "url": "http://iide-shakyo.jp/",
    "pref": "山形県",
    "city": "飯豊町",
    "category": "day_service",
    "serviceType": "通所介護",
    "capacity": null,
    "openDays": [
      "平日",
      "土曜日",
      "祝日"
    ],
    "openDaysNote": ""
  },
  {
    "id": "671800282",
    "name": "デイサービスセンターよつば荘",
    "kana": "デイサービスセンターヨツバソウ",
    "address": "山形県尾花沢市大字荻袋１２８７番地20",
    "lat": 38.624532235018,
    "lng": 140.381491007547,
    "tel": "0237-24-3678",
    "url": "https://www.yotsubasou-kaigo.com/",
    "pref": "山形県",
    "city": "尾花沢市",
    "category": "day_service",
    "serviceType": "通所介護",
    "capacity": 0,
    "openDays": [
      "平日",
      "祝日"
    ],
    "openDaysNote": ""
  },
  {
    "id": "671800183",
    "name": "通所介護事業所まごころの家",
    "kana": "ツウショカイゴジギョウショマゴコロノイエ",
    "address": "山形県尾花沢市大字芦沢1216番地1",
    "lat": 38.6569968,
    "lng": 140.3620491,
    "tel": "0237-24-3838",
    "url": "http://www.tenpress.jp/~care-service/",
    "pref": "山形県",
    "city": "尾花沢市",
    "category": "day_service",
    "serviceType": "通所介護",
    "capacity": 0,
    "openDays": [
      "平日",
      "土曜日",
      "日曜日",
      "祝日"
    ],
    "openDaysNote": "特になし"
  },
  {
    "id": "671800126",
    "name": "尾花沢市社会福祉協議会通所介護事業所",
    "kana": "オバナザワシシャカイフクシキョウギカイツウショカイゴジギョウショ",
    "address": "山形県尾花沢市新町３丁目２番５号",
    "lat": 38.6040564521894,
    "lng": 140.412989898811,
    "tel": "0237-22-1075",
    "url": "http://www.obanazawa-syakyo.jp/index.html",
    "pref": "山形県",
    "city": "尾花沢市",
    "category": "day_service",
    "serviceType": "通所介護",
    "capacity": 0,
    "openDays": [
      "平日",
      "土曜日",
      "祝日"
    ],
    "openDaysNote": "利用日の変更などは随時対応できるよう相談に応じております。"
  },
  {
    "id": "671800076",
    "name": "老人デイサービスセンター長寿園",
    "kana": "ロウジンデイサービスセンターチョウジュエン",
    "address": "尾花沢市新町三丁目2番21号",
    "lat": 38.6046324,
    "lng": 140.4149844,
    "tel": "0237-22-1325",
    "url": "http://www.tokurakai.jp/",
    "pref": "山形県",
    "city": "尾花沢市",
    "category": "day_service",
    "serviceType": "通所介護",
    "capacity": 40,
    "openDays": [
      "平日",
      "祝日"
    ],
    "openDaysNote": ""
  },
  {
    "id": "670401017",
    "name": "JA山形おきたまデイサービスセンター愛遊",
    "kana": "ジェイエイヤマガタオキタマデイサービスセンターアイユウ",
    "address": "山形県米沢市広幡町上小菅638-4",
    "lat": 37.9458112,
    "lng": 140.0787197,
    "tel": "0238-36-0336",
    "url": "https://www.okitama-yt-ja.or.jp/",
    "pref": "山形県",
    "city": "米沢市",
    "category": "day_service",
    "serviceType": "通所介護",
    "capacity": 28,
    "openDays": [
      "平日",
      "土曜日",
      "祝日"
    ],
    "openDaysNote": "年末年始　12月31日～1月3日休業"
  },
  {
    "id": "670401264",
    "name": "いちごのこころ",
    "kana": "イチゴノココロ",
    "address": "山形県米沢市泉町２丁目１番６号",
    "lat": 37.8954709939578,
    "lng": 140.102941375919,
    "tel": "0238-38-7030",
    "url": "https://nagomi-calm.com",
    "pref": "山形県",
    "city": "米沢市",
    "category": "day_service",
    "serviceType": "通所介護",
    "capacity": 0,
    "openDays": [
      "平日",
      "土曜日",
      "祝日"
    ],
    "openDaysNote": ""
  },
  {
    "id": "670400449",
    "name": "おいたまの郷指定通所介護事業所",
    "kana": "オイタマノサトシテイツウショカイゴジギョウショ",
    "address": "米沢市下新田２８番地",
    "lat": 37.9595032,
    "lng": 140.1482283,
    "tel": "0238-37-7788",
    "url": "http://oitamanosato.jp",
    "pref": "山形県",
    "city": "米沢市",
    "category": "day_service",
    "serviceType": "通所介護",
    "capacity": 0,
    "openDays": [
      "平日",
      "土曜日",
      "日曜日",
      "祝日"
    ],
    "openDaysNote": "なし"
  },
  {
    "id": "670401843",
    "name": "スマート倶楽部",
    "kana": "スマートクラブ",
    "address": "山形県米沢市駅前1丁目1番110号",
    "lat": 37.9085180798645,
    "lng": 140.129682540892,
    "tel": "0238-40-0630",
    "url": "http://www.smartlife-jpn.co.jp/smartclub/",
    "pref": "山形県",
    "city": "米沢市",
    "category": "day_service",
    "serviceType": "通所介護",
    "capacity": 0,
    "openDays": [
      "平日",
      "土曜日",
      "祝日"
    ],
    "openDaysNote": ""
  },
  {
    "id": "670402056",
    "name": "ツクイ米沢",
    "kana": "ツクイヨネザワ",
    "address": "山形県米沢市栄町1-4",
    "lat": 37.9161692265697,
    "lng": 140.114475588361,
    "tel": "0238-24-2539",
    "url": "http://tsukui-hd.co.jp",
    "pref": "山形県",
    "city": "米沢市",
    "category": "day_service",
    "serviceType": "通所介護",
    "capacity": 0,
    "openDays": [
      "平日",
      "土曜日",
      "日曜日",
      "祝日"
    ],
    "openDaysNote": ""
  },
  {
    "id": "670400902",
    "name": "デイサービスセンター　楓の家",
    "kana": "デイサービスセンター　カエデノイエ",
    "address": "山形県米沢市金池6丁目8番26号",
    "lat": 37.9276283,
    "lng": 140.1158474,
    "tel": "0238-21-7222",
    "url": "http://www.ryokuaikai.com/",
    "pref": "山形県",
    "city": "米沢市",
    "category": "day_service",
    "serviceType": "通所介護",
    "capacity": 30,
    "openDays": [
      "平日",
      "土曜日",
      "日曜日",
      "祝日"
    ],
    "openDaysNote": "無し"
  },
  {
    "id": "670401884",
    "name": "デイサービスセンター　夢のみずうみ村　すまいる",
    "kana": "デイサービスセンター　ユメノミズウミムラ　スマイル",
    "address": "山形県米沢市成島町３丁目２番９１号",
    "lat": 37.9235374037864,
    "lng": 140.089580977493,
    "tel": "０２３８－４０－８５１２",
    "url": "http://care-net.biz/06/yasuragi/",
    "pref": "山形県",
    "city": "米沢市",
    "category": "day_service",
    "serviceType": "通所介護",
    "capacity": 30,
    "openDays": [
      "平日",
      "土曜日",
      "祝日"
    ],
    "openDaysNote": "＊盆休8月13日～14日　年末12月31日～1月3日"
  },
  {
    "id": "670400332",
    "name": "デイサービスセンター「さんデイケア」",
    "kana": "デイサービスセンター「サンデイケア」",
    "address": "米沢市大字簗沢３４６３",
    "lat": 37.8886862,
    "lng": 140.0519894,
    "tel": "0238-32-2030",
    "url": "http://kouwakai.jp/",
    "pref": "山形県",
    "city": "米沢市",
    "category": "day_service",
    "serviceType": "通所介護",
    "capacity": 35,
    "openDays": [
      "平日",
      "土曜日",
      "祝日"
    ],
    "openDaysNote": "なし"
  },
  {
    "id": "670400704",
    "name": "デイサービスセンターサンファミリア米沢",
    "kana": "デイサービスセンターサンファミリアヨネザワ",
    "address": "山形県米沢市塩井町塩野５２０番地",
    "lat": 37.9282571601614,
    "lng": 140.110420111639,
    "tel": "0238-26-8258",
    "url": "http://y-kowakaijp/sannfamiria-kaigo",
    "pref": "山形県",
    "city": "米沢市",
    "category": "day_service",
    "serviceType": "通所介護",
    "capacity": 10,
    "openDays": [
      "平日",
      "土曜日",
      "祝日"
    ],
    "openDaysNote": "なし"
  },
  {
    "id": "670401413",
    "name": "ディサービスセンター結いのき",
    "kana": "ディサービスセンターユイノキ",
    "address": "山形県米沢市花沢町2686-4",
    "lat": 37.918763255627,
    "lng": 140.122722296375,
    "tel": "0238-27-1228",
    "url": "https://yuinoki.or.jp",
    "pref": "山形県",
    "city": "米沢市",
    "category": "day_service",
    "serviceType": "通所介護",
    "capacity": 0,
    "openDays": [
      "平日",
      "土曜日",
      "祝日"
    ],
    "openDaysNote": ""
  },
  {
    "id": "670401223",
    "name": "デイサービスセンター東陽館",
    "kana": "デイサービスセンタートウヨウカン",
    "address": "山形県米沢市城北1丁目2-5地域ケアセンター東陽館 地域ケアセンター東陽館",
    "lat": 37.9141982461944,
    "lng": 140.106043411709,
    "tel": "0238-27-8187",
    "url": "http://care-net.biz/06/touyoukan/",
    "pref": "山形県",
    "city": "米沢市",
    "category": "day_service",
    "serviceType": "通所介護",
    "capacity": 25,
    "openDays": [
      "平日",
      "土曜日",
      "祝日"
    ],
    "openDaysNote": "特になし"
  },
  {
    "id": "670401629",
    "name": "デイサービス回春堂花沢",
    "kana": "デイサービスカイシュンドウハナザワ",
    "address": "米沢市大字花沢2986番地の1",
    "lat": 37.9221709,
    "lng": 140.1238692,
    "tel": "0238-26-8851",
    "url": "https://kaisyundo.jp/",
    "pref": "山形県",
    "city": "米沢市",
    "category": "day_service",
    "serviceType": "通所介護",
    "capacity": 0,
    "openDays": [
      "平日",
      "土曜日",
      "祝日"
    ],
    "openDaysNote": "祝日も営業"
  },
  {
    "id": "670400811",
    "name": "ニチイケアセンター西米沢",
    "kana": "ニチイケアセンターニシヨネザワ",
    "address": "山形県米沢市成島町2丁目1-110-16",
    "lat": 37.9210976,
    "lng": 140.0852678,
    "tel": "0238-37-0725",
    "url": "http://www.nichiigakkan.jp",
    "pref": "山形県",
    "city": "米沢市",
    "category": "day_service",
    "serviceType": "通所介護",
    "capacity": 0,
    "openDays": [
      "平日",
      "土曜日",
      "日曜日",
      "祝日"
    ],
    "openDaysNote": ""
  },
  {
    "id": "670400357",
    "name": "ニチイケアセンター米沢",
    "kana": "ニチイケアセンターヨネザワ",
    "address": "米沢市金池５丁目１３－２１",
    "lat": 37.9251676,
    "lng": 140.1191084,
    "tel": "0238-26-5222",
    "url": "http://www.nichiigakkan.co.jp",
    "pref": "山形県",
    "city": "米沢市",
    "category": "day_service",
    "serviceType": "通所介護",
    "capacity": 35,
    "openDays": [
      "平日",
      "土曜日",
      "日曜日",
      "祝日"
    ],
    "openDaysNote": ""
  },
  {
    "id": "670401132",
    "name": "ラベンダーの丘　れんげ草",
    "kana": "ラベンダーノオカ　レンゲソウ",
    "address": "山形県米沢市直江石堤２８－２",
    "lat": 37.8747846,
    "lng": 140.1172844,
    "tel": "0238-38-4032",
    "url": "",
    "pref": "山形県",
    "city": "米沢市",
    "category": "day_service",
    "serviceType": "通所介護",
    "capacity": 0,
    "openDays": [
      "平日"
    ],
    "openDaysNote": "特になし"
  },
  {
    "id": "670402098",
    "name": "レッツ倶楽部米沢徳町",
    "kana": "レッツクラブヨネザワトクマチ",
    "address": "山形県米沢市徳町225-1",
    "lat": 37.9260706,
    "lng": 140.1021747,
    "tel": "0238-40-8851",
    "url": "sakizaki-anshin.com",
    "pref": "山形県",
    "city": "米沢市",
    "category": "day_service",
    "serviceType": "通所介護",
    "capacity": 0,
    "openDays": [
      "平日",
      "土曜日",
      "祝日"
    ],
    "openDaysNote": ""
  },
  {
    "id": "670400365",
    "name": "回春堂デイサービスセンター",
    "kana": "カイシュンドウデイサービスセンター",
    "address": "米沢市駅前2丁目5番7号",
    "lat": 37.9098112,
    "lng": 140.1214762,
    "tel": "0238-21-2122",
    "url": "http://kaisyundo.jp/",
    "pref": "山形県",
    "city": "米沢市",
    "category": "day_service",
    "serviceType": "通所介護",
    "capacity": 0,
    "openDays": [
      "平日",
      "土曜日",
      "祝日"
    ],
    "openDaysNote": ""
  },
  {
    "id": "670401835",
    "name": "笑楽び塾",
    "kana": "ワラビジュク",
    "address": "山形県米沢市東大通一丁目２番３４号２",
    "lat": 37.8883225,
    "lng": 140.1363314,
    "tel": "0238-37-1730",
    "url": "https://nagomi-calm.com",
    "pref": "山形県",
    "city": "米沢市",
    "category": "day_service",
    "serviceType": "通所介護",
    "capacity": null,
    "openDays": [
      "平日",
      "祝日"
    ],
    "openDaysNote": "１日ご利用の場合　9：00～16：15（改行）半日ご利用の場合　午前の部　9:00～12：15　　　午後の部　13：00～16：15"
  },
  {
    "id": "670400308",
    "name": "成島園デイサービスセンター",
    "kana": "ナルシマエンデイサービスセンター",
    "address": "山形県米沢市広幡町成島字窪平山2120番地5",
    "lat": 37.9346819,
    "lng": 140.0778455,
    "tel": "0238-37-4048",
    "url": "http://narusimaen.org/",
    "pref": "山形県",
    "city": "米沢市",
    "category": "day_service",
    "serviceType": "通所介護",
    "capacity": 0,
    "openDays": [
      "平日",
      "祝日"
    ],
    "openDaysNote": "12/31、1/1については、相談に応じて営業します。"
  },
  {
    "id": "670400274",
    "name": "万世園デイサービスセンター",
    "kana": "バンセイエンデイサービスセンター",
    "address": "山形県米沢市万世町牛森4172-5",
    "lat": 37.8853267,
    "lng": 140.2057705,
    "tel": "0238-28-1480",
    "url": "",
    "pref": "山形県",
    "city": "米沢市",
    "category": "day_service",
    "serviceType": "通所介護",
    "capacity": 0,
    "openDays": [
      "平日",
      "土曜日",
      "祝日"
    ],
    "openDaysNote": "特になし。"
  },
  {
    "id": "673200465",
    "name": "デイサービス「のどか」",
    "kana": "デイサービス「ノドカ」",
    "address": "飽海郡遊佐町庄泉字大谷地467",
    "lat": 39.0044129109266,
    "lng": 139.871390949074,
    "tel": "0234-75-3210",
    "url": "",
    "pref": "山形県",
    "city": "遊佐町",
    "category": "day_service",
    "serviceType": "通所介護",
    "capacity": 0,
    "openDays": [
      "平日",
      "土曜日",
      "日曜日",
      "祝日"
    ],
    "openDaysNote": "なし"
  },
  {
    "id": "673200184",
    "name": "デイサービスセンターあいあい",
    "kana": "デイサービスセンターアイアイ",
    "address": "山形県飽海郡遊佐町遊佐字木ノ下2",
    "lat": 39.0112776,
    "lng": 139.9190369,
    "tel": "0234-71-2144",
    "url": "https://www.yuzakouseikai.or.jp/yusui/",
    "pref": "山形県",
    "city": "遊佐町",
    "category": "day_service",
    "serviceType": "通所介護",
    "capacity": 0,
    "openDays": [
      "平日",
      "土曜日",
      "日曜日",
      "祝日"
    ],
    "openDaysNote": ""
  },
  {
    "id": "673200499",
    "name": "デイサービスセンターキャット遊佐",
    "kana": "デイサービスセンターキャットユザ",
    "address": "山形県飽海郡遊佐町菅里字十里塚193番32",
    "lat": 39.0487363,
    "lng": 139.8709103,
    "tel": "0234-71-6122",
    "url": "http://catsgp.com",
    "pref": "山形県",
    "city": "遊佐町",
    "category": "day_service",
    "serviceType": "通所介護",
    "capacity": 0,
    "openDays": [
      "平日",
      "土曜日",
      "日曜日",
      "祝日"
    ],
    "openDaysNote": "年末年始休業（12/31～1/3）"
  }
]