[
  {
    "id": "3570203913",
    "name": "JA山口県デイサービス宇部",
    "kana": "ジェイエイヤマグチケンデイサービスウベ",
    "address": "山口県宇部市厚南中央一丁目7番10号",
    "lat": 33.9959439,
    "lng": 131.2202378,
    "tel": "0836-45-0320",
    "url": "",
    "pref": "山口県",
    "city": "宇部市",
    "category": "day_service",
    "serviceType": "通所介護",
    "capacity": 0,
    "openDays": [
      "平日",
      "土曜日",
      "祝日"
    ],
    "openDaysNote": ""
  },
  {
    "id": "3570202816",
    "name": "あさひデイサービスセンター則貞",
    "kana": "アサヒデイサービスセンターノリサダ",
    "address": "宇部市則貞三丁目10番41号",
    "lat": 33.9445043,
    "lng": 131.2801701,
    "tel": "0836-38-3545",
    "url": "http://www.asahicorporation.co.jp",
    "pref": "山口県",
    "city": "宇部市",
    "category": "day_service",
    "serviceType": "通所介護",
    "capacity": 25,
    "openDays": [
      "平日",
      "祝日"
    ],
    "openDaysNote": ""
  },
  {
    "id": "3570200281",
    "name": "アスワン山荘デイサービスセンター",
    "kana": "アスワンサンソウデイサービスセンター",
    "address": "山口県宇部市二俣瀬山王坂40-221",
    "lat": 34.0634174634583,
    "lng": 131.282005886575,
    "tel": "0836-62-2000",
    "url": "https://www.asuwansansou.jp/",
    "pref": "山口県",
    "city": "宇部市",
    "category": "day_service",
    "serviceType": "通所介護",
    "capacity": 33,
    "openDays": [
      "平日",
      "祝日"
    ],
    "openDaysNote": "特になし"
  },
  {
    "id": "3570202824",
    "name": "かわ村デイサービスセンター",
    "kana": "カワムラデイサービスセンター",
    "address": "宇部市大字川上720－9",
    "lat": 33.9934746,
    "lng": 131.2764549,
    "tel": "0836－37－0007",
    "url": "http://kawamura-fs.com/",
    "pref": "山口県",
    "city": "宇部市",
    "category": "day_service",
    "serviceType": "通所介護",
    "capacity": 75,
    "openDays": [
      "平日",
      "土曜日",
      "日曜日",
      "祝日"
    ],
    "openDaysNote": ""
  },
  {
    "id": "3570203947",
    "name": "かわ村デイサービスセンター宇部南",
    "kana": "カワムラデイサービスセンターウベミナミ",
    "address": "山口県宇部市浜町２丁目１１番地１２",
    "lat": 33.9655124,
    "lng": 131.2340547,
    "tel": "0836-37-3838",
    "url": "www.kawamura-fs.com/",
    "pref": "山口県",
    "city": "宇部市",
    "category": "day_service",
    "serviceType": "通所介護",
    "capacity": 35,
    "openDays": [
      "平日",
      "土曜日",
      "日曜日",
      "祝日"
    ],
    "openDaysNote": ""
  },
  {
    "id": "3570203418",
    "name": "かわ村デイサービスセンター海の家",
    "kana": "カワムラデイサービスセンターウミノイエ",
    "address": "山口県宇部市大字東岐波１４６４番地１",
    "lat": 33.9838378,
    "lng": 131.348814,
    "tel": "０８３６－５８－５５１１",
    "url": "http://www.kawamura-fs.com/",
    "pref": "山口県",
    "city": "宇部市",
    "category": "day_service",
    "serviceType": "通所介護",
    "capacity": 35,
    "openDays": [
      "平日",
      "土曜日",
      "日曜日",
      "祝日"
    ],
    "openDaysNote": "営業時間外、営業日以外でも転送電話にて相談を受け付けております。"
  },
  {
    "id": "3570202618",
    "name": "きわなみ苑デイサービスセンター",
    "kana": "キワナミエンデイサービスセンター",
    "address": "大字際波663番地3",
    "lat": 33.9932483,
    "lng": 131.2237859,
    "tel": "0836-39-9087",
    "url": "https://kiwanami-kaigo.com/",
    "pref": "山口県",
    "city": "宇部市",
    "category": "day_service",
    "serviceType": "通所介護",
    "capacity": 0,
    "openDays": [
      "平日",
      "土曜日",
      "祝日"
    ],
    "openDaysNote": ""
  },
  {
    "id": "3570202717",
    "name": "ケアビレジ桜　弐番館デイサービス",
    "kana": "ケアビレッジサクラ　ニバンカンデイサービス",
    "address": "宇部市大字西岐波２０６６番地",
    "lat": 33.9615723,
    "lng": 131.2952492,
    "tel": "0836-51-3386",
    "url": "https://keahouse-sakura.jp/",
    "pref": "山口県",
    "city": "宇部市",
    "category": "day_service",
    "serviceType": "通所介護",
    "capacity": 0,
    "openDays": [
      "平日",
      "土曜日",
      "祝日"
    ],
    "openDaysNote": ""
  },
  {
    "id": "3570202105",
    "name": "ケアビレッジきわなみデイサービスセンター",
    "kana": "ケアビレッジキワナミデイサーイスセンター",
    "address": "山口県宇部市大字際波725番地6",
    "lat": 33.9943621,
    "lng": 131.2225915,
    "tel": "0836-39-3313",
    "url": "https://kiwanami-kaigo.com/",
    "pref": "山口県",
    "city": "宇部市",
    "category": "day_service",
    "serviceType": "通所介護",
    "capacity": 6,
    "openDays": [
      "平日",
      "土曜日",
      "祝日"
    ],
    "openDaysNote": ""
  },
  {
    "id": "3570201735",
    "name": "ケアビレッジ桜　壱番館デイサービス",
    "kana": "ケアハウスサクラデイサービスセンター",
    "address": "宇部市大字西岐波２０６８番地１",
    "lat": 33.9615723,
    "lng": 131.2952492,
    "tel": "0836-51-3386",
    "url": "https://keahouse-sakura.jp/",
    "pref": "山口県",
    "city": "宇部市",
    "category": "day_service",
    "serviceType": "通所介護",
    "capacity": 0,
    "openDays": [
      "平日",
      "土曜日",
      "祝日"
    ],
    "openDaysNote": ""
  },
  {
    "id": "3570203392",
    "name": "セントヒルデイサービスこうなん",
    "kana": "セントヒルデイサービスコウナン",
    "address": "宇部市宇部市大字妻崎開作108番地",
    "lat": 33.9781327952609,
    "lng": 131.217501613831,
    "tel": "0836-44-2116",
    "url": "http://www.sthill-hp.or.jp/k_st/",
    "pref": "山口県",
    "city": "宇部市",
    "category": "day_service",
    "serviceType": "通所介護",
    "capacity": 37,
    "openDays": [
      "平日",
      "土曜日",
      "祝日"
    ],
    "openDaysNote": "台風等の自然災害時、気象庁より宇部地域に大雨・洪水警報等が発表され危険が予測される場合、サービス時間の短縮もしくは中止をすることがあります。その場合ご家族に連絡の上、適切に対応します。"
  },
  {
    "id": "3570204135",
    "name": "ツクイ宇部",
    "kana": "ツクイウベ",
    "address": "山口県宇部市岬町2丁目1-18",
    "lat": 33.932682,
    "lng": 131.2655225,
    "tel": "0836-38-6113",
    "url": "https://www.tsukui.net/",
    "pref": "山口県",
    "city": "宇部市",
    "category": "day_service",
    "serviceType": "通所介護",
    "capacity": 0,
    "openDays": [
      "平日",
      "土曜日",
      "日曜日",
      "祝日"
    ],
    "openDaysNote": "年中無休"
  },
  {
    "id": "3570204143",
    "name": "ツクイ宇部厚南",
    "kana": "ツクイウベコウナン",
    "address": "厚南中央６丁目3-22",
    "lat": 33.9911097,
    "lng": 131.2105796,
    "tel": "0836-45-2910",
    "url": "https://www.tsukui.net",
    "pref": "山口県",
    "city": "宇部市",
    "category": "day_service",
    "serviceType": "通所介護",
    "capacity": 0,
    "openDays": [
      "平日",
      "土曜日",
      "日曜日"
    ],
    "openDaysNote": "年中無休"
  },
  {
    "id": "3570203624",
    "name": "デイサービス　きたえるーむ上宇部",
    "kana": "デイサービス　キタエルームカミウベ",
    "address": "山口県宇部市中尾１－７－１３グリーンハイツ琴崎1Ｆ グリーンハイツ琴崎1Ｆ",
    "lat": 33.9693244,
    "lng": 131.2674053,
    "tel": "0836-39-8699",
    "url": "http://www.kitaeroom.com/",
    "pref": "山口県",
    "city": "宇部市",
    "category": "day_service",
    "serviceType": "通所介護",
    "capacity": 20,
    "openDays": [
      "平日",
      "土曜日"
    ],
    "openDaysNote": ""
  },
  {
    "id": "3570204036",
    "name": "デイサービス　きたえるーむ西宇部",
    "kana": "デイサービス　キタエルームニシウベ",
    "address": "山口県宇部市厚南北1-3-23際波グランフォート2号室 際波グランフォート2号室",
    "lat": 33.9992293,
    "lng": 131.2194526,
    "tel": "0836-38-8180",
    "url": "http://www.kitaeroom.com/",
    "pref": "山口県",
    "city": "宇部市",
    "category": "day_service",
    "serviceType": "通所介護",
    "capacity": 25,
    "openDays": [
      "平日",
      "土曜日"
    ],
    "openDaysNote": "サービス提供時間（改行）　1単位目：9時から12時05分（月曜日から土曜日）（改行）　2単位目：13時30分から16時35分（月曜日から金曜日）"
  },
  {
    "id": "3570200984",
    "name": "デイサービスオアシスことしば",
    "kana": "デイサービスオアシスコトシバ",
    "address": "宇部市寿町三丁目2-5",
    "lat": 33.9514672,
    "lng": 131.2534826,
    "tel": "0836-37-6512",
    "url": "www.jinsinkai.or.jp",
    "pref": "山口県",
    "city": "宇部市",
    "category": "day_service",
    "serviceType": "通所介護",
    "capacity": 0,
    "openDays": [
      "平日",
      "土曜日",
      "祝日"
    ],
    "openDaysNote": ""
  },
  {
    "id": "3570204598",
    "name": "デイサービスセービング浜町",
    "kana": "デイサービスセービングハママチ",
    "address": "山口県宇部市浜町2ｰ4ｰ11",
    "lat": 33.9652274790385,
    "lng": 131.23543992632,
    "tel": "0836ｰ35ｰ5077",
    "url": "",
    "pref": "山口県",
    "city": "宇部市",
    "category": "day_service",
    "serviceType": "通所介護",
    "capacity": null,
    "openDays": [
      "平日",
      "土曜日",
      "祝日"
    ],
    "openDaysNote": "特になし"
  },
  {
    "id": "3570201776",
    "name": "デイサービスセンター　宇部あいおい苑",
    "kana": "デイサービスセンター　ウベアイオイエン",
    "address": "宇部市恩田3丁目8番1号",
    "lat": 33.9470178,
    "lng": 131.265732,
    "tel": "０８３６－３４－３１００",
    "url": "http://hitotsunokai.jp",
    "pref": "山口県",
    "city": "宇部市",
    "category": "day_service",
    "serviceType": "通所介護",
    "capacity": 5,
    "openDays": [
      "平日",
      "土曜日",
      "祝日"
    ],
    "openDaysNote": "12月31日～翌1月3日までは曜日に関係なく年末年始休苑"
  },
  {
    "id": "3570203558",
    "name": "デイサービスセンター　友癒",
    "kana": "デイサービスセンター　ユウユ",
    "address": "山口県宇部市大字妻崎開作269-6",
    "lat": 33.9734474,
    "lng": 131.2044632,
    "tel": "0836-43-7933",
    "url": "",
    "pref": "山口県",
    "city": "宇部市",
    "category": "day_service",
    "serviceType": "通所介護",
    "capacity": 25,
    "openDays": [
      "平日",
      "土曜日",
      "祝日"
    ],
    "openDaysNote": ""
  },
  {
    "id": "3570203293",
    "name": "デイサービスセンターアポロプラス",
    "kana": "デイサービスセンター　アポロプラス",
    "address": "山口県宇部市中宇部1858-1ドリームライフアポロ ドリームライフアポロ",
    "lat": 33.9810019452735,
    "lng": 131.255247232819,
    "tel": "0836-37-0070",
    "url": "https://y-apl.com/",
    "pref": "山口県",
    "city": "宇部市",
    "category": "day_service",
    "serviceType": "通所介護",
    "capacity": 30,
    "openDays": [
      "平日",
      "土曜日",
      "祝日"
    ],
    "openDaysNote": "特別行事及び天候による臨時休業があったとき等は、日曜日の営業を行う場合があります。"
  },
  {
    "id": "3570201545",
    "name": "デイサービスセンターおの",
    "kana": "デイサービスセンターオノ",
    "address": "山口県宇部市大字小野８２９４番地ー２デイサービスセンターおの デイサービスセンターおの",
    "lat": 34.1173739,
    "lng": 131.3216073,
    "tel": "0836-64-2002",
    "url": "",
    "pref": "山口県",
    "city": "宇部市",
    "category": "day_service",
    "serviceType": "通所介護",
    "capacity": 20,
    "openDays": [
      "平日",
      "土曜日",
      "祝日"
    ],
    "openDaysNote": "利用者さま本人や家族の希望時間に出来る限り応じます。"
  },
  {
    "id": "3570203574",
    "name": "デイサービスセンターここわ",
    "kana": "デイサービスセンターココワ",
    "address": "山口県宇部市大字際波701番地",
    "lat": 33.9937097345303,
    "lng": 131.222105101189,
    "tel": "0836-45-0500",
    "url": "http://www.kiwanami-kaigo.com",
    "pref": "山口県",
    "city": "宇部市",
    "category": "day_service",
    "serviceType": "通所介護",
    "capacity": null,
    "openDays": [
      "平日",
      "土曜日",
      "祝日"
    ],
    "openDaysNote": ""
  },
  {
    "id": "3570204101",
    "name": "デイサービスセンターメルローズ",
    "kana": "デイサービスセンターメルローズ",
    "address": "山口県宇部市大字際波７２６－３グラディアスきわなみ グラディアスきわなみ",
    "lat": 33.9946922986481,
    "lng": 131.222762613492,
    "tel": "0836-39-3303",
    "url": "https://kiwanami-kaigo.com/",
    "pref": "山口県",
    "city": "宇部市",
    "category": "day_service",
    "serviceType": "通所介護",
    "capacity": null,
    "openDays": [
      "平日",
      "土曜日",
      "祝日"
    ],
    "openDaysNote": ""
  },
  {
    "id": "3570202204",
    "name": "デイサービスセンターゆず",
    "kana": "デイサービスセンターユズ",
    "address": "山口県宇部市大字船木１０１７番地４ケアホームゆず ケアホームゆず",
    "lat": 34.0416018,
    "lng": 131.2217042,
    "tel": "0836-67-3014",
    "url": "https://aiyuukai-mirai.jp/",
    "pref": "山口県",
    "city": "宇部市",
    "category": "day_service",
    "serviceType": "通所介護",
    "capacity": 0,
    "openDays": [
      "平日",
      "土曜日",
      "祝日"
    ],
    "openDaysNote": "特になし"
  },
  {
    "id": "3570204242",
    "name": "デイサービスセンター優",
    "kana": "デイサービスセンターユウ",
    "address": "山口県宇部市大字東岐波字道田１３８１番７",
    "lat": 33.9972129808722,
    "lng": 131.348680840117,
    "tel": "0836-38-8880",
    "url": "http://www.mubenosato.com/",
    "pref": "山口県",
    "city": "宇部市",
    "category": "day_service",
    "serviceType": "通所介護",
    "capacity": 0,
    "openDays": [
      "平日",
      "土曜日",
      "祝日"
    ],
    "openDaysNote": ""
  },
  {
    "id": "3570203715",
    "name": "デイサービスセンター立花",
    "kana": "デイサービスセンターリッカ",
    "address": "山口県宇部市浜田３丁目２４－１",
    "lat": 33.9890489,
    "lng": 131.2295079,
    "tel": "0836-43-6713",
    "url": "https://rikka-homenurse.com",
    "pref": "山口県",
    "city": "宇部市",
    "category": "day_service",
    "serviceType": "通所介護",
    "capacity": 20,
    "openDays": [
      "平日",
      "土曜日",
      "祝日"
    ],
    "openDaysNote": ""
  },
  {
    "id": "3570203657",
    "name": "デイサービスほっとスマイル　心",
    "kana": "デイサービスホットスマイル　ココロ",
    "address": "山口県宇部市居能町１丁目2-13",
    "lat": 33.9646273,
    "lng": 131.2313675,
    "tel": "0836-29-0301",
    "url": "",
    "pref": "山口県",
    "city": "宇部市",
    "category": "day_service",
    "serviceType": "通所介護",
    "capacity": 0,
    "openDays": [
      "平日",
      "土曜日",
      "祝日"
    ],
    "openDaysNote": "その他臨時休業について（改行）施設改修や職員研修及び天候悪化によって臨時的に休業する場合があります。施設改修等、臨時休業する日程が事前にお知らせできる場合については速やかに臨時休業の理由・休業日をご利用者様にお伝えします。天候悪化等の場合は当日お電話によって臨時休業のお知らせをさせていただきます。"
  },
  {
    "id": "3570204416",
    "name": "デイサービス愛華",
    "kana": "デイサービスアイカ",
    "address": "山口県宇部市船木１０１６番地１ケアホーム愛華 ケアホーム愛華",
    "lat": 34.0493108,
    "lng": 131.215566,
    "tel": "0836-39-6702",
    "url": "https//aiyuukai-mirai.jp",
    "pref": "山口県",
    "city": "宇部市",
    "category": "day_service",
    "serviceType": "通所介護",
    "capacity": 20,
    "openDays": [
      "平日",
      "土曜日",
      "祝日"
    ],
    "openDaysNote": "介護サービス提供時間：9：20～16：30"
  },
  {
    "id": "3570203285",
    "name": "デイサービス星華",
    "kana": "デイサービスセイカ",
    "address": "山口県宇部市大字船木1017番地1ケアホーム星華 ケアホーム星華",
    "lat": 34.0415574,
    "lng": 131.2217264,
    "tel": "0836-67-3016",
    "url": "https://aiyuukai-mirai.jp",
    "pref": "山口県",
    "city": "宇部市",
    "category": "day_service",
    "serviceType": "通所介護",
    "capacity": 0,
    "openDays": [
      "平日",
      "土曜日",
      "祝日"
    ],
    "openDaysNote": "特になし"
  },
  {
    "id": "3570202626",
    "name": "デイサービス来夢",
    "kana": "デイサービスライム",
    "address": "山口県宇部市大字船木１０１７番地５ケアホーム来夢 ケアホーム来夢",
    "lat": 34.0415713,
    "lng": 131.2214903,
    "tel": "0836-67-3013",
    "url": "https://aiyuukai-mirai.jp",
    "pref": "山口県",
    "city": "宇部市",
    "category": "day_service",
    "serviceType": "通所介護",
    "capacity": 0,
    "openDays": [
      "平日",
      "土曜日",
      "祝日"
    ],
    "openDaysNote": "特になし"
  },
  {
    "id": "3570202303",
    "name": "ドリームライフアポロデイサービスセンター",
    "kana": "ドリームライフアポロデイサービスセンター",
    "address": "宇部市大字中宇部1858-30",
    "lat": 33.9810119539469,
    "lng": 131.255642858648,
    "tel": "0836-37-0070",
    "url": "https://y-apl.com/",
    "pref": "山口県",
    "city": "宇部市",
    "category": "day_service",
    "serviceType": "通所介護",
    "capacity": 35,
    "openDays": [
      "平日",
      "土曜日",
      "祝日"
    ],
    "openDaysNote": "特別行事及び天候による臨時休業があったとき等は、日曜日の営業を行う場合があります。"
  },
  {
    "id": "3570200190",
    "name": "ニチイケアセンター西岐波",
    "kana": "ニチイケアセンターニシキワ",
    "address": "山口県宇部市大字西岐波浜田1545－1",
    "lat": 33.9618525,
    "lng": 131.315846,
    "tel": "0836-54-0582",
    "url": "",
    "pref": "山口県",
    "city": "宇部市",
    "category": "day_service",
    "serviceType": "通所介護",
    "capacity": 0,
    "openDays": [
      "平日",
      "土曜日",
      "日曜日",
      "祝日"
    ],
    "openDaysNote": "特になし"
  },
  {
    "id": "3570203798",
    "name": "はーとけあさんちの生活支援",
    "kana": "ハートケアサンチノセイカツシエン",
    "address": "山口県宇部市草江四丁目11番38-5",
    "lat": 33.9344789,
    "lng": 131.2693714,
    "tel": "0836-39-7311",
    "url": "",
    "pref": "山口県",
    "city": "宇部市",
    "category": "day_service",
    "serviceType": "通所介護",
    "capacity": null,
    "openDays": [
      "平日",
      "土曜日",
      "日曜日",
      "祝日"
    ],
    "openDaysNote": ""
  },
  {
    "id": "3570202287",
    "name": "ひだまりの花",
    "kana": "ヒダマリノハナ",
    "address": "山口県宇部市ひらき台２丁目２５－８",
    "lat": 33.9732183110054,
    "lng": 131.279597919188,
    "tel": "0836-35-2141",
    "url": "www.hidamarinet.co.jp",
    "pref": "山口県",
    "city": "宇部市",
    "category": "day_service",
    "serviceType": "通所介護",
    "capacity": 26,
    "openDays": [
      "平日",
      "土曜日",
      "日曜日",
      "祝日"
    ],
    "openDaysNote": "通院や服薬など健康管理を適切にして頂くこと。"
  },
  {
    "id": "3570200968",
    "name": "フレンドサービス",
    "kana": "フレンドサービス",
    "address": "宇部市大字中宇部1964番地1",
    "lat": 33.9762283,
    "lng": 131.2512625,
    "tel": "0836-33-7093",
    "url": "friendservice@plum.ocn.ne.jp",
    "pref": "山口県",
    "city": "宇部市",
    "category": "day_service",
    "serviceType": "通所介護",
    "capacity": 30,
    "openDays": [
      "平日",
      "祝日"
    ],
    "openDaysNote": ""
  },
  {
    "id": "3570202683",
    "name": "まどか苑　厚南北デイサービスセンター",
    "kana": "マドカエン　コウナンキタデイサービスセンター",
    "address": "宇部市厚南北2丁目4番14号まどか苑厚南北有料老人ホーム まどか苑厚南北有料老人ホーム",
    "lat": 33.9987015487066,
    "lng": 131.216948960748,
    "tel": "（０８３６）４４－２２７７",
    "url": "",
    "pref": "山口県",
    "city": "宇部市",
    "category": "day_service",
    "serviceType": "通所介護",
    "capacity": 1,
    "openDays": [
      "平日",
      "土曜日",
      "日曜日",
      "祝日"
    ],
    "openDaysNote": ""
  },
  {
    "id": "3570201164",
    "name": "むべの里　デイサービスセンター　はぎわら",
    "kana": "ムベノサト　デイサービスセンター　ハギワラ",
    "address": "宇部市今村北５丁目１０番３８号",
    "lat": 33.9612723,
    "lng": 131.3049124,
    "tel": "0836-54-0661",
    "url": "http://www/mubenosato.com",
    "pref": "山口県",
    "city": "宇部市",
    "category": "day_service",
    "serviceType": "通所介護",
    "capacity": 85,
    "openDays": [
      "平日",
      "土曜日",
      "祝日"
    ],
    "openDaysNote": ""
  },
  {
    "id": "3570200406",
    "name": "むべの里デイサービスセンター",
    "kana": "ムベノサトデイサービスセンター",
    "address": "山口県宇部市厚南北3丁目1－37",
    "lat": 34.0016900666178,
    "lng": 131.214223611917,
    "tel": "0836-44-0260",
    "url": "kaigo-kouhyou@mubenosato.com",
    "pref": "山口県",
    "city": "宇部市",
    "category": "day_service",
    "serviceType": "通所介護",
    "capacity": 45,
    "openDays": [
      "平日",
      "土曜日",
      "祝日"
    ],
    "openDaysNote": ""
  },
  {
    "id": "3570204283",
    "name": "むべの里デイサービスセンターららら",
    "kana": "ムベノサトデイサービスセンターラララ",
    "address": "山口県宇部市中村2丁目7番43号",
    "lat": 33.9631363,
    "lng": 131.2617175,
    "tel": "0836-21-5360",
    "url": "http://www.mubenosato.com/",
    "pref": "山口県",
    "city": "宇部市",
    "category": "day_service",
    "serviceType": "通所介護",
    "capacity": 0,
    "openDays": [
      "平日",
      "土曜日",
      "祝日"
    ],
    "openDaysNote": ""
  },
  {
    "id": "3570203335",
    "name": "むべの里デイサービスセンター厚南",
    "kana": "ムベノサトデイサービスセンターコウナン",
    "address": "山口県宇部市黒石北4丁目5番39号",
    "lat": 33.9860702698277,
    "lng": 131.205090860863,
    "tel": "0836-39-7563",
    "url": "http://mubekouei.com/",
    "pref": "山口県",
    "city": "宇部市",
    "category": "day_service",
    "serviceType": "通所介護",
    "capacity": 0,
    "openDays": [
      "平日",
      "土曜日",
      "祝日"
    ],
    "openDaysNote": ""
  },
  {
    "id": "3570201040",
    "name": "むべの里デイサービスセンター中山",
    "kana": "ムベノサトデイサービスセンターナカヤマ",
    "address": "宇部市大字中山1135-1",
    "lat": 33.9892092465426,
    "lng": 131.233411164544,
    "tel": "0836-43-7887",
    "url": "http://www.mubekouei.com",
    "pref": "山口県",
    "city": "宇部市",
    "category": "day_service",
    "serviceType": "通所介護",
    "capacity": 0,
    "openDays": [
      "平日",
      "土曜日",
      "祝日"
    ],
    "openDaysNote": ""
  },
  {
    "id": "3570202485",
    "name": "むべの里デイサービスセンター東芝中",
    "kana": "ムベノサトデイサービスセンターヒガシシバナカ",
    "address": "宇部市東芝中町3番27号",
    "lat": 33.9389187,
    "lng": 131.2587826,
    "tel": "0836-39-9006",
    "url": "http://www.mubenosato.com",
    "pref": "山口県",
    "city": "宇部市",
    "category": "day_service",
    "serviceType": "通所介護",
    "capacity": 100,
    "openDays": [
      "平日",
      "土曜日",
      "祝日"
    ],
    "openDaysNote": "サービス提供時間は9：30～16：35"
  },
  {
    "id": "3570204218",
    "name": "むべの里光栄　デイサービスセンター　オパール光栄",
    "kana": "ムベノサトコウエイ　デイサービスセンター　オパールコウエイ",
    "address": "山口県宇部市大字東岐波5860-10-1",
    "lat": 33.9817641,
    "lng": 131.336045,
    "tel": "0836-39-7228",
    "url": "https://mubekouei.com/",
    "pref": "山口県",
    "city": "宇部市",
    "category": "day_service",
    "serviceType": "通所介護",
    "capacity": 0,
    "openDays": [
      "平日",
      "土曜日",
      "祝日"
    ],
    "openDaysNote": "無"
  },
  {
    "id": "3570204507",
    "name": "むべの里光栄デイサービスセンター東本町",
    "kana": "ムベノサトコウエイデイサービスセンターヒガシホンマチ",
    "address": "東本町1－2－7",
    "lat": 33.9479936,
    "lng": 130.9669904,
    "tel": "0836－37－1515",
    "url": "",
    "pref": "山口県",
    "city": "宇部市",
    "category": "day_service",
    "serviceType": "通所介護",
    "capacity": 30,
    "openDays": [
      "平日",
      "土曜日"
    ],
    "openDaysNote": "祝祭日も営業"
  },
  {
    "id": "3570202667",
    "name": "やまもとクリニックデイサービスセンター有るる",
    "kana": "ヤマモトクリニックデイサービスセンターアルル",
    "address": "山口県宇部市黒石北三丁目１番５７号ホスピサイドプレイス ホスピサイドプレイス",
    "lat": 33.98390475927,
    "lng": 131.212525223943,
    "tel": "０８３６－３９－９５２８",
    "url": "",
    "pref": "山口県",
    "city": "宇部市",
    "category": "day_service",
    "serviceType": "通所介護",
    "capacity": 0,
    "openDays": [
      "平日",
      "土曜日",
      "祝日"
    ],
    "openDaysNote": ""
  },
  {
    "id": "3570201677",
    "name": "リハビリステップげんき",
    "kana": "リハビリステップゲンキ",
    "address": "宇部市末広町1-13",
    "lat": 33.9374661,
    "lng": 131.2651962,
    "tel": "0836-33-6220",
    "url": "http://genki6220.web.fc2.com/",
    "pref": "山口県",
    "city": "宇部市",
    "category": "day_service",
    "serviceType": "通所介護",
    "capacity": 35,
    "openDays": [
      "平日",
      "土曜日",
      "祝日"
    ],
    "openDaysNote": ""
  },
  {
    "id": "3570202857",
    "name": "リハビリデイサービスあい",
    "kana": "リハビリデイサービス　アイ",
    "address": "宇部市中村1丁目2番21号",
    "lat": 33.9679237,
    "lng": 131.2605011,
    "tel": "0836-43-9800",
    "url": "",
    "pref": "山口県",
    "city": "宇部市",
    "category": "day_service",
    "serviceType": "通所介護",
    "capacity": 25,
    "openDays": [
      "平日",
      "祝日"
    ],
    "openDaysNote": "祝日営業"
  },
  {
    "id": "3570204192",
    "name": "リハビリデイサービスエール",
    "kana": "リハビリデイサービスエール",
    "address": "山口県宇部市中村2丁目6番11号",
    "lat": 33.963225,
    "lng": 131.263012,
    "tel": "0836-39-5857",
    "url": "https://yell-kaigo.co.jp/",
    "pref": "山口県",
    "city": "宇部市",
    "category": "day_service",
    "serviceType": "通所介護",
    "capacity": 8,
    "openDays": [
      "平日",
      "土曜日",
      "祝日"
    ],
    "openDaysNote": "年末年始はお休みさせていただきます。"
  },
  {
    "id": "3570204481",
    "name": "リハビリデイサービスプラスワン宇部店",
    "kana": "リハビリデイサービスプラスワンウベテン",
    "address": "山口県宇部市常藤町5-25アビリティ常藤1階テナントA アビリティ常藤1階テナントA",
    "lat": 33.9478879,
    "lng": 131.2544598,
    "tel": "0836-39-6010",
    "url": "https://plusone-onoda.jimdofree.com",
    "pref": "山口県",
    "city": "宇部市",
    "category": "day_service",
    "serviceType": "通所介護",
    "capacity": null,
    "openDays": [
      "平日"
    ],
    "openDaysNote": ""
  },
  {
    "id": "3570200414",
    "name": "宇部あかり園デイサービスセンター",
    "kana": "ウベアカリエンデイサービスセンター",
    "address": "宇部市大字西岐波229－105",
    "lat": 33.9667003696157,
    "lng": 131.301501284378,
    "tel": "0836-51-1001",
    "url": "http://www.hakuaikai-yamaguchi.jp",
    "pref": "山口県",
    "city": "宇部市",
    "category": "day_service",
    "serviceType": "通所介護",
    "capacity": 0,
    "openDays": [
      "平日",
      "土曜日",
      "日曜日",
      "祝日"
    ],
    "openDaysNote": "特になし"
  },
  {
    "id": "3570200786",
    "name": "宇部西デイサービス",
    "kana": "ウベニシデイサービス",
    "address": "宇部市大字際波字東河田287-1",
    "lat": 33.9963779617427,
    "lng": 131.224255244275,
    "tel": "0836-45-1223",
    "url": "http://www.h5.dion.ne.jp/~ube-west/jigyou/jigyou",
    "pref": "山口県",
    "city": "宇部市",
    "category": "day_service",
    "serviceType": "通所介護",
    "capacity": 0,
    "openDays": [
      "平日",
      "土曜日",
      "祝日"
    ],
    "openDaysNote": "特になし"
  },
  {
    "id": "3570203731",
    "name": "私の家Living",
    "kana": "ワタシノイエ　リビング",
    "address": "山口県宇部市浜田3−1−6",
    "lat": 33.9897572,
    "lng": 131.2323216,
    "tel": "0836-38-8111",
    "url": "http://fomax.jp/",
    "pref": "山口県",
    "city": "宇部市",
    "category": "day_service",
    "serviceType": "通所介護",
    "capacity": 0,
    "openDays": [
      "平日",
      "土曜日",
      "日曜日",
      "祝日"
    ],
    "openDaysNote": ""
  },
  {
    "id": "3570202949",
    "name": "若菜東岐波デイサービス",
    "kana": "ワカナヒガシキワデイサービス",
    "address": "宇部市東岐波5436-4",
    "lat": 33.9722642150184,
    "lng": 131.345958507549,
    "tel": "0836-39-8855",
    "url": "https://www.kamura-clinic.com/",
    "pref": "山口県",
    "city": "宇部市",
    "category": "day_service",
    "serviceType": "通所介護",
    "capacity": 32,
    "openDays": [
      "平日",
      "土曜日",
      "日曜日",
      "祝日"
    ],
    "openDaysNote": ""
  },
  {
    "id": "3570204069",
    "name": "若菜東岐波デイサービス新館",
    "kana": "ワカナヒガシキワデイサービスシンカン",
    "address": "宇部市東岐波5436-4",
    "lat": 33.9719026,
    "lng": 131.3457785,
    "tel": "0836-39-8855",
    "url": "",
    "pref": "山口県",
    "city": "宇部市",
    "category": "day_service",
    "serviceType": "通所介護",
    "capacity": 0,
    "openDays": [
      "平日",
      "土曜日",
      "日曜日",
      "祝日"
    ],
    "openDaysNote": ""
  },
  {
    "id": "3570203525",
    "name": "若菜楠デイサービス",
    "kana": "ワカナクスノキデイサービス",
    "address": "宇部市東万倉652-1",
    "lat": 34.0617294744881,
    "lng": 131.239996674314,
    "tel": "0836-69-0018",
    "url": "https://www.kamura-clinic.com/",
    "pref": "山口県",
    "city": "宇部市",
    "category": "day_service",
    "serviceType": "通所介護",
    "capacity": 30,
    "openDays": [
      "平日",
      "土曜日",
      "日曜日",
      "祝日"
    ],
    "openDaysNote": ""
  },
  {
    "id": "3570203970",
    "name": "若菜楠デイサービス南館",
    "kana": "ワカナクスノキデイサービスミナミカン",
    "address": "山口県宇部市東万倉652-1",
    "lat": 34.0617372078528,
    "lng": 131.240044933952,
    "tel": "0836-69-0018",
    "url": "https://www.kamura-clinic.com/",
    "pref": "山口県",
    "city": "宇部市",
    "category": "day_service",
    "serviceType": "通所介護",
    "capacity": 0,
    "openDays": [
      "平日",
      "土曜日",
      "日曜日",
      "祝日"
    ],
    "openDaysNote": ""
  },
  {
    "id": "3570204515",
    "name": "障がい者(児)ﾃﾞｲｻｰﾋﾞｽｾﾝﾀｰひろ君の家",
    "kana": "ショウガイシャジデイサービスセンターヒロクンノイエ",
    "address": "山口県宇部市大字善和字下中屋敷573番地1",
    "lat": 34.0207104,
    "lng": 131.285877,
    "tel": "0836-62-5717",
    "url": "https://www.ss-pikkoro.jp/",
    "pref": "山口県",
    "city": "宇部市",
    "category": "day_service",
    "serviceType": "通所介護",
    "capacity": null,
    "openDays": [
      "平日",
      "土曜日"
    ],
    "openDaysNote": ""
  },
  {
    "id": "3570201438",
    "name": "神原苑神原デイサービスセンター",
    "kana": "カミハラエンカミハラデイサービスセンター",
    "address": "山口県宇部市神原町２丁目４番地４０",
    "lat": 33.9487592,
    "lng": 131.2602628,
    "tel": "0836-35-5662",
    "url": "http://www.kamiharaen.com",
    "pref": "山口県",
    "city": "宇部市",
    "category": "day_service",
    "serviceType": "通所介護",
    "capacity": 20,
    "openDays": [
      "平日",
      "土曜日",
      "祝日"
    ],
    "openDaysNote": "苑の行事、お盆（８/１４・１５）・年末年始（１２/３１～１/３）この内、日曜日が含まれる場合は１／４と８／１６も休みとなります。　自然災害（台風や積雪等）等で運営が難しい場合休みになります。"
  },
  {
    "id": "3570203046",
    "name": "第2希望苑デイサービスセンター",
    "kana": "ダイ2キボウエンデイサービスセンター",
    "address": "宇部市西宇部南4丁目11-2",
    "lat": 34.0032027,
    "lng": 131.2183249,
    "tel": "0836-43-6221",
    "url": "",
    "pref": "山口県",
    "city": "宇部市",
    "category": "day_service",
    "serviceType": "通所介護",
    "capacity": 20,
    "openDays": [
      "平日",
      "土曜日",
      "日曜日",
      "祝日"
    ],
    "openDaysNote": ""
  },
  {
    "id": "3570203186",
    "name": "第３希望苑デイサービスセンター",
    "kana": "ダイサンキボウエンデイサービスセンター",
    "address": "山口県宇部市大字中宇部字西岩田１５７０－１第３希望苑デイサービスセンター 第３希望苑デイサービスセンター",
    "lat": 33.9698408,
    "lng": 131.2590401,
    "tel": "０８３６－４３－６６６０",
    "url": "http://www.yic-trust.com/",
    "pref": "山口県",
    "city": "宇部市",
    "category": "day_service",
    "serviceType": "通所介護",
    "capacity": 0,
    "openDays": [
      "平日",
      "土曜日",
      "日曜日",
      "祝日"
    ],
    "openDaysNote": ""
  },
  {
    "id": "3570202766",
    "name": "宅老所　喜楽苑　山村",
    "kana": "タクロウショ　キラクエン　ヤマムラ",
    "address": "宇部市大字西岐波2636-7",
    "lat": 33.9649109,
    "lng": 131.3087982,
    "tel": "0836-39-6000",
    "url": "",
    "pref": "山口県",
    "city": "宇部市",
    "category": "day_service",
    "serviceType": "通所介護",
    "capacity": 0,
    "openDays": [
      "平日",
      "土曜日",
      "日曜日",
      "祝日"
    ],
    "openDaysNote": "なし"
  },
  {
    "id": "3577700051",
    "name": "楠園デイサービスセンター",
    "kana": "クスノキエンデイサービスセンター",
    "address": "山口県宇部市大字船木字向ヒ８３３番３",
    "lat": 34.0498200125241,
    "lng": 131.192154566785,
    "tel": "0836-69-0686",
    "url": "http://www.furoukai.jp",
    "pref": "山口県",
    "city": "宇部市",
    "category": "day_service",
    "serviceType": "通所介護",
    "capacity": 20,
    "openDays": [
      "平日",
      "土曜日",
      "祝日"
    ],
    "openDaysNote": "特になし"
  },
  {
    "id": "3570201370",
    "name": "片倉温泉くぼたデイサービスセンター",
    "kana": "カタクラオンセンクボタデイサービスセンター",
    "address": "宇部市大字西岐波5351番1",
    "lat": 33.9734573,
    "lng": 131.2980237,
    "tel": "0836-51-9360",
    "url": "https://katakura-day.com",
    "pref": "山口県",
    "city": "宇部市",
    "category": "day_service",
    "serviceType": "通所介護",
    "capacity": 0,
    "openDays": [
      "平日",
      "土曜日",
      "祝日"
    ],
    "openDaysNote": "※但し、毎年のカレンダーにより若干の変更あり"
  },
  {
    "id": "3570106868",
    "name": "GreenDelsole",
    "kana": "グリーンデルソーレ",
    "address": "山口県下関市菊川町大字久野94-1",
    "lat": 34.1450163,
    "lng": 130.9783069,
    "tel": "083-287-0001",
    "url": "https://shiennomori.com/",
    "pref": "山口県",
    "city": "下関市",
    "category": "day_service",
    "serviceType": "通所介護",
    "capacity": null,
    "openDays": [
      "平日",
      "土曜日",
      "祝日"
    ],
    "openDaysNote": "12月30日～1月３日年末年始休み"
  },
  {
    "id": "3570106843",
    "name": "IMLデイサービスみもすそ川",
    "kana": "アイエムエル　デイサービスミモスソガワ",
    "address": "みもすそ川10番20号",
    "lat": 33.9699479,
    "lng": 130.9542111,
    "tel": "083-232-0555",
    "url": "https://www.inmylife24.com/",
    "pref": "山口県",
    "city": "下関市",
    "category": "day_service",
    "serviceType": "通所介護",
    "capacity": null,
    "openDays": [
      "平日",
      "祝日"
    ],
    "openDaysNote": ""
  },
  {
    "id": "3570106215",
    "name": "IMLデイサービスリライブ",
    "kana": "アイエムエル　デイサービスリライブ",
    "address": "山口県下関市一の宮町2丁目14-5",
    "lat": 34.002593,
    "lng": 130.950954,
    "tel": "083-227-2437",
    "url": "www.inmylife24.com",
    "pref": "山口県",
    "city": "下関市",
    "category": "day_service",
    "serviceType": "通所介護",
    "capacity": 0,
    "openDays": [
      "平日",
      "土曜日",
      "祝日"
    ],
    "openDaysNote": ""
  },
  {
    "id": "3570106454",
    "name": "TryQ（トライク）デイフィットネス",
    "kana": "トライクデイフィットネス",
    "address": "山口県下関市武久町２丁目３番３号１階第２はまのビル 第２はまのビル",
    "lat": 33.9768267,
    "lng": 130.9209231,
    "tel": "083-254-7120",
    "url": "info@tryq-sports.com",
    "pref": "山口県",
    "city": "下関市",
    "category": "day_service",
    "serviceType": "通所介護",
    "capacity": 0,
    "openDays": [
      "平日",
      "土曜日"
    ],
    "openDaysNote": "夏季休暇（8月13日～15日）（改行）冬季休暇（12月30日～1月3日）"
  },
  {
    "id": "3570100457",
    "name": "アイユウの苑デイサービスセンター",
    "kana": "アイユウノソノデイサービスセンター",
    "address": "山口県下関市彦島迫町三丁目17番2号",
    "lat": 33.9383705,
    "lng": 130.9002994,
    "tel": "083-266-6364",
    "url": "http://www.shoubikai.or.jp",
    "pref": "山口県",
    "city": "下関市",
    "category": "day_service",
    "serviceType": "通所介護",
    "capacity": 0,
    "openDays": [
      "平日",
      "祝日"
    ],
    "openDaysNote": "特になし"
  },
  {
    "id": "3570100929",
    "name": "あおぞらの里　下関デイサービスセンター",
    "kana": "アオゾラノサト　シモノセキデイサービスセンター",
    "address": "下関市今浦町１０－１１",
    "lat": 33.9536475,
    "lng": 130.9212497,
    "tel": "083-232-5511",
    "url": "http://www.cedar-web.com",
    "pref": "山口県",
    "city": "下関市",
    "category": "day_service",
    "serviceType": "通所介護",
    "capacity": 105,
    "openDays": [
      "平日",
      "土曜日",
      "日曜日",
      "祝日"
    ],
    "openDaysNote": "特になし"
  },
  {
    "id": "3570102222",
    "name": "あおぞらの里　下関幡生デイサービスセンター",
    "kana": "アオゾラノサト　シモノセキハタブデイサービスセンター",
    "address": "山口県　下関市　幡生本町１２－５",
    "lat": 33.977987,
    "lng": 130.9278961,
    "tel": "083-253-5010",
    "url": "http://www.cedar-web.com",
    "pref": "山口県",
    "city": "下関市",
    "category": "day_service",
    "serviceType": "通所介護",
    "capacity": 0,
    "openDays": [
      "平日",
      "土曜日",
      "祝日"
    ],
    "openDaysNote": "特になし"
  },
  {
    "id": "3570106793",
    "name": "オーシャンビューまえだデイサービスセンター",
    "kana": "オーシャンビューマエダデイサービスセンター",
    "address": "山口県下関市前田2-1-21",
    "lat": 33.9706726,
    "lng": 130.9672048,
    "tel": "083ｰ242-1303",
    "url": "http://www.yume-no-kai.com/gaiyo/",
    "pref": "山口県",
    "city": "下関市",
    "category": "day_service",
    "serviceType": "通所介護",
    "capacity": null,
    "openDays": [
      "平日",
      "土曜日"
    ],
    "openDaysNote": ""
  },
  {
    "id": "3577800190",
    "name": "きくがわ苑デイサービスセンター",
    "kana": "キクガワエンデイサービスセンター",
    "address": "下関市菊川町大字下岡枝1064番地",
    "lat": 34.1262668,
    "lng": 131.0415441,
    "tel": "083-287-1013",
    "url": "https://kikusuikai.jp/",
    "pref": "山口県",
    "city": "下関市",
    "category": "day_service",
    "serviceType": "通所介護",
    "capacity": 35,
    "openDays": [
      "平日",
      "土曜日",
      "祝日"
    ],
    "openDaysNote": ""
  },
  {
    "id": "3570103204",
    "name": "ケアライフくろい　デイサービスセンター",
    "kana": "ケアライフクロイ　デイサービスセンター",
    "address": "山口県下関市豊浦町黒井10634-5",
    "lat": 34.1263353,
    "lng": 130.9092932,
    "tel": "083-775-1765",
    "url": "http://carelife1165.web.fc2.com/",
    "pref": "山口県",
    "city": "下関市",
    "category": "day_service",
    "serviceType": "通所介護",
    "capacity": 0,
    "openDays": [
      "平日",
      "土曜日",
      "日曜日",
      "祝日"
    ],
    "openDaysNote": "特になし"
  },
  {
    "id": "3570104012",
    "name": "ケアライフ綾羅木デイサービスセンター",
    "kana": "ケアライフアヤラギデイサービスセンター",
    "address": "山口県下関市大字垢田字洞ノ上341番",
    "lat": 34.0012157080702,
    "lng": 130.910712838062,
    "tel": "083-250-1165",
    "url": "http://www.bestlife1165.com/",
    "pref": "山口県",
    "city": "下関市",
    "category": "day_service",
    "serviceType": "通所介護",
    "capacity": 45,
    "openDays": [
      "平日",
      "土曜日",
      "日曜日",
      "祝日"
    ],
    "openDaysNote": "その他の時間にも応じます。"
  },
  {
    "id": "3570106363",
    "name": "コンパスウォーク綾羅木",
    "kana": "コンパスウォークアヤラギ",
    "address": "山口県下関市綾羅木本町２丁目5-25",
    "lat": 34.0033798,
    "lng": 130.9255538,
    "tel": "083-253-7720",
    "url": "https://kinoukaifuku.com/shop/shop_info/chugoku/yamaguchi/350001/350001_017/350001_017.html",
    "pref": "山口県",
    "city": "下関市",
    "category": "day_service",
    "serviceType": "通所介護",
    "capacity": 0,
    "openDays": [
      "平日",
      "祝日"
    ],
    "openDaysNote": ""
  },
  {
    "id": "3570106512",
    "name": "コンパスウォーク安岡",
    "kana": "コンパスウォークヤスオカ",
    "address": "山口県下関市梶栗町3-3-5",
    "lat": 34.0153556,
    "lng": 130.9214716,
    "tel": "083-227-2297",
    "url": "",
    "pref": "山口県",
    "city": "下関市",
    "category": "day_service",
    "serviceType": "通所介護",
    "capacity": 90,
    "openDays": [
      "平日",
      "祝日"
    ],
    "openDaysNote": ""
  },
  {
    "id": "3570106769",
    "name": "コンパスウォーク勝山",
    "kana": "コンパスウォークカツヤマ",
    "address": "山口県下関市田倉御殿町1-1-1",
    "lat": 34.0132964,
    "lng": 130.9735486,
    "tel": "083-227-4844",
    "url": "https://kinoukaifuku.com/shop/shop_info/chugoku/yamaguchi/350001_017/350001_017.html",
    "pref": "山口県",
    "city": "下関市",
    "category": "day_service",
    "serviceType": "通所介護",
    "capacity": null,
    "openDays": [
      "平日",
      "祝日"
    ],
    "openDaysNote": ""
  },
  {
    "id": "3570106603",
    "name": "コンパスカインド安岡",
    "kana": "コンパスカインドヤスオカ",
    "address": "山口県下関市安岡本町2-10-17",
    "lat": 34.0279269,
    "lng": 130.9124561,
    "tel": "083-227-2125",
    "url": "",
    "pref": "山口県",
    "city": "下関市",
    "category": "day_service",
    "serviceType": "通所介護",
    "capacity": 0,
    "openDays": [
      "平日",
      "祝日"
    ],
    "openDaysNote": ""
  },
  {
    "id": "3570105696",
    "name": "シンフォニー川棚　デイサービスセンター",
    "kana": "シンフォニーカワタナ　デイサービスセンター",
    "address": "豊浦町川棚6923－6",
    "lat": 34.1471221,
    "lng": 130.9242663,
    "tel": "083－775－3201",
    "url": "",
    "pref": "山口県",
    "city": "下関市",
    "category": "day_service",
    "serviceType": "通所介護",
    "capacity": 0,
    "openDays": [
      "平日",
      "土曜日",
      "祝日"
    ],
    "openDaysNote": "12月29日～1月3日、8月13日～8月15日は休日とする。"
  },
  {
    "id": "3570106496",
    "name": "ツクイ下関生野",
    "kana": "ツクイシモノセキイクノ",
    "address": "山口県下関市生野町1-2-18",
    "lat": 33.9796406,
    "lng": 130.9363232,
    "tel": "083-251-6061",
    "url": "",
    "pref": "山口県",
    "city": "下関市",
    "category": "day_service",
    "serviceType": "通所介護",
    "capacity": 0,
    "openDays": [
      "平日",
      "土曜日",
      "日曜日",
      "祝日"
    ],
    "openDaysNote": "特になし"
  },
  {
    "id": "3570103139",
    "name": "デイサービス　デイホーム川棚",
    "kana": "デイサービス　デイホームカワタナ",
    "address": "山口県下関市豊浦町大字川棚１５００－３",
    "lat": 34.1585154267946,
    "lng": 130.923821558766,
    "tel": "083-774-2266",
    "url": "",
    "pref": "山口県",
    "city": "下関市",
    "category": "day_service",
    "serviceType": "通所介護",
    "capacity": 0,
    "openDays": [
      "平日",
      "祝日"
    ],
    "openDaysNote": "時間外でも連絡可（TEL：083-774-2266)"
  },
  {
    "id": "3570105712",
    "name": "デイサービス　ほほ笑み倶楽部",
    "kana": "デイサービス　ホホエミクラブ",
    "address": "山口県下関市稗田南町７番地９号",
    "lat": 33.9903175587215,
    "lng": 130.930948822089,
    "tel": "083-250-8681",
    "url": "",
    "pref": "山口県",
    "city": "下関市",
    "category": "day_service",
    "serviceType": "通所介護",
    "capacity": 0,
    "openDays": [
      "平日",
      "土曜日",
      "祝日"
    ],
    "openDaysNote": ""
  },
  {
    "id": "3570104384",
    "name": "デイサービス　花水木",
    "kana": "デイサービス　ハナミズキ",
    "address": "山口県下関市大字吉母218番地",
    "lat": 34.0913558,
    "lng": 130.8820096,
    "tel": "083－249－5580",
    "url": "",
    "pref": "山口県",
    "city": "下関市",
    "category": "day_service",
    "serviceType": "通所介護",
    "capacity": 60,
    "openDays": [
      "平日",
      "土曜日",
      "日曜日",
      "祝日"
    ],
    "openDaysNote": ""
  },
  {
    "id": "3570106066",
    "name": "デイサービス　海と空",
    "kana": "デイサービス　ウミトソラ",
    "address": "山口県下関市壇之浦町4-28",
    "lat": 33.9617505313381,
    "lng": 130.952233708598,
    "tel": "083-228-0700",
    "url": "http://reiwakai.com",
    "pref": "山口県",
    "city": "下関市",
    "category": "day_service",
    "serviceType": "通所介護",
    "capacity": 0,
    "openDays": [
      "平日",
      "土曜日",
      "祝日"
    ],
    "openDaysNote": "台風・積雪等により送迎に危険が伴う場合、8/13以外にも休業の可能性あり"
  },
  {
    "id": "3570105878",
    "name": "デイサービス　夢の里",
    "kana": "デイサービス　ユメノサト",
    "address": "下関市新地町3-28",
    "lat": 33.956175,
    "lng": 130.921541,
    "tel": "083-228-2277",
    "url": "http://www.yume-no-kai.com/gaiyo/",
    "pref": "山口県",
    "city": "下関市",
    "category": "day_service",
    "serviceType": "通所介護",
    "capacity": null,
    "openDays": [
      "平日",
      "土曜日"
    ],
    "openDaysNote": "特になし"
  },
  {
    "id": "3570106645",
    "name": "デイサービスアドバンス山の田",
    "kana": "デイサービスアドバンスヤマノタ",
    "address": "下関市山の田東町1-2０",
    "lat": 33.9876728,
    "lng": 130.9300871,
    "tel": "083-242-6776",
    "url": "",
    "pref": "山口県",
    "city": "下関市",
    "category": "day_service",
    "serviceType": "通所介護",
    "capacity": null,
    "openDays": [
      "平日"
    ],
    "openDaysNote": "提供時間は上記以外は応相談いたします。"
  },
  {
    "id": "3570105183",
    "name": "デイサービスかがやき",
    "kana": "デイサービス　カガヤキ",
    "address": "山口県下関市豊浦町黒井１５３６－１",
    "lat": 34.1257049,
    "lng": 130.9131567,
    "tel": "０８３－７７４－１５７７",
    "url": "http://takurousho-ajisai.com",
    "pref": "山口県",
    "city": "下関市",
    "category": "day_service",
    "serviceType": "通所介護",
    "capacity": 0,
    "openDays": [
      "平日",
      "土曜日",
      "日曜日",
      "祝日"
    ],
    "openDaysNote": ""
  },
  {
    "id": "3570103683",
    "name": "デイサービスセンター　すずらん",
    "kana": "デイサービスセンター　スズラン",
    "address": "山口県下関市神田町２丁目１３番５号",
    "lat": 33.9620024,
    "lng": 130.9233661,
    "tel": "083-250-8770",
    "url": "",
    "pref": "山口県",
    "city": "下関市",
    "category": "day_service",
    "serviceType": "通所介護",
    "capacity": 0,
    "openDays": [
      "平日",
      "土曜日",
      "日曜日",
      "祝日"
    ],
    "openDaysNote": ""
  },
  {
    "id": "3570100960",
    "name": "デイサービスセンター　すずらん後田",
    "kana": "デイサービスセンタースズランウシロダ",
    "address": "下関市後田町3丁目1-28住宅型有料老人ホーム　すずらん後田 住宅型有料老人ホーム　すずらん後田",
    "lat": 33.9725014,
    "lng": 130.9326986,
    "tel": "083-250-8536",
    "url": "golden-age-sv.com",
    "pref": "山口県",
    "city": "下関市",
    "category": "day_service",
    "serviceType": "通所介護",
    "capacity": 0,
    "openDays": [
      "平日",
      "土曜日",
      "日曜日",
      "祝日"
    ],
    "openDaysNote": "なし"
  },
  {
    "id": "3570101455",
    "name": "デイサービスセンター　大正浪漫館",
    "kana": "デイサービスセンター　タイショウロマンカン",
    "address": "下関市幡生宮の下町16-3",
    "lat": 33.9827894,
    "lng": 130.9333371,
    "tel": "083-252-5900",
    "url": "http://www.shinsetsu.net/",
    "pref": "山口県",
    "city": "下関市",
    "category": "day_service",
    "serviceType": "通所介護",
    "capacity": 26,
    "openDays": [
      "平日",
      "祝日"
    ],
    "openDaysNote": "特になし"
  },
  {
    "id": "3570103188",
    "name": "デイサービスセンター　道",
    "kana": "デイサービスセンター　ミチ",
    "address": "山口県下関市本町4丁目14番13号",
    "lat": 33.9676852,
    "lng": 130.9503109,
    "tel": "083-242-5551",
    "url": "http://www.you-hodo.co.jp",
    "pref": "山口県",
    "city": "下関市",
    "category": "day_service",
    "serviceType": "通所介護",
    "capacity": 23,
    "openDays": [
      "平日",
      "土曜日",
      "日曜日",
      "祝日"
    ],
    "openDaysNote": "特になし"
  },
  {
    "id": "3577800554",
    "name": "デイサービスセンターＳＵＮ",
    "kana": "デイサービスセンターサン",
    "address": "下関市豊浦町川棚１２１３９－２",
    "lat": 34.1389425,
    "lng": 130.9244276,
    "tel": "083-774-3907",
    "url": "http://hibikikai.byoinnavi.jp",
    "pref": "山口県",
    "city": "下関市",
    "category": "day_service",
    "serviceType": "通所介護",
    "capacity": 33,
    "openDays": [
      "平日",
      "土曜日",
      "祝日"
    ],
    "openDaysNote": "特になし"
  },
  {
    "id": "3570101422",
    "name": "デイサービスセンターあかだ",
    "kana": "デイサービスセンターアカダ",
    "address": "下関市富任町８－８－３",
    "lat": 34.023857968019,
    "lng": 130.927825942975,
    "tel": "083-258-1511",
    "url": "",
    "pref": "山口県",
    "city": "下関市",
    "category": "day_service",
    "serviceType": "通所介護",
    "capacity": 21,
    "openDays": [
      "平日",
      "土曜日",
      "祝日"
    ],
    "openDaysNote": "特になし"
  },
  {
    "id": "3570100598",
    "name": "デイサービスセンター員光",
    "kana": "デイサービスセンターカジミツ",
    "address": "山口県下関市員光１５４４番地",
    "lat": 34.0510554062301,
    "lng": 130.983857162612,
    "tel": "０８３－２４８－５１１５",
    "url": "http://care-net.biz/35/yamabatokai/index.php",
    "pref": "山口県",
    "city": "下関市",
    "category": "day_service",
    "serviceType": "通所介護",
    "capacity": 28,
    "openDays": [
      "平日",
      "土曜日",
      "祝日"
    ],
    "openDaysNote": "台風等、天候悪化が予想される場合は臨時休業する場合がある。"
  },
  {
    "id": "3570105449",
    "name": "デイサービスセンター山茶花",
    "kana": "デイサービスセンターサザンカ",
    "address": "山口県下関市富任町三丁目４番２８号",
    "lat": 34.0210409,
    "lng": 130.9193011,
    "tel": "083-262-1465",
    "url": "https://www.mizunoki.jp/",
    "pref": "山口県",
    "city": "下関市",
    "category": "day_service",
    "serviceType": "通所介護",
    "capacity": 0,
    "openDays": [
      "平日",
      "祝日"
    ],
    "openDaysNote": ""
  },
  {
    "id": "3570104558",
    "name": "デイサービス健歩",
    "kana": "デイサービスケンポ",
    "address": "山口県下関市椋野町3丁目21-11",
    "lat": 33.9804229,
    "lng": 130.9446584,
    "tel": "083-250-8995",
    "url": "",
    "pref": "山口県",
    "city": "下関市",
    "category": "day_service",
    "serviceType": "通所介護",
    "capacity": 30,
    "openDays": [
      "平日",
      "土曜日",
      "祝日"
    ],
    "openDaysNote": ""
  },
  {
    "id": "3570106579",
    "name": "デイサービス四季の森",
    "kana": "デイサービスシキノモリ",
    "address": "山口県下関市一の宮町1ｰ3ｰ46",
    "lat": 34.004302135791,
    "lng": 130.946291591402,
    "tel": "083ｰ250-8911",
    "url": "http://www.e-saving.jp/",
    "pref": "山口県",
    "city": "下関市",
    "category": "day_service",
    "serviceType": "通所介護",
    "capacity": null,
    "openDays": [
      "平日",
      "土曜日",
      "祝日"
    ],
    "openDaysNote": "特になし"
  },
  {
    "id": "3570101018",
    "name": "デイサービス小月",
    "kana": "デイサービスオヅキ",
    "address": "山口県下関市小月宮の町7-3",
    "lat": 34.0743782,
    "lng": 131.0380653,
    "tel": "083-281-3010",
    "url": "http://www.e-saving.jp/",
    "pref": "山口県",
    "city": "下関市",
    "category": "day_service",
    "serviceType": "通所介護",
    "capacity": 0,
    "openDays": [
      "平日",
      "土曜日",
      "祝日"
    ],
    "openDaysNote": "特になし"
  },
  {
    "id": "3570105167",
    "name": "デイサービス笑笑歩",
    "kana": "デイサービスエエホ",
    "address": "山口県下関市西大坪町18-12",
    "lat": 33.9618049,
    "lng": 130.9145755,
    "tel": "083-227-2876",
    "url": "http://hp.kaipoke.biz/2nd/",
    "pref": "山口県",
    "city": "下関市",
    "category": "day_service",
    "serviceType": "通所介護",
    "capacity": 240,
    "openDays": [
      "平日",
      "土曜日",
      "祝日"
    ],
    "openDaysNote": ""
  },
  {
    "id": "3570102412",
    "name": "デイサービス新遊楽",
    "kana": "デイサービスシンユウラク",
    "address": "下関市彦島江の浦町3－11－12",
    "lat": 33.9305079,
    "lng": 130.9144034,
    "tel": "083-266-0123",
    "url": "",
    "pref": "山口県",
    "city": "下関市",
    "category": "day_service",
    "serviceType": "通所介護",
    "capacity": 0,
    "openDays": [
      "平日",
      "土曜日",
      "日曜日",
      "祝日"
    ],
    "openDaysNote": "特になし"
  },
  {
    "id": "3570106223",
    "name": "デイサービス想やい",
    "kana": "デイサービスオモヤイ",
    "address": "山口県下関市山の田西町10-11",
    "lat": 33.987239,
    "lng": 130.9229823,
    "tel": "083-242-1210",
    "url": "http://hp.kaipoke.biz.2nd/",
    "pref": "山口県",
    "city": "下関市",
    "category": "day_service",
    "serviceType": "通所介護",
    "capacity": 150,
    "openDays": [
      "平日",
      "土曜日",
      "祝日"
    ],
    "openDaysNote": ""
  },
  {
    "id": "3570101489",
    "name": "デイサービス豆たん",
    "kana": "デイサービスマメタン",
    "address": "下関市内日下1028-2",
    "lat": 34.100754,
    "lng": 130.9694841,
    "tel": "083-289-2693",
    "url": "http://www.mametan.net/",
    "pref": "山口県",
    "city": "下関市",
    "category": "day_service",
    "serviceType": "通所介護",
    "capacity": 0,
    "openDays": [
      "平日",
      "土曜日",
      "祝日"
    ],
    "openDaysNote": "年末年始、盆等休日"
  },
  {
    "id": "3570106058",
    "name": "デイサービス風の丘",
    "kana": "デイサービスカゼノオカ",
    "address": "山口県下関市生野町2丁目24-22",
    "lat": 33.983931,
    "lng": 130.9335148,
    "tel": "083-291-0839",
    "url": "http://reiwakai.com",
    "pref": "山口県",
    "city": "下関市",
    "category": "day_service",
    "serviceType": "通所介護",
    "capacity": 0,
    "openDays": [
      "平日",
      "土曜日",
      "日曜日",
      "祝日"
    ],
    "openDaysNote": ""
  },
  {
    "id": "3577800109",
    "name": "とよたデイサービスセンター",
    "kana": "トヨタデイサービスセンター",
    "address": "下関市豊田町大字荒木１００５１－２",
    "lat": 34.2528649,
    "lng": 131.0428159,
    "tel": "083-768-0587",
    "url": "http://houzyukai.jp/",
    "pref": "山口県",
    "city": "下関市",
    "category": "day_service",
    "serviceType": "通所介護",
    "capacity": 45,
    "openDays": [
      "平日",
      "土曜日",
      "祝日"
    ],
    "openDaysNote": "特になし"
  },
  {
    "id": "3570103907",
    "name": "ハートケアきらら　デイサービス",
    "kana": "ハートケアキララ　デイサービス",
    "address": "山口県下関市大字福江1425番１ハートケアきららデイサービス ハートケアきららデイサービス",
    "lat": 34.0459736,
    "lng": 130.9152536,
    "tel": "083-262-3401",
    "url": "http://www.adcare.jp/data/heartcarek/",
    "pref": "山口県",
    "city": "下関市",
    "category": "day_service",
    "serviceType": "通所介護",
    "capacity": 30,
    "openDays": [
      "平日",
      "土曜日",
      "祝日"
    ],
    "openDaysNote": "盆は通常通り営業"
  },
  {
    "id": "3570104657",
    "name": "ハートケアしおはまデイサービス",
    "kana": "ハートケアシオハマデイサービス",
    "address": "下関市彦島塩浜町3-14-52",
    "lat": 33.9198647,
    "lng": 130.9111568,
    "tel": "083-227-4865",
    "url": "http://heartcaregroup.net",
    "pref": "山口県",
    "city": "下関市",
    "category": "day_service",
    "serviceType": "通所介護",
    "capacity": 20,
    "openDays": [
      "平日",
      "土曜日",
      "祝日"
    ],
    "openDaysNote": "緊急時、状況変化時この限りではない。"
  },
  {
    "id": "3570104467",
    "name": "ハートケア一の宮デイサービス",
    "kana": "ハートケアイチノミヤデイサービス",
    "address": "山口県下関市一の宮町３丁目3-15ハートケア一の宮　有料老人ホーム　デイサービス ハートケア一の宮　有料老人ホーム　デイサービス",
    "lat": 33.9985102,
    "lng": 130.9506045,
    "tel": "083-256-6228",
    "url": "heartcaregroup.net",
    "pref": "山口県",
    "city": "下関市",
    "category": "day_service",
    "serviceType": "通所介護",
    "capacity": 30,
    "openDays": [
      "平日",
      "土曜日",
      "祝日"
    ],
    "openDaysNote": ""
  },
  {
    "id": "3570101430",
    "name": "はまゆう苑デイサービスセンター",
    "kana": "ハマユウエンデイサービスセンター",
    "address": "山口県下関市綾羅木新町3丁目11番40号",
    "lat": 34.0112521909909,
    "lng": 130.923057774894,
    "tel": "083-251-1112",
    "url": "http://www.syoutoukai.or.jp/",
    "pref": "山口県",
    "city": "下関市",
    "category": "day_service",
    "serviceType": "通所介護",
    "capacity": 0,
    "openDays": [
      "平日",
      "土曜日",
      "祝日"
    ],
    "openDaysNote": "特になし"
  },
  {
    "id": "3570105779",
    "name": "ファインデイサービス",
    "kana": "ファインデイサービス",
    "address": "山口県下関市大字冨任91番地ルナテラス ルナテラス",
    "lat": 34.0248211,
    "lng": 130.927517,
    "tel": "083-262-1765",
    "url": "http:lunar.cafe",
    "pref": "山口県",
    "city": "下関市",
    "category": "day_service",
    "serviceType": "通所介護",
    "capacity": 0,
    "openDays": [
      "平日",
      "土曜日",
      "祝日"
    ],
    "openDaysNote": ""
  },
  {
    "id": "3570100473",
    "name": "フェニックス　デイサービスセンター",
    "kana": "フェニックス　デイサービスセンター",
    "address": "下関市大字小野６４番地の１社会福祉法人暁会　フェニックス 社会福祉法人暁会　フェニックス",
    "lat": 34.0353505,
    "lng": 130.9619617,
    "tel": "083-256-0077",
    "url": "http://www.akatsukikai.com",
    "pref": "山口県",
    "city": "下関市",
    "category": "day_service",
    "serviceType": "通所介護",
    "capacity": 0,
    "openDays": [
      "平日",
      "土曜日",
      "祝日"
    ],
    "openDaysNote": ""
  },
  {
    "id": "3570102339",
    "name": "フロイデ彦島デイサービスセンター",
    "kana": "フロイデヒコシマデイサービスセンター",
    "address": "下関市彦島西山町３丁目１２番１号",
    "lat": 33.9448667,
    "lng": 130.8798682,
    "tel": "083-261-5083",
    "url": "https://www.syoutoukai.or.jp/",
    "pref": "山口県",
    "city": "下関市",
    "category": "day_service",
    "serviceType": "通所介護",
    "capacity": 0,
    "openDays": [
      "平日",
      "土曜日",
      "祝日"
    ],
    "openDaysNote": "特になし"
  },
  {
    "id": "3577800521",
    "name": "ベストライフ川棚　デイサービスセンター",
    "kana": "ベストライフカワタナ　デイサービスセンター",
    "address": "山口県下関市豊浦町大字吉永字越藤１０１６５－１",
    "lat": 34.1262526,
    "lng": 130.931458,
    "tel": "083-775-1165",
    "url": "http:/carelife1165.web.fc2.com/",
    "pref": "山口県",
    "city": "下関市",
    "category": "day_service",
    "serviceType": "通所介護",
    "capacity": 0,
    "openDays": [
      "平日",
      "土曜日",
      "日曜日",
      "祝日"
    ],
    "openDaysNote": "年末年始（12月31日～1月2日）除く。"
  },
  {
    "id": "3570100549",
    "name": "みどり園デイサービスセンター",
    "kana": "ミドリエンデイサービスセンター",
    "address": "山口県下関市長府才川二丁目21-1",
    "lat": 34.0252383,
    "lng": 130.9995583,
    "tel": "083-248-3294",
    "url": "http://www.care-net.biz/35/houaikai/",
    "pref": "山口県",
    "city": "下関市",
    "category": "day_service",
    "serviceType": "通所介護",
    "capacity": 0,
    "openDays": [
      "平日",
      "土曜日",
      "祝日"
    ],
    "openDaysNote": "特になし"
  },
  {
    "id": "3570103386",
    "name": "やすらぎデイサービスＳＵＮ",
    "kana": "ヤスラギデイサービスサン",
    "address": "下関市豊浦町吉永１８１５－１",
    "lat": 34.1393564,
    "lng": 130.9237444,
    "tel": "083-774-3927",
    "url": "http://hibikikai.byoinnavi.jp",
    "pref": "山口県",
    "city": "下関市",
    "category": "day_service",
    "serviceType": "通所介護",
    "capacity": 0,
    "openDays": [
      "平日",
      "土曜日",
      "祝日"
    ],
    "openDaysNote": "特になし"
  },
  {
    "id": "3570102677",
    "name": "リゾートデイ　遊とぴあ",
    "kana": "リゾートデイ　ユウトピア",
    "address": "下関市彦島弟子待東町８－１",
    "lat": 33.9273808,
    "lng": 130.9251246,
    "tel": "083-266-8800",
    "url": "http://hc-h.jp/",
    "pref": "山口県",
    "city": "下関市",
    "category": "day_service",
    "serviceType": "通所介護",
    "capacity": 0,
    "openDays": [
      "平日",
      "土曜日",
      "祝日"
    ],
    "openDaysNote": "特になし"
  },
  {
    "id": "3570106157",
    "name": "リハビリデイサービスさくらやま",
    "kana": "リハビリデイサービスサクラヤマ",
    "address": "山口県下関市上新地町3-2-3",
    "lat": 33.9597469,
    "lng": 130.9193277,
    "tel": "083-227-3412",
    "url": "",
    "pref": "山口県",
    "city": "下関市",
    "category": "day_service",
    "serviceType": "通所介護",
    "capacity": 0,
    "openDays": [
      "平日",
      "土曜日"
    ],
    "openDaysNote": ""
  },
  {
    "id": "3570102750",
    "name": "愛グループ　シャングリラ",
    "kana": "アイグループ　シャングリラ",
    "address": "下関市みもすそ川町23-1",
    "lat": 33.9672936,
    "lng": 130.9548689,
    "tel": "083-231-1165",
    "url": "http://www.aigroup.co.jp",
    "pref": "山口県",
    "city": "下関市",
    "category": "day_service",
    "serviceType": "通所介護",
    "capacity": 0,
    "openDays": [
      "平日",
      "土曜日",
      "祝日"
    ],
    "openDaysNote": "特記なし"
  },
  {
    "id": "3570100671",
    "name": "王喜の郷デイサービスセンター",
    "kana": "オウキノサトデイサービスセンター",
    "address": "下関市王喜本町6丁目1番１２号",
    "lat": 34.0636432,
    "lng": 131.052084,
    "tel": "０８３－２８３－２８３４",
    "url": "http://www.ryokujukai.jp/",
    "pref": "山口県",
    "city": "下関市",
    "category": "day_service",
    "serviceType": "通所介護",
    "capacity": 35,
    "openDays": [
      "平日",
      "土曜日",
      "祝日"
    ],
    "openDaysNote": "特になし"
  },
  {
    "id": "3570106074",
    "name": "株式会社　夢",
    "kana": "カブシキカイシャ　ユメ",
    "address": "山口県下関市梶栗町４丁目８－１５髙橋ふとん店ビル１F 髙橋ふとん店ビル１F",
    "lat": 34.0146112,
    "lng": 130.9225065,
    "tel": "０８３－２５８－０３３４",
    "url": "",
    "pref": "山口県",
    "city": "下関市",
    "category": "day_service",
    "serviceType": "通所介護",
    "capacity": 22,
    "openDays": [
      "平日",
      "土曜日",
      "日曜日",
      "祝日"
    ],
    "openDaysNote": ""
  },
  {
    "id": "3570105290",
    "name": "橘デイサービス",
    "kana": "タチバナデイサービス",
    "address": "山口県下関市豊浦町川棚1545-10",
    "lat": 34.160426,
    "lng": 130.9224855,
    "tel": "083-227-2895",
    "url": "",
    "pref": "山口県",
    "city": "下関市",
    "category": "day_service",
    "serviceType": "通所介護",
    "capacity": 24,
    "openDays": [
      "平日",
      "土曜日",
      "日曜日",
      "祝日"
    ],
    "openDaysNote": ""
  },
  {
    "id": "3570100846",
    "name": "敬老デイサービスセンター",
    "kana": "ケイロウデイサービスセンター",
    "address": "下関市長府中浜町２番５号まつなが医院　４階 まつなが医院　４階",
    "lat": 33.9979547,
    "lng": 130.9900175,
    "tel": "083-227-2237",
    "url": "http://www.matsunagaiin.com/dayservice",
    "pref": "山口県",
    "city": "下関市",
    "category": "day_service",
    "serviceType": "通所介護",
    "capacity": 30,
    "openDays": [
      "平日",
      "土曜日",
      "祝日"
    ],
    "openDaysNote": "台風など自然災害状況により休業とすることあり。"
  },
  {
    "id": "3570103618",
    "name": "三伶デイサービスセンンター",
    "kana": "サンレイデイサービスセンター",
    "address": "山口県下関市一の宮町四丁目１０番１９号",
    "lat": 33.9950688,
    "lng": 130.9487798,
    "tel": "083-260-1261",
    "url": "",
    "pref": "山口県",
    "city": "下関市",
    "category": "day_service",
    "serviceType": "通所介護",
    "capacity": 0,
    "openDays": [
      "平日",
      "土曜日",
      "祝日"
    ],
    "openDaysNote": ""
  },
  {
    "id": "3570105597",
    "name": "燦燦デイサービスセンター",
    "kana": "サンサンデイサービスセンター",
    "address": "下関市大字石原字上岡175－11",
    "lat": 34.0171773,
    "lng": 130.9479931,
    "tel": "083-250-7725",
    "url": "",
    "pref": "山口県",
    "city": "下関市",
    "category": "day_service",
    "serviceType": "通所介護",
    "capacity": 2,
    "openDays": [
      "平日",
      "土曜日",
      "日曜日",
      "祝日"
    ],
    "openDaysNote": ""
  },
  {
    "id": "3570104194",
    "name": "晴晴伶デイサービスセンター",
    "kana": "ハレバレデイサービスセンター",
    "address": "山口県下関市長府浜浦町１４番４号",
    "lat": 33.9835393,
    "lng": 130.9794019,
    "tel": "０８３－２４９－５７１０",
    "url": "",
    "pref": "山口県",
    "city": "下関市",
    "category": "day_service",
    "serviceType": "通所介護",
    "capacity": 0,
    "openDays": [
      "平日",
      "土曜日",
      "日曜日",
      "祝日"
    ],
    "openDaysNote": ""
  },
  {
    "id": "3570104889",
    "name": "長府ケアハウスデイサービスセンター",
    "kana": "チョウフケアハウスデイサービスセンター",
    "address": "山口県下関市長府黒門南町６番５４号昇陽館 昇陽館",
    "lat": 33.9844642,
    "lng": 130.9859318,
    "tel": "083-245-1860",
    "url": "http://www.shinsetsu.net",
    "pref": "山口県",
    "city": "下関市",
    "category": "day_service",
    "serviceType": "通所介護",
    "capacity": 0,
    "openDays": [
      "平日",
      "土曜日",
      "祝日"
    ],
    "openDaysNote": "特になし"
  },
  {
    "id": "3570106538",
    "name": "通所介護野の花",
    "kana": "ツウショカイゴノノハナ",
    "address": "山口県下関市豊浦町大字川棚古川3615番地",
    "lat": 34.1504311314938,
    "lng": 130.931922318874,
    "tel": "837753001",
    "url": "",
    "pref": "山口県",
    "city": "下関市",
    "category": "day_service",
    "serviceType": "通所介護",
    "capacity": 0,
    "openDays": [
      "平日",
      "土曜日",
      "日曜日",
      "祝日"
    ],
    "openDaysNote": ""
  },
  {
    "id": "3570105688",
    "name": "歩行リハビリセンター　テクラ",
    "kana": "ホコウリハビリセンター　テクラ",
    "address": "山口県下関市王司上町5-3-45",
    "lat": 34.0435117,
    "lng": 131.0149011,
    "tel": "083-248-3536",
    "url": "http://tekura-rehapis.com/",
    "pref": "山口県",
    "city": "下関市",
    "category": "day_service",
    "serviceType": "通所介護",
    "capacity": 70,
    "openDays": [
      "平日",
      "祝日"
    ],
    "openDaysNote": ""
  },
  {
    "id": "3570102875",
    "name": "豊寿苑デイサービスセンター",
    "kana": "ホウジュエンデイサービスセンター",
    "address": "山口県下関市豊浦町大字厚母郷１０４４２番地",
    "lat": 34.1185921077872,
    "lng": 130.905686076781,
    "tel": "083-772-0107",
    "url": "http://care-net.biz/35/houjyu/",
    "pref": "山口県",
    "city": "下関市",
    "category": "day_service",
    "serviceType": "通所介護",
    "capacity": null,
    "openDays": [
      "平日",
      "土曜日",
      "祝日"
    ],
    "openDaysNote": ""
  },
  {
    "id": "3570701007",
    "name": "ＪＡデイサービス　生野屋",
    "kana": "ジェイエイデイサービス　イクノヤ",
    "address": "山口県下松市生野屋南3丁目8番3号",
    "lat": 34.0354121,
    "lng": 131.8938533,
    "tel": "0833-45-2294",
    "url": "http://www.jp-syunan.or.jp",
    "pref": "山口県",
    "city": "下松市",
    "category": "day_service",
    "serviceType": "通所介護",
    "capacity": null,
    "openDays": [
      "平日",
      "土曜日",
      "日曜日",
      "祝日"
    ],
    "openDaysNote": "台風、その他の自然災害等によりやむ終えず利用時間の変更または中止させていただくことがあります。"
  },
  {
    "id": "3570701015",
    "name": "JAデイサービス久保",
    "kana": "ジェイエイデイサービスクボ",
    "address": "山口県下松市大字河内７３５番地",
    "lat": 34.0289939436689,
    "lng": 131.907815869935,
    "tel": "0833-47-2294",
    "url": "http://www.ja-syunan",
    "pref": "山口県",
    "city": "下松市",
    "category": "day_service",
    "serviceType": "通所介護",
    "capacity": 0,
    "openDays": [
      "平日",
      "土曜日",
      "祝日"
    ],
    "openDaysNote": "台風、その他の自然災害等によりやむおえず利用時間の変更または中止させていただくことがあります。"
  },
  {
    "id": "3570701270",
    "name": "グレイシア下松デイサービスセンター",
    "kana": "グレイシアクダマツデイサービスセンター",
    "address": "山口県下松市中島町二丁目１番５０号",
    "lat": 34.0113553,
    "lng": 131.8603872,
    "tel": "0833-45-1165",
    "url": "",
    "pref": "山口県",
    "city": "下松市",
    "category": "day_service",
    "serviceType": "通所介護",
    "capacity": null,
    "openDays": [
      "平日",
      "土曜日",
      "祝日"
    ],
    "openDaysNote": ""
  },
  {
    "id": "3570700264",
    "name": "さくら苑デイサービスセンター",
    "kana": "サクラエンデイサービスセンター",
    "address": "下松市瑞穂町2丁目21番1号",
    "lat": 34.0237453,
    "lng": 131.8517907,
    "tel": "0833-44-4515",
    "url": "https://www.abe-medicare.jp/",
    "pref": "山口県",
    "city": "下松市",
    "category": "day_service",
    "serviceType": "通所介護",
    "capacity": 0,
    "openDays": [
      "平日",
      "土曜日",
      "祝日"
    ],
    "openDaysNote": "日曜日は事業所が休みのため、ご相談は平日から土曜日の間にお願いします。"
  },
  {
    "id": "3570700793",
    "name": "デイサービス　マル",
    "kana": "デイサービス　マル",
    "address": "下松市大字来巻９５１番地３",
    "lat": 34.0230044,
    "lng": 131.9298597,
    "tel": "0833-46-2668",
    "url": "",
    "pref": "山口県",
    "city": "下松市",
    "category": "day_service",
    "serviceType": "通所介護",
    "capacity": 25,
    "openDays": [
      "平日",
      "土曜日",
      "祝日"
    ],
    "openDaysNote": ""
  },
  {
    "id": "3570700967",
    "name": "デイサービスセンター　いこい",
    "kana": "デイサービスセンター　イコイ",
    "address": "山口県下松市大手町２－１０－２９下松市NTTビル１階 下松市NTTビル１階",
    "lat": 34.0125995,
    "lng": 131.8676563,
    "tel": "0833-43-3240",
    "url": "",
    "pref": "山口県",
    "city": "下松市",
    "category": "day_service",
    "serviceType": "通所介護",
    "capacity": 19,
    "openDays": [
      "平日",
      "日曜日",
      "祝日"
    ],
    "openDaysNote": ""
  },
  {
    "id": "3570700827",
    "name": "デイサービスセンター　ねがい星",
    "kana": "デイサービスセンター　ネガイボシ",
    "address": "下松市東陽6-1-1サービス付き高齢者向け住宅ねがい星 サービス付き高齢者向け住宅ねがい星",
    "lat": 34.0321825,
    "lng": 131.914096,
    "tel": "0833-46-0015",
    "url": "",
    "pref": "山口県",
    "city": "下松市",
    "category": "day_service",
    "serviceType": "通所介護",
    "capacity": 5,
    "openDays": [
      "平日",
      "土曜日",
      "祝日"
    ],
    "openDaysNote": ""
  },
  {
    "id": "3570700702",
    "name": "デイサービスセンター　ブリスケア",
    "kana": "デイサービスセンター　ブリスケア",
    "address": "下松市望町一丁目１１番２８号",
    "lat": 34.0280701,
    "lng": 131.8610203,
    "tel": "0833-48-1088",
    "url": "",
    "pref": "山口県",
    "city": "下松市",
    "category": "day_service",
    "serviceType": "通所介護",
    "capacity": 0,
    "openDays": [
      "平日",
      "土曜日",
      "日曜日",
      "祝日"
    ],
    "openDaysNote": ""
  },
  {
    "id": "3570701049",
    "name": "デイサービスセンター星ひろば",
    "kana": "デイサービスセンターホシヒロバ",
    "address": "山口県下松市古川町3丁目１－２",
    "lat": 34.0073529,
    "lng": 131.8723283,
    "tel": "０８３３－４８－８５４５",
    "url": "http://ryokuzankai.jp/index.html",
    "pref": "山口県",
    "city": "下松市",
    "category": "day_service",
    "serviceType": "通所介護",
    "capacity": 0,
    "openDays": [
      "平日",
      "土曜日",
      "祝日"
    ],
    "openDaysNote": ""
  },
  {
    "id": "3570701247",
    "name": "デイサービス優",
    "kana": "デイービスユウ",
    "address": "せせらぎ町3丁目3-22",
    "lat": 34.0186756,
    "lng": 131.8608766,
    "tel": "0833-45-2020",
    "url": "",
    "pref": "山口県",
    "city": "下松市",
    "category": "day_service",
    "serviceType": "通所介護",
    "capacity": null,
    "openDays": [
      "平日",
      "土曜日",
      "祝日"
    ],
    "openDaysNote": ""
  },
  {
    "id": "3570700454",
    "name": "ニチイケアセンター下松",
    "kana": "ニチイケアセンタークダマツ",
    "address": "下松市せせらぎ町1丁目2-31",
    "lat": 34.0162379,
    "lng": 131.8607235,
    "tel": "0833-48-1080",
    "url": "http://www.nichiigakkan.co.jp",
    "pref": "山口県",
    "city": "下松市",
    "category": "day_service",
    "serviceType": "通所介護",
    "capacity": 35,
    "openDays": [
      "平日",
      "土曜日",
      "日曜日",
      "祝日"
    ],
    "openDaysNote": "特になし"
  },
  {
    "id": "3570700868",
    "name": "のんびり村花岡デイサービスセンター",
    "kana": "ノンビリムラ　ハナオカ　デイサービスセンター",
    "address": "下松市末武上久保田1800-1",
    "lat": 34.0361282521857,
    "lng": 131.870239068648,
    "tel": "0833-48-5577",
    "url": "http://www.homecare-yamaguchi.co.jp/",
    "pref": "山口県",
    "city": "下松市",
    "category": "day_service",
    "serviceType": "通所介護",
    "capacity": 0,
    "openDays": [
      "平日",
      "土曜日",
      "祝日"
    ],
    "openDaysNote": ""
  },
  {
    "id": "3570700124",
    "name": "ほしのさとデイサービスセンター",
    "kana": "ホシノサトデイサービスセンター",
    "address": "下松市生野屋南１－１３－１",
    "lat": 34.0314425,
    "lng": 131.8741191,
    "tel": "0833-45-3100",
    "url": "http://hoshiosato.strikingly.com/",
    "pref": "山口県",
    "city": "下松市",
    "category": "day_service",
    "serviceType": "通所介護",
    "capacity": 0,
    "openDays": [
      "平日",
      "土曜日",
      "祝日"
    ],
    "openDaysNote": ""
  },
  {
    "id": "3570701155",
    "name": "山口県下松市大字笠戸島100３２－３８",
    "kana": "ヤマグチケンクダマツシオオアザカサドジマ",
    "address": "山口県下松市大字笠戸島10032-38笠戸島福祉介護センター 笠戸島福祉介護センター",
    "lat": 33.951995,
    "lng": 131.8511447,
    "tel": "0833-52-1155",
    "url": "",
    "pref": "山口県",
    "city": "下松市",
    "category": "day_service",
    "serviceType": "通所介護",
    "capacity": 0,
    "openDays": [
      "平日",
      "土曜日",
      "祝日"
    ],
    "openDaysNote": ""
  },
  {
    "id": "3570700082",
    "name": "松寿苑デイサ－ビスセンタ－",
    "kana": "ショウジュエンデイサ－ビスセンタ－",
    "address": "下松市大字来巻９４４番地の１",
    "lat": 34.0238309,
    "lng": 131.9302866,
    "tel": "0833-47-0753",
    "url": "http://www.syojuen.com",
    "pref": "山口県",
    "city": "下松市",
    "category": "day_service",
    "serviceType": "通所介護",
    "capacity": 35,
    "openDays": [
      "平日",
      "祝日"
    ],
    "openDaysNote": "天災その他やむを得ず業務を遂行できない日は土曜日ならびに日曜日へ営業日を振替ます。"
  },
  {
    "id": "3570701288",
    "name": "真樹苑デイサービスセンター",
    "kana": "シンジュエンデイサービスセンター",
    "address": "山口県下松市瑞穂町4丁目16-16",
    "lat": 34.0253448,
    "lng": 131.84666,
    "tel": "0833-48-8882",
    "url": "",
    "pref": "山口県",
    "city": "下松市",
    "category": "day_service",
    "serviceType": "通所介護",
    "capacity": null,
    "openDays": [
      "平日"
    ],
    "openDaysNote": ""
  },
  {
    "id": "3570700371",
    "name": "生活リハビリセンター友・遊",
    "kana": "セイカツリハビリセンターユウ・ユウ",
    "address": "下松市大字河内中戸原１８９７番地",
    "lat": 34.0212771309521,
    "lng": 131.8874098,
    "tel": "0833-45-6501",
    "url": "",
    "pref": "山口県",
    "city": "下松市",
    "category": "day_service",
    "serviceType": "通所介護",
    "capacity": 35,
    "openDays": [
      "平日",
      "土曜日",
      "祝日"
    ],
    "openDaysNote": ""
  },
  {
    "id": "3570701197",
    "name": "多機能型事業所来歩",
    "kana": "タキノウガタジギョウショライフ",
    "address": "山口県下松市西柳三丁目4番27号",
    "lat": 34.0145437,
    "lng": 131.8634205,
    "tel": "0833-45-3600",
    "url": "https://sogoreha.info/",
    "pref": "山口県",
    "city": "下松市",
    "category": "day_service",
    "serviceType": "通所介護",
    "capacity": 0,
    "openDays": [
      "平日",
      "土曜日",
      "祝日"
    ],
    "openDaysNote": ""
  },
  {
    "id": "3570700579",
    "name": "来歩リハビリステージ",
    "kana": "ライフリハビリステージ",
    "address": "山口県下松市古川町4-5-7",
    "lat": 34.0062538094284,
    "lng": 131.871250002191,
    "tel": "0833-48-3501",
    "url": "http://sogoreha.info/",
    "pref": "山口県",
    "city": "下松市",
    "category": "day_service",
    "serviceType": "通所介護",
    "capacity": 0,
    "openDays": [
      "平日",
      "土曜日",
      "祝日"
    ],
    "openDaysNote": ""
  },
  {
    "id": "3570800486",
    "name": "いしいケア・クリニック　デイサービスセンターのぞみ",
    "kana": "イシイケアクリニック　デイサービスセンターノゾミ",
    "address": "山口県岩国市麻里布町3丁目5番5号",
    "lat": 34.1721193,
    "lng": 132.2137565,
    "tel": "0827-29-0708",
    "url": "",
    "pref": "山口県",
    "city": "岩国市",
    "category": "day_service",
    "serviceType": "通所介護",
    "capacity": 0,
    "openDays": [
      "平日",
      "土曜日",
      "祝日"
    ],
    "openDaysNote": "特になし"
  },
  {
    "id": "3570800916",
    "name": "ウェルネス",
    "kana": "ウェルネス",
    "address": "岩国市南岩国町一丁目18番20号",
    "lat": 34.1364319,
    "lng": 132.2028328,
    "tel": "0827-34-2333",
    "url": "",
    "pref": "山口県",
    "city": "岩国市",
    "category": "day_service",
    "serviceType": "通所介護",
    "capacity": 45,
    "openDays": [
      "平日",
      "祝日"
    ],
    "openDaysNote": ""
  },
  {
    "id": "3570802292",
    "name": "ウェルネス通津",
    "kana": "ウェルネスツヅ",
    "address": "山口県岩国市保津町2丁目9-33",
    "lat": 34.0793997,
    "lng": 132.2089091,
    "tel": "0827-30-9866",
    "url": "",
    "pref": "山口県",
    "city": "岩国市",
    "category": "day_service",
    "serviceType": "通所介護",
    "capacity": 30,
    "openDays": [
      "平日",
      "祝日"
    ],
    "openDaysNote": "お盆・お正月　お休みがあります"
  },
  {
    "id": "3570802151",
    "name": "グラントリハビリセンター",
    "kana": "グラントリハビリセンター",
    "address": "山口県岩国市麻里布町6丁目10-32安藤ビル 安藤ビル",
    "lat": 34.1696224,
    "lng": 132.2195312,
    "tel": "0827-28-5026",
    "url": "http://hp.kaipoke.biz/a9n/",
    "pref": "山口県",
    "city": "岩国市",
    "category": "day_service",
    "serviceType": "通所介護",
    "capacity": 0,
    "openDays": [
      "平日",
      "土曜日",
      "祝日"
    ],
    "openDaysNote": "午前午後の2単位でサービス提供を行っています。（改行）令和元年10月1日よりサテライト事業所を行っております。"
  },
  {
    "id": "3570801740",
    "name": "シンシアゆうわデイサービスセンター",
    "kana": "シンシアユウワデイサービスセンター",
    "address": "岩国市藤生町３丁目２７番８号",
    "lat": 34.1195723,
    "lng": 132.1914732,
    "tel": "0827-34-6002",
    "url": "http://www.yuwaen.net",
    "pref": "山口県",
    "city": "岩国市",
    "category": "day_service",
    "serviceType": "通所介護",
    "capacity": 0,
    "openDays": [
      "平日",
      "土曜日",
      "祝日"
    ],
    "openDaysNote": "特になし"
  },
  {
    "id": "3577200854",
    "name": "せんぞく苑　デイサービスセンター",
    "kana": "センゾクエン　デイサービスセンター",
    "address": "山口県岩国市周東町下久原443番地６",
    "lat": 34.0898539,
    "lng": 132.0618343,
    "tel": "0827-83-0100",
    "url": "http://www.takamori-fukushikai.hello-net.info/",
    "pref": "山口県",
    "city": "岩国市",
    "category": "day_service",
    "serviceType": "通所介護",
    "capacity": 0,
    "openDays": [
      "平日",
      "土曜日",
      "祝日"
    ],
    "openDaysNote": "特に無し"
  },
  {
    "id": "3570801021",
    "name": "デイサービスセンター　かえで",
    "kana": "デイサービスセンター　カエデ",
    "address": "山口県岩国市南岩国町4-59-5-1",
    "lat": 34.1308991,
    "lng": 132.1967391,
    "tel": "0827-34-2777",
    "url": "http://www.sansikai.com/ins/kaede-top.html",
    "pref": "山口県",
    "city": "岩国市",
    "category": "day_service",
    "serviceType": "通所介護",
    "capacity": 32,
    "openDays": [
      "平日",
      "土曜日",
      "祝日"
    ],
    "openDaysNote": ""
  },
  {
    "id": "3570800510",
    "name": "デイサービスセンター　なごみ",
    "kana": "デイサービスセンター　ナゴミ",
    "address": "岩国市昭和町二丁目ー１８－２３",
    "lat": 34.1735834,
    "lng": 132.2320745,
    "tel": "0827-30-1455",
    "url": "",
    "pref": "山口県",
    "city": "岩国市",
    "category": "day_service",
    "serviceType": "通所介護",
    "capacity": 40,
    "openDays": [
      "平日",
      "土曜日"
    ],
    "openDaysNote": "特になし"
  },
  {
    "id": "3570800999",
    "name": "デイサービスセンターあかしあ",
    "kana": "デイサービスセンターアカシア",
    "address": "山口県岩国市今津町1丁目10－9",
    "lat": 34.1671504,
    "lng": 132.2208394,
    "tel": "0827-30-0802",
    "url": "",
    "pref": "山口県",
    "city": "岩国市",
    "category": "day_service",
    "serviceType": "通所介護",
    "capacity": 28,
    "openDays": [
      "平日",
      "土曜日",
      "祝日"
    ],
    "openDaysNote": ""
  },
  {
    "id": "3570800437",
    "name": "デイサービスセンターさくらんぼ麻里布",
    "kana": "デイサービスセンターサクランボマリフ",
    "address": "岩国市室の木町1丁目1-50いしいケアビルディング いしいケアビルディング",
    "lat": 34.1720211986933,
    "lng": 132.213761283823,
    "tel": "0827-29-3838",
    "url": "",
    "pref": "山口県",
    "city": "岩国市",
    "category": "day_service",
    "serviceType": "通所介護",
    "capacity": 0,
    "openDays": [
      "平日",
      "土曜日",
      "日曜日",
      "祝日"
    ],
    "openDaysNote": "年中無休"
  },
  {
    "id": "3570802490",
    "name": "デイサービスセンターだんけ",
    "kana": "デイサービスセンターダンケ",
    "address": "山口県岩国市周東町下久原36番地1グループホームだんけぐーと有延 グループホームだんけぐーと有延",
    "lat": 34.0889741,
    "lng": 132.0735572,
    "tel": "0827-81-1051",
    "url": "",
    "pref": "山口県",
    "city": "岩国市",
    "category": "day_service",
    "serviceType": "通所介護",
    "capacity": 0,
    "openDays": [
      "平日",
      "土曜日"
    ],
    "openDaysNote": ""
  },
  {
    "id": "3570801294",
    "name": "デイサービスセンターつづの里",
    "kana": "デイサービスセンターツヅノサト",
    "address": "山口県岩国市通津字迫田11117番地297",
    "lat": 34.071848,
    "lng": 132.2072816,
    "tel": "0827-39-1025",
    "url": "http://www.tudunanwakai.jp/",
    "pref": "山口県",
    "city": "岩国市",
    "category": "day_service",
    "serviceType": "通所介護",
    "capacity": 0,
    "openDays": [
      "平日",
      "土曜日",
      "祝日"
    ],
    "openDaysNote": "特になし"
  },
  {
    "id": "3570802326",
    "name": "デイサービスのびのび",
    "kana": "デイサービスノビノビ",
    "address": "山口県岩国市周東町下久原1464-2",
    "lat": 34.0877084453367,
    "lng": 132.044761140337,
    "tel": "0827-28-6929",
    "url": "https://blog.canpan.info/nobinobiday/",
    "pref": "山口県",
    "city": "岩国市",
    "category": "day_service",
    "serviceType": "通所介護",
    "capacity": 0,
    "openDays": [
      "平日",
      "祝日"
    ],
    "openDaysNote": "祝日営業（改行）12/31～1/3　休業"
  },
  {
    "id": "3570802425",
    "name": "ディサービスわくわく",
    "kana": "デイサービスワクワク",
    "address": "山口県岩国市麻里布町5丁目15-272F 2F",
    "lat": 34.1754272,
    "lng": 132.2226205,
    "tel": "0827-35-5456",
    "url": "",
    "pref": "山口県",
    "city": "岩国市",
    "category": "day_service",
    "serviceType": "通所介護",
    "capacity": 0,
    "openDays": [
      "平日",
      "日曜日",
      "祝日"
    ],
    "openDaysNote": "年始1/1-2を除き、祝日（GW含む）、お盆は営業しております。"
  },
  {
    "id": "3570802136",
    "name": "デイサービス一楽　通津",
    "kana": "デイサービスイチラク　ツヅ",
    "address": "山口県岩国市通津２４０９番地１",
    "lat": 34.0737366,
    "lng": 132.2084009,
    "tel": "０８２７－３８－２０８１",
    "url": "",
    "pref": "山口県",
    "city": "岩国市",
    "category": "day_service",
    "serviceType": "通所介護",
    "capacity": 19,
    "openDays": [
      "平日",
      "土曜日",
      "祝日"
    ],
    "openDaysNote": ""
  },
  {
    "id": "3570802342",
    "name": "岩国ケアセンターそよ風",
    "kana": "イワクニケアセンターソヨカゼ",
    "address": "山口県岩国市今津町1丁目12番27号岩国ケアセンターそよ風 岩国ケアセンターそよ風",
    "lat": 34.1663246,
    "lng": 132.2213101,
    "tel": "0827-29-0377",
    "url": "https://www.sykz.co.jp/",
    "pref": "山口県",
    "city": "岩国市",
    "category": "day_service",
    "serviceType": "通所介護",
    "capacity": 0,
    "openDays": [
      "平日",
      "土曜日",
      "日曜日",
      "祝日"
    ],
    "openDaysNote": ""
  },
  {
    "id": "3570801161",
    "name": "岩国デイサービスセンターにしみ苑",
    "kana": "イワクニデイサービスセンターニシミエン",
    "address": "岩国市錦見2-６-12",
    "lat": 34.1665616,
    "lng": 132.1925857,
    "tel": "0827-43-3763",
    "url": "http://www.iwasha.jp",
    "pref": "山口県",
    "city": "岩国市",
    "category": "day_service",
    "serviceType": "通所介護",
    "capacity": 40,
    "openDays": [
      "平日",
      "祝日"
    ],
    "openDaysNote": "特になし"
  },
  {
    "id": "3577200326",
    "name": "錦苑デイサービスセンター",
    "kana": "ニシキエンデイサービスセンター",
    "address": "岩国市錦町広瀬７５８番地",
    "lat": 34.2569949,
    "lng": 131.9502922,
    "tel": "0827-72-3523",
    "url": "https://nishiki-f.com/",
    "pref": "山口県",
    "city": "岩国市",
    "category": "day_service",
    "serviceType": "通所介護",
    "capacity": 0,
    "openDays": [
      "平日",
      "土曜日",
      "日曜日",
      "祝日"
    ],
    "openDaysNote": ""
  },
  {
    "id": "3577200276",
    "name": "玖珂苑デイサービスセンター",
    "kana": "クガエンデイサービスセンター",
    "address": "山口県岩国市玖珂町3813番地6",
    "lat": 34.0818525,
    "lng": 132.0986224,
    "tel": "0827-82-0555",
    "url": "http://www.takamori-fukushikai.or.jp/",
    "pref": "山口県",
    "city": "岩国市",
    "category": "day_service",
    "serviceType": "通所介護",
    "capacity": 25,
    "openDays": [
      "平日",
      "土曜日",
      "祝日"
    ],
    "openDaysNote": "特になし"
  },
  {
    "id": "3577200268",
    "name": "高森苑デイサービスセンター",
    "kana": "タカモリエンデイサービスセンター",
    "address": "山口県岩国市周東町西長野621番地1",
    "lat": 34.0876673,
    "lng": 132.0272692,
    "tel": "0827-84-3747",
    "url": "http://www.takamori-fukushikai.or.jp/",
    "pref": "山口県",
    "city": "岩国市",
    "category": "day_service",
    "serviceType": "通所介護",
    "capacity": 0,
    "openDays": [
      "平日",
      "土曜日",
      "祝日"
    ],
    "openDaysNote": ""
  },
  {
    "id": "3570802110",
    "name": "寺迫デイサービスセンター",
    "kana": "テラサコデイサービスセンター",
    "address": "山口県岩国市由宇町3918-1",
    "lat": 34.0310916514679,
    "lng": 132.216429191173,
    "tel": "0827-63-6611",
    "url": "",
    "pref": "山口県",
    "city": "岩国市",
    "category": "day_service",
    "serviceType": "通所介護",
    "capacity": 20,
    "openDays": [
      "平日",
      "土曜日",
      "祝日"
    ],
    "openDaysNote": ""
  },
  {
    "id": "3570801609",
    "name": "渡辺薬局デイサービスセンター　なごやか",
    "kana": "ワタナベヤッキョクデイサービスセンター　ナゴヤカ",
    "address": "岩国市麻里布町5丁目3-8岩国ウィークリーマンション　２Ｆ 岩国ウィークリーマンション　２Ｆ",
    "lat": 34.1739748,
    "lng": 132.2239807,
    "tel": "0827-22-4165",
    "url": "http://www.iwayaku.com/watanabe/",
    "pref": "山口県",
    "city": "岩国市",
    "category": "day_service",
    "serviceType": "通所介護",
    "capacity": 30,
    "openDays": [
      "平日",
      "土曜日",
      "祝日"
    ],
    "openDaysNote": "H28年5月5日は定休日だったが、H29年5月より営業日となった。"
  },
  {
    "id": "3577200318",
    "name": "美和苑デイサービスセンター",
    "kana": "ミワエンデイサービスセンター",
    "address": "山口県岩国市美和町生見１２５３８",
    "lat": 34.2270644839095,
    "lng": 132.06829427581,
    "tel": "0827-96-1128",
    "url": "http://miwafukushikai.jp",
    "pref": "山口県",
    "city": "岩国市",
    "category": "day_service",
    "serviceType": "通所介護",
    "capacity": 30,
    "openDays": [
      "平日",
      "土曜日",
      "祝日"
    ],
    "openDaysNote": "特になし"
  },
  {
    "id": "3570800403",
    "name": "平成デイサービスセンター黒磯",
    "kana": "ヘイセイデイサービスセンタークロイソ",
    "address": "山口県岩国市黒磯町2-50-14",
    "lat": 34.1035295,
    "lng": 132.1945347,
    "tel": "0827-34-2255",
    "url": "https://kuroiso.heisei-ds.jp/",
    "pref": "山口県",
    "city": "岩国市",
    "category": "day_service",
    "serviceType": "通所介護",
    "capacity": 35,
    "openDays": [
      "平日",
      "土曜日"
    ],
    "openDaysNote": "天候により休みあり（台風接近時及び大雪・大雨）"
  },
  {
    "id": "3570800262",
    "name": "平成デイサービスセンター平田",
    "kana": "ヘイセイデイサービスセンターヒラタ",
    "address": "山口県岩国市平田5丁目31－7",
    "lat": 34.1403203,
    "lng": 132.1902671,
    "tel": "0827-34-1111",
    "url": "https://hirata.heisei-ds.jp/",
    "pref": "山口県",
    "city": "岩国市",
    "category": "day_service",
    "serviceType": "通所介護",
    "capacity": 50,
    "openDays": [
      "平日",
      "土曜日"
    ],
    "openDaysNote": "特になし"
  },
  {
    "id": "3570800148",
    "name": "有限会社渡辺薬局在宅ケアサービス本通りデイサービス",
    "kana": "ユウゲンガイシャワタナベヤッキョクザイタクケアサービスホンドオリデイサービス",
    "address": "山口県岩国市麻里布町2-1-9",
    "lat": 34.1713972,
    "lng": 132.2242419,
    "tel": "0827-30-5188",
    "url": "http://iwayaku.com/watanabe/",
    "pref": "山口県",
    "city": "岩国市",
    "category": "day_service",
    "serviceType": "通所介護",
    "capacity": 0,
    "openDays": [
      "平日",
      "土曜日",
      "祝日"
    ],
    "openDaysNote": "台風・積雪等でやむを得ず臨時休業、時短営業を行う場合あり。（改行）　臨時休業時はケアマネージャー・ご家族にご連絡します。"
  },
  {
    "id": "3577200375",
    "name": "緑風荘デイサービスセンター",
    "kana": "リョクフウソウデイサービスセンター",
    "address": "山口県岩国市由宇町3018番地1",
    "lat": 34.0282774,
    "lng": 132.1632257,
    "tel": "0827-62-1122",
    "url": "http://ryokufuukai.net/",
    "pref": "山口県",
    "city": "岩国市",
    "category": "day_service",
    "serviceType": "通所介護",
    "capacity": 0,
    "openDays": [
      "平日",
      "土曜日",
      "祝日"
    ],
    "openDaysNote": "特になし"
  },
  {
    "id": "3571000763",
    "name": "さくらデイサービス光",
    "kana": "サクラデイサービスヒカリ",
    "address": "山口県光市中央三丁目7番18号",
    "lat": 33.9573035,
    "lng": 131.9457513,
    "tel": "0833－71－0787",
    "url": "",
    "pref": "山口県",
    "city": "光市",
    "category": "day_service",
    "serviceType": "通所介護",
    "capacity": null,
    "openDays": [
      "平日",
      "土曜日",
      "祝日"
    ],
    "openDaysNote": ""
  },
  {
    "id": "3571000680",
    "name": "デイサービスセンターきくや",
    "kana": "デイサービスセンターキクヤ",
    "address": "光市大字立野1403-1",
    "lat": 34.0057143,
    "lng": 131.9724749,
    "tel": "0833-77-0185",
    "url": "",
    "pref": "山口県",
    "city": "光市",
    "category": "day_service",
    "serviceType": "通所介護",
    "capacity": 0,
    "openDays": [
      "平日",
      "祝日"
    ],
    "openDaysNote": ""
  },
  {
    "id": "3571000821",
    "name": "デイサービスセンターきらら光",
    "kana": "デイサービスセンターキララヒカリ",
    "address": "山口県光市小周防１６５６－８",
    "lat": 34.0194769,
    "lng": 131.9774912,
    "tel": "0833-76-0550",
    "url": "http://yu-kikai.org/",
    "pref": "山口県",
    "city": "光市",
    "category": "day_service",
    "serviceType": "通所介護",
    "capacity": 0,
    "openDays": [
      "平日",
      "土曜日",
      "日曜日",
      "祝日"
    ],
    "openDaysNote": ""
  },
  {
    "id": "3571000573",
    "name": "デイサービスセンターひかり苑",
    "kana": "デイサービスセンターヒカリエン",
    "address": "山口県光市大字三井１０４６番地１",
    "lat": 33.9927152,
    "lng": 131.9509161,
    "tel": "０８３３－７６－１１７０",
    "url": "http://www.hikari-en.jp",
    "pref": "山口県",
    "city": "光市",
    "category": "day_service",
    "serviceType": "通所介護",
    "capacity": 0,
    "openDays": [
      "平日",
      "土曜日",
      "祝日"
    ],
    "openDaysNote": ""
  },
  {
    "id": "3571000565",
    "name": "デーサービス風車ひかり",
    "kana": "デイサービス　フウシャ　ヒカリ",
    "address": "光市光が丘４番５号",
    "lat": 33.9811768,
    "lng": 131.9208747,
    "tel": "0833-48-8085",
    "url": "",
    "pref": "山口県",
    "city": "光市",
    "category": "day_service",
    "serviceType": "通所介護",
    "capacity": 100,
    "openDays": [
      "平日",
      "土曜日",
      "祝日"
    ],
    "openDaysNote": ""
  },
  {
    "id": "3571000177",
    "name": "ニチイケアセンター光",
    "kana": "ニチイケアセンターヒカリ",
    "address": "山口県光市木園1-5-32",
    "lat": 33.978313875443,
    "lng": 131.93033018746,
    "tel": "0833-74-2888",
    "url": "",
    "pref": "山口県",
    "city": "光市",
    "category": "day_service",
    "serviceType": "通所介護",
    "capacity": 24,
    "openDays": [
      "平日",
      "土曜日",
      "日曜日",
      "祝日"
    ],
    "openDaysNote": ""
  },
  {
    "id": "3577300175",
    "name": "やまと苑デイサービスセンター",
    "kana": "ヤマトエンデイサービスセンター",
    "address": "山口県光市大字岩田２６７番地",
    "lat": 33.974638,
    "lng": 131.9886271,
    "tel": "0820-48-4333",
    "url": "http://www.yamatoｆukushikai.jp/",
    "pref": "山口県",
    "city": "光市",
    "category": "day_service",
    "serviceType": "通所介護",
    "capacity": 0,
    "openDays": [
      "平日",
      "土曜日",
      "祝日"
    ],
    "openDaysNote": "特になし"
  },
  {
    "id": "3571000722",
    "name": "株式会社ミズタ　デイサービス美ら海",
    "kana": "カブシキガイシャミズタデイサービチュラミ",
    "address": "山口県光市室積8丁目3番1号デイサービス美ら海 デイサービス美ら海",
    "lat": 33.9213298,
    "lng": 131.9696161,
    "tel": "0833-79-3322",
    "url": "",
    "pref": "山口県",
    "city": "光市",
    "category": "day_service",
    "serviceType": "通所介護",
    "capacity": 30,
    "openDays": [
      "平日",
      "土曜日",
      "祝日"
    ],
    "openDaysNote": ""
  },
  {
    "id": "3571000060",
    "name": "光寿苑デイサービスセンター",
    "kana": "コウジュエンデイサービスセンター",
    "address": "山口県光市室積沖田3035番地1",
    "lat": 33.9348140351078,
    "lng": 131.974369188808,
    "tel": "0833-79-0777",
    "url": "https://koujyuen-top.jimdofree.com/光寿苑デイサービスセンター",
    "pref": "山口県",
    "city": "光市",
    "category": "day_service",
    "serviceType": "通所介護",
    "capacity": 0,
    "openDays": [
      "平日",
      "土曜日",
      "祝日"
    ],
    "openDaysNote": "特になし"
  },
  {
    "id": "3571000052",
    "name": "光富士白苑デイサービスセンター",
    "kana": "ヒカリフジシロエンデイサービスセンター",
    "address": "山口県光市虹ヶ浜2丁目5番12号",
    "lat": 33.968867,
    "lng": 131.9183864,
    "tel": "0833-71-1788",
    "url": "http://www.h-fuji.com/",
    "pref": "山口県",
    "city": "光市",
    "category": "day_service",
    "serviceType": "通所介護",
    "capacity": 40,
    "openDays": [
      "平日",
      "土曜日",
      "祝日"
    ],
    "openDaysNote": ""
  },
  {
    "id": "3571000870",
    "name": "在宅リハビリテーション光ケ丘",
    "kana": "ザイタクリハビリテーションヒカリガオカ",
    "address": "山口県光市光ケ丘5番18号高齢者複合施設ひかり苑 高齢者複合施設ひかり苑",
    "lat": 33.9813378,
    "lng": 131.9192721,
    "tel": "0833-74-1201",
    "url": "URLhttp://www.hikari-en.jp",
    "pref": "山口県",
    "city": "光市",
    "category": "day_service",
    "serviceType": "通所介護",
    "capacity": 0,
    "openDays": [
      "平日",
      "土曜日",
      "祝日"
    ],
    "openDaysNote": "特になし。"
  },
  {
    "id": "3571000912",
    "name": "指定通所介護事業所ほっとはーと",
    "kana": "シテイツウショカイゴジギョウショ　ホットハ-ト",
    "address": "山口県光市虹ケ浜1-1-10ケアホームあさひ ケアホームあさひ",
    "lat": 33.9741545,
    "lng": 131.9198215,
    "tel": "0833-48-7165",
    "url": "https://hot-heart.co.jp",
    "pref": "山口県",
    "city": "光市",
    "category": "day_service",
    "serviceType": "通所介護",
    "capacity": 0,
    "openDays": [
      "平日",
      "土曜日",
      "祝日"
    ],
    "openDaysNote": ""
  },
  {
    "id": "3570302426",
    "name": "あじす陽だまりの家デイサービス",
    "kana": "アジスヒダマリノイエデイサービス",
    "address": "山口県山口市阿知須4724-1",
    "lat": 34.0085341508216,
    "lng": 131.35730694313,
    "tel": "0836-65-5166",
    "url": "",
    "pref": "山口県",
    "city": "山口市",
    "category": "day_service",
    "serviceType": "通所介護",
    "capacity": 0,
    "openDays": [
      "平日",
      "土曜日",
      "祝日"
    ],
    "openDaysNote": ""
  },
  {
    "id": "3570303812",
    "name": "ウェルネスセンター中央　デイトレセンター",
    "kana": "ウェルネスセンターチュウオウ　デイトレセンター",
    "address": "山口県山口市神田町1-42",
    "lat": 34.1717333,
    "lng": 131.4573046,
    "tel": "083-902-5290",
    "url": "http://www.seirankai.or.jp",
    "pref": "山口県",
    "city": "山口市",
    "category": "day_service",
    "serviceType": "通所介護",
    "capacity": 100,
    "openDays": [
      "平日",
      "土曜日",
      "日曜日",
      "祝日"
    ],
    "openDaysNote": "特になし"
  },
  {
    "id": "3570303689",
    "name": "ケアタウン日の山デイサービスセンター",
    "kana": "ケアタウンヒノヤマデイサービスセンター",
    "address": "山口県山口市阿知須2581-1ケアタウン日の山 ケアタウン日の山",
    "lat": 33.9990896241635,
    "lng": 131.353138690346,
    "tel": "0836-39-8482",
    "url": "https://www.mubekouei.com",
    "pref": "山口県",
    "city": "山口市",
    "category": "day_service",
    "serviceType": "通所介護",
    "capacity": 0,
    "openDays": [
      "平日",
      "土曜日",
      "祝日"
    ],
    "openDaysNote": ""
  },
  {
    "id": "3570302988",
    "name": "ケアホーム小郡デイサービスセンター",
    "kana": "ケアホームオゴオリデイサービスセンター",
    "address": "山口県山口市小郡新町２丁目１０番２１号",
    "lat": 34.1144694,
    "lng": 131.3958707,
    "tel": "083-974-5111",
    "url": "https://care-net.biz/35/carehomeogoori/",
    "pref": "山口県",
    "city": "山口市",
    "category": "day_service",
    "serviceType": "通所介護",
    "capacity": 0,
    "openDays": [
      "平日",
      "土曜日",
      "祝日"
    ],
    "openDaysNote": ""
  },
  {
    "id": "3570303218",
    "name": "ケアライフ山口デイサービスセンター",
    "kana": "ケアライフヤマグチデイサービスセンター",
    "address": "山口県山口市大内問田3-18-10ケアライフ山口 ケアライフ山口",
    "lat": 34.15112845339,
    "lng": 131.484690100042,
    "tel": "083-920-1765",
    "url": "https://bestlife1165.com/",
    "pref": "山口県",
    "city": "山口市",
    "category": "day_service",
    "serviceType": "通所介護",
    "capacity": 80,
    "openDays": [
      "平日",
      "土曜日",
      "日曜日",
      "祝日"
    ],
    "openDaysNote": "通常サービス提供時間は、午前8時45分から午後17時00分までとする。"
  },
  {
    "id": "3570302293",
    "name": "ケアライフ小鯖デイサービスセンター",
    "kana": "ケアライフオサバデイサービスセンター",
    "address": "山口県山口市下小鯖520",
    "lat": 34.147836224528,
    "lng": 131.524415580374,
    "tel": "083-941-1765",
    "url": "http://carelife1165.web.fc2.com/index.html",
    "pref": "山口県",
    "city": "山口市",
    "category": "day_service",
    "serviceType": "通所介護",
    "capacity": 0,
    "openDays": [
      "平日",
      "土曜日",
      "日曜日",
      "祝日"
    ],
    "openDaysNote": ""
  },
  {
    "id": "3570302939",
    "name": "サービス付き高齢者向け住宅　にじのさと",
    "kana": "サービスツキコウレイシャムケジュウタク　ニジノサト",
    "address": "山口市仁保下郷沖田734-1",
    "lat": 34.1942591142854,
    "lng": 131.537359908598,
    "tel": "083-929-1100",
    "url": "",
    "pref": "山口県",
    "city": "山口市",
    "category": "day_service",
    "serviceType": "通所介護",
    "capacity": 0,
    "openDays": [
      "平日",
      "土曜日",
      "祝日"
    ],
    "openDaysNote": "国民の休日及び12/29から1/3までを除く。"
  },
  {
    "id": "3570301493",
    "name": "サンキ・ウエルビィ　デイサービスセンター山口",
    "kana": "サンキウエルビィデイサービスセンターヤマグチ",
    "address": "山口県山口市平井1417-8マンション平川1F マンション平川1F",
    "lat": 34.1457623,
    "lng": 131.4596581,
    "tel": "083-923-3611",
    "url": "",
    "pref": "山口県",
    "city": "山口市",
    "category": "day_service",
    "serviceType": "通所介護",
    "capacity": 29,
    "openDays": [
      "平日",
      "祝日"
    ],
    "openDaysNote": "緊急の場合は、電話等により24時間常時連絡が可能な体制をとるものとします。"
  },
  {
    "id": "3570303606",
    "name": "ツクイ山口",
    "kana": "ツクイヤマグチ",
    "address": "大内御堀六丁目2番5号",
    "lat": 34.1650776,
    "lng": 131.4856727,
    "tel": "083-934-7225",
    "url": "https://corp.tsukui.net/",
    "pref": "山口県",
    "city": "山口市",
    "category": "day_service",
    "serviceType": "通所介護",
    "capacity": 0,
    "openDays": [
      "平日",
      "土曜日",
      "日曜日",
      "祝日"
    ],
    "openDaysNote": "365日営業"
  },
  {
    "id": "3570301071",
    "name": "デイサービス　花咲美",
    "kana": "デイサービス　カザミ",
    "address": "山口市大内矢田北6丁目4番26号",
    "lat": 34.1540582908046,
    "lng": 131.511777879099,
    "tel": "083-941-1288",
    "url": "http://ds-kazami.com/",
    "pref": "山口県",
    "city": "山口市",
    "category": "day_service",
    "serviceType": "通所介護",
    "capacity": 0,
    "openDays": [
      "平日",
      "土曜日",
      "祝日"
    ],
    "openDaysNote": ""
  },
  {
    "id": "3570302624",
    "name": "デイサービス「マザーベル湯田温泉」",
    "kana": "デイサービスマザーベルユダオンセン",
    "address": "湯田温泉4丁目3-15",
    "lat": 34.1654645,
    "lng": 131.4552087,
    "tel": "083-902-8080",
    "url": "",
    "pref": "山口県",
    "city": "山口市",
    "category": "day_service",
    "serviceType": "通所介護",
    "capacity": 0,
    "openDays": [
      "平日",
      "土曜日",
      "日曜日",
      "祝日"
    ],
    "openDaysNote": ""
  },
  {
    "id": "3570303788",
    "name": "デイサービスアドバンス湯田",
    "kana": "デイサービスアドバンスユダ",
    "address": "山口県山口市湯田温泉１丁目１番７号",
    "lat": 34.1658627,
    "lng": 131.4604273,
    "tel": "083-902-5551",
    "url": "",
    "pref": "山口県",
    "city": "山口市",
    "category": "day_service",
    "serviceType": "通所介護",
    "capacity": null,
    "openDays": [
      "平日",
      "土曜日",
      "日曜日",
      "祝日"
    ],
    "openDaysNote": "2単位営業。1単位目（定員35名）、2単位目（定員25名）"
  },
  {
    "id": "3570301634",
    "name": "デイサービスおはな",
    "kana": "デイサービスオハナ",
    "address": "山口県山口市徳地堀1751",
    "lat": 34.1883463194183,
    "lng": 131.655849667984,
    "tel": "0835-52-1787",
    "url": "http://おはな.com",
    "pref": "山口県",
    "city": "山口市",
    "category": "day_service",
    "serviceType": "通所介護",
    "capacity": 38,
    "openDays": [
      "平日",
      "土曜日",
      "祝日"
    ],
    "openDaysNote": ""
  },
  {
    "id": "3570301535",
    "name": "デイサービスセンター　むっちゃん方",
    "kana": "デイサービスセンター　ムッチャンカタ",
    "address": "山口市徳地島地590-2",
    "lat": 34.1646131,
    "lng": 131.6955169,
    "tel": "0835-54-0505",
    "url": "",
    "pref": "山口県",
    "city": "山口市",
    "category": "day_service",
    "serviceType": "通所介護",
    "capacity": 20,
    "openDays": [
      "平日",
      "土曜日",
      "祝日"
    ],
    "openDaysNote": "8/14～16　12/30～1/4　休日"
  },
  {
    "id": "3570303036",
    "name": "デイサービスセンターおおうち",
    "kana": "デイサービスセンターオオウチ",
    "address": "山口県山口市大内千坊六丁目１１－２",
    "lat": 34.1582146,
    "lng": 131.4935645,
    "tel": "０８３－９４１－６１７０",
    "url": "http://i-kenshinkai.com/",
    "pref": "山口県",
    "city": "山口市",
    "category": "day_service",
    "serviceType": "通所介護",
    "capacity": 25,
    "openDays": [
      "平日",
      "土曜日",
      "祝日"
    ],
    "openDaysNote": ""
  },
  {
    "id": "3570302970",
    "name": "デイサービスセンターさらら",
    "kana": "デイサービスセンターサララ",
    "address": "山口県山口市平井116-2有料老人ホームさらら 有料老人ホームさらら",
    "lat": 34.16255,
    "lng": 131.469817,
    "tel": "083-901-3001",
    "url": "http://www.ygnext.jp/",
    "pref": "山口県",
    "city": "山口市",
    "category": "day_service",
    "serviceType": "通所介護",
    "capacity": 25,
    "openDays": [
      "平日",
      "土曜日",
      "祝日"
    ],
    "openDaysNote": ""
  },
  {
    "id": "3570303499",
    "name": "デイサービスセンターしずく",
    "kana": "デイサービスセンターシズク",
    "address": "山口県山口市大内矢田北五丁目2番15号住宅型有料老人ホームReLifeしずく　内 住宅型有料老人ホームReLifeしずく　内",
    "lat": 34.1557973,
    "lng": 131.5098717,
    "tel": "083-902-8400",
    "url": "http://www.suiseikai.org",
    "pref": "山口県",
    "city": "山口市",
    "category": "day_service",
    "serviceType": "通所介護",
    "capacity": null,
    "openDays": [
      "平日",
      "土曜日",
      "日曜日",
      "祝日"
    ],
    "openDaysNote": ""
  },
  {
    "id": "3570303119",
    "name": "デイサービスセンターてしま旅館",
    "kana": "デイサービスセンターテシマリョカン",
    "address": "山口県山口市阿知須7418‐8",
    "lat": 34.0161785,
    "lng": 131.3187375,
    "tel": "0836-65-2248",
    "url": "",
    "pref": "山口県",
    "city": "山口市",
    "category": "day_service",
    "serviceType": "通所介護",
    "capacity": 0,
    "openDays": [
      "平日",
      "土曜日",
      "祝日"
    ],
    "openDaysNote": ""
  },
  {
    "id": "3570303549",
    "name": "デイサービスセンター空音",
    "kana": "デイサービスセンターソラオト",
    "address": "小郡下郷3358-3有料老人ホーム花音 有料老人ホーム花音",
    "lat": 34.0843035,
    "lng": 131.3879251,
    "tel": "839768427",
    "url": "https://www.hananone-soraoto.com/",
    "pref": "山口県",
    "city": "山口市",
    "category": "day_service",
    "serviceType": "通所介護",
    "capacity": 0,
    "openDays": [
      "平日",
      "土曜日"
    ],
    "openDaysNote": ""
  },
  {
    "id": "3570302921",
    "name": "デイサービスセンター四つ葉",
    "kana": "デイサービスセンターヨツバ",
    "address": "山口県山口市宮野下１１３８４－１",
    "lat": 34.190387206987,
    "lng": 131.501888593701,
    "tel": "083-929-3591",
    "url": "",
    "pref": "山口県",
    "city": "山口市",
    "category": "day_service",
    "serviceType": "通所介護",
    "capacity": 0,
    "openDays": [
      "平日",
      "土曜日",
      "日曜日",
      "祝日"
    ],
    "openDaysNote": ""
  },
  {
    "id": "3570303267",
    "name": "デイサービスセンター日日",
    "kana": "デイサアビスセンタア　ニチニチ",
    "address": "山口県山口市大内長野708－2",
    "lat": 34.1661919,
    "lng": 131.5149343,
    "tel": "083－902－2345",
    "url": "https://tuna-gari.com",
    "pref": "山口県",
    "city": "山口市",
    "category": "day_service",
    "serviceType": "通所介護",
    "capacity": 25,
    "openDays": [
      "平日",
      "土曜日",
      "祝日"
    ],
    "openDaysNote": "営業時間はその利用により16:00から21:00まで延長可能"
  },
  {
    "id": "3570303283",
    "name": "デイサービスひなた",
    "kana": "デイサービスヒナタ",
    "address": "山口県山口市宮野下1395-7",
    "lat": 34.1856711573236,
    "lng": 131.493531764342,
    "tel": "083-929-3750",
    "url": "http://y-fukushi.com/",
    "pref": "山口県",
    "city": "山口市",
    "category": "day_service",
    "serviceType": "通所介護",
    "capacity": 50,
    "openDays": [
      "平日",
      "土曜日",
      "日曜日",
      "祝日"
    ],
    "openDaysNote": "なし（改行）8：30～17:00"
  },
  {
    "id": "3570303275",
    "name": "デイサービスふしの",
    "kana": "デイサービスフシノ",
    "address": "山口県山口市矢原町14-24",
    "lat": 34.155015739172,
    "lng": 131.452236942328,
    "tel": "083-929-3883",
    "url": "",
    "pref": "山口県",
    "city": "山口市",
    "category": "day_service",
    "serviceType": "通所介護",
    "capacity": null,
    "openDays": [
      "平日",
      "土曜日",
      "日曜日",
      "祝日"
    ],
    "openDaysNote": "令和6年12月31日、令和7年1月1日の通所介護(デイサービス)は休みとなります。"
  },
  {
    "id": "3570303325",
    "name": "デイサービス双葉",
    "kana": "デイサービス　フタバ",
    "address": "山口市佐山２７６８－１",
    "lat": 34.0337038549003,
    "lng": 131.356242191724,
    "tel": "083-941-6620",
    "url": "",
    "pref": "山口県",
    "city": "山口市",
    "category": "day_service",
    "serviceType": "通所介護",
    "capacity": null,
    "openDays": [
      "平日",
      "土曜日",
      "日曜日",
      "祝日"
    ],
    "openDaysNote": ""
  },
  {
    "id": "3571300528",
    "name": "テルマエ維新",
    "kana": "テルマエ維新",
    "address": "山口県山口市湯田温泉2-5-20",
    "lat": 34.1631966886703,
    "lng": 131.456334214405,
    "tel": "083-902-0270",
    "url": "http://veryhuman.jp/",
    "pref": "山口県",
    "city": "山口市",
    "category": "day_service",
    "serviceType": "通所介護",
    "capacity": 34,
    "openDays": [
      "平日"
    ],
    "openDaysNote": ""
  },
  {
    "id": "3577500071",
    "name": "とくぢ苑デイサービスセンター",
    "kana": "トクヂエンデイサービスセンター",
    "address": "山口県山口市徳地八坂1330番地",
    "lat": 34.2341075,
    "lng": 131.6599683,
    "tel": "0835-56-0010",
    "url": "www.tokudien.jp",
    "pref": "山口県",
    "city": "山口市",
    "category": "day_service",
    "serviceType": "通所介護",
    "capacity": 0,
    "openDays": [
      "平日",
      "土曜日",
      "祝日"
    ],
    "openDaysNote": "特になし"
  },
  {
    "id": "3570303093",
    "name": "なぎの森デイサービスセンター",
    "kana": "ナギノモリデイサービスセンター",
    "address": "山口市小郡下郷745-2",
    "lat": 34.0999341159471,
    "lng": 131.392088466001,
    "tel": "083-976-4707",
    "url": "http://www.hp-hayashi.or.jp/",
    "pref": "山口県",
    "city": "山口市",
    "category": "day_service",
    "serviceType": "通所介護",
    "capacity": 0,
    "openDays": [
      "平日",
      "土曜日",
      "日曜日",
      "祝日"
    ],
    "openDaysNote": ""
  },
  {
    "id": "3570302566",
    "name": "ニチイケアセンター郷",
    "kana": "ニチケアセンターゴウ",
    "address": "山口市小郡下郷2203-1",
    "lat": 34.0991545,
    "lng": 131.3906022,
    "tel": "083-974-6455",
    "url": "",
    "pref": "山口県",
    "city": "山口市",
    "category": "day_service",
    "serviceType": "通所介護",
    "capacity": 0,
    "openDays": [
      "平日",
      "土曜日",
      "祝日"
    ],
    "openDaysNote": "特になし"
  },
  {
    "id": "3570300784",
    "name": "ハートホーム南山口デイサービスセンター",
    "kana": "ハートホームミナミヤマグチデイサービスセンター",
    "address": "山口県山口市深溝803-1",
    "lat": 34.0515201,
    "lng": 131.3671632,
    "tel": "083-988-3300",
    "url": "http://www.seirankai.or.jp",
    "pref": "山口県",
    "city": "山口市",
    "category": "day_service",
    "serviceType": "通所介護",
    "capacity": 47,
    "openDays": [
      "平日",
      "土曜日",
      "祝日"
    ],
    "openDaysNote": "特になし"
  },
  {
    "id": "3570303564",
    "name": "みんなのふるさと通所介護事業所",
    "kana": "ミンナノフルサトツウショカイゴジギョウショ",
    "address": "小郡下郷1063-10",
    "lat": 34.103795265107,
    "lng": 131.401203626984,
    "tel": "083-973-2315",
    "url": "",
    "pref": "山口県",
    "city": "山口市",
    "category": "day_service",
    "serviceType": "通所介護",
    "capacity": null,
    "openDays": [
      "平日",
      "土曜日",
      "祝日"
    ],
    "openDaysNote": ""
  },
  {
    "id": "3570301972",
    "name": "ヨシヤデイサービス",
    "kana": "ヨシヤデイサービス",
    "address": "山口県山口市徳地堀3939番地1",
    "lat": 34.1778118906161,
    "lng": 131.628726124764,
    "tel": "0835-52-0200",
    "url": "",
    "pref": "山口県",
    "city": "山口市",
    "category": "day_service",
    "serviceType": "通所介護",
    "capacity": 0,
    "openDays": [
      "平日",
      "土曜日",
      "祝日"
    ],
    "openDaysNote": ""
  },
  {
    "id": "3578100152",
    "name": "阿東園デイサービスセンター",
    "kana": "アトウエンデイサービスセンター",
    "address": "山口県山口市阿東地福下２８８番地１",
    "lat": 34.3439371,
    "lng": 131.6312193,
    "tel": "083-952-1126",
    "url": "https://www.c-able.ne.jp/~atouen",
    "pref": "山口県",
    "city": "山口市",
    "category": "day_service",
    "serviceType": "通所介護",
    "capacity": 0,
    "openDays": [
      "平日",
      "土曜日",
      "祝日"
    ],
    "openDaysNote": "通常勤務（8：30～17：30）遅出勤務（9：00～18：00）早出（8:00～17:00）で構成"
  },
  {
    "id": "3570301923",
    "name": "一の坂デイサービスセンター",
    "kana": "イチノサカデイサービスセンター",
    "address": "山口市後河原23番地３",
    "lat": 34.186287,
    "lng": 131.4756487,
    "tel": "083-941-6337",
    "url": "http://www.kizuna-y.jp",
    "pref": "山口県",
    "city": "山口市",
    "category": "day_service",
    "serviceType": "通所介護",
    "capacity": 0,
    "openDays": [
      "平日",
      "土曜日",
      "日曜日",
      "祝日"
    ],
    "openDaysNote": "悪天候（豪雨・大雪）又は自然災害（地震等）により営業時間の変更を行うことがあります。"
  },
  {
    "id": "3570301469",
    "name": "済生会山口地域ケアセンター居宅介護サービス複合施設にほ苑通所介護事業所",
    "kana": "サイセイカイヤマグチチイキケアセンターキョタクカイゴサービスフクゴウシセツニホエンツウショカイゴジギョウショ",
    "address": "山口市仁保中郷988-1",
    "lat": 34.2098807,
    "lng": 131.5594984,
    "tel": "083-929-5083",
    "url": "",
    "pref": "山口県",
    "city": "山口市",
    "category": "day_service",
    "serviceType": "通所介護",
    "capacity": 25,
    "openDays": [
      "平日",
      "土曜日",
      "祝日"
    ],
    "openDaysNote": ""
  },
  {
    "id": "3570300289",
    "name": "済生会山口地域ケアセンター在宅複合型施設やすらぎデイサービスセンター朝倉",
    "kana": "サイセイカイヤマグチチイキケアセンターザイタクフクゴウガタシセツヤスラギデイサービスセンターアサクラ",
    "address": "山口市朝倉４－５５－６",
    "lat": 34.1763789,
    "lng": 131.4534627,
    "tel": "083-924-6652",
    "url": "http://www.c-able.ne.jp/~saiyama/top2html",
    "pref": "山口県",
    "city": "山口市",
    "category": "day_service",
    "serviceType": "通所介護",
    "capacity": 50,
    "openDays": [
      "平日",
      "土曜日",
      "祝日"
    ],
    "openDaysNote": ""
  },
  {
    "id": "3570300362",
    "name": "山口あかり園デイサービスセンター",
    "kana": "ヤマグチアカリエンデイサービスセンター",
    "address": "山口市黒川３３６３番地",
    "lat": 34.1310547,
    "lng": 131.4387164,
    "tel": "083-921-1621",
    "url": "http:www.hakuaikai-yamaguchi.jp/",
    "pref": "山口県",
    "city": "山口市",
    "category": "day_service",
    "serviceType": "通所介護",
    "capacity": 55,
    "openDays": [
      "平日",
      "土曜日",
      "祝日"
    ],
    "openDaysNote": "豪雨・台風・積雪・地震等により休園又は、利用時間変更となる場合があります。"
  },
  {
    "id": "3570300230",
    "name": "山口市デイサービスセンター梅光苑",
    "kana": "ヤマグチシデイサービスセンターバイコウエン",
    "address": "山口県山口市鋳銭司12361-3山口市デイサービスセンター梅光苑 山口市デイサービスセンター梅光苑",
    "lat": 34.0666588,
    "lng": 131.4388367,
    "tel": "083-986-3056",
    "url": "http://www.aikawaiin.or.jp/baikouen/",
    "pref": "山口県",
    "city": "山口市",
    "category": "day_service",
    "serviceType": "通所介護",
    "capacity": 0,
    "openDays": [
      "平日",
      "土曜日",
      "祝日"
    ],
    "openDaysNote": "台風や大雪で開苑不能の場合、休苑する事もあります。"
  },
  {
    "id": "3570303424",
    "name": "山口市秋穂デイサービスセンター",
    "kana": "ヤマグチシアイオデイサービスセンター",
    "address": "山口市秋穂東３９９３番地",
    "lat": 34.0149959,
    "lng": 131.444301,
    "tel": "083-984-5772",
    "url": "http://www.hakuaikai-yamaguchi.jp/",
    "pref": "山口県",
    "city": "山口市",
    "category": "day_service",
    "serviceType": "通所介護",
    "capacity": 34,
    "openDays": [
      "平日",
      "祝日"
    ],
    "openDaysNote": "介護予防・日常生活支援総合事業の体と脳の機能アップ教室を同一フロアにて実施。"
  },
  {
    "id": "3570302335",
    "name": "山口病院通所介護こもれ日",
    "kana": "ヤマグチビョウインツウショカイゴコモレビ",
    "address": "山口市駅通り２丁目８番５号",
    "lat": 34.1748922447737,
    "lng": 131.48017968427,
    "tel": "083-922-1865",
    "url": "",
    "pref": "山口県",
    "city": "山口市",
    "category": "day_service",
    "serviceType": "通所介護",
    "capacity": 0,
    "openDays": [
      "平日",
      "土曜日",
      "祝日"
    ],
    "openDaysNote": ""
  },
  {
    "id": "3570303762",
    "name": "第１奏拠デイサービスセンター",
    "kana": "ダイイチソウコデイサービスセンター",
    "address": "山口市吉敷下東４丁目１３－２０",
    "lat": 34.1612085,
    "lng": 131.4426587,
    "tel": "083-902-5725",
    "url": "",
    "pref": "山口県",
    "city": "山口市",
    "category": "day_service",
    "serviceType": "通所介護",
    "capacity": 30,
    "openDays": [
      "平日",
      "土曜日",
      "祝日"
    ],
    "openDaysNote": ""
  },
  {
    "id": "3570302582",
    "name": "宅老所あじす喜楽苑　つどい",
    "kana": "タクロウショアジスキラクエンツドイ",
    "address": "山口市阿知須3257-34",
    "lat": 34.0099078,
    "lng": 131.3629814,
    "tel": "0836-66-2100",
    "url": "",
    "pref": "山口県",
    "city": "山口市",
    "category": "day_service",
    "serviceType": "通所介護",
    "capacity": 5,
    "openDays": [
      "平日",
      "土曜日",
      "祝日"
    ],
    "openDaysNote": "12/31～1/3の4日間は送迎は行わない"
  },
  {
    "id": "3577600160",
    "name": "白松苑デイサービスセンター",
    "kana": "ハクショウエンデイサービスセンター",
    "address": "山口県山口市阿知須4167番地1",
    "lat": 34.0143876,
    "lng": 131.354207,
    "tel": "0836-65-5040",
    "url": "http://www.hakusyoen.jp/",
    "pref": "山口県",
    "city": "山口市",
    "category": "day_service",
    "serviceType": "通所介護",
    "capacity": 30,
    "openDays": [
      "平日",
      "土曜日",
      "祝日"
    ],
    "openDaysNote": "特になし"
  },
  {
    "id": "3570303192",
    "name": "福祉複合施設　ぬくもり山口",
    "kana": "フクシフクゴウシセツ　ヌクモリヤマグチ",
    "address": "山口県山口市小郡上郷字森下4188-2ぬくもり山口 ぬくもり山口",
    "lat": 34.1127558,
    "lng": 131.4078919,
    "tel": "083-902-6842",
    "url": "http://nehari-nukumori.com",
    "pref": "山口県",
    "city": "山口市",
    "category": "day_service",
    "serviceType": "通所介護",
    "capacity": 0,
    "openDays": [
      "平日",
      "土曜日"
    ],
    "openDaysNote": ""
  },
  {
    "id": "3570302061",
    "name": "夢のみずうみ村　山口デイサービスセンター",
    "kana": "ユメノミズウミムラ　ヤマグチデイサービスセンター",
    "address": "山口市中尾木乃７８７－１",
    "lat": 34.1888965,
    "lng": 131.4300814,
    "tel": "083-995-2820",
    "url": "www.yumenomizuumi.com",
    "pref": "山口県",
    "city": "山口市",
    "category": "day_service",
    "serviceType": "通所介護",
    "capacity": 110,
    "openDays": [
      "平日",
      "祝日"
    ],
    "openDaysNote": "なし"
  },
  {
    "id": "3570303895",
    "name": "明日葉デイサービス",
    "kana": "アシタバデイサービス",
    "address": "阿知須101-1",
    "lat": 34.0302767,
    "lng": 131.3565744,
    "tel": "0836-52-7377",
    "url": "",
    "pref": "山口県",
    "city": "山口市",
    "category": "day_service",
    "serviceType": "通所介護",
    "capacity": 0,
    "openDays": [
      "平日",
      "土曜日",
      "日曜日",
      "祝日"
    ],
    "openDaysNote": ""
  },
  {
    "id": "3571601057",
    "name": "IMLデイサービスヴィブレ",
    "kana": "アイエムエルデイサービス　ゔィブレ",
    "address": "山口県山陽小野田市大字埴生2138-1",
    "lat": 34.0451522,
    "lng": 131.0781829,
    "tel": "0836-38-8477",
    "url": "",
    "pref": "山口県",
    "city": "山陽小野田市",
    "category": "day_service",
    "serviceType": "通所介護",
    "capacity": null,
    "openDays": [
      "平日",
      "土曜日",
      "祝日"
    ],
    "openDaysNote": ""
  },
  {
    "id": "3577700044",
    "name": "サンライフ山陽デイサービスセンター",
    "kana": "サンライフサンヨウデイサービスセンター",
    "address": "山口県山陽小野田市大字埴生２１５６番地",
    "lat": 34.0448622,
    "lng": 131.0765575,
    "tel": "0836-76-3451",
    "url": "http://care-net.biz/35/sanraifu/",
    "pref": "山口県",
    "city": "山陽小野田市",
    "category": "day_service",
    "serviceType": "通所介護",
    "capacity": 0,
    "openDays": [
      "平日"
    ],
    "openDaysNote": "特になし"
  },
  {
    "id": "3571600752",
    "name": "デイサービス　よりそい",
    "kana": "デイサービス　ヨリソイ",
    "address": "山陽小野田市大字小野田3851番地11",
    "lat": 33.9619155397305,
    "lng": 131.185856328172,
    "tel": "0836-43-7110",
    "url": "https://yori-soi.com",
    "pref": "山口県",
    "city": "山陽小野田市",
    "category": "day_service",
    "serviceType": "通所介護",
    "capacity": 20,
    "openDays": [
      "平日",
      "土曜日",
      "祝日"
    ],
    "openDaysNote": "事務所は平日のみの営業ですが、デイサービスの提供は月曜日～土曜日　　休みは日曜日　12/31～1/1"
  },
  {
    "id": "3571600133",
    "name": "デイサービスセンター　ひだまり",
    "kana": "デイサービスセンター　ヒダマリ",
    "address": "山陽小野田市桜一丁目3番2号",
    "lat": 34.0536022,
    "lng": 131.1555874,
    "tel": "0836-71-2002",
    "url": "http://41kaigo.com",
    "pref": "山口県",
    "city": "山陽小野田市",
    "category": "day_service",
    "serviceType": "通所介護",
    "capacity": 50,
    "openDays": [
      "平日",
      "土曜日",
      "祝日"
    ],
    "openDaysNote": "営業日は月曜日～土曜日。　祝日営業　年末年始の定休日は(12/31～1/3迄)"
  },
  {
    "id": "3571600265",
    "name": "デイサービスセンター　湯ノ峠",
    "kana": "デイサービスセンター　ユノトウ",
    "address": "山陽小野田市大字鴨庄1033番地2",
    "lat": 34.0751811867287,
    "lng": 131.167686208598,
    "tel": "0836-71-1211",
    "url": "http://www.mubekouei.com",
    "pref": "山口県",
    "city": "山陽小野田市",
    "category": "day_service",
    "serviceType": "通所介護",
    "capacity": 0,
    "openDays": [
      "平日",
      "土曜日",
      "祝日"
    ],
    "openDaysNote": "日曜日以外は、祝日なども営業しております。"
  },
  {
    "id": "3571601065",
    "name": "デイサービスセンターであいの里",
    "kana": "デイサービスセンターデアイノサト",
    "address": "山野井１８４０－５",
    "lat": null,
    "lng": null,
    "tel": "836721320",
    "url": "",
    "pref": "山口県",
    "city": "山陽小野田市",
    "category": "day_service",
    "serviceType": "通所介護",
    "capacity": 0,
    "openDays": [
      "平日",
      "土曜日"
    ],
    "openDaysNote": ""
  },
  {
    "id": "3570203673",
    "name": "デイサービスわけん",
    "kana": "デイサービス　ワケン",
    "address": "山口県山陽小野田市新生2丁目8-10",
    "lat": 34.0006578657233,
    "lng": 131.177139150501,
    "tel": "0836-39-7773",
    "url": "https://onodawaken.com/",
    "pref": "山口県",
    "city": "山陽小野田市",
    "category": "day_service",
    "serviceType": "通所介護",
    "capacity": 22,
    "openDays": [
      "平日",
      "土曜日",
      "日曜日",
      "祝日"
    ],
    "openDaysNote": "台風や大雪等で　送迎時等に　事故の危険性のある時には　お休みすることがあります"
  },
  {
    "id": "3571601016",
    "name": "デイサービス康友",
    "kana": "デイサービスコウユウ",
    "address": "大字郡415番3",
    "lat": 34.049326,
    "lng": 131.1685968,
    "tel": "0836-39-1711",
    "url": "http://www.kaigo-kouyu.jp/",
    "pref": "山口県",
    "city": "山陽小野田市",
    "category": "day_service",
    "serviceType": "通所介護",
    "capacity": 0,
    "openDays": [
      "平日",
      "土曜日",
      "日曜日",
      "祝日"
    ],
    "openDaysNote": ""
  },
  {
    "id": "3570900088",
    "name": "デイサービス施設明寿香園",
    "kana": "デイサービスシセツアスカエン",
    "address": "山口県山陽小野田市大字小野田11324番地10",
    "lat": 33.9905932406517,
    "lng": 131.183675128836,
    "tel": "0836-84-5507",
    "url": "care-net.biz/35/choujukai01",
    "pref": "山口県",
    "city": "山陽小野田市",
    "category": "day_service",
    "serviceType": "通所介護",
    "capacity": 30,
    "openDays": [
      "平日",
      "土曜日",
      "祝日"
    ],
    "openDaysNote": ""
  },
  {
    "id": "3570900252",
    "name": "デイサービス有帆",
    "kana": "デイサービスアリホ",
    "address": "山陽小野田市大字有帆字真土535-117(湯泉台団地内)",
    "lat": 34.0126981117314,
    "lng": 131.207274797098,
    "tel": "0836-84-3838",
    "url": "http://murashige.byoinnavi.jp/pc/free170282.html",
    "pref": "山口県",
    "city": "山陽小野田市",
    "category": "day_service",
    "serviceType": "通所介護",
    "capacity": 0,
    "openDays": [
      "平日",
      "土曜日"
    ],
    "openDaysNote": ""
  },
  {
    "id": "3571600794",
    "name": "のんびり村厚狭　デイサービス",
    "kana": "ノンビリムラアサ　デイサービス",
    "address": "山口県山陽小野田市大字鴨庄４－４",
    "lat": 34.0567573,
    "lng": 131.154754,
    "tel": "0836－71－2030",
    "url": "http://www.homecare-yamaguchi.co.jp",
    "pref": "山口県",
    "city": "山陽小野田市",
    "category": "day_service",
    "serviceType": "通所介護",
    "capacity": 0,
    "openDays": [
      "平日",
      "土曜日",
      "祝日"
    ],
    "openDaysNote": ""
  },
  {
    "id": "3571601156",
    "name": "ひろき苑デイサービスセンター小野田",
    "kana": "ヒロキエンデイサービスセンターオノダ",
    "address": "山口県山陽小野田市赤崎２丁目９番１号",
    "lat": 33.961647,
    "lng": 131.1748997,
    "tel": "0836-52-8171",
    "url": "http://kawamura-fs.com/company.html",
    "pref": "山口県",
    "city": "山陽小野田市",
    "category": "day_service",
    "serviceType": "通所介護",
    "capacity": 0,
    "openDays": [
      "平日",
      "土曜日",
      "日曜日",
      "祝日"
    ],
    "openDaysNote": ""
  },
  {
    "id": "3570202584",
    "name": "フクシア須恵デイサービスセンター",
    "kana": "フクシアスエデイサービスセンター",
    "address": "山口県山陽小野田市港町１－１",
    "lat": 33.9754079,
    "lng": 131.1785568,
    "tel": "0836-81-1800",
    "url": "",
    "pref": "山口県",
    "city": "山陽小野田市",
    "category": "day_service",
    "serviceType": "通所介護",
    "capacity": 0,
    "openDays": [
      "平日",
      "土曜日",
      "祝日"
    ],
    "openDaysNote": "営業日は月曜日から土曜日（改行）一日利用は9時30分から16時45分（改行）午前利用は9時30分から12時35分または9時30分から13時35分"
  },
  {
    "id": "3571601164",
    "name": "プラスワンサンク小野田店",
    "kana": "プラスワンサンクオノダテン",
    "address": "山口県山陽小野田市東高泊784マックスバリュ小野田ショッピングセンター内 マックスバリュ小野田ショッピングセンター内",
    "lat": 34.0138043,
    "lng": 131.1827868,
    "tel": "0836-52-8803",
    "url": "https://kaimono-rehaday.jimdofree.com/",
    "pref": "山口県",
    "city": "山陽小野田市",
    "category": "day_service",
    "serviceType": "通所介護",
    "capacity": null,
    "openDays": [
      "平日",
      "祝日"
    ],
    "openDaysNote": ""
  },
  {
    "id": "3571600075",
    "name": "むべの里デイサービスセンター住吉",
    "kana": "ムベノサトデイサービスセンタースミヨシ",
    "address": "山陽小野田市住吉本町2-5-12",
    "lat": 33.9810562312667,
    "lng": 131.179687369312,
    "tel": "0836-81-1015",
    "url": "http://www.mubenosato.com",
    "pref": "山口県",
    "city": "山陽小野田市",
    "category": "day_service",
    "serviceType": "通所介護",
    "capacity": 45,
    "openDays": [
      "平日",
      "土曜日",
      "祝日"
    ],
    "openDaysNote": "特になし"
  },
  {
    "id": "3571600950",
    "name": "リハビリデイサービスプラスワン",
    "kana": "リハビリデイサービスプラスワン",
    "address": "山陽小野田市セメント町6-2太陽ビルテナント3 太陽ビルテナント3",
    "lat": 33.9776319429502,
    "lng": 131.175933054806,
    "tel": "0836-39-7887",
    "url": "http://plusone-onoda.jimdo.com",
    "pref": "山口県",
    "city": "山陽小野田市",
    "category": "day_service",
    "serviceType": "通所介護",
    "capacity": null,
    "openDays": [
      "平日"
    ],
    "openDaysNote": ""
  },
  {
    "id": "3577700192",
    "name": "医療法人社団　民正会　デイサービスかがやき",
    "kana": "イリョウホウジンシャダン　ミンセイカイ　デイサービスカガヤキ",
    "address": "山口県山陽小野田市大字山川４６番１",
    "lat": 34.055913,
    "lng": 131.1563678,
    "tel": "0836-72-0300",
    "url": "http://minseikai.jp",
    "pref": "山口県",
    "city": "山陽小野田市",
    "category": "day_service",
    "serviceType": "通所介護",
    "capacity": 45,
    "openDays": [
      "平日",
      "祝日"
    ],
    "openDaysNote": ""
  },
  {
    "id": "3570900104",
    "name": "高千帆苑デイサービスセンター",
    "kana": "タカチホエンデイサービスセンター",
    "address": "山陽小野田市大字有帆字佛石10662番地8",
    "lat": 34.0121156,
    "lng": 131.2062341,
    "tel": "0836-84-0317",
    "url": "http://kenjukai.main.jp/",
    "pref": "山口県",
    "city": "山陽小野田市",
    "category": "day_service",
    "serviceType": "通所介護",
    "capacity": 0,
    "openDays": [
      "平日",
      "土曜日"
    ],
    "openDaysNote": "特になし"
  },
  {
    "id": "3571601008",
    "name": "生活介護事業所　いこい",
    "kana": "セイカツカイゴジギョウショ　イコイ",
    "address": "山口県山陽小野田市大字有帆1494-5",
    "lat": 34.0268102934775,
    "lng": 131.208067607935,
    "tel": "0836-39-7352",
    "url": "",
    "pref": "山口県",
    "city": "山陽小野田市",
    "category": "day_service",
    "serviceType": "通所介護",
    "capacity": null,
    "openDays": [
      "平日"
    ],
    "openDaysNote": "上記以外で利用を希望される場合は相談に応じる"
  },
  {
    "id": "3571501455",
    "name": "JAケアビレッジ・デイ新南陽",
    "kana": "ジェイエイケアビレッジ・デイシンナンヨウ",
    "address": "山口県周南市古泉２丁目１６番１号",
    "lat": 34.0668028,
    "lng": 131.7684806,
    "tel": "0834-61-2222",
    "url": "http://www.ja-syunan.or.jp",
    "pref": "山口県",
    "city": "周南市",
    "category": "day_service",
    "serviceType": "通所介護",
    "capacity": 0,
    "openDays": [
      "平日",
      "土曜日",
      "日曜日",
      "祝日"
    ],
    "openDaysNote": ""
  },
  {
    "id": "3571501471",
    "name": "ＪＡデイサービスとくやま",
    "kana": "ジェイエイデイサービストクヤマ",
    "address": "山口県周南市大字徳山字三田川5825番地の８",
    "lat": 34.0597422695017,
    "lng": 131.815257487033,
    "tel": "0834-27-4330",
    "url": "http://www.ja-syunan.or.jp",
    "pref": "山口県",
    "city": "周南市",
    "category": "day_service",
    "serviceType": "通所介護",
    "capacity": null,
    "openDays": [
      "平日",
      "土曜日",
      "祝日"
    ],
    "openDaysNote": "台風その他自然災害時等によりやむを得ず利用時間の変更、または中止とさせていただくことがあります。"
  },
  {
    "id": "3571501463",
    "name": "ＪＡデイサービスとんだ",
    "kana": "ジェイエーデイサービストンダ",
    "address": "山口県周南市清水１丁目９番５号",
    "lat": 34.0707969,
    "lng": 131.7689388,
    "tel": "0834-61-3400",
    "url": "ｈｔｔｐ://ｗｗｗ.ｊａ‐ｓｙｕｎａｎ.ｏｒ.ｊｐ",
    "pref": "山口県",
    "city": "周南市",
    "category": "day_service",
    "serviceType": "通所介護",
    "capacity": 30,
    "openDays": [
      "平日",
      "土曜日",
      "祝日"
    ],
    "openDaysNote": "台風その他自然災害等により、やむを得ず利用時間の変更、又は中止とさせて頂くことがあります。"
  },
  {
    "id": "3571500101",
    "name": "ケアパートナー周南",
    "kana": "ケアパートナーシュウナン",
    "address": "周南市秋月3－18－11",
    "lat": 34.0589165,
    "lng": 131.831525,
    "tel": "0834-39-0466",
    "url": "htttp://www.care-partner.com/",
    "pref": "山口県",
    "city": "周南市",
    "category": "day_service",
    "serviceType": "通所介護",
    "capacity": 60,
    "openDays": [
      "平日",
      "土曜日",
      "日曜日",
      "祝日"
    ],
    "openDaysNote": "特になし。"
  },
  {
    "id": "3571501927",
    "name": "ツクイ周南久米",
    "kana": "ツクイシュウナンクメ",
    "address": "山口県周南市久米中央4丁目9番24号",
    "lat": 34.0674157,
    "lng": 131.845174,
    "tel": "0834-36-2911",
    "url": "https://www.tsukui.net/",
    "pref": "山口県",
    "city": "周南市",
    "category": "day_service",
    "serviceType": "通所介護",
    "capacity": 0,
    "openDays": [
      "平日",
      "土曜日",
      "日曜日",
      "祝日"
    ],
    "openDaysNote": ""
  },
  {
    "id": "3570500318",
    "name": "つづみ園デイサービスセンター",
    "kana": "ツヅミエンデイサービスセンター",
    "address": "周南市瀬戸見町12番30号",
    "lat": 34.0508400295281,
    "lng": 131.832875989133,
    "tel": "0834-34-5000",
    "url": "https://www.shunan-jigyodan.jp",
    "pref": "山口県",
    "city": "周南市",
    "category": "day_service",
    "serviceType": "通所介護",
    "capacity": 40,
    "openDays": [
      "平日",
      "土曜日",
      "祝日"
    ],
    "openDaysNote": "特になし"
  },
  {
    "id": "3571501091",
    "name": "デイサービス　エリー",
    "kana": "デイサービス　エリー",
    "address": "周南市野上町２－２７ライフステージ２ ライフステージ２",
    "lat": 34.0567102,
    "lng": 131.8004448,
    "tel": "０８３４－３２－６１２２",
    "url": "",
    "pref": "山口県",
    "city": "周南市",
    "category": "day_service",
    "serviceType": "通所介護",
    "capacity": 30,
    "openDays": [
      "平日",
      "土曜日",
      "祝日"
    ],
    "openDaysNote": ""
  },
  {
    "id": "3571501109",
    "name": "デイサービス　呼鶴温泉",
    "kana": "デイサービス　ヨビヅルオンセン",
    "address": "周南市安田1815番地",
    "lat": 34.0470322,
    "lng": 131.9688443,
    "tel": "0833-92-1115",
    "url": "",
    "pref": "山口県",
    "city": "周南市",
    "category": "day_service",
    "serviceType": "通所介護",
    "capacity": 0,
    "openDays": [
      "平日",
      "土曜日",
      "日曜日",
      "祝日"
    ],
    "openDaysNote": ""
  },
  {
    "id": "3571500374",
    "name": "デイサービスＹｏｕ",
    "kana": "デイサービス　ユウ",
    "address": "周南市大字夜市字馬場西７２０番地1",
    "lat": 34.0551188,
    "lng": 131.8061858,
    "tel": "0834-61-2900",
    "url": "",
    "pref": "山口県",
    "city": "周南市",
    "category": "day_service",
    "serviceType": "通所介護",
    "capacity": 25,
    "openDays": [
      "平日",
      "土曜日",
      "祝日"
    ],
    "openDaysNote": "祝日は運営しています。"
  },
  {
    "id": "3571501174",
    "name": "デイサービスきらきら星",
    "kana": "デイサービスキラキラボシ",
    "address": "周南市川崎３丁目19ー24",
    "lat": 34.0704370118157,
    "lng": 131.781696438335,
    "tel": "0834-34－0034",
    "url": "",
    "pref": "山口県",
    "city": "周南市",
    "category": "day_service",
    "serviceType": "通所介護",
    "capacity": 0,
    "openDays": [
      "平日",
      "土曜日",
      "祝日"
    ],
    "openDaysNote": "月曜日から土曜日が祝日にあたる場合も営業しております。"
  },
  {
    "id": "3571500341",
    "name": "デイサービスセンター　こもれび苑",
    "kana": "デイサービスセンター　コモレビエン",
    "address": "山口県周南市大字久米2668番",
    "lat": 34.0467087285696,
    "lng": 131.849089115016,
    "tel": "0834-39-0333",
    "url": "http://komorebinomori.jp/",
    "pref": "山口県",
    "city": "周南市",
    "category": "day_service",
    "serviceType": "通所介護",
    "capacity": 0,
    "openDays": [
      "平日",
      "土曜日",
      "祝日"
    ],
    "openDaysNote": "特になし"
  },
  {
    "id": "3571501802",
    "name": "デイサービスセンター　ほほえみ",
    "kana": "デイサービスセンター　ホホエミ",
    "address": "山口県周南市徳山5529",
    "lat": 34.0756731,
    "lng": 131.8252971,
    "tel": "0834-21-2424",
    "url": "",
    "pref": "山口県",
    "city": "周南市",
    "category": "day_service",
    "serviceType": "通所介護",
    "capacity": 30,
    "openDays": [
      "平日"
    ],
    "openDaysNote": "年末年始（12/31～1/3）は休日となる。"
  },
  {
    "id": "3571500945",
    "name": "デイサービスセンターかがやき",
    "kana": "デイサービスセンターカガヤキ",
    "address": "周南市大字大河内字一連2115番18",
    "lat": 34.030644312251,
    "lng": 131.929320651456,
    "tel": "0833-91-7776",
    "url": "kagayaki@kvision.ne.jp",
    "pref": "山口県",
    "city": "周南市",
    "category": "day_service",
    "serviceType": "通所介護",
    "capacity": 25,
    "openDays": [
      "平日",
      "土曜日",
      "祝日"
    ],
    "openDaysNote": ""
  },
  {
    "id": "3571500143",
    "name": "デイサービスセンターふじ周南",
    "kana": "デイサービスセンターフジシュウナン",
    "address": "山口県周南市築港町12番1号1徳山駅前スカイマンション 徳山駅前スカイマンション",
    "lat": 34.0486887,
    "lng": 131.801978,
    "tel": "0834-27-2211",
    "url": "http://www.fujicare.jp/",
    "pref": "山口県",
    "city": "周南市",
    "category": "day_service",
    "serviceType": "通所介護",
    "capacity": 40,
    "openDays": [
      "平日",
      "土曜日",
      "祝日"
    ],
    "openDaysNote": "特になし"
  },
  {
    "id": "3571501836",
    "name": "デイサービスセンターブリスケア徳山",
    "kana": "デイサービスセンターブリスケアトクヤマ",
    "address": "山口県周南市都町1-48サージュ徳山 サージュ徳山",
    "lat": 34.0542046,
    "lng": 131.800868,
    "tel": "0834-34-8612",
    "url": "",
    "pref": "山口県",
    "city": "周南市",
    "category": "day_service",
    "serviceType": "通所介護",
    "capacity": 0,
    "openDays": [
      "平日",
      "土曜日",
      "日曜日",
      "祝日"
    ],
    "openDaysNote": ""
  },
  {
    "id": "3571500911",
    "name": "デイサービスセンターめぐみ苑",
    "kana": "デイサービスセンターメグミエン",
    "address": "山口県周南市久米2665番地7",
    "lat": 34.0467009,
    "lng": 131.8482402,
    "tel": "0834-28-0055",
    "url": "http://komorebinomori.jp",
    "pref": "山口県",
    "city": "周南市",
    "category": "day_service",
    "serviceType": "通所介護",
    "capacity": null,
    "openDays": [
      "平日",
      "土曜日",
      "祝日"
    ],
    "openDaysNote": ""
  },
  {
    "id": "3571500804",
    "name": "デイサービスセンター元気村",
    "kana": "デイサービスセンターゲンキムラ",
    "address": "周南市大字湯野27番地周南リハビリ元気村 周南リハビリ元気村",
    "lat": 34.084094,
    "lng": 131.6802809,
    "tel": "0834-82-0777",
    "url": "http://www.genkimura-sa.jp/",
    "pref": "山口県",
    "city": "周南市",
    "category": "day_service",
    "serviceType": "通所介護",
    "capacity": 0,
    "openDays": [
      "平日",
      "土曜日",
      "祝日"
    ],
    "openDaysNote": ""
  },
  {
    "id": "3571501935",
    "name": "デイサービス大笑",
    "kana": "デイサービスタイショウ",
    "address": "山口県周南市須々万本郷2671-2",
    "lat": 34.1125145735839,
    "lng": 131.856555504732,
    "tel": "0834-51-4017",
    "url": "https://www.krone-nakasu.com/",
    "pref": "山口県",
    "city": "周南市",
    "category": "day_service",
    "serviceType": "通所介護",
    "capacity": null,
    "openDays": [
      "平日",
      "土曜日"
    ],
    "openDaysNote": "8/14～8/15、12/30～1/3は休業"
  },
  {
    "id": "3570500441",
    "name": "ニチイケアセンター菊川",
    "kana": "ニチイケアセンターキクガワ",
    "address": "周南市大字下上字向土井644-1",
    "lat": 34.0797991,
    "lng": 131.7763131,
    "tel": "0834-61-2800",
    "url": "",
    "pref": "山口県",
    "city": "周南市",
    "category": "day_service",
    "serviceType": "通所介護",
    "capacity": 0,
    "openDays": [
      "平日",
      "土曜日",
      "日曜日",
      "祝日"
    ],
    "openDaysNote": "9：15～16：30（1単位）　送迎時間を含むサービス提供時間。"
  },
  {
    "id": "3570500219",
    "name": "やすらぎ苑デイサービスセンター",
    "kana": "ヤスラギエンデイサービスセンター",
    "address": "周南市大字湯野１５８番地",
    "lat": 34.0918682,
    "lng": 131.6782669,
    "tel": "0834-83-2800",
    "url": "http://www.yasuragi-en.jp",
    "pref": "山口県",
    "city": "周南市",
    "category": "day_service",
    "serviceType": "通所介護",
    "capacity": 0,
    "openDays": [
      "平日",
      "土曜日",
      "祝日"
    ],
    "openDaysNote": "特になし"
  },
  {
    "id": "3571501976",
    "name": "呼鶴温泉つるの里",
    "kana": "ヨビヅルオンセンツルノサト",
    "address": "山口県周南市大字安田下反田1809-1",
    "lat": 34.0470104849363,
    "lng": 131.967979020106,
    "tel": "0833-44-7500",
    "url": "",
    "pref": "山口県",
    "city": "周南市",
    "category": "day_service",
    "serviceType": "通所介護",
    "capacity": null,
    "openDays": [
      "平日",
      "土曜日",
      "祝日"
    ],
    "openDaysNote": ""
  },
  {
    "id": "3571500655",
    "name": "三丘温泉デイサービスセンター",
    "kana": "ミツオオンセンデイサービスセンター",
    "address": "山口県周南市小松原1233-3",
    "lat": 34.0355615,
    "lng": 131.993265,
    "tel": "0833-92-1600",
    "url": "http://sgpnet.co.jp",
    "pref": "山口県",
    "city": "周南市",
    "category": "day_service",
    "serviceType": "通所介護",
    "capacity": 90,
    "openDays": [
      "平日",
      "土曜日"
    ],
    "openDaysNote": "お盆休みは変動する可能性有"
  },
  {
    "id": "3570500250",
    "name": "周南高原デイサービスセンター",
    "kana": "シュウナンコウゲンデイサービスセンター",
    "address": "周南市大字須々万本郷２9番地の2",
    "lat": 34.1240108,
    "lng": 131.858016,
    "tel": "0834-88-2766",
    "url": "http://ryokuzankai.jp/",
    "pref": "山口県",
    "city": "周南市",
    "category": "day_service",
    "serviceType": "通所介護",
    "capacity": 0,
    "openDays": [
      "平日",
      "土曜日",
      "祝日"
    ],
    "openDaysNote": ""
  },
  {
    "id": "3571400054",
    "name": "周南市新南陽デイサービスセンター",
    "kana": "シュウナンシシンナンヨウデイサービスセンター",
    "address": "周南市古川町1番17号",
    "lat": 34.0694805,
    "lng": 131.7766273,
    "tel": "0834-62-6303",
    "url": "sinnanyoufukusi.com",
    "pref": "山口県",
    "city": "周南市",
    "category": "day_service",
    "serviceType": "通所介護",
    "capacity": 30,
    "openDays": [
      "平日",
      "土曜日"
    ],
    "openDaysNote": "特になし"
  },
  {
    "id": "3577300159",
    "name": "天王園デイサービスセンター",
    "kana": "テンノウエンデイサービスセンター",
    "address": "山口県周南市大河内1109番2",
    "lat": 34.0259033,
    "lng": 131.9420913,
    "tel": "0833-91-6679",
    "url": "http://www.tennoen.com",
    "pref": "山口県",
    "city": "周南市",
    "category": "day_service",
    "serviceType": "通所介護",
    "capacity": 0,
    "openDays": [
      "平日",
      "土曜日",
      "祝日"
    ],
    "openDaysNote": ""
  },
  {
    "id": "3577100781",
    "name": "デイサービス　おひさん",
    "kana": "デイサービス　　オヒサン",
    "address": "山口県大島郡周防大島町日前１５６８－２",
    "lat": 33.91447,
    "lng": 132.2912009,
    "tel": "0820-73-0023",
    "url": "",
    "pref": "山口県",
    "city": "周防大島町",
    "category": "day_service",
    "serviceType": "通所介護",
    "capacity": 0,
    "openDays": [
      "平日",
      "土曜日",
      "日曜日",
      "祝日"
    ],
    "openDaysNote": ""
  },
  {
    "id": "3577100799",
    "name": "デイサービスＮＩＪＩ",
    "kana": "デイサービス　ニジ",
    "address": "山口県大島郡周防大島町西三蒲1793-6",
    "lat": 33.948593,
    "lng": 132.2073189,
    "tel": "0820-74-3255",
    "url": "",
    "pref": "山口県",
    "city": "周防大島町",
    "category": "day_service",
    "serviceType": "通所介護",
    "capacity": 0,
    "openDays": [
      "平日",
      "土曜日"
    ],
    "openDaysNote": ""
  },
  {
    "id": "3577100161",
    "name": "デイサービスセンター　福寿苑",
    "kana": "デイサービスセンター　フクジュエン",
    "address": "山口県大島郡周防大島町大字久賀　5142-1",
    "lat": 33.9450861,
    "lng": 132.2619889,
    "tel": "0820-72-2751",
    "url": "",
    "pref": "山口県",
    "city": "周防大島町",
    "category": "day_service",
    "serviceType": "通所介護",
    "capacity": 25,
    "openDays": [
      "平日"
    ],
    "openDaysNote": "祝祭日にもサービスを提供していましたが、諸般の事情により、現在は中止しております。（改行）環境が整えば、祝日のサービス提供を再開したりと願っています。"
  },
  {
    "id": "3577100237",
    "name": "東和在宅老人デイサービスセンター",
    "kana": "トウワザイタクロウジンデイサービスセンター",
    "address": "山口県大島郡周防大島町大字西方１６２３番地２",
    "lat": 33.9004339,
    "lng": 132.3375044,
    "tel": "0820-78-0117",
    "url": "",
    "pref": "山口県",
    "city": "周防大島町",
    "category": "day_service",
    "serviceType": "通所介護",
    "capacity": 150,
    "openDays": [
      "平日"
    ],
    "openDaysNote": "特になし"
  },
  {
    "id": "3571100415",
    "name": "きんさい家",
    "kana": "キンサイヤ",
    "address": "山口県長門市三隅下１２９５－１",
    "lat": 34.3683757121784,
    "lng": 131.229613609812,
    "tel": "0837-43-2882",
    "url": "",
    "pref": "山口県",
    "city": "長門市",
    "category": "day_service",
    "serviceType": "通所介護",
    "capacity": 0,
    "openDays": [
      "平日",
      "土曜日",
      "祝日"
    ],
    "openDaysNote": ""
  },
  {
    "id": "3571100167",
    "name": "デイサービスセンターしあわせ長門",
    "kana": "デイサービスセンターシアワセナガト",
    "address": "山口県長門市東深川1321番地1",
    "lat": 34.3710006,
    "lng": 131.1812781,
    "tel": "0837-22-8556",
    "url": "http://www.nagatoshakyo.jp",
    "pref": "山口県",
    "city": "長門市",
    "category": "day_service",
    "serviceType": "通所介護",
    "capacity": 30,
    "openDays": [
      "平日",
      "土曜日",
      "祝日"
    ],
    "openDaysNote": "なし"
  },
  {
    "id": "3578000162",
    "name": "デイサービスセンター明和苑",
    "kana": "デイサービスセンターメイワエン",
    "address": "長門市三隅中1811番地",
    "lat": 34.3619474,
    "lng": 131.2652982,
    "tel": "0837-43-0574",
    "url": "http://meiwaen.jp/",
    "pref": "山口県",
    "city": "長門市",
    "category": "day_service",
    "serviceType": "通所介護",
    "capacity": 0,
    "openDays": [
      "平日",
      "祝日"
    ],
    "openDaysNote": "特になし"
  },
  {
    "id": "3578000113",
    "name": "へき楽園デイサービスセンター",
    "kana": "ヘキラクエンデイサービスセンター",
    "address": "山口県長門市日置上3114番地",
    "lat": 34.3968969,
    "lng": 131.1333837,
    "tel": "0837-37-4177",
    "url": "https://hekirakuen.or.jp",
    "pref": "山口県",
    "city": "長門市",
    "category": "day_service",
    "serviceType": "通所介護",
    "capacity": 0,
    "openDays": [
      "平日",
      "土曜日",
      "祝日"
    ],
    "openDaysNote": ""
  },
  {
    "id": "3571100571",
    "name": "リハビリ型デイサービスかなで",
    "kana": "リハビリガタデイサービスカナデ",
    "address": "山口県長門市油谷河原１４４４番地",
    "lat": 34.3688947548832,
    "lng": 131.044981535582,
    "tel": "0837-32-2300",
    "url": "",
    "pref": "山口県",
    "city": "長門市",
    "category": "day_service",
    "serviceType": "通所介護",
    "capacity": 0,
    "openDays": [
      "平日",
      "土曜日"
    ],
    "openDaysNote": ""
  },
  {
    "id": "3571100555",
    "name": "花笑デイサービス",
    "kana": "ハナエデイサービス",
    "address": "長門市西深川338-1",
    "lat": 34.371252102086,
    "lng": 131.167656698654,
    "tel": "0837-27-0025",
    "url": "http://nikoniko-survice.com/",
    "pref": "山口県",
    "city": "長門市",
    "category": "day_service",
    "serviceType": "通所介護",
    "capacity": 0,
    "openDays": [
      "平日"
    ],
    "openDaysNote": ""
  },
  {
    "id": "3571100092",
    "name": "恵光苑デイサービスセンター",
    "kana": "ケイコウエン　デイサービスセンター",
    "address": "山口県長門市東深川10062番地27（緑ヶ丘）恵光苑デイサービスセンター 恵光苑デイサービスセンター",
    "lat": 34.3728394732275,
    "lng": 131.188250546033,
    "tel": "0837-22-5888",
    "url": "http://keikouen.jp/publics/index/65/",
    "pref": "山口県",
    "city": "長門市",
    "category": "day_service",
    "serviceType": "通所介護",
    "capacity": 28,
    "openDays": [
      "平日",
      "祝日"
    ],
    "openDaysNote": "自然災害時（台風・大雪・地震等）危険を伴うと判断された時は、お休みの連絡をさせていただきます。"
  },
  {
    "id": "3571100266",
    "name": "清風ポラリスデイサービスセンター",
    "kana": "セイフウポラリスデイサービスセンター",
    "address": "山口県長門市三隅中326番地",
    "lat": 34.3564813,
    "lng": 131.2607851,
    "tel": "0837-42-1000",
    "url": "http://www.seifuu.or.jp",
    "pref": "山口県",
    "city": "長門市",
    "category": "day_service",
    "serviceType": "通所介護",
    "capacity": null,
    "openDays": [
      "平日",
      "土曜日",
      "祝日"
    ],
    "openDaysNote": "台風並びに大雪の場合は、安全の為、急遽休むことがあります。"
  },
  {
    "id": "3578000147",
    "name": "養寿苑　デイサービスセンター",
    "kana": "ヨウジュエン　デイサービスセンター",
    "address": "山口県長門市油谷向津具上10344番地",
    "lat": 34.4070727,
    "lng": 130.9826664,
    "tel": "0837-34-1577",
    "url": "https://www.youjyuen.com/",
    "pref": "山口県",
    "city": "長門市",
    "category": "day_service",
    "serviceType": "通所介護",
    "capacity": 5,
    "openDays": [
      "平日",
      "祝日"
    ],
    "openDaysNote": "特になし"
  },
  {
    "id": "3577300282",
    "name": "たぶせ苑デイサービスセンター",
    "kana": "タブセエンデイサービスセンター",
    "address": "山口県熊毛郡田布施町宿井406",
    "lat": 33.9655012,
    "lng": 132.0282905,
    "tel": "0820-53-1294",
    "url": "http://care-net.biz/35/shifuku/company.php",
    "pref": "山口県",
    "city": "田布施町",
    "category": "day_service",
    "serviceType": "通所介護",
    "capacity": 0,
    "openDays": [
      "平日",
      "土曜日",
      "祝日"
    ],
    "openDaysNote": "祝、祭日は営業します。"
  },
  {
    "id": "3577300431",
    "name": "デイサービスセンター　サポートたぶせ",
    "kana": "デイサービスセンター　サポートタブセ",
    "address": "山口県熊毛郡田布施町大字下田布施806",
    "lat": 33.9525224,
    "lng": 132.0475394,
    "tel": "0820-51-0070",
    "url": "http://koujinkai-ichikawaiin.jimdo.com/",
    "pref": "山口県",
    "city": "田布施町",
    "category": "day_service",
    "serviceType": "通所介護",
    "capacity": 0,
    "openDays": [
      "平日",
      "土曜日",
      "祝日"
    ],
    "openDaysNote": "特になし"
  },
  {
    "id": "3577300761",
    "name": "デイサービスセンター　ブリスケア田布施",
    "kana": "デイサービスセンター　ブリスケアタブセ",
    "address": "熊毛郡田布施町大字波野４３３－１ル・モンド田布施 ル・モンド田布施",
    "lat": 33.9586405409953,
    "lng": 132.047543764418,
    "tel": "０８２０－５２－６６６０",
    "url": "",
    "pref": "山口県",
    "city": "田布施町",
    "category": "day_service",
    "serviceType": "通所介護",
    "capacity": 28,
    "openDays": [
      "平日",
      "土曜日",
      "祝日"
    ],
    "openDaysNote": ""
  },
  {
    "id": "3577300357",
    "name": "デイサービスセンターアットホーム",
    "kana": "デイサービスセンターアットホーム",
    "address": "山口県熊毛郡田布施町大字麻郷字平原776－68",
    "lat": 33.9406876,
    "lng": 132.0535501,
    "tel": "0820-53-0111",
    "url": "",
    "pref": "山口県",
    "city": "田布施町",
    "category": "day_service",
    "serviceType": "通所介護",
    "capacity": 0,
    "openDays": [
      "平日",
      "土曜日",
      "祝日"
    ],
    "openDaysNote": "特になし"
  },
  {
    "id": "3577300738",
    "name": "やまびこデイサービスセンター",
    "kana": "ヤマビコデイサービスセンター",
    "address": "熊毛郡田布施町下田布施963-1",
    "lat": 33.9557849442804,
    "lng": 132.041412117908,
    "tel": "0820-25-3732",
    "url": "http://www.kvision.ne.jp/~yamabiko1/index.html",
    "pref": "山口県",
    "city": "田布施町",
    "category": "day_service",
    "serviceType": "通所介護",
    "capacity": 0,
    "openDays": [
      "平日",
      "土曜日",
      "祝日"
    ],
    "openDaysNote": ""
  },
  {
    "id": "3570400949",
    "name": "JAデイサービス萩",
    "kana": "ジェイエイデイサービスハギ",
    "address": "山口県萩市大字椿3032番地",
    "lat": 34.3980496,
    "lng": 131.4010854,
    "tel": "0838-24-0155",
    "url": "",
    "pref": "山口県",
    "city": "萩市",
    "category": "day_service",
    "serviceType": "通所介護",
    "capacity": null,
    "openDays": [
      "平日",
      "土曜日",
      "祝日"
    ],
    "openDaysNote": "12月31日～1月３日は休業とする。"
  },
  {
    "id": "3570400873",
    "name": "かしまリハビリステーション",
    "kana": "カシマリハビリステーション",
    "address": "山口県萩市大字唐樋町20-3",
    "lat": 34.4101707995706,
    "lng": 131.402656134073,
    "tel": "0838-21-7715",
    "url": "",
    "pref": "山口県",
    "city": "萩市",
    "category": "day_service",
    "serviceType": "通所介護",
    "capacity": 0,
    "openDays": [
      "平日"
    ],
    "openDaysNote": ""
  },
  {
    "id": "3570400899",
    "name": "グッドタイム・グランドハギ",
    "kana": "グッドタイムクラブ・グランド萩",
    "address": "山口県萩市古萩町25番地",
    "lat": 34.4161049,
    "lng": 131.4042481,
    "tel": "0838-22-9000",
    "url": "http://www.souseikai.or.jp",
    "pref": "山口県",
    "city": "萩市",
    "category": "day_service",
    "serviceType": "通所介護",
    "capacity": 0,
    "openDays": [
      "平日",
      "土曜日",
      "祝日"
    ],
    "openDaysNote": ""
  },
  {
    "id": "3570400840",
    "name": "ケアサポートいわみ株式会社　デイサービスセンターのどか",
    "kana": "ケアサポートイワミカブシキガイシャ　デイサービスセンター　ノドカ",
    "address": "大字下田万字袴田２４１７－１デイサービスセンター　のどか デイサービスセンター　のどか",
    "lat": 34.6796171,
    "lng": 138.9451459,
    "tel": "08387-3-0005",
    "url": "http://www.care-iwami.jp/",
    "pref": "山口県",
    "city": "萩市",
    "category": "day_service",
    "serviceType": "通所介護",
    "capacity": 0,
    "openDays": [
      "平日",
      "土曜日",
      "祝日"
    ],
    "openDaysNote": ""
  },
  {
    "id": "3578100160",
    "name": "すさ苑デイサービスセンター",
    "kana": "スサエンデイサービスセンター",
    "address": "萩市大字須佐1378-1",
    "lat": 34.6128762,
    "lng": 131.607869,
    "tel": "08387-6-3146",
    "url": "",
    "pref": "山口県",
    "city": "萩市",
    "category": "day_service",
    "serviceType": "通所介護",
    "capacity": 0,
    "openDays": [
      "平日",
      "土曜日",
      "祝日"
    ],
    "openDaysNote": "特になし"
  },
  {
    "id": "3570400253",
    "name": "デイサービスセンターオアシスはぎ園",
    "kana": "デイサービスセンターオアシスハギエン",
    "address": "山口県萩市大井1689番地13",
    "lat": 34.4726458,
    "lng": 131.444483,
    "tel": "0838-28-5166",
    "url": "https://jigyodan-yg.jp/hagien/publics/inndex/18/",
    "pref": "山口県",
    "city": "萩市",
    "category": "day_service",
    "serviceType": "通所介護",
    "capacity": 0,
    "openDays": [
      "平日",
      "祝日"
    ],
    "openDaysNote": ""
  },
  {
    "id": "3570400709",
    "name": "デイサービスセンター椿の郷",
    "kana": "デイサービスセンターツバキノサト",
    "address": "萩市大字椿東6030-13有料老人ホーム「椿の郷」内 有料老人ホーム「椿の郷」内",
    "lat": 34.4399346590043,
    "lng": 131.42198124841,
    "tel": "0838-21-7215",
    "url": "http://www.mizunoki.jp/index.html",
    "pref": "山口県",
    "city": "萩市",
    "category": "day_service",
    "serviceType": "通所介護",
    "capacity": 30,
    "openDays": [
      "平日"
    ],
    "openDaysNote": ""
  },
  {
    "id": "3578100251",
    "name": "むつみ園デイサービスセンター",
    "kana": "ムツミエンデイサービスセンター",
    "address": "山口県萩市大字吉部上3301-1",
    "lat": 34.4374346,
    "lng": 131.57447,
    "tel": "08388-6-0301",
    "url": "http://siukai.jp/",
    "pref": "山口県",
    "city": "萩市",
    "category": "day_service",
    "serviceType": "通所介護",
    "capacity": 0,
    "openDays": [
      "平日",
      "土曜日",
      "祝日"
    ],
    "openDaysNote": "８：３０～１７：３０までの間で、各時間帯の利用可能"
  },
  {
    "id": "3570400766",
    "name": "ラウレアたまがわ",
    "kana": "ラウレアタマガワ",
    "address": "山口県萩市大字下田万字袴田2412-1なし なし",
    "lat": 34.6427698322623,
    "lng": 131.66716632662,
    "tel": "08387-2-1030",
    "url": "：http:/hp.kaipoke.biz/und/",
    "pref": "山口県",
    "city": "萩市",
    "category": "day_service",
    "serviceType": "通所介護",
    "capacity": 26,
    "openDays": [
      "平日",
      "土曜日",
      "日曜日",
      "祝日"
    ],
    "openDaysNote": "なし"
  },
  {
    "id": "3578100293",
    "name": "阿北苑デイサービスセンター",
    "kana": "アホクエンデイサービスセンター",
    "address": "山口県萩市大字上小川東分1406番地",
    "lat": 34.5894553,
    "lng": 131.6717395,
    "tel": "08387-4-0261",
    "url": "http://www.ahoku.or.jp/",
    "pref": "山口県",
    "city": "萩市",
    "category": "day_service",
    "serviceType": "通所介護",
    "capacity": 0,
    "openDays": [
      "平日",
      "祝日"
    ],
    "openDaysNote": "法人の理念である、博愛、誠実、創意、地域貢献を基本とし、安心して利用していただけるよう一人ひとりの意思及び人格を尊重してお世話いたします。一年の四季を感じとっていただけるサービス提供に努めます。"
  },
  {
    "id": "3570400535",
    "name": "医療法人社団　裕嵩会波多野医院タンポポ",
    "kana": "イリョウホウジンシャダン　ユウコウカイ　ハタノイインタンポポ",
    "address": "萩市大字堀内247番地5",
    "lat": 34.4134363699667,
    "lng": 131.389216336771,
    "tel": "0838-24-2800",
    "url": "",
    "pref": "山口県",
    "city": "萩市",
    "category": "day_service",
    "serviceType": "通所介護",
    "capacity": null,
    "openDays": [
      "平日",
      "土曜日",
      "祝日"
    ],
    "openDaysNote": "特になし"
  },
  {
    "id": "3578100228",
    "name": "紫福園デイサービスセンター",
    "kana": "シブキエンデイサービスセンター",
    "address": "山口県萩市大字紫福６６０６ー１",
    "lat": 34.4611567,
    "lng": 131.5158551,
    "tel": "0838-53-0231",
    "url": "http://siunkai.jp/",
    "pref": "山口県",
    "city": "萩市",
    "category": "day_service",
    "serviceType": "通所介護",
    "capacity": 0,
    "openDays": [
      "平日",
      "土曜日",
      "祝日"
    ],
    "openDaysNote": "特になし"
  },
  {
    "id": "3570400469",
    "name": "田町診療所　デイサービスセンター　暖家",
    "kana": "タマチシンリョウジョ　デイサービスセンター　ダンケ",
    "address": "萩市大字下五間町49番地",
    "lat": 34.4137512787572,
    "lng": 131.40129473366,
    "tel": "0838-26-3925",
    "url": "http://www.tamachi.net/",
    "pref": "山口県",
    "city": "萩市",
    "category": "day_service",
    "serviceType": "通所介護",
    "capacity": 25,
    "openDays": [
      "平日",
      "祝日"
    ],
    "openDaysNote": "２単位目、３単位目については祝日も休業（改行）天災等でやむを得ず休業する場合がある"
  },
  {
    "id": "3570400386",
    "name": "萩市デイサービスセンターかがやき",
    "kana": "ハギシデイサービスセンターカガヤキ",
    "address": "萩市大字椿字門田3460-2",
    "lat": 34.3975725220085,
    "lng": 131.394112084486,
    "tel": "0838-24-4111",
    "url": "http://hagi-kagayaki.or.jp/",
    "pref": "山口県",
    "city": "萩市",
    "category": "day_service",
    "serviceType": "通所介護",
    "capacity": 45,
    "openDays": [
      "平日",
      "土曜日",
      "日曜日",
      "祝日"
    ],
    "openDaysNote": "特になし"
  },
  {
    "id": "3570400428",
    "name": "萩市デイサービスセンターさんみ苑",
    "kana": "ハギシデイサービスセンターサンミエン",
    "address": "山口県萩市三見3852番地1",
    "lat": 34.392988,
    "lng": 131.3297481,
    "tel": "0838-27-5000",
    "url": "http://www.futaba-hagi.jp/sanmi_02/menu_02.html",
    "pref": "山口県",
    "city": "萩市",
    "category": "day_service",
    "serviceType": "通所介護",
    "capacity": 50,
    "openDays": [
      "平日",
      "土曜日",
      "祝日"
    ],
    "openDaysNote": "年末年始の定休日は曜日等の関係により、流動的としている。（改行）通常のサービス提供時間は9：00～16：00としているが、個別の理由に応じて、8：15～17：15の範囲で対応可能としている。"
  },
  {
    "id": "3570400329",
    "name": "萩市須佐デイサービスセンターやまびこ",
    "kana": "ハギシスサデイサービスセンターヤマビコ",
    "address": "萩市大字弥富下3998番地",
    "lat": 34.5474821,
    "lng": 131.6418735,
    "tel": "08387-8-2000",
    "url": "http://hagi-kagayaki.or.jp",
    "pref": "山口県",
    "city": "萩市",
    "category": "day_service",
    "serviceType": "通所介護",
    "capacity": 30,
    "openDays": [
      "平日",
      "土曜日",
      "祝日"
    ],
    "openDaysNote": ""
  },
  {
    "id": "3570400394",
    "name": "萩市中津江デイサービスセンターなごみ",
    "kana": "ハギシナカツエデイサービスセンターナゴミ",
    "address": "山口県萩市大字椿東315番地6",
    "lat": 34.39496287348,
    "lng": 131.416066688361,
    "tel": "0838-24-1753",
    "url": "http://www.hagi-kagayaki.or.jp/",
    "pref": "山口県",
    "city": "萩市",
    "category": "day_service",
    "serviceType": "通所介護",
    "capacity": 0,
    "openDays": [
      "平日",
      "土曜日",
      "日曜日",
      "祝日"
    ],
    "openDaysNote": ""
  },
  {
    "id": "3570400576",
    "name": "萩市無田ヶ原口デイサービスセンターおとずれ",
    "kana": "ハギシムタガハラグチデイサービスセンターオトズレ",
    "address": "山口県萩市大字椿東3143-1",
    "lat": 34.4223563,
    "lng": 131.4135364,
    "tel": "0838-24-1294",
    "url": "http://www.hagi-kagayaki.or.jp/modules/tinyd2/index.php?id=28",
    "pref": "山口県",
    "city": "萩市",
    "category": "day_service",
    "serviceType": "通所介護",
    "capacity": 40,
    "openDays": [
      "平日"
    ],
    "openDaysNote": "特になし"
  },
  {
    "id": "3571300635",
    "name": "JAデイサ−ビス美祢",
    "kana": "ジェイエイデイサ−ビスミネ",
    "address": "山口県美祢市大嶺町東分来福台４丁目１５−７",
    "lat": 34.1853211,
    "lng": 131.1959715,
    "tel": "0837-54-0567",
    "url": "https://ja-kyodo-support.jp",
    "pref": "山口県",
    "city": "美祢市",
    "category": "day_service",
    "serviceType": "通所介護",
    "capacity": null,
    "openDays": [
      "平日",
      "土曜日",
      "祝日"
    ],
    "openDaysNote": "台風その他自然災害等により、やむを得ず利用時間の変更、又は中止とさせて頂くことがあります。"
  },
  {
    "id": "3571300486",
    "name": "デイサービス　えにし",
    "kana": "デイサービス　エニシ",
    "address": "山口県美祢市秋芳町秋吉5442-2",
    "lat": 34.2142858168227,
    "lng": 131.289266231713,
    "tel": "0837-63-0033",
    "url": "http://www.enishi-ci.com",
    "pref": "山口県",
    "city": "美祢市",
    "category": "day_service",
    "serviceType": "通所介護",
    "capacity": 0,
    "openDays": [
      "平日",
      "土曜日",
      "祝日"
    ],
    "openDaysNote": ""
  },
  {
    "id": "3571300262",
    "name": "デイサービスセンター　ありがとう",
    "kana": "デイサービスセンター　アリガトウ",
    "address": "山口県美祢市大嶺町東分1215番地の1",
    "lat": 34.1802205,
    "lng": 131.2119805,
    "tel": "0837-52-5370",
    "url": "fuki-arigatou.com",
    "pref": "山口県",
    "city": "美祢市",
    "category": "day_service",
    "serviceType": "通所介護",
    "capacity": 5,
    "openDays": [
      "平日",
      "土曜日",
      "祝日"
    ],
    "openDaysNote": "特になし"
  },
  {
    "id": "3577900081",
    "name": "秋吉デイサービスセンター",
    "kana": "アキヨシデイサービスセンター",
    "address": "山口県美祢市秋芳町秋吉5243番3",
    "lat": 34.2118871303289,
    "lng": 131.297028999841,
    "tel": "0837-62-1170",
    "url": "https://aokage52.jp",
    "pref": "山口県",
    "city": "美祢市",
    "category": "day_service",
    "serviceType": "通所介護",
    "capacity": 30,
    "openDays": [
      "平日",
      "土曜日",
      "祝日"
    ],
    "openDaysNote": "１２月２９日・３０日については特別入浴希望の方のみ利用可能"
  },
  {
    "id": "3577300712",
    "name": "デイサービスセンター　ブリスケア平生",
    "kana": "デイサービスセンター　ブリスケアヒラオ",
    "address": "平生町角浜５６８－１５",
    "lat": 33.9384631,
    "lng": 132.065505,
    "tel": "０８２０－５６－８８８０",
    "url": "http://ww51.tiki.ne.jp/~fod-co/tabuse.html",
    "pref": "山口県",
    "city": "平生町",
    "category": "day_service",
    "serviceType": "通所介護",
    "capacity": 18,
    "openDays": [
      "平日",
      "土曜日",
      "祝日"
    ],
    "openDaysNote": ""
  },
  {
    "id": "3577300027",
    "name": "平生町社会福祉協議会",
    "kana": "ヒラオチョウシャカイフクシキョウギカイ",
    "address": "熊毛郡平生町平生村618-2",
    "lat": 33.9405433727642,
    "lng": 132.075627309726,
    "tel": "0820-56-8200",
    "url": "http://www.hirao-shakyo.or.jp",
    "pref": "山口県",
    "city": "平生町",
    "category": "day_service",
    "serviceType": "通所介護",
    "capacity": 40,
    "openDays": [
      "平日",
      "土曜日",
      "祝日"
    ],
    "openDaysNote": ""
  },
  {
    "id": "3570602452",
    "name": "acotデイサービスセンター",
    "kana": "アコットデイサービスセンター",
    "address": "山口県防府市田島1943-4ACOT ACOT",
    "lat": 34.0283834524156,
    "lng": 131.540248464383,
    "tel": "0835-28-1142",
    "url": "www.lcraft-kabushikigaisya.com",
    "pref": "山口県",
    "city": "防府市",
    "category": "day_service",
    "serviceType": "通所介護",
    "capacity": null,
    "openDays": [
      "平日",
      "土曜日",
      "日曜日",
      "祝日"
    ],
    "openDaysNote": ""
  },
  {
    "id": "3570601579",
    "name": "ＮＰＯさわやか中西",
    "kana": "エヌピイオウサワヤカナカニシ",
    "address": "防府市中西29-7",
    "lat": 34.0616207,
    "lng": 131.6042442,
    "tel": "0835-28-8171",
    "url": "https://www.sawayakahofu.com",
    "pref": "山口県",
    "city": "防府市",
    "category": "day_service",
    "serviceType": "通所介護",
    "capacity": 0,
    "openDays": [
      "平日",
      "土曜日",
      "祝日"
    ],
    "openDaysNote": ""
  },
  {
    "id": "3570602627",
    "name": "グリーンライフ防府沖今宿デイサービスセンター",
    "kana": "グリーンライフホウフオキイマジュクデイサービスセンター",
    "address": "山口県防府市沖今宿一丁目18番20号",
    "lat": 34.0487465,
    "lng": 131.5994511,
    "tel": "0835－27－2826",
    "url": "https://www.greenlife-inc.co.jp/",
    "pref": "山口県",
    "city": "防府市",
    "category": "day_service",
    "serviceType": "通所介護",
    "capacity": 0,
    "openDays": [
      "平日",
      "土曜日",
      "祝日"
    ],
    "openDaysNote": ""
  },
  {
    "id": "3570602635",
    "name": "グリーンライフ防府江泊デイサービスセンター",
    "kana": "グリーンライフホウフエドマリデイサービスセンター",
    "address": "山口県防府市江泊1987－143",
    "lat": 34.0485519,
    "lng": 131.6056123,
    "tel": "0835－28－1505",
    "url": "https://www.greenlife-inc.co.jp/",
    "pref": "山口県",
    "city": "防府市",
    "category": "day_service",
    "serviceType": "通所介護",
    "capacity": 0,
    "openDays": [
      "平日",
      "土曜日",
      "祝日"
    ],
    "openDaysNote": ""
  },
  {
    "id": "3570601041",
    "name": "ケアパートナー防府",
    "kana": "ケアパートナーホウフ",
    "address": "防府市本橋町１７番１６号ポラリス1Ｆ ポラリス1Ｆ",
    "lat": 34.0674548,
    "lng": 131.5661866,
    "tel": "0835-26-6767",
    "url": "http://www.care-partner.com/",
    "pref": "山口県",
    "city": "防府市",
    "category": "day_service",
    "serviceType": "通所介護",
    "capacity": 55,
    "openDays": [
      "平日",
      "土曜日",
      "日曜日",
      "祝日"
    ],
    "openDaysNote": "営業日は月曜日から日曜日（祝日も営業）とする。（改行）ただし、１２月30日から１月３日までを除く。"
  },
  {
    "id": "3570601884",
    "name": "ケアライフ防府デイサービスセンター",
    "kana": "ケアライフホウフデイサービスセンター",
    "address": "山口県防府市大字下右田797-1ケアライフ防府 ケアライフ防府",
    "lat": 34.0708738,
    "lng": 131.5617229,
    "tel": "0835-21-4165",
    "url": "http://www.bestlife1165.com/",
    "pref": "山口県",
    "city": "防府市",
    "category": "day_service",
    "serviceType": "通所介護",
    "capacity": 30,
    "openDays": [
      "平日",
      "土曜日",
      "日曜日",
      "祝日"
    ],
    "openDaysNote": "通常サービス提供時間は、午前8時45分から午後17時00分までとする。"
  },
  {
    "id": "3570601223",
    "name": "サンキ・ウエルビィデイサービスセンター防府",
    "kana": "サンキ・ウエルビィデイサービスセンターホウフ",
    "address": "山口県防府市八王子二丁目８－８ゆめタウン防府　３階 ゆめタウン防府　３階",
    "lat": 34.0585780455887,
    "lng": 131.568624821426,
    "tel": "0835-21-8811",
    "url": "",
    "pref": "山口県",
    "city": "防府市",
    "category": "day_service",
    "serviceType": "通所介護",
    "capacity": 25,
    "openDays": [
      "平日",
      "土曜日",
      "祝日"
    ],
    "openDaysNote": "月曜～土曜の祝祭日含む　8時30分～17時30分"
  },
  {
    "id": "3570602460",
    "name": "ツクイ防府東",
    "kana": "ツクイホウフヒガシ",
    "address": "山口県防府市国衙３丁目4-41",
    "lat": 34.0558496,
    "lng": 131.5882745,
    "tel": "0835-27-2922",
    "url": "https://www.tsukui.net",
    "pref": "山口県",
    "city": "防府市",
    "category": "day_service",
    "serviceType": "通所介護",
    "capacity": 0,
    "openDays": [
      "平日",
      "土曜日",
      "日曜日",
      "祝日"
    ],
    "openDaysNote": ""
  },
  {
    "id": "3570600662",
    "name": "デイサービス　ワンエフ",
    "kana": "デイサービス　ワンエフ",
    "address": "山口県防府市石が口1丁目3番42号",
    "lat": 34.0440955300393,
    "lng": 131.564209669975,
    "tel": "0835-27-6203",
    "url": "https://onefweb.wixsite.com/my-site",
    "pref": "山口県",
    "city": "防府市",
    "category": "day_service",
    "serviceType": "通所介護",
    "capacity": 25,
    "openDays": [
      "平日",
      "祝日"
    ],
    "openDaysNote": "ゴールデンウィーク・お盆期間中の営業はご確認ください。"
  },
  {
    "id": "3570602536",
    "name": "デイサービスあおば",
    "kana": "デイサービスアオバ",
    "address": "山口県防府市牟礼柳20番－1号",
    "lat": 34.0562236,
    "lng": 131.6029358,
    "tel": "0835-28-7567",
    "url": "",
    "pref": "山口県",
    "city": "防府市",
    "category": "day_service",
    "serviceType": "通所介護",
    "capacity": null,
    "openDays": [
      "平日",
      "土曜日",
      "祝日"
    ],
    "openDaysNote": ""
  },
  {
    "id": "3570602213",
    "name": "デイサービスきたえるーむ防府中央",
    "kana": "デイサービスキタエルームホウフチュウオウ",
    "address": "山口県防府市東三田尻1丁目1-1",
    "lat": 34.0492284,
    "lng": 131.574643,
    "tel": "0835-28-7301",
    "url": "",
    "pref": "山口県",
    "city": "防府市",
    "category": "day_service",
    "serviceType": "通所介護",
    "capacity": 0,
    "openDays": [
      "平日",
      "土曜日"
    ],
    "openDaysNote": "土曜日は午前中のみ"
  },
  {
    "id": "3570602221",
    "name": "デイサービスきたえるーむ防府北",
    "kana": "デイサービスキタエルームホウフキタ",
    "address": "山口県防府市国衙5丁目11-6",
    "lat": 34.0551852,
    "lng": 131.5899319,
    "tel": "0835-28-7851",
    "url": "",
    "pref": "山口県",
    "city": "防府市",
    "category": "day_service",
    "serviceType": "通所介護",
    "capacity": 25,
    "openDays": [
      "平日",
      "土曜日"
    ],
    "openDaysNote": "土曜日は午前中のみ"
  },
  {
    "id": "3570600837",
    "name": "デイサービスセンター　たまのや",
    "kana": "デイサービスセンター　タマノヤ",
    "address": "山口県防府市大字佐野152-1",
    "lat": 34.0574838,
    "lng": 131.5290567,
    "tel": "0835-27-6870",
    "url": "http://hitotsunokai.jp/",
    "pref": "山口県",
    "city": "防府市",
    "category": "day_service",
    "serviceType": "通所介護",
    "capacity": 0,
    "openDays": [
      "平日",
      "土曜日",
      "祝日"
    ],
    "openDaysNote": "特になし"
  },
  {
    "id": "3570601017",
    "name": "デイサービスセンター　ふじ防府",
    "kana": "デイサービスセンター　フジホウフ",
    "address": "防府市高倉1丁目　１４－１",
    "lat": 34.0548817,
    "lng": 131.5577403,
    "tel": "0835-38-3166",
    "url": "http://www.fujicare.jp/",
    "pref": "山口県",
    "city": "防府市",
    "category": "day_service",
    "serviceType": "通所介護",
    "capacity": 0,
    "openDays": [
      "平日",
      "土曜日",
      "祝日"
    ],
    "openDaysNote": "特になし"
  },
  {
    "id": "3570601553",
    "name": "デイサービスセンターおおひらの里",
    "kana": "デイサービスセンターオオヒラノサト",
    "address": "山口県防府市大字江泊１７９０番地デイサービスセンター　おおひらの里 デイサービスセンター　おおひらの里",
    "lat": 34.0550172323258,
    "lng": 131.606209957672,
    "tel": "0835-38-5282",
    "url": "http://www.akatsukikai.com/",
    "pref": "山口県",
    "city": "防府市",
    "category": "day_service",
    "serviceType": "通所介護",
    "capacity": 30,
    "openDays": [
      "平日",
      "土曜日",
      "日曜日",
      "祝日"
    ],
    "openDaysNote": ""
  },
  {
    "id": "3570601157",
    "name": "デイサービスセンターさわやか防府",
    "kana": "デイサービスセンターサワヤカホウフ",
    "address": "防府市牟礼今宿１丁目２１－２７",
    "lat": 34.0539419227146,
    "lng": 131.6003559,
    "tel": "0835-21-1985",
    "url": "https://www.sawayakahofu.com",
    "pref": "山口県",
    "city": "防府市",
    "category": "day_service",
    "serviceType": "通所介護",
    "capacity": 19,
    "openDays": [
      "平日",
      "土曜日",
      "祝日"
    ],
    "openDaysNote": "週２日（金、土）の営業。"
  },
  {
    "id": "3570602007",
    "name": "デイサービスセンターフィラージュ開出",
    "kana": "デイサービスセンターフィラージュカイデ",
    "address": "山口県防府市開出西町32-8",
    "lat": 34.0511848,
    "lng": 131.5424723,
    "tel": "0835-28-9302",
    "url": "http://hitotsunokai.jp/",
    "pref": "山口県",
    "city": "防府市",
    "category": "day_service",
    "serviceType": "通所介護",
    "capacity": 35,
    "openDays": [
      "平日",
      "土曜日",
      "祝日"
    ],
    "openDaysNote": ""
  },
  {
    "id": "3570601348",
    "name": "デイサービスセンター元気の里",
    "kana": "デイサービスセンターゲンキノサト",
    "address": "山口県防府市大字田島６７４－５",
    "lat": 34.0261187,
    "lng": 131.5579272,
    "tel": "0835-25-2341",
    "url": "https://www.soubi-genkinosato12.com/",
    "pref": "山口県",
    "city": "防府市",
    "category": "day_service",
    "serviceType": "通所介護",
    "capacity": 65,
    "openDays": [
      "平日",
      "土曜日",
      "祝日"
    ],
    "openDaysNote": ""
  },
  {
    "id": "3570601611",
    "name": "デイサービスセンター元気の里２号館",
    "kana": "デイサービスセンターゲンキノサトニゴウカン",
    "address": "山口県防府市大字田島６７４番地の１２",
    "lat": 34.0261187,
    "lng": 131.5579272,
    "tel": "0835-28-8455",
    "url": "",
    "pref": "山口県",
    "city": "防府市",
    "category": "day_service",
    "serviceType": "通所介護",
    "capacity": 0,
    "openDays": [
      "平日",
      "土曜日",
      "祝日"
    ],
    "openDaysNote": ""
  },
  {
    "id": "3570601124",
    "name": "デイサービスセンター新田の楽さん家",
    "kana": "デイサービスセンターシンデンノラクサンチ",
    "address": "防府市新田966-1",
    "lat": 34.0283269,
    "lng": 131.5659987,
    "tel": "0835-27-2887",
    "url": "http://www.c-able.ne.jp/~s-raku/",
    "pref": "山口県",
    "city": "防府市",
    "category": "day_service",
    "serviceType": "通所介護",
    "capacity": 40,
    "openDays": [
      "平日",
      "土曜日",
      "日曜日",
      "祝日"
    ],
    "openDaysNote": "特になし"
  },
  {
    "id": "3570602379",
    "name": "デイサービスそよ風",
    "kana": "デイサービスソヨカゼ",
    "address": "山口県防府市牟礼柳20番ー1号",
    "lat": 34.0562601,
    "lng": 131.6025849,
    "tel": "0835-28-7718",
    "url": "http://k-houyuukai.com",
    "pref": "山口県",
    "city": "防府市",
    "category": "day_service",
    "serviceType": "通所介護",
    "capacity": 20,
    "openDays": [
      "平日",
      "土曜日",
      "祝日"
    ],
    "openDaysNote": ""
  },
  {
    "id": "3570602361",
    "name": "デイサービスふうき",
    "kana": "ディサービスフウキ",
    "address": "山口県防府市国分寺町5番29号",
    "lat": 34.0643275,
    "lng": 131.5796053,
    "tel": "0835-28-1990",
    "url": "http://hp.kaipoke.biz/0a3/",
    "pref": "山口県",
    "city": "防府市",
    "category": "day_service",
    "serviceType": "通所介護",
    "capacity": 0,
    "openDays": [
      "平日"
    ],
    "openDaysNote": ""
  },
  {
    "id": "3570601876",
    "name": "デイサービス円笑",
    "kana": "デイサービスマドエ",
    "address": "山口県防府市岸津２丁目14-50",
    "lat": 34.0512508,
    "lng": 131.596249,
    "tel": "0835-28-8811",
    "url": "",
    "pref": "山口県",
    "city": "防府市",
    "category": "day_service",
    "serviceType": "通所介護",
    "capacity": null,
    "openDays": [
      "平日",
      "土曜日",
      "祝日"
    ],
    "openDaysNote": ""
  },
  {
    "id": "3570602262",
    "name": "なごみ処しゅしゅ",
    "kana": "ナゴミドコロシュシュ",
    "address": "防府市警固町１丁目１４－４０",
    "lat": 34.0482688,
    "lng": 131.5802387,
    "tel": "0835-28-1500",
    "url": "https://hofucare.jp/",
    "pref": "山口県",
    "city": "防府市",
    "category": "day_service",
    "serviceType": "通所介護",
    "capacity": null,
    "openDays": [
      "平日",
      "土曜日",
      "祝日"
    ],
    "openDaysNote": ""
  },
  {
    "id": "3570600340",
    "name": "ヘスティア華城　デイサービスセンター",
    "kana": "ヘスティアハナギ　デイサービスセンター",
    "address": "防府市大字伊佐江１０３９番地の１",
    "lat": 34.0395198,
    "lng": 131.5441558,
    "tel": "0835-27-1133",
    "url": "http://care-net.biz/35/kaseikai/idex.html",
    "pref": "山口県",
    "city": "防府市",
    "category": "day_service",
    "serviceType": "通所介護",
    "capacity": 40,
    "openDays": [
      "平日",
      "土曜日",
      "祝日"
    ],
    "openDaysNote": ""
  },
  {
    "id": "3570602494",
    "name": "ヘスティア華城機能訓練デイサービスセンター",
    "kana": "ヘスティアハナギキノウクンレンデイサービスセンター",
    "address": "山口県防府市大字伊佐江1569番1",
    "lat": 34.040622,
    "lng": 131.544131,
    "tel": "0835-27-3377",
    "url": "http://kaseikai.com/",
    "pref": "山口県",
    "city": "防府市",
    "category": "day_service",
    "serviceType": "通所介護",
    "capacity": 25,
    "openDays": [
      "平日",
      "土曜日",
      "祝日"
    ],
    "openDaysNote": ""
  },
  {
    "id": "3570601967",
    "name": "ポシブル防府",
    "kana": "ポシブルホウフ",
    "address": "防府市大字新田818-3",
    "lat": 34.0300946700356,
    "lng": 131.564361837637,
    "tel": "0835-20-2525",
    "url": "https://actlight.org/",
    "pref": "山口県",
    "city": "防府市",
    "category": "day_service",
    "serviceType": "通所介護",
    "capacity": 59,
    "openDays": [
      "平日",
      "土曜日",
      "祝日"
    ],
    "openDaysNote": ""
  },
  {
    "id": "3570600266",
    "name": "ライフケア高砂デイサービスセンター",
    "kana": "ライフケアタカサゴデイサービスセンター",
    "address": "山口県防府市大字上右田３３４",
    "lat": 34.0951633,
    "lng": 131.5808677,
    "tel": "０８３５－２２－５５８２",
    "url": "life-care-takasago.jp",
    "pref": "山口県",
    "city": "防府市",
    "category": "day_service",
    "serviceType": "通所介護",
    "capacity": 0,
    "openDays": [
      "平日",
      "土曜日",
      "日曜日",
      "祝日"
    ],
    "openDaysNote": ""
  },
  {
    "id": "3570601538",
    "name": "医療法人康淳会ナーシングホーム緑町通所介護",
    "kana": "イリョウホウジン　コウジュンカイ　ナーシングホームミドリマチ　ツウショカイゴ",
    "address": "山口県防府市緑町1丁目7番61号",
    "lat": 34.0546595,
    "lng": 131.5779777,
    "tel": "0835-20-1615",
    "url": "",
    "pref": "山口県",
    "city": "防府市",
    "category": "day_service",
    "serviceType": "通所介護",
    "capacity": null,
    "openDays": [
      "平日"
    ],
    "openDaysNote": ""
  },
  {
    "id": "3570601330",
    "name": "株式会社ピーエー　デイサービスセンターゆうの風三田尻",
    "kana": "カブシキガイシャピーエー　デイサービスセンターユウノカゼミタジリ",
    "address": "山口県防府市警固町一丁目6番42号",
    "lat": 34.0504823,
    "lng": 131.5794054,
    "tel": "0835-28-0068",
    "url": "http://care-net.biz/35/younokaze/",
    "pref": "山口県",
    "city": "防府市",
    "category": "day_service",
    "serviceType": "通所介護",
    "capacity": 0,
    "openDays": [
      "平日",
      "土曜日",
      "祝日"
    ],
    "openDaysNote": ""
  },
  {
    "id": "3570600175",
    "name": "岸津苑デイサービスセンター",
    "kana": "キシヅエンデイサービスセンター",
    "address": "山口県防府市岸津２丁目２４番２０号",
    "lat": 34.0498693981681,
    "lng": 131.593274306082,
    "tel": "0835-21-8834",
    "url": "http://www.shuyou.jp/",
    "pref": "山口県",
    "city": "防府市",
    "category": "day_service",
    "serviceType": "通所介護",
    "capacity": 30,
    "openDays": [
      "平日",
      "土曜日",
      "祝日"
    ],
    "openDaysNote": "特になし"
  },
  {
    "id": "3570601991",
    "name": "古民家デイサービスとのみ",
    "kana": "コミンカデイサービストノミ",
    "address": "山口県防府市大字富海2519",
    "lat": 34.0478096,
    "lng": 131.6412486,
    "tel": "0835-34-1000",
    "url": "",
    "pref": "山口県",
    "city": "防府市",
    "category": "day_service",
    "serviceType": "通所介護",
    "capacity": 0,
    "openDays": [
      "平日",
      "土曜日",
      "祝日"
    ],
    "openDaysNote": ""
  },
  {
    "id": "3570302038",
    "name": "渚デイサービス",
    "kana": "ナギサデイサービス",
    "address": "山口県防府市西浦2367-12",
    "lat": 34.0128441184706,
    "lng": 131.515349830025,
    "tel": "0835-28-8668",
    "url": "",
    "pref": "山口県",
    "city": "防府市",
    "category": "day_service",
    "serviceType": "通所介護",
    "capacity": 0,
    "openDays": [
      "平日",
      "土曜日",
      "日曜日",
      "祝日"
    ],
    "openDaysNote": ""
  },
  {
    "id": "3570602528",
    "name": "障害福祉サービスあゆみの里",
    "kana": "ショウガイフクシサービスアユミノサト",
    "address": "浜方169-1",
    "lat": 34.0209821624228,
    "lng": 131.568877018261,
    "tel": "0835-24-5075",
    "url": "",
    "pref": "山口県",
    "city": "防府市",
    "category": "day_service",
    "serviceType": "通所介護",
    "capacity": null,
    "openDays": [
      "平日"
    ],
    "openDaysNote": "連続して休日とならない祝日は営業。"
  },
  {
    "id": "3570600894",
    "name": "生活処　遊夢庵",
    "kana": "セイカツドコロ　ユウムアン",
    "address": "山口県防府市中央町6-30",
    "lat": 34.0500407,
    "lng": 131.5683285,
    "tel": "0835-26-5150",
    "url": "",
    "pref": "山口県",
    "city": "防府市",
    "category": "day_service",
    "serviceType": "通所介護",
    "capacity": 0,
    "openDays": [
      "平日",
      "土曜日",
      "祝日"
    ],
    "openDaysNote": "特になし"
  },
  {
    "id": "3570601926",
    "name": "宅粋庵デイサービスセンター",
    "kana": "タクスイアンデイサービスセンター",
    "address": "防府市勝間2丁目10-30",
    "lat": 34.0481016822704,
    "lng": 131.585431147388,
    "tel": "0835-28-8256",
    "url": "",
    "pref": "山口県",
    "city": "防府市",
    "category": "day_service",
    "serviceType": "通所介護",
    "capacity": 40,
    "openDays": [
      "平日",
      "土曜日",
      "祝日"
    ],
    "openDaysNote": "特になし"
  },
  {
    "id": "3570601660",
    "name": "風の丘デイサービス",
    "kana": "カゼノオカデイサービス",
    "address": "防府市大字西浦2367-65",
    "lat": 34.0132741419252,
    "lng": 131.51687556945,
    "tel": "0835-29-4017",
    "url": "",
    "pref": "山口県",
    "city": "防府市",
    "category": "day_service",
    "serviceType": "通所介護",
    "capacity": 24,
    "openDays": [
      "平日",
      "土曜日",
      "日曜日",
      "祝日"
    ],
    "openDaysNote": ""
  },
  {
    "id": "3570600142",
    "name": "防府あかり園デイサービスセンター",
    "kana": "ホウフアカリエンデイサービスセンター",
    "address": "防府市大字台道1671番地",
    "lat": 34.0690156,
    "lng": 131.4927207,
    "tel": "0835-32-1878",
    "url": "",
    "pref": "山口県",
    "city": "防府市",
    "category": "day_service",
    "serviceType": "通所介護",
    "capacity": 55,
    "openDays": [
      "平日",
      "土曜日",
      "祝日"
    ],
    "openDaysNote": "特になし"
  },
  {
    "id": "3570601025",
    "name": "夢のみずうみ村　防府デイサービスセンター",
    "kana": "ユメノミズウミムラ　ホウフディサービスセンター",
    "address": "防府市大字西浦2429-1",
    "lat": 34.0099966,
    "lng": 131.5104848,
    "tel": "0835-39-2201",
    "url": "http://www.yumenomizuumi.com/",
    "pref": "山口県",
    "city": "防府市",
    "category": "day_service",
    "serviceType": "通所介護",
    "capacity": 110,
    "openDays": [
      "平日",
      "土曜日",
      "祝日"
    ],
    "openDaysNote": ""
  },
  {
    "id": "3571200124",
    "name": "あそか苑デイサービスセンター",
    "kana": "アソカエンデイサービスセンター",
    "address": "柳井市日積3213",
    "lat": 34.0053805,
    "lng": 132.1742115,
    "tel": "0820-28-6600",
    "url": "http://www.saisyokai.or.jp",
    "pref": "山口県",
    "city": "柳井市",
    "category": "day_service",
    "serviceType": "通所介護",
    "capacity": 30,
    "openDays": [
      "平日",
      "祝日"
    ],
    "openDaysNote": "特になし"
  },
  {
    "id": "3571200736",
    "name": "デイサービスおおひら",
    "kana": "デイサービスオオヒラ",
    "address": "山口県柳井市中央１丁目９番地８号",
    "lat": 33.9652955,
    "lng": 132.1091077,
    "tel": "0820-25-0002",
    "url": "http:www.ohira-yanai.skr.jp/",
    "pref": "山口県",
    "city": "柳井市",
    "category": "day_service",
    "serviceType": "通所介護",
    "capacity": 0,
    "openDays": [
      "平日",
      "祝日"
    ],
    "openDaysNote": "特になし"
  },
  {
    "id": "3571200728",
    "name": "デイサービスセンターーありがとうやない",
    "kana": "デイサービスセンターアリガトウヤナイ",
    "address": "山口県柳井市遠崎字高下7-1ありがとうやない ありがとうやない",
    "lat": 33.9574213,
    "lng": 132.1462016,
    "tel": "0820-25-3636",
    "url": "qqse4bv9k@aurora.ocn.jp",
    "pref": "山口県",
    "city": "柳井市",
    "category": "day_service",
    "serviceType": "通所介護",
    "capacity": 25,
    "openDays": [
      "平日",
      "土曜日",
      "祝日"
    ],
    "openDaysNote": ""
  },
  {
    "id": "3571200082",
    "name": "デイサービスセンター松風苑",
    "kana": "デイサービスセンターショウフウエン",
    "address": "山口県柳井市余田3762番地の1",
    "lat": 33.9601633875481,
    "lng": 132.065224771164,
    "tel": "0820-23-6363",
    "url": "http;//www.shoueikai-sakamoto.com/",
    "pref": "山口県",
    "city": "柳井市",
    "category": "day_service",
    "serviceType": "通所介護",
    "capacity": 0,
    "openDays": [
      "平日",
      "土曜日",
      "祝日"
    ],
    "openDaysNote": "特にありません"
  },
  {
    "id": "3571200348",
    "name": "デイサービス風車",
    "kana": "デイサービスフウシャ",
    "address": "柳井市伊保庄5214番地18",
    "lat": 33.9573117,
    "lng": 132.0969724,
    "tel": "0820-22-4813",
    "url": "",
    "pref": "山口県",
    "city": "柳井市",
    "category": "day_service",
    "serviceType": "通所介護",
    "capacity": 35,
    "openDays": [
      "平日",
      "土曜日",
      "祝日"
    ],
    "openDaysNote": "特になし"
  },
  {
    "id": "3571200165",
    "name": "ゆうわ苑デイサービスセンター",
    "kana": "ユウワエンデイサービスセンター",
    "address": "柳井市伊保庄字近長浜１番４",
    "lat": 33.9102561254313,
    "lng": 132.128585234346,
    "tel": "0820-27-6001",
    "url": "http://www.yuwaen.net",
    "pref": "山口県",
    "city": "柳井市",
    "category": "day_service",
    "serviceType": "通所介護",
    "capacity": 0,
    "openDays": [
      "平日",
      "祝日"
    ],
    "openDaysNote": "特になし"
  }
]