[
  {
    "id": "3570203913",
    "name": "JA山口県デイサービス宇部",
    "kana": "ジェイエイヤマグチケンデイサービスウベ",
    "address": "山口県宇部市厚南中央一丁目7番10号",
    "lat": 33.9959439,
    "lng": 131.2202378,
    "tel": "0836-45-0320",
    "url": "",
    "pref": "山口県",
    "city": "宇部市",
    "category": "day_service",
    "serviceType": "通所介護",
    "capacity": 0,
    "openDays": [
      "平日",
      "土曜日",
      "祝日"
    ],
    "openDaysNote": ""
  },
  {
    "id": "3570202816",
    "name": "あさひデイサービスセンター則貞",
    "kana": "アサヒデイサービスセンターノリサダ",
    "address": "宇部市則貞三丁目10番41号",
    "lat": 33.9445043,
    "lng": 131.2801701,
    "tel": "0836-38-3545",
    "url": "http://www.asahicorporation.co.jp",
    "pref": "山口県",
    "city": "宇部市",
    "category": "day_service",
    "serviceType": "通所介護",
    "capacity": 25,
    "openDays": [
      "平日",
      "祝日"
    ],
    "openDaysNote": ""
  },
  {
    "id": "3570200281",
    "name": "アスワン山荘デイサービスセンター",
    "kana": "アスワンサンソウデイサービスセンター",
    "address": "山口県宇部市二俣瀬山王坂40-221",
    "lat": 34.0634174634583,
    "lng": 131.282005886575,
    "tel": "0836-62-2000",
    "url": "https://www.asuwansansou.jp/",
    "pref": "山口県",
    "city": "宇部市",
    "category": "day_service",
    "serviceType": "通所介護",
    "capacity": 33,
    "openDays": [
      "平日",
      "祝日"
    ],
    "openDaysNote": "特になし"
  },
  {
    "id": "3570202824",
    "name": "かわ村デイサービスセンター",
    "kana": "カワムラデイサービスセンター",
    "address": "宇部市大字川上720－9",
    "lat": 33.9934746,
    "lng": 131.2764549,
    "tel": "0836－37－0007",
    "url": "http://kawamura-fs.com/",
    "pref": "山口県",
    "city": "宇部市",
    "category": "day_service",
    "serviceType": "通所介護",
    "capacity": 75,
    "openDays": [
      "平日",
      "土曜日",
      "日曜日",
      "祝日"
    ],
    "openDaysNote": ""
  },
  {
    "id": "3570203947",
    "name": "かわ村デイサービスセンター宇部南",
    "kana": "カワムラデイサービスセンターウベミナミ",
    "address": "山口県宇部市浜町２丁目１１番地１２",
    "lat": 33.9655124,
    "lng": 131.2340547,
    "tel": "0836-37-3838",
    "url": "www.kawamura-fs.com/",
    "pref": "山口県",
    "city": "宇部市",
    "category": "day_service",
    "serviceType": "通所介護",
    "capacity": 35,
    "openDays": [
      "平日",
      "土曜日",
      "日曜日",
      "祝日"
    ],
    "openDaysNote": ""
  },
  {
    "id": "3570203418",
    "name": "かわ村デイサービスセンター海の家",
    "kana": "カワムラデイサービスセンターウミノイエ",
    "address": "山口県宇部市大字東岐波１４６４番地１",
    "lat": 33.9838378,
    "lng": 131.348814,
    "tel": "０８３６－５８－５５１１",
    "url": "http://www.kawamura-fs.com/",
    "pref": "山口県",
    "city": "宇部市",
    "category": "day_service",
    "serviceType": "通所介護",
    "capacity": 35,
    "openDays": [
      "平日",
      "土曜日",
      "日曜日",
      "祝日"
    ],
    "openDaysNote": "営業時間外、営業日以外でも転送電話にて相談を受け付けております。"
  },
  {
    "id": "3570202618",
    "name": "きわなみ苑デイサービスセンター",
    "kana": "キワナミエンデイサービスセンター",
    "address": "大字際波663番地3",
    "lat": 33.9932483,
    "lng": 131.2237859,
    "tel": "0836-39-9087",
    "url": "https://kiwanami-kaigo.com/",
    "pref": "山口県",
    "city": "宇部市",
    "category": "day_service",
    "serviceType": "通所介護",
    "capacity": 0,
    "openDays": [
      "平日",
      "土曜日",
      "祝日"
    ],
    "openDaysNote": ""
  },
  {
    "id": "3570202717",
    "name": "ケアビレジ桜　弐番館デイサービス",
    "kana": "ケアビレッジサクラ　ニバンカンデイサービス",
    "address": "宇部市大字西岐波２０６６番地",
    "lat": 33.9615723,
    "lng": 131.2952492,
    "tel": "0836-51-3386",
    "url": "https://keahouse-sakura.jp/",
    "pref": "山口県",
    "city": "宇部市",
    "category": "day_service",
    "serviceType": "通所介護",
    "capacity": 0,
    "openDays": [
      "平日",
      "土曜日",
      "祝日"
    ],
    "openDaysNote": ""
  },
  {
    "id": "3570202105",
    "name": "ケアビレッジきわなみデイサービスセンター",
    "kana": "ケアビレッジキワナミデイサーイスセンター",
    "address": "山口県宇部市大字際波725番地6",
    "lat": 33.9943621,
    "lng": 131.2225915,
    "tel": "0836-39-3313",
    "url": "https://kiwanami-kaigo.com/",
    "pref": "山口県",
    "city": "宇部市",
    "category": "day_service",
    "serviceType": "通所介護",
    "capacity": 6,
    "openDays": [
      "平日",
      "土曜日",
      "祝日"
    ],
    "openDaysNote": ""
  },
  {
    "id": "3570201735",
    "name": "ケアビレッジ桜　壱番館デイサービス",
    "kana": "ケアハウスサクラデイサービスセンター",
    "address": "宇部市大字西岐波２０６８番地１",
    "lat": 33.9615723,
    "lng": 131.2952492,
    "tel": "0836-51-3386",
    "url": "https://keahouse-sakura.jp/",
    "pref": "山口県",
    "city": "宇部市",
    "category": "day_service",
    "serviceType": "通所介護",
    "capacity": 0,
    "openDays": [
      "平日",
      "土曜日",
      "祝日"
    ],
    "openDaysNote": ""
  },
  {
    "id": "3570203392",
    "name": "セントヒルデイサービスこうなん",
    "kana": "セントヒルデイサービスコウナン",
    "address": "宇部市宇部市大字妻崎開作108番地",
    "lat": 33.9781327952609,
    "lng": 131.217501613831,
    "tel": "0836-44-2116",
    "url": "http://www.sthill-hp.or.jp/k_st/",
    "pref": "山口県",
    "city": "宇部市",
    "category": "day_service",
    "serviceType": "通所介護",
    "capacity": 37,
    "openDays": [
      "平日",
      "土曜日",
      "祝日"
    ],
    "openDaysNote": "台風等の自然災害時、気象庁より宇部地域に大雨・洪水警報等が発表され危険が予測される場合、サービス時間の短縮もしくは中止をすることがあります。その場合ご家族に連絡の上、適切に対応します。"
  },
  {
    "id": "3570204135",
    "name": "ツクイ宇部",
    "kana": "ツクイウベ",
    "address": "山口県宇部市岬町2丁目1-18",
    "lat": 33.932682,
    "lng": 131.2655225,
    "tel": "0836-38-6113",
    "url": "https://www.tsukui.net/",
    "pref": "山口県",
    "city": "宇部市",
    "category": "day_service",
    "serviceType": "通所介護",
    "capacity": 0,
    "openDays": [
      "平日",
      "土曜日",
      "日曜日",
      "祝日"
    ],
    "openDaysNote": "年中無休"
  },
  {
    "id": "3570204143",
    "name": "ツクイ宇部厚南",
    "kana": "ツクイウベコウナン",
    "address": "厚南中央６丁目3-22",
    "lat": 33.9911097,
    "lng": 131.2105796,
    "tel": "0836-45-2910",
    "url": "https://www.tsukui.net",
    "pref": "山口県",
    "city": "宇部市",
    "category": "day_service",
    "serviceType": "通所介護",
    "capacity": 0,
    "openDays": [
      "平日",
      "土曜日",
      "日曜日"
    ],
    "openDaysNote": "年中無休"
  },
  {
    "id": "3570203624",
    "name": "デイサービス　きたえるーむ上宇部",
    "kana": "デイサービス　キタエルームカミウベ",
    "address": "山口県宇部市中尾１－７－１３グリーンハイツ琴崎1Ｆ グリーンハイツ琴崎1Ｆ",
    "lat": 33.9693244,
    "lng": 131.2674053,
    "tel": "0836-39-8699",
    "url": "http://www.kitaeroom.com/",
    "pref": "山口県",
    "city": "宇部市",
    "category": "day_service",
    "serviceType": "通所介護",
    "capacity": 20,
    "openDays": [
      "平日",
      "土曜日"
    ],
    "openDaysNote": ""
  },
  {
    "id": "3570204036",
    "name": "デイサービス　きたえるーむ西宇部",
    "kana": "デイサービス　キタエルームニシウベ",
    "address": "山口県宇部市厚南北1-3-23際波グランフォート2号室 際波グランフォート2号室",
    "lat": 33.9992293,
    "lng": 131.2194526,
    "tel": "0836-38-8180",
    "url": "http://www.kitaeroom.com/",
    "pref": "山口県",
    "city": "宇部市",
    "category": "day_service",
    "serviceType": "通所介護",
    "capacity": 25,
    "openDays": [
      "平日",
      "土曜日"
    ],
    "openDaysNote": "サービス提供時間（改行）　1単位目：9時から12時05分（月曜日から土曜日）（改行）　2単位目：13時30分から16時35分（月曜日から金曜日）"
  },
  {
    "id": "3570200984",
    "name": "デイサービスオアシスことしば",
    "kana": "デイサービスオアシスコトシバ",
    "address": "宇部市寿町三丁目2-5",
    "lat": 33.9514672,
    "lng": 131.2534826,
    "tel": "0836-37-6512",
    "url": "www.jinsinkai.or.jp",
    "pref": "山口県",
    "city": "宇部市",
    "category": "day_service",
    "serviceType": "通所介護",
    "capacity": 0,
    "openDays": [
      "平日",
      "土曜日",
      "祝日"
    ],
    "openDaysNote": ""
  },
  {
    "id": "3570204598",
    "name": "デイサービスセービング浜町",
    "kana": "デイサービスセービングハママチ",
    "address": "山口県宇部市浜町2ｰ4ｰ11",
    "lat": 33.9652274790385,
    "lng": 131.23543992632,
    "tel": "0836ｰ35ｰ5077",
    "url": "",
    "pref": "山口県",
    "city": "宇部市",
    "category": "day_service",
    "serviceType": "通所介護",
    "capacity": null,
    "openDays": [
      "平日",
      "土曜日",
      "祝日"
    ],
    "openDaysNote": "特になし"
  },
  {
    "id": "3570201776",
    "name": "デイサービスセンター　宇部あいおい苑",
    "kana": "デイサービスセンター　ウベアイオイエン",
    "address": "宇部市恩田3丁目8番1号",
    "lat": 33.9470178,
    "lng": 131.265732,
    "tel": "０８３６－３４－３１００",
    "url": "http://hitotsunokai.jp",
    "pref": "山口県",
    "city": "宇部市",
    "category": "day_service",
    "serviceType": "通所介護",
    "capacity": 5,
    "openDays": [
      "平日",
      "土曜日",
      "祝日"
    ],
    "openDaysNote": "12月31日～翌1月3日までは曜日に関係なく年末年始休苑"
  },
  {
    "id": "3570203558",
    "name": "デイサービスセンター　友癒",
    "kana": "デイサービスセンター　ユウユ",
    "address": "山口県宇部市大字妻崎開作269-6",
    "lat": 33.9734474,
    "lng": 131.2044632,
    "tel": "0836-43-7933",
    "url": "",
    "pref": "山口県",
    "city": "宇部市",
    "category": "day_service",
    "serviceType": "通所介護",
    "capacity": 25,
    "openDays": [
      "平日",
      "土曜日",
      "祝日"
    ],
    "openDaysNote": ""
  },
  {
    "id": "3570203293",
    "name": "デイサービスセンターアポロプラス",
    "kana": "デイサービスセンター　アポロプラス",
    "address": "山口県宇部市中宇部1858-1ドリームライフアポロ ドリームライフアポロ",
    "lat": 33.9810019452735,
    "lng": 131.255247232819,
    "tel": "0836-37-0070",
    "url": "https://y-apl.com/",
    "pref": "山口県",
    "city": "宇部市",
    "category": "day_service",
    "serviceType": "通所介護",
    "capacity": 30,
    "openDays": [
      "平日",
      "土曜日",
      "祝日"
    ],
    "openDaysNote": "特別行事及び天候による臨時休業があったとき等は、日曜日の営業を行う場合があります。"
  },
  {
    "id": "3570201545",
    "name": "デイサービスセンターおの",
    "kana": "デイサービスセンターオノ",
    "address": "山口県宇部市大字小野８２９４番地ー２デイサービスセンターおの デイサービスセンターおの",
    "lat": 34.1173739,
    "lng": 131.3216073,
    "tel": "0836-64-2002",
    "url": "",
    "pref": "山口県",
    "city": "宇部市",
    "category": "day_service",
    "serviceType": "通所介護",
    "capacity": 20,
    "openDays": [
      "平日",
      "土曜日",
      "祝日"
    ],
    "openDaysNote": "利用者さま本人や家族の希望時間に出来る限り応じます。"
  },
  {
    "id": "3570203574",
    "name": "デイサービスセンターここわ",
    "kana": "デイサービスセンターココワ",
    "address": "山口県宇部市大字際波701番地",
    "lat": 33.9937097345303,
    "lng": 131.222105101189,
    "tel": "0836-45-0500",
    "url": "http://www.kiwanami-kaigo.com",
    "pref": "山口県",
    "city": "宇部市",
    "category": "day_service",
    "serviceType": "通所介護",
    "capacity": null,
    "openDays": [
      "平日",
      "土曜日",
      "祝日"
    ],
    "openDaysNote": ""
  },
  {
    "id": "3570204101",
    "name": "デイサービスセンターメルローズ",
    "kana": "デイサービスセンターメルローズ",
    "address": "山口県宇部市大字際波７２６－３グラディアスきわなみ グラディアスきわなみ",
    "lat": 33.9946922986481,
    "lng": 131.222762613492,
    "tel": "0836-39-3303",
    "url": "https://kiwanami-kaigo.com/",
    "pref": "山口県",
    "city": "宇部市",
    "category": "day_service",
    "serviceType": "通所介護",
    "capacity": null,
    "openDays": [
      "平日",
      "土曜日",
      "祝日"
    ],
    "openDaysNote": ""
  },
  {
    "id": "3570202204",
    "name": "デイサービスセンターゆず",
    "kana": "デイサービスセンターユズ",
    "address": "山口県宇部市大字船木１０１７番地４ケアホームゆず ケアホームゆず",
    "lat": 34.0416018,
    "lng": 131.2217042,
    "tel": "0836-67-3014",
    "url": "https://aiyuukai-mirai.jp/",
    "pref": "山口県",
    "city": "宇部市",
    "category": "day_service",
    "serviceType": "通所介護",
    "capacity": 0,
    "openDays": [
      "平日",
      "土曜日",
      "祝日"
    ],
    "openDaysNote": "特になし"
  },
  {
    "id": "3570204242",
    "name": "デイサービスセンター優",
    "kana": "デイサービスセンターユウ",
    "address": "山口県宇部市大字東岐波字道田１３８１番７",
    "lat": 33.9972129808722,
    "lng": 131.348680840117,
    "tel": "0836-38-8880",
    "url": "http://www.mubenosato.com/",
    "pref": "山口県",
    "city": "宇部市",
    "category": "day_service",
    "serviceType": "通所介護",
    "capacity": 0,
    "openDays": [
      "平日",
      "土曜日",
      "祝日"
    ],
    "openDaysNote": ""
  },
  {
    "id": "3570203715",
    "name": "デイサービスセンター立花",
    "kana": "デイサービスセンターリッカ",
    "address": "山口県宇部市浜田３丁目２４－１",
    "lat": 33.9890489,
    "lng": 131.2295079,
    "tel": "0836-43-6713",
    "url": "https://rikka-homenurse.com",
    "pref": "山口県",
    "city": "宇部市",
    "category": "day_service",
    "serviceType": "通所介護",
    "capacity": 20,
    "openDays": [
      "平日",
      "土曜日",
      "祝日"
    ],
    "openDaysNote": ""
  },
  {
    "id": "3570203657",
    "name": "デイサービスほっとスマイル　心",
    "kana": "デイサービスホットスマイル　ココロ",
    "address": "山口県宇部市居能町１丁目2-13",
    "lat": 33.9646273,
    "lng": 131.2313675,
    "tel": "0836-29-0301",
    "url": "",
    "pref": "山口県",
    "city": "宇部市",
    "category": "day_service",
    "serviceType": "通所介護",
    "capacity": 0,
    "openDays": [
      "平日",
      "土曜日",
      "祝日"
    ],
    "openDaysNote": "その他臨時休業について（改行）施設改修や職員研修及び天候悪化によって臨時的に休業する場合があります。施設改修等、臨時休業する日程が事前にお知らせできる場合については速やかに臨時休業の理由・休業日をご利用者様にお伝えします。天候悪化等の場合は当日お電話によって臨時休業のお知らせをさせていただきます。"
  },
  {
    "id": "3570204416",
    "name": "デイサービス愛華",
    "kana": "デイサービスアイカ",
    "address": "山口県宇部市船木１０１６番地１ケアホーム愛華 ケアホーム愛華",
    "lat": 34.0493108,
    "lng": 131.215566,
    "tel": "0836-39-6702",
    "url": "https//aiyuukai-mirai.jp",
    "pref": "山口県",
    "city": "宇部市",
    "category": "day_service",
    "serviceType": "通所介護",
    "capacity": 20,
    "openDays": [
      "平日",
      "土曜日",
      "祝日"
    ],
    "openDaysNote": "介護サービス提供時間：9：20～16：30"
  },
  {
    "id": "3570203285",
    "name": "デイサービス星華",
    "kana": "デイサービスセイカ",
    "address": "山口県宇部市大字船木1017番地1ケアホーム星華 ケアホーム星華",
    "lat": 34.0415574,
    "lng": 131.2217264,
    "tel": "0836-67-3016",
    "url": "https://aiyuukai-mirai.jp",
    "pref": "山口県",
    "city": "宇部市",
    "category": "day_service",
    "serviceType": "通所介護",
    "capacity": 0,
    "openDays": [
      "平日",
      "土曜日",
      "祝日"
    ],
    "openDaysNote": "特になし"
  },
  {
    "id": "3570202626",
    "name": "デイサービス来夢",
    "kana": "デイサービスライム",
    "address": "山口県宇部市大字船木１０１７番地５ケアホーム来夢 ケアホーム来夢",
    "lat": 34.0415713,
    "lng": 131.2214903,
    "tel": "0836-67-3013",
    "url": "https://aiyuukai-mirai.jp",
    "pref": "山口県",
    "city": "宇部市",
    "category": "day_service",
    "serviceType": "通所介護",
    "capacity": 0,
    "openDays": [
      "平日",
      "土曜日",
      "祝日"
    ],
    "openDaysNote": "特になし"
  },
  {
    "id": "3570202303",
    "name": "ドリームライフアポロデイサービスセンター",
    "kana": "ドリームライフアポロデイサービスセンター",
    "address": "宇部市大字中宇部1858-30",
    "lat": 33.9810119539469,
    "lng": 131.255642858648,
    "tel": "0836-37-0070",
    "url": "https://y-apl.com/",
    "pref": "山口県",
    "city": "宇部市",
    "category": "day_service",
    "serviceType": "通所介護",
    "capacity": 35,
    "openDays": [
      "平日",
      "土曜日",
      "祝日"
    ],
    "openDaysNote": "特別行事及び天候による臨時休業があったとき等は、日曜日の営業を行う場合があります。"
  },
  {
    "id": "3570200190",
    "name": "ニチイケアセンター西岐波",
    "kana": "ニチイケアセンターニシキワ",
    "address": "山口県宇部市大字西岐波浜田1545－1",
    "lat": 33.9618525,
    "lng": 131.315846,
    "tel": "0836-54-0582",
    "url": "",
    "pref": "山口県",
    "city": "宇部市",
    "category": "day_service",
    "serviceType": "通所介護",
    "capacity": 0,
    "openDays": [
      "平日",
      "土曜日",
      "日曜日",
      "祝日"
    ],
    "openDaysNote": "特になし"
  },
  {
    "id": "3570203798",
    "name": "はーとけあさんちの生活支援",
    "kana": "ハートケアサンチノセイカツシエン",
    "address": "山口県宇部市草江四丁目11番38-5",
    "lat": 33.9344789,
    "lng": 131.2693714,
    "tel": "0836-39-7311",
    "url": "",
    "pref": "山口県",
    "city": "宇部市",
    "category": "day_service",
    "serviceType": "通所介護",
    "capacity": null,
    "openDays": [
      "平日",
      "土曜日",
      "日曜日",
      "祝日"
    ],
    "openDaysNote": ""
  },
  {
    "id": "3570202287",
    "name": "ひだまりの花",
    "kana": "ヒダマリノハナ",
    "address": "山口県宇部市ひらき台２丁目２５－８",
    "lat": 33.9732183110054,
    "lng": 131.279597919188,
    "tel": "0836-35-2141",
    "url": "www.hidamarinet.co.jp",
    "pref": "山口県",
    "city": "宇部市",
    "category": "day_service",
    "serviceType": "通所介護",
    "capacity": 26,
    "openDays": [
      "平日",
      "土曜日",
      "日曜日",
      "祝日"
    ],
    "openDaysNote": "通院や服薬など健康管理を適切にして頂くこと。"
  },
  {
    "id": "3570200968",
    "name": "フレンドサービス",
    "kana": "フレンドサービス",
    "address": "宇部市大字中宇部1964番地1",
    "lat": 33.9762283,
    "lng": 131.2512625,
    "tel": "0836-33-7093",
    "url": "friendservice@plum.ocn.ne.jp",
    "pref": "山口県",
    "city": "宇部市",
    "category": "day_service",
    "serviceType": "通所介護",
    "capacity": 30,
    "openDays": [
      "平日",
      "祝日"
    ],
    "openDaysNote": ""
  },
  {
    "id": "3570202683",
    "name": "まどか苑　厚南北デイサービスセンター",
    "kana": "マドカエン　コウナンキタデイサービスセンター",
    "address": "宇部市厚南北2丁目4番14号まどか苑厚南北有料老人ホーム まどか苑厚南北有料老人ホーム",
    "lat": 33.9987015487066,
    "lng": 131.216948960748,
    "tel": "（０８３６）４４－２２７７",
    "url": "",
    "pref": "山口県",
    "city": "宇部市",
    "category": "day_service",
    "serviceType": "通所介護",
    "capacity": 1,
    "openDays": [
      "平日",
      "土曜日",
      "日曜日",
      "祝日"
    ],
    "openDaysNote": ""
  },
  {
    "id": "3570201164",
    "name": "むべの里　デイサービスセンター　はぎわら",
    "kana": "ムベノサト　デイサービスセンター　ハギワラ",
    "address": "宇部市今村北５丁目１０番３８号",
    "lat": 33.9612723,
    "lng": 131.3049124,
    "tel": "0836-54-0661",
    "url": "http://www/mubenosato.com",
    "pref": "山口県",
    "city": "宇部市",
    "category": "day_service",
    "serviceType": "通所介護",
    "capacity": 85,
    "openDays": [
      "平日",
      "土曜日",
      "祝日"
    ],
    "openDaysNote": ""
  },
  {
    "id": "3570200406",
    "name": "むべの里デイサービスセンター",
    "kana": "ムベノサトデイサービスセンター",
    "address": "山口県宇部市厚南北3丁目1－37",
    "lat": 34.0016900666178,
    "lng": 131.214223611917,
    "tel": "0836-44-0260",
    "url": "kaigo-kouhyou@mubenosato.com",
    "pref": "山口県",
    "city": "宇部市",
    "category": "day_service",
    "serviceType": "通所介護",
    "capacity": 45,
    "openDays": [
      "平日",
      "土曜日",
      "祝日"
    ],
    "openDaysNote": ""
  },
  {
    "id": "3570204283",
    "name": "むべの里デイサービスセンターららら",
    "kana": "ムベノサトデイサービスセンターラララ",
    "address": "山口県宇部市中村2丁目7番43号",
    "lat": 33.9631363,
    "lng": 131.2617175,
    "tel": "0836-21-5360",
    "url": "http://www.mubenosato.com/",
    "pref": "山口県",
    "city": "宇部市",
    "category": "day_service",
    "serviceType": "通所介護",
    "capacity": 0,
    "openDays": [
      "平日",
      "土曜日",
      "祝日"
    ],
    "openDaysNote": ""
  },
  {
    "id": "3570203335",
    "name": "むべの里デイサービスセンター厚南",
    "kana": "ムベノサトデイサービスセンターコウナン",
    "address": "山口県宇部市黒石北4丁目5番39号",
    "lat": 33.9860702698277,
    "lng": 131.205090860863,
    "tel": "0836-39-7563",
    "url": "http://mubekouei.com/",
    "pref": "山口県",
    "city": "宇部市",
    "category": "day_service",
    "serviceType": "通所介護",
    "capacity": 0,
    "openDays": [
      "平日",
      "土曜日",
      "祝日"
    ],
    "openDaysNote": ""
  },
  {
    "id": "3570201040",
    "name": "むべの里デイサービスセンター中山",
    "kana": "ムベノサトデイサービスセンターナカヤマ",
    "address": "宇部市大字中山1135-1",
    "lat": 33.9892092465426,
    "lng": 131.233411164544,
    "tel": "0836-43-7887",
    "url": "http://www.mubekouei.com",
    "pref": "山口県",
    "city": "宇部市",
    "category": "day_service",
    "serviceType": "通所介護",
    "capacity": 0,
    "openDays": [
      "平日",
      "土曜日",
      "祝日"
    ],
    "openDaysNote": ""
  },
  {
    "id": "3570202485",
    "name": "むべの里デイサービスセンター東芝中",
    "kana": "ムベノサトデイサービスセンターヒガシシバナカ",
    "address": "宇部市東芝中町3番27号",
    "lat": 33.9389187,
    "lng": 131.2587826,
    "tel": "0836-39-9006",
    "url": "http://www.mubenosato.com",
    "pref": "山口県",
    "city": "宇部市",
    "category": "day_service",
    "serviceType": "通所介護",
    "capacity": 100,
    "openDays": [
      "平日",
      "土曜日",
      "祝日"
    ],
    "openDaysNote": "サービス提供時間は9：30～16：35"
  },
  {
    "id": "3570204218",
    "name": "むべの里光栄　デイサービスセンター　オパール光栄",
    "kana": "ムベノサトコウエイ　デイサービスセンター　オパールコウエイ",
    "address": "山口県宇部市大字東岐波5860-10-1",
    "lat": 33.9817641,
    "lng": 131.336045,
    "tel": "0836-39-7228",
    "url": "https://mubekouei.com/",
    "pref": "山口県",
    "city": "宇部市",
    "category": "day_service",
    "serviceType": "通所介護",
    "capacity": 0,
    "openDays": [
      "平日",
      "土曜日",
      "祝日"
    ],
    "openDaysNote": "無"
  },
  {
    "id": "3570204507",
    "name": "むべの里光栄デイサービスセンター東本町",
    "kana": "ムベノサトコウエイデイサービスセンターヒガシホンマチ",
    "address": "東本町1－2－7",
    "lat": 33.9479936,
    "lng": 130.9669904,
    "tel": "0836－37－1515",
    "url": "",
    "pref": "山口県",
    "city": "宇部市",
    "category": "day_service",
    "serviceType": "通所介護",
    "capacity": 30,
    "openDays": [
      "平日",
      "土曜日"
    ],
    "openDaysNote": "祝祭日も営業"
  },
  {
    "id": "3570202667",
    "name": "やまもとクリニックデイサービスセンター有るる",
    "kana": "ヤマモトクリニックデイサービスセンターアルル",
    "address": "山口県宇部市黒石北三丁目１番５７号ホスピサイドプレイス ホスピサイドプレイス",
    "lat": 33.98390475927,
    "lng": 131.212525223943,
    "tel": "０８３６－３９－９５２８",
    "url": "",
    "pref": "山口県",
    "city": "宇部市",
    "category": "day_service",
    "serviceType": "通所介護",
    "capacity": 0,
    "openDays": [
      "平日",
      "土曜日",
      "祝日"
    ],
    "openDaysNote": ""
  },
  {
    "id": "3570201677",
    "name": "リハビリステップげんき",
    "kana": "リハビリステップゲンキ",
    "address": "宇部市末広町1-13",
    "lat": 33.9374661,
    "lng": 131.2651962,
    "tel": "0836-33-6220",
    "url": "http://genki6220.web.fc2.com/",
    "pref": "山口県",
    "city": "宇部市",
    "category": "day_service",
    "serviceType": "通所介護",
    "capacity": 35,
    "openDays": [
      "平日",
      "土曜日",
      "祝日"
    ],
    "openDaysNote": ""
  },
  {
    "id": "3570202857",
    "name": "リハビリデイサービスあい",
    "kana": "リハビリデイサービス　アイ",
    "address": "宇部市中村1丁目2番21号",
    "lat": 33.9679237,
    "lng": 131.2605011,
    "tel": "0836-43-9800",
    "url": "",
    "pref": "山口県",
    "city": "宇部市",
    "category": "day_service",
    "serviceType": "通所介護",
    "capacity": 25,
    "openDays": [
      "平日",
      "祝日"
    ],
    "openDaysNote": "祝日営業"
  },
  {
    "id": "3570204192",
    "name": "リハビリデイサービスエール",
    "kana": "リハビリデイサービスエール",
    "address": "山口県宇部市中村2丁目6番11号",
    "lat": 33.963225,
    "lng": 131.263012,
    "tel": "0836-39-5857",
    "url": "https://yell-kaigo.co.jp/",
    "pref": "山口県",
    "city": "宇部市",
    "category": "day_service",
    "serviceType": "通所介護",
    "capacity": 8,
    "openDays": [
      "平日",
      "土曜日",
      "祝日"
    ],
    "openDaysNote": "年末年始はお休みさせていただきます。"
  },
  {
    "id": "3570204481",
    "name": "リハビリデイサービスプラスワン宇部店",
    "kana": "リハビリデイサービスプラスワンウベテン",
    "address": "山口県宇部市常藤町5-25アビリティ常藤1階テナントA アビリティ常藤1階テナントA",
    "lat": 33.9478879,
    "lng": 131.2544598,
    "tel": "0836-39-6010",
    "url": "https://plusone-onoda.jimdofree.com",
    "pref": "山口県",
    "city": "宇部市",
    "category": "day_service",
    "serviceType": "通所介護",
    "capacity": null,
    "openDays": [
      "平日"
    ],
    "openDaysNote": ""
  },
  {
    "id": "3570200414",
    "name": "宇部あかり園デイサービスセンター",
    "kana": "ウベアカリエンデイサービスセンター",
    "address": "宇部市大字西岐波229－105",
    "lat": 33.9667003696157,
    "lng": 131.301501284378,
    "tel": "0836-51-1001",
    "url": "http://www.hakuaikai-yamaguchi.jp",
    "pref": "山口県",
    "city": "宇部市",
    "category": "day_service",
    "serviceType": "通所介護",
    "capacity": 0,
    "openDays": [
      "平日",
      "土曜日",
      "日曜日",
      "祝日"
    ],
    "openDaysNote": "特になし"
  },
  {
    "id": "3570200786",
    "name": "宇部西デイサービス",
    "kana": "ウベニシデイサービス",
    "address": "宇部市大字際波字東河田287-1",
    "lat": 33.9963779617427,
    "lng": 131.224255244275,
    "tel": "0836-45-1223",
    "url": "http://www.h5.dion.ne.jp/~ube-west/jigyou/jigyou",
    "pref": "山口県",
    "city": "宇部市",
    "category": "day_service",
    "serviceType": "通所介護",
    "capacity": 0,
    "openDays": [
      "平日",
      "土曜日",
      "祝日"
    ],
    "openDaysNote": "特になし"
  },
  {
    "id": "3570203731",
    "name": "私の家Living",
    "kana": "ワタシノイエ　リビング",
    "address": "山口県宇部市浜田3−1−6",
    "lat": 33.9897572,
    "lng": 131.2323216,
    "tel": "0836-38-8111",
    "url": "http://fomax.jp/",
    "pref": "山口県",
    "city": "宇部市",
    "category": "day_service",
    "serviceType": "通所介護",
    "capacity": 0,
    "openDays": [
      "平日",
      "土曜日",
      "日曜日",
      "祝日"
    ],
    "openDaysNote": ""
  },
  {
    "id": "3570202949",
    "name": "若菜東岐波デイサービス",
    "kana": "ワカナヒガシキワデイサービス",
    "address": "宇部市東岐波5436-4",
    "lat": 33.9722642150184,
    "lng": 131.345958507549,
    "tel": "0836-39-8855",
    "url": "https://www.kamura-clinic.com/",
    "pref": "山口県",
    "city": "宇部市",
    "category": "day_service",
    "serviceType": "通所介護",
    "capacity": 32,
    "openDays": [
      "平日",
      "土曜日",
      "日曜日",
      "祝日"
    ],
    "openDaysNote": ""
  },
  {
    "id": "3570204069",
    "name": "若菜東岐波デイサービス新館",
    "kana": "ワカナヒガシキワデイサービスシンカン",
    "address": "宇部市東岐波5436-4",
    "lat": 33.9719026,
    "lng": 131.3457785,
    "tel": "0836-39-8855",
    "url": "",
    "pref": "山口県",
    "city": "宇部市",
    "category": "day_service",
    "serviceType": "通所介護",
    "capacity": 0,
    "openDays": [
      "平日",
      "土曜日",
      "日曜日",
      "祝日"
    ],
    "openDaysNote": ""
  },
  {
    "id": "3570203525",
    "name": "若菜楠デイサービス",
    "kana": "ワカナクスノキデイサービス",
    "address": "宇部市東万倉652-1",
    "lat": 34.0617294744881,
    "lng": 131.239996674314,
    "tel": "0836-69-0018",
    "url": "https://www.kamura-clinic.com/",
    "pref": "山口県",
    "city": "宇部市",
    "category": "day_service",
    "serviceType": "通所介護",
    "capacity": 30,
    "openDays": [
      "平日",
      "土曜日",
      "日曜日",
      "祝日"
    ],
    "openDaysNote": ""
  },
  {
    "id": "3570203970",
    "name": "若菜楠デイサービス南館",
    "kana": "ワカナクスノキデイサービスミナミカン",
    "address": "山口県宇部市東万倉652-1",
    "lat": 34.0617372078528,
    "lng": 131.240044933952,
    "tel": "0836-69-0018",
    "url": "https://www.kamura-clinic.com/",
    "pref": "山口県",
    "city": "宇部市",
    "category": "day_service",
    "serviceType": "通所介護",
    "capacity": 0,
    "openDays": [
      "平日",
      "土曜日",
      "日曜日",
      "祝日"
    ],
    "openDaysNote": ""
  },
  {
    "id": "3570204515",
    "name": "障がい者(児)ﾃﾞｲｻｰﾋﾞｽｾﾝﾀｰひろ君の家",
    "kana": "ショウガイシャジデイサービスセンターヒロクンノイエ",
    "address": "山口県宇部市大字善和字下中屋敷573番地1",
    "lat": 34.0207104,
    "lng": 131.285877,
    "tel": "0836-62-5717",
    "url": "https://www.ss-pikkoro.jp/",
    "pref": "山口県",
    "city": "宇部市",
    "category": "day_service",
    "serviceType": "通所介護",
    "capacity": null,
    "openDays": [
      "平日",
      "土曜日"
    ],
    "openDaysNote": ""
  },
  {
    "id": "3570201438",
    "name": "神原苑神原デイサービスセンター",
    "kana": "カミハラエンカミハラデイサービスセンター",
    "address": "山口県宇部市神原町２丁目４番地４０",
    "lat": 33.9487592,
    "lng": 131.2602628,
    "tel": "0836-35-5662",
    "url": "http://www.kamiharaen.com",
    "pref": "山口県",
    "city": "宇部市",
    "category": "day_service",
    "serviceType": "通所介護",
    "capacity": 20,
    "openDays": [
      "平日",
      "土曜日",
      "祝日"
    ],
    "openDaysNote": "苑の行事、お盆（８/１４・１５）・年末年始（１２/３１～１/３）この内、日曜日が含まれる場合は１／４と８／１６も休みとなります。　自然災害（台風や積雪等）等で運営が難しい場合休みになります。"
  },
  {
    "id": "3570203046",
    "name": "第2希望苑デイサービスセンター",
    "kana": "ダイ2キボウエンデイサービスセンター",
    "address": "宇部市西宇部南4丁目11-2",
    "lat": 34.0032027,
    "lng": 131.2183249,
    "tel": "0836-43-6221",
    "url": "",
    "pref": "山口県",
    "city": "宇部市",
    "category": "day_service",
    "serviceType": "通所介護",
    "capacity": 20,
    "openDays": [
      "平日",
      "土曜日",
      "日曜日",
      "祝日"
    ],
    "openDaysNote": ""
  },
  {
    "id": "3570203186",
    "name": "第３希望苑デイサービスセンター",
    "kana": "ダイサンキボウエンデイサービスセンター",
    "address": "山口県宇部市大字中宇部字西岩田１５７０－１第３希望苑デイサービスセンター 第３希望苑デイサービスセンター",
    "lat": 33.9698408,
    "lng": 131.2590401,
    "tel": "０８３６－４３－６６６０",
    "url": "http://www.yic-trust.com/",
    "pref": "山口県",
    "city": "宇部市",
    "category": "day_service",
    "serviceType": "通所介護",
    "capacity": 0,
    "openDays": [
      "平日",
      "土曜日",
      "日曜日",
      "祝日"
    ],
    "openDaysNote": ""
  },
  {
    "id": "3570202766",
    "name": "宅老所　喜楽苑　山村",
    "kana": "タクロウショ　キラクエン　ヤマムラ",
    "address": "宇部市大字西岐波2636-7",
    "lat": 33.9649109,
    "lng": 131.3087982,
    "tel": "0836-39-6000",
    "url": "",
    "pref": "山口県",
    "city": "宇部市",
    "category": "day_service",
    "serviceType": "通所介護",
    "capacity": 0,
    "openDays": [
      "平日",
      "土曜日",
      "日曜日",
      "祝日"
    ],
    "openDaysNote": "なし"
  },
  {
    "id": "3577700051",
    "name": "楠園デイサービスセンター",
    "kana": "クスノキエンデイサービスセンター",
    "address": "山口県宇部市大字船木字向ヒ８３３番３",
    "lat": 34.0498200125241,
    "lng": 131.192154566785,
    "tel": "0836-69-0686",
    "url": "http://www.furoukai.jp",
    "pref": "山口県",
    "city": "宇部市",
    "category": "day_service",
    "serviceType": "通所介護",
    "capacity": 20,
    "openDays": [
      "平日",
      "土曜日",
      "祝日"
    ],
    "openDaysNote": "特になし"
  },
  {
    "id": "3570201370",
    "name": "片倉温泉くぼたデイサービスセンター",
    "kana": "カタクラオンセンクボタデイサービスセンター",
    "address": "宇部市大字西岐波5351番1",
    "lat": 33.9734573,
    "lng": 131.2980237,
    "tel": "0836-51-9360",
    "url": "https://katakura-day.com",
    "pref": "山口県",
    "city": "宇部市",
    "category": "day_service",
    "serviceType": "通所介護",
    "capacity": 0,
    "openDays": [
      "平日",
      "土曜日",
      "祝日"
    ],
    "openDaysNote": "※但し、毎年のカレンダーにより若干の変更あり"
  },
  {
    "id": "3570106868",
    "name": "GreenDelsole",
    "kana": "グリーンデルソーレ",
    "address": "山口県下関市菊川町大字久野94-1",
    "lat": 34.1450163,
    "lng": 130.9783069,
    "tel": "083-287-0001",
    "url": "https://shiennomori.com/",
    "pref": "山口県",
    "city": "下関市",
    "category": "day_service",
    "serviceType": "通所介護",
    "capacity": null,
    "openDays": [
      "平日",
      "土曜日",
      "祝日"
    ],
    "openDaysNote": "12月30日～1月３日年末年始休み"
  },
  {
    "id": "3570106843",
    "name": "IMLデイサービスみもすそ川",
    "kana": "アイエムエル　デイサービスミモスソガワ",
    "address": "みもすそ川10番20号",
    "lat": 33.9699479,
    "lng": 130.9542111,
    "tel": "083-232-0555",
    "url": "https://www.inmylife24.com/",
    "pref": "山口県",
    "city": "下関市",
    "category": "day_service",
    "serviceType": "通所介護",
    "capacity": null,
    "openDays": [
      "平日",
      "祝日"
    ],
    "openDaysNote": ""
  },
  {
    "id": "3570106215",
    "name": "IMLデイサービスリライブ",
    "kana": "アイエムエル　デイサービスリライブ",
    "address": "山口県下関市一の宮町2丁目14-5",
    "lat": 34.002593,
    "lng": 130.950954,
    "tel": "083-227-2437",
    "url": "www.inmylife24.com",
    "pref": "山口県",
    "city": "下関市",
    "category": "day_service",
    "serviceType": "通所介護",
    "capacity": 0,
    "openDays": [
      "平日",
      "土曜日",
      "祝日"
    ],
    "openDaysNote": ""
  },
  {
    "id": "3570106454",
    "name": "TryQ（トライク）デイフィットネス",
    "kana": "トライクデイフィットネス",
    "address": "山口県下関市武久町２丁目３番３号１階第２はまのビル 第２はまのビル",
    "lat": 33.9768267,
    "lng": 130.9209231,
    "tel": "083-254-7120",
    "url": "info@tryq-sports.com",
    "pref": "山口県",
    "city": "下関市",
    "category": "day_service",
    "serviceType": "通所介護",
    "capacity": 0,
    "openDays": [
      "平日",
      "土曜日"
    ],
    "openDaysNote": "夏季休暇（8月13日～15日）（改行）冬季休暇（12月30日～1月3日）"
  },
  {
    "id": "3570100457",
    "name": "アイユウの苑デイサービスセンター",
    "kana": "アイユウノソノデイサービスセンター",
    "address": "山口県下関市彦島迫町三丁目17番2号",
    "lat": 33.9383705,
    "lng": 130.9002994,
    "tel": "083-266-6364",
    "url": "http://www.shoubikai.or.jp",
    "pref": "山口県",
    "city": "下関市",
    "category": "day_service",
    "serviceType": "通所介護",
    "capacity": 0,
    "openDays": [
      "平日",
      "祝日"
    ],
    "openDaysNote": "特になし"
  },
  {
    "id": "3570100929",
    "name": "あおぞらの里　下関デイサービスセンター",
    "kana": "アオゾラノサト　シモノセキデイサービスセンター",
    "address": "下関市今浦町１０－１１",
    "lat": 33.9536475,
    "lng": 130.9212497,
    "tel": "083-232-5511",
    "url": "http://www.cedar-web.com",
    "pref": "山口県",
    "city": "下関市",
    "category": "day_service",
    "serviceType": "通所介護",
    "capacity": 105,
    "openDays": [
      "平日",
      "土曜日",
      "日曜日",
      "祝日"
    ],
    "openDaysNote": "特になし"
  },
  {
    "id": "3570102222",
    "name": "あおぞらの里　下関幡生デイサービスセンター",
    "kana": "アオゾラノサト　シモノセキハタブデイサービスセンター",
    "address": "山口県　下関市　幡生本町１２－５",
    "lat": 33.977987,
    "lng": 130.9278961,
    "tel": "083-253-5010",
    "url": "http://www.cedar-web.com",
    "pref": "山口県",
    "city": "下関市",
    "category": "day_service",
    "serviceType": "通所介護",
    "capacity": 0,
    "openDays": [
      "平日",
      "土曜日",
      "祝日"
    ],
    "openDaysNote": "特になし"
  },
  {
    "id": "3570106793",
    "name": "オーシャンビューまえだデイサービスセンター",
    "kana": "オーシャンビューマエダデイサービスセンター",
    "address": "山口県下関市前田2-1-21",
    "lat": 33.9706726,
    "lng": 130.9672048,
    "tel": "083ｰ242-1303",
    "url": "http://www.yume-no-kai.com/gaiyo/",
    "pref": "山口県",
    "city": "下関市",
    "category": "day_service",
    "serviceType": "通所介護",
    "capacity": null,
    "openDays": [
      "平日",
      "土曜日"
    ],
    "openDaysNote": ""
  },
  {
    "id": "3577800190",
    "name": "きくがわ苑デイサービスセンター",
    "kana": "キクガワエンデイサービスセンター",
    "address": "下関市菊川町大字下岡枝1064番地",
    "lat": 34.1262668,
    "lng": 131.0415441,
    "tel": "083-287-1013",
    "url": "https://kikusuikai.jp/",
    "pref": "山口県",
    "city": "下関市",
    "category": "day_service",
    "serviceType": "通所介護",
    "capacity": 35,
    "openDays": [
      "平日",
      "土曜日",
      "祝日"
    ],
    "openDaysNote": ""
  },
  {
    "id": "3570103204",
    "name": "ケアライフくろい　デイサービスセンター",
    "kana": "ケアライフクロイ　デイサービスセンター",
    "address": "山口県下関市豊浦町黒井10634-5",
    "lat": 34.1263353,
    "lng": 130.9092932,
    "tel": "083-775-1765",
    "url": "http://carelife1165.web.fc2.com/",
    "pref": "山口県",
    "city": "下関市",
    "category": "day_service",
    "serviceType": "通所介護",
    "capacity": 0,
    "openDays": [
      "平日",
      "土曜日",
      "日曜日",
      "祝日"
    ],
    "openDaysNote": "特になし"
  },
  {
    "id": "3570104012",
    "name": "ケアライフ綾羅木デイサービスセンター",
    "kana": "ケアライフアヤラギデイサービスセンター",
    "address": "山口県下関市大字垢田字洞ノ上341番",
    "lat": 34.0012157080702,
    "lng": 130.910712838062,
    "tel": "083-250-1165",
    "url": "http://www.bestlife1165.com/",
    "pref": "山口県",
    "city": "下関市",
    "category": "day_service",
    "serviceType": "通所介護",
    "capacity": 45,
    "openDays": [
      "平日",
      "土曜日",
      "日曜日",
      "祝日"
    ],
    "openDaysNote": "その他の時間にも応じます。"
  },
  {
    "id": "3570106363",
    "name": "コンパスウォーク綾羅木",
    "kana": "コンパスウォークアヤラギ",
    "address": "山口県下関市綾羅木本町２丁目5-25",
    "lat": 34.0033798,
    "lng": 130.9255538,
    "tel": "083-253-7720",
    "url": "https://kinoukaifuku.com/shop/shop_info/chugoku/yamaguchi/350001/350001_017/350001_017.html",
    "pref": "山口県",
    "city": "下関市",
    "category": "day_service",
    "serviceType": "通所介護",
    "capacity": 0,
    "openDays": [
      "平日",
      "祝日"
    ],
    "openDaysNote": ""
  },
  {
    "id": "3570106512",
    "name": "コンパスウォーク安岡",
    "kana": "コンパスウォークヤスオカ",
    "address": "山口県下関市梶栗町3-3-5",
    "lat": 34.0153556,
    "lng": 130.9214716,
    "tel": "083-227-2297",
    "url": "",
    "pref": "山口県",
    "city": "下関市",
    "category": "day_service",
    "serviceType": "通所介護",
    "capacity": 90,
    "openDays": [
      "平日",
      "祝日"
    ],
    "openDaysNote": ""
  },
  {
    "id": "3570106769",
    "name": "コンパスウォーク勝山",
    "kana": "コンパスウォークカツヤマ",
    "address": "山口県下関市田倉御殿町1-1-1",
    "lat": 34.0132964,
    "lng": 130.9735486,
    "tel": "083-227-4844",
    "url": "https://kinoukaifuku.com/shop/shop_info/chugoku/yamaguchi/350001_017/350001_017.html",
    "pref": "山口県",
    "city": "下関市",
    "category": "day_service",
    "serviceType": "通所介護",
    "capacity": null,
    "openDays": [
      "平日",
      "祝日"
    ],
    "openDaysNote": ""
  },
  {
    "id": "3570106603",
    "name": "コンパスカインド安岡",
    "kana": "コンパスカインドヤスオカ",
    "address": "山口県下関市安岡本町2-10-17",
    "lat": 34.0279269,
    "lng": 130.9124561,
    "tel": "083-227-2125",
    "url": "",
    "pref": "山口県",
    "city": "下関市",
    "category": "day_service",
    "serviceType": "通所介護",
    "capacity": 0,
    "openDays": [
      "平日",
      "祝日"
    ],
    "openDaysNote": ""
  },
  {
    "id": "3570105696",
    "name": "シンフォニー川棚　デイサービスセンター",
    "kana": "シンフォニーカワタナ　デイサービスセンター",
    "address": "豊浦町川棚6923－6",
    "lat": 34.1471221,
    "lng": 130.9242663,
    "tel": "083－775－3201",
    "url": "",
    "pref": "山口県",
    "city": "下関市",
    "category": "day_service",
    "serviceType": "通所介護",
    "capacity": 0,
    "openDays": [
      "平日",
      "土曜日",
      "祝日"
    ],
    "openDaysNote": "12月29日～1月3日、8月13日～8月15日は休日とする。"
  },
  {
    "id": "3570106496",
    "name": "ツクイ下関生野",
    "kana": "ツクイシモノセキイクノ",
    "address": "山口県下関市生野町1-2-18",
    "lat": 33.9796406,
    "lng": 130.9363232,
    "tel": "083-251-6061",
    "url": "",
    "pref": "山口県",
    "city": "下関市",
    "category": "day_service",
    "serviceType": "通所介護",
    "capacity": 0,
    "openDays": [
      "平日",
      "土曜日",
      "日曜日",
      "祝日"
    ],
    "openDaysNote": "特になし"
  },
  {
    "id": "3570103139",
    "name": "デイサービス　デイホーム川棚",
    "kana": "デイサービス　デイホームカワタナ",
    "address": "山口県下関市豊浦町大字川棚１５００－３",
    "lat": 34.1585154267946,
    "lng": 130.923821558766,
    "tel": "083-774-2266",
    "url": "",
    "pref": "山口県",
    "city": "下関市",
    "category": "day_service",
    "serviceType": "通所介護",
    "capacity": 0,
    "openDays": [
      "平日",
      "祝日"
    ],
    "openDaysNote": "時間外でも連絡可（TEL：083-774-2266)"
  },
  {
    "id": "3570105712",
    "name": "デイサービス　ほほ笑み倶楽部",
    "kana": "デイサービス　ホホエミクラブ",
    "address": "山口県下関市稗田南町７番地９号",
    "lat": 33.9903175587215,
    "lng": 130.930948822089,
    "tel": "083-250-8681",
    "url": "",
    "pref": "山口県",
    "city": "下関市",
    "category": "day_service",
    "serviceType": "通所介護",
    "capacity": 0,
    "openDays": [
      "平日",
      "土曜日",
      "祝日"
    ],
    "openDaysNote": ""
  },
  {
    "id": "3570104384",
    "name": "デイサービス　花水木",
    "kana": "デイサービス　ハナミズキ",
    "address": "山口県下関市大字吉母218番地",
    "lat": 34.0913558,
    "lng": 130.8820096,
    "tel": "083－249－5580",
    "url": "",
    "pref": "山口県",
    "city": "下関市",
    "category": "day_service",
    "serviceType": "通所介護",
    "capacity": 60,
    "openDays": [
      "平日",
      "土曜日",
      "日曜日",
      "祝日"
    ],
    "openDaysNote": ""
  },
  {
    "id": "3570106066",
    "name": "デイサービス　海と空",
    "kana": "デイサービス　ウミトソラ",
    "address": "山口県下関市壇之浦町4-28",
    "lat": 33.9617505313381,
    "lng": 130.952233708598,
    "tel": "083-228-0700",
    "url": "http://reiwakai.com",
    "pref": "山口県",
    "city": "下関市",
    "category": "day_service",
    "serviceType": "通所介護",
    "capacity": 0,
    "openDays": [
      "平日",
      "土曜日",
      "祝日"
    ],
    "openDaysNote": "台風・積雪等により送迎に危険が伴う場合、8/13以外にも休業の可能性あり"
  },
  {
    "id": "3570105878",
    "name": "デイサービス　夢の里",
    "kana": "デイサービス　ユメノサト",
    "address": "下関市新地町3-28",
    "lat": 33.956175,
    "lng": 130.921541,
    "tel": "083-228-2277",
    "url": "http://www.yume-no-kai.com/gaiyo/",
    "pref": "山口県",
    "city": "下関市",
    "category": "day_service",
    "serviceType": "通所介護",
    "capacity": null,
    "openDays": [
      "平日",
      "土曜日"
    ],
    "openDaysNote": "特になし"
  },
  {
    "id": "3570106645",
    "name": "デイサービスアドバンス山の田",
    "kana": "デイサービスアドバンスヤマノタ",
    "address": "下関市山の田東町1-2０",
    "lat": 33.9876728,
    "lng": 130.9300871,
    "tel": "083-242-6776",
    "url": "",
    "pref": "山口県",
    "city": "下関市",
    "category": "day_service",
    "serviceType": "通所介護",
    "capacity": null,
    "openDays": [
      "平日"
    ],
    "openDaysNote": "提供時間は上記以外は応相談いたします。"
  },
  {
    "id": "3570105183",
    "name": "デイサービスかがやき",
    "kana": "デイサービス　カガヤキ",
    "address": "山口県下関市豊浦町黒井１５３６－１",
    "lat": 34.1257049,
    "lng": 130.9131567,
    "tel": "０８３－７７４－１５７７",
    "url": "http://takurousho-ajisai.com",
    "pref": "山口県",
    "city": "下関市",
    "category": "day_service",
    "serviceType": "通所介護",
    "capacity": 0,
    "openDays": [
      "平日",
      "土曜日",
      "日曜日",
      "祝日"
    ],
    "openDaysNote": ""
  },
  {
    "id": "3570103683",
    "name": "デイサービスセンター　すずらん",
    "kana": "デイサービスセンター　スズラン",
    "address": "山口県下関市神田町２丁目１３番５号",
    "lat": 33.9620024,
    "lng": 130.9233661,
    "tel": "083-250-8770",
    "url": "",
    "pref": "山口県",
    "city": "下関市",
    "category": "day_service",
    "serviceType": "通所介護",
    "capacity": 0,
    "openDays": [
      "平日",
      "土曜日",
      "日曜日",
      "祝日"
    ],
    "openDaysNote": ""
  },
  {
    "id": "3570100960",
    "name": "デイサービスセンター　すずらん後田",
    "kana": "デイサービスセンタースズランウシロダ",
    "address": "下関市後田町3丁目1-28住宅型有料老人ホーム　すずらん後田 住宅型有料老人ホーム　すずらん後田",
    "lat": 33.9725014,
    "lng": 130.9326986,
    "tel": "083-250-8536",
    "url": "golden-age-sv.com",
    "pref": "山口県",
    "city": "下関市",
    "category": "day_service",
    "serviceType": "通所介護",
    "capacity": 0,
    "openDays": [
      "平日",
      "土曜日",
      "日曜日",
      "祝日"
    ],
    "openDaysNote": "なし"
  },
  {
    "id": "3570101455",
    "name": "デイサービスセンター　大正浪漫館",
    "kana": "デイサービスセンター　タイショウロマンカン",
    "address": "下関市幡生宮の下町16-3",
    "lat": 33.9827894,
    "lng": 130.9333371,
    "tel": "083-252-5900",
    "url": "http://www.shinsetsu.net/",
    "pref": "山口県",
    "city": "下関市",
    "category": "day_service",
    "serviceType": "通所介護",
    "capacity": 26,
    "openDays": [
      "平日",
      "祝日"
    ],
    "openDaysNote": "特になし"
  },
  {
    "id": "3570103188",
    "name": "デイサービスセンター　道",
    "kana": "デイサービスセンター　ミチ",
    "address": "山口県下関市本町4丁目14番13号",
    "lat": 33.9676852,
    "lng": 130.9503109,
    "tel": "083-242-5551",
    "url": "http://www.you-hodo.co.jp",
    "pref": "山口県",
    "city": "下関市",
    "category": "day_service",
    "serviceType": "通所介護",
    "capacity": 23,
    "openDays": [
      "平日",
      "土曜日",
      "日曜日",
      "祝日"
    ],
    "openDaysNote": "特になし"
  },
  {
    "id": "3577800554",
    "name": "デイサービスセンターＳＵＮ",
    "kana": "デイサービスセンターサン",
    "address": "下関市豊浦町川棚１２１３９－２",
    "lat": 34.1389425,
    "lng": 130.9244276,
    "tel": "083-774-3907",
    "url": "http://hibikikai.byoinnavi.jp",
    "pref": "山口県",
    "city": "下関市",
    "category": "day_service",
    "serviceType": "通所介護",
    "capacity": 33,
    "openDays": [
      "平日",
      "土曜日",
      "祝日"
    ],
    "openDaysNote": "特になし"
  },
  {
    "id": "3570101422",
    "name": "デイサービスセンターあかだ",
    "kana": "デイサービスセンターアカダ",
    "address": "下関市富任町８－８－３",
    "lat": 34.023857968019,
    "lng": 130.927825942975,
    "tel": "083-258-1511",
    "url": "",
    "pref": "山口県",
    "city": "下関市",
    "category": "day_service",
    "serviceType": "通所介護",
    "capacity": 21,
    "openDays": [
      "平日",
      "土曜日",
      "祝日"
    ],
    "openDaysNote": "特になし"
  },
  {
    "id": "3570100598",
    "name": "デイサービスセンター員光",
    "kana": "デイサービスセンターカジミツ",
    "address": "山口県下関市員光１５４４番地",
    "lat": 34.0510554062301,
    "lng": 130.983857162612,
    "tel": "０８３－２４８－５１１５",
    "url": "http://care-net.biz/35/yamabatokai/index.php",
    "pref": "山口県",
    "city": "下関市",
    "category": "day_service",
    "serviceType": "通所介護",
    "capacity": 28,
    "openDays": [
      "平日",
      "土曜日",
      "祝日"
    ],
    "openDaysNote": "台風等、天候悪化が予想される場合は臨時休業する場合がある。"
  },
  {
    "id": "3570105449",
    "name": "デイサービスセンター山茶花",
    "kana": "デイサービスセンターサザンカ",
    "address": "山口県下関市富任町三丁目４番２８号",
    "lat": 34.0210409,
    "lng": 130.9193011,
    "tel": "083-262-1465",
    "url": "https://www.mizunoki.jp/",
    "pref": "山口県",
    "city": "下関市",
    "category": "day_service",
    "serviceType": "通所介護",
    "capacity": 0,
    "openDays": [
      "平日",
      "祝日"
    ],
    "openDaysNote": ""
  },
  {
    "id": "3570104558",
    "name": "デイサービス健歩",
    "kana": "デイサービスケンポ",
    "address": "山口県下関市椋野町3丁目21-11",
    "lat": 33.9804229,
    "lng": 130.9446584,
    "tel": "083-250-8995",
    "url": "",
    "pref": "山口県",
    "city": "下関市",
    "category": "day_service",
    "serviceType": "通所介護",
    "capacity": 30,
    "openDays": [
      "平日",
      "土曜日",
      "祝日"
    ],
    "openDaysNote": ""
  },
  {
    "id": "3570106579",
    "name": "デイサービス四季の森",
    "kana": "デイサービスシキノモリ",
    "address": "山口県下関市一の宮町1ｰ3ｰ46",
    "lat": 34.004302135791,
    "lng": 130.946291591402,
    "tel": "083ｰ250-8911",
    "url": "http://www.e-saving.jp/",
    "pref": "山口県",
    "city": "下関市",
    "category": "day_service",
    "serviceType": "通所介護",
    "capacity": null,
    "openDays": [
      "平日",
      "土曜日",
      "祝日"
    ],
    "openDaysNote": "特になし"
  },
  {
    "id": "3570101018",
    "name": "デイサービス小月",
    "kana": "デイサービスオヅキ",
    "address": "山口県下関市小月宮の町7-3",
    "lat": 34.0743782,
    "lng": 131.0380653,
    "tel": "083-281-3010",
    "url": "http://www.e-saving.jp/",
    "pref": "山口県",
    "city": "下関市",
    "category": "day_service",
    "serviceType": "通所介護",
    "capacity": 0,
    "openDays": [
      "平日",
      "土曜日",
      "祝日"
    ],
    "openDaysNote": "特になし"
  },
  {
    "id": "3570105167",
    "name": "デイサービス笑笑歩",
    "kana": "デイサービスエエホ",
    "address": "山口県下関市西大坪町18-12",
    "lat": 33.9618049,
    "lng": 130.9145755,
    "tel": "083-227-2876",
    "url": "http://hp.kaipoke.biz/2nd/",
    "pref": "山口県",
    "city": "下関市",
    "category": "day_service",
    "serviceType": "通所介護",
    "capacity": 240,
    "openDays": [
      "平日",
      "土曜日",
      "祝日"
    ],
    "openDaysNote": ""
  },
  {
    "id": "3570102412",
    "name": "デイサービス新遊楽",
    "kana": "デイサービスシンユウラク",
    "address": "下関市彦島江の浦町3－11－12",
    "lat": 33.9305079,
    "lng": 130.9144034,
    "tel": "083-266-0123",
    "url": "",
    "pref": "山口県",
    "city": "下関市",
    "category": "day_service",
    "serviceType": "通所介護",
    "capacity": 0,
    "openDays": [
      "平日",
      "土曜日",
      "日曜日",
      "祝日"
    ],
    "openDaysNote": "特になし"
  },
  {
    "id": "3570106223",
    "name": "デイサービス想やい",
    "kana": "デイサービスオモヤイ",
    "address": "山口県下関市山の田西町10-11",
    "lat": 33.987239,
    "lng": 130.9229823,
    "tel": "083-242-1210",
    "url": "http://hp.kaipoke.biz.2nd/",
    "pref": "山口県",
    "city": "下関市",
    "category": "day_service",
    "serviceType": "通所介護",
    "capacity": 150,
    "openDays": [
      "平日",
      "土曜日",
      "祝日"
    ],
    "openDaysNote": ""
  },
  {
    "id": "3570101489",
    "name": "デイサービス豆たん",
    "kana": "デイサービスマメタン",
    "address": "下関市内日下1028-2",
    "lat": 34.100754,
    "lng": 130.9694841,
    "tel": "083-289-2693",
    "url": "http://www.mametan.net/",
    "pref": "山口県",
    "city": "下関市",
    "category": "day_service",
    "serviceType": "通所介護",
    "capacity": 0,
    "openDays": [
      "平日",
      "土曜日",
      "祝日"
    ],
    "openDaysNote": "年末年始、盆等休日"
  },
  {
    "id": "3570106058",
    "name": "デイサービス風の丘",
    "kana": "デイサービスカゼノオカ",
    "address": "山口県下関市生野町2丁目24-22",
    "lat": 33.983931,
    "lng": 130.9335148,
    "tel": "083-291-0839",
    "url": "http://reiwakai.com",
    "pref": "山口県",
    "city": "下関市",
    "category": "day_service",
    "serviceType": "通所介護",
    "capacity": 0,
    "openDays": [
      "平日",
      "土曜日",
      "日曜日",
      "祝日"
    ],
    "openDaysNote": ""
  },
  {
    "id": "3577800109",
    "name": "とよたデイサービスセンター",
    "kana": "トヨタデイサービスセンター",
    "address": "下関市豊田町大字荒木１００５１－２",
    "lat": 34.2528649,
    "lng": 131.0428159,
    "tel": "083-768-0587",
    "url": "http://houzyukai.jp/",
    "pref": "山口県",
    "city": "下関市",
    "category": "day_service",
    "serviceType": "通所介護",
    "capacity": 45,
    "openDays": [
      "平日",
      "土曜日",
      "祝日"
    ],
    "openDaysNote": "特になし"
  },
  {
    "id": "3570103907",
    "name": "ハートケアきらら　デイサービス",
    "kana": "ハートケアキララ　デイサービス",
    "address": "山口県下関市大字福江1425番１ハートケアきららデイサービス ハートケアきららデイサービス",
    "lat": 34.0459736,
    "lng": 130.9152536,
    "tel": "083-262-3401",
    "url": "http://www.adcare.jp/data/heartcarek/",
    "pref": "山口県",
    "city": "下関市",
    "category": "day_service",
    "serviceType": "通所介護",
    "capacity": 30,
    "openDays": [
      "平日",
      "土曜日",
      "祝日"
    ],
    "openDaysNote": "盆は通常通り営業"
  },
  {
    "id": "3570104657",
    "name": "ハートケアしおはまデイサービス",
    "kana": "ハートケアシオハマデイサービス",
    "address": "下関市彦島塩浜町3-14-52",
    "lat": 33.9198647,
    "lng": 130.9111568,
    "tel": "083-227-4865",
    "url": "http://heartcaregroup.net",
    "pref": "山口県",
    "city": "下関市",
    "category": "day_service",
    "serviceType": "通所介護",
    "capacity": 20,
    "openDays": [
      "平日",
      "土曜日",
      "祝日"
    ],
    "openDaysNote": "緊急時、状況変化時この限りではない。"
  },
  {
    "id": "3570104467",
    "name": "ハートケア一の宮デイサービス",
    "kana": "ハートケアイチノミヤデイサービス",
    "address": "山口県下関市一の宮町３丁目3-15ハートケア一の宮　有料老人ホーム　デイサービス ハートケア一の宮　有料老人ホーム　デイサービス",
    "lat": 33.9985102,
    "lng": 130.9506045,
    "tel": "083-256-6228",
    "url": "heartcaregroup.net",
    "pref": "山口県",
    "city": "下関市",
    "category": "day_service",
    "serviceType": "通所介護",
    "capacity": 30,
    "openDays": [
      "平日",
      "土曜日",
      "祝日"
    ],
    "openDaysNote": ""
  },
  {
    "id": "3570101430",
    "name": "はまゆう苑デイサービスセンター",
    "kana": "ハマユウエンデイサービスセンター",
    "address": "山口県下関市綾羅木新町3丁目11番40号",
    "lat": 34.0112521909909,
    "lng": 130.923057774894,
    "tel": "083-251-1112",
    "url": "http://www.syoutoukai.or.jp/",
    "pref": "山口県",
    "city": "下関市",
    "category": "day_service",
    "serviceType": "通所介護",
    "capacity": 0,
    "openDays": [
      "平日",
      "土曜日",
      "祝日"
    ],
    "openDaysNote": "特になし"
  },
  {
    "id": "3570105779",
    "name": "ファインデイサービス",
    "kana": "ファインデイサービス",
    "address": "山口県下関市大字冨任91番地ルナテラス ルナテラス",
    "lat": 34.0248211,
    "lng": 130.927517,
    "tel": "083-262-1765",
    "url": "http:lunar.cafe",
    "pref": "山口県",
    "city": "下関市",
    "category": "day_service",
    "serviceType": "通所介護",
    "capacity": 0,
    "openDays": [
      "平日",
      "土曜日",
      "祝日"
    ],
    "openDaysNote": ""
  },
  {
    "id": "3570100473",
    "name": "フェニックス　デイサービスセンター",
    "kana": "フェニックス　デイサービスセンター",
    "address": "下関市大字小野６４番地の１社会福祉法人暁会　フェニックス 社会福祉法人暁会　フェニックス",
    "lat": 34.0353505,
    "lng": 130.9619617,
    "tel": "083-256-0077",
    "url": "http://www.akatsukikai.com",
    "pref": "山口県",
    "city": "下関市",
    "category": "day_service",
    "serviceType": "通所介護",
    "capacity": 0,
    "openDays": [
      "平日",
      "土曜日",
      "祝日"
    ],
    "openDaysNote": ""
  },
  {
    "id": "3570102339",
    "name": "フロイデ彦島デイサービスセンター",
    "kana": "フロイデヒコシマデイサービスセンター",
    "address": "下関市彦島西山町３丁目１２番１号",
    "lat": 33.9448667,
    "lng": 130.8798682,
    "tel": "083-261-5083",
    "url": "https://www.syoutoukai.or.jp/",
    "pref": "山口県",
    "city": "下関市",
    "category": "day_service",
    "serviceType": "通所介護",
    "capacity": 0,
    "openDays": [
      "平日",
      "土曜日",
      "祝日"
    ],
    "openDaysNote": "特になし"
  },
  {
    "id": "3577800521",
    "name": "ベストライフ川棚　デイサービスセンター",
    "kana": "ベストライフカワタナ　デイサービスセンター",
    "address": "山口県下関市豊浦町大字吉永字越藤１０１６５－１",
    "lat": 34.1262526,
    "lng": 130.931458,
    "tel": "083-775-1165",
    "url": "http:/carelife1165.web.fc2.com/",
    "pref": "山口県",
    "city": "下関市",
    "category": "day_service",
    "serviceType": "通所介護",
    "capacity": 0,
    "openDays": [
      "平日",
      "土曜日",
      "日曜日",
      "祝日"
    ],
    "openDaysNote": "年末年始（12月31日～1月2日）除く。"
  },
  {
    "id": "3570100549",
    "name": "みどり園デイサービスセンター",
    "kana": "ミドリエンデイサービスセンター",
    "address": "山口県下関市長府才川二丁目21-1",
    "lat": 34.0252383,
    "lng": 130.9995583,
    "tel": "083-248-3294",
    "url": "http://www.care-net.biz/35/houaikai/",
    "pref": "山口県",
    "city": "下関市",
    "category": "day_service",
    "serviceType": "通所介護",
    "capacity": 0,
    "openDays": [
      "平日",
      "土曜日",
      "祝日"
    ],
    "openDaysNote": "特になし"
  },
  {
    "id": "3570103386",
    "name": "やすらぎデイサービスＳＵＮ",
    "kana": "ヤスラギデイサービスサン",
    "address": "下関市豊浦町吉永１８１５－１",
    "lat": 34.1393564,
    "lng": 130.9237444,
    "tel": "083-774-3927",
    "url": "http://hibikikai.byoinnavi.jp",
    "pref": "山口県",
    "city": "下関市",
    "category": "day_service",
    "serviceType": "通所介護",
    "capacity": 0,
    "openDays": [
      "平日",
      "土曜日",
      "祝日"
    ],
    "openDaysNote": "特になし"
  },
  {
    "id": "3570102677",
    "name": "リゾートデイ　遊とぴあ",
    "kana": "リゾートデイ　ユウトピア",
    "address": "下関市彦島弟子待東町８－１",
    "lat": 33.9273808,
    "lng": 130.9251246,
    "tel": "083-266-8800",
    "url": "http://hc-h.jp/",
    "pref": "山口県",
    "city": "下関市",
    "category": "day_service",
    "serviceType": "通所介護",
    "capacity": 0,
    "openDays": [
      "平日",
      "土曜日",
      "祝日"
    ],
    "openDaysNote": "特になし"
  },
  {
    "id": "3570106157",
    "name": "リハビリデイサービスさくらやま",
    "kana": "リハビリデイサービスサクラヤマ",
    "address": "山口県下関市上新地町3-2-3",
    "lat": 33.9597469,
    "lng": 130.9193277,
    "tel": "083-227-3412",
    "url": "",
    "pref": "山口県",
    "city": "下関市",
    "category": "day_service",
    "serviceType": "通所介護",
    "capacity": 0,
    "openDays": [
      "平日",
      "土曜日"
    ],
    "openDaysNote": ""
  },
  {
    "id": "3570102750",
    "name": "愛グループ　シャングリラ",
    "kana": "アイグループ　シャングリラ",
    "address": "下関市みもすそ川町23-1",
    "lat": 33.9672936,
    "lng": 130.9548689,
    "tel": "083-231-1165",
    "url": "http://www.aigroup.co.jp",
    "pref": "山口県",
    "city": "下関市",
    "category": "day_service",
    "serviceType": "通所介護",
    "capacity": 0,
    "openDays": [
      "平日",
      "土曜日",
      "祝日"
    ],
    "openDaysNote": "特記なし"
  },
  {
    "id": "3570100671",
    "name": "王喜の郷デイサービスセンター",
    "kana": "オウキノサトデイサービスセンター",
    "address": "下関市王喜本町6丁目1番１２号",
    "lat": 34.0636432,
    "lng": 131.052084,
    "tel": "０８３－２８３－２８３４",
    "url": "http://www.ryokujukai.jp/",
    "pref": "山口県",
    "city": "下関市",
    "category": "day_service",
    "serviceType": "通所介護",
    "capacity": 35,
    "openDays": [
      "平日",
      "土曜日",
      "祝日"
    ],
    "openDaysNote": "特になし"
  },
  {
    "id": "3570106074",
    "name": "株式会社　夢",
    "kana": "カブシキカイシャ　ユメ",
    "address": "山口県下関市梶栗町４丁目８－１５髙橋ふとん店ビル１F 髙橋ふとん店ビル１F",
    "lat": 34.0146112,
    "lng": 130.9225065,
    "tel": "０８３－２５８－０３３４",
    "url": "",
    "pref": "山口県",
    "city": "下関市",
    "category": "day_service",
    "serviceType": "通所介護",
    "capacity": 22,
    "openDays": [
      "平日",
      "土曜日",
      "日曜日",
      "祝日"
    ],
    "openDaysNote": ""
  },
  {
    "id": "3570105290",
    "name": "橘デイサービス",
    "kana": "タチバナデイサービス",
    "address": "山口県下関市豊浦町川棚1545-10",
    "lat": 34.160426,
    "lng": 130.9224855,
    "tel": "083-227-2895",
    "url": "",
    "pref": "山口県",
    "city": "下関市",
    "category": "day_service",
    "serviceType": "通所介護",
    "capacity": 24,
    "openDays": [
      "平日",
      "土曜日",
      "日曜日",
      "祝日"
    ],
    "openDaysNote": ""
  },
  {
    "id": "3570100846",
    "name": "敬老デイサービスセンター",
    "kana": "ケイロウデイサービスセンター",
    "address": "下関市長府中浜町２番５号まつなが医院　４階 まつなが医院　４階",
    "lat": 33.9979547,
    "lng": 130.9900175,
    "tel": "083-227-2237",
    "url": "http://www.matsunagaiin.com/dayservice",
    "pref": "山口県",
    "city": "下関市",
    "category": "day_service",
    "serviceType": "通所介護",
    "capacity": 30,
    "openDays": [
      "平日",
      "土曜日",
      "祝日"
    ],
    "openDaysNote": "台風など自然災害状況により休業とすることあり。"
  },
  {
    "id": "3570103618",
    "name": "三伶デイサービスセンンター",
    "kana": "サンレイデイサービスセンター",
    "address": "山口県下関市一の宮町四丁目１０番１９号",
    "lat": 33.9950688,
    "lng": 130.9487798,
    "tel": "083-260-1261",
    "url": "",
    "pref": "山口県",
    "city": "下関市",
    "category": "day_service",
    "serviceType": "通所介護",
    "capacity": 0,
    "openDays": [
      "平日",
      "土曜日",
      "祝日"
    ],
    "openDaysNote": ""
  },
  {
    "id": "3570105597",
    "name": "燦燦デイサービスセンター",
    "kana": "サンサンデイサービスセンター",
    "address": "下関市大字石原字上岡175－11",
    "lat": 34.0171773,
    "lng": 130.9479931,
    "tel": "083-250-7725",
    "url": "",
    "pref": "山口県",
    "city": "下関市",
    "category": "day_service",
    "serviceType": "通所介護",
    "capacity": 2,
    "openDays": [
      "平日",
      "土曜日",
      "日曜日",
      "祝日"
    ],
    "openDaysNote": ""
  },
  {
    "id": "3570104194",
    "name": "晴晴伶デイサービスセンター",
    "kana": "ハレバレデイサービスセンター",
    "address": "山口県下関市長府浜浦町１４番４号",
    "lat": 33.9835393,
    "lng": 130.9794019,
    "tel": "０８３－２４９－５７１０",
    "url": "",
    "pref": "山口県",
    "city": "下関市",
    "category": "day_service",
    "serviceType": "通所介護",
    "capacity": 0,
    "openDays": [
      "平日",
      "土曜日",
      "日曜日",
      "祝日"
    ],
    "openDaysNote": ""
  },
  {
    "id": "3570104889",
    "name": "長府ケアハウスデイサービスセンター",
    "kana": "チョウフケアハウスデイサービスセンター",
    "address": "山口県下関市長府黒門南町６番５４号昇陽館 昇陽館",
    "lat": 33.9844642,
    "lng": 130.9859318,
    "tel": "083-245-1860",
    "url": "http://www.shinsetsu.net",
    "pref": "山口県",
    "city": "下関市",
    "category": "day_service",
    "serviceType": "通所介護",
    "capacity": 0,
    "openDays": [
      "平日",
      "土曜日",
      "祝日"
    ],
    "openDaysNote": "特になし"
  },
  {
    "id": "3570106538",
    "name": "通所介護野の花",
    "kana": "ツウショカイゴノノハナ",
    "address": "山口県下関市豊浦町大字川棚古川3615番地",
    "lat": 34.1504311314938,
    "lng": 130.931922318874,
    "tel": "837753001",
    "url": "",
    "pref": "山口県",
    "city": "下関市",
    "category": "day_service",
    "serviceType": "通所介護",
    "capacity": 0,
    "openDays": [
      "平日",
      "土曜日",
      "日曜日",
      "祝日"
    ],
    "openDaysNote": ""
  },
  {
    "id": "3570105688",
    "name": "歩行リハビリセンター　テクラ",
    "kana": "ホコウリハビリセンター　テクラ",
    "address": "山口県下関市王司上町5-3-45",
    "lat": 34.0435117,
    "lng": 131.0149011,
    "tel": "083-248-3536",
    "url": "http://tekura-rehapis.com/",
    "pref": "山口県",
    "city": "下関市",
    "category": "day_service",
    "serviceType": "通所介護",
    "capacity": 70,
    "openDays": [
      "平日",
      "祝日"
    ],
    "openDaysNote": ""
  },
  {
    "id": "3570102875",
    "name": "豊寿苑デイサービスセンター",
    "kana": "ホウジュエンデイサービスセンター",
    "address": "山口県下関市豊浦町大字厚母郷１０４４２番地",
    "lat": 34.1185921077872,
    "lng": 130.905686076781,
    "tel": "083-772-0107",
    "url": "http://care-net.biz/35/houjyu/",
    "pref": "山口県",
    "city": "下関市",
    "category": "day_service",
    "serviceType": "通所介護",
    "capacity": null,
    "openDays": [
      "平日",
      "土曜日",
      "祝日"
    ],
    "openDaysNote": ""
  },
  {
    "id": "3570701007",
    "name": "ＪＡデイサービス　生野屋",
    "kana": "ジェイエイデイサービス　イクノヤ",
    "address": "山口県下松市生野屋南3丁目8番3号",
    "lat": 34.0354121,
    "lng": 131.8938533,
    "tel": "0833-45-2294",
    "url": "http://www.jp-syunan.or.jp",
    "pref": "山口県",
    "city": "下松市",
    "category": "day_service",
    "serviceType": "通所介護",
    "capacity": null,
    "openDays": [
      "平日",
      "土曜日",
      "日曜日",
      "祝日"
    ],
    "openDaysNote": "台風、その他の自然災害等によりやむ終えず利用時間の変更または中止させていただくことがあります。"
  },
  {
    "id": "3570701015",
    "name": "JAデイサービス久保",
    "kana": "ジェイエイデイサービスクボ",
    "address": "山口県下松市大字河内７３５番地",
    "lat": 34.0289939436689,
    "lng": 131.907815869935,
    "tel": "0833-47-2294",
    "url": "http://www.ja-syunan",
    "pref": "山口県",
    "city": "下松市",
    "category": "day_service",
    "serviceType": "通所介護",
    "capacity": 0,
    "openDays": [
      "平日",
      "土曜日",
      "祝日"
    ],
    "openDaysNote": "台風、その他の自然災害等によりやむおえず利用時間の変更または中止させていただくことがあります。"
  },
  {
    "id": "3570701270",
    "name": "グレイシア下松デイサービスセンター",
    "kana": "グレイシアクダマツデイサービスセンター",
    "address": "山口県下松市中島町二丁目１番５０号",
    "lat": 34.0113553,
    "lng": 131.8603872,
    "tel": "0833-45-1165",
    "url": "",
    "pref": "山口県",
    "city": "下松市",
    "category": "day_service",
    "serviceType": "通所介護",
    "capacity": null,
    "openDays": [
      "平日",
      "土曜日",
      "祝日"
    ],
    "openDaysNote": ""
  },
  {
    "id": "3570700264",
    "name": "さくら苑デイサービスセンター",
    "kana": "サクラエンデイサービスセンター",
    "address": "下松市瑞穂町2丁目21番1号",
    "lat": 34.0237453,
    "lng": 131.8517907,
    "tel": "0833-44-4515",
    "url": "https://www.abe-medicare.jp/",
    "pref": "山口県",
    "city": "下松市",
    "category": "day_service",
    "serviceType": "通所介護",
    "capacity": 0,
    "openDays": [
      "平日",
      "土曜日",
      "祝日"
    ],
    "openDaysNote": "日曜日は事業所が休みのため、ご相談は平日から土曜日の間にお願いします。"
  },
  {
    "id": "3570700793",
    "name": "デイサービス　マル",
    "kana": "デイサービス　マル",
    "address": "下松市大字来巻９５１番地３",
    "lat": 34.0230044,
    "lng": 131.9298597,
    "tel": "0833-46-2668",
    "url": "",
    "pref": "山口県",
    "city": "下松市",
    "category": "day_service",
    "serviceType": "通所介護",
    "capacity": 25,
    "openDays": [
      "平日",
      "土曜日",
      "祝日"
    ],
    "openDaysNote": ""
  },
  {
    "id": "3570700967",
    "name": "デイサービスセンター　いこい",
    "kana": "デイサービスセンター　イコイ",
    "address": "山口県下松市大手町２－１０－２９下松市NTTビル１階 下松市NTTビル１階",
    "lat": 34.0125995,
    "lng": 131.8676563,
    "tel": "0833-43-3240",
    "url": "",
    "pref": "山口県",
    "city": "下松市",
    "category": "day_service",
    "serviceType": "通所介護",
    "capacity": 19,
    "openDays": [
      "平日",
      "日曜日",
      "祝日"
    ],
    "openDaysNote": ""
  },
  {
    "id": "3570700827",
    "name": "デイサービスセンター　ねがい星",
    "kana": "デイサービスセンター　ネガイボシ",
    "address": "下松市東陽6-1-1サービス付き高齢者向け住宅ねがい星 サービス付き高齢者向け住宅ねがい星",
    "lat": 34.0321825,
    "lng": 131.914096,
    "tel": "0833-46-0015",
    "url": "",
    "pref": "山口県",
    "city": "下松市",
    "category": "day_service",
    "serviceType": "通所介護",
    "capacity": 5,
    "openDays": [
      "平日",
      "土曜日",
      "祝日"
    ],
    "openDaysNote": ""
  },
  {
    "id": "3570700702",
    "name": "デイサービスセンター　ブリスケア",
    "kana": "デイサービスセンター　ブリスケア",
    "address": "下松市望町一丁目１１番２８号",
    "lat": 34.0280701,
    "lng": 131.8610203,
    "tel": "0833-48-1088",
    "url": "",
    "pref": "山口県",
    "city": "下松市",
    "category": "day_service",
    "serviceType": "通所介護",
    "capacity": 0,
    "openDays": [
      "平日",
      "土曜日",
      "日曜日",
      "祝日"
    ],
    "openDaysNote": ""
  },
  {
    "id": "3570701049",
    "name": "デイサービスセンター星ひろば",
    "kana": "デイサービスセンターホシヒロバ",
    "address": "山口県下松市古川町3丁目１－２",
    "lat": 34.0073529,
    "lng": 131.8723283,
    "tel": "０８３３－４８－８５４５",
    "url": "http://ryokuzankai.jp/index.html",
    "pref": "山口県",
    "city": "下松市",
    "category": "day_service",
    "serviceType": "通所介護",
    "capacity": 0,
    "openDays": [
      "平日",
      "土曜日",
      "祝日"
    ],
    "openDaysNote": ""
  },
  {
    "id": "3570701247",
    "name": "デイサービス優",
    "kana": "デイービスユウ",
    "address": "せせらぎ町3丁目3-22",
    "lat": 34.0186756,
    "lng": 131.8608766,
    "tel": "0833-45-2020",
    "url": "",
    "pref": "山口県",
    "city": "下松市",
    "category": "day_service",
    "serviceType": "通所介護",
    "capacity": null,
    "openDays": [
      "平日",
      "土曜日",
      "祝日"
    ],
    "openDaysNote": ""
  },
  {
    "id": "3570700454",
    "name": "ニチイケアセンター下松",
    "kana": "ニチイケアセンタークダマツ",
    "address": "下松市せせらぎ町1丁目2-31",
    "lat": 34.0162379,
    "lng": 131.8607235,
    "tel": "0833-48-1080",
    "url": "http://www.nichiigakkan.co.jp",
    "pref": "山口県",
    "city": "下松市",
    "category": "day_service",
    "serviceType": "通所介護",
    "capacity": 35,
    "openDays": [
      "平日",
      "土曜日",
      "日曜日",
      "祝日"
    ],
    "openDaysNote": "特になし"
  },
  {
    "id": "3570700868",
    "name": "のんびり村花岡デイサービスセンター",
    "kana": "ノンビリムラ　ハナオカ　デイサービスセンター",
    "address": "下松市末武上久保田1800-1",
    "lat": 34.0361282521857,
    "lng": 131.870239068648,
    "tel": "0833-48-5577",
    "url": "http://www.homecare-yamaguchi.co.jp/",
    "pref": "山口県",
    "city": "下松市",
    "category": "day_service",
    "serviceType": "通所介護",
    "capacity": 0,
    "openDays": [
      "平日",
      "土曜日",
      "祝日"
    ],
    "openDaysNote": ""
  },
  {
    "id": "3570700124",
    "name": "ほしのさとデイサービスセンター",
    "kana": "ホシノサトデイサービスセンター",
    "address": "下松市生野屋南１－１３－１",
    "lat": 34.0314425,
    "lng": 131.8741191,
    "tel": "0833-45-3100",
    "url": "http://hoshiosato.strikingly.com/",
    "pref": "山口県",
    "city": "下松市",
    "category": "day_service",
    "serviceType": "通所介護",
    "capacity": 0,
    "openDays": [
      "平日",
      "土曜日",
      "祝日"
    ],
    "openDaysNote": ""
  },
  {
    "id": "3570701155",
    "name": "山口県下松市大字笠戸島100３２－３８",
    "kana": "ヤマグチケンクダマツシオオアザカサドジマ",
    "address": "山口県下松市大字笠戸島10032-38笠戸島福祉介護センター 笠戸島福祉介護センター",
    "lat": 33.951995,
    "lng": 131.8511447,
    "tel": "0833-52-1155",
    "url": "",
    "pref": "山口県",
    "city": "下松市",
    "category": "day_service",
    "serviceType": "通所介護",
    "capacity": 0,
    "openDays": [
      "平日",
      "土曜日",
      "祝日"
    ],
    "openDaysNote": ""
  },
  {
    "id": "3570700082",
    "name": "松寿苑デイサ－ビスセンタ－",
    "kana": "ショウジュエンデイサ－ビスセンタ－",
    "address": "下松市大字来巻９４４番地の１",
    "lat": 34.0238309,
    "lng": 131.9302866,
    "tel": "0833-47-0753",
    "url": "http://www.syojuen.com",
    "pref": "山口県",
    "city": "下松市",
    "category": "day_service",
    "serviceType": "通所介護",
    "capacity": 35,
    "openDays": [
      "平日",
      "祝日"
    ],
    "openDaysNote": "天災その他やむを得ず業務を遂行できない日は土曜日ならびに日曜日へ営業日を振替ます。"
  },
  {
    "id": "3570701288",
    "name": "真樹苑デイサービスセンター",
    "kana": "シンジュエンデイサービスセンター",
    "address": "山口県下松市瑞穂町4丁目16-16",
    "lat": 34.0253448,
    "lng": 131.84666,
    "tel": "0833-48-8882",
    "url": "",
    "pref": "山口県",
    "city": "下松市",
    "category": "day_service",
    "serviceType": "通所介護",
    "capacity": null,
    "openDays": [
      "平日"
    ],
    "openDaysNote": ""
  },
  {
    "id": "3570700371",
    "name": "生活リハビリセンター友・遊",
    "kana": "セイカツリハビリセンターユウ・ユウ",
    "address": "下松市大字河内中戸原１８９７番地",
    "lat": 34.0212771309521,
    "lng": 131.8874098,
    "tel": "0833-45-6501",
    "url": "",
    "pref": "山口県",
    "city": "下松市",
    "category": "day_service",
    "serviceType": "通所介護",
    "capacity": 35,
    "openDays": [
      "平日",
      "土曜日",
      "祝日"
    ],
    "openDaysNote": ""
  },
  {
    "id": "3570701197",
    "name": "多機能型事業所来歩",
    "kana": "タキノウガタジギョウショライフ",
    "address": "山口県下松市西柳三丁目4番27号",
    "lat": 34.0145437,
    "lng": 131.8634205,
    "tel": "0833-45-3600",
    "url": "https://sogoreha.info/",
    "pref": "山口県",
    "city": "下松市",
    "category": "day_service",
    "serviceType": "通所介護",
    "capacity": 0,
    "openDays": [
      "平日",
      "土曜日",
      "祝日"
    ],
    "openDaysNote": ""
  },
  {
    "id": "3570700579",
    "name": "来歩リハビリステージ",
    "kana": "ライフリハビリステージ",
    "address": "山口県下松市古川町4-5-7",
    "lat": 34.0062538094284,
    "lng": 131.871250002191,
    "tel": "0833-48-3501",
    "url": "http://sogoreha.info/",
    "pref": "山口県",
    "city": "下松市",
    "category": "day_service",
    "serviceType": "通所介護",
    "capacity": 0,
    "openDays": [
      "平日",
      "土曜日",
      "祝日"
    ],
    "openDaysNote": ""
  },
  {
    "id": "3570800486",
    "name": "いしいケア・クリニック　デイサービスセンターのぞみ",
    "kana": "イシイケアクリニック　デイサービスセンターノゾミ",
    "address": "山口県岩国市麻里布町3丁目5番5号",
    "lat": 34.1721193,
    "lng": 132.2137565,
    "tel": "0827-29-0708",
    "url": "",
    "pref": "山口県",
    "city": "岩国市",
    "category": "day_service",
    "serviceType": "通所介護",
    "capacity": 0,
    "openDays": [
      "平日",
      "土曜日",
      "祝日"
    ],
    "openDaysNote": "特になし"
  },
  {
    "id": "3570800916",
    "name": "ウェルネス",
    "kana": "ウェルネス",
    "address": "岩国市南岩国町一丁目18番20号",
    "lat": 34.1364319,
    "lng": 132.2028328,
    "tel": "0827-34-2333",
    "url": "",
    "pref": "山口県",
    "city": "岩国市",
    "category": "day_service",
    "serviceType": "通所介護",
    "capacity": 45,
    "openDays": [
      "平日",
      "祝日"
    ],
    "openDaysNote": ""
  },
  {
    "id": "3570802292",
    "name": "ウェルネス通津",
    "kana": "ウェルネスツヅ",
    "address": "山口県岩国市保津町2丁目9-33",
    "lat": 34.0793997,
    "lng": 132.2089091,
    "tel": "0827-30-9866",
    "url": "",
    "pref": "山口県",
    "city": "岩国市",
    "category": "day_service",
    "serviceType": "通所介護",
    "capacity": 30,
    "openDays": [
      "平日",
      "祝日"
    ],
    "openDaysNote": "お盆・お正月　お休みがあります"
  },
  {
    "id": "3570802151",
    "name": "グラントリハビリセンター",
    "kana": "グラントリハビリセンター",
    "address": "山口県岩国市麻里布町6丁目10-32安藤ビル 安藤ビル",
    "lat": 34.1696224,
    "lng": 132.2195312,
    "tel": "0827-28-5026",
    "url": "http://hp.kaipoke.biz/a9n/",
    "pref": "山口県",
    "city": "岩国市",
    "category": "day_service",
    "serviceType": "通所介護",
    "capacity": 0,
    "openDays": [
      "平日",
      "土曜日",
      "祝日"
    ],
    "openDaysNote": "午前午後の2単位でサービス提供を行っています。（改行）令和元年10月1日よりサテライト事業所を行っております。"
  },
  {
    "id": "3570801740",
    "name": "シンシアゆうわデイサービスセンター",
    "kana": "シンシアユウワデイサービスセンター",
    "address": "岩国市藤生町３丁目２７番８号",
    "lat": 34.1195723,
    "lng": 132.1914732,
    "tel": "0827-34-6002",
    "url": "http://www.yuwaen.net",
    "pref": "山口県",
    "city": "岩国市",
    "category": "day_service",
    "serviceType": "通所介護",
    "capacity": 0,
    "openDays": [
      "平日",
      "土曜日",
      "祝日"
    ],
    "openDaysNote": "特になし"
  },
  {
    "id": "3577200854",
    "name": "せんぞく苑　デイサービスセンター",
    "kana": "センゾクエン　デイサービスセンター",
    "address": "山口県岩国市周東町下久原443番地６",
    "lat": 34.0898539,
    "lng": 132.0618343,
    "tel": "0827-83-0100",
    "url": "http://www.takamori-fukushikai.hello-net.info/",
    "pref": "山口県",
    "city": "岩国市",
    "category": "day_service",
    "serviceType": "通所介護",
    "capacity": 0,
    "openDays": [
      "平日",
      "土曜日",
      "祝日"
    ],
    "openDaysNote": "特に無し"
  },
  {
    "id": "3570801021",
    "name": "デイサービスセンター　かえで",
    "kana": "デイサービスセンター　カエデ",
    "address": "山口県岩国市南岩国町4-59-5-1",
    "lat": 34.1308991,
    "lng": 132.1967391,
    "tel": "0827-34-2777",
    "url": "http://www.sansikai.com/ins/kaede-top.html",
    "pref": "山口県",
    "city": "岩国市",
    "category": "day_service",
    "serviceType": "通所介護",
    "capacity": 32,
    "openDays": [
      "平日",
      "土曜日",
      "祝日"
    ],
    "openDaysNote": ""
  },
  {
    "id": "3570800510",
    "name": "デイサービスセンター　なごみ",
    "kana": "デイサービスセンター　ナゴミ",
    "address": "岩国市昭和町二丁目ー１８－２３",
    "lat": 34.1735834,
    "lng": 132.2320745,
    "tel": "0827-30-1455",
    "url": "",
    "pref": "山口県",
    "city": "岩国市",
    "category": "day_service",
    "serviceType": "通所介護",
    "capacity": 40,
    "openDays": [
      "平日",
      "土曜日"
    ],
    "openDaysNote": "特になし"
  },
  {
    "id": "3570800999",
    "name": "デイサービスセンターあかしあ",
    "kana": "デイサービスセンターアカシア",
    "address": "山口県岩国市今津町1丁目10－9",
    "lat": 34.1671504,
    "lng": 132.2208394,
    "tel": "0827-30-0802",
    "url": "",
    "pref": "山口県",
    "city": "岩国市",
    "category": "day_service",
    "serviceType": "通所介護",
    "capacity": 28,
    "openDays": [
      "平日",
      "土曜日",
      "祝日"
    ],
    "openDaysNote": ""
  },
  {
    "id": "3570800437",
    "name": "デイサービスセンターさくらんぼ麻里布",
    "kana": "デイサービスセンターサクランボマリフ",
    "address": "岩国市室の木町1丁目1-50いしいケアビルディング いしいケアビルディング",
    "lat": 34.1720211986933,
    "lng": 132.213761283823,
    "tel": "0827-29-3838",
    "url": "",
    "pref": "山口県",
    "city": "岩国市",
    "category": "day_service",
    "serviceType": "通所介護",
    "capacity": 0,
    "openDays": [
      "平日",
      "土曜日",
      "日曜日",
      "祝日"
    ],
    "openDaysNote": "年中無休"
  },
  {
    "id": "3570802490",
    "name": "デイサービスセンターだんけ",
    "kana": "デイサービスセンターダンケ",
    "address": "山口県岩国市周東町下久原36番地1グループホームだんけぐーと有延 グループホームだんけぐーと有延",
    "lat": 34.0889741,
    "lng": 132.0735572,
    "tel": "0827-81-1051",
    "url": "",
    "pref": "山口県",
    "city": "岩国市",
    "category": "day_service",
    "serviceType": "通所介護",
    "capacity": 0,
    "openDays": [
      "平日",
      "土曜日"
    ],
    "openDaysNote": ""
  },
  {
    "id": "3570801294",
    "name": "デイサービスセンターつづの里",
    "kana": "デイサービスセンターツヅノサト",
    "address": "山口県岩国市通津字迫田11117番地297",
    "lat": 34.071848,
    "lng": 132.2072816,
    "tel": "0827-39-1025",
    "url": "http://www.tudunanwakai.jp/",
    "pref": "山口県",
    "city": "岩国市",
    "category": "day_service",
    "serviceType": "通所介護",
    "capacity": 0,
    "openDays": [
      "平日",
      "土曜日",
      "祝日"
    ],
    "openDaysNote": "特になし"
  },
  {
    "id": "3570802326",
    "name": "デイサービスのびのび",
    "kana": "デイサービスノビノビ",
    "address": "山口県岩国市周東町下久原1464-2",
    "lat": 34.0877084453367,
    "lng": 132.044761140337,
    "tel": "0827-28-6929",
    "url": "https://blog.canpan.info/nobinobiday/",
    "pref": "山口県",
    "city": "岩国市",
    "category": "day_service",
    "serviceType": "通所介護",
    "capacity": 0,
    "openDays": [
      "平日",
      "祝日"
    ],
    "openDaysNote": "祝日営業（改行）12/31～1/3　休業"
  },
  {
    "id": "3570802425",
    "name": "ディサービスわくわく",
    "kana": "デイサービスワクワク",
    "address": "山口県岩国市麻里布町5丁目15-272F 2F",
    "lat": 34.1754272,
    "lng": 132.2226205,
    "tel": "0827-35-5456",
    "url": "",
    "pref": "山口県",
    "city": "岩国市",
    "category": "day_service",
    "serviceType": "通所介護",
    "capacity": 0,
    "openDays": [
      "平日",
      "日曜日",
      "祝日"
    ],
    "openDaysNote": "年始1/1-2を除き、祝日（GW含む）、お盆は営業しております。"
  },
  {
    "id": "3570802136",
    "name": "デイサービス一楽　通津",
    "kana": "デイサービスイチラク　ツヅ",
    "address": "山口県岩国市通津２４０９番地１",
    "lat": 34.0737366,
    "lng": 132.2084009,
    "tel": "０８２７－３８－２０８１",
    "url": "",
    "pref": "山口県",
    "city": "岩国市",
    "category": "day_service",
    "serviceType": "通所介護",
    "capacity": 19,
    "openDays": [
      "平日",
      "土曜日",
      "祝日"
    ],
    "openDaysNote": ""
  },
  {
    "id": "3570802342",
    "name": "岩国ケアセンターそよ風",
    "kana": "イワクニケアセンターソヨカゼ",
    "address": "山口県岩国市今津町1丁目12番27号岩国ケアセンターそよ風 岩国ケアセンターそよ風",
    "lat": 34.1663246,
    "lng": 132.2213101,
    "tel": "0827-29-0377",
    "url": "https://www.sykz.co.jp/",
    "pref": "山口県",
    "city": "岩国市",
    "category": "day_service",
    "serviceType": "通所介護",
    "capacity": 0,
    "openDays": [
      "平日",
      "土曜日",
      "日曜日",
      "祝日"
    ],
    "openDaysNote": ""
  },
  {
    "id": "3570801161",
    "name": "岩国デイサービスセンターにしみ苑",
    "kana": "イワクニデイサービスセンターニシミエン",
    "address": "岩国市錦見2-６-12",
    "lat": 34.1665616,
    "lng": 132.1925857,
    "tel": "0827-43-3763",
    "url": "http://www.iwasha.jp",
    "pref": "山口県",
    "city": "岩国市",
    "category": "day_service",
    "serviceType": "通所介護",
    "capacity": 40,
    "openDays": [
      "平日",
      "祝日"
    ],
    "openDaysNote": "特になし"
  },
  {
    "id": "3577200326",
    "name": "錦苑デイサービスセンター",
    "kana": "ニシキエンデイサービスセンター",
    "address": "岩国市錦町広瀬７５８番地",
    "lat": 34.2569949,
    "lng": 131.9502922,
    "tel": "0827-72-3523",
    "url": "https://nishiki-f.com/",
    "pref": "山口県",
    "city": "岩国市",
    "category": "day_service",
    "serviceType": "通所介護",
    "capacity": 0,
    "openDays": [
      "平日",
      "土曜日",
      "日曜日",
      "祝日"
    ],
    "openDaysNote": ""
  },
  {
    "id": "3577200276",
    "name": "玖珂苑デイサービスセンター",
    "kana": "クガエンデイサービスセンター",
    "address": "山口県岩国市玖珂町3813番地6",
    "lat": 34.0818525,
    "lng": 132.0986224,
    "tel": "0827-82-0555",
    "url": "http://www.takamori-fukushikai.or.jp/",
    "pref": "山口県",
    "city": "岩国市",
    "category": "day_service",
    "serviceType": "通所介護",
    "capacity": 25,
    "openDays": [
      "平日",
      "土曜日",
      "祝日"
    ],
    "openDaysNote": "特になし"
  },
  {
    "id": "3577200268",
    "name": "高森苑デイサービスセンター",
    "kana": "タカモリエンデイサービスセンター",
    "address": "山口県岩国市周東町西長野621番地1",
    "lat": 34.0876673,
    "lng": 132.0272692,
    "tel": "0827-84-3747",
    "url": "http://www.takamori-fukushikai.or.jp/",
    "pref": "山口県",
    "city": "岩国市",
    "category": "day_service",
    "serviceType": "通所介護",
    "capacity": 0,
    "openDays": [
      "平日",
      "土曜日",
      "祝日"
    ],
    "openDaysNote": ""
  },
  {
    "id": "3570802110",
    "name": "寺迫デイサービスセンター",
    "kana": "テラサコデイサービスセンター",
    "address": "山口県岩国市由宇町3918-1",
    "lat": 34.0310916514679,
    "lng": 132.216429191173,
    "tel": "0827-63-6611",
    "url": "",
    "pref": "山口県",
    "city": "岩国市",
    "category": "day_service",
    "serviceType": "通所介護",
    "capacity": 20,
    "openDays": [
      "平日",
      "土曜日",
      "祝日"
    ],
    "openDaysNote": ""
  },
  {
    "id": "3570801609",
    "name": "渡辺薬局デイサービスセンター　なごやか",
    "kana": "ワタナベヤッキョクデイサービスセンター　ナゴヤカ",
    "address": "岩国市麻里布町5丁目3-8岩国ウィークリーマンション　２Ｆ 岩国ウィークリーマンション　２Ｆ",
    "lat": 34.1739748,
    "lng": 132.2239807,
    "tel": "0827-22-4165",
    "url": "http://www.iwayaku.com/watanabe/",
    "pref": "山口県",
    "city": "岩国市",
    "category": "day_service",
    "serviceType": "通所介護",
    "capacity": 30,
    "openDays": [
      "平日",
      "土曜日",
      "祝日"
    ],
    "openDaysNote": "H28年5月5日は定休日だったが、H29年5月より営業日となった。"
  },
  {
    "id": "3577200318",
    "name": "美和苑デイサービスセンター",
    "kana": "ミワエンデイサービスセンター",
    "address": "山口県岩国市美和町生見１２５３８",
    "lat": 34.2270644839095,
    "lng": 132.06829427581,
    "tel": "0827-96-1128",
    "url": "http://miwafukushikai.jp",
    "pref": "山口県",
    "city": "岩国市",
    "category": "day_service",
    "serviceType": "通所介護",
    "capacity": 30,
    "openDays": [
      "平日",
      "土曜日",
      "祝日"
    ],
    "openDaysNote": "特になし"
  },
  {
    "id": "3570800403",
    "name": "平成デイサービスセンター黒磯",
    "kana": "ヘイセイデイサービスセンタークロイソ",
    "address": "山口県岩国市黒磯町2-50-14",
    "lat": 34.1035295,
    "lng": 132.1945347,
    "tel": "0827-34-2255",
    "url": "https://kuroiso.heisei-ds.jp/",
    "pref": "山口県",
    "city": "岩国市",
    "category": "day_service",
    "serviceType": "通所介護",
    "capacity": 35,
    "openDays": [
      "平日",
      "土曜日"
    ],
    "openDaysNote": "天候により休みあり（台風接近時及び大雪・大雨）"
  },
  {
    "id": "3570800262",
    "name": "平成デイサービスセンター平田",
    "kana": "ヘイセイデイサービスセンターヒラタ",
    "address": "山口県岩国市平田5丁目31－7",
    "lat": 34.1403203,
    "lng": 132.1902671,
    "tel": "0827-34-1111",
    "url": "https://hirata.heisei-ds.jp/",
    "pref": "山口県",
    "city": "岩国市",
    "category": "day_service",
    "serviceType": "通所介護",
    "capacity": 50,
    "openDays": [
      "平日",
      "土曜日"
    ],
    "openDaysNote": "特になし"
  },
  {
    "id": "3570800148",
    "name": "有限会社渡辺薬局在宅ケアサービス本通りデイサービス",
    "kana": "ユウゲンガイシャワタナベヤッキョクザイタクケアサービスホンドオリデイサービス",
    "address": "山口県岩国市麻里布町2-1-9",
    "lat": 34.1713972,
    "lng": 132.2242419,
    "tel": "0827-30-5188",
    "url": "http://iwayaku.com/watanabe/",
    "pref": "山口県",
    "city": "岩国市",
    "category": "day_service",
    "serviceType": "通所介護",
    "capacity": 0,
    "openDays": [
      "平日",
      "土曜日",
      "祝日"
    ],
    "openDaysNote": "台風・積雪等でやむを得ず臨時休業、時短営業を行う場合あり。（改行）　臨時休業時はケアマネージャー・ご家族にご連絡します。"
  },
  {
    "id": "3577200375",
    "name": "緑風荘デイサービスセンター",
    "kana": "リョクフウソウデイサービスセンター",
    "address": "山口県岩国市由宇町3018番地1",
    "lat": 34.0282774,
    "lng": 132.1632257,
    "tel": "0827-62-1122",
    "url": "http://ryokufuukai.net/",
    "pref": "山口県",
    "city": "岩国市",
    "category": "day_service",
    "serviceType": "通所介護",
    "capacity": 0,
    "openDays": [
      "平日",
      "土曜日",
      "祝日"
    ],
    "openDaysNote": "特になし"
  },
  {
    "id": "3571000763",
    "name": "さくらデイサービス光",
    "kana": "サクラデイサービスヒカリ",
    "address": "山口県光市中央三丁目7番18号",
    "lat": 33.9573035,
    "lng": 131.9457513,
    "tel": "0833－71－0787",
    "url": "",
    "pref": "山口県",
    "city": "光市",
    "category": "day_service",
    "serviceType": "通所介護",
    "capacity": null,
    "openDays": [
      "平日",
      "土曜日",
      "祝日"
    ],
    "openDaysNote": ""
  },
  {
    "id": "3571000680",
    "name": "デイサービスセンターきくや",
    "kana": "デイサービスセンターキクヤ",
    "address": "光市大字立野1403-1",
    "lat": 34.0057143,
    "lng": 131.9724749,
    "tel": "0833-77-0185",
    "url": "",
    "pref": "山口県",
    "city": "光市",
    "category": "day_service",
    "serviceType": "通所介護",
    "capacity": 0,
    "openDays": [
      "平日",
      "祝日"
    ],
    "openDaysNote": ""
  },
  {
    "id": "3571000821",
    "name": "デイサービスセンターきらら光",
    "kana": "デイサービスセンターキララヒカリ",
    "address": "山口県光市小周防１６５６－８",
    "lat": 34.0194769,
    "lng": 131.9774912,
    "tel": "0833-76-0550",
    "url": "http://yu-kikai.org/",
    "pref": "山口県",
    "city": "光市",
    "category": "day_service",
    "serviceType": "通所介護",
    "capacity": 0,
    "openDays": [
      "平日",
      "土曜日",
      "日曜日",
      "祝日"
    ],
    "openDaysNote": ""
  },
  {
    "id": "3571000573",
    "name": "デイサービスセンターひかり苑",
    "kana": "デイサービスセンターヒカリエン",
    "address": "山口県光市大字三井１０４６番地１",
    "lat": 33.9927152,
    "lng": 131.9509161,
    "tel": "０８３３－７６－１１７０",
    "url": "http://www.hikari-en.jp",
    "pref": "山口県",
    "city": "光市",
    "category": "day_service",
    "serviceType": "通所介護",
    "capacity": 0,
    "openDays": [
      "平日",
      "土曜日",
      "祝日"
    ],
    "openDaysNote": ""
  },
  {
    "id": "3571000565",
    "name": "デーサービス風車ひかり",
    "kana": "デイサービス　フウシャ　ヒカリ",
    "address": "光市光が丘４番５号",
    "lat": 33.9811768,
    "lng": 131.9208747,
    "tel": "0833-48-8085",
    "url": "",
    "pref": "山口県",
    "city": "光市",
    "category": "day_service",
    "serviceType": "通所介護",
    "capacity": 100,
    "openDays": [
      "平日",
      "土曜日",
      "祝日"
    ],
    "openDaysNote": ""
  },
  {
    "id": "3571000177",
    "name": "ニチイケアセンター光",
    "kana": "ニチイケアセンターヒカリ",
    "address": "山口県光市木園1-5-32",
    "lat": 33.978313875443,
    "lng": 131.93033018746,
    "tel": "0833-74-2888",
    "url": "",
    "pref": "山口県",
    "city": "光市",
    "category": "day_service",
    "serviceType": "通所介護",
    "capacity": 24,
    "openDays": [
      "平日",
      "土曜日",
      "日曜日",
      "祝日"
    ],
    "openDaysNote": ""
  },
  {
    "id": "3577300175",
    "name": "やまと苑デイサービスセンター",
    "kana": "ヤマトエンデイサービスセンター",
    "address": "山口県光市大字岩田２６７番地",
    "lat": 33.974638,
    "lng": 131.9886271,
    "tel": "0820-48-4333",
    "url": "http://www.yamatoｆukushikai.jp/",
    "pref": "山口県",
    "city": "光市",
    "category": "day_service",
    "serviceType": "通所介護",
    "capacity": 0,
    "openDays": [
      "平日",
      "土曜日",
      "祝日"
    ],
    "openDaysNote": "特になし"
  },
  {
    "id": "3571000722",
    "name": "株式会社ミズタ　デイサービス美ら海",
    "kana": "カブシキガイシャミズタデイサービチュラミ",
    "address": "山口県光市室積8丁目3番1号デイサービス美ら海 デイサービス美ら海",
    "lat": 33.9213298,
    "lng": 131.9696161,
    "tel": "0833-79-3322",
    "url": "",
    "pref": "山口県",
    "city": "光市",
    "category": "day_service",
    "serviceType": "通所介護",
    "capacity": 30,
    "openDays": [
      "平日",
      "土曜日",
      "祝日"
    ],
    "openDaysNote": ""
  },
  {
    "id": "3571000060",
    "name": "光寿苑デイサービスセンター",
    "kana": "コウジュエンデイサービスセンター",
    "address": "山口県光市室積沖田3035番地1",
    "lat": 33.9348140351078,
    "lng": 131.974369188808,
    "tel": "0833-79-0777",
    "url": "https://koujyuen-top.jimdofree.com/光寿苑デイサービスセンター",
    "pref": "山口県",
    "city": "光市",
    "category": "day_service",
    "serviceType": "通所介護",
    "capacity": 0,
    "openDays": [
      "平日",
      "土曜日",
      "祝日"
    ],
    "openDaysNote": "特になし"
  },
  {
    "id": "3571000052",
    "name": "光富士白苑デイサービスセンター",
    "kana": "ヒカリフジシロエンデイサービスセンター",
    "address": "山口県光市虹ヶ浜2丁目5番12号",
    "lat": 33.968867,
    "lng": 131.9183864,
    "tel": "0833-71-1788",
    "url": "http://www.h-fuji.com/",
    "pref": "山口県",
    "city": "光市",
    "category": "day_service",
    "serviceType": "通所介護",
    "capacity": 40,
    "openDays": [
      "平日",
      "土曜日",
      "祝日"
    ],
    "openDaysNote": ""
  },
  {
    "id": "3571000870",
    "name": "在宅リハビリテーション光ケ丘",
    "kana": "ザイタクリハビリテーションヒカリガオカ",
    "address": "山口県光市光ケ丘5番18号高齢者複合施設ひかり苑 高齢者複合施設ひかり苑",
    "lat": 33.9813378,
    "lng": 131.9192721,
    "tel": "0833-74-1201",
    "url": "URLhttp://www.hikari-en.jp",
    "pref": "山口県",
    "city": "光市",
    "category": "day_service",
    "serviceType": "通所介護",
    "capacity": 0,
    "openDays": [
      "平日",
      "土曜日",
      "祝日"
    ],
    "openDaysNote": "特になし。"
  },
  {
    "id": "3571000912",
    "name": "指定通所介護事業所ほっとはーと",
    "kana": "シテイツウショカイゴジギョウショ　ホットハ-ト",
    "address": "山口県光市虹ケ浜1-1-10ケアホームあさひ ケアホームあさひ",
    "lat": 33.9741545,
    "lng": 131.9198215,
    "tel": "0833-48-7165",
    "url": "https://hot-heart.co.jp",
    "pref": "山口県",
    "city": "光市",
    "category": "day_service",
    "serviceType": "通所介護",
    "capacity": 0,
    "openDays": [
      "平日",
      "土曜日",
      "祝日"
    ],
    "openDaysNote": ""
  },
  {
    "id": "3570302426",
    "name": "あじす陽だまりの家デイサービス",
    "kana": "アジスヒダマリノイエデイサービス",
    "address": "山口県山口市阿知須4724-1",
    "lat": 34.0085341508216,
    "lng": 131.35730694313,
    "tel": "0836-65-5166",
    "url": "",
    "pref": "山口県",
    "city": "山口市",
    "category": "day_service",
    "serviceType": "通所介護",
    "capacity": 0,
    "openDays": [
      "平日",
      "土曜日",
      "祝日"
    ],
    "openDaysNote": ""
  },
  {
    "id": "3570303812",
    "name": "ウェルネスセンター中央　デイトレセンター",
    "kana": "ウェルネスセンターチュウオウ　デイトレセンター",
    "address": "山口県山口市神田町1-42",
    "lat": 34.1717333,
    "lng": 131.4573046,
    "tel": "083-902-5290",
    "url": "http://www.seirankai.or.jp",
    "pref": "山口県",
    "city": "山口市",
    "category": "day_service",
    "serviceType": "通所介護",
    "capacity": 100,
    "openDays": [
      "平日",
      "土曜日",
      "日曜日",
      "祝日"
    ],
    "openDaysNote": "特になし"
  },
  {
    "id": "3570303689",
    "name": "ケアタウン日の山デイサービスセンター",
    "kana": "ケアタウンヒノヤマデイサービスセンター",
    "address": "山口県山口市阿知須2581-1ケアタウン日の山 ケアタウン日の山",
    "lat": 33.9990896241635,
    "lng": 131.353138690346,
    "tel": "0836-39-8482",
    "url": "https://www.mubekouei.com",
    "pref": "山口県",
    "city": "山口市",
    "category": "day_service",
    "serviceType": "通所介護",
    "capacity": 0,
    "openDays": [
      "平日",
      "土曜日",
      "祝日"
    ],
    "openDaysNote": ""
  },
  {
    "id": "3570302988",
    "name": "ケアホーム小郡デイサービスセンター",
    "kana": "ケアホームオゴオリデイサービスセンター",
    "address": "山口県山口市小郡新町２丁目１０番２１号",
    "lat": 34.1144694,
    "lng": 131.3958707,
    "tel": "083-974-5111",
    "url": "https://care-net.biz/35/carehomeogoori/",
    "pref": "山口県",
    "city": "山口市",
    "category": "day_service",
    "serviceType": "通所介護",
    "capacity": 0,
    "openDays": [
      "平日",
      "土曜日",
      "祝日"
    ],
    "openDaysNote": ""
  },
  {
    "id": "3570303218",
    "name": "ケアライフ山口デイサービスセンター",
    "kana": "ケアライフヤマグチデイサービスセンター",
    "address": "山口県山口市大内問田3-18-10ケアライフ山口 ケアライフ山口",
    "lat": 34.15112845339,
    "lng": 131.484690100042,
    "tel": "083-920-1765",
    "url": "https://bestlife1165.com/",
    "pref": "山口県",
    "city": "山口市",
    "category": "day_service",
    "serviceType": "通所介護",
    "capacity": 80,
    "openDays": [
      "平日",
      "土曜日",
      "日曜日",
      "祝日"
    ],
    "openDaysNote": "通常サービス提供時間は、午前8時45分から午後17時00分までとする。"
  },
  {
    "id": "3570302293",
    "name": "ケアライフ小鯖デイサービスセンター",
    "kana": "ケアライフオサバデイサービスセンター",
    "address": "山口県山口市下小鯖520",
    "lat": 34.147836224528,
    "lng": 131.524415580374,
    "tel": "083-941-1765",
    "url": "http://carelife1165.web.fc2.com/index.html",
    "pref": "山口県",
    "city": "山口市",
    "category": "day_service",
    "serviceType": "通所介護",
    "capacity": 0,
    "openDays": [
      "平日",
      "土曜日",
      "日曜日",
      "祝日"
    ],
    "openDaysNote": ""
  },
  {
    "id": "3570302939",
    "name": "サービス付き高齢者向け住宅　にじのさと",
    "kana": "サービスツキコウレイシャムケジュウタク　ニジノサト",
    "address": "山口市仁保下郷沖田734-1",
    "lat": 34.1942591142854,
    "lng": 131.537359908598,
    "tel": "083-929-1100",
    "url": "",
    "pref": "山口県",
    "city": "山口市",
    "category": "day_service",
    "serviceType": "通所介護",
    "capacity": 0,
    "openDays": [
      "平日",
      "土曜日",
      "祝日"
    ],
    "openDaysNote": "国民の休日及び12/29から1/3までを除く。"
  },
  {
    "id": "3570301493",
    "name": "サンキ・ウエルビィ　デイサービスセンター山口",
    "kana": "サンキウエルビィデイサービスセンターヤマグチ",
    "address": "山口県山口市平井1417-8マンション平川1F マンション平川1F",
    "lat": 34.1457623,
    "lng": 131.4596581,
    "tel": "083-923-3611",
    "url": "",
    "pref": "山口県",
    "city": "山口市",
    "category": "day_service",
    "serviceType": "通所介護",
    "capacity": 29,
    "openDays": [
      "平日",
      "祝日"
    ],
    "openDaysNote": "緊急の場合は、電話等により24時間常時連絡が可能な体制をとるものとします。"
  },
  {
    "id": "3570303606",
    "name": "ツクイ山口",
    "kana": "ツクイヤマグチ",
    "address": "大内御堀六丁目2番5号",
    "lat": 34.1650776,
    "lng": 131.4856727,
    "tel": "083-934-7225",
    "url": "https://corp.tsukui.net/",
    "pref": "山口県",
    "city": "山口市",
    "category": "day_service",
    "serviceType": "通所介護",
    "capacity": 0,
    "openDays": [
      "平日",
      "土曜日",
      "日曜日",
      "祝日"
    ],
    "openDaysNote": "365日営業"
  },
  {
    "id": "3570301071",
    "name": "デイサービス　花咲美",
    "kana": "デイサービス　カザミ",
    "address": "山口市大内矢田北6丁目4番26号",
    "lat": 34.1540582908046,
    "lng": 131.511777879099,
    "tel": "083-941-1288",
    "url": "http://ds-kazami.com/",
    "pref": "山口県",
    "city": "山口市",
    "category": "day_service",
    "serviceType": "通所介護",
    "capacity": 0,
    "openDays": [
      "平日",
      "土曜日",
      "祝日"
    ],
    "openDaysNote": ""
  },
  {
    "id": "3570302624",
    "name": "デイサービス「マザーベル湯田温泉」",
    "kana": "デイサービスマザーベルユダオンセン",
    "address": "湯田温泉4丁目3-15",
    "lat": 34.1654645,
    "lng": 131.4552087,
    "tel": "083-902-8080",
    "url": "",
    "pref": "山口県",
    "city": "山口市",
    "category": "day_service",
    "serviceType": "通所介護",
    "capacity": 0,
    "openDays": [
      "平日",
      "土曜日",
      "日曜日",
      "祝日"
    ],
    "openDaysNote": ""
  },
  {
    "id": "3570303788",
    "name": "デイサービスアドバンス湯田",
    "kana": "デイサービスアドバンスユダ",
    "address": "山口県山口市湯田温泉１丁目１番７号",
    "lat": 34.1658627,
    "lng": 131.4604273,
    "tel": "083-902-5551",
    "url": "",
    "pref": "山口県",
    "city": "山口市",
    "category": "day_service",
    "serviceType": "通所介護",
    "capacity": null,
    "openDays": [
      "平日",
      "土曜日",
      "日曜日",
      "祝日"
    ],
    "openDaysNote": "2単位営業。1単位目（定員35名）、2単位目（定員25名）"
  },
  {
    "id": "3570301634",
    "name": "デイサービスおはな",
    "kana": "デイサービスオハナ",
    "address": "山口県山口市徳地堀1751",
    "lat": 34.1883463194183,
    "lng": 131.655849667984,
    "tel": "0835-52-1787",
    "url": "http://おはな.com",
    "pref": "山口県",
    "city": "山口市",
    "category": "day_service",
    "serviceType": "通所介護",
    "capacity": 38,
    "openDays": [
      "平日",
      "土曜日",
      "祝日"
    ],
    "openDaysNote": ""
  },
  {
    "id": "3570301535",
    "name": "デイサービスセンター　むっちゃん方",
    "kana": "デイサービスセンター　ムッチャンカタ",
    "address": "山口市徳地島地590-2",
    "lat": 34.1646131,
    "lng": 131.6955169,
    "tel": "0835-54-0505",
    "url": "",
    "pref": "山口県",
    "city": "山口市",
    "category": "day_service",
    "serviceType": "通所介護",
    "capacity": 20,
    "openDays": [
      "平日",
      "土曜日",
      "祝日"
    ],
    "openDaysNote": "8/14～16　12/30～1/4　休日"
  },
  {
    "id": "3570303036",
    "name": "デイサービスセンターおおうち",
    "kana": "デイサービスセンターオオウチ",
    "address": "山口県山口市大内千坊六丁目１１－２",
    "lat": 34.1582146,
    "lng": 131.4935645,
    "tel": "０８３－９４１－６１７０",
    "url": "http://i-kenshinkai.com/",
    "pref": "山口県",
    "city": "山口市",
    "category": "day_service",
    "serviceType": "通所介護",
    "capacity": 25,
    "openDays": [
      "平日",
      "土曜日",
      "祝日"
    ],
    "openDaysNote": ""
  },
  {
    "id": "3570302970",
    "name": "デイサービスセンターさらら",
    "kana": "デイサービスセンターサララ",
    "address": "山口県山口市平井116-2有料老人ホームさらら 有料老人ホームさらら",
    "lat": 34.16255,
    "lng": 131.469817,
    "tel": "083-901-3001",
    "url": "http://www.ygnext.jp/",
    "pref": "山口県",
    "city": "山口市",
    "category": "day_service",
    "serviceType": "通所介護",
    "capacity": 25,
    "openDays": [
      "平日",
      "土曜日",
      "祝日"
    ],
    "openDaysNote": ""
  },
  {
    "id": "3570303499",
    "name": "デイサービスセンターしずく",
    "kana": "デイサービスセンターシズク",
    "address": "山口県山口市大内矢田北五丁目2番15号住宅型有料老人ホームReLifeしずく　内 住宅型有料老人ホームReLifeしずく　内",
    "lat": 34.1557973,
    "lng": 131.5098717,
    "tel": "083-902-8400",
    "url": "http://www.suiseikai.org",
    "pref": "山口県",
    "city": "山口市",
    "category": "day_service",
    "serviceType": "通所介護",
    "capacity": null,
    "openDays": [
      "平日",
      "土曜日",
      "日曜日",
      "祝日"
    ],
    "openDaysNote": ""
  },
  {
    "id": "3570303119",
    "name": "デイサービスセンターてしま旅館",
    "kana": "デイサービスセンターテシマリョカン",
    "address": "山口県山口市阿知須7418‐8",
    "lat": 34.0161785,
    "lng": 131.3187375,
    "tel": "0836-65-2248",
    "url": "",
    "pref": "山口県",
    "city": "山口市",
    "category": "day_service",
    "serviceType": "通所介護",
    "capacity": 0,
    "openDays": [
      "平日",
      "土曜日",
      "祝日"
    ],
    "openDaysNote": ""
  },
  {
    "id": "3570303549",
    "name": "デイサービスセンター空音",
    "kana": "デイサービスセンターソラオト",
    "address": "小郡下郷3358-3有料老人ホーム花音 有料老人ホーム花音",
    "lat": 34.0843035,
    "lng": 131.3879251,
    "tel": "839768427",
    "url": "https://www.hananone-soraoto.com/",
    "pref": "山口県",
    "city": "山口市",
    "category": "day_service",
    "serviceType": "通所介護",
    "capacity": 0,
    "openDays": [
      "平日",
      "土曜日"
    ],
    "openDaysNote": ""
  },
  {
    "id": "3570302921",
    "name": "デイサービスセンター四つ葉",
    "kana": "デイサービスセンターヨツバ",
    "address": "山口県山口市宮野下１１３８４－１",
    "lat": 34.190387206987,
    "lng": 131.501888593701,
    "tel": "083-929-3591",
    "url": "",
    "pref": "山口県",
    "city": "山口市",
    "category": "day_service",
    "serviceType": "通所介護",
    "capacity": 0,
    "openDays": [
      "平日",
      "土曜日",
      "日曜日",
      "祝日"
    ],
    "openDaysNote": ""
  },
  {
    "id": "3570303267",
    "name": "デイサービスセンター日日",
    "kana": "デイサアビスセンタア　ニチニチ",
    "address": "山口県山口市大内長野708－2",
    "lat": 34.1661919,
    "lng": 131.5149343,
    "tel": "083－902－2345",
    "url": "https://tuna-gari.com",
    "pref": "山口県",
    "city": "山口市",
    "category": "day_service",
    "serviceType": "通所介護",
    "capacity": 25,
    "openDays": [
      "平日",
      "土曜日",
      "祝日"
    ],
    "openDaysNote": "営業時間はその利用により16:00から21:00まで延長可能"
  },
  {
    "id": "3570303283",
    "name": "デイサービスひなた",
    "kana": "デイサービスヒナタ",
    "address": "山口県山口市宮野下1395-7",
    "lat": 34.1856711573236,
    "lng": 131.493531764342,
    "tel": "083-929-3750",
    "url": "http://y-fukushi.com/",
    "pref": "山口県",
    "city": "山口市",
    "category": "day_service",
    "serviceType": "通所介護",
    "capacity": 50,
    "openDays": [
      "平日",
      "土曜日",
      "日曜日",
      "祝日"
    ],
    "openDaysNote": "なし（改行）8：30～17:00"
  },
  {
    "id": "3570303275",
    "name": "デイサービスふしの",
    "kana": "デイサービスフシノ",
    "address": "山口県山口市矢原町14-24",
    "lat": 34.155015739172,
    "lng": 131.452236942328,
    "tel": "083-929-3883",
    "url": "",
    "pref": "山口県",
    "city": "山口市",
    "category": "day_service",
    "serviceType": "通所介護",
    "capacity": null,
    "openDays": [
      "平日",
      "土曜日",
      "日曜日",
      "祝日"
    ],
    "openDaysNote": "令和6年12月31日、令和7年1月1日の通所介護(デイサービス)は休みとなります。"
  },
  {
    "id": "3570303325",
    "name": "デイサービス双葉",
    "kana": "デイサービス　フタバ",
    "address": "山口市佐山２７６８－１",
    "lat": 34.0337038549003,
    "lng": 131.356242191724,
    "tel": "083-941-6620",
    "url": "",
    "pref": "山口県",
    "city": "山口市",
    "category": "day_service",
    "serviceType": "通所介護",
    "capacity": null,
    "openDays": [
      "平日",
      "土曜日",
      "日曜日",
      "祝日"
    ],
    "openDaysNote": ""
  },
  {
    "id": "3571300528",
    "name": "テルマエ維新",
    "kana": "テルマエ維新",
    "address": "山口県山口市湯田温泉2-5-20",
    "lat": 34.1631966886703,
    "lng": 131.456334214405,
    "tel": "083-902-0270",
    "url": "http://veryhuman.jp/",
    "pref": "山口県",
    "city": "山口市",
    "category": "day_service",
    "serviceType": "通所介護",
    "capacity": 34,
    "openDays": [
      "平日"
    ],
    "openDaysNote": ""
  },
  {
    "id": "3577500071",
    "name": "とくぢ苑デイサービスセンター",
    "kana": "トクヂエンデイサービスセンター",
    "address": "山口県山口市徳地八坂1330番地",
    "lat": 34.2341075,
    "lng": 131.6599683,
    "tel": "0835-56-0010",
    "url": "www.tokudien.jp",
    "pref": "山口県",
    "city": "山口市",
    "category": "day_service",
    "serviceType": "通所介護",
    "capacity": 0,
    "openDays": [
      "平日",
      "土曜日",
      "祝日"
    ],
    "openDaysNote": "特になし"
  },
  {
    "id": "3570303093",
    "name": "なぎの森デイサービスセンター",
    "kana": "ナギノモリデイサービスセンター",
    "address": "山口市小郡下郷745-2",
    "lat": 34.0999341159471,
    "lng": 131.392088466001,
    "tel": "083-976-4707",
    "url": "http://www.hp-hayashi.or.jp/",
    "pref": "山口県",
    "city": "山口市",
    "category": "day_service",
    "serviceType": "通所介護",
    "capacity": 0,
    "openDays": [
      "平日",
      "土曜日",
      "日曜日",
      "祝日"
    ],
    "openDaysNote": ""
  },
  {
    "id": "3570302566",
    "name": "ニチイケアセンター郷",
    "kana": "ニチケアセンターゴウ",
    "address": "山口市小郡下郷2203-1",
    "lat": 34.0991545,
    "lng": 131.3906022,
    "tel": "083-974-6455",
    "url": "",
    "pref": "山口県",
    "city": "山口市",
    "category": "day_service",
    "serviceType": "通所介護",
    "capacity": 0,
    "openDays": [
      "平日",
      "土曜日",
      "祝日"
    ],
    "openDaysNote": "特になし"
  },
  {
    "id": "3570300784",
    "name": "ハートホーム南山口デイサービスセンター",
    "kana": "ハートホームミナミヤマグチデイサービスセンター",
    "address": "山口県山口市深溝803-1",
    "lat": 34.0515201,
    "lng": 131.3671632,
    "tel": "083-988-3300",
    "url": "http://www.seirankai.or.jp",
    "pref": "山口県",
    "city": "山口市",
    "category": "day_service",
    "serviceType": "通所介護",
    "capacity": 47,
    "openDays": [
      "平日",
      "土曜日",
      "祝日"
    ],
    "openDaysNote": "特になし"
  },
  {
    "id": "3570303564",
    "name": "みんなのふるさと通所介護事業所",
    "kana": "ミンナノフルサトツウショカイゴジギョウショ",
    "address": "小郡下郷1063-10",
    "lat": 34.103795265107,
    "lng": 131.401203626984,
    "tel": "083-973-2315",
    "url": "",
    "pref": "山口県",
    "city": "山口市",
    "category": "day_service",
    "serviceType": "通所介護",
    "capacity": null,
    "openDays": [
      "平日",
      "土曜日",
      "祝日"
    ],
    "openDaysNote": ""
  },
  {
    "id": "3570301972",
    "name": "ヨシヤデイサービス",
    "kana": "ヨシヤデイサービス",
    "address": "山口県山口市徳地堀3939番地1",
    "lat": 34.1778118906161,
    "lng": 131.628726124764,
    "tel": "0835-52-0200",
    "url": "",
    "pref": "山口県",
    "city": "山口市",
    "category": "day_service",
    "serviceType": "通所介護",
    "capacity": 0,
    "openDays": [
      "平日",
      "土曜日",
      "祝日"
    ],
    "openDaysNote": ""
  },
  {
    "id": "3578100152",
    "name": "阿東園デイサービスセンター",
    "kana": "アトウエンデイサービスセンター",
    "address": "山口県山口市阿東地福下２８８番地１",
    "lat": 34.3439371,
    "lng": 131.6312193,
    "tel": "083-952-1126",
    "url": "https://www.c-able.ne.jp/~atouen",
    "pref": "山口県",
    "city": "山口市",
    "category": "day_service",
    "serviceType": "通所介護",
    "capacity": 0,
    "openDays": [
      "平日",
      "土曜日",
      "祝日"
    ],
    "openDaysNote": "通常勤務（8：30～17：30）遅出勤務（9：00～18：00）早出（8:00～17:00）で構成"
  },
  {
    "id": "3570301923",
    "name": "一の坂デイサービスセンター",
    "kana": "イチノサカデイサービスセンター",
    "address": "山口市後河原23番地３",
    "lat": 34.186287,
    "lng": 131.4756487,
    "tel": "083-941-6337",
    "url": "http://www.kizuna-y.jp",
    "pref": "山口県",
    "city": "山口市",
    "category": "day_service",
    "serviceType": "通所介護",
    "capacity": 0,
    "openDays": [
      "平日",
      "土曜日",
      "日曜日",
      "祝日"
    ],
    "openDaysNote": "悪天候（豪雨・大雪）又は自然災害（地震等）により営業時間の変更を行うことがあります。"
  },
  {
    "id": "3570301469",
    "name": "済生会山口地域ケアセンター居宅介護サービス複合施設にほ苑通所介護事業所",
    "kana": "サイセイカイヤマグチチイキケアセンターキョタクカイゴサービスフクゴウシセツニホエンツウショカイゴジギョウショ",
    "address": "山口市仁保中郷988-1",
    "lat": 34.2098807,
    "lng": 131.5594984,
    "tel": "083-929-5083",
    "url": "",
    "pref": "山口県",
    "city": "山口市",
    "category": "day_service",
    "serviceType": "通所介護",
    "capacity": 25,
    "openDays": [
      "平日",
      "土曜日",
      "祝日"
    ],
    "openDaysNote": ""
  },
  {
    "id": "3570300289",
    "name": "済生会山口地域ケアセンター在宅複合型施設やすらぎデイサービスセンター朝倉",
    "kana": "サイセイカイヤマグチチイキケアセンターザイタクフクゴウガタシセツヤスラギデイサービスセンターアサクラ",
    "address": "山口市朝倉４－５５－６",
    "lat": 34.1763789,
    "lng": 131.4534627,
    "tel": "083-924-6652",
    "url": "http://www.c-able.ne.jp/~saiyama/top2html",
    "pref": "山口県",
    "city": "山口市",
    "category": "day_service",
    "serviceType": "通所介護",
    "capacity": 50,
    "openDays": [
      "平日",
      "土曜日",
      "祝日"
    ],
    "openDaysNote": ""
  },