[
  {
    "id": "1972200107",
    "name": "サンコート勝沼　デイサービスセンター",
    "kana": "サンコートカツヌマ　デイサービスセンター",
    "address": "山梨県甲州市勝沼町山1409番地5",
    "lat": 35.679541,
    "lng": 138.7250637,
    "tel": "0553-44-5571",
    "url": "",
    "pref": "山梨県",
    "city": "甲州市",
    "category": "day_service",
    "serviceType": "通所介護",
    "capacity": null,
    "openDays": [
      "平日",
      "土曜日",
      "祝日"
    ],
    "openDaysNote": ""
  },
  {
    "id": "1972200180",
    "name": "はやぶさデイサービスセンター",
    "kana": "ハヤブサデイサービスセンター",
    "address": "塩山小屋敷1669-1",
    "lat": 35.7297362,
    "lng": 138.7120449,
    "tel": "0553-20-6600",
    "url": "",
    "pref": "山梨県",
    "city": "甲州市",
    "category": "day_service",
    "serviceType": "通所介護",
    "capacity": 0,
    "openDays": [
      "平日",
      "土曜日",
      "祝日"
    ],
    "openDaysNote": ""
  },
  {
    "id": "1972200115",
    "name": "ひかり横丁指定通所介護事業所",
    "kana": "ヒカリヨコチョウシテイツウショカイゴジギョウショ",
    "address": "山梨県甲州市塩山赤尾507－1",
    "lat": 35.7070768,
    "lng": 138.7369317,
    "tel": "0553-33-1177",
    "url": "http://www.koufuukai-yamanashi.or.jp/",
    "pref": "山梨県",
    "city": "甲州市",
    "category": "day_service",
    "serviceType": "通所介護",
    "capacity": 0,
    "openDays": [
      "平日",
      "土曜日",
      "祝日"
    ],
    "openDaysNote": "・年末（１２月２９日～３１日）のサービス提供時間は９時２０分～１４時３０分までとする。"
  },
  {
    "id": "1970400063",
    "name": "やさしい手勝沼事業所",
    "kana": "ヤサシイテカツヌマジギョウショ",
    "address": "山梨県甲州市勝沼町休息1867-2",
    "lat": 35.6773161,
    "lng": 138.7206474,
    "tel": "0553-44-5160",
    "url": "",
    "pref": "山梨県",
    "city": "甲州市",
    "category": "day_service",
    "serviceType": "通所介護",
    "capacity": 0,
    "openDays": [
      "平日",
      "土曜日",
      "日曜日",
      "祝日"
    ],
    "openDaysNote": "1月1日及び全社合同研修日（1月中1回程度）"
  },
  {
    "id": "1970300016",
    "name": "光風園指定通所介護事業所",
    "kana": "コウフウエンシテイツウショカイゴジギョウショ",
    "address": "山梨県甲州市塩山西野原603",
    "lat": 35.6891181,
    "lng": 138.7361517,
    "tel": "0553-33-7511",
    "url": "http://www.koufuukai-yamanashi.or.jp/",
    "pref": "山梨県",
    "city": "甲州市",
    "category": "day_service",
    "serviceType": "通所介護",
    "capacity": 0,
    "openDays": [
      "平日",
      "土曜日",
      "祝日"
    ],
    "openDaysNote": "・年末（12月29日～31日）のサービス提供時間は9時20分～14時30分までとする。"
  },
  {
    "id": "1972200131",
    "name": "甲州市大和デイサービスセンター",
    "kana": "コウシュウシヤマトデイサービスセンター",
    "address": "甲州市大和町田野77番地",
    "lat": 35.6461232,
    "lng": 138.8094683,
    "tel": "0553-48-2747",
    "url": "http://www.yasashiite-kofu.co.jp/company/",
    "pref": "山梨県",
    "city": "甲州市",
    "category": "day_service",
    "serviceType": "通所介護",
    "capacity": 0,
    "openDays": [
      "平日",
      "土曜日",
      "祝日"
    ],
    "openDaysNote": "1月1日及び全社合同研修日（1月中1回程度）"
  },
  {
    "id": "1971700586",
    "name": "あい下今井",
    "kana": "アイシモイマイ",
    "address": "下今井2689-3あい下今井 あい下今井",
    "lat": 35.6799931,
    "lng": 138.5027971,
    "tel": "0551-45-7755",
    "url": "http://www.shinnihontsuusan.co.jp/index.html",
    "pref": "山梨県",
    "city": "甲斐市",
    "category": "day_service",
    "serviceType": "通所介護",
    "capacity": null,
    "openDays": [
      "平日",
      "祝日"
    ],
    "openDaysNote": ""
  },
  {
    "id": "1971700594",
    "name": "あい響が丘",
    "kana": "アイヒビキガオカ",
    "address": "龍地3066-1あい響が丘 あい響が丘",
    "lat": 35.6823373,
    "lng": 138.5079464,
    "tel": "0551-45-7333",
    "url": "http://www.shinnihontsuusan.co.jp/index.html",
    "pref": "山梨県",
    "city": "甲斐市",
    "category": "day_service",
    "serviceType": "通所介護",
    "capacity": null,
    "openDays": [
      "平日",
      "祝日"
    ],
    "openDaysNote": ""
  },
  {
    "id": "1971700735",
    "name": "あい竜王丘",
    "kana": "アイリュウオウオカ",
    "address": "甲斐市西八幡869番地",
    "lat": 35.6382157,
    "lng": 138.5258262,
    "tel": "055-287-8488",
    "url": "",
    "pref": "山梨県",
    "city": "甲斐市",
    "category": "day_service",
    "serviceType": "通所介護",
    "capacity": null,
    "openDays": [
      "平日",
      "祝日"
    ],
    "openDaysNote": ""
  },
  {
    "id": "1971700693",
    "name": "ケアステーションあさひ甲斐下今井",
    "kana": "ケアステーションアサヒカイシモイマイ",
    "address": "山梨県甲斐市下今井2791-1ケアステーションあさひ甲斐下今井 ケアステーションあさひ甲斐下今井",
    "lat": 35.6785686,
    "lng": 138.5030175,
    "tel": "0551-28-8001",
    "url": "",
    "pref": "山梨県",
    "city": "甲斐市",
    "category": "day_service",
    "serviceType": "通所介護",
    "capacity": null,
    "openDays": [
      "平日",
      "土曜日",
      "日曜日",
      "祝日"
    ],
    "openDaysNote": ""
  },
  {
    "id": "1971700677",
    "name": "ケアステーションあさひ甲斐西八幡",
    "kana": "ケアステーションアサヒカイニシヤハタ",
    "address": "山梨県甲斐市西八幡字西冷間2328",
    "lat": 35.6400238,
    "lng": 138.5201961,
    "tel": "055-260-6677",
    "url": "http://www.vati.co.jp/",
    "pref": "山梨県",
    "city": "甲斐市",
    "category": "day_service",
    "serviceType": "通所介護",
    "capacity": null,
    "openDays": [
      "平日",
      "土曜日",
      "日曜日",
      "祝日"
    ],
    "openDaysNote": ""
  },
  {
    "id": "1971700958",
    "name": "サンクシアデイサービスセンター",
    "kana": "サンクシアデイサービスセンター",
    "address": "山梨県甲斐市西八幡637",
    "lat": 35.6521842,
    "lng": 138.513938,
    "tel": "055-287-8671",
    "url": "",
    "pref": "山梨県",
    "city": "甲斐市",
    "category": "day_service",
    "serviceType": "通所介護",
    "capacity": null,
    "openDays": [
      "平日",
      "土曜日",
      "祝日"
    ],
    "openDaysNote": ""
  },
  {
    "id": "1970800718",
    "name": "しまのさとデイサービスセンター",
    "kana": "シマノサトデイサービスセンター",
    "address": "山梨県甲斐市島上条2545",
    "lat": 35.6901699,
    "lng": 138.5213349,
    "tel": "055-267-3331",
    "url": "shimanosato.net",
    "pref": "山梨県",
    "city": "甲斐市",
    "category": "day_service",
    "serviceType": "通所介護",
    "capacity": 5,
    "openDays": [
      "平日",
      "土曜日",
      "祝日"
    ],
    "openDaysNote": ""
  },
  {
    "id": "1971700149",
    "name": "デイサービス　　わたぼうし",
    "kana": "デイサービス　ワタボウシ",
    "address": "山梨県甲斐市西八幡4027-1",
    "lat": 35.6379933,
    "lng": 138.5144606,
    "tel": "055-276-8810",
    "url": "",
    "pref": "山梨県",
    "city": "甲斐市",
    "category": "day_service",
    "serviceType": "通所介護",
    "capacity": null,
    "openDays": [
      "平日",
      "土曜日",
      "日曜日",
      "祝日"
    ],
    "openDaysNote": ""
  },
  {
    "id": "1971700966",
    "name": "デイサービスAPPLE'S",
    "kana": "デイサービスアップルズ",
    "address": "甲斐市龍地3047デイサービスAPPLE'S デイサービスAPPLE'S",
    "lat": 35.684331,
    "lng": 138.511905,
    "tel": "551457471",
    "url": "https://llc-narumi.com/",
    "pref": "山梨県",
    "city": "甲斐市",
    "category": "day_service",
    "serviceType": "通所介護",
    "capacity": null,
    "openDays": [
      "平日",
      "土曜日",
      "日曜日",
      "祝日"
    ],
    "openDaysNote": "（お盆休み、年末年始以外は年中無休。場合によってはその限りではない）"
  },
  {
    "id": "1971700297",
    "name": "デイサービスあしたも元気",
    "kana": "デイサービスアシタモゲンキ",
    "address": "山梨県甲斐市玉川１－３",
    "lat": 35.6403959,
    "lng": 138.5179269,
    "tel": "055-267-8730",
    "url": "",
    "pref": "山梨県",
    "city": "甲斐市",
    "category": "day_service",
    "serviceType": "通所介護",
    "capacity": null,
    "openDays": [
      "平日",
      "土曜日",
      "祝日"
    ],
    "openDaysNote": ""
  },
  {
    "id": "1971700784",
    "name": "デイサービスセンタ－幸せのリボン",
    "kana": "デイサービスセンターシアワセノリボン",
    "address": "山梨県甲斐市岩森184-1",
    "lat": 35.6941414,
    "lng": 138.4871985,
    "tel": "0551-28-8888",
    "url": "http://siawasenoribbon.com",
    "pref": "山梨県",
    "city": "甲斐市",
    "category": "day_service",
    "serviceType": "通所介護",
    "capacity": 28,
    "openDays": [
      "平日",
      "土曜日",
      "祝日"
    ],
    "openDaysNote": ""
  },
  {
    "id": "1971700131",
    "name": "デイサービスセンターふるさと",
    "kana": "デイサービスセンターフルサト",
    "address": "山梨県甲斐市篠原884番地2",
    "lat": 35.6488309,
    "lng": 138.5264314,
    "tel": "055-276-0840",
    "url": "",
    "pref": "山梨県",
    "city": "甲斐市",
    "category": "day_service",
    "serviceType": "通所介護",
    "capacity": null,
    "openDays": [
      "平日",
      "祝日"
    ],
    "openDaysNote": "なし"
  },
  {
    "id": "1971700362",
    "name": "デイサービスセンターふるさと敷島",
    "kana": "デイサービスセンターフルサトシキシマ",
    "address": "甲斐市大下条425-1",
    "lat": 35.6727774,
    "lng": 138.5255723,
    "tel": "055-287-9059",
    "url": "",
    "pref": "山梨県",
    "city": "甲斐市",
    "category": "day_service",
    "serviceType": "通所介護",
    "capacity": null,
    "openDays": [
      "平日",
      "祝日"
    ],
    "openDaysNote": ""
  },
  {
    "id": "1971700321",
    "name": "デイサービスセンター赤坂台",
    "kana": "デイサービスセンターアカサカダイ",
    "address": "山梨県甲斐市篠原315-3",
    "lat": 35.6532830151387,
    "lng": 138.521761115771,
    "tel": "055-279-5222",
    "url": "http://akasakadai.com/",
    "pref": "山梨県",
    "city": "甲斐市",
    "category": "day_service",
    "serviceType": "通所介護",
    "capacity": null,
    "openDays": [
      "平日",
      "土曜日",
      "祝日"
    ],
    "openDaysNote": ""
  },
  {
    "id": "1971701048",
    "name": "デイサービスセンター敷島荘",
    "kana": "デイサービスセンターシキシマソウ",
    "address": "山梨県甲斐市中下条1136-1",
    "lat": 35.6816216,
    "lng": 138.5233874,
    "tel": "055-287-7822",
    "url": "http://shikishimasou.net/",
    "pref": "山梨県",
    "city": "甲斐市",
    "category": "day_service",
    "serviceType": "通所介護",
    "capacity": null,
    "openDays": [
      "平日",
      "土曜日",
      "祝日"
    ],
    "openDaysNote": ""
  },
  {
    "id": "1971700651",
    "name": "デイサービスだんだん",
    "kana": "デイサービスダンダン",
    "address": "山梨県甲斐市竜王1560番地",
    "lat": 35.6641757,
    "lng": 138.5118353,
    "tel": "055-276-2923",
    "url": "",
    "pref": "山梨県",
    "city": "甲斐市",
    "category": "day_service",
    "serviceType": "通所介護",
    "capacity": 10,
    "openDays": [
      "平日",
      "祝日"
    ],
    "openDaysNote": "営業日：月曜日～金曜日　（改行）休　み：土曜日、日曜日、12月31日～1月3日（改行）営業時間：8時30分～17時30分（改行）サービス提供時間：9時00分～16時30分（改行）時間延長可能"
  },
  {
    "id": "1970800593",
    "name": "ニチイケアセンター甲斐",
    "kana": "ニチイケアセンターカイ",
    "address": "山梨県甲斐市篠原1659",
    "lat": 35.6503347,
    "lng": 138.5243043,
    "tel": "055-260-7060",
    "url": "http://www.nichiigakkan.co.jp/",
    "pref": "山梨県",
    "city": "甲斐市",
    "category": "day_service",
    "serviceType": "通所介護",
    "capacity": 0,
    "openDays": [
      "平日",
      "土曜日",
      "祝日"
    ],
    "openDaysNote": ""
  },
  {
    "id": "1970800189",
    "name": "めぐみ荘デイサービスセンター",
    "kana": "メグミソウデイサービスセンター",
    "address": "山梨県甲斐市竜王644-5",
    "lat": 35.671283,
    "lng": 138.5076273,
    "tel": "055-278-0881",
    "url": "",
    "pref": "山梨県",
    "city": "甲斐市",
    "category": "day_service",
    "serviceType": "通所介護",
    "capacity": null,
    "openDays": [
      "平日",
      "土曜日",
      "日曜日",
      "祝日"
    ],
    "openDaysNote": ""
  },
  {
    "id": "1971700255",
    "name": "ゆめみどりデイサービスセンター",
    "kana": "ユメミドリデイサービスセンター",
    "address": "山梨県甲斐市玉川１７００－１",
    "lat": 35.6331636,
    "lng": 138.5227571,
    "tel": "055-278-2800",
    "url": "http://www.kashinokai.or.jp/",
    "pref": "山梨県",
    "city": "甲斐市",
    "category": "day_service",
    "serviceType": "通所介護",
    "capacity": 0,
    "openDays": [
      "平日",
      "土曜日",
      "祝日"
    ],
    "openDaysNote": ""
  },
  {
    "id": "1971000284",
    "name": "医療法人静正会三井クリニックデイサービスセンター福福",
    "kana": "イリョウホウジンセイセイカイミツイクリニックデイサービスセンターフクフク",
    "address": "山梨県甲斐市宇津谷４０３６－１",
    "lat": 35.7005209,
    "lng": 138.4764937,
    "tel": "0551-28-5110",
    "url": "",
    "pref": "山梨県",
    "city": "甲斐市",
    "category": "day_service",
    "serviceType": "通所介護",
    "capacity": 0,
    "openDays": [
      "平日",
      "土曜日",
      "祝日"
    ],
    "openDaysNote": "日曜以外は祝日も対応"
  },
  {
    "id": "1971700487",
    "name": "希光庵",
    "kana": "キコウアン",
    "address": "山梨県甲斐市大下条１１２１－１",
    "lat": 35.6749522,
    "lng": 138.5265777,
    "tel": "０５５－２７７－６６２７",
    "url": "",
    "pref": "山梨県",
    "city": "甲斐市",
    "category": "day_service",
    "serviceType": "通所介護",
    "capacity": null,
    "openDays": [
      "平日",
      "土曜日",
      "日曜日",
      "祝日"
    ],
    "openDaysNote": "延長利用希望等がある場合には対応可能"
  },
  {
    "id": "1971700891",
    "name": "甲斐ケアセンターそよ風",
    "kana": "カイケアケンターソヨカゼ",
    "address": "大下条869-1",
    "lat": 35.6746541,
    "lng": 138.5201646,
    "tel": "055-267-2026",
    "url": "",
    "pref": "山梨県",
    "city": "甲斐市",
    "category": "day_service",
    "serviceType": "通所介護",
    "capacity": 0,
    "openDays": [
      "平日",
      "土曜日",
      "祝日"
    ],
    "openDaysNote": ""
  },
  {
    "id": "1961790043",
    "name": "双葉デイサービスセンター指定通所介護事業所",
    "kana": "フタバデイサービスセンターシテイツウショカイゴジギョウショ",
    "address": "山梨県甲斐市宇津谷1103",
    "lat": 35.6955578,
    "lng": 138.4821322,
    "tel": "0551-20-3600",
    "url": "http://www.hikarinosato.com",
    "pref": "山梨県",
    "city": "甲斐市",
    "category": "day_service",
    "serviceType": "通所介護",
    "capacity": 35,
    "openDays": [
      "平日",
      "祝日"
    ],
    "openDaysNote": "特になし"
  },
  {
    "id": "1971000334",
    "name": "宅老所（デイサーヒス）みーんなあつまれ",
    "kana": "タクロウショ（デイサービス）ミーンナアツマレ",
    "address": "山梨県甲斐市下今井2472-2",
    "lat": 35.6825317,
    "lng": 138.5046357,
    "tel": "0551-28-3273",
    "url": "http://www15.plala.or.jp/atumare/",
    "pref": "山梨県",
    "city": "甲斐市",
    "category": "day_service",
    "serviceType": "通所介護",
    "capacity": null,
    "openDays": [
      "平日",
      "土曜日",
      "日曜日",
      "祝日"
    ],
    "openDaysNote": "特になし"
  },
  {
    "id": "1971700669",
    "name": "通所介護上機嫌",
    "kana": "ツウショカイゴジョウキゲン",
    "address": "山梨県甲斐市下今井2977",
    "lat": 35.675421,
    "lng": 138.501266,
    "tel": "0551-45-6700",
    "url": "https://jo-kigen.jp/",
    "pref": "山梨県",
    "city": "甲斐市",
    "category": "day_service",
    "serviceType": "通所介護",
    "capacity": 0,
    "openDays": [
      "平日",
      "土曜日",
      "祝日"
    ],
    "openDaysNote": ""
  },
  {
    "id": "1971700701",
    "name": "和音デイサービス",
    "kana": "ワオンデイサービス",
    "address": "山梨県甲斐市富竹新田４１６－５和音デイサービス 和音デイサービス",
    "lat": 35.6614818,
    "lng": 138.5281641,
    "tel": "055-279-0670",
    "url": "",
    "pref": "山梨県",
    "city": "甲斐市",
    "category": "day_service",
    "serviceType": "通所介護",
    "capacity": null,
    "openDays": [
      "平日",
      "祝日"
    ],
    "openDaysNote": ""
  },
  {
    "id": "1970102891",
    "name": "ＮＰＯ法人デイサービスかんむら",
    "kana": "エヌピーオーホウジンデイサービスカンムラ",
    "address": "山梨県甲府市上町871-1",
    "lat": 35.6278683,
    "lng": 138.5940676,
    "tel": "055-287-9972",
    "url": "",
    "pref": "山梨県",
    "city": "甲府市",
    "category": "day_service",
    "serviceType": "通所介護",
    "capacity": null,
    "openDays": [
      "平日",
      "土曜日",
      "日曜日",
      "祝日"
    ],
    "openDaysNote": "２２年度実績では、年末年始も無休でした。"
  },
  {
    "id": "1970105894",
    "name": "yocayoca",
    "kana": "ヨカ　ヨカ",
    "address": "中村町10-22",
    "lat": 35.6657024679277,
    "lng": 138.53537864059,
    "tel": "055-269-7323",
    "url": "https://www.lifesupport-hikari.com",
    "pref": "山梨県",
    "city": "甲府市",
    "category": "day_service",
    "serviceType": "通所介護",
    "capacity": 0,
    "openDays": [
      "平日",
      "祝日"
    ],
    "openDaysNote": ""
  },
  {
    "id": "1970103089",
    "name": "あい山城",
    "kana": "アイヤマシロ",
    "address": "上今井町571-4あい山城 あい山城",
    "lat": 35.6244574,
    "lng": 138.577822,
    "tel": "055-287-7666",
    "url": "http://www.shinnihontsuusan.co.jp/index.html",
    "pref": "山梨県",
    "city": "甲府市",
    "category": "day_service",
    "serviceType": "通所介護",
    "capacity": null,
    "openDays": [
      "平日",
      "祝日"
    ],
    "openDaysNote": ""
  },
  {
    "id": "1970104699",
    "name": "あい上町",
    "kana": "アイカミチョウ",
    "address": "山梨県甲府市小瀬町772番地2",
    "lat": 35.6251463,
    "lng": 138.583277,
    "tel": "055-234-5615",
    "url": "",
    "pref": "山梨県",
    "city": "甲府市",
    "category": "day_service",
    "serviceType": "通所介護",
    "capacity": null,
    "openDays": [
      "平日"
    ],
    "openDaysNote": ""
  },
  {
    "id": "1970102875",
    "name": "あおぞらの里　甲府デイサービスセンター",
    "kana": "アオゾラノサト　コウフデイサービスセンター",
    "address": "山梨県甲府市荒川１－３－２５",
    "lat": 35.6741596,
    "lng": 138.5411383,
    "tel": "055-254-5355",
    "url": "http://www.CEDAR-WEB.com",
    "pref": "山梨県",
    "city": "甲府市",
    "category": "day_service",
    "serviceType": "通所介護",
    "capacity": 0,
    "openDays": [
      "平日",
      "土曜日",
      "日曜日",
      "祝日"
    ],
    "openDaysNote": ""
  },
  {
    "id": "1970103956",
    "name": "あおぞらの里　甲府南デイサービスセンター",
    "kana": "アオゾラノサト　コウフミナミデイサービスセンター",
    "address": "山梨県甲府市国母5-10-27",
    "lat": 35.6413781,
    "lng": 138.5509682,
    "tel": "055-236-3322",
    "url": "http://www.CEDAR-WEB.com",
    "pref": "山梨県",
    "city": "甲府市",
    "category": "day_service",
    "serviceType": "通所介護",
    "capacity": 60,
    "openDays": [
      "平日",
      "土曜日",
      "祝日"
    ],
    "openDaysNote": ""
  },
  {
    "id": "1970101588",
    "name": "あけぼのデイサービスセンター",
    "kana": "アケボノデイサービスセンター",
    "address": "山梨県甲府市堀之内町8-1",
    "lat": 35.6153527,
    "lng": 138.5615765,
    "tel": "055-243-3362",
    "url": "",
    "pref": "山梨県",
    "city": "甲府市",
    "category": "day_service",
    "serviceType": "通所介護",
    "capacity": null,
    "openDays": [
      "平日",
      "土曜日"
    ],
    "openDaysNote": "特になし"
  },
  {
    "id": "1970105555",
    "name": "あっとほーむ甲府山宮",
    "kana": "アットホームコウフヤマミヤ",
    "address": "山梨県甲府市山宮町1186-1",
    "lat": 35.6919601,
    "lng": 138.5370688,
    "tel": "055-242-8631",
    "url": "https://www.athome-kofu.com/",
    "pref": "山梨県",
    "city": "甲府市",
    "category": "day_service",
    "serviceType": "通所介護",
    "capacity": 40,
    "openDays": [
      "平日",
      "祝日"
    ],
    "openDaysNote": "祝日は営業します。"
  },
  {
    "id": "1970101356",
    "name": "アルファケア　北甲府介護施設",
    "kana": "アルファケア　キタコウフカイゴシセツ",
    "address": "山梨県　甲府市　山宮町703-1",
    "lat": 35.6882006,
    "lng": 138.532521,
    "tel": "055-254-9511",
    "url": "http://alphacare.joto-group.com",
    "pref": "山梨県",
    "city": "甲府市",
    "category": "day_service",
    "serviceType": "通所介護",
    "capacity": null,
    "openDays": [
      "平日",
      "祝日"
    ],
    "openDaysNote": ""
  },
  {
    "id": "1970104095",
    "name": "ケアステーションあさひ甲府",
    "kana": "ケアステーションアサヒコウフ",
    "address": "山梨県甲府市中小河原341-1",
    "lat": 35.6357416,
    "lng": 138.571225,
    "tel": "055-242-0250",
    "url": "http://www.vati.co.jp/",
    "pref": "山梨県",
    "city": "甲府市",
    "category": "day_service",
    "serviceType": "通所介護",
    "capacity": null,
    "openDays": [
      "平日",
      "土曜日",
      "日曜日",
      "祝日"
    ],
    "openDaysNote": ""
  },
  {
    "id": "1970101760",
    "name": "ケアセンター　ハッピーライフ",
    "kana": "ケアセンターハッピーライフ",
    "address": "山梨県甲府市下石田２丁目１－２４",
    "lat": 35.6500643,
    "lng": 138.5503094,
    "tel": "055-230-1300",
    "url": "",
    "pref": "山梨県",
    "city": "甲府市",
    "category": "day_service",
    "serviceType": "通所介護",
    "capacity": 0,
    "openDays": [
      "平日"
    ],
    "openDaysNote": ""
  },
  {
    "id": "1970102321",
    "name": "ケアパートナー甲府",
    "kana": "ケアパートナーコウフ",
    "address": "山梨県甲府市徳行五丁目12番21号",
    "lat": 35.6528105,
    "lng": 138.5337023,
    "tel": "055-231-6611",
    "url": "https://www.care-partner.com/",
    "pref": "山梨県",
    "city": "甲府市",
    "category": "day_service",
    "serviceType": "通所介護",
    "capacity": 60,
    "openDays": [
      "平日",
      "土曜日",
      "日曜日",
      "祝日"
    ],
    "openDaysNote": "日曜日は原則第3日曜日を営業日とする。ただし、利用者の要望等に応じて第1,2,4,5日曜日のいずれかに営業日を変更する事がある。　　　　　　　　　　　　　　　　　　　　　　　　　　　　　　　　　　　　　　　　　　12/30～1/3（年末年始休暇）"
  },
  {
    "id": "1970102693",
    "name": "ケアフリー宝",
    "kana": "ケアフリータカラ",
    "address": "山梨県甲府市宝１－２３－１８",
    "lat": 35.6651993,
    "lng": 138.5615546,
    "tel": "055-287-6363",
    "url": "",
    "pref": "山梨県",
    "city": "甲府市",
    "category": "day_service",
    "serviceType": "通所介護",
    "capacity": 0,
    "openDays": [
      "平日",
      "土曜日",
      "祝日"
    ],
    "openDaysNote": ""
  },
  {
    "id": "1970104061",
    "name": "サテライト尚古園デイサービスセンター",
    "kana": "サテライトショウコエンデイサービスセンター",
    "address": "山梨県甲府市中央１－１６－２",
    "lat": 35.6591165,
    "lng": 138.570021,
    "tel": "055-237-3650",
    "url": "http://www.zenrinkai.or.jp",
    "pref": "山梨県",
    "city": "甲府市",
    "category": "day_service",
    "serviceType": "通所介護",
    "capacity": null,
    "openDays": [
      "平日",
      "土曜日",
      "祝日"
    ],
    "openDaysNote": ""
  },
  {
    "id": "1970103345",
    "name": "ショート＆デイサービスセンター「桜森荘」",
    "kana": "ショートアンドデイサービスセンター「オウモリソウ」",
    "address": "山梨県甲府市上石田1－3ー14",
    "lat": 35.6591632,
    "lng": 138.5522171,
    "tel": "055－288－8165",
    "url": "",
    "pref": "山梨県",
    "city": "甲府市",
    "category": "day_service",
    "serviceType": "通所介護",
    "capacity": null,
    "openDays": [
      "平日",
      "土曜日",
      "日曜日",
      "祝日"
    ],
    "openDaysNote": "年末年始休日　12/30～1/3"
  },
  {
    "id": "1970105431",
    "name": "ツクイ甲府下飯田",
    "kana": "ツクイコウフシモイイダ",
    "address": "山梨県甲府市下飯田2-12-17",
    "lat": 35.6656472,
    "lng": 138.5432473,
    "tel": "055-230-2285",
    "url": "https://www.tsukui.net/",
    "pref": "山梨県",
    "city": "甲府市",
    "category": "day_service",
    "serviceType": "通所介護",
    "capacity": 30,
    "openDays": [
      "平日",
      "土曜日",
      "日曜日",
      "祝日"
    ],
    "openDaysNote": ""
  },
  {
    "id": "1970105464",
    "name": "ツクイ甲府国母",
    "kana": "ツクイコウフコクボ",
    "address": "国母8-21-25",
    "lat": 35.6319734,
    "lng": 138.5517872,
    "tel": "055-236-2772",
    "url": "",
    "pref": "山梨県",
    "city": "甲府市",
    "category": "day_service",
    "serviceType": "通所介護",
    "capacity": 60,
    "openDays": [
      "平日",
      "土曜日",
      "日曜日",
      "祝日"
    ],
    "openDaysNote": "年中無休"
  },
  {
    "id": "1970105456",
    "name": "ツクイ甲府大手",
    "kana": "ツクイコウフオオテ",
    "address": "山梨県甲府市大手2-4-4",
    "lat": 35.6808296,
    "lng": 138.5774147,
    "tel": "055-251-3568",
    "url": "https://www.tsukui.net",
    "pref": "山梨県",
    "city": "甲府市",
    "category": "day_service",
    "serviceType": "通所介護",
    "capacity": 30,
    "openDays": [
      "平日",
      "土曜日",
      "日曜日",
      "祝日"
    ],
    "openDaysNote": ""
  },
  {
    "id": "1970105449",
    "name": "ツクイ甲府中央",
    "kana": "ツクイコウフチュウオウ",
    "address": "山梨県甲府市中央4-12-4",
    "lat": 35.6564537,
    "lng": 138.5732382,
    "tel": "055-221-1117",
    "url": "",
    "pref": "山梨県",
    "city": "甲府市",
    "category": "day_service",
    "serviceType": "通所介護",
    "capacity": 0,
    "openDays": [
      "平日",
      "土曜日",
      "日曜日",
      "祝日"
    ],
    "openDaysNote": ""
  },
  {
    "id": "1970102040",
    "name": "デイサービス　あいおい",
    "kana": "デイサービス　アイオイ",
    "address": "山梨県甲府市相生１丁目７－１５",
    "lat": 35.6576165,
    "lng": 138.5648882,
    "tel": "055-233-3425",
    "url": "",
    "pref": "山梨県",
    "city": "甲府市",
    "category": "day_service",
    "serviceType": "通所介護",
    "capacity": null,
    "openDays": [
      "平日",
      "土曜日",
      "祝日"
    ],
    "openDaysNote": "なし"
  },
  {
    "id": "1970900468",
    "name": "デイサービス　ゴールドエイジ山宮",
    "kana": "デイサービス　ゴールドエイジヤマミヤ",
    "address": "山梨県甲府市山宮町5001番地10",
    "lat": 35.6967883,
    "lng": 138.5249995,
    "tel": "055-298-6222",
    "url": "http://goldage.co.jp",
    "pref": "山梨県",
    "city": "甲府市",
    "category": "day_service",
    "serviceType": "通所介護",
    "capacity": 0,
    "openDays": [
      "平日",
      "土曜日"
    ],
    "openDaysNote": ""
  },
  {
    "id": "1970103014",
    "name": "デイサービス　ソレアード",
    "kana": "デイサービス　ソレアード",
    "address": "山梨県甲府市貢川２丁目８－１１",
    "lat": 35.6614181,
    "lng": 138.5353772,
    "tel": "055-287-7195",
    "url": "",
    "pref": "山梨県",
    "city": "甲府市",
    "category": "day_service",
    "serviceType": "通所介護",
    "capacity": null,
    "openDays": [
      "平日",
      "土曜日",
      "日曜日",
      "祝日"
    ],
    "openDaysNote": ""
  },
  {
    "id": "1970101216",
    "name": "デイサービスあかし",
    "kana": "デイサービス　アカシ",
    "address": "山梨県甲府市上町2473番地",
    "lat": 35.6366689,
    "lng": 138.5869844,
    "tel": "055-226-6580",
    "url": "http://www.akashi.or.jp",
    "pref": "山梨県",
    "city": "甲府市",
    "category": "day_service",
    "serviceType": "通所介護",
    "capacity": 0,
    "openDays": [
      "平日",
      "土曜日",
      "日曜日",
      "祝日"
    ],
    "openDaysNote": ""
  },
  {
    "id": "1970103162",
    "name": "デイサービスあっとほーむ",
    "kana": "デイサービスアットホーム",
    "address": "甲府市住吉4丁目20-15",
    "lat": 35.6381554,
    "lng": 138.5799102,
    "tel": "055-269-8715",
    "url": "kaigo-athome@kub.biglobe.ne.jp",
    "pref": "山梨県",
    "city": "甲府市",
    "category": "day_service",
    "serviceType": "通所介護",
    "capacity": 17,
    "openDays": [
      "平日",
      "土曜日",
      "祝日"
    ],
    "openDaysNote": ""
  },
  {
    "id": "1970100531",
    "name": "デイサービスセンター　銀杏荘",
    "kana": "デイサービスセンター　ギンナンソウ",
    "address": "山梨県甲府市国母1丁目13-15",
    "lat": 35.6470537,
    "lng": 138.5577811,
    "tel": "055-235-1220",
    "url": "http.//www.nansei.or.jp",
    "pref": "山梨県",
    "city": "甲府市",
    "category": "day_service",
    "serviceType": "通所介護",
    "capacity": null,
    "openDays": [
      "平日"
    ],
    "openDaysNote": ""
  },
  {
    "id": "1970104731",
    "name": "デイサービスセンター　甲斐の郷",
    "kana": "デイサービスセンター　カイノサト",
    "address": "山梨県甲府市大手1-4-45",
    "lat": 35.6816364665136,
    "lng": 138.576446509089,
    "tel": "055-253-2341",
    "url": "http://kainosato.hp.gogo.jp",
    "pref": "山梨県",
    "city": "甲府市",
    "category": "day_service",
    "serviceType": "通所介護",
    "capacity": 25,
    "openDays": [
      "平日",
      "祝日"
    ],
    "openDaysNote": "祝日は関係なく営業。（改行）12/31～1/3までの年末年始は休業"
  },
  {
    "id": "1970101141",
    "name": "デイサービスセンター　里の家族",
    "kana": "デイサービスセンター　サトノカゾク",
    "address": "山梨県甲府市古府中町３２８６－１",
    "lat": 35.6882072,
    "lng": 138.5811109,
    "tel": "055-254-9131",
    "url": "",
    "pref": "山梨県",
    "city": "甲府市",
    "category": "day_service",
    "serviceType": "通所介護",
    "capacity": null,
    "openDays": [
      "平日",
      "土曜日",
      "祝日"
    ],
    "openDaysNote": ""
  },
  {
    "id": "1970104350",
    "name": "デイサービスセンター「すみよし」",
    "kana": "デイサービスセンター　「スミヨシ」",
    "address": "山梨県甲府市住吉5-21-1",
    "lat": 35.6343114,
    "lng": 138.5765412,
    "tel": "055-242-3113",
    "url": "http://www.goodcare-kaigo.com/",
    "pref": "山梨県",
    "city": "甲府市",
    "category": "day_service",
    "serviceType": "通所介護",
    "capacity": 0,
    "openDays": [
      "平日",
      "祝日"
    ],
    "openDaysNote": "祝祭日営業"
  },
  {
    "id": "1970102065",
    "name": "デイサービスセンター「よつ葉」",
    "kana": "デイサービスセンター「ヨツバ」",
    "address": "山梨県甲府市東光寺2-19-29",
    "lat": 35.6623167,
    "lng": 138.5877858,
    "tel": "055-236-6344",
    "url": "http://www.goodcare-kaigo.com/",
    "pref": "山梨県",
    "city": "甲府市",
    "category": "day_service",
    "serviceType": "通所介護",
    "capacity": 0,
    "openDays": [
      "平日",
      "土曜日",
      "祝日"
    ],
    "openDaysNote": "祝祭日営業"
  },
  {
    "id": "1970101612",
    "name": "デイサービスセンター「笑くぼ」",
    "kana": "デイサービスセンター「エクボ」",
    "address": "山梨県甲府市住吉3-21-16",
    "lat": 35.6402024,
    "lng": 138.5810405,
    "tel": "055-236-6336",
    "url": "http://www.goodcare-kaigo.com/",
    "pref": "山梨県",
    "city": "甲府市",
    "category": "day_service",
    "serviceType": "通所介護",
    "capacity": 0,
    "openDays": [
      "平日",
      "祝日"
    ],
    "openDaysNote": "祝祭日営業"
  },
  {
    "id": "1970101976",
    "name": "デイサービスセンターあい",
    "kana": "デイサービスセンターアイ",
    "address": "山梨県甲府市天神町4-7",
    "lat": 35.6753885,
    "lng": 138.5688899,
    "tel": "055-255-1018",
    "url": "http://www.s-mochizuki.co.jp/ai/top/top.html",
    "pref": "山梨県",
    "city": "甲府市",
    "category": "day_service",
    "serviceType": "通所介護",
    "capacity": 30,
    "openDays": [
      "平日",
      "土曜日",
      "祝日"
    ],
    "openDaysNote": ""
  },
  {
    "id": "1970101653",
    "name": "デイサービスセンターこみやま",
    "kana": "デイサービスセンターコミヤマ",
    "address": "山梨県甲府市荒川1-8-21",
    "lat": 35.6759662,
    "lng": 138.5392262,
    "tel": "055-254-0038",
    "url": "http://www",
    "pref": "山梨県",
    "city": "甲府市",
    "category": "day_service",
    "serviceType": "通所介護",
    "capacity": 0,
    "openDays": [
      "平日",
      "祝日"
    ],
    "openDaysNote": ""
  },
  {
    "id": "1970101885",
    "name": "デイサービスセンターたから",
    "kana": "デイサービスセンタータカラ",
    "address": "山梨県甲府市宝1-4-16",
    "lat": 35.667868,
    "lng": 138.5610435,
    "tel": "055-223-8102",
    "url": "http://ykf.or.jp/",
    "pref": "山梨県",
    "city": "甲府市",
    "category": "day_service",
    "serviceType": "通所介護",
    "capacity": 0,
    "openDays": [
      "平日",
      "土曜日",
      "祝日"
    ],
    "openDaysNote": ""
  },
  {
    "id": "1970104368",
    "name": "デイサービスセンターつくし",
    "kana": "デイサービスセンターツクシ",
    "address": "山梨県甲府市西高橋町２７７番",
    "lat": 35.6398333,
    "lng": 138.5969642,
    "tel": "０５５－２３４－５１８６",
    "url": "http:/www.fujikoseikai.or.jp/index.html",
    "pref": "山梨県",
    "city": "甲府市",
    "category": "day_service",
    "serviceType": "通所介護",
    "capacity": 0,
    "openDays": [
      "平日",
      "土曜日",
      "祝日"
    ],
    "openDaysNote": ""
  },
  {
    "id": "1970102495",
    "name": "デイサービスセンターにじの家",
    "kana": "デイサービスセンターニジノイエ",
    "address": "山梨県甲府市湯村3-19-50",
    "lat": 35.6851402286708,
    "lng": 138.544759392729,
    "tel": "055-254-6637",
    "url": "",
    "pref": "山梨県",
    "city": "甲府市",
    "category": "day_service",
    "serviceType": "通所介護",
    "capacity": null,
    "openDays": [
      "平日",
      "祝日"
    ],
    "openDaysNote": "延長利用希望等がある場合には対応可能。"
  },
  {
    "id": "1970104129",
    "name": "デイサービスセンターフォーリーブス甲府",
    "kana": "デイサービスセンターフォーリーブスコウフ",
    "address": "山梨県甲府市東下条町１０７番地",
    "lat": 35.6120785,
    "lng": 138.572309,
    "tel": "055-243-4800",
    "url": "甲府市東下条町１０７番地",
    "pref": "山梨県",
    "city": "甲府市",
    "category": "day_service",
    "serviceType": "通所介護",
    "capacity": null,
    "openDays": [
      "平日",
      "土曜日",
      "祝日"
    ],
    "openDaysNote": ""
  },
  {
    "id": "1971700842",
    "name": "デイサービスセンター常和",
    "kana": "デイサービスセンタージョウワ",
    "address": "山梨県甲府市中村町4-12",
    "lat": 35.667674,
    "lng": 138.5331352,
    "tel": "055-298-6835",
    "url": "http://www.wakouwelfare.or.jp",
    "pref": "山梨県",
    "city": "甲府市",
    "category": "day_service",
    "serviceType": "通所介護",
    "capacity": 20,
    "openDays": [
      "平日",
      "祝日"
    ],
    "openDaysNote": "8月13日、年末年始は休業"
  },
  {
    "id": "1970105498",
    "name": "デイサービスセンター奏",
    "kana": "デイサービスセンターカナデ",
    "address": "山梨県甲府市上石田3丁目19-23サービス付き高齢者向け住宅奏 サービス付き高齢者向け住宅奏",
    "lat": 35.6528726,
    "lng": 138.552983,
    "tel": "055-288-9277",
    "url": "http://kanade.jandm.co.jp",
    "pref": "山梨県",
    "city": "甲府市",
    "category": "day_service",
    "serviceType": "通所介護",
    "capacity": null,
    "openDays": [
      "平日",
      "土曜日",
      "祝日"
    ],
    "openDaysNote": ""
  },
  {
    "id": "1970105266",
    "name": "デイサービスセンター奏楽　上阿原",
    "kana": "デイサービスセンターソラ　カミアハラ",
    "address": "山梨県甲府市上阿原町1055-1",
    "lat": 35.6489184472607,
    "lng": 138.608318877774,
    "tel": "055-288-0718",
    "url": "http://sorakamiahara.plus-you.jp/",
    "pref": "山梨県",
    "city": "甲府市",
    "category": "day_service",
    "serviceType": "通所介護",
    "capacity": 45,
    "openDays": [
      "平日"
    ],
    "openDaysNote": ""
  },
  {
    "id": "1970100119",
    "name": "デイサービスセンター和永荘",
    "kana": "デイサービスセンターワエイソウ",
    "address": "山梨県甲府市中村町11-18",
    "lat": 35.665838,
    "lng": 138.5349605,
    "tel": "055-228-2316",
    "url": "",
    "pref": "山梨県",
    "city": "甲府市",
    "category": "day_service",
    "serviceType": "通所介護",
    "capacity": 0,
    "openDays": [
      "平日",
      "土曜日",
      "日曜日",
      "祝日"
    ],
    "openDaysNote": "台風などの災害時の状況により変更あり"
  },
  {
    "id": "1970102552",
    "name": "デイサービスセンター和永荘　幸町",
    "kana": "デイサービスセンターワエイソウ　サイワイチョウ",
    "address": "山梨県甲府市幸町15番10号",
    "lat": 35.6457459,
    "lng": 138.5720271,
    "tel": "055-230-2850",
    "url": "",
    "pref": "山梨県",
    "city": "甲府市",
    "category": "day_service",
    "serviceType": "通所介護",
    "capacity": null,
    "openDays": [
      "平日"
    ],
    "openDaysNote": ""
  },
  {
    "id": "1970102032",
    "name": "デイサービスほのか",
    "kana": "デイサービスホノカ",
    "address": "山梨県甲府市小瀬町５７３－２",
    "lat": 35.6274099,
    "lng": 138.5830242,
    "tel": "055-241-3356",
    "url": "",
    "pref": "山梨県",
    "city": "甲府市",
    "category": "day_service",
    "serviceType": "通所介護",
    "capacity": null,
    "openDays": [
      "平日",
      "土曜日",
      "祝日"
    ],
    "openDaysNote": ""
  },
  {
    "id": "1970104574",
    "name": "デイサービスわかやなぎ池田",
    "kana": "デイサービス　ワカヤナギイケダ",
    "address": "山梨県甲府市池田3丁目8-8",
    "lat": 35.6713323,
    "lng": 138.5371649,
    "tel": "055-255-5511",
    "url": "http://wakayanagi.jp",
    "pref": "山梨県",
    "city": "甲府市",
    "category": "day_service",
    "serviceType": "通所介護",
    "capacity": 19,
    "openDays": [
      "平日",
      "土曜日",
      "日曜日",
      "祝日"
    ],
    "openDaysNote": ""
  },
  {
    "id": "1970101737",
    "name": "デイサービス愛あふれる家",
    "kana": "デイサービスアイアフレルイエ",
    "address": "山梨県甲府市富士見２－６－５",
    "lat": 35.6766385,
    "lng": 138.5457948,
    "tel": "055-254-2616",
    "url": "",
    "pref": "山梨県",
    "city": "甲府市",
    "category": "day_service",
    "serviceType": "通所介護",
    "capacity": null,
    "openDays": [
      "平日",
      "祝日"
    ],
    "openDaysNote": ""
  },
  {
    "id": "1970102289",
    "name": "デイサービス倖せ",
    "kana": "デイサービスシアワセ",
    "address": "甲府市城東４丁目２－２３",
    "lat": 35.6578532,
    "lng": 138.5844753,
    "tel": "055-227-7332",
    "url": "",
    "pref": "山梨県",
    "city": "甲府市",
    "category": "day_service",
    "serviceType": "通所介護",
    "capacity": null,
    "openDays": [
      "平日",
      "土曜日",
      "祝日"
    ],
    "openDaysNote": ""
  },
  {
    "id": "1970105209",
    "name": "デイサービス昴",
    "kana": "デイサービススバル",
    "address": "山梨県甲府市徳行5丁目１２－５２デイサービス昴・サービス付き高齢者向け住宅昴 デイサービス昴・サービス付き高齢者向け住宅昴",
    "lat": 35.652068,
    "lng": 138.534765,
    "tel": "055-267-8418",
    "url": "info@subaru-1201.co.jp",
    "pref": "山梨県",
    "city": "甲府市",
    "category": "day_service",
    "serviceType": "通所介護",
    "capacity": 0,
    "openDays": [
      "平日",
      "土曜日",
      "祝日"
    ],
    "openDaysNote": "盆休み・年末年始休みあり"
  },
  {
    "id": "1970101240",
    "name": "デイサビスセンターなかよし苑",
    "kana": "デイサービスセンターナカヨシエン",
    "address": "甲府市宝１－４－３３",
    "lat": 35.6685596,
    "lng": 138.5616239,
    "tel": "055-223-0666",
    "url": "",
    "pref": "山梨県",
    "city": "甲府市",
    "category": "day_service",
    "serviceType": "通所介護",
    "capacity": null,
    "openDays": [
      "平日",
      "土曜日",
      "祝日"
    ],
    "openDaysNote": ""
  },
  {
    "id": "1970104871",
    "name": "デイサロン　モア　山の手",
    "kana": "デイサロン　モア　ヤマノテ",
    "address": "山梨県甲府市千塚三丁目１－３２",
    "lat": 35.6821287655077,
    "lng": 138.540622898148,
    "tel": "055-242-7831",
    "url": "http://www.lieben.me/yamanote",
    "pref": "山梨県",
    "city": "甲府市",
    "category": "day_service",
    "serviceType": "通所介護",
    "capacity": 0,
    "openDays": [
      "平日",
      "祝日"
    ],
    "openDaysNote": ""
  },
  {
    "id": "1970100200",
    "name": "トリアスデイサービスセンター",
    "kana": "トリアスデイサービスセンター",
    "address": "山梨県甲府市国玉町951-1",
    "lat": 35.6465584,
    "lng": 138.5986866,
    "tel": "055-223-3303",
    "url": "http:/www.trias.or.jp/",
    "pref": "山梨県",
    "city": "甲府市",
    "category": "day_service",
    "serviceType": "通所介護",
    "capacity": 0,
    "openDays": [
      "平日",
      "土曜日",
      "日曜日",
      "祝日"
    ],
    "openDaysNote": ""
  },
  {
    "id": "1970101695",
    "name": "ニチイケアセンター甲府西",
    "kana": "ニチイケアセンターコウフニシ",
    "address": "山梨県甲府市下飯田2-4-30",
    "lat": 35.6632793,
    "lng": 138.5490783,
    "tel": "055-236-1680",
    "url": "http://www.nichiigakkan.co.jp",
    "pref": "山梨県",
    "city": "甲府市",
    "category": "day_service",
    "serviceType": "通所介護",
    "capacity": 0,
    "openDays": [
      "平日",
      "土曜日",
      "祝日"
    ],
    "openDaysNote": "ニチイコールセンター　　電話番号　0120-605025　　24時間年中無休"
  },
  {
    "id": "1970100564",
    "name": "ニチイケアセンター甲府南",
    "kana": "ニチイケアセンターコウフミナミ",
    "address": "山梨県甲府市増坪町266-11",
    "lat": 35.6360282,
    "lng": 138.5912315,
    "tel": "055-242-2501",
    "url": "http://www.nichiigakkan.co.jp",
    "pref": "山梨県",
    "city": "甲府市",
    "category": "day_service",
    "serviceType": "通所介護",
    "capacity": 10,
    "openDays": [
      "平日",
      "土曜日",
      "祝日"
    ],
    "openDaysNote": "特になし"
  },
  {
    "id": "1970102719",
    "name": "ハートデイサービス後屋",
    "kana": "ハートデイサービスウシロヤ",
    "address": "山梨県甲府市後屋町416-1",
    "lat": 35.6310754,
    "lng": 138.5622176,
    "tel": "055-242-2555",
    "url": "",
    "pref": "山梨県",
    "city": "甲府市",
    "category": "day_service",
    "serviceType": "通所介護",
    "capacity": null,
    "openDays": [
      "平日",
      "土曜日",
      "日曜日",
      "祝日"
    ],
    "openDaysNote": ""
  },
  {
    "id": "1970103501",
    "name": "ハートデイサービス大国",
    "kana": "ハートデイサービスオオクニ",
    "address": "山梨県甲府市後屋町40-1",
    "lat": 35.6269899,
    "lng": 138.563626,
    "tel": "055-288-9603",
    "url": "",
    "pref": "山梨県",
    "city": "甲府市",
    "category": "day_service",
    "serviceType": "通所介護",
    "capacity": null,
    "openDays": [
      "平日",
      "土曜日",
      "日曜日",
      "祝日"
    ],
    "openDaysNote": ""
  },
  {
    "id": "1970102909",
    "name": "ハートデイサービス緑ヶ丘",
    "kana": "ハートデイサービスミドリガオカ",
    "address": "山梨県甲府市塩部3-15-13",
    "lat": 35.676836,
    "lng": 138.557624,
    "tel": "055-288-0400",
    "url": "http://heart-service.co.jp/",
    "pref": "山梨県",
    "city": "甲府市",
    "category": "day_service",
    "serviceType": "通所介護",
    "capacity": null,
    "openDays": [
      "平日",
      "土曜日",
      "日曜日",
      "祝日"
    ],
    "openDaysNote": ""
  },
  {
    "id": "1970102107",
    "name": "パナ介護デイサービス",
    "kana": "パナカイゴデイサービス",
    "address": "山梨県甲府市国玉町1153",
    "lat": 35.6510736,
    "lng": 138.5986273,
    "tel": "055-237-8735",
    "url": "http://www.toyo.eei.jp",
    "pref": "山梨県",
    "city": "甲府市",
    "category": "day_service",
    "serviceType": "通所介護",
    "capacity": null,
    "openDays": [
      "平日",
      "土曜日",
      "祝日"
    ],
    "openDaysNote": ""
  },
  {
    "id": "1970100366",
    "name": "ファインデイサービスセンター",
    "kana": "ファインデイサービスセンター",
    "address": "山梨県甲府市国母３－４－２２",
    "lat": 35.6417655,
    "lng": 138.5560038,
    "tel": "055-227-6211",
    "url": "http://ch-fine.com/",
    "pref": "山梨県",
    "city": "甲府市",
    "category": "day_service",
    "serviceType": "通所介護",
    "capacity": 0,
    "openDays": [
      "平日",
      "土曜日",
      "祝日"
    ],
    "openDaysNote": ""
  },
  {
    "id": "1970103147",
    "name": "フォレスト小瀬　デイサービスセンター",
    "kana": "フォレストコセ　デイサービスセンター",
    "address": "山梨県甲府市上町１２１１－２",
    "lat": 35.6322371,
    "lng": 138.588343,
    "tel": "０５５－２４２－３５３５",
    "url": "http://www.fkose.com",
    "pref": "山梨県",
    "city": "甲府市",
    "category": "day_service",
    "serviceType": "通所介護",
    "capacity": 30,
    "openDays": [
      "平日",
      "土曜日",
      "祝日"
    ],
    "openDaysNote": ""
  },
  {
    "id": "1970103527",
    "name": "ポシブル甲府",
    "kana": "ポシブルコウフ",
    "address": "山梨県甲府市富士見２－１０－２",
    "lat": 35.6771912,
    "lng": 138.5468085,
    "tel": "055-220-3055",
    "url": "http://www.possible-plus.co.jp/",
    "pref": "山梨県",
    "city": "甲府市",
    "category": "day_service",
    "serviceType": "通所介護",
    "capacity": null,
    "openDays": [
      "平日",
      "祝日"
    ],
    "openDaysNote": "午前：9:00~12:00（改行）午後：14:00~17:00"
  },
  {
    "id": "1970104673",
    "name": "みつばやあんき",
    "kana": "ミツバヤアンキ",
    "address": "山梨県甲府市宝2-17-8",
    "lat": 35.6604494,
    "lng": 138.5615966,
    "tel": "055-215-6290",
    "url": "http://mitsubaya.wix.com/mitsubaya",
    "pref": "山梨県",
    "city": "甲府市",
    "category": "day_service",
    "serviceType": "通所介護",
    "capacity": 0,
    "openDays": [
      "平日",
      "日曜日",
      "祝日"
    ],
    "openDaysNote": "困った際は、NPO法人みつばのくろーばー（改行）オリジナルのレスパイト事業（自主事業）を（改行）原則的に利用して頂くことができます。（改行）（改行）「土曜日」及び（改行）「営業時間外（6：00～9：00/17：00～22：00）」（改行）の支援も提供しております。"
  },
  {
    "id": "1970103022",
    "name": "みると舎デイサービス",
    "kana": "ミルトシャデイサービス",
    "address": "山梨県甲府市住吉5丁目7番1号",
    "lat": 35.6386469,
    "lng": 138.5756272,
    "tel": "055-220-7010",
    "url": "",
    "pref": "山梨県",
    "city": "甲府市",
    "category": "day_service",
    "serviceType": "通所介護",
    "capacity": null,
    "openDays": [
      "平日",
      "土曜日",
      "祝日"
    ],
    "openDaysNote": ""
  },
  {
    "id": "1970103212",
    "name": "やさしい手　甲府東事業所",
    "kana": "ヤサシイテ　コウフヒガシジギョウショ",
    "address": "山梨県甲府市酒折1-20-23",
    "lat": 35.6552854,
    "lng": 138.595791,
    "tel": "055-231-7070",
    "url": "",
    "pref": "山梨県",
    "city": "甲府市",
    "category": "day_service",
    "serviceType": "通所介護",
    "capacity": 0,
    "openDays": [
      "平日",
      "土曜日",
      "日曜日",
      "祝日"
    ],
    "openDaysNote": "基本的には、年中無休だが職員研修等による休み（年１，２回）"
  },
  {
    "id": "1970100754",
    "name": "やさしい手甲府西事業所",
    "kana": "ヤサシイテコウフニシジギョウショ",
    "address": "山梨県甲府市上石田１－７－１４",
    "lat": 35.6579134,
    "lng": 138.553267,
    "tel": "055-236-5503",
    "url": "http://www.yasashiite-kofu.co.jp/",
    "pref": "山梨県",
    "city": "甲府市",
    "category": "day_service",
    "serviceType": "通所介護",
    "capacity": 0,
    "openDays": [
      "平日",
      "土曜日",
      "日曜日",
      "祝日"
    ],
    "openDaysNote": "基本的には、年中無休だが職員研修等による休み(年１回～２回）"
  },
  {
    "id": "1970101851",
    "name": "わかばデイサービスセンター",
    "kana": "ワカバデイサービスセンター",
    "address": "山梨県甲府市古上条町１６３－１",
    "lat": 35.6283593,
    "lng": 138.5586512,
    "tel": "055-243-1001",
    "url": "",
    "pref": "山梨県",
    "city": "甲府市",
    "category": "day_service",
    "serviceType": "通所介護",
    "capacity": null,
    "openDays": [
      "平日",
      "土曜日",
      "日曜日",
      "祝日"
    ],
    "openDaysNote": "特になし。"
  },
  {
    "id": "1970101125",
    "name": "医療法人　幸仁会　須貝整形外科医院　通所介護センター",
    "kana": "イリョウホウジン　コウジンカイ　スガイセイケイゲカイイン　ツウショカイゴセンター",
    "address": "山梨県甲府市国母1丁目５－１７",
    "lat": 35.6434319,
    "lng": 138.5581396,
    "tel": "055-226-0786",
    "url": "",
    "pref": "山梨県",
    "city": "甲府市",
    "category": "day_service",
    "serviceType": "通所介護",
    "capacity": null,
    "openDays": [
      "平日",
      "土曜日"
    ],
    "openDaysNote": "特になし"
  },
  {
    "id": "1970102115",
    "name": "医療法人　笹本会　おおくにいきいき通所介護",
    "kana": "イリョウホウジン　ササモトカイ　シテイオオクニイキイキツウショカイゴ",
    "address": "山梨県甲府市大里町5315",
    "lat": 35.6247456,
    "lng": 138.5580599,
    "tel": "055-220-2777",
    "url": "http://park14.wakwak.com/~sasamotokai/",
    "pref": "山梨県",
    "city": "甲府市",
    "category": "day_service",
    "serviceType": "通所介護",
    "capacity": 0,
    "openDays": [
      "平日",
      "土曜日",
      "祝日"
    ],
    "openDaysNote": ""
  },
  {
    "id": "1970101232",
    "name": "医療法人　笹本会　おおさと通所介護",
    "kana": "イリョウホウジンササモトカイオオサトツウショカイゴ",
    "address": "山梨県甲府市大里町5328おおくに在宅ケアセンター おおくに在宅ケアセンター",
    "lat": 35.6243596,
    "lng": 138.5584543,
    "tel": "055-220-2933",
    "url": "http://park14.wakwak.com/~sasamotokai/",
    "pref": "山梨県",
    "city": "甲府市",
    "category": "day_service",
    "serviceType": "通所介護",
    "capacity": 0,
    "openDays": [
      "平日",
      "土曜日",
      "祝日"
    ],
    "openDaysNote": "但し、12/30からその翌年1/3までは日曜日が含まれても全日営業とする"
  },
  {
    "id": "1970100150",
    "name": "奥湯村指定通所介護事業所",
    "kana": "オクユムラシテイツウショカイゴジギョウショ",
    "address": "山梨県甲府市羽黒町1657-5",
    "lat": 35.692728,
    "lng": 138.5502493,
    "tel": "055-253-1165",
    "url": "okuyumura.or.jp",
    "pref": "山梨県",
    "city": "甲府市",
    "category": "day_service",
    "serviceType": "通所介護",
    "capacity": 0,
    "openDays": [
      "平日",
      "土曜日",
      "日曜日",
      "祝日"
    ],
    "openDaysNote": ""
  },
  {
    "id": "1970103675",
    "name": "介護予防センター　早稲田イーライフ南甲府",
    "kana": "カイゴヨボウセンター　ワセダイーライフミナミコウフ",
    "address": "山梨県甲府市南口町1-40文化センターペアーレ山梨2階 文化センターペアーレ山梨2階",
    "lat": 35.6431886,
    "lng": 138.5768562,
    "tel": "055-226-5705",
    "url": "http://e-lifeminamikoufu.com/",
    "pref": "山梨県",
    "city": "甲府市",
    "category": "day_service",
    "serviceType": "通所介護",
    "capacity": 0,
    "openDays": [
      "平日"
    ],
    "openDaysNote": ""
  },
  {
    "id": "1970100184",
    "name": "快晴苑デイサービスセンター",
    "kana": "カイセイエンデイサービスセンター",
    "address": "山梨県甲府市大津町３３３",
    "lat": 35.6090926,
    "lng": 138.5639042,
    "tel": "055-243-3939",
    "url": "http://www.h5.dion.ne.jp/~kaiseien/",
    "pref": "山梨県",
    "city": "甲府市",
    "category": "day_service",
    "serviceType": "通所介護",
    "capacity": null,
    "openDays": [
      "平日",
      "祝日"
    ],
    "openDaysNote": "定休日には日直者がおり、夜間は宿直者がおり、連絡を取れるようにしてある。"
  },
  {
    "id": "1970102594",
    "name": "甲州茶話本舗デイサービスこうふ亭",
    "kana": "コウシュウサワホンポデイサービスコウフテイ",
    "address": "山梨県甲府市里吉1-6-1",
    "lat": 35.6522679,
    "lng": 138.5877698,
    "tel": "055-233-7500",
    "url": "",
    "pref": "山梨県",
    "city": "甲府市",
    "category": "day_service",
    "serviceType": "通所介護",
    "capacity": null,
    "openDays": [
      "平日",
      "土曜日",
      "日曜日",
      "祝日"
    ],
    "openDaysNote": ""
  },
  {
    "id": "1970101554",
    "name": "甲府ケアセンターそよ風",
    "kana": "コウフケアセンターソヨカゼ",
    "address": "山梨県甲府市富竹３－３－５",
    "lat": 35.6555718,
    "lng": 138.5425655,
    "tel": "055-236-6266",
    "url": "https://corp.sykz.co.jp/",
    "pref": "山梨県",
    "city": "甲府市",
    "category": "day_service",
    "serviceType": "通所介護",
    "capacity": 35,
    "openDays": [
      "平日",
      "土曜日",
      "祝日"
    ],
    "openDaysNote": ""
  },
  {
    "id": "1970102099",
    "name": "甲府市上九一色デイサービスセンター",
    "kana": "コウフシ　カミクイシキデイサービスセンター",
    "address": "山梨県甲府市古関町1174番地",
    "lat": 35.5310119,
    "lng": 138.6100788,
    "tel": "0555-88-2526",
    "url": "http://www.kofu-syakyo.or.jp/",
    "pref": "山梨県",
    "city": "甲府市",
    "category": "day_service",
    "serviceType": "通所介護",
    "capacity": 14,
    "openDays": [
      "平日"
    ],
    "openDaysNote": "土・日曜日、祝日、12月29日～1月3日の営業については、必要に応じて甲府市と協議の上、社会福祉法人甲府市社会福祉協議会会長が決定する。（改行）臨時休業・・・大雪や台風の天候時、または規定降雨量に達し道路通行止めとなった場合"
  },
  {
    "id": "1970102578",
    "name": "在宅福祉エ・ビーナ",
    "kana": "ザイタクフクシエ・ビーナ",
    "address": "山梨県甲府市青沼一丁目１２－２７",
    "lat": 35.6547977,
    "lng": 138.5738875,
    "tel": "055-268-2846",
    "url": "",
    "pref": "山梨県",
    "city": "甲府市",
    "category": "day_service",
    "serviceType": "通所介護",
    "capacity": null,
    "openDays": [
      "平日",
      "祝日"
    ],
    "openDaysNote": "平日に応答する祝日は営業いたします。"
  },
  {
    "id": "1970102412",
    "name": "指定通所介護事業所　ふぁみりー",
    "kana": "シテイツウショカイゴジギョウショファミリー",
    "address": "山梨県甲府市湯村３丁目１８－１２",
    "lat": 35.6844652,
    "lng": 138.5469444,
    "tel": "055-267-7044",
    "url": "",
    "pref": "山梨県",
    "city": "甲府市",
    "category": "day_service",
    "serviceType": "通所介護",
    "capacity": 0,
    "openDays": [
      "平日",
      "土曜日",
      "日曜日",
      "祝日"
    ],
    "openDaysNote": ""
  },
  {
    "id": "1970500565",
    "name": "指定通所介護事業所コスモ",
    "kana": "シテイツウショカイゴジギョウショコスモ",
    "address": "山梨県甲府市下向山町１２８０－１",
    "lat": 35.5893734,
    "lng": 138.5808953,
    "tel": "055-266-8000",
    "url": "http://www17.ocn.ne.jp/~cosumo.1/",
    "pref": "山梨県",
    "city": "甲府市",
    "category": "day_service",
    "serviceType": "通所介護",
    "capacity": null,
    "openDays": [
      "平日",
      "土曜日",
      "祝日"
    ],
    "openDaysNote": ""
  },
  {
    "id": "1970103352",
    "name": "社会福祉法人　正寿福祉会　憩いホーム緑町",
    "kana": "シャカイフクシホウジン　ショウジュフクシカイ　イコイホームミドリマチ",
    "address": "甲府市若松町４－１５憩いホーム緑町 憩いホーム緑町",
    "lat": 35.6565641,
    "lng": 138.5707294,
    "tel": "055－269-7808",
    "url": "",
    "pref": "山梨県",
    "city": "甲府市",
    "category": "day_service",
    "serviceType": "通所介護",
    "capacity": null,
    "openDays": [
      "平日",
      "祝日"
    ],
    "openDaysNote": ""
  },
  {
    "id": "1970101224",
    "name": "社会福祉法人豊住福祉会りぼんデイサービスセンター",
    "kana": "シャカイフクシホウジントヨズミフクシカイリボンデイサービスセンター",
    "address": "山梨県甲府市高畑２－８－２",
    "lat": 35.6474594,
    "lng": 138.5628056,
    "tel": "055-222-4456",
    "url": "",
    "pref": "山梨県",
    "city": "甲府市",
    "category": "day_service",
    "serviceType": "通所介護",
    "capacity": 0,
    "openDays": [
      "平日",
      "祝日"
    ],
    "openDaysNote": ""
  },
  {
    "id": "1970101083",
    "name": "尚古園デイサービスセンター",
    "kana": "ショウコエンデイサービスセンター",
    "address": "山梨県甲府市和田町2948-6",
    "lat": 35.6875333,
    "lng": 138.5615661,
    "tel": "055-255-1215",
    "url": "http://www.zenrinkai.or.jp",
    "pref": "山梨県",
    "city": "甲府市",
    "category": "day_service",
    "serviceType": "通所介護",
    "capacity": 25,
    "openDays": [
      "平日",
      "土曜日",
      "祝日"
    ],
    "openDaysNote": "なし"
  },
  {
    "id": "1970102396",
    "name": "尚古園中央デイサービスセンター",
    "kana": "ショウコエンチュウオウデイサービスセンター",
    "address": "甲府市中央1丁目１６－２",
    "lat": 35.6591165,
    "lng": 138.570021,
    "tel": "055-237-3650",
    "url": "http//www.zenrinkai.or.jp",
    "pref": "山梨県",
    "city": "甲府市",
    "category": "day_service",
    "serviceType": "通所介護",
    "capacity": null,
    "openDays": [
      "平日",
      "土曜日",
      "祝日"
    ],
    "openDaysNote": "年末・年始休業"
  },
  {
    "id": "1970102156",
    "name": "青葉町デイサービスセンター",
    "kana": "アオバチョウデイサービスセンター",
    "address": "山梨県甲府市青葉町14-15",
    "lat": 35.643976,
    "lng": 138.5823548,
    "tel": "055-236-5159",
    "url": "http://www.kei-you.jp",
    "pref": "山梨県",
    "city": "甲府市",
    "category": "day_service",
    "serviceType": "通所介護",
    "capacity": 0,
    "openDays": [
      "平日",
      "土曜日",
      "祝日"
    ],
    "openDaysNote": ""
  },
  {
    "id": "1970100408",
    "name": "大国デイサービスセンター",
    "kana": "オオクニデイサービスセンター",
    "address": "甲府市後屋町２０７",
    "lat": 35.6316725,
    "lng": 138.5634258,
    "tel": "055-243-2122",
    "url": "http://www.ohkunikai.com/",
    "pref": "山梨県",
    "city": "甲府市",
    "category": "day_service",
    "serviceType": "通所介護",
    "capacity": 20,
    "openDays": [
      "平日",
      "土曜日",
      "日曜日",
      "祝日"
    ],
    "openDaysNote": "なし"
  },
  {
    "id": "1970104798",
    "name": "短時間型と夜型のデイサービス　ワンライフ",
    "kana": "タンジカンガタトヨルガタノデイサービス　ワンライフ",
    "address": "山梨県甲府市飯田3丁目5-3　2F",
    "lat": 35.6661415187882,
    "lng": 138.55949810503,
    "tel": "055-270-0824",
    "url": "https://onelife-k.com",
    "pref": "山梨県",
    "city": "甲府市",
    "category": "day_service",
    "serviceType": "通所介護",
    "capacity": 0,
    "openDays": [
      "平日",
      "土曜日",
      "祝日"
    ],
    "openDaysNote": "1/1～1/2休み"
  },
  {
    "id": "1970102602",
    "name": "通所介護　「歳深み」",
    "kana": "ツウショカイゴ　「トシフカミ」",
    "address": "山梨県甲府市中小河原町1608-1",
    "lat": 35.6306327,
    "lng": 138.5690142,
    "tel": "055-242-3000",
    "url": "https://koharubi-kaigo.com",
    "pref": "山梨県",
    "city": "甲府市",
    "category": "day_service",
    "serviceType": "通所介護",
    "capacity": 20,
    "openDays": [
      "平日",
      "土曜日",
      "祝日"
    ],
    "openDaysNote": ""
  },
  {
    "id": "1970103279",
    "name": "通所介護事業所コスモ・アンシア",
    "kana": "ツウショカイゴジギョウショコスモ・アンシア",
    "address": "山梨県甲府市相生3-3-14",
    "lat": 35.6536957,
    "lng": 138.5697377,
    "tel": "055-221-8000",
    "url": "https://ikiikiclub.com/",
    "pref": "山梨県",
    "city": "甲府市",
    "category": "day_service",
    "serviceType": "通所介護",
    "capacity": 0,
    "openDays": [
      "平日",
      "土曜日",
      "日曜日",
      "祝日"
    ],
    "openDaysNote": ""
  },
  {
    "id": "1970102644",
    "name": "東甲府ケアセンターひばり",
    "kana": "ヒガシコウフケアセンター　ヒバリ",
    "address": "甲府市川田町40－2",
    "lat": 35.655922,
    "lng": 138.6198013,
    "tel": "055-222-0011",
    "url": "https://ekh-hibari.jimdofree.com/",
    "pref": "山梨県",
    "city": "甲府市",
    "category": "day_service",
    "serviceType": "通所介護",
    "capacity": null,
    "openDays": [
      "平日",
      "土曜日",
      "祝日"
    ],
    "openDaysNote": "年末年始に休みはその年の曜日の状況により変更の可能性あり。"
  },
  {
    "id": "1970101299",
    "name": "特定非営利活動法人デイサービス真心",
    "kana": "トクテイヒエイリカツドウホウジンデイサービスマゴコロ",
    "address": "山梨県甲府市国玉町７５４－５",
    "lat": 35.6479906,
    "lng": 138.6023244,
    "tel": "055-235-7210",
    "url": "",
    "pref": "山梨県",
    "city": "甲府市",
    "category": "day_service",
    "serviceType": "通所介護",
    "capacity": 0,
    "openDays": [
      "平日",
      "祝日"
    ],
    "openDaysNote": "なし"
  },
  {
    "id": "1970103477",
    "name": "南甲府ケアセンターそよ風",
    "kana": "ミナミコウフケアセンターソヨカゼ",
    "address": "山梨県甲府市住吉3-27-7",
    "lat": 35.6394797,
    "lng": 138.5853056,
    "tel": "055-221-8341",
    "url": "http://www.unimat-rc.co.jp/company/",
    "pref": "山梨県",
    "city": "甲府市",
    "category": "day_service",
    "serviceType": "通所介護",
    "capacity": 43,
    "openDays": [
      "平日",
      "土曜日",
      "祝日"
    ],
    "openDaysNote": ""
  },
  {
    "id": "1970102982",
    "name": "虹の郷甲府",
    "kana": "ニジノサトコウフ",
    "address": "山梨県甲府市住吉5-3-17",
    "lat": 35.6358335,
    "lng": 138.5792909,
    "tel": "055-269-6133",
    "url": "",
    "pref": "山梨県",
    "city": "甲府市",
    "category": "day_service",
    "serviceType": "通所介護",
    "capacity": null,
    "openDays": [
      "平日",
      "祝日"
    ],
    "openDaysNote": ""
  },
  {
    "id": "1970200505",
    "name": "あい山梨市",
    "kana": "アイヤマナシシ",
    "address": "下井尻894番地あい山梨市 あい山梨市",
    "lat": 35.7002462,
    "lng": 138.7049232,
    "tel": "0553-39-9090",
    "url": "http://www.shinnihontsuusan.co.jp/index.html",
    "pref": "山梨県",
    "city": "山梨市",
    "category": "day_service",
    "serviceType": "通所介護",
    "capacity": null,
    "openDays": [
      "平日",
      "祝日"
    ],
    "openDaysNote": ""
  },
  {
    "id": "1970200711",
    "name": "ケアステーションあさひ甲州",
    "kana": "ケアステーションアサヒコウシュウ",
    "address": "山梨県山梨市下井尻字相畑340番5",
    "lat": 35.7002462,
    "lng": 138.7049232,
    "tel": "0553-21-8523",
    "url": "http://www.vati.co.jp/",
    "pref": "山梨県",
    "city": "山梨市",
    "category": "day_service",
    "serviceType": "通所介護",
    "capacity": 0,
    "openDays": [
      "平日",
      "土曜日",
      "日曜日",
      "祝日"
    ],
    "openDaysNote": ""
  },
  {
    "id": "1970200422",
    "name": "サンコート山梨デイサービスセンター",
    "kana": "サンコートヤマナシデイサービスセンター",
    "address": "山梨市落合７８１－１",
    "lat": 35.6841988,
    "lng": 138.6642492,
    "tel": "0553-23-1165",
    "url": "www.katsunuma/~skycourt/",
    "pref": "山梨県",
    "city": "山梨市",
    "category": "day_service",
    "serviceType": "通所介護",
    "capacity": null,
    "openDays": [
      "平日",
      "土曜日",
      "祝日"
    ],
    "openDaysNote": ""
  },
  {
    "id": "1970200547",
    "name": "デイサービスセンター　サテライト桃源荘ピーチ",
    "kana": "デイサービスセンター　サテライトトウゲンソウピーチ",
    "address": "山梨県山梨市一町田中197",
    "lat": 35.6632554,
    "lng": 138.6730504,
    "tel": "0553-21-7120",
    "url": "http://www.yfj.or.jp/",
    "pref": "山梨県",
    "city": "山梨市",
    "category": "day_service",
    "serviceType": "通所介護",
    "capacity": null,
    "openDays": [
      "平日",
      "土曜日",
      "祝日"
    ],
    "openDaysNote": ""
  },
  {
    "id": "1970200406",
    "name": "デイサービスセンター湯苗田",
    "kana": "デイサービスセンター　ユナエダ",
    "address": "山梨市牧丘町室伏２４５２",
    "lat": 35.7524955,
    "lng": 138.7217067,
    "tel": "0553-35-5526",
    "url": "http://www.fruits.jp/~jyukokai/",
    "pref": "山梨県",
    "city": "山梨市",
    "category": "day_service",
    "serviceType": "通所介護",
    "capacity": null,
    "openDays": [
      "平日",
      "祝日"
    ],
    "openDaysNote": ""
  },
  {
    "id": "1970200638",
    "name": "デイサービスリアン",
    "kana": "デイサービスリアン",
    "address": "山梨県山梨市七日市場７１０－１コミュニティサポートリアン コミュニティサポートリアン",
    "lat": 35.7002491268615,
    "lng": 138.699262765406,
    "tel": "0553-20-1081",
    "url": "hhttp://www.fruits.jp/~jyukokai/",
    "pref": "山梨県",
    "city": "山梨市",
    "category": "day_service",
    "serviceType": "通所介護",
    "capacity": null,
    "openDays": [
      "平日",
      "祝日"
    ],
    "openDaysNote": ""
  },
  {
    "id": "1970200489",
    "name": "デイサービス日和",
    "kana": "デイサービスヒヨリ",
    "address": "山梨県山梨市南１００６－５",
    "lat": 35.7001707,
    "lng": 138.688969,
    "tel": "0553-22-2210",
    "url": "",
    "pref": "山梨県",
    "city": "山梨市",
    "category": "day_service",
    "serviceType": "通所介護",
    "capacity": null,
    "openDays": [
      "平日",
      "祝日"
    ],
    "openDaysNote": ""
  },
  {
    "id": "1970200265",
    "name": "デイサービス福寿の家",
    "kana": "デイサービス　フクジュノイエ",
    "address": "山梨県山梨市北９１３－５",
    "lat": 35.7036897,
    "lng": 138.688219,
    "tel": "0553-23-5517",
    "url": "",
    "pref": "山梨県",
    "city": "山梨市",
    "category": "day_service",
    "serviceType": "通所介護",
    "capacity": null,
    "openDays": [
      "平日",
      "土曜日",
      "日曜日",
      "祝日"
    ],
    "openDaysNote": ""
  },
  {
    "id": "1970200471",
    "name": "ゆららかデイサービス",
    "kana": "ユララカデイサービス",
    "address": "山梨県山梨市歌田110‐3コンフォートヤマナシ1階 コンフォートヤマナシ1階",
    "lat": 35.6647343,
    "lng": 138.6891452,
    "tel": "0553‐23‐0122",
    "url": "https://yuraraka.co.jp",
    "pref": "山梨県",
    "city": "山梨市",
    "category": "day_service",
    "serviceType": "通所介護",
    "capacity": 0,
    "openDays": [
      "平日",
      "土曜日",
      "日曜日",
      "祝日"
    ],
    "openDaysNote": ""
  },
  {
    "id": "1970200463",
    "name": "恵信サテライトロジェ山梨",
    "kana": "ケイシンサテライトロジェヤマナシ",
    "address": "山梨県山梨市落合464-1",
    "lat": 35.6787405,
    "lng": 138.6580389,
    "tel": "0553-39-8380",
    "url": "http://www.keishin-group.net/satellite/index.html",
    "pref": "山梨県",
    "city": "山梨市",
    "category": "day_service",
    "serviceType": "通所介護",
    "capacity": 45,
    "openDays": [
      "平日",
      "土曜日",
      "祝日"
    ],
    "openDaysNote": ""
  },
  {
    "id": "1970200158",
    "name": "恵信ロジェ山梨",
    "kana": "ケイシンロジェヤマナシ",
    "address": "山梨県山梨市南１３３５",
    "lat": 35.70064,
    "lng": 138.6855859,
    "tel": "0553-20-1711",
    "url": "http://www.keishin-group.net/roger/index.htm",
    "pref": "山梨県",
    "city": "山梨市",
    "category": "day_service",
    "serviceType": "通所介護",
    "capacity": null,
    "openDays": [
      "平日",
      "土曜日",
      "祝日"
    ],
    "openDaysNote": ""
  },
  {
    "id": "1970200174",
    "name": "山梨ケアセンターそよ風",
    "kana": "ヤマナシケアセンターソヨカゼ",
    "address": "山梨県山梨市上神内川15-5",
    "lat": 35.685103,
    "lng": 138.6868335,
    "tel": "0553-21-8071",
    "url": "",
    "pref": "山梨県",
    "city": "山梨市",
    "category": "day_service",
    "serviceType": "通所介護",
    "capacity": 0,
    "openDays": [
      "平日",
      "土曜日",
      "祝日"
    ],
    "openDaysNote": ""
  },
  {
    "id": "1970200737",
    "name": "山梨市デイサービスセンター",
    "kana": "ヤマナシシデイサービスセンター",
    "address": "山梨県山梨市小原西649-1",
    "lat": 35.646078,
    "lng": 138.8095201,
    "tel": "0553－34－8355",
    "url": "",
    "pref": "山梨県",
    "city": "山梨市",
    "category": "day_service",
    "serviceType": "通所介護",
    "capacity": 0,
    "openDays": [
      "平日",
      "土曜日",
      "日曜日",
      "祝日"
    ],
    "openDaysNote": "基本的には、年中無休だが職員研修等による休み(年1回～2回）"
  },
  {
    "id": "1970200364",
    "name": "山梨市三富デイサービスセンター",
    "kana": "ヤマナシシミトミデイサービスセンター",
    "address": "山梨市三富下釜口４５４",
    "lat": 35.7840245,
    "lng": 138.7376207,
    "tel": "0553-39-2633",
    "url": "",
    "pref": "山梨県",
    "city": "山梨市",
    "category": "day_service",
    "serviceType": "通所介護",
    "capacity": null,
    "openDays": [
      "平日",
      "土曜日",
      "祝日"
    ],
    "openDaysNote": "なし"
  },
  {
    "id": "1970400139",
    "name": "笛吹荘デイサービスセンター",
    "kana": "フエフキソウデイサービスセンター",
    "address": "山梨県山梨市牧丘町室伏２４５２番地",
    "lat": 35.7524955,
    "lng": 138.7217067,
    "tel": "0553-35-3726",
    "url": "http://www.fruits.jp/~jyukokai/",
    "pref": "山梨県",
    "city": "山梨市",
    "category": "day_service",
    "serviceType": "通所介護",
    "capacity": null,
    "openDays": [
      "平日",
      "土曜日",
      "祝日"
    ],
    "openDaysNote": ""
  },
  {
    "id": "1970600373",
    "name": "市川三郷町デイサービスセンター",
    "kana": "イチカワミサトデイサービスセンター",
    "address": "山梨県西八代郡市川三郷町市川大門416番地",
    "lat": 35.5599756,
    "lng": 138.4928621,
    "tel": "055-272-5169",
    "url": "http://www1.ocn.ne.jp/~i-shakyo/",
    "pref": "山梨県",
    "city": "市川三郷町",
    "category": "day_service",
    "serviceType": "通所介護",
    "capacity": null,
    "openDays": [
      "平日",
      "土曜日",
      "祝日"
    ],
    "openDaysNote": ""
  },
  {
    "id": "1970600035",
    "name": "清珠荘　デイサービスセンター",
    "kana": "セイジュソウ　デイサービスセンター",
    "address": "山梨県西八代郡市川三郷町岩間５０００番地",
    "lat": 35.4863248,
    "lng": 138.4589789,
    "tel": "0556-32-3838",
    "url": "http://www10.ocn.ne.jp/~seijusou/",
    "pref": "山梨県",
    "city": "市川三郷町",
    "category": "day_service",
    "serviceType": "通所介護",
    "capacity": null,
    "openDays": [
      "平日",
      "土曜日",
      "祝日"
    ],
    "openDaysNote": "上記以外の休日は、年末年始　（12/31～1/3）とする。"
  },
  {
    "id": "1971500101",
    "name": "小菅村指定通所介護事業所",
    "kana": "コスゲムラシテイツウショカイゴジギョウショ",
    "address": "山梨県北都留郡小菅村6,027",
    "lat": 35.760124,
    "lng": 138.9401611,
    "tel": "0428-87-0431",
    "url": "",
    "pref": "山梨県",
    "city": "小菅村",
    "category": "day_service",
    "serviceType": "通所介護",
    "capacity": null,
    "openDays": [
      "平日"
    ],
    "openDaysNote": ""
  },
  {
    "id": "1970801096",
    "name": "あい常永",
    "kana": "アイジョウエイ",
    "address": "河西278番地1あい常永 あい常永",
    "lat": 34.5077378,
    "lng": 135.849357,
    "tel": "055-288-8000",
    "url": "http://www.shinnihontsuusan.co.jp/index.html",
    "pref": "山梨県",
    "city": "昭和町",
    "category": "day_service",
    "serviceType": "通所介護",
    "capacity": null,
    "openDays": [
      "平日",
      "祝日"
    ],
    "openDaysNote": ""
  },
  {
    "id": "1970801054",
    "name": "デイサービス　りばーはうすひだまり",
    "kana": "デイサービス　リバーハウスヒダマリ",
    "address": "山梨県中巨摩郡昭和町河西1235-4",
    "lat": 35.6141353,
    "lng": 138.5186964,
    "tel": "552757000",
    "url": "http://care-net.biz/19/hidamari/",
    "pref": "山梨県",
    "city": "昭和町",
    "category": "day_service",
    "serviceType": "通所介護",
    "capacity": 13,
    "openDays": [
      "平日",
      "土曜日",
      "祝日"
    ],
    "openDaysNote": ""
  },
  {
    "id": "1970800825",
    "name": "デイサービス　りばーはうすひだまり",
    "kana": "デイサービス　リバーハウスヒダマリ",
    "address": "山梨県中巨摩郡昭和町河西1493",
    "lat": 35.6149534,
    "lng": 138.520071,
    "tel": "055-275-6106",
    "url": "http://care-net.biz/19/hidamari/",
    "pref": "山梨県",
    "city": "昭和町",
    "category": "day_service",
    "serviceType": "通所介護",
    "capacity": 0,
    "openDays": [
      "平日",
      "土曜日",
      "日曜日",
      "祝日"
    ],
    "openDaysNote": ""
  },
  {
    "id": "1970801260",
    "name": "フクエス昭和",
    "kana": "フクエスショウワ",
    "address": "山梨県中巨摩郡昭和町西条5278",
    "lat": 35.644282,
    "lng": 138.5413317,
    "tel": "055-270-0007",
    "url": "",
    "pref": "山梨県",
    "city": "昭和町",
    "category": "day_service",
    "serviceType": "通所介護",
    "capacity": 0,
    "openDays": [
      "平日",
      "土曜日",
      "祝日"
    ],
    "openDaysNote": ""
  },
  {
    "id": "1970800635",
    "name": "まごころ指定通所介護事業所",
    "kana": "マゴコロシテイツウショカイゴジギョウショ",
    "address": "山梨県中巨摩郡昭和町西条新田３６６の５",
    "lat": 35.6397267,
    "lng": 138.5328978,
    "tel": "055-240-7665",
    "url": "",
    "pref": "山梨県",
    "city": "昭和町",
    "category": "day_service",
    "serviceType": "通所介護",
    "capacity": 10,
    "openDays": [
      "平日",
      "土曜日",
      "祝日"
    ],
    "openDaysNote": "１２月２９日から１月３日を冬期休暇とする。"
  },
  {
    "id": "1970800361",
    "name": "昭寿荘デイサービスセンター",
    "kana": "ショウジュソウデイサービスセンター",
    "address": "山梨県中巨摩郡昭和町西条2605",
    "lat": 35.6421486,
    "lng": 138.539036,
    "tel": "055-275-5551",
    "url": "",
    "pref": "山梨県",
    "city": "昭和町",
    "category": "day_service",
    "serviceType": "通所介護",
    "capacity": null,
    "openDays": [
      "平日",
      "土曜日"
    ],
    "openDaysNote": ""
  },
  {
    "id": "1970801062",
    "name": "昭和デイサービスセンター",
    "kana": "ショウワデイサービスセンター",
    "address": "山梨県中巨摩郡昭和町河西１１４９－２",
    "lat": 35.6184737,
    "lng": 138.5198296,
    "tel": "055-288-0712",
    "url": "https://sasamotokai.net/sasanohakai",
    "pref": "山梨県",
    "city": "昭和町",
    "category": "day_service",
    "serviceType": "通所介護",
    "capacity": 0,
    "openDays": [
      "平日",
      "土曜日",
      "祝日"
    ],
    "openDaysNote": ""
  },
  {
    "id": "1972000408",
    "name": "あいらーく鶴川宿",
    "kana": "アイラークツルカワジュク",
    "address": "山梨県上野原市鶴川89",
    "lat": 35.6361251600377,
    "lng": 139.10181527875,
    "tel": "0554-63-3305",
    "url": "",
    "pref": "山梨県",
    "city": "上野原市",
    "category": "day_service",
    "serviceType": "通所介護",
    "capacity": null,
    "openDays": [
      "平日",
      "土曜日",
      "日曜日",
      "祝日"
    ],
    "openDaysNote": "年末年始は休業"
  },
  {
    "id": "1971500192",
    "name": "あい里　通所介護事業所",
    "kana": "アイリ　ツウショカイゴジギョウショ",
    "address": "山梨県上野原市コモアしおつ1-41-1",
    "lat": 35.6219755,
    "lng": 139.0772527,
    "tel": "0554-20-6001",
    "url": "https://airicare.co.jp",
    "pref": "山梨県",
    "city": "上野原市",
    "category": "day_service",
    "serviceType": "通所介護",
    "capacity": 8,
    "openDays": [
      "平日",
      "土曜日",
      "日曜日",
      "祝日"
    ],
    "openDaysNote": "１２月３１日～１月１日利用者が少ないときは、休日とさせていただきます。"
  },
  {
    "id": "1972000341",
    "name": "デイサービスらくっと",
    "kana": "デイサービスラクット",
    "address": "山梨県上野原市上野原3584番地",
    "lat": 35.629370136958,
    "lng": 139.111996598217,
    "tel": "554567678",
    "url": "http://www7b.biglobe.ne.jp/~rakutto/",
    "pref": "山梨県",
    "city": "上野原市",
    "category": "day_service",
    "serviceType": "通所介護",
    "capacity": 15,
    "openDays": [
      "平日",
      "土曜日",
      "祝日"
    ],
    "openDaysNote": ""
  },
  {
    "id": "1971500135",
    "name": "デイホームにんじん・上野原",
    "kana": "デイホームニンジン・ウエノハラ",
    "address": "山梨県上野原市上野原522",
    "lat": 35.6236436,
    "lng": 139.1188812,
    "tel": "0554-62-6222",
    "url": "http://www.ninjin.or.jp/",
    "pref": "山梨県",
    "city": "上野原市",
    "category": "day_service",
    "serviceType": "通所介護",
    "capacity": 0,
    "openDays": [
      "平日",
      "土曜日",
      "祝日"
    ],
    "openDaysNote": "特になし"
  },
  {
    "id": "1972000051",
    "name": "フェリーチェ上野原",
    "kana": "フェリーチェウエノハラ",
    "address": "山梨県上野原市大椚６１１番地",
    "lat": 35.6345136,
    "lng": 139.0906528,
    "tel": "0554-63-0294",
    "url": "http://www.heisei294.org",
    "pref": "山梨県",
    "city": "上野原市",
    "category": "day_service",
    "serviceType": "通所介護",
    "capacity": null,
    "openDays": [
      "平日",
      "祝日"
    ],
    "openDaysNote": "特になし"
  },
  {
    "id": "1971500168",
    "name": "やすらぎ荘上野原指定通所介護事業所",
    "kana": "ヤスラギソウ　ウエノハラ　シテイツウショカイゴジギョウショ",
    "address": "山梨県上野原市上野原3446",
    "lat": 35.6290565,
    "lng": 139.1125349,
    "tel": "0554-62-1101",
    "url": "https://ryokusui.or.jp/",
    "pref": "山梨県",
    "city": "上野原市",
    "category": "day_service",
    "serviceType": "通所介護",
    "capacity": 0,
    "openDays": [
      "平日",
      "土曜日",
      "祝日"
    ],
    "openDaysNote": ""
  },
  {
    "id": "1972000309",
    "name": "山なしこあら指定通所介護事業所",
    "kana": "ヤマナシコアラシテイツウショカイゴジギョウショ",
    "address": "山梨県上野原市鶴島589-4",
    "lat": 35.6116618,
    "lng": 139.1239423,
    "tel": "554636337",
    "url": "",
    "pref": "山梨県",
    "city": "上野原市",
    "category": "day_service",
    "serviceType": "通所介護",
    "capacity": 25,
    "openDays": [
      "平日",
      "土曜日",
      "祝日"
    ],
    "openDaysNote": ""
  },
  {
    "id": "1970701148",
    "name": "さいデイサービスセンターみのぶ",
    "kana": "サイデイサービスセンターミノブ",
    "address": "山梨県南巨摩郡身延町切石４２１－１",
    "lat": 35.4677604865448,
    "lng": 138.441967401852,
    "tel": "０５５６－４２－６０５５",
    "url": "",
    "pref": "山梨県",
    "city": "身延町",
    "category": "day_service",
    "serviceType": "通所介護",
    "capacity": 0,
    "openDays": [
      "平日",
      "土曜日",
      "日曜日",
      "祝日"
    ],
    "openDaysNote": "年末年始やお盆など利用者様のご利用が少ない際は、ご本人様・ご家族様と相談して変更可能であればご利用日を変更して頂くことはございます。延長利用のご希望がある場合には８：３０～１９：００までの対応を可能とする"
  },
  {
    "id": "1970700686",
    "name": "デイサービスセンターむぎの穂",
    "kana": "デイサービスセンタームギノホ",
    "address": "山梨県南巨摩郡身延町上八木沢575番地",
    "lat": 35.4148742,
    "lng": 138.458114,
    "tel": "0556-62-6061",
    "url": "",
    "pref": "山梨県",
    "city": "身延町",
    "category": "day_service",
    "serviceType": "通所介護",
    "capacity": null,
    "openDays": [
      "平日",
      "土曜日",
      "祝日"
    ],
    "openDaysNote": "夏期休業8月14日、15日。年末年始休業12月29日から、翌年1月3日まで。"
  },
  {
    "id": "1970700058",
    "name": "みのぶ荘",
    "kana": "ミノブソウ",
    "address": "山梨県南巨摩郡身延町梅平2483番地122",
    "lat": 35.3703628,
    "lng": 138.4447434,
    "tel": "0556-62-3131",
    "url": "http://www.jsyamanashi.jp/minobusanfukushikai/",
    "pref": "山梨県",
    "city": "身延町",
    "category": "day_service",
    "serviceType": "通所介護",
    "capacity": null,
    "openDays": [
      "平日",
      "土曜日",
      "祝日"
    ],
    "openDaysNote": "特になし"
  },
  {
    "id": "1970600183",
    "name": "老人デイサービスセンターしもべ荘",
    "kana": "ロウジンデイサービスセンターシモベソウ",
    "address": "山梨県南巨摩郡身延町常葉７０５８番地１",
    "lat": 35.4286239,
    "lng": 138.4782271,
    "tel": "0556-20-3111",
    "url": "",
    "pref": "山梨県",
    "city": "身延町",
    "category": "day_service",
    "serviceType": "通所介護",
    "capacity": 0,
    "openDays": [
      "平日",
      "土曜日",
      "祝日"
    ],
    "openDaysNote": ""
  },
  {
    "id": "1971300478",
    "name": "デイサービス　ひかり",
    "kana": "デイサービス　ヒカリ",
    "address": "山梨県南都留郡西桂町倉見199番地",
    "lat": 35.5194078,
    "lng": 138.8461666,
    "tel": "0555-25-3716",
    "url": "",
    "pref": "山梨県",
    "city": "西桂町",
    "category": "day_service",
    "serviceType": "通所介護",
    "capacity": null,
    "openDays": [
      "平日",
      "土曜日",
      "祝日"
    ],
    "openDaysNote": "希望により、朝7時から夜9時までの延長利用を受け付けています。"
  },
  {
    "id": "1971300783",
    "name": "西桂地域福祉事業所　ばいかも",
    "kana": "ニシカツラチイキフクシジギョウショ　バイカモ",
    "address": "山梨県南都留郡西桂町下暮地915-7いきいき健康福祉センター いきいき健康福祉センター",
    "lat": 35.5236907,
    "lng": 138.842914,
    "tel": "0555-25-3300",
    "url": "",
    "pref": "山梨県",
    "city": "西桂町",
    "category": "day_service",
    "serviceType": "通所介護",
    "capacity": null,
    "openDays": [
      "平日",
      "土曜日",
      "祝日"
    ],
    "openDaysNote": ""
  },
  {
    "id": "1971300122",
    "name": "西桂通所介護事業所",
    "kana": "ニシカツラツウショカイゴジギョウショ",
    "address": "山梨県南都留郡西桂町下暮地915－7",
    "lat": 35.5236907,
    "lng": 138.842914,
    "tel": "0555-25-3300",
    "url": "",
    "pref": "山梨県",
    "city": "西桂町",
    "category": "day_service",
    "serviceType": "通所介護",
    "capacity": 0,
    "openDays": [
      "平日",
      "土曜日",
      "祝日"
    ],
    "openDaysNote": ""
  },
  {
    "id": "1971400484",
    "name": "デイサービス　藤の里",
    "kana": "デイサービス　フジノサト",
    "address": "山梨県大月市猿橋町藤崎１０５９",
    "lat": 35.6060818,
    "lng": 138.9930523,
    "tel": "0554-23-2940",
    "url": "",
    "pref": "山梨県",
    "city": "大月市",
    "category": "day_service",
    "serviceType": "通所介護",
    "capacity": null,
    "openDays": [
      "平日",
      "土曜日"
    ],
    "openDaysNote": ""
  },
  {
    "id": "1971400567",
    "name": "デイサービスセンター「ハッピーサークル」",
    "kana": "デイサービスセンター「ハッピーサークル」",
    "address": "山梨県大月市七保町葛野1574番地2",
    "lat": 35.6297418,
    "lng": 138.9576447,
    "tel": "0554-22-2770",
    "url": "",
    "pref": "山梨県",
    "city": "大月市",
    "category": "day_service",
    "serviceType": "通所介護",
    "capacity": 10,
    "openDays": [
      "平日",
      "祝日"
    ],
    "openDaysNote": ""
  },
  {
    "id": "1971400070",
    "name": "デイサービスセンター「やまゆり」",
    "kana": "デイサービスセンター「ヤマユリ」",
    "address": "山梨県大月市富浜町宮谷１５１８－１",
    "lat": 35.6242404,
    "lng": 138.9831673,
    "tel": "0554-20-1130",
    "url": "",
    "pref": "山梨県",
    "city": "大月市",
    "category": "day_service",
    "serviceType": "通所介護",
    "capacity": 40,
    "openDays": [
      "平日",
      "土曜日",
      "祝日"
    ],
    "openDaysNote": "第一、第三土曜日は原則営業日。祝日は土曜日との関連で営業日もある。年始年末を除き３連休はしない。"
  },
  {
    "id": "1971400385",
    "name": "デイサービスセンターシニア",
    "kana": "デイサービスセンターシニア",
    "address": "山梨県大月市初狩町下初狩４１４６－１０",
    "lat": 35.5804987,
    "lng": 138.8766935,
    "tel": "0554-20-2552",
    "url": "http://www.hujikose.or.jp",
    "pref": "山梨県",
    "city": "大月市",
    "category": "day_service",
    "serviceType": "通所介護",
    "capacity": 0,
    "openDays": [
      "平日",
      "祝日"
    ],
    "openDaysNote": ""
  },
  {
    "id": "1971400153",
    "name": "デイサービス事業所ゆうゆう",
    "kana": "デイサービスジギョウショユウユウ",
    "address": "山梨県大月七保町下和田1521-5",
    "lat": 35.6228597,
    "lng": 138.9720268,
    "tel": "0554-56-7100",
    "url": "http://yuuyuu.in.coocan.jp/",
    "pref": "山梨県",
    "city": "大月市",
    "category": "day_service",
    "serviceType": "通所介護",
    "capacity": 0,
    "openDays": [
      "平日",
      "祝日"
    ],
    "openDaysNote": ""
  },
  {
    "id": "1971400450",
    "name": "株式会社みよしデイサービス",
    "kana": "カブシキガイシャミヨシデイサービス",
    "address": "御太刀２－１０－３",
    "lat": 35.6170264,
    "lng": 138.9490238,
    "tel": "0554-22-1570",
    "url": "",
    "pref": "山梨県",
    "city": "大月市",
    "category": "day_service",
    "serviceType": "通所介護",
    "capacity": null,
    "openDays": [
      "平日"
    ],
    "openDaysNote": ""
  },
  {
    "id": "1971400591",
    "name": "共立デイサービスさるはし",
    "kana": "キョウリツデイサービスサルハシ",
    "address": "山梨県大月市猿橋町殿上587-1",
    "lat": 35.6118434,
    "lng": 138.9674897,
    "tel": "0554-20-1711",
    "url": "https://daysaru.gunnai-kyoritsu.jp/",
    "pref": "山梨県",
    "city": "大月市",
    "category": "day_service",
    "serviceType": "通所介護",
    "capacity": null,
    "openDays": [
      "平日",
      "土曜日"
    ],
    "openDaysNote": ""
  },
  {
    "id": "1971400476",
    "name": "共立デイサービスとのうえ",
    "kana": "キョウリツデイサービストノウエ",
    "address": "山梨県大月市猿橋町殿上４０２－１",
    "lat": 35.6121581,
    "lng": 138.9681107,
    "tel": "055-420-1511",
    "url": "",
    "pref": "山梨県",
    "city": "大月市",
    "category": "day_service",
    "serviceType": "通所介護",
    "capacity": null,
    "openDays": [
      "平日",
      "土曜日",
      "祝日"
    ],
    "openDaysNote": ""
  },
  {
    "id": "1971400021",
    "name": "大月富士見苑指定通所介護事業所",
    "kana": "オオツキフジミエンシテイツウショカイゴジギョウショ",
    "address": "山梨県大月市大月町真木４６６０番地",
    "lat": 35.6190499,
    "lng": 138.9065677,
    "tel": "0554-23-0294",
    "url": "http://www.heisei294.org",
    "pref": "山梨県",
    "city": "大月市",
    "category": "day_service",
    "serviceType": "通所介護",
    "capacity": null,
    "openDays": [
      "平日",
      "土曜日",
      "祝日"
    ],
    "openDaysNote": ""
  },
  {
    "id": "1971400278",
    "name": "福祉工房",
    "kana": "フクシコウボウ",
    "address": "山梨県大月市賑岡町奥山1833",
    "lat": 35.6353636,
    "lng": 138.9393931,
    "tel": "0554-21-5335",
    "url": "",
    "pref": "山梨県",
    "city": "大月市",
    "category": "day_service",
    "serviceType": "通所介護",
    "capacity": 3,
    "openDays": [
      "平日",
      "土曜日",
      "祝日"
    ],
    "openDaysNote": ""
  },
  {
    "id": "1971500077",
    "name": "丹波山村社会福祉協議会",
    "kana": "タバヤマムラシャカイフクシキョウギカイ",
    "address": "山梨県北都留郡丹波山村２９０１",
    "lat": 35.7897122,
    "lng": 138.9222313,
    "tel": "0428-88-0480",
    "url": "",
    "pref": "山梨県",
    "city": "丹波山村",
    "category": "day_service",
    "serviceType": "通所介護",
    "capacity": null,
    "openDays": [
      "平日"
    ],
    "openDaysNote": "特になし"
  },
  {
    "id": "1972300287",
    "name": "あい中央西花輪",
    "kana": "アイチュウオウニシハナワ",
    "address": "山梨県中央市西花輪2259番地",
    "lat": 35.587816481121,
    "lng": 138.512880404292,
    "tel": "055-269-9559",
    "url": "",
    "pref": "山梨県",
    "city": "中央市",
    "category": "day_service",
    "serviceType": "通所介護",
    "capacity": null,
    "openDays": [
      "平日"
    ],
    "openDaysNote": ""
  },
  {
    "id": "1972300014",
    "name": "シルクの里デイサービスセンター",
    "kana": "シルクノサトデイサービスセンター",
    "address": "山梨県中央市大鳥居3738-1",
    "lat": 35.5720414,
    "lng": 138.5558728,
    "tel": "055-269-3330",
    "url": "",
    "pref": "山梨県",
    "city": "中央市",
    "category": "day_service",
    "serviceType": "通所介護",
    "capacity": null,
    "openDays": [
      "平日",
      "土曜日",
      "祝日"
    ],
    "openDaysNote": "なし"
  },
  {
    "id": "1972300121",
    "name": "デイサービス　わらべうた",
    "kana": "デイサービスワラベウタ",
    "address": "山梨県中央市成島２３５３",
    "lat": 35.6007849,
    "lng": 138.5463919,
    "tel": "055-269-5566",
    "url": "",
    "pref": "山梨県",
    "city": "中央市",
    "category": "day_service",
    "serviceType": "通所介護",
    "capacity": null,
    "openDays": [
      "平日",
      "土曜日",
      "祝日"
    ],
    "openDaysNote": ""
  },
  {
    "id": "1972300170",
    "name": "デイサービス　飛鳥",
    "kana": "デイサービス　アスカ",
    "address": "藤巻１５８３",
    "lat": 35.5839534,
    "lng": 138.5163561,
    "tel": "055-278-5830",
    "url": "",
    "pref": "山梨県",
    "city": "中央市",
    "category": "day_service",
    "serviceType": "通所介護",
    "capacity": null,
    "openDays": [
      "平日",
      "土曜日",
      "祝日"
    ],
    "openDaysNote": "12月31日～１月3日、8月13日～8月15日（改行）その他事業者の都合や、災害（地震、台風、大雪等）により休館日とする場合があります。"
  },
  {
    "id": "1972300063",
    "name": "デイサービスセンター　ゆたんぽ",
    "kana": "デイサービスセンター　ユタンポ",
    "address": "山梨県中央市上三條５０８－１",
    "lat": 35.6032675,
    "lng": 138.5313122,
    "tel": "055-225-3305",
    "url": "",
    "pref": "山梨県",
    "city": "中央市",
    "category": "day_service",
    "serviceType": "通所介護",
    "capacity": null,
    "openDays": [
      "平日",
      "土曜日",
      "祝日"
    ],
    "openDaysNote": "応相談"
  },
  {
    "id": "1972300329",
    "name": "デイサービスセンター　ゆたんぽ",
    "kana": "デイサービスセンター　ユタンポ",
    "address": "山梨県中央市中楯1448-1",
    "lat": 35.6128808923871,
    "lng": 138.548218826984,
    "tel": "055-225-3305",
    "url": "",
    "pref": "山梨県",
    "city": "中央市",
    "category": "day_service",
    "serviceType": "通所介護",
    "capacity": 0,
    "openDays": [
      "平日",
      "土曜日",
      "祝日"
    ],
    "openDaysNote": ""
  },
  {
    "id": "1972300147",
    "name": "デイサービス楽泉",
    "kana": "デイサービスラクセン",
    "address": "山梨県中央市布施2107",
    "lat": 35.6068474,
    "lng": 138.5229821,
    "tel": "055-274-3754",
    "url": "",
    "pref": "山梨県",
    "city": "中央市",
    "category": "day_service",
    "serviceType": "通所介護",
    "capacity": null,
    "openDays": [
      "平日",
      "土曜日",
      "祝日"
    ],
    "openDaysNote": ""
  },
  {
    "id": "1972300071",
    "name": "デイサービス散歩道",
    "kana": "デイサービスサンポミチ",
    "address": "山梨県中央市山之神94-41",
    "lat": 35.6201039,
    "lng": 138.5102945,
    "tel": "055-242-6183",
    "url": "",
    "pref": "山梨県",
    "city": "中央市",
    "category": "day_service",
    "serviceType": "通所介護",
    "capacity": null,
    "openDays": [
      "平日",
      "土曜日",
      "祝日"
    ],
    "openDaysNote": ""
  },
  {
    "id": "1970800387",
    "name": "進明園デイサービスセンター",
    "kana": "シンメイエン　デイサービスセンター",
    "address": "山梨県中央市成島2448-2",
    "lat": 35.5997628,
    "lng": 138.5459892,
    "tel": "055-274-5055",
    "url": "http://www.shinmeifukushi.or.jp",
    "pref": "山梨県",
    "city": "中央市",
    "category": "day_service",
    "serviceType": "通所介護",
    "capacity": null,
    "openDays": [
      "平日",
      "土曜日",
      "祝日"
    ],
    "openDaysNote": ""
  },
  {
    "id": "1970800114",
    "name": "田富荘デイサービスセンター",
    "kana": "タトミソウデイサービスセンター",
    "address": "山梨県中央市西花輪499番地",
    "lat": 35.5830592,
    "lng": 138.5209033,
    "tel": "055-274-5000",
    "url": "http://www.jsyamanashi.jp/tatomisou/",
    "pref": "山梨県",
    "city": "中央市",
    "category": "day_service",
    "serviceType": "通所介護",
    "capacity": 35,
    "openDays": [
      "平日",
      "土曜日",
      "祝日"
    ],
    "openDaysNote": "特になし"
  },
  {
    "id": "1970800890",
    "name": "田富荘北デイサービスセンター",
    "kana": "タトミソウキタデイサービスセンター",
    "address": "山梨県中央市山之神９１２番地",
    "lat": 35.619496,
    "lng": 138.5134113,
    "tel": "055-274-5252",
    "url": "",
    "pref": "山梨県",
    "city": "中央市",
    "category": "day_service",
    "serviceType": "通所介護",
    "capacity": 30,
    "openDays": [
      "平日",
      "土曜日",
      "祝日"
    ],
    "openDaysNote": "特になし"
  },
  {
    "id": "1971800642",
    "name": "ＣａｒｅＳｅｒｖｉｃｅ　ＺＥＲＯ",
    "kana": "ケアサービス　ゼロ",
    "address": "御坂町成田１７３９－７",
    "lat": 35.6420524,
    "lng": 138.646941,
    "tel": "055-288-1500",
    "url": "",
    "pref": "山梨県",
    "city": "笛吹市",
    "category": "day_service",
    "serviceType": "通所介護",
    "capacity": 0,
    "openDays": [
      "平日",
      "祝日"
    ],
    "openDaysNote": ""
  },
  {
    "id": "1971800915",
    "name": "あい笛吹",
    "kana": "アイフエフキ",
    "address": "春日居町鎮目301番地あい笛吹 あい笛吹",
    "lat": 35.6686215,
    "lng": 138.6484484,
    "tel": "0553-39-8726",
    "url": "http://www.shinnihontsuusan.co.jp/index.html",
    "pref": "山梨県",
    "city": "笛吹市",
    "category": "day_service",
    "serviceType": "通所介護",
    "capacity": null,
    "openDays": [
      "平日",
      "祝日"
    ],
    "openDaysNote": ""
  },
  {
    "id": "1971801053",
    "name": "あい笛吹別館",
    "kana": "アイフエフキベッカン",
    "address": "山梨県笛吹市春日居町鎮目299番地4",
    "lat": 35.6678243,
    "lng": 138.6477124,
    "tel": "0553-34-8033",
    "url": "",
    "pref": "山梨県",
    "city": "笛吹市",
    "category": "day_service",
    "serviceType": "通所介護",
    "capacity": null,
    "openDays": [
      "平日",
      "祝日"
    ],
    "openDaysNote": ""
  },
  {
    "id": "1970500185",
    "name": "エレガローザイサワデイサービスセンター",
    "kana": "エレガローザイサワデイサービスセンター",
    "address": "山梨県笛吹市石和町松本262",
    "lat": 35.6552203,
    "lng": 138.634383,
    "tel": "055-261-2103",
    "url": "http://www.elegaroza.com",
    "pref": "山梨県",
    "city": "笛吹市",
    "category": "day_service",
    "serviceType": "通所介護",
    "capacity": 0,
    "openDays": [
      "平日",
      "日曜日",
      "祝日"
    ],
    "openDaysNote": "なし"
  },
  {
    "id": "1971800741",
    "name": "たのし荘デイサービスセンター",
    "kana": "タノシソウ　デイサービスセンター",
    "address": "春日居町熊野堂４３７",
    "lat": 35.6729406,
    "lng": 138.6545006,
    "tel": "0553-39-9021",
    "url": "",
    "pref": "山梨県",
    "city": "笛吹市",
    "category": "day_service",
    "serviceType": "通所介護",
    "capacity": null,
    "openDays": [
      "平日"
    ],
    "openDaysNote": ""
  },
  {
    "id": "1971800535",
    "name": "デイサービスセンター　のぞみ",
    "kana": "デイサービスセンター　ノゾミ",
    "address": "山梨県笛吹市石和町唐柏538-2",
    "lat": 35.63467,
    "lng": 138.6148739,
    "tel": "055-263-2288",
    "url": "",
    "pref": "山梨県",
    "city": "笛吹市",
    "category": "day_service",
    "serviceType": "通所介護",
    "capacity": 10,
    "openDays": [
      "平日",
      "土曜日",
      "祝日"
    ],
    "openDaysNote": ""
  },
  {
    "id": "1971800584",
    "name": "デイサービスセンター　まごの家",
    "kana": "デイサービスセンター　マゴノイエ",
    "address": "一宮町中尾１０８２",
    "lat": 35.6540182,
    "lng": 138.7052717,
    "tel": "0553-47-6022",
    "url": "",
    "pref": "山梨県",
    "city": "笛吹市",
    "category": "day_service",
    "serviceType": "通所介護",
    "capacity": null,
    "openDays": [
      "平日",
      "土曜日",
      "祝日"
    ],
    "openDaysNote": ""
  },
  {
    "id": "1971800436",
    "name": "デイサービスセンター　リブズ笛吹",
    "kana": "デイサービスセンター　リブズフエフキ",
    "address": "山梨県笛吹市御坂町成田2477-1",
    "lat": 35.6424274,
    "lng": 138.6423996,
    "tel": "055-261-2800",
    "url": "http://www.ribs-fuefuki.jp/",
    "pref": "山梨県",
    "city": "笛吹市",
    "category": "day_service",
    "serviceType": "通所介護",
    "capacity": null,
    "openDays": [
      "平日",
      "祝日"
    ],
    "openDaysNote": ""
  },
  {
    "id": "1971800600",
    "name": "デイサービスセンターあしたば",
    "kana": "デイサービスセンターアシタバ",
    "address": "山梨県笛吹市石和町山崎100番地",
    "lat": 35.6577783,
    "lng": 138.6407076,
    "tel": "055-230-5588",
    "url": "",
    "pref": "山梨県",
    "city": "笛吹市",
    "category": "day_service",
    "serviceType": "通所介護",
    "capacity": null,
    "openDays": [
      "平日",
      "祝日"
    ],
    "openDaysNote": ""
  },
  {
    "id": "1970500607",
    "name": "デイサービスセンターきたじま苑",
    "kana": "デイサービスセンターキタジマエン",
    "address": "山梨県笛吹市八代町北1616-2",
    "lat": 35.61887,
    "lng": 138.6442554,
    "tel": "055-265-1562",
    "url": "http://ww./geocities.jp/kitajimaen/",
    "pref": "山梨県",
    "city": "笛吹市",
    "category": "day_service",
    "serviceType": "通所介護",
    "capacity": null,
    "openDays": [
      "平日",
      "祝日"
    ],
    "openDaysNote": ""
  },
  {
    "id": "1971800816",
    "name": "デイサービスセンターきたじま苑　お伊勢の杜",
    "kana": "デイサービスセンターキタジマエン　オイセノモリ",
    "address": "八代町北字伊勢之宮１２９０－１",
    "lat": 32.5074371,
    "lng": 130.6017433,
    "tel": "055-298-4882",
    "url": "http://www./geocities.jp/kitajimaen/",
    "pref": "山梨県",
    "city": "笛吹市",
    "category": "day_service",
    "serviceType": "通所介護",
    "capacity": null,
    "openDays": [
      "平日",
      "祝日"
    ],
    "openDaysNote": ""
  },
  {
    "id": "1971801020",
    "name": "デイサービスセンター弘寿園",
    "kana": "デイサービスセンターコウジュエン",
    "address": "山梨県笛吹市石和町川中島1160-1",
    "lat": 35.655445875059,
    "lng": 138.659318717049,
    "tel": "055-234-5611",
    "url": "http://kasugaisou.jp/",
    "pref": "山梨県",
    "city": "笛吹市",
    "category": "day_service",
    "serviceType": "通所介護",
    "capacity": 0,
    "openDays": [
      "平日",
      "土曜日",
      "祝日"
    ],
    "openDaysNote": ""
  },
  {
    "id": "1971801566",
    "name": "デイサービスセンター八代南",
    "kana": "デイサービスセンターヤツシロミナミ",
    "address": "山梨県笛吹市八代町南3614-1",
    "lat": 35.6208532078787,
    "lng": 138.627594595107,
    "tel": "055-231-5028",
    "url": "https://rocky-blizzard-313.notion.site/f5b7b95216874c03b2cc73d5a8c39e77",
    "pref": "山梨県",
    "city": "笛吹市",
    "category": "day_service",
    "serviceType": "通所介護",
    "capacity": 0,
    "openDays": [
      "平日"
    ],
    "openDaysNote": ""
  },
  {
    "id": "1971801277",
    "name": "デイサービス花みずき",
    "kana": "デイサービスハナミズキ",
    "address": "山梨県笛吹市石和町小石和1848-4",
    "lat": 35.6285332,
    "lng": 138.6346613,
    "tel": "055-225-6722",
    "url": "https://hanamizuki-day.com/",
    "pref": "山梨県",
    "city": "笛吹市",
    "category": "day_service",
    "serviceType": "通所介護",
    "capacity": 0,
    "openDays": [
      "平日",
      "土曜日",
      "日曜日",
      "祝日"
    ],
    "openDaysNote": ""
  },
  {
    "id": "1971801137",
    "name": "デイサービス施設ケアガーデン風間",
    "kana": "デイサービスシセツケアガーデンカザマ",
    "address": "石和町八田163",
    "lat": 35.6532233,
    "lng": 138.6400188,
    "tel": "055-262-0551",
    "url": "http://www.caregarden.co.jp",
    "pref": "山梨県",
    "city": "笛吹市",
    "category": "day_service",
    "serviceType": "通所介護",
    "capacity": null,
    "openDays": [
      "平日",
      "土曜日",
      "祝日"
    ],
    "openDaysNote": ""
  },
  {
    "id": "1971801434",
    "name": "ハートデイサービス春日居",
    "kana": "ハートデイサービスカスガイ",
    "address": "山梨県笛吹市春日居町小松1117",
    "lat": 35.6625926,
    "lng": 138.6568645,
    "tel": "0553-39-9311",
    "url": "http://heart-service.co.jp/",
    "pref": "山梨県",
    "city": "笛吹市",
    "category": "day_service",
    "serviceType": "通所介護",
    "capacity": null,
    "openDays": [
      "平日",
      "土曜日",
      "日曜日",
      "祝日"
    ],
    "openDaysNote": "12/30～1/3は休み"
  },
  {
    "id": "1971800667",
    "name": "ハッピーホーム八代デイサービスセンター",
    "kana": "ハッピーホームヤツシロデイサービスセンター",
    "address": "山梨県笛吹市八代町南881番地1ハッピーホーム八代デイサービスセン ハッピーホーム八代デイサービスセン",
    "lat": 35.6184170513407,
    "lng": 138.639436093254,
    "tel": "552652255",
    "url": "",
    "pref": "山梨県",
    "city": "笛吹市",
    "category": "day_service",
    "serviceType": "通所介護",
    "capacity": 0,
    "openDays": [
      "平日"
    ],
    "openDaysNote": ""
  },
  {
    "id": "1971801533",
    "name": "ワイズパーク石和店",
    "kana": "ワイズパークイサワテン",
    "address": "山梨県笛吹市石和町市部1106-1",
    "lat": 35.650011,
    "lng": 138.6360228,
    "tel": "055-231-5673",
    "url": "http://ys-park.net",
    "pref": "山梨県",
    "city": "笛吹市",
    "category": "day_service",
    "serviceType": "通所介護",
    "capacity": 0,
    "openDays": [
      "平日",
      "土曜日",
      "祝日"
    ],
    "openDaysNote": ""
  },
  {
    "id": "1971800618",
    "name": "医療法人　聖仁会　デイサービスいずみ",
    "kana": "イリョウホウジン　セイジンカイ　デイサービスイズミ",
    "address": "山梨県笛吹市一宮町金田52-3",
    "lat": 35.654761,
    "lng": 138.6774409,
    "tel": "0553-39-8700",
    "url": "http://seijinkai-saiyo.com/dayservice-izumi/",
    "pref": "山梨県",
    "city": "笛吹市",
    "category": "day_service",
    "serviceType": "通所介護",
    "capacity": 0,
    "openDays": [
      "平日",
      "土曜日",
      "日曜日",
      "祝日"
    ],
    "openDaysNote": "サービス提供時間は９時３０分～１６時３０分"
  },
  {
    "id": "1970500110",
    "name": "一宮デイサービスセンター",
    "kana": "イチノミヤデイサービスセンター",
    "address": "山梨県笛吹市一宮町南野呂４２２-１",
    "lat": 35.6564792,
    "lng": 138.7095879,
    "tel": "0553-47-3181",
    "url": "http://www:aams.co.jp",
    "pref": "山梨県",
    "city": "笛吹市",
    "category": "day_service",
    "serviceType": "通所介護",
    "capacity": 35,
    "openDays": [
      "平日",
      "土曜日",
      "祝日"
    ],
    "openDaysNote": "臨時営業あり"
  },
  {
    "id": "1971800931",
    "name": "機能訓練型デイサービス　起楽ふうが甲府東春日居",
    "kana": "キノウクンレンガタデイサービス　オキラクフウガコウフヒガシカスガイ",
    "address": "山梨県笛吹市春日居小松1117",
    "lat": 35.6626001,
    "lng": 138.6567731,
    "tel": "0553-39-9311",
    "url": "",
    "pref": "山梨県",
    "city": "笛吹市",
    "category": "day_service",
    "serviceType": "通所介護",
    "capacity": 0,
    "openDays": [
      "平日",
      "土曜日",
      "祝日"
    ],
    "openDaysNote": ""
  },
  {
    "id": "1971801269",
    "name": "甲州デイサービスセンター一宮事業所",
    "kana": "コウシュウデイサービスセンターイチノミヤジギョウショ",
    "address": "山梨県笛吹市一宮町塩田741-1",
    "lat": 35.6338973,
    "lng": 138.690918,
    "tel": "0553-47-6602",
    "url": "https://www.krg.ne.jp/care/",
    "pref": "山梨県",
    "city": "笛吹市",
    "category": "day_service",
    "serviceType": "通所介護",
    "capacity": 0,
    "openDays": [
      "平日",
      "土曜日",
      "祝日"
    ],
    "openDaysNote": ""
  },
  {
    "id": "1971800188",
    "name": "在宅ケア・すずらんデイサービス",
    "kana": "ザイタクケアスズランデイサービス",
    "address": "山梨県笛吹市御坂町蕎麦塚675",
    "lat": 35.6207257,
    "lng": 138.6619123,
    "tel": "055-263-6124",
    "url": "",
    "pref": "山梨県",
    "city": "笛吹市",
    "category": "day_service",
    "serviceType": "通所介護",
    "capacity": null,
    "openDays": [
      "平日",
      "土曜日",
      "祝日"
    ],
    "openDaysNote": "休日・時間外は携帯電話に転送となり、対応（改行）定員　月から金20人土10人"
  },
  {
    "id": "1970500102",
    "name": "小山荘デイサービスセンター",
    "kana": "コヤマソウデイサービスセンター",
    "address": "山梨県笛吹市八代町北７６０",
    "lat": 35.6181342,
    "lng": 138.6540685,
    "tel": "055-265-3377",
    "url": "",
    "pref": "山梨県",
    "city": "笛吹市",
    "category": "day_service",
    "serviceType": "通所介護",
    "capacity": null,
    "openDays": [
      "平日",
      "土曜日"
    ],
    "openDaysNote": "なし。"
  },
  {
    "id": "1970500615",
    "name": "石和共立病院通所介護事業所ふれあい",
    "kana": "イサワキョウリツビョウインツウショカイゴジギョウショフレアイ",
    "address": "山梨県笛吹市石和町広瀬６２３",
    "lat": 35.6420552,
    "lng": 138.6138848,
    "tel": "055-263-7001",
    "url": "",
    "pref": "山梨県",
    "city": "笛吹市",
    "category": "day_service",
    "serviceType": "通所介護",
    "capacity": 0,
    "openDays": [
      "平日",
      "土曜日",
      "祝日"
    ],
    "openDaysNote": ""
  },
  {
    "id": "1971801293",
    "name": "通所介護　自灯明",
    "kana": "ツウショカイゴ　ジトウミョウ",
    "address": "山梨県笛吹市石和町東高橋401-1",
    "lat": 35.6382602995489,
    "lng": 138.607848749738,
    "tel": "055-263-2522",
    "url": "https://koharubi-kaigo.com/zitoumyou/",
    "pref": "山梨県",
    "city": "笛吹市",
    "category": "day_service",
    "serviceType": "通所介護",
    "capacity": null,
    "openDays": [
      "平日",
      "土曜日",
      "日曜日",
      "祝日"
    ],
    "openDaysNote": "火曜日営業時間は、９時１５分～１３時"
  },
  {
    "id": "1970500417",
    "name": "通所介護施設　ひまわり",
    "kana": "ツウショカイゴシセツ　ヒマワリ",
    "address": "山梨県笛吹市八代町北1541-7",
    "lat": 35.6201698,
    "lng": 138.6474468,
    "tel": "055-265-4360",
    "url": "http://www.tuusyokaigo-himawari.com",
    "pref": "山梨県",
    "city": "笛吹市",
    "category": "day_service",
    "serviceType": "通所介護",
    "capacity": null,
    "openDays": [
      "平日"
    ],
    "openDaysNote": ""
  },
  {
    "id": "1971801418",
    "name": "笛吹市社会福祉協議会　一宮通所介護事業所",
    "kana": "フエフキシシャカイフクシキョウギカイ　イチノミヤツウショカイゴジギョウショ",
    "address": "山梨県笛吹市一宮町竹原田40複合施設　スマイルいちのみや 複合施設　スマイルいちのみや",
    "lat": 35.6485748,
    "lng": 138.6775116,
    "tel": "0553-39-8502",
    "url": "http://www.fuefuki-shakyo.or.jp/",
    "pref": "山梨県",
    "city": "笛吹市",
    "category": "day_service",
    "serviceType": "通所介護",
    "capacity": 0,
    "openDays": [
      "平日",
      "土曜日",
      "祝日"
    ],
    "openDaysNote": "天候等によりサービス提供時間の変更や臨時休業になる場合があります。"
  },
  {
    "id": "1971800089",
    "name": "笛吹市社会福祉協議会　八代通所介護事業所",
    "kana": "フエフキシシャカイフクシキョウギカイヤツシロツウショカイゴジギョウショ",
    "address": "山梨県笛吹市八代町南３２６番地の１",
    "lat": 35.6133736,
    "lng": 138.6445879,
    "tel": "055-265-2857",
    "url": "http://www.fuefuki-shakyo.or.jp",
    "pref": "山梨県",
    "city": "笛吹市",
    "category": "day_service",
    "serviceType": "通所介護",
    "capacity": 50,
    "openDays": [
      "平日",
      "土曜日",
      "祝日"
    ],
    "openDaysNote": ""
  },
  {
    "id": "1971800055",
    "name": "笛吹市社会福祉協議会石和通所介護事業所",
    "kana": "フエフキシシャカイフクシキョウギカイイサワツウショカイゴジギョウショ",
    "address": "山梨県笛吹市石和町下平井578",
    "lat": 35.646413,
    "lng": 138.6475464,
    "tel": "055-230-5552",
    "url": "",
    "pref": "山梨県",
    "city": "笛吹市",
    "category": "day_service",
    "serviceType": "通所介護",
    "capacity": 0,
    "openDays": [
      "平日",
      "土曜日",
      "祝日"
    ],
    "openDaysNote": "なし"
  },
  {
    "id": "1971800956",
    "name": "和楽デイサービスセンター",
    "kana": "ワラクデイサービスセンター",
    "address": "山梨県笛吹市石和町小石和167-7",
    "lat": 35.6266546,
    "lng": 138.6171739,
    "tel": "055-288-8641",
    "url": "ホームページ開設準備中。Facebookあり。（詳細は「事業所の特色」をご覧ください）",
    "pref": "山梨県",
    "city": "笛吹市",
    "category": "day_service",
    "serviceType": "通所介護",
    "capacity": 0,
    "openDays": [
      "平日",
      "祝日"
    ],
    "openDaysNote": ""
  },
  {
    "id": "1970500300",
    "name": "壽ノ家　デイサービスセンター",
    "kana": "コトブキノイエ　デイサービスセンター",
    "address": "山梨県笛吹市石和町四日市場２０３１",
    "lat": 35.6463337,
    "lng": 138.6265543,
    "tel": "055-263-7766",
    "url": "http://www.krg.ne.jp/kt.html",
    "pref": "山梨県",
    "city": "笛吹市",
    "category": "day_service",
    "serviceType": "通所介護",
    "capacity": 960,
    "openDays": [
      "平日",
      "土曜日",
      "祝日"
    ],
    "openDaysNote": ""
  },
  {
    "id": "1971800808",
    "name": "絆　指定通所介護事業所",
    "kana": "キズナ　シテイツウショカイゴジギョウショ",
    "address": "山梨県笛吹市八代町竹居1235-1絆　介護支援センター 絆　介護支援センター",
    "lat": 35.6035777,
    "lng": 138.6589743,
    "tel": "055-265-5133",
    "url": "http://kizuna.social/",
    "pref": "山梨県",
    "city": "笛吹市",
    "category": "day_service",
    "serviceType": "通所介護",
    "capacity": 30,
    "openDays": [
      "平日",
      "土曜日",
      "祝日"
    ],
    "openDaysNote": ""
  },
  {
    "id": "1971800550",
    "name": "絆岡の家　通所介護事業所",
    "kana": "キズナオカノイエ　ツウショカイゴジギョウショ",
    "address": "山梨県笛吹市八代町北1023番地",
    "lat": 35.614557,
    "lng": 138.6506271,
    "tel": "055-265-5133",
    "url": "http://fukushinavi-fuefuki.net/",
    "pref": "山梨県",
    "city": "笛吹市",
    "category": "day_service",
    "serviceType": "通所介護",
    "capacity": null,
    "openDays": [
      "平日",
      "土曜日",
      "日曜日",
      "祝日"
    ],
    "openDaysNote": "１医師の診断や日常生活上の留意事項、利用当日の健康状態を職員に連絡し、心身の状態に応じたサービスの提供を受けるように留意して頂きます。（改行）2入浴に関する留意事項（改行）3給食サービス利用に関する留意事項（改行）4機能訓練サービスを利用する際の留意事項（改行）5送迎サービスを利用する際の留意事項"
  },
  {
    "id": "1971100449",
    "name": "ツクイ都留四日市場営業所",
    "kana": "ツクイツルヨッカイチバエイギョウショ",
    "address": "四日市場1052-2",
    "lat": 35.5677999,
    "lng": 138.9205682,
    "tel": "0554-46-6011",
    "url": "https://www.tsukui.net/home-care/2216",
    "pref": "山梨県",
    "city": "都留市",
    "category": "day_service",
    "serviceType": "通所介護",
    "capacity": 0,
    "openDays": [
      "平日",
      "土曜日",
      "日曜日",
      "祝日"
    ],
    "openDaysNote": "365日営業していますが、大雪や災害時等にはお休みいただくこともあります。"
  },
  {
    "id": "1971100456",
    "name": "ツクイ都留中津森1033-2",
    "kana": "ツクイツルナカツモリ",
    "address": "山梨県都留市中津森1033-2",
    "lat": 35.5623822,
    "lng": 138.8967925,
    "tel": "0554-46-6050",
    "url": "",
    "pref": "山梨県",
    "city": "都留市",
    "category": "day_service",
    "serviceType": "通所介護",
    "capacity": 0,
    "openDays": [
      "平日",
      "土曜日",
      "日曜日",
      "祝日"
    ],
    "openDaysNote": ""
  },
  {
    "id": "1971100407",
    "name": "デイサービスあいる",
    "kana": "デイサービスアイル",
    "address": "山梨県都留市田野倉５４５－１",
    "lat": 35.5956619,
    "lng": 138.9293156,
    "tel": "0554－56－7709",
    "url": "https://jsp.co.jp/",
    "pref": "山梨県",
    "city": "都留市",
    "category": "day_service",
    "serviceType": "通所介護",
    "capacity": 0,
    "openDays": [
      "平日",
      "土曜日",
      "日曜日",
      "祝日"
    ],
    "openDaysNote": ""
  },
  {
    "id": "1971100373",
    "name": "デイサービスいろは",
    "kana": "デイサービスイロハ",
    "address": "山梨県都留市小野632-1",
    "lat": 35.5347327001854,
    "lng": 138.910675705904,
    "tel": "0554-56-8755",
    "url": "",
    "pref": "山梨県",
    "city": "都留市",
    "category": "day_service",
    "serviceType": "通所介護",
    "capacity": 20,
    "openDays": [
      "平日",
      "祝日"
    ],
    "openDaysNote": "年末年始休業有"
  },
  {
    "id": "1971100464",
    "name": "デイサービスてるてるぼうず",
    "kana": "デイサービステルテルボウズ",
    "address": "山梨県都留市鹿留６３７番地",
    "lat": 35.5280767,
    "lng": 138.8725942,
    "tel": "0554-56-8511",
    "url": "",
    "pref": "山梨県",
    "city": "都留市",
    "category": "day_service",
    "serviceType": "通所介護",
    "capacity": 20,
    "openDays": [
      "平日",
      "土曜日",
      "祝日"
    ],
    "openDaysNote": ""
  },
  {
    "id": "1971100357",
    "name": "れりーふ",
    "kana": "レリーフ",
    "address": "玉川610-85",
    "lat": 35.6125332,
    "lng": 139.626083,
    "tel": "0544-45-1608",
    "url": "",
    "pref": "山梨県",
    "city": "都留市",
    "category": "day_service",
    "serviceType": "通所介護",
    "capacity": 0,
    "openDays": [
      "平日",
      "祝日"
    ],
    "openDaysNote": ""
  },
  {
    "id": "1971100241",
    "name": "介護サービスゆりの里",
    "kana": "カイゴサービスユリノサト",
    "address": "山梨県都留市田野倉１４３１番地１",
    "lat": 35.5874712,
    "lng": 138.9342038,
    "tel": "0554-46-6006",
    "url": "https://yurinosato-web.jimdosite.com/",
    "pref": "山梨県",
    "city": "都留市",
    "category": "day_service",
    "serviceType": "通所介護",
    "capacity": 10,
    "openDays": [
      "平日",
      "土曜日",
      "日曜日",
      "祝日"
    ],
    "openDaysNote": ""
  },
  {
    "id": "1971100118",
    "name": "回生荘デイサービスセンター",
    "kana": "カイセイソウデイサ-ビスセンター",
    "address": "山梨県都留市境３６番地",
    "lat": 35.5286905,
    "lng": 138.8635479,
    "tel": "0554-45-5211",
    "url": "http://www.office@kaisei-so.jp",
    "pref": "山梨県",
    "city": "都留市",
    "category": "day_service",
    "serviceType": "通所介護",
    "capacity": null,
    "openDays": [
      "平日",
      "土曜日",
      "祝日"
    ],
    "openDaysNote": ""
  },
  {
    "id": "1971100266",
    "name": "甲州茶話本舗デイサービスこわた亭",
    "kana": "コウシュウサワホンポデイサービスコワタテイ",
    "address": "山梨県都留市鹿留２１９３",
    "lat": 35.5317459,
    "lng": 138.8780989,
    "tel": "0554-45-7677",
    "url": "kowatatei@jsp.co.jp",
    "pref": "山梨県",
    "city": "都留市",
    "category": "day_service",
    "serviceType": "通所介護",
    "capacity": null,
    "openDays": [
      "平日",
      "土曜日",
      "日曜日",
      "祝日"
    ],
    "openDaysNote": ""
  },
  {
    "id": "1971100068",
    "name": "都留市社会福祉協議会",
    "kana": "ツルシシャカイフクシキョウギカイ",
    "address": "山梨県都留市下谷２，５１６番地１",
    "lat": 35.5618045,
    "lng": 138.9143011,
    "tel": "0554-46-5117",
    "url": "http://www11.ocn.ne.jp/~t-shakyo/",
    "pref": "山梨県",
    "city": "都留市",
    "category": "day_service",
    "serviceType": "通所介護",
    "capacity": null,
    "openDays": [
      "平日",
      "土曜日",
      "祝日"
    ],
    "openDaysNote": "大雨、大雪等、悪天候や災害が想定される場合には、お休みさせて頂きます。"
  },
  {
    "id": "1971100258",
    "name": "優しい時間　夏狩",
    "kana": "ヤサシイジカン　ナツガリ",
    "address": "都留市夏狩2117-5",
    "lat": 35.5413281,
    "lng": 138.873313,
    "tel": "0554-46-0294",
    "url": "http://www.heisei294.org",
    "pref": "山梨県",
    "city": "都留市",
    "category": "day_service",
    "serviceType": "通所介護",
    "capacity": 0,
    "openDays": [
      "平日",
      "祝日"
    ],
    "openDaysNote": "雪などの天候、災害時には提供時間変更の可能性あり"
  },
  {
    "id": "1971100365",
    "name": "梨楽ふうが　都留市駅前",
    "kana": "リラクフウガ　ツルシエキマエ",
    "address": "山梨県都留市つる1丁目10-8",
    "lat": 35.5572351,
    "lng": 138.9080611,
    "tel": "0554-56-8000",
    "url": "",
    "pref": "山梨県",
    "city": "都留市",
    "category": "day_service",
    "serviceType": "通所介護",
    "capacity": 0,
    "openDays": [
      "平日",
      "土曜日"
    ],
    "openDaysNote": ""
  },
  {
    "id": "1971600091",
    "name": "SMILEフラワーパークデイサービスセンター",
    "kana": "スマイルフラワーパークデイサービスセンター",
    "address": "山梨県南アルプス市沢登762-1",
    "lat": 35.6262840755104,
    "lng": 138.469108525101,
    "tel": "055-283-5222",
    "url": "",
    "pref": "山梨県",
    "city": "南アルプス市",
    "category": "day_service",
    "serviceType": "通所介護",
    "capacity": 28,
    "openDays": [
      "平日",
      "土曜日",
      "祝日"
    ],
    "openDaysNote": "サービス提供時間　9：20～16：30（改行）ご利用者様の希望により、介護報酬設定上の通常の利用時間をこえてサービスを提供する場合に要する費用（改行）延長1時間につき500円"
  },
  {
    "id": "1971601214",
    "name": "あい甲西",
    "kana": "アイコウサイ",
    "address": "山梨県南アルプス市古市場595番地",
    "lat": 35.5911355,
    "lng": 138.4675243,
    "tel": "055-234-5630",
    "url": "",
    "pref": "山梨県",
    "city": "南アルプス市",
    "category": "day_service",
    "serviceType": "通所介護",
    "capacity": null,
    "openDays": [
      "平日",
      "祝日"
    ],
    "openDaysNote": ""
  },
  {
    "id": "1971600349",
    "name": "あすなろデイサービスセンター　リフレッシュデイサロン　いますわ温泉",
    "kana": "アスナロデイサービスセンター　リフレッシュデイサロンイマスワオンセン",
    "address": "山梨県南アルプス市上今諏訪４３７－１　クボタビル１Ｆ",
    "lat": 35.6368808,
    "lng": 138.5004003,
    "tel": "055-280-8861",
    "url": "http://www.takahara-hp.or.jp/",
    "pref": "山梨県",
    "city": "南アルプス市",
    "category": "day_service",
    "serviceType": "通所介護",
    "capacity": 0,
    "openDays": [
      "平日",
      "土曜日",
      "日曜日",
      "祝日"
    ],
    "openDaysNote": ""
  },
  {
    "id": "1971600067",
    "name": "あすなろデイサービス荊沢センターもみじ",
    "kana": "アスナロデイサービスバラザワセンターモミジ",
    "address": "山梨県南アルプス市荊沢277-1",
    "lat": 35.5871891873023,
    "lng": 138.464780539287,
    "tel": "055-280-3622",
    "url": "http://www.takahara-hp.or.jp/",
    "pref": "山梨県",
    "city": "南アルプス市",
    "category": "day_service",
    "serviceType": "通所介護",
    "capacity": 0,
    "openDays": [
      "平日",
      "土曜日",
      "日曜日",
      "祝日"
    ],
    "openDaysNote": "なし"
  },
  {
    "id": "1971601107",
    "name": "アルプスデイサービス",
    "kana": "アルプスデイサービス",
    "address": "飯野３４５３",
    "lat": 35.6374288,
    "lng": 138.4652206,
    "tel": "０５５－２６９－８５１１",
    "url": "",
    "pref": "山梨県",
    "city": "南アルプス市",
    "category": "day_service",
    "serviceType": "通所介護",
    "capacity": null,
    "openDays": [
      "平日",
      "祝日"
    ],
    "openDaysNote": ""
  },
  {
    "id": "1971600588",
    "name": "デイサービス　あんず",
    "kana": "デイサービス　アンズ",
    "address": "山梨県南アルプス市曲輪田2620",
    "lat": 35.6264859,
    "lng": 138.4382432,
    "tel": "055-288-6111",
    "url": "",
    "pref": "山梨県",
    "city": "南アルプス市",
    "category": "day_service",
    "serviceType": "通所介護",
    "capacity": null,
    "openDays": [
      "平日",
      "土曜日",
      "祝日"
    ],
    "openDaysNote": "夏季休業　8/14～8/16（改行）冬季休業　12/30～1/3（改行）事業所の都合により休業させていただくことがあります。"
  },
  {
    "id": "1971600802",
    "name": "デイサービス　ぬくもりの和　南アルプス事業所",
    "kana": "デイサービス　ヌクモリノワ　ミナミアルプスジギョウショ",
    "address": "山梨県南アルプス市加賀美2814",
    "lat": 35.6045392,
    "lng": 138.4862142,
    "tel": "055-267-5567",
    "url": "http://www.nukumorinowa.com/",
    "pref": "山梨県",
    "city": "南アルプス市",
    "category": "day_service",
    "serviceType": "通所介護",
    "capacity": null,
    "openDays": [
      "平日",
      "土曜日",
      "祝日"
    ],
    "openDaysNote": ""
  },
  {
    "id": "1971600471",
    "name": "デイサービス　ぼんぼん時計",
    "kana": "デイサービス　ボンボンドケイ",
    "address": "山梨県南アルプス市塚原１８０６",
    "lat": 35.5937906,
    "lng": 138.4536116,
    "tel": "055-283-3221",
    "url": "",
    "pref": "山梨県",
    "city": "南アルプス市",
    "category": "day_service",
    "serviceType": "通所介護",
    "capacity": null,
    "openDays": [
      "平日",
      "土曜日",
      "祝日"
    ],
    "openDaysNote": ""
  },
  {
    "id": "1971700420",
    "name": "デイサービス　リハかのん若草",
    "kana": "デイサービス　リハカノンワカクサ",
    "address": "山梨県南アルプス市浅原字中河原240",
    "lat": 35.5918856,
    "lng": 138.5044237,
    "tel": "055-242-7343",
    "url": "",
    "pref": "山梨県",
    "city": "南アルプス市",
    "category": "day_service",
    "serviceType": "通所介護",
    "capacity": null,
    "openDays": [
      "平日",
      "土曜日",
      "祝日"
    ],
    "openDaysNote": ""
  },
  {
    "id": "1971600323",
    "name": "デイサービス　花あかり",
    "kana": "デイサービス　ハナアカリ",
    "address": "山梨県南アルプス市江原171-1",
    "lat": 35.6014175,
    "lng": 138.4739959,
    "tel": "055-282-5211",
    "url": "",
    "pref": "山梨県",
    "city": "南アルプス市",
    "category": "day_service",
    "serviceType": "通所介護",
    "capacity": null,
    "openDays": [
      "平日",
      "土曜日",
      "祝日"
    ],
    "openDaysNote": ""
  },
  {
    "id": "1971600398",
    "name": "デイサービス　福栄荘",
    "kana": "デイサービス　フクエイソウ",
    "address": "山梨県南アルプス市飯野4170-10",
    "lat": 35.6396785,
    "lng": 138.4502249,
    "tel": "055-284-6609",
    "url": "",
    "pref": "山梨県",
    "city": "南アルプス市",
    "category": "day_service",
    "serviceType": "通所介護",
    "capacity": null,
    "openDays": [
      "平日",
      "祝日"
    ],
    "openDaysNote": "特になし"
  },
  {
    "id": "1971600729",
    "name": "デイサービスあゆみ指定通所介護事業所",
    "kana": "デイサービスアユミシテイツウショカイゴジギョウショ",
    "address": "山梨県南アルプス市有野3370番地1",
    "lat": 35.6615060177346,
    "lng": 138.441459437504,
    "tel": "055-285-1938",
    "url": "http://will-ayumi.com/",
    "pref": "山梨県",
    "city": "南アルプス市",
    "category": "day_service",
    "serviceType": "通所介護",
    "capacity": 14,
    "openDays": [
      "平日",
      "土曜日",
      "祝日"
    ],
    "openDaysNote": "サービス提供時間９：２０～１６：３０"
  },
  {
    "id": "1971600117",
    "name": "デイサービスセンターわかくさ",
    "kana": "デイサービスセンターワカクサ",
    "address": "山梨県南アルプス市鏡中条１６４２－２",
    "lat": 35.6050142,
    "lng": 138.4952687,
    "tel": "055-283-7555",
    "url": "ds-waka@minami-alpsshakyo.or.jp",
    "pref": "山梨県",
    "city": "南アルプス市",
    "category": "day_service",
    "serviceType": "通所介護",
    "capacity": 30,
    "openDays": [
      "平日",
      "土曜日",
      "祝日"
    ],
    "openDaysNote": ""
  },
  {
    "id": "1970800171",
    "name": "デイサービスセンター白根聖明園",
    "kana": "デイサービスセンター　シラネセイメイエン",
    "address": "山梨県南アルプス市在家塚1305",
    "lat": 35.6414295,
    "lng": 138.4674428,
    "tel": "055-284-2201",
    "url": "http://www8.ocn.ne.jp/~seimeien/",
    "pref": "山梨県",
    "city": "南アルプス市",
    "category": "day_service",
    "serviceType": "通所介護",
    "capacity": 0,
    "openDays": [
      "平日",
      "土曜日",
      "祝日"
    ],
    "openDaysNote": ""
  },
  {
    "id": "1971601263",
    "name": "デイサービスとりじん",
    "kana": "デイサービストリジン",
    "address": "山梨県南アルプス市小笠原４９１",
    "lat": 35.6115243,
    "lng": 138.4632855,
    "tel": "055-269-8109",
    "url": "http://hp.kaipoke.biz/426/",
    "pref": "山梨県",
    "city": "南アルプス市",
    "category": "day_service",
    "serviceType": "通所介護",
    "capacity": 13,
    "openDays": [
      "平日",
      "土曜日",
      "祝日"
    ],
    "openDaysNote": ""
  },
  {
    "id": "1971601156",
    "name": "デイサービスはっぴ～ふぁいと",
    "kana": "デイサービスハッピ～ファイト",
    "address": "鏡中條618",
    "lat": 35.6158765,
    "lng": 138.4982375,
    "tel": "055-284-5583",
    "url": "",
    "pref": "山梨県",
    "city": "南アルプス市",
    "category": "day_service",
    "serviceType": "通所介護",
    "capacity": null,
    "openDays": [
      "平日",
      "土曜日",
      "祝日"
    ],
    "openDaysNote": ""
  },
  {
    "id": "1971600547",
    "name": "デイサービスみかん",
    "kana": "デイサービスミカン",
    "address": "山梨県南アルプス市飯野3594-7",
    "lat": 35.633671,
    "lng": 138.4645402,
    "tel": "055-282-3108",
    "url": "",
    "pref": "山梨県",
    "city": "南アルプス市",
    "category": "day_service",
    "serviceType": "通所介護",
    "capacity": null,
    "openDays": [
      "平日",
      "土曜日",
      "祝日"
    ],
    "openDaysNote": "12月30日～1月3日まで休み"
  },
  {
    "id": "1971600919",
    "name": "デイサービスももその",
    "kana": "デイサービスモモソノ",
    "address": "山梨県南アルプス市桃園379共立高齢者複合施設ももその 共立高齢者複合施設ももその",
    "lat": 35.628427,
    "lng": 138.4631489,
    "tel": "055－280－1133",
    "url": "https://ykf.or.jp",
    "pref": "山梨県",
    "city": "南アルプス市",
    "category": "day_service",
    "serviceType": "通所介護",
    "capacity": 7,
    "openDays": [
      "平日",
      "土曜日",
      "日曜日",
      "祝日"
    ],
    "openDaysNote": ""
  },
  {
    "id": "1971601446",
    "name": "デイサービス南岳荘",
    "kana": "デイサービスナンガクソウ",
    "address": "山梨県南アルプス市徳永450",
    "lat": 35.6547937,
    "lng": 138.4941205,
    "tel": "055-280-5281",
    "url": "http://www.nangakusou.or.jp",
    "pref": "山梨県",
    "city": "南アルプス市",
    "category": "day_service",
    "serviceType": "通所介護",
    "capacity": null,
    "openDays": [
      "平日",
      "土曜日",
      "祝日"
    ],
    "openDaysNote": ""
  },
  {
    "id": "1971601057",
    "name": "デイサービス富士見",
    "kana": "デイサービスフジミ",
    "address": "山梨県南アルプス市小笠原1108-1",
    "lat": 35.6156126,
    "lng": 138.4635492,
    "tel": "552986911",
    "url": "http://www.takahara-hp.or.jp/",
    "pref": "山梨県",
    "city": "南アルプス市",
    "category": "day_service",
    "serviceType": "通所介護",
    "capacity": 0,
    "openDays": [
      "平日",
      "土曜日",
      "日曜日",
      "祝日"
    ],
    "openDaysNote": ""
  },
  {
    "id": "1971601529",
    "name": "デイサービス和生あいあい",
    "kana": "デイサービスワキアイアイ",
    "address": "山梨県南アルプス市野牛島1798-2",
    "lat": 35.6656844,
    "lng": 138.4884059,
    "tel": "055-269-9908",
    "url": "",
    "pref": "山梨県",
    "city": "南アルプス市",
    "category": "day_service",
    "serviceType": "通所介護",
    "capacity": 25,
    "openDays": [
      "平日",
      "祝日"
    ],
    "openDaysNote": ""
  },
  {
    "id": "1971600257",
    "name": "ほっと・ハートデイサービスセンター",
    "kana": "ホット・ハートデイサービスセンター",
    "address": "山梨県南アルプス市下今井５８１",
    "lat": 35.6229393,
    "lng": 138.4939684,
    "tel": "055-288-6262",
    "url": "",
    "pref": "山梨県",
    "city": "南アルプス市",
    "category": "day_service",
    "serviceType": "通所介護",
    "capacity": null,
    "openDays": [
      "平日",
      "土曜日",
      "祝日"
    ],
    "openDaysNote": ""
  },
  {
    "id": "1971600869",
    "name": "また明日デイサービス",
    "kana": "マタアシタデイサービス",
    "address": "百々2355-1　ハイツ21",
    "lat": 35.6586714240022,
    "lng": 138.468631419049,
    "tel": "055-288-1177",
    "url": "http://www.mata-asita222.co.ｊｐ/",
    "pref": "山梨県",
    "city": "南アルプス市",
    "category": "day_service",
    "serviceType": "通所介護",
    "capacity": 18,
    "openDays": [
      "平日",
      "土曜日",
      "祝日"
    ],
    "openDaysNote": "緊急時は時間外、休日でも２４時間連絡がつく体制を整えています。"
  },
  {
    "id": "1970800775",
    "name": "やさしい手　南アルプス事業所",
    "kana": "ヤサシイテ　ミナミアルプスジギョウショ",
    "address": "山梨県南アルプス市百々3011-6",
    "lat": 35.6550267,
    "lng": 138.4643818,
    "tel": "055-280-0330",
    "url": "",
    "pref": "山梨県",
    "city": "南アルプス市",
    "category": "day_service",
    "serviceType": "通所介護",
    "capacity": 0,
    "openDays": [
      "平日",
      "土曜日",
      "日曜日",
      "祝日"
    ],
    "openDaysNote": "1月1日及び全社合同研修日（1月中1回程度）"
  },
  {
    "id": "1971601560",
    "name": "リハビリ道南アルプス事業所",
    "kana": "リハビリドウミナミアルプスジギョウショ",
    "address": "山梨県南アルプス市小笠原1419-1",
    "lat": 35.6173395,
    "lng": 138.4669744,
    "tel": "055-288-1806",
    "url": "https://rehabilido.com/",
    "pref": "山梨県",
    "city": "南アルプス市",
    "category": "day_service",
    "serviceType": "通所介護",
    "capacity": null,
    "openDays": [
      "平日",
      "土曜日",
      "祝日"
    ],
    "openDaysNote": ""
  },
  {
    "id": "1971601321",
    "name": "リハビリ特化型デイサービス　カラダラボ白根",
    "kana": "リハビリトッカガタデイサービス　カラダラボシラネ",
    "address": "山梨県南アルプス市西野2537-1",
    "lat": 35.6330360621631,
    "lng": 138.476614910451,
    "tel": "055-242-7281",
    "url": "https://www.karadalabo.com/",
    "pref": "山梨県",
    "city": "南アルプス市",
    "category": "day_service",
    "serviceType": "通所介護",
    "capacity": 0,
    "openDays": [
      "平日",
      "祝日"
    ],
    "openDaysNote": "年末年始（１２月３１日～１月３日）を除く"
  },
  {
    "id": "1970800197",
    "name": "花菱荘デイサービスセンター",
    "kana": "ハナビシソウデイサービスセンター",
    "address": "山梨県南アルプス市田島1108",
    "lat": 35.5930173,
    "lng": 138.4874434,
    "tel": "055-280-1300",
    "url": "",
    "pref": "山梨県",
    "city": "南アルプス市",
    "category": "day_service",
    "serviceType": "通所介護",
    "capacity": 35,
    "openDays": [
      "平日",
      "土曜日",
      "祝日"
    ],
    "openDaysNote": "総合事業のみ12/29休み。"
  },
  {
    "id": "1970800445",
    "name": "櫛形デイサービスセンターひまわり",
    "kana": "クシガタデイサービスセンターヒマワリ",
    "address": "山梨県南アルプス市小笠原1077-7",
    "lat": 35.6170003,
    "lng": 138.4614314,
    "tel": "055-280-3373",
    "url": "https://oujukai.jp/about/",
    "pref": "山梨県",
    "city": "南アルプス市",
    "category": "day_service",
    "serviceType": "通所介護",
    "capacity": 0,
    "openDays": [
      "平日",
      "土曜日",
      "日曜日",
      "祝日"
    ],
    "openDaysNote": "早朝・延長も可能"
  },
  {
    "id": "1970800478",
    "name": "櫛形荘通所介護事業所",
    "kana": "クシガタソウツウショカイゴジギョウショ",
    "address": "山梨県南アルプス市上宮地1408番地",
    "lat": 35.6141961,
    "lng": 138.4440511,
    "tel": "055-284-6558",
    "url": "http://www.kushigatasou.com",
    "pref": "山梨県",
    "city": "南アルプス市",
    "category": "day_service",
    "serviceType": "通所介護",
    "capacity": 25,
    "openDays": [
      "平日",
      "祝日"
    ],
    "openDaysNote": ""
  },
  {
    "id": "1971600604",
    "name": "甲州茶話本舗デイサービス赤石亭",
    "kana": "コウシュウサワホンポデイサービスアカイシテイ",
    "address": "山梨県南アルプス市飯野３４６２－１",
    "lat": 35.6367372,
    "lng": 138.4652929,
    "tel": "055-284-0062",
    "url": "",
    "pref": "山梨県",
    "city": "南アルプス市",
    "category": "day_service",
    "serviceType": "通所介護",
    "capacity": null,
    "openDays": [
      "平日",
      "土曜日",
      "日曜日",
      "祝日"
    ],
    "openDaysNote": "１６時以降は延長料金が発生しますが１時間１００円になります。"
  },
  {
    "id": "1971600703",
    "name": "小規模通所事業所　「あした葉」",
    "kana": "ショウキボツウショジギョウショ　アシタバ",
    "address": "落合220-3",
    "lat": 35.587397,
    "lng": 138.4636913,
    "tel": "055-280-8820",
    "url": "",
    "pref": "山梨県",
    "city": "南アルプス市",
    "category": "day_service",
    "serviceType": "通所介護",
    "capacity": null,
    "openDays": [
      "平日",
      "土曜日",
      "日曜日",
      "祝日"
    ],
    "openDaysNote": ""
  },
  {
    "id": "1971601131",
    "name": "小規模通所事業所　あした葉",
    "kana": "ショウキボツウショジギョウショ　アシタバ",
    "address": "山梨県南アルプス市落合２２０－３",
    "lat": 35.587397,
    "lng": 138.4636913,
    "tel": "055－283－8812",
    "url": "http://www.takahara-hp.or.jp",
    "pref": "山梨県",
    "city": "南アルプス市",
    "category": "day_service",
    "serviceType": "通所介護",
    "capacity": null,
    "openDays": [
      "平日",
      "土曜日",
      "日曜日",
      "祝日"
    ],
    "openDaysNote": ""
  },
  {
    "id": "1971600521",
    "name": "南アルプス市小笠原介護予防センター",
    "kana": "ミナミアルプスシオガサワラカイゴヨボウセンター",
    "address": "山梨県南アルプス市小笠原４０３－１",
    "lat": 35.6078832,
    "lng": 138.4653854,
    "tel": "055-280-1711",
    "url": "http://www.takahara-hp.or.jp/",
    "pref": "山梨県",
    "city": "南アルプス市",
    "category": "day_service",
    "serviceType": "通所介護",
    "capacity": 0,
    "openDays": [
      "平日",
      "土曜日",
      "日曜日",
      "祝日"
    ],
    "openDaysNote": ""
  },
  {
    "id": "1970800700",
    "name": "有限会社デイサービス未咲",
    "kana": "ユウゲンガイシャデイサービスミサキ",
    "address": "山梨県南アルプス市吉田３９６",
    "lat": 35.6189648,
    "lng": 138.481878,
    "tel": "055-282-6485",
    "url": "",
    "pref": "山梨県",
    "city": "南アルプス市",
    "category": "day_service",
    "serviceType": "通所介護",
    "capacity": null,
    "openDays": [
      "平日",
      "土曜日",
      "祝日"
    ],
    "openDaysNote": ""
  },
  {
    "id": "1970701304",
    "name": "デイサービスセンター百葉南部の郷",
    "kana": "デイサービスセンターモモハナンブノサト",
    "address": "山梨県南巨摩郡南部町南部8058-1百葉南部の郷 百葉南部の郷",
    "lat": 35.2928812246432,
    "lng": 138.452972478574,
    "tel": "0556-64-1150",
    "url": "http://www.momoha-bloom.or.jp",
    "pref": "山梨県",
    "city": "南部町",
    "category": "day_service",
    "serviceType": "通所介護",
    "capacity": 0,
    "openDays": [
      "平日",
      "土曜日"
    ],
    "openDaysNote": ""
  },
  {
    "id": "1970700074",
    "name": "南部町デイサービスセンター指定通所介護事業所",
    "kana": "ナンブチョウデイサービスセンターシテイツウショカイゴジギョウショ",
    "address": "山梨県南巨摩郡南部町中野2847",
    "lat": 35.3018108,
    "lng": 138.4506062,
    "tel": "0556-64-2024",
    "url": "http://www.kyonan.jp/",
    "pref": "山梨県",
    "city": "南部町",
    "category": "day_service",
    "serviceType": "通所介護",
    "capacity": 0,
    "openDays": [
      "平日"
    ],
    "openDaysNote": "積雪・台風などの場合に臨時休業する事があります。"
  },
  {
    "id": "1970700488",
    "name": "南部町富沢デイサービスセンター",
    "kana": "ナンブチョウトミザワデイサービスセンター",
    "address": "山梨県南巨摩郡南部町福士14123番地",
    "lat": 35.2356572,
    "lng": 138.4655853,
    "tel": "0556-66-3161",
    "url": "http://www.town.nanbu.yamanashi.jp/shisetu/dayservice_tomi.html",
    "pref": "山梨県",
    "city": "南部町",
    "category": "day_service",
    "serviceType": "通所介護",
    "capacity": 0,
    "openDays": [
      "平日"
    ],
    "openDaysNote": "ただし、土日祝日が３日連続の場合、１日営業。"
  },
  {
    "id": "1970900260",
    "name": "あいあい　にらさき　デイサービス",
    "kana": "アイアイ　ニラサキ　デイサービス",
    "address": "山梨県韮崎市一ツ谷１５９６－１",
    "lat": 35.7149712,
    "lng": 138.4394437,
    "tel": "0551-45-8451",
    "url": "http://www.ii-nirasaki.com",
    "pref": "山梨県",
    "city": "韮崎市",
    "category": "day_service",
    "serviceType": "通所介護",
    "capacity": 0,
    "openDays": [
      "平日",
      "祝日"
    ],
    "openDaysNote": ""
  },
  {
    "id": "1970900500",
    "name": "こすもす本町通り通所介護事業所",
    "kana": "コスモスホンチョウドオリツウショカイゴジギョウショ",
    "address": "山梨県韮崎市本町通り1丁目10番1号",
    "lat": 35.7086247,
    "lng": 138.4480836,
    "tel": "0551-21-3237",
    "url": "http://daycosmos.web.fc2.com/",
    "pref": "山梨県",
    "city": "韮崎市",
    "category": "day_service",
    "serviceType": "通所介護",
    "capacity": null,
    "openDays": [
      "平日",
      "土曜日",
      "祝日"
    ],
    "openDaysNote": ""
  },
  {
    "id": "1970900328",
    "name": "デイサービス　リハビリテーションこんね藤井",
    "kana": "デイサービス　リハビリテーションコンネフジイ",
    "address": "山梨県韮崎市藤井町駒井２６５８番地１",
    "lat": 35.7318553,
    "lng": 138.4469785,
    "tel": "０５５１－４５－７８１７",
    "url": "",
    "pref": "山梨県",
    "city": "韮崎市",
    "category": "day_service",
    "serviceType": "通所介護",
    "capacity": 10,
    "openDays": [
      "平日",
      "土曜日",
      "祝日"
    ],
    "openDaysNote": ""
  },
  {
    "id": "1970900229",
    "name": "デイサービスらっく楽",
    "kana": "デイサービスラックラク",
    "address": "山梨県韮崎市水神1-10-6",
    "lat": 35.7106912,
    "lng": 138.4451406,
    "tel": "0551-22-1602",
    "url": "http://fukushikaigoyouhin.com/",
    "pref": "山梨県",
    "city": "韮崎市",
    "category": "day_service",
    "serviceType": "通所介護",
    "capacity": null,
    "openDays": [
      "平日",
      "土曜日",
      "祝日"
    ],
    "openDaysNote": ""
  },
  {
    "id": "1970900344",
    "name": "レッツ倶楽部韮崎若宮",
    "kana": "レッツクラブニラサキワカミヤ",
    "address": "山梨県韮崎市若宮一丁目8－15",
    "lat": 35.7150157,
    "lng": 138.448343,
    "tel": "0551－45－7341",
    "url": "http://www.lets-club.jp/shop/nirasakiwakamiya",
    "pref": "山梨県",
    "city": "韮崎市",
    "category": "day_service",
    "serviceType": "通所介護",
    "capacity": null,
    "openDays": [
      "平日",
      "祝日"
    ],
    "openDaysNote": "年末・年始休みあり"
  },
  {
    "id": "1970900377",
    "name": "新こすもす通所介護事業所",
    "kana": "シンコスモスツウショカイゴジギョウショ",
    "address": "山梨県韮崎市藤井町北下條2005-1",
    "lat": 35.7263170670054,
    "lng": 138.442149195987,
    "tel": "0551-23-5311",
    "url": "http://daycosmos.web.fc2.com/",
    "pref": "山梨県",
    "city": "韮崎市",
    "category": "day_service",
    "serviceType": "通所介護",
    "capacity": 20,
    "openDays": [
      "平日",
      "土曜日",
      "祝日"
    ],
    "openDaysNote": ""
  },
  {
    "id": "1970900013",
    "name": "韮崎市大草デイサービスセンターこぶし荘",
    "kana": "ニラサキシオオクサデイサービスセンターコブシソウ",
    "address": "山梨県韮崎市大草町若尾1680番地",
    "lat": 35.6946355,
    "lng": 138.450191,
    "tel": "0551-23-5080",
    "url": "",
    "pref": "山梨県",
    "city": "韮崎市",
    "category": "day_service",
    "serviceType": "通所介護",
    "capacity": 0,
    "openDays": [
      "平日",
      "土曜日"
    ],
    "openDaysNote": "１２月２９日から１月３日までの年末年始は除く。"
  },
  {
    "id": "1970900534",
    "name": "武田の里デイサービス",
    "kana": "タケダノサトデイサービス",
    "address": "山梨県韮崎市神山町北宮地3",
    "lat": 35.710228026104,
    "lng": 138.437019813796,
    "tel": "0551-20-1411",
    "url": "",
    "pref": "山梨県",
    "city": "韮崎市",
    "category": "day_service",
    "serviceType": "通所介護",
    "capacity": 0,
    "openDays": [
      "平日"
    ],
    "openDaysNote": "祝日は、営業する場合あり。（改行）事業所都合により、休業日を設ける場合あり。"
  },
  {
    "id": "1970900146",
    "name": "有限会社こすもす通所介護事業所",
    "kana": "ユウゲンガイシャコスモスツウショカイゴジギョウショ",
    "address": "山梨県韮崎市藤井町北下條2003-4",
    "lat": 35.7263309,
    "lng": 138.4421419,
    "tel": "0551-23-6188",
    "url": "",
    "pref": "山梨県",
    "city": "韮崎市",
    "category": "day_service",
    "serviceType": "通所介護",
    "capacity": null,
    "openDays": [
      "平日",
      "土曜日",
      "日曜日",
      "祝日"
    ],
    "openDaysNote": "月曜日～土曜日までは定員35名（改行）日曜日は定員20名"
  },
  {
    "id": "1970900039",
    "name": "有限会社ひだまり",
    "kana": "ユウゲンガイシャヒダマリ",
    "address": "山梨県韮崎市旭町上條北割2745番地",
    "lat": 35.6920603,
    "lng": 138.4368781,
    "tel": "0551-22-8831",
    "url": "http://www.hidamarikaigo.info/",
    "pref": "山梨県",
    "city": "韮崎市",
    "category": "day_service",
    "serviceType": "通所介護",
    "capacity": null,
    "openDays": [
      "平日",
      "土曜日",
      "日曜日"
    ],
    "openDaysNote": ""
  },
  {
    "id": "1971300502",
    "name": "ぬくもりの家　ゆう",
    "kana": "ヌクモリノイエ　ユウ",
    "address": "山梨県南都留郡忍野村忍草1508-2",
    "lat": 35.4594898,
    "lng": 138.8486197,
    "tel": "0555-84-3945",
    "url": "",
    "pref": "山梨県",
    "city": "忍野村",
    "category": "day_service",
    "serviceType": "通所介護",
    "capacity": null,
    "openDays": [
      "平日",
      "土曜日",
      "祝日"
    ],
    "openDaysNote": ""
  },
  {
    "id": "1971300957",
    "name": "ブルーゾーン望叶",
    "kana": "ブルーゾーンモカ",
    "address": "山梨県南都留郡忍野村忍草1083",
    "lat": 35.4553858,
    "lng": 138.8346143,
    "tel": "0555-84-2625",
    "url": "",
    "pref": "山梨県",
    "city": "忍野村",
    "category": "day_service",
    "serviceType": "通所介護",
    "capacity": 20,
    "openDays": [
      "平日",
      "土曜日",
      "日曜日",
      "祝日"
    ],
    "openDaysNote": ""
  },
  {
    "id": "1971300601",
    "name": "忍野村デイサービスセンター",
    "kana": "オシノムラデイサービスセンター",
    "address": "山梨県南都留郡忍野村忍草１４４５－１番地",
    "lat": 35.4584231,
    "lng": 138.8474519,
    "tel": "0555-20-5187",
    "url": "https://oshino-syakyo.cms.ne.jp/",
    "pref": "山梨県",
    "city": "忍野村",
    "category": "day_service",
    "serviceType": "通所介護",
    "capacity": null,
    "openDays": [
      "平日",
      "土曜日",
      "祝日"
    ],
    "openDaysNote": ""
  },
  {
    "id": "1971300296",
    "name": "ケアセンターこころ",
    "kana": "ケアセンターココロ",
    "address": "山梨県南都留郡富士河口湖町船津１２４６－１",
    "lat": 35.5016022,
    "lng": 138.753943,
    "tel": "０５５５－７３－３０５８",
    "url": "",
    "pref": "山梨県",
    "city": "富士河口湖町",
    "category": "day_service",
    "serviceType": "通所介護",
    "capacity": null,
    "openDays": [
      "平日",
      "土曜日",
      "祝日"
    ],
    "openDaysNote": ""
  },
  {
    "id": "1971300734",
    "name": "デイサービスはぴねす",
    "kana": "デイサービス　ハピネス",
    "address": "山梨県南都留郡富士河口湖町船津６８０９番地１",
    "lat": 35.4885817,
    "lng": 138.7638361,
    "tel": "0555-72-5024",
    "url": "",
    "pref": "山梨県",
    "city": "富士河口湖町",
    "category": "day_service",
    "serviceType": "通所介護",
    "capacity": null,
    "openDays": [
      "平日",
      "土曜日",
      "日曜日",
      "祝日"
    ],
    "openDaysNote": ""
  },
  {
    "id": "1971300718",
    "name": "デイサービス四つ葉のクローバー",
    "kana": "デイサービスヨツバノクローバー",
    "address": "山梨県南都留郡富士河口湖町河口2818",
    "lat": 35.5235167,
    "lng": 138.7735481,
    "tel": "0555（73）9011",
    "url": "",
    "pref": "山梨県",
    "city": "富士河口湖町",
    "category": "day_service",
    "serviceType": "通所介護",
    "capacity": 10,
    "openDays": [
      "平日",
      "土曜日"
    ],
    "openDaysNote": ""
  },
  {
    "id": "1971300643",
    "name": "医療法人　聖仁会　リハビリデイサービス元気丸",
    "kana": "イリョウホウジン　セイジンカイ　リハビリデイサービスゲンキマル",
    "address": "山梨県南都留郡富士河口湖町長浜2410足和田老人福祉センター１階 足和田老人福祉センター１階",
    "lat": 35.507353,
    "lng": 138.711665,
    "tel": "0555-73-8500",
    "url": "http://seijinkai-saiyo.com/rehabili-dayservice-genkimaru/",
    "pref": "山梨県",
    "city": "富士河口湖町",
    "category": "day_service",
    "serviceType": "通所介護",
    "capacity": 0,
    "openDays": [
      "平日",
      "土曜日",
      "日曜日",
      "祝日"
    ],
    "openDaysNote": ""
  },
  {
    "id": "1931310443",
    "name": "医療法人聖仁会　デイサービスたんぽぽ",
    "kana": "イリョウホウジンセイジンカイ　デイサービスタンポポ",
    "address": "山梨県南都留郡富士河口湖町小立４０１２－１",
    "lat": 35.4921927076109,
    "lng": 138.747021793162,
    "tel": "0555-73-3511",
    "url": "http://seijinkai-saiyo.com/dayservice-tanpopo/",
    "pref": "山梨県",
    "city": "富士河口湖町",
    "category": "day_service",
    "serviceType": "通所介護",
    "capacity": 0,
    "openDays": [
      "平日",
      "土曜日",
      "日曜日",
      "祝日"
    ],
    "openDaysNote": ""
  },
  {
    "id": "1971300676",
    "name": "倶楽部　暖",
    "kana": "クラブ　ダン",
    "address": "山梨県南都留郡富士河口湖町船津7522",
    "lat": 35.5011858,
    "lng": 138.7655411,
    "tel": "0555-72-3660",
    "url": "https://sinwabusiness.co.jp/",
    "pref": "山梨県",
    "city": "富士河口湖町",
    "category": "day_service",
    "serviceType": "通所介護",
    "capacity": null,
    "openDays": [
      "平日",
      "土曜日",
      "祝日"
    ],
    "openDaysNote": "8月13日から8月15日のお盆休み（改行）12月29日から1月3日の年末年始は休み"
  },
  {
    "id": "1971300650",
    "name": "甲州茶話本舗デイサービスこうみ亭",
    "kana": "コウシュウサワホンポデイサービスコウミテイ",
    "address": "山梨県南都留郡富士河口湖町勝山６１９",
    "lat": 35.5059071,
    "lng": 138.7351325,
    "tel": "0555-73-8777",
    "url": "koumitei@jsp.co.jp",
    "pref": "山梨県",
    "city": "富士河口湖町",
    "category": "day_service",
    "serviceType": "通所介護",
    "capacity": null,
    "openDays": [
      "平日",
      "土曜日",
      "日曜日",
      "祝日"
    ],
    "openDaysNote": ""
  },
  {
    "id": "1971300288",
    "name": "通所介護センター　ラベンダー",
    "kana": "ツウショカイゴセンター　ラベンダー",
    "address": "山梨県南都留郡富士河口湖町船津字桜休場６８８７",
    "lat": 35.4611677,
    "lng": 138.7542899,
    "tel": "0555-83-3285",
    "url": "",
    "pref": "山梨県",
    "city": "富士河口湖町",
    "category": "day_service",
    "serviceType": "通所介護",
    "capacity": 0,
    "openDays": [
      "平日",
      "土曜日",
      "日曜日",
      "祝日"
    ],
    "openDaysNote": "最大利用時間8:00～21:00"
  },
  {
    "id": "1971300320",
    "name": "富士河口湖町デイサービスセンターふれ愛",
    "kana": "フジカワグチコマチデイサービスセンターフレアイ",
    "address": "山梨県南都留郡富士河口湖町小立２４８７番地",
    "lat": 35.5040657,
    "lng": 138.7536449,
    "tel": "0555-72-1430",
    "url": "",
    "pref": "山梨県",
    "city": "富士河口湖町",
    "category": "day_service",
    "serviceType": "通所介護",
    "capacity": null,
    "openDays": [
      "平日"
    ],
    "openDaysNote": "なし"
  },
  {
    "id": "1971200686",
    "name": "ツクイ富士吉田",
    "kana": "ツクイ　フジヨシダ",
    "address": "山梨県富士吉田市上吉田東1-8-13",
    "lat": 35.4756698,
    "lng": 138.7999834,
    "tel": "0555-30-4030",
    "url": "",
    "pref": "山梨県",
    "city": "富士吉田市",
    "category": "day_service",
    "serviceType": "通所介護",
    "capacity": 0,
    "openDays": [
      "平日",
      "土曜日",
      "日曜日",
      "祝日"
    ],
    "openDaysNote": ""
  },
  {
    "id": "1971200413",
    "name": "デイサービス　こたちゃん",
    "kana": "デイサービス　コタチャン",
    "address": "山梨県富士吉田中曽根４丁目１－１３",
    "lat": 35.4812924,
    "lng": 138.8070724,
    "tel": "0555-28-6055",
    "url": "http://kotachan.nomuraa.com/index.php?Frontpage",
    "pref": "山梨県",
    "city": "富士吉田市",
    "category": "day_service",
    "serviceType": "通所介護",
    "capacity": 0,
    "openDays": [
      "平日",
      "土曜日",
      "祝日"
    ],
    "openDaysNote": ""
  },
  {
    "id": "1971200546",
    "name": "デイサービス　ひまわり",
    "kana": "デイサービス　ヒマワリ",
    "address": "山梨県富士吉田市下吉田2丁目１０－８",
    "lat": 35.4911697,
    "lng": 138.804598,
    "tel": "0555-24-8663",
    "url": "",
    "pref": "山梨県",
    "city": "富士吉田市",
    "category": "day_service",
    "serviceType": "通所介護",
    "capacity": 0,
    "openDays": [
      "平日",
      "土曜日",
      "日曜日",
      "祝日"
    ],
    "openDaysNote": ""
  },
  {
    "id": "1971200025",
    "name": "デイサービスセンター　芙蓉荘",
    "kana": "デイサービスセンター　フヨウソウ",
    "address": "山梨県　富士吉田市　松山1613",
    "lat": 35.4810441,
    "lng": 138.7779378,
    "tel": "0555-22-5524",
    "url": "http://www.snhfuyoso.com",
    "pref": "山梨県",
    "city": "富士吉田市",
    "category": "day_service",
    "serviceType": "通所介護",
    "capacity": 0,
    "openDays": [
      "平日",
      "土曜日",
      "祝日"
    ],
    "openDaysNote": ""
  },
  {
    "id": "1971200165",
    "name": "デイサービスセンターなの花",
    "kana": "デイサービスセンターナノハナ",
    "address": "山梨県富士吉田市上吉田東5-12-12",
    "lat": 35.4684815,
    "lng": 138.8040089,
    "tel": "0555-22-5394",
    "url": "http://www1.ocn.ne.jp/^nano-day/",
    "pref": "山梨県",
    "city": "富士吉田市",
    "category": "day_service",
    "serviceType": "通所介護",
    "capacity": 30,
    "openDays": [
      "平日",
      "土曜日",
      "祝日"
    ],
    "openDaysNote": "年末年始12/29～1/3　お盆休み8/13～8/16"
  },
  {
    "id": "1971200306",
    "name": "デイサービスセンター慶和荘",
    "kana": "デイサービスセンターケイワソウ",
    "address": "山梨県富士吉田市上吉田字熊穴４５８４",
    "lat": 35.4764754,
    "lng": 138.785229,
    "tel": "0555-23-3000",
    "url": "http://www.mswc.or.jp/",
    "pref": "山梨県",
    "city": "富士吉田市",
    "category": "day_service",
    "serviceType": "通所介護",
    "capacity": null,
    "openDays": [
      "平日",
      "祝日"
    ],
    "openDaysNote": ""
  },
  {
    "id": "1971200439",
    "name": "デイサービスつくし庵",
    "kana": "デイサービスツクシアン",
    "address": "富士吉田市上吉田東九丁目17番1号",
    "lat": 35.4677729,
    "lng": 138.80992,
    "tel": "0555-23-7311",
    "url": "http://tsukushian.com/",
    "pref": "山梨県",
    "city": "富士吉田市",
    "category": "day_service",
    "serviceType": "通所介護",
    "capacity": 9,
    "openDays": [
      "平日",
      "土曜日",
      "日曜日",
      "祝日"
    ],
    "openDaysNote": ""
  },
  {
    "id": "1971200058",
    "name": "ニチイケアセンター富士吉田",
    "kana": "ニチイケアセンターフジヨシダ",
    "address": "山梨県富士吉田市上吉田東7-17-22",
    "lat": 35.4796824,
    "lng": 138.7976272,
    "tel": "0555-30-4103",
    "url": "http://www.nichiigakkan.co.jp",
    "pref": "山梨県",
    "city": "富士吉田市",
    "category": "day_service",
    "serviceType": "通所介護",
    "capacity": 34,
    "openDays": [
      "平日",
      "土曜日",
      "祝日"
    ],
    "openDaysNote": "定休日も連絡体制は整っている。"
  },
  {
    "id": "1971200280",
    "name": "やすらぎの家　ゆう",
    "kana": "ヤスラギノイエ　ユウ",
    "address": "山梨県富士吉田市上吉田東8丁目8番16号",
    "lat": 35.4731418247281,
    "lng": 138.814487263124,
    "tel": "0555-24-3945",
    "url": "http://yuu3945.co.jp/",
    "pref": "山梨県",
    "city": "富士吉田市",
    "category": "day_service",
    "serviceType": "通所介護",
    "capacity": 0,
    "openDays": [
      "平日",
      "土曜日",
      "日曜日",
      "祝日"
    ],
    "openDaysNote": "特別な事情がある場合、休業する事があります。"
  },
  {
    "id": "1971200249",
    "name": "医療法人　聖仁会　デイサービスうらら",
    "kana": "イリョウホウジン　セイジンカイ　デイサービスウララ",
    "address": "山梨県富士吉田市ときわ台１－１－２６",
    "lat": 35.4891241,
    "lng": 138.7924779,
    "tel": "0555-30-1215",
    "url": "http://seijinkai-saiyo.com/dayservice-urara/",
    "pref": "山梨県",
    "city": "富士吉田市",
    "category": "day_service",
    "serviceType": "通所介護",
    "capacity": 0,
    "openDays": [
      "平日",
      "土曜日",
      "日曜日",
      "祝日"
    ],
    "openDaysNote": ""
  },
  {
    "id": "1971200421",
    "name": "介護デイサービスさかえ",
    "kana": "カイゴデイサービスサカエ",
    "address": "山梨県富士吉田市小明見５丁目２番１６号",
    "lat": 35.4921152,
    "lng": 138.8268128,
    "tel": "0555-20-0085",
    "url": "",
    "pref": "山梨県",
    "city": "富士吉田市",
    "category": "day_service",
    "serviceType": "通所介護",
    "capacity": 0,
    "openDays": [
      "平日",
      "土曜日",
      "祝日"
    ],
    "openDaysNote": ""
  },
  {
    "id": "1971200579",
    "name": "機能訓練型デイサービス　起楽ふうが　富士吉田",
    "kana": "キノウクンレンガタデイサービス　オキラクフウガ　フジヨシダ",
    "address": "山梨県富士吉田市上暮地1-17-23",
    "lat": 35.5081394,
    "lng": 138.8254355,
    "tel": "0555-73-8611",
    "url": "",
    "pref": "山梨県",
    "city": "富士吉田市",
    "category": "day_service",
    "serviceType": "通所介護",
    "capacity": 0,
    "openDays": [
      "平日",
      "土曜日",
      "祝日"
    ],
    "openDaysNote": ""
  },
  {
    "id": "1971200496",
    "name": "甲州茶話本舗デイサービスあかふじ亭",
    "kana": "コウシュウサワホンポデイサービスアカフジテイ",
    "address": "山梨県富士吉田市上吉田３６２０",
    "lat": 35.4794892,
    "lng": 138.8021104,
    "tel": "0555-22-7555",
    "url": "akafujitei@jsp.co.jp",
    "pref": "山梨県",
    "city": "富士吉田市",
    "category": "day_service",
    "serviceType": "通所介護",
    "capacity": null,
    "openDays": [
      "平日",
      "土曜日",
      "日曜日",
      "祝日"
    ],
    "openDaysNote": ""
  },
  {
    "id": "1971200538",
    "name": "甲州茶話本舗デイサービス三遊亭",
    "kana": "コウシュウサワホンポデイサービスサンユウテイ",
    "address": "山梨県富士吉田市上吉田５６－１",
    "lat": 35.4758812,
    "lng": 138.7892119,
    "tel": "0555-73-8511",
    "url": "sanyuutei@jsp.co.jp",
    "pref": "山梨県",
    "city": "富士吉田市",
    "category": "day_service",
    "serviceType": "通所介護",
    "capacity": null,
    "openDays": [
      "平日",
      "土曜日",
      "日曜日",
      "祝日"
    ],
    "openDaysNote": ""
  },
  {
    "id": "1971200207",
    "name": "寿荘デイサービスセンター",
    "kana": "コトブキソウデイサービスセンター",
    "address": "山梨県富士吉田市下吉田九丁目9番10号",
    "lat": 35.4972028,
    "lng": 138.8112162,
    "tel": "0555-21-2940",
    "url": "https://fujiyoshida294.or.jp",
    "pref": "山梨県",
    "city": "富士吉田市",
    "category": "day_service",
    "serviceType": "通所介護",
    "capacity": null,
    "openDays": [
      "平日",
      "土曜日",
      "祝日"
    ],
    "openDaysNote": ""
  },
  {
    "id": "1971200371",
    "name": "富士養生館　デイサービス平山",
    "kana": "フジヨウジョウカン　デイサービスヒラヤマ",
    "address": "山梨県富士吉田市大明見2-44-26",
    "lat": 35.4773422,
    "lng": 138.8209976,
    "tel": "0555-21-5211",
    "url": "http://www.ferm.jp/",
    "pref": "山梨県",
    "city": "富士吉田市",
    "category": "day_service",
    "serviceType": "通所介護",
    "capacity": 54,
    "openDays": [
      "平日",
      "土曜日",
      "日曜日",
      "祝日"
    ],
    "openDaysNote": ""
  },
  {
    "id": "1970700504",
    "name": "いきいきくらぶ第２",
    "kana": "イキイキクラブダイニ",
    "address": "山梨県南巨摩郡富士川町長沢６８７番地２",
    "lat": 35.5719123,
    "lng": 138.4679113,
    "tel": "0556-22-5201",
    "url": "http://care-net.biz/19/human/",
    "pref": "山梨県",
    "city": "富士川町",
    "category": "day_service",
    "serviceType": "通所介護",
    "capacity": 0,
    "openDays": [
      "平日",
      "土曜日",
      "日曜日",
      "祝日"
    ],
    "openDaysNote": ""
  },
  {
    "id": "1970700918",
    "name": "デイサービスセンター　きらきら",
    "kana": "デイサービスセンター　キラキラ",
    "address": "山梨県南巨摩郡富士川町最勝寺1307-1",
    "lat": 35.55274,
    "lng": 138.4610698,
    "tel": "0556-20-1211",
    "url": "http://www.togawakai.sakura.ne.jp/",
    "pref": "山梨県",
    "city": "富士川町",
    "category": "day_service",
    "serviceType": "通所介護",
    "capacity": 0,
    "openDays": [
      "平日",
      "土曜日",
      "祝日"
    ],
    "openDaysNote": ""
  },
  {
    "id": "1910711033",
    "name": "ますほ共立デイサービスふるさと",
    "kana": "マスホキョウリツデイサービスフルサト",
    "address": "山梨県南巨摩郡富士川町長沢225-4",
    "lat": 35.5689651,
    "lng": 138.4618414,
    "tel": "0556-22-8611",
    "url": "",
    "pref": "山梨県",
    "city": "富士川町",
    "category": "day_service",
    "serviceType": "通所介護",
    "capacity": 0,
    "openDays": [
      "平日",
      "土曜日",
      "祝日"
    ],
    "openDaysNote": ""
  },
  {
    "id": "1970700108",
    "name": "みんなの家どんぐり通所介護事業所",
    "kana": "ミンナノイエドングリツウショカイゴジギョウショ",
    "address": "南巨摩郡富士川町小林１９５４番地の７",
    "lat": 35.570435,
    "lng": 138.4554614,
    "tel": "0556-22-4709",
    "url": "",
    "pref": "山梨県",
    "city": "富士川町",
    "category": "day_service",
    "serviceType": "通所介護",
    "capacity": 0,
    "openDays": [
      "平日",
      "土曜日",
      "祝日"
    ],
    "openDaysNote": "事業所の都合により休業させていただくことがある。"
  },
  {
    "id": "1970701056",
    "name": "富士川町増穂デイサービスセンター",
    "kana": "フジカワチョウマスホデイサービスセンター",
    "address": "山梨県南巨摩郡富士川町長澤1942番地1",
    "lat": 35.5732087,
    "lng": 138.4667817,
    "tel": "0556-22-8911",
    "url": "",
    "pref": "山梨県",
    "city": "富士川町",
    "category": "day_service",
    "serviceType": "通所介護",
    "capacity": 0,
    "openDays": [
      "平日",
      "土曜日",
      "祝日"
    ],
    "openDaysNote": ""
  },
  {
    "id": "1971900491",
    "name": "あい下黒沢",
    "kana": "アイシモクロサワ",
    "address": "山梨県北杜市高根町下黒澤3790番地2あい下黒沢 あい下黒沢",
    "lat": 35.8037846,
    "lng": 138.3990095,
    "tel": "0551-45-7602",
    "url": "http://www.shinnihontsuusan.co.jp/other/company.html",
    "pref": "山梨県",
    "city": "北杜市",
    "category": "day_service",
    "serviceType": "通所介護",
    "capacity": null,
    "openDays": [
      "平日",
      "祝日"
    ],
    "openDaysNote": ""
  },
  {
    "id": "1971900434",
    "name": "あい清里",
    "kana": "アイキヨサト",
    "address": "高根町村山北割1391番地1あい清里 あい清里",
    "lat": 35.8447962,
    "lng": 138.418887,
    "tel": "0551-45-9222",
    "url": "http://www.shinnihontsuusan.co.jp/index.html",
    "pref": "山梨県",
    "city": "北杜市",
    "category": "day_service",
    "serviceType": "通所介護",
    "capacity": null,
    "openDays": [
      "平日",
      "祝日"
    ],
    "openDaysNote": ""
  },
  {
    "id": "1971900475",
    "name": "あい清里別館",
    "kana": "アイキヨサトベッカン",
    "address": "高根町村山北割1386-1あい清里別館 あい清里別館",
    "lat": 35.8445629,
    "lng": 138.4191231,
    "tel": "0551-45-7755",
    "url": "http://www.shinnihontsuusan.co.jp/index.html",
    "pref": "山梨県",
    "city": "北杜市",
    "category": "day_service",
    "serviceType": "通所介護",
    "capacity": null,
    "openDays": [
      "平日",
      "祝日"
    ],
    "openDaysNote": ""
  },
  {
    "id": "1971900368",
    "name": "デイーサービス　のんびり",
    "kana": "デイーサービス　ノンビリ",
    "address": "山梨県北杜市高根町清里３５４５－１０９５",
    "lat": 35.8837666,
    "lng": 138.4372124,
    "tel": "0551-48-5033",
    "url": "http://blog.m.livedoor.jp/nonbiri0830",
    "pref": "山梨県",
    "city": "北杜市",
    "category": "day_service",
    "serviceType": "通所介護",
    "capacity": null,
    "openDays": [
      "平日",
      "土曜日"
    ],
    "openDaysNote": "定休日以外の休業日（改行）１２月２８日から１月５日と８月１３日から８月１６日"
  },
  {
    "id": "1971900517",
    "name": "デイサービスほくとのいえ",
    "kana": "デイサービスホクトノイエ",
    "address": "山梨県北杜市小淵沢町上笹尾3332-2560",
    "lat": 35.871209,
    "lng": 138.338243,
    "tel": "0551-36-6665",
    "url": "http://www.warauku-navi.net/kobuchizawa/index.html",
    "pref": "山梨県",
    "city": "北杜市",
    "category": "day_service",
    "serviceType": "通所介護",
    "capacity": 19,
    "openDays": [
      "平日",
      "土曜日",
      "祝日"
    ],
    "openDaysNote": ""
  },
  {
    "id": "1971900376",
    "name": "ほくと夢ポケットⅢデイサービス",
    "kana": "ホクトユメポケットスリーデイサービス",
    "address": "山梨県北杜市長坂町大八田1576-27",
    "lat": 35.8375804,
    "lng": 138.3906511,
    "tel": "0551-32-6300",
    "url": "http://www.yumepoke.net",
    "pref": "山梨県",
    "city": "北杜市",
    "category": "day_service",
    "serviceType": "通所介護",
    "capacity": 0,
    "openDays": [
      "平日",
      "土曜日",
      "祝日"
    ],
    "openDaysNote": ""
  },
  {
    "id": "1971900319",
    "name": "ほくと夢ポケットⅡデイサービス",
    "kana": "ホクトユメポケットツーデイサービス",
    "address": "山梨県　北杜市　高根町　村山西割　2044-1",
    "lat": 35.8367798,
    "lng": 138.4028281,
    "tel": "0551-47-6662",
    "url": "http://www.yumepoke.net",
    "pref": "山梨県",
    "city": "北杜市",
    "category": "day_service",
    "serviceType": "通所介護",
    "capacity": 0,
    "openDays": [
      "平日",
      "土曜日",
      "祝日"
    ],
    "openDaysNote": ""
  },
  {
    "id": "1971000342",
    "name": "ほくと夢ポケットデイサービス",
    "kana": "ホクトユメポケットデイサービス",
    "address": "山梨県　北杜市　高根町　村山西割　2051-1",
    "lat": 35.836166,
    "lng": 138.4032348,
    "tel": "0551-47-6661",
    "url": "http://www.yumepoke.net",
    "pref": "山梨県",
    "city": "北杜市",
    "category": "day_service",
    "serviceType": "通所介護",
    "capacity": 0,
    "openDays": [
      "平日",
      "土曜日",
      "日曜日",
      "祝日"
    ],
    "openDaysNote": ""
  },
  {
    "id": "1971900269",
    "name": "やさしい手北杜事業所",
    "kana": "ヤサシイテホクトジギョウショ",
    "address": "山梨県北杜市須玉町藤田７９９－１",
    "lat": 35.7793633,
    "lng": 138.4281946,
    "tel": "0551-42-5211",
    "url": "",
    "pref": "山梨県",
    "city": "北杜市",
    "category": "day_service",
    "serviceType": "通所介護",
    "capacity": 38,
    "openDays": [
      "平日",
      "土曜日",
      "日曜日",
      "祝日"
    ],
    "openDaysNote": "1月1日及び全社合同研修日（1月中1回程度）"
  },
  {
    "id": "1971900079",
    "name": "高根通所介護事業所",
    "kana": "タカネツウショカイゴジギョウショ",
    "address": "山梨県北杜市高根町箕輪新町５０番地",
    "lat": 35.8326361,
    "lng": 138.4311499,
    "tel": "0551-47-5151",
    "url": "www.hokuto-shakyo.jp",
    "pref": "山梨県",
    "city": "北杜市",
    "category": "day_service",
    "serviceType": "通所介護",
    "capacity": 0,
    "openDays": [
      "平日",
      "土曜日",
      "祝日"
    ],
    "openDaysNote": "サービス提供時間については、9：30～16：35となります。（改行）（改行）年末年始（12月29日から1月3日）は必要に応じ営業日とします。"
  },
  {
    "id": "1971900210",
    "name": "小淵沢通所介護事業所",
    "kana": "コブチサワツウショカイゴジギョウショ",
    "address": "山梨県北杜市小淵沢町６２６６",
    "lat": 35.8626269,
    "lng": 138.3027953,
    "tel": "0551-36-8282",
    "url": "",
    "pref": "山梨県",
    "city": "北杜市",
    "category": "day_service",
    "serviceType": "通所介護",
    "capacity": 0,
    "openDays": [
      "平日",
      "土曜日",
      "祝日"
    ],
    "openDaysNote": "営業時間について、サービス提供時間とは異なります。"
  },
  {
    "id": "1971900277",
    "name": "森のデイサービス　さんりん舎",
    "kana": "モリノデイサービス　サンリンシャ",
    "address": "大泉町西井出８２４０－２２５６",
    "lat": 35.8891726375973,
    "lng": 138.410827528777,
    "tel": "0551-38-2203",
    "url": "sanrinsya.net/",
    "pref": "山梨県",
    "city": "北杜市",
    "category": "day_service",
    "serviceType": "通所介護",
    "capacity": 0,
    "openDays": [
      "平日",
      "土曜日",
      "日曜日",
      "祝日"
    ],
    "openDaysNote": ""
  },
  {
    "id": "1971000011",
    "name": "仁生園デイサービスセンター",
    "kana": "ジンセイエンデイサービスセンター",
    "address": "山梨県北杜市長坂町小荒間1293",
    "lat": 35.8742171,
    "lng": 138.3480507,
    "tel": "0551-32-3340・",
    "url": "http://www.aijyukai.com",
    "pref": "山梨県",
    "city": "北杜市",
    "category": "day_service",
    "serviceType": "通所介護",
    "capacity": null,
    "openDays": [
      "平日",
      "土曜日",
      "祝日"
    ],
    "openDaysNote": ""
  },
  {
    "id": "1971900087",
    "name": "大泉通所介護事業所",
    "kana": "オオイズミ　ツウショカイゴジギョウショ",
    "address": "山梨県北杜市大泉町谷戸1880",
    "lat": 35.8604347,
    "lng": 138.3793667,
    "tel": "0551-38-0335",
    "url": "http://www.hokuto-shakyo.jp",
    "pref": "山梨県",
    "city": "北杜市",
    "category": "day_service",
    "serviceType": "通所介護",
    "capacity": null,
    "openDays": [
      "平日",
      "土曜日",
      "祝日"
    ],
    "openDaysNote": "サービス提供時間とは、異なります。"
  },
  {
    "id": "1971900103",
    "name": "武川通所介護事業所",
    "kana": "ムカワツウショカイゴジギョウショ",
    "address": "北杜市武川町牧原１３２２武川通所介護事業所 武川通所介護事業所",
    "lat": 35.7835882,
    "lng": 138.3786651,
    "tel": "0551-20-3111",
    "url": "www.hokuto-shakyo.jp",
    "pref": "山梨県",
    "city": "北杜市",
    "category": "day_service",
    "serviceType": "通所介護",
    "capacity": 30,
    "openDays": [
      "平日",
      "土曜日",
      "祝日"
    ],
    "openDaysNote": ""
  },
  {
    "id": "1971000029",
    "name": "明山荘デイサービスセンター",
    "kana": "メイザンソウデイサービスセンター",
    "address": "山梨県北杜市明野町上手520",
    "lat": 35.7702452,
    "lng": 138.4293923,
    "tel": "0551-25-3500",
    "url": "http://www.ryokuju.com",
    "pref": "山梨県",
    "city": "北杜市",
    "category": "day_service",
    "serviceType": "通所介護",
    "capacity": null,
    "openDays": [
      "平日",
      "土曜日",
      "祝日"
    ],
    "openDaysNote": ""
  },
  {
    "id": "1971300445",
    "name": "合資会社　　デイサービスふきのとう",
    "kana": "ゴウシガイシャ　デイサービスフキノトウ",
    "address": "山梨県南都留郡鳴沢村５８５５－１",
    "lat": 35.4807111,
    "lng": 138.699019,
    "tel": "0555-85-2280",
    "url": "fukinotou@etude.ocn.ne.jp",
    "pref": "山梨県",
    "city": "鳴沢村",
    "category": "day_service",
    "serviceType": "通所介護",
    "capacity": 10,
    "openDays": [
      "平日",
      "土曜日",
      "日曜日",
      "祝日"
    ],
    "openDaysNote": ""
  },
  {
    "id": "1971300486",
    "name": "山梨赤十字病院通所介護事業所",
    "kana": "ヤマナシセキジュウジビョウインツウショカイゴジギョウショ",
    "address": "山梨県南都留郡鳴沢村字富士山８５４５－１０６",
    "lat": 35.4815292,
    "lng": 138.7285939,
    "tel": "0555-86-2620",
    "url": "",
    "pref": "山梨県",
    "city": "鳴沢村",
    "category": "day_service",
    "serviceType": "通所介護",
    "capacity": null,
    "openDays": [
      "平日"
    ],
    "openDaysNote": "特になし"
  },
  {
    "id": "1971300023",
    "name": "富士山荘指定通所介護事業所",
    "kana": "フジサンソウシテイツウショカイゴジギョウショ",
    "address": "山梨県南都留郡鳴沢村5061",
    "lat": 35.4754244,
    "lng": 138.7243043,
    "tel": "0555-85-3255",
    "url": "http://www.eiju.or.jp",
    "pref": "山梨県",
    "city": "鳴沢村",
    "category": "day_service",
    "serviceType": "通所介護",
    "capacity": 0,
    "openDays": [
      "平日",
      "土曜日",
      "祝日"
    ],
    "openDaysNote": ""
  }
]