[
  {
    "id": "3370700688",
    "name": "デイサービスセンター　よつば　いばら",
    "kana": "デイサービスセンター　ヨツバ　イバラ",
    "address": "岡山県井原市東江原町325番地1",
    "lat": 34.5960025,
    "lng": 133.5097107,
    "tel": "0866-65-0428",
    "url": "http://care-net.biz/33/yotuba/",
    "pref": "岡山県",
    "city": "井原市",
    "category": "day_service",
    "serviceType": "通所介護",
    "capacity": 66,
    "openDays": [
      "平日",
      "土曜日",
      "祝日"
    ],
    "openDaysNote": ""
  },
  {
    "id": "3370700928",
    "name": "デイサービスセンター・サントピア",
    "kana": "デイサービスセンター・サントピア",
    "address": "岡山県井原市上出部町四季が丘16番地10",
    "lat": 34.5857638377193,
    "lng": 133.466364257394,
    "tel": "0866-65-1655",
    "url": "http://kyouwa.or.jp",
    "pref": "岡山県",
    "city": "井原市",
    "category": "day_service",
    "serviceType": "通所介護",
    "capacity": null,
    "openDays": [
      "平日",
      "土曜日"
    ],
    "openDaysNote": "ただし、長期間（３日以上）の連休となる場合は、事前に利用者及びその家族並びに居宅介護支援事業所等の関係機関に周知の上、祝日又は休日を営業日とすることがあります。（改行）また、電話等により、２４時間常時連絡が可能な体制となっています。"
  },
  {
    "id": "3370700548",
    "name": "デイサービスセンターサンライズ",
    "kana": "デイサービスセンターサンライズ",
    "address": "岡山県井原市上出部町四季が丘20-7",
    "lat": 34.5848677,
    "lng": 133.4678537,
    "tel": "0866-65-1603",
    "url": "http://kyouwa.or.jp",
    "pref": "岡山県",
    "city": "井原市",
    "category": "day_service",
    "serviceType": "通所介護",
    "capacity": 40,
    "openDays": [
      "平日",
      "土曜日",
      "祝日"
    ],
    "openDaysNote": "電話等により、２４時間常時連絡が可能な体制になっています"
  },
  {
    "id": "3370700480",
    "name": "デイサービスセンターよつば",
    "kana": "デイサービスセンターヨツバ",
    "address": "岡山県井原市上出部町1805-5",
    "lat": 34.5838429,
    "lng": 133.4573213,
    "tel": "0866-65-0154",
    "url": "http://care-net.biz/33/yotuba/",
    "pref": "岡山県",
    "city": "井原市",
    "category": "day_service",
    "serviceType": "通所介護",
    "capacity": 0,
    "openDays": [
      "平日",
      "土曜日",
      "祝日"
    ],
    "openDaysNote": ""
  },
  {
    "id": "3370700837",
    "name": "デイサービス子守唄の里高屋",
    "kana": "デイサービスコモリウタノサトタカヤ",
    "address": "2-7-32",
    "lat": 33.2514156,
    "lng": 131.7156694,
    "tel": "0866-63-4177",
    "url": "https://komoriutanosatotakaya.jimdofree.com/",
    "pref": "岡山県",
    "city": "井原市",
    "category": "day_service",
    "serviceType": "通所介護",
    "capacity": 36,
    "openDays": [
      "平日",
      "土曜日",
      "祝日"
    ],
    "openDaysNote": "お盆、13日～15日　年末年始12月31日～1月3日　カレンダーにより変更有"
  },
  {
    "id": "3370700381",
    "name": "なかよし指定通所介護事業所",
    "kana": "ナカヨシシテイツウショカイゴジギョウショ",
    "address": "岡山県井原市高屋町２丁目１４番地の６",
    "lat": 34.5781819,
    "lng": 133.4314681,
    "tel": "0866-67-1809",
    "url": "//nakayoshi-koyoshi.jimdo.com",
    "pref": "岡山県",
    "city": "井原市",
    "category": "day_service",
    "serviceType": "通所介護",
    "capacity": 40,
    "openDays": [
      "平日",
      "土曜日",
      "祝日"
    ],
    "openDaysNote": ""
  },
  {
    "id": "3370700134",
    "name": "社会福祉法人井原市社会福祉協議会指定通所介護事業所",
    "kana": "シャカイフクシホウジンイバラシシャカイフクシキョウギカイシテイツウショカイゴジギョウショ",
    "address": "岡山県井原市西江原町2936番地1",
    "lat": 34.6019768,
    "lng": 133.4829046,
    "tel": "0866-62-9200",
    "url": "http://www.ibara-syakyo.jp/",
    "pref": "岡山県",
    "city": "井原市",
    "category": "day_service",
    "serviceType": "通所介護",
    "capacity": 10,
    "openDays": [
      "平日",
      "土曜日"
    ],
    "openDaysNote": "天災その他やむを得ず業務を遂行できない日は営業日から外す"
  },
  {
    "id": "3372900039",
    "name": "小田川荘デイサービスセンター",
    "kana": "オダガワソウデイサービスセンター",
    "address": "岡山県井原市芳井町川相351",
    "lat": 34.6476016,
    "lng": 133.4100504,
    "tel": "0866-72-1577",
    "url": "http://www.odagawasou.or.jp",
    "pref": "岡山県",
    "city": "井原市",
    "category": "day_service",
    "serviceType": "通所介護",
    "capacity": 0,
    "openDays": [
      "平日",
      "土曜日",
      "祝日"
    ],
    "openDaysNote": ""
  },
  {
    "id": "3370700100",
    "name": "西部いこいの里通所介護事業所",
    "kana": "セイブイコイノサトツウショカイゴジギョウショ",
    "address": "岡山県井原市高屋町４丁目２５番地の２",
    "lat": 34.5803512,
    "lng": 133.4364453,
    "tel": "0866-67-9201",
    "url": "http://www.kinoko-group.jp/ikoi_no_sato/",
    "pref": "岡山県",
    "city": "井原市",
    "category": "day_service",
    "serviceType": "通所介護",
    "capacity": 0,
    "openDays": [
      "平日",
      "土曜日",
      "祝日"
    ],
    "openDaysNote": ""
  },
  {
    "id": "3372800098",
    "name": "長楽園デイサービスセンター",
    "kana": "チョウラクエンデイサービスセンター",
    "address": "岡山県井原市美星町西水砂２２３６－７",
    "lat": 34.6600094,
    "lng": 133.5364454,
    "tel": "0866-87-3868",
    "url": "https://chorakuen.or.jp",
    "pref": "岡山県",
    "city": "井原市",
    "category": "day_service",
    "serviceType": "通所介護",
    "capacity": 0,
    "openDays": [
      "平日",
      "祝日"
    ],
    "openDaysNote": ""
  },
  {
    "id": "3370700266",
    "name": "特別養護老人ホームみずきデイサービスセンター",
    "kana": "トクベツヨウゴロウジンホームミズキ　デイサービスセンター",
    "address": "岡山県井原市東江原町1661-1",
    "lat": 34.5999271,
    "lng": 133.5135047,
    "tel": "0866-63-2122",
    "url": "https://mizuki-okayama.jp/",
    "pref": "岡山県",
    "city": "井原市",
    "category": "day_service",
    "serviceType": "通所介護",
    "capacity": 31,
    "openDays": [
      "平日",
      "土曜日",
      "祝日"
    ],
    "openDaysNote": "年度により、年末年始の定休日変更あり。"
  },
  {
    "id": "3370107025",
    "name": "ＮＴＴグループケアポート岡山",
    "kana": "エヌティティグループケアポートオカヤマ",
    "address": "岡山県岡山市中区湊２６４－８",
    "lat": 34.64374,
    "lng": 133.9599783,
    "tel": "086-200-0055",
    "url": "http://www.telwel-west.co.jp",
    "pref": "岡山県",
    "city": "岡山市中区",
    "category": "day_service",
    "serviceType": "通所介護",
    "capacity": 30,
    "openDays": [
      "平日",
      "土曜日",
      "祝日"
    ],
    "openDaysNote": ""
  },
  {
    "id": "3370116406",
    "name": "コンパスウォーク円山",
    "kana": "コンパスウォークマルヤマ",
    "address": "岡山県岡山市中区円山1027-14",
    "lat": 34.6561041,
    "lng": 133.9739502,
    "tel": "086-206-4165",
    "url": "",
    "pref": "岡山県",
    "city": "岡山市中区",
    "category": "day_service",
    "serviceType": "通所介護",
    "capacity": null,
    "openDays": [
      "平日",
      "祝日"
    ],
    "openDaysNote": "ゴールデンウィーク、お盆は営業しています。（改行）年末年始12/31～1/3まではお休みです。"
  },
  {
    "id": "3370112710",
    "name": "ザグスタさい",
    "kana": "ザグスタサイ",
    "address": "岡山県岡山市中区さい150番地4",
    "lat": 34.6798375359988,
    "lng": 133.948969686508,
    "tel": "086-270-4133",
    "url": "http://www.zagzag.co.jp/zagstu/",
    "pref": "岡山県",
    "city": "岡山市中区",
    "category": "day_service",
    "serviceType": "通所介護",
    "capacity": 0,
    "openDays": [
      "平日",
      "土曜日",
      "祝日"
    ],
    "openDaysNote": ""
  },
  {
    "id": "3370115804",
    "name": "ザグスタ高島",
    "kana": "ザグスタタカシマ",
    "address": "岡山県岡山市中区高島新屋敷207-1",
    "lat": 34.6861437537692,
    "lng": 133.9573492,
    "tel": "086-275-2880",
    "url": "http://www.zagzag.co.jp/zagstu/",
    "pref": "岡山県",
    "city": "岡山市中区",
    "category": "day_service",
    "serviceType": "通所介護",
    "capacity": 0,
    "openDays": [
      "平日",
      "土曜日",
      "祝日"
    ],
    "openDaysNote": ""
  },
  {
    "id": "3370105060",
    "name": "サルピス　デイサービスセンター",
    "kana": "サルピス　デイサービスセンター",
    "address": "岡山県岡山市中区東川原242-1株式会社サルピス松風 株式会社サルピス松風",
    "lat": 34.6739301050825,
    "lng": 133.944639782708,
    "tel": "086-272-1740",
    "url": "www.sarupis.jp",
    "pref": "岡山県",
    "city": "岡山市中区",
    "category": "day_service",
    "serviceType": "通所介護",
    "capacity": 20,
    "openDays": [
      "平日",
      "土曜日",
      "日曜日",
      "祝日"
    ],
    "openDaysNote": ""
  },
  {
    "id": "3370117024",
    "name": "タイオンデイトレ平井",
    "kana": "タイオンデイトレヒライ",
    "address": "岡山市中区平井4丁目17－17",
    "lat": 34.6388855,
    "lng": 133.9452435,
    "tel": "086-230-3660",
    "url": "https://www.taion365.co.jp/",
    "pref": "岡山県",
    "city": "岡山市中区",
    "category": "day_service",
    "serviceType": "通所介護",
    "capacity": null,
    "openDays": [
      "平日",
      "土曜日",
      "祝日"
    ],
    "openDaysNote": ""
  },
  {
    "id": "3370116281",
    "name": "タイオンデイトレ雄町",
    "kana": "タイオンデイトレオマチ",
    "address": "国府市場100-1",
    "lat": 34.6910428,
    "lng": 133.9605334,
    "tel": "086-230-1365",
    "url": "https://www.taion365.co.jp/",
    "pref": "岡山県",
    "city": "岡山市中区",
    "category": "day_service",
    "serviceType": "通所介護",
    "capacity": 0,
    "openDays": [
      "平日",
      "土曜日",
      "祝日"
    ],
    "openDaysNote": ""
  },
  {
    "id": "3370116059",
    "name": "ツクイ岡山原尾島",
    "kana": "ツクイオカヤマハラオシマ",
    "address": "岡山県岡山市中区原尾島4丁目14番8号",
    "lat": 34.6678633,
    "lng": 133.9525063,
    "tel": "086-270-9520",
    "url": "https://www.tsukui.net/",
    "pref": "岡山県",
    "city": "岡山市中区",
    "category": "day_service",
    "serviceType": "通所介護",
    "capacity": null,
    "openDays": [
      "平日",
      "土曜日",
      "日曜日",
      "祝日"
    ],
    "openDaysNote": ""
  },
  {
    "id": "3370113924",
    "name": "デイサービス　ココファン高屋",
    "kana": "デイサービス　ココファンタカヤ",
    "address": "岡山県岡山市中区高屋126",
    "lat": 34.6743990925212,
    "lng": 133.963247335582,
    "tel": "086-238-5660",
    "url": "",
    "pref": "岡山県",
    "city": "岡山市中区",
    "category": "day_service",
    "serviceType": "通所介護",
    "capacity": 25,
    "openDays": [
      "平日",
      "土曜日",
      "祝日"
    ],
    "openDaysNote": "祝日も営業しています。"
  },
  {
    "id": "3370112082",
    "name": "デイサービスセンタ　ハイライフ",
    "kana": "デイサービスセンタ　ハイライフ",
    "address": "岡山市中区山崎312-55デイサービセンタ　ハイライフ デイサービセンタ　ハイライフ",
    "lat": 34.6525643,
    "lng": 133.9693719,
    "tel": "086-206-2359",
    "url": "http://hp.kaipoke.biz/723/",
    "pref": "岡山県",
    "city": "岡山市中区",
    "category": "day_service",
    "serviceType": "通所介護",
    "capacity": 27,
    "openDays": [
      "平日",
      "土曜日"
    ],
    "openDaysNote": ""
  },
  {
    "id": "3370111217",
    "name": "デイサービスセンター　アルフィック東川原",
    "kana": "デイサービスセンター　アルフィックヒガシガワラ",
    "address": "岡山県岡山市中区東川原160‐1",
    "lat": 34.678594,
    "lng": 133.9444601,
    "tel": "086-206-1550",
    "url": "http://www.rcare.jp/",
    "pref": "岡山県",
    "city": "岡山市中区",
    "category": "day_service",
    "serviceType": "通所介護",
    "capacity": 0,
    "openDays": [
      "平日",
      "土曜日"
    ],
    "openDaysNote": ""
  },
  {
    "id": "3370114120",
    "name": "デイサービスセンター　アルフィック平井",
    "kana": "デイサービスセンター　アルフィックヒライ",
    "address": "岡山県岡山市中区平井5丁目8-46",
    "lat": 34.6394231,
    "lng": 133.9405526,
    "tel": "086-238-5150",
    "url": "www.rcare.jp",
    "pref": "岡山県",
    "city": "岡山市中区",
    "category": "day_service",
    "serviceType": "通所介護",
    "capacity": 65,
    "openDays": [
      "平日",
      "土曜日",
      "祝日"
    ],
    "openDaysNote": "その他定休日：成人の日、建国記念日、昭和の日、山の日、スポーツの日、勤労感謝の日以外の祝日"
  },
  {
    "id": "3370106779",
    "name": "デイサービスセンター　たんぽぽ",
    "kana": "デイサービスセンター　タンポポ",
    "address": "岡山県岡山市中区江崎２５４－５",
    "lat": 34.624131,
    "lng": 133.9574459,
    "tel": "086-200-3688",
    "url": "",
    "pref": "岡山県",
    "city": "岡山市中区",
    "category": "day_service",
    "serviceType": "通所介護",
    "capacity": 0,
    "openDays": [
      "平日",
      "土曜日",
      "祝日"
    ],
    "openDaysNote": ""
  },
  {
    "id": "3370114302",
    "name": "デイサービスセンター　ながとし",
    "kana": "デイサービスセンター　ナガトシ",
    "address": "岡山県岡山市中区長利197-1ヴェルズ城東 ヴェルズ城東",
    "lat": 34.6772398,
    "lng": 133.9994348,
    "tel": "086-238-2277",
    "url": "http://www.liaz.jp/",
    "pref": "岡山県",
    "city": "岡山市中区",
    "category": "day_service",
    "serviceType": "通所介護",
    "capacity": 20,
    "openDays": [
      "平日",
      "土曜日",
      "日曜日",
      "祝日"
    ],
    "openDaysNote": "事業所の営業日は毎日とする。居宅サービス計画により、営業日及び営業時間以外でもサービス提供を行う場合があるものとする。"
  },
  {
    "id": "3370101812",
    "name": "デイサービスセンター・カドタ",
    "kana": "デイサービスセンター・カドタ",
    "address": "岡山県岡山市中区門田屋敷4-5-13",
    "lat": 34.6527773,
    "lng": 133.9397803,
    "tel": "086-273-1123",
    "url": "http://syoufuukai.jp",
    "pref": "岡山県",
    "city": "岡山市中区",
    "category": "day_service",
    "serviceType": "通所介護",
    "capacity": 25,
    "openDays": [
      "平日",
      "土曜日",
      "祝日"
    ],
    "openDaysNote": ""
  },
  {
    "id": "3370115440",
    "name": "デイサービスセンター・ハレルヤ",
    "kana": "デイサービスセンター・ハレルヤ",
    "address": "岡山県岡山市中区さくら住座10-1",
    "lat": 34.6515966,
    "lng": 133.9335838,
    "tel": "086-272-1337",
    "url": "www.okayama-hakuaikai.or.jp",
    "pref": "岡山県",
    "city": "岡山市中区",
    "category": "day_service",
    "serviceType": "通所介護",
    "capacity": 0,
    "openDays": [
      "平日",
      "土曜日",
      "祝日"
    ],
    "openDaysNote": "年末年始休みは12/31から1/3まで。"
  },
  {
    "id": "3370116935",
    "name": "デイサービスセンターアルフィック城東",
    "kana": "デイサービスセンターアルフィックジョウトウ",
    "address": "長利317-1",
    "lat": null,
    "lng": null,
    "tel": "086-201-1731",
    "url": "http://www.rcare.jp",
    "pref": "岡山県",
    "city": "岡山市中区",
    "category": "day_service",
    "serviceType": "通所介護",
    "capacity": 30,
    "openDays": [
      "平日",
      "土曜日",
      "祝日"
    ],
    "openDaysNote": "但し、祝日は成人の日、建国記念日、昭和の日、山の日、スポーツの日、勤労感謝の日のみ営業。"
  },
  {
    "id": "3370105201",
    "name": "デイサービスセンターくらた",
    "kana": "デイサービスセンタークラタ",
    "address": "岡山県岡山市中区倉田668-1",
    "lat": 34.6351323,
    "lng": 133.9539984,
    "tel": "086-276-7081",
    "url": "",
    "pref": "岡山県",
    "city": "岡山市中区",
    "category": "day_service",
    "serviceType": "通所介護",
    "capacity": 0,
    "openDays": [
      "平日",
      "土曜日",
      "祝日"
    ],
    "openDaysNote": ""
  },
  {
    "id": "3370110797",
    "name": "デイサービスセンター柔",
    "kana": "デイサービスセンターヤワラ",
    "address": "岡山県岡山市中区長岡471-1",
    "lat": 34.6795611876784,
    "lng": 133.986446726984,
    "tel": "086-238-8870",
    "url": "",
    "pref": "岡山県",
    "city": "岡山市中区",
    "category": "day_service",
    "serviceType": "通所介護",
    "capacity": 0,
    "openDays": [
      "平日",
      "土曜日",
      "日曜日",
      "祝日"
    ],
    "openDaysNote": "年中無休。"
  },
  {
    "id": "3370105276",
    "name": "デイサービス八幡の里",
    "kana": "デイサービスヤハタノサト",
    "address": "岡山県岡山市中区高島新屋敷395-1",
    "lat": 34.6851406,
    "lng": 133.9512151,
    "tel": "086-207-6102",
    "url": "http://ww3.tiki.ne.jp/~kksugahara/",
    "pref": "岡山県",
    "city": "岡山市中区",
    "category": "day_service",
    "serviceType": "通所介護",
    "capacity": 30,
    "openDays": [
      "平日",
      "土曜日",
      "祝日"
    ],
    "openDaysNote": "特になし"
  },
  {
    "id": "3370109724",
    "name": "デイサービス福泊",
    "kana": "デイサービスフクドマリ",
    "address": "岡山県岡山市中区福泊263－1",
    "lat": 34.6577160435452,
    "lng": 133.973928953304,
    "tel": "086-201-4133",
    "url": "http://waraku-f.jp/",
    "pref": "岡山県",
    "city": "岡山市中区",
    "category": "day_service",
    "serviceType": "通所介護",
    "capacity": 23,
    "openDays": [
      "平日",
      "土曜日",
      "祝日"
    ],
    "openDaysNote": ""
  },
  {
    "id": "3370103776",
    "name": "ニチイケアセンター倉富",
    "kana": "ニチイケアセンタークラトミ",
    "address": "岡山県岡山市中区山崎128-5",
    "lat": 34.6531657704781,
    "lng": 133.970564035506,
    "tel": "086-200-1681",
    "url": "http://www.nichiigakkan.co.jp/",
    "pref": "岡山県",
    "city": "岡山市中区",
    "category": "day_service",
    "serviceType": "通所介護",
    "capacity": 25,
    "openDays": [
      "平日",
      "土曜日",
      "日曜日",
      "祝日"
    ],
    "openDaysNote": "1/1～1/3を除く"
  },
  {
    "id": "3370109070",
    "name": "ゆばの郷デイサービスセンター",
    "kana": "ユバノサトデイサービスセンター",
    "address": "岡山県岡山市中区湯迫233",
    "lat": 34.6954147,
    "lng": 133.9748652,
    "tel": "086-278-8801",
    "url": "https：//yubanosato.com/",
    "pref": "岡山県",
    "city": "岡山市中区",
    "category": "day_service",
    "serviceType": "通所介護",
    "capacity": 25,
    "openDays": [
      "平日"
    ],
    "openDaysNote": "特になし"
  },
  {
    "id": "3370117214",
    "name": "リハビリデイサービスてく・とこ",
    "kana": "リハビリデイサービステクトコ",
    "address": "西川原１３８",
    "lat": 34.6789553,
    "lng": 133.9428106,
    "tel": "086－206-2992",
    "url": "",
    "pref": "岡山県",
    "city": "岡山市中区",
    "category": "day_service",
    "serviceType": "通所介護",
    "capacity": 75,
    "openDays": [
      "平日"
    ],
    "openDaysNote": ""
  },
  {
    "id": "3370110599",
    "name": "岡山ケアセンター　両備サン・オークス",
    "kana": "オカヤマケアセンター　リョウビサン・オークス",
    "address": "岡山県岡山市中区森下町5番5号",
    "lat": 34.6626125,
    "lng": 133.9420244,
    "tel": "086-238-6057",
    "url": "http://www.ryobi-hc.jp",
    "pref": "岡山県",
    "city": "岡山市中区",
    "category": "day_service",
    "serviceType": "通所介護",
    "capacity": 25,
    "openDays": [
      "平日",
      "土曜日",
      "日曜日",
      "祝日"
    ],
    "openDaysNote": ""
  },
  {
    "id": "3370102422",
    "name": "恵風荘デイサービスセンター",
    "kana": "ケイフウソウデイサービスセンター",
    "address": "岡山県岡山市中区今谷770-1",
    "lat": 34.6674733837932,
    "lng": 133.983037842189,
    "tel": "086-277-1977",
    "url": "http://www.keifuukai.or.jp/",
    "pref": "岡山県",
    "city": "岡山市中区",
    "category": "day_service",
    "serviceType": "通所介護",
    "capacity": 40,
    "openDays": [
      "平日",
      "土曜日"
    ],
    "openDaysNote": "天候や災害等により、営業が不可能な場合は、臨時休業となる場合があります。"
  },
  {
    "id": "3370106134",
    "name": "原尾島クリニックデイサービスセンター",
    "kana": "ハラオシマクリニックデイサービスセンター",
    "address": "岡山県岡山市中区原尾島三丁目8番18号",
    "lat": 34.6704286,
    "lng": 133.9465267,
    "tel": "086-271-3777",
    "url": "http://www.haraosima-clinic.jp",
    "pref": "岡山県",
    "city": "岡山市中区",
    "category": "day_service",
    "serviceType": "通所介護",
    "capacity": 0,
    "openDays": [
      "平日"
    ],
    "openDaysNote": "なし"
  },
  {
    "id": "3370112355",
    "name": "公益財団法人操風会デイサービスセンター操風",
    "kana": "コウエキザイダンホウジンソウフウカイデイサービスセンターソウフウ",
    "address": "岡山市中区奥市２－８",
    "lat": 34.6561245,
    "lng": 133.9476934,
    "tel": "086-270-6201",
    "url": "okayama-happylife.jp",
    "pref": "岡山県",
    "city": "岡山市中区",
    "category": "day_service",
    "serviceType": "通所介護",
    "capacity": 0,
    "openDays": [
      "平日",
      "土曜日",
      "祝日"
    ],
    "openDaysNote": ""
  },
  {
    "id": "3370102646",
    "name": "幸輝園デイサービスーセンター",
    "kana": "コウキエンデイサービスセンター",
    "address": "岡山県岡山市中区乙多見147-1",
    "lat": 34.6799446,
    "lng": 133.9761512,
    "tel": "086-278-2323",
    "url": "http://www.fukushi-koukikai.jp/",
    "pref": "岡山県",
    "city": "岡山市中区",
    "category": "day_service",
    "serviceType": "通所介護",
    "capacity": 25,
    "openDays": [
      "平日",
      "祝日"
    ],
    "openDaysNote": "悪天候の場合及び職員の研修等で臨時休館させて頂くことがあります。"
  },
  {
    "id": "3370103321",
    "name": "高島デイサービスセンター",
    "kana": "タカシマデイサービスセンター",
    "address": "岡山県岡山市中区国府市場985-1",
    "lat": 34.6938092,
    "lng": 133.9649803,
    "tel": "086-275-0307",
    "url": "http://www.fukushi-koukikai.jp/",
    "pref": "岡山県",
    "city": "岡山市中区",
    "category": "day_service",
    "serviceType": "通所介護",
    "capacity": 0,
    "openDays": [
      "平日",
      "祝日"
    ],
    "openDaysNote": "悪天候・職員研修等により臨時休館をすることがあります。"
  },
  {
    "id": "3370113957",
    "name": "両備ヘルシーケア福泊",
    "kana": "リョウビヘルシーケアフクドマリ",
    "address": "岡山県岡山市中区福泊262-3",
    "lat": 34.6573528,
    "lng": 133.9742268,
    "tel": "086-201-0261",
    "url": "https://ryobi-hc.jp/",
    "pref": "岡山県",
    "city": "岡山市中区",
    "category": "day_service",
    "serviceType": "通所介護",
    "capacity": 25,
    "openDays": [
      "平日",
      "祝日"
    ],
    "openDaysNote": ""
  },
  {
    "id": "3370114898",
    "name": "(有)エバ　デイサービスセンターSORA",
    "kana": "ユウゲンガイシャエバ　デイサービスセンターソラ",
    "address": "岡山県岡山市東区松新町28-1",
    "lat": 34.6573814,
    "lng": 134.013484,
    "tel": "086-942-6552",
    "url": "https://www.eba-ds-sora.jp/",
    "pref": "岡山県",
    "city": "岡山市東区",
    "category": "day_service",
    "serviceType": "通所介護",
    "capacity": 20,
    "openDays": [
      "平日",
      "土曜日",
      "祝日"
    ],
    "openDaysNote": ""
  },
  {
    "id": "3370114419",
    "name": "アイルまるつな",
    "kana": "アイルマルツナ",
    "address": "岡山市東区益野町428-24",
    "lat": 34.6544366936172,
    "lng": 133.999962150263,
    "tel": "086-944-5888",
    "url": "",
    "pref": "岡山県",
    "city": "岡山市東区",
    "category": "day_service",
    "serviceType": "通所介護",
    "capacity": 0,
    "openDays": [
      "平日",
      "土曜日",
      "日曜日",
      "祝日"
    ],
    "openDaysNote": ""
  },
  {
    "id": "3370115796",
    "name": "コンパスウォーク益野",
    "kana": "コンパスウォークマスノ",
    "address": "岡山県岡山市東区益野町877",
    "lat": 34.6585106,
    "lng": 133.9953999,
    "tel": "086-944-4165",
    "url": "",
    "pref": "岡山県",
    "city": "岡山市東区",
    "category": "day_service",
    "serviceType": "通所介護",
    "capacity": 0,
    "openDays": [
      "平日",
      "祝日"
    ],
    "openDaysNote": "ゴールデンウィーク、お盆は営業しています。（改行）年末年始12/31～1/3まではお休みです。"
  },
  {
    "id": "3370116265",
    "name": "ザグスタ平島",
    "kana": "ザグスタヒラジマ",
    "address": "岡山県岡山市東区東平島１０１９－１",
    "lat": 34.717863,
    "lng": 134.046046,
    "tel": "086-297-0210",
    "url": "http://www.zagzag.co.jp/zagstu/",
    "pref": "岡山県",
    "city": "岡山市東区",
    "category": "day_service",
    "serviceType": "通所介護",
    "capacity": 0,
    "openDays": [
      "平日",
      "祝日"
    ],
    "openDaysNote": ""
  },
  {
    "id": "3370109039",
    "name": "さくら苑デイサービスセンターつくしんぼ",
    "kana": "サクラエンデイサービスセンターツクシンボ",
    "address": "岡山県岡山市東区西大寺浜253",
    "lat": 34.6460216,
    "lng": 134.0382984,
    "tel": "086-944-8210",
    "url": "https://www.chuo-fukushikai.jp/facility/sakura/#link21",
    "pref": "岡山県",
    "city": "岡山市東区",
    "category": "day_service",
    "serviceType": "通所介護",
    "capacity": 35,
    "openDays": [
      "平日",
      "土曜日",
      "祝日"
    ],
    "openDaysNote": "12月30日から1月3日までの年末年始は休日"
  },
  {
    "id": "3370112751",
    "name": "デイサービス　とんぼの里",
    "kana": "デイサービス　トンボノサト",
    "address": "瀬戸町瀬戸253番地",
    "lat": 34.7347721910991,
    "lng": 134.035687993731,
    "tel": "086-952-5002",
    "url": "http://www.seieijukai.co.jp",
    "pref": "岡山県",
    "city": "岡山市東区",
    "category": "day_service",
    "serviceType": "通所介護",
    "capacity": 20,
    "openDays": [
      "平日",
      "土曜日",
      "祝日"
    ],
    "openDaysNote": "12/30～1/3を除く"
  },
  {
    "id": "3370111035",
    "name": "デイサービス　むらびと",
    "kana": "デイサービス　ムラビト",
    "address": "岡山市東区瀬戸町瀬戸255番地1",
    "lat": 34.7345294,
    "lng": 134.036106,
    "tel": "086-952-5001",
    "url": "http://www.seieijukai.co.jp",
    "pref": "岡山県",
    "city": "岡山市東区",
    "category": "day_service",
    "serviceType": "通所介護",
    "capacity": 0,
    "openDays": [
      "平日",
      "土曜日",
      "祝日"
    ],
    "openDaysNote": "１２／３０～１／３を除く"
  },
  {
    "id": "3370106605",
    "name": "デイサービス　明日香",
    "kana": "デイサービス　アスカ",
    "address": "岡山県岡山市東区西大寺松崎297－7",
    "lat": 34.6625747737756,
    "lng": 134.013582660259,
    "tel": "086-201－9678",
    "url": "",
    "pref": "岡山県",
    "city": "岡山市東区",
    "category": "day_service",
    "serviceType": "通所介護",
    "capacity": 0,
    "openDays": [
      "平日",
      "土曜日",
      "祝日"
    ],
    "openDaysNote": ""
  },
  {
    "id": "3370115044",
    "name": "デイサービスあい愛",
    "kana": "デイサービスアイアイ",
    "address": "岡山県岡山市東区西大寺中野543－3",
    "lat": 34.65171004258,
    "lng": 134.024708546172,
    "tel": "086-237-5001",
    "url": "http://aiai.bona.jp/",
    "pref": "岡山県",
    "city": "岡山市東区",
    "category": "day_service",
    "serviceType": "通所介護",
    "capacity": 25,
    "openDays": [
      "平日",
      "土曜日",
      "祝日"
    ],
    "openDaysNote": ""
  },
  {
    "id": "3370108866",
    "name": "デイサービスセンター　アルフィック西大寺",
    "kana": "デイサービスセンター　アルフィックサイダイジ",
    "address": "岡山県岡山市東区西大寺東3丁目８－２７",
    "lat": 34.6601617,
    "lng": 134.0497581,
    "tel": "086-944-7051",
    "url": "http://www.rcare.jp/",
    "pref": "岡山県",
    "city": "岡山市東区",
    "category": "day_service",
    "serviceType": "通所介護",
    "capacity": 40,
    "openDays": [
      "平日",
      "土曜日",
      "祝日"
    ],
    "openDaysNote": "月曜日から土曜日までとします。祝日においては休業とします。但し、成人の日、建国記念日、天皇誕生日、昭和の日、山の日、体育の日、勤労感謝の日は営業としますが、日曜日と重なる場合の振替日は営業とします。８月１３日から１５日、１２月３０日から１月３日までは休業とします。"
  },
  {
    "id": "3370101309",
    "name": "デイサービスセンター阿知の里",
    "kana": "デイサービスセンターアチノサト",
    "address": "岡山県岡山市東区下阿知１１８０番地",
    "lat": 34.6256236,
    "lng": 134.0939377,
    "tel": "086-946-1165",
    "url": "http://c-oka.org/",
    "pref": "岡山県",
    "city": "岡山市東区",
    "category": "day_service",
    "serviceType": "通所介護",
    "capacity": 30,
    "openDays": [
      "平日",
      "土曜日",
      "祝日"
    ],
    "openDaysNote": "積雪や台風時等には休業する場合があります。"
  },
  {
    "id": "3370113320",
    "name": "デイサービスセンター奏",
    "kana": "デイサービスセンター　カナデ",
    "address": "松新町206番地1カーサ・クラ・益野 カーサ・クラ・益野",
    "lat": 34.6550024557567,
    "lng": 134.006007369312,
    "tel": "086-237-1165",
    "url": "http://casa-cura.net",
    "pref": "岡山県",
    "city": "岡山市東区",
    "category": "day_service",
    "serviceType": "通所介護",
    "capacity": 20,
    "openDays": [
      "平日",
      "祝日"
    ],
    "openDaysNote": "12月31日から1月3日まで（年末年始休日）"
  },
  {
    "id": "3370117271",
    "name": "デイサービスセンター奏",
    "kana": "デイサービスセンター　カナデ",
    "address": "岡山県岡山市東区松新町206－1リリィ・ベル岡山東 リリィ・ベル岡山東",
    "lat": 34.6547462953386,
    "lng": 134.005971174245,
    "tel": "086－237－1165",
    "url": "http://lily-bell.jp",
    "pref": "岡山県",
    "city": "岡山市東区",
    "category": "day_service",
    "serviceType": "通所介護",
    "capacity": null,
    "openDays": [
      "平日",
      "祝日"
    ],
    "openDaysNote": "12月31日から1月3日まで（年末年始）"
  },
  {
    "id": "3370114039",
    "name": "デイサービスセンター満天",
    "kana": "デイサービスセンターマンテン",
    "address": "岡山県岡山市東区矢井181-1",
    "lat": 34.7051102296424,
    "lng": 134.060726873016,
    "tel": "０８６-２３８-９１８１",
    "url": "http://mmrkfym.wixsite.com/manten",
    "pref": "岡山県",
    "city": "岡山市東区",
    "category": "day_service",
    "serviceType": "通所介護",
    "capacity": 20,
    "openDays": [
      "平日",
      "土曜日",
      "祝日"
    ],
    "openDaysNote": "警報発令時、積雪等悪天候による休業、職員研修の為休業の場合あり。"
  },
  {
    "id": "3370112918",
    "name": "ニチイケアセンター瀬戸中央",
    "kana": "ニチイケアセンターセトチュウオウ",
    "address": "瀬戸町瀬戸24番地",
    "lat": 34.7345760139448,
    "lng": 134.0378357726,
    "tel": "086-952-9100",
    "url": "www.nichiigakkan.co.jp",
    "pref": "岡山県",
    "city": "岡山市東区",
    "category": "day_service",
    "serviceType": "通所介護",
    "capacity": 33,
    "openDays": [
      "平日",
      "土曜日",
      "日曜日",
      "祝日"
    ],
    "openDaysNote": "1/1～1/3を除く"
  },
  {
    "id": "3370101846",
    "name": "ハモニカ　デイサービスセンター",
    "kana": "ハモニカ　デイサービスセンター",
    "address": "岡山県岡山市東区浅川５２０番地の９",
    "lat": 34.7091854,
    "lng": 134.0696892,
    "tel": "086-297-6637",
    "url": "http://www.hamonika.com/",
    "pref": "岡山県",
    "city": "岡山市東区",
    "category": "day_service",
    "serviceType": "通所介護",
    "capacity": 55,
    "openDays": [
      "平日",
      "土曜日",
      "日曜日",
      "祝日"
    ],
    "openDaysNote": ""
  },
  {
    "id": "3370101994",
    "name": "健生園デイサービスセンター",
    "kana": "ケンセイエンデイサービスセンター",
    "address": "岡山県岡山市東区吉原２３１",
    "lat": 34.6728105,
    "lng": 134.0325402,
    "tel": "086-944-2941",
    "url": "http://www16.ocn.ne.jp/~kensei/day/",
    "pref": "岡山県",
    "city": "岡山市東区",
    "category": "day_service",
    "serviceType": "通所介護",
    "capacity": 0,
    "openDays": [
      "平日",
      "土曜日",
      "祝日"
    ],
    "openDaysNote": "年末年始(12/31~1/2)　　休館あり"
  },
  {
    "id": "3370102869",
    "name": "上道荘デイサービスセンター",
    "kana": "ジョウトウソウデイサービスセンター",
    "address": "岡山県岡山市東区中尾1036番地",
    "lat": 34.7073380755061,
    "lng": 134.022051292066,
    "tel": "086-297-7011",
    "url": "http://dainimakotokai.com",
    "pref": "岡山県",
    "city": "岡山市東区",
    "category": "day_service",
    "serviceType": "通所介護",
    "capacity": 3,
    "openDays": [
      "平日",
      "祝日"
    ],
    "openDaysNote": ""
  },
  {
    "id": "3370106860",
    "name": "城本クリニックデイサービスセンター",
    "kana": "シロモトクリニックデイサービスセンター",
    "address": "岡山県岡山市東区松新町６５番地の４",
    "lat": 34.658409,
    "lng": 134.0095677,
    "tel": "086-942-0007",
    "url": "",
    "pref": "岡山県",
    "city": "岡山市東区",
    "category": "day_service",
    "serviceType": "通所介護",
    "capacity": 25,
    "openDays": [
      "平日",
      "土曜日"
    ],
    "openDaysNote": ""
  },
  {
    "id": "3370103362",
    "name": "西大寺ふれあいデイサービスセンター",
    "kana": "サイダイジフレアイデイサービスセンター",
    "address": "岡山県岡山市東区西大寺中二丁目１６-３３",
    "lat": 34.6565206,
    "lng": 134.0349374,
    "tel": "086-944-1809",
    "url": "http://www.okayama-fureai.or.jp/",
    "pref": "岡山県",
    "city": "岡山市東区",
    "category": "day_service",
    "serviceType": "通所介護",
    "capacity": 5,
    "openDays": [
      "平日",
      "祝日"
    ],
    "openDaysNote": "特になし"
  },
  {
    "id": "3370103958",
    "name": "石井内科デイサービスセンター",
    "kana": "イシイナイカデイサービスセンター",
    "address": "岡山県岡山市東区神崎町１０５－１",
    "lat": 34.6271899,
    "lng": 134.0584826,
    "tel": "086-946-2101",
    "url": "ishiinaika.e-doctor.info/",
    "pref": "岡山県",
    "city": "岡山市東区",
    "category": "day_service",
    "serviceType": "通所介護",
    "capacity": 25,
    "openDays": [
      "平日",
      "土曜日"
    ],
    "openDaysNote": ""
  },
  {
    "id": "3370110284",
    "name": "創心会リハビリ倶楽部益野",
    "kana": "ソウシンカイリハビリクラブマスノ",
    "address": "岡山県岡山市東区可知3丁目17-53",
    "lat": 35.3175027,
    "lng": 137.1567214,
    "tel": "086-944-6605",
    "url": "http://www.soushinkai.com",
    "pref": "岡山県",
    "city": "岡山市東区",
    "category": "day_service",
    "serviceType": "通所介護",
    "capacity": 45,
    "openDays": [
      "平日",
      "土曜日",
      "祝日"
    ],
    "openDaysNote": "12月31日～１月３日は休み"
  },
  {
    "id": "3372200273",
    "name": "多聞荘デイサービスセンター",
    "kana": "タモンソウデイサービスセンター",
    "address": "岡山県岡山市東区瀬戸町坂根792-14",
    "lat": 34.7400628,
    "lng": 134.0586293,
    "tel": "086-953-0011",
    "url": "http://www.tensetsukai.or.jp",
    "pref": "岡山県",
    "city": "岡山市東区",
    "category": "day_service",
    "serviceType": "通所介護",
    "capacity": 0,
    "openDays": [
      "平日",
      "土曜日",
      "祝日"
    ],
    "openDaysNote": ""
  },
  {
    "id": "3370108767",
    "name": "特定非営利活動法人　デイサービスセンター　おかやま　ままかり苑",
    "kana": "トクテイヒエイリカツドウホウジン　デイサービスセンター　オカヤマ　ママカリエン",
    "address": "岡山県岡山市東区益野町754-1",
    "lat": 34.6549978,
    "lng": 133.9947861,
    "tel": "086-942-1501",
    "url": "https://www.mamakari.or.jp/",
    "pref": "岡山県",
    "city": "岡山市東区",
    "category": "day_service",
    "serviceType": "通所介護",
    "capacity": 30,
    "openDays": [
      "平日",
      "祝日"
    ],
    "openDaysNote": ""
  },
  {
    "id": "3370105839",
    "name": "有限会社　宅老所　華の苑",
    "kana": "ユウゲンガイシャ　タクロウショ　ハナノエン",
    "address": "岡山県岡山市東区金田１８５２－１",
    "lat": 34.6237384,
    "lng": 134.0252091,
    "tel": "086-948-5531",
    "url": "http://t-hananoen.com/",
    "pref": "岡山県",
    "city": "岡山市東区",
    "category": "day_service",
    "serviceType": "通所介護",
    "capacity": 0,
    "openDays": [
      "平日",
      "土曜日",
      "祝日"
    ],
    "openDaysNote": "年末年始　12/30～1/3　休み"
  },
  {
    "id": "3370110342",
    "name": "夕なぎデイサービスセンターもものはな",
    "kana": "ユウナギデイサービスセンターモモノハナ",
    "address": "岡山市東区宿毛748-5",
    "lat": 34.6225531496269,
    "lng": 134.085392158614,
    "tel": "086-946-2627",
    "url": "http://www.yunagi.jp",
    "pref": "岡山県",
    "city": "岡山市東区",
    "category": "day_service",
    "serviceType": "通所介護",
    "capacity": 25,
    "openDays": [
      "平日",
      "土曜日",
      "祝日"
    ],
    "openDaysNote": ""
  },
  {
    "id": "3370117453",
    "name": "ＥＮデイサービスセンター福田",
    "kana": "エンデイサービスセンターフクダ",
    "address": "岡山県岡山市南区福田227-9",
    "lat": 34.6197964,
    "lng": 133.9281147,
    "tel": "086-250-9315",
    "url": "",
    "pref": "岡山県",
    "city": "岡山市南区",
    "category": "day_service",
    "serviceType": "通所介護",
    "capacity": 0,
    "openDays": [
      "平日",
      "土曜日"
    ],
    "openDaysNote": ""
  },
  {
    "id": "3370116083",
    "name": "Lifecare妹尾デイサービスセンター",
    "kana": "ライフケアセノオデイサービスセンター",
    "address": "岡山県岡山市南区東畦４６－５",
    "lat": 34.6036918965695,
    "lng": 133.865843613492,
    "tel": "086-250-9370",
    "url": "https://s-and-k-okayama.wixsite.com/life-care-service",
    "pref": "岡山県",
    "city": "岡山市南区",
    "category": "day_service",
    "serviceType": "通所介護",
    "capacity": null,
    "openDays": [
      "平日",
      "土曜日",
      "日曜日",
      "祝日"
    ],
    "openDaysNote": ""
  },
  {
    "id": "3370103909",
    "name": "あけぼのクリニックデイサービスセンター",
    "kana": "アケボノクリニックデイサービスセンター",
    "address": "岡山県岡山市南区築港新町１－７－２８",
    "lat": 34.6065492,
    "lng": 133.9373539,
    "tel": "086-902-2277",
    "url": "http://www2.oninet.ne.jp/wellife2/",
    "pref": "岡山県",
    "city": "岡山市南区",
    "category": "day_service",
    "serviceType": "通所介護",
    "capacity": 0,
    "openDays": [
      "平日",
      "土曜日"
    ],
    "openDaysNote": ""
  },
  {
    "id": "3370111746",
    "name": "アミューズ富永　デイサービスえんじゅ",
    "kana": "アミューズトミナガ　デイサービス　エンジュ",
    "address": "岡山市南区福富西3-8-36",
    "lat": 34.6224692,
    "lng": 133.9270183,
    "tel": "086-259-0667",
    "url": "http://amuse.kusuriya.jp/",
    "pref": "岡山県",
    "city": "岡山市南区",
    "category": "day_service",
    "serviceType": "通所介護",
    "capacity": 0,
    "openDays": [
      "平日",
      "土曜日",
      "祝日"
    ],
    "openDaysNote": ""
  },
  {
    "id": "3370106589",
    "name": "コープデイサービス福浜",
    "kana": "コープデイサービスフクハマ",
    "address": "岡山県岡山市南区福富中2丁目8-7",
    "lat": 34.6210641,
    "lng": 133.9368924,
    "tel": "086-902-0221",
    "url": "http://www.okayama-health.coop/fukuhama/index.html",
    "pref": "岡山県",
    "city": "岡山市南区",
    "category": "day_service",
    "serviceType": "通所介護",
    "capacity": 25,
    "openDays": [
      "平日",
      "土曜日",
      "祝日"
    ],
    "openDaysNote": ""
  },
  {
    "id": "3370115945",
    "name": "コンパスウォーク岡山南",
    "kana": "コンパスウォークオカヤマミナミ",
    "address": "平福２丁目４３９-２",
    "lat": 34.6170081,
    "lng": 133.9492996,
    "tel": "086-259-2382",
    "url": "",
    "pref": "岡山県",
    "city": "岡山市南区",
    "category": "day_service",
    "serviceType": "通所介護",
    "capacity": null,
    "openDays": [
      "平日",
      "祝日"
    ],
    "openDaysNote": "年末年始　12/31～1/3（休み）"
  },
  {
    "id": "3370116778",
    "name": "コンパスウォーク絆",
    "kana": "コンパスウォークキズナ",
    "address": "岡山県岡山市南区西紅陽台2－58－462",
    "lat": 34.5461542,
    "lng": 133.8882502,
    "tel": "086ｰ239-8620",
    "url": "https://keigo-group.co.jp/shop/okayamaken/58462/",
    "pref": "岡山県",
    "city": "岡山市南区",
    "category": "day_service",
    "serviceType": "通所介護",
    "capacity": 0,
    "openDays": [
      "平日"
    ],
    "openDaysNote": "ゴールデンウィーク、お盆は営業しています。（改行）年末年始12/31～1/3まではお休みです。"
  },
  {
    "id": "3370116554",
    "name": "ザグスタ大福",
    "kana": "ザグスタオオフク",
    "address": "岡山県岡山市南区大福411-1",
    "lat": 34.6169036,
    "lng": 133.873562,
    "tel": "086-282-2639",
    "url": "http://www.zagzag.co.jp/zagstu/",
    "pref": "岡山県",
    "city": "岡山市南区",
    "category": "day_service",
    "serviceType": "通所介護",
    "capacity": 0,
    "openDays": [
      "平日",
      "祝日"
    ],
    "openDaysNote": ""
  },
  {
    "id": "3370117370",
    "name": "タイオンデイトレ古新田",
    "kana": "タイオンデイトレコシンデン",
    "address": "岡山県岡山市南区古新田1355-1",
    "lat": 34.6239005,
    "lng": 133.8757245,
    "tel": "086-282-0365",
    "url": "https://www.taion365.co.jp/",
    "pref": "岡山県",
    "city": "岡山市南区",
    "category": "day_service",
    "serviceType": "通所介護",
    "capacity": null,
    "openDays": [
      "平日",
      "土曜日",
      "祝日"
    ],
    "openDaysNote": "GW、お盆期間中も休みなく営業しております。"
  },
  {
    "id": "3370116026",
    "name": "ツクイ岡山新保",
    "kana": "ツクイオカヤマシンボ",
    "address": "新保1187-2",
    "lat": 34.635429,
    "lng": 133.9147587,
    "tel": "086-236-0855",
    "url": "https://www.tsukui.net",
    "pref": "岡山県",
    "city": "岡山市南区",
    "category": "day_service",
    "serviceType": "通所介護",
    "capacity": null,
    "openDays": [
      "平日",
      "土曜日",
      "日曜日",
      "祝日"
    ],
    "openDaysNote": ""
  },
  {
    "id": "3370115929",
    "name": "デイサービス　オレンジ",
    "kana": "デイサービス　オレンジ",
    "address": "妹尾2579",
    "lat": 34.6158167,
    "lng": 133.8646602,
    "tel": "086-250-6436",
    "url": "http://hp.kaipoke.biz/w8k/",
    "pref": "岡山県",
    "city": "岡山市南区",
    "category": "day_service",
    "serviceType": "通所介護",
    "capacity": 20,
    "openDays": [
      "平日",
      "土曜日"
    ],
    "openDaysNote": "夏季休暇　8/13～8/15（改行）年末年始　12/29～1/3"
  },
  {
    "id": "3370109807",
    "name": "デイサービス　こもれび泉田",
    "kana": "デイサービス　コモレビイズミダ",
    "address": "岡山県岡山市南区泉田357-3",
    "lat": 34.627332,
    "lng": 133.9116673,
    "tel": "086-243-5753",
    "url": "http://www.komorebi-izumida.jp",
    "pref": "岡山県",
    "city": "岡山市南区",
    "category": "day_service",
    "serviceType": "通所介護",
    "capacity": 0,
    "openDays": [
      "平日",
      "祝日"
    ],
    "openDaysNote": ""
  },
  {
    "id": "3370115218",
    "name": "デイサービス　みどり乃杜",
    "kana": "デイサービス　ミドリノモリ",
    "address": "北浦121番地",
    "lat": 34.5868579,
    "lng": 133.9633249,
    "tel": "086-267-1218",
    "url": "midorinomori@midorikai-net.or.jp",
    "pref": "岡山県",
    "city": "岡山市南区",
    "category": "day_service",
    "serviceType": "通所介護",
    "capacity": 20,
    "openDays": [
      "平日",
      "土曜日",
      "祝日"
    ],
    "openDaysNote": ""
  },
  {
    "id": "3370111928",
    "name": "デイサービス　みらい",
    "kana": "デイサービス　ミライ",
    "address": "彦崎2993番地2",
    "lat": 34.5499131111048,
    "lng": 133.835396567706,
    "tel": "086‐362-2525",
    "url": "http://yumeno-sato.com",
    "pref": "岡山県",
    "city": "岡山市南区",
    "category": "day_service",
    "serviceType": "通所介護",
    "capacity": 20,
    "openDays": [
      "平日",
      "土曜日",
      "祝日"
    ],
    "openDaysNote": "特になし"
  },
  {
    "id": "3370106928",
    "name": "デイサービスあゆむ",
    "kana": "デイサービスアユム",
    "address": "岡山県岡山市南区福田164-9",
    "lat": 34.6157612424433,
    "lng": 133.926641424966,
    "tel": "086-261-6601",
    "url": "http://www.ayumu-service.com",
    "pref": "岡山県",
    "city": "岡山市南区",
    "category": "day_service",
    "serviceType": "通所介護",
    "capacity": 0,
    "openDays": [
      "平日",
      "祝日"
    ],
    "openDaysNote": "特になし"
  },
  {
    "id": "3370110813",
    "name": "デイサービスセンター　アルフィック下中野",
    "kana": "デイサービスセンター　アルフィックシモナカノ",
    "address": "岡山市南区下中野　１４１５－１０",
    "lat": 34.6379195,
    "lng": 133.9074316,
    "tel": "086-250-1600",
    "url": "www.rcare.jp",
    "pref": "岡山県",
    "city": "岡山市南区",
    "category": "day_service",
    "serviceType": "通所介護",
    "capacity": 0,
    "openDays": [
      "平日",
      "土曜日",
      "祝日"
    ],
    "openDaysNote": "但し、祝日は成人の日、建国記念日、昭和の日、山の日、スポーツの日、勤労感謝の日のみ営業。"
  },
  {
    "id": "3370116414",
    "name": "デイサービスセンター　フローアール泉田",
    "kana": "デイサービスセンター　フローアールイズミダ",
    "address": "岡山県岡山市南区泉田２３番地３",
    "lat": 34.6281378,
    "lng": 133.9134708,
    "tel": "086-233-3373",
    "url": "https://www.rcare.jp/",
    "pref": "岡山県",
    "city": "岡山市南区",
    "category": "day_service",
    "serviceType": "通所介護",
    "capacity": 0,
    "openDays": [
      "平日",
      "土曜日",
      "祝日"
    ],
    "openDaysNote": "但し、祝日は成人の日、建国記念日、昭和の日、山の日、スポーツの日、勤労感謝の日のみ営業。"
  },
  {
    "id": "3370103628",
    "name": "デイサービスセンター　海の見える家",
    "kana": "デイサービスセンター　ウミノミエルイエ",
    "address": "岡山県岡山市南区小串1195-5",
    "lat": 34.5829981,
    "lng": 134.0393224,
    "tel": "086-269-9333",
    "url": "",
    "pref": "岡山県",
    "city": "岡山市南区",
    "category": "day_service",
    "serviceType": "通所介護",
    "capacity": 0,
    "openDays": [
      "平日"
    ],
    "openDaysNote": ""
  },
  {
    "id": "3370102471",
    "name": "デイサービスセンターうららか",
    "kana": "デイサービスセンターウララカ",
    "address": "岡山県岡山市南区福富東1-7-43老人福祉施設うららか　1階 老人福祉施設うららか　1階",
    "lat": 34.6229449288552,
    "lng": 133.939644633205,
    "tel": "086-263-7000",
    "url": "http://www.sato-hp.com",
    "pref": "岡山県",
    "city": "岡山市南区",
    "category": "day_service",
    "serviceType": "通所介護",
    "capacity": 0,
    "openDays": [
      "平日",
      "土曜日"
    ],
    "openDaysNote": "特になし"
  },
  {
    "id": "3370114161",
    "name": "デイサービスセンターきずな",
    "kana": "デイサービスセンターキズナ",
    "address": "岡山県岡山市南区平福二丁目1番35号",
    "lat": 34.617762,
    "lng": 133.9480832,
    "tel": "086-239-8600",
    "url": "",
    "pref": "岡山県",
    "city": "岡山市南区",
    "category": "day_service",
    "serviceType": "通所介護",
    "capacity": 0,
    "openDays": [
      "平日",
      "祝日"
    ],
    "openDaysNote": "■年末年始休暇（改行）12/30～1/3"
  },
  {
    "id": "3370102349",
    "name": "デイサービスセンタープルミエ岡山",
    "kana": "デイサービスセンタープルミエオカヤマ",
    "address": "岡山県岡山市南区北浦100",
    "lat": 34.5871411,
    "lng": 133.963036,
    "tel": "086-267-2323",
    "url": "http://ww3.tiki.ne.jp/~kenjukai/index.htm",
    "pref": "岡山県",
    "city": "岡山市南区",
    "category": "day_service",
    "serviceType": "通所介護",
    "capacity": 25,
    "openDays": [
      "平日",
      "土曜日",
      "祝日"
    ],
    "openDaysNote": "12月31日から1月3日まで休業"
  },
  {
    "id": "3370105227",
    "name": "デイサービスセンターほがらか",
    "kana": "デイサービスセンターホガラカ",
    "address": "岡山県岡山市南区西市１００－５ケアセンターほがらか ケアセンターほがらか",
    "lat": 34.6325617,
    "lng": 133.9034599,
    "tel": "086-805-2880",
    "url": "http://www.hogaraka-npo.com",
    "pref": "岡山県",
    "city": "岡山市南区",
    "category": "day_service",
    "serviceType": "通所介護",
    "capacity": 5,
    "openDays": [
      "平日",
      "土曜日",
      "祝日"
    ],
    "openDaysNote": "12/30～1/3　はお休み"
  },
  {
    "id": "3370106969",
    "name": "デイサービスセンターみどりー夢",
    "kana": "デイサービスセンターミドリーム",
    "address": "岡山県岡山市南区新福二丁目９番２９号",
    "lat": 34.627008935028,
    "lng": 133.936218258675,
    "tel": "086-262-7771",
    "url": "http://www.mcjapan.net/yume.html",
    "pref": "岡山県",
    "city": "岡山市南区",
    "category": "day_service",
    "serviceType": "通所介護",
    "capacity": 0,
    "openDays": [
      "平日",
      "土曜日",
      "祝日"
    ],
    "openDaysNote": ""
  },
  {
    "id": "3370101093",
    "name": "デイサービスセンター共生苑",
    "kana": "デイサービスセンターキョウセイエン",
    "address": "岡山県岡山市南区東畦768",
    "lat": 34.6044116,
    "lng": 133.8813399,
    "tel": "086-281-6866",
    "url": "http://www.keiyuu-kai.or.jp/top.html",
    "pref": "岡山県",
    "city": "岡山市南区",
    "category": "day_service",
    "serviceType": "通所介護",
    "capacity": 0,
    "openDays": [
      "平日",
      "土曜日"
    ],
    "openDaysNote": "特になし"
  },
  {
    "id": "3370115911",
    "name": "デイサービスセンター万倍の里",
    "kana": "デイサービスセンター　マンバイノサト",
    "address": "岡山市南区万倍54-6デイサービスセンター万倍の里 デイサービスセンター万倍の里",
    "lat": 34.6264596,
    "lng": 133.9008102,
    "tel": "086-243-6671",
    "url": "https://daishingroup.net/",
    "pref": "岡山県",
    "city": "岡山市南区",
    "category": "day_service",
    "serviceType": "通所介護",
    "capacity": 35,
    "openDays": [
      "平日"
    ],
    "openDaysNote": ""
  },
  {
    "id": "3370104527",
    "name": "デイサービスどるちぇ",
    "kana": "デイサービスドルチェ",
    "address": "岡山県岡山市南区浦安南町73-16",
    "lat": 34.5915283,
    "lng": 133.9218469,
    "tel": "086-265-5346",
    "url": "",
    "pref": "岡山県",
    "city": "岡山市南区",
    "category": "day_service",
    "serviceType": "通所介護",
    "capacity": 0,
    "openDays": [
      "平日",
      "土曜日",
      "祝日"
    ],
    "openDaysNote": ""
  },
  {
    "id": "3370113643",
    "name": "ほねつぎ介護デイサービス（岡山福田店）",
    "kana": "ホネツギカイゴデイサービス　オカヤマフクダテン",
    "address": "岡山県岡山市南区福田227-9",
    "lat": 34.6198723,
    "lng": 133.9281627,
    "tel": "086-250-9315",
    "url": "",
    "pref": "岡山県",
    "city": "岡山市南区",
    "category": "day_service",
    "serviceType": "通所介護",
    "capacity": 0,
    "openDays": [
      "平日",
      "土曜日"
    ],
    "openDaysNote": ""
  },
  {
    "id": "3370111092",
    "name": "リ・ファインデイサービスセンター岡南",
    "kana": "リ・ファインデイサービスセンターコウナン",
    "address": "岡山県岡山市南区浦安南町４４２－１",
    "lat": 34.6004334174421,
    "lng": 133.925343580335,
    "tel": "086-902-1188",
    "url": "http://www.refine-day.co.jp",
    "pref": "岡山県",
    "city": "岡山市南区",
    "category": "day_service",
    "serviceType": "通所介護",
    "capacity": 40,
    "openDays": [
      "平日",
      "土曜日"
    ],
    "openDaysNote": ""
  },
  {
    "id": "3370110060",
    "name": "ワンダフル藤田デイサービスセンター",
    "kana": "ワンダフルフジタデイサービスセンター",
    "address": "岡山県岡山市南区藤田430-2",
    "lat": 34.5908379,
    "lng": 133.8806682,
    "tel": "086-296-7322",
    "url": "http://www.21care.co.jp",
    "pref": "岡山県",
    "city": "岡山市南区",
    "category": "day_service",
    "serviceType": "通所介護",
    "capacity": 0,
    "openDays": [
      "平日",
      "土曜日",
      "日曜日",
      "祝日"
    ],
    "openDaysNote": "年中無休"
  },
  {
    "id": "3370102265",
    "name": "愛光苑デイサービスセンター",
    "kana": "アイコウエンデイサービスセンター",
    "address": "岡山県岡山市南区浦安本町81-2",
    "lat": 34.6069683,
    "lng": 133.930146,
    "tel": "086-250-1105",
    "url": "http://www.aikouen.info/",
    "pref": "岡山県",
    "city": "岡山市南区",
    "category": "day_service",
    "serviceType": "通所介護",
    "capacity": 40,
    "openDays": [
      "平日",
      "土曜日"
    ],
    "openDaysNote": "祝日に営業日を設ける事もあります。"
  },
  {
    "id": "3370112272",
    "name": "医療法人ふたば会　デイサービス　ラ・クーラ",
    "kana": "イリョウホウジンフタバカイ　デイサービス　ラ・クーラ",
    "address": "内尾410-10",
    "lat": 34.6033917,
    "lng": 133.8620911,
    "tel": "086-282-8877",
    "url": "http://lc.futaba-ac.jp/",
    "pref": "岡山県",
    "city": "岡山市南区",
    "category": "day_service",
    "serviceType": "通所介護",
    "capacity": 20,
    "openDays": [
      "平日",
      "土曜日"
    ],
    "openDaysNote": ""
  },
  {
    "id": "3370112975",
    "name": "岡山ケアセンターそよ風",
    "kana": "オカヤマケアセンターソヨカゼ",
    "address": "岡山県岡山市南区米倉43-13",
    "lat": 34.6281508,
    "lng": 133.8938583,
    "tel": "086-805-2561",
    "url": "https://corp.sykz.co.jp/",
    "pref": "岡山県",
    "city": "岡山市南区",
    "category": "day_service",
    "serviceType": "通所介護",
    "capacity": 30,
    "openDays": [
      "平日",
      "土曜日",
      "祝日"
    ],
    "openDaysNote": "ショートステイが併設しており、日曜日・正月も連絡や見学が可能"
  },
  {
    "id": "3370101689",
    "name": "岡山市西市デイサービスセンター",
    "kana": "オカヤマシニシイチデイサービスセンター",
    "address": "岡山県岡山市南区西市123-1",
    "lat": 34.6287566,
    "lng": 133.9038876,
    "tel": "086-246-6851",
    "url": "http://kounann.pnc.or.jp",
    "pref": "岡山県",
    "city": "岡山市南区",
    "category": "day_service",
    "serviceType": "通所介護",
    "capacity": 40,
    "openDays": [
      "平日",
      "土曜日"
    ],
    "openDaysNote": "サービス提供時間　９：００～１６：３０"
  },
  {
    "id": "3370116703",
    "name": "岡山福成ケアセンターそよ風",
    "kana": "オカヤマフクナリケアセンターソヨカゼ",
    "address": "岡山県岡山市南区福成一丁目161－1０",
    "lat": 34.6166027819273,
    "lng": 133.932348334779,
    "tel": "086－261-8090",
    "url": "https://www.sykz.co.jp/map/search?pref_name=%E5%B2%A1%E5%B1%B1%E7%9C%8C",
    "pref": "岡山県",
    "city": "岡山市南区",
    "category": "day_service",
    "serviceType": "通所介護",
    "capacity": 0,
    "openDays": [
      "平日",
      "土曜日",
      "祝日"
    ],
    "openDaysNote": ""
  },
  {
    "id": "3370115556",
    "name": "宮浦荘通所介護事業所",
    "kana": "ミヤウラソウツウショカイゴジギョウショ",
    "address": "岡山県岡山市南区宮浦２０９番地１",
    "lat": 34.5874861,
    "lng": 133.9961042,
    "tel": "086-259-5511",
    "url": "",
    "pref": "岡山県",
    "city": "岡山市南区",
    "category": "day_service",
    "serviceType": "通所介護",
    "capacity": 0,
    "openDays": [
      "平日",
      "土曜日",
      "祝日"
    ],
    "openDaysNote": "特になし"
  },
  {
    "id": "3370105334",
    "name": "山本医院デイサービスセンター",
    "kana": "ヤマモトイインデイサービスセンター",
    "address": "岡山県岡山市南区泉田４１８－２５",
    "lat": 34.6261153,
    "lng": 133.9064401,
    "tel": "086-243-7523",
    "url": "http://pione-welfare.or.jp",
    "pref": "岡山県",
    "city": "岡山市南区",
    "category": "day_service",
    "serviceType": "通所介護",
    "capacity": 40,
    "openDays": [
      "平日",
      "土曜日",
      "祝日"
    ],
    "openDaysNote": ""
  },
  {
    "id": "3370102711",
    "name": "若宮園デイサービスセンター",
    "kana": "ワカミヤエンデイサービスセンター",
    "address": "岡山県岡山市南区箕島3491番地7",
    "lat": 34.6155254906258,
    "lng": 133.836646687836,
    "tel": "086-281-0862",
    "url": "http://junfuku.jp",
    "pref": "岡山県",
    "city": "岡山市南区",
    "category": "day_service",
    "serviceType": "通所介護",
    "capacity": 25,
    "openDays": [
      "平日",
      "祝日"
    ],
    "openDaysNote": "祝日が定休日に重なる場合は休みとなります。"
  },
  {
    "id": "3370103388",
    "name": "西ふれあいデイサービスセンター",
    "kana": "ニシフレアイデイサービスセンター",
    "address": "岡山県岡山市南区妹尾880番地の1西ふれあいセンター1階 西ふれあいセンター1階",
    "lat": 34.6113128,
    "lng": 133.8630995,
    "tel": "086-281-9615",
    "url": "http://www.okayama-fureai.or.jp/",
    "pref": "岡山県",
    "city": "岡山市南区",
    "category": "day_service",
    "serviceType": "通所介護",
    "capacity": 50,
    "openDays": [
      "平日",
      "祝日"
    ],
    "openDaysNote": "上記以外で、気象状況等により事業実施が困難であると管理者が判断した日。"
  },
  {
    "id": "3370107892",
    "name": "創心会百年煌倶楽部岡南",
    "kana": "ソウシンカイヒャクネンキラメキクラブコウナン",
    "address": "岡山県岡山市南区築港新町1-6-7",
    "lat": 34.6073839454452,
    "lng": 133.937194737512,
    "tel": "086-262-2557",
    "url": "http://www.soushinkai.com",
    "pref": "岡山県",
    "city": "岡山市南区",
    "category": "day_service",
    "serviceType": "通所介護",
    "capacity": 30,
    "openDays": [
      "平日",
      "土曜日",
      "祝日"
    ],
    "openDaysNote": ""
  },
  {
    "id": "3370107017",
    "name": "灘崎荘通所介護事業所",
    "kana": "ナダサキソウツウショカイゴジギョウショ",
    "address": "岡山県岡山市南区彦崎2300",
    "lat": 34.5447921,
    "lng": 133.8338813,
    "tel": "086-362-5050",
    "url": "http://nadasakiso.syoyokai.com/",
    "pref": "岡山県",
    "city": "岡山市南区",
    "category": "day_service",
    "serviceType": "通所介護",
    "capacity": 30,
    "openDays": [
      "平日",
      "土曜日",
      "祝日"
    ],
    "openDaysNote": ""
  },
  {
    "id": "3370103396",
    "name": "南ふれあいデイサービスセンター",
    "kana": "ミナミフレアイデイサービスセンター",
    "address": "岡山県岡山市南区福田６９０番地の１南ふれあいセンター 南ふれあいセンター",
    "lat": 34.6188087,
    "lng": 133.9338872,
    "tel": "086-261-7039",
    "url": "http://www.okayama-fureai.or.jp",
    "pref": "岡山県",
    "city": "岡山市南区",
    "category": "day_service",
    "serviceType": "通所介護",
    "capacity": 0,
    "openDays": [
      "平日",
      "祝日"
    ],
    "openDaysNote": "気象状況等により事業実施が困難であると管理者が判断した日はサービスを休止します。"
  },
  {
    "id": "3370109344",
    "name": "アイリーフデイサービスセンター西口",
    "kana": "アイリーフデイサービスセンターニシグチ",
    "address": "岡山県岡山市北区奉還町1-3-18アイグランデュ岡山内 アイグランデュ岡山内",
    "lat": 34.6685325946777,
    "lng": 133.917977376903,
    "tel": "086-251‐5567",
    "url": "http://www.ilief.jp",
    "pref": "岡山県",
    "city": "岡山市北区",
    "category": "day_service",
    "serviceType": "通所介護",
    "capacity": 150,
    "openDays": [
      "平日",
      "土曜日",
      "祝日"
    ],
    "openDaysNote": "１２月３1日～１月３日は休業とする"
  },
  {
    "id": "3370110433",
    "name": "アイル岡山",
    "kana": "アイルオカヤマ",
    "address": "岡山県岡山市北区野田３－１６－１　下電開発ビル１F",
    "lat": 34.6541479,
    "lng": 133.9008958,
    "tel": "086-250-0166",
    "url": "http://morenet.co.jp",
    "pref": "岡山県",
    "city": "岡山市北区",
    "category": "day_service",
    "serviceType": "通所介護",
    "capacity": 0,
    "openDays": [
      "平日",
      "土曜日",
      "祝日"
    ],
    "openDaysNote": ""
  },
  {
    "id": "3370108338",
    "name": "アクティブデイサービスセンター",
    "kana": "アクティブデイサービスセンター",
    "address": "岡山県岡山市北区立田587番",
    "lat": 34.6843457,
    "lng": 133.8298678,
    "tel": "086-287-9889",
    "url": "https://www.ikenaga-group.jp/",
    "pref": "岡山県",
    "city": "岡山市北区",
    "category": "day_service",
    "serviceType": "通所介護",
    "capacity": 90,
    "openDays": [
      "平日",
      "土曜日"
    ],
    "openDaysNote": ""
  },
  {
    "id": "3370102034",
    "name": "あさひ園通所部",
    "kana": "アサヒエンツウショブ",
    "address": "岡山県岡山市北区旭本町６－２０",
    "lat": 34.6423168,
    "lng": 133.9277707,
    "tel": "086-225-1171",
    "url": "http://okayama-asahien.or.jp/",
    "pref": "岡山県",
    "city": "岡山市北区",
    "category": "day_service",
    "serviceType": "通所介護",
    "capacity": 0,
    "openDays": [
      "平日",
      "土曜日",
      "祝日"
    ],
    "openDaysNote": ""
  },
  {
    "id": "3370116950",
    "name": "いなほデイサービスセンター　ふらっと",
    "kana": "イナホデイサービスセンター　フラット",
    "address": "岡山県岡山市北区建部町川口790番地3",
    "lat": 34.8879493,
    "lng": 133.9037632,
    "tel": "086－722－4116",
    "url": "https://www.inahostylecare.com/",
    "pref": "岡山県",
    "city": "岡山市北区",
    "category": "day_service",
    "serviceType": "通所介護",
    "capacity": null,
    "openDays": [
      "平日",
      "祝日"
    ],
    "openDaysNote": ""
  },
  {
    "id": "3370109484",
    "name": "いなほデイサービスセンターいこう",
    "kana": "イナホデイサービスセンターイコウ",
    "address": "岡山県岡山市北区建部町川口790-1",
    "lat": 34.8906716986667,
    "lng": 133.894402318602,
    "tel": "086-722-4115",
    "url": "ｈｔｔｐs://www.inahostylecare.com",
    "pref": "岡山県",
    "city": "岡山市北区",
    "category": "day_service",
    "serviceType": "通所介護",
    "capacity": 0,
    "openDays": [
      "平日",
      "土曜日",
      "祝日"
    ],
    "openDaysNote": "なし"
  },
  {
    "id": "3370115192",
    "name": "グッドライフデイサービスセンター",
    "kana": "グッドライフデイサービスセンター",
    "address": "岡山県岡山市北区津高696-2",
    "lat": 34.6965335918454,
    "lng": 133.903486853442,
    "tel": "086-236-6050",
    "url": "https://goodlife-okayama.p-kit.com",
    "pref": "岡山県",
    "city": "岡山市北区",
    "category": "day_service",
    "serviceType": "通所介護",
    "capacity": 20,
    "openDays": [
      "平日",
      "土曜日",
      "祝日"
    ],
    "openDaysNote": ""
  },
  {
    "id": "3370108775",
    "name": "ケアパートナー岡山西",
    "kana": "ケアパートナーオカヤマニシ",
    "address": "岡山県岡山市北区平田169-103サンフィールド１階 サンフィールド１階",
    "lat": 34.633847,
    "lng": 133.8852342,
    "tel": "086-242-1650",
    "url": "http://www.care-partner.com/",
    "pref": "岡山県",
    "city": "岡山市北区",
    "category": "day_service",
    "serviceType": "通所介護",
    "capacity": 0,
    "openDays": [
      "平日",
      "土曜日",
      "日曜日",
      "祝日"
    ],
    "openDaysNote": "日曜日は第3日曜日のみ営業"
  },
  {
    "id": "3370105771",
    "name": "こうほくデイサービスセンター向日葵",
    "kana": "コウホクデイサービスセンターヒマワリ",
    "address": "岡山県岡山市北区津島東２丁目1-34",
    "lat": 34.6881427261688,
    "lng": 133.927868923279,
    "tel": "086-898-1555",
    "url": "https://sinkyojin.com/himawari/",
    "pref": "岡山県",
    "city": "岡山市北区",
    "category": "day_service",
    "serviceType": "通所介護",
    "capacity": 35,
    "openDays": [
      "平日",
      "土曜日"
    ],
    "openDaysNote": "特別な事情がある場合など、必ずしも上記の限りでない"
  },
  {
    "id": "3370116489",
    "name": "コンパスウォーク岡山今",
    "kana": "コンパスウォークオカヤマイマ",
    "address": "岡山県岡山市北区今七丁目23番25号",
    "lat": 34.642258688071,
    "lng": 133.891612582209,
    "tel": "086-244-5101",
    "url": "",
    "pref": "岡山県",
    "city": "岡山市北区",
    "category": "day_service",
    "serviceType": "通所介護",
    "capacity": 0,
    "openDays": [
      "平日"
    ],
    "openDaysNote": ""
  },
  {
    "id": "3370112512",
    "name": "ザグスタ北方",
    "kana": "ザグスタキタガタ",
    "address": "岡山県岡山市北区北方２丁目１－１３",
    "lat": 34.6869112869871,
    "lng": 133.92902165264,
    "tel": "０８６－２２６－７６２２",
    "url": "http://www.zagzag.co.jp/zagstu/",
    "pref": "岡山県",
    "city": "岡山市北区",
    "category": "day_service",
    "serviceType": "通所介護",
    "capacity": 0,
    "openDays": [
      "平日",
      "土曜日",
      "祝日"
    ],
    "openDaysNote": ""
  },
  {
    "id": "3370112520",
    "name": "ザグスタ野田",
    "kana": "ザグスタノダ",
    "address": "岡山県岡山市北区野田3丁目19-8",
    "lat": 34.6519768,
    "lng": 133.8979698,
    "tel": "086-244-5188",
    "url": "http://www.zagzag.co.jp/zagstu/",
    "pref": "岡山県",
    "city": "岡山市北区",
    "category": "day_service",
    "serviceType": "通所介護",
    "capacity": 0,
    "openDays": [
      "平日",
      "土曜日",
      "祝日"
    ],
    "openDaysNote": ""
  },
  {
    "id": "3370116620",
    "name": "タイオンデイトレ大元",
    "kana": "タイオンデイトレオオモト",
    "address": "西古松１丁目36-25",
    "lat": 34.6490536,
    "lng": 133.9050868,
    "tel": "086-250-2120",
    "url": "https://www.taion365.co.jp/",
    "pref": "岡山県",
    "city": "岡山市北区",
    "category": "day_service",
    "serviceType": "通所介護",
    "capacity": 0,
    "openDays": [
      "平日",
      "土曜日",
      "祝日"
    ],
    "openDaysNote": ""
  },
  {
    "id": "3370116117",
    "name": "ツクイ岡山大安寺",
    "kana": "ツクイオカヤマダイアンジ",
    "address": "大安寺東町6-10",
    "lat": 34.6626171,
    "lng": 133.8901798,
    "tel": "086-214-1515",
    "url": "",
    "pref": "岡山県",
    "city": "岡山市北区",
    "category": "day_service",
    "serviceType": "通所介護",
    "capacity": 0,
    "openDays": [
      "平日",
      "土曜日",
      "日曜日",
      "祝日"
    ],
    "openDaysNote": ""
  },
  {
    "id": "3370106357",
    "name": "つしまデイサービスセンター",
    "kana": "ツシマデイサービスセンター",
    "address": "岡山県岡山市北区津島福居１－２－15",
    "lat": 34.6876147624026,
    "lng": 133.913673564921,
    "tel": "086-254-0184",
    "url": "http://www.oozorakai.com/",
    "pref": "岡山県",
    "city": "岡山市北区",
    "category": "day_service",
    "serviceType": "通所介護",
    "capacity": 0,
    "openDays": [
      "平日",
      "土曜日"
    ],
    "openDaysNote": "夏季休暇　８/13ー８/15お正月休み　１２/30-1/3"
  },
  {
    "id": "3370115374",
    "name": "デイサービス　笠井の里",
    "kana": "デイサービス　カサイノサト",
    "address": "岡山県岡山市北区畑鮎１１７",
    "lat": 34.7177613,
    "lng": 133.9394044,
    "tel": "086-228-0725",
    "url": "http://www.tougou-iryou-bc.co.jp",
    "pref": "岡山県",
    "city": "岡山市北区",
    "category": "day_service",
    "serviceType": "通所介護",
    "capacity": 0,
    "openDays": [
      "平日",
      "土曜日",
      "祝日"
    ],
    "openDaysNote": ""
  },
  {
    "id": "3370109419",
    "name": "デイサービスセンター　アルフィック尾上",
    "kana": "デイサービスセンター　アルフィックオノウエ",
    "address": "岡山市北区尾上356番地1",
    "lat": 34.6658816,
    "lng": 133.8701241,
    "tel": "086-286-0533",
    "url": "www.rcare.jp",
    "pref": "岡山県",
    "city": "岡山市北区",
    "category": "day_service",
    "serviceType": "通所介護",
    "capacity": 0,
    "openDays": [
      "平日",
      "土曜日",
      "祝日"
    ],
    "openDaysNote": ""
  },
  {
    "id": "3370108106",
    "name": "デイサービスセンター　エルム撫川",
    "kana": "デイサービスセンター　エルムナツカワ",
    "address": "岡山県岡山市北区撫川８２８番３号",
    "lat": 34.6381128501911,
    "lng": 133.841681593254,
    "tel": "086-292-8808",
    "url": "http://www.life-create.org",
    "pref": "岡山県",
    "city": "岡山市北区",
    "category": "day_service",
    "serviceType": "通所介護",
    "capacity": 30,
    "openDays": [
      "平日"
    ],
    "openDaysNote": ""
  },
  {
    "id": "3370112694",
    "name": "デイサービスセンター　エルム撫川　かりん棟",
    "kana": "デイサービスセンター　エルムナツカワ　カリントウ",
    "address": "岡山市北区撫川827番地",
    "lat": 34.6414722,
    "lng": 133.8362131,
    "tel": "086－292－0300",
    "url": "http:/www.life-create.org",
    "pref": "岡山県",
    "city": "岡山市北区",
    "category": "day_service",
    "serviceType": "通所介護",
    "capacity": 35,
    "openDays": [
      "平日",
      "土曜日",
      "日曜日",
      "祝日"
    ],
    "openDaysNote": ""
  },
  {
    "id": "3370103651",
    "name": "デイサービスセンター　おくだ",
    "kana": "デイサービスセンターオクダ",
    "address": "岡山県岡山市北区奥田本町13-8",
    "lat": 34.6464877976452,
    "lng": 133.920556499491,
    "tel": "086-223-5588",
    "url": "http://www.okadacl-deiokuda.or.jp",
    "pref": "岡山県",
    "city": "岡山市北区",
    "category": "day_service",
    "serviceType": "通所介護",
    "capacity": 0,
    "openDays": [
      "平日"
    ],
    "openDaysNote": "緊急災害時等の警報もしくは利用に際し危険を伴うと事業所が判断した場合に利用を中止する場合があります"
  },
  {
    "id": "3370115580",
    "name": "デイサービスセンター　きびてらす",
    "kana": "デイサービスセンター　キビテラス",
    "address": "平野1005-9",
    "lat": 34.6474166294509,
    "lng": 133.858506579578,
    "tel": "086-293-7734",
    "url": "infoscs@fukujukai-gp.com",
    "pref": "岡山県",
    "city": "岡山市北区",
    "category": "day_service",
    "serviceType": "通所介護",
    "capacity": 0,
    "openDays": [
      "平日",
      "土曜日",
      "祝日"
    ],
    "openDaysNote": ""
  },
  {
    "id": "3370114286",
    "name": "デイサービスセンター　こもれびの里",
    "kana": "デイサービスセンター　コモレビノサト",
    "address": "岡山県岡山市北区富町2丁目18-28",
    "lat": 34.6634207328909,
    "lng": 133.90746063826,
    "tel": "086-252-0888",
    "url": "kawada.or.jp/komorebi.kawada.or.jp/index.html",
    "pref": "岡山県",
    "city": "岡山市北区",
    "category": "day_service",
    "serviceType": "通所介護",
    "capacity": 0,
    "openDays": [
      "平日",
      "祝日"
    ],
    "openDaysNote": ""
  },
  {
    "id": "3370109781",
    "name": "デイサービスセンターアルフィック十日市",
    "kana": "デイサービスセンターアルフィックトオカイチ",
    "address": "岡山県岡山市北区十日市西町１１－６",
    "lat": 34.6357037,
    "lng": 133.9283875,
    "tel": "086-233-7533",
    "url": "http://www.rcare.jp/",
    "pref": "岡山県",
    "city": "岡山市北区",
    "category": "day_service",
    "serviceType": "通所介護",
    "capacity": 0,
    "openDays": [
      "平日",
      "土曜日",
      "祝日"
    ],
    "openDaysNote": "但し、祝日は成人の日、建国記念日、昭和の日、山の日、スポーツの日、勤労感謝の日、天皇誕生日のみ営業。"
  },
  {
    "id": "3370113486",
    "name": "デイサービスセンターもも",
    "kana": "デイサービスセンターモモ",
    "address": "岡山市北区大安寺南町２丁目７番２３号",
    "lat": 34.6610938,
    "lng": 133.8883994,
    "tel": "086-238-1165",
    "url": "",
    "pref": "岡山県",
    "city": "岡山市北区",
    "category": "day_service",
    "serviceType": "通所介護",
    "capacity": 21,
    "openDays": [
      "平日",
      "土曜日",
      "祝日"
    ],
    "openDaysNote": "年末年始もカレンダー曜日通り営業。"
  },
  {
    "id": "3370116166",
    "name": "デイサービスセンターやわらぎ",
    "kana": "デイサービスセンターヤワラギ",
    "address": "内山下1-7-17コモンライフやわらぎ　1F コモンライフやわらぎ　1F",
    "lat": 34.6607384,
    "lng": 133.9309175,
    "tel": "086-212-0661",
    "url": "ttps://yaearagi.okazaki-k.co.jp",
    "pref": "岡山県",
    "city": "岡山市北区",
    "category": "day_service",
    "serviceType": "通所介護",
    "capacity": 0,
    "openDays": [
      "平日",
      "土曜日",
      "祝日"
    ],
    "openDaysNote": ""
  },
  {
    "id": "3370103446",
    "name": "デイサービスセンター旭ヶ丘",
    "kana": "デイサービスセンターアサヒガオカ",
    "address": "岡山県岡山市北区万成東町２－２８",
    "lat": 34.6739287,
    "lng": 133.8962901,
    "tel": "086-252-5050",
    "url": "http://junfuku.jp/index.php",
    "pref": "岡山県",
    "city": "岡山市北区",
    "category": "day_service",
    "serviceType": "通所介護",
    "capacity": 20,
    "openDays": [
      "平日",
      "祝日"
    ],
    "openDaysNote": ""
  },
  {
    "id": "3370112447",
    "name": "デイサービスセンター桜日和",
    "kana": "デイサービスセンターサクラビヨリ",
    "address": "岡山市北区楢津373-1",
    "lat": 34.6805490116582,
    "lng": 133.88399700957,
    "tel": "086-284-6660",
    "url": "info@sakura-biyori.jp",
    "pref": "岡山県",
    "city": "岡山市北区",
    "category": "day_service",
    "serviceType": "通所介護",
    "capacity": 30,
    "openDays": [
      "平日",
      "祝日"
    ],
    "openDaysNote": "その他年間の休日（改行）・12月31日～1月3日"
  },
  {
    "id": "3370106886",
    "name": "デイサービスセンター大安寺",
    "kana": "デイサービスセンターダイアンジ",
    "address": "岡山県岡山市北区大安寺南町一丁目7番17-2号",
    "lat": 34.6597914,
    "lng": 133.8909746,
    "tel": "086-255-0707",
    "url": "http://www.kenhoukai-sasaki-clinic.com/CCP012.html",
    "pref": "岡山県",
    "city": "岡山市北区",
    "category": "day_service",
    "serviceType": "通所介護",
    "capacity": 30,
    "openDays": [
      "平日",
      "土曜日",
      "祝日"
    ],
    "openDaysNote": "祝日営業しておりますので、ご利用ください。（改行）年末年始：12/29-1/3および　盆休み：8/13-15、ゴールデンウイークは休業させていただいております。（但し、年によって変更のある場合もございます）"
  },
  {
    "id": "3370108940",
    "name": "デイサービスセンター桃丘",
    "kana": "デイサービスセンターモモガオカ",
    "address": "岡山県岡山市北区芳賀２４２１－１",
    "lat": 34.7117879,
    "lng": 133.8736991,
    "tel": "086-286-0722",
    "url": "http://ikenaga-group.jp/",
    "pref": "岡山県",
    "city": "岡山市北区",
    "category": "day_service",
    "serviceType": "通所介護",
    "capacity": 35,
    "openDays": [
      "平日"
    ],
    "openDaysNote": "特になし"
  },
  {
    "id": "3370112173",
    "name": "デイサービスセンター桃丘２号館",
    "kana": "デイサービスセンターモモガオカニゴウカン",
    "address": "芳賀2421‐3",
    "lat": 34.7116637575097,
    "lng": 133.873949405557,
    "tel": "086-284-9511",
    "url": "http://ikenaga-group.jp/",
    "pref": "岡山県",
    "city": "岡山市北区",
    "category": "day_service",
    "serviceType": "通所介護",
    "capacity": 25,
    "openDays": [
      "平日",
      "土曜日"
    ],
    "openDaysNote": "特になし"
  },
  {
    "id": "3370112983",
    "name": "デイサービスセンター同仁",
    "kana": "デイサービスセンタードウジン",
    "address": "岡山県岡山市北区楢津590-3",
    "lat": 34.6769612,
    "lng": 133.8788726,
    "tel": "086-239-0001",
    "url": "http://oozorakai.com/",
    "pref": "岡山県",
    "city": "岡山市北区",
    "category": "day_service",
    "serviceType": "通所介護",
    "capacity": 0,
    "openDays": [
      "平日",
      "土曜日",
      "日曜日",
      "祝日"
    ],
    "openDaysNote": ""
  },
  {
    "id": "3372100382",
    "name": "デイサービスたけべ",
    "kana": "デイサービスタケベ",
    "address": "岡山県岡山市北区建部町建部上557-2",
    "lat": 34.8621766,
    "lng": 133.9059183,
    "tel": "086-722-0030",
    "url": "http://www.hoyukai.co.jp",
    "pref": "岡山県",
    "city": "岡山市北区",
    "category": "day_service",
    "serviceType": "通所介護",
    "capacity": 30,
    "openDays": [
      "平日",
      "土曜日",
      "日曜日",
      "祝日"
    ],
    "openDaysNote": "特になし"
  },
  {
    "id": "3370116570",
    "name": "デイサービスむすび",
    "kana": "デイサービスムスビ",
    "address": "岡山県岡山市北区加茂988番地8",
    "lat": 34.6767833835071,
    "lng": 133.830944883467,
    "tel": "086-250-7828",
    "url": "https://www.koinonia2020.com/",
    "pref": "岡山県",
    "city": "岡山市北区",
    "category": "day_service",
    "serviceType": "通所介護",
    "capacity": 20,
    "openDays": [
      "平日",
      "祝日"
    ],
    "openDaysNote": ""
  },
  {
    "id": "3370111209",
    "name": "デイサービスゆりかご",
    "kana": "デイサービスユリカゴ",
    "address": "岡山県岡山市北区大元上町11-29",
    "lat": 34.6479125,
    "lng": 133.9001211,
    "tel": "086-242-6030",
    "url": "http://www.hada-clinic.com/yurikago/misc/day_service.html",
    "pref": "岡山県",
    "city": "岡山市北区",
    "category": "day_service",
    "serviceType": "通所介護",
    "capacity": 0,
    "openDays": [
      "平日",
      "土曜日",
      "祝日"
    ],
    "openDaysNote": ""
  },
  {
    "id": "3370116869",
    "name": "デイサービス花音",
    "kana": "デイサービスカノン",
    "address": "岡山県岡山市北区西辛川323-15",
    "lat": 34.6806323,
    "lng": 133.8614885,
    "tel": "086-284-8585",
    "url": "",
    "pref": "岡山県",
    "city": "岡山市北区",
    "category": "day_service",
    "serviceType": "通所介護",
    "capacity": null,
    "openDays": [
      "平日",
      "土曜日",
      "祝日"
    ],
    "openDaysNote": "体調不良によるサービスによる中止・変更は7日前の正午までにご連絡ください。食事のキャンセルのご連絡がない場合は、料金の支払いが必要となります。昼食600円　おやつ（飲料含む）100円"
  },
  {
    "id": "3370111944",
    "name": "デイリハセンターおひさま",
    "kana": "デイリハセンターオヒサマ",
    "address": "下中野２４３－６",
    "lat": 34.6388908965186,
    "lng": 133.906409241962,
    "tel": "０８６－２３８－１５１１",
    "url": "",
    "pref": "岡山県",
    "city": "岡山市北区",
    "category": "day_service",
    "serviceType": "通所介護",
    "capacity": 0,
    "openDays": [
      "平日",
      "祝日"
    ],
    "openDaysNote": ""
  },
  {
    "id": "3370110029",
    "name": "デイリハセンター同仁",
    "kana": "デイリハセンタードウジン",
    "address": "岡山市北区下伊福上町１５－７同仁病院５階 同仁病院５階",
    "lat": 34.6679185,
    "lng": 133.9031229,
    "tel": "086-250-5525",
    "url": "http://oozorakai.com/",
    "pref": "岡山県",
    "city": "岡山市北区",
    "category": "day_service",
    "serviceType": "通所介護",
    "capacity": 0,
    "openDays": [
      "平日",
      "土曜日",
      "祝日"
    ],
    "openDaysNote": ""
  },
  {
    "id": "3370111449",
    "name": "なつかわの郷デイサービスセンター",
    "kana": "ナツワカワノサトデイサービスセンター",
    "address": "岡山市北区中撫川289-1",
    "lat": 34.6463858823192,
    "lng": 133.843093879237,
    "tel": "086-293-6197",
    "url": "http://natsukawa.keizlab.net/",
    "pref": "岡山県",
    "city": "岡山市北区",
    "category": "day_service",
    "serviceType": "通所介護",
    "capacity": 20,
    "openDays": [
      "平日",
      "祝日"
    ],
    "openDaysNote": ""
  },
  {
    "id": "3370111233",
    "name": "ニチイケアセンター岡山南",
    "kana": "ニチイケアセンターオカヤマミナミ",
    "address": "岡山県岡山市北区下中野324-118",
    "lat": 34.6408553,
    "lng": 133.9080981,
    "tel": "086-805-3301",
    "url": "http://www.nichiigakkan.co.jp/",
    "pref": "岡山県",
    "city": "岡山市北区",
    "category": "day_service",
    "serviceType": "通所介護",
    "capacity": 35,
    "openDays": [
      "平日",
      "土曜日",
      "祝日"
    ],
    "openDaysNote": "1/1～1/3を除く（改行）営業時間内で対応致します。"
  },
  {
    "id": "3370107496",
    "name": "ぬくもりの里あおえ　デイサービスセンター",
    "kana": "ヌクモリノサトアオエ　デイサービスセンター",
    "address": "岡山県岡山市北区青江三丁目１０番２８号",
    "lat": 34.6341705,
    "lng": 133.9264711,
    "tel": "086-221-8341",
    "url": "http://www.nukumorinosato.jp",
    "pref": "岡山県",
    "city": "岡山市北区",
    "category": "day_service",
    "serviceType": "通所介護",
    "capacity": 40,
    "openDays": [
      "平日",
      "土曜日",
      "祝日"
    ],
    "openDaysNote": ""
  },
  {
    "id": "3370106126",
    "name": "ひかりデイサービスセンター",
    "kana": "ヒカリデイサービスセンター",
    "address": "岡山県岡山市北区田中110-108",
    "lat": 34.6424459,
    "lng": 133.8840036,
    "tel": "086-244-3337",
    "url": "http://www.keiyuu-kai.or.jp/",
    "pref": "岡山県",
    "city": "岡山市北区",
    "category": "day_service",
    "serviceType": "通所介護",
    "capacity": 0,
    "openDays": [
      "平日",
      "土曜日"
    ],
    "openDaysNote": ""
  },
  {
    "id": "3370110466",
    "name": "ヒューマンライフケアいま",
    "kana": "ヒューマンライフケアイマ",
    "address": "岡山市北区今８丁目１６－２８",
    "lat": 34.6366831,
    "lng": 133.8923585,
    "tel": "086-805-1088",
    "url": "",
    "pref": "岡山県",
    "city": "岡山市北区",
    "category": "day_service",
    "serviceType": "通所介護",
    "capacity": 25,
    "openDays": [
      "平日",
      "土曜日",
      "祝日"
    ],
    "openDaysNote": ""
  },
  {
    "id": "3370111175",
    "name": "ヒューマンライフケアかすが",
    "kana": "ヒューマンライフケアカスガ",
    "address": "岡山県岡山市北区春日町5-31ASOビル１F ASOビル１F",
    "lat": 34.6540069,
    "lng": 133.9215461,
    "tel": "086-226-0233",
    "url": "http://hlc.athuman.com/caresearch/okayama/366023/index.php?sisetu=98",
    "pref": "岡山県",
    "city": "岡山市北区",
    "category": "day_service",
    "serviceType": "通所介護",
    "capacity": 0,
    "openDays": [
      "平日",
      "土曜日",
      "祝日"
    ],
    "openDaysNote": ""
  },
  {
    "id": "3370116356",
    "name": "フィットネスデイサービスステップス",
    "kana": "フィットネスデイサービスステップス",
    "address": "岡山県岡山市北区絵図町1-50OSK健幸プラザ4F OSK健幸プラザ4F",
    "lat": 34.6756193,
    "lng": 133.9203882,
    "tel": "086-214-0501",
    "url": "http://www.hoshi-home.com",
    "pref": "岡山県",
    "city": "岡山市北区",
    "category": "day_service",
    "serviceType": "通所介護",
    "capacity": 32,
    "openDays": [
      "平日",
      "土曜日",
      "祝日"
    ],
    "openDaysNote": "１月１日から１月３日、別途事業所が定める休館日"
  },
  {
    "id": "3370114716",
    "name": "プランタン・デイサービスセンター",
    "kana": "プランタン・デイサービスセンター",
    "address": "岡山県岡山市北区下伊福西町2番12号ヴィラ・プランタンおかやま ヴィラ・プランタンおかやま",
    "lat": 34.6629302,
    "lng": 133.900415,
    "tel": "086-251-2605",
    "url": "http://www.vp-okayama.com",
    "pref": "岡山県",
    "city": "岡山市北区",
    "category": "day_service",
    "serviceType": "通所介護",
    "capacity": 0,
    "openDays": [
      "平日",
      "土曜日",
      "祝日"
    ],
    "openDaysNote": "居宅サービス計画により、営業日及び営業時間以外でもサービス提供を行う場合がある。"
  },
  {
    "id": "3370116612",
    "name": "ブルーミングケアあおえ岡山",
    "kana": "ブルーミングケアアオエオカヤマ",
    "address": "青江4丁目22-5",
    "lat": 34.6288959,
    "lng": 133.9237327,
    "tel": "086-230-6672",
    "url": "https://sawalemon.com/",
    "pref": "岡山県",
    "city": "岡山市北区",
    "category": "day_service",
    "serviceType": "通所介護",
    "capacity": null,
    "openDays": [
      "平日",
      "土曜日",
      "日曜日",
      "祝日"
    ],
    "openDaysNote": ""
  },
  {
    "id": "3370116349",
    "name": "ほのぼの荘デイサービスセンター",
    "kana": "ホノボノソウデイサービスセンター",
    "address": "岡山県岡山市北区建部町福渡1008-1",
    "lat": 34.8655973,
    "lng": 133.9057392,
    "tel": "086-722-4500",
    "url": "http:kyokusuisou.jp/",
    "pref": "岡山県",
    "city": "岡山市北区",
    "category": "day_service",
    "serviceType": "通所介護",
    "capacity": 0,
    "openDays": [
      "平日",
      "土曜日",
      "祝日"
    ],
    "openDaysNote": ""
  },
  {
    "id": "3370101242",
    "name": "みなみがた荘デイサービスセンター",
    "kana": "ミナミガタソウデイサービスセンター",
    "address": "岡山県岡山市北区国体町3-12",
    "lat": 34.6734989,
    "lng": 133.9204429,
    "tel": "086-252-2840",
    "url": "http://www.okasaisei-life.jp",
    "pref": "岡山県",
    "city": "岡山市北区",
    "category": "day_service",
    "serviceType": "通所介護",
    "capacity": 0,
    "openDays": [
      "平日"
    ],
    "openDaysNote": "上記以外の休業日として、年末年始（１２月２９日～１月３日）が休業日となる。"
  },
  {
    "id": "3370112462",
    "name": "リハビリデイサービス和合の郷　金川店",
    "kana": "リハビリデイサービスワゴウノサト　カナガワテン",
    "address": "岡山市北区御津金川314-1",
    "lat": 34.7937487,
    "lng": 133.9334964,
    "tel": "０８６－７２４－０８５０",
    "url": "",
    "pref": "岡山県",
    "city": "岡山市北区",
    "category": "day_service",
    "serviceType": "通所介護",
    "capacity": 0,
    "openDays": [
      "平日",
      "土曜日",
      "祝日"
    ],
    "openDaysNote": "祝日運営"
  },
  {
    "id": "3370113700",
    "name": "ロングライフデイサービスセンター",
    "kana": "ロングライフデイサービスセンター",
    "address": "岡山県岡山市北区天瀬5-8",
    "lat": 34.6555515,
    "lng": 133.9288564,
    "tel": "086-223-6010",
    "url": "http://longlife-town.com",
    "pref": "岡山県",
    "city": "岡山市北区",
    "category": "day_service",
    "serviceType": "通所介護",
    "capacity": 20,
    "openDays": [
      "平日",
      "祝日"
    ],
    "openDaysNote": ""
  },
  {
    "id": "3370116505",
    "name": "愛光デイサービスかなで",
    "kana": "アイコウデイサービスカナデ",
    "address": "白石546-1アイハーモニー・白石 アイハーモニー・白石",
    "lat": 34.6504611,
    "lng": 133.8694,
    "tel": "086-252-8822",
    "url": "https://aikou-gr.com",
    "pref": "岡山県",
    "city": "岡山市北区",
    "category": "day_service",
    "serviceType": "通所介護",
    "capacity": 0,
    "openDays": [
      "平日",
      "土曜日",
      "祝日"
    ],
    "openDaysNote": ""
  },
  {
    "id": "3370116471",
    "name": "一福デイサービスセンター",
    "kana": "イチフクデイサービスセンター",
    "address": "岡山県岡山市北区大元上町14-13",
    "lat": 34.6487056305771,
    "lng": 133.8989923,
    "tel": "086-805-0129",
    "url": "http://hp.kaipoke.biz/y06/",
    "pref": "岡山県",
    "city": "岡山市北区",
    "category": "day_service",
    "serviceType": "通所介護",
    "capacity": 0,
    "openDays": [
      "平日",
      "土曜日"
    ],
    "openDaysNote": ""
  },
  {
    "id": "3370101580",
    "name": "岡山シルバーデイサービスセンター",
    "kana": "オカヤマシルバーデイサービスセンター",
    "address": "岡山県岡山市北区新庄上５４５－１",
    "lat": 34.6816235,
    "lng": 133.8049606,
    "tel": "086-287-6161",
    "url": "http://www.silver21.or.jp/",
    "pref": "岡山県",
    "city": "岡山市北区",
    "category": "day_service",
    "serviceType": "通所介護",
    "capacity": 0,
    "openDays": [
      "平日",
      "土曜日",
      "祝日"
    ],
    "openDaysNote": ""
  },
  {
    "id": "3370115259",
    "name": "街なかデイサービス　和音",
    "kana": "マチナカデイサービス　ワオン",
    "address": "岡山県岡山市北区番町一丁目10-4",
    "lat": 34.6715718,
    "lng": 133.9283755,
    "tel": "086-237-1113",
    "url": "http;//www.hikasa.jp/",
    "pref": "岡山県",
    "city": "岡山市北区",
    "category": "day_service",
    "serviceType": "通所介護",
    "capacity": 0,
    "openDays": [
      "平日",
      "土曜日",
      "祝日"
    ],
    "openDaysNote": "体調不良等によるサービスの中止・変更は７日前の正午までにご連絡下さい。食事のキャンセルのご連絡がない場合は、料金の支払いが必要となります。昼食600円　おやつ（飲料含む）100円"
  },
  {
    "id": "3370112264",
    "name": "丸の内ヒルズ　デイサービス",
    "kana": "マルノウチヒルズ　デイサービス",
    "address": "岡山市北区丸の内二丁目１番１０号",
    "lat": 34.6654802973163,
    "lng": 133.933658436909,
    "tel": "086-222-1800",
    "url": "http://ryobi-hc.jp",
    "pref": "岡山県",
    "city": "岡山市北区",
    "category": "day_service",
    "serviceType": "通所介護",
    "capacity": 55,
    "openDays": [
      "平日",
      "土曜日",
      "祝日"
    ],
    "openDaysNote": ""
  },
  {
    "id": "3370102059",
    "name": "憩いの丘　デイサービスセンター",
    "kana": "イコイノオカデイサービスセンター",
    "address": "岡山県岡山市北区日近１８０７",
    "lat": 34.7516321,
    "lng": 133.8179149,
    "tel": "086-295-1155",
    "url": "",
    "pref": "岡山県",
    "city": "岡山市北区",
    "category": "day_service",
    "serviceType": "通所介護",
    "capacity": 20,
    "openDays": [
      "平日"
    ],
    "openDaysNote": "月曜から金曜までに祝日のある週の土曜日は営業"
  },
  {
    "id": "3370103073",
    "name": "佐藤医院デイサービスセンター",
    "kana": "サトウイインデイサービスセンター",
    "address": "岡山県岡山市北区旭町１５",
    "lat": 34.6471329,
    "lng": 133.9270929,
    "tel": "086-223-7746",
    "url": "http://www18.ocn.ne.jp/~satoh/index.html",
    "pref": "岡山県",
    "city": "岡山市北区",
    "category": "day_service",
    "serviceType": "通所介護",
    "capacity": 0,
    "openDays": [
      "平日",
      "土曜日"
    ],
    "openDaysNote": "特になし"
  },
  {
    "id": "3370103487",
    "name": "三戸内科デイサービスセンター",
    "kana": "ミトナイカデイサービスセンター",
    "address": "岡山県岡山市北区牟佐168-3",
    "lat": 34.7254952,
    "lng": 133.9808699,
    "tel": "086-229-3399",
    "url": "https://yf4mm.crayonsite.com",
    "pref": "岡山県",
    "city": "岡山市北区",
    "category": "day_service",
    "serviceType": "通所介護",
    "capacity": 100,
    "openDays": [
      "平日",
      "土曜日",
      "祝日"
    ],
    "openDaysNote": ""
  },
  {
    "id": "3370107660",
    "name": "四季の里デイサービスセンター",
    "kana": "シキノサトデイサービスセンター",
    "address": "岡山県岡山市北区西山内95-3",
    "lat": 34.7652832,
    "lng": 133.7908136,
    "tel": "086-299-0131",
    "url": "",
    "pref": "岡山県",
    "city": "岡山市北区",
    "category": "day_service",
    "serviceType": "通所介護",
    "capacity": 0,
    "openDays": [
      "平日",
      "祝日"
    ],
    "openDaysNote": ""
  },
  {
    "id": "3370104717",
    "name": "泉寿の里デイサービスセンター",
    "kana": "センジュノサトデイサービスセンター",
    "address": "岡山県岡山市北区三門中町１－２",
    "lat": 34.6684657,
    "lng": 133.9045588,
    "tel": "086-214-1011",
    "url": "https://senjunosato.or.jp",
    "pref": "岡山県",
    "city": "岡山市北区",
    "category": "day_service",
    "serviceType": "通所介護",
    "capacity": 7,
    "openDays": [
      "平日",
      "土曜日",
      "祝日"
    ],
    "openDaysNote": ""
  },
  {
    "id": "3370112702",
    "name": "創心会リハビリ倶楽部今",
    "kana": "ソウシンカイリハビリクラブイマ",
    "address": "今３丁目２５－２２",
    "lat": 34.6486788,
    "lng": 133.8914249,
    "tel": "086-242-4100",
    "url": "http://www.soushinkai.com/",
    "pref": "岡山県",
    "city": "岡山市北区",
    "category": "day_service",
    "serviceType": "通所介護",
    "capacity": 50,
    "openDays": [
      "平日",
      "土曜日",
      "祝日"
    ],
    "openDaysNote": ""
  },
  {
    "id": "3370108635",
    "name": "創心会リハビリ倶楽部大安寺",
    "kana": "ソウシンカイリハビリクラブダイアンジ",
    "address": "岡山県岡山市北区日吉町14-3",
    "lat": 34.6560382673443,
    "lng": 133.879283748418,
    "tel": "086-254-2010",
    "url": "http://www.soushinkai.com",
    "pref": "岡山県",
    "city": "岡山市北区",
    "category": "day_service",
    "serviceType": "通所介護",
    "capacity": 40,
    "openDays": [
      "平日",
      "土曜日",
      "祝日"
    ],
    "openDaysNote": ""
  },
  {
    "id": "3370102117",
    "name": "足守荘デイサービスセンター",
    "kana": "アシモリソウデイサービスセンター",
    "address": "岡山県岡山市北区下足守１８９８",
    "lat": 34.7184117,
    "lng": 133.8036779,
    "tel": "086-295-2480",
    "url": "http://ikenaga-group.jp/",
    "pref": "岡山県",
    "city": "岡山市北区",
    "category": "day_service",
    "serviceType": "通所介護",
    "capacity": 33,
    "openDays": [
      "平日",
      "土曜日",
      "祝日"
    ],
    "openDaysNote": "（提供時間９：００～１７：００）"
  },
  {
    "id": "3370102786",
    "name": "津高寮デイサービスセンター",
    "kana": "ツダカリョウデイサービスセンター",
    "address": "岡山県岡山市北区津高４３６－１",
    "lat": 34.7008592,
    "lng": 133.9083209,
    "tel": "086-253-2500",
    "url": "http://www.tsudakaryou.jp/",
    "pref": "岡山県",
    "city": "岡山市北区",
    "category": "day_service",
    "serviceType": "通所介護",
    "capacity": 0,
    "openDays": [
      "平日",
      "祝日"
    ],
    "openDaysNote": "特になし"
  },
  {
    "id": "3310114222",
    "name": "渡辺医院通所介護",
    "kana": "ワタナベイイン　ツウショカイゴ",
    "address": "岡山県岡山市北区吉備津1019",
    "lat": 34.6729137,
    "lng": 133.845104,
    "tel": "086-287-7803",
    "url": "http://www.myclinic.ne.jp/wata_clinic/",
    "pref": "岡山県",
    "city": "岡山市北区",
    "category": "day_service",
    "serviceType": "通所介護",
    "capacity": 35,
    "openDays": [
      "平日",
      "土曜日"
    ],
    "openDaysNote": "特になし。"
  },
  {
    "id": "3370117016",
    "name": "苫田温泉　泉水デイサービス",
    "kana": "トマダオンセン　センスイデイサービス",
    "address": "岡山県岡山市北区栢谷1426-1",
    "lat": 34.7277877619048,
    "lng": 133.9164384,
    "tel": "086-236-7787",
    "url": "https://ryobi-hc.jp/to_sensui-day/to_sensui-day.html",
    "pref": "岡山県",
    "city": "岡山市北区",
    "category": "day_service",
    "serviceType": "通所介護",
    "capacity": 40,
    "openDays": [
      "平日",
      "土曜日",
      "祝日"
    ],
    "openDaysNote": ""
  },
  {
    "id": "3370115721",
    "name": "入浴特化型デイサービスゆらら",
    "kana": "ニュウヨクトッカガタデイサービスユララ",
    "address": "岡山県岡山市北区田中626-2",
    "lat": 34.6381874774624,
    "lng": 133.882216462566,
    "tel": "086-363-1126",
    "url": "https://day-yurara.co",
    "pref": "岡山県",
    "city": "岡山市北区",
    "category": "day_service",
    "serviceType": "通所介護",
    "capacity": null,
    "openDays": [
      "平日",
      "土曜日"
    ],
    "openDaysNote": "ゴールデンウィーク（5/3～5/5）、年末年始（12/30～1/3）は休み。"
  },
  {
    "id": "3370117347",
    "name": "楓の風リハビリテーション颯岡山中央",
    "kana": "カエデノカゼリハビリテーションソウオカヤマチュウオウ",
    "address": "岡山県岡山市北区今7丁目18番29号今七丁目大森ビル 今七丁目大森ビル",
    "lat": 34.642377,
    "lng": 133.8922653,
    "tel": "086-242-3711",
    "url": "http://kaedenokaze.com/",
    "pref": "岡山県",
    "city": "岡山市北区",
    "category": "day_service",
    "serviceType": "通所介護",
    "capacity": null,
    "openDays": [
      "平日",
      "土曜日"
    ],
    "openDaysNote": ""
  },
  {
    "id": "3370103370",
    "name": "北ふれあいデイサービスセンター",
    "kana": "キタフレアイデイサービスセンター",
    "address": "岡山県岡山市北区谷万成2丁目6番33号",
    "lat": 34.6787448,
    "lng": 133.8956038,
    "tel": "086-251-6502",
    "url": "http://www.okayama-fureai.or.jp/",
    "pref": "岡山県",
    "city": "岡山市北区",
    "category": "day_service",
    "serviceType": "通所介護",
    "capacity": 35,
    "openDays": [
      "平日",
      "祝日"
    ],
    "openDaysNote": "上記以外で、気象状況等により事業実施が困難であると管理者が判断した日。"
  },
  {
    "id": "3370115028",
    "name": "両備ヘルシーケア大安寺東公園前デイサービス",
    "kana": "リョウビヘルシーケアダイアンジヒガシコウエンマエデイサービス",
    "address": "岡山県岡山市北区西崎二丁目7番14",
    "lat": 34.6650186,
    "lng": 133.8940907,
    "tel": "086-250-2581",
    "url": "http://ryobi-hc.jp/",
    "pref": "岡山県",
    "city": "岡山市北区",
    "category": "day_service",
    "serviceType": "通所介護",
    "capacity": 35,
    "openDays": [
      "平日",
      "祝日"
    ],
    "openDaysNote": ""
  },
  {
    "id": "3370500997",
    "name": "デイサービスいちじく",
    "kana": "デイサービスイチジク",
    "address": "岡山県笠岡市用之江３５５－１",
    "lat": 34.5060773,
    "lng": 133.4606992,
    "tel": "0865-61-4491",
    "url": "",
    "pref": "岡山県",
    "city": "笠岡市",
    "category": "day_service",
    "serviceType": "通所介護",
    "capacity": null,
    "openDays": [
      "平日",
      "土曜日",
      "祝日"
    ],
    "openDaysNote": ""
  },
  {
    "id": "3370500989",
    "name": "デイサービスくりの木",
    "kana": "デイサービスクリノキ",
    "address": "篠坂227-1",
    "lat": 34.5342503,
    "lng": 133.4639389,
    "tel": "0865-66-2162",
    "url": "",
    "pref": "岡山県",
    "city": "笠岡市",
    "category": "day_service",
    "serviceType": "通所介護",
    "capacity": null,
    "openDays": [
      "平日",
      "土曜日"
    ],
    "openDaysNote": ""
  },
  {
    "id": "3370500872",
    "name": "デイサービスセンターよつばよしはま",
    "kana": "デイサービスセンターヨツバヨシハマ",
    "address": "岡山県笠岡市吉浜2455－2デイサービスセンターよつばよしはま デイサービスセンターよつばよしはま",
    "lat": 34.5194555975327,
    "lng": 133.490816291402,
    "tel": "0865－66－0428",
    "url": "http://care-net.biz/33/yotuba/",
    "pref": "岡山県",
    "city": "笠岡市",
    "category": "day_service",
    "serviceType": "通所介護",
    "capacity": 92,
    "openDays": [
      "平日",
      "土曜日",
      "祝日"
    ],
    "openDaysNote": "12/30～1/3は定休日"
  },
  {
    "id": "3370500864",
    "name": "デイサービス千寿館",
    "kana": "デイサービスセンジュカン",
    "address": "岡山県笠岡市美の浜２７－１４",
    "lat": 34.485514330357,
    "lng": 133.517595175919,
    "tel": "0865-69-7560",
    "url": "",
    "pref": "岡山県",
    "city": "笠岡市",
    "category": "day_service",
    "serviceType": "通所介護",
    "capacity": 0,
    "openDays": [
      "平日",
      "土曜日",
      "祝日"
    ],
    "openDaysNote": ""
  },
  {
    "id": "3370500955",
    "name": "デイサービス鶴寿館",
    "kana": "デイサービスカクジュカン",
    "address": "岡山県笠岡市美の浜27-15",
    "lat": 34.4855544,
    "lng": 133.5179104,
    "tel": "0865-75-0272",
    "url": "",
    "pref": "岡山県",
    "city": "笠岡市",
    "category": "day_service",
    "serviceType": "通所介護",
    "capacity": 0,
    "openDays": [
      "平日",
      "土曜日",
      "祝日"
    ],
    "openDaysNote": ""
  },
  {
    "id": "3370500609",
    "name": "笠岡北デイサービスセンター",
    "kana": "カサオカキタデイサービスセンター",
    "address": "岡山県笠岡市吉田字山中35番3号",
    "lat": 34.5071797,
    "lng": 133.5074409,
    "tel": "0865-65-3917",
    "url": "http://www.alice-japan.co.jp",
    "pref": "岡山県",
    "city": "笠岡市",
    "category": "day_service",
    "serviceType": "通所介護",
    "capacity": 0,
    "openDays": [
      "平日",
      "土曜日",
      "祝日"
    ],
    "openDaysNote": "特になし"
  },
  {
    "id": "3372700512",
    "name": "国定病院デイサービスじゃんけんぽん",
    "kana": "クニサダビョウインデイサービスジャンケンポン",
    "address": "岡山県笠岡市西大島２７０１－１０",
    "lat": 34.4906955,
    "lng": 133.5352786,
    "tel": "0865-69-7765",
    "url": "http://www.kcv.ne.jp/~hoseikai",
    "pref": "岡山県",
    "city": "笠岡市",
    "category": "day_service",
    "serviceType": "通所介護",
    "capacity": 0,
    "openDays": [
      "平日",
      "土曜日",
      "祝日"
    ],
    "openDaysNote": "特になし"
  },
  {
    "id": "3370500930",
    "name": "小北リハビリ型デイサービス絆",
    "kana": "オキタリハビリガタデイサービスキズナ",
    "address": "岡山県笠岡市甲弩1807-4小北リハビリ型デイサービス絆 小北リハビリ型デイサービス絆",
    "lat": 34.5945828397469,
    "lng": 133.540088493224,
    "tel": "0865-65-2011",
    "url": "",
    "pref": "岡山県",
    "city": "笠岡市",
    "category": "day_service",
    "serviceType": "通所介護",
    "capacity": 0,
    "openDays": [
      "平日",
      "土曜日"
    ],
    "openDaysNote": "土曜日8時30分～12時30分（午前のみ）"
  },
  {
    "id": "3370500146",
    "name": "瀬戸内荘デイサービスセンター",
    "kana": "セトウチソウ　デイサービスセンター",
    "address": "岡山県笠岡市横島1944-1",
    "lat": 34.4787022349787,
    "lng": 133.519750540337,
    "tel": "0865-67-3100",
    "url": "http://www.kabutokai.jp/",
    "pref": "岡山県",
    "city": "笠岡市",
    "category": "day_service",
    "serviceType": "通所介護",
    "capacity": 25,
    "openDays": [
      "平日",
      "祝日"
    ],
    "openDaysNote": ""
  },
  {
    "id": "3370500716",
    "name": "創心会リハビリ倶楽部笠岡",
    "kana": "ソウシンカイリハビリクラブカサオカ",
    "address": "岡山県笠岡市生江浜1135",
    "lat": 34.5084710783048,
    "lng": 133.484377664408,
    "tel": "0865-66-2101",
    "url": "http://www.soushinkai.com/",
    "pref": "岡山県",
    "city": "笠岡市",
    "category": "day_service",
    "serviceType": "通所介護",
    "capacity": 40,
    "openDays": [
      "平日",
      "土曜日",
      "祝日"
    ],
    "openDaysNote": ""
  },
  {
    "id": "3370500187",
    "name": "天神荘デイサービスセンター",
    "kana": "テンジンソウデイサービスセンター",
    "address": "岡山県笠岡市神島３６２６－７",
    "lat": 34.4731837,
    "lng": 133.5096449,
    "tel": "0865-67-1456",
    "url": "http://www.tenjinkai.org",
    "pref": "岡山県",
    "city": "笠岡市",
    "category": "day_service",
    "serviceType": "通所介護",
    "capacity": 27,
    "openDays": [
      "平日",
      "祝日"
    ],
    "openDaysNote": "特になし"
  },
  {
    "id": "3372100366",
    "name": "デイサービスセンターきびハイツ",
    "kana": "デイサービスセンターキビハイツ",
    "address": "岡山県加賀郡吉備中央町上野１８８３－５",
    "lat": 34.8357139,
    "lng": 133.7709943,
    "tel": "0866-56-6677",
    "url": "https://www.amical.or.jp/kibi/",
    "pref": "岡山県",
    "city": "吉備中央町",
    "category": "day_service",
    "serviceType": "通所介護",
    "capacity": 25,
    "openDays": [
      "平日",
      "祝日"
    ],
    "openDaysNote": "なし"
  },
  {
    "id": "3372100069",
    "name": "やすらぎ通所介護事業所",
    "kana": "ヤスラギツウショカイゴジギョウショ",
    "address": "岡山県加賀郡吉備中央町円城５４０－４",
    "lat": 34.8917431,
    "lng": 133.8120906,
    "tel": "0867-34-1522",
    "url": "http://www.fukushikibichuo.or.jp/",
    "pref": "岡山県",
    "city": "吉備中央町",
    "category": "day_service",
    "serviceType": "通所介護",
    "capacity": 20,
    "openDays": [
      "平日",
      "祝日"
    ],
    "openDaysNote": ""
  },
  {
    "id": "3373500408",
    "name": "一般財団法人　共愛会　デイサービス　みもこころ",
    "kana": "イッパンザイダンホウジン　キョウアイカイ　デイサービス　ミモココロ",
    "address": "岡山県苫田郡鏡野町吉原３２５",
    "lat": 35.0713022,
    "lng": 133.9369377,
    "tel": "０８６８－５４－０１０１",
    "url": "",
    "pref": "岡山県",
    "city": "鏡野町",
    "category": "day_service",
    "serviceType": "通所介護",
    "capacity": 30,
    "openDays": [
      "平日"
    ],
    "openDaysNote": ""
  },
  {
    "id": "3370401089",
    "name": "アイル玉野",
    "kana": "アイルタマノ",
    "address": "玉野市宇野1-38-1天満屋ハピータウン玉野店メルカ3Ｆ 天満屋ハピータウン玉野店メルカ3Ｆ",
    "lat": 34.4919199506499,
    "lng": 133.944656565407,
    "tel": "0863-33-3100",
    "url": "http://www.morenet.co.jp/morenet.html",
    "pref": "岡山県",
    "city": "玉野市",
    "category": "day_service",
    "serviceType": "通所介護",
    "capacity": 40,
    "openDays": [
      "平日",
      "土曜日",
      "祝日"
    ],
    "openDaysNote": "メルカ休館日は臨時休業になる場合があります。"
  },
  {
    "id": "3370401014",
    "name": "デイサ─ビスセンタ─　　いろりの里",
    "kana": "デイサ─ビスセンタ─　　イロリノサト",
    "address": "岡山県玉野市八浜町波知555特別養護老人ホームいろりの里1階 特別養護老人ホームいろりの里1階",
    "lat": 34.5523234,
    "lng": 133.9552739,
    "tel": "0863-51-1005",
    "url": "http://www.itsuhakai.jp",
    "pref": "岡山県",
    "city": "玉野市",
    "category": "day_service",
    "serviceType": "通所介護",
    "capacity": 0,
    "openDays": [
      "平日",
      "土曜日",
      "祝日"
    ],
    "openDaysNote": "特になし"
  },
  {
    "id": "3370400743",
    "name": "デイサービスセンター　アルフィック",
    "kana": "デイサービスセンター　アルフィック",
    "address": "岡山県玉野市東高崎25-34",
    "lat": 34.534354,
    "lng": 133.8952288,
    "tel": "0863-73-5070",
    "url": "http://www.rcare.jp",
    "pref": "岡山県",
    "city": "玉野市",
    "category": "day_service",
    "serviceType": "通所介護",
    "capacity": 0,
    "openDays": [
      "平日",
      "土曜日",
      "祝日"
    ],
    "openDaysNote": "特になし"
  },
  {
    "id": "3370400925",
    "name": "デイサービスセンター　アルフィックセカンド",
    "kana": "デイサービスセンター　アルフィックセカンド",
    "address": "岡山県玉野市東高崎25－31",
    "lat": 34.5348345,
    "lng": 133.8953066,
    "tel": "0863-73-5060",
    "url": "www.rcare.jp",
    "pref": "岡山県",
    "city": "玉野市",
    "category": "day_service",
    "serviceType": "通所介護",
    "capacity": 45,
    "openDays": [
      "平日",
      "土曜日",
      "祝日"
    ],
    "openDaysNote": "ただし成人の日、建国記念の日、天皇誕生日、昭和の日、山の日、スポーツの日、勤労感謝の日は営業とし、日曜日と重なる場合の振替日は営業とする。（改行）なお、その年のみに設定される特別な祝日は全て営業とする。"
  },
  {
    "id": "3370401451",
    "name": "デイサービスセンター　わだくり",
    "kana": "デイサービスセンター　ワダクリ",
    "address": "岡山県玉野市　和田5-22-1",
    "lat": 34.4697336,
    "lng": 133.9183721,
    "tel": "0863 - 83 - 9",
    "url": "",
    "pref": "岡山県",
    "city": "玉野市",
    "category": "day_service",
    "serviceType": "通所介護",
    "capacity": 5,
    "openDays": [
      "平日",
      "土曜日",
      "祝日"
    ],
    "openDaysNote": ""
  },
  {
    "id": "3370400511",
    "name": "デイサービスセンターさくらのさく郷",
    "kana": "デイサービスセンターサクラノサクムラ",
    "address": "岡山県玉野市八浜町大崎字天神169-13",
    "lat": 34.5322212503425,
    "lng": 133.917833645169,
    "tel": "0863-53-9333",
    "url": "http://www.sakuranosakumura.com/",
    "pref": "岡山県",
    "city": "玉野市",
    "category": "day_service",
    "serviceType": "通所介護",
    "capacity": 0,
    "openDays": [
      "平日",
      "土曜日",
      "祝日"
    ],
    "openDaysNote": "特になし"
  },
  {
    "id": "3370401535",
    "name": "デイサービスセンターフローアール",
    "kana": "デイサービスセンターフローアール",
    "address": "岡山県玉野市東高崎25-247",
    "lat": 34.5348726225335,
    "lng": 133.895518004631,
    "tel": "0863-33-0345",
    "url": "https://rcare.jp/",
    "pref": "岡山県",
    "city": "玉野市",
    "category": "day_service",
    "serviceType": "通所介護",
    "capacity": 5,
    "openDays": [
      "平日",
      "土曜日",
      "祝日"
    ],
    "openDaysNote": "但し、祝日は成人の日、建国記念日、昭和の日、山の日、スポーツの日、勤労感謝の日のみ営業。"
  },
  {
    "id": "3370400933",
    "name": "デイサービスセンターほのか明神",
    "kana": "デイサービスセンターホノカミョウジン",
    "address": "玉野市明神町8番28号",
    "lat": 34.4570546,
    "lng": 133.925197,
    "tel": "0863-81-4720",
    "url": "",
    "pref": "岡山県",
    "city": "玉野市",
    "category": "day_service",
    "serviceType": "通所介護",
    "capacity": null,
    "openDays": [
      "平日",
      "土曜日",
      "祝日"
    ],
    "openDaysNote": "なし"
  },
  {
    "id": "3370401238",
    "name": "デイサービスセンターほのか和田",
    "kana": "デイサービスセンターホノカワダ",
    "address": "岡山県玉野市和田３－３４－１５",
    "lat": 34.4630677,
    "lng": 133.9216137,
    "tel": "0863-81-1205",
    "url": "https://honoka-hc.co.jp",
    "pref": "岡山県",
    "city": "玉野市",
    "category": "day_service",
    "serviceType": "通所介護",
    "capacity": null,
    "openDays": [
      "平日",
      "土曜日",
      "祝日"
    ],
    "openDaysNote": "なし"
  },
  {
    "id": "3370400867",
    "name": "ハモニカドゥーエ　デイサービスセンター",
    "kana": "ハモニカドゥーエ　デイサービスセンター",
    "address": "岡山県玉野市長尾2116番地",
    "lat": 34.4922815,
    "lng": 133.8883554,
    "tel": "0863-73-9550",
    "url": "http://www.hamonika.com",
    "pref": "岡山県",
    "city": "玉野市",
    "category": "day_service",
    "serviceType": "通所介護",
    "capacity": 0,
    "openDays": [
      "平日",
      "土曜日",
      "日曜日",
      "祝日"
    ],
    "openDaysNote": "年末・年始の休日あり。（改行）日曜日・祝日は営業。（改行）日曜日は入浴無し"
  },
  {
    "id": "3370401394",
    "name": "ひなたぼっこ荘内",
    "kana": "ヒナタボッコショウナイ",
    "address": "玉野市迫間字宮面986番地1",
    "lat": 34.5098196514826,
    "lng": 133.89535607476,
    "tel": "0863-71-6000",
    "url": "http://mitsuicoop.com/work/kaigo/hinata_shounai.html",
    "pref": "岡山県",
    "city": "玉野市",
    "category": "day_service",
    "serviceType": "通所介護",
    "capacity": 60,
    "openDays": [
      "平日",
      "土曜日",
      "祝日"
    ],
    "openDaysNote": ""
  },
  {
    "id": "3370401196",
    "name": "リハビリデイサービスポシブル宇野",
    "kana": "リハビリデイサービスポシブルウノ",
    "address": "玉野市築港１－１１－５",
    "lat": 34.4939795,
    "lng": 133.9513145,
    "tel": "0863-33-8686",
    "url": "http://www.elgeo.co.jp",
    "pref": "岡山県",
    "city": "玉野市",
    "category": "day_service",
    "serviceType": "通所介護",
    "capacity": 0,
    "openDays": [
      "平日",
      "祝日"
    ],
    "openDaysNote": ""
  },
  {
    "id": "3370400644",
    "name": "医療法人いずみ会三宅内科外科医院デイサービスセンター",
    "kana": "イリョウホウジンイズミカイミヤケナイカゲカイインデイサービスセンター",
    "address": "岡山県玉野市槌ケ原１０１７番地",
    "lat": 34.523403,
    "lng": 133.9015091,
    "tel": "0863-71-6577",
    "url": "http://miyake-clinic.or.jp",
    "pref": "岡山県",
    "city": "玉野市",
    "category": "day_service",
    "serviceType": "通所介護",
    "capacity": 20,
    "openDays": [
      "平日"
    ],
    "openDaysNote": ""
  },
  {
    "id": "3370400586",
    "name": "近藤医院デイサービスセンター",
    "kana": "コンドウイインデイサービスセンター",
    "address": "岡山県　玉野市東田井地　１３９５",
    "lat": 34.5530713,
    "lng": 133.9971061,
    "tel": "0863-43-9123",
    "url": "",
    "pref": "岡山県",
    "city": "玉野市",
    "category": "day_service",
    "serviceType": "通所介護",
    "capacity": 40,
    "openDays": [
      "平日"
    ],
    "openDaysNote": ""
  },
  {
    "id": "3370900189",
    "name": "グリーンヒル順正通所介護事業所",
    "kana": "グリーンヒルジュンセイツウショカイゴジギョウショ",
    "address": "岡山県高梁市松原町神原２２８１－８",
    "lat": 34.8143886,
    "lng": 133.595367,
    "tel": "0866-23-1231",
    "url": "http://www.greenhill-junsei.com/",
    "pref": "岡山県",
    "city": "高梁市",
    "category": "day_service",
    "serviceType": "通所介護",
    "capacity": 0,
    "openDays": [
      "平日",
      "土曜日",
      "祝日"
    ],
    "openDaysNote": "なし"
  },
  {
    "id": "3370900338",
    "name": "デイサービスすずらん",
    "kana": "デイサービススズラン",
    "address": "岡山県高梁市松原通２０２３－１",
    "lat": 34.7915949,
    "lng": 133.6180573,
    "tel": "0866-22-1870",
    "url": "",
    "pref": "岡山県",
    "city": "高梁市",
    "category": "day_service",
    "serviceType": "通所介護",
    "capacity": 0,
    "openDays": [
      "平日",
      "土曜日",
      "祝日"
    ],
    "openDaysNote": "通常サービス提供時間外サービス提供時間　７時０分～８時４５分・１６時０分～１８時０分"
  },
  {
    "id": "3370900528",
    "name": "デイサービスひまわり",
    "kana": "デイサービスヒマワリ",
    "address": "岡山県高梁市成羽町成羽２３３７－１",
    "lat": 34.7886722,
    "lng": 133.5328276,
    "tel": "０８６６－４２－５５７７",
    "url": "https://asada-ltd.com/",
    "pref": "岡山県",
    "city": "高梁市",
    "category": "day_service",
    "serviceType": "通所介護",
    "capacity": 40,
    "openDays": [
      "平日",
      "土曜日",
      "祝日"
    ],
    "openDaysNote": "事業所の判断により臨時休業を設けることがある。"
  },
  {
    "id": "3373200090",
    "name": "高梁市社会福祉協議会　備中デイサービスセンター",
    "kana": "タカハシシシャカイフクシキョウギカイ　ビッチュウデイサービスセンター",
    "address": "岡山県高梁市備中町布賀3513番地2",
    "lat": 34.7915392,
    "lng": 133.4242872,
    "tel": "0866-45-3131",
    "url": "http://www.takahashi-shakyo.org/",
    "pref": "岡山県",
    "city": "高梁市",
    "category": "day_service",
    "serviceType": "通所介護",
    "capacity": 0,
    "openDays": [
      "平日"
    ],
    "openDaysNote": ""
  },
  {
    "id": "3373200215",
    "name": "高梁市成羽デイサービスセンター通所介護事業所",
    "kana": "タカハシシナリワデイサービスセンターツウショカイゴジギョウショ",
    "address": "岡山県高梁市成羽町下原２８１番地１",
    "lat": 34.7826645164124,
    "lng": 133.546484630025,
    "tel": "0866-42-4188",
    "url": "",
    "pref": "岡山県",
    "city": "高梁市",
    "category": "day_service",
    "serviceType": "通所介護",
    "capacity": 0,
    "openDays": [
      "平日"
    ],
    "openDaysNote": ""
  },
  {
    "id": "3373100092",
    "name": "高梁市有漢デイサービスセンター",
    "kana": "タカハシシウカンデイサービスセンター",
    "address": "岡山県高梁市有漢町有漢7945－18",
    "lat": 34.9017031,
    "lng": 133.6788779,
    "tel": "0866-57-9922",
    "url": "http://yoshimikai.com/",
    "pref": "岡山県",
    "city": "高梁市",
    "category": "day_service",
    "serviceType": "通所介護",
    "capacity": 0,
    "openDays": [
      "平日",
      "祝日"
    ],
    "openDaysNote": "特になし"
  },
  {
    "id": "3370900031",
    "name": "白和荘通所介護事業所",
    "kana": "ハクワソウツウショカイゴジギョウショ",
    "address": "高梁市高倉町大瀬八長2663-1",
    "lat": 34.8214605,
    "lng": 133.6120405,
    "tel": "0866-22-8201",
    "url": "http://www.jyunshinkai.or.jp",
    "pref": "岡山県",
    "city": "高梁市",
    "category": "day_service",
    "serviceType": "通所介護",
    "capacity": 30,
    "openDays": [
      "平日",
      "土曜日",
      "祝日"
    ],
    "openDaysNote": ""
  },
  {
    "id": "3373600588",
    "name": "デイサービスはくせん",
    "kana": "デイサービスハクセン",
    "address": "岡山県勝田郡勝央町岡457-1",
    "lat": 35.0381611095685,
    "lng": 134.127789552994,
    "tel": "0868-38-1033",
    "url": "http://www.hakusen.sakura.ne.jp",
    "pref": "岡山県",
    "city": "勝央町",
    "category": "day_service",
    "serviceType": "通所介護",
    "capacity": 23,
    "openDays": [
      "平日",
      "土曜日",
      "祝日"
    ],
    "openDaysNote": ""
  },
  {
    "id": "3373600570",
    "name": "デイサービス出雲乢",
    "kana": "デイサービス　イズモダワ",
    "address": "勝田郡勝央町植月中1540-10",
    "lat": 35.070526,
    "lng": 134.1158345,
    "tel": "0868-38-7177",
    "url": "http://www.syouboku.or.jp/izumo.html",
    "pref": "岡山県",
    "city": "勝央町",
    "category": "day_service",
    "serviceType": "通所介護",
    "capacity": 0,
    "openDays": [
      "平日",
      "土曜日",
      "祝日"
    ],
    "openDaysNote": ""
  },
  {
    "id": "3373600141",
    "name": "南光荘デイサービスセンター",
    "kana": "ナンコウソウデイサービスセンター",
    "address": "岡山県勝田郡勝央町美野１８７７番地",
    "lat": 35.0670377,
    "lng": 134.1531314,
    "tel": "0868-38-2171",
    "url": "http://www.shoumei-fukushikai.or.jp/",
    "pref": "岡山県",
    "city": "勝央町",
    "category": "day_service",
    "serviceType": "通所介護",
    "capacity": 25,
    "openDays": [
      "平日",
      "土曜日",
      "祝日"
    ],
    "openDaysNote": "希望者に通常営業時間を延長して、サービス提供を行っている。"
  },
  {
    "id": "3373300080",
    "name": "おおさ苑通所介護事業所",
    "kana": "オオサエンツウショカイゴジギョウショ",
    "address": "岡山県新見市大佐田治部３２２１番地",
    "lat": 35.0413254,
    "lng": 133.5563469,
    "tel": "0867-98-3500",
    "url": "http://www.osaen.jp/",
    "pref": "岡山県",
    "city": "新見市",
    "category": "day_service",
    "serviceType": "通所介護",
    "capacity": 0,
    "openDays": [
      "平日",
      "土曜日",
      "祝日"
    ],
    "openDaysNote": "介護保険対象者の利用日は、月曜・火曜・水曜・木曜・金曜です。"
  },
  {
    "id": "3371000518",
    "name": "デイサービスアルクゆずり葉",
    "kana": "デイサービスアルクユズリハ",
    "address": "岡山県新見市新見８９７－７",
    "lat": 34.9847273627249,
    "lng": 133.467998368648,
    "tel": "０８６７－７１－００７７",
    "url": "http://www.nissyoukai.net/",
    "pref": "岡山県",
    "city": "新見市",
    "category": "day_service",
    "serviceType": "通所介護",
    "capacity": 10,
    "openDays": [
      "平日",
      "祝日"
    ],
    "openDaysNote": ""
  },
  {
    "id": "3371000237",
    "name": "デイサービスセンターすずらん",
    "kana": "デイサービスセンタースズラン",
    "address": "岡山県新見市哲多町本郷５７４－１",
    "lat": 34.9363375,
    "lng": 133.4513623,
    "tel": "0867-96-2007",
    "url": "ｄｓ-suzuran@miic.ac.jp",
    "pref": "岡山県",
    "city": "新見市",
    "category": "day_service",
    "serviceType": "通所介護",
    "capacity": 0,
    "openDays": [
      "平日",
      "祝日"
    ],
    "openDaysNote": "特になし"
  },
  {
    "id": "3371000260",
    "name": "株式会社上田建設　デイサービスセンターオレンジ",
    "kana": "カブシキカイシャウエダケンセツ　デイサービスセンターオレンジ",
    "address": "岡山県新見市神郷下神代5038",
    "lat": 35.0122027,
    "lng": 133.4029416,
    "tel": "0867-92-6228",
    "url": "",
    "pref": "岡山県",
    "city": "新見市",
    "category": "day_service",
    "serviceType": "通所介護",
    "capacity": 0,
    "openDays": [
      "平日",
      "祝日"
    ],
    "openDaysNote": "特になし"
  },
  {
    "id": "3373300239",
    "name": "新見市社協神郷デイサービスセンター",
    "kana": "ニイミシシャキョウシンゴウデイサービスセンター",
    "address": "岡山県新見市神郷下神代3946番地",
    "lat": 34.9925771,
    "lng": 133.3963681,
    "tel": "0867-92-6677",
    "url": "",
    "pref": "岡山県",
    "city": "新見市",
    "category": "day_service",
    "serviceType": "通所介護",
    "capacity": 0,
    "openDays": [
      "平日"
    ],
    "openDaysNote": "特になし"
  },
  {
    "id": "3371000096",
    "name": "新見市社協中央デイサービスセンター",
    "kana": "ニイミシシャキョウチュウオウデイサービスセンター",
    "address": "岡山県新見市金谷６４０－１",
    "lat": 34.9730583,
    "lng": 133.4685762,
    "tel": "0867-71-0071",
    "url": "",
    "pref": "岡山県",
    "city": "新見市",
    "category": "day_service",
    "serviceType": "通所介護",
    "capacity": 0,
    "openDays": [
      "平日"
    ],
    "openDaysNote": "特になし"
  },
  {
    "id": "3373300270",
    "name": "哲西荘デイサービスセンター",
    "kana": "テッセイソウデイサービスセンター",
    "address": "岡山県新見市哲西町矢田４３５１",
    "lat": 34.923884,
    "lng": 133.334514,
    "tel": "0867-94-2435",
    "url": "tesseisou.jp",
    "pref": "岡山県",
    "city": "新見市",
    "category": "day_service",
    "serviceType": "通所介護",
    "capacity": 0,
    "openDays": [
      "平日"
    ],
    "openDaysNote": "特になし"
  },
  {
    "id": "3371000104",
    "name": "唐松荘デイサービスセンター",
    "kana": "カラマツソウデイサービスセンター",
    "address": "岡山県新見市唐松１７４９番地２",
    "lat": 34.9640904,
    "lng": 133.5083508,
    "tel": "0867-76-1009",
    "url": "http://www.karamatsu-so.jp",
    "pref": "岡山県",
    "city": "新見市",
    "category": "day_service",
    "serviceType": "通所介護",
    "capacity": 0,
    "openDays": [
      "平日",
      "土曜日"
    ],
    "openDaysNote": ""
  },
  {
    "id": "3373400583",
    "name": "新庄村社会福祉協議会指定通所介護事業所",
    "kana": "シンジョウソンシャカイフクシキョウギカイシテイツウショカイゴジギョウショ",
    "address": "岡山県真庭郡新庄村１９９８－１",
    "lat": 35.1795978075501,
    "lng": 133.566736518246,
    "tel": "0867-56-2001",
    "url": "http://www.shinjoshakyo.or.jp/",
    "pref": "岡山県",
    "city": "新庄村",
    "category": "day_service",
    "serviceType": "通所介護",
    "capacity": 0,
    "openDays": [
      "平日"
    ],
    "openDaysNote": ""
  },
  {
    "id": "3373401052",
    "name": "あゆみデイサービスセンター",
    "kana": "アユミデイサービスセンター",
    "address": "岡山県真庭市久世27-7",
    "lat": 35.0857118,
    "lng": 133.752363,
    "tel": "0867-42-8181",
    "url": "",
    "pref": "岡山県",
    "city": "真庭市",
    "category": "day_service",
    "serviceType": "通所介護",
    "capacity": 30,
    "openDays": [
      "平日"
    ],
    "openDaysNote": "特になし"
  },
  {
    "id": "3373400872",
    "name": "デイサービスセンターこばと",
    "kana": "デイサービスセンターコバト",
    "address": "岡山県真庭市久世2910-1",
    "lat": 35.076049,
    "lng": 133.7512134,
    "tel": "0867-42-0122",
    "url": "",
    "pref": "岡山県",
    "city": "真庭市",
    "category": "day_service",
    "serviceType": "通所介護",
    "capacity": 30,
    "openDays": [
      "平日",
      "土曜日",
      "祝日"
    ],
    "openDaysNote": "特になし"
  },
  {
    "id": "3373400823",
    "name": "デイサービスセンターわたぼうし",
    "kana": "デイサービスセンターワタボウシ",
    "address": "岡山県真庭市本郷1825-6",
    "lat": 35.0850753,
    "lng": 133.689141,
    "tel": "0867-44-5311",
    "url": "http://www.katsuyama-hp.or.jp/",
    "pref": "岡山県",
    "city": "真庭市",
    "category": "day_service",
    "serviceType": "通所介護",
    "capacity": 40,
    "openDays": [
      "平日",
      "土曜日",
      "祝日"
    ],
    "openDaysNote": ""
  },
  {
    "id": "3373401227",
    "name": "リハスタイルひかり",
    "kana": "リハスタイルヒカリ",
    "address": "岡山県真庭市中313-8",
    "lat": 35.0545168,
    "lng": 133.7525245,
    "tel": "867428003",
    "url": "",
    "pref": "岡山県",
    "city": "真庭市",
    "category": "day_service",
    "serviceType": "通所介護",
    "capacity": 25,
    "openDays": [
      "平日",
      "土曜日"
    ],
    "openDaysNote": ""
  },
  {
    "id": "3373401193",
    "name": "リハビリ型デイサービスほほえみ",
    "kana": "リハビリガタディサービスホホエミ",
    "address": "岡山県真庭市落合垂水６１９－５",
    "lat": 35.0148331,
    "lng": 133.7483786,
    "tel": "０８６７－５２－０１４３",
    "url": "",
    "pref": "岡山県",
    "city": "真庭市",
    "category": "day_service",
    "serviceType": "通所介護",
    "capacity": 0,
    "openDays": [
      "平日"
    ],
    "openDaysNote": ""
  },
  {
    "id": "3373100076",
    "name": "花岡デイサービスセンター",
    "kana": "ハナオカデイサービスセンター",
    "address": "岡山県真庭市下中津井505番地",
    "lat": 34.9362712,
    "lng": 133.6332057,
    "tel": "0866-52-3070",
    "url": "http://yoshimikai.com",
    "pref": "岡山県",
    "city": "真庭市",
    "category": "day_service",
    "serviceType": "通所介護",
    "capacity": 0,
    "openDays": [
      "平日",
      "祝日"
    ],
    "openDaysNote": ""
  },
  {
    "id": "3373400294",
    "name": "十字園デイサービスセンター",
    "kana": "ジュウジエンデイサービスセンター",
    "address": "岡山県真庭市下河内２２７５番地",
    "lat": 35.03251,
    "lng": 133.7865818,
    "tel": "0867-55-2921",
    "url": "http://www.jyujikai.or.jp",
    "pref": "岡山県",
    "city": "真庭市",
    "category": "day_service",
    "serviceType": "通所介護",
    "capacity": 0,
    "openDays": [
      "平日",
      "土曜日",
      "祝日"
    ],
    "openDaysNote": ""
  },
  {
    "id": "3373400641",
    "name": "蒜山デイサービスセンター",
    "kana": "ヒルゼンデイサービスセンター",
    "address": "岡山県真庭市蒜山上長田２８－１",
    "lat": 35.2863203,
    "lng": 133.6873472,
    "tel": "0867-66-3122",
    "url": "http://www.uguisuen.jp/",
    "pref": "岡山県",
    "city": "真庭市",
    "category": "day_service",
    "serviceType": "通所介護",
    "capacity": 0,
    "openDays": [
      "平日",
      "祝日"
    ],
    "openDaysNote": "月曜日から金曜日の祝祭日は営業"
  },
  {
    "id": "3373401201",
    "name": "陽だまりの家かつやまデイサービスセンター",
    "kana": "ヒダマリノイエカツヤマデイサービスセンター",
    "address": "岡山県真庭市三田１２４－７",
    "lat": 35.0797369,
    "lng": 133.6883912,
    "tel": "0867-44-1505",
    "url": "http://www.solhem.jp/",
    "pref": "岡山県",
    "city": "真庭市",
    "category": "day_service",
    "serviceType": "通所介護",
    "capacity": 25,
    "openDays": [
      "平日",
      "土曜日",
      "日曜日",
      "祝日"
    ],
    "openDaysNote": ""
  },
  {
    "id": "3372401061",
    "name": "デイサービス　ひだまり",
    "kana": "デイサービス　ヒダマリ",
    "address": "邑久町下山田1288-1",
    "lat": 34.6467949,
    "lng": 134.1119108,
    "tel": "0869-24-8800",
    "url": "https://www.hapiness-hidamari.com/hapiness",
    "pref": "岡山県",
    "city": "瀬戸内市",
    "category": "day_service",
    "serviceType": "通所介護",
    "capacity": 2,
    "openDays": [
      "平日",
      "土曜日",
      "祝日"
    ],
    "openDaysNote": "宿泊サービスの利用がある場合、日曜日も営業しています。"
  },
  {
    "id": "3372400949",
    "name": "デイサービス　空楽",
    "kana": "デイサービス　ソラ",
    "address": "岡山県瀬戸内市長船町福里92",
    "lat": 34.7020448992431,
    "lng": 134.120267120793,
    "tel": "0869-24-8885",
    "url": "",
    "pref": "岡山県",
    "city": "瀬戸内市",
    "category": "day_service",
    "serviceType": "通所介護",
    "capacity": 25,
    "openDays": [
      "平日",
      "土曜日",
      "祝日"
    ],
    "openDaysNote": ""
  },
  {
    "id": "3372400212",
    "name": "デイサービスセンター　あじさい",
    "kana": "デイサービスセンター　アジサイ",
    "address": "岡山県瀬戸内市牛窓町長浜1745-1",
    "lat": 34.6375462,
    "lng": 134.1332783,
    "tel": "0869-34-6367",
    "url": "http://www.ajisai-s.or.jp",
    "pref": "岡山県",
    "city": "瀬戸内市",
    "category": "day_service",
    "serviceType": "通所介護",
    "capacity": 35,
    "openDays": [
      "平日",
      "土曜日"
    ],
    "openDaysNote": "営業日は祝日及び年末年始の12月31日～1月3日を除いた、月曜日から土曜日までとする。ただし、長期間の連休となる場合は、事前に利用者及びその家族並びに居宅介護支援事業所等の関係機関に周知の上、祝日又は休日を営業日とすることがある。"
  },
  {
    "id": "3372401004",
    "name": "デイサービスセンター　すずらん",
    "kana": "デイサービスセンター　スズラン",
    "address": "岡山県瀬戸内市邑久町上笠加145番地6",
    "lat": 34.6850135,
    "lng": 134.0980338,
    "tel": "0869-22-5507",
    "url": "https://www.suzuran-setouchi.com",
    "pref": "岡山県",
    "city": "瀬戸内市",
    "category": "day_service",
    "serviceType": "通所介護",
    "capacity": 25,
    "openDays": [
      "平日",
      "土曜日",
      "祝日"
    ],
    "openDaysNote": ""
  },
  {
    "id": "3372400550",
    "name": "デイサービスセンターあんしん",
    "kana": "デイサービスセンター　アンシン",
    "address": "岡山県瀬戸内市邑久町上笠加２０８－１０",
    "lat": 34.6903602,
    "lng": 134.0969254,
    "tel": "0869-22-2600",
    "url": "http://care-net.biz/33/anshin/",
    "pref": "岡山県",
    "city": "瀬戸内市",
    "category": "day_service",
    "serviceType": "通所介護",
    "capacity": 0,
    "openDays": [
      "平日",
      "土曜日",
      "祝日"
    ],
    "openDaysNote": "１２月３１日から１月３日・８月１３日から８月１５日休みとする。"
  },
  {
    "id": "3372400907",
    "name": "デイサービスセンターほのか",
    "kana": "デイサービスセンターホノカ",
    "address": "岡山県瀬戸内市邑久町尾張556番地1",
    "lat": 34.6625597,
    "lng": 134.0951151,
    "tel": "0869-24-1950",
    "url": "",
    "pref": "岡山県",
    "city": "瀬戸内市",
    "category": "day_service",
    "serviceType": "通所介護",
    "capacity": 5,
    "openDays": [
      "平日",
      "土曜日",
      "祝日"
    ],
    "openDaysNote": ""
  },
  {
    "id": "3372401046",
    "name": "なないろデイサービス",
    "kana": "ナナイロデイサービス",
    "address": "邑久町上笠加292-1",
    "lat": 34.6903908,
    "lng": 134.098217,
    "tel": "0869-24-7744",
    "url": "https://www.nanairokasaka.com/",
    "pref": "岡山県",
    "city": "瀬戸内市",
    "category": "day_service",
    "serviceType": "通所介護",
    "capacity": 20,
    "openDays": [
      "平日",
      "土曜日",
      "日曜日",
      "祝日"
    ],
    "openDaysNote": ""
  },
  {
    "id": "3372401111",
    "name": "ボンボヤージュ",
    "kana": "ボンボヤージュ",
    "address": "岡山県瀬戸内市長船町土師147-1",
    "lat": 34.664903,
    "lng": 134.0928408,
    "tel": "0869-26-8010",
    "url": "",
    "pref": "岡山県",
    "city": "瀬戸内市",
    "category": "day_service",
    "serviceType": "通所介護",
    "capacity": null,
    "openDays": [
      "平日",
      "土曜日"
    ],
    "openDaysNote": ""
  },
  {
    "id": "3372401053",
    "name": "まごのて村デイサービス「さくら庵」",
    "kana": "マゴノテムラデイサービス「サクラアン」",
    "address": "岡山県瀬戸内市邑久町箕輪656-1まごのて村株式会社 まごのて村株式会社",
    "lat": 34.6938682,
    "lng": 134.0972892,
    "tel": "0869-22-5321",
    "url": "magonotemura.com",
    "pref": "岡山県",
    "city": "瀬戸内市",
    "category": "day_service",
    "serviceType": "通所介護",
    "capacity": 25,
    "openDays": [
      "平日",
      "土曜日",
      "祝日"
    ],
    "openDaysNote": ""
  },
  {
    "id": "3372401129",
    "name": "岡山県瀬戸内市邑久町本庄4937-1",
    "kana": "オカヤマケンセトウチシオクチョウホンジョウ",
    "address": "邑久町本庄4937-1",
    "lat": 34.6601806,
    "lng": 134.1269188,
    "tel": "0869-22-1700",
    "url": "",
    "pref": "岡山県",
    "city": "瀬戸内市",
    "category": "day_service",
    "serviceType": "通所介護",
    "capacity": null,
    "openDays": [
      "平日",
      "祝日"
    ],
    "openDaysNote": ""
  },
  {
    "id": "3372400543",
    "name": "創心会リハビリ倶楽部邑久",
    "kana": "ソウシンカイリハビリクラブオク",
    "address": "岡山県瀬戸内市邑久町尾張105-2",
    "lat": 34.665051,
    "lng": 134.0891712,
    "tel": "0869-22-5303",
    "url": "http://www.soushinkai.com",
    "pref": "岡山県",
    "city": "瀬戸内市",
    "category": "day_service",
    "serviceType": "通所介護",
    "capacity": 35,
    "openDays": [
      "平日",
      "土曜日",
      "祝日"
    ],
    "openDaysNote": ""
  },
  {
    "id": "3372400139",
    "name": "長船荘デイサービスセンター",
    "kana": "オサフネソウデイサービスセンター",
    "address": "岡山県瀬戸内市長船町服部１１４１番地",
    "lat": 34.7095393,
    "lng": 134.1106765,
    "tel": "0869-26-5901",
    "url": "http://www.okayama-chidori.or.jp/osafune/index.html",
    "pref": "岡山県",
    "city": "瀬戸内市",
    "category": "day_service",
    "serviceType": "通所介護",
    "capacity": 0,
    "openDays": [
      "平日",
      "土曜日",
      "祝日"
    ],
    "openDaysNote": ""
  },
  {
    "id": "3372400725",
    "name": "平井デイサービス",
    "kana": "ヒライデイサービス",
    "address": "瀬戸内市長船町福岡200－1",
    "lat": 34.7038062,
    "lng": 134.0972139,
    "tel": "0869-24-7880",
    "url": "http://www.hirai-iin.jp/",
    "pref": "岡山県",
    "city": "瀬戸内市",
    "category": "day_service",
    "serviceType": "通所介護",
    "capacity": 0,
    "openDays": [
      "平日",
      "土曜日",
      "祝日"
    ],
    "openDaysNote": ""
  },
  {
    "id": "3372201495",
    "name": "あかいわデイサービスセンターさくら",
    "kana": "アカイワデイサービスセンターサクラ",
    "address": "岡山県赤磐市日古木33-1",
    "lat": 34.7631879,
    "lng": 134.0302916,
    "tel": "086-956-0555",
    "url": "http://www.iwadou.or.jp/",
    "pref": "岡山県",
    "city": "赤磐市",
    "category": "day_service",
    "serviceType": "通所介護",
    "capacity": 0,
    "openDays": [
      "平日",
      "土曜日",
      "祝日"
    ],
    "openDaysNote": ""
  },
  {
    "id": "3372200893",
    "name": "たけのこの家",
    "kana": "タケノコノイエ",
    "address": "岡山県赤磐市桜が丘東4-4-467",
    "lat": 34.7830575,
    "lng": 134.0420734,
    "tel": "086-995-9678",
    "url": "http://www.takenokonoie.com/",
    "pref": "岡山県",
    "city": "赤磐市",
    "category": "day_service",
    "serviceType": "通所介護",
    "capacity": 33,
    "openDays": [
      "平日",
      "土曜日",
      "祝日"
    ],
    "openDaysNote": ""
  },
  {
    "id": "3372201388",
    "name": "つるの里デイサービスセンター",
    "kana": "ツルノサトデイサービスセンター",
    "address": "岡山県赤磐市桜ヶ丘西9-17-17",
    "lat": 34.7803186,
    "lng": 134.0321742,
    "tel": "086-956-5177",
    "url": "https://www.turunosato.com/",
    "pref": "岡山県",
    "city": "赤磐市",
    "category": "day_service",
    "serviceType": "通所介護",
    "capacity": 35,
    "openDays": [
      "平日",
      "土曜日",
      "日曜日",
      "祝日"
    ],
    "openDaysNote": "日曜日　定員15名　個別機能訓練も実施しています。"
  },
  {
    "id": "3372200406",
    "name": "デイサ－ビスセンタ－ひろむし",
    "kana": "デイサービスセンターヒロムシ",
    "address": "岡山県赤磐市沢原１３９５",
    "lat": 34.7932442,
    "lng": 134.0830969,
    "tel": "086-995-9552",
    "url": "http://www.hiromushisou.org",
    "pref": "岡山県",
    "city": "赤磐市",
    "category": "day_service",
    "serviceType": "通所介護",
    "capacity": 19,
    "openDays": [
      "平日",
      "土曜日",
      "祝日"
    ],
    "openDaysNote": ""
  },
  {
    "id": "3372201271",
    "name": "デイサービス　ルミエール桜が丘",
    "kana": "デイサービス　ルミエールサクラガオカ",
    "address": "赤磐市桜が丘西5丁目11-8ルミエール桜が丘 ルミエール桜が丘",
    "lat": 34.7802549,
    "lng": 134.0400959,
    "tel": "086-955-5923",
    "url": "https://souwa-group.co.jp/",
    "pref": "岡山県",
    "city": "赤磐市",
    "category": "day_service",
    "serviceType": "通所介護",
    "capacity": 0,
    "openDays": [
      "平日",
      "土曜日",
      "祝日"
    ],
    "openDaysNote": "年末年始休業（12月31日～1月3日）"
  },
  {
    "id": "3372201149",
    "name": "デイサービスセンター　アルフィック山陽",
    "kana": "デイサービスセンター　アルフィックサンヨウ",
    "address": "岡山県赤磐市岩田57-1",
    "lat": 34.7377754,
    "lng": 134.006653,
    "tel": "086-955-5270",
    "url": "http://www.rcare.jp/",
    "pref": "岡山県",
    "city": "赤磐市",
    "category": "day_service",
    "serviceType": "通所介護",
    "capacity": 0,
    "openDays": [
      "平日",
      "土曜日",
      "祝日"
    ],
    "openDaysNote": ""
  },
  {
    "id": "3372200679",
    "name": "デイサービスセンターくすのき",
    "kana": "デイサービスセンタークスノキ",
    "address": "岡山県赤磐市河本1143",
    "lat": 34.7488772,
    "lng": 134.0185762,
    "tel": "086-955-9980",
    "url": "",
    "pref": "岡山県",
    "city": "赤磐市",
    "category": "day_service",
    "serviceType": "通所介護",
    "capacity": 25,
    "openDays": [
      "平日",
      "土曜日",
      "祝日"
    ],
    "openDaysNote": "特になし"
  },
  {
    "id": "3372201545",
    "name": "デイサービスセンターともに　あかいわ",
    "kana": "デイサービスセンタートモニ　アカイワ",
    "address": "岡山県赤磐市日古木７６６番地１",
    "lat": 34.7631925100892,
    "lng": 134.033824977515,
    "tel": "086-958-5360",
    "url": "https://fairforest.jp/shisetsu/day_service/",
    "pref": "岡山県",
    "city": "赤磐市",
    "category": "day_service",
    "serviceType": "通所介護",
    "capacity": 19,
    "openDays": [
      "平日",
      "土曜日",
      "祝日"
    ],
    "openDaysNote": ""
  },
  {
    "id": "3372201438",
    "name": "デイサービス亀池荘",
    "kana": "デイサービスカメイケソウ",
    "address": "穂崎888-1",
    "lat": 34.7365978,
    "lng": 134.0073891,
    "tel": "086-229-9300",
    "url": "https://souwa-group.co.jp/",
    "pref": "岡山県",
    "city": "赤磐市",
    "category": "day_service",
    "serviceType": "通所介護",
    "capacity": 0,
    "openDays": [
      "平日",
      "土曜日",
      "祝日"
    ],
    "openDaysNote": "12月31日～1月3日お休み"
  },
  {
    "id": "3372201172",
    "name": "ねむの木デイサービスホーム",
    "kana": "ネムノキデイサービスホーム",
    "address": "岡山県赤磐市周匝９８５番地１０",
    "lat": 34.9147035,
    "lng": 134.0945225,
    "tel": "086-954-2777",
    "url": "http://nemunki-day.com/",
    "pref": "岡山県",
    "city": "赤磐市",
    "category": "day_service",
    "serviceType": "通所介護",
    "capacity": 0,
    "openDays": [
      "平日",
      "土曜日",
      "祝日"
    ],
    "openDaysNote": "お盆、年末年始の休暇は変更あり。"
  },
  {
    "id": "3372200182",
    "name": "山陽デイサービスセンター",
    "kana": "サンヨウデイサービスセンター",
    "address": "岡山県赤磐市河本７７８－１",
    "lat": 34.7514711,
    "lng": 134.012799,
    "tel": "086-955-8811",
    "url": "",
    "pref": "岡山県",
    "city": "赤磐市",
    "category": "day_service",
    "serviceType": "通所介護",
    "capacity": null,
    "openDays": [
      "平日",
      "祝日"
    ],
    "openDaysNote": ""
  },
  {
    "id": "3372201180",
    "name": "山陽多聞荘デイサービスセンター",
    "kana": "サンヨウタモンソウデイサービスセンター",
    "address": "赤磐市山陽1丁目6番3",
    "lat": 34.7452356,
    "lng": 134.0062222,
    "tel": "086-958-5511",
    "url": "http://www.tensetsukai.or.jp",
    "pref": "岡山県",
    "city": "赤磐市",
    "category": "day_service",
    "serviceType": "通所介護",
    "capacity": 0,
    "openDays": [
      "平日",
      "土曜日",
      "祝日"
    ],
    "openDaysNote": ""
  },
  {
    "id": "3372200323",
    "name": "春の家デイサービスセンター",
    "kana": "ハルノイエデイサービスセンター",
    "address": "岡山県赤磐市町苅田５１７－１",
    "lat": 34.7989967,
    "lng": 134.0085339,
    "tel": "086-957-4837",
    "url": "",
    "pref": "岡山県",
    "city": "赤磐市",
    "category": "day_service",
    "serviceType": "通所介護",
    "capacity": 0,
    "openDays": [
      "平日",
      "祝日"
    ],
    "openDaysNote": ""
  },
  {
    "id": "3372201396",
    "name": "赤磐市　あかまつ荘",
    "kana": "アカイワシ　アカマツソウ",
    "address": "岡山県赤磐市塩木11",
    "lat": 34.8917636,
    "lng": 134.0646371,
    "tel": "086-954-0077",
    "url": "http://www.eharakeimeikai.ｊｐ",
    "pref": "岡山県",
    "city": "赤磐市",
    "category": "day_service",
    "serviceType": "通所介護",
    "capacity": 20,
    "openDays": [
      "平日",
      "土曜日",
      "祝日"
    ],
    "openDaysNote": ""
  },
  {
    "id": "3372201123",
    "name": "桃香デイサービスセンター",
    "kana": "モモカデイサービスセンター",
    "address": "岡山県赤磐市熊崎２７６－１",
    "lat": 34.7565372,
    "lng": 134.0117489,
    "tel": "086-956-6111",
    "url": "https://kyokusuikai-momoka.com/",
    "pref": "岡山県",
    "city": "赤磐市",
    "category": "day_service",
    "serviceType": "通所介護",
    "capacity": 19,
    "openDays": [
      "平日",
      "祝日"
    ],
    "openDaysNote": "祝日、祭日も営業しています。"
  },
  {
    "id": "3372700199",
    "name": "オペラハウス鴨方　デイサービスセンター通所介護事業所",
    "kana": "オペラハウスカモガタ　デイサービスセンターツウショカイゴジギョウショ",
    "address": "岡山県浅口市鴨方町地頭上５６７番地",
    "lat": 34.5589695,
    "lng": 133.5903399,
    "tel": "0865-44-6336",
    "url": "http://www.okayama-chidori.or.jp/opera/",
    "pref": "岡山県",
    "city": "浅口市",
    "category": "day_service",
    "serviceType": "通所介護",
    "capacity": 0,
    "openDays": [
      "平日",
      "土曜日",
      "祝日"
    ],
    "openDaysNote": "特になし"
  },
  {
    "id": "3372701155",
    "name": "デイサービス陽季",
    "kana": "デイサービス　ヨウキ",
    "address": "岡山県浅口市鴨方町小坂西749",
    "lat": 34.5430303,
    "lng": 133.5596057,
    "tel": "0865-47-0070",
    "url": "https://www.youki-egg.com/",
    "pref": "岡山県",
    "city": "浅口市",
    "category": "day_service",
    "serviceType": "通所介護",
    "capacity": 0,
    "openDays": [
      "平日",
      "土曜日",
      "祝日"
    ],
    "openDaysNote": ""
  },
  {
    "id": "3372700439",
    "name": "医療法人みわ記念病院さつきの里デイサービスセンター",
    "kana": "イリョウホウジンミワキネンビョウインサツキノサトデイサービスセンター",
    "address": "岡山県浅口市金光町地頭下２８１番地２",
    "lat": 34.5413791,
    "lng": 133.6023251,
    "tel": "0865-42-6601",
    "url": "http://www.miwahp.com/",
    "pref": "岡山県",
    "city": "浅口市",
    "category": "day_service",
    "serviceType": "通所介護",
    "capacity": 0,
    "openDays": [
      "平日",
      "土曜日",
      "祝日"
    ],
    "openDaysNote": "特になし"
  },
  {
    "id": "3372700223",
    "name": "寄島在宅福祉センターカニ丸の家デイサービスセンター",
    "kana": "ヨリシマザイタクフクシセンターカニマルノイエデイサービスセンター",
    "address": "岡山県浅口市寄島町１６０８９－１７",
    "lat": 34.4770064,
    "lng": 133.585791,
    "tel": "0865-54-3113",
    "url": "",
    "pref": "岡山県",
    "city": "浅口市",
    "category": "day_service",
    "serviceType": "通所介護",
    "capacity": 0,
    "openDays": [
      "平日",
      "祝日"
    ],
    "openDaysNote": ""
  },
  {
    "id": "3372701148",
    "name": "機能訓練専門デイサービス　一歩",
    "kana": "キノウクンレンセンモンデイサービスイッポ",
    "address": "金光町佐方56",
    "lat": 34.5362774,
    "lng": 133.6126139,
    "tel": "0865-42-2056",
    "url": "",
    "pref": "岡山県",
    "city": "浅口市",
    "category": "day_service",
    "serviceType": "通所介護",
    "capacity": 0,
    "openDays": [
      "平日",
      "土曜日"
    ],
    "openDaysNote": ""
  },
  {
    "id": "3372700256",
    "name": "寿光園デイサービスセンター通所介護事業所",
    "kana": "ジュコウエンデイサービスセンターツウショカイゴジギョウショ",
    "address": "岡山県浅口市金光町下竹１７７５番の1",
    "lat": 34.5595466,
    "lng": 133.6414256,
    "tel": "0865-42-6702",
    "url": "http://www.kcv.ne.jp/~jukoukai",
    "pref": "岡山県",
    "city": "浅口市",
    "category": "day_service",
    "serviceType": "通所介護",
    "capacity": 35,
    "openDays": [
      "平日",
      "土曜日",
      "祝日"
    ],
    "openDaysNote": "特になし"
  },
  {
    "id": "3370208286",
    "name": "dueいづみ荘デイサービスセンター",
    "kana": "ドゥエイヅミ荘デイサービスセンター",
    "address": "岡山県倉敷市玉島阿賀崎1丁目6-13",
    "lat": 34.5496027,
    "lng": 133.6762384,
    "tel": "086-476-5288",
    "url": "http://www.adagio-idumisou.jp",
    "pref": "岡山県",
    "city": "倉敷市",
    "category": "day_service",
    "serviceType": "通所介護",
    "capacity": 20,
    "openDays": [
      "平日",
      "祝日"
    ],
    "openDaysNote": "12月31日～1月3日まで休み"
  },
  {
    "id": "3370207080",
    "name": "ＫＵＮＰＵケアプラスデイサービスセンター",
    "kana": "クンプウケアプラスデイサービスセンター",
    "address": "岡山県倉敷市真備町尾崎2224－7",
    "lat": 34.6238676,
    "lng": 133.6656541,
    "tel": "086－698－9988",
    "url": "https://suiseikai-group.jp",
    "pref": "岡山県",
    "city": "倉敷市",
    "category": "day_service",
    "serviceType": "通所介護",
    "capacity": 35,
    "openDays": [
      "平日",
      "土曜日",
      "祝日"
    ],
    "openDaysNote": ""
  },
  {
    "id": "3370208302",
    "name": "Ｐ.Ｐ.Ｐ.ブラヴィッシモ！通生デイサービスセンター",
    "kana": "ピー.ピー.ピー.ブラウ゛ィッシモ！カヨウデイサービスセンター",
    "address": "岡山県倉敷市児島通生818番地",
    "lat": 34.4643385,
    "lng": 133.7776058,
    "tel": "086-454-5540",
    "url": "http://www.3flower.jp/",
    "pref": "岡山県",
    "city": "倉敷市",
    "category": "day_service",
    "serviceType": "通所介護",
    "capacity": 30,
    "openDays": [
      "平日",
      "土曜日",
      "祝日"
    ],
    "openDaysNote": ""
  },
  {
    "id": "3370201984",
    "name": "あいあいえんデイサービスセンター",
    "kana": "アイアイエンデイサービスセンター",
    "address": "岡山県倉敷市串田６６０番地",
    "lat": 34.5433056,
    "lng": 133.8129079,
    "tel": "086-485-5630",
    "url": "",
    "pref": "岡山県",
    "city": "倉敷市",
    "category": "day_service",
    "serviceType": "通所介護",
    "capacity": 0,
    "openDays": [
      "平日",
      "土曜日",
      "日曜日",
      "祝日"
    ],
    "openDaysNote": "台風・災害時には、変更有"
  },
  {
    "id": "3370206934",
    "name": "アイル倉敷田ノ上",
    "kana": "アイルクラシキタノウエ",
    "address": "岡山県倉敷市田ノ上1086番地7",
    "lat": 34.5858045248516,
    "lng": 133.759542362735,
    "tel": "086-427-2828",
    "url": "http://www.airu-kurashikitanoue.com",
    "pref": "岡山県",
    "city": "倉敷市",
    "category": "day_service",
    "serviceType": "通所介護",
    "capacity": 35,
    "openDays": [
      "平日",
      "土曜日",
      "祝日"
    ],
    "openDaysNote": ""
  },
  {
    "id": "3370209243",
    "name": "アクトリハサポ玉島",
    "kana": "アクト　リハサポタマシマ",
    "address": "岡山県倉敷市玉島中央町3丁目12-1",
    "lat": 34.5439276,
    "lng": 133.6706333,
    "tel": "086-525-6700",
    "url": "https://hp.kaipoke.biz/3y9/167523/base_0004.html",
    "pref": "岡山県",
    "city": "倉敷市",
    "category": "day_service",
    "serviceType": "通所介護",
    "capacity": 30,
    "openDays": [
      "平日",
      "祝日"
    ],
    "openDaysNote": ""
  },
  {
    "id": "3370201695",
    "name": "あすなろ園デイサービスセンター",
    "kana": "アスナロエンデイサービスセンター",
    "address": "岡山県倉敷市玉島勇崎１０４４番地",
    "lat": 34.5187144,
    "lng": 133.6498389,
    "tel": "086-528-3110",
    "url": "http://shoenfukushikai.jp",
    "pref": "岡山県",
    "city": "倉敷市",
    "category": "day_service",
    "serviceType": "通所介護",
    "capacity": 33,
    "openDays": [
      "平日",
      "土曜日",
      "祝日"
    ],
    "openDaysNote": ""
  },
  {
    "id": "3370205258",
    "name": "あすなろ園柏台デイサービスセンター空の家",
    "kana": "アスナロエンカシワダイデイサービスセンターソラノイエ",
    "address": "岡山県倉敷市玉島柏台5丁目1-1",
    "lat": 34.5294159,
    "lng": 133.6504277,
    "tel": "086-523-1136",
    "url": "http://www.asunaro.or.jp",
    "pref": "岡山県",
    "city": "倉敷市",
    "category": "day_service",
    "serviceType": "通所介護",
    "capacity": 25,
    "openDays": [
      "平日",
      "日曜日",
      "祝日"
    ],
    "openDaysNote": ""
  },
  {
    "id": "3370208633",
    "name": "アビリティ共生デイ",
    "kana": "アビリティキョウセイデイ",
    "address": "岡山県倉敷市玉島乙島7190-5富田ケアセンター　令和乙島事業所 富田ケアセンター　令和乙島事業所",
    "lat": 34.5330778,
    "lng": 133.6844413,
    "tel": "086-441-5252",
    "url": "www.tomicare.com",
    "pref": "岡山県",
    "city": "倉敷市",
    "category": "day_service",
    "serviceType": "通所介護",
    "capacity": 0,
    "openDays": [
      "平日",
      "土曜日",
      "日曜日",
      "祝日"
    ],
    "openDaysNote": "12月30日～1月3日"
  },
  {
    "id": "3370208781",
    "name": "うらたの里デイサービスセンター",
    "kana": "ウラタノサトデイサービスセンター",
    "address": "岡山県倉敷市浦田1533番地2",
    "lat": 34.5655228904366,
    "lng": 133.765755360783,
    "tel": "086-441-6003",
    "url": "http://www.nijinosato-kurashiki.com/",
    "pref": "岡山県",
    "city": "倉敷市",
    "category": "day_service",
    "serviceType": "通所介護",
    "capacity": 23,
    "openDays": [
      "平日",
      "土曜日",
      "祝日"
    ],
    "openDaysNote": ""
  },
  {
    "id": "3370201885",
    "name": "えんさこ医院通所介護パンジー",
    "kana": "エンサコイインツウショカイゴパンジー",
    "address": "岡山県倉敷市下庄459－1",
    "lat": 34.640314,
    "lng": 133.8232833,
    "tel": "086-436-7666",
    "url": "http://www.ensako.or.jp",
    "pref": "岡山県",
    "city": "倉敷市",
    "category": "day_service",
    "serviceType": "通所介護",
    "capacity": 0,
    "openDays": [
      "平日"
    ],
    "openDaysNote": "特になし"
  },
  {
    "id": "3370204509",
    "name": "オリーブガーデンデイサービスセンター",
    "kana": "オリーブガーデンデイサービスセンター",
    "address": "岡山県倉敷市亀山５６４－７",
    "lat": 34.5855998,
    "lng": 133.799946,
    "tel": "086-420-2772",
    "url": "http://www.olive-garden.co.jp/",
    "pref": "岡山県",
    "city": "倉敷市",
    "category": "day_service",
    "serviceType": "通所介護",
    "capacity": 35,
    "openDays": [
      "平日",
      "土曜日",
      "祝日"
    ],
    "openDaysNote": "特になし"
  },
  {
    "id": "3370209011",
    "name": "かがやきセカンドpremium",
    "kana": "カガヤキセカンドプレミアム",
    "address": "児島稗田町1707",
    "lat": 34.5003148834915,
    "lng": 133.80899392209,
    "tel": "086-472-6011",
    "url": "http://www.sun-glow.biz/",
    "pref": "岡山県",
    "city": "倉敷市",
    "category": "day_service",
    "serviceType": "通所介護",
    "capacity": 0,
    "openDays": [
      "平日"
    ],
    "openDaysNote": ""
  },
  {
    "id": "3370206066",
    "name": "げんきむらデイサービスセンター",
    "kana": "ゲンキムラデイサービスセンター",
    "address": "倉敷市中庄2960-1",
    "lat": 34.6171496,
    "lng": 133.8012119,
    "tel": "086-441-0566",
    "url": "www.yotsubakai.or.jp",
    "pref": "岡山県",
    "city": "倉敷市",
    "category": "day_service",
    "serviceType": "通所介護",
    "capacity": 0,
    "openDays": [
      "平日",
      "土曜日",
      "祝日"
    ],
    "openDaysNote": ""
  },
  {
    "id": "3370207791",
    "name": "コーワ・アイデイサービスセンター",
    "kana": "コーワ・アイデイサービスセンター",
    "address": "岡山県倉敷市林５１４番地",
    "lat": 34.5391369,
    "lng": 133.8159606,
    "tel": "０８６－４８５－００５７",
    "url": "",
    "pref": "岡山県",
    "city": "倉敷市",
    "category": "day_service",
    "serviceType": "通所介護",
    "capacity": 0,
    "openDays": [
      "平日",
      "祝日"
    ],
    "openDaysNote": "毎週月火水木金（但し、１２/３０～１/３を除く）臨時休業及び年により変動する場合あり。"
  },
  {
    "id": "3370206819",
    "name": "ザグスタ　真備",
    "kana": "ザグスタ　マビ",
    "address": "岡山県倉敷市真備町有井282-3",
    "lat": 34.6394080569724,
    "lng": 133.705669637612,
    "tel": "086-698-6911",
    "url": "http://www.zagzag.co.jp/zagstu/",
    "pref": "岡山県",
    "city": "倉敷市",
    "category": "day_service",
    "serviceType": "通所介護",
    "capacity": 0,
    "openDays": [
      "平日",
      "土曜日",
      "祝日"
    ],
    "openDaysNote": ""
  },
  {
    "id": "3370206959",
    "name": "ザグスタ中島",
    "kana": "ザグスタナカシマ",
    "address": "岡山県倉敷市中島1129-1ザグスタ中島 ザグスタ中島",
    "lat": 34.5810043835787,
    "lng": 133.726704096959,
    "tel": "086-460-1922",
    "url": "http://www.zagzag.co.jp/zagstu/",
    "pref": "岡山県",
    "city": "倉敷市",
    "category": "day_service",
    "serviceType": "通所介護",
    "capacity": 0,
    "openDays": [
      "平日",
      "土曜日",
      "祝日"
    ],
    "openDaysNote": ""
  },
  {
    "id": "3370208963",
    "name": "ザグスタ北畝",
    "kana": "ザグスタキタセ",
    "address": "岡山県倉敷市北畝6丁目610-10",
    "lat": 34.5410279570774,
    "lng": 133.751730949985,
    "tel": "086-456-9547",
    "url": "http://www.zagzag.co.jp/zagstu/",
    "pref": "岡山県",
    "city": "倉敷市",
    "category": "day_service",
    "serviceType": "通所介護",
    "capacity": 0,
    "openDays": [
      "平日",
      "土曜日",
      "祝日"
    ],
    "openDaysNote": ""
  },
  {
    "id": "3370200713",
    "name": "サンバードデイサービスセンター",
    "kana": "サンバードデイサービスセンター",
    "address": "岡山県倉敷市藤戸町藤戸１５８５－１",
    "lat": 34.5582286,
    "lng": 133.8230374,
    "tel": "086-429-0218",
    "url": "http://www.fukujyu.or.jp",
    "pref": "岡山県",
    "city": "倉敷市",
    "category": "day_service",
    "serviceType": "通所介護",
    "capacity": 0,
    "openDays": [
      "平日",
      "土曜日",
      "祝日"
    ],
    "openDaysNote": ""
  },
  {
    "id": "3370209334",
    "name": "しおかぜお台場",
    "kana": "シオカゼオダイバ",
    "address": "岡山県倉敷市下津井１丁目３８７－１",
    "lat": 34.437426,
    "lng": 133.7974223,
    "tel": "086-527-8414",
    "url": "https://www.shiokaze-group.co.jp/odaiba",
    "pref": "岡山県",
    "city": "倉敷市",
    "category": "day_service",
    "serviceType": "通所介護",
    "capacity": 20,
    "openDays": [
      "平日"
    ],
    "openDaysNote": ""
  },
  {
    "id": "3370209524",
    "name": "シニアフィットネス　フォルテ道越",
    "kana": "シニアフィットネス　フォルテミチゴエ",
    "address": "岡山県倉敷市玉島道越1154-1",
    "lat": 34.5533853,
    "lng": 133.6496696,
    "tel": "086-436-6337",
    "url": "",
    "pref": "岡山県",
    "city": "倉敷市",
    "category": "day_service",
    "serviceType": "通所介護",
    "capacity": 0,
    "openDays": [
      "平日",
      "土曜日",
      "祝日"
    ],
    "openDaysNote": ""
  },
  {
    "id": "3370202826",
    "name": "しみずデイサービスセンター",
    "kana": "シミズデイサービスセンター",
    "address": "岡山県倉敷市児島駅前４-９２",
    "lat": 34.4606256,
    "lng": 133.8033234,
    "tel": "086-441-3945",
    "url": "http://ww9.tiki.ne.jp/~simizucl",
    "pref": "岡山県",
    "city": "倉敷市",
    "category": "day_service",
    "serviceType": "通所介護",
    "capacity": 40,
    "openDays": [
      "平日",
      "土曜日"
    ],
    "openDaysNote": "事業所の施設、設備等の使用に当たっては規則等を尊守しなければならない。"
  },
  {
    "id": "3370201059",
    "name": "シルバーデイサービスセンター",
    "kana": "シルバーデイサービスセンター",
    "address": "岡山県倉敷市児島柳田町３５５－８５",
    "lat": 34.4942685,
    "lng": 133.7899292,
    "tel": "086-473-5050",
    "url": "http://www.silver21.or.jp/",
    "pref": "岡山県",
    "city": "倉敷市",
    "category": "day_service",
    "serviceType": "通所介護",
    "capacity": 0,
    "openDays": [
      "平日",
      "土曜日",
      "祝日"
    ],
    "openDaysNote": "特になし"
  },
  {
    "id": "3370208864",
    "name": "タイオンデイトレ倉敷",
    "kana": "タイオンデイトレクラシキ",
    "address": "岡山県倉敷市中島3012－1",
    "lat": 34.5900722,
    "lng": 133.7374683,
    "tel": "086－486－5856",
    "url": "",
    "pref": "岡山県",
    "city": "倉敷市",
    "category": "day_service",
    "serviceType": "通所介護",
    "capacity": null,
    "openDays": [
      "平日",
      "土曜日",
      "祝日"
    ],
    "openDaysNote": "12/30.31～1/1.2.3は休業日"
  },
  {
    "id": "3370208930",
    "name": "ツクイ倉敷西阿知",
    "kana": "ツクイクラシキニシアチ",
    "address": "岡山県倉敷市西阿知町744-1",
    "lat": 34.5925863,
    "lng": 133.7316524,
    "tel": "086-460-5381",
    "url": "https://www.tsukui.net/home-care/2557/",
    "pref": "岡山県",
    "city": "倉敷市",
    "category": "day_service",
    "serviceType": "通所介護",
    "capacity": 60,
    "openDays": [
      "平日",
      "土曜日",
      "日曜日",
      "祝日"
    ],
    "openDaysNote": "１月１日のみお休みをさせて頂く可能性がございます。"
  },
  {
    "id": "3370208922",
    "name": "ツクイ倉敷中庄",
    "kana": "ツクイクラシキナカショウ",
    "address": "平田948-1",
    "lat": 34.6130342,
    "lng": 133.7844993,
    "tel": "086-435-0960",
    "url": "https://www.tsukui.net",
    "pref": "岡山県",
    "city": "倉敷市",
    "category": "day_service",
    "serviceType": "通所介護",
    "capacity": 30,
    "openDays": [
      "平日",
      "土曜日",
      "日曜日",
      "祝日"
    ],
    "openDaysNote": ""
  },
  {
    "id": "3370208906",
    "name": "ツクイ倉敷連島",
    "kana": "ツクイクラシキツラジマ",
    "address": "岡山県倉敷市連島町連島33‐2",
    "lat": 34.5659707,
    "lng": 133.744805,
    "tel": "086-460-3560",
    "url": "https://www.tsukui.net/home-care/2025/",
    "pref": "岡山県",
    "city": "倉敷市",
    "category": "day_service",
    "serviceType": "通所介護",
    "capacity": 12,
    "openDays": [
      "平日",
      "土曜日",
      "日曜日",
      "祝日"
    ],
    "openDaysNote": ""
  },
  {
    "id": "3370205647",
    "name": "デイサービス　かがやき",
    "kana": "デイサービス　カガヤキ",
    "address": "岡山県倉敷市児島稗田町１７０７",
    "lat": 34.5005095,
    "lng": 133.8089001,
    "tel": "０８６－４４１－３０１２",
    "url": "http://www.sun-glow.biz",
    "pref": "岡山県",
    "city": "倉敷市",
    "category": "day_service",
    "serviceType": "通所介護",
    "capacity": 35,
    "openDays": [
      "平日",
      "祝日"
    ],
    "openDaysNote": ""
  },
  {
    "id": "3370205183",
    "name": "デイサービス　せいわ",
    "kana": "デイサービス　セイワ",
    "address": "岡山県倉敷市中島770-1",
    "lat": 34.5798919466497,
    "lng": 133.739756619157,
    "tel": "086-460-0010",
    "url": "http://www.seiwakai-net.or.jp/",
    "pref": "岡山県",
    "city": "倉敷市",
    "category": "day_service",
    "serviceType": "通所介護",
    "capacity": 35,
    "openDays": [
      "平日",
      "土曜日",
      "祝日"
    ],
    "openDaysNote": "祝日の営業をしております。"
  },
  {
    "id": "3370208757",
    "name": "デイサービス　ネクストケア",
    "kana": "デイサービス　ネクストケア",
    "address": "岡山県倉敷市亀山668-1",
    "lat": 34.5880406528907,
    "lng": 133.801777430936,
    "tel": "086-429-2656",
    "url": "http://www.nextcare.co.jp",
    "pref": "岡山県",
    "city": "倉敷市",
    "category": "day_service",
    "serviceType": "通所介護",
    "capacity": 0,
    "openDays": [
      "平日",
      "土曜日",
      "祝日"
    ],
    "openDaysNote": ""
  },
  {
    "id": "3370207544",
    "name": "デイサービス　まび",
    "kana": "デイサービス　マビ",
    "address": "岡山県倉敷市真備町箭田4114-6",
    "lat": 34.627145501325,
    "lng": 133.685332579936,
    "tel": "086-697-1805",
    "url": "http://care-one.moo.jp/",
    "pref": "岡山県",
    "city": "倉敷市",
    "category": "day_service",
    "serviceType": "通所介護",
    "capacity": 0,
    "openDays": [
      "平日",
      "土曜日",
      "日曜日",
      "祝日"
    ],
    "openDaysNote": ""
  },
  {
    "id": "3370209193",
    "name": "デイサービスアイボリー玉島",
    "kana": "デイサービスアイボリータマシマ",
    "address": "岡山県倉敷市玉島1334番地の1",
    "lat": 34.5490064,
    "lng": 133.6829842,
    "tel": "086-525-0103",
    "url": "",
    "pref": "岡山県",
    "city": "倉敷市",
    "category": "day_service",
    "serviceType": "通所介護",
    "capacity": 30,
    "openDays": [
      "平日",
      "土曜日",
      "祝日"
    ],
    "openDaysNote": ""
  },
  {
    "id": "3370208591",
    "name": "デイサービスいろり",
    "kana": "デイサービスイロリ",
    "address": "岡山県倉敷市吉岡171-27",
    "lat": 34.5661581024535,
    "lng": 133.76613694667,
    "tel": "086－441-3351",
    "url": "",
    "pref": "岡山県",
    "city": "倉敷市",
    "category": "day_service",
    "serviceType": "通所介護",
    "capacity": 0,
    "openDays": [
      "平日",
      "土曜日",
      "祝日"
    ],
    "openDaysNote": ""
  },
  {
    "id": "3370209300",
    "name": "デイサービスいろり笑楽",
    "kana": "デイサービスイロリワラク",
    "address": "吉岡171－17",
    "lat": null,
    "lng": null,
    "tel": "086－454-6366",
    "url": "",
    "pref": "岡山県",
    "city": "倉敷市",
    "category": "day_service",
    "serviceType": "通所介護",
    "capacity": null,
    "openDays": [
      "平日",
      "土曜日",
      "祝日"
    ],
    "openDaysNote": ""
  },
  {
    "id": "3370201448",
    "name": "デイサービスセンター　オパール",
    "kana": "デイサービスセンター　オパール",
    "address": "岡山県倉敷市福田町福田２３４－１",
    "lat": 34.5390273,
    "lng": 133.7751936,
    "tel": "086-450-1188",
    "url": "http://www.jpk.or.jp/",
    "pref": "岡山県",
    "city": "倉敷市",
    "category": "day_service",
    "serviceType": "通所介護",
    "capacity": 25,
    "openDays": [
      "平日",
      "祝日"
    ],
    "openDaysNote": "土曜・日曜は休み。（改行）祝祭日は営業。"
  },
  {
    "id": "3370201323",
    "name": "デイサービスセンター　グリーンピア瀬戸内",
    "kana": "デイサービスセンター　グリーンピアセトウチ",
    "address": "岡山県倉敷市玉島陶８５６－１",
    "lat": 34.5874795996248,
    "lng": 133.67622282209,
    "tel": "086-525-1234",
    "url": "http://www.setouchifukushi.jp/greenpia/",
    "pref": "岡山県",
    "city": "倉敷市",
    "category": "day_service",
    "serviceType": "通所介護",
    "capacity": 0,
    "openDays": [
      "平日",
      "土曜日",
      "祝日"
    ],
    "openDaysNote": "電話等により、２４時間常時連絡が可能"
  },
  {
    "id": "3370203527",
    "name": "デイサービスセンター　げんき",
    "kana": "デイサービスセンター　ゲンキ",
    "address": "岡山県倉敷市玉島1738",
    "lat": 34.5541467,
    "lng": 133.6822071,
    "tel": "086-525-5050",
    "url": "",
    "pref": "岡山県",
    "city": "倉敷市",
    "category": "day_service",
    "serviceType": "通所介護",
    "capacity": 0,
    "openDays": [
      "平日",
      "土曜日",
      "祝日"
    ],
    "openDaysNote": "サービス提供時間　9:00～16:30"
  },
  {
    "id": "3370208476",
    "name": "デイサービスセンター　さち",
    "kana": "デイサービスセンター　サチ",
    "address": "亀島１丁目２４－１７",
    "lat": 34.5375838,
    "lng": 133.7304048,
    "tel": "086-444-1162",
    "url": "",
    "pref": "岡山県",
    "city": "倉敷市",
    "category": "day_service",
    "serviceType": "通所介護",
    "capacity": null,
    "openDays": [
      "平日",
      "土曜日",
      "祝日"
    ],
    "openDaysNote": "１月１日から１月３日のサービス提供時間は、午前９時から午後３時までとする"
  },
  {
    "id": "3370205043",
    "name": "デイサービスセンター　すまいる",
    "kana": "デイサービスセンター　スマイル",
    "address": "岡山県倉敷市藤戸町藤戸1416-8",
    "lat": 34.5590448801477,
    "lng": 133.82053487351,
    "tel": "086-420-1765",
    "url": "https://kaigoichiba.com/",
    "pref": "岡山県",
    "city": "倉敷市",
    "category": "day_service",
    "serviceType": "通所介護",
    "capacity": 14,
    "openDays": [
      "平日",
      "土曜日",
      "祝日"
    ],
    "openDaysNote": ""
  },
  {
    "id": "3370203717",
    "name": "デイサービスセンター　みどりのかぜ",
    "kana": "デイサービスセンター　ミドリノカゼ",
    "address": "岡山県倉敷市福田町古新田813-7",
    "lat": 34.5401354,
    "lng": 133.7689023,
    "tel": "086-450-2228",
    "url": "http://green0wind.web.fc2.com/",
    "pref": "岡山県",
    "city": "倉敷市",
    "category": "day_service",
    "serviceType": "通所介護",
    "capacity": 0,
    "openDays": [
      "平日",
      "土曜日",
      "祝日"
    ],
    "openDaysNote": "特になし"
  },
  {
    "id": "3370204483",
    "name": "デイサービスセンター　太陽",
    "kana": "デイサービスセンター　タイヨウ",
    "address": "岡山県倉敷市茶屋町695-6",
    "lat": 34.5759849,
    "lng": 133.82995,
    "tel": "086-420-1400",
    "url": "http://okayama-taiyo.jp",
    "pref": "岡山県",
    "city": "倉敷市",
    "category": "day_service",
    "serviceType": "通所介護",
    "capacity": 0,
    "openDays": [
      "平日",
      "土曜日",
      "祝日"
    ],
    "openDaysNote": ""
  },
  {
    "id": "3370201018",
    "name": "デイサービスセンターアミカル",
    "kana": "デイサービスセンターアミカル",
    "address": "岡山県倉敷市玉島１２７５－１",
    "lat": 34.548875,
    "lng": 133.6836237,
    "tel": "086-526-8827",
    "url": "http://www.uzukikai1980.jp/",
    "pref": "岡山県",
    "city": "倉敷市",
    "category": "day_service",
    "serviceType": "通所介護",
    "capacity": 30,
    "openDays": [
      "平日",
      "土曜日",
      "祝日"
    ],
    "openDaysNote": ""
  },
  {
    "id": "3370206629",
    "name": "デイサービスセンターくすの木",
    "kana": "デサービスセンタークスノキ",
    "address": "倉敷市中島278-6",
    "lat": 34.5851967,
    "lng": 133.7396921,
    "tel": "086-460-1213",
    "url": "",
    "pref": "岡山県",
    "city": "倉敷市",
    "category": "day_service",
    "serviceType": "通所介護",
    "capacity": 0,
    "openDays": [
      "平日",
      "土曜日",
      "祝日"
    ],
    "openDaysNote": ""
  },
  {
    "id": "3370207304",
    "name": "デイサービスセンターこはる日和",
    "kana": "デイサービスセンターコハルビヨリ",
    "address": "岡山県倉敷市玉島柏島920-14",
    "lat": 34.5336449627295,
    "lng": 133.664265982278,
    "tel": "086-522-8787",
    "url": "",
    "pref": "岡山県",
    "city": "倉敷市",
    "category": "day_service",
    "serviceType": "通所介護",
    "capacity": 0,
    "openDays": [
      "平日",
      "土曜日",
      "祝日"
    ],
    "openDaysNote": "年末年始（12/31～1/3）を除く。"
  },
  {
    "id": "3370201265",
    "name": "デイサービスセンターさんらいふ",
    "kana": "デイサービスセンターサンライフ",
    "address": "岡山県倉敷市下庄７０１-１０",
    "lat": 34.6365754,
    "lng": 133.8241388,
    "tel": "086-462-7111",
    "url": "http://www.sun-toshi-life.or.jp/",
    "pref": "岡山県",
    "city": "倉敷市",
    "category": "day_service",
    "serviceType": "通所介護",
    "capacity": 0,
    "openDays": [
      "平日",
      "土曜日",
      "祝日"
    ],
    "openDaysNote": "特になし"
  },
  {
    "id": "3370206199",
    "name": "デイサービスセンターしおかぜアクアジム",
    "kana": "デイサービスセンターシオカゼアクアジム",
    "address": "倉敷市児島田の口1丁目5番30号",
    "lat": 34.4775353,
    "lng": 133.8349734,
    "tel": "086-477-5800",
    "url": "http://www.shiokaze-group.jp/",
    "pref": "岡山県",
    "city": "倉敷市",
    "category": "day_service",
    "serviceType": "通所介護",
    "capacity": 0,
    "openDays": [
      "平日",
      "祝日"
    ],
    "openDaysNote": ""
  },
  {
    "id": "3370204160",
    "name": "デイサービスセンターしおかぜ下津井",
    "kana": "デイサービスセンターシオカゼシモツイ",
    "address": "岡山県倉敷市下津井1482番地18総合ケアセンターしおかぜ 総合ケアセンターしおかぜ",
    "lat": 34.4484767,
    "lng": 133.7847392,
    "tel": "086-479-7155",
    "url": "http://www.shiokaze-group.jp/ds_shimotsui/",
    "pref": "岡山県",
    "city": "倉敷市",
    "category": "day_service",
    "serviceType": "通所介護",
    "capacity": 0,
    "openDays": [
      "平日",
      "土曜日",
      "祝日"
    ],
    "openDaysNote": ""
  },
  {
    "id": "3370201083",
    "name": "デイサービスセンターしおかぜ城山",
    "kana": "デイサービスセンターシオカゼシロヤマ",
    "address": "岡山県倉敷市下津井１－５－５４",
    "lat": 34.4395723,
    "lng": 133.7987745,
    "tel": "086-470-4141",
    "url": "http://www.shiokaze-group.jp/",
    "pref": "岡山県",
    "city": "倉敷市",
    "category": "day_service",
    "serviceType": "通所介護",
    "capacity": 40,
    "openDays": [
      "平日",
      "土曜日",
      "祝日"
    ],
    "openDaysNote": "日曜日を除く12月31日～1月3日"
  },
  {
    "id": "3370203691",
    "name": "デイサービスセンターテレサ",
    "kana": "デイサービスセンターテレサ",
    "address": "岡山県倉敷市青江８５１－１",
    "lat": 34.6122137,
    "lng": 133.7573567,
    "tel": "086-426-0500",
    "url": "http://cocoteresa.jp/",
    "pref": "岡山県",
    "city": "倉敷市",
    "category": "day_service",
    "serviceType": "通所介護",
    "capacity": 75,
    "openDays": [
      "平日",
      "土曜日",
      "日曜日",
      "祝日"
    ],
    "openDaysNote": "特になし"
  },
  {
    "id": "3370209128",
    "name": "デイサービスセンターひまわり",
    "kana": "デイサービスセンターヒマワリ",
    "address": "岡山県倉敷市真備町川辺２０７６",
    "lat": 34.6353812,
    "lng": 133.7098374,
    "tel": "086-698-0036",
    "url": "http://himawari-nr.com",
    "pref": "岡山県",
    "city": "倉敷市",
    "category": "day_service",
    "serviceType": "通所介護",
    "capacity": 25,
    "openDays": [
      "平日",
      "土曜日",
      "祝日"
    ],
    "openDaysNote": "特になし"
  },
  {
    "id": "3370205357",
    "name": "デイサービスセンター我が家",
    "kana": "デイサービスセンターワガヤ",
    "address": "岡山県倉敷市西富井６５４－６",
    "lat": 34.5763789521368,
    "lng": 133.745845509787,
    "tel": "086-441-0028",
    "url": "https://jecs-gr.jp/",
    "pref": "岡山県",
    "city": "倉敷市",
    "category": "day_service",
    "serviceType": "通所介護",
    "capacity": 80,
    "openDays": [
      "平日",
      "土曜日",
      "祝日"
    ],
    "openDaysNote": ""
  },
  {
    "id": "3370206314",
    "name": "デイサービスセンター楽一",
    "kana": "デイサービスセンターラクイチ",
    "address": "倉敷市水島北緑町８－１２",
    "lat": 34.5494392,
    "lng": 133.7442566,
    "tel": "086-454-5363",
    "url": "",
    "pref": "岡山県",
    "city": "倉敷市",
    "category": "day_service",
    "serviceType": "通所介護",
    "capacity": 132,
    "openDays": [
      "平日",
      "土曜日",
      "祝日"
    ],
    "openDaysNote": "月曜日～土曜日営業し、祝日も営業しています。（改行）お盆休暇、年末年始の休暇のみとなります。"
  },
  {
    "id": "3370202057",
    "name": "デイサービスセンター東倉敷",
    "kana": "デイサービスセンターヒガシクラシキ",
    "address": "岡山県倉敷市新田２６０５－４",
    "lat": 34.5752032,
    "lng": 133.7729871,
    "tel": "086-427-8860",
    "url": "https://www.keiyuu-kai.or.jp/",
    "pref": "岡山県",
    "city": "倉敷市",
    "category": "day_service",
    "serviceType": "通所介護",
    "capacity": 29,
    "openDays": [
      "平日",
      "土曜日"
    ],
    "openDaysNote": ""
  },
  {
    "id": "3370201109",
    "name": "デイサービスセンター浮洲園",
    "kana": "デイサービスセンターウキスエン",
    "address": "岡山県倉敷市粒江２５００‐１",
    "lat": 34.5616848522259,
    "lng": 133.803065190803,
    "tel": "086-429-3311",
    "url": "http://www.ukisuen.com",
    "pref": "岡山県",
    "city": "倉敷市",
    "category": "day_service",
    "serviceType": "通所介護",
    "capacity": 130,
    "openDays": [
      "平日",
      "土曜日",
      "祝日"
    ],
    "openDaysNote": ""
  },
  {
    "id": "3372700611",
    "name": "デイサービスふなお",
    "kana": "デイサービスフナオ",
    "address": "岡山県倉敷市船穂町船穂1953-1",
    "lat": 34.5802222,
    "lng": 133.69858,
    "tel": "086-552-5220",
    "url": "http://care-one.moo.jp/",
    "pref": "岡山県",
    "city": "倉敷市",
    "category": "day_service",
    "serviceType": "通所介護",
    "capacity": 0,
    "openDays": [
      "平日",
      "土曜日",
      "祝日"
    ],
    "openDaysNote": "特になし"
  },
  {
    "id": "3370205555",
    "name": "デイサービス亀ちゃんち",
    "kana": "デイサービスカメチャンチ",
    "address": "岡山県倉敷市玉島勇崎７４２番地６",
    "lat": 34.5218807,
    "lng": 133.6479752,
    "tel": "086-528-9005",
    "url": "",
    "pref": "岡山県",
    "city": "倉敷市",
    "category": "day_service",
    "serviceType": "通所介護",
    "capacity": 0,
    "openDays": [
      "平日",
      "土曜日",
      "祝日"
    ],
    "openDaysNote": ""
  },
  {
    "id": "3370203535",
    "name": "デイサービス香り",
    "kana": "デイサービスカオリ",
    "address": "岡山県倉敷市福田町古新田1051番1",
    "lat": 34.5348758,
    "lng": 133.7716732,
    "tel": "086-450-4500",
    "url": "http://www.wakokai.com/",
    "pref": "岡山県",
    "city": "倉敷市",
    "category": "day_service",
    "serviceType": "通所介護",
    "capacity": 10,
    "openDays": [
      "平日",
      "土曜日",
      "日曜日",
      "祝日"
    ],
    "openDaysNote": "特になし"
  },
  {
    "id": "3370206983",
    "name": "デイサービス昭和会",
    "kana": "デイサービスショウワカイ",
    "address": "青江９０８番地１メディカ倉敷北 メディカ倉敷北",
    "lat": 34.6161328,
    "lng": 133.7561206,
    "tel": "086-426-8111",
    "url": "http://medica-kurashiki.org",
    "pref": "岡山県",
    "city": "倉敷市",
    "category": "day_service",
    "serviceType": "通所介護",
    "capacity": 0,
    "openDays": [
      "平日",
      "土曜日",
      "祝日"
    ],
    "openDaysNote": "年末年始休業（12/31～1/2）"
  },
  {
    "id": "3370208229",
    "name": "デイサービス新倉敷良寛の杜",
    "kana": "デイサービスシンクラシキリョウカンノモリ",
    "address": "岡山県倉敷市玉島八島1555",
    "lat": 34.5648759481834,
    "lng": 133.673710464418,
    "tel": "086-526-5551",
    "url": "http://www.ryokan-kaigo.com/index.html",
    "pref": "岡山県",
    "city": "倉敷市",
    "category": "day_service",
    "serviceType": "通所介護",
    "capacity": 40,
    "openDays": [
      "平日",
      "土曜日",
      "祝日"
    ],
    "openDaysNote": "延長時間は、１５時１５分から１７時００分までとする。"
  },
  {
    "id": "3370202966",
    "name": "デイサービス倉敷",
    "kana": "デイサービスクラシキ",
    "address": "岡山県倉敷市羽島1000-2",
    "lat": 34.599101,
    "lng": 133.7819831,
    "tel": "086-435-6600",
    "url": "http://www13.ocn.ne.jp/~kiryuen/main.html",
    "pref": "岡山県",
    "city": "倉敷市",
    "category": "day_service",
    "serviceType": "通所介護",
    "capacity": 30,
    "openDays": [
      "平日",
      "土曜日",
      "祝日"
    ],
    "openDaysNote": ""
  },
  {
    "id": "3370202180",
    "name": "ニチイケアセンター大高",
    "kana": "ニチイケアセンターオオタカ",
    "address": "岡山県倉敷市福井46-5",
    "lat": 34.5705508,
    "lng": 133.7537024,
    "tel": "086-435-1282",
    "url": "http:/www/nichiigakkan.co.jp",
    "pref": "岡山県",
    "city": "倉敷市",
    "category": "day_service",
    "serviceType": "通所介護",
    "capacity": 0,
    "openDays": [
      "平日",
      "土曜日",
      "日曜日",
      "祝日"
    ],
    "openDaysNote": ""
  },
  {
    "id": "3370205688",
    "name": "はあもにいデイ・フィットネス",
    "kana": "ハアモニイデイ・フィットネス",
    "address": "倉敷市羽島666-1",
    "lat": 34.596043,
    "lng": 133.7791584,
    "tel": "086-434-9039",
    "url": "http://www.harmony-k.jp",
    "pref": "岡山県",
    "city": "倉敷市",
    "category": "day_service",
    "serviceType": "通所介護",
    "capacity": 0,
    "openDays": [
      "平日"
    ],
    "openDaysNote": ""
  },
  {
    "id": "3370209532",
    "name": "はあもにいデイ・フィットネス",
    "kana": "ハアモニイデイ・フィットネス",
    "address": "倉敷市羽島666-1",
    "lat": 34.5961186,
    "lng": 133.7792254,
    "tel": "086-434-9039",
    "url": "https://www.harmony-k.jp/day",
    "pref": "岡山県",
    "city": "倉敷市",
    "category": "day_service",
    "serviceType": "通所介護",
    "capacity": 0,
    "openDays": [
      "平日"
    ],
    "openDaysNote": ""
  },
  {
    "id": "3370201232",
    "name": "みどり荘デイサービスセンター",
    "kana": "ミドリソウデイサービスセンター",
    "address": "岡山県倉敷市神田２丁目３番３号",
    "lat": 34.541165,
    "lng": 133.7383713,
    "tel": "086-448-7545",
    "url": "http://kunpoo.jp/",
    "pref": "岡山県",
    "city": "倉敷市",
    "category": "day_service",
    "serviceType": "通所介護",
    "capacity": 35,
    "openDays": [
      "平日",
      "土曜日",
      "祝日"
    ],
    "openDaysNote": ""
  },
  {
    "id": "3370205241",
    "name": "みどり荘デイサービスセンターわかば",
    "kana": "ミドリソウデイサービスセンターワカバ",
    "address": "岡山県倉敷市連島1丁目1－15",
    "lat": 34.5434314,
    "lng": 133.7381296,
    "tel": "086-444-1151",
    "url": "http://www.kunpoo.jp/",
    "pref": "岡山県",
    "city": "倉敷市",
    "category": "day_service",
    "serviceType": "通所介護",
    "capacity": 35,
    "openDays": [
      "平日",
      "土曜日",
      "祝日"
    ],
    "openDaysNote": ""
  },
  {
    "id": "3370206652",
    "name": "リハビリステーション　ピース",
    "kana": "リハビリステーション　ピース",
    "address": "岡山県倉敷市白楽町４０ピースガーデン倉敷　１階 ピースガーデン倉敷　１階",
    "lat": 34.5907518,
    "lng": 133.7649871,
    "tel": "０８６－４２３－２００１",
    "url": "http://www.heisei.or.jp/",
    "pref": "岡山県",
    "city": "倉敷市",
    "category": "day_service",
    "serviceType": "通所介護",
    "capacity": 65,
    "openDays": [
      "平日",
      "日曜日",
      "祝日"
    ],
    "openDaysNote": ""
  },
  {
    "id": "3370209342",
    "name": "わきあいあい",
    "kana": "ワキアイアイ",
    "address": "岡山県倉敷市庄新町9-3-6",
    "lat": 34.6606241,
    "lng": 133.8260776,
    "tel": "086-461-0015",
    "url": "https://cumre.or.jp/",
    "pref": "岡山県",
    "city": "倉敷市",
    "category": "day_service",
    "serviceType": "通所介護",
    "capacity": 0,
    "openDays": [
      "平日",
      "土曜日",
      "祝日"
    ],
    "openDaysNote": ""
  },
  {
    "id": "3370201307",
    "name": "王慈園デイサービスセンター",
    "kana": "オウジエンデイサービスセンター",
    "address": "岡山県倉敷市児島下の町５丁目２番１７号",
    "lat": 34.4776046,
    "lng": 133.8216798,
    "tel": "086-473-9000",
    "url": "http://www.ohji.ne.jp",
    "pref": "岡山県",
    "city": "倉敷市",
    "category": "day_service",
    "serviceType": "通所介護",
    "capacity": 0,
    "openDays": [
      "平日",
      "土曜日",
      "日曜日",
      "祝日"
    ],
    "openDaysNote": ""
  },
  {
    "id": "3370209318",
    "name": "共生デイ　アルク",
    "kana": "キョウセイデイ　アルク",
    "address": "岡山県倉敷市玉島乙島7183‐1ケアグラン乙島 ケアグラン乙島",
    "lat": 34.5316693,
    "lng": 133.6806995,
    "tel": "086-522-0072",
    "url": "https://www.tomicare.com/data/554/facility_detail/",
    "pref": "岡山県",
    "city": "倉敷市",
    "category": "day_service",
    "serviceType": "通所介護",
    "capacity": 0,
    "openDays": [
      "平日",
      "土曜日",
      "祝日"
    ],
    "openDaysNote": "水曜日のみ　１３時３０分～１６時３５分"
  },
  {
    "id": "3373000045",
    "name": "後楽デイサービスセンター",
    "kana": "コウラクデイサービスセンター",
    "address": "岡山県倉敷市真備町箭田２１５９番地",
    "lat": 34.6404078839863,
    "lng": 133.686118096959,
    "tel": "086-698-7878",
    "url": "http://www.kouraku.or.jp/",
    "pref": "岡山県",
    "city": "倉敷市",
    "category": "day_service",
    "serviceType": "通所介護",
    "capacity": 0,
    "openDays": [
      "平日",
      "土曜日",
      "祝日"
    ],
    "openDaysNote": ""
  },
  {
    "id": "3370205894",
    "name": "杓永整形外科デイサービスセンター",
    "kana": "シャクナガセイケイゲカデイサービスセンター",
    "address": "倉敷市児島柳田町630-1",
    "lat": 34.4910485142738,
    "lng": 133.800569575463,
    "tel": "086-473-7800",
    "url": "",
    "pref": "岡山県",
    "city": "倉敷市",
    "category": "day_service",
    "serviceType": "通所介護",
    "capacity": 26,
    "openDays": [
      "平日",
      "土曜日"
    ],
    "openDaysNote": "お盆休み：8月13日～15日　　（改行）正月休み：12月30日～1月3日"
  },
  {
    "id": "3370209086",
    "name": "庄の里デイサービスセンター",
    "kana": "ショウノサトデイサービスセンター",
    "address": "岡山県倉敷市山地1297番地",
    "lat": 34.6519998,
    "lng": 133.8155267,
    "tel": "086-461-0034",
    "url": "http://www.syounosato.or.jp/",
    "pref": "岡山県",
    "city": "倉敷市",
    "category": "day_service",
    "serviceType": "通所介護",
    "capacity": 0,
    "openDays": [
      "平日",
      "土曜日",
      "祝日"
    ],
    "openDaysNote": ""
  },
  {
    "id": "3370206116",
    "name": "心ふぁみりーデイサービスセンター中島",
    "kana": "ココファミリーデイサービスセンターナカシマ",
    "address": "倉敷市中島1833-1心介護センター中島内 心介護センター中島内",
    "lat": 34.574044008491,
    "lng": 133.72755256814,
    "tel": "086-466-4165",
    "url": "www.coco-rimaru.co.jp",
    "pref": "岡山県",
    "city": "倉敷市",
    "category": "day_service",
    "serviceType": "通所介護",
    "capacity": 28,
    "openDays": [
      "平日",
      "土曜日",
      "日曜日",
      "祝日"
    ],
    "openDaysNote": ""
  },
  {
    "id": "3370200994",
    "name": "杉の子デイサービスセンター",
    "kana": "スギノコデイサービスセンター",
    "address": "岡山県倉敷市徳芳５０４番地",
    "lat": 34.6217049,
    "lng": 133.8127944,
    "tel": "086-463-3608",
    "url": "http://yotsubakai.or.jp",
    "pref": "岡山県",
    "city": "倉敷市",
    "category": "day_service",
    "serviceType": "通所介護",
    "capacity": 0,
    "openDays": [
      "平日",
      "土曜日",
      "祝日"
    ],
    "openDaysNote": ""
  },
  {
    "id": "3370201422",
    "name": "浅原桃花園デイサービスセンター",
    "kana": "アサバラトウカエンデイサービスセンター",
    "address": "岡山県倉敷市浅原３８０番地２",
    "lat": 34.6272707,
    "lng": 133.7686032,
    "tel": "086-462-0020",
    "url": "http://www.asabaratoukaen.com/",
    "pref": "岡山県",
    "city": "倉敷市",
    "category": "day_service",
    "serviceType": "通所介護",
    "capacity": 0,
    "openDays": [
      "平日",
      "土曜日"
    ],
    "openDaysNote": ""
  },
  {
    "id": "3372700363",
    "name": "船穂町デイサービスセンター",
    "kana": "フナオチョウデイサービスセンター",
    "address": "岡山県倉敷市船穂町船穂１８６１番地１倉敷市船穂町高齢者福祉センター 倉敷市船穂町高齢者福祉センター",
    "lat": 34.5820415,
    "lng": 133.6973106,
    "tel": "086-552-5200",
    "url": "http://www.fukushiokayama.or.jp/Funao/funao.htm",
    "pref": "岡山県",
    "city": "倉敷市",
    "category": "day_service",
    "serviceType": "通所介護",
    "capacity": 0,
    "openDays": [
      "平日",
      "祝日"
    ],
    "openDaysNote": ""
  },
  {
    "id": "3370206793",
    "name": "創心会リハビリ倶楽部玉島",
    "kana": "ソウシンカイリハビリクラブタマシマ",
    "address": "新倉敷駅前5丁目208",
    "lat": 34.5580464,
    "lng": 133.6771937,
    "tel": "086-523-0033",
    "url": "",
    "pref": "岡山県",
    "city": "倉敷市",
    "category": "day_service",
    "serviceType": "通所介護",
    "capacity": 0,
    "openDays": [
      "平日",
      "土曜日",
      "祝日"
    ],
    "openDaysNote": "年末年始12/31～1/3まで休み"
  },
  {
    "id": "3370204301",
    "name": "創心会リハビリ倶楽部笹沖",
    "kana": "ソウシンカイ　リハビリクラブ　ササオキ",
    "address": "岡山県倉敷市笹沖117",
    "lat": 34.5731645,
    "lng": 133.7613851,
    "tel": "086-423-7088",
    "url": "http://www.soushinkai.com",
    "pref": "岡山県",
    "city": "倉敷市",
    "category": "day_service",
    "serviceType": "通所介護",
    "capacity": 35,
    "openDays": [
      "平日",
      "土曜日",
      "祝日"
    ],
    "openDaysNote": "特になし"
  },
  {
    "id": "3370204350",
    "name": "創心会リハビリ倶楽部児島",
    "kana": "ソウシンカイリハビリクラブコジマ",
    "address": "倉敷市児島小川8-1-8",
    "lat": 34.4842782,
    "lng": 133.7991704,
    "tel": "086-474-8845",
    "url": "http://www.soushinkai.com",
    "pref": "岡山県",
    "city": "倉敷市",
    "category": "day_service",
    "serviceType": "通所介護",
    "capacity": 35,
    "openDays": [
      "平日",
      "土曜日",
      "祝日"
    ],
    "openDaysNote": ""
  },
  {
    "id": "3370204442",
    "name": "創心会リハビリ倶楽部水島",
    "kana": "ソウシンカイリハビリクラブミズシマ",
    "address": "岡山県倉敷市神田2-1-46",
    "lat": 34.5380336946983,
    "lng": 133.737121904893,
    "tel": "086-447-8224",
    "url": "http://www.soushinkai.com",
    "pref": "岡山県",
    "city": "倉敷市",
    "category": "day_service",
    "serviceType": "通所介護",
    "capacity": 45,
    "openDays": [
      "平日",
      "土曜日",
      "祝日"
    ],
    "openDaysNote": "特に無し"
  },
  {
    "id": "3370204293",
    "name": "創心会リハビリ倶楽部茶屋町",
    "kana": "ソウシンカイリハビリクラブチャヤマチ",
    "address": "岡山県倉敷市茶屋町２１０４－１",
    "lat": 34.5834535,
    "lng": 133.8245358,
    "tel": "086-420-1501",
    "url": "http://www.soushinkai.com/",
    "pref": "岡山県",
    "city": "倉敷市",
    "category": "day_service",
    "serviceType": "通所介護",
    "capacity": 0,
    "openDays": [
      "平日",
      "土曜日",
      "祝日"
    ],
    "openDaysNote": ""
  },
  {
    "id": "3370204822",
    "name": "創心会リハビリ倶楽部中洲",
    "kana": "ソウシンカイリハビリクラブナカス",
    "address": "倉敷市水江１５１０－１",
    "lat": 34.5928294,
    "lng": 133.7437276,
    "tel": "086-460-1122",
    "url": "http://www.soushinkai.com",
    "pref": "岡山県",
    "city": "倉敷市",
    "category": "day_service",
    "serviceType": "通所介護",
    "capacity": 55,
    "openDays": [
      "平日",
      "土曜日",
      "祝日"
    ],
    "openDaysNote": ""
  },
  {
    "id": "3370204970",
    "name": "創心会元気デザイン倶楽部",
    "kana": "ソウシンカイゲンキデザインクラブ",
    "address": "岡山県倉敷市笹沖117",
    "lat": 34.5731645,
    "lng": 133.7613823,
    "tel": "086-430-0350",
    "url": "http://www.soushinkai.com",
    "pref": "岡山県",
    "city": "倉敷市",
    "category": "day_service",
    "serviceType": "通所介護",
    "capacity": 60,
    "openDays": [
      "平日",
      "土曜日",
      "祝日"
    ],
    "openDaysNote": ""
  },
  {
    "id": "3370208534",
    "name": "創心会元気デザイン俱楽部茶屋町",
    "kana": "ソウシンカイゲンキデザインクラブチャヤマチ",
    "address": "岡山県倉敷市茶屋町2102-1創心会メディケアセンター 創心会メディケアセンター",
    "lat": 34.5836777,
    "lng": 133.8241194,
    "tel": "086-428-9100",
    "url": "",
    "pref": "岡山県",
    "city": "倉敷市",
    "category": "day_service",
    "serviceType": "通所介護",
    "capacity": 0,
    "openDays": [
      "平日"
    ],
    "openDaysNote": ""
  },
  {
    "id": "3370207775",
    "name": "創心会百年煌倶楽部茶屋町",
    "kana": "ソウシンカイヒャクネンキラメキクラブチャヤマチ",
    "address": "岡山県倉敷市茶屋町１７２０－１",
    "lat": 34.5839626283099,
    "lng": 133.825230192096,
    "tel": "086-420-0024",
    "url": "http://www.soushinkai.com/home/",
    "pref": "岡山県",
    "city": "倉敷市",
    "category": "day_service",
    "serviceType": "通所介護",
    "capacity": 0,
    "openDays": [
      "平日",
      "土曜日",
      "祝日"
    ],
    "openDaysNote": ""
  },
  {
    "id": "3370205571",
    "name": "倉敷ケアセンター両備サン・オークス",
    "kana": "クラシキケアセンターリョウビサン・オークス",
    "address": "岡山県倉敷市中島1551－1",
    "lat": 34.5780751,
    "lng": 133.7326346,
    "tel": "086-460-3355",
    "url": "http://www.ryobi-hc.jp",
    "pref": "岡山県",
    "city": "倉敷市",
    "category": "day_service",
    "serviceType": "通所介護",
    "capacity": 40,
    "openDays": [
      "平日",
      "土曜日",
      "日曜日",
      "祝日"
    ],
    "openDaysNote": "特になし"
  },
  {
    "id": "3370201091",
    "name": "倉敷中央デイサービスセンター",
    "kana": "クラシキチュウオウデイサービスセンター",
    "address": "岡山県倉敷市鶴形1-9-7",
    "lat": 34.6017647,
    "lng": 133.7720114,
    "tel": "086-430-6704",
    "url": "http://www.kchnet.or.jp/care",
    "pref": "岡山県",
    "city": "倉敷市",
    "category": "day_service",
    "serviceType": "通所介護",
    "capacity": 40,
    "openDays": [
      "平日",
      "土曜日",
      "祝日"
    ],
    "openDaysNote": "特になし"
  },
  {
    "id": "3370204996",
    "name": "第二富田デイサービスセンター",
    "kana": "ダイニトミタデイサービスセンター",
    "address": "岡山県倉敷市玉島道口2752-1富田の里 富田の里",
    "lat": 34.5668957,
    "lng": 133.6514518,
    "tel": "086-522-8330",
    "url": "http://www.tamatele.ne.jp/~tomitakea/",
    "pref": "岡山県",
    "city": "倉敷市",
    "category": "day_service",
    "serviceType": "通所介護",
    "capacity": 0,
    "openDays": [
      "平日",
      "土曜日",
      "日曜日",
      "祝日"
    ],
    "openDaysNote": ""
  },
  {
    "id": "3370208161",
    "name": "通所介護事業所　さん・じむ　下庄",
    "kana": "ツウショカイゴジギョウショ　サン・ジム　シモショウ",
    "address": "岡山県倉敷市下庄715番地2",
    "lat": 34.6368726,
    "lng": 133.8264747,
    "tel": "086-464-5551",
    "url": "http://www.sun-toshi-life.or.jp/",
    "pref": "岡山県",
    "city": "倉敷市",
    "category": "day_service",
    "serviceType": "通所介護",
    "capacity": 0,
    "openDays": [
      "平日",
      "土曜日",
      "祝日"
    ],
    "openDaysNote": "特になし"
  },
  {
    "id": "3370208989",
    "name": "通所介護事業所　さん・じむ生坂",
    "kana": "ツウショカイゴジギョウショ　サン・ジムイクサカ",
    "address": "岡山県倉敷市生坂492-6",
    "lat": 34.6277303335823,
    "lng": 133.785615825795,
    "tel": "086-464-6651",
    "url": "http://www.sun-toshi-life.or.jp/",
    "pref": "岡山県",
    "city": "倉敷市",
    "category": "day_service",
    "serviceType": "通所介護",
    "capacity": 0,
    "openDays": [
      "平日",
      "土曜日",
      "祝日"
    ],
    "openDaysNote": "特になし"
  },
  {
    "id": "3370203170",
    "name": "渡辺医院デイサービスセンター",
    "kana": "ワタナベイインデイサービスセンター",
    "address": "岡山県倉敷市西中新田16-1",
    "lat": 34.5800100860556,
    "lng": 133.75847305582,
    "tel": "086-430-6363",
    "url": "http://watanabe-clc.net/",
    "pref": "岡山県",
    "city": "倉敷市",
    "category": "day_service",
    "serviceType": "通所介護",
    "capacity": 0,
    "openDays": [
      "平日",
      "土曜日"
    ],
    "openDaysNote": ""
  },
  {
    "id": "3370208625",
    "name": "百年煌倶楽部平田",
    "kana": "ヒャクネンキラメキクラブヒラタ",
    "address": "岡山県倉敷市平田855番地",
    "lat": 34.618597,
    "lng": 133.7844795,
    "tel": "086-430-4510",
    "url": "https://soushin-fukushikai.org/",
    "pref": "岡山県",
    "city": "倉敷市",
    "category": "day_service",
    "serviceType": "通所介護",
    "capacity": 80,
    "openDays": [
      "平日",
      "土曜日",
      "祝日"
    ],
    "openDaysNote": ""
  },
  {
    "id": "3370203485",
    "name": "富田デイサービスセンター",
    "kana": "トミタデイサービスセンター",
    "address": "岡山県倉敷市玉島道口2754-1",
    "lat": 34.5666836642014,
    "lng": 133.651591274869,
    "tel": "086-522-8511",
    "url": "http://www.tomicare.com",
    "pref": "岡山県",
    "city": "倉敷市",
    "category": "day_service",
    "serviceType": "通所介護",
    "capacity": 75,
    "openDays": [
      "平日",
      "土曜日",
      "祝日"
    ],
    "openDaysNote": ""
  },
  {
    "id": "3370205134",
    "name": "碧空デイサービスセンター",
    "kana": "アオゾラデイサービスセンター",
    "address": "岡山県倉敷市児島下の町5丁目7番10号",
    "lat": 34.4808013,
    "lng": 133.8210354,
    "tel": "086-470-6336",
    "url": "http://178-aozora.com/",
    "pref": "岡山県",
    "city": "倉敷市",
    "category": "day_service",
    "serviceType": "通所介護",
    "capacity": 50,
    "openDays": [
      "平日",
      "祝日"
    ],
    "openDaysNote": "特になし"
  },
  {
    "id": "3370204384",
    "name": "夢みずきデイサービスセンター",
    "kana": "ユメミズキデイサービスセンター",
    "address": "岡山県倉敷市笹沖1188-6",
    "lat": 34.5788223,
    "lng": 133.7665513,
    "tel": "086-435-4321",
    "url": "http://www.yumemizuki.co.jp",
    "pref": "岡山県",
    "city": "倉敷市",
    "category": "day_service",
    "serviceType": "通所介護",
    "capacity": 35,
    "openDays": [
      "平日",
      "土曜日",
      "祝日"
    ],
    "openDaysNote": "12月30日から1月3日は休業します。"
  },
  {
    "id": "3370201992",
    "name": "野上内科医院デイサービスセンター",
    "kana": "ノガミナイカイインデイサービスセンター",
    "address": "岡山県倉敷市児島味野6丁目1番10号",
    "lat": 34.4681997,
    "lng": 133.7993124,
    "tel": "086-473-4195",
    "url": "http://www.warakukai.com/",
    "pref": "岡山県",
    "city": "倉敷市",
    "category": "day_service",
    "serviceType": "通所介護",
    "capacity": 48,
    "openDays": [
      "平日",
      "土曜日",
      "祝日"
    ],
    "openDaysNote": "特になし"
  },
  {
    "id": "3370207379",
    "name": "悠楽デイサービスセンター",
    "kana": "ユウラクデイサービスセンター",
    "address": "岡山県倉敷市真備町有井1472番地",
    "lat": 34.6361750675485,
    "lng": 133.702689703397,
    "tel": "086-486-0022",
    "url": "http://www.kouraku.or.jp/",
    "pref": "岡山県",
    "city": "倉敷市",
    "category": "day_service",
    "serviceType": "通所介護",
    "capacity": 35,
    "openDays": [
      "平日",
      "土曜日",
      "祝日"
    ],
    "openDaysNote": ""
  },
  {
    "id": "3372600340",
    "name": "ﾌﾞﾙｰﾐﾝｸﾞｹｱ早島ﾃﾞｲｻｰﾋﾞｽ",
    "kana": "ブルーミングケアハヤシマデイサービス",
    "address": "岡山県都窪郡早島町矢尾566-1",
    "lat": 34.6176603943884,
    "lng": 133.82717510531,
    "tel": "086-486-1059",
    "url": "https://bloomingcarehyashima.jimdosite.com/",
    "pref": "岡山県",
    "city": "早島町",
    "category": "day_service",
    "serviceType": "通所介護",
    "capacity": 20,
    "openDays": [
      "平日",
      "土曜日",
      "日曜日",
      "祝日"
    ],
    "openDaysNote": ""
  },
  {
    "id": "3372600100",
    "name": "早島町デイサービスセンター",
    "kana": "ハヤシマチョウデイサービスセンター",
    "address": "岡山県都窪郡早島町前潟２４９番地１地域福祉センター 地域福祉センター",
    "lat": 34.6001826,
    "lng": 133.8262342,
    "tel": "086-482-3517",
    "url": "http://www.hayashima-shakyo.jp",
    "pref": "岡山県",
    "city": "早島町",
    "category": "day_service",
    "serviceType": "通所介護",
    "capacity": 40,
    "openDays": [
      "平日",
      "土曜日",
      "祝日"
    ],
    "openDaysNote": "希望時には保険外で時間延長のサービスが可能。"
  },
  {
    "id": "3372600241",
    "name": "特別養護老人ホーム白亜館デイサービスセンター「はくあ」",
    "kana": "トクベツヨウゴロウジンホームハクアカンデイサービスセンターハクア",
    "address": "岡山県都窪郡早島町早島4962-11",
    "lat": 34.6094839,
    "lng": 133.8070084,
    "tel": "086-480-1212",
    "url": "http://hakuakan.ec-net.jp",
    "pref": "岡山県",
    "city": "早島町",
    "category": "day_service",
    "serviceType": "通所介護",
    "capacity": 0,
    "openDays": [
      "平日",
      "土曜日",
      "祝日"
    ],
    "openDaysNote": "サービス提供時間8：45～16：15"
  },
  {
    "id": "3370204368",
    "name": "JUNOデイサービスセンターほっと",
    "kana": "ジュノデイサービスセンターホット",
    "address": "岡山県総社市宿１６６－１",
    "lat": 34.6666563,
    "lng": 133.7898952,
    "tel": "0866-31－5522",
    "url": "",
    "pref": "岡山県",
    "city": "総社市",
    "category": "day_service",
    "serviceType": "通所介護",
    "capacity": 19,
    "openDays": [
      "平日",
      "日曜日",
      "祝日"
    ],
    "openDaysNote": "12月31日から1月3日まで休み"
  },
  {
    "id": "3370801247",
    "name": "ＪＵＮＯデイサービスセンター国分寺",
    "kana": "ジュノデイサービスセンター　コクブンジ",
    "address": "岡山県総社市宿１５９－１",
    "lat": 34.6665508,
    "lng": 133.7908835,
    "tel": "０８６６－９５－２８０２",
    "url": "",
    "pref": "岡山県",
    "city": "総社市",
    "category": "day_service",
    "serviceType": "通所介護",
    "capacity": 19,
    "openDays": [
      "平日",
      "土曜日",
      "祝日"
    ],
    "openDaysNote": ""
  },
  {
    "id": "3370801395",
    "name": "アライヴ総社",
    "kana": "アライゔソウジャ",
    "address": "岡山県総社市真壁1292-2",
    "lat": 34.6702362310256,
    "lng": 133.7333153,
    "tel": "0866-31-8123",
    "url": "alive.gr.jp/",
    "pref": "岡山県",
    "city": "総社市",
    "category": "day_service",
    "serviceType": "通所介護",
    "capacity": 0,
    "openDays": [
      "平日",
      "土曜日",
      "祝日"
    ],
    "openDaysNote": ""
  },
  {
    "id": "3372600043",
    "name": "グリーンアンドリバーホームデイサービスセンター",
    "kana": "グリーンアンドリバーホームデイサービスセンター",
    "address": "総社市清音三因１０７４－１",
    "lat": 34.6544177,
    "lng": 133.7557535,
    "tel": "0866-93-4165",
    "url": "http://green-river.or.jp",
    "pref": "岡山県",
    "city": "総社市",
    "category": "day_service",
    "serviceType": "通所介護",
    "capacity": 35,
    "openDays": [
      "平日",
      "土曜日",
      "祝日"
    ],
    "openDaysNote": ""
  },
  {
    "id": "3370801411",
    "name": "ツクイ総社",
    "kana": "ツクイソウジャ",
    "address": "岡山県総社市中央5-2-102",
    "lat": 34.6695573,
    "lng": 133.7525993,
    "tel": "086-90-2181",
    "url": "https://www.tsukui.net/home-care/2356/",
    "pref": "岡山県",
    "city": "総社市",
    "category": "day_service",
    "serviceType": "通所介護",
    "capacity": 0,
    "openDays": [
      "平日",
      "土曜日",
      "日曜日",
      "祝日"
    ],
    "openDaysNote": ""
  },
  {
    "id": "3370801460",
    "name": "デイサービスSoda",
    "kana": "デイサービスソーダ",
    "address": "岡山県総社市総社3丁目1-14",
    "lat": 34.6752691,
    "lng": 133.7551144,
    "tel": "０８６６－３３－０８０２",
    "url": "https://soda-dayservice.studio.site/#info",
    "pref": "岡山県",
    "city": "総社市",
    "category": "day_service",
    "serviceType": "通所介護",
    "capacity": 0,
    "openDays": [
      "平日",
      "土曜日",
      "祝日"
    ],
    "openDaysNote": "年末年始（12/31～1/3）、ゴールデンウィーク（5/3～5/5）は休み"
  },
  {
    "id": "3370800835",
    "name": "デイサービスセンター　アルフィック総社",
    "kana": "デイサービスセンター　アルフィックソウジャ",
    "address": "岡山県総社市三須1524－4",
    "lat": 34.6738016,
    "lng": 133.7653327,
    "tel": "0866-90-1033",
    "url": "",
    "pref": "岡山県",
    "city": "総社市",
    "category": "day_service",
    "serviceType": "通所介護",
    "capacity": 0,
    "openDays": [
      "平日",
      "土曜日",
      "祝日"
    ],
    "openDaysNote": ""
  },
  {
    "id": "3370800207",
    "name": "デイサービスセンターセレーノ総社",
    "kana": "デイサービスセンターセレーノソウジャ",
    "address": "岡山県総社市久代５１２７",
    "lat": 34.6775123,
    "lng": 133.6992853,
    "tel": "0866-96-0722",
    "url": "http://www.sesshu-fukushikai.or.jp/sereno/",
    "pref": "岡山県",
    "city": "総社市",
    "category": "day_service",
    "serviceType": "通所介護",
    "capacity": 45,
    "openDays": [
      "平日",
      "土曜日",
      "祝日"
    ],
    "openDaysNote": ""
  },
  {
    "id": "3370800926",
    "name": "デイサービス清音の里",
    "kana": "デイサービスキヨネノサト",
    "address": "総社市清音上中島１６８番地６",
    "lat": 34.6459405,
    "lng": 133.7331523,
    "tel": "0866-92-5433",
    "url": "http://www.oasis-kiyone.com",
    "pref": "岡山県",
    "city": "総社市",
    "category": "day_service",
    "serviceType": "通所介護",
    "capacity": 0,
    "openDays": [
      "平日",
      "土曜日",
      "日曜日",
      "祝日"
    ],
    "openDaysNote": "年中無休"
  },
  {
    "id": "3370801023",
    "name": "リハビリステーションいずみの杜",
    "kana": "リハビリステーションイズミノモリ",
    "address": "総社市　小寺958",
    "lat": 34.6900307,
    "lng": 133.7452637,
    "tel": "0866－90－0006",
    "url": "choujukai.or.jp",
    "pref": "岡山県",
    "city": "総社市",
    "category": "day_service",
    "serviceType": "通所介護",
    "capacity": 0,
    "openDays": [
      "平日",
      "土曜日",
      "祝日"
    ],
    "openDaysNote": "国民の祝日については春分の日、憲法記念日、みどりの日、こどもの日、海の日、敬老の日、スポーツの日を除く。"
  },
  {
    "id": "3372600134",
    "name": "総社市山手福祉センター通所介護事業所",
    "kana": "ソウジャシヤマテフクシセンターツウショカイゴジギョウショ",
    "address": "岡山県総社市地頭片山150",
    "lat": 34.6582534,
    "lng": 133.7698942,
    "tel": "0866-90-0200",
    "url": "",
    "pref": "岡山県",
    "city": "総社市",
    "category": "day_service",
    "serviceType": "通所介護",
    "capacity": 0,
    "openDays": [
      "平日",
      "土曜日",
      "祝日"
    ],
    "openDaysNote": ""
  },
  {
    "id": "3370800934",
    "name": "宅老所なごみデイサービス",
    "kana": "タクロウショナゴミデイサービス",
    "address": "岡山県総社市中央３丁目３－１１０",
    "lat": 34.6730489,
    "lng": 133.7502143,
    "tel": "0866-92-7808",
    "url": "",
    "pref": "岡山県",
    "city": "総社市",
    "category": "day_service",
    "serviceType": "通所介護",
    "capacity": 0,
    "openDays": [
      "平日",
      "土曜日",
      "日曜日",
      "祝日"
    ],
    "openDaysNote": ""
  },
  {
    "id": "3370300844",
    "name": "おおうみクリニックデイサービスセンター",
    "kana": "オオウミクリニックデイサービスセンター",
    "address": "岡山県津山市河辺９３５－１",
    "lat": 35.0622535,
    "lng": 134.0463447,
    "tel": "0868-21-0600",
    "url": "http://www.ohumi-clinic.or.jp/index.html",
    "pref": "岡山県",
    "city": "津山市",
    "category": "day_service",
    "serviceType": "通所介護",
    "capacity": 25,
    "openDays": [
      "平日",
      "土曜日"
    ],
    "openDaysNote": ""
  },
  {
    "id": "3370302188",
    "name": "グリーンライフ津山元魚町デイサービス",
    "kana": "グリーンライフツヤマモトウオマチデイサービス",
    "address": "元魚町69番地グリーンライフ津山元魚町 グリーンライフ津山元魚町",
    "lat": 35.0608621700136,
    "lng": 134.000468635582,
    "tel": "0868-22-1215",
    "url": "http://www.greenlife-inc.co.jp/",
    "pref": "岡山県",
    "city": "津山市",
    "category": "day_service",
    "serviceType": "通所介護",
    "capacity": 0,
    "openDays": [
      "平日",
      "土曜日",
      "祝日"
    ],
    "openDaysNote": "祝日、年末年始、お盆も営業"
  },
  {
    "id": "3370302089",
    "name": "デイサービス　ミ・カサ",
    "kana": "デイサービス　ミ・カサ",
    "address": "岡山県津山市北町44-1",
    "lat": 35.0654578934793,
    "lng": 134.005738306607,
    "tel": "0868-23-3111",
    "url": "www.eharakeimeikai.jp/",
    "pref": "岡山県",
    "city": "津山市",
    "category": "day_service",
    "serviceType": "通所介護",
    "capacity": 20,
    "openDays": [
      "平日",
      "土曜日",
      "祝日"
    ],
    "openDaysNote": ""
  },
  {
    "id": "3370300901",
    "name": "デイサービスセンター　ほのぼの",
    "kana": "デイサービスセンターホノボノ",
    "address": "岡山県津山市平福546-1",
    "lat": 35.0487333,
    "lng": 133.969466,
    "tel": "0868-28-7760",
    "url": "",
    "pref": "岡山県",
    "city": "津山市",
    "category": "day_service",
    "serviceType": "通所介護",
    "capacity": 0,
    "openDays": [
      "平日",
      "土曜日",
      "祝日"
    ],
    "openDaysNote": ""
  },
  {
    "id": "3370301313",
    "name": "デイサービスセンターつやま健康クラブ",
    "kana": "デイサービスセンターツヤマケンコウクラブ",
    "address": "岡山県津山市元魚町６０－１",
    "lat": 35.0600884,
    "lng": 134.0003851,
    "tel": "0868-25-1030",
    "url": "",
    "pref": "岡山県",
    "city": "津山市",
    "category": "day_service",
    "serviceType": "通所介護",
    "capacity": 0,
    "openDays": [
      "平日",
      "土曜日",
      "祝日"
    ],
    "openDaysNote": ""
  },
  {
    "id": "3370301685",
    "name": "デイサービスセンターつやま西健康クラブ",
    "kana": "デイサービスセンターツヤマニシケンコウクラブ",
    "address": "戸島６３４－１３",
    "lat": 35.0755603,
    "lng": 133.9477672,
    "tel": "0868-28-7331",
    "url": "",
    "pref": "岡山県",
    "city": "津山市",
    "category": "day_service",
    "serviceType": "通所介護",
    "capacity": 0,
    "openDays": [
      "平日",
      "祝日"
    ],
    "openDaysNote": ""
  },
  {
    "id": "3370302246",
    "name": "デイサービスセンターピュアライフ城西",
    "kana": "デイサービスセンターピュアライフジョウサイ",
    "address": "岡山県津山市上紺屋町31-2デイサービスセンターピュアライフ城西 デイサービスセンターピュアライフ城西",
    "lat": 35.0611060681004,
    "lng": 133.995934424259,
    "tel": "0868-24-1024",
    "url": "https://purelife-jousai.com",
    "pref": "岡山県",
    "city": "津山市",
    "category": "day_service",
    "serviceType": "通所介護",
    "capacity": 25,
    "openDays": [
      "平日",
      "土曜日",
      "祝日"
    ],
    "openDaysNote": "サービス提供時間は9：00～16：30"
  },
  {
    "id": "3370301586",
    "name": "デイサービスセンターゆとり",
    "kana": "デイサービスセンターユトリ",
    "address": "岡山県津山市横山３７７-６",
    "lat": 35.0549188,
    "lng": 134.0072485,
    "tel": "０８６８－２４－５０５５",
    "url": "",
    "pref": "岡山県",
    "city": "津山市",
    "category": "day_service",
    "serviceType": "通所介護",
    "capacity": 3,
    "openDays": [
      "平日",
      "祝日"
    ],
    "openDaysNote": "介護職員処遇改善加算Ⅲの制度対応している。"
  },
  {
    "id": "3370301859",
    "name": "デイサービスセンター愛さんさん",
    "kana": "デイサービスセンターアイサンサン",
    "address": "津山市高野山西２１５１－３",
    "lat": 35.071596401118,
    "lng": 134.041296113492,
    "tel": "０８６８－２０－１８６６",
    "url": "http://www.asa-hi.co.jp/aisansan/",
    "pref": "岡山県",
    "city": "津山市",
    "category": "day_service",
    "serviceType": "通所介護",
    "capacity": 25,
    "openDays": [
      "平日",
      "祝日"
    ],
    "openDaysNote": "なし"
  },
  {
    "id": "3373600109",
    "name": "デイサービスセンター日本原荘",
    "kana": "デイサービスセンターニホンバラソウ",
    "address": "岡山県津山市新野東１７９７－３番地",
    "lat": 35.1043342778092,
    "lng": 134.12925238427,
    "tel": "0868-36-3838",
    "url": "http://www.nihonbara.or.jp",
    "pref": "岡山県",
    "city": "津山市",
    "category": "day_service",
    "serviceType": "通所介護",
    "capacity": 0,
    "openDays": [
      "平日",
      "土曜日",
      "祝日"
    ],
    "openDaysNote": "但し、新型コロナウイルス感染症の感染状況によっては休業する可能性があります。"
  },
  {
    "id": "3370301487",
    "name": "デイサービス勝福",
    "kana": "デイサービスショウフク",
    "address": "岡山県津山市中村２０１番地7デイサービス勝福 デイサービス勝福",
    "lat": 35.0907759,
    "lng": 134.1000881,
    "tel": "0868-29-1504",
    "url": "http://www.syouhuku.com/",
    "pref": "岡山県",
    "city": "津山市",
    "category": "day_service",
    "serviceType": "通所介護",
    "capacity": 5,
    "openDays": [
      "平日",
      "土曜日",
      "祝日"
    ],
    "openDaysNote": ""
  },
  {
    "id": "3370302196",
    "name": "デイサービス勝福日上",
    "kana": "デイサービスショウフクヒカミ",
    "address": "岡山県津山市日上1675-5勝福日上 勝福日上",
    "lat": 35.0505982,
    "lng": 134.020903,
    "tel": "0868-26-3815",
    "url": "http://www.syouhuku.com/",
    "pref": "岡山県",
    "city": "津山市",
    "category": "day_service",
    "serviceType": "通所介護",
    "capacity": 0,
    "openDays": [
      "平日",
      "土曜日",
      "日曜日",
      "祝日"
    ],
    "openDaysNote": "１２月３０日から１月３日の間休み"
  },
  {
    "id": "3370302535",
    "name": "ブルーミングケア大田",
    "kana": "ブルーミングケアオオダ",
    "address": "大田784番1",
    "lat": null,
    "lng": null,
    "tel": "0868-35-3121",
    "url": "https://ooda.main.jp",
    "pref": "岡山県",
    "city": "津山市",
    "category": "day_service",
    "serviceType": "通所介護",
    "capacity": null,
    "openDays": [
      "平日",
      "土曜日",
      "日曜日",
      "祝日"
    ],
    "openDaysNote": ""
  },
  {
    "id": "3370301511",
    "name": "もも　デイサービスセンター",
    "kana": "モモ　デイサービスセンター",
    "address": "津山市高野本郷1257-9",
    "lat": 35.0731552,
    "lng": 134.046925,
    "tel": "0868-35-2263",
    "url": "",
    "pref": "岡山県",
    "city": "津山市",
    "category": "day_service",
    "serviceType": "通所介護",
    "capacity": 30,
    "openDays": [
      "平日",
      "土曜日",
      "祝日"
    ],
    "openDaysNote": "特になし"
  },
  {
    "id": "3370301776",
    "name": "ワンステップ",
    "kana": "ワンステップ",
    "address": "津山市北町８－１",
    "lat": 35.0655604,
    "lng": 134.0073205,
    "tel": "０８６８－２０－１４８８",
    "url": "bloominglife.or.jp",
    "pref": "岡山県",
    "city": "津山市",
    "category": "day_service",
    "serviceType": "通所介護",
    "capacity": 0,
    "openDays": [
      "平日"
    ],
    "openDaysNote": ""
  },
  {
    "id": "3373800188",
    "name": "愛和荘やすらぎの丘デイサービスセンター",
    "kana": "アイワソウヤスラギノオカデイサービスセンター",
    "address": "岡山県津山市桑下１２２８－６",
    "lat": 35.0291428,
    "lng": 133.9210699,
    "tel": "0868-57-8760",
    "url": "http://www.aiwa-kai.or.jp/",
    "pref": "岡山県",
    "city": "津山市",
    "category": "day_service",
    "serviceType": "通所介護",
    "capacity": 20,
    "openDays": [
      "平日",
      "祝日"
    ],
    "openDaysNote": "年末・年始の定休日は、曜日等により変更する場合があります。（改行）台風や大雪等の天災又はその恐れがある場合は、安全を考慮し営業を中止する場合があります。"
  },
  {
    "id": "3370301438",
    "name": "昼の家　リュックサック",
    "kana": "ヒルノイエ　リュックサック",
    "address": "岡山県津山市沼457-1",
    "lat": 35.0777897,
    "lng": 134.0125833,
    "tel": "0868-23-0080",
    "url": "http://www.keiai24.com/",
    "pref": "岡山県",
    "city": "津山市",
    "category": "day_service",
    "serviceType": "通所介護",
    "capacity": 25,
    "openDays": [
      "平日",
      "土曜日",
      "祝日"
    ],
    "openDaysNote": ""
  },
  {
    "id": "3370302378",
    "name": "津山市障害者福祉センター神南備園",
    "kana": "ツヤマシショウガイシャフクシセンターカンナビエン",
    "address": "岡山県津山市大谷６００",
    "lat": 35.05255,
    "lng": 133.993386,
    "tel": "0868-24-9402",
    "url": "https://www.uguisuen.jp/facility/kannabi/",
    "pref": "岡山県",
    "city": "津山市",
    "category": "day_service",
    "serviceType": "通所介護",
    "capacity": 20,
    "openDays": [
      "平日",
      "祝日"
    ],
    "openDaysNote": ""
  },
  {
    "id": "3370300406",
    "name": "鶯園デイサービスセンター",
    "kana": "ウグイスエンデイサービスセンター",
    "address": "岡山県津山市瓜生原331",
    "lat": 35.0434301,
    "lng": 134.0414093,
    "tel": "0868-26-7417",
    "url": "http://www.uguisuen.jp/",
    "pref": "岡山県",
    "city": "津山市",
    "category": "day_service",
    "serviceType": "通所介護",
    "capacity": 0,
    "openDays": [
      "平日",
      "土曜日",
      "祝日"
    ],
    "openDaysNote": "特になし"
  },
  {
    "id": "3373600208",
    "name": "なぎみ苑指定通所介護事業所",
    "kana": "ナギミエンシテイツウショカイゴジギョウショ",
    "address": "岡山県勝田郡奈義町広岡30",
    "lat": 35.1158719,
    "lng": 134.1667842,
    "tel": "0868-20-1229",
    "url": "http://www.jifu-kai.or.jp",
    "pref": "岡山県",
    "city": "奈義町",
    "category": "day_service",
    "serviceType": "通所介護",
    "capacity": 0,
    "openDays": [
      "平日",
      "祝日"
    ],
    "openDaysNote": "特になし"
  },
  {
    "id": "3372300743",
    "name": "ザグスタ備前",
    "kana": "ザグスタビゼン",
    "address": "岡山県備前市大内329-2",
    "lat": 34.7319607260418,
    "lng": 134.131242894151,
    "tel": "0869-66-0707",
    "url": "http://www.zagzag.co.jp/zagstu/",
    "pref": "岡山県",
    "city": "備前市",
    "category": "day_service",
    "serviceType": "通所介護",
    "capacity": 0,
    "openDays": [
      "平日",
      "土曜日",
      "祝日"
    ],
    "openDaysNote": ""
  },
  {
    "id": "3372300339",
    "name": "デイサービスセンターこうら荘",
    "kana": "デイサービスセンターコウラソウ",
    "address": "岡山県備前市日生町日生803-1",
    "lat": 34.7295865115618,
    "lng": 134.270689779814,
    "tel": "0869-72-1533",
    "url": "https://www.keiyuu-kai.or.jp/",
    "pref": "岡山県",
    "city": "備前市",
    "category": "day_service",
    "serviceType": "通所介護",
    "capacity": 45,
    "openDays": [
      "平日",
      "土曜日"
    ],
    "openDaysNote": ""
  },
  {
    "id": "3371100276",
    "name": "ニチイケアセンター備前",
    "kana": "ニチイケアセンタービゼン",
    "address": "岡山県備前市東片上646-1",
    "lat": 34.7452012,
    "lng": 134.1973369,
    "tel": "0869-63-7331",
    "url": "",
    "pref": "岡山県",
    "city": "備前市",
    "category": "day_service",
    "serviceType": "通所介護",
    "capacity": 25,
    "openDays": [
      "平日",
      "土曜日",
      "祝日"
    ],
    "openDaysNote": "１月１日～３日休業(変更の場合あり)"
  },
  {
    "id": "3371100714",
    "name": "リハビリ特化型デイサービスカラダラボ備前",
    "kana": "リハビリトッカガタデイサービスカラダラボビゼン",
    "address": "岡山県備前市穂浪395番地10",
    "lat": 34.7319811,
    "lng": 134.2248332,
    "tel": "0869-92-4994",
    "url": "http://www.karadalabo.com/",
    "pref": "岡山県",
    "city": "備前市",
    "category": "day_service",
    "serviceType": "通所介護",
    "capacity": 30,
    "openDays": [
      "平日",
      "祝日"
    ],
    "openDaysNote": ""
  },
  {
    "id": "3372300362",
    "name": "備前市デイサービスセンターしらうめ荘",
    "kana": "ビゼンシデイサービスセンターシラウメソウ",
    "address": "岡山県備前市吉永町岩崎４３３－１",
    "lat": 34.8203308,
    "lng": 134.2066921,
    "tel": "0869-84-3007",
    "url": "",
    "pref": "岡山県",
    "city": "備前市",
    "category": "day_service",
    "serviceType": "通所介護",
    "capacity": 30,
    "openDays": [
      "平日",
      "土曜日"
    ],
    "openDaysNote": "特になし"
  },
  {
    "id": "3371100102",
    "name": "備前市デイサービスセンター大ヶ池荘",
    "kana": "ビゼンシデイサービスセンターオオガイケソウ",
    "address": "岡山県備前市伊部９６４-５",
    "lat": 34.7391006,
    "lng": 134.1462445,
    "tel": "0869-64-1338",
    "url": "",
    "pref": "岡山県",
    "city": "備前市",
    "category": "day_service",
    "serviceType": "通所介護",
    "capacity": 30,
    "openDays": [
      "平日"
    ],
    "openDaysNote": "特になし"
  },
  {
    "id": "3373800246",
    "name": "十字園あさひデイサービスセンター",
    "kana": "ジュウジエンアサヒデイサービスセンター",
    "address": "岡山県久米郡美咲町里886-1",
    "lat": 34.971671,
    "lng": 133.8269412,
    "tel": "0867-27-9091",
    "url": "http://www.zyugikai.or.jp",
    "pref": "岡山県",
    "city": "美咲町",
    "category": "day_service",
    "serviceType": "通所介護",
    "capacity": null,
    "openDays": [
      "平日",
      "祝日"
    ],
    "openDaysNote": ""
  },
  {
    "id": "3373800634",
    "name": "障がい者支援施設さやかなる苑　共生型通所介護",
    "kana": "ショウガイシャシエンシセツサヤカナルソノ　キョウセイガタツウショカイゴ",
    "address": "岡山県久米郡美咲町書副182-4",
    "lat": 34.9897718,
    "lng": 134.0499717,
    "tel": "0868-64-7003",
    "url": "https://www.uguisuen.jp/facility/sayaka/",
    "pref": "岡山県",
    "city": "美咲町",
    "category": "day_service",
    "serviceType": "通所介護",
    "capacity": null,
    "openDays": [
      "平日",
      "土曜日",
      "祝日"
    ],
    "openDaysNote": "利用日数が月の日数－８日に満たない場合は、営業日を変更しサービス提供を行う。"
  },
  {
    "id": "3373800568",
    "name": "白寿荘デイサービスセンター",
    "kana": "ハクジュソウデイサ－ビスセンタ－",
    "address": "岡山県久米郡美咲町打穴下４１２－５",
    "lat": 35.0277291144267,
    "lng": 133.938783647047,
    "tel": "0868-66-2727",
    "url": "http://www.hakujuso.or.jp",
    "pref": "岡山県",
    "city": "美咲町",
    "category": "day_service",
    "serviceType": "通所介護",
    "capacity": 0,
    "openDays": [
      "平日",
      "土曜日",
      "祝日"
    ],
    "openDaysNote": ""
  },
  {
    "id": "3373800253",
    "name": "美咲町柵原デイサービスセンターかしのき荘",
    "kana": "ミサキチョウヤナハラデイサービスセンターカシノキソウ",
    "address": "岡山県久米郡美咲町吉ヶ原８６２－１",
    "lat": 34.9432141,
    "lng": 134.0739902,
    "tel": "0868-62-0811",
    "url": "",
    "pref": "岡山県",
    "city": "美咲町",
    "category": "day_service",
    "serviceType": "通所介護",
    "capacity": 0,
    "openDays": [
      "平日",
      "土曜日",
      "祝日"
    ],
    "openDaysNote": ""
  },
  {
    "id": "3373800220",
    "name": "美咲町中央ふれあいセンター",
    "kana": "ミサキチョウチュウオウフレアイセンター",
    "address": "岡山県久米郡美咲町原田3108-10",
    "lat": 34.9947616,
    "lng": 133.954594,
    "tel": "0868-66-2940",
    "url": "http://www.cyerry.net/~misyamon/misaki.html",
    "pref": "岡山県",
    "city": "美咲町",
    "category": "day_service",
    "serviceType": "通所介護",
    "capacity": 0,
    "openDays": [
      "平日",
      "土曜日",
      "祝日"
    ],
    "openDaysNote": ""
  },
  {
    "id": "3373800071",
    "name": "美咲町福祉の里あさひが丘",
    "kana": "ミサキチョウフクシノサトアサヒガオカ",
    "address": "岡山県久米郡美咲町東垪和190",
    "lat": 34.9677464,
    "lng": 133.8463394,
    "tel": "0867-27-2203",
    "url": "http://www.fukushiokayama.or.jp/misaki/kaigohokenjiryou.html",
    "pref": "岡山県",
    "city": "美咲町",
    "category": "day_service",
    "serviceType": "通所介護",
    "capacity": 0,
    "openDays": [
      "平日",
      "土曜日",
      "祝日"
    ],
    "openDaysNote": "大雨洪水・大雪・地震等の災害及び感染症等により、営業することが危険等と判断した場合には、営業休止になる場合があります。"
  },
  {
    "id": "3373600448",
    "name": "デイサービスセンターふくだ",
    "kana": "デイサービスセンターフクダ",
    "address": "岡山県美作市真加部1368-2",
    "lat": 35.07544096945,
    "lng": 134.187476270361,
    "tel": "0868-77-0334",
    "url": "",
    "pref": "岡山県",
    "city": "美作市",
    "category": "day_service",
    "serviceType": "通所介護",
    "capacity": 40,
    "openDays": [
      "平日",
      "土曜日",
      "祝日"
    ],
    "openDaysNote": "夏期休暇（８月１３～１５日）　年末年始（１２月３１日～１月４日）年によって変更あり"
  },
  {
    "id": "3373700560",
    "name": "デイサービスセンターふれあい",
    "kana": "デイサービスセンターフレアイ",
    "address": "岡山県美作市福本８６５",
    "lat": 34.9385456,
    "lng": 134.1276458,
    "tel": "0868-74-7880",
    "url": "https://www.uguisuen.jp/",
    "pref": "岡山県",
    "city": "美作市",
    "category": "day_service",
    "serviceType": "通所介護",
    "capacity": 30,
    "openDays": [
      "平日",
      "祝日"
    ],
    "openDaysNote": ""
  },
  {
    "id": "3373700826",
    "name": "デイサービスセンター蛍流荘",
    "kana": "デイサービスセンターケイリュウソウ",
    "address": "湯郷903蛍流荘 蛍流荘",
    "lat": 34.9915589,
    "lng": 134.1312022,
    "tel": "0868-72-1527",
    "url": "http://www.keiryusou.com/",
    "pref": "岡山県",
    "city": "美作市",
    "category": "day_service",
    "serviceType": "通所介護",
    "capacity": 0,
    "openDays": [
      "平日",
      "祝日"
    ],
    "openDaysNote": ""
  },
  {
    "id": "3373700933",
    "name": "デイサービスセンター大原",
    "kana": "デイサービスセンターオオハラ",
    "address": "岡山県美作市古町1850-1大原保健センター２階 大原保健センター２階",
    "lat": 35.1194996,
    "lng": 134.3281145,
    "tel": "0868-78-0550",
    "url": "",
    "pref": "岡山県",
    "city": "美作市",
    "category": "day_service",
    "serviceType": "通所介護",
    "capacity": null,
    "openDays": [
      "平日",
      "祝日"
    ],
    "openDaysNote": ""
  },
  {
    "id": "3373700792",
    "name": "デイサービスセンター湯郷",
    "kana": "デイサービスセンターユノゴウ",
    "address": "中山1483-1",
    "lat": 34.9965055,
    "lng": 134.1297133,
    "tel": "0868-72-9011",
    "url": "http://uguisuen.jp",
    "pref": "岡山県",
    "city": "美作市",
    "category": "day_service",
    "serviceType": "通所介護",
    "capacity": 0,
    "openDays": [
      "平日",
      "土曜日",
      "祝日"
    ],
    "openDaysNote": "お盆（8月13日～15日）、年末年始（12月30日～1月3日）"
  },
  {
    "id": "3373700354",
    "name": "ゆうゆうの里デイサービスセンター",
    "kana": "ユウユウノサトデイサービスセンター",
    "address": "岡山県美作市北山401",
    "lat": 35.031428,
    "lng": 134.1567812,
    "tel": "0868-73-6212",
    "url": "http://www.fukushi-koukikai.jp/",
    "pref": "岡山県",
    "city": "美作市",
    "category": "day_service",
    "serviceType": "通所介護",
    "capacity": 50,
    "openDays": [
      "平日",
      "祝日"
    ],
    "openDaysNote": "１２月３１日～１月３日まで休館"
  },
  {
    "id": "3373700412",
    "name": "医療法人　豊医会　通所介護　こまち",
    "kana": "イリョウホウジン　ホウイカイ　ツウショカイゴ　コマチ",
    "address": "岡山県美作市豊国原１０５７－２",
    "lat": 35.0213595,
    "lng": 134.159701,
    "tel": "0868-72-8100",
    "url": "https://houikai.jp/",
    "pref": "岡山県",
    "city": "美作市",
    "category": "day_service",
    "serviceType": "通所介護",
    "capacity": 30,
    "openDays": [
      "平日",
      "土曜日",
      "祝日"
    ],
    "openDaysNote": ""
  },
  {
    "id": "3373700321",
    "name": "美作名倉堂介護センター",
    "kana": "ミマサカナグラドウ　カイゴセンター",
    "address": "岡山県美作市栄町70",
    "lat": 35.0100547,
    "lng": 134.1492693,
    "tel": "0868-73-0200",
    "url": "https://www.mimasakanagurado.com",
    "pref": "岡山県",
    "city": "美作市",
    "category": "day_service",
    "serviceType": "通所介護",
    "capacity": 0,
    "openDays": [
      "平日",
      "土曜日",
      "祝日"
    ],
    "openDaysNote": "年末年始（１２月３０日～1月３日）は休みです"
  },
  {
    "id": "3372800486",
    "name": "富田デイサービスやかげ",
    "kana": "トミタデイサービスヤカゲ",
    "address": "小田郡矢掛町西川面268-1",
    "lat": 34.6154923448104,
    "lng": 133.570101894707,
    "tel": "(0866)83－2700",
    "url": "www.toｍicare.com",
    "pref": "岡山県",
    "city": "矢掛町",
    "category": "day_service",
    "serviceType": "通所介護",
    "capacity": 0,
    "openDays": [
      "平日",
      "土曜日",
      "祝日"
    ],
    "openDaysNote": ""
  },
  {
    "id": "3372800072",
    "name": "矢掛荘デイサービスセンター",
    "kana": "ヤカゲソウデイサービスセンター",
    "address": "岡山県小田郡矢掛町南山田3044-12",
    "lat": 34.5853672,
    "lng": 133.6130089,
    "tel": "0866-83-1200",
    "url": "https://www.yakage-so.jp",
    "pref": "岡山県",
    "city": "矢掛町",
    "category": "day_service",
    "serviceType": "通所介護",
    "capacity": 0,
    "openDays": [
      "平日",
      "祝日"
    ],
    "openDaysNote": ""
  },
  {
    "id": "3372700801",
    "name": "デイサービスセンター　ひまわり",
    "kana": "デイサービスセンター　ヒマワリ",
    "address": "岡山県浅口郡里庄町大字新庄2855-1",
    "lat": 34.506602,
    "lng": 133.5511328,
    "tel": "0865-64-7228",
    "url": "hima@mx1.kcv.ne.jp",
    "pref": "岡山県",
    "city": "里庄町",
    "category": "day_service",
    "serviceType": "通所介護",
    "capacity": 19,
    "openDays": [
      "平日",
      "土曜日",
      "祝日"
    ],
    "openDaysNote": "祝祭日は営業しております。年末年始のお休みについては、変動がありますので随時、お知らせしています。"
  },
  {
    "id": "3372700850",
    "name": "デイサービスセンター和",
    "kana": "デイサービスセンターナゴミ",
    "address": "岡山県浅口郡里庄町里見5279",
    "lat": 34.5138376,
    "lng": 133.5590128,
    "tel": "0865-45-8887",
    "url": "",
    "pref": "岡山県",
    "city": "里庄町",
    "category": "day_service",
    "serviceType": "通所介護",
    "capacity": 30,
    "openDays": [
      "平日",
      "土曜日"
    ],
    "openDaysNote": "特に無し"
  },
  {
    "id": "3372700868",
    "name": "デイサービス福寿館",
    "kana": "デイサービスフクジュカン",
    "address": "岡山県浅口郡里庄町里見6304番地1",
    "lat": 34.527253,
    "lng": 133.5681814,
    "tel": "0865-64-1077",
    "url": "",
    "pref": "岡山県",
    "city": "里庄町",
    "category": "day_service",
    "serviceType": "通所介護",
    "capacity": 0,
    "openDays": [
      "平日",
      "土曜日",
      "祝日"
    ],
    "openDaysNote": ""
  },
  {
    "id": "3372701007",
    "name": "ニチイケアセンター里庄",
    "kana": "ニチイケアセンターサトショウ",
    "address": "浅口郡里庄町大字浜中93-10",
    "lat": 34.4978091097248,
    "lng": 133.534085004755,
    "tel": "0865-64-1161",
    "url": "http://www.nichiigakkan.co.jp",
    "pref": "岡山県",
    "city": "里庄町",
    "category": "day_service",
    "serviceType": "通所介護",
    "capacity": 30,
    "openDays": [
      "平日",
      "土曜日",
      "日曜日",
      "祝日"
    ],
    "openDaysNote": ""
  },
  {
    "id": "3372300768",
    "name": "デイサービスみどり",
    "kana": "デイサービスミドリ",
    "address": "岡山県和気郡和気町田原下７９５番地1",
    "lat": 34.8098022621039,
    "lng": 134.13004698427,
    "tel": "0869-93-1993",
    "url": "",
    "pref": "岡山県",
    "city": "和気町",
    "category": "day_service",
    "serviceType": "通所介護",
    "capacity": 15,
    "openDays": [
      "平日",
      "土曜日"
    ],
    "openDaysNote": ""
  },
  {
    "id": "3372300511",
    "name": "ハーモニーケアセンター",
    "kana": "ハーモニーケアセンター",
    "address": "岡山県和気郡和気町藤野80",
    "lat": 34.808626,
    "lng": 134.1756432,
    "tel": "0869-93-1538",
    "url": "",
    "pref": "岡山県",
    "city": "和気町",
    "category": "day_service",
    "serviceType": "通所介護",
    "capacity": 0,
    "openDays": [
      "平日",
      "土曜日",
      "祝日"
    ],
    "openDaysNote": "12月30～1月3日"
  },
  {
    "id": "3372300289",
    "name": "ひまわり園デイサービスセンター",
    "kana": "ヒマワリエンデイサービスセンター",
    "address": "岡山県和気郡和気町佐伯158",
    "lat": 34.8448716,
    "lng": 134.0925294,
    "tel": "0869-88-9088",
    "url": "http://www.himawarien.org",
    "pref": "岡山県",
    "city": "和気町",
    "category": "day_service",
    "serviceType": "通所介護",
    "capacity": 30,
    "openDays": [
      "平日",
      "土曜日",
      "祝日"
    ],
    "openDaysNote": ""
  },
  {
    "id": "3372300396",
    "name": "和気町デイサービスセンター",
    "kana": "ワケチョウデイサービスセンター",
    "address": "岡山県和気郡和気町益原666番地1",
    "lat": 34.8133392,
    "lng": 134.1445174,
    "tel": "0869-92-1188",
    "url": "",
    "pref": "岡山県",
    "city": "和気町",
    "category": "day_service",
    "serviceType": "通所介護",
    "capacity": 20,
    "openDays": [
      "平日"
    ],
    "openDaysNote": "鵜飼谷温泉施設点検日及び台風・集中豪雨・地震等により警報が発令されるなど利用者の安全上必要と認める時は休日とする。"
  }
]