[
  {
    "id": "370901514",
    "name": "JAいわて平泉デイサービスセンターいわいの丘",
    "kana": "ジェイエイイワテヒライズミデイサービスセンターイワイノオカ",
    "address": "岩手県一関市千厩町千厩字境田１５３－１２",
    "lat": 38.9297088,
    "lng": 141.3274178,
    "tel": "0191-52-5668",
    "url": "http://www.ja-iwatehiraizumi.or.jp",
    "pref": "岩手県",
    "city": "一関市",
    "category": "day_service",
    "serviceType": "通所介護",
    "capacity": null,
    "openDays": [
      "平日",
      "土曜日",
      "祝日"
    ],
    "openDaysNote": ""
  },
  {
    "id": "370901548",
    "name": "ＪＡいわて平泉デイサービスセンターもちっこ",
    "kana": "ジェイエイイワテヒライズミデイサービスセンターモチッコ",
    "address": "岩手県一関市真柴字原下４番１",
    "lat": 38.9073949214976,
    "lng": 141.130573008212,
    "tel": "0191-31-1538",
    "url": "http://www.ja-iwatehiraizumi.or.jp",
    "pref": "岩手県",
    "city": "一関市",
    "category": "day_service",
    "serviceType": "通所介護",
    "capacity": 0,
    "openDays": [
      "平日",
      "土曜日",
      "祝日"
    ],
    "openDaysNote": ""
  },
  {
    "id": "370900672",
    "name": "あづま野デイサービス",
    "kana": "アヅマヤデイサービス",
    "address": "岩手県一関市大東町大原字立町113番地2",
    "lat": 39.0161326495775,
    "lng": 141.396885514208,
    "tel": "0191-72-3603",
    "url": "https://www.adumaya-day.com",
    "pref": "岩手県",
    "city": "一関市",
    "category": "day_service",
    "serviceType": "通所介護",
    "capacity": 0,
    "openDays": [
      "平日",
      "日曜日",
      "祝日"
    ],
    "openDaysNote": ""
  },
  {
    "id": "370900508",
    "name": "いこいデイサービスセンター",
    "kana": "イコイデイサービスセンター",
    "address": "岩手県一関市三関字仲田100",
    "lat": 38.9274363,
    "lng": 141.1525483,
    "tel": "0191-31-8500",
    "url": "http://www.cc-ikoi.com/",
    "pref": "岩手県",
    "city": "一関市",
    "category": "day_service",
    "serviceType": "通所介護",
    "capacity": 0,
    "openDays": [
      "平日",
      "土曜日",
      "祝日"
    ],
    "openDaysNote": ""
  },
  {
    "id": "370901969",
    "name": "いこいリハトレセンターげんき",
    "kana": "イコイリハトレセンターゲンキ",
    "address": "岩手県一関市山目字中野32番地1",
    "lat": 38.935234,
    "lng": 141.1174923,
    "tel": "0191-48-4768",
    "url": "http://www.cc-ikoi.com/",
    "pref": "岩手県",
    "city": "一関市",
    "category": "day_service",
    "serviceType": "通所介護",
    "capacity": 0,
    "openDays": [
      "平日",
      "祝日"
    ],
    "openDaysNote": "祝日が、上記定休日（お盆期間と年末年始）と重なる場合はお休みです。"
  },
  {
    "id": "370901225",
    "name": "かいご予防センターゆうゆうタウン五十人町",
    "kana": "カイゴヨボウセンターユウユウタウンゴジュウニンマチ",
    "address": "岩手県一関市五十人町５８－１",
    "lat": 38.9302884,
    "lng": 141.1423603,
    "tel": "0191-48-3008",
    "url": "http://www.oyama-care.net/",
    "pref": "岩手県",
    "city": "一関市",
    "category": "day_service",
    "serviceType": "通所介護",
    "capacity": 0,
    "openDays": [
      "平日"
    ],
    "openDaysNote": ""
  },
  {
    "id": "370902223",
    "name": "クラリス機能訓練特化型デイサービス",
    "kana": "クラリスキノウクンレントッカガタデイサービス",
    "address": "岩手県一関市上大槻街5番16号",
    "lat": 38.929773,
    "lng": 141.138759,
    "tel": "0191-34-6668",
    "url": "",
    "pref": "岩手県",
    "city": "一関市",
    "category": "day_service",
    "serviceType": "通所介護",
    "capacity": null,
    "openDays": [
      "平日"
    ],
    "openDaysNote": ""
  },
  {
    "id": "370901993",
    "name": "ツクイ一関",
    "kana": "ツクイイチノセキ",
    "address": "岩手県一関市東五代6番30号",
    "lat": 38.9407697,
    "lng": 141.130752,
    "tel": "0191-31-6887",
    "url": "https://corp.tsukui.net/",
    "pref": "岩手県",
    "city": "一関市",
    "category": "day_service",
    "serviceType": "通所介護",
    "capacity": 0,
    "openDays": [
      "平日",
      "土曜日",
      "日曜日",
      "祝日"
    ],
    "openDaysNote": ""
  },
  {
    "id": "370901985",
    "name": "ツクイ山目",
    "kana": "ツクイヤマノメ",
    "address": "岩手県一関市赤荻字月町191番地2",
    "lat": 38.9389896662807,
    "lng": 141.104991994477,
    "tel": "0191-33-2700",
    "url": "https://www.tsukui.net/",
    "pref": "岩手県",
    "city": "一関市",
    "category": "day_service",
    "serviceType": "通所介護",
    "capacity": 0,
    "openDays": [
      "平日",
      "土曜日",
      "日曜日",
      "祝日"
    ],
    "openDaysNote": "1年365日、年中無休"
  },
  {
    "id": "370901712",
    "name": "デイサービスあゆみ",
    "kana": "デイサービスアユミ",
    "address": "岩手県一関市中里字荒谷8番1",
    "lat": 38.9374026331479,
    "lng": 141.150850816688,
    "tel": "0191-21-5550",
    "url": "http://www.i-ayumi.net",
    "pref": "岩手県",
    "city": "一関市",
    "category": "day_service",
    "serviceType": "通所介護",
    "capacity": 0,
    "openDays": [
      "平日",
      "土曜日",
      "日曜日",
      "祝日"
    ],
    "openDaysNote": ""
  },
  {
    "id": "370900953",
    "name": "デイサービスセンターさくら館",
    "kana": "デイサービスセンターサクラカン",
    "address": "岩手県一関市花泉町涌津字下原134-1",
    "lat": 38.8228253,
    "lng": 141.1897854,
    "tel": "0191-36-3035",
    "url": "https://tsw-hd.com/sakurakan/",
    "pref": "岩手県",
    "city": "一関市",
    "category": "day_service",
    "serviceType": "通所介護",
    "capacity": 30,
    "openDays": [
      "平日",
      "土曜日",
      "日曜日",
      "祝日"
    ],
    "openDaysNote": "第2・4日曜日にデイサービスを営業"
  },
  {
    "id": "372600114",
    "name": "デイサービスセンターソエル花泉",
    "kana": "デイサービスセンターソエルハナイズミ",
    "address": "岩手県一関市花泉町涌津字一ノ町７６番地",
    "lat": 38.8308767,
    "lng": 141.1853271,
    "tel": "0191-36-1224",
    "url": "https://www.nioukai.or.jp",
    "pref": "岩手県",
    "city": "一関市",
    "category": "day_service",
    "serviceType": "通所介護",
    "capacity": 0,
    "openDays": [
      "平日",
      "土曜日",
      "日曜日",
      "祝日"
    ],
    "openDaysNote": ""
  },
  {
    "id": "370900581",
    "name": "デイサービスセンターひまわり",
    "kana": "デイサービスセンターヒマワリ",
    "address": "岩手県一関市赤荻字月町17",
    "lat": 38.9399612,
    "lng": 141.1056133,
    "tel": "0191-48-3100",
    "url": "http://www.iwate-tukushikai.jp/",
    "pref": "岩手県",
    "city": "一関市",
    "category": "day_service",
    "serviceType": "通所介護",
    "capacity": 0,
    "openDays": [
      "平日",
      "土曜日",
      "祝日"
    ],
    "openDaysNote": ""
  },
  {
    "id": "370901340",
    "name": "デイサービスセンターひより",
    "kana": "デイサービスセンターヒヨリ",
    "address": "岩手県一関市大東町沖田字峯岸５番地",
    "lat": 39.0415766460248,
    "lng": 141.344941288361,
    "tel": "0191-74-2666",
    "url": "http://shuuwakai.com",
    "pref": "岩手県",
    "city": "一関市",
    "category": "day_service",
    "serviceType": "通所介護",
    "capacity": 120,
    "openDays": [
      "平日",
      "日曜日",
      "祝日"
    ],
    "openDaysNote": ""
  },
  {
    "id": "370901027",
    "name": "デイサービスセンターペルシモン一関",
    "kana": "デイサービスセンターペルシモンイチノセキ",
    "address": "岩手県一関市石畑6番10号",
    "lat": 38.9384304895934,
    "lng": 141.133595834403,
    "tel": "0191-48-3960",
    "url": "https://tsw-hd.com/persimmon/",
    "pref": "岩手県",
    "city": "一関市",
    "category": "day_service",
    "serviceType": "通所介護",
    "capacity": 30,
    "openDays": [
      "平日",
      "土曜日",
      "祝日"
    ],
    "openDaysNote": ""
  },
  {
    "id": "372700138",
    "name": "デイサービスセンター興田",
    "kana": "デイサービスセンターオキタ",
    "address": "岩手県一関市大東町鳥海字細田３４番地１",
    "lat": 39.0505957,
    "lng": 141.3679651,
    "tel": "0191-74-3300",
    "url": "http://www.ichinoseki-shakyo.com/",
    "pref": "岩手県",
    "city": "一関市",
    "category": "day_service",
    "serviceType": "通所介護",
    "capacity": 0,
    "openDays": [
      "平日",
      "土曜日",
      "祝日"
    ],
    "openDaysNote": ""
  },
  {
    "id": "372600171",
    "name": "デイサービスセンター寿光荘",
    "kana": "デイサービスセンタージュコウソウ",
    "address": "岩手県一関市花泉町花泉字上舘74番地5",
    "lat": 38.8485877,
    "lng": 141.1604756,
    "tel": "0191-82-5266",
    "url": "https://www.nioukai.or.jp/",
    "pref": "岩手県",
    "city": "一関市",
    "category": "day_service",
    "serviceType": "通所介護",
    "capacity": 0,
    "openDays": [
      "平日",
      "土曜日",
      "日曜日",
      "祝日"
    ],
    "openDaysNote": ""
  },
  {
    "id": "372700146",
    "name": "デイサービスセンター大東",
    "kana": "デイサービスセンターダイトウ",
    "address": "岩手県一関市大東町大原字川内５番地２",
    "lat": 39.0174861,
    "lng": 141.399222,
    "tel": "0191-72-2336",
    "url": "http://www.ichinoseki-shakyo.com",
    "pref": "岩手県",
    "city": "一関市",
    "category": "day_service",
    "serviceType": "通所介護",
    "capacity": 0,
    "openDays": [
      "平日",
      "土曜日",
      "祝日"
    ],
    "openDaysNote": ""
  },
  {
    "id": "372700245",
    "name": "デイサービスセンター東山",
    "kana": "デイサービスセンターヒガシヤマ",
    "address": "岩手県一関市東山町長坂字西本町139番地1",
    "lat": 38.9955071,
    "lng": 141.252153,
    "tel": "0191-47-3238",
    "url": "",
    "pref": "岩手県",
    "city": "一関市",
    "category": "day_service",
    "serviceType": "通所介護",
    "capacity": 25,
    "openDays": [
      "平日",
      "土曜日",
      "祝日"
    ],
    "openDaysNote": "年末年始（12/29～1/3）は、休業"
  },
  {
    "id": "370901563",
    "name": "デイサービスセンター白藤",
    "kana": "デイサービスセンターシラフジ",
    "address": "岩手県一関市藤沢町藤沢字八沢262番地1",
    "lat": 38.8501602,
    "lng": 141.3490644,
    "tel": "0191-61-1500",
    "url": "",
    "pref": "岩手県",
    "city": "一関市",
    "category": "day_service",
    "serviceType": "通所介護",
    "capacity": 0,
    "openDays": [
      "平日",
      "土曜日",
      "祝日"
    ],
    "openDaysNote": ""
  },
  {
    "id": "370901365",
    "name": "デイサービスつれづれ",
    "kana": "デイサービスツレヅレ",
    "address": "岩手県一関市千厩町千厩字古ヶ口90番地7",
    "lat": 38.9140858,
    "lng": 141.3288575,
    "tel": "0191-52-2233",
    "url": "",
    "pref": "岩手県",
    "city": "一関市",
    "category": "day_service",
    "serviceType": "通所介護",
    "capacity": 0,
    "openDays": [
      "平日",
      "土曜日",
      "日曜日",
      "祝日"
    ],
    "openDaysNote": ""
  },
  {
    "id": "370901183",
    "name": "デイサービスゆかり",
    "kana": "デイサービスユカリ",
    "address": "岩手県一関市大町2-48",
    "lat": 38.927558,
    "lng": 141.1354776,
    "tel": "0191-31-3800",
    "url": "http://www.koseido-kaigo.com",
    "pref": "岩手県",
    "city": "一関市",
    "category": "day_service",
    "serviceType": "通所介護",
    "capacity": 19,
    "openDays": [
      "平日",
      "土曜日",
      "日曜日",
      "祝日"
    ],
    "openDaysNote": ""
  },
  {
    "id": "370900615",
    "name": "デイサービス街なか",
    "kana": "デイサービスマチナカ",
    "address": "岩手県一関市大町3番50号",
    "lat": 38.9289523,
    "lng": 141.1361748,
    "tel": "0191-31-2236",
    "url": "http://koseido-kaigo.com/",
    "pref": "岩手県",
    "city": "一関市",
    "category": "day_service",
    "serviceType": "通所介護",
    "capacity": 0,
    "openDays": [
      "平日",
      "土曜日",
      "日曜日",
      "祝日"
    ],
    "openDaysNote": ""
  },
  {
    "id": "370902066",
    "name": "デイサービス晴れるや",
    "kana": "デイサービスハレルヤ",
    "address": "岩手県一関市中里字雲南３０",
    "lat": 38.9387875,
    "lng": 141.1461248,
    "tel": "0191-34-8033",
    "url": "https://www.sakuranbo-ichinoseki.com",
    "pref": "岩手県",
    "city": "一関市",
    "category": "day_service",
    "serviceType": "通所介護",
    "capacity": 0,
    "openDays": [
      "平日",
      "土曜日",
      "日曜日",
      "祝日"
    ],
    "openDaysNote": ""
  },
  {
    "id": "372700633",
    "name": "にこにこプラザだいとうデイサービスセンター",
    "kana": "ニコニコプラザダイトウデイサービスセンター",
    "address": "岩手県一関市大東町猿沢字板倉６０－１",
    "lat": 39.034001,
    "lng": 141.2946089,
    "tel": "0191-71-4166",
    "url": "https://kaigo-iwai.com/",
    "pref": "岩手県",
    "city": "一関市",
    "category": "day_service",
    "serviceType": "通所介護",
    "capacity": 0,
    "openDays": [
      "平日",
      "土曜日",
      "日曜日",
      "祝日"
    ],
    "openDaysNote": "正月・お盆等特別な期間を除く"
  },
  {
    "id": "370901118",
    "name": "にこにこプラザひがしやまデイサービスセンター",
    "kana": "ニコニコプラザヒガシヤマデイサービスセンター",
    "address": "一関市東山町長坂字北磐井里１８７－３",
    "lat": 39.0106112,
    "lng": 141.2616572,
    "tel": "0191-35-3366",
    "url": "https://kaigo-iwai.com/",
    "pref": "岩手県",
    "city": "一関市",
    "category": "day_service",
    "serviceType": "通所介護",
    "capacity": 0,
    "openDays": [
      "平日",
      "土曜日",
      "日曜日",
      "祝日"
    ],
    "openDaysNote": ""
  },
  {
    "id": "370900375",
    "name": "ニチイケアセンター一関",
    "kana": "ニチイケアセンターイチノセキ",
    "address": "岩手県一関市青葉二丁目7-26",
    "lat": 38.9324044,
    "lng": 141.1280532,
    "tel": "0191-32-5777",
    "url": "http://www.nichiigakkan.co.jp",
    "pref": "岩手県",
    "city": "一関市",
    "category": "day_service",
    "serviceType": "通所介護",
    "capacity": 0,
    "openDays": [
      "平日",
      "土曜日",
      "祝日"
    ],
    "openDaysNote": ""
  },
  {
    "id": "370901233",
    "name": "ふじさわデイサービスセンター",
    "kana": "フジサワデイサービスセンター",
    "address": "岩手県一関市藤沢町藤沢字町裏55番地",
    "lat": 38.859251,
    "lng": 141.3498585,
    "tel": "0191-63-4267",
    "url": "",
    "pref": "岩手県",
    "city": "一関市",
    "category": "day_service",
    "serviceType": "通所介護",
    "capacity": 40,
    "openDays": [
      "平日",
      "土曜日",
      "日曜日",
      "祝日"
    ],
    "openDaysNote": "毎週日曜日は、介護予防・日常生活支援総合事業通所型サービスA（基準緩和）を行っている。"
  },
  {
    "id": "370901878",
    "name": "ラポール・テトラ通所介護事業所",
    "kana": "ラポールテトラツウショカイゴジギョウショ",
    "address": "岩手県一関市萩荘字境ノ神112-2",
    "lat": 38.917869,
    "lng": 141.0920046,
    "tel": "0191-48-4874",
    "url": "",
    "pref": "岩手県",
    "city": "一関市",
    "category": "day_service",
    "serviceType": "通所介護",
    "capacity": 0,
    "openDays": [
      "平日",
      "祝日"
    ],
    "openDaysNote": "・延長利用を希望される方はご相談ください。"
  },
  {
    "id": "370900094",
    "name": "一関デイサービスセンター",
    "kana": "イチノセキデイサービスセンター",
    "address": "岩手県一関市真柴字吉ケ沢20-81",
    "lat": 38.8805137,
    "lng": 141.137915,
    "tel": "0191-23-0117",
    "url": "",
    "pref": "岩手県",
    "city": "一関市",
    "category": "day_service",
    "serviceType": "通所介護",
    "capacity": 0,
    "openDays": [
      "平日",
      "土曜日",
      "祝日"
    ],
    "openDaysNote": ""
  },
  {
    "id": "370900102",
    "name": "関生園デイサービスセンター",
    "kana": "カンセイエンデイサービスセンター",
    "address": "岩手県一関市真柴字はの木立43-124",
    "lat": 38.8776864,
    "lng": 141.1425757,
    "tel": "0191-26-1616",
    "url": "http://www.iwate-tukushikai.jp/",
    "pref": "岩手県",
    "city": "一関市",
    "category": "day_service",
    "serviceType": "通所介護",
    "capacity": 0,
    "openDays": [
      "平日",
      "土曜日",
      "日曜日",
      "祝日"
    ],
    "openDaysNote": ""
  },
  {
    "id": "372700278",
    "name": "孝養ハイツデイサービスセンター通所介護事業所",
    "kana": "コウヨウハイツデイサービスセンターツウショカイゴジギョウショ",
    "address": "岩手県一関市室根町折壁字八幡沖１１９",
    "lat": 38.935289,
    "lng": 141.4409416,
    "tel": "0191-64-3923",
    "url": "http://www.kouyouhaitsu.com/",
    "pref": "岩手県",
    "city": "一関市",
    "category": "day_service",
    "serviceType": "通所介護",
    "capacity": 0,
    "openDays": [
      "平日",
      "土曜日",
      "日曜日",
      "祝日"
    ],
    "openDaysNote": "年中無休"
  },
  {
    "id": "370901126",
    "name": "室蓬デイサービスセンター",
    "kana": "シッポウデイサービスセンター",
    "address": "岩手県一関市大東町摺沢字菅生前６１番地３２",
    "lat": 39.0076087,
    "lng": 141.334092,
    "tel": "0191-75-2611",
    "url": "http://sippoukai.com/",
    "pref": "岩手県",
    "city": "一関市",
    "category": "day_service",
    "serviceType": "通所介護",
    "capacity": 0,
    "openDays": [
      "平日",
      "土曜日",
      "祝日"
    ],
    "openDaysNote": "臨時休業の場合あり"
  },
  {
    "id": "372700377",
    "name": "寿松苑デイサービスセンター",
    "kana": "ジュショウエンデイサービスセンター",
    "address": "岩手県一関市川崎町薄衣字久伝26番地",
    "lat": 38.9003654,
    "lng": 141.2741715,
    "tel": "0191-43-2223",
    "url": "http://www.jushoen.com",
    "pref": "岩手県",
    "city": "一関市",
    "category": "day_service",
    "serviceType": "通所介護",
    "capacity": 0,
    "openDays": [
      "平日",
      "土曜日",
      "祝日"
    ],
    "openDaysNote": "なし"
  },
  {
    "id": "372700740",
    "name": "千厩寿慶会指定通所介護事業所",
    "kana": "センマヤジュケイカイシテイツウショカイゴジギョウショ",
    "address": "岩手県一関市千厩町千厩字脇谷28番地８",
    "lat": 38.9175742,
    "lng": 141.3253965,
    "tel": "0191-53-2125",
    "url": "http://jukeikai.or.jp",
    "pref": "岩手県",
    "city": "一関市",
    "category": "day_service",
    "serviceType": "通所介護",
    "capacity": 0,
    "openDays": [
      "平日",
      "土曜日",
      "祝日"
    ],
    "openDaysNote": ""
  },
  {
    "id": "370900623",
    "name": "福光園デイサービスセンター老楽園",
    "kana": "フッコウエンデイサービスセンターロウラクエン",
    "address": "岩手県一関市萩荘字大袋306-1",
    "lat": 38.9377412,
    "lng": 141.078913,
    "tel": "0191-32-2512",
    "url": "http://www.fukkouen.or.jp/",
    "pref": "岩手県",
    "city": "一関市",
    "category": "day_service",
    "serviceType": "通所介護",
    "capacity": 0,
    "openDays": [
      "平日",
      "土曜日",
      "祝日"
    ],
    "openDaysNote": "特になし"
  },
  {
    "id": "370900201",
    "name": "明生園デイサービスセンター",
    "kana": "メイセイエンデイサービスセンター",
    "address": "岩手県一関市滝沢字寺下２番地１",
    "lat": 38.906087,
    "lng": 141.1798576,
    "tel": "0191-23-2293",
    "url": "http://www.iwate-tukushikai.jp/",
    "pref": "岩手県",
    "city": "一関市",
    "category": "day_service",
    "serviceType": "通所介護",
    "capacity": 0,
    "openDays": [
      "平日",
      "土曜日",
      "日曜日",
      "祝日"
    ],
    "openDaysNote": ""
  },
  {
    "id": "353280019",
    "name": "こずやサンブルクデイサービス",
    "kana": "コズヤサンブルクデイサービス",
    "address": "岩手県二戸郡一戸町小鳥谷字野中２１",
    "lat": 40.1813898,
    "lng": 141.3050573,
    "tel": "0195-34-2006",
    "url": "http://kozuya-sunburg.jp/",
    "pref": "岩手県",
    "city": "一戸町",
    "category": "day_service",
    "serviceType": "通所介護",
    "capacity": 0,
    "openDays": [
      "平日",
      "土曜日",
      "祝日"
    ],
    "openDaysNote": ""
  },
  {
    "id": "373200377",
    "name": "デイサービスセンターにこトピア一戸",
    "kana": "デイサービスセンターニコトピアイチノヘ",
    "address": "岩手県二戸郡一戸町一戸字向町56番地1",
    "lat": 40.2155466024401,
    "lng": 141.298605767389,
    "tel": "0195-43-3681",
    "url": "",
    "pref": "岩手県",
    "city": "一戸町",
    "category": "day_service",
    "serviceType": "通所介護",
    "capacity": 0,
    "openDays": [
      "平日",
      "土曜日",
      "日曜日",
      "祝日"
    ],
    "openDaysNote": ""
  },
  {
    "id": "373200245",
    "name": "株式会社結愛サービス公社指定通所介護事業所",
    "kana": "カブシキガイシャユウアイサービスコウシャシテイツウショカイゴジギョウショ",
    "address": "岩手県二戸郡一戸町一戸字砂森９３番地２",
    "lat": 40.2084923,
    "lng": 141.3064928,
    "tel": "0195-32-3737",
    "url": "https://yuaiservice.co.jp",
    "pref": "岩手県",
    "city": "一戸町",
    "category": "day_service",
    "serviceType": "通所介護",
    "capacity": 0,
    "openDays": [
      "平日",
      "祝日"
    ],
    "openDaysNote": ""
  },
  {
    "id": "373200120",
    "name": "慶寿園デイサービスセンター",
    "kana": "ケイジュエンデイサービスセンター",
    "address": "岩手県二戸郡一戸町姉帯字下村24番地1",
    "lat": 40.1659613193961,
    "lng": 141.336843764418,
    "tel": "0195-34-3355",
    "url": "https://iwate-jikoukai.jp/",
    "pref": "岩手県",
    "city": "一戸町",
    "category": "day_service",
    "serviceType": "通所介護",
    "capacity": 25,
    "openDays": [
      "平日",
      "土曜日",
      "日曜日",
      "祝日"
    ],
    "openDaysNote": "その他、利用者の利用状況等に鑑み休業する場合がございます。"
  },
  {
    "id": "370800237",
    "name": "デイサービスセンター長寿の森踊鹿",
    "kana": "デイサービスセンターチョウジュノモリオドロカ",
    "address": "岩手県遠野市青笹町糠前9-7-67",
    "lat": 39.3350016,
    "lng": 141.5582366,
    "tel": "0198-62-0755",
    "url": "http://www.t-chouju.jp",
    "pref": "岩手県",
    "city": "遠野市",
    "category": "day_service",
    "serviceType": "通所介護",
    "capacity": 35,
    "openDays": [
      "平日",
      "土曜日",
      "祝日"
    ],
    "openDaysNote": "年末年始（12/30～1/3）（改行）※ただし、休業が5日を超える場合やイベント等の開催や参加を目的として、上記営業日以外に臨時営業し、通所介護サービスを提供することがある。"
  },
  {
    "id": "370800104",
    "name": "ふれあいホーム小友",
    "kana": "フレアイホームオトモ",
    "address": "岩手県遠野市小友町33地割5番地1",
    "lat": 39.2714496166486,
    "lng": 141.42235997791,
    "tel": "0198-68-2460",
    "url": "https://www.tono-shakyo.jp/",
    "pref": "岩手県",
    "city": "遠野市",
    "category": "day_service",
    "serviceType": "通所介護",
    "capacity": 0,
    "openDays": [
      "平日",
      "祝日"
    ],
    "openDaysNote": ""
  },
  {
    "id": "370800146",
    "name": "ふれあいホーム上郷",
    "kana": "フレアイホームカミゴウ",
    "address": "岩手県遠野市上郷町細越7地割5番地",
    "lat": 39.2845110147746,
    "lng": 141.592436769941,
    "tel": "0198-65-3680",
    "url": "https://www.tono-shakyo.jp/",
    "pref": "岩手県",
    "city": "遠野市",
    "category": "day_service",
    "serviceType": "通所介護",
    "capacity": 0,
    "openDays": [
      "平日",
      "祝日"
    ],
    "openDaysNote": "祝日は営業"
  },
  {
    "id": "370800070",
    "name": "ふれあいホーム薬研淵",
    "kana": "フレアイホームヤケンブチ",
    "address": "岩手県遠野市松崎町白岩字薬研淵4番地１",
    "lat": 39.3439332,
    "lng": 141.537177,
    "tel": "0198-62-1595",
    "url": "http://www.tono-shakyo.jp",
    "pref": "岩手県",
    "city": "遠野市",
    "category": "day_service",
    "serviceType": "通所介護",
    "capacity": 0,
    "openDays": [
      "平日",
      "祝日"
    ],
    "openDaysNote": ""
  },
  {
    "id": "372900217",
    "name": "みやもり荘デイサービスセンター指定通所介護事業所",
    "kana": "ミヤモリソウデイサービスセンターシテイツウショカイゴジギョウショ",
    "address": "岩手県遠野市宮守町下宮守２８地割１９番地１",
    "lat": 39.3458139,
    "lng": 141.3629591,
    "tel": "0198-67-2268",
    "url": "http://www.tomori-kai.jp/",
    "pref": "岩手県",
    "city": "遠野市",
    "category": "day_service",
    "serviceType": "通所介護",
    "capacity": 0,
    "openDays": [
      "平日",
      "土曜日",
      "祝日"
    ],
    "openDaysNote": ""
  },
  {
    "id": "370800492",
    "name": "株式会社工房ＺＥＲＯ介護事業部デイサービスセンター風音",
    "kana": "カブシキガイシャコウボウゼロカイゴジギョウブデイサービスセンターカノン",
    "address": "岩手県遠野市綾織町新里15地割12番地１",
    "lat": 39.330058,
    "lng": 141.4803778,
    "tel": "0198-63-3830",
    "url": "http://kobozero.jimdofree.com/",
    "pref": "岩手県",
    "city": "遠野市",
    "category": "day_service",
    "serviceType": "通所介護",
    "capacity": 20,
    "openDays": [
      "平日",
      "祝日"
    ],
    "openDaysNote": ""
  },
  {
    "id": "370800179",
    "name": "老人デイサービスセンター長寿園",
    "kana": "ロウジンデイサービスセンターチョウジュエン",
    "address": "岩手県遠野市松崎町白岩18-7",
    "lat": 39.3332625826223,
    "lng": 141.548990375348,
    "tel": "0198-63-1816",
    "url": "http://www.t-chouju.jp",
    "pref": "岩手県",
    "city": "遠野市",
    "category": "day_service",
    "serviceType": "通所介護",
    "capacity": 0,
    "openDays": [
      "平日",
      "日曜日",
      "祝日"
    ],
    "openDaysNote": "１２月３０日から１月３日までを除く"
  },
  {
    "id": "371501057",
    "name": "あおぞらデイサービス",
    "kana": "アオゾラデイサービス",
    "address": "岩手県奥州市水沢南大鐘一丁目60番地",
    "lat": 39.1282943,
    "lng": 141.1375528,
    "tel": "0197-34-1115",
    "url": "http://assetlink.jp",
    "pref": "岩手県",
    "city": "奥州市",
    "category": "day_service",
    "serviceType": "通所介護",
    "capacity": 0,
    "openDays": [
      "平日",
      "土曜日",
      "祝日"
    ],
    "openDaysNote": ""
  },
  {
    "id": "371500562",
    "name": "あすかの森デイサービス",
    "kana": "アスカノモリデイサービス",
    "address": "岩手県奥州市江刺広瀬字柿ノ木443-7",
    "lat": 39.2521967659586,
    "lng": 141.210700332402,
    "tel": "0197-36-3054",
    "url": "http://asuka2012.com/",
    "pref": "岩手県",
    "city": "奥州市",
    "category": "day_service",
    "serviceType": "通所介護",
    "capacity": 0,
    "openDays": [
      "平日",
      "土曜日",
      "祝日"
    ],
    "openDaysNote": ""
  },
  {
    "id": "371200296",
    "name": "あっぷるホーム指定通所介護事業所",
    "kana": "アップルホームシテイツウショカイゴジギョウショ",
    "address": "岩手県奥州市江刺玉里字青篠２番地１",
    "lat": 39.228494,
    "lng": 141.2519024,
    "tel": "0197-28-6337",
    "url": "https://applehome.or.jp",
    "pref": "岩手県",
    "city": "奥州市",
    "category": "day_service",
    "serviceType": "通所介護",
    "capacity": 0,
    "openDays": [
      "平日",
      "土曜日",
      "祝日"
    ],
    "openDaysNote": "年末年始（１２／３１～１／３）"
  },
  {
    "id": "371500448",
    "name": "ケアネット・アテルイ鶴田デイサービスセンター",
    "kana": "ケアネット・アテルイツルタデイサービスセンター",
    "address": "岩手県奥州市胆沢南都田字鶴田161番地1ケアネット・アテルイクレイン ケアネット・アテルイクレイン",
    "lat": 39.1356122,
    "lng": 141.1146491,
    "tel": "0197-46-0066",
    "url": "",
    "pref": "岩手県",
    "city": "奥州市",
    "category": "day_service",
    "serviceType": "通所介護",
    "capacity": 0,
    "openDays": [
      "平日",
      "土曜日",
      "祝日"
    ],
    "openDaysNote": ""
  },
  {
    "id": "371200361",
    "name": "スマイル桜木デイサービスホーム",
    "kana": "スマイルサクラギデイサービスホーム",
    "address": "岩手県奥州市江刺愛宕字前中野88番地1",
    "lat": 39.1679536953479,
    "lng": 141.164310712077,
    "tel": "0197-31-2883",
    "url": "",
    "pref": "岩手県",
    "city": "奥州市",
    "category": "day_service",
    "serviceType": "通所介護",
    "capacity": 19,
    "openDays": [
      "平日",
      "土曜日",
      "祝日"
    ],
    "openDaysNote": "年末年始（12/31～1/3）、お盆休み（8/13～15）は休み"
  },
  {
    "id": "370400442",
    "name": "チャレンジ・ゼット",
    "kana": "チャレンジゼット",
    "address": "岩手県奥州市水沢字斉ノ神70-1奥州日高館 奥州日高館",
    "lat": 39.1413994877129,
    "lng": 141.131631483606,
    "tel": "0197-22-6767",
    "url": "http://www.nakanome.biz/",
    "pref": "岩手県",
    "city": "奥州市",
    "category": "day_service",
    "serviceType": "通所介護",
    "capacity": 25,
    "openDays": [
      "平日",
      "土曜日",
      "祝日"
    ],
    "openDaysNote": ""
  },
  {
    "id": "371501164",
    "name": "ツクイ奥州水沢",
    "kana": "ツクイオウシュウミズサワ",
    "address": "岩手県奥州市水沢花園町二丁目6番21-2号",
    "lat": 39.1419192544013,
    "lng": 141.154794121637,
    "tel": "0197-51-2310",
    "url": "https://www.tsukui.net/",
    "pref": "岩手県",
    "city": "奥州市",
    "category": "day_service",
    "serviceType": "通所介護",
    "capacity": 0,
    "openDays": [
      "平日",
      "土曜日",
      "日曜日",
      "祝日"
    ],
    "openDaysNote": "365日　年中無休で営業"
  },
  {
    "id": "371500653",
    "name": "デイサービスセンターはなみずき",
    "kana": "デイサービスセンターハナミズキ",
    "address": "岩手県奥州市江刺西大通り１－１１複合型介護施設はなみずき 複合型介護施設はなみずき",
    "lat": 39.1894032177363,
    "lng": 141.174225912967,
    "tel": "0197-47-5666",
    "url": "",
    "pref": "岩手県",
    "city": "奥州市",
    "category": "day_service",
    "serviceType": "通所介護",
    "capacity": 0,
    "openDays": [
      "平日",
      "土曜日",
      "祝日"
    ],
    "openDaysNote": ""
  },
  {
    "id": "371500380",
    "name": "デイサービスセンターペルシモン前沢",
    "kana": "デイサービスセンターペルシモンマエサワ",
    "address": "岩手県奥州市前沢字南塔ヶ崎11番1",
    "lat": 39.0390728981852,
    "lng": 141.119343165884,
    "tel": "0197-41-3826",
    "url": "https://tsw-hd.com/persimmon/maesawa/",
    "pref": "岩手県",
    "city": "奥州市",
    "category": "day_service",
    "serviceType": "通所介護",
    "capacity": 25,
    "openDays": [
      "平日",
      "土曜日",
      "祝日"
    ],
    "openDaysNote": ""
  },
  {
    "id": "371500471",
    "name": "デイサービスセンターペルシモン前沢東",
    "kana": "デイサービスセンターペルシモンマエサワヒガシ",
    "address": "岩手県奥州市前沢向田一丁目16番3",
    "lat": 39.0472639,
    "lng": 141.1295094,
    "tel": "0197-41-3180",
    "url": "https://tsw-hd.com",
    "pref": "岩手県",
    "city": "奥州市",
    "category": "day_service",
    "serviceType": "通所介護",
    "capacity": 0,
    "openDays": [
      "平日",
      "土曜日",
      "祝日"
    ],
    "openDaysNote": "年末年始　12月29日～1月3日（但し営業することができる）"
  },
  {
    "id": "371200379",
    "name": "デイサービスセンター大日",
    "kana": "デイサービスセンターダイニチ",
    "address": "岩手県奥州市江刺田原字大日195番地１",
    "lat": 39.16207,
    "lng": 141.2040124,
    "tel": "0197-31-2105",
    "url": "http://www.koyo-esashi.co.jp/",
    "pref": "岩手県",
    "city": "奥州市",
    "category": "day_service",
    "serviceType": "通所介護",
    "capacity": 0,
    "openDays": [
      "平日",
      "土曜日",
      "祝日"
    ],
    "openDaysNote": ""
  },
  {
    "id": "371501073",
    "name": "デイサービスセンター博水苑",
    "kana": "デイサービスセンターハクスイエン",
    "address": "岩手県奥州市水沢佐倉河字九蔵田40番地1",
    "lat": 39.176653,
    "lng": 141.136929,
    "tel": "0197-22-5771",
    "url": "",
    "pref": "岩手県",
    "city": "奥州市",
    "category": "day_service",
    "serviceType": "通所介護",
    "capacity": 0,
    "openDays": [
      "平日",
      "祝日"
    ],
    "openDaysNote": "天災等そのたやむを得ない事態等により、事業所の営業ができない状況の場合は、中止することがあります。"
  },
  {
    "id": "371500950",
    "name": "デイサービスどんぐり",
    "kana": "デイサービスドングリ",
    "address": "岩手県奥州市胆沢小山字尼沼22番地4",
    "lat": 39.120072389733,
    "lng": 141.139128298009,
    "tel": "0197-47-5536",
    "url": "https://www.donguri-web.com",
    "pref": "岩手県",
    "city": "奥州市",
    "category": "day_service",
    "serviceType": "通所介護",
    "capacity": 0,
    "openDays": [
      "平日",
      "土曜日",
      "祝日"
    ],
    "openDaysNote": ""
  },
  {
    "id": "371500612",
    "name": "デイサービスハーティーホーム",
    "kana": "デイサービスハーティーホーム",
    "address": "岩手県奥州市水沢字内匠田31-1",
    "lat": 39.1427341,
    "lng": 141.1256951,
    "tel": "0197-47-4554",
    "url": "http://heartyhome.net/",
    "pref": "岩手県",
    "city": "奥州市",
    "category": "day_service",
    "serviceType": "通所介護",
    "capacity": 0,
    "openDays": [
      "平日",
      "土曜日",
      "祝日"
    ],
    "openDaysNote": ""
  },
  {
    "id": "371500810",
    "name": "デイサービスゆたかな家っこ",
    "kana": "デイサービスユタカナイエッコ",
    "address": "岩手県奥州市胆沢若柳字下松原80",
    "lat": 39.1325273702747,
    "lng": 141.064847358722,
    "tel": "0197-47-6010",
    "url": "http://www.yutaka-oshu.com",
    "pref": "岩手県",
    "city": "奥州市",
    "category": "day_service",
    "serviceType": "通所介護",
    "capacity": 0,
    "openDays": [
      "平日",
      "土曜日",
      "祝日"
    ],
    "openDaysNote": ""
  },
  {
    "id": "371500299",
    "name": "ニチイケアセンター江刺",
    "kana": "ニチイケアセンターエサシ",
    "address": "岩手県奥州市江刺八日町一丁目３番１号",
    "lat": 39.1882718,
    "lng": 141.173853,
    "tel": "0197-31-0331",
    "url": "http://www.nichiigakkan.co.jp",
    "pref": "岩手県",
    "city": "奥州市",
    "category": "day_service",
    "serviceType": "通所介護",
    "capacity": 0,
    "openDays": [
      "平日",
      "土曜日",
      "祝日"
    ],
    "openDaysNote": "ただし、居宅サービス計画により、営業時間外であってもサービスの提供を行なう場合があります。（改行）日曜日は定休日になっております。"
  },
  {
    "id": "371500042",
    "name": "ニチイケアセンター水沢",
    "kana": "ニチイケアセンターミズサワ",
    "address": "岩手県奥州市水沢西町２－１０",
    "lat": 39.1377876,
    "lng": 141.1363831,
    "tel": "0197-51-2636",
    "url": "http://www.nichiigakkan.co.jp",
    "pref": "岩手県",
    "city": "奥州市",
    "category": "day_service",
    "serviceType": "通所介護",
    "capacity": 0,
    "openDays": [
      "平日",
      "土曜日",
      "祝日"
    ],
    "openDaysNote": ""
  },
  {
    "id": "372500488",
    "name": "ぬくもりの家デイサービスセンター",
    "kana": "ヌクモリノイエデイサービスセンター",
    "address": "岩手県奥州市胆沢南都田字大持30番地",
    "lat": 39.1293505,
    "lng": 141.0693561,
    "tel": "0197-46-5100",
    "url": "https://www.oshuisawakai.iwate.jp/",
    "pref": "岩手県",
    "city": "奥州市",
    "category": "day_service",
    "serviceType": "通所介護",
    "capacity": 0,
    "openDays": [
      "平日",
      "土曜日",
      "日曜日",
      "祝日"
    ],
    "openDaysNote": ""
  },
  {
    "id": "371500182",
    "name": "ふれあいステーション「あじさい」",
    "kana": "フレアイステーション「アジサイ」",
    "address": "岩手県奥州市江刺八日町一丁目８－８",
    "lat": 39.1865387315682,
    "lng": 141.172470455434,
    "tel": "0197-31-0707",
    "url": "http://npoesasi.or.jp/",
    "pref": "岩手県",
    "city": "奥州市",
    "category": "day_service",
    "serviceType": "通所介護",
    "capacity": 0,
    "openDays": [
      "平日",
      "祝日"
    ],
    "openDaysNote": "なし"
  },
  {
    "id": "371500976",
    "name": "ペルヘ宮田デイサービス",
    "kana": "ペルヘミヤタデイサービス",
    "address": "岩手県奥州市水沢真城字宮田53番地2",
    "lat": 39.1206458134565,
    "lng": 141.155852837434,
    "tel": "0197-47-5822",
    "url": "http://www.koresapo.jp/",
    "pref": "岩手県",
    "city": "奥州市",
    "category": "day_service",
    "serviceType": "通所介護",
    "capacity": 23,
    "openDays": [
      "平日",
      "土曜日",
      "祝日"
    ],
    "openDaysNote": "但し、年末年始（１２月３１日～１月３日）は「休日」の扱いとなります。"
  },
  {
    "id": "372500132",
    "name": "まえさわ苑デイサービスセンター",
    "kana": "マエサワエンデイサービスセンター",
    "address": "岩手県奥州市前沢字塔ケ崎7番地",
    "lat": 39.0402645,
    "lng": 141.12068,
    "tel": "0197-56-5600",
    "url": "https://tsu2ji.oshushi.com/",
    "pref": "岩手県",
    "city": "奥州市",
    "category": "day_service",
    "serviceType": "通所介護",
    "capacity": null,
    "openDays": [
      "平日",
      "土曜日",
      "祝日"
    ],
    "openDaysNote": ""
  },
  {
    "id": "372500173",
    "name": "やまゆり荘デイサービスセンター",
    "kana": "ヤマユリソウデイサービスセンター",
    "address": "岩手県奥州市胆沢南都田字加賀谷地416番地",
    "lat": 39.1169715,
    "lng": 141.0722784,
    "tel": "0197-46-5111",
    "url": "http://www.oshuisawakai.iwate.jp",
    "pref": "岩手県",
    "city": "奥州市",
    "category": "day_service",
    "serviceType": "通所介護",
    "capacity": 0,
    "openDays": [
      "平日",
      "土曜日",
      "日曜日",
      "祝日"
    ],
    "openDaysNote": "サービス提供時間は7時間から9時間提供実施しています。"
  },
  {
    "id": "371500554",
    "name": "リハビリテーションデイサービスゆうゆうタウン水沢",
    "kana": "リハビリテーションデイサービスユウユウタウンミズサワ",
    "address": "岩手県奥州市水沢区太日通り2丁目1-20さくらビル1階 さくらビル1階",
    "lat": 39.136502,
    "lng": 141.150368,
    "tel": "0197-25-3012",
    "url": "http://www.oyama-care.net/",
    "pref": "岩手県",
    "city": "奥州市",
    "category": "day_service",
    "serviceType": "通所介護",
    "capacity": 0,
    "openDays": [
      "平日"
    ],
    "openDaysNote": ""
  },
  {
    "id": "371501156",
    "name": "リハビリ特化型デイサービスあさがお",
    "kana": "リハビリトッカガタデイサービスアサガオ",
    "address": "岩手県奥州市水沢上姉体2丁目1番地7",
    "lat": 39.1166677,
    "lng": 141.1639654,
    "tel": "0197-34-2144",
    "url": "https://www.seiwakai-med.or.jp",
    "pref": "岩手県",
    "city": "奥州市",
    "category": "day_service",
    "serviceType": "通所介護",
    "capacity": 45,
    "openDays": [
      "平日"
    ],
    "openDaysNote": ""
  },
  {
    "id": "372500231",
    "name": "羽衣荘デイサービスセンター",
    "kana": "ハゴロモソウデイサービスセンター",
    "address": "岩手県奥州市衣川古戸４５番地",
    "lat": 39.0380208,
    "lng": 141.0645203,
    "tel": "0197-52-3571",
    "url": "http://www.hagoromosou.net",
    "pref": "岩手県",
    "city": "奥州市",
    "category": "day_service",
    "serviceType": "通所介護",
    "capacity": 30,
    "openDays": [
      "平日",
      "土曜日",
      "祝日"
    ],
    "openDaysNote": ""
  },
  {
    "id": "370400558",
    "name": "株式会社ケアネットデイサービス水沢",
    "kana": "カブシキガイシャケアネットデイサービスミズサワ",
    "address": "岩手県奥州市水沢花園町一丁目１９番１６号",
    "lat": 39.1414708,
    "lng": 141.1479459,
    "tel": "0197-22-2901",
    "url": "http://www.carenet.fujitsu.com/",
    "pref": "岩手県",
    "city": "奥州市",
    "category": "day_service",
    "serviceType": "通所介護",
    "capacity": 50,
    "openDays": [
      "平日",
      "土曜日",
      "日曜日",
      "祝日"
    ],
    "openDaysNote": "延長　　９時間～１０時間未満　　　５００円（利用者負担５０円）（改行）延長　１０時間～１１時間未満　１，０００円（利用者負担１００円）（改行）延長　１１時間～１２時間未満　１，５００円（利用者負担１５０円）"
  },
  {
    "id": "371200098",
    "name": "江寿園指定通所介護事業所",
    "kana": "コウジュエンシテイツウショカイゴジギョウショ",
    "address": "岩手県奥州市江刺伊手字新田146番地4",
    "lat": 39.175905,
    "lng": 141.3123578,
    "tel": "0197-39-3417",
    "url": "https://www.esashijyuseikai.or.jp/",
    "pref": "岩手県",
    "city": "奥州市",
    "category": "day_service",
    "serviceType": "通所介護",
    "capacity": 0,
    "openDays": [
      "平日",
      "土曜日",
      "祝日"
    ],
    "openDaysNote": ""
  },
  {
    "id": "371200106",
    "name": "桜つつみ指定通所介護事業所",
    "kana": "サクラツツミシテイツウショカイゴジギョウショ",
    "address": "岩手県奥州市江刺岩谷堂字下惣田290番地1",
    "lat": 39.1811479705359,
    "lng": 141.18124840846,
    "tel": "0197-35-8300",
    "url": "https://www.esashijyuseikai.or.jp/",
    "pref": "岩手県",
    "city": "奥州市",
    "category": "day_service",
    "serviceType": "通所介護",
    "capacity": 0,
    "openDays": [
      "平日",
      "土曜日",
      "祝日"
    ],
    "openDaysNote": ""
  },
  {
    "id": "371501149",
    "name": "生活介護事業所ときわ寮",
    "kana": "セイカツカイゴジギョウショトキワリョウ",
    "address": "岩手県奥州市水沢泉町9番1号",
    "lat": 39.1297985,
    "lng": 141.1592943,
    "tel": "0197-25-3523",
    "url": "https://www.aigokai.jp",
    "pref": "岩手県",
    "city": "奥州市",
    "category": "day_service",
    "serviceType": "通所介護",
    "capacity": null,
    "openDays": [
      "平日"
    ],
    "openDaysNote": "支援の必要に応じて、土曜日、日曜日、国民の祝日、8月12日から8月16日（盆期間）、12月29日から翌年1月3日（年末年始期間）においても開所する場合がある"
  },
  {
    "id": "372500256",
    "name": "胆沢デイサービスセンター",
    "kana": "イサワデイサービスセンター",
    "address": "岩手県奥州市胆沢南都田字石行30番地1",
    "lat": 39.1189943438285,
    "lng": 141.067820364899,
    "tel": "0197-47-3833",
    "url": "",
    "pref": "岩手県",
    "city": "奥州市",
    "category": "day_service",
    "serviceType": "通所介護",
    "capacity": 0,
    "openDays": [
      "平日",
      "祝日"
    ],
    "openDaysNote": ""
  },
  {
    "id": "370400079",
    "name": "福寿荘通所介護事業所",
    "kana": "フクジュソウツウショカイゴジギョウショ",
    "address": "岩手県奥州市水沢上姉体二丁目1番地22",
    "lat": 39.1166269,
    "lng": 141.1639952,
    "tel": "0197-28-1232",
    "url": "http://www.fukujyusou.jp/",
    "pref": "岩手県",
    "city": "奥州市",
    "category": "day_service",
    "serviceType": "通所介護",
    "capacity": 35,
    "openDays": [
      "平日",
      "土曜日",
      "日曜日",
      "祝日"
    ],
    "openDaysNote": ""
  },
  {
    "id": "370500746",
    "name": "ik介護デイサービスセンター「スマイル」",
    "kana": "アイケイカイゴデイサービスセンタースマイル",
    "address": "岩手県花巻市二枚橋第５地割３６０番地１",
    "lat": 39.4408972,
    "lng": 141.1219761,
    "tel": "0198-30-2626",
    "url": "http://www.ik-smile.jp",
    "pref": "岩手県",
    "city": "花巻市",
    "category": "day_service",
    "serviceType": "通所介護",
    "capacity": 30,
    "openDays": [
      "平日",
      "土曜日",
      "祝日"
    ],
    "openDaysNote": ""
  },
  {
    "id": "370500381",
    "name": "ＪＡいわて花巻デイサービスセンターグリーンホーム落合",
    "kana": "ジェイエイイワテハナマキデイサービスセンターグリーンホームオチアイ",
    "address": "岩手県花巻市椚ノ目4地割99番地1",
    "lat": 39.4215929,
    "lng": 141.0863892,
    "tel": "0198-37-1151",
    "url": "http://www.jahanamaki.or.jp/",
    "pref": "岩手県",
    "city": "花巻市",
    "category": "day_service",
    "serviceType": "通所介護",
    "capacity": 55,
    "openDays": [
      "平日",
      "土曜日",
      "日曜日",
      "祝日"
    ],
    "openDaysNote": ""
  },
  {
    "id": "370500282",
    "name": "アイリス花巻デイサービスセンター指定通所介護事業所",
    "kana": "アイリスハナマキデイサービスセンターシテイツウショカイゴジギョウショ",
    "address": "岩手県花巻市南万丁目970番地２",
    "lat": 39.3912805,
    "lng": 141.0987083,
    "tel": "0198-24-7564",
    "url": "http://iris-hanamaki.jp/",
    "pref": "岩手県",
    "city": "花巻市",
    "category": "day_service",
    "serviceType": "通所介護",
    "capacity": 30,
    "openDays": [
      "平日",
      "土曜日",
      "祝日"
    ],
    "openDaysNote": "なし"
  },
  {
    "id": "372300087",
    "name": "いしどりや荘デイサービスセンター",
    "kana": "イシドリヤソウデイサービスセンター",
    "address": "岩手県花巻市石鳥谷町好地第１４地割１０番地",
    "lat": 39.5032076,
    "lng": 141.1611513,
    "tel": "0198-45-5308",
    "url": "https://www.ishidoriyasou.jp/",
    "pref": "岩手県",
    "city": "花巻市",
    "category": "day_service",
    "serviceType": "通所介護",
    "capacity": 0,
    "openDays": [
      "平日",
      "土曜日",
      "祝日"
    ],
    "openDaysNote": ""
  },
  {
    "id": "370500886",
    "name": "シリウスケアセンターすわ",
    "kana": "シリウスケアセンタースワ",
    "address": "岩手県花巻市南諏訪町4番8号",
    "lat": 39.3685697,
    "lng": 141.1024949,
    "tel": "0198-21-5210",
    "url": "https://siriuscare.jp/",
    "pref": "岩手県",
    "city": "花巻市",
    "category": "day_service",
    "serviceType": "通所介護",
    "capacity": 20,
    "openDays": [
      "平日",
      "祝日"
    ],
    "openDaysNote": "年末年始休業あり"
  },
  {
    "id": "370501801",
    "name": "デイサービス・きらら花北",
    "kana": "デイサービス・キララハナキタ",
    "address": "岩手県花巻市下幅5番1号",
    "lat": 39.3977382,
    "lng": 141.1122623,
    "tel": "0198-23-4116",
    "url": "",
    "pref": "岩手県",
    "city": "花巻市",
    "category": "day_service",
    "serviceType": "通所介護",
    "capacity": null,
    "openDays": [
      "平日",
      "土曜日",
      "祝日"
    ],
    "openDaysNote": ""
  },
  {
    "id": "370501611",
    "name": "デイサービスセンターピースハート石鳥谷",
    "kana": "デイサービスセンターピースハートイシドリヤ",
    "address": "岩手県花巻市石鳥谷町好地第３地割１８０番地１",
    "lat": 39.4950044195858,
    "lng": 141.143952920129,
    "tel": "0198-29-6587",
    "url": "https://www.peaceheart.jp/",
    "pref": "岩手県",
    "city": "花巻市",
    "category": "day_service",
    "serviceType": "通所介護",
    "capacity": 25,
    "openDays": [
      "平日",
      "土曜日",
      "祝日"
    ],
    "openDaysNote": "年末年始12/31～1/3は休み"
  },
  {
    "id": "370501140",
    "name": "デイサービスセンター花湯",
    "kana": "デイサービスセンターハナユ",
    "address": "岩手県花巻市円万寺字中野40番地",
    "lat": 39.3917908,
    "lng": 141.0482019,
    "tel": "0198-38-1871",
    "url": "http://花湯.com/",
    "pref": "岩手県",
    "city": "花巻市",
    "category": "day_service",
    "serviceType": "通所介護",
    "capacity": 0,
    "openDays": [
      "平日"
    ],
    "openDaysNote": "お盆休み（8/13～16）　（改行）年末年始（12/30～1/3）"
  },
  {
    "id": "370501678",
    "name": "デイサービスふくろうの里",
    "kana": "デイサービスフクロウノサト",
    "address": "岩手県花巻市桜台2丁目24-30",
    "lat": 39.3986463,
    "lng": 141.1057905,
    "tel": "0198-29-4296",
    "url": "https://www.fukurounosato.com",
    "pref": "岩手県",
    "city": "花巻市",
    "category": "day_service",
    "serviceType": "通所介護",
    "capacity": 0,
    "openDays": [
      "平日",
      "土曜日",
      "日曜日",
      "祝日"
    ],
    "openDaysNote": "暴風雨や積雪等の悪天候や感染症の流行など、安全衛生管理上必要な場合は臨時休業させて頂くことがあります。"
  },
  {
    "id": "372300293",
    "name": "デイサービスほっと事業所",
    "kana": "デイサービスホットジギョウショ",
    "address": "岩手県花巻市石鳥谷町新堀53-15",
    "lat": 39.4729277,
    "lng": 141.1685904,
    "tel": "0198-46-1225",
    "url": "",
    "pref": "岩手県",
    "city": "花巻市",
    "category": "day_service",
    "serviceType": "通所介護",
    "capacity": 21,
    "openDays": [
      "平日",
      "祝日"
    ],
    "openDaysNote": "営業時間であれば、利用時間は自由に選択出来ますが、サービス提供時間以外になると延長利用金もしくは一般利用サービスとなります。"
  },
  {
    "id": "370501959",
    "name": "デイサービス六花",
    "kana": "デイサービスリッカ",
    "address": "岩手県花巻市大畑1-24-2",
    "lat": 39.448817,
    "lng": 141.0961793,
    "tel": "0198-29-6092",
    "url": "",
    "pref": "岩手県",
    "city": "花巻市",
    "category": "day_service",
    "serviceType": "通所介護",
    "capacity": null,
    "openDays": [
      "平日",
      "土曜日",
      "祝日"
    ],
    "openDaysNote": ""
  },
  {
    "id": "370501181",
    "name": "ニチイケアセンター花巻",
    "kana": "ニチイケアセンターハナマキ",
    "address": "岩手県花巻市四日町三丁目21番40号",
    "lat": 39.4007909,
    "lng": 141.1223329,
    "tel": "0198-21-3775",
    "url": "http://www.nichiigakkan.co.jp",
    "pref": "岩手県",
    "city": "花巻市",
    "category": "day_service",
    "serviceType": "通所介護",
    "capacity": 0,
    "openDays": [
      "平日",
      "土曜日",
      "祝日"
    ],
    "openDaysNote": ""
  },
  {
    "id": "370500704",
    "name": "まちなかデイ",
    "kana": "マチナカデイ",
    "address": "岩手県花巻市上諏訪407番地",
    "lat": 39.3761132,
    "lng": 141.1046944,
    "tel": "0198-22-6067",
    "url": "https://machinaka76.wixsite.com/machinaka-top",
    "pref": "岩手県",
    "city": "花巻市",
    "category": "day_service",
    "serviceType": "通所介護",
    "capacity": 0,
    "openDays": [
      "平日",
      "土曜日",
      "日曜日",
      "祝日"
    ],
    "openDaysNote": ""
  },
  {
    "id": "370501827",
    "name": "リハビリ特化型デイサービスリハニック花巻",
    "kana": "リハビリトッカガタデイサービスリハニックハナマキ",
    "address": "岩手県花巻市西大通り1丁目14-9",
    "lat": 39.3905938,
    "lng": 141.107795,
    "tel": "0198-29-6577",
    "url": "http://www.rehanic.jp/",
    "pref": "岩手県",
    "city": "花巻市",
    "category": "day_service",
    "serviceType": "通所介護",
    "capacity": 0,
    "openDays": [
      "平日",
      "祝日"
    ],
    "openDaysNote": ""
  },
  {
    "id": "370501041",
    "name": "花巻あすかの杜指定通所介護事業所",
    "kana": "ハナマキアスカノモリシテイツウショカイゴジギョウショ",
    "address": "岩手県花巻市天下田100番地1",
    "lat": 39.4128057,
    "lng": 141.1076564,
    "tel": "0198-41-1100",
    "url": "http://matsuzonofukushikai.jp/",
    "pref": "岩手県",
    "city": "花巻市",
    "category": "day_service",
    "serviceType": "通所介護",
    "capacity": 0,
    "openDays": [
      "平日",
      "土曜日",
      "祝日"
    ],
    "openDaysNote": ""
  },
  {
    "id": "370500191",
    "name": "花巻市社会福祉協議会指定宮野目通所介護事業所",
    "kana": "ハナマキシシャカイフクシキョウギカイシテイミヤノメツウショカイゴジギョウショ",
    "address": "岩手県花巻市西宮野目第６地割９７番地１",
    "lat": 39.4265824,
    "lng": 141.1271816,
    "tel": "0198-26-2666",
    "url": "http://hanamaki-syakyo.or.jp",
    "pref": "岩手県",
    "city": "花巻市",
    "category": "day_service",
    "serviceType": "通所介護",
    "capacity": 25,
    "openDays": [
      "平日",
      "土曜日",
      "祝日"
    ],
    "openDaysNote": ""
  },
  {
    "id": "370500183",
    "name": "花巻市社会福祉協議会指定西南通所介護事業所",
    "kana": "ハナマキシシャカイフクシキョウギカイシテイセイナンツウショカイゴジギョウショ",
    "address": "岩手県花巻市轟木7-188-1",
    "lat": 39.3618568190426,
    "lng": 141.053001844495,
    "tel": "0198-29-3666",
    "url": "https://hanamaki-syakyo.or.jp/",
    "pref": "岩手県",
    "city": "花巻市",
    "category": "day_service",
    "serviceType": "通所介護",
    "capacity": 25,
    "openDays": [
      "平日",
      "土曜日",
      "祝日"
    ],
    "openDaysNote": ""
  },
  {
    "id": "370501868",
    "name": "花梨",
    "kana": "カリン",
    "address": "岩手県花巻市桜町一丁目２５８番１号",
    "lat": 39.3763047,
    "lng": 141.1187426,
    "tel": "0198-29-4360",
    "url": "https://7dots.co.jp/",
    "pref": "岩手県",
    "city": "花巻市",
    "category": "day_service",
    "serviceType": "通所介護",
    "capacity": 0,
    "openDays": [
      "平日",
      "土曜日",
      "祝日"
    ],
    "openDaysNote": ""
  },
  {
    "id": "370501991",
    "name": "機能強化型デイサービスファントレふくろう",
    "kana": "キノウキョウカガタデイサービスファントレフクロウ",
    "address": "岩手県花巻市桜台二丁目24-30",
    "lat": 39.3986546,
    "lng": 141.1058237,
    "tel": "0198-33-0183",
    "url": "https://www.fun-t.com",
    "pref": "岩手県",
    "city": "花巻市",
    "category": "day_service",
    "serviceType": "通所介護",
    "capacity": 25,
    "openDays": [
      "平日",
      "祝日"
    ],
    "openDaysNote": "悪天候や感染症の流行により、安全衛生管理上必要な場合には臨時休業あり。"
  },
  {
    "id": "372300137",
    "name": "桐の里デイサービスセンター",
    "kana": "キリノサトデイサービスセンター",
    "address": "岩手県花巻市大迫町大迫第１１地割１番地９",
    "lat": 39.4693338,
    "lng": 141.2834867,
    "tel": "0198-48-3207",
    "url": "http://oohasamatoujukai.or.jp/",
    "pref": "岩手県",
    "city": "花巻市",
    "category": "day_service",
    "serviceType": "通所介護",
    "capacity": 0,
    "openDays": [
      "平日",
      "祝日"
    ],
    "openDaysNote": ""
  },
  {
    "id": "370500175",
    "name": "社会福祉法人花巻市社会福祉協議会指定矢沢通所介護事業所",
    "kana": "シャカイフクシホウジンハナマキシシャカイフクシキョウギカイシテイヤサワツウショカイゴジギョウショ",
    "address": "岩手県花巻市高松第３地割85番地1矢沢地域福祉センター 矢沢地域福祉センター",
    "lat": 39.3913903,
    "lng": 141.1592525,
    "tel": "0198-31-2122",
    "url": "http://hanamaki-syakyo.or.jp/",
    "pref": "岩手県",
    "city": "花巻市",
    "category": "day_service",
    "serviceType": "通所介護",
    "capacity": 0,
    "openDays": [
      "平日",
      "土曜日",
      "祝日"
    ],
    "openDaysNote": "祝日が日曜日の場合、営業は行いません。"
  },
  {
    "id": "370500225",
    "name": "大谷荘デイサービスセンター指定通所介護事業所",
    "kana": "オオタニソウデイサービスセンターシテイツウショカイゴジギョウショ",
    "address": "岩手県花巻市湯口字松原53番地1",
    "lat": 39.4063854,
    "lng": 141.0199346,
    "tel": "0198-25-2700",
    "url": "http://ootanisou.jp",
    "pref": "岩手県",
    "city": "花巻市",
    "category": "day_service",
    "serviceType": "通所介護",
    "capacity": 0,
    "openDays": [
      "平日",
      "土曜日",
      "祝日"
    ],
    "openDaysNote": ""
  },
  {
    "id": "370501686",
    "name": "茶話本舗デイサービス石鳥谷",
    "kana": "サワホンポデイサービスイシドリヤ",
    "address": "岩手県花巻市石鳥谷町中寺林6-76-2",
    "lat": 39.483051,
    "lng": 141.140151,
    "tel": "0198-29-5640",
    "url": "",
    "pref": "岩手県",
    "city": "花巻市",
    "category": "day_service",
    "serviceType": "通所介護",
    "capacity": 20,
    "openDays": [
      "平日",
      "土曜日",
      "日曜日",
      "祝日"
    ],
    "openDaysNote": "冬季（12月〜3月）の営業時間（改行）9：15〜17：15"
  },
  {
    "id": "372400093",
    "name": "東和荘デイサービスセンター指定通所介護事業所",
    "kana": "トウワソウデイサービスセンターシテイツウショカイゴジギョウショ",
    "address": "岩手県花巻市東和町東晴山7区13番地",
    "lat": 39.3724972,
    "lng": 141.2521869,
    "tel": "0198-44-3050",
    "url": "http://towaso.jp/",
    "pref": "岩手県",
    "city": "花巻市",
    "category": "day_service",
    "serviceType": "通所介護",
    "capacity": null,
    "openDays": [
      "平日",
      "土曜日",
      "祝日"
    ],
    "openDaysNote": "なし"
  },
  {
    "id": "372300335",
    "name": "八重畑デイサービスセンター",
    "kana": "ヤエハタデイサービスセンター",
    "address": "岩手県花巻市石鳥谷町猪鼻第6地割32番地8",
    "lat": 39.451022,
    "lng": 141.1753464,
    "tel": "0198-47-2211",
    "url": "",
    "pref": "岩手県",
    "city": "花巻市",
    "category": "day_service",
    "serviceType": "通所介護",
    "capacity": 20,
    "openDays": [
      "平日",
      "祝日"
    ],
    "openDaysNote": ""
  },
  {
    "id": "372300301",
    "name": "宝寿荘デイサービスセンター",
    "kana": "ホウジュソウデイサービスセンター",
    "address": "岩手県花巻市石鳥谷町一丁目3番地３",
    "lat": 39.5016688,
    "lng": 141.1579155,
    "tel": "0198-45-2143",
    "url": "http://www.houjyukai-iwate.com",
    "pref": "岩手県",
    "city": "花巻市",
    "category": "day_service",
    "serviceType": "通所介護",
    "capacity": 20,
    "openDays": [
      "平日",
      "祝日"
    ],
    "openDaysNote": "なし"
  },
  {
    "id": "372100453",
    "name": "誠心会葛巻デイサービスセンター",
    "kana": "セイシンカイクズマキデイサービスセンター",
    "address": "岩手県岩手郡葛巻町葛巻7地割104番地2",
    "lat": 40.0403547,
    "lng": 141.4545002,
    "tel": "0195-66-3010",
    "url": "http://seishinseii-sw.or.jp",
    "pref": "岩手県",
    "city": "葛巻町",
    "category": "day_service",
    "serviceType": "通所介護",
    "capacity": 0,
    "openDays": [
      "平日",
      "土曜日",
      "日曜日",
      "祝日"
    ],
    "openDaysNote": "無"
  },
  {
    "id": "371100132",
    "name": "あいぜんの里デイサービスセンター",
    "kana": "アイゼンノサトデイサービスセンター",
    "address": "岩手県釜石市大字平田第2地割51番地7",
    "lat": 39.2429889,
    "lng": 141.8718358,
    "tel": "0193-26-6601",
    "url": "http://aizen-iwate.jp",
    "pref": "岩手県",
    "city": "釜石市",
    "category": "day_service",
    "serviceType": "通所介護",
    "capacity": 25,
    "openDays": [
      "平日",
      "土曜日",
      "祝日"
    ],
    "openDaysNote": "12月30日は時間短縮で14時までの営業"
  },
  {
    "id": "371100397",
    "name": "アミーガはまゆりデイサービスセンター",
    "kana": "アミーガハマユリデイサービスセンター",
    "address": "岩手県釜石市小佐野町三丁目９番５０号",
    "lat": 39.2630666,
    "lng": 141.8378071,
    "tel": "0193-25-2602",
    "url": "http://www.rakusuikai.com",
    "pref": "岩手県",
    "city": "釜石市",
    "category": "day_service",
    "serviceType": "通所介護",
    "capacity": null,
    "openDays": [
      "平日",
      "土曜日",
      "祝日"
    ],
    "openDaysNote": ""
  },
  {
    "id": "371100728",
    "name": "デイサービスセンターさくら",
    "kana": "デイサービスセンターサクラ",
    "address": "岩手県釜石市甲子町第10地割311番地2",
    "lat": 39.2536861,
    "lng": 141.8018198,
    "tel": "0193-21-5200",
    "url": "",
    "pref": "岩手県",
    "city": "釜石市",
    "category": "day_service",
    "serviceType": "通所介護",
    "capacity": 30,
    "openDays": [
      "平日",
      "土曜日",
      "日曜日",
      "祝日"
    ],
    "openDaysNote": ""
  },
  {
    "id": "371100298",
    "name": "ニチイケアセンター釜石",
    "kana": "ニチイケアセンターカマイシ",
    "address": "岩手県釜石市中妻町1-12-2",
    "lat": 39.2718438,
    "lng": 141.8600408,
    "tel": "0193-21-1133",
    "url": "http://www.nichiigakkan.co.jp",
    "pref": "岩手県",
    "city": "釜石市",
    "category": "day_service",
    "serviceType": "通所介護",
    "capacity": 0,
    "openDays": [
      "平日",
      "土曜日",
      "祝日"
    ],
    "openDaysNote": "居宅サービス計画により、営業時間外であってもサービスの提供を行う場合がある。"
  },
  {
    "id": "371100462",
    "name": "やまざき機能訓練デイサービスホーム",
    "kana": "ヤマザキキノウクンレンデイサービスホーム",
    "address": "岩手県釜石市鵜住居町25-10-9",
    "lat": 39.3205324,
    "lng": 141.8852154,
    "tel": "0193-29-1125",
    "url": "",
    "pref": "岩手県",
    "city": "釜石市",
    "category": "day_service",
    "serviceType": "通所介護",
    "capacity": 0,
    "openDays": [
      "平日",
      "祝日"
    ],
    "openDaysNote": ""
  },
  {
    "id": "371100876",
    "name": "医療法人晃生会釜石リハビリセンター",
    "kana": "イリョウホウジンコウセイカイカマイシリハビリセンター",
    "address": "岩手県釜石市八雲町2-12",
    "lat": 39.2715609,
    "lng": 141.8555887,
    "tel": "0193-27-7530",
    "url": "",
    "pref": "岩手県",
    "city": "釜石市",
    "category": "day_service",
    "serviceType": "通所介護",
    "capacity": 0,
    "openDays": [
      "平日",
      "祝日"
    ],
    "openDaysNote": "【AM】9:00～12:00（改行）【PM】14:00～17:00（改行）上記時間の前後で送迎対応を実施"
  },
  {
    "id": "371100314",
    "name": "五葉寮いきいきデイサービスセンター",
    "kana": "ゴヨウリョウイキイキデイサービスセンター",
    "address": "岩手県釜石市鵜住居町第2地割20番地1",
    "lat": 39.3446040357759,
    "lng": 141.847780935143,
    "tel": "0193-28-4482",
    "url": "",
    "pref": "岩手県",
    "city": "釜石市",
    "category": "day_service",
    "serviceType": "通所介護",
    "capacity": 0,
    "openDays": [
      "平日",
      "土曜日",
      "祝日"
    ],
    "openDaysNote": "年末年始（12月31日～1月3日）は休み"
  },
  {
    "id": "371100058",
    "name": "仙人の里指定通所介護事業所",
    "kana": "センニンノサトシテイツウショカイゴジギョウショ",
    "address": "岩手県釜石市甲子町第7地割144番地4",
    "lat": 39.2547563848379,
    "lng": 141.782285209571,
    "tel": "0193-23-1026",
    "url": "http://www.senninnosato.jp",
    "pref": "岩手県",
    "city": "釜石市",
    "category": "day_service",
    "serviceType": "通所介護",
    "capacity": 25,
    "openDays": [
      "平日",
      "土曜日",
      "祝日"
    ],
    "openDaysNote": "祝祭日は営業いたします。"
  },
  {
    "id": "372100388",
    "name": "岩手町デイサービスセンター",
    "kana": "イワテマチデイサービスセンター",
    "address": "岩手県岩手郡岩手町大字五日市第１１地割７１番地３",
    "lat": 39.965474,
    "lng": 141.2086115,
    "tel": "0195-62-1336",
    "url": "http://www.syunyoukai.jp/page04.html",
    "pref": "岩手県",
    "city": "岩手町",
    "category": "day_service",
    "serviceType": "通所介護",
    "capacity": 40,
    "openDays": [
      "平日",
      "土曜日",
      "祝日"
    ],
    "openDaysNote": "岩手町デイサービスセンター：お盆休み(８月１３日～８月１５日）　年末年始休み(１２月３０日～１月３日）（改行）サテライト東部デイサービス：お盆休み（８月１４日～８月１６日）　年末年始休み(１２月３０日～１月３日）"
  },
  {
    "id": "373000439",
    "name": "岩泉町社協岩泉指定通所介護事業所",
    "kana": "イワイズミチョウシャキョウイワイズミシテイツウショカイゴジギョウショ",
    "address": "岩手県下閉伊郡岩泉町岩泉字中家38-1高齢者生活福祉センター　どんぐり苑 高齢者生活福祉センター　どんぐり苑",
    "lat": 39.8476756,
    "lng": 141.7960513,
    "tel": "0194-22-5632",
    "url": "http://iwaizumi-shakyo.or.jp/",
    "pref": "岩手県",
    "city": "岩泉町",
    "category": "day_service",
    "serviceType": "通所介護",
    "capacity": 30,
    "openDays": [
      "平日"
    ],
    "openDaysNote": "祝祭日にて利用者から利用希望の場合振替利用あり。"
  },
  {
    "id": "373000454",
    "name": "岩泉町社協小川指定通所介護事業所",
    "kana": "イワイズミチョウシャキョウコガワシテイツウショカイゴジギョウショ",
    "address": "岩手県下閉伊郡岩泉町門字町向32番地1",
    "lat": 39.8756459,
    "lng": 141.652432,
    "tel": "0194-39-1015",
    "url": "http://iwaizumi-shakyo.or.jp/",
    "pref": "岩手県",
    "city": "岩泉町",
    "category": "day_service",
    "serviceType": "通所介護",
    "capacity": 0,
    "openDays": [
      "平日"
    ],
    "openDaysNote": ""
  },
  {
    "id": "370700270",
    "name": "ファミリーサポートおひさま",
    "kana": "ファミリイサポウトオヒサマ",
    "address": "岩手県久慈市栄町第32地割35番地1",
    "lat": 40.1958787818708,
    "lng": 141.759543986821,
    "tel": "0194-52-4799",
    "url": "http://care-net.biz/03/ohisama",
    "pref": "岩手県",
    "city": "久慈市",
    "category": "day_service",
    "serviceType": "通所介護",
    "capacity": 0,
    "openDays": [
      "平日",
      "土曜日",
      "祝日"
    ],
    "openDaysNote": ""
  },
  {
    "id": "373100247",
    "name": "愛山荘デイサービスセンター",
    "kana": "アイザンソウデイサービスセンター",
    "address": "岩手県久慈市山形町川井12-60-2",
    "lat": 40.1451733,
    "lng": 141.5692322,
    "tel": "0194-72-2201",
    "url": "http://aizanso.sakura.ne.jp",
    "pref": "岩手県",
    "city": "久慈市",
    "category": "day_service",
    "serviceType": "通所介護",
    "capacity": 0,
    "openDays": [
      "平日",
      "祝日"
    ],
    "openDaysNote": ""
  },
  {
    "id": "370700346",
    "name": "元気の泉デイサービスセンター",
    "kana": "ゲンキノイズミデイサービスセンター",
    "address": "岩手県久慈市旭町第８地割100番地１",
    "lat": 40.199649137231,
    "lng": 141.774506928172,
    "tel": "0194-52-7167",
    "url": "https://khjd.jp/",
    "pref": "岩手県",
    "city": "久慈市",
    "category": "day_service",
    "serviceType": "通所介護",
    "capacity": 25,
    "openDays": [
      "平日",
      "土曜日",
      "祝日"
    ],
    "openDaysNote": ""
  },
  {
    "id": "370700643",
    "name": "通所介護事業所まごころの家",
    "kana": "ツウショカイゴジギョウショマゴコロノイエ",
    "address": "岩手県久慈市長内町２９－６－６住宅型有料老人ホームまごころの家内 住宅型有料老人ホームまごころの家内",
    "lat": 40.1860831,
    "lng": 141.7764244,
    "tel": "0194-75-4488",
    "url": "http://magokoronoie.info/",
    "pref": "岩手県",
    "city": "久慈市",
    "category": "day_service",
    "serviceType": "通所介護",
    "capacity": 0,
    "openDays": [
      "平日",
      "土曜日",
      "祝日"
    ],
    "openDaysNote": ""
  },
  {
    "id": "370700544",
    "name": "老人デイサービスセンター「ポルト」",
    "kana": "ロウジンデイサービスセンターポルト",
    "address": "岩手県久慈市長内町第40地割12番地3",
    "lat": 40.196282,
    "lng": 141.7920812,
    "tel": "0194-75-3451",
    "url": "",
    "pref": "岩手県",
    "city": "久慈市",
    "category": "day_service",
    "serviceType": "通所介護",
    "capacity": 15,
    "openDays": [
      "平日",
      "祝日"
    ],
    "openDaysNote": "年末年始に不定休あり"
  },
  {
    "id": "370200669",
    "name": "かがやきデイサロン",
    "kana": "カガヤキデイサロン",
    "address": "岩手県宮古市磯鶏西６番４号",
    "lat": 39.6301078,
    "lng": 141.9603339,
    "tel": "0193-77-3063",
    "url": "http://www.riasbb.net/~kagayakilife/",
    "pref": "岩手県",
    "city": "宮古市",
    "category": "day_service",
    "serviceType": "通所介護",
    "capacity": 35,
    "openDays": [
      "平日",
      "土曜日",
      "祝日"
    ],
    "openDaysNote": ""
  },
  {
    "id": "370200065",
    "name": "ニチイケアセンター宮古",
    "kana": "ニチイケアセンターミヤコ",
    "address": "岩手県宮古市太田一丁目2番3号",
    "lat": 39.6385947,
    "lng": 141.9286004,
    "tel": "0193-71-2188",
    "url": "http://www.nichiigakkan.co.jp",
    "pref": "岩手県",
    "city": "宮古市",
    "category": "day_service",
    "serviceType": "通所介護",
    "capacity": 40,
    "openDays": [
      "平日",
      "土曜日",
      "祝日"
    ],
    "openDaysNote": "居宅サービス計画により休業日及び営業時間外であってもサービスを提供する場合があります"
  },
  {
    "id": "370200784",
    "name": "ニチイケアセンター八木沢",
    "kana": "ニチイケアセンターヤギサワ",
    "address": "岩手県宮古市八木沢第4地割96-1",
    "lat": 39.6185282,
    "lng": 141.9471049,
    "tel": "0193-71-1125",
    "url": "",
    "pref": "岩手県",
    "city": "宮古市",
    "category": "day_service",
    "serviceType": "通所介護",
    "capacity": 35,
    "openDays": [
      "平日",
      "土曜日",
      "祝日"
    ],
    "openDaysNote": "ただし居宅サービス計画により休業日及び営業時間外であってもサービスを提供する場合があります。"
  },
  {
    "id": "373000512",
    "name": "ふれあい荘デイサービスセンター",
    "kana": "フレアイソウデイサービスセンター",
    "address": "岩手県宮古市田老字養呂地6番地2",
    "lat": 39.7308173,
    "lng": 141.9390699,
    "tel": "0193-88-1202",
    "url": "http:/www.tarouwasinkai.or.jp/",
    "pref": "岩手県",
    "city": "宮古市",
    "category": "day_service",
    "serviceType": "通所介護",
    "capacity": 25,
    "openDays": [
      "平日",
      "土曜日",
      "祝日"
    ],
    "openDaysNote": ""
  },
  {
    "id": "370200099",
    "name": "宮古市社会福祉協議会デイサービスセンター",
    "kana": "ミヤコシシャカイフクシキョウギカイデイサービスセンター",
    "address": "岩手県宮古市小山田二丁目9番20号",
    "lat": 39.6349594,
    "lng": 141.9399439,
    "tel": "0193-64-5050",
    "url": "http://www.miyako-shakyo.or.jp",
    "pref": "岩手県",
    "city": "宮古市",
    "category": "day_service",
    "serviceType": "通所介護",
    "capacity": 0,
    "openDays": [
      "平日",
      "土曜日"
    ],
    "openDaysNote": ""
  },
  {
    "id": "370200594",
    "name": "宮古市社会福祉協議会むつわ荘デイサービス事業所",
    "kana": "ミヤコシシャカイフクシキョウギカイムツワソウデイサービスジギョウショ",
    "address": "岩手県宮古市川井第2地割165番地宮古市高齢者生活福祉センター「むつわ荘」 宮古市高齢者生活福祉センター「むつわ荘」",
    "lat": 39.5994299,
    "lng": 141.6789164,
    "tel": "0193-76-2575",
    "url": "",
    "pref": "岩手県",
    "city": "宮古市",
    "category": "day_service",
    "serviceType": "通所介護",
    "capacity": 0,
    "openDays": [
      "平日",
      "祝日"
    ],
    "openDaysNote": "営業日（改行）本体事業所　むつわ荘デイサービス事業所（月～金・祝日営業）（改行）サテライト　小国サテライト（月～金・祝日営業）（改行）サテライト　門馬サテライト（月・水・金・祝日営業）"
  },
  {
    "id": "370200263",
    "name": "宮古市清寿荘デイサービスセンター",
    "kana": "ミヤコシセイジュソウデイサービスセンター",
    "address": "岩手県宮古市津軽石第１４地割３８番地３",
    "lat": 39.5657562,
    "lng": 141.9278787,
    "tel": "0193-67-4111",
    "url": "",
    "pref": "岩手県",
    "city": "宮古市",
    "category": "day_service",
    "serviceType": "通所介護",
    "capacity": 0,
    "openDays": [
      "平日",
      "土曜日",
      "祝日"
    ],
    "openDaysNote": "日曜日定休日"
  },
  {
    "id": "370200982",
    "name": "宮古市千徳デイサービスセンター",
    "kana": "ミヤコシセントクデイサービスセンター",
    "address": "岩手県宮古市千徳町5番37号",
    "lat": 39.63367,
    "lng": 141.9196791,
    "tel": "0193-71-2213",
    "url": "",
    "pref": "岩手県",
    "city": "宮古市",
    "category": "day_service",
    "serviceType": "通所介護",
    "capacity": 0,
    "openDays": [
      "平日",
      "土曜日",
      "祝日"
    ],
    "openDaysNote": "定休日も相談に応じます。"
  },
  {
    "id": "370200123",
    "name": "指定通所介護事業所サンホームみやこ",
    "kana": "シテイツウショカイゴジギョウショサンホームミヤコ",
    "address": "岩手県宮古市崎鍬ヶ崎第4地割1番地20",
    "lat": 39.6597928,
    "lng": 141.9516206,
    "tel": "0193-62-7011",
    "url": "http://www.wakatakekai.or.jp/",
    "pref": "岩手県",
    "city": "宮古市",
    "category": "day_service",
    "serviceType": "通所介護",
    "capacity": 0,
    "openDays": [
      "平日",
      "土曜日",
      "祝日"
    ],
    "openDaysNote": ""
  },
  {
    "id": "372500678",
    "name": "デイサービスセンターふるさと",
    "kana": "デイサービスセンターフルサト",
    "address": "岩手県胆沢郡金ケ崎町西根北荒巻21番地19",
    "lat": 39.2212217,
    "lng": 141.0930066,
    "tel": "0197-47-4423",
    "url": "https://furusato.oshushi.com/",
    "pref": "岩手県",
    "city": "金ヶ崎町",
    "category": "day_service",
    "serviceType": "通所介護",
    "capacity": 0,
    "openDays": [
      "平日",
      "土曜日",
      "祝日"
    ],
    "openDaysNote": ""
  },
  {
    "id": "372500223",
    "name": "金ケ崎町社会福祉協議会指定通所介護事業所",
    "kana": "カネガサキチョウシャカイフクシキョウギカイシテイツウショカイゴジギョウショ",
    "address": "岩手県胆沢郡金ケ崎町西根南羽沢４３番地",
    "lat": 39.2004974053514,
    "lng": 141.109142786972,
    "tel": "0197-41-0666",
    "url": "http://www.kin-syakyo.jp",
    "pref": "岩手県",
    "city": "金ヶ崎町",
    "category": "day_service",
    "serviceType": "通所介護",
    "capacity": 0,
    "openDays": [
      "平日",
      "土曜日",
      "祝日"
    ],
    "openDaysNote": ""
  },
  {
    "id": "372500306",
    "name": "友愛園デイサービスセンター",
    "kana": "ユウアイエンデイサービスセンター",
    "address": "岩手県胆沢郡金ケ崎町西根揚場後19番地2",
    "lat": 39.1866568,
    "lng": 141.1047009,
    "tel": "0197-44-4115",
    "url": "http://www.yuaikai-kanegasaki.com/",
    "pref": "岩手県",
    "city": "金ヶ崎町",
    "category": "day_service",
    "serviceType": "通所介護",
    "capacity": 0,
    "openDays": [
      "平日",
      "祝日"
    ],
    "openDaysNote": "上記の営業時間は1単位｡（改行）2単位…9時00分～12時05分､3単位…14時00分～17時05分"
  },
  {
    "id": "373100312",
    "name": "デイサービスセンターおりつめ",
    "kana": "デイサービスセンターオリツメ",
    "address": "岩手県九戸郡九戸村大字伊保内第9地割73番地",
    "lat": 40.2142998,
    "lng": 141.4216045,
    "tel": "0195-42-4165",
    "url": "http://www.oritsumesou.or.jp",
    "pref": "岩手県",
    "city": "九戸村",
    "category": "day_service",
    "serviceType": "通所介護",
    "capacity": 0,
    "openDays": [
      "平日",
      "祝日"
    ],
    "openDaysNote": ""
  },
  {
    "id": "373100411",
    "name": "社会福祉法人九戸村社会福祉協議会指定通所介護事業所",
    "kana": "シャカイフクシホウジンクノヘムラシャカイフクシキョウギカイシテイツウショカイゴジギョウショ",
    "address": "岩手県九戸郡九戸村大字伊保内7-39-4",
    "lat": 40.2115223,
    "lng": 141.4201575,
    "tel": "0195-41-1200",
    "url": "http://www.kunohe-shakyo.jp/",
    "pref": "岩手県",
    "city": "九戸村",
    "category": "day_service",
    "serviceType": "通所介護",
    "capacity": 0,
    "openDays": [
      "平日",
      "祝日"
    ],
    "openDaysNote": ""
  },
  {
    "id": "373100593",
    "name": "通所介護かすみ",
    "kana": "ツウショカイゴカスミ",
    "address": "岩手県九戸郡九戸村大字伊保内第２地割６１番地１",
    "lat": 40.2036176,
    "lng": 141.4263988,
    "tel": "0195-42-4044",
    "url": "",
    "pref": "岩手県",
    "city": "九戸村",
    "category": "day_service",
    "serviceType": "通所介護",
    "capacity": 0,
    "openDays": [
      "平日",
      "土曜日",
      "日曜日",
      "祝日"
    ],
    "openDaysNote": ""
  },
  {
    "id": "373100379",
    "name": "くつろぎの家",
    "kana": "クツロギノイエ",
    "address": "岩手県九戸郡軽米町大字山内第１２地割字太田向９６番地2",
    "lat": 40.3267455,
    "lng": 141.4606327,
    "tel": "0195-47-2351",
    "url": "http://www.keisenkai.jp/kutsurogi.html",
    "pref": "岩手県",
    "city": "軽米町",
    "category": "day_service",
    "serviceType": "通所介護",
    "capacity": 0,
    "openDays": [
      "平日",
      "土曜日",
      "祝日"
    ],
    "openDaysNote": ""
  },
  {
    "id": "373100510",
    "name": "デイサービスセンターせせらぎ",
    "kana": "デイサービスセンターセセラギ",
    "address": "岩手県九戸郡軽米町大字小軽米１２－３－１",
    "lat": 40.2959844,
    "lng": 141.5236391,
    "tel": "0195-45-3007",
    "url": "",
    "pref": "岩手県",
    "city": "軽米町",
    "category": "day_service",
    "serviceType": "通所介護",
    "capacity": 0,
    "openDays": [
      "平日",
      "土曜日",
      "祝日"
    ],
    "openDaysNote": ""
  },
  {
    "id": "373000207",
    "name": "平安荘デイサービスセンター",
    "kana": "ヘイアンソウデイサービスセンター",
    "address": "岩手県下閉伊郡山田町山田第16地割9番地10",
    "lat": 39.4378658,
    "lng": 141.9680997,
    "tel": "0193-82-3611",
    "url": "https://seiju-kai.net",
    "pref": "岩手県",
    "city": "山田町",
    "category": "day_service",
    "serviceType": "通所介護",
    "capacity": 25,
    "openDays": [
      "平日",
      "祝日"
    ],
    "openDaysNote": ""
  },
  {
    "id": "372200121",
    "name": "あづまね温泉通所介護事業所",
    "kana": "アヅマネオンセンツウショカイゴジギョウショ",
    "address": "岩手県紫波郡紫波町上松本字内方９６番地",
    "lat": 39.5720044,
    "lng": 141.0825849,
    "tel": "019-673-7670",
    "url": "https://shiwakai.jp/",
    "pref": "岩手県",
    "city": "紫波町",
    "category": "day_service",
    "serviceType": "通所介護",
    "capacity": 0,
    "openDays": [
      "平日",
      "土曜日",
      "日曜日",
      "祝日"
    ],
    "openDaysNote": ""
  },
  {
    "id": "372200675",
    "name": "さくらデイサービス",
    "kana": "サクラデイサービス",
    "address": "岩手県紫波郡紫波町桜町字浦田12",
    "lat": 39.542428,
    "lng": 141.1685689,
    "tel": "019-671-1182",
    "url": "https://sakuraday1182.wixsite.com/sakura",
    "pref": "岩手県",
    "city": "紫波町",
    "category": "day_service",
    "serviceType": "通所介護",
    "capacity": 0,
    "openDays": [
      "平日",
      "土曜日",
      "祝日"
    ],
    "openDaysNote": ""
  },
  {
    "id": "372200832",
    "name": "デイサービスだいち",
    "kana": "デイサービスダイチ",
    "address": "岩手県紫波郡紫波町中島字下長根121－3",
    "lat": 34.9207347,
    "lng": 137.1841045,
    "tel": "019-613-8257",
    "url": "https://www.daichi-iwate.jp/",
    "pref": "岩手県",
    "city": "紫波町",
    "category": "day_service",
    "serviceType": "通所介護",
    "capacity": 0,
    "openDays": [
      "平日",
      "土曜日",
      "日曜日",
      "祝日"
    ],
    "openDaysNote": ""
  },
  {
    "id": "372200972",
    "name": "デイサービス虹のいえ",
    "kana": "デイサービスニジノイエ",
    "address": "岩手県紫波郡紫波町北日詰字大日堂2-1",
    "lat": 39.5388173,
    "lng": 141.1655248,
    "tel": "019-613-3117",
    "url": "http://care-net.biz/03/nijinoie/",
    "pref": "岩手県",
    "city": "紫波町",
    "category": "day_service",
    "serviceType": "通所介護",
    "capacity": 25,
    "openDays": [
      "平日",
      "土曜日",
      "祝日"
    ],
    "openDaysNote": ""
  },
  {
    "id": "372200105",
    "name": "にいやま荘通所介護事業所",
    "kana": "ニイヤマソウツウショカイゴジギョウショ",
    "address": "岩手県紫波郡紫波町桜町字三本木46-1",
    "lat": 39.5415171,
    "lng": 141.1716048,
    "tel": "019-676-5777",
    "url": "https://shiwakai.jp",
    "pref": "岩手県",
    "city": "紫波町",
    "category": "day_service",
    "serviceType": "通所介護",
    "capacity": 0,
    "openDays": [
      "平日",
      "土曜日",
      "日曜日",
      "祝日"
    ],
    "openDaysNote": ""
  },
  {
    "id": "372201111",
    "name": "通所介護事業所ほたるの里",
    "kana": "ツウショカイゴジギョウショホタルノサト",
    "address": "岩手県紫波郡紫波町稲藤字牡丹野22番地4",
    "lat": 39.5501783,
    "lng": 141.1170357,
    "tel": "019-681-8632",
    "url": "",
    "pref": "岩手県",
    "city": "紫波町",
    "category": "day_service",
    "serviceType": "通所介護",
    "capacity": 0,
    "openDays": [
      "平日",
      "祝日"
    ],
    "openDaysNote": "当日の健康状態などにより、内容または時間が変更になる場合があります"
  },
  {
    "id": "372200287",
    "name": "百寿の郷しんせつ介護センター",
    "kana": "モズノサトシンセツカイゴセンター",
    "address": "岩手県紫波郡紫波町土舘字関沢２４番地１",
    "lat": 39.5477695,
    "lng": 141.100695,
    "tel": "019-671-7100",
    "url": "http://mozunosato.com",
    "pref": "岩手県",
    "city": "紫波町",
    "category": "day_service",
    "serviceType": "通所介護",
    "capacity": 0,
    "openDays": [
      "平日",
      "土曜日",
      "祝日"
    ],
    "openDaysNote": "無し"
  },
  {
    "id": "372101220",
    "name": "デイサービスセンターにこトピア雫石",
    "kana": "デイサービスセンターニコトピアシズクイシ",
    "address": "岩手県岩手郡雫石町八卦５０－1",
    "lat": 39.6940182,
    "lng": 140.9666961,
    "tel": "019-691-2888",
    "url": "",
    "pref": "岩手県",
    "city": "雫石町",
    "category": "day_service",
    "serviceType": "通所介護",
    "capacity": 0,
    "openDays": [
      "平日",
      "土曜日",
      "日曜日",
      "祝日"
    ],
    "openDaysNote": "1月1日休業"
  },
  {
    "id": "372800078",
    "name": "アンルス指定通所介護事業所",
    "kana": "アンルスシテイツウショカイゴジギョウショ",
    "address": "岩手県気仙郡住田町上有住字和田野12-5",
    "lat": 39.1946659,
    "lng": 141.5992297,
    "tel": "0192-48-3300",
    "url": "http://sumita-shakyo.jp/",
    "pref": "岩手県",
    "city": "住田町",
    "category": "day_service",
    "serviceType": "通所介護",
    "capacity": 35,
    "openDays": [
      "平日",
      "土曜日",
      "日曜日",
      "祝日"
    ],
    "openDaysNote": "職員健康診断日等、必要と認める日を休日とすることがあります"
  },
  {
    "id": "372800128",
    "name": "すみた荘デイサービスセンター",
    "kana": "スミタソウデイサービスセンター",
    "address": "岩手県気仙郡住田町世田米字川向８番地２",
    "lat": 39.1460599465593,
    "lng": 141.568103993671,
    "tel": "0192-46-3114",
    "url": "http://www.care-net.biz/03/narusekai/",
    "pref": "岩手県",
    "city": "住田町",
    "category": "day_service",
    "serviceType": "通所介護",
    "capacity": 33,
    "openDays": [
      "平日",
      "土曜日",
      "祝日"
    ],
    "openDaysNote": "休み等の連絡については、前日17：00までにお願い致します。やむを得ず当日休む場合の朝は、8：10～8：30の間で連絡をお願い致します。また、8：30～9：30、16：00～17：00の時間帯については、送迎の為職員が不在になる場合がありますので、ご了承願います。"
  },
  {
    "id": "372800169",
    "name": "デイサービスセンターとだて",
    "kana": "デイサービスセンタートダテ",
    "address": "岩手県気仙郡住田町下有住字十文字89-2",
    "lat": 39.1895098,
    "lng": 141.5606472,
    "tel": "0192-47-3104",
    "url": "",
    "pref": "岩手県",
    "city": "住田町",
    "category": "day_service",
    "serviceType": "通所介護",
    "capacity": 30,
    "openDays": [
      "平日",
      "祝日"
    ],
    "openDaysNote": "火曜日　9：00　～　12：15　、　13：00　～　16：15（改行）金曜日　9：00　～　12：15"
  },
  {
    "id": "370107294",
    "name": "ADL向上センター",
    "kana": "エーディーエルコウジョウセンター",
    "address": "岩手県盛岡市西見前11地割207-3",
    "lat": 39.6344944,
    "lng": 141.1708088,
    "tel": "019-613-4777",
    "url": "http://www.kaigonomori.net",
    "pref": "岩手県",
    "city": "盛岡市",
    "category": "day_service",
    "serviceType": "通所介護",
    "capacity": 28,
    "openDays": [
      "平日",
      "土曜日",
      "祝日"
    ],
    "openDaysNote": ""
  },
  {
    "id": "370107799",
    "name": "PLAYERSデイサービス",
    "kana": "プレイヤーズデイサービス",
    "address": "岩手県盛岡市菜園一丁目6番13号公園通りプラザビル3階 公園通りプラザビル3階",
    "lat": 39.7013551,
    "lng": 141.1480138,
    "tel": "019-681-8307",
    "url": "https://saien.ambitious-city.co.jp/players",
    "pref": "岩手県",
    "city": "盛岡市",
    "category": "day_service",
    "serviceType": "通所介護",
    "capacity": null,
    "openDays": [
      "平日"
    ],
    "openDaysNote": ""
  },
  {
    "id": "370106940",
    "name": "ＳＯＭＰＯケア盛岡清水デイサービス",
    "kana": "ソンポケアモリオカシミズデイサービス",
    "address": "岩手県盛岡市清水町14番17号中圭ﾋﾞﾙ1F 中圭ﾋﾞﾙ1F",
    "lat": 39.6940815,
    "lng": 141.1488234,
    "tel": "019-626-0611",
    "url": "",
    "pref": "岩手県",
    "city": "盛岡市",
    "category": "day_service",
    "serviceType": "通所介護",
    "capacity": 0,
    "openDays": [
      "平日",
      "祝日"
    ],
    "openDaysNote": ""
  },
  {
    "id": "370106999",
    "name": "ＳＯＭＰＯケア盛岡本町デイサービス",
    "kana": "ソンポケアモリオカホンチョウデイサービス",
    "address": "岩手県盛岡市本町通３丁目２０番２５号パークハイツ本町１Ｆ パークハイツ本町１Ｆ",
    "lat": 39.7087074,
    "lng": 141.1435874,
    "tel": "019-604-6699",
    "url": "",
    "pref": "岩手県",
    "city": "盛岡市",
    "category": "day_service",
    "serviceType": "通所介護",
    "capacity": 0,
    "openDays": [
      "平日",
      "土曜日",
      "祝日"
    ],
    "openDaysNote": ""
  },
  {
    "id": "370103558",
    "name": "アースサポート盛岡南",
    "kana": "アースサポートモリオカミナミ",
    "address": "岩手県盛岡市東仙北1丁目4番16号",
    "lat": 39.6845585,
    "lng": 141.156127,
    "tel": "019-656-4900",
    "url": "https://www.earthsupport.co.jp",
    "pref": "岩手県",
    "city": "盛岡市",
    "category": "day_service",
    "serviceType": "通所介護",
    "capacity": 0,
    "openDays": [
      "平日",
      "土曜日",
      "日曜日",
      "祝日"
    ],
    "openDaysNote": ""
  },
  {
    "id": "370107351",
    "name": "あったかいごデイサービスみこだ",
    "kana": "アッタカイゴデイサービスミコダ",
    "address": "岩手県盛岡市神子田町16番38号あったかいごデイサービスみこだ あったかいごデイサービスみこだ",
    "lat": 39.6897606,
    "lng": 141.1616861,
    "tel": "019-604-7735",
    "url": "http://sankyo-ika.jp/publics/index/64",
    "pref": "岩手県",
    "city": "盛岡市",
    "category": "day_service",
    "serviceType": "通所介護",
    "capacity": 0,
    "openDays": [
      "平日",
      "土曜日",
      "祝日"
    ],
    "openDaysNote": ""
  },
  {
    "id": "370107393",
    "name": "あったかいごデイサービス東安庭",
    "kana": "アッタカイゴデイサービスヒガシアニワ",
    "address": "岩手県盛岡市東安庭一丁目２３番６８号",
    "lat": 39.6800207,
    "lng": 141.1644209,
    "tel": "019-604-6622",
    "url": "http://sankyo-ika.jp",
    "pref": "岩手県",
    "city": "盛岡市",
    "category": "day_service",
    "serviceType": "通所介護",
    "capacity": 0,
    "openDays": [
      "平日",
      "土曜日",
      "祝日"
    ],
    "openDaysNote": "年末年始休業　12月31日・1月1日（2日間）（改行）お盆期間休業なし"
  },
  {
    "id": "370107484",
    "name": "きらくの郷城北デイサービス",
    "kana": "キラクノサトジョウホクデイサービス",
    "address": "岩手県盛岡市みたけ3丁目23番36号",
    "lat": 39.7396954,
    "lng": 141.1148181,
    "tel": "019-681-7817",
    "url": "http://www.chienowa-npo.sakura.ne.jp/",
    "pref": "岩手県",
    "city": "盛岡市",
    "category": "day_service",
    "serviceType": "通所介護",
    "capacity": null,
    "openDays": [
      "平日",
      "祝日"
    ],
    "openDaysNote": ""
  },
  {
    "id": "370103368",
    "name": "ケアガーデン高松公園デイサービスセンター",
    "kana": "ケアガーデンタカマツコウエンデイサービスセンター",
    "address": "岩手県盛岡市上田字毛無森２番地７",
    "lat": 39.729794,
    "lng": 141.145437,
    "tel": "019-665-2173",
    "url": "http://www.reitakukai.net",
    "pref": "岩手県",
    "city": "盛岡市",
    "category": "day_service",
    "serviceType": "通所介護",
    "capacity": 0,
    "openDays": [
      "平日",
      "祝日"
    ],
    "openDaysNote": ""
  },
  {
    "id": "370106932",
    "name": "シーキューブ",
    "kana": "シーキューブ",
    "address": "岩手県盛岡市三本柳２３−６５−１",
    "lat": 39.6467238530108,
    "lng": 141.16581013055,
    "tel": "019-601-2310",
    "url": "http://www.ccube-station.com",
    "pref": "岩手県",
    "city": "盛岡市",
    "category": "day_service",
    "serviceType": "通所介護",
    "capacity": 25,
    "openDays": [
      "平日",
      "祝日"
    ],
    "openDaysNote": ""
  },
  {
    "id": "370104861",
    "name": "ジョイリハ盛岡上田",
    "kana": "ジョイリハモリオカウエダ",
    "address": "岩手県盛岡市上田１－６－１０イースタンキャッスル２　１F イースタンキャッスル２　１F",
    "lat": 39.711921,
    "lng": 141.1450399,
    "tel": "019-606-4708",
    "url": "http://www.joyreha.co.jp/",
    "pref": "岩手県",
    "city": "盛岡市",
    "category": "day_service",
    "serviceType": "通所介護",
    "capacity": 0,
    "openDays": [
      "平日",
      "祝日"
    ],
    "openDaysNote": ""
  },
  {
    "id": "370107518",
    "name": "ちえのわデイサービス",
    "kana": "チエノワデイサービス",
    "address": "岩手県盛岡市みたけ1丁目9-48",
    "lat": 39.7362295,
    "lng": 141.1208909,
    "tel": "019-648-5033",
    "url": "http://chienowa-npo.sakura.ne.jp",
    "pref": "岩手県",
    "city": "盛岡市",
    "category": "day_service",
    "serviceType": "通所介護",
    "capacity": 0,
    "openDays": [
      "平日",
      "祝日"
    ],
    "openDaysNote": ""
  },
  {
    "id": "370107427",
    "name": "ツクイ盛岡",
    "kana": "ツクイモリオカ",
    "address": "岩手県盛岡市東黒石野二丁目１番５号",
    "lat": 39.7483588,
    "lng": 141.152812,
    "tel": "019-664-0877",
    "url": "https://www.tsukui.net/home-care/2031/",
    "pref": "岩手県",
    "city": "盛岡市",
    "category": "day_service",
    "serviceType": "通所介護",
    "capacity": 47,
    "openDays": [
      "平日",
      "土曜日",
      "日曜日",
      "祝日"
    ],
    "openDaysNote": "365日年中無休"
  },
  {
    "id": "370107435",
    "name": "ツクイ盛岡津志田",
    "kana": "ツクイモリオカツシダ",
    "address": "岩手県盛岡市津志田中央三丁目26番60号",
    "lat": 39.6618187,
    "lng": 141.1502066,
    "tel": "019-614-0775",
    "url": "https://www.tsukui.net/search/2542/detail.html",
    "pref": "岩手県",
    "city": "盛岡市",
    "category": "day_service",
    "serviceType": "通所介護",
    "capacity": 60,
    "openDays": [
      "平日",
      "土曜日",
      "日曜日",
      "祝日"
    ],
    "openDaysNote": "365日　年中無休"
  },
  {
    "id": "370104895",
    "name": "デイサービス・セカンドきらら",
    "kana": "デイサービス・セカンドキララ",
    "address": "岩手県盛岡市箱清水一丁目18番7号",
    "lat": 39.7328798,
    "lng": 141.1309711,
    "tel": "019-656-7317",
    "url": "",
    "pref": "岩手県",
    "city": "盛岡市",
    "category": "day_service",
    "serviceType": "通所介護",
    "capacity": 0,
    "openDays": [
      "平日",
      "土曜日",
      "祝日"
    ],
    "openDaysNote": ""
  },
  {
    "id": "370107732",
    "name": "デイサービスcafei5",
    "kana": "デイサービスカフェアイファイブ",
    "address": "岩手県盛岡市みたけ三丁目23-3スペースMYAⅡ スペースMYAⅡ",
    "lat": 39.7394191,
    "lng": 141.1150089,
    "tel": "019-601-3709",
    "url": "",
    "pref": "岩手県",
    "city": "盛岡市",
    "category": "day_service",
    "serviceType": "通所介護",
    "capacity": 1,
    "openDays": [
      "平日",
      "土曜日"
    ],
    "openDaysNote": "お盆（8/13～8/15)とお正月（12/30～1/3）はお休みとさせていただきます。"
  },
  {
    "id": "370107500",
    "name": "デイサービスおとなりさん",
    "kana": "デイサービスオトナリサン",
    "address": "岩手県盛岡市厨川4丁目5番36号",
    "lat": 39.748161,
    "lng": 141.1277578,
    "tel": "019-601-5865",
    "url": "",
    "pref": "岩手県",
    "city": "盛岡市",
    "category": "day_service",
    "serviceType": "通所介護",
    "capacity": 0,
    "openDays": [
      "平日",
      "祝日"
    ],
    "openDaysNote": ""
  },
  {
    "id": "370102857",
    "name": "デイサービスカノン",
    "kana": "デイサービスカノン",
    "address": "岩手県盛岡市長田町2-26Ｉ＆Ｂビル４Ｆ Ｉ＆Ｂビル４Ｆ",
    "lat": 39.7061224971762,
    "lng": 141.139378015344,
    "tel": "019-622-7773",
    "url": "http://kanon7773.exblog.jp/",
    "pref": "岩手県",
    "city": "盛岡市",
    "category": "day_service",
    "serviceType": "通所介護",
    "capacity": 0,
    "openDays": [
      "平日",
      "土曜日",
      "祝日"
    ],
    "openDaysNote": "年末年始１２月３１から１月３日、お盆期間８月１３日から１６日を休みとする。"
  },
  {
    "id": "370107476",
    "name": "デイサービスきらくの郷厨川",
    "kana": "デイサービスキラクノサトクリヤガワ",
    "address": "岩手県盛岡市厨川4丁目5-7",
    "lat": 39.7482229,
    "lng": 141.1274892,
    "tel": "019-648-6077",
    "url": "http://chienowacare.com",
    "pref": "岩手県",
    "city": "盛岡市",
    "category": "day_service",
    "serviceType": "通所介護",
    "capacity": null,
    "openDays": [
      "平日",
      "祝日"
    ],
    "openDaysNote": ""
  },
  {
    "id": "370101784",
    "name": "デイサービスくるみ愛宕",
    "kana": "デイサービスクルミアタゴ",
    "address": "岩手県盛岡市愛宕町12番10号",
    "lat": 39.7101022837624,
    "lng": 141.162855101852,
    "tel": "019-623-2111",
    "url": "https://www.kuruminoie.com/",
    "pref": "岩手県",
    "city": "盛岡市",
    "category": "day_service",
    "serviceType": "通所介護",
    "capacity": 0,
    "openDays": [
      "平日",
      "土曜日",
      "祝日"
    ],
    "openDaysNote": ""
  },
  {
    "id": "370104523",
    "name": "デイサービスこずかたの郷",
    "kana": "デイサービスコズカタノサト",
    "address": "岩手県盛岡市下太田沢田23-3",
    "lat": 39.6983911,
    "lng": 141.114257,
    "tel": "019-656-2611",
    "url": "http://airinkai.net",
    "pref": "岩手県",
    "city": "盛岡市",
    "category": "day_service",
    "serviceType": "通所介護",
    "capacity": 0,
    "openDays": [
      "平日",
      "土曜日",
      "日曜日",
      "祝日"
    ],
    "openDaysNote": ""
  },
  {
    "id": "370103996",
    "name": "デイサービスシャンジェ",
    "kana": "デイサービスシャンジェ",
    "address": "岩手県盛岡市厨川4丁目9-18",
    "lat": 39.7507771315284,
    "lng": 141.129987051851,
    "tel": "019-681-3815",
    "url": "http://www.betterlife-iwate.co.jp",
    "pref": "岩手県",
    "city": "盛岡市",
    "category": "day_service",
    "serviceType": "通所介護",
    "capacity": 0,
    "openDays": [
      "平日",
      "祝日"
    ],
    "openDaysNote": "年末年始12月31日～1月3日"
  },
  {
    "id": "370106171",
    "name": "デイサービスセンターこはくの風内丸",
    "kana": "デイサービスセンターコハクノカゼウチマル",
    "address": "岩手県盛岡市本町通一丁目9－12",
    "lat": 39.7055063,
    "lng": 141.1531828,
    "tel": "019-652-3331",
    "url": "http://www.kohakunokaze.com",
    "pref": "岩手県",
    "city": "盛岡市",
    "category": "day_service",
    "serviceType": "通所介護",
    "capacity": 10,
    "openDays": [
      "平日",
      "祝日"
    ],
    "openDaysNote": ""
  },
  {
    "id": "370107740",
    "name": "デイサービスセンターリハコートあおやま",
    "kana": "デイサービスセンターリハコートアオヤマ",
    "address": "岩手県盛岡市青山1丁目2-13デイサービスセンターリハコートあおやま デイサービスセンターリハコートあおやま",
    "lat": 39.720595247117,
    "lng": 141.116536328836,
    "tel": "019-613-7120",
    "url": "https://sg-seijukai.com/carecourt-morioka/day/",
    "pref": "岩手県",
    "city": "盛岡市",
    "category": "day_service",
    "serviceType": "通所介護",
    "capacity": 0,
    "openDays": [
      "平日",
      "祝日"
    ],
    "openDaysNote": ""
  },
  {
    "id": "370107849",
    "name": "デイサービスセンターリハコートみるまえ",
    "kana": "デイサービスセンターリハコートミルマエ",
    "address": "岩手県盛岡市西見前14地割113番地1",
    "lat": 39.6410299,
    "lng": 141.1681924,
    "tel": "019-601-4825",
    "url": "http://www.sg-kumiai.or.jp/",
    "pref": "岩手県",
    "city": "盛岡市",
    "category": "day_service",
    "serviceType": "通所介護",
    "capacity": 0,
    "openDays": [
      "平日",
      "祝日"
    ],
    "openDaysNote": ""
  },
  {
    "id": "370102352",
    "name": "デイサービスセンター田園",
    "kana": "デイサービスセンターデンエン",
    "address": "岩手県盛岡市下太田榊14-2",
    "lat": 39.6960581,
    "lng": 141.1176068,
    "tel": "019-659-2022",
    "url": "",
    "pref": "岩手県",
    "city": "盛岡市",
    "category": "day_service",
    "serviceType": "通所介護",
    "capacity": 0,
    "openDays": [
      "平日",
      "祝日"
    ],
    "openDaysNote": ""
  },
  {
    "id": "370105769",
    "name": "デイサービスはるかぜの綾",
    "kana": "デイサービスハルカゼノアヤ",
    "address": "岩手県盛岡市上堂3丁目16-18",
    "lat": 39.7284357,
    "lng": 141.1289103,
    "tel": "019-601-6182",
    "url": "",
    "pref": "岩手県",
    "city": "盛岡市",
    "category": "day_service",
    "serviceType": "通所介護",
    "capacity": 0,
    "openDays": [
      "平日",
      "土曜日",
      "日曜日",
      "祝日"
    ],
    "openDaysNote": "なし"
  },
  {
    "id": "370107237",
    "name": "デイサービスはるかぜの碧",
    "kana": "デイサービスハルカゼノアオ",
    "address": "岩手県盛岡市上堂４丁目2-80",
    "lat": 39.7308089,
    "lng": 141.1257523,
    "tel": "019-656-8820",
    "url": "",
    "pref": "岩手県",
    "city": "盛岡市",
    "category": "day_service",
    "serviceType": "通所介護",
    "capacity": 0,
    "openDays": [
      "平日",
      "土曜日",
      "日曜日",
      "祝日"
    ],
    "openDaysNote": ""
  },
  {
    "id": "370106668",
    "name": "デイサービスびごらすうえだ",
    "kana": "デイサービスビゴラスウエダ",
    "address": "岩手県盛岡市上田4丁目5-27",
    "lat": 39.7208229171663,
    "lng": 141.13500307376,
    "tel": "019-656-6675",
    "url": "https://vigorous-aozora.wixsite.com/my-site",
    "pref": "岩手県",
    "city": "盛岡市",
    "category": "day_service",
    "serviceType": "通所介護",
    "capacity": 10,
    "openDays": [
      "平日",
      "祝日"
    ],
    "openDaysNote": "夏季休業8/13〜16・冬期休業12/30～1/3"
  },
  {
    "id": "370107773",
    "name": "デイサービスふくろうの広場長橋台",
    "kana": "デイサービスフクロウノヒロバナガハシダイ",
    "address": "岩手県盛岡市長橋町２５－１",
    "lat": 39.7216052,
    "lng": 141.1025832,
    "tel": "019-658-9834",
    "url": "https://www.minenoyama.co.jp",
    "pref": "岩手県",
    "city": "盛岡市",
    "category": "day_service",
    "serviceType": "通所介護",
    "capacity": null,
    "openDays": [
      "平日",
      "土曜日",
      "祝日"
    ],
    "openDaysNote": ""
  },
  {
    "id": "370106031",
    "name": "デイサービスまごころ",
    "kana": "デイサービスマゴコロ",
    "address": "岩手県盛岡市高松３丁目4-48",
    "lat": 39.725374080434,
    "lng": 141.140157209262,
    "tel": "019-605-1156",
    "url": "http://www.pn-magokoro.net/",
    "pref": "岩手県",
    "city": "盛岡市",
    "category": "day_service",
    "serviceType": "通所介護",
    "capacity": 0,
    "openDays": [
      "平日",
      "土曜日",
      "祝日"
    ],
    "openDaysNote": ""
  },
  {
    "id": "370101255",
    "name": "デイサービスミュー・シャンジェ",
    "kana": "デイサービスミュー・シャンジェ",
    "address": "岩手県盛岡市上堂三丁目12番20号",
    "lat": 39.726722687516,
    "lng": 141.129204057672,
    "tel": "019-641-4804",
    "url": "https://mieux-changer.com",
    "pref": "岩手県",
    "city": "盛岡市",
    "category": "day_service",
    "serviceType": "通所介護",
    "capacity": 40,
    "openDays": [
      "平日",
      "土曜日",
      "祝日"
    ],
    "openDaysNote": ""
  },
  {
    "id": "370106627",
    "name": "デイサービスリハビリライフ",
    "kana": "デイサービスリハビリライフ",
    "address": "岩手県盛岡市月が丘三丁目32番6号",
    "lat": 39.7360513,
    "lng": 141.1087147,
    "tel": "019-681-7581",
    "url": "http://www.rehabili-life.co.jp",
    "pref": "岩手県",
    "city": "盛岡市",
    "category": "day_service",
    "serviceType": "通所介護",
    "capacity": 0,
    "openDays": [
      "平日",
      "祝日"
    ],
    "openDaysNote": ""
  },
  {
    "id": "370106916",
    "name": "デイサービス愛語・山岸",
    "kana": "デイサービスアイゴヤマギシ",
    "address": "岩手県盛岡市山岸1丁目6番20号",
    "lat": 39.7127132,
    "lng": 141.1669239,
    "tel": "019-613-9998",
    "url": "",
    "pref": "岩手県",
    "city": "盛岡市",
    "category": "day_service",
    "serviceType": "通所介護",
    "capacity": 25,
    "openDays": [
      "平日",
      "土曜日",
      "日曜日",
      "祝日"
    ],
    "openDaysNote": "なし"
  },
  {
    "id": "370107716",
    "name": "デイサービス縁（ゆかり）",
    "kana": "デイサービスユカリ",
    "address": "岩手県盛岡市上堂1丁目17番53号",
    "lat": 39.724145,
    "lng": 141.1216087,
    "tel": "019-601-5563",
    "url": "https://nugumaru.com/",
    "pref": "岩手県",
    "city": "盛岡市",
    "category": "day_service",
    "serviceType": "通所介護",
    "capacity": 0,
    "openDays": [
      "平日",
      "土曜日",
      "祝日"
    ],
    "openDaysNote": ""
  },
  {
    "id": "370106742",
    "name": "デイサービス観武公園",
    "kana": "デイサービスミタケコウエン",
    "address": "岩手県盛岡市みたけ一丁目7番40号",
    "lat": 39.7381709,
    "lng": 141.1223134,
    "tel": "019-613-2314",
    "url": "",
    "pref": "岩手県",
    "city": "盛岡市",
    "category": "day_service",
    "serviceType": "通所介護",
    "capacity": 19,
    "openDays": [
      "平日",
      "祝日"
    ],
    "openDaysNote": ""
  },
  {
    "id": "370106114",
    "name": "デイサービス結の家",
    "kana": "デイサービスユイノイエ",
    "address": "岩手県盛岡市長橋町６番１号",
    "lat": 39.7151586,
    "lng": 141.1038907,
    "tel": "019-648-5331",
    "url": "",
    "pref": "岩手県",
    "city": "盛岡市",
    "category": "day_service",
    "serviceType": "通所介護",
    "capacity": 0,
    "openDays": [
      "平日",
      "土曜日",
      "日曜日",
      "祝日"
    ],
    "openDaysNote": ""
  },
  {
    "id": "370106585",
    "name": "デイサービス結の家青山",
    "kana": "デイサービスユイノイエアオヤマ",
    "address": "岩手県盛岡市西青山二丁目10番21号",
    "lat": 39.7261840708717,
    "lng": 141.105512529351,
    "tel": "019-648-5338",
    "url": "",
    "pref": "岩手県",
    "city": "盛岡市",
    "category": "day_service",
    "serviceType": "通所介護",
    "capacity": 0,
    "openDays": [
      "平日",
      "土曜日",
      "日曜日",
      "祝日"
    ],
    "openDaysNote": ""
  },
  {
    "id": "370105835",
    "name": "デイサービス松福",
    "kana": "デイサービスショウフク",
    "address": "岩手県盛岡市好摩字野中69-47松福の郷・好摩 松福の郷・好摩",
    "lat": 39.8773527,
    "lng": 141.1665191,
    "tel": "019-682-0686",
    "url": "",
    "pref": "岩手県",
    "city": "盛岡市",
    "category": "day_service",
    "serviceType": "通所介護",
    "capacity": 0,
    "openDays": [
      "平日",
      "土曜日",
      "日曜日",
      "祝日"
    ],
    "openDaysNote": ""
  },
  {
    "id": "370105447",
    "name": "デイサービス明来日",
    "kana": "デイサービスアクビ",
    "address": "岩手県盛岡市新田町１０－８",
    "lat": 39.7059872866126,
    "lng": 141.129569874869,
    "tel": "019-601-7652",
    "url": "http://www.akubi-onlylife.net",
    "pref": "岩手県",
    "city": "盛岡市",
    "category": "day_service",
    "serviceType": "通所介護",
    "capacity": 0,
    "openDays": [
      "平日",
      "土曜日",
      "日曜日",
      "祝日"
    ],
    "openDaysNote": ""
  },
  {
    "id": "370107328",
    "name": "デイサービス絆",
    "kana": "デイサービスキズナ",
    "address": "岩手県盛岡市東仙北2丁目4-26",
    "lat": 39.6820223,
    "lng": 141.1565821,
    "tel": "019-601-8311",
    "url": "",
    "pref": "岩手県",
    "city": "盛岡市",
    "category": "day_service",
    "serviceType": "通所介護",
    "capacity": 20,
    "openDays": [
      "平日",
      "土曜日",
      "祝日"
    ],
    "openDaysNote": ""
  },
  {
    "id": "370106783",
    "name": "なごみデイサービス",
    "kana": "ナゴミデイサービス",
    "address": "岩手県盛岡市箱清水2丁目4-33",
    "lat": 39.7319104,
    "lng": 141.1318848,
    "tel": "019-662-1000",
    "url": "https://physicare-i.com",
    "pref": "岩手県",
    "city": "盛岡市",
    "category": "day_service",
    "serviceType": "通所介護",
    "capacity": 10,
    "openDays": [
      "平日",
      "土曜日",
      "祝日"
    ],
    "openDaysNote": ""
  },
  {
    "id": "370104846",
    "name": "にこにこホーム",
    "kana": "ニコニコホーム",
    "address": "岩手県盛岡市玉山馬場字滝の沢２８",
    "lat": 39.8791425,
    "lng": 141.2038902,
    "tel": "019-682-0507",
    "url": "",
    "pref": "岩手県",
    "city": "盛岡市",
    "category": "day_service",
    "serviceType": "通所介護",
    "capacity": 0,
    "openDays": [
      "平日",
      "土曜日",
      "日曜日",
      "祝日"
    ],
    "openDaysNote": ""
  },
  {
    "id": "370100265",
    "name": "ニチイケアセンター上田",
    "kana": "ニチイケアセンターウエダ",
    "address": "岩手県盛岡市上田一丁目３番４３号",
    "lat": 39.7136931,
    "lng": 141.1476174,
    "tel": "019-604-1333",
    "url": "http://www.nichiigakkan.co.jp",
    "pref": "岩手県",
    "city": "盛岡市",
    "category": "day_service",
    "serviceType": "通所介護",
    "capacity": 0,
    "openDays": [
      "平日",
      "土曜日",
      "日曜日",
      "祝日"
    ],
    "openDaysNote": "ただし、居宅サービス計画により、休業日及び営業時間外であってもサービスを提供する場合があります。"
  },
  {
    "id": "370100273",
    "name": "ニチイケアセンター盛岡南",
    "kana": "ニチイケアセンターモリオカミナミ",
    "address": "岩手県盛岡市津志田14地割112番地",
    "lat": 39.6561242499857,
    "lng": 141.156820150926,
    "tel": "019-614-0031",
    "url": "http://www.nichiigakkan.co.jp",
    "pref": "岩手県",
    "city": "盛岡市",
    "category": "day_service",
    "serviceType": "通所介護",
    "capacity": 42,
    "openDays": [
      "平日",
      "土曜日",
      "祝日"
    ],
    "openDaysNote": "ただし居宅サービス計画により休業日及び営業時間外であってもサービスを提供する場合があります。"
  },
  {
    "id": "370101974",
    "name": "ニチイケアセンター盛岡北",
    "kana": "ニチイケアセンターモリオカキタ",
    "address": "岩手県盛岡市みたけ三丁目38番50号",
    "lat": 39.7417064,
    "lng": 141.1165555,
    "tel": "019-648-1571",
    "url": "http://www.nichiigakkan.co.jp",
    "pref": "岩手県",
    "city": "盛岡市",
    "category": "day_service",
    "serviceType": "通所介護",
    "capacity": 44,
    "openDays": [
      "平日",
      "土曜日",
      "祝日"
    ],
    "openDaysNote": "ただし、居宅サービス計画により休業日であってもサービスの提供を行う場合がある"
  },
  {
    "id": "370103251",
    "name": "ブライトステージ",
    "kana": "ブライトステージ",
    "address": "岩手県盛岡市肴町3番18号ラオ・エム・コート　2階 ラオ・エム・コート　2階",
    "lat": 39.6993922,
    "lng": 141.1540034,
    "tel": "019-625-2001",
    "url": "http://www.brightstage.co.jp/index.html",
    "pref": "岩手県",
    "city": "盛岡市",
    "category": "day_service",
    "serviceType": "通所介護",
    "capacity": 35,
    "openDays": [
      "平日",
      "土曜日",
      "祝日"
    ],
    "openDaysNote": "1/1～1/3、12/30～12/31及びその振替休日は曜日に関わらず休業とする。"
  },
  {
    "id": "370108052",
    "name": "ほっとデイサービスみたけ",
    "kana": "ホットデイサービスミタケ",
    "address": "岩手県盛岡市みたけ4丁目8番50号",
    "lat": 39.7430156,
    "lng": 141.1199097,
    "tel": "019-648-1767",
    "url": "http://life-escort.com",
    "pref": "岩手県",
    "city": "盛岡市",
    "category": "day_service",
    "serviceType": "通所介護",
    "capacity": null,
    "openDays": [
      "平日",
      "土曜日",
      "祝日"
    ],
    "openDaysNote": ""
  },
  {
    "id": "370103707",
    "name": "めだかのデイ2号館",
    "kana": "メダカノデイ2ゴウカン",
    "address": "岩手県盛岡市乙部30-76-1",
    "lat": 39.6095207,
    "lng": 141.1974529,
    "tel": "019-656-9316",
    "url": "",
    "pref": "岩手県",
    "city": "盛岡市",
    "category": "day_service",
    "serviceType": "通所介護",
    "capacity": 20,
    "openDays": [
      "平日",
      "土曜日",
      "日曜日",
      "祝日"
    ],
    "openDaysNote": ""
  },
  {
    "id": "370105538",
    "name": "めだかのデイ3号館",
    "kana": "メダカノデイサンゴウカン",
    "address": "岩手県盛岡市黒川22-65-1",
    "lat": 39.6204437,
    "lng": 141.1850984,
    "tel": "019-613-2813",
    "url": "",
    "pref": "岩手県",
    "city": "盛岡市",
    "category": "day_service",
    "serviceType": "通所介護",
    "capacity": 25,
    "openDays": [
      "平日",
      "土曜日",
      "日曜日",
      "祝日"
    ],
    "openDaysNote": ""
  },
  {
    "id": "370107120",
    "name": "めだかのデイサービス",
    "kana": "メダカノデイサービス",
    "address": "岩手県盛岡市乙部31-13-1",
    "lat": 39.6172318,
    "lng": 141.2069157,
    "tel": "019-675-1199",
    "url": "https://medaka-nikka.jp/",
    "pref": "岩手県",
    "city": "盛岡市",
    "category": "day_service",
    "serviceType": "通所介護",
    "capacity": 0,
    "openDays": [
      "平日",
      "土曜日",
      "日曜日",
      "祝日"
    ],
    "openDaysNote": ""
  },
  {
    "id": "370107112",
    "name": "メディコート安倍館通所介護事業所",
    "kana": "メディコートアベタテツウショカイゴジギョウショ",
    "address": "岩手県盛岡市安倍館町16-30メディコート安倍館 メディコート安倍館",
    "lat": 39.7223453328017,
    "lng": 141.126456741664,
    "tel": "019-658-9081",
    "url": "",
    "pref": "岩手県",
    "city": "盛岡市",
    "category": "day_service",
    "serviceType": "通所介護",
    "capacity": 0,
    "openDays": [
      "平日",
      "土曜日",
      "祝日"
    ],
    "openDaysNote": "年末年始、GW、お盆を定休日とします。"
  },
  {
    "id": "370103319",
    "name": "ゆめさとデイサービス",
    "kana": "ユメサトデイサービス",
    "address": "岩手県盛岡市青山三丁目１０番１９号",
    "lat": 39.7286272,
    "lng": 141.116642,
    "tel": "019-643-3788",
    "url": "http://www.yumesato-morioka.com/",
    "pref": "岩手県",
    "city": "盛岡市",
    "category": "day_service",
    "serviceType": "通所介護",
    "capacity": 20,
    "openDays": [
      "平日",
      "土曜日",
      "祝日"
    ],
    "openDaysNote": ""
  },
  {
    "id": "370105868",
    "name": "レッツ倶楽部盛岡南",
    "kana": "レッツクラブモリオカミナミ",
    "address": "岩手県盛岡市永井24地割91番地3",
    "lat": 39.6529084,
    "lng": 141.1542552,
    "tel": "019-601-7560",
    "url": "https://www.lets-club.jp/shop/moriokaminami/",
    "pref": "岩手県",
    "city": "盛岡市",
    "category": "day_service",
    "serviceType": "通所介護",
    "capacity": 190,
    "openDays": [
      "平日",
      "祝日"
    ],
    "openDaysNote": "年末年始休業日（12/29～1/3）（改行）上記以外の月～金曜日の祝日は営業しております。"
  },
  {
    "id": "370106197",
    "name": "愛ケアセンターデイサービスまごころ",
    "kana": "アイケアセンターデイサービスマゴコロ",
    "address": "岩手県盛岡市西見前13地割76愛ケアセンター西見前 愛ケアセンター西見前",
    "lat": 39.6399154,
    "lng": 141.1650356,
    "tel": "019-681-3285",
    "url": "https://www.icare-center.net/facilities",
    "pref": "岩手県",
    "city": "盛岡市",
    "category": "day_service",
    "serviceType": "通所介護",
    "capacity": 0,
    "openDays": [
      "平日",
      "土曜日",
      "祝日"
    ],
    "openDaysNote": "サテライト　ひまわり・サテライト　あさがおも同様です。"
  },
  {
    "id": "370102709",
    "name": "愛真館夢ぷらざ",
    "kana": "アイシンカンユメプラザ",
    "address": "岩手県盛岡市繋字塗沢４０－４愛真館西館3階 愛真館西館3階",
    "lat": 39.6727025,
    "lng": 141.0218882,
    "tel": "019-689-2200",
    "url": "http://aishinkan-yumeplaza.com",
    "pref": "岩手県",
    "city": "盛岡市",
    "category": "day_service",
    "serviceType": "通所介護",
    "capacity": 0,
    "openDays": [
      "平日",
      "土曜日"
    ],
    "openDaysNote": ""
  },
  {
    "id": "370101008",
    "name": "希望の里デイサービスセンター",
    "kana": "キボウノサトデイサービスセンター",
    "address": "岩手県盛岡市乙部5地割41番地１",
    "lat": 39.6113176,
    "lng": 141.1950503,
    "tel": "019-696-4396",
    "url": "http://nozomikai.or.jp/",
    "pref": "岩手県",
    "city": "盛岡市",
    "category": "day_service",
    "serviceType": "通所介護",
    "capacity": 0,
    "openDays": [
      "平日",
      "土曜日",
      "祝日"
    ],
    "openDaysNote": ""
  },
  {
    "id": "370104044",
    "name": "機能訓練センター加賀野",
    "kana": "キノウクンレンセンターカガノ",
    "address": "岩手県盛岡市加賀野１－２－３５",
    "lat": 39.7073997,
    "lng": 141.1609581,
    "tel": "019-681-3206",
    "url": "https://kaigonomori.net/",
    "pref": "岩手県",
    "city": "盛岡市",
    "category": "day_service",
    "serviceType": "通所介護",
    "capacity": 25,
    "openDays": [
      "平日",
      "土曜日",
      "祝日"
    ],
    "openDaysNote": ""
  },
  {
    "id": "370100745",
    "name": "五月園指定通所介護事業所",
    "kana": "サツキエンシテイツウショカイゴジギョウショ",
    "address": "岩手県盛岡市東山二丁目5-19",
    "lat": 39.68873,
    "lng": 141.1802124,
    "tel": "019-652-0220",
    "url": "",
    "pref": "岩手県",
    "city": "盛岡市",
    "category": "day_service",
    "serviceType": "通所介護",
    "capacity": 0,
    "openDays": [
      "平日",
      "土曜日",
      "祝日"
    ],
    "openDaysNote": "年末年始は休み（12/29～1/3）"
  },
  {
    "id": "370102089",
    "name": "在宅総合センターひだまりデイサービス",
    "kana": "ザイタクソウゴウセンターヒダマリデイサービス",
    "address": "岩手県盛岡市津志田２６－３０－１",
    "lat": 39.6723621,
    "lng": 141.1564873,
    "tel": "019-635-1302",
    "url": "http://morioka-hidamari.com/inquiry.html",
    "pref": "岩手県",
    "city": "盛岡市",
    "category": "day_service",
    "serviceType": "通所介護",
    "capacity": 45,
    "openDays": [
      "平日",
      "土曜日",
      "祝日"
    ],
    "openDaysNote": ""
  },
  {
    "id": "370100521",
    "name": "指定通所介護事業所都南あけぼの荘",
    "kana": "シテイツウショカイゴジギョウショトナンアケボノソウ",
    "address": "岩手県盛岡市湯沢４地割２５－１",
    "lat": 39.6463688,
    "lng": 141.0902725,
    "tel": "019-639-2528",
    "url": "https://morioka-fujimikai.or.jp",
    "pref": "岩手県",
    "city": "盛岡市",
    "category": "day_service",
    "serviceType": "通所介護",
    "capacity": 35,
    "openDays": [
      "平日",
      "土曜日",
      "祝日"
    ],
    "openDaysNote": ""
  },
  {
    "id": "370101636",
    "name": "城南老人デイサービスセンター",
    "kana": "ジョウナンロウジンデイサービスセンター",
    "address": "岩手県盛岡市神明町8番4号",
    "lat": 39.7015504,
    "lng": 141.1600361,
    "tel": "019-621-1215",
    "url": "http://senshoukai.or.jp",
    "pref": "岩手県",
    "city": "盛岡市",
    "category": "day_service",
    "serviceType": "通所介護",
    "capacity": 0,
    "openDays": [
      "平日",
      "土曜日",
      "祝日"
    ],
    "openDaysNote": "日曜日以外の祝日、お盆期間は営業しています。"
  },
  {
    "id": "370107492",
    "name": "生活リハビリ訓練かがやき",
    "kana": "セイカツリハビリクンレンカガヤキ",
    "address": "岩手県盛岡市厨川4丁目5-15",
    "lat": 39.7486097,
    "lng": 141.1279156,
    "tel": "019-601-5706",
    "url": "http://www.chienowacare.com/index.html",
    "pref": "岩手県",
    "city": "盛岡市",
    "category": "day_service",
    "serviceType": "通所介護",
    "capacity": 0,
    "openDays": [
      "平日",
      "祝日"
    ],
    "openDaysNote": ""
  },
  {
    "id": "370102253",
    "name": "盛岡ケアセンターそよ風",
    "kana": "モリオカケアセンターソヨカゼ",
    "address": "岩手県盛岡市向中野四丁目35-22",
    "lat": 39.676678,
    "lng": 141.1466242,
    "tel": "019-631-2075",
    "url": "http://www.sykz.co.jp",
    "pref": "岩手県",
    "city": "盛岡市",
    "category": "day_service",
    "serviceType": "通所介護",
    "capacity": 0,
    "openDays": [
      "平日",
      "土曜日",
      "日曜日",
      "祝日"
    ],
    "openDaysNote": "正月営業はその年によります"
  },
  {
    "id": "370102428",
    "name": "盛岡市社会福祉協議会月が丘老人デイサービスセンター",
    "kana": "モリオカシシャカイフクシキョウギカイツキガオカロウジンデイサービスセンター",
    "address": "岩手県盛岡市月が丘3丁目7番5号",
    "lat": 39.7340709,
    "lng": 141.109248,
    "tel": "019-648-8833",
    "url": "http://www.morioka-shakyo.or.jp/",
    "pref": "岩手県",
    "city": "盛岡市",
    "category": "day_service",
    "serviceType": "通所介護",
    "capacity": 0,
    "openDays": [
      "平日",
      "土曜日",
      "祝日"
    ],
    "openDaysNote": ""
  },
  {
    "id": "370102410",
    "name": "盛岡市社会福祉協議会盛岡駅西口老人デイサービスセンター",
    "kana": "モリオカシシャカイフクシキョウギカイモリオカエキニシグチロウジンデイサービスセンター",
    "address": "岩手県盛岡市盛岡駅西通1丁目2番2号",
    "lat": 39.704091,
    "lng": 141.1319136,
    "tel": "019-653-3011",
    "url": "http://www.morioka-shakyo.or.jp/",
    "pref": "岩手県",
    "city": "盛岡市",
    "category": "day_service",
    "serviceType": "通所介護",
    "capacity": 0,
    "openDays": [
      "平日",
      "土曜日",
      "祝日"
    ],
    "openDaysNote": ""
  },
  {
    "id": "370107195",
    "name": "盛岡北ケアコミュニティそよ風",
    "kana": "モリオカキタケアコミュニティソヨカゼ",
    "address": "岩手県盛岡市三ツ割4丁目7-17",
    "lat": 39.7297717,
    "lng": 141.1577996,
    "tel": "019-662-2161",
    "url": "http://www.unimat.co.jp/",
    "pref": "岩手県",
    "city": "盛岡市",
    "category": "day_service",
    "serviceType": "通所介護",
    "capacity": 35,
    "openDays": [
      "平日",
      "土曜日",
      "祝日"
    ],
    "openDaysNote": ""
  },
  {
    "id": "370105322",
    "name": "盛南デイサービス",
    "kana": "セイナンデイサービス",
    "address": "岩手県盛岡市向中野７丁目４番１６号サービス付き高齢者向け住宅　みなみ風 サービス付き高齢者向け住宅　みなみ風",
    "lat": 39.6758183135213,
    "lng": 141.141090521426,
    "tel": "019-601-5650",
    "url": "http://sazan-cross.co.jp",
    "pref": "岩手県",
    "city": "盛岡市",
    "category": "day_service",
    "serviceType": "通所介護",
    "capacity": 5,
    "openDays": [
      "平日",
      "土曜日",
      "祝日"
    ],
    "openDaysNote": ""
  },
  {
    "id": "370101628",
    "name": "西青山地域支援センター",
    "kana": "ニシアオヤマチイキシエンセンター",
    "address": "岩手県盛岡市西青山三丁目４０番３９号",
    "lat": 39.7282212,
    "lng": 141.1003573,
    "tel": "019-605-5252",
    "url": "",
    "pref": "岩手県",
    "city": "盛岡市",
    "category": "day_service",
    "serviceType": "通所介護",
    "capacity": 0,
    "openDays": [
      "平日",
      "土曜日",
      "日曜日",
      "祝日"
    ],
    "openDaysNote": ""
  },
  {
    "id": "370100240",
    "name": "青山和敬荘",
    "kana": "アオヤマワケイソウ",
    "address": "岩手県盛岡市南青山町１３番３０号",
    "lat": 39.7192946,
    "lng": 141.112401,
    "tel": "019-648-1411",
    "url": "http://www.wakeisou.or.jp/",
    "pref": "岩手県",
    "city": "盛岡市",
    "category": "day_service",
    "serviceType": "通所介護",
    "capacity": 0,
    "openDays": [
      "平日",
      "祝日"
    ],
    "openDaysNote": ""
  },
  {
    "id": "370100554",
    "name": "千年苑デイサービスセンター",
    "kana": "チトセエンデイサービスセンター",
    "address": "岩手県盛岡市上太田穴口５３番地",
    "lat": 39.6908931,
    "lng": 141.0583561,
    "tel": "019-659-1831",
    "url": "https://senshoukai.or.jp/",
    "pref": "岩手県",
    "city": "盛岡市",
    "category": "day_service",
    "serviceType": "通所介護",
    "capacity": 0,
    "openDays": [
      "平日",
      "土曜日",
      "祝日"
    ],
    "openDaysNote": ""
  },
  {
    "id": "370100257",
    "name": "浅岸和敬荘通所介護事業所",
    "kana": "アサギシワケイソウツウショカイゴジギョウショ",
    "address": "岩手県盛岡市浅岸三丁目23番50号",
    "lat": 39.7120275,
    "lng": 141.1793091,
    "tel": "019-651-6111",
    "url": "http://www.wakeisou.or.jp/",
    "pref": "岩手県",
    "city": "盛岡市",
    "category": "day_service",
    "serviceType": "通所介護",
    "capacity": 30,
    "openDays": [
      "平日",
      "祝日"
    ],
    "openDaysNote": "年末年始休業（１２／２９から１／３まで）"
  },
  {
    "id": "370100307",
    "name": "第二松園ハイツ指定通所介護事業所",
    "kana": "ダイニマツゾノハイツシテイツウショカイゴジギョウショ",
    "address": "岩手県盛岡市西松園二丁目5番1号",
    "lat": 39.7521227474612,
    "lng": 141.159471356299,
    "tel": "019-663-8880",
    "url": "http://www.ikushinkai.jp/",
    "pref": "岩手県",
    "city": "盛岡市",
    "category": "day_service",
    "serviceType": "通所介護",
    "capacity": 40,
    "openDays": [
      "平日",
      "土曜日",
      "祝日"
    ],
    "openDaysNote": "祝日及び年末12/30～12/31は営業しております。"
  },
  {
    "id": "370106346",
    "name": "中屋敷ケアセンターそよ風",
    "kana": "ナカヤシキケアセンターソヨカゼ",
    "address": "岩手県盛岡市中屋敷町6-17",
    "lat": 39.7078764,
    "lng": 141.12042,
    "tel": "019-648-6330",
    "url": "http://www.sykz.co.jp",
    "pref": "岩手県",
    "city": "盛岡市",
    "category": "day_service",
    "serviceType": "通所介護",
    "capacity": 33,
    "openDays": [
      "平日",
      "土曜日",
      "祝日"
    ],
    "openDaysNote": ""
  },
  {
    "id": "370107559",
    "name": "通所介護事業所「時の音」",
    "kana": "ツウショカイゴジギョウショ「トキノネ」",
    "address": "岩手県盛岡市大館町９番２号通所介護事業所「時の音」 通所介護事業所「時の音」",
    "lat": 39.7160793320983,
    "lng": 141.111987038623,
    "tel": "050-1286-1711",
    "url": "https://r.goope.jp/tokinone",
    "pref": "岩手県",
    "city": "盛岡市",
    "category": "day_service",
    "serviceType": "通所介護",
    "capacity": 0,
    "openDays": [
      "平日",
      "土曜日",
      "日曜日",
      "祝日"
    ],
    "openDaysNote": ""
  },
  {
    "id": "372100859",
    "name": "特別養護老人ホームすずらんガーデン通所介護事業所",
    "kana": "トクベツヨウゴロウジンホームスズランガーデンツウショカイゴジギョウショ",
    "address": "岩手県盛岡市好摩字芋田向８３－２５",
    "lat": 39.8669401,
    "lng": 141.1653584,
    "tel": "019-669-3600",
    "url": "http://www.nisshindo-g.com/",
    "pref": "岩手県",
    "city": "盛岡市",
    "category": "day_service",
    "serviceType": "通所介護",
    "capacity": 0,
    "openDays": [
      "平日",
      "土曜日",
      "祝日"
    ],
    "openDaysNote": ""
  },
  {
    "id": "370107088",
    "name": "老人デイサービスセンター「百万石」本宮",
    "kana": "ロウジンデイサービスセンターヒャクマンゴクモトミヤ",
    "address": "岩手県盛岡市本宮３丁目１５番26号",
    "lat": 39.690785,
    "lng": 141.1334458,
    "tel": "019-613-3265",
    "url": "",
    "pref": "岩手県",
    "city": "盛岡市",
    "category": "day_service",
    "serviceType": "通所介護",
    "capacity": null,
    "openDays": [
      "平日",
      "土曜日",
      "日曜日",
      "祝日"
    ],
    "openDaysNote": ""
  },
  {
    "id": "372400168",
    "name": "デイサービスセンターかたくりの園",
    "kana": "デイサービスセンターカタクリノソノ",
    "address": "岩手県和賀郡西和賀町沢内字大野１７地割１４０番地１",
    "lat": 39.3951137,
    "lng": 140.7724234,
    "tel": "0197-85-3388",
    "url": "http://yasuragikai.com/",
    "pref": "岩手県",
    "city": "西和賀町",
    "category": "day_service",
    "serviceType": "通所介護",
    "capacity": 0,
    "openDays": [
      "平日",
      "土曜日",
      "祝日"
    ],
    "openDaysNote": ""
  },
  {
    "id": "372400176",
    "name": "デイサービスにしわが",
    "kana": "デイサービスニシワガ",
    "address": "岩手県和賀郡西和賀町川尻40地割73番地82",
    "lat": 39.3140542,
    "lng": 140.775447,
    "tel": "0197-84-2161",
    "url": "http://nishi-shakyo.net/",
    "pref": "岩手県",
    "city": "西和賀町",
    "category": "day_service",
    "serviceType": "通所介護",
    "capacity": 0,
    "openDays": [
      "平日",
      "土曜日",
      "日曜日",
      "祝日"
    ],
    "openDaysNote": ""
  },
  {
    "id": "370300667",
    "name": "リハビリ特化型デイサービス「ひまわり俱楽部」",
    "kana": "リハビリトッカガタデイサービス「ヒマワリクラブ」",
    "address": "岩手県大船渡市大船渡町字山馬越196番地",
    "lat": 39.0706142,
    "lng": 141.7113478,
    "tel": "0192-27-8635",
    "url": "http://www.tenjinkai.com/",
    "pref": "岩手県",
    "city": "大船渡市",
    "category": "day_service",
    "serviceType": "通所介護",
    "capacity": null,
    "openDays": [
      "平日",
      "祝日"
    ],
    "openDaysNote": "２単位目　平日（祝日）　午後　13:15～17:15"
  },
  {
    "id": "370300428",
    "name": "丸森デイサービス",
    "kana": "マルモリデイサービス",
    "address": "岩手県大船渡市大船渡町字丸森15-1",
    "lat": 39.0296908,
    "lng": 141.7114813,
    "tel": "0192-22-8677",
    "url": "",
    "pref": "岩手県",
    "city": "大船渡市",
    "category": "day_service",
    "serviceType": "通所介護",
    "capacity": 0,
    "openDays": [
      "平日",
      "土曜日",
      "祝日"
    ],
    "openDaysNote": "年末年始12/30から1/3まで休業"
  },
  {
    "id": "370300071",
    "name": "大船渡市デイサービスセンター",
    "kana": "オオフナトシデイサービスセンター",
    "address": "岩手県大船渡市立根町字田ノ上３０番地２２",
    "lat": 39.1021184,
    "lng": 141.7173673,
    "tel": "0192-27-3300",
    "url": "http://www.i-seijinkai.jp",
    "pref": "岩手県",
    "city": "大船渡市",
    "category": "day_service",
    "serviceType": "通所介護",
    "capacity": 0,
    "openDays": [
      "平日",
      "土曜日",
      "日曜日",
      "祝日"
    ],
    "openDaysNote": "３６５日営業（年中無休）"
  },
  {
    "id": "370300386",
    "name": "大船渡市農業協同組合指定通所介護事業所日頃市(JAおおふなとデイサービスセンター日頃市）",
    "kana": "オオフナトシノウギョウキョウドウクミアイシテイツウショカイゴジギョウショヒコロイチ（ジェイエイオオフナトデイサービスセンターヒコロイチ）",
    "address": "岩手県大船渡市日頃市町字関谷45番地3",
    "lat": 39.1261399,
    "lng": 141.6728817,
    "tel": "0192-28-2900",
    "url": "https://www.jaiwate.or.jp/ofunato/",
    "pref": "岩手県",
    "city": "大船渡市",
    "category": "day_service",
    "serviceType": "通所介護",
    "capacity": 0,
    "openDays": [
      "平日",
      "土曜日",
      "日曜日",
      "祝日"
    ],
    "openDaysNote": "2010年4月より、土曜日、日曜日の営業を始めました。"
  },
  {
    "id": "370300246",
    "name": "大船渡市農業協同組合指定通所介護事業所立根（JAおおふなとデイサービスセンター立根）",
    "kana": "オオフナトシノウギョウキョウドウクミアイシテイツウショカイゴジギョウショタッコン",
    "address": "岩手県大船渡市立根町字関谷45番地１",
    "lat": 39.1149148768162,
    "lng": 141.719998483467,
    "tel": "0192-26-1231",
    "url": "",
    "pref": "岩手県",
    "city": "大船渡市",
    "category": "day_service",
    "serviceType": "通所介護",
    "capacity": 0,
    "openDays": [
      "平日",
      "土曜日",
      "日曜日",
      "祝日"
    ],
    "openDaysNote": ""
  },
  {
    "id": "372101204",
    "name": "サン・ケアサービスセンター",
    "kana": "サン・ケアサービスセンター",
    "address": "岩手県滝沢市鵜飼大緩47番地28",
    "lat": 39.7341983,
    "lng": 141.0948299,
    "tel": "019-684-6254",
    "url": "",
    "pref": "岩手県",
    "city": "滝沢市",
    "category": "day_service",
    "serviceType": "通所介護",
    "capacity": 0,
    "openDays": [
      "平日",
      "土曜日",
      "日曜日",
      "祝日"
    ],
    "openDaysNote": ""
  },
  {
    "id": "371600529",
    "name": "ツクイ滝沢ゆとりが丘",
    "kana": "ツクイタキザワユトリガオカ",
    "address": "岩手県滝沢市室小路378番地1ツクイ滝沢ゆとりが丘 ツクイ滝沢ゆとりが丘",
    "lat": 39.7428079,
    "lng": 141.101743,
    "tel": "019-699-3551",
    "url": "https://www.tsukui.net/home-care/2399",
    "pref": "岩手県",
    "city": "滝沢市",
    "category": "day_service",
    "serviceType": "通所介護",
    "capacity": 0,
    "openDays": [
      "平日",
      "土曜日",
      "日曜日",
      "祝日"
    ],
    "openDaysNote": "365日稼働"
  },
  {
    "id": "371600073",
    "name": "デイサービス・フォーユー",
    "kana": "デイサービス・フォーユー",
    "address": "岩手県滝沢市牧野林302-6",
    "lat": 39.7453473,
    "lng": 141.1046453,
    "tel": "019-687-1313",
    "url": "http://www.k-sinkaigo-foryou.com/",
    "pref": "岩手県",
    "city": "滝沢市",
    "category": "day_service",
    "serviceType": "通所介護",
    "capacity": 0,
    "openDays": [
      "平日",
      "土曜日"
    ],
    "openDaysNote": ""
  },
  {
    "id": "371600081",
    "name": "デイサービスえにし",
    "kana": "デイサービスエニシ",
    "address": "岩手県滝沢市鵜飼狐洞１０９番地1",
    "lat": 39.7403400890531,
    "lng": 141.086745373541,
    "tel": "019-684-2165",
    "url": "",
    "pref": "岩手県",
    "city": "滝沢市",
    "category": "day_service",
    "serviceType": "通所介護",
    "capacity": 0,
    "openDays": [
      "平日",
      "土曜日",
      "日曜日",
      "祝日"
    ],
    "openDaysNote": ""
  },
  {
    "id": "371600362",
    "name": "デイサービスセンターこもれび",
    "kana": "デイサービスセンターコモレビ",
    "address": "岩手県滝沢市巣子1162番地34",
    "lat": 39.7740391,
    "lng": 141.1309643,
    "tel": "019-613-2690",
    "url": "http://www.ckomorebi.co.jp/",
    "pref": "岩手県",
    "city": "滝沢市",
    "category": "day_service",
    "serviceType": "通所介護",
    "capacity": 0,
    "openDays": [
      "平日",
      "土曜日",
      "日曜日",
      "祝日"
    ],
    "openDaysNote": ""
  },
  {
    "id": "372101774",
    "name": "デイサービスひなたぼっこ",
    "kana": "デイサービスヒナタボッコ",
    "address": "岩手県滝沢市大釜風林４２番地２９２",
    "lat": 39.7087905311548,
    "lng": 141.026560910071,
    "tel": "019-681-2330",
    "url": "",
    "pref": "岩手県",
    "city": "滝沢市",
    "category": "day_service",
    "serviceType": "通所介護",
    "capacity": 0,
    "openDays": [
      "平日",
      "土曜日",
      "祝日"
    ],
    "openDaysNote": "相談可"
  },
  {
    "id": "372101428",
    "name": "ディサービスみんなの家",
    "kana": "ディサービスミンナノイエ",
    "address": "岩手県滝沢市葉の木沢山399-6",
    "lat": 39.775892,
    "lng": 141.1434548,
    "tel": "019-681-0346",
    "url": "",
    "pref": "岩手県",
    "city": "滝沢市",
    "category": "day_service",
    "serviceType": "通所介護",
    "capacity": 0,
    "openDays": [
      "平日",
      "土曜日",
      "祝日"
    ],
    "openDaysNote": "年末12月31日～1月3日まで休業。"
  },
  {
    "id": "372101311",
    "name": "デイサービスりはびり学校いわて",
    "kana": "デイサービスリハビリガッコウイワテ",
    "address": "岩手県滝沢市巣子180番地3",
    "lat": 39.7929393,
    "lng": 141.1210924,
    "tel": "019-688-7700",
    "url": "https://total-rehabili.com/",
    "pref": "岩手県",
    "city": "滝沢市",
    "category": "day_service",
    "serviceType": "通所介護",
    "capacity": 0,
    "openDays": [
      "平日",
      "土曜日",
      "祝日"
    ],
    "openDaysNote": ""
  },
  {
    "id": "371600347",
    "name": "デイサービスりはびり学校すご",
    "kana": "デイサービスリハビリガッコウスゴ",
    "address": "岩手県滝沢市巣子1153番地8",
    "lat": 39.7760665,
    "lng": 141.1284117,
    "tel": "019-688-6161",
    "url": "https://total-rehabili.com",
    "pref": "岩手県",
    "city": "滝沢市",
    "category": "day_service",
    "serviceType": "通所介護",
    "capacity": 0,
    "openDays": [
      "平日",
      "土曜日",
      "祝日"
    ],
    "openDaysNote": ""
  },
  {
    "id": "371600560",
    "name": "デイサービス芽吹",
    "kana": "デイサービスメブキ",
    "address": "岩手県滝沢市大釜竹鼻１６３番１１",
    "lat": 39.7033811339107,
    "lng": 141.072783032016,
    "tel": "019-601-8873",
    "url": "",
    "pref": "岩手県",
    "city": "滝沢市",
    "category": "day_service",
    "serviceType": "通所介護",
    "capacity": null,
    "openDays": [
      "平日",
      "土曜日",
      "祝日"
    ],
    "openDaysNote": ""
  },
  {
    "id": "371600255",
    "name": "ナイスデイサービスセンター",
    "kana": "ナイスデイサービスセンター",
    "address": "岩手県滝沢市穴口２７１番地８",
    "lat": 39.7374385276107,
    "lng": 141.105354280396,
    "tel": "019-641-6655",
    "url": "",
    "pref": "岩手県",
    "city": "滝沢市",
    "category": "day_service",
    "serviceType": "通所介護",
    "capacity": 20,
    "openDays": [
      "平日",
      "土曜日",
      "祝日"
    ],
    "openDaysNote": "上記のほか、管理者が定めた日を休日としている。"
  },
  {
    "id": "371600354",
    "name": "にこにこリハビリデイサービス滝沢る～む",
    "kana": "ニコニコリハビリデイサービスタキザワルーム",
    "address": "岩手県滝沢市土沢528番地",
    "lat": 39.7469443,
    "lng": 141.1042898,
    "tel": "019-687-1133",
    "url": "",
    "pref": "岩手県",
    "city": "滝沢市",
    "category": "day_service",
    "serviceType": "通所介護",
    "capacity": 0,
    "openDays": [
      "平日",
      "祝日"
    ],
    "openDaysNote": "ゴールデンウィーク、お盆、年末年始は、その年に準じた休みとし変更する場合はお知らせします。"
  },
  {
    "id": "372101592",
    "name": "リハビリの里たきざわ",
    "kana": "リハビリノサトタキザワ",
    "address": "岩手県滝沢市鵜飼諸葛川16-19",
    "lat": 39.7314846587251,
    "lng": 141.098366576057,
    "tel": "019-681-9191",
    "url": "https://tsugurucompany.com/",
    "pref": "岩手県",
    "city": "滝沢市",
    "category": "day_service",
    "serviceType": "通所介護",
    "capacity": 0,
    "openDays": [
      "平日",
      "土曜日",
      "祝日"
    ],
    "openDaysNote": "会社の定める休暇あり"
  },
  {
    "id": "372100529",
    "name": "れいたく苑デイサービスセンター",
    "kana": "レイタクエンデイサービスセンター",
    "address": "岩手県滝沢市鵜飼細谷地26番地5",
    "lat": 39.747812501323,
    "lng": 141.078432666876,
    "tel": "019-684-2902",
    "url": "http://www.reitakukai.net/",
    "pref": "岩手県",
    "city": "滝沢市",
    "category": "day_service",
    "serviceType": "通所介護",
    "capacity": 0,
    "openDays": [
      "平日",
      "祝日"
    ],
    "openDaysNote": ""
  },
  {
    "id": "371600461",
    "name": "巣郷の里まつなみきデイサービスセンター",
    "kana": "スゴウノサトマツナミキデイサービスセンター",
    "address": "岩手県滝沢市巣子1197-72",
    "lat": 39.7789346,
    "lng": 141.1315346,
    "tel": "019-681-6760",
    "url": "http://www.fitton.co.jp",
    "pref": "岩手県",
    "city": "滝沢市",
    "category": "day_service",
    "serviceType": "通所介護",
    "capacity": null,
    "openDays": [
      "平日"
    ],
    "openDaysNote": ""
  },
  {
    "id": "371300351",
    "name": "いつつ星会デイサービスセンターおからぎ",
    "kana": "イツツボシカイデイサービスセンターオカラギ",
    "address": "岩手県二戸市堀野字大川原毛89-6",
    "lat": 40.2993091,
    "lng": 141.3046463,
    "tel": "0195-22-4139",
    "url": "http://www.itutuboshi.com/",
    "pref": "岩手県",
    "city": "二戸市",
    "category": "day_service",
    "serviceType": "通所介護",
    "capacity": 30,
    "openDays": [
      "平日",
      "土曜日",
      "祝日"
    ],
    "openDaysNote": "夏時間（３月～１０月）　９：２０～１６：３０（改行）冬時間（１１月～２月）　９：２０～１５：３０"
  },
  {
    "id": "371300112",
    "name": "サントピア指定通所介護事業所",
    "kana": "サントピアシテイツウショカイゴジギョウショ",
    "address": "岩手県二戸市似鳥字上平15番地1",
    "lat": 40.2401287,
    "lng": 141.2431679,
    "tel": "0195-20-1010",
    "url": "http://3palace.com/",
    "pref": "岩手県",
    "city": "二戸市",
    "category": "day_service",
    "serviceType": "通所介護",
    "capacity": 210,
    "openDays": [
      "平日",
      "土曜日",
      "祝日"
    ],
    "openDaysNote": "特になし"
  },
  {
    "id": "371300419",
    "name": "サンパレス指定通所介護事業所",
    "kana": "サンパレスシテイツウショカイゴジギョウショ",
    "address": "岩手県二戸市石切所字森合９２－１",
    "lat": 40.262686,
    "lng": 141.2861856,
    "tel": "0195-25-5222",
    "url": "http://www.3palace.com",
    "pref": "岩手県",
    "city": "二戸市",
    "category": "day_service",
    "serviceType": "通所介護",
    "capacity": 25,
    "openDays": [
      "平日",
      "土曜日",
      "祝日"
    ],
    "openDaysNote": ""
  },
  {
    "id": "371300518",
    "name": "デイサービスセンターいずみ",
    "kana": "デイサービスセンターイズミ",
    "address": "岩手県二戸市金田一字八ツ長40番地4",
    "lat": 40.3091579,
    "lng": 141.3060235,
    "tel": "0195-26-8606",
    "url": "http://keisenkai.jp",
    "pref": "岩手県",
    "city": "二戸市",
    "category": "day_service",
    "serviceType": "通所介護",
    "capacity": 0,
    "openDays": [
      "平日",
      "土曜日",
      "日曜日",
      "祝日"
    ],
    "openDaysNote": ""
  },
  {
    "id": "371300641",
    "name": "わガーヤにのへ横丁",
    "kana": "ワガーヤニノヘヨコチョウ",
    "address": "岩手県二戸市福岡字横丁15-1",
    "lat": 40.2739501,
    "lng": 141.2983155,
    "tel": "0195-22-1588",
    "url": "http://www.reitakukai.net/",
    "pref": "岩手県",
    "city": "二戸市",
    "category": "day_service",
    "serviceType": "通所介護",
    "capacity": 0,
    "openDays": [
      "平日",
      "祝日"
    ],
    "openDaysNote": ""
  },
  {
    "id": "373200161",
    "name": "浄法寺通所介護事業所",
    "kana": "ジョウボウジツウショカイゴジギョウショ",
    "address": "岩手県二戸市浄法寺町小池３番地二戸市ほほえみセンター 二戸市ほほえみセンター",
    "lat": 40.1862469,
    "lng": 141.1547508,
    "tel": "0195-38-3922",
    "url": "http://ninohe-shakyo.jp/",
    "pref": "岩手県",
    "city": "二戸市",
    "category": "day_service",
    "serviceType": "通所介護",
    "capacity": 25,
    "openDays": [
      "平日",
      "土曜日",
      "祝日"
    ],
    "openDaysNote": "災害時、避難準備が出された時は休業。"
  },
  {
    "id": "371300096",
    "name": "湯の里にのへ",
    "kana": "ユノサトニノヘ",
    "address": "岩手県二戸市金田一字湯田24番地",
    "lat": 40.3205541,
    "lng": 141.320321,
    "tel": "0195-27-3311",
    "url": "http://www.reitakukai.net/",
    "pref": "岩手県",
    "city": "二戸市",
    "category": "day_service",
    "serviceType": "通所介護",
    "capacity": 0,
    "openDays": [
      "平日",
      "祝日"
    ],
    "openDaysNote": ""
  },
  {
    "id": "371300047",
    "name": "二戸市社会福祉協議会通所介護事業所",
    "kana": "ニノヘシシャカイフクシキョウギカイツウショカイゴジギョウショ",
    "address": "岩手県二戸市仁左平字横手２番地３",
    "lat": 40.3035225,
    "lng": 141.3087429,
    "tel": "0195-23-5074",
    "url": "",
    "pref": "岩手県",
    "city": "二戸市",
    "category": "day_service",
    "serviceType": "通所介護",
    "capacity": 0,
    "openDays": [
      "平日",
      "土曜日",
      "祝日"
    ],
    "openDaysNote": ""
  },
  {
    "id": "372100669",
    "name": "松尾デイサービスセンター",
    "kana": "マツオデイサービスセンター",
    "address": "岩手県八幡平市柏台２－９－２",
    "lat": 39.9159347,
    "lng": 140.9837494,
    "tel": "0195-78-3720",
    "url": "http://michinoku.or.jp",
    "pref": "岩手県",
    "city": "八幡平市",
    "category": "day_service",
    "serviceType": "通所介護",
    "capacity": 0,
    "openDays": [
      "平日",
      "土曜日",
      "祝日"
    ],
    "openDaysNote": "ただし、利用者が利用の希望がある場合は、この限りではない。"
  },
  {
    "id": "371400185",
    "name": "森のデイサービス",
    "kana": "モリノデイサービス",
    "address": "岩手県八幡平市大更第25地割118番地9",
    "lat": 39.9144851,
    "lng": 141.0971303,
    "tel": "0195-68-7466",
    "url": "https://kaigonomori.net/",
    "pref": "岩手県",
    "city": "八幡平市",
    "category": "day_service",
    "serviceType": "通所介護",
    "capacity": 0,
    "openDays": [
      "平日",
      "土曜日",
      "祝日"
    ],
    "openDaysNote": ""
  },
  {
    "id": "372100461",
    "name": "西根会指定通所介護事業所",
    "kana": "ニシネカイシテイツウショカイゴジギョウショ",
    "address": "岩手県八幡平市田頭第２４地割３６番地",
    "lat": 39.9189703,
    "lng": 141.086445,
    "tel": "0195-76-3100",
    "url": "https://nishinekai.jp",
    "pref": "岩手県",
    "city": "八幡平市",
    "category": "day_service",
    "serviceType": "通所介護",
    "capacity": 0,
    "openDays": [
      "平日",
      "土曜日",
      "日曜日",
      "祝日"
    ],
    "openDaysNote": ""
  },
  {
    "id": "372100768",
    "name": "西根会北部指定通所介護事業所",
    "kana": "ニシネカイホクブシテイツウショカイゴジギョウショ",
    "address": "岩手県八幡平市堀切14-16-1",
    "lat": 39.9539665,
    "lng": 141.0982256,
    "tel": "0195-64-1110",
    "url": "https://nishinekai.jp/",
    "pref": "岩手県",
    "city": "八幡平市",
    "category": "day_service",
    "serviceType": "通所介護",
    "capacity": 0,
    "openDays": [
      "平日",
      "土曜日",
      "日曜日",
      "祝日"
    ],
    "openDaysNote": ""
  },
  {
    "id": "372101121",
    "name": "八幡平ハイツ　デイサービスほかほかクラブ",
    "kana": "ハチマンタイハイツ　デイサービスホカホカクラブ",
    "address": "岩手県八幡平市松尾寄木1-590-4",
    "lat": 39.9023832,
    "lng": 140.9685322,
    "tel": "0195-78-2229",
    "url": "http://hokahoka-club.com/",
    "pref": "岩手県",
    "city": "八幡平市",
    "category": "day_service",
    "serviceType": "通所介護",
    "capacity": 0,
    "openDays": [
      "平日",
      "土曜日",
      "祝日"
    ],
    "openDaysNote": ""
  },
  {
    "id": "373000165",
    "name": "普代村デイサービスセンター通所介護事業所",
    "kana": "フダイムラデイサービスセンターツウショカイゴジギョウショ",
    "address": "岩手県下閉伊郡普代村第24地割字鳥居5番地1",
    "lat": 40.0136984,
    "lng": 141.8542857,
    "tel": "0194-35-3577",
    "url": "https://www.unetorisou.com",
    "pref": "岩手県",
    "city": "普代村",
    "category": "day_service",
    "serviceType": "通所介護",
    "capacity": 0,
    "openDays": [
      "平日",
      "祝日"
    ],
    "openDaysNote": ""
  },
  {
    "id": "372600247",
    "name": "いこいデイサービスセンター・平泉",
    "kana": "イコイデイサービスセンターヒライズミ",
    "address": "岩手県西磐井郡平泉町平泉字鈴沢６４－１",
    "lat": 38.9903369,
    "lng": 141.1146133,
    "tel": "0191-34-1512",
    "url": "http://www.cc-ikoi.com/",
    "pref": "岩手県",
    "city": "平泉町",
    "category": "day_service",
    "serviceType": "通所介護",
    "capacity": 25,
    "openDays": [
      "平日",
      "土曜日",
      "祝日"
    ],
    "openDaysNote": "上記以外の日に休日となる場合には、事前にお知らせ致します。"
  },
  {
    "id": "372600098",
    "name": "慶泉荘デイサービスセンター",
    "kana": "ケイセンソウデイサービスセンター",
    "address": "岩手県西磐井郡平泉町平泉字片岡69-7",
    "lat": 38.9716747,
    "lng": 141.1076816,
    "tel": "0191-46-3881",
    "url": "https://www.tousenkai.or.jp/",
    "pref": "岩手県",
    "city": "平泉町",
    "category": "day_service",
    "serviceType": "通所介護",
    "capacity": 0,
    "openDays": [
      "平日",
      "土曜日",
      "祝日"
    ],
    "openDaysNote": ""
  },
  {
    "id": "370600199",
    "name": "エスカールデイサービスセンター",
    "kana": "エスカールデイサービスセンター",
    "address": "岩手県北上市立花10地割38番地",
    "lat": 39.2818017,
    "lng": 141.1327726,
    "tel": "0197-61-2016",
    "url": "http://hakuaikai-kitakami.or.jp/dayservice.htm#",
    "pref": "岩手県",
    "city": "北上市",
    "category": "day_service",
    "serviceType": "通所介護",
    "capacity": 30,
    "openDays": [
      "平日",
      "土曜日",
      "日曜日",
      "祝日"
    ],
    "openDaysNote": ""
  },
  {
    "id": "370601767",
    "name": "コンパスウオーク北上鬼柳",
    "kana": "コンパスウォークキタカミオニヤナギ",
    "address": "岩手県北上市鬼柳町古川83番2",
    "lat": 39.2715702,
    "lng": 141.115049,
    "tel": "0197-62-6717",
    "url": "https://keigo-group.co.jp/shop/iwateken/1306/",
    "pref": "岩手県",
    "city": "北上市",
    "category": "day_service",
    "serviceType": "通所介護",
    "capacity": 20,
    "openDays": [
      "平日",
      "祝日"
    ],
    "openDaysNote": "年末年始（１２月３１日～１月３日）"
  },
  {
    "id": "370601759",
    "name": "ツクイ北上",
    "kana": "ツクイキタカミ",
    "address": "岩手県北上市本石町2-1-41",
    "lat": 39.2913657548874,
    "lng": 141.117165711131,
    "tel": "0197-63-8077",
    "url": "",
    "pref": "岩手県",
    "city": "北上市",
    "category": "day_service",
    "serviceType": "通所介護",
    "capacity": 0,
    "openDays": [
      "平日",
      "土曜日",
      "日曜日",
      "祝日"
    ],
    "openDaysNote": "年中無休"
  },
  {
    "id": "370601643",
    "name": "デイサービスきたえる～む北上中央",
    "kana": "デイサービスキタエル～ムキタカミチュウオウ",
    "address": "岩手県北上市北鬼柳18地割50番地1",
    "lat": 39.2934813563403,
    "lng": 141.098113895811,
    "tel": "0197-72-8809",
    "url": "http://kitaeroom.com/shop/post-47.shtml",
    "pref": "岩手県",
    "city": "北上市",
    "category": "day_service",
    "serviceType": "通所介護",
    "capacity": 20,
    "openDays": [
      "平日",
      "土曜日"
    ],
    "openDaysNote": "自然災害等の緊急時や職員研修等により、やむを得ず臨時休業とする場合がある。その際は利用者及び家族、ケアマネジャーに対して速やかに通知し、了承を得て休業とする。"
  },
  {
    "id": "370601569",
    "name": "デイサービスきらら",
    "kana": "デイサービスキララ",
    "address": "岩手県北上市大堤北1丁目10番8号住宅型有料老人ホーム　タロおおつつみ 住宅型有料老人ホーム　タロおおつつみ",
    "lat": 39.2641168,
    "lng": 141.1024871,
    "tel": "0197-81-5533",
    "url": "",
    "pref": "岩手県",
    "city": "北上市",
    "category": "day_service",
    "serviceType": "通所介護",
    "capacity": 0,
    "openDays": [
      "平日",
      "土曜日",
      "日曜日",
      "祝日"
    ],
    "openDaysNote": ""
  },
  {
    "id": "370601619",
    "name": "デイサービスコスモス",
    "kana": "デイサービスコスモス",
    "address": "岩手県北上市大通四丁目1-10",
    "lat": 39.2853647,
    "lng": 141.1087552,
    "tel": "0197-72-5905",
    "url": "",
    "pref": "岩手県",
    "city": "北上市",
    "category": "day_service",
    "serviceType": "通所介護",
    "capacity": null,
    "openDays": [
      "平日",
      "祝日"
    ],
    "openDaysNote": ""
  },
  {
    "id": "370601791",
    "name": "デイサービスシャイン",
    "kana": "デイサービスシャイン",
    "address": "岩手県北上市和賀町藤根1地割15番209デイサービスシャイン デイサービスシャイン",
    "lat": 39.31899,
    "lng": 141.0078284,
    "tel": "0197-62-3646",
    "url": "https://ds-shine.co.jp/",
    "pref": "岩手県",
    "city": "北上市",
    "category": "day_service",
    "serviceType": "通所介護",
    "capacity": 0,
    "openDays": [
      "平日",
      "土曜日",
      "祝日"
    ],
    "openDaysNote": ""
  },
  {
    "id": "370600330",
    "name": "デイサービスセンターいいとよ",
    "kana": "デイサービスセンターイイトヨ",
    "address": "岩手県北上市村崎野１２地割７４番地１８",
    "lat": 39.3320901,
    "lng": 141.0992935,
    "tel": "0197-71-1177",
    "url": "http://keiwakai.info/",
    "pref": "岩手県",
    "city": "北上市",
    "category": "day_service",
    "serviceType": "通所介護",
    "capacity": 0,
    "openDays": [
      "平日",
      "祝日"
    ],
    "openDaysNote": ""
  },
  {
    "id": "370601684",
    "name": "デイサービスセンターさくら爽",
    "kana": "デイサービスセンターサクラソウ",
    "address": "岩手県北上市さくら通り3丁目7-7",
    "lat": 39.2967955,
    "lng": 141.1179227,
    "tel": "0197-72-5016",
    "url": "https://mirakukai.com/",
    "pref": "岩手県",
    "city": "北上市",
    "category": "day_service",
    "serviceType": "通所介護",
    "capacity": 35,
    "openDays": [
      "平日",
      "土曜日",
      "祝日"
    ],
    "openDaysNote": "年末年始は休業致します。"
  },
  {
    "id": "370600660",
    "name": "デイサービスセンターつどい",
    "kana": "デイサービスセンターツドイ",
    "address": "岩手県北上市諏訪町二丁目5番1号",
    "lat": 39.2869507,
    "lng": 141.1184654,
    "tel": "0197-61-2101",
    "url": "",
    "pref": "岩手県",
    "city": "北上市",
    "category": "day_service",
    "serviceType": "通所介護",
    "capacity": 0,
    "openDays": [
      "平日",
      "土曜日",
      "祝日"
    ],
    "openDaysNote": "お正月休み・お盆休みは、暦により前後します。"
  },
  {
    "id": "370600876",
    "name": "デイサービスセンターほっと東館",
    "kana": "デイサービスセンターホットアズマカン",
    "address": "岩手県北上市和賀町岩崎1地割１１４番地",
    "lat": 39.2405856,
    "lng": 140.9849806,
    "tel": "0197-73-7777",
    "url": "",
    "pref": "岩手県",
    "city": "北上市",
    "category": "day_service",
    "serviceType": "通所介護",
    "capacity": 0,
    "openDays": [
      "平日",
      "土曜日",
      "祝日"
    ],
    "openDaysNote": ""
  },
  {
    "id": "370600470",
    "name": "デイサービスセンター常盤台",
    "kana": "デイサービスセンタートキワダイ",
    "address": "岩手県北上市常盤台四丁目７番２８号",
    "lat": 39.3070373,
    "lng": 141.110796,
    "tel": "0197-61-3263",
    "url": "http://caretokiwa.main.jp",
    "pref": "岩手県",
    "city": "北上市",
    "category": "day_service",
    "serviceType": "通所介護",
    "capacity": 25,
    "openDays": [
      "平日",
      "土曜日",
      "祝日"
    ],
    "openDaysNote": ""
  },
  {
    "id": "370600629",
    "name": "ニチイケアセンター北上",
    "kana": "ニチイケアセンターキタカミ",
    "address": "岩手県北上市青柳町1丁目2番40号",
    "lat": 39.2846288,
    "lng": 141.1216818,
    "tel": "0197-61-2104",
    "url": "http://www.nichiigakkan.co.jp",
    "pref": "岩手県",
    "city": "北上市",
    "category": "day_service",
    "serviceType": "通所介護",
    "capacity": null,
    "openDays": [
      "平日",
      "土曜日",
      "祝日"
    ],
    "openDaysNote": ""
  },
  {
    "id": "370600454",
    "name": "ニチイケアセンター北上中央",
    "kana": "ニチイケアセンターキタカミチュウオウ",
    "address": "岩手県北上市上野町三丁目21番19号",
    "lat": 39.3081735,
    "lng": 141.123681,
    "tel": "0197-61-2525",
    "url": "http://www.nichiigakkan.co.jp",
    "pref": "岩手県",
    "city": "北上市",
    "category": "day_service",
    "serviceType": "通所介護",
    "capacity": 0,
    "openDays": [
      "平日",
      "土曜日",
      "祝日"
    ],
    "openDaysNote": ""
  },
  {
    "id": "370600066",
    "name": "わがの里デイサービスセンター",
    "kana": "ワガノサトデイサービスセンター",
    "address": "岩手県北上市下江釣子１０地割７４番３",
    "lat": 39.2953481,
    "lng": 141.0383269,
    "tel": "0197-73-6996",
    "url": "http://www.waganosato.or.jp/",
    "pref": "岩手県",
    "city": "北上市",
    "category": "day_service",
    "serviceType": "通所介護",
    "capacity": null,
    "openDays": [
      "平日",
      "祝日"
    ],
    "openDaysNote": ""
  },
  {
    "id": "370600702",
    "name": "横川目デイサービス長寿園",
    "kana": "ヨコカワメデイサービスチョウジュエン",
    "address": "岩手県北上市和賀町横川目13-3-3",
    "lat": 39.3107909,
    "lng": 140.9711322,
    "tel": "0197-71-6848",
    "url": "http://sun-milk.com/",
    "pref": "岩手県",
    "city": "北上市",
    "category": "day_service",
    "serviceType": "通所介護",
    "capacity": 0,
    "openDays": [
      "平日",
      "土曜日",
      "祝日"
    ],
    "openDaysNote": ""
  },
  {
    "id": "370600140",
    "name": "敬愛園デイサービスセンター",
    "kana": "ケイアイエンデイサービスセンター",
    "address": "岩手県北上市大堤西一丁目３番１２号",
    "lat": 39.2645408252653,
    "lng": 141.098398095107,
    "tel": "0197-67-3113",
    "url": "",
    "pref": "岩手県",
    "city": "北上市",
    "category": "day_service",
    "serviceType": "通所介護",
    "capacity": 25,
    "openDays": [
      "平日",
      "土曜日",
      "祝日"
    ],
    "openDaysNote": ""
  },
  {
    "id": "370601502",
    "name": "通所介護なごみ",
    "kana": "ツウショカイゴナゴミ",
    "address": "岩手県北上市黒沢尻4丁目8-20",
    "lat": 39.296925,
    "lng": 141.1368273,
    "tel": "0197-61-5103",
    "url": "http://www.nagominakazato.net",
    "pref": "岩手県",
    "city": "北上市",
    "category": "day_service",
    "serviceType": "通所介護",
    "capacity": 19,
    "openDays": [
      "平日",
      "祝日"
    ],
    "openDaysNote": ""
  },
  {
    "id": "370600157",
    "name": "八天の里デイサービスセンター",
    "kana": "ハッテンノサトデイサービスセンター",
    "address": "岩手県北上市更木３４－３２０－１",
    "lat": 39.3302467,
    "lng": 141.1586049,
    "tel": "0197-66-6500",
    "url": "http://hakuaikai-kitakami.or.jp/dayservice.htm",
    "pref": "岩手県",
    "city": "北上市",
    "category": "day_service",
    "serviceType": "通所介護",
    "capacity": 30,
    "openDays": [
      "平日",
      "祝日"
    ],
    "openDaysNote": ""
  },
  {
    "id": "370600942",
    "name": "北星荘デイサービスセンター",
    "kana": "ホクセイソウデイサービスセンター",
    "address": "岩手県北上市下鬼柳１７地割１２７番地５",
    "lat": 39.2675327,
    "lng": 141.0897853,
    "tel": "0197-81-5777",
    "url": "http://risshokai.jp/",
    "pref": "岩手県",
    "city": "北上市",
    "category": "day_service",
    "serviceType": "通所介護",
    "capacity": 0,
    "openDays": [
      "平日",
      "土曜日",
      "祝日"
    ],
    "openDaysNote": ""
  },
  {
    "id": "373100288",
    "name": "ことぶき荘デイサービスセンター指定通所介護事業所",
    "kana": "コトブキソウデイサービスセンターシテイツウショカイゴジギョウショ",
    "address": "岩手県九戸郡野田村大字野田第22地割38番地7",
    "lat": 40.1082623537864,
    "lng": 141.802159043764,
    "tel": "0194-78-3470",
    "url": "https://hakuju.wixsite.com/nodahakujukai",
    "pref": "岩手県",
    "city": "野田村",
    "category": "day_service",
    "serviceType": "通所介護",
    "capacity": 0,
    "openDays": [
      "平日",
      "土曜日",
      "祝日"
    ],
    "openDaysNote": ""
  },
  {
    "id": "372200683",
    "name": "デイサービスとくたんの郷",
    "kana": "デイサービストクタンノサト",
    "address": "岩手県紫波郡矢巾町大字又兵ェ新田第７地割２１２番地１",
    "lat": 39.6135411,
    "lng": 141.1574122,
    "tel": "019-611-1711",
    "url": "https://airinkai.net",
    "pref": "岩手県",
    "city": "矢巾町",
    "category": "day_service",
    "serviceType": "通所介護",
    "capacity": 0,
    "openDays": [
      "平日",
      "土曜日",
      "日曜日",
      "祝日"
    ],
    "openDaysNote": ""
  },
  {
    "id": "372200915",
    "name": "ニチイケアセンター矢巾",
    "kana": "ニチイケアセンターヤハバ",
    "address": "岩手県紫波郡矢巾町大字南矢幅12地割237番地1",
    "lat": 39.5956341,
    "lng": 141.1244409,
    "tel": "019-698-1266",
    "url": "",
    "pref": "岩手県",
    "city": "矢巾町",
    "category": "day_service",
    "serviceType": "通所介護",
    "capacity": 30,
    "openDays": [
      "平日",
      "土曜日",
      "祝日"
    ],
    "openDaysNote": "但し、居宅サービス計画により、休業日及び営業時間外であってもサービスを提供する場合があります。"
  },
  {
    "id": "372201087",
    "name": "生活介護センター「いちご園」",
    "kana": "セイカツカイゴセンター「イチゴエン」",
    "address": "岩手県紫波郡矢巾町又兵エ新田5-339地域交流パレスいちご館 地域交流パレスいちご館",
    "lat": 39.6140166173443,
    "lng": 141.146475934966,
    "tel": "019-698-2840",
    "url": "https://www.15kai.jp/seikatsukaigo_ichigoen/",
    "pref": "岩手県",
    "city": "矢巾町",
    "category": "day_service",
    "serviceType": "通所介護",
    "capacity": 20,
    "openDays": [
      "平日",
      "土曜日",
      "祝日"
    ],
    "openDaysNote": "年末年始（12/29～1/3）、お盆（8/13～8/15）はお休みとなります。"
  },
  {
    "id": "372200477",
    "name": "老人デイサービスセンター「百万石」",
    "kana": "ロウジンデイサービスセンターヒャクマンゴク",
    "address": "岩手県紫波郡矢巾町大字和味2-106-5",
    "lat": 39.5986792,
    "lng": 141.0904307,
    "tel": "019-698-3337",
    "url": "",
    "pref": "岩手県",
    "city": "矢巾町",
    "category": "day_service",
    "serviceType": "通所介護",
    "capacity": 0,
    "openDays": [
      "平日",
      "土曜日",
      "日曜日",
      "祝日"
    ],
    "openDaysNote": "なし"
  },
  {
    "id": "372200758",
    "name": "老人ディサービスセンター「百万石」矢幅駅西口",
    "kana": "ロウジンディサービスセンター「ヒャクマンゴク」ヤハバエキニシグチ",
    "address": "岩手県紫波郡矢巾町大字南矢幅6-606",
    "lat": 39.6116634,
    "lng": 141.1471965,
    "tel": "019-611-2239",
    "url": "",
    "pref": "岩手県",
    "city": "矢巾町",
    "category": "day_service",
    "serviceType": "通所介護",
    "capacity": 27,
    "openDays": [
      "平日",
      "土曜日",
      "日曜日",
      "祝日"
    ],
    "openDaysNote": "なし"
  },
  {
    "id": "373100668",
    "name": "デイサービスセンターひまわり",
    "kana": "デイサービスセンターヒマワリ",
    "address": "岩手県九戸郡洋野町種市第２３地割２５番地８９",
    "lat": 40.4091423,
    "lng": 141.7173619,
    "tel": "0194-75-3345",
    "url": "",
    "pref": "岩手県",
    "city": "洋野町",
    "category": "day_service",
    "serviceType": "通所介護",
    "capacity": 0,
    "openDays": [
      "平日",
      "祝日"
    ],
    "openDaysNote": ""
  },
  {
    "id": "373100452",
    "name": "デイサービスセンターみどりの里",
    "kana": "デイサービスセンターミドリノサト",
    "address": "岩手県九戸郡洋野町種市第40地割1番地1",
    "lat": 40.4386311,
    "lng": 141.6811428,
    "tel": "0194-69-2050",
    "url": "",
    "pref": "岩手県",
    "city": "洋野町",
    "category": "day_service",
    "serviceType": "通所介護",
    "capacity": 0,
    "openDays": [
      "平日",
      "土曜日",
      "日曜日",
      "祝日"
    ],
    "openDaysNote": ""
  },
  {
    "id": "373100171",
    "name": "久慈平荘デイサービスセンター指定通所介護事業所",
    "kana": "クジヒラソウデイサービスセンターシテイツウショカイゴジイギョウショ",
    "address": "岩手県九戸郡洋野町大野60-41-8",
    "lat": 40.2766863,
    "lng": 141.6346269,
    "tel": "0194-77-2771",
    "url": "http://m-kujihirasou.jp",
    "pref": "岩手県",
    "city": "洋野町",
    "category": "day_service",
    "serviceType": "通所介護",
    "capacity": 0,
    "openDays": [
      "平日",
      "祝日"
    ],
    "openDaysNote": ""
  },
  {
    "id": "373100262",
    "name": "洋野町社会福祉協議会おおの通所介護事業所",
    "kana": "ヒロノチョウシャカイフクシキョウギカイオオノツウショカイゴジギョウショ",
    "address": "岩手県九戸郡洋野町大野第56地割78番地30洋野町大野福祉センター 洋野町大野福祉センター",
    "lat": 40.2795202,
    "lng": 141.666299,
    "tel": "0194-77-2180",
    "url": "http://hirono-shakyo.or.jp/",
    "pref": "岩手県",
    "city": "洋野町",
    "category": "day_service",
    "serviceType": "通所介護",
    "capacity": 0,
    "openDays": [
      "平日",
      "祝日"
    ],
    "openDaysNote": ""
  },
  {
    "id": "371000415",
    "name": "ReBornリボーン",
    "kana": "リボーンリボーン",
    "address": "岩手県陸前高田市高田町字館の沖303番地1アバッセタカタ専門店街 アバッセタカタ専門店街",
    "lat": 39.0169921997037,
    "lng": 141.629096990738,
    "tel": "0192-22-7917",
    "url": "",
    "pref": "岩手県",
    "city": "陸前高田市",
    "category": "day_service",
    "serviceType": "通所介護",
    "capacity": 0,
    "openDays": [
      "平日",
      "祝日"
    ],
    "openDaysNote": "祝日が土日の場合はお休みします。平日の場合は上記の時間帯で対応致します。"
  },
  {
    "id": "371000043",
    "name": "高寿園デイサービスセンター指定通所介護事業所",
    "kana": "コウジュエンデイサービスセンターシテイツウショカイゴジギョウショ",
    "address": "岩手県陸前高田市高田町字東和野67番地",
    "lat": 39.0221729,
    "lng": 141.6390769,
    "tel": "0192-55-3700",
    "url": "",
    "pref": "岩手県",
    "city": "陸前高田市",
    "category": "day_service",
    "serviceType": "通所介護",
    "capacity": 0,
    "openDays": [
      "平日",
      "土曜日",
      "日曜日",
      "祝日"
    ],
    "openDaysNote": ""
  },
  {
    "id": "371000050",
    "name": "東部デイサービスセンター指定通所介護事業所",
    "kana": "トウブデイサービスセンターシテイツウショカイゴジギョウショ",
    "address": "岩手県陸前高田市小友町字財当98番地",
    "lat": 38.9937418,
    "lng": 141.7030275,
    "tel": "0192-56-2300",
    "url": "https://likutaka-koujyukai.com/",
    "pref": "岩手県",
    "city": "陸前高田市",
    "category": "day_service",
    "serviceType": "通所介護",
    "capacity": 0,
    "openDays": [
      "平日",
      "土曜日",
      "祝日"
    ],
    "openDaysNote": ""
  }
]