[
  {
    "id": "3271200127",
    "name": "いきいきの郷はくた指定通所介護事業所",
    "kana": "イキイキノサトハクタシテイツウショカイゴジギョウショ",
    "address": "安来市伯太町安田1687いきいきの郷はくた いきいきの郷はくた",
    "lat": 35.3725647,
    "lng": 133.274121,
    "tel": "0854-37-1432",
    "url": "http:/www.yasugishakyo.com",
    "pref": "島根県",
    "city": "安来市",
    "category": "day_service",
    "serviceType": "通所介護",
    "capacity": 30,
    "openDays": [
      "平日",
      "土曜日"
    ],
    "openDaysNote": "なし"
  },
  {
    "id": "3270200383",
    "name": "しらさぎ苑第２デイサービスセンター",
    "kana": "シラサギエンダイニデイサービスセンター",
    "address": "島根県安来市古川町858-5",
    "lat": 35.3749963,
    "lng": 133.1956044,
    "tel": "0854-28-7222",
    "url": "http://www.sirasagi-yasugi.or.jp",
    "pref": "島根県",
    "city": "安来市",
    "category": "day_service",
    "serviceType": "通所介護",
    "capacity": 10,
    "openDays": [
      "平日",
      "土曜日",
      "祝日"
    ],
    "openDaysNote": "なし"
  },
  {
    "id": "3270200342",
    "name": "せせらぎの里デイサービスセンターよしだ",
    "kana": "セセラギノサトデイサービスセンターヨシダ",
    "address": "島根県安来市下吉田町２８６番地１",
    "lat": 35.363211169605,
    "lng": 133.234936006746,
    "tel": "0854-27-0880",
    "url": "http://yasugifukusikai.jp",
    "pref": "島根県",
    "city": "安来市",
    "category": "day_service",
    "serviceType": "通所介護",
    "capacity": 25,
    "openDays": [
      "平日",
      "土曜日",
      "祝日"
    ],
    "openDaysNote": "なし"
  },
  {
    "id": "3270200318",
    "name": "デイサービスかじかの郷",
    "kana": "デイサービスカジカノサト",
    "address": "安来市広瀬町宇波484-2",
    "lat": 35.3110834,
    "lng": 133.1909566,
    "tel": "0854-36-0577",
    "url": "https://www.toukou-g.com/",
    "pref": "島根県",
    "city": "安来市",
    "category": "day_service",
    "serviceType": "通所介護",
    "capacity": 0,
    "openDays": [
      "平日",
      "土曜日",
      "日曜日",
      "祝日"
    ],
    "openDaysNote": "なし"
  },
  {
    "id": "3270200243",
    "name": "デイサービスしののめ",
    "kana": "デイサービスシノノメ",
    "address": "安来市広瀬町東比田950-1",
    "lat": 35.2512426,
    "lng": 133.176988,
    "tel": "0854-34-0533",
    "url": "http://www.toukou-g.com/",
    "pref": "島根県",
    "city": "安来市",
    "category": "day_service",
    "serviceType": "通所介護",
    "capacity": 0,
    "openDays": [
      "平日",
      "土曜日",
      "日曜日",
      "祝日"
    ],
    "openDaysNote": "３６５日サービス提供。"
  },
  {
    "id": "3270200334",
    "name": "デイサービスセンターフィットネス",
    "kana": "デイサービスセンターフィットネス",
    "address": "島根県安来市安来町９３４－２",
    "lat": 35.4335226,
    "lng": 133.2525122,
    "tel": "0854-22-0067",
    "url": "",
    "pref": "島根県",
    "city": "安来市",
    "category": "day_service",
    "serviceType": "通所介護",
    "capacity": 0,
    "openDays": [
      "平日",
      "土曜日",
      "祝日"
    ],
    "openDaysNote": "なし"
  },
  {
    "id": "3271200135",
    "name": "広瀬デイサービスセンター",
    "kana": "ヒロセデイサービスセンター",
    "address": "島根県安来市広瀬町広瀬1911-1",
    "lat": 35.3688437,
    "lng": 133.1775363,
    "tel": "0854-32-9100",
    "url": "http://amago-taiyo.jp/",
    "pref": "島根県",
    "city": "安来市",
    "category": "day_service",
    "serviceType": "通所介護",
    "capacity": 0,
    "openDays": [
      "平日",
      "土曜日",
      "祝日"
    ],
    "openDaysNote": "なし"
  },
  {
    "id": "3270200102",
    "name": "社会福祉法人せんだん会　デイサービスセンター　ほほえみの園",
    "kana": "シャカイフクシホウジンセンダンカイ　デイサービスセンター　ホホエミノソノ",
    "address": "安来市安来町９６０－１",
    "lat": 35.4342197,
    "lng": 133.2529843,
    "tel": "0854-23-2252",
    "url": "http://www.sendankai.net",
    "pref": "島根県",
    "city": "安来市",
    "category": "day_service",
    "serviceType": "通所介護",
    "capacity": 30,
    "openDays": [
      "平日",
      "土曜日",
      "祝日"
    ],
    "openDaysNote": "なし"
  },
  {
    "id": "3271200077",
    "name": "太陽デイサービスセンター",
    "kana": "タイヨウデイサービスセンター",
    "address": "島根県安来市広瀬町下山佐330番3",
    "lat": 35.3494816,
    "lng": 133.1572436,
    "tel": "0854-32-9050",
    "url": "http://amago-taiyo.jp/",
    "pref": "島根県",
    "city": "安来市",
    "category": "day_service",
    "serviceType": "通所介護",
    "capacity": 0,
    "openDays": [
      "平日",
      "土曜日",
      "祝日"
    ],
    "openDaysNote": ""
  },
  {
    "id": "3272200860",
    "name": "えんがわ",
    "kana": "エンガワ",
    "address": "加茂414",
    "lat": 37.6663153,
    "lng": 139.0402073,
    "tel": "08512-2-9033",
    "url": "",
    "pref": "島根県",
    "city": "隠岐の島町",
    "category": "day_service",
    "serviceType": "通所介護",
    "capacity": null,
    "openDays": [
      "平日",
      "土曜日",
      "祝日"
    ],
    "openDaysNote": ""
  },
  {
    "id": "3272200514",
    "name": "ふれあい五箇通所介護事業所",
    "kana": "フレアイゴカツウショカイゴジギョウショ",
    "address": "隠岐の島町北方278-2",
    "lat": 36.2887062,
    "lng": 133.2271804,
    "tel": "08512-5-3541",
    "url": "https://fureaigoka.web.fc2.com/",
    "pref": "島根県",
    "city": "隠岐の島町",
    "category": "day_service",
    "serviceType": "通所介護",
    "capacity": 0,
    "openDays": [
      "平日",
      "土曜日",
      "祝日"
    ],
    "openDaysNote": "なし"
  },
  {
    "id": "3272200217",
    "name": "住吉デイサービスセンター",
    "kana": "スミヨシデイサービスセンター",
    "address": "隠岐の島町都万1791-1",
    "lat": 36.1968524,
    "lng": 133.2358546,
    "tel": "08512-6-3200",
    "url": "https://www.takatakai.com/",
    "pref": "島根県",
    "city": "隠岐の島町",
    "category": "day_service",
    "serviceType": "通所介護",
    "capacity": null,
    "openDays": [
      "平日",
      "土曜日",
      "祝日"
    ],
    "openDaysNote": "年末年始（１２月３０日から１月３日）の間は、相談のうえ入浴対象者のみにする場合があります。"
  },
  {
    "id": "3272200779",
    "name": "中条デイサービスセンター",
    "kana": "ナカスジデイサービスセンター",
    "address": "島根県隠岐郡隠岐の島町原田３９０－３番地",
    "lat": 36.2285327,
    "lng": 133.2972359,
    "tel": "０８５１２－２－５９２２",
    "url": "",
    "pref": "島根県",
    "city": "隠岐の島町",
    "category": "day_service",
    "serviceType": "通所介護",
    "capacity": 0,
    "openDays": [
      "平日",
      "祝日"
    ],
    "openDaysNote": ""
  },
  {
    "id": "3292200114",
    "name": "岬町デイサービスセンター",
    "kana": "ミサキマチデイサービスセンター",
    "address": "島根県隠岐郡隠岐の島町岬町中の津の四302岬町デイサービスセンター 岬町デイサービスセンター",
    "lat": 36.1873324665909,
    "lng": 133.334782896959,
    "tel": "08512-2-3454",
    "url": "",
    "pref": "島根県",
    "city": "隠岐の島町",
    "category": "day_service",
    "serviceType": "通所介護",
    "capacity": 0,
    "openDays": [
      "平日",
      "土曜日"
    ],
    "openDaysNote": ""
  },
  {
    "id": "3271400248",
    "name": "デイサービス　ほっと",
    "kana": "デイサービス　ホット",
    "address": "雲南市大東町新庄283-1",
    "lat": 35.3239119,
    "lng": 132.9880647,
    "tel": "0854-43-8008",
    "url": "http//user.yoitoko.jp.hottoman/",
    "pref": "島根県",
    "city": "雲南市",
    "category": "day_service",
    "serviceType": "通所介護",
    "capacity": 30,
    "openDays": [
      "平日",
      "土曜日",
      "日曜日",
      "祝日"
    ],
    "openDaysNote": ""
  },
  {
    "id": "3271500146",
    "name": "デイサービスセンターみとや",
    "kana": "デイサービスセンターミトヤ",
    "address": "雲南市三刀屋町三刀屋1212-3",
    "lat": 35.2941468,
    "lng": 132.8850293,
    "tel": "0854-45-9898",
    "url": "http://unnanshakyo.jp/",
    "pref": "島根県",
    "city": "雲南市",
    "category": "day_service",
    "serviceType": "通所介護",
    "capacity": 0,
    "openDays": [
      "平日",
      "土曜日",
      "祝日"
    ],
    "openDaysNote": ""
  },
  {
    "id": "3271400487",
    "name": "デイサービス新庄",
    "kana": "デイサービスシンジョウ",
    "address": "雲南市大東町新庄286－1",
    "lat": 35.3249285,
    "lng": 132.9880341,
    "tel": "0854-43-8055",
    "url": "http//user.yoitoko.jp/hottoman/",
    "pref": "島根県",
    "city": "雲南市",
    "category": "day_service",
    "serviceType": "通所介護",
    "capacity": 30,
    "openDays": [
      "平日",
      "土曜日",
      "祝日"
    ],
    "openDaysNote": ""
  },
  {
    "id": "3271400271",
    "name": "ニチイケアセンターあかがわ",
    "kana": "ニチイケアセンターアカガワ",
    "address": "島根県雲南市大東町仁和寺1918-7",
    "lat": 35.334698,
    "lng": 132.937134,
    "tel": "0854-43-8576",
    "url": "",
    "pref": "島根県",
    "city": "雲南市",
    "category": "day_service",
    "serviceType": "通所介護",
    "capacity": 0,
    "openDays": [
      "平日",
      "土曜日",
      "祝日"
    ],
    "openDaysNote": ""
  },
  {
    "id": "3271400701",
    "name": "雲南ケアセンターそよ風",
    "kana": "ウンナンケアセンターソヨカゼ",
    "address": "島根県雲南市木次町里方1093-119",
    "lat": 35.3156451,
    "lng": 132.9113925,
    "tel": "0854-42-8085",
    "url": "https://www.sykz.co.jp/",
    "pref": "島根県",
    "city": "雲南市",
    "category": "day_service",
    "serviceType": "通所介護",
    "capacity": 0,
    "openDays": [
      "平日",
      "土曜日",
      "祝日"
    ],
    "openDaysNote": ""
  },
  {
    "id": "3271400347",
    "name": "加茂デイサービスセンター",
    "kana": "カモデイサービスセンター",
    "address": "島根県雲南市加茂町宇治328番地",
    "lat": 35.3418073,
    "lng": 132.9059065,
    "tel": "0854-49-6555",
    "url": "http://kamofukushikai.jp/publics/index/20/&anchor_link=page20#page20",
    "pref": "島根県",
    "city": "雲南市",
    "category": "day_service",
    "serviceType": "通所介護",
    "capacity": 0,
    "openDays": [
      "平日",
      "土曜日",
      "祝日"
    ],
    "openDaysNote": ""
  },
  {
    "id": "3271500302",
    "name": "好老センター通所介護事業所",
    "kana": "コウロウセンターツウショカイゴジギョウショ",
    "address": "雲南市掛合町掛合1310",
    "lat": 35.1961584,
    "lng": 132.8133889,
    "tel": "0854-62-0727",
    "url": "http://unnanshakyo.jp/",
    "pref": "島根県",
    "city": "雲南市",
    "category": "day_service",
    "serviceType": "通所介護",
    "capacity": 0,
    "openDays": [
      "平日",
      "土曜日",
      "祝日"
    ],
    "openDaysNote": "なし"
  },
  {
    "id": "3271400131",
    "name": "通所介護事業所おおぎ",
    "kana": "ツウショカイゴジギョウショオオギ",
    "address": "雲南市大東町大東1038",
    "lat": 35.3207671,
    "lng": 132.9641925,
    "tel": "0854-43-9215",
    "url": "",
    "pref": "島根県",
    "city": "雲南市",
    "category": "day_service",
    "serviceType": "通所介護",
    "capacity": null,
    "openDays": [
      "平日",
      "土曜日",
      "祝日"
    ],
    "openDaysNote": "なし"
  },
  {
    "id": "3271400081",
    "name": "木次町デイサービスセンター",
    "kana": "キスキチョウデイサービスセンター",
    "address": "島根県雲南市木次町東日登345番地1",
    "lat": 35.2792244,
    "lng": 132.9253889,
    "tel": "0854-42-4165",
    "url": "https://www.sakurasaku-home.org/",
    "pref": "島根県",
    "city": "雲南市",
    "category": "day_service",
    "serviceType": "通所介護",
    "capacity": 0,
    "openDays": [
      "平日",
      "土曜日",
      "祝日"
    ],
    "openDaysNote": "なし"
  },
  {
    "id": "3270800224",
    "name": "からおと苑",
    "kana": "カラオトエン",
    "address": "益田市西平原町671-1",
    "lat": 34.7498936641439,
    "lng": 131.878268912936,
    "tel": "0856-31-7070",
    "url": "http://kamatefukushikai.jp/",
    "pref": "島根県",
    "city": "益田市",
    "category": "day_service",
    "serviceType": "通所介護",
    "capacity": 35,
    "openDays": [
      "平日",
      "祝日"
    ],
    "openDaysNote": "なし"
  },
  {
    "id": "3270800281",
    "name": "くしろデイサービスセンター",
    "kana": "クシロデイサービスセンター",
    "address": "島根県益田市久城町531番地",
    "lat": 34.7012591,
    "lng": 131.850564,
    "tel": "0856-31-2345",
    "url": "https://www.baijukai.jp/",
    "pref": "島根県",
    "city": "益田市",
    "category": "day_service",
    "serviceType": "通所介護",
    "capacity": 0,
    "openDays": [
      "平日",
      "土曜日",
      "祝日"
    ],
    "openDaysNote": "なし"
  },
  {
    "id": "3270800984",
    "name": "デイサービス　いわみ",
    "kana": "デイサービス　イワミ",
    "address": "島根県益田市染羽町1番27号",
    "lat": 34.6795988296261,
    "lng": 131.861321979554,
    "tel": "0856-25-7164",
    "url": "http://www.care-iwami.jp",
    "pref": "島根県",
    "city": "益田市",
    "category": "day_service",
    "serviceType": "通所介護",
    "capacity": 28,
    "openDays": [
      "平日",
      "土曜日",
      "祝日"
    ],
    "openDaysNote": "12月31日～1月3日は休業とします。"
  },
  {
    "id": "3270801081",
    "name": "デイサービス「すみよし」",
    "kana": "デイサービス「スミヨシ」",
    "address": "島根県益田市本町3-19",
    "lat": 34.6767199,
    "lng": 131.8592578,
    "tel": "0856-23-6717",
    "url": "",
    "pref": "島根県",
    "city": "益田市",
    "category": "day_service",
    "serviceType": "通所介護",
    "capacity": 25,
    "openDays": [
      "平日",
      "土曜日",
      "祝日"
    ],
    "openDaysNote": "小規模多機能ホーム多機能型居宅介護と併設のため、夜間及び定休日であっても24時間連絡が取れるようになっております。"
  },
  {
    "id": "3270800760",
    "name": "デイサービスセンター　もやいの家うのはな",
    "kana": "デイサービスセンター　モヤイノイエウノハナ",
    "address": "島根県益田市遠田町179番2",
    "lat": 34.7207039170249,
    "lng": 131.856428014156,
    "tel": "0856-31-7345",
    "url": "http://mizusumikai.or.jp/",
    "pref": "島根県",
    "city": "益田市",
    "category": "day_service",
    "serviceType": "通所介護",
    "capacity": 0,
    "openDays": [
      "平日",
      "土曜日",
      "日曜日",
      "祝日"
    ],
    "openDaysNote": "なし"
  },
  {
    "id": "3270801057",
    "name": "デイサービスセンターつむぎ",
    "kana": "デイサービスセンターツムギ",
    "address": "島根県益田市高津町イ2559-1",
    "lat": 34.6870660710307,
    "lng": 131.803055017834,
    "tel": "0856-27-7300",
    "url": "http://akatsuki-hohoemi.jp/",
    "pref": "島根県",
    "city": "益田市",
    "category": "day_service",
    "serviceType": "通所介護",
    "capacity": 0,
    "openDays": [
      "平日",
      "土曜日",
      "日曜日",
      "祝日"
    ],
    "openDaysNote": "日曜日、火曜日は定員20名（改行）他の曜日は定員25名"
  },
  {
    "id": "3270800257",
    "name": "デイサービスセンターひれふり苑",
    "kana": "デイサービスセンターヒレフリエン",
    "address": "益田市大草町1088-10",
    "lat": 34.6960051,
    "lng": 131.8860137,
    "tel": "0856-31-1666",
    "url": "http://www.iwami.or.jp/kitasen/",
    "pref": "島根県",
    "city": "益田市",
    "category": "day_service",
    "serviceType": "通所介護",
    "capacity": 25,
    "openDays": [
      "平日",
      "土曜日",
      "祝日"
    ],
    "openDaysNote": "なし"
  },
  {
    "id": "3270800075",
    "name": "デイサービスセンター万葉苑",
    "kana": "デイサービスセンターマンヨウエン",
    "address": "益田市高津四丁目６番４０号",
    "lat": 34.6867599,
    "lng": 131.8121507,
    "tel": "0856-22-2023",
    "url": "https://www.baijukai.jp/",
    "pref": "島根県",
    "city": "益田市",
    "category": "day_service",
    "serviceType": "通所介護",
    "capacity": 0,
    "openDays": [
      "平日",
      "土曜日",
      "祝日"
    ],
    "openDaysNote": "なし"
  },
  {
    "id": "3270800802",
    "name": "デイサービスたかつ",
    "kana": "デイサービスタカツ",
    "address": "島根県益田市高津１丁目７番１１号",
    "lat": 34.6852964,
    "lng": 131.8260548,
    "tel": "0856-31-1322",
    "url": "http://www.kaneshima.or.jp/",
    "pref": "島根県",
    "city": "益田市",
    "category": "day_service",
    "serviceType": "通所介護",
    "capacity": 0,
    "openDays": [
      "平日",
      "土曜日"
    ],
    "openDaysNote": ""
  },
  {
    "id": "3270800331",
    "name": "七尾苑",
    "kana": "ナナオエン",
    "address": "島根県益田市昭和町11番20号",
    "lat": 34.6769448,
    "lng": 131.8509557,
    "tel": "0856-24-0264",
    "url": "http://nanaofukushikai.jp",
    "pref": "島根県",
    "city": "益田市",
    "category": "day_service",
    "serviceType": "通所介護",
    "capacity": 0,
    "openDays": [
      "平日",
      "土曜日",
      "祝日"
    ],
    "openDaysNote": "特になし"
  },
  {
    "id": "3270800208",
    "name": "社会福祉法人西益田福祉会清流苑通所介護事業所",
    "kana": "ニシマスダフクシカイセイリュウエンツウショカイゴジギョウショ",
    "address": "島根県益田市神田町イ197-2",
    "lat": 34.6111849,
    "lng": 131.7989761,
    "tel": "0856-31-5037",
    "url": "http:seiryuen-care.jp/",
    "pref": "島根県",
    "city": "益田市",
    "category": "day_service",
    "serviceType": "通所介護",
    "capacity": 35,
    "openDays": [
      "平日",
      "土曜日",
      "祝日"
    ],
    "openDaysNote": "なし"
  },
  {
    "id": "3272200076",
    "name": "社会福祉法人海士町社会福祉協議会",
    "kana": "アマチョウシャカイフクシキョウギカイ",
    "address": "隠岐郡海士町大字海士3969-1",
    "lat": 36.0986543,
    "lng": 133.0947591,
    "tel": "08514-2-0010",
    "url": "https://www.amasyakyo.com/",
    "pref": "島根県",
    "city": "海士町",
    "category": "day_service",
    "serviceType": "通所介護",
    "capacity": 0,
    "openDays": [
      "平日",
      "祝日"
    ],
    "openDaysNote": "定休日に臨時で営業することあり。"
  },
  {
    "id": "3272100185",
    "name": "柿木村デイサービスセンター",
    "kana": "カキノキムラデイサービスセンター",
    "address": "吉賀町柿木村柿木80番地1",
    "lat": 34.4363943,
    "lng": 131.867453,
    "tel": "0856-79-2681",
    "url": "http://yoshika‐shakyo.jp",
    "pref": "島根県",
    "city": "吉賀町",
    "category": "day_service",
    "serviceType": "通所介護",
    "capacity": 0,
    "openDays": [
      "平日",
      "祝日"
    ],
    "openDaysNote": "なし"
  },
  {
    "id": "3272100094",
    "name": "六日市デイサービスセンター",
    "kana": "ムイカイチデイサービスセンター",
    "address": "鹿足郡吉賀町六日市573-2",
    "lat": 34.3559877,
    "lng": 131.9371605,
    "tel": "0856-77-1777",
    "url": "http://yoshika-syakyo.jp",
    "pref": "島根県",
    "city": "吉賀町",
    "category": "day_service",
    "serviceType": "通所介護",
    "capacity": 30,
    "openDays": [
      "平日",
      "祝日"
    ],
    "openDaysNote": "特になし"
  },
  {
    "id": "3270600103",
    "name": "デイサービスセンター合歓の郷",
    "kana": "デイサービスセンターネムノサト",
    "address": "江津市後地町８２１番地",
    "lat": 35.0376203,
    "lng": 132.3010733,
    "tel": "0855-55-3131",
    "url": "http://www.hana-mura.net",
    "pref": "島根県",
    "city": "江津市",
    "category": "day_service",
    "serviceType": "通所介護",
    "capacity": 30,
    "openDays": [
      "平日",
      "土曜日",
      "祝日"
    ],
    "openDaysNote": ""
  },
  {
    "id": "3270600590",
    "name": "ながれぼし江津",
    "kana": "ナガレボシゴウツ",
    "address": "島根県江津市都野津町2363-7",
    "lat": 34.986399,
    "lng": 132.1884294,
    "tel": "0855-52-7515",
    "url": "https://www.choraku.co.jp",
    "pref": "島根県",
    "city": "江津市",
    "category": "day_service",
    "serviceType": "通所介護",
    "capacity": 0,
    "openDays": [
      "平日",
      "祝日"
    ],
    "openDaysNote": ""
  },
  {
    "id": "3270600319",
    "name": "よろこぼう屋デイサービスの家",
    "kana": "ヨロコボウヤデイサービスノイエ",
    "address": "江津市和木町1173-5",
    "lat": 35.00450486179,
    "lng": 132.203100190352,
    "tel": "0855-52-0817",
    "url": "http://www.yorokobouya.jp/",
    "pref": "島根県",
    "city": "江津市",
    "category": "day_service",
    "serviceType": "通所介護",
    "capacity": 3,
    "openDays": [
      "平日",
      "土曜日",
      "祝日"
    ],
    "openDaysNote": "但し、12月30日～1月3日は休日とする。"
  },
  {
    "id": "3270600160",
    "name": "青山デイサービスセンター",
    "kana": "アオヤマデイサービスセンター",
    "address": "島根県江津市二宮町神主1964-31",
    "lat": 34.9764347,
    "lng": 132.1855123,
    "tel": "0855-54-3100",
    "url": "https://www.iwamifukushikai.or.jp/",
    "pref": "島根県",
    "city": "江津市",
    "category": "day_service",
    "serviceType": "通所介護",
    "capacity": 0,
    "openDays": [
      "平日",
      "祝日"
    ],
    "openDaysNote": ""
  },
  {
    "id": "3270690013",
    "name": "白寿園",
    "kana": "ハクジュエン",
    "address": "江津市江津町1110",
    "lat": 35.0132312,
    "lng": 132.2177278,
    "tel": "0855-52-0050",
    "url": "http://hakujyuen.jp",
    "pref": "島根県",
    "city": "江津市",
    "category": "day_service",
    "serviceType": "通所介護",
    "capacity": 0,
    "openDays": [
      "平日",
      "祝日"
    ],
    "openDaysNote": "なし"
  },
  {
    "id": "3270402583",
    "name": "ＪＡしまねデイサービスセンターつつじ園",
    "kana": "ジェイエイシマネデイサービスセンターツツジエン",
    "address": "島根県出雲市斐川町直江885番地",
    "lat": 35.3893385,
    "lng": 132.8163669,
    "tel": "0853-73-7314",
    "url": "http://ja-shimane.jp/",
    "pref": "島根県",
    "city": "出雲市",
    "category": "day_service",
    "serviceType": "通所介護",
    "capacity": 0,
    "openDays": [
      "平日",
      "土曜日",
      "祝日"
    ],
    "openDaysNote": ""
  },
  {
    "id": "3270400371",
    "name": "あすなろ指定通所介護事業所",
    "kana": "アスナロシテイツウショカイゴジギョウショ",
    "address": "島根県出雲市白枝町395-2",
    "lat": 35.3609767,
    "lng": 132.7297089,
    "tel": "0853-23-0078",
    "url": "http:/www.asunaro-izumo.or.jp",
    "pref": "島根県",
    "city": "出雲市",
    "category": "day_service",
    "serviceType": "通所介護",
    "capacity": 0,
    "openDays": [
      "平日",
      "土曜日",
      "祝日"
    ],
    "openDaysNote": "なし"
  },
  {
    "id": "3271600235",
    "name": "いなさ園デイサービスセンター",
    "kana": "イナサエンデイサービスセンター",
    "address": "出雲市大社町杵築西１６４３番地２",
    "lat": 35.3856095,
    "lng": 132.6784238,
    "tel": "0853-53-5727",
    "url": "http//www.kidukikai.or.jp",
    "pref": "島根県",
    "city": "出雲市",
    "category": "day_service",
    "serviceType": "通所介護",
    "capacity": 0,
    "openDays": [
      "平日",
      "祝日"
    ],
    "openDaysNote": "なし"
  },
  {
    "id": "3270403185",
    "name": "ツクイ出雲下沢",
    "kana": "ツクイイズモシモザワ",
    "address": "出雲市上塩谷町2655-2",
    "lat": 35.3564358,
    "lng": 132.7614135,
    "tel": "0853-20-1120",
    "url": "",
    "pref": "島根県",
    "city": "出雲市",
    "category": "day_service",
    "serviceType": "通所介護",
    "capacity": 0,
    "openDays": [
      "平日",
      "土曜日",
      "日曜日",
      "祝日"
    ],
    "openDaysNote": ""
  },
  {
    "id": "3270402518",
    "name": "デイサービス　MILK富ロングラフ",
    "kana": "デイサービス　ミルクトビロングラフ",
    "address": "島根県出雲市斐川町富村1465-1",
    "lat": 35.384184,
    "lng": 132.7954263,
    "tel": "(0853)31-4450",
    "url": "http://hp.kaipoke.biz/rsw",
    "pref": "島根県",
    "city": "出雲市",
    "category": "day_service",
    "serviceType": "通所介護",
    "capacity": 26,
    "openDays": [
      "平日",
      "土曜日",
      "祝日"
    ],
    "openDaysNote": ""
  },
  {
    "id": "3271600102",
    "name": "デイサービス　サン・スマイル",
    "kana": "デイサービス　サン・スマイル",
    "address": "島根県出雲市神西沖町215-1",
    "lat": 35.3324822227208,
    "lng": 132.703463732622,
    "tel": "0853-43-2170",
    "url": "https://www.keijukai.jp/",
    "pref": "島根県",
    "city": "出雲市",
    "category": "day_service",
    "serviceType": "通所介護",
    "capacity": 0,
    "openDays": [
      "平日",
      "土曜日",
      "祝日"
    ],
    "openDaysNote": "月～土曜であれば平日の時間帯で祝日の対応も可能"
  },
  {
    "id": "3270300209",
    "name": "デイサービス　ハートキュアひらた",
    "kana": "デイサービス　ハートキュアヒラタ",
    "address": "出雲市国富町832-2",
    "lat": 35.4268349,
    "lng": 132.8086345,
    "tel": "0853-62-5189",
    "url": "",
    "pref": "島根県",
    "city": "出雲市",
    "category": "day_service",
    "serviceType": "通所介護",
    "capacity": 19,
    "openDays": [
      "平日",
      "土曜日",
      "祝日"
    ],
    "openDaysNote": "なし"
  },
  {
    "id": "3270402492",
    "name": "デイサービスMILK富",
    "kana": "デイサービスミルクトビ",
    "address": "島根県出雲市斐川町富村１４６５－１",
    "lat": 35.384184,
    "lng": 132.7954263,
    "tel": "(0853)73-8900",
    "url": "http://hp.kaipoke.biz/rsw/",
    "pref": "島根県",
    "city": "出雲市",
    "category": "day_service",
    "serviceType": "通所介護",
    "capacity": 0,
    "openDays": [
      "平日",
      "土曜日",
      "祝日"
    ],
    "openDaysNote": ""
  },
  {
    "id": "3271600250",
    "name": "デイサービスセンターたき",
    "kana": "デイサービスセンタータキ",
    "address": "出雲市多伎町小田50－8",
    "lat": 35.284382,
    "lng": 132.6261101,
    "tel": "0853-86-2593",
    "url": "http://www.takinosato.jp",
    "pref": "島根県",
    "city": "出雲市",
    "category": "day_service",
    "serviceType": "通所介護",
    "capacity": 0,
    "openDays": [
      "平日",
      "土曜日",
      "祝日"
    ],
    "openDaysNote": "なし"
  },
  {
    "id": "3270300183",
    "name": "デイサービスセンターるんびにぃ苑",
    "kana": "デイサービスセンタールンビニィエン",
    "address": "出雲市園町字妻ノ神2606番地1",
    "lat": 35.4506997,
    "lng": 132.8553096,
    "tel": "0853-69-1536",
    "url": "http://lumbini-en.jp",
    "pref": "島根県",
    "city": "出雲市",
    "category": "day_service",
    "serviceType": "通所介護",
    "capacity": 25,
    "openDays": [
      "平日",
      "土曜日",
      "祝日"
    ],
    "openDaysNote": "なし"
  },
  {
    "id": "3271600532",
    "name": "デイサービス暖談",
    "kana": "デイサービス　ダンダン",
    "address": "島根県出雲市大社町遙堪666番地",
    "lat": 35.3879738,
    "lng": 132.7243497,
    "tel": "0853-53-2135",
    "url": "https://purelife-shimane.com/dayserv/index",
    "pref": "島根県",
    "city": "出雲市",
    "category": "day_service",
    "serviceType": "通所介護",
    "capacity": 30,
    "openDays": [
      "平日",
      "土曜日",
      "祝日"
    ],
    "openDaysNote": "年末年始　12月31日～1月3日休業"
  },
  {
    "id": "3270402906",
    "name": "ナカヤ寿楽",
    "kana": "ナカヤジュラク",
    "address": "島根県出雲市荒茅町3106番地",
    "lat": 35.3614274549751,
    "lng": 132.695661216225,
    "tel": "0853-31-9988",
    "url": "https://www.nakaya-juraku.jp",
    "pref": "島根県",
    "city": "出雲市",
    "category": "day_service",
    "serviceType": "通所介護",
    "capacity": 25,
    "openDays": [
      "平日",
      "土曜日"
    ],
    "openDaysNote": ""
  },
  {
    "id": "3271600177",
    "name": "なのはな園デイサービスセンター",
    "kana": "ナノハナエンデイサービスセンター",
    "address": "斐川町上直江1829-1",
    "lat": 35.3783382433347,
    "lng": 132.810611261238,
    "tel": "0853-73-9313",
    "url": "shimane@s-lighthouse.jp",
    "pref": "島根県",
    "city": "出雲市",
    "category": "day_service",
    "serviceType": "通所介護",
    "capacity": 30,
    "openDays": [
      "平日",
      "土曜日",
      "祝日"
    ],
    "openDaysNote": "なし"
  },
  {
    "id": "3270402088",
    "name": "ニチイケアセンター出雲",
    "kana": "ニチイケアセンターイズモ",
    "address": "出雲市大津朝倉3丁目4-5",
    "lat": 35.3766563,
    "lng": 132.7591888,
    "tel": "0853-20-7381",
    "url": "http://www.nichiigakkan.co.jp",
    "pref": "島根県",
    "city": "出雲市",
    "category": "day_service",
    "serviceType": "通所介護",
    "capacity": 30,
    "openDays": [
      "平日",
      "土曜日",
      "祝日"
    ],
    "openDaysNote": "年末年始を除く"
  },
  {
    "id": "3270403177",
    "name": "ひかわ生協　デイサービスつむぎ",
    "kana": "ヒカワセイキョウ　デイサービスツムギ",
    "address": "島根県出雲市斐川町直江4778番地1",
    "lat": 35.3920875,
    "lng": 132.8218349,
    "tel": "0853-31-4760",
    "url": "http://www.hikawa-hp.com",
    "pref": "島根県",
    "city": "出雲市",
    "category": "day_service",
    "serviceType": "通所介護",
    "capacity": 0,
    "openDays": [
      "平日",
      "土曜日",
      "祝日"
    ],
    "openDaysNote": ""
  },
  {
    "id": "3270402450",
    "name": "ひかわ生協デイサービス　きずな",
    "kana": "ヒカワセイキョウデイサービス　キズナ",
    "address": "島根県出雲市斐川町直江4883-1",
    "lat": 35.3927886,
    "lng": 132.8233347,
    "tel": "0853-72-0373",
    "url": "http://www.hikawa-hp.com",
    "pref": "島根県",
    "city": "出雲市",
    "category": "day_service",
    "serviceType": "通所介護",
    "capacity": 0,
    "openDays": [
      "平日",
      "土曜日",
      "祝日"
    ],
    "openDaysNote": ""
  },
  {
    "id": "3270400298",
    "name": "ひまわり園デイサービスセンター",
    "kana": "ヒマワリエンデイサービスセンター",
    "address": "出雲市神西沖町2513-8",
    "lat": 35.3368256,
    "lng": 132.6813928,
    "tel": "0853-43-3528",
    "url": "http://w-himawari.jp",
    "pref": "島根県",
    "city": "出雲市",
    "category": "day_service",
    "serviceType": "通所介護",
    "capacity": 0,
    "openDays": [
      "平日",
      "土曜日",
      "祝日"
    ],
    "openDaysNote": "なし"
  },
  {
    "id": "3270403243",
    "name": "ポラリスデイサービスセンター出雲",
    "kana": "ポラリスデイサービスセンターイズモ",
    "address": "島根県出雲市今市町1323",
    "lat": 35.3636623,
    "lng": 132.7567434,
    "tel": "0853-27-9505",
    "url": "https://www.polaris.care/",
    "pref": "島根県",
    "city": "出雲市",
    "category": "day_service",
    "serviceType": "通所介護",
    "capacity": 0,
    "openDays": [
      "平日",
      "祝日"
    ],
    "openDaysNote": "祝日は営業、ただし12/31～1/3は定休日"
  },
  {
    "id": "3270400942",
    "name": "みせんの里デイサービスセンター",
    "kana": "ミセンノサトデイサービスセンター",
    "address": "出雲市大社町遙堪65番地2",
    "lat": 35.3938704,
    "lng": 132.7186,
    "tel": "0853-53-2707",
    "url": "http://www.kidukikai.or.jp",
    "pref": "島根県",
    "city": "出雲市",
    "category": "day_service",
    "serviceType": "通所介護",
    "capacity": 25,
    "openDays": [
      "平日",
      "祝日"
    ],
    "openDaysNote": "なし"
  },
  {
    "id": "3271600045",
    "name": "みどりの郷湖陵",
    "kana": "ミドリノサトコリョウ",
    "address": "出雲市湖陵町三部1231-1",
    "lat": 35.3166586,
    "lng": 132.6740526,
    "tel": "0853-43-3228",
    "url": "",
    "pref": "島根県",
    "city": "出雲市",
    "category": "day_service",
    "serviceType": "通所介護",
    "capacity": 0,
    "openDays": [
      "平日",
      "土曜日",
      "日曜日",
      "祝日"
    ],
    "openDaysNote": "365日対応"
  },
  {
    "id": "3270400157",
    "name": "みどりの郷出雲",
    "kana": "ミドリノサトイズモ",
    "address": "出雲市所原町2715-1",
    "lat": 35.2988943,
    "lng": 132.7618015,
    "tel": "0853-48-2300",
    "url": "",
    "pref": "島根県",
    "city": "出雲市",
    "category": "day_service",
    "serviceType": "通所介護",
    "capacity": 0,
    "openDays": [
      "平日",
      "土曜日",
      "日曜日",
      "祝日"
    ],
    "openDaysNote": "365日年中無休"
  },
  {
    "id": "3270401049",
    "name": "みどりの郷大社",
    "kana": "ミドリノサトタイシャ",
    "address": "出雲市大社町北荒木483",
    "lat": 35.3875983,
    "lng": 132.6891646,
    "tel": "0853-53-1333",
    "url": "https://jaizumo-fukushikai.jp",
    "pref": "島根県",
    "city": "出雲市",
    "category": "day_service",
    "serviceType": "通所介護",
    "capacity": 0,
    "openDays": [
      "平日",
      "土曜日",
      "日曜日",
      "祝日"
    ],
    "openDaysNote": "なし"
  },
  {
    "id": "3270300175",
    "name": "みどりの郷平田",
    "kana": "ミドリノサトヒラタ",
    "address": "出雲市平田町２３０８番地９",
    "lat": 35.434715,
    "lng": 132.8248379,
    "tel": "0853-62-9060",
    "url": "http://www.jaizumo.or.jp/welfare",
    "pref": "島根県",
    "city": "出雲市",
    "category": "day_service",
    "serviceType": "通所介護",
    "capacity": 0,
    "openDays": [
      "平日",
      "土曜日",
      "日曜日",
      "祝日"
    ],
    "openDaysNote": "365日　年中無休"
  },
  {
    "id": "3270400413",
    "name": "もくもく苑通所介護事業所",
    "kana": "モクモクエンツウショカイゴジギョウショ",
    "address": "出雲市矢野町845",
    "lat": 35.3833578,
    "lng": 132.7356073,
    "tel": "0853-21-6969",
    "url": "http://www.otuka-wel.jp",
    "pref": "島根県",
    "city": "出雲市",
    "category": "day_service",
    "serviceType": "通所介護",
    "capacity": 0,
    "openDays": [
      "平日",
      "祝日"
    ],
    "openDaysNote": "なし"
  },
  {
    "id": "3270402286",
    "name": "株式会社　デイサービス・キートス",
    "kana": "カブシキガイシャデイサービスキートス",
    "address": "小山町４０４番地４ＹＡＭＡＭＯＴＯビル　１Ｆ ＹＡＭＡＭＯＴＯビル　１Ｆ",
    "lat": 35.3732417327768,
    "lng": 132.739167957672,
    "tel": "0853－30－0125",
    "url": "https://kiitos0610.simdif.com/",
    "pref": "島根県",
    "city": "出雲市",
    "category": "day_service",
    "serviceType": "通所介護",
    "capacity": 15,
    "openDays": [
      "平日",
      "土曜日",
      "祝日"
    ],
    "openDaysNote": ""
  },
  {
    "id": "3270401585",
    "name": "社会福祉法人ひらた福祉会　花水木",
    "kana": "シャカイフクシホウジンヒラタフクシカイ　ハナミズキ",
    "address": "島根県出雲市灘分町７８６－１",
    "lat": 35.4307726734906,
    "lng": 132.825195042035,
    "tel": "0853-63-7203",
    "url": "",
    "pref": "島根県",
    "city": "出雲市",
    "category": "day_service",
    "serviceType": "通所介護",
    "capacity": 2,
    "openDays": [
      "平日",
      "土曜日",
      "祝日"
    ],
    "openDaysNote": "なし"
  },
  {
    "id": "3270401254",
    "name": "出雲ケアセンター　そよ風",
    "kana": "イズモケアセンター　ソヨカゼ",
    "address": "島根県出雲市今市町876-9",
    "lat": 35.3620773,
    "lng": 132.7545372,
    "tel": "0853-20-0950",
    "url": "https://www.sykz.co.jp/",
    "pref": "島根県",
    "city": "出雲市",
    "category": "day_service",
    "serviceType": "通所介護",
    "capacity": 30,
    "openDays": [
      "平日",
      "土曜日",
      "祝日"
    ],
    "openDaysNote": "特になし"
  },
  {
    "id": "3270403037",
    "name": "出雲サンホーム地域福祉サービスセンターソレイユ",
    "kana": "イズモサンホームチイキフクシサービスセンターソレイユ",
    "address": "島根県出雲市神西沖町１３１５",
    "lat": 35.3337516,
    "lng": 132.7071289,
    "tel": "0853-43-7575",
    "url": "https://www.keijukai.p/",
    "pref": "島根県",
    "city": "出雲市",
    "category": "day_service",
    "serviceType": "通所介護",
    "capacity": 0,
    "openDays": [
      "平日",
      "祝日"
    ],
    "openDaysNote": ""
  },
  {
    "id": "3271600144",
    "name": "出東デイサービスセンター",
    "kana": "シュットウデイサービスセンター",
    "address": "島根県出雲市斐川町三分市1077",
    "lat": 35.4149029,
    "lng": 132.8476148,
    "tel": "0853-63-3777",
    "url": "http://syuttou-fukushikai.net/day/",
    "pref": "島根県",
    "city": "出雲市",
    "category": "day_service",
    "serviceType": "通所介護",
    "capacity": 0,
    "openDays": [
      "平日",
      "祝日"
    ],
    "openDaysNote": "なし"
  },
  {
    "id": "3270400082",
    "name": "清流園通所介護事業所",
    "kana": "セイリュウエンツウショカイゴジギョウショ",
    "address": "出雲市大津町3529番地",
    "lat": 35.3589428575932,
    "lng": 132.78365893373,
    "tel": "0853-21-8333",
    "url": "",
    "pref": "島根県",
    "city": "出雲市",
    "category": "day_service",
    "serviceType": "通所介護",
    "capacity": 60,
    "openDays": [
      "平日",
      "土曜日",
      "日曜日",
      "祝日"
    ],
    "openDaysNote": "なし"
  },
  {
    "id": "3270400132",
    "name": "第二ことぶき園通所介護事業所",
    "kana": "ダイニコトブキエンツウショカイゴジギョウショ",
    "address": "出雲市古志町2105－1",
    "lat": 35.3359563602613,
    "lng": 132.743689363195,
    "tel": "0853-20-2685",
    "url": "https://kotobuki1071.jimdofree.com",
    "pref": "島根県",
    "city": "出雲市",
    "category": "day_service",
    "serviceType": "通所介護",
    "capacity": 30,
    "openDays": [
      "平日",
      "土曜日",
      "祝日"
    ],
    "openDaysNote": "なし"
  },
  {
    "id": "3270402302",
    "name": "通所介護事業所みずほの里",
    "kana": "ツウショカイゴジギョウショミズホノサト",
    "address": "島根県出雲市灘分町239番地2",
    "lat": 35.4291652510163,
    "lng": 132.829865699336,
    "tel": "0853-31-4815",
    "url": "https://mizuhonoie.com",
    "pref": "島根県",
    "city": "出雲市",
    "category": "day_service",
    "serviceType": "通所介護",
    "capacity": 0,
    "openDays": [
      "平日",
      "土曜日",
      "祝日"
    ],
    "openDaysNote": ""
  },
  {
    "id": "3270403227",
    "name": "通所介護事業所みずほの里　ひやま",
    "kana": "ツウショカイゴジギョウショミズホノサト　ヒヤマ",
    "address": "島根県出雲市岡田町136番地4",
    "lat": 35.4520414287668,
    "lng": 132.831785297623,
    "tel": "0853-25-8477",
    "url": "https://mizuhonoie.com",
    "pref": "島根県",
    "city": "出雲市",
    "category": "day_service",
    "serviceType": "通所介護",
    "capacity": 0,
    "openDays": [
      "平日",
      "祝日"
    ],
    "openDaysNote": ""
  },
  {
    "id": "3270402765",
    "name": "通所介護事業所みずほの里　らいと",
    "kana": "ツウショカイゴジギョウショミズホノサト　ライト",
    "address": "島根県出雲市灘分町239番地6",
    "lat": 35.4290822,
    "lng": 132.8301822,
    "tel": "0853-31-4833",
    "url": "https://mizuhonoie.com",
    "pref": "島根県",
    "city": "出雲市",
    "category": "day_service",
    "serviceType": "通所介護",
    "capacity": 0,
    "openDays": [
      "平日",
      "祝日"
    ],
    "openDaysNote": ""
  },
  {
    "id": "3270401460",
    "name": "浜山デイサービスセンター野いちご",
    "kana": "ハマヤマデイサービスセンターノイチゴ",
    "address": "出雲市大社町北荒木１５１２－５",
    "lat": 35.38446,
    "lng": 132.7026883,
    "tel": "0853-53-8060",
    "url": "",
    "pref": "島根県",
    "city": "出雲市",
    "category": "day_service",
    "serviceType": "通所介護",
    "capacity": 20,
    "openDays": [
      "平日",
      "祝日"
    ],
    "openDaysNote": ""
  },
  {
    "id": "3270403458",
    "name": "浜山デイサービスセンター野いちご",
    "kana": "ハマヤマデイサービスセンターノイチゴ",
    "address": "島根県出雲市大社町北荒木1512-5",
    "lat": 35.3844598,
    "lng": 132.7027388,
    "tel": "0853-53-8060",
    "url": "http://www.izumo-yamayuri.or.jp",
    "pref": "島根県",
    "city": "出雲市",
    "category": "day_service",
    "serviceType": "通所介護",
    "capacity": null,
    "openDays": [
      "平日",
      "祝日"
    ],
    "openDaysNote": ""
  },
  {
    "id": "3270300068",
    "name": "平田ほのぼの通所介護事業所",
    "kana": "ヒラタホノボノツウショカイゴジギョウショ",
    "address": "出雲市平田町7169",
    "lat": 35.440938591766,
    "lng": 132.822343497372,
    "tel": "0853-25-7169",
    "url": "http://mandanosato.jp/",
    "pref": "島根県",
    "city": "出雲市",
    "category": "day_service",
    "serviceType": "通所介護",
    "capacity": 0,
    "openDays": [
      "平日",
      "土曜日",
      "祝日"
    ],
    "openDaysNote": "台風、大雪など災害の可能性がある時は、休業することがある。（改行）感染症が拡大したときに休業する事がある。"
  },
  {
    "id": "3270401072",
    "name": "平田西デイサービスセンター",
    "kana": "ヒラタニシデイサービスセンター",
    "address": "島根県出雲市国富町57-1",
    "lat": 35.4170719,
    "lng": 132.8000553,
    "tel": "0853-63-7337",
    "url": "http://www.otuka-wel.jp",
    "pref": "島根県",
    "city": "出雲市",
    "category": "day_service",
    "serviceType": "通所介護",
    "capacity": 0,
    "openDays": [
      "平日",
      "祝日"
    ],
    "openDaysNote": "なし"
  },
  {
    "id": "3270402427",
    "name": "穂なみデイサービスセンター",
    "kana": "ホナミデイサービスセンター",
    "address": "島根県出雲市里方町１１６番地",
    "lat": 35.392207,
    "lng": 132.7434783,
    "tel": "０８５３－２０－１０２０",
    "url": "",
    "pref": "島根県",
    "city": "出雲市",
    "category": "day_service",
    "serviceType": "通所介護",
    "capacity": 0,
    "openDays": [
      "平日",
      "土曜日",
      "祝日"
    ],
    "openDaysNote": "なし"
  },
  {
    "id": "3270101946",
    "name": "あいかの里　第1デイサービスセンター",
    "kana": "アイカノサト　ダイイチデイサービスセンター",
    "address": "島根県松江市岡本町1138",
    "lat": 35.481315921564,
    "lng": 132.951284465082,
    "tel": "0852-88-9015",
    "url": "http://kohoku-aikanosato.jp",
    "pref": "島根県",
    "city": "松江市",
    "category": "day_service",
    "serviceType": "通所介護",
    "capacity": 0,
    "openDays": [
      "平日",
      "土曜日",
      "祝日"
    ],
    "openDaysNote": "なし"
  },
  {
    "id": "3270103611",
    "name": "アイル松江",
    "kana": "アイルマツエ",
    "address": "西川津町4221",
    "lat": 35.4814171,
    "lng": 133.0747248,
    "tel": "0852-61-6525",
    "url": "www.airusanin.jp",
    "pref": "島根県",
    "city": "松江市",
    "category": "day_service",
    "serviceType": "通所介護",
    "capacity": 0,
    "openDays": [
      "平日",
      "土曜日",
      "祝日"
    ],
    "openDaysNote": "豪雨・積雪等天候悪化が顕著な場合は休業する場合があります。"
  },
  {
    "id": "3270102555",
    "name": "あおぞらデイサービス",
    "kana": "アオゾラデイサービス",
    "address": "島根県松江市東津田町１８０６－１",
    "lat": 35.4505402,
    "lng": 133.0912444,
    "tel": "0852-27-5215",
    "url": "lush-care.jp",
    "pref": "島根県",
    "city": "松江市",
    "category": "day_service",
    "serviceType": "通所介護",
    "capacity": 0,
    "openDays": [
      "平日",
      "土曜日",
      "祝日"
    ],
    "openDaysNote": ""
  },
  {
    "id": "3271100152",
    "name": "うみ通所介護事業所",
    "kana": "ウミツウショカイゴジギョウショ",
    "address": "松江市島根町野波２３１８番地３",
    "lat": 35.5863447040924,
    "lng": 133.100744121237,
    "tel": "0852-85-3550",
    "url": "httsp://www.sanin-kateigakuin.jp/establishment/sener-umi.html",
    "pref": "島根県",
    "city": "松江市",
    "category": "day_service",
    "serviceType": "通所介護",
    "capacity": 25,
    "openDays": [
      "平日",
      "土曜日",
      "祝日"
    ],
    "openDaysNote": "なし"
  },
  {
    "id": "3270100971",
    "name": "カラフルデイサービスセンター",
    "kana": "カラフルデイサービスセンター",
    "address": "島根県松江市大輪町４２０番地４０",
    "lat": 35.4787863,
    "lng": 133.0594855,
    "tel": "0852-67-1008",
    "url": "http://www.houshinkai-s.or.jp",
    "pref": "島根県",
    "city": "松江市",
    "category": "day_service",
    "serviceType": "通所介護",
    "capacity": 0,
    "openDays": [
      "平日",
      "土曜日",
      "祝日"
    ],
    "openDaysNote": "年末年始営業（但し日曜日は休み）"
  },
  {
    "id": "3270104205",
    "name": "ケアセンター咲花",
    "kana": "ケアセンターサイカ",
    "address": "島根県松江市雑賀町40番地1ユニティーさいか１階・２階 ユニティーさいか１階・２階",
    "lat": 35.4579706,
    "lng": 133.0567013,
    "tel": "0852-27-7530",
    "url": "https://saika.cc/",
    "pref": "島根県",
    "city": "松江市",
    "category": "day_service",
    "serviceType": "通所介護",
    "capacity": 0,
    "openDays": [
      "平日",
      "土曜日",
      "祝日"
    ],
    "openDaysNote": ""
  },
  {
    "id": "3270102662",
    "name": "こころの都デイサービスセンター",
    "kana": "ココロノミヤコデイサービスセンター",
    "address": "松江市宍道町伊志見71番地2",
    "lat": 35.3965989713053,
    "lng": 132.876614177246,
    "tel": "0852-66-7511",
    "url": "",
    "pref": "島根県",
    "city": "松江市",
    "category": "day_service",
    "serviceType": "通所介護",
    "capacity": 0,
    "openDays": [
      "平日",
      "土曜日",
      "祝日"
    ],
    "openDaysNote": ""
  },
  {
    "id": "3270104072",
    "name": "スワンデイサービス",
    "kana": "スワンデイサービス",
    "address": "島根県松江市浜乃木三丁目3-26GOOD　AGE　浜乃木 GOOD　AGE　浜乃木",
    "lat": 35.4430541,
    "lng": 133.0455013,
    "tel": "0852-21-3845",
    "url": "swan.dayservice@videw.com",
    "pref": "島根県",
    "city": "松江市",
    "category": "day_service",
    "serviceType": "通所介護",
    "capacity": 0,
    "openDays": [
      "平日",
      "土曜日",
      "祝日"
    ],
    "openDaysNote": ""
  },
  {
    "id": "3270104221",
    "name": "ツクイ松江古志原",
    "kana": "ツクイマツエコシバラ",
    "address": "島根県松江市古志原5丁目14番4",
    "lat": 35.4418249254263,
    "lng": 133.081510121338,
    "tel": "0852-60-2155",
    "url": "https://www.tsukui.net/",
    "pref": "島根県",
    "city": "松江市",
    "category": "day_service",
    "serviceType": "通所介護",
    "capacity": 5,
    "openDays": [
      "平日",
      "土曜日",
      "日曜日",
      "祝日"
    ],
    "openDaysNote": "年中無休"
  },
  {
    "id": "3270104197",
    "name": "ツクイ松江城西",
    "kana": "ツクイマツエジョウサイ",
    "address": "島根県松江市黒田町359-1",
    "lat": 35.4752016,
    "lng": 133.0419432,
    "tel": "0852-59-5773",
    "url": "",
    "pref": "島根県",
    "city": "松江市",
    "category": "day_service",
    "serviceType": "通所介護",
    "capacity": 35,
    "openDays": [
      "平日",
      "土曜日",
      "日曜日",
      "祝日"
    ],
    "openDaysNote": ""
  },
  {
    "id": "3270100443",
    "name": "デイサービス　わかくさ",
    "kana": "デイサービス　ワカクサ",
    "address": "島根県松江市朝酌町２８－１",
    "lat": 35.4645257,
    "lng": 133.1014203,
    "tel": "0852-39-9077",
    "url": "www.waka-kusa.jp",
    "pref": "島根県",
    "city": "松江市",
    "category": "day_service",
    "serviceType": "通所介護",
    "capacity": 0,
    "openDays": [
      "平日",
      "土曜日",
      "祝日"
    ],
    "openDaysNote": "なし"
  },
  {
    "id": "3270103025",
    "name": "デイサービス　彩りテラス～東朝日町～",
    "kana": "デイサービス　イロドリテラスヒガシアサヒマチ",
    "address": "島根県松江市東朝日町２７８番地１０",
    "lat": 35.4639413,
    "lng": 133.0762783,
    "tel": "０８５２－２３－０３８８",
    "url": "",
    "pref": "島根県",
    "city": "松江市",
    "category": "day_service",
    "serviceType": "通所介護",
    "capacity": 0,
    "openDays": [
      "平日",
      "土曜日",
      "祝日"
    ],
    "openDaysNote": ""
  },
  {
    "id": "3270103744",
    "name": "デイサービスサイン",
    "kana": "デイサービスサイン",
    "address": "島根県松江市東出雲町意宇東１丁目６番地1",
    "lat": 35.435968274439,
    "lng": 133.13530395264,
    "tel": "0852-61-5300",
    "url": "https://signpost-llc.com/",
    "pref": "島根県",
    "city": "松江市",
    "category": "day_service",
    "serviceType": "通所介護",
    "capacity": 34,
    "openDays": [
      "平日",
      "土曜日"
    ],
    "openDaysNote": ""
  },
  {
    "id": "3270104387",
    "name": "デイサービスサイン西津田",
    "kana": "デイサービスサインニシツダ",
    "address": "島根県松江市西津田7丁目2-26",
    "lat": 35.4577703,
    "lng": 133.0669342,
    "tel": "0852-69-3310",
    "url": "https://signpost-llc.com/",
    "pref": "島根県",
    "city": "松江市",
    "category": "day_service",
    "serviceType": "通所介護",
    "capacity": null,
    "openDays": [
      "平日",
      "土曜日"
    ],
    "openDaysNote": ""
  },
  {
    "id": "3270101060",
    "name": "デイサービスセンターえびすの郷",
    "kana": "デイサービスセンターエビスノサト",
    "address": "松江市美保関町美保関869番地10",
    "lat": 35.5588632,
    "lng": 133.2934179,
    "tel": "0852-73-9200",
    "url": "http:/www.kyousei.jr.jp/",
    "pref": "島根県",
    "city": "松江市",
    "category": "day_service",
    "serviceType": "通所介護",
    "capacity": 0,
    "openDays": [
      "平日",
      "土曜日",
      "祝日"
    ],
    "openDaysNote": "特になし"
  },
  {
    "id": "3270102985",
    "name": "デイサービス湖畔の家",
    "kana": "デイサービスコハンノイエ",
    "address": "松江市八束町二子1178番地5デイサービス湖畔の家 デイサービス湖畔の家",
    "lat": 35.507409653373,
    "lng": 133.161697010976,
    "tel": "0852-76-2588",
    "url": "dayhutago@palette.plala.or.jp",
    "pref": "島根県",
    "city": "松江市",
    "category": "day_service",
    "serviceType": "通所介護",
    "capacity": 19,
    "openDays": [
      "平日",
      "土曜日",
      "祝日"
    ],
    "openDaysNote": ""
  },
  {
    "id": "3270102720",
    "name": "デイサービス二子",
    "kana": "デイサービスフタゴ",
    "address": "松江市八束町二子1025番地1",
    "lat": 35.507168717597,
    "lng": 133.161826133205,
    "tel": "0852-76-2588",
    "url": "https://www.nakauminosato.com/",
    "pref": "島根県",
    "city": "松江市",
    "category": "day_service",
    "serviceType": "通所介護",
    "capacity": 10,
    "openDays": [
      "平日",
      "土曜日",
      "祝日"
    ],
    "openDaysNote": ""
  },
  {
    "id": "3270103181",
    "name": "デイサービス弥生",
    "kana": "デイサービスヤヨイ",
    "address": "島根県松江市春日町543番地5",
    "lat": 35.4823282748125,
    "lng": 133.048525512303,
    "tel": "0852-28-2261",
    "url": "http://www.noblelife151a.net",
    "pref": "島根県",
    "city": "松江市",
    "category": "day_service",
    "serviceType": "通所介護",
    "capacity": 30,
    "openDays": [
      "平日",
      "土曜日",
      "日曜日",
      "祝日"
    ],
    "openDaysNote": ""
  },
  {
    "id": "3270103256",
    "name": "デイ喫茶　六連星",
    "kana": "デイキッサ　ムツラボシ",
    "address": "島根県松江市八雲町西岩坂1042番地",
    "lat": 35.4050798275894,
    "lng": 133.092978874869,
    "tel": "0852-67-6393",
    "url": "http://www.toukou-g.com/",
    "pref": "島根県",
    "city": "松江市",
    "category": "day_service",
    "serviceType": "通所介護",
    "capacity": 0,
    "openDays": [
      "平日",
      "土曜日",
      "日曜日",
      "祝日"
    ],
    "openDaysNote": "なし"
  },
  {
    "id": "3270104171",
    "name": "ながれぼし松江",
    "kana": "ナガレボシマツエ",
    "address": "島根県松江市玉湯町湯町148-2",
    "lat": 35.4372169,
    "lng": 133.012633,
    "tel": "0852-67-5824",
    "url": "https://www.choraku.co.jp/rk/index.html",
    "pref": "島根県",
    "city": "松江市",
    "category": "day_service",
    "serviceType": "通所介護",
    "capacity": null,
    "openDays": [
      "平日",
      "土曜日",
      "祝日"
    ],
    "openDaysNote": ""
  },
  {
    "id": "3270100096",
    "name": "ニチイケアセンター浜乃木",
    "kana": "ニチイケアセンターハマノギ",
    "address": "松江市浜乃木６丁目６番２３号",
    "lat": 35.4440765,
    "lng": 133.0564612,
    "tel": "0852-55-6455",
    "url": "",
    "pref": "島根県",
    "city": "松江市",
    "category": "day_service",
    "serviceType": "通所介護",
    "capacity": 0,
    "openDays": [
      "平日",
      "土曜日",
      "祝日"
    ],
    "openDaysNote": "居宅サービス計画により、休業日であってもサービスを提供する場合があります。"
  },
  {
    "id": "3270101615",
    "name": "ぬくもりの里デイサービスセンター",
    "kana": "ヌクモリノサトデイサービスセンター",
    "address": "松江市山代町８２６－１",
    "lat": 35.445596,
    "lng": 133.084998,
    "tel": "0852-60-5551",
    "url": "",
    "pref": "島根県",
    "city": "松江市",
    "category": "day_service",
    "serviceType": "通所介護",
    "capacity": 0,
    "openDays": [
      "平日",
      "土曜日"
    ],
    "openDaysNote": "なし"
  },
  {
    "id": "3270102795",
    "name": "ぼたんの里通所介護事業所",
    "kana": "ボタンノサトツウショカイゴジギョウショ",
    "address": "松江市八束町江島1128番地53",
    "lat": 35.5144158,
    "lng": 133.1911928,
    "tel": "0852-76-9070",
    "url": "http://botanhouse.web.fc2.com/",
    "pref": "島根県",
    "city": "松江市",
    "category": "day_service",
    "serviceType": "通所介護",
    "capacity": 0,
    "openDays": [
      "平日",
      "土曜日",
      "日曜日",
      "祝日"
    ],
    "openDaysNote": ""
  },
  {
    "id": "3271100301",
    "name": "ゆめハウスデイサービスセンター",
    "kana": "ユメハウスデイサービスセンター",
    "address": "松江市宍道町西来待2071-1",
    "lat": 35.4132222,
    "lng": 132.9359708,
    "tel": "0852-66-3059",
    "url": "http://s-lighthouse.jp",
    "pref": "島根県",
    "city": "松江市",
    "category": "day_service",
    "serviceType": "通所介護",
    "capacity": 33,
    "openDays": [
      "平日",
      "土曜日",
      "祝日"
    ],
    "openDaysNote": "なし"
  },
  {
    "id": "3270101565",
    "name": "学園デイサービス",
    "kana": "ガクエンデイサービス",
    "address": "島根県松江市学園２丁目７－１６",
    "lat": 35.4829444,
    "lng": 133.0653424,
    "tel": "0852-20-2552",
    "url": "",
    "pref": "島根県",
    "city": "松江市",
    "category": "day_service",
    "serviceType": "通所介護",
    "capacity": 0,
    "openDays": [
      "平日",
      "土曜日",
      "祝日"
    ],
    "openDaysNote": "なし"
  },
  {
    "id": "3271100228",
    "name": "憩いデイサービスセンター",
    "kana": "イコイデイサービスセンター",
    "address": "島根県松江市東出雲町下意東2810-2",
    "lat": 35.4441048887374,
    "lng": 133.166710119296,
    "tel": "0852-52-4484",
    "url": "http://www.so-unkai.jp/ikoi/ikoi.html",
    "pref": "島根県",
    "city": "松江市",
    "category": "day_service",
    "serviceType": "通所介護",
    "capacity": 0,
    "openDays": [
      "平日",
      "祝日"
    ],
    "openDaysNote": "なし"
  },
  {
    "id": "3270102357",
    "name": "湖北ふれあい　デイサービスセンター　Aspa",
    "kana": "コホクフレアイ　デイサービスセンター　アスパ",
    "address": "松江市国屋町498番地6",
    "lat": 35.4691896,
    "lng": 133.037651,
    "tel": "0852-23-8600",
    "url": "http://www.h3.dion.ne.jp/^kohoku/",
    "pref": "島根県",
    "city": "松江市",
    "category": "day_service",
    "serviceType": "通所介護",
    "capacity": 35,
    "openDays": [
      "平日",
      "土曜日",
      "祝日"
    ],
    "openDaysNote": "なし"
  },
  {
    "id": "3270101680",
    "name": "鹿島デイサービスセンター「こぢょっこらと」",
    "kana": "カシマデイサービスセンター「コヂョッコラト」",
    "address": "島根県松江市鹿島町上講武894番地1",
    "lat": 35.5284272,
    "lng": 133.045659,
    "tel": "0852-82-3355",
    "url": "https://yuugenngaisha-csg.com/",
    "pref": "島根県",
    "city": "松江市",
    "category": "day_service",
    "serviceType": "通所介護",
    "capacity": 5,
    "openDays": [
      "平日",
      "土曜日",
      "祝日"
    ],
    "openDaysNote": "日曜日・年末年始（12/31～1/3）以外は休まず営業しています。"
  },
  {
    "id": "3270102092",
    "name": "社会福祉法人　ふれあい　サン・フラワー指定通所介護、介護予防・日常生活支援総合事業",
    "kana": "シャカイフクシホウジンフレアイサン・フラワーシテイツウショカイゴ、カイゴヨボウ・ニチジョウセイカツシエンソウゴウジギョウ",
    "address": "松江市野原町５８５",
    "lat": 35.5188022,
    "lng": 133.1364616,
    "tel": "0852-34-1880",
    "url": "http://sunflower-en.jp/",
    "pref": "島根県",
    "city": "松江市",
    "category": "day_service",
    "serviceType": "通所介護",
    "capacity": 0,
    "openDays": [
      "平日",
      "土曜日",
      "日曜日",
      "祝日"
    ],
    "openDaysNote": "ケアハウスに併設されたデイサービスとして、利用者様の希望に沿うように営業しています。"
  },
  {
    "id": "3271100350",
    "name": "社会福祉法人松江市社会福祉協議会美保関介護センター",
    "kana": "（フク）マツエシシャカイフクシキョウギカイミホノセキカイゴセンター",
    "address": "松江市美保関町片江2268番8",
    "lat": 35.5592852,
    "lng": 133.1844268,
    "tel": "0852-72-2233",
    "url": "",
    "pref": "島根県",
    "city": "松江市",
    "category": "day_service",
    "serviceType": "通所介護",
    "capacity": 0,
    "openDays": [
      "平日",
      "祝日"
    ],
    "openDaysNote": "なし"
  },
  {
    "id": "3270102571",
    "name": "心暖デイサービスセンター",
    "kana": "コハルデイサービスセンター",
    "address": "島根県松江市玉湯町湯町１９０番地１",
    "lat": 35.433821,
    "lng": 133.0149495,
    "tel": "0852-62-0230",
    "url": "http://koharu-unity.com",
    "pref": "島根県",
    "city": "松江市",
    "category": "day_service",
    "serviceType": "通所介護",
    "capacity": 30,
    "openDays": [
      "平日",
      "土曜日",
      "祝日"
    ],
    "openDaysNote": ""
  },
  {
    "id": "3210113092",
    "name": "生協ふれあいデイサービス",
    "kana": "セイキョウフレアイデイサービス",
    "address": "松江市西津田七丁目14番21号ふれあい診療所４階 ふれあい診療所４階",
    "lat": 35.4551365,
    "lng": 133.0675044,
    "tel": "0852-31-8014",
    "url": "",
    "pref": "島根県",
    "city": "松江市",
    "category": "day_service",
    "serviceType": "通所介護",
    "capacity": 23,
    "openDays": [
      "平日",
      "土曜日",
      "祝日"
    ],
    "openDaysNote": "なし"
  },
  {
    "id": "3211111111",
    "name": "生協東出雲診療所",
    "kana": "セイキョウヒガシイズモシンリョウジョ",
    "address": "島根県松江市東出雲町揖屋1137-1",
    "lat": 35.4280535,
    "lng": 133.1527838,
    "tel": "0852-52-2264",
    "url": "higaimoday@sage.ocn.ne.jp",
    "pref": "島根県",
    "city": "松江市",
    "category": "day_service",
    "serviceType": "通所介護",
    "capacity": 23,
    "openDays": [
      "平日",
      "土曜日",
      "祝日"
    ],
    "openDaysNote": "自然災害発生が予測される際は短時間サービス、またはお休みにさせていただくこともある。"
  },
  {
    "id": "3270102837",
    "name": "全労済在宅介護サービスセンターほほえみ",
    "kana": "ゼンロウサイザイタクカイゴサービスセンターホホエミ",
    "address": "島根県松江市東出雲町錦新町８丁目１番１号",
    "lat": 35.4320478,
    "lng": 133.1428067,
    "tel": "０８５２－５２－６３１０",
    "url": "http://www.zenrosai-wic.co.jp",
    "pref": "島根県",
    "city": "松江市",
    "category": "day_service",
    "serviceType": "通所介護",
    "capacity": 0,
    "openDays": [
      "平日",
      "土曜日",
      "祝日"
    ],
    "openDaysNote": ""
  },
  {
    "id": "3270100351",
    "name": "大庭通所介護事業所",
    "kana": "オオバツウショカイゴジギョウショ",
    "address": "松江市佐草町2番地２",
    "lat": 35.4321752,
    "lng": 133.0765797,
    "tel": "0852-21-7765",
    "url": "ds-ooba@sf-keijinkai.or.jp",
    "pref": "島根県",
    "city": "松江市",
    "category": "day_service",
    "serviceType": "通所介護",
    "capacity": 0,
    "openDays": [
      "平日",
      "土曜日",
      "祝日"
    ],
    "openDaysNote": "なし"
  },
  {
    "id": "3271100210",
    "name": "東寿苑デイサービスセンター",
    "kana": "トウジュエンデイサービスセンター",
    "address": "島根県松江市東出雲町出雲郷493",
    "lat": 35.4322636,
    "lng": 133.1276251,
    "tel": "0852-52-3330",
    "url": "http://www.so-unkai.jp/index.html",
    "pref": "島根県",
    "city": "松江市",
    "category": "day_service",
    "serviceType": "通所介護",
    "capacity": 0,
    "openDays": [
      "平日",
      "土曜日"
    ],
    "openDaysNote": "なし"
  },
  {
    "id": "3270101938",
    "name": "湯の里　湖畔",
    "kana": "ユノサト　コハン",
    "address": "島根県松江市玉湯町湯町334番地39",
    "lat": 35.4378675,
    "lng": 133.009561,
    "tel": "0852-62-8181",
    "url": "",
    "pref": "島根県",
    "city": "松江市",
    "category": "day_service",
    "serviceType": "通所介護",
    "capacity": 20,
    "openDays": [
      "平日",
      "土曜日",
      "日曜日",
      "祝日"
    ],
    "openDaysNote": ""
  },
  {
    "id": "3210112730",
    "name": "虹デイサービス",
    "kana": "ニジデイサービス",
    "address": "松江市佐草町456-1",
    "lat": 35.4316252,
    "lng": 133.0720578,
    "tel": "0852-27-9702",
    "url": "https://www.mhs-niji.jp/",
    "pref": "島根県",
    "city": "松江市",
    "category": "day_service",
    "serviceType": "通所介護",
    "capacity": 40,
    "openDays": [
      "平日",
      "土曜日",
      "祝日"
    ],
    "openDaysNote": "サービス提供時間は通常９時25分から１６時３０分まで。その他利用時間については個別に相談に応じています。"
  },
  {
    "id": "3271100277",
    "name": "日吉デイサービスセンター",
    "kana": "ヒヨシデイサービスセンター",
    "address": "松江市八雲町東岩坂８０６番地",
    "lat": 35.4141318178252,
    "lng": 133.099000846558,
    "tel": "0852-54-2227",
    "url": "https;//www.yakumo-fukushikai.com/",
    "pref": "島根県",
    "city": "松江市",
    "category": "day_service",
    "serviceType": "通所介護",
    "capacity": 0,
    "openDays": [
      "平日",
      "祝日"
    ],
    "openDaysNote": "なし"
  },
  {
    "id": "3270103702",
    "name": "八重の郷デイサービスセンター",
    "kana": "ヤエノサトデイサービスセンター",
    "address": "島根県松江市上乃木二丁目２１番１０号",
    "lat": 35.4493898,
    "lng": 133.0594052,
    "tel": "0852-33-7552",
    "url": "",
    "pref": "島根県",
    "city": "松江市",
    "category": "day_service",
    "serviceType": "通所介護",
    "capacity": 20,
    "openDays": [
      "平日",
      "土曜日",
      "祝日"
    ],
    "openDaysNote": ""
  },
  {
    "id": "3270100526",
    "name": "法吉デイサービスセンター",
    "kana": "ホッキデイサービスセンター",
    "address": "松江市西法吉町35-20",
    "lat": 35.4954033,
    "lng": 133.0430136,
    "tel": "0852-27-8893",
    "url": "http://www.mizuumi.jp",
    "pref": "島根県",
    "city": "松江市",
    "category": "day_service",
    "serviceType": "通所介護",
    "capacity": 30,
    "openDays": [
      "平日",
      "土曜日",
      "祝日"
    ],
    "openDaysNote": "なし"
  },
  {
    "id": "3272200563",
    "name": "みゆき荘デイサービスセンター",
    "kana": "ミユキソウ　デイサービスセンター",
    "address": "島根県隠岐郡西ノ島町大字美田3078番地19",
    "lat": 36.1013878529664,
    "lng": 133.011611760188,
    "tel": "08514-6-0150",
    "url": "http://www.nishinoshima-fukushikai.com/",
    "pref": "島根県",
    "city": "西ノ島町",
    "category": "day_service",
    "serviceType": "通所介護",
    "capacity": 5,
    "openDays": [
      "平日",
      "土曜日",
      "祝日"
    ],
    "openDaysNote": "なし"
  },
  {
    "id": "3271800140",
    "name": "社会福祉法人　川本福祉会　やすらぎ荘　通所介護事業所",
    "kana": "シャカイフクシホウジン　カワモトフクシカイ　ヤスラギソウ　ツウショカイゴジギョウショ",
    "address": "島根県邑智郡川本町大字因原５７０－１",
    "lat": 34.9642797,
    "lng": 132.4729927,
    "tel": "０８５５－７２－２８３８",
    "url": "http://www.kawamotofukushikai.jp/",
    "pref": "島根県",
    "city": "川本町",
    "category": "day_service",
    "serviceType": "通所介護",
    "capacity": 20,
    "openDays": [
      "平日",
      "土曜日",
      "祝日"
    ],
    "openDaysNote": "年末年始（１２月３１日～１月３日は定休日）"
  },
  {
    "id": "3270500469",
    "name": "クローバーナイン",
    "kana": "クローバーナイン",
    "address": "久手町刺鹿1902-3",
    "lat": 35.2240152685394,
    "lng": 132.516428145926,
    "tel": "0854-82-0305",
    "url": "https://www.clover-nine.com/",
    "pref": "島根県",
    "city": "大田市",
    "category": "day_service",
    "serviceType": "通所介護",
    "capacity": 0,
    "openDays": [
      "平日",
      "土曜日",
      "祝日"
    ],
    "openDaysNote": "正月休み（12/30から1/3）"
  },
  {
    "id": "3270500626",
    "name": "シルバーハイツしろがねデイサービスセンター",
    "kana": "シルバーハイツシロガネデイサービスセンター",
    "address": "島根県大田市大田町大田イ３５３",
    "lat": 35.175534,
    "lng": 132.5534363,
    "tel": "0854-83-1367",
    "url": "https://shirogane.in/",
    "pref": "島根県",
    "city": "大田市",
    "category": "day_service",
    "serviceType": "通所介護",
    "capacity": 0,
    "openDays": [
      "平日",
      "土曜日",
      "祝日"
    ],
    "openDaysNote": ""
  },
  {
    "id": "3270500485",
    "name": "しろがねの里デイサービスセンター",
    "kana": "シロガネノサトデイサービスセンター",
    "address": "島根県大田市大田町大田ロ９８５-４、９８５－６、９８５－７",
    "lat": 35.1895066,
    "lng": 132.5009236,
    "tel": "0854-83-1887",
    "url": "https://shirogane.in/",
    "pref": "島根県",
    "city": "大田市",
    "category": "day_service",
    "serviceType": "通所介護",
    "capacity": null,
    "openDays": [
      "平日",
      "土曜日",
      "祝日"
    ],
    "openDaysNote": ""
  },
  {
    "id": "3270500717",
    "name": "デイサービスセンター　きれんげ元気館",
    "kana": "デイサービスセンター　キレンゲゲンキカン",
    "address": "鳥井町鳥井１１９７－１１番地",
    "lat": 35.2115162875308,
    "lng": 132.477380930688,
    "tel": "０８５４－８３－７０９１",
    "url": "http://kirenge.com",
    "pref": "島根県",
    "city": "大田市",
    "category": "day_service",
    "serviceType": "通所介護",
    "capacity": 30,
    "openDays": [
      "平日",
      "土曜日",
      "祝日"
    ],
    "openDaysNote": ""
  },
  {
    "id": "3270500444",
    "name": "デイサービスセンターむつみ苑",
    "kana": "デイサービスセンタームツミエン",
    "address": "大田市仁摩町天河内831番地",
    "lat": 35.1443313,
    "lng": 132.4078083,
    "tel": "0854-88-3910",
    "url": "http://www.shiosai.or.jp",
    "pref": "島根県",
    "city": "大田市",
    "category": "day_service",
    "serviceType": "通所介護",
    "capacity": null,
    "openDays": [
      "平日",
      "土曜日",
      "日曜日"
    ],
    "openDaysNote": "・日曜日も要介護認定の方を受け入れています。（改行）（※歩行が歩行器にて自立できる程度の方）"
  },
  {
    "id": "3270500220",
    "name": "デイサービスセンターゆうイング",
    "kana": "デイサービスセンターユウイング",
    "address": "大田市長久町土江55-2",
    "lat": 35.1951557,
    "lng": 132.4770341,
    "tel": "0854-84-0079",
    "url": "http://sawarabi.info/",
    "pref": "島根県",
    "city": "大田市",
    "category": "day_service",
    "serviceType": "通所介護",
    "capacity": 30,
    "openDays": [
      "平日",
      "土曜日",
      "祝日"
    ],
    "openDaysNote": "送迎時間については、本人・家族等のニーズに出来るだけ対応できるように努めます。"
  },
  {
    "id": "3270500345",
    "name": "ドリームデイ　いろり",
    "kana": "ドリームデイ　イロリ",
    "address": "大田市久手町刺鹿2194－1",
    "lat": 35.2246620429491,
    "lng": 132.507918722864,
    "tel": "0854-84-7158",
    "url": "https://www.dreamday-irori.net/",
    "pref": "島根県",
    "city": "大田市",
    "category": "day_service",
    "serviceType": "通所介護",
    "capacity": 58,
    "openDays": [
      "平日",
      "土曜日",
      "祝日"
    ],
    "openDaysNote": "なし"
  },
  {
    "id": "3270500048",
    "name": "ビラあさやま",
    "kana": "ビラアサヤマ",
    "address": "大田市朝山町朝倉706-1",
    "lat": 35.247427,
    "lng": 132.5618222,
    "tel": "0854-85-8553",
    "url": "https://admin105.adming03.susanoo-inst.com/login/oodasj2022",
    "pref": "島根県",
    "city": "大田市",
    "category": "day_service",
    "serviceType": "通所介護",
    "capacity": 40,
    "openDays": [
      "平日",
      "土曜日",
      "祝日"
    ],
    "openDaysNote": "なし"
  },
  {
    "id": "3270500097",
    "name": "ビラおおだデイサービスセンター",
    "kana": "ビラオオダデイサービスセンター",
    "address": "大田市川合町川合1081-2",
    "lat": 35.1520364,
    "lng": 132.5068455,
    "tel": "0854-82-9382",
    "url": "http://www.ooda-sj.jp",
    "pref": "島根県",
    "city": "大田市",
    "category": "day_service",
    "serviceType": "通所介護",
    "capacity": 47,
    "openDays": [
      "平日",
      "土曜日",
      "祝日"
    ],
    "openDaysNote": ""
  },
  {
    "id": "3270500030",
    "name": "ビラたかやま",
    "kana": "ビラタカヤマ",
    "address": "大田市祖式町546-1",
    "lat": 35.0673431,
    "lng": 132.4532151,
    "tel": "0854-85-2015",
    "url": "http://www.ooda-sj.jp/",
    "pref": "島根県",
    "city": "大田市",
    "category": "day_service",
    "serviceType": "通所介護",
    "capacity": 45,
    "openDays": [
      "平日",
      "土曜日",
      "祝日"
    ],
    "openDaysNote": "なし"
  },
  {
    "id": "3270500808",
    "name": "障害者地域生活支援センターせいふう",
    "kana": "ショウガイシャチイキセイカツシエンセンターセイフウ",
    "address": "島根県大田市大田町吉永1453番地24",
    "lat": 35.1805604,
    "lng": 132.5014513,
    "tel": "0854-84-7000",
    "url": "https://www.ssw.or.jp/",
    "pref": "島根県",
    "city": "大田市",
    "category": "day_service",
    "serviceType": "通所介護",
    "capacity": 20,
    "openDays": [
      "平日",
      "祝日"
    ],
    "openDaysNote": ""
  },
  {
    "id": "3270500162",
    "name": "通所介護サンデイズ双葉園",
    "kana": "ツウショカイゴサンデイズフタバエン",
    "address": "大田市鳥井町鳥井1881-1",
    "lat": 35.2146537,
    "lng": 132.4854166,
    "tel": "0854-84-0223",
    "url": "",
    "pref": "島根県",
    "city": "大田市",
    "category": "day_service",
    "serviceType": "通所介護",
    "capacity": 40,
    "openDays": [
      "平日",
      "土曜日"
    ],
    "openDaysNote": "なし"
  },
  {
    "id": "3271700050",
    "name": "湯の郷苑デイサービスセンター",
    "kana": "ユノゴウエンデイサービスセンター",
    "address": "島根県大田市温泉津町上村461番地",
    "lat": 35.0698475,
    "lng": 132.3496208,
    "tel": "0855-65-3130",
    "url": "http://fukujikoukai.jp",
    "pref": "島根県",
    "city": "大田市",
    "category": "day_service",
    "serviceType": "通所介護",
    "capacity": 25,
    "openDays": [
      "平日",
      "祝日"
    ],
    "openDaysNote": "なし"
  },
  {
    "id": "3271800595",
    "name": "デイサービスやすらぎの里別府",
    "kana": "デイサービスヤスラギノサトベップ",
    "address": "邑智郡美郷町別府8番5",
    "lat": 35.098284,
    "lng": 132.5255458,
    "tel": "0855-75-8185",
    "url": "https://keiai-beppu.or.jp",
    "pref": "島根県",
    "city": "美郷町",
    "category": "day_service",
    "serviceType": "通所介護",
    "capacity": 20,
    "openDays": [
      "平日",
      "祝日"
    ],
    "openDaysNote": ""
  },
  {
    "id": "3271800322",
    "name": "吾郷センター",
    "kana": "アゴウセンター",
    "address": "邑智郡美郷町滝原１６７番地１",
    "lat": 35.0514465,
    "lng": 132.6000752,
    "tel": "0855-75-0974",
    "url": "http://fish.mjracle.ne.jp/f-wave/",
    "pref": "島根県",
    "city": "美郷町",
    "category": "day_service",
    "serviceType": "通所介護",
    "capacity": 25,
    "openDays": [
      "平日",
      "土曜日"
    ],
    "openDaysNote": "なし"
  },
  {
    "id": "3271800272",
    "name": "美郷町社会福祉協議会　通所介護事業所　つくし苑",
    "kana": "ミサトチョウシャカイフクシキョウギカイ　ツウショカイゴジギョウショ　ツクシエン",
    "address": "美郷町潮村300-1",
    "lat": 35.0137201410227,
    "lng": 132.632446407132,
    "tel": "0855-82-2841",
    "url": "http://www.misato-shakyo..jp",
    "pref": "島根県",
    "city": "美郷町",
    "category": "day_service",
    "serviceType": "通所介護",
    "capacity": 30,
    "openDays": [
      "平日",
      "祝日"
    ],
    "openDaysNote": "相談の上、延長もあります。"
  },
  {
    "id": "3270700473",
    "name": "デイサービス　　やまももの家",
    "kana": "デイサービス　ヤマモモノイエ",
    "address": "浜田市久代町３０９",
    "lat": 34.9381826,
    "lng": 132.1294945,
    "tel": "0855-28-1155",
    "url": "http://e-iwami.com/yamamomo/",
    "pref": "島根県",
    "city": "浜田市",
    "category": "day_service",
    "serviceType": "通所介護",
    "capacity": 3,
    "openDays": [
      "平日",
      "土曜日",
      "日曜日",
      "祝日"
    ],
    "openDaysNote": "土曜、日曜、祝日もサービス提供しています。"
  },
  {
    "id": "3270701117",
    "name": "デイサービス　心の里　はるにれ",
    "kana": "デイサービスココロノサトハルニレ",
    "address": "島根県浜田市三隅町三隅382番地1",
    "lat": 34.794724207563,
    "lng": 131.95657193989,
    "tel": "0855-25-8801",
    "url": "http://harunire-tms.jp/",
    "pref": "島根県",
    "city": "浜田市",
    "category": "day_service",
    "serviceType": "通所介護",
    "capacity": 0,
    "openDays": [
      "平日",
      "土曜日",
      "祝日"
    ],
    "openDaysNote": "なし"
  },
  {
    "id": "3270701224",
    "name": "デイサービスセンター　アルク　ロング・レン",
    "kana": "デイサービスセンター　アルク　ロング・レン",
    "address": "島根県浜田市長沢町1428番地6特別養護老人ホーム　ロング・レン 特別養護老人ホーム　ロング・レン",
    "lat": 34.9138679,
    "lng": 132.0962758,
    "tel": "0855-25-5224",
    "url": "http://mizusumikai.jp/",
    "pref": "島根県",
    "city": "浜田市",
    "category": "day_service",
    "serviceType": "通所介護",
    "capacity": 20,
    "openDays": [
      "平日",
      "祝日"
    ],
    "openDaysNote": "特別養護老人ホームに併設のため、定休日であっても電話連絡等によりご相談に応じることができます。"
  },
  {
    "id": "3270700689",
    "name": "デイサービスセンターとびの郷ゆうなぎ",
    "kana": "デイサービスセンタートビノサトユウナギ",
    "address": "島根県浜田市治和町２１４－１",
    "lat": 34.8565754,
    "lng": 132.0195528,
    "tel": "0855-27-4882",
    "url": "http://mizusumikai.ne.jp/",
    "pref": "島根県",
    "city": "浜田市",
    "category": "day_service",
    "serviceType": "通所介護",
    "capacity": 0,
    "openDays": [
      "平日",
      "土曜日",
      "日曜日",
      "祝日"
    ],
    "openDaysNote": ""
  },
  {
    "id": "3270700804",
    "name": "デイサービスセンターなごみ",
    "kana": "デイサービスセンター　ナゴミ",
    "address": "島根県浜田市金城町今福281-7",
    "lat": 34.8846773,
    "lng": 132.20389,
    "tel": "0855-42-3084",
    "url": "",
    "pref": "島根県",
    "city": "浜田市",
    "category": "day_service",
    "serviceType": "通所介護",
    "capacity": 0,
    "openDays": [
      "平日",
      "土曜日",
      "祝日"
    ],
    "openDaysNote": ""
  },
  {
    "id": "3270700424",
    "name": "デイサービスセンターはまぼうふう",
    "kana": "デイサービスセンターハマボウフウ",
    "address": "浜田市久代町1-7",
    "lat": 34.9546034,
    "lng": 132.1346743,
    "tel": "0855-24-8521",
    "url": "http://mizusumikai.or.jp/",
    "pref": "島根県",
    "city": "浜田市",
    "category": "day_service",
    "serviceType": "通所介護",
    "capacity": 0,
    "openDays": [
      "平日",
      "土曜日",
      "日曜日",
      "祝日"
    ],
    "openDaysNote": ""
  },
  {
    "id": "3270700341",
    "name": "デイサービスたんぽぽ",
    "kana": "デイサービスタンポポ",
    "address": "浜田市長浜町1900",
    "lat": 34.8675797,
    "lng": 132.0376986,
    "tel": "0855-26-0002",
    "url": "http://www.tanpoponosato.com",
    "pref": "島根県",
    "city": "浜田市",
    "category": "day_service",
    "serviceType": "通所介護",
    "capacity": 0,
    "openDays": [
      "平日",
      "祝日"
    ],
    "openDaysNote": "なし"
  },
  {
    "id": "3270700408",
    "name": "デイサービスはとぽっぽ",
    "kana": "ハトポッポ",
    "address": "島根県浜田市朝日町93番地12",
    "lat": 34.899325,
    "lng": 132.0895824,
    "tel": "0855-25-0160",
    "url": "",
    "pref": "島根県",
    "city": "浜田市",
    "category": "day_service",
    "serviceType": "通所介護",
    "capacity": 19,
    "openDays": [
      "平日",
      "土曜日",
      "祝日"
    ],
    "openDaysNote": "心身状況や都合に応じた基本時間帯以外の利用については、７時３０分～１９時００分までの相談に応じることが出来ます"
  },
  {
    "id": "3270701414",
    "name": "集いの里",
    "kana": "ツドイノサト",
    "address": "島根県浜田市三隅町下古和９４９番地３",
    "lat": 34.7392176152849,
    "lng": 131.9955746,
    "tel": "0855-35-8030",
    "url": "https://tudoinosato.net",
    "pref": "島根県",
    "city": "浜田市",
    "category": "day_service",
    "serviceType": "通所介護",
    "capacity": null,
    "openDays": [
      "平日",
      "祝日"
    ],
    "openDaysNote": ""
  },
  {
    "id": "3271900163",
    "name": "杉の森デイサービスセンター",
    "kana": "スギノモリデイサービスセンター",
    "address": "浜田市三隅町向野田1880-3",
    "lat": 34.7718243,
    "lng": 131.9645188,
    "tel": "0855-32-3710",
    "url": "http://hamada-shakyo.com",
    "pref": "島根県",
    "city": "浜田市",
    "category": "day_service",
    "serviceType": "通所介護",
    "capacity": 38,
    "openDays": [
      "平日",
      "土曜日",
      "祝日"
    ],
    "openDaysNote": "なし"
  },
  {
    "id": "3270700150",
    "name": "美川デイサービスセンター",
    "kana": "ミカワデイサービスセンター",
    "address": "浜田市内村町365番地4",
    "lat": 34.853087,
    "lng": 132.0497566,
    "tel": "0855-26-0881",
    "url": "http:www.mikawaen.com",
    "pref": "島根県",
    "city": "浜田市",
    "category": "day_service",
    "serviceType": "通所介護",
    "capacity": 0,
    "openDays": [
      "平日",
      "祝日"
    ],
    "openDaysNote": "「平日・祝日」9時10分～16時15分の介護サービスを提供しております。（改行）「土曜・日曜」は営業しておりません。"
  },
  {
    "id": "3270701349",
    "name": "美川リハデイ　周布店",
    "kana": "ミカワリハデイスフテン",
    "address": "島根県浜田市周布町イ61番地1",
    "lat": 34.862953,
    "lng": 132.0260257,
    "tel": "0855-28-7844",
    "url": "http://mikawaen.com",
    "pref": "島根県",
    "city": "浜田市",
    "category": "day_service",
    "serviceType": "通所介護",
    "capacity": 50,
    "openDays": [
      "平日",
      "祝日"
    ],
    "openDaysNote": "「平日・祝日」9時15分～16時25分の介護サービスを提供しております。（改行）「土曜・日曜」は営業しておりません。"
  },
  {
    "id": "3270700127",
    "name": "浜田市社会福祉協議会　野原デイサービスセンター",
    "kana": "ハマダシシャカイフクシキョウギカイ　ノバラデイサービスセンター",
    "address": "浜田市野原町859番地1浜田市総合福祉センター 浜田市総合福祉センター",
    "lat": 34.8862536,
    "lng": 132.07687,
    "tel": "0855-23-2787",
    "url": "http://www.hamada-shakyo.com/",
    "pref": "島根県",
    "city": "浜田市",
    "category": "day_service",
    "serviceType": "通所介護",
    "capacity": 0,
    "openDays": [
      "平日",
      "土曜日",
      "祝日"
    ],
    "openDaysNote": "なし"
  },
  {
    "id": "3270700754",
    "name": "緑ヶ丘デイサービスセンター",
    "kana": "ミドリガオカデイサービスセンター",
    "address": "島根県浜田市浅井町１２２番地２",
    "lat": 34.9048939,
    "lng": 132.0928792,
    "tel": "0855-22-8771",
    "url": "http://kanagi-fukushikai.com/",
    "pref": "島根県",
    "city": "浜田市",
    "category": "day_service",
    "serviceType": "通所介護",
    "capacity": 30,
    "openDays": [
      "平日",
      "土曜日",
      "日曜日",
      "祝日"
    ],
    "openDaysNote": "なし"
  },
  {
    "id": "3271800355",
    "name": "瑞穂西デイサービスセンター",
    "kana": "ミズホニシデイサービスセンター",
    "address": "邑智郡邑南町上亀谷2181-1",
    "lat": 34.8458531,
    "lng": 132.5159264,
    "tel": "0855-83-2011",
    "url": "http://oonanfukushikai.jp/",
    "pref": "島根県",
    "city": "邑南町",
    "category": "day_service",
    "serviceType": "通所介護",
    "capacity": 25,
    "openDays": [
      "平日"
    ],
    "openDaysNote": ""
  },
  {
    "id": "3271800447",
    "name": "邑南社協西部通所介護事業所",
    "kana": "オオナンシャキョウセイブツウショカイゴジギョウショ",
    "address": "島根県邑智郡邑南町中野3848番地2",
    "lat": 34.8960358,
    "lng": 132.4528324,
    "tel": "0855-95-0090",
    "url": "",
    "pref": "島根県",
    "city": "邑南町",
    "category": "day_service",
    "serviceType": "通所介護",
    "capacity": 25,
    "openDays": [
      "平日",
      "祝日"
    ],
    "openDaysNote": "なし"
  },
  {
    "id": "3271800405",
    "name": "邑南社協東部事業所",
    "kana": "オオナンシャキョウトウブジギョウショ",
    "address": "島根県邑智郡邑南町下口羽３８４番地安心センターはすみ 安心センターはすみ",
    "lat": 34.8810198290047,
    "lng": 132.665031296959,
    "tel": "0855-87-0843",
    "url": "",
    "pref": "島根県",
    "city": "邑南町",
    "category": "day_service",
    "serviceType": "通所介護",
    "capacity": 30,
    "openDays": [
      "平日",
      "祝日"
    ],
    "openDaysNote": "なし"
  },
  {
    "id": "3271800504",
    "name": "老人デイサービスセンター希望の郷",
    "kana": "ロウジンデイサービスセンターキボウノサト",
    "address": "島根県邑智郡邑南町矢上3899-1",
    "lat": 34.8891779,
    "lng": 132.4398615,
    "tel": "0855-95-2940",
    "url": "http://iwamisakurakai.or.jp",
    "pref": "島根県",
    "city": "邑南町",
    "category": "day_service",
    "serviceType": "通所介護",
    "capacity": 20,
    "openDays": [
      "平日",
      "土曜日",
      "祝日"
    ],
    "openDaysNote": ""
  }
]