[
  {
    "id": "3671800567",
    "name": "つるぎ町高齢者生活福祉センター百寿荘通所介護事業所",
    "kana": "ツルギチョウコウレイシャセイカツフクシセンターヒャクジュソウツウショカイゴジギョウショ",
    "address": "美馬郡つるぎ町一宇字赤松９０８－４",
    "lat": 33.9556505167384,
    "lng": 134.056203090213,
    "tel": "0883-67-2223",
    "url": "",
    "pref": "徳島県",
    "city": "つるぎ町",
    "category": "day_service",
    "serviceType": "通所介護",
    "capacity": 10,
    "openDays": [
      "平日"
    ],
    "openDaysNote": ""
  },
  {
    "id": "3671800542",
    "name": "つるぎ町半田地域福祉センター",
    "kana": "ツルギチョウハンダチイキフクシセンター",
    "address": "徳島県美馬郡つるぎ町半田字小野５２１番地",
    "lat": 34.039043,
    "lng": 134.030159,
    "tel": "０８８３－６４－４１８２",
    "url": "",
    "pref": "徳島県",
    "city": "つるぎ町",
    "category": "day_service",
    "serviceType": "通所介護",
    "capacity": 0,
    "openDays": [
      "平日"
    ],
    "openDaysNote": ""
  },
  {
    "id": "3671800146",
    "name": "清寿会デイサービスセンターゆうま",
    "kana": "セイジュカイデイサービスセンターユウマ",
    "address": "徳島県美馬郡つるぎ町貞光字中須賀６４番地３",
    "lat": 34.0400068,
    "lng": 134.0650792,
    "tel": "0883-62-4126",
    "url": "https://www.seijyukai.org/",
    "pref": "徳島県",
    "city": "つるぎ町",
    "category": "day_service",
    "serviceType": "通所介護",
    "capacity": 0,
    "openDays": [
      "平日",
      "土曜日",
      "祝日"
    ],
    "openDaysNote": "時間延長サービスにも対応しています。お気軽にご相談下さい。"
  },
  {
    "id": "3670400831",
    "name": "あすみデイサービスセンター",
    "kana": "アスミデイサービスセンター",
    "address": "徳島県阿南市西路見町堤外６５番地１ショッピングプラザアピカ ショッピングプラザアピカ",
    "lat": 33.9280758,
    "lng": 134.6731806,
    "tel": "0884-24-8872",
    "url": "http://www.asumikaigo.com/",
    "pref": "徳島県",
    "city": "阿南市",
    "category": "day_service",
    "serviceType": "通所介護",
    "capacity": 0,
    "openDays": [
      "平日",
      "土曜日",
      "日曜日",
      "祝日"
    ],
    "openDaysNote": ""
  },
  {
    "id": "3670400997",
    "name": "ﾃﾞｲｻｰﾋﾞｽｾﾝﾀｰ･ｵﾚﾝｼﾞｴｸｽﾌﾟﾚｽ",
    "kana": "デイサービスセンター・オレンジエクスプレス",
    "address": "羽ノ浦町古庄大坪42-7",
    "lat": 33.9431243,
    "lng": 134.6289895,
    "tel": "0884-24-8028",
    "url": "",
    "pref": "徳島県",
    "city": "阿南市",
    "category": "day_service",
    "serviceType": "通所介護",
    "capacity": 0,
    "openDays": [
      "平日",
      "土曜日",
      "日曜日",
      "祝日"
    ],
    "openDaysNote": ""
  },
  {
    "id": "3670400542",
    "name": "デイサービスキムラ",
    "kana": "デイサービスキムラ",
    "address": "徳島県阿南市津乃峰町長浜197-1",
    "lat": 33.8938101,
    "lng": 134.656608,
    "tel": "0884-49-5819",
    "url": "https://www.lifesupportkimura.net",
    "pref": "徳島県",
    "city": "阿南市",
    "category": "day_service",
    "serviceType": "通所介護",
    "capacity": 0,
    "openDays": [
      "平日",
      "土曜日",
      "祝日"
    ],
    "openDaysNote": ""
  },
  {
    "id": "3670401029",
    "name": "デイサービスセンター・オレンジエクスプレス",
    "kana": "デイサービスセンター・オレンジエクスプレス",
    "address": "羽ノ浦町古庄大坪原42-7",
    "lat": 33.9451194,
    "lng": 134.6230587,
    "tel": "0884-24-8028",
    "url": "",
    "pref": "徳島県",
    "city": "阿南市",
    "category": "day_service",
    "serviceType": "通所介護",
    "capacity": null,
    "openDays": [
      "平日",
      "土曜日",
      "日曜日",
      "祝日"
    ],
    "openDaysNote": ""
  },
  {
    "id": "3670400609",
    "name": "デイサービスセンターなごみ",
    "kana": "デイサービスセンターナゴミ",
    "address": "徳島県阿南市羽ノ浦町中庄なかれ5番地2",
    "lat": 33.9554325,
    "lng": 134.6281518,
    "tel": "0884-21-8555",
    "url": "http//fujino.ezdns.jp",
    "pref": "徳島県",
    "city": "阿南市",
    "category": "day_service",
    "serviceType": "通所介護",
    "capacity": 0,
    "openDays": [
      "平日",
      "土曜日",
      "祝日"
    ],
    "openDaysNote": ""
  },
  {
    "id": "3670400914",
    "name": "デイサービスセンターなごみⅡ",
    "kana": "デイサービスセンターナゴミツー",
    "address": "徳島県阿南市羽ノ浦町岩脇神代地100番地の1",
    "lat": 33.9497829,
    "lng": 134.6187065,
    "tel": "0884-24-8555",
    "url": "http//fujino.ezdns.jp",
    "pref": "徳島県",
    "city": "阿南市",
    "category": "day_service",
    "serviceType": "通所介護",
    "capacity": null,
    "openDays": [
      "平日",
      "土曜日",
      "祝日"
    ],
    "openDaysNote": ""
  },
  {
    "id": "3670400799",
    "name": "デイサービスセンター希",
    "kana": "デイサービスセンターノゾミ",
    "address": "徳島県阿南市宝田町荒井20番地",
    "lat": 33.924350746548,
    "lng": 134.643812831238,
    "tel": "0884-24-8011",
    "url": "http://itsumosmile.jp/",
    "pref": "徳島県",
    "city": "阿南市",
    "category": "day_service",
    "serviceType": "通所介護",
    "capacity": 0,
    "openDays": [
      "平日",
      "土曜日",
      "祝日"
    ],
    "openDaysNote": "※365日24時間連絡対応可能"
  },
  {
    "id": "3670400823",
    "name": "デイサービスセンター恵阿南",
    "kana": "デイサービスセンターケイアナン",
    "address": "徳島県阿南市宝田町井関147-6",
    "lat": 33.9123261592592,
    "lng": 134.643200960327,
    "tel": "0884-24-8701",
    "url": "http://itsumosmile.jp/",
    "pref": "徳島県",
    "city": "阿南市",
    "category": "day_service",
    "serviceType": "通所介護",
    "capacity": 0,
    "openDays": [
      "平日",
      "祝日"
    ],
    "openDaysNote": "※365日24時間連絡対応可能"
  },
  {
    "id": "3671300584",
    "name": "デイサービスセンター元気",
    "kana": "デイサービスセンターゲンキ",
    "address": "那賀川町芳崎366-1",
    "lat": 33.9583065,
    "lng": 134.6642283,
    "tel": "0884-42-1000",
    "url": "",
    "pref": "徳島県",
    "city": "阿南市",
    "category": "day_service",
    "serviceType": "通所介護",
    "capacity": 0,
    "openDays": [
      "平日",
      "土曜日",
      "祝日"
    ],
    "openDaysNote": ""
  },
  {
    "id": "3671300238",
    "name": "デイセンターカルメン",
    "kana": "デイセンターカルメン",
    "address": "徳島県阿南市羽ノ浦町中庄大知渕８番地１",
    "lat": 33.9544408,
    "lng": 134.6361732,
    "tel": "0884-44-6831",
    "url": "http://www.kenshokai.group",
    "pref": "徳島県",
    "city": "阿南市",
    "category": "day_service",
    "serviceType": "通所介護",
    "capacity": 0,
    "openDays": [
      "平日",
      "土曜日",
      "祝日"
    ],
    "openDaysNote": "１２月３１日から１月３日まで及び台風・積雪等の天候状況の極めて悪いときは休日とすることができる。"
  },
  {
    "id": "3670400617",
    "name": "デイセンター緑風会尊氏",
    "kana": "デイセンターリョクフウカイタカウジ",
    "address": "徳島県阿南市下大野町五反畑126番地1",
    "lat": 33.9329661,
    "lng": 134.6062932,
    "tel": "0884-23-3300",
    "url": "http://www.kensyokai.or.jp",
    "pref": "徳島県",
    "city": "阿南市",
    "category": "day_service",
    "serviceType": "通所介護",
    "capacity": 0,
    "openDays": [
      "平日",
      "土曜日",
      "日曜日",
      "祝日"
    ],
    "openDaysNote": "１２月３１日から１月２日まで及び台風・積雪等の天候状況の極めて悪いときは休日とすることができる。"
  },
  {
    "id": "3670400930",
    "name": "リハビリｃａｒｅらいず",
    "kana": "リハビリケアライズ",
    "address": "徳島県阿南市富岡町玉塚67番地1",
    "lat": 33.9182387,
    "lng": 134.6564515,
    "tel": "0884-24-8338",
    "url": "https://www.yuai-anan.com",
    "pref": "徳島県",
    "city": "阿南市",
    "category": "day_service",
    "serviceType": "通所介護",
    "capacity": 0,
    "openDays": [
      "平日"
    ],
    "openDaysNote": ""
  },
  {
    "id": "3670400385",
    "name": "阿南市社協デイサービスセンター栖竜荘",
    "kana": "アナンシシャキョウデイサービスセンターセイリュウソウ",
    "address": "阿南市那賀川町苅屋357番地1",
    "lat": 33.9493549,
    "lng": 134.6633704,
    "tel": "0884-42-2251",
    "url": "",
    "pref": "徳島県",
    "city": "阿南市",
    "category": "day_service",
    "serviceType": "通所介護",
    "capacity": 0,
    "openDays": [
      "平日",
      "土曜日",
      "祝日"
    ],
    "openDaysNote": "月曜日から土曜日及びあらかじめ指定した国民の祝日（以下「特定日」という。）とする。ただし、特定日以外の国民の祝日及び年末年始（１２月２９日から翌年の１月３日）を除く。なお、施設長が必要と認めたときは、これを変更する事ができる。"
  },
  {
    "id": "3670400047",
    "name": "阿南福祉会デイサービスセンター",
    "kana": "アナンフクシカイデイサービスセンター",
    "address": "徳島県阿南市宝田町今市金剛寺３８番地１",
    "lat": 33.9251475,
    "lng": 134.6473502,
    "tel": "0884-23-7373",
    "url": "http://anan-hukushikai.com/",
    "pref": "徳島県",
    "city": "阿南市",
    "category": "day_service",
    "serviceType": "通所介護",
    "capacity": 0,
    "openDays": [
      "平日",
      "土曜日",
      "祝日"
    ],
    "openDaysNote": ""
  },
  {
    "id": "3670400054",
    "name": "心和会デイサービスセンター悠和",
    "kana": "シンワカイデイサービスセンターユウワ",
    "address": "徳島県阿南市新野町信里65ケアハウス悠和館 ケアハウス悠和館",
    "lat": 33.8465742663313,
    "lng": 134.599444837434,
    "tel": "0884-36-3820",
    "url": "",
    "pref": "徳島県",
    "city": "阿南市",
    "category": "day_service",
    "serviceType": "通所介護",
    "capacity": 0,
    "openDays": [
      "平日",
      "土曜日",
      "祝日"
    ],
    "openDaysNote": ""
  },
  {
    "id": "3670400344",
    "name": "青彩会デイサービスセンター梅の里",
    "kana": "セイサイカイデイサービスセンターウメノサト",
    "address": "徳島県阿南市長生町岩ノ下１７番地２",
    "lat": 33.8950405,
    "lng": 134.6136174,
    "tel": "0884-23-2635",
    "url": "http://seisaikai.jp/",
    "pref": "徳島県",
    "city": "阿南市",
    "category": "day_service",
    "serviceType": "通所介護",
    "capacity": 0,
    "openDays": [
      "平日",
      "祝日"
    ],
    "openDaysNote": ""
  },
  {
    "id": "3670400062",
    "name": "青彩会デイサビスセンター",
    "kana": "セイサイカイデイサービスセンター",
    "address": "徳島県阿南市長生町西方５９番地",
    "lat": 33.9247647,
    "lng": 134.6236106,
    "tel": "0884-23-5979",
    "url": "http://seisaikai.jp/",
    "pref": "徳島県",
    "city": "阿南市",
    "category": "day_service",
    "serviceType": "通所介護",
    "capacity": 0,
    "openDays": [
      "平日",
      "祝日"
    ],
    "openDaysNote": ""
  },
  {
    "id": "3670400625",
    "name": "通所介護事業所　ロイヤルフラワーガーデン",
    "kana": "ツウショカイゴジギョウショ　ロイヤルフラワーガーデン",
    "address": "徳島県阿南市中林町蟹田１番地２",
    "lat": 33.9057336,
    "lng": 134.6830247,
    "tel": "884228877",
    "url": "",
    "pref": "徳島県",
    "city": "阿南市",
    "category": "day_service",
    "serviceType": "通所介護",
    "capacity": 0,
    "openDays": [
      "平日",
      "土曜日",
      "祝日"
    ],
    "openDaysNote": ""
  },
  {
    "id": "3671300345",
    "name": "平成デイサービスセンター羽ノ浦",
    "kana": "ヘイセイデイサービスセンターハノウラ",
    "address": "徳島県阿南市羽ノ浦町岩脇上平69介護老人福祉施設ヴィラ羽ノ浦 介護老人福祉施設ヴィラ羽ノ浦",
    "lat": 33.9453424,
    "lng": 134.6132341,
    "tel": "0884-21-8181",
    "url": "http://hanoura.tokuyou.jp/",
    "pref": "徳島県",
    "city": "阿南市",
    "category": "day_service",
    "serviceType": "通所介護",
    "capacity": 20,
    "openDays": [
      "平日",
      "土曜日",
      "祝日"
    ],
    "openDaysNote": ""
  },
  {
    "id": "3670400351",
    "name": "宝田デイサービス",
    "kana": "タカラダデイサービス",
    "address": "徳島県阿南市宝田町郡43-16",
    "lat": 33.9218022096051,
    "lng": 134.64580025988,
    "tel": "0884-24-3960",
    "url": "http://silver-kaigo.jimdo.com/",
    "pref": "徳島県",
    "city": "阿南市",
    "category": "day_service",
    "serviceType": "通所介護",
    "capacity": 25,
    "openDays": [
      "平日",
      "土曜日",
      "日曜日",
      "祝日"
    ],
    "openDaysNote": ""
  },
  {
    "id": "3671600249",
    "name": "あわデイサービスセンター",
    "kana": "アワデイサービスセンター",
    "address": "阿波市阿波町久原36-2",
    "lat": 34.0799373,
    "lng": 134.2386563,
    "tel": "0883-35-6033",
    "url": "http://www.awashishakyo.com",
    "pref": "徳島県",
    "city": "阿波市",
    "category": "day_service",
    "serviceType": "通所介護",
    "capacity": 0,
    "openDays": [
      "平日",
      "土曜日",
      "祝日"
    ],
    "openDaysNote": "年末年始は休み。（改行）機器点検、職員研修等により臨時休業有り。"
  },
  {
    "id": "3671600470",
    "name": "デイサービスセンターシンシア",
    "kana": "デイサービスセンターシンシア",
    "address": "徳島県阿波市吉野町西条字西大竹66-1",
    "lat": 34.1060168,
    "lng": 134.3800186,
    "tel": "088-696-5860",
    "url": "",
    "pref": "徳島県",
    "city": "阿波市",
    "category": "day_service",
    "serviceType": "通所介護",
    "capacity": 0,
    "openDays": [
      "平日",
      "祝日"
    ],
    "openDaysNote": ""
  },
  {
    "id": "3671600652",
    "name": "デイサービスセンターシンシア",
    "kana": "デイサービスセンタ-　シンシア",
    "address": "徳島県阿波市吉野町西条字西大竹66-1サービス付き高齢者向け住宅シンシア サービス付き高齢者向け住宅シンシア",
    "lat": 34.106017,
    "lng": 134.380019,
    "tel": "088-696-5860",
    "url": "",
    "pref": "徳島県",
    "city": "阿波市",
    "category": "day_service",
    "serviceType": "通所介護",
    "capacity": 0,
    "openDays": [
      "平日",
      "土曜日",
      "日曜日",
      "祝日"
    ],
    "openDaysNote": ""
  },
  {
    "id": "3671600595",
    "name": "デイサービスセンターみらい",
    "kana": "デイサービスセンターミライ",
    "address": "徳島県阿波市吉野町西条字床石53-2",
    "lat": 34.1046193,
    "lng": 134.3714854,
    "tel": "088-624-8801",
    "url": "https://mirai-awa.net",
    "pref": "徳島県",
    "city": "阿波市",
    "category": "day_service",
    "serviceType": "通所介護",
    "capacity": 0,
    "openDays": [
      "平日",
      "土曜日",
      "祝日"
    ],
    "openDaysNote": "祝日も日曜日でない場合は、通常通りです。"
  },
  {
    "id": "3671600546",
    "name": "デイサービスセンター阿波伊月",
    "kana": "デイサービスセンターアワイツキ",
    "address": "徳島県阿波市阿波町大原107-1",
    "lat": 34.0794891,
    "lng": 134.2471225,
    "tel": "0883-35-2157",
    "url": "",
    "pref": "徳島県",
    "city": "阿波市",
    "category": "day_service",
    "serviceType": "通所介護",
    "capacity": 0,
    "openDays": [
      "平日",
      "祝日"
    ],
    "openDaysNote": ""
  },
  {
    "id": "3671600454",
    "name": "デイサービスセンター楽樹",
    "kana": "ラクジュ",
    "address": "徳島県阿波市吉野町柿原字西二條216番地3",
    "lat": 34.0949791,
    "lng": 134.344635,
    "tel": "088-696-5500",
    "url": "https:/shinohara-syoji.com/",
    "pref": "徳島県",
    "city": "阿波市",
    "category": "day_service",
    "serviceType": "通所介護",
    "capacity": 0,
    "openDays": [
      "平日",
      "土曜日",
      "祝日"
    ],
    "openDaysNote": ""
  },
  {
    "id": "3671500407",
    "name": "デイサービスセンター御所",
    "kana": "デイサービスセンターゴショ",
    "address": "徳島県阿波市土成町吉田字梨木原1番地5",
    "lat": 34.124534,
    "lng": 134.3534536,
    "tel": "088-695-5533",
    "url": "http://www.hakuju-kai.or.jp",
    "pref": "徳島県",
    "city": "阿波市",
    "category": "day_service",
    "serviceType": "通所介護",
    "capacity": 0,
    "openDays": [
      "平日",
      "土曜日",
      "祝日"
    ],
    "openDaysNote": "時間延長サービス・夕食付サービスあり。"
  },
  {
    "id": "3671600405",
    "name": "デイセンターお龍",
    "kana": "デイセンターオリョウ",
    "address": "徳島県阿波市阿波町勝命北８番地",
    "lat": 34.0856096,
    "lng": 134.263365,
    "tel": "0883-35-8111",
    "url": "https://www.kenshokai.group/",
    "pref": "徳島県",
    "city": "阿波市",
    "category": "day_service",
    "serviceType": "通所介護",
    "capacity": 35,
    "openDays": [
      "平日",
      "土曜日",
      "日曜日",
      "祝日"
    ],
    "openDaysNote": "台風・積雪等の天候状況の極めて悪い時には休業する場合があります。"
  },
  {
    "id": "3671600322",
    "name": "デイセンター一休さん",
    "kana": "デイセンターイッキュウサン",
    "address": "徳島県阿波市土成町郡１３１番地１",
    "lat": 34.0991170052496,
    "lng": 134.329993841734,
    "tel": "０８８－６９５－５１５１",
    "url": "http://www.kenshokai.group",
    "pref": "徳島県",
    "city": "阿波市",
    "category": "day_service",
    "serviceType": "通所介護",
    "capacity": 35,
    "openDays": [
      "平日",
      "土曜日",
      "祝日"
    ],
    "openDaysNote": "１月１日から１月３日まで及び台風・積雪等の天候状況の極めて悪いときは休日とすることができる。"
  },
  {
    "id": "3671600397",
    "name": "秀実コーポレーション",
    "kana": "ジュウジツ　コーポレーション",
    "address": "徳島県阿波市阿波町平川原49",
    "lat": 34.0855211,
    "lng": 134.2750557,
    "tel": "0883-26-6131",
    "url": "http://futaba-group28.com/",
    "pref": "徳島県",
    "city": "阿波市",
    "category": "day_service",
    "serviceType": "通所介護",
    "capacity": 0,
    "openDays": [
      "平日",
      "土曜日",
      "日曜日",
      "祝日"
    ],
    "openDaysNote": "できる限り、利用者の方の希望に合せます"
  },
  {
    "id": "3671600082",
    "name": "双葉デイサービスセンター",
    "kana": "フタバデイサービスセンター",
    "address": "徳島県阿波市市場町市場字岸の下206番地3",
    "lat": 34.0859183,
    "lng": 134.2756834,
    "tel": "0883-26-6639",
    "url": "http://www.futaba-group28.com",
    "pref": "徳島県",
    "city": "阿波市",
    "category": "day_service",
    "serviceType": "通所介護",
    "capacity": 25,
    "openDays": [
      "平日",
      "土曜日",
      "日曜日",
      "祝日"
    ],
    "openDaysNote": ""
  },
  {
    "id": "3671600017",
    "name": "蓬莱会デイサービスセンター",
    "kana": "ホウライカイデイサービスセンター",
    "address": "徳島県阿波市阿波町北整理１番地１",
    "lat": 34.0756619,
    "lng": 134.1943938,
    "tel": "0883-35-7201",
    "url": "https://horaikai.or.jp/",
    "pref": "徳島県",
    "city": "阿波市",
    "category": "day_service",
    "serviceType": "通所介護",
    "capacity": null,
    "openDays": [
      "平日",
      "土曜日",
      "祝日"
    ],
    "openDaysNote": ""
  },
  {
    "id": "3671400350",
    "name": "デイサービスいきいき",
    "kana": "デイサービスセンターイキイキ",
    "address": "徳島県海部郡海陽町久保字板取１２－４",
    "lat": 36.204824,
    "lng": 138.252924,
    "tel": "0884-74-6601",
    "url": "http://orino.jp/",
    "pref": "徳島県",
    "city": "海陽町",
    "category": "day_service",
    "serviceType": "通所介護",
    "capacity": 0,
    "openDays": [
      "平日",
      "祝日"
    ],
    "openDaysNote": ""
  },
  {
    "id": "3671400418",
    "name": "デイサービスセンター　さつき荘",
    "kana": "デイサービスセンター　サツキソウ",
    "address": "徳島県海部郡海陽町大里字中須８４番地デイサービスセンター　さつき荘 デイサービスセンター　さつき荘",
    "lat": 33.6010461,
    "lng": 134.3558574,
    "tel": "0884-73-3769",
    "url": "https://www.kaiyo-shakyo.jp/",
    "pref": "徳島県",
    "city": "海陽町",
    "category": "day_service",
    "serviceType": "通所介護",
    "capacity": 0,
    "openDays": [
      "平日"
    ],
    "openDaysNote": ""
  },
  {
    "id": "3671400426",
    "name": "デイサービスセンター　わしずみ荘",
    "kana": "デイサービスセンター　ワシズミソウ",
    "address": "徳島県海部郡海陽町宍喰浦字宍喰383番地",
    "lat": 33.5668438,
    "lng": 134.3025101,
    "tel": "0884－76－2717",
    "url": "https://www.kaiyo-shakyo.jp/",
    "pref": "徳島県",
    "city": "海陽町",
    "category": "day_service",
    "serviceType": "通所介護",
    "capacity": 0,
    "openDays": [
      "平日"
    ],
    "openDaysNote": ""
  },
  {
    "id": "3671700866",
    "name": "あるくアンサンブル",
    "kana": "アルクアンサンブル",
    "address": "徳島県吉野川市山川町堤外5番地17",
    "lat": 34.0610962,
    "lng": 134.2521399,
    "tel": "883427525",
    "url": "",
    "pref": "徳島県",
    "city": "吉野川市",
    "category": "day_service",
    "serviceType": "通所介護",
    "capacity": 25,
    "openDays": [
      "平日",
      "祝日"
    ],
    "openDaysNote": ""
  },
  {
    "id": "3671700569",
    "name": "デイサービスセンター　enjoy",
    "kana": "デイサービスセンターエンジョイ",
    "address": "徳島県吉野川市鴨島町牛島2116-1",
    "lat": 34.084286,
    "lng": 134.3946258,
    "tel": "0883-36-9860",
    "url": "http://enjoy-day.co.jp",
    "pref": "徳島県",
    "city": "吉野川市",
    "category": "day_service",
    "serviceType": "通所介護",
    "capacity": 30,
    "openDays": [
      "平日",
      "土曜日",
      "祝日"
    ],
    "openDaysNote": "年末年始（１２月３１日から１月３日）は休日"
  },
  {
    "id": "3671700528",
    "name": "デイサービスセンターせせらぎ",
    "kana": "デイサービスセンターセセラギ",
    "address": "徳島県吉野川市鴨島町上下島440-3",
    "lat": 34.0716070701754,
    "lng": 134.349840496754,
    "tel": "0883-24-3066",
    "url": "http://www.mima-gr.jp/mima/",
    "pref": "徳島県",
    "city": "吉野川市",
    "category": "day_service",
    "serviceType": "通所介護",
    "capacity": 30,
    "openDays": [
      "平日",
      "土曜日",
      "日曜日",
      "祝日"
    ],
    "openDaysNote": ""
  },
  {
    "id": "3671700171",
    "name": "デイサービスセンター和紙のさと",
    "kana": "デイサービスセンターワシノサト",
    "address": "徳島県吉野川市山川町川田８９８－１",
    "lat": 34.0583059,
    "lng": 134.2166756,
    "tel": "０８８３－２６－４１４１",
    "url": "http://www.hakuyuyu.com",
    "pref": "徳島県",
    "city": "吉野川市",
    "category": "day_service",
    "serviceType": "通所介護",
    "capacity": 5,
    "openDays": [
      "平日",
      "土曜日",
      "祝日"
    ],
    "openDaysNote": "年末年始は、利用者のニーズの状況により休業日となる場合がある。"
  },
  {
    "id": "3671700940",
    "name": "デイサービス忌部あわふじ",
    "kana": "デイサービスインベアワフジ",
    "address": "山川町岩戸10番地",
    "lat": 34.0576342628924,
    "lng": 134.268352228749,
    "tel": "0883‐42‐6677",
    "url": "",
    "pref": "徳島県",
    "city": "吉野川市",
    "category": "day_service",
    "serviceType": "通所介護",
    "capacity": 0,
    "openDays": [
      "平日",
      "祝日"
    ],
    "openDaysNote": "1月1日〜3日は曜日に関わらず定休日。"
  },
  {
    "id": "3671700098",
    "name": "デイセンターアルル",
    "kana": "デイセンターアルル",
    "address": "徳島県吉野川市鴨島町内原46番地3健祥会プロバンス 健祥会プロバンス",
    "lat": 34.0687962,
    "lng": 134.3732107,
    "tel": "0883-24-3888",
    "url": "http://www.kenshokai.group/",
    "pref": "徳島県",
    "city": "吉野川市",
    "category": "day_service",
    "serviceType": "通所介護",
    "capacity": 30,
    "openDays": [
      "平日",
      "土曜日",
      "日曜日",
      "祝日"
    ],
    "openDaysNote": "天災その他やむを得ず業務を遂行できない日は休業。"
  },
  {
    "id": "3671700817",
    "name": "リハビリ特化型デイサービスあわふじ",
    "kana": "リハビリトッカガタデイサービスアワフジ",
    "address": "徳島県吉野川市川島町学字辻56-1",
    "lat": 34.0563129,
    "lng": 134.2833334,
    "tel": "0883-25-3323",
    "url": "",
    "pref": "徳島県",
    "city": "吉野川市",
    "category": "day_service",
    "serviceType": "通所介護",
    "capacity": null,
    "openDays": [
      "平日",
      "土曜日",
      "祝日"
    ],
    "openDaysNote": ""
  },
  {
    "id": "3671700023",
    "name": "菊美荘デイサービスセンター",
    "kana": "キクミソウデイサービスセンター",
    "address": "徳島県吉野川市鴨島町上下島字大北443番地2",
    "lat": 34.0718837262177,
    "lng": 134.349662768236,
    "tel": "0883-24-6137",
    "url": "http://www.mima-gr.jp/kikumi/index.html",
    "pref": "徳島県",
    "city": "吉野川市",
    "category": "day_service",
    "serviceType": "通所介護",
    "capacity": 0,
    "openDays": [
      "平日",
      "土曜日",
      "祝日"
    ],
    "openDaysNote": ""
  },
  {
    "id": "3671700965",
    "name": "真一号館",
    "kana": "マコトイチゴウカン",
    "address": "鴨島町敷地514番地1",
    "lat": 34.0554797,
    "lng": 134.3485786,
    "tel": "0883-26-1088",
    "url": "https:care-net.biz",
    "pref": "徳島県",
    "city": "吉野川市",
    "category": "day_service",
    "serviceType": "通所介護",
    "capacity": null,
    "openDays": [
      "平日",
      "土曜日",
      "日曜日",
      "祝日"
    ],
    "openDaysNote": ""
  },
  {
    "id": "3671700957",
    "name": "真二号館",
    "kana": "マコトニゴウカン",
    "address": "徳島県吉野川市鴨島町飯尾1614番地20",
    "lat": 34.0532593,
    "lng": 134.3521617,
    "tel": "0883-36-1555",
    "url": "https://care-net.biz/36/makoto/",
    "pref": "徳島県",
    "city": "吉野川市",
    "category": "day_service",
    "serviceType": "通所介護",
    "capacity": null,
    "openDays": [
      "平日",
      "土曜日",
      "祝日"
    ],
    "openDaysNote": ""
  },
  {
    "id": "3671700833",
    "name": "宅老所　生き活き家",
    "kana": "宅老所　生キ活キ家",
    "address": "徳島県吉野川市鴨島町山路1651-1",
    "lat": 34.0541083,
    "lng": 134.3780295,
    "tel": "0883-36-9277",
    "url": "ikiikiya111.jp",
    "pref": "徳島県",
    "city": "吉野川市",
    "category": "day_service",
    "serviceType": "通所介護",
    "capacity": 25,
    "openDays": [
      "平日",
      "土曜日",
      "日曜日",
      "祝日"
    ],
    "openDaysNote": ""
  },
  {
    "id": "3671100018",
    "name": "デイセンターウィリアムテル",
    "kana": "デイセンターウィリアムテル",
    "address": "徳島県名東郡佐那河内村上字大黒２３番地１",
    "lat": 33.9923776,
    "lng": 134.4516136,
    "tel": "088-679-3381",
    "url": "https://www.kenshokai.group/",
    "pref": "徳島県",
    "city": "佐那河内村",
    "category": "day_service",
    "serviceType": "通所介護",
    "capacity": 0,
    "openDays": [
      "平日",
      "土曜日",
      "祝日"
    ],
    "openDaysNote": ""
  },
  {
    "id": "3671900300",
    "name": "デイサービスセンターすずらん",
    "kana": "デイサービスセンタースズラン",
    "address": "徳島県三好市池田町サラダ1612番地32",
    "lat": 34.0271299,
    "lng": 133.8082549,
    "tel": "0883－72－6311",
    "url": "",
    "pref": "徳島県",
    "city": "三好市",
    "category": "day_service",
    "serviceType": "通所介護",
    "capacity": 20,
    "openDays": [
      "平日",
      "祝日"
    ],
    "openDaysNote": "現在、水曜日は休所としています"
  },
  {
    "id": "3671900029",
    "name": "みのだデイサービスセンター",
    "kana": "ミノダデイサービスセンター",
    "address": "徳島県三好市井川町大佐古２０番地１",
    "lat": 34.031339,
    "lng": 133.8854962,
    "tel": "０８８３－７８－４０００",
    "url": "",
    "pref": "徳島県",
    "city": "三好市",
    "category": "day_service",
    "serviceType": "通所介護",
    "capacity": 0,
    "openDays": [
      "平日",
      "土曜日"
    ],
    "openDaysNote": "利用者家族要望により（AM8:00～PM20:00)までの延長あり"
  },
  {
    "id": "3671900359",
    "name": "ライフサポートセンター桜",
    "kana": "ライフサポートセンターサクラ",
    "address": "徳島県三好市三野町芝生859-1",
    "lat": 34.0460148801628,
    "lng": 133.967389329856,
    "tel": "0883－77－3131",
    "url": "",
    "pref": "徳島県",
    "city": "三好市",
    "category": "day_service",
    "serviceType": "通所介護",
    "capacity": 10,
    "openDays": [
      "平日",
      "土曜日",
      "祝日"
    ],
    "openDaysNote": ""
  },
  {
    "id": "3671900185",
    "name": "永楽荘デイサービスセンター（月）",
    "kana": "エイラクソウデイサービスセンターツキ",
    "address": "徳島県三好市池田町州津西ノ久保２７９番地１永楽荘デイサービスセンター（月） 永楽荘デイサービスセンター（月）",
    "lat": 34.0346022,
    "lng": 133.8403455,
    "tel": "(0883)72-3350",
    "url": "http://www.ikeda-hakuai.or.jp/",
    "pref": "徳島県",
    "city": "三好市",
    "category": "day_service",
    "serviceType": "通所介護",
    "capacity": 30,
    "openDays": [
      "平日",
      "土曜日",
      "日曜日",
      "祝日"
    ],
    "openDaysNote": ""
  },
  {
    "id": "3671900193",
    "name": "永楽荘デイサービスセンター星",
    "kana": "エイラクソウデイサービスセンターホシ",
    "address": "徳島県三好市池田町白地本名　165-2",
    "lat": 34.0147974,
    "lng": 133.7817057,
    "tel": "0883-74-6050",
    "url": "http://www.ikeda-hakuaikai.org",
    "pref": "徳島県",
    "city": "三好市",
    "category": "day_service",
    "serviceType": "通所介護",
    "capacity": 25,
    "openDays": [
      "平日",
      "土曜日",
      "祝日"
    ],
    "openDaysNote": ""
  },
  {
    "id": "3670600133",
    "name": "株式会社　幸の和",
    "kana": "カブシキガイシャ　サイワイノワ",
    "address": "徳島県三好市三野町芝生1098-1",
    "lat": 34.0412473819308,
    "lng": 133.972393655603,
    "tel": "0883-76-2877",
    "url": "",
    "pref": "徳島県",
    "city": "三好市",
    "category": "day_service",
    "serviceType": "通所介護",
    "capacity": null,
    "openDays": [
      "平日",
      "土曜日",
      "祝日"
    ],
    "openDaysNote": ""
  },
  {
    "id": "3670600224",
    "name": "健生西部診療所デイサービスなでしこ",
    "kana": "ケンセイセイブシンリョウジョデイサービスナデシコ",
    "address": "徳島県三好市井川町吉岡127-2",
    "lat": 34.0306489826607,
    "lng": 133.864247771972,
    "tel": "0883-78-2292",
    "url": "",
    "pref": "徳島県",
    "city": "三好市",
    "category": "day_service",
    "serviceType": "通所介護",
    "capacity": null,
    "openDays": [
      "平日"
    ],
    "openDaysNote": "水曜日は短時間のサービス提供実施"
  },
  {
    "id": "3671900268",
    "name": "山城会　デイサービスセンター大野",
    "kana": "ヤマシロカイ　デイサービスセンターオオノ",
    "address": "徳島県三好市山城町大野大寺508-2",
    "lat": null,
    "lng": null,
    "tel": "0883-86-2661",
    "url": "http//yamasirokai.or.jp/",
    "pref": "徳島県",
    "city": "三好市",
    "category": "day_service",
    "serviceType": "通所介護",
    "capacity": 0,
    "openDays": [
      "平日",
      "祝日"
    ],
    "openDaysNote": ""
  },
  {
    "id": "3670600406",
    "name": "山城会デイサービスセンター",
    "kana": "ヤマシロカイデイサービスセンター",
    "address": "徳島県三好市山城町西宇1225-2",
    "lat": 33.913543741011,
    "lng": 133.758484959933,
    "tel": "0883-84-1187",
    "url": "http://yamashirokai.or.jp/",
    "pref": "徳島県",
    "city": "三好市",
    "category": "day_service",
    "serviceType": "通所介護",
    "capacity": null,
    "openDays": [
      "平日",
      "祝日"
    ],
    "openDaysNote": ""
  },
  {
    "id": "3671900235",
    "name": "村山内科　デイサービスセンター",
    "kana": "ムラヤマナイカ　デイサービスセンター",
    "address": "徳島県三好市池田町サラダ１７９２番地１",
    "lat": 34.0279603,
    "lng": 133.8069357,
    "tel": "0883-72-2900",
    "url": "https.//murayamanaika.com",
    "pref": "徳島県",
    "city": "三好市",
    "category": "day_service",
    "serviceType": "通所介護",
    "capacity": 0,
    "openDays": [
      "平日"
    ],
    "openDaysNote": "土日曜日、祝日は休みですが、電話等により24時間、常時連絡が可能な体制をとっています。（改行）ゴールデンウィークは内1日を営業日といたします。"
  },
  {
    "id": "3671000010",
    "name": "デイサービスセンターオレンジ荘",
    "kana": "デイサービスセンターオレンジソウ",
    "address": "徳島県勝浦郡勝浦町大字棚野字竹国１３番地の１",
    "lat": 33.9326887,
    "lng": 134.504896,
    "tel": "0885-42-3700",
    "url": "http://syoujukai.or.jp",
    "pref": "徳島県",
    "city": "勝浦町",
    "category": "day_service",
    "serviceType": "通所介護",
    "capacity": null,
    "openDays": [
      "平日",
      "土曜日",
      "祝日"
    ],
    "openDaysNote": ""
  },
  {
    "id": "3671000085",
    "name": "デイサービスセンター清流苑",
    "kana": "デイサービスセンターセイリュウエン",
    "address": "徳島県勝浦郡勝浦町大字棚野字竹国１０番１",
    "lat": 33.9319361,
    "lng": 134.5046571,
    "tel": "0885-42-3700",
    "url": "http://syoujukai.or.jp",
    "pref": "徳島県",
    "city": "勝浦町",
    "category": "day_service",
    "serviceType": "通所介護",
    "capacity": null,
    "openDays": [
      "平日",
      "土曜日",
      "祝日"
    ],
    "openDaysNote": ""
  },
  {
    "id": "3670300593",
    "name": "デイサービスセンターさくら",
    "kana": "デイサービスセンターサクラ",
    "address": "徳島県小松島市中田町字新開48番地",
    "lat": 34.013255,
    "lng": 134.5835357,
    "tel": "0885-35-0630",
    "url": "",
    "pref": "徳島県",
    "city": "小松島市",
    "category": "day_service",
    "serviceType": "通所介護",
    "capacity": 0,
    "openDays": [
      "平日",
      "土曜日",
      "祝日"
    ],
    "openDaysNote": ""
  },
  {
    "id": "3670300502",
    "name": "デイサービスセンター恵小松島",
    "kana": "デイサービスセンターケイコマツシマ",
    "address": "徳島県小松島市中田町字浜田58-2",
    "lat": 34.0159601,
    "lng": 134.5838049,
    "tel": "0885-38-7805",
    "url": "http://itsumosmile.jp/",
    "pref": "徳島県",
    "city": "小松島市",
    "category": "day_service",
    "serviceType": "通所介護",
    "capacity": 0,
    "openDays": [
      "平日",
      "祝日"
    ],
    "openDaysNote": "※365日24時間連絡対応可能"
  },
  {
    "id": "3670300510",
    "name": "デイサービスセンター恵南小松島",
    "kana": "デイサービスセンターケイミナミコマツシマ",
    "address": "徳島県小松島市大林町森ノ本4番3",
    "lat": 33.977197,
    "lng": 134.6119479,
    "tel": "0885-38-6860",
    "url": "http://itsumosmile.jp/",
    "pref": "徳島県",
    "city": "小松島市",
    "category": "day_service",
    "serviceType": "通所介護",
    "capacity": 0,
    "openDays": [
      "平日",
      "土曜日",
      "祝日"
    ],
    "openDaysNote": "※365日24時間連絡対応可能"
  },
  {
    "id": "3670300056",
    "name": "指定通所介護事業所千歳苑デイサービスセンター",
    "kana": "シテイツウショカイゴジギョウショ　チトセエンデイサービスセンター",
    "address": "徳島県小松島市小松島町字元根井54番地1",
    "lat": 34.0153574,
    "lng": 134.5911596,
    "tel": "0885-33-2040",
    "url": "https://aishinkai-t.com/titoseen/",
    "pref": "徳島県",
    "city": "小松島市",
    "category": "day_service",
    "serviceType": "通所介護",
    "capacity": 0,
    "openDays": [
      "平日",
      "土曜日",
      "祝日"
    ],
    "openDaysNote": ""
  },
  {
    "id": "3670300205",
    "name": "有限会社　徳島ケアシステム　デイサービスセンターさくら",
    "kana": "ユウゲンガイシャ　トクシマケアシステム　デイサービスセンター　サクラ",
    "address": "徳島県小松島市中田町字新開４８番地",
    "lat": 36.204824,
    "lng": 138.252924,
    "tel": "0885-35-0630",
    "url": "",
    "pref": "徳島県",
    "city": "小松島市",
    "category": "day_service",
    "serviceType": "通所介護",
    "capacity": 30,
    "openDays": [
      "平日",
      "土曜日",
      "祝日"
    ],
    "openDaysNote": ""
  },
  {
    "id": "3671500092",
    "name": "せいけいかい指定通所介護事業所",
    "kana": "セイケイカイシテイツウショカイゴジギョウショ",
    "address": "徳島県板野郡松茂町笹木野字山東49-1",
    "lat": 34.124439,
    "lng": 134.5951775,
    "tel": "088-699-2745",
    "url": "http://wako-en.or.jp/",
    "pref": "徳島県",
    "city": "松茂町",
    "category": "day_service",
    "serviceType": "通所介護",
    "capacity": 0,
    "openDays": [
      "平日",
      "祝日"
    ],
    "openDaysNote": ""
  },
  {
    "id": "3671501496",
    "name": "でいさーびす「ちょうせいえん」",
    "kana": "デイサービス「長生苑」",
    "address": "徳島県板野郡松茂町満穂字満穂開拓79番地1",
    "lat": 34.1402335890316,
    "lng": 134.600188671627,
    "tel": "088－624－8211",
    "url": "",
    "pref": "徳島県",
    "city": "松茂町",
    "category": "day_service",
    "serviceType": "通所介護",
    "capacity": 0,
    "openDays": [
      "平日"
    ],
    "openDaysNote": ""
  },
  {
    "id": "3671501561",
    "name": "ふくゆうデイサービスセンター",
    "kana": "フクユウデイサービスセンター",
    "address": "徳島県板野郡松茂町笹木野字八北開拓175番地1",
    "lat": 34.1434952,
    "lng": 134.5945188,
    "tel": "088-678-7633",
    "url": "http://www.yujoukai.jp/",
    "pref": "徳島県",
    "city": "松茂町",
    "category": "day_service",
    "serviceType": "通所介護",
    "capacity": 0,
    "openDays": [
      "平日",
      "土曜日"
    ],
    "openDaysNote": ""
  },
  {
    "id": "3670105646",
    "name": "灯りデイサービスセンター",
    "kana": "トモリデイサービスセンター",
    "address": "徳島県板野郡松茂町笹木野字八北開拓25番地住宅型有料老人ホーム　わたつみ 住宅型有料老人ホーム　わたつみ",
    "lat": 34.135932,
    "lng": 134.5862768,
    "tel": "088-624-7361",
    "url": "",
    "pref": "徳島県",
    "city": "松茂町",
    "category": "day_service",
    "serviceType": "通所介護",
    "capacity": 0,
    "openDays": [
      "平日"
    ],
    "openDaysNote": ""
  },
  {
    "id": "3671000028",
    "name": "健祥会デイサービスセンター上勝",
    "kana": "ケンショウカイデイサービスセンターカミカツ",
    "address": "徳島県勝浦郡上勝町大字正木字西浦111番地７",
    "lat": 33.9243288,
    "lng": 134.4204064,
    "tel": "0885-44-5111",
    "url": "https://www.kenshokai.group/institution/tokuyou/peter/",
    "pref": "徳島県",
    "city": "上勝町",
    "category": "day_service",
    "serviceType": "通所介護",
    "capacity": 0,
    "openDays": [
      "平日",
      "土曜日",
      "日曜日",
      "祝日"
    ],
    "openDaysNote": ""
  },
  {
    "id": "3671501579",
    "name": "こもれびデイサービス",
    "kana": "コモレビデイサービス",
    "address": "徳島県板野郡上板町西分字滝ノ宮南50番1",
    "lat": 34.1327247,
    "lng": 134.4235381,
    "tel": "088⁻694-5603",
    "url": "",
    "pref": "徳島県",
    "city": "上板町",
    "category": "day_service",
    "serviceType": "通所介護",
    "capacity": 0,
    "openDays": [
      "平日",
      "土曜日",
      "祝日"
    ],
    "openDaysNote": "12月30日から1月3日迄を除く"
  },
  {
    "id": "3671500076",
    "name": "デイサービスセンターあおば苑",
    "kana": "デイサービスセンターアオバエン",
    "address": "徳島県板野郡上板町西分字橋西1番地10",
    "lat": 34.1195179,
    "lng": 134.4176475,
    "tel": "088-637-6622",
    "url": "http://aobagroup.net/",
    "pref": "徳島県",
    "city": "上板町",
    "category": "day_service",
    "serviceType": "通所介護",
    "capacity": 0,
    "openDays": [
      "平日",
      "祝日"
    ],
    "openDaysNote": "台風や大雨による非常災害時や積雪及び新型コロナウイルス等の感染症などにより安全な営業が出来ない場合には休業の可能性がある。"
  },
  {
    "id": "3671501827",
    "name": "デイサービスほほ笑み",
    "kana": "デイサービスホホエミ",
    "address": "徳島県板野郡上板町泉谷字原地８３番地",
    "lat": 34.1334178016595,
    "lng": 134.394689821514,
    "tel": "080-8633-2127",
    "url": "",
    "pref": "徳島県",
    "city": "上板町",
    "category": "day_service",
    "serviceType": "通所介護",
    "capacity": 0,
    "openDays": [
      "平日",
      "日曜日",
      "祝日"
    ],
    "openDaysNote": "※365日24時間連絡対応可能"
  },
  {
    "id": "3671500498",
    "name": "リハビリ・デイサービス　こころ",
    "kana": "リハビリ・デイサービス　ココロ",
    "address": "徳島県板野郡上板町西分字山下12-3",
    "lat": 34.1323608,
    "lng": 134.4261323,
    "tel": "088-694-8210",
    "url": "",
    "pref": "徳島県",
    "city": "上板町",
    "category": "day_service",
    "serviceType": "通所介護",
    "capacity": 0,
    "openDays": [
      "平日",
      "祝日"
    ],
    "openDaysNote": ""
  },
  {
    "id": "3671500191",
    "name": "上板町社会福祉協議会デイサービスセンター",
    "kana": "カミイタチョウシャカイフクシキョウギカイデイサービスセンター",
    "address": "徳島県板野郡上板町西分字橋西1-11",
    "lat": 34.119108,
    "lng": 134.4176991,
    "tel": "088-694-6155",
    "url": "",
    "pref": "徳島県",
    "city": "上板町",
    "category": "day_service",
    "serviceType": "通所介護",
    "capacity": null,
    "openDays": [
      "平日"
    ],
    "openDaysNote": ""
  },
  {
    "id": "3671200024",
    "name": "神山すだち園デイサービスセンター",
    "kana": "カミヤマスダチエンデイサービスセンター",
    "address": "阿野字長谷335",
    "lat": 34.0497569,
    "lng": 134.4169731,
    "tel": "088-678-1131",
    "url": "http://www.yuseikai.net/fukushikai.htm",
    "pref": "徳島県",
    "city": "神山町",
    "category": "day_service",
    "serviceType": "通所介護",
    "capacity": 0,
    "openDays": [
      "平日",
      "祝日"
    ],
    "openDaysNote": ""
  },
  {
    "id": "3671200354",
    "name": "神山町デイサービスセンター",
    "kana": "カミヤマチョウデイサービスセンター",
    "address": "徳島県名西郡神山町神領字西上角127番地",
    "lat": 33.9742763,
    "lng": 134.3661754,
    "tel": "（088）676-1180",
    "url": "http://www.yuseikai.net/fukushikai.htm",
    "pref": "徳島県",
    "city": "神山町",
    "category": "day_service",
    "serviceType": "通所介護",
    "capacity": 25,
    "openDays": [
      "平日",
      "土曜日",
      "祝日"
    ],
    "openDaysNote": ""
  },
  {
    "id": "3671200198",
    "name": "あい介護福祉サービス有限会社",
    "kana": "アイカイゴフクシサービスユウゲンカイシャ",
    "address": "徳島県名西郡石井町石井字重松680番地の１",
    "lat": 34.0733096,
    "lng": 134.4350157,
    "tel": "088-675-3530",
    "url": "http://www.ai-kaigo.jp/",
    "pref": "徳島県",
    "city": "石井町",
    "category": "day_service",
    "serviceType": "通所介護",
    "capacity": 19,
    "openDays": [
      "平日",
      "祝日"
    ],
    "openDaysNote": "緊急時は延長します。"
  },
  {
    "id": "3671200537",
    "name": "デイサービスくつろぎ",
    "kana": "デイサービスクツロギ",
    "address": "徳島県名西郡浦庄字上浦524-10",
    "lat": 34.069574,
    "lng": 134.408733,
    "tel": "088-674-6210",
    "url": "www.mima-gr.jp-kutsurogi/index.html.",
    "pref": "徳島県",
    "city": "石井町",
    "category": "day_service",
    "serviceType": "通所介護",
    "capacity": 20,
    "openDays": [
      "平日",
      "土曜日",
      "日曜日",
      "祝日"
    ],
    "openDaysNote": "年末年始の休業日は、変更する場合があります。"
  },
  {
    "id": "3671200578",
    "name": "デイサービスセンターリン",
    "kana": "デイサービスセンターリン",
    "address": "徳島県名西郡石井町浦庄字下浦341番地1",
    "lat": 34.0682668,
    "lng": 134.412106,
    "tel": "088-661-3087",
    "url": "",
    "pref": "徳島県",
    "city": "石井町",
    "category": "day_service",
    "serviceType": "通所介護",
    "capacity": null,
    "openDays": [
      "平日",
      "土曜日"
    ],
    "openDaysNote": "5月3日～5月5日、8月11日～8月15日、12月29日～1月3日の休みは振替日は設けないこととする。"
  },
  {
    "id": "3671200420",
    "name": "デイサービスセンター気延の里",
    "kana": "デイサービスセンターキノベノサト",
    "address": "徳島県名西郡石井町石井字石井1994番地",
    "lat": 34.0593363,
    "lng": 134.4474729,
    "tel": "088-678-5252",
    "url": "",
    "pref": "徳島県",
    "city": "石井町",
    "category": "day_service",
    "serviceType": "通所介護",
    "capacity": 0,
    "openDays": [
      "平日",
      "土曜日",
      "日曜日",
      "祝日"
    ],
    "openDaysNote": ""
  },
  {
    "id": "3671200016",
    "name": "デイサービスセンター藤の里",
    "kana": "デイサービスセンターフジノサト",
    "address": "徳島県名西郡石井町藍畑字東覚円103－1デイサービスセンター藤の里 デイサービスセンター藤の里",
    "lat": 34.0959708,
    "lng": 134.4357101,
    "tel": "088－674－8680",
    "url": "http://www.yuseikai.net",
    "pref": "徳島県",
    "city": "石井町",
    "category": "day_service",
    "serviceType": "通所介護",
    "capacity": 0,
    "openDays": [
      "平日",
      "土曜日",
      "祝日"
    ],
    "openDaysNote": ""
  },
  {
    "id": "3671200511",
    "name": "デイサービスともに",
    "kana": "デイサービストモニ",
    "address": "徳島県名西郡石井町藍畑字高畑1028番地3",
    "lat": 34.0916649,
    "lng": 134.4406923,
    "tel": "088-635-9280",
    "url": "https://www.tomoni-dayservice.com/",
    "pref": "徳島県",
    "city": "石井町",
    "category": "day_service",
    "serviceType": "通所介護",
    "capacity": 0,
    "openDays": [
      "平日"
    ],
    "openDaysNote": ""
  },
  {
    "id": "3671200586",
    "name": "デイサービスバイエルン",
    "kana": "デイサービスバイエルン",
    "address": "徳島県名西郡石井町石井字石井1336-7",
    "lat": 34.0659564,
    "lng": 134.4381391,
    "tel": "088-678-2630",
    "url": "https://nijinohashikaigo.com/day-service/",
    "pref": "徳島県",
    "city": "石井町",
    "category": "day_service",
    "serviceType": "通所介護",
    "capacity": 0,
    "openDays": [
      "平日",
      "土曜日",
      "日曜日",
      "祝日"
    ],
    "openDaysNote": "夢ビレッジネルトリンゲン内併設"
  },
  {
    "id": "3671200396",
    "name": "デイセンター上総介",
    "kana": "デイセンターカズサノスケ",
    "address": "徳島県名西郡石井町石井字重松208番地1",
    "lat": 34.0705098807494,
    "lng": 134.435439652115,
    "tel": "088-679-7777",
    "url": "http://www.kenshokai.group/",
    "pref": "徳島県",
    "city": "石井町",
    "category": "day_service",
    "serviceType": "通所介護",
    "capacity": 40,
    "openDays": [
      "平日",
      "土曜日",
      "日曜日",
      "祝日"
    ],
    "openDaysNote": "台風・積雪等の天候状況が極めて悪い時は休日とします。"
  },
  {
    "id": "3671200032",
    "name": "デイハウス　青藍",
    "kana": "デイハウス　セイラン",
    "address": "徳島県石井町高原字中須８番地１デイハウス　青藍 デイハウス　青藍",
    "lat": 34.084411,
    "lng": 134.4003973,
    "tel": "０８８－６７４－７９８９",
    "url": "http://seiranso.com/",
    "pref": "徳島県",
    "city": "石井町",
    "category": "day_service",
    "serviceType": "通所介護",
    "capacity": 10,
    "openDays": [
      "平日",
      "土曜日",
      "祝日"
    ],
    "openDaysNote": "カレンダーの都合や行事等により土曜日営業することがあります"
  },
  {
    "id": "3671200529",
    "name": "とおりゃんせ",
    "kana": "トオリャンセ",
    "address": "徳島県名西郡石井町藍畑字高畑166の1",
    "lat": 34.0948433993683,
    "lng": 134.449687398908,
    "tel": "088-675-2861",
    "url": "akanenowa.com",
    "pref": "徳島県",
    "city": "石井町",
    "category": "day_service",
    "serviceType": "通所介護",
    "capacity": 19,
    "openDays": [
      "平日",
      "土曜日",
      "祝日"
    ],
    "openDaysNote": "日曜日は、介護保険での利用は出来ないが、「おるすばんハウス」と名の付く独自の預かりサービスを行っています。また、営業時間外での早朝からの利用、夜間までの利用も可能です。"
  },
  {
    "id": "3671200487",
    "name": "医療法人青鳳会　デイサービスくつろぎ",
    "kana": "イリョウホウジンセイホウカイ　デイサービスクツロギ",
    "address": "徳島県名西郡石井町浦庄字上浦524-10デイサービスくつろぎ デイサービスくつろぎ",
    "lat": 34.0694323,
    "lng": 134.4087352,
    "tel": "088-674-6210",
    "url": "",
    "pref": "徳島県",
    "city": "石井町",
    "category": "day_service",
    "serviceType": "通所介護",
    "capacity": 0,
    "openDays": [
      "平日",
      "土曜日",
      "日曜日",
      "祝日"
    ],
    "openDaysNote": "延長サービス有（改行）宿泊サービス有"
  },
  {
    "id": "3671200099",
    "name": "石井デイサ－ビスセンタ－",
    "kana": "イシイデイサ－ビスセンタ－",
    "address": "徳島県名西郡石井町高川原字天神７２５－１",
    "lat": 34.0804671,
    "lng": 134.4398681,
    "tel": "０８８－６７４－７６７２",
    "url": "http://www11.ocn.ne.jp/yuseien/",
    "pref": "徳島県",
    "city": "石井町",
    "category": "day_service",
    "serviceType": "通所介護",
    "capacity": 0,
    "openDays": [
      "平日",
      "土曜日",
      "祝日"
    ],
    "openDaysNote": "状況に応じて定休日も営業実施。"
  },
  {
    "id": "3671900508",
    "name": "(有)優心　デイサービスいろり",
    "kana": "ユウゲンガイシャ　ユウシン　デイサービスイロリ",
    "address": "徳島県三好郡東みよし町足代字小原4590番地3",
    "lat": 34.0556045,
    "lng": 133.900743,
    "tel": "0883-87-7778",
    "url": "",
    "pref": "徳島県",
    "city": "東みよし町",
    "category": "day_service",
    "serviceType": "通所介護",
    "capacity": 24,
    "openDays": [
      "平日",
      "土曜日",
      "祝日"
    ],
    "openDaysNote": "年末年始12月30日から1月3日。"
  },
  {
    "id": "3671900094",
    "name": "デイセンターバタフライ",
    "kana": "デイセンターバタフライ",
    "address": "徳島県三好郡東みよし町中庄1653番地1",
    "lat": 34.0341557,
    "lng": 133.9608188,
    "tel": "0883－82－3601",
    "url": "http://www.kenshokai.group/",
    "pref": "徳島県",
    "city": "東みよし町",
    "category": "day_service",
    "serviceType": "通所介護",
    "capacity": 30,
    "openDays": [
      "平日",
      "土曜日",
      "祝日"
    ],
    "openDaysNote": "天災やその他やむを得ず業務を遂行出来ない日は休日とする。"
  },
  {
    "id": "3671900425",
    "name": "東みよし町デイサービスセンターおおぐす荘",
    "kana": "ヒガシミヨシチョウデイサービスセンターオオグスソウ",
    "address": "徳島県三好郡東みよし町西庄字横手70",
    "lat": 34.043435,
    "lng": 133.9397872,
    "tel": "0883-82-1031",
    "url": "http://shakyo.ict-tokushima.jp/higashimiyoshi/",
    "pref": "徳島県",
    "city": "東みよし町",
    "category": "day_service",
    "serviceType": "通所介護",
    "capacity": 0,
    "openDays": [
      "平日"
    ],
    "openDaysNote": ""
  },
  {
    "id": "3671900433",
    "name": "東みよし町デイサービスセンターさざんか荘",
    "kana": "ヒガシミヨシチョウデイサービスセンターサザンカソウ",
    "address": "徳島県三好郡東みよし町足代2979",
    "lat": 34.0463152,
    "lng": 133.9086152,
    "tel": "0883-79-5855",
    "url": "http://shakyo.ict-tokushima.jp/higashimiyoshi/",
    "pref": "徳島県",
    "city": "東みよし町",
    "category": "day_service",
    "serviceType": "通所介護",
    "capacity": 0,
    "openDays": [
      "平日"
    ],
    "openDaysNote": ""
  },
  {
    "id": "3670105372",
    "name": "RACケアスタジオ",
    "kana": "ラックケアスタジオ",
    "address": "徳島県徳島市安宅2丁目4-19",
    "lat": 34.0685139,
    "lng": 134.5744087,
    "tel": "088-602-7134",
    "url": "https://www.crea-care.com/rac-care-studio/",
    "pref": "徳島県",
    "city": "徳島市",
    "category": "day_service",
    "serviceType": "通所介護",
    "capacity": 20,
    "openDays": [
      "平日",
      "祝日"
    ],
    "openDaysNote": "祝日営業はGW、夏季、冬季を除く。"
  },
  {
    "id": "3670105034",
    "name": "Ｔｓｕｄａ－Ｍａｃｈｉ－Ｋｉｔｃｈｅｎ",
    "kana": "ツダマチキッチン",
    "address": "徳島市津田本町2丁目3番地の57Tsuda-Machi-Kitchen Tsuda-Machi-Kitchen",
    "lat": 34.0499972,
    "lng": 134.5784737,
    "tel": "088-635-1295",
    "url": "ｈｔｔｐ：//ｗｗｗ．ａｓａｇａｏ-ｆｕｋｕｓｈｉｋａｉ．ｊｐ",
    "pref": "徳島県",
    "city": "徳島市",
    "category": "day_service",
    "serviceType": "通所介護",
    "capacity": 0,
    "openDays": [
      "平日",
      "土曜日",
      "祝日"
    ],
    "openDaysNote": "なし"
  },
  {
    "id": "3610124350",
    "name": "あいじつデイサービス",
    "kana": "アイジツデイサービス",
    "address": "徳島県徳島市佐古五番町2番18号",
    "lat": 34.0775631000001,
    "lng": 134.5305264,
    "tel": "088-611-1560",
    "url": "https://youaijitsu.com",
    "pref": "徳島県",
    "city": "徳島市",
    "category": "day_service",
    "serviceType": "通所介護",
    "capacity": 35,
    "openDays": [
      "平日",
      "土曜日",
      "祝日"
    ],
    "openDaysNote": ""
  },
  {
    "id": "3670103195",
    "name": "エクセレント雅",
    "kana": "エクセレントミヤビ",
    "address": "徳島県徳島市両国本町１丁目１３エクセレント両国ガーデンヒルズ エクセレント両国ガーデンヒルズ",
    "lat": 34.070609,
    "lng": 134.5523329,
    "tel": "０８８－６３５－０３０１",
    "url": "http://www.excare.co.jp/",
    "pref": "徳島県",
    "city": "徳島市",
    "category": "day_service",
    "serviceType": "通所介護",
    "capacity": 0,
    "openDays": [
      "平日",
      "土曜日",
      "祝日"
    ],
    "openDaysNote": "１　火気の取り扱いには十分注意し、所定の場所以外での喫煙の禁止（改行）２　事業所内の機器の使用に当たっては、常に適切な使用に努める。（改行）３　その他、他の利用者の迷惑となる行為又は事業の適切な運営に支障をきたすような行為は現に慎むこ　　と。"
  },
  {
    "id": "3670103708",
    "name": "おかがわ内科デイサービス大和",
    "kana": "オカガワナイカデイサービスヤマト",
    "address": "徳島市川内町平石夷野２４番地",
    "lat": 34.1211586,
    "lng": 134.5762543,
    "tel": "886663966",
    "url": "http://www.okagawah.com",
    "pref": "徳島県",
    "city": "徳島市",
    "category": "day_service",
    "serviceType": "通所介護",
    "capacity": 0,
    "openDays": [
      "平日",
      "土曜日",
      "日曜日",
      "祝日"
    ],
    "openDaysNote": ""
  },
  {
    "id": "3670103492",
    "name": "おかがわ内科デイサービス中徳島の家",
    "kana": "オカガワナイカデイサービスナカトクシマノイエ",
    "address": "徳島市中徳島二丁目８番地",
    "lat": 34.0732755,
    "lng": 134.5594044,
    "tel": "088-622-2255",
    "url": "http://www.okagawah.com",
    "pref": "徳島県",
    "city": "徳島市",
    "category": "day_service",
    "serviceType": "通所介護",
    "capacity": 25,
    "openDays": [
      "平日",
      "土曜日"
    ],
    "openDaysNote": ""
  },
  {
    "id": "3670105265",
    "name": "カメリアデイサービス",
    "kana": "カメリアデイサービス",
    "address": "徳島県徳島市昭和町8丁目48-30有料老人ホームカメリア　1階 有料老人ホームカメリア　1階",
    "lat": 34.0570137,
    "lng": 134.5694711,
    "tel": "088-622-0158",
    "url": "https://ichie-kizuna.or.jp",
    "pref": "徳島県",
    "city": "徳島市",
    "category": "day_service",
    "serviceType": "通所介護",
    "capacity": 0,
    "openDays": [
      "平日",
      "祝日"
    ],
    "openDaysNote": "月に土日が10回ある月はうち1日を営業日とする。"
  },
  {
    "id": "3670103203",
    "name": "クレア城南デイサービス",
    "kana": "クレアジョウナンデイサービス",
    "address": "徳島県徳島市八万町上福万170番30",
    "lat": 34.0541102,
    "lng": 134.5282879,
    "tel": "088-679-8511",
    "url": "www.crea-care.com",
    "pref": "徳島県",
    "city": "徳島市",
    "category": "day_service",
    "serviceType": "通所介護",
    "capacity": 0,
    "openDays": [
      "平日",
      "土曜日",
      "祝日"
    ],
    "openDaysNote": ""
  },
  {
    "id": "3670102999",
    "name": "サービス付き高齢者向け住宅　クレア城ノ内",
    "kana": "クレアジョウノウチ",
    "address": "北田宮２丁目８−８クレア城ノ内 クレア城ノ内",
    "lat": 34.0904397,
    "lng": 134.5439914,
    "tel": "088-678-9851",
    "url": "http://www.crea-care.com/",
    "pref": "徳島県",
    "city": "徳島市",
    "category": "day_service",
    "serviceType": "通所介護",
    "capacity": 45,
    "openDays": [
      "平日",
      "土曜日",
      "日曜日",
      "祝日"
    ],
    "openDaysNote": ""
  },
  {
    "id": "3670103682",
    "name": "サカイリハトレセンター",
    "kana": "サカイリハトレセンター",
    "address": "徳島県徳島市国府町桜間字銭亀33-3",
    "lat": 34.085347,
    "lng": 134.4641798,
    "tel": "088-677-3123",
    "url": "",
    "pref": "徳島県",
    "city": "徳島市",
    "category": "day_service",
    "serviceType": "通所介護",
    "capacity": 26,
    "openDays": [
      "平日"
    ],
    "openDaysNote": ""
  },
  {
    "id": "3610123568",
    "name": "すずえ通所介護",
    "kana": "スズエツウショカイゴ",
    "address": "徳島市佐古八番町４－２０",
    "lat": 34.0775129,
    "lng": 134.5225493,
    "tel": "088-652-3120",
    "url": "http://www.suzue/jp",
    "pref": "徳島県",
    "city": "徳島市",
    "category": "day_service",
    "serviceType": "通所介護",
    "capacity": 0,
    "openDays": [
      "平日",
      "土曜日",
      "祝日"
    ],
    "openDaysNote": ""
  },
  {
    "id": "3670105547",
    "name": "ツクイ徳島西須賀",
    "kana": "ツクイトクシマニシズカ",
    "address": "徳島県徳島市西須賀町下中須84-18",
    "lat": 34.0330054,
    "lng": 134.5468985,
    "tel": "088-669-6446",
    "url": "https://www.tsukui.net",
    "pref": "徳島県",
    "city": "徳島市",
    "category": "day_service",
    "serviceType": "通所介護",
    "capacity": 0,
    "openDays": [
      "平日",
      "土曜日",
      "日曜日",
      "祝日"
    ],
    "openDaysNote": ""
  },
  {
    "id": "3670105562",
    "name": "ツクイ徳島田宮",
    "kana": "ツクイトクシマタミヤ",
    "address": "徳島県徳島市北田宮1-7-17",
    "lat": 34.0885521,
    "lng": 134.5452508,
    "tel": "088-634-2616",
    "url": "https://www.tsukui.net",
    "pref": "徳島県",
    "city": "徳島市",
    "category": "day_service",
    "serviceType": "通所介護",
    "capacity": null,
    "openDays": [
      "平日",
      "土曜日",
      "日曜日",
      "祝日"
    ],
    "openDaysNote": ""
  },
  {
    "id": "3670104672",
    "name": "デイサービス　えがお",
    "kana": "デイサービス　エガオ",
    "address": "徳島県徳島市津田本町二丁目２番３０号",
    "lat": 34.0498364,
    "lng": 134.577272,
    "tel": "０８８－６７８－６６７０",
    "url": "",
    "pref": "徳島県",
    "city": "徳島市",
    "category": "day_service",
    "serviceType": "通所介護",
    "capacity": 0,
    "openDays": [
      "平日",
      "土曜日",
      "祝日"
    ],
    "openDaysNote": "営業日は月曜から土曜日までです。１２月３０日から１月３日までは除きます。（改行）営業時間は午前８時３０分から午後５時３０まで、なお、電話等により常時連絡可能です"
  },
  {
    "id": "3670105695",
    "name": "デイサービス　ツェルマット",
    "kana": "デイサービス　ツェルマット",
    "address": "徳島県徳島市中島田町3丁目60番地1",
    "lat": 34.0838904,
    "lng": 134.5104645,
    "tel": "088-612-7035",
    "url": "http://www.nijinohashi.net/",
    "pref": "徳島県",
    "city": "徳島市",
    "category": "day_service",
    "serviceType": "通所介護",
    "capacity": 0,
    "openDays": [
      "平日",
      "土曜日",
      "日曜日",
      "祝日"
    ],
    "openDaysNote": ""
  },
  {
    "id": "3670105711",
    "name": "デイサービス　ベルゲン",
    "kana": "デイサービス　ベルゲン",
    "address": "徳島県徳島市中島田町3丁目60番地3",
    "lat": 34.0845052,
    "lng": 134.5114854,
    "tel": "088-634-4110",
    "url": "nijinohashikaigo.com",
    "pref": "徳島県",
    "city": "徳島市",
    "category": "day_service",
    "serviceType": "通所介護",
    "capacity": 35,
    "openDays": [
      "平日",
      "土曜日",
      "日曜日",
      "祝日"
    ],
    "openDaysNote": ""
  },
  {
    "id": "3670104904",
    "name": "デイサービス　まどか",
    "kana": "デイサービス　マドカ",
    "address": "徳島県徳島市南庄町4丁目41番地２",
    "lat": 34.0714970405093,
    "lng": 134.508658565746,
    "tel": "088-633-8733",
    "url": "www.matsunaga-hp.jp",
    "pref": "徳島県",
    "city": "徳島市",
    "category": "day_service",
    "serviceType": "通所介護",
    "capacity": 20,
    "openDays": [
      "平日",
      "土曜日",
      "日曜日",
      "祝日"
    ],
    "openDaysNote": "お盆・年末年始休業（改行）午前9:30～12:30(3時間制）（改行）午後13:30～16:30(3時間制)（改行）水曜日土曜日午前中利用時間内にプールリハビリ1時間実施(但し、松永病院休診日は利用中止）"
  },
  {
    "id": "3670105687",
    "name": "デイサービス　ロワール",
    "kana": "デイサービス　ロワール",
    "address": "徳島県徳島市佐古二番町6-9虹の橋ガーデン2階 虹の橋ガーデン2階",
    "lat": 34.0773507,
    "lng": 134.5375716,
    "tel": "088-602-7626",
    "url": "https://nijinohashikaigo.com/service/",
    "pref": "徳島県",
    "city": "徳島市",
    "category": "day_service",
    "serviceType": "通所介護",
    "capacity": 0,
    "openDays": [
      "平日",
      "土曜日",
      "日曜日",
      "祝日"
    ],
    "openDaysNote": ""
  },
  {
    "id": "3670104367",
    "name": "デイサービス　天満ウェルネス二軒屋",
    "kana": "デイサービステンマウェルネスニケンヤ",
    "address": "徳島県徳島市南二軒屋町1丁目1－16",
    "lat": 34.0555104,
    "lng": 134.5466279,
    "tel": "088-678-2010",
    "url": "https://tenma-hpg.com/roujinhome/welnessnikenya/",
    "pref": "徳島県",
    "city": "徳島市",
    "category": "day_service",
    "serviceType": "通所介護",
    "capacity": 25,
    "openDays": [
      "平日",
      "土曜日",
      "日曜日",
      "祝日"
    ],
    "openDaysNote": "１年を通して営業をしておりますが、悪天候により、送迎が出来ない等があれば、ご利用を控えさせていただく場合がございます。"
  },
  {
    "id": "3670103880",
    "name": "デイサービス　遊",
    "kana": "デイサービス　ユウ",
    "address": "徳島市佐古六番町9番3号サービス付き高齢者向け住宅　遊 サービス付き高齢者向け住宅　遊",
    "lat": 34.079349,
    "lng": 134.5294931,
    "tel": "088-624-8880",
    "url": "http://yoshinari-kai.jp",
    "pref": "徳島県",
    "city": "徳島市",
    "category": "day_service",
    "serviceType": "通所介護",
    "capacity": 0,
    "openDays": [
      "平日",
      "土曜日",
      "祝日"
    ],
    "openDaysNote": "台風接近時、災害時等は利用者の安全を優先して休む場合もあります。"
  },
  {
    "id": "3670104821",
    "name": "デイサービスあじさいのもり",
    "kana": "デイサービスアジサイノモリ",
    "address": "徳島県徳島市南矢三町3丁目3-47",
    "lat": 34.0845176,
    "lng": 134.521963,
    "tel": "088-634-2055",
    "url": "",
    "pref": "徳島県",
    "city": "徳島市",
    "category": "day_service",
    "serviceType": "通所介護",
    "capacity": 20,
    "openDays": [
      "平日",
      "土曜日",
      "祝日"
    ],
    "openDaysNote": ""
  },
  {
    "id": "3670105224",
    "name": "デイサービスあじさいのもり",
    "kana": "デイサービスアジサイノモリ",
    "address": "徳島県徳島市南矢三町3丁目3番47号",
    "lat": 34.0839404,
    "lng": 134.5217885,
    "tel": "088-634-2055",
    "url": "",
    "pref": "徳島県",
    "city": "徳島市",
    "category": "day_service",
    "serviceType": "通所介護",
    "capacity": 0,
    "openDays": [
      "平日",
      "土曜日",
      "祝日"
    ],
    "openDaysNote": ""
  },
  {
    "id": "3670104615",
    "name": "デイサービスおこしやす",
    "kana": "デイサービスオコシヤス",
    "address": "徳島市南昭和町一丁目９番地７井村ビル１階 井村ビル１階",
    "lat": 34.059546265109,
    "lng": 134.555913957672,
    "tel": "088-678-9088",
    "url": "https://linkle-group.co.jp/",
    "pref": "徳島県",
    "city": "徳島市",
    "category": "day_service",
    "serviceType": "通所介護",
    "capacity": 32,
    "openDays": [
      "平日",
      "土曜日",
      "祝日"
    ],
    "openDaysNote": ""
  },
  {
    "id": "3670102585",
    "name": "デイサービスグランリバー",
    "kana": "デイサービスグランリバー",
    "address": "徳島県徳島市方上町中須賀31番地1",
    "lat": 34.0271274,
    "lng": 134.5391759,
    "tel": "088-678-7112",
    "url": "http://grandforest.co.jp",
    "pref": "徳島県",
    "city": "徳島市",
    "category": "day_service",
    "serviceType": "通所介護",
    "capacity": 0,
    "openDays": [
      "平日",
      "祝日"
    ],
    "openDaysNote": ""
  },
  {
    "id": "3670102411",
    "name": "デイサービスセンター　エクセレント鹿鳴館",
    "kana": "デイサービスセンター　エクセレントロクメイカン",
    "address": "徳島県徳島市南昭和町1丁目35の1徳島エグゼクティブタワー２階 徳島エグゼクティブタワー２階",
    "lat": 34.0574175872673,
    "lng": 134.555010601852,
    "tel": "０８８－６１１－５２５５",
    "url": "htpp://www.excare.co.jp",
    "pref": "徳島県",
    "city": "徳島市",
    "category": "day_service",
    "serviceType": "通所介護",
    "capacity": 28,
    "openDays": [
      "平日",
      "土曜日",
      "祝日"
    ],
    "openDaysNote": ""
  },
  {
    "id": "3670105984",
    "name": "デイサービスセンター　きずな",
    "kana": "デイサービスセンター　キズナ",
    "address": "丈六町小谷46番地1",
    "lat": 34.0141533931264,
    "lng": 134.547725097762,
    "tel": "088-676-3325",
    "url": "https://www.jonanh.com/",
    "pref": "徳島県",
    "city": "徳島市",
    "category": "day_service",
    "serviceType": "通所介護",
    "capacity": 35,
    "openDays": [
      "平日",
      "土曜日",
      "祝日"
    ],
    "openDaysNote": ""
  },
  {
    "id": "3670102262",
    "name": "デイサービスセンター　ゆうき",
    "kana": "デイサービスセンター　ユウキ",
    "address": "徳島県徳島市庄町2丁目２２－１",
    "lat": 34.0761045,
    "lng": 134.5115151,
    "tel": "088-632-8650",
    "url": "",
    "pref": "徳島県",
    "city": "徳島市",
    "category": "day_service",
    "serviceType": "通所介護",
    "capacity": 30,
    "openDays": [
      "平日",
      "土曜日"
    ],
    "openDaysNote": ""
  },
  {
    "id": "3670104961",
    "name": "デイサービスセンター　花みずき",
    "kana": "デイサービスセンター　ハナミズキ",
    "address": "徳島市佐古四番町４－７佐古グループホーム　　デイサービスセンター花みずき 佐古グループホーム　　デイサービスセンター花みずき",
    "lat": 34.0773447789137,
    "lng": 134.533586213817,
    "tel": "088-611-3537",
    "url": "http://www.hikari-medical.com",
    "pref": "徳島県",
    "city": "徳島市",
    "category": "day_service",
    "serviceType": "通所介護",
    "capacity": 7,
    "openDays": [
      "平日",
      "土曜日",
      "祝日"
    ],
    "openDaysNote": ""
  },
  {
    "id": "3670104094",
    "name": "デイサービスセンターアイナ",
    "kana": "デイサービスセンターアイナ",
    "address": "徳島県徳島市大原町千代ヶ丸146番地",
    "lat": 34.0281804,
    "lng": 134.5689563,
    "tel": "088-663-0750",
    "url": "http://www.doushisya.jp/",
    "pref": "徳島県",
    "city": "徳島市",
    "category": "day_service",
    "serviceType": "通所介護",
    "capacity": 0,
    "openDays": [
      "平日",
      "土曜日",
      "日曜日",
      "祝日"
    ],
    "openDaysNote": ""
  },
  {
    "id": "3670102882",
    "name": "デイサービスセンターあすなろ",
    "kana": "デイサービスセンターアスナロ",
    "address": "徳島県徳島市城東町二丁目６番２９号",
    "lat": 34.0738449,
    "lng": 134.5752919,
    "tel": "０８８－６２５－２６２０",
    "url": "ichiyou-kai.com",
    "pref": "徳島県",
    "city": "徳島市",
    "category": "day_service",
    "serviceType": "通所介護",
    "capacity": 20,
    "openDays": [
      "平日"
    ],
    "openDaysNote": ""
  },
  {
    "id": "3670105133",
    "name": "デイサービスセンターイツモスマイル",
    "kana": "デイサービスセンターイツモスマイル",
    "address": "徳島県徳島市北田宮1丁目7-19",
    "lat": 34.0888667800574,
    "lng": 134.546178627291,
    "tel": "088-678-2565",
    "url": "http://itsumosmile.jp/",
    "pref": "徳島県",
    "city": "徳島市",
    "category": "day_service",
    "serviceType": "通所介護",
    "capacity": 0,
    "openDays": [
      "平日",
      "土曜日",
      "祝日"
    ],
    "openDaysNote": "※365日24時間連絡対応可能"
  },
  {
    "id": "3670105505",
    "name": "デイサービスセンターかなで",
    "kana": "デイサービスセンターカナデ",
    "address": "徳島県徳島市川内町北原78番地2",
    "lat": 34.1024244765101,
    "lng": 134.565252315993,
    "tel": "088-602-7901",
    "url": "",
    "pref": "徳島県",
    "city": "徳島市",
    "category": "day_service",
    "serviceType": "通所介護",
    "capacity": 0,
    "openDays": [
      "平日",
      "祝日"
    ],
    "openDaysNote": ""
  },
  {
    "id": "3670102312",
    "name": "デイサービスセンターげんき",
    "kana": "デイサービスセンターゲンキ",
    "address": "徳島県徳島市応神町東貞方字諏訪ノ市１７２番地２",
    "lat": 34.111456,
    "lng": 134.5121912,
    "tel": "０８８－６４１－１１５６",
    "url": "http://daysevice-genki.net",
    "pref": "徳島県",
    "city": "徳島市",
    "category": "day_service",
    "serviceType": "通所介護",
    "capacity": 20,
    "openDays": [
      "平日",
      "土曜日",
      "祝日"
    ],
    "openDaysNote": ""
  },
  {
    "id": "3670104789",
    "name": "デイサービスセンターともだち倶楽部",
    "kana": "デイサービスセンタートモダチクラブ",
    "address": "徳島県徳島市中常三島町一丁目5番地2",
    "lat": 53.41291,
    "lng": -8.24388999999996,
    "tel": "088-623-3577",
    "url": "http://itsumosmile.jp/",
    "pref": "徳島県",
    "city": "徳島市",
    "category": "day_service",
    "serviceType": "通所介護",
    "capacity": 0,
    "openDays": [
      "平日",
      "土曜日",
      "祝日"
    ],
    "openDaysNote": "※365日24時間連絡対応可能"
  },
  {
    "id": "3670101967",
    "name": "デイサービスセンターわかば",
    "kana": "デイサービスセンターワカバ",
    "address": "徳島県徳島市新浜本町3丁目2-17",
    "lat": 34.0444896,
    "lng": 134.5679535,
    "tel": "088-663-6603",
    "url": "http://www.kondo-hp.com",
    "pref": "徳島県",
    "city": "徳島市",
    "category": "day_service",
    "serviceType": "通所介護",
    "capacity": 0,
    "openDays": [
      "平日",
      "祝日"
    ],
    "openDaysNote": "正月休み（1/1～1/2）"
  },
  {
    "id": "3670104599",
    "name": "デイサービスセンター恵西須賀",
    "kana": "デイサービスセンターケイニシスガ",
    "address": "徳島県徳島市西須賀町又新堤2-1",
    "lat": 53.41291,
    "lng": -8.24388999999996,
    "tel": "088-679-1152",
    "url": "http://itsumosmile.jp/",
    "pref": "徳島県",
    "city": "徳島市",
    "category": "day_service",
    "serviceType": "通所介護",
    "capacity": 0,
    "openDays": [
      "平日",
      "祝日"
    ],
    "openDaysNote": "※365日24時間連絡対応可能"
  },
  {
    "id": "3670103906",
    "name": "デイサービスセンター国府",
    "kana": "デイサービスセンターコクフ",
    "address": "徳島県徳島市国府町早淵734番地国府複合在宅支援施設　仁誠館 国府複合在宅支援施設　仁誠館",
    "lat": 34.0592771,
    "lng": 134.4831273,
    "tel": "088-624-8847",
    "url": "",
    "pref": "徳島県",
    "city": "徳島市",
    "category": "day_service",
    "serviceType": "通所介護",
    "capacity": 0,
    "openDays": [
      "平日",
      "土曜日",
      "祝日"
    ],
    "openDaysNote": ""
  },
  {
    "id": "3670104862",
    "name": "デイサービスセンター集",
    "kana": "デイサービスセンターツドイ",
    "address": "徳島県徳島市川内町富久102-3デイサービスセンター　集 デイサービスセンター　集",
    "lat": 34.1043832,
    "lng": 134.5922174,
    "tel": "088-665-3522",
    "url": "",
    "pref": "徳島県",
    "city": "徳島市",
    "category": "day_service",
    "serviceType": "通所介護",
    "capacity": 0,
    "openDays": [
      "平日",
      "土曜日",
      "祝日"
    ],
    "openDaysNote": ""
  },
  {
    "id": "3670103070",
    "name": "デイサービスセンター春水",
    "kana": "デイサービスセンターシュンスイ",
    "address": "徳島県徳島市名東町3丁目13高齢者住宅春水 高齢者住宅春水",
    "lat": 34.0587365,
    "lng": 134.495102,
    "tel": "088-634-2023",
    "url": "https://kawauchi-clinic.jp/shunsui",
    "pref": "徳島県",
    "city": "徳島市",
    "category": "day_service",
    "serviceType": "通所介護",
    "capacity": 0,
    "openDays": [
      "平日",
      "土曜日",
      "日曜日",
      "祝日"
    ],
    "openDaysNote": ""
  },
  {
    "id": "3670105083",
    "name": "デイサービスセンター松の実",
    "kana": "デイサービスセンターマツノミ",
    "address": "名東町3丁目15番地",
    "lat": 34.0587887,
    "lng": 134.4954055,
    "tel": "088-633-6681",
    "url": "http://kawauchi-clinc.jp/dayservice-matsunomi",
    "pref": "徳島県",
    "city": "徳島市",
    "category": "day_service",
    "serviceType": "通所介護",
    "capacity": 45,
    "openDays": [
      "平日",
      "土曜日",
      "日曜日",
      "祝日"
    ],
    "openDaysNote": ""
  },
  {
    "id": "3670105141",
    "name": "デイサービスセンター心笑",
    "kana": "デイサービスセンターココエ",
    "address": "徳島県徳島市蔵本町2丁目11番ダイバーシティビル3階 ダイバーシティビル3階",
    "lat": 34.0787718,
    "lng": 134.5191017,
    "tel": "088-660-5813",
    "url": "http://day-kokoe.jimdofree.com",
    "pref": "徳島県",
    "city": "徳島市",
    "category": "day_service",
    "serviceType": "通所介護",
    "capacity": 0,
    "openDays": [
      "平日",
      "土曜日",
      "祝日"
    ],
    "openDaysNote": ""
  },
  {
    "id": "3670100209",
    "name": "デイサービスセンター青香",
    "kana": "デイサービスセンターセイカ",
    "address": "徳島県徳島市川内町平石住吉183番地",
    "lat": 34.113915,
    "lng": 134.5859787,
    "tel": "088-665-8080",
    "url": "http://www.seikahukushikai.jp",
    "pref": "徳島県",
    "city": "徳島市",
    "category": "day_service",
    "serviceType": "通所介護",
    "capacity": 40,
    "openDays": [
      "平日",
      "土曜日",
      "祝日"
    ],
    "openDaysNote": ""
  },
  {
    "id": "3670103427",
    "name": "デイサービスセンター満福",
    "kana": "デイサービスセンターマンプク",
    "address": "徳島県徳島市東新町2丁目20番地銀座アビタシオン1階 銀座アビタシオン1階",
    "lat": 34.0687869,
    "lng": 134.549261,
    "tel": "088-679-6226",
    "url": "http://www.group-living.com/",
    "pref": "徳島県",
    "city": "徳島市",
    "category": "day_service",
    "serviceType": "通所介護",
    "capacity": 0,
    "openDays": [
      "平日",
      "日曜日",
      "祝日"
    ],
    "openDaysNote": ""
  },
  {
    "id": "3670104284",
    "name": "デイサービスセンター夢ガーデン",
    "kana": "デイサービスセンターユメガーデン",
    "address": "徳島県徳島市末広2丁目1番80号",
    "lat": 34.0642270681881,
    "lng": 134.573917742328,
    "tel": "088-678-8161",
    "url": "http://dreamer-service.org",
    "pref": "徳島県",
    "city": "徳島市",
    "category": "day_service",
    "serviceType": "通所介護",
    "capacity": 20,
    "openDays": [
      "平日",
      "土曜日",
      "日曜日",
      "祝日"
    ],
    "openDaysNote": ""
  },
  {
    "id": "3670103989",
    "name": "デイサービスセンター夢ファミリー",
    "kana": "デイサービスセンターユメファミリー",
    "address": "徳島県徳島市川内町榎瀬８２４－１号",
    "lat": 34.1067341,
    "lng": 134.5528785,
    "tel": "０８８－６２４－８７４１",
    "url": "http://dreamer-service.org",
    "pref": "徳島県",
    "city": "徳島市",
    "category": "day_service",
    "serviceType": "通所介護",
    "capacity": 0,
    "openDays": [
      "平日",
      "土曜日",
      "日曜日",
      "祝日"
    ],
    "openDaysNote": ""
  },
  {
    "id": "3670105513",
    "name": "デイサービスセンター夢フレンド",
    "kana": "デイサービスセンターユメフレンド",
    "address": "徳島県徳島市北佐古二番町5番22号",
    "lat": 34.0815921,
    "lng": 134.5353125,
    "tel": "088-633-0130",
    "url": "http://dreamer-service.org/",
    "pref": "徳島県",
    "city": "徳島市",
    "category": "day_service",
    "serviceType": "通所介護",
    "capacity": 0,
    "openDays": [
      "平日",
      "土曜日",
      "日曜日",
      "祝日"
    ],
    "openDaysNote": ""
  },
  {
    "id": "3670103120",
    "name": "デイサービスセンター浪漫",
    "kana": "デイサービスセンターロマン",
    "address": "徳島市国府町和田字居内52番地1",
    "lat": 34.0732096898755,
    "lng": 134.490876631248,
    "tel": "088-678-8996",
    "url": "https://roman-day.com",
    "pref": "徳島県",
    "city": "徳島市",
    "category": "day_service",
    "serviceType": "通所介護",
    "capacity": 0,
    "openDays": [
      "平日",
      "祝日"
    ],
    "openDaysNote": ""
  },
  {
    "id": "3670102916",
    "name": "デイサービスつぼみ",
    "kana": "デイサービスツボミ",
    "address": "徳島県徳島市富田橋５－１２－２",
    "lat": 34.0596767,
    "lng": 134.5508275,
    "tel": "０８８－６１２－８３３３",
    "url": "",
    "pref": "徳島県",
    "city": "徳島市",
    "category": "day_service",
    "serviceType": "通所介護",
    "capacity": 210,
    "openDays": [
      "平日",
      "土曜日",
      "祝日"
    ],
    "openDaysNote": ""
  },
  {
    "id": "3670101256",
    "name": "デイサービスとみだ",
    "kana": "デイサービストミダ",
    "address": "徳島県徳島市中昭和町３丁目４８番地の1",
    "lat": 34.0611406,
    "lng": 134.5593878,
    "tel": "088-602-2325",
    "url": "http://www.tomida.or.jp/dayservice",
    "pref": "徳島県",
    "city": "徳島市",
    "category": "day_service",
    "serviceType": "通所介護",
    "capacity": 60,
    "openDays": [
      "平日",
      "土曜日",
      "祝日"
    ],
    "openDaysNote": "12/31～1/3：休み"
  },
  {
    "id": "3670102635",
    "name": "デイサービスハリウッド",
    "kana": "デイサービス　ハリウッド",
    "address": "徳島県徳島市佐古二番町5-22",
    "lat": 34.077389456752,
    "lng": 134.539335486508,
    "tel": "088-678-3887",
    "url": "bevarlyhills@nijinohashi-net",
    "pref": "徳島県",
    "city": "徳島市",
    "category": "day_service",
    "serviceType": "通所介護",
    "capacity": 0,
    "openDays": [
      "平日",
      "土曜日",
      "日曜日",
      "祝日"
    ],
    "openDaysNote": ""
  },
  {
    "id": "3660190541",
    "name": "デイサービスゆめ",
    "kana": "デイサービスユメ",
    "address": "徳島県徳島市名東町１丁目９９－２住宅型有料老人ホームみんなのおうち 住宅型有料老人ホームみんなのおうち",
    "lat": 36.204824,
    "lng": 138.252924,
    "tel": "０８８－６３５－０１０２",
    "url": "https;//minnanoouti-mtk.com",
    "pref": "徳島県",
    "city": "徳島市",
    "category": "day_service",
    "serviceType": "通所介護",
    "capacity": 0,
    "openDays": [
      "平日",
      "祝日"
    ],
    "openDaysNote": ""
  },
  {
    "id": "3670103344",
    "name": "デイサービス阿波っ子",
    "kana": "デイサービスアワッコ",
    "address": "徳島県徳島市国府町和田字居内１０７番地",
    "lat": 34.0748938411681,
    "lng": 134.491077098811,
    "tel": "088-678-5553",
    "url": "tamaki-aozora.ne.jp",
    "pref": "徳島県",
    "city": "徳島市",
    "category": "day_service",
    "serviceType": "通所介護",
    "capacity": 0,
    "openDays": [
      "平日",
      "土曜日",
      "祝日"
    ],
    "openDaysNote": ""
  },
  {
    "id": "3670105968",
    "name": "デイサービス進取の気性",
    "kana": "デイサービスシンシュノキショウ",
    "address": "徳島県徳島市川内町金岡80-12",
    "lat": 34.098158,
    "lng": 134.5690776,
    "tel": "088-665-2560",
    "url": "",
    "pref": "徳島県",
    "city": "徳島市",
    "category": "day_service",
    "serviceType": "通所介護",
    "capacity": 0,
    "openDays": [
      "平日",
      "土曜日",
      "日曜日",
      "祝日"
    ],
    "openDaysNote": ""
  },
  {
    "id": "3670106081",
    "name": "デイサービス天満ウェルネス二軒屋",
    "kana": "デイサービステンマウェルネスニケンヤ",
    "address": "徳島県徳島市南二軒屋町1丁目1‐16",
    "lat": 34.0555134,
    "lng": 134.5466254,
    "tel": "088-678-2008",
    "url": "https://tenma-hpg.com/",
    "pref": "徳島県",
    "city": "徳島市",
    "category": "day_service",
    "serviceType": "通所介護",
    "capacity": 30,
    "openDays": [
      "平日",
      "土曜日",
      "祝日"
    ],
    "openDaysNote": "悪天候により、送迎が出来ない等があれば、ご利用を控えさせていただく場合がございます。"
  },
  {
    "id": "3670106040",
    "name": "デイサービス桃源郷",
    "kana": "デイサービストウゲンキョウ",
    "address": "徳島県徳島市上福万220番地8",
    "lat": 34.0503245,
    "lng": 134.5300824,
    "tel": "088--679-6615",
    "url": "",
    "pref": "徳島県",
    "city": "徳島市",
    "category": "day_service",
    "serviceType": "通所介護",
    "capacity": 0,
    "openDays": [
      "平日",
      "土曜日",
      "祝日"
    ],
    "openDaysNote": ""
  },
  {
    "id": "3670104896",
    "name": "デイサービス凛",
    "kana": "デイサービスリン",
    "address": "徳島県徳島市応神町西貞方字上奥66-4ライフオーベルジュ徳島・１階（デイサービス凛） ライフオーベルジュ徳島・１階（デイサービス凛）",
    "lat": 34.1132840215478,
    "lng": 134.50522749577,
    "tel": "088-676-4300",
    "url": "http://www.seijyukai-med.jp/",
    "pref": "徳島県",
    "city": "徳島市",
    "category": "day_service",
    "serviceType": "通所介護",
    "capacity": 20,
    "openDays": [
      "平日",
      "祝日"
    ],
    "openDaysNote": "●　悪天候等各種事情により中止する場合があります。"
  },
  {
    "id": "3670100803",
    "name": "デイセンターザトペック",
    "kana": "デイセンターザトペック",
    "address": "徳島県徳島市応神町古川字北36番地",
    "lat": 34.1067546,
    "lng": 134.5481072,
    "tel": "088-683-3603",
    "url": "https://www.kenshokai.group/",
    "pref": "徳島県",
    "city": "徳島市",
    "category": "day_service",
    "serviceType": "通所介護",
    "capacity": 30,
    "openDays": [
      "平日",
      "土曜日",
      "日曜日",
      "祝日"
    ],
    "openDaysNote": "年末年始及び台風・積雪等の天候状況の極めて悪いときは休日とすることができる。"
  },
  {
    "id": "3670102247",
    "name": "デイセンター一心太助",
    "kana": "デイセンターイッシンタスケ",
    "address": "徳島県徳島市南沖洲四丁目3番1号",
    "lat": 34.0597969599575,
    "lng": 134.589709969975,
    "tel": "088-664-1855",
    "url": "https://www.kenshokai.group/",
    "pref": "徳島県",
    "city": "徳島市",
    "category": "day_service",
    "serviceType": "通所介護",
    "capacity": 40,
    "openDays": [
      "平日",
      "土曜日",
      "祝日"
    ],
    "openDaysNote": "年末年始及び台風・積雪等の転記状況の極めて悪いときは休日とする場合がある。"
  },
  {
    "id": "3670103138",
    "name": "ニチイケアセンターおきのす",
    "kana": "ニチイケアセンターオキノス",
    "address": "徳島県徳島市北沖洲3丁目8番7-5号",
    "lat": 36.204824,
    "lng": 138.252924,
    "tel": "088-664-8233",
    "url": "http://nichiigakkan.co.jp",
    "pref": "徳島県",
    "city": "徳島市",
    "category": "day_service",
    "serviceType": "通所介護",
    "capacity": 0,
    "openDays": [
      "平日",
      "土曜日",
      "日曜日",
      "祝日"
    ],
    "openDaysNote": "時間外は携帯電話転送にて対応している"
  },
  {
    "id": "3670101611",
    "name": "ハートインライフ住吉",
    "kana": "ハートインライフスミヨシ",
    "address": "徳島県徳島市住吉２丁目９番地８",
    "lat": 34.0763687,
    "lng": 134.5678091,
    "tel": "088-602-4388",
    "url": "http://www.heartfulcare.jp",
    "pref": "徳島県",
    "city": "徳島市",
    "category": "day_service",
    "serviceType": "通所介護",
    "capacity": 28,
    "openDays": [
      "平日",
      "土曜日",
      "日曜日",
      "祝日"
    ],
    "openDaysNote": ""
  },
  {
    "id": "3670105786",
    "name": "花乃苑デイサービスセンター",
    "kana": "ハナノエンデイサービスセンター",
    "address": "徳島県徳島市北沖洲２丁目9-55",
    "lat": 34.0701643,
    "lng": 134.5886709,
    "tel": "088-664-8382",
    "url": "https://hananoen-group.com",
    "pref": "徳島県",
    "city": "徳島市",
    "category": "day_service",
    "serviceType": "通所介護",
    "capacity": 25,
    "openDays": [
      "平日",
      "土曜日",
      "祝日"
    ],
    "openDaysNote": "1月1日、1月2日は休み。（改行）感染症の流行、大雪や台風など交通状況が危険な場合はお休みします。"
  },
  {
    "id": "3670100563",
    "name": "健祥会デイサービスセンター徳島",
    "kana": "ケンショウカイデイサービスセンタートクシマ",
    "address": "徳島県徳島市国府町東高輪字天満３４９番地１",
    "lat": 34.0940821,
    "lng": 134.4824698,
    "tel": "088-642-9225",
    "url": "https://www.kenshokai.group/",
    "pref": "徳島県",
    "city": "徳島市",
    "category": "day_service",
    "serviceType": "通所介護",
    "capacity": 40,
    "openDays": [
      "平日",
      "土曜日",
      "祝日"
    ],
    "openDaysNote": "極めて天候が悪い日（台風、積雪等）は、休日とすることがある。"
  },
  {
    "id": "3670101553",
    "name": "光の園デイサービスセンター",
    "kana": "ヒカリノソノデイサービスセンター",
    "address": "徳島県徳島市渋野町西池27-1",
    "lat": 34.0037148107501,
    "lng": 134.536320895631,
    "tel": "886362050",
    "url": "http://seiyohkai.jp",
    "pref": "徳島県",
    "city": "徳島市",
    "category": "day_service",
    "serviceType": "通所介護",
    "capacity": 0,
    "openDays": [
      "平日",
      "土曜日",
      "祝日"
    ],
    "openDaysNote": ""
  },
  {
    "id": "3670100027",
    "name": "光風会　デイサービスセンター",
    "kana": "コウフウカイデイサービスセンター",
    "address": "徳島県徳島市下町本丁５９－１９",
    "lat": 34.0366362,
    "lng": 134.4868527,
    "tel": "088－644－1111",
    "url": "http://www.tk2.nmt.ne.jp",
    "pref": "徳島県",
    "city": "徳島市",
    "category": "day_service",
    "serviceType": "通所介護",
    "capacity": 0,
    "openDays": [
      "平日",
      "祝日"
    ],
    "openDaysNote": ""
  },
  {
    "id": "3690168376",
    "name": "社会福祉法人白寿会　白寿会西部デイサービスセンター",
    "kana": "シャカイフクシホウジンハクジュカイ　ハクジュカイセイブデイサービスセンター",
    "address": "徳島県徳島市不動西町3丁目1197-1",
    "lat": 34.0875542,
    "lng": 134.494534,
    "tel": "088-633-4411",
    "url": "http://www.hakuju-kai.or.jp/",
    "pref": "徳島県",
    "city": "徳島市",
    "category": "day_service",
    "serviceType": "通所介護",
    "capacity": 0,
    "openDays": [
      "平日",
      "祝日"
    ],
    "openDaysNote": ""
  },
  {
    "id": "3670101744",
    "name": "青い鳥デイサービスセンター",
    "kana": "アオイトリデイサービスセンター",
    "address": "徳島県徳島市佐古六番町12番11号",
    "lat": 34.0795155,
    "lng": 134.525985,
    "tel": "088-625-8800",
    "url": "",
    "pref": "徳島県",
    "city": "徳島市",
    "category": "day_service",
    "serviceType": "通所介護",
    "capacity": 0,
    "openDays": [
      "平日",
      "土曜日",
      "祝日"
    ],
    "openDaysNote": "利用者様・家族様の思いを大切にご本人ができることが少しでも増やせるような支援を目指しています"
  },
  {
    "id": "3670100019",
    "name": "青葉荘デイサービスセンター",
    "kana": "アオバソウデイサービスセンター",
    "address": "徳島県徳島市飯谷町上里５０－２",
    "lat": 33.9664928,
    "lng": 134.5490006,
    "tel": "088－645－0132",
    "url": "",
    "pref": "徳島県",
    "city": "徳島市",
    "category": "day_service",
    "serviceType": "通所介護",
    "capacity": 0,
    "openDays": [
      "平日",
      "土曜日",
      "祝日"
    ],
    "openDaysNote": ""
  },
  {
    "id": "3670105588",
    "name": "大神子デイサービスセンター",
    "kana": "オオミコデイサービスセンター",
    "address": "徳島県徳島市大原町余慶1番地5",
    "lat": 34.0271065751395,
    "lng": 134.571970909123,
    "tel": "088-663-4531",
    "url": "https://www.sudachikai.jp/",
    "pref": "徳島県",
    "city": "徳島市",
    "category": "day_service",
    "serviceType": "通所介護",
    "capacity": null,
    "openDays": [
      "平日",
      "土曜日",
      "日曜日",
      "祝日"
    ],
    "openDaysNote": ""
  },
  {
    "id": "3670103765",
    "name": "通所介護デイフィットネスセンターきたじま",
    "kana": "ツウショカイゴデイフィットネスセンターキタジマ",
    "address": "徳島県徳島市川内町榎瀬744-1",
    "lat": 34.1058492,
    "lng": 134.5517958,
    "tel": "088-677-3886",
    "url": "https://taoka-zaitaku.jp/facility/kitajima-ds/",
    "pref": "徳島県",
    "city": "徳島市",
    "category": "day_service",
    "serviceType": "通所介護",
    "capacity": 360,
    "openDays": [
      "平日",
      "土曜日",
      "祝日"
    ],
    "openDaysNote": "1/1～1/2定休日"
  },
  {
    "id": "3670104227",
    "name": "通所介護事業所ロイヤルヘルス倶楽部",
    "kana": "ツウショカイゴジギョウショロイヤルヘルスクラブ",
    "address": "徳島県徳島市西新浜町2丁目3-38",
    "lat": 34.0419007,
    "lng": 134.5596627,
    "tel": "088-663-8812",
    "url": "https://www.royal-hc.com/",
    "pref": "徳島県",
    "city": "徳島市",
    "category": "day_service",
    "serviceType": "通所介護",
    "capacity": null,
    "openDays": [
      "平日",
      "土曜日",
      "祝日"
    ],
    "openDaysNote": ""
  },
  {
    "id": "3670105976",
    "name": "徳島市北佐古一番町1-8",
    "kana": "トクシマシキタサコイチバンチョウ1-8",
    "address": "徳島県徳島市北佐古一番町1-8社会福祉法人飛鳥デイサービスセンター 社会福祉法人飛鳥デイサービスセンター",
    "lat": 34.0796685,
    "lng": 134.5414751,
    "tel": "088-612-8232",
    "url": "http://asuka.khg.or.jp",
    "pref": "徳島県",
    "city": "徳島市",
    "category": "day_service",
    "serviceType": "通所介護",
    "capacity": 0,
    "openDays": [
      "平日",
      "祝日"
    ],
    "openDaysNote": "営業日及び営業時間（改行）休業日であっても、特別な事情が生じた場合、事業所の判断により、営業を行う事ができる。（改行）（令和6年9月運営規程変更）"
  },
  {
    "id": "3670105422",
    "name": "徳島万代ケアセンターそよ風",
    "kana": "トクシマバンダイケアセンターソヨカゼ",
    "address": "徳島県徳島市万代町６丁目1番３",
    "lat": 34.0623217603457,
    "lng": 134.566089980598,
    "tel": "088-611-4045",
    "url": "https://www.sykz.co.jp/",
    "pref": "徳島県",
    "city": "徳島市",
    "category": "day_service",
    "serviceType": "通所介護",
    "capacity": 0,
    "openDays": [
      "平日",
      "土曜日",
      "祝日"
    ],
    "openDaysNote": ""
  },
  {
    "id": "3670100175",
    "name": "白寿会デイサービスセンター",
    "kana": "ハクジュカイデイサービスセンター",
    "address": "徳島県徳島市住吉四丁目12番10号",
    "lat": 34.0827271,
    "lng": 134.5690172,
    "tel": "088-626-1080",
    "url": "http://hakuju-kai.or.jp/",
    "pref": "徳島県",
    "city": "徳島市",
    "category": "day_service",
    "serviceType": "通所介護",
    "capacity": null,
    "openDays": [
      "平日",
      "土曜日",
      "日曜日",
      "祝日"
    ],
    "openDaysNote": "利用定員について、月～金曜日40名、土曜日20名、日曜日20名"
  },
  {
    "id": "3670100183",
    "name": "白寿会西部デイサービスセンター",
    "kana": "ハクジュカイセイブデイサービスセンター",
    "address": "徳島県徳島市不動西町3丁目1197-1",
    "lat": 34.091327,
    "lng": 134.4946269,
    "tel": "088-633-4411",
    "url": "http://www.hakuju-kai.or.jp/",
    "pref": "徳島県",
    "city": "徳島市",
    "category": "day_service",
    "serviceType": "通所介護",
    "capacity": 0,
    "openDays": [
      "平日",
      "土曜日",
      "祝日"
    ],
    "openDaysNote": ""
  },
  {
    "id": "3670104086",
    "name": "平成デイサービスセンター徳島",
    "kana": "ヘイセイデイサービスセンタートクシマ",
    "address": "徳島県徳島市かちどき橋6-10-1メディケアハウス平成 メディケアハウス平成",
    "lat": 34.0567625951505,
    "lng": 134.553126625795,
    "tel": "088-626-1577",
    "url": "https://tokushima.heisei-ds.jp/",
    "pref": "徳島県",
    "city": "徳島市",
    "category": "day_service",
    "serviceType": "通所介護",
    "capacity": 26,
    "openDays": [
      "平日",
      "土曜日",
      "祝日"
    ],
    "openDaysNote": ""
  },
  {
    "id": "3670100878",
    "name": "平成デイサービスセンター渭北",
    "kana": "ヘイセイデイサービスセンターイホク",
    "address": "徳島県徳島市下助任町3丁目34番2",
    "lat": 34.0824521,
    "lng": 134.5527714,
    "tel": "088-602-1330",
    "url": "https://ihoku.grouph.jp",
    "pref": "徳島県",
    "city": "徳島市",
    "category": "day_service",
    "serviceType": "通所介護",
    "capacity": 0,
    "openDays": [
      "平日",
      "土曜日",
      "祝日"
    ],
    "openDaysNote": ""
  },
  {
    "id": "3670104029",
    "name": "末広ﾃﾞｲｻｰﾋﾞｽ",
    "kana": "スエヒロデイサービス",
    "address": "徳島県徳島市南末広町1-12",
    "lat": 34.0639321,
    "lng": 134.5711534,
    "tel": "088-611-1518",
    "url": "https://ichie-kizuna.or.jp/",
    "pref": "徳島県",
    "city": "徳島市",
    "category": "day_service",
    "serviceType": "通所介護",
    "capacity": 0,
    "openDays": [
      "平日",
      "土曜日",
      "祝日"
    ],
    "openDaysNote": ""
  },
  {
    "id": "3671300048",
    "name": "相生デイサービスセンター",
    "kana": "アイオイデイサービスセンター",
    "address": "徳島県那賀郡那賀町鮎川字蛭子５０番地１",
    "lat": 33.8255338363471,
    "lng": 134.485096250748,
    "tel": "0884-62-2010",
    "url": "",
    "pref": "徳島県",
    "city": "那賀町",
    "category": "day_service",
    "serviceType": "通所介護",
    "capacity": null,
    "openDays": [
      "平日"
    ],
    "openDaysNote": "原則として８月１４日から８月１６日、１２月２９日から１月３日までは休業とするが、利用者のニーズをふまえて営業する場合がある。"
  },
  {
    "id": "3671300709",
    "name": "那賀町に光を照らすデイサービスセンター",
    "kana": "ナカチョウニヒカリヲテラスデイサービスセンター",
    "address": "徳島県那賀郡那賀町百合字石橋500番地3那賀町に光を照らす高齢者住宅 那賀町に光を照らす高齢者住宅",
    "lat": 33.84622,
    "lng": 134.4876593,
    "tel": "0884-63-0138",
    "url": "naka_hikarioterasu@yahoo.c0.jp",
    "pref": "徳島県",
    "city": "那賀町",
    "category": "day_service",
    "serviceType": "通所介護",
    "capacity": 28,
    "openDays": [
      "平日",
      "土曜日",
      "日曜日",
      "祝日"
    ],
    "openDaysNote": ""
  },
  {
    "id": "3671300725",
    "name": "那賀町に陽はまた昇るデイサービスセンター",
    "kana": "ナカチョウニヒハマタノボルデイサービスセンター",
    "address": "徳島県那賀郡那賀町中山字とふめん39番地",
    "lat": 33.8601462,
    "lng": 134.5292962,
    "tel": "0884-63-5550",
    "url": "naka_hihamatanoboru@yahoo.co.jp",
    "pref": "徳島県",
    "city": "那賀町",
    "category": "day_service",
    "serviceType": "通所介護",
    "capacity": 0,
    "openDays": [
      "平日",
      "土曜日",
      "日曜日",
      "祝日"
    ],
    "openDaysNote": ""
  },
  {
    "id": "3671300220",
    "name": "那賀町鷲敷デイサービスセンター",
    "kana": "ナカチョウワジキデイサービスセンター",
    "address": "徳島県那賀郡那賀町和食郷字八幡原5",
    "lat": 33.8552138,
    "lng": 134.5035661,
    "tel": "0884-62-3456",
    "url": "http://wajiki.rouken.jp/",
    "pref": "徳島県",
    "city": "那賀町",
    "category": "day_service",
    "serviceType": "通所介護",
    "capacity": 35,
    "openDays": [
      "平日",
      "土曜日",
      "祝日"
    ],
    "openDaysNote": ""
  },
  {
    "id": "3671501926",
    "name": "デイサービスアイリス",
    "kana": "デイサービスアイリス",
    "address": "徳島県板野郡板野町犬伏字東川岸2番地2",
    "lat": 34.1377205,
    "lng": 134.4510696,
    "tel": "088-672-1151",
    "url": "http://www.juzenkai-inoue.awk.jp/",
    "pref": "徳島県",
    "city": "板野町",
    "category": "day_service",
    "serviceType": "通所介護",
    "capacity": null,
    "openDays": [
      "平日"
    ],
    "openDaysNote": ""
  },
  {
    "id": "3671501348",
    "name": "デイサービスセンター　はるかぜ",
    "kana": "デイサービスセンター　ハルカゼ",
    "address": "徳島県板野郡板野町那東字野神南７番地１",
    "lat": 34.1340217,
    "lng": 134.4381173,
    "tel": "088-672-7220",
    "url": "http://kondo-naika.jp/",
    "pref": "徳島県",
    "city": "板野町",
    "category": "day_service",
    "serviceType": "通所介護",
    "capacity": 0,
    "openDays": [
      "平日",
      "土曜日",
      "祝日"
    ],
    "openDaysNote": "サービス提供時間は、9時～15時30分となっています。"
  },
  {
    "id": "3671501249",
    "name": "デイサービスセンターはるかぜ",
    "kana": "デイサービスセンターハルカゼ",
    "address": "徳島県板野郡板野町那東字野神南7-1",
    "lat": 34.1340649,
    "lng": 134.4381851,
    "tel": "886727220",
    "url": "http://kondo-naika.jp/",
    "pref": "徳島県",
    "city": "板野町",
    "category": "day_service",
    "serviceType": "通所介護",
    "capacity": 0,
    "openDays": [
      "平日",
      "土曜日",
      "祝日"
    ],
    "openDaysNote": ""
  },
  {
    "id": "3671501389",
    "name": "デイサービス愛Ⅱ",
    "kana": "デイサービスアイツー",
    "address": "徳島県板野郡板野町川端字若王寺37番地1",
    "lat": 34.1476601,
    "lng": 134.4795107,
    "tel": "088-672-7008",
    "url": "",
    "pref": "徳島県",
    "city": "板野町",
    "category": "day_service",
    "serviceType": "通所介護",
    "capacity": 0,
    "openDays": [
      "平日",
      "日曜日",
      "祝日"
    ],
    "openDaysNote": ""
  },
  {
    "id": "3671502247",
    "name": "デイサービス愛Ⅲ",
    "kana": "デイサービスアイスリー",
    "address": "徳島県板野郡板野町川端字原端14番地６",
    "lat": 34.1546244,
    "lng": 134.4774543,
    "tel": "088-624-8031",
    "url": "",
    "pref": "徳島県",
    "city": "板野町",
    "category": "day_service",
    "serviceType": "通所介護",
    "capacity": 0,
    "openDays": [
      "平日",
      "土曜日",
      "日曜日",
      "祝日"
    ],
    "openDaysNote": ""
  },
  {
    "id": "3671501033",
    "name": "デイサービス藍",
    "kana": "デイサービス　アイ",
    "address": "徳島県板野郡板野町川端字若王寺51番地2",
    "lat": 34.1477989,
    "lng": 134.4799135,
    "tel": "088-672-0408",
    "url": "",
    "pref": "徳島県",
    "city": "板野町",
    "category": "day_service",
    "serviceType": "通所介護",
    "capacity": 20,
    "openDays": [
      "平日",
      "土曜日",
      "祝日"
    ],
    "openDaysNote": ""
  },
  {
    "id": "3671500084",
    "name": "穂波園指定通所介護事業所",
    "kana": "ホナミエンシテイツウショカイゴジギョウショ",
    "address": "徳島県板野郡板野町吹田字西山68番地10",
    "lat": 34.1460011,
    "lng": 134.4554712,
    "tel": "088-672-0588",
    "url": "https://lumiere-tokushima.com/",
    "pref": "徳島県",
    "city": "板野町",
    "category": "day_service",
    "serviceType": "通所介護",
    "capacity": 20,
    "openDays": [
      "平日",
      "土曜日",
      "祝日"
    ],
    "openDaysNote": "定休日以外で台風や積雪などで、サービスを提供するにあたって危険と判断した時は定休日となる場合がある。"
  },
  {
    "id": "3671400186",
    "name": "デイサービスセンターおとひめ",
    "kana": "デイサービスセンターオトヒメ",
    "address": "徳島県海部郡美波町西河内字丹前99番地",
    "lat": 33.733464269412,
    "lng": 134.516742860574,
    "tel": "0884-77-2757",
    "url": "http://toukoukai.com/",
    "pref": "徳島県",
    "city": "美波町",
    "category": "day_service",
    "serviceType": "通所介護",
    "capacity": 30,
    "openDays": [
      "平日",
      "土曜日",
      "日曜日",
      "祝日"
    ],
    "openDaysNote": "事業所を休みにしたことはありませんが、災害や感染症により休止する場合があります。"
  },
  {
    "id": "3671400491",
    "name": "デイサービスセンター長寿村",
    "kana": "デイサービスセンター　チョウジュムラ",
    "address": "徳島県海部郡美波町西の地字大谷12",
    "lat": 33.7779892780051,
    "lng": 134.59019299144,
    "tel": "0884-78-2305",
    "url": "http://nennrin.jp",
    "pref": "徳島県",
    "city": "美波町",
    "category": "day_service",
    "serviceType": "通所介護",
    "capacity": 0,
    "openDays": [
      "平日",
      "土曜日",
      "日曜日",
      "祝日"
    ],
    "openDaysNote": ""
  },
  {
    "id": "3671400327",
    "name": "美波町デイサービスセンター竜宮",
    "kana": "ミナミチョウデイサービスセンターリュウグウ",
    "address": "徳島県海部郡美波町奥河内字井ノ上15-1",
    "lat": 33.7340449,
    "lng": 134.5323163,
    "tel": "0884-77-1238",
    "url": "",
    "pref": "徳島県",
    "city": "美波町",
    "category": "day_service",
    "serviceType": "通所介護",
    "capacity": 0,
    "openDays": [
      "平日"
    ],
    "openDaysNote": ""
  },
  {
    "id": "3670500325",
    "name": "デイサービスココロ",
    "kana": "デイサービスココロ",
    "address": "美馬市脇町野村４６３８－１",
    "lat": 34.0589775,
    "lng": 134.0924551,
    "tel": "0883-53-8080",
    "url": "",
    "pref": "徳島県",
    "city": "美馬市",
    "category": "day_service",
    "serviceType": "通所介護",
    "capacity": 30,
    "openDays": [
      "平日",
      "土曜日",
      "祝日"
    ],
    "openDaysNote": "２単位デイサービスです。（改行）　（改行）営業時間は、８：３０～１３：３０・１４：３０～１９：３０"
  },
  {
    "id": "3670500184",
    "name": "デイサービスセンターこはる脇町",
    "kana": "デイサービスセンターコハルワキマチ",
    "address": "徳島県美馬市脇町大字脇町字大堀７７７－１",
    "lat": 34.0687073524302,
    "lng": 134.140589495972,
    "tel": "０８８３－５２－２６１７",
    "url": "",
    "pref": "徳島県",
    "city": "美馬市",
    "category": "day_service",
    "serviceType": "通所介護",
    "capacity": 5,
    "openDays": [
      "平日",
      "祝日"
    ],
    "openDaysNote": "週5日開催。台風や雪などにより開催が困難な場合、土曜日を振替日としている。"
  },
  {
    "id": "3670500515",
    "name": "デイサービスセンターつるぎの郷",
    "kana": "デイサービスセンターツルギノサト",
    "address": "徳島県美馬市美馬町鍵掛４８－１",
    "lat": 34.0546114,
    "lng": 134.054032,
    "tel": "0883-63-5721",
    "url": "",
    "pref": "徳島県",
    "city": "美馬市",
    "category": "day_service",
    "serviceType": "通所介護",
    "capacity": 19,
    "openDays": [
      "平日",
      "祝日"
    ],
    "openDaysNote": ""
  },
  {
    "id": "3671800476",
    "name": "デイサービスセンター絆",
    "kana": "デイサービスセンターキズナ",
    "address": "徳島県美馬市脇町字小星１１９６番地１９",
    "lat": 34.0635603404217,
    "lng": 134.091485023279,
    "tel": "0883-53-8884",
    "url": "",
    "pref": "徳島県",
    "city": "美馬市",
    "category": "day_service",
    "serviceType": "通所介護",
    "capacity": 19,
    "openDays": [
      "平日",
      "土曜日",
      "日曜日",
      "祝日"
    ],
    "openDaysNote": ""
  },
  {
    "id": "3670500549",
    "name": "でいさーびすわかみや",
    "kana": "デイサービスワカミヤ",
    "address": "徳島県美馬市脇町大字猪尻若宮南79-1",
    "lat": 34.0665355,
    "lng": 134.15838,
    "tel": "0883-52-5437",
    "url": "",
    "pref": "徳島県",
    "city": "美馬市",
    "category": "day_service",
    "serviceType": "通所介護",
    "capacity": null,
    "openDays": [
      "平日",
      "土曜日",
      "祝日"
    ],
    "openDaysNote": "年末年始（12月29日から翌年1月3日）"
  },
  {
    "id": "3671800294",
    "name": "健祥会デイサービスセンターうだつ",
    "kana": "ケンショウカイデイサービスセンターウダツ",
    "address": "徳島県美馬市脇町大字脇町962-1",
    "lat": 34.0723178,
    "lng": 134.1376144,
    "tel": "0883-53-7703",
    "url": "http://www.kenshokai.group/",
    "pref": "徳島県",
    "city": "美馬市",
    "category": "day_service",
    "serviceType": "通所介護",
    "capacity": 0,
    "openDays": [
      "平日",
      "土曜日",
      "日曜日",
      "祝日"
    ],
    "openDaysNote": "通常営業時間は8:30～17:30ですが、延長利用を希望される利用者様がいる場合には最長7:00～19:00まで営業致します。"
  },
  {
    "id": "3670500044",
    "name": "美馬市穴吹デイサービスセンター「ライフケアたがた」",
    "kana": "ミマシアナブキデイサービスセンター「ライフケアタガタ」",
    "address": "徳島県美馬市穴吹町口山字田方110-2美馬市穴吹デイサービスセンター「ライフケアたがた」 美馬市穴吹デイサービスセンター「ライフケアたがた」",
    "lat": 34.0052175,
    "lng": 134.1507378,
    "tel": "0883-56-0188",
    "url": "http://shakyo.jct-tokushima.jp/mima/",
    "pref": "徳島県",
    "city": "美馬市",
    "category": "day_service",
    "serviceType": "通所介護",
    "capacity": 0,
    "openDays": [
      "平日",
      "祝日"
    ],
    "openDaysNote": ""
  },
  {
    "id": "3670500028",
    "name": "美馬市美馬デイサービスセンター「池月苑」",
    "kana": "ミマシミマデイサービスセンターイケヅキエン",
    "address": "徳島県美馬市美馬町字谷尻62番地",
    "lat": 34.0518359,
    "lng": 134.0348841,
    "tel": "0883-63-5550",
    "url": "http://syakyo.ict-tokushima.jp/mima/",
    "pref": "徳島県",
    "city": "美馬市",
    "category": "day_service",
    "serviceType": "通所介護",
    "capacity": 0,
    "openDays": [
      "平日",
      "祝日"
    ],
    "openDaysNote": ""
  },
  {
    "id": "3670500077",
    "name": "美馬市脇町デイサービスセンター「おちあい荘」",
    "kana": "ミマシワキマチデイサービスセンターオチアイソウ",
    "address": "徳島県美馬市脇町字西赤谷２２３２-１２",
    "lat": 34.1097412,
    "lng": 134.1724481,
    "tel": "0883-53-1211",
    "url": "http://syakyo.ict-tokushima.jp/mima/",
    "pref": "徳島県",
    "city": "美馬市",
    "category": "day_service",
    "serviceType": "通所介護",
    "capacity": 0,
    "openDays": [
      "平日",
      "祝日"
    ],
    "openDaysNote": ""
  },
  {
    "id": "3671800385",
    "name": "蓬莱会デイサービスセンターみま",
    "kana": "ホウライカイデイサービスセンターミマ",
    "address": "徳島県美馬市美馬町字高畑８番地１",
    "lat": 34.0583570486709,
    "lng": 134.079478977379,
    "tel": "０８８３－６３－６０７７",
    "url": "https://horaikai.or.jp",
    "pref": "徳島県",
    "city": "美馬市",
    "category": "day_service",
    "serviceType": "通所介護",
    "capacity": 0,
    "openDays": [
      "平日",
      "土曜日",
      "祝日"
    ],
    "openDaysNote": ""
  },
  {
    "id": "3671500647",
    "name": "(株)ステッチハウスきずなデイサービス",
    "kana": "カブステッチハウスキズナデイサービス",
    "address": "徳島県板野郡北島町中村字上地1-2",
    "lat": 34.1271856,
    "lng": 134.5487288,
    "tel": "088-698-1210",
    "url": "",
    "pref": "徳島県",
    "city": "北島町",
    "category": "day_service",
    "serviceType": "通所介護",
    "capacity": 35,
    "openDays": [
      "平日",
      "土曜日",
      "日曜日",
      "祝日"
    ],
    "openDaysNote": "短時間　長時間　ご相談下さい"
  },
  {
    "id": "3671500902",
    "name": "デイサービスセンターきたじま",
    "kana": "デイサービスセンターキタジマ",
    "address": "徳島県板野郡北島町中村字中内２６",
    "lat": 34.1289382,
    "lng": 134.5568252,
    "tel": "０８８－６９７－３７８８",
    "url": "http://www.ryokujyukai.com",
    "pref": "徳島県",
    "city": "北島町",
    "category": "day_service",
    "serviceType": "通所介護",
    "capacity": 0,
    "openDays": [
      "平日",
      "土曜日",
      "祝日"
    ],
    "openDaysNote": ""
  },
  {
    "id": "3671502031",
    "name": "デイサービスセンターふるさと",
    "kana": "デイサービスセンターフルサト",
    "address": "徳島県板野郡北島町北村字大黒6番地1",
    "lat": 34.138069172674,
    "lng": 134.558184930302,
    "tel": "088-678-5655",
    "url": "",
    "pref": "徳島県",
    "city": "北島町",
    "category": "day_service",
    "serviceType": "通所介護",
    "capacity": 0,
    "openDays": [
      "平日",
      "土曜日",
      "祝日"
    ],
    "openDaysNote": "※365日24時間連絡対応可能"
  },
  {
    "id": "3671501918",
    "name": "デイサービスセンターほほえみ北島",
    "kana": "デイサービスセンターホホエミキタジマ",
    "address": "徳島県板野郡北島町北村字千田ノ木66-1",
    "lat": 34.131712967959,
    "lng": 134.547567462552,
    "tel": "088-678-8830",
    "url": "",
    "pref": "徳島県",
    "city": "北島町",
    "category": "day_service",
    "serviceType": "通所介護",
    "capacity": 30,
    "openDays": [
      "平日",
      "土曜日",
      "祝日"
    ],
    "openDaysNote": ""
  },
  {
    "id": "3671502288",
    "name": "デイサービスみらい大黒",
    "kana": "デイサービスミライダイコク",
    "address": "徳島県板野郡北島町北村字大黒６番地１サービス付き高齢者向け住宅みらい2 サービス付き高齢者向け住宅みらい2",
    "lat": 34.1388373,
    "lng": 134.5566668,
    "tel": "088-678-5655",
    "url": "https://tos-serv001.oops.jp/3601000087_mirai/",
    "pref": "徳島県",
    "city": "北島町",
    "category": "day_service",
    "serviceType": "通所介護",
    "capacity": null,
    "openDays": [
      "平日",
      "土曜日",
      "祝日"
    ],
    "openDaysNote": "年末年始12月31日から1月3日まで(年度により変更の可能性有り)"
  },
  {
    "id": "3651580064",
    "name": "介護老人保健施設　敬愛の家",
    "kana": "カイゴロウジンホケンシセツ　ケイアイノイエ",
    "address": "徳島県板野郡北島町中村字八丁野22番地の1",
    "lat": 34.1302713,
    "lng": 134.5379741,
    "tel": "088-698-7778",
    "url": "www.syuseikai.net",
    "pref": "徳島県",
    "city": "北島町",
    "category": "day_service",
    "serviceType": "通所介護",
    "capacity": null,
    "openDays": [
      "平日",
      "土曜日",
      "祝日"
    ],
    "openDaysNote": ""
  },
  {
    "id": "3671500019",
    "name": "吉野川荘デイサービスセンター",
    "kana": "ヨシノガワソウデイサービスセンター",
    "address": "徳島県板野郡北島町中村字八丁野４番地１９",
    "lat": 34.1308213,
    "lng": 134.5372297,
    "tel": "088-698-2112",
    "url": "http://care-net.biz/36/yoshi2023/",
    "pref": "徳島県",
    "city": "北島町",
    "category": "day_service",
    "serviceType": "通所介護",
    "capacity": 0,
    "openDays": [
      "平日",
      "土曜日",
      "祝日"
    ],
    "openDaysNote": ""
  },
  {
    "id": "3671501934",
    "name": "北島えんじゅデイサービスセンター",
    "kana": "キタジマエンジュデイサービスセンター",
    "address": "徳島県板野郡北島町北村字大開５番地７",
    "lat": 34.1336426,
    "lng": 134.563588,
    "tel": "088-697-0757",
    "url": "",
    "pref": "徳島県",
    "city": "北島町",
    "category": "day_service",
    "serviceType": "通所介護",
    "capacity": 0,
    "openDays": [
      "平日",
      "土曜日",
      "祝日"
    ],
    "openDaysNote": ""
  },
  {
    "id": "3671400095",
    "name": "デイセンター緑風",
    "kana": "デイセンターリョクフウ",
    "address": "徳島県海部郡牟岐町大字中村字山田30番地",
    "lat": 33.6684733,
    "lng": 134.4131397,
    "tel": "0884-72-3155",
    "url": "http://www.kenshokai.group",
    "pref": "徳島県",
    "city": "牟岐町",
    "category": "day_service",
    "serviceType": "通所介護",
    "capacity": 0,
    "openDays": [
      "平日",
      "土曜日",
      "祝日"
    ],
    "openDaysNote": "定休日以外では、台風等の天候が極めて悪い時に限り休日とする。"
  },
  {
    "id": "3671400012",
    "name": "牟岐町社会福祉協議会川長事業所",
    "kana": "ムギチョウシャカイフクシキョウギカイカワタケジギョウショ",
    "address": "徳島県海部郡牟岐町大字川長字新光寺60-1",
    "lat": 33.6740169,
    "lng": 134.4213302,
    "tel": "0884-72-1151",
    "url": "http://shakyo.ict-tokushima.jp/mugi/",
    "pref": "徳島県",
    "city": "牟岐町",
    "category": "day_service",
    "serviceType": "通所介護",
    "capacity": 0,
    "openDays": [
      "平日",
      "祝日"
    ],
    "openDaysNote": ""
  },
  {
    "id": "3690200088",
    "name": "ＣｏＣｏデイサービス",
    "kana": "ココデイサービス",
    "address": "徳島県鳴門市大津町矢倉字裏15番地9",
    "lat": 34.1583862,
    "lng": 134.5927599,
    "tel": "088-686-5587",
    "url": "",
    "pref": "徳島県",
    "city": "鳴門市",
    "category": "day_service",
    "serviceType": "通所介護",
    "capacity": 0,
    "openDays": [
      "平日"
    ],
    "openDaysNote": ""
  },
  {
    "id": "3670200975",
    "name": "デイサービス　なるとも",
    "kana": "デイサービス　ナルトモ",
    "address": "徳島県鳴門市撫養町黒崎字松島２００番地",
    "lat": 36.204824,
    "lng": 138.252924,
    "tel": "088-679-6007",
    "url": "http://nagi.kanematsu-hp.com/",
    "pref": "徳島県",
    "city": "鳴門市",
    "category": "day_service",
    "serviceType": "通所介護",
    "capacity": 0,
    "openDays": [
      "平日",
      "土曜日",
      "祝日"
    ],
    "openDaysNote": ""
  },
  {
    "id": "3670200033",
    "name": "デイサービスセンターおおあさ",
    "kana": "デイサービスセンターオオアサ",
    "address": "徳島県鳴門市大麻町桧字東山田５７－１０",
    "lat": 34.1662284,
    "lng": 134.5002363,
    "tel": "088-689-3788",
    "url": "http://ryokujyukai.com",
    "pref": "徳島県",
    "city": "鳴門市",
    "category": "day_service",
    "serviceType": "通所介護",
    "capacity": 0,
    "openDays": [
      "平日",
      "土曜日",
      "祝日"
    ],
    "openDaysNote": "台風の状況・雪などによる路面凍結等状況を見ながら休みにする場合があります。"
  },
  {
    "id": "3670200462",
    "name": "デイサービスセンターおおつ",
    "kana": "デイサービスセンターオオツ",
    "address": "徳島県鳴門市大津町大代字戎野472番地",
    "lat": 34.159638,
    "lng": 134.573879,
    "tel": "(088)684-3788",
    "url": "http://www.ryokujyukai.com",
    "pref": "徳島県",
    "city": "鳴門市",
    "category": "day_service",
    "serviceType": "通所介護",
    "capacity": 0,
    "openDays": [
      "平日",
      "土曜日",
      "祝日"
    ],
    "openDaysNote": ""
  },
  {
    "id": "3670200827",
    "name": "デイサービスセンターそよかぜ",
    "kana": "デイサービスセンターソヨカゼ",
    "address": "徳島県鳴門市瀬戸町明神字上本城77番地2",
    "lat": 34.2107961,
    "lng": 134.5828196,
    "tel": "088-683-7888",
    "url": "",
    "pref": "徳島県",
    "city": "鳴門市",
    "category": "day_service",
    "serviceType": "通所介護",
    "capacity": null,
    "openDays": [
      "平日",
      "土曜日",
      "祝日"
    ],
    "openDaysNote": "事業の提供時間は、午前9時から午後4時30分とする。（改行）午前7時時点で暴風警報が発令されている場合、当日の営業を中止とする。"
  },
  {
    "id": "3670200868",
    "name": "デイサービスセンターたなごころ",
    "kana": "デイサービスセンタータナゴコロ",
    "address": "徳島県鳴門市撫養町字斎田西発４７－１０",
    "lat": 34.1695515,
    "lng": 134.6033533,
    "tel": "088-679-4292",
    "url": "https://npoyamayaku.main.jp/",
    "pref": "徳島県",
    "city": "鳴門市",
    "category": "day_service",
    "serviceType": "通所介護",
    "capacity": 1,
    "openDays": [
      "平日",
      "祝日"
    ],
    "openDaysNote": ""
  },
  {
    "id": "3670200561",
    "name": "デイサービスセンターほほえみ",
    "kana": "デイサービスセンターホホエミ",
    "address": "徳島県鳴門市撫養町立岩字五枚220-1",
    "lat": 34.1640219,
    "lng": 134.6204455,
    "tel": "088-683-1022",
    "url": "",
    "pref": "徳島県",
    "city": "鳴門市",
    "category": "day_service",
    "serviceType": "通所介護",
    "capacity": 40,
    "openDays": [
      "平日",
      "土曜日",
      "祝日"
    ],
    "openDaysNote": "台風・積雪等の天候状況の極めて悪いときは休日とすることができる。"
  },
  {
    "id": "3670201171",
    "name": "デイサービス阿波裕",
    "kana": "デイサービスアワユウ",
    "address": "徳島県鳴門市撫養町大桑島字北ノ浜６６－１",
    "lat": 34.1903196,
    "lng": 134.6023622,
    "tel": "886869092",
    "url": "https://awayu-minava.com/",
    "pref": "徳島県",
    "city": "鳴門市",
    "category": "day_service",
    "serviceType": "通所介護",
    "capacity": 23,
    "openDays": [
      "平日",
      "日曜日",
      "祝日"
    ],
    "openDaysNote": "年末年始休み１２／３１～１／３"
  },
  {
    "id": "3670200066",
    "name": "むやデイサービスセンター",
    "kana": "ムヤデイサービスセンター",
    "address": "徳島県鳴門市撫養町南浜字蛭子前東105",
    "lat": 34.1748925,
    "lng": 134.6047392,
    "tel": "088-685-5575",
    "url": "https://midorikai-naruto.jp/",
    "pref": "徳島県",
    "city": "鳴門市",
    "category": "day_service",
    "serviceType": "通所介護",
    "capacity": 0,
    "openDays": [
      "平日",
      "土曜日",
      "日曜日",
      "祝日"
    ],
    "openDaysNote": ""
  },
  {
    "id": "3670200694",
    "name": "リハビリステーション　ネトレン撫養",
    "kana": "リハビリステーション　ネトレンムヤ",
    "address": "徳島県鳴門市撫養町黒崎字松島440",
    "lat": 34.1914759990226,
    "lng": 134.597679359685,
    "tel": "088-684-5501",
    "url": "http://www.netoren.co.jp",
    "pref": "徳島県",
    "city": "鳴門市",
    "category": "day_service",
    "serviceType": "通所介護",
    "capacity": 0,
    "openDays": [
      "平日",
      "土曜日",
      "祝日"
    ],
    "openDaysNote": "営業日時　月～土　午前　8：50～11：50（改行）　　　　　　　　　午後　13：00～16：00"
  },
  {
    "id": "3670200058",
    "name": "貴洋会通所介護事業所",
    "kana": "キヨウカイツウショカイゴジギョウショ",
    "address": "徳島県鳴門市撫養町立岩字五枚146",
    "lat": 34.1665106,
    "lng": 134.6207425,
    "tel": "088-686-2181",
    "url": "",
    "pref": "徳島県",
    "city": "鳴門市",
    "category": "day_service",
    "serviceType": "通所介護",
    "capacity": 0,
    "openDays": [
      "平日",
      "土曜日",
      "祝日"
    ],
    "openDaysNote": ""
  },
  {
    "id": "3670200421",
    "name": "平成デイサービスセンター鳴門",
    "kana": "ヘイセイデイサービスセンターナルト",
    "address": "徳島県鳴門市撫養町木津字防崎445-1",
    "lat": 34.1686500616516,
    "lng": 134.57824651786,
    "tel": "088-685-8688",
    "url": "https://naruto.grouph.jp",
    "pref": "徳島県",
    "city": "鳴門市",
    "category": "day_service",
    "serviceType": "通所介護",
    "capacity": 8,
    "openDays": [
      "平日",
      "土曜日",
      "祝日"
    ],
    "openDaysNote": ""
  },
  {
    "id": "3671502163",
    "name": "RACケアスタジオ藍住",
    "kana": "ラックケアスタジオアイズミ",
    "address": "徳島県板野郡藍住町住吉字藤ノ木８３－２",
    "lat": 34.1262062,
    "lng": 134.5024535,
    "tel": "0120-623-041",
    "url": "https://www.crea-care.com/rac-care-studio/aizumi/",
    "pref": "徳島県",
    "city": "藍住町",
    "category": "day_service",
    "serviceType": "通所介護",
    "capacity": 0,
    "openDays": [
      "平日",
      "祝日"
    ],
    "openDaysNote": ""
  },
  {
    "id": "3671500266",
    "name": "クレア・デイサービスセンター",
    "kana": "クレアデイサービスセンター",
    "address": "徳島県板野郡藍住町字藤の木83-2有料老人ホームクレア藍住　西棟1階 有料老人ホームクレア藍住　西棟1階",
    "lat": 34.126196,
    "lng": 134.5024308,
    "tel": "088-677-6514",
    "url": "",
    "pref": "徳島県",
    "city": "藍住町",
    "category": "day_service",
    "serviceType": "通所介護",
    "capacity": 0,
    "openDays": [
      "平日",
      "土曜日",
      "祝日"
    ],
    "openDaysNote": ""
  },
  {
    "id": "3671501082",
    "name": "クレア藍住デイサービス",
    "kana": "クレアアイズミデイサービス",
    "address": "徳島県板野郡藍住町住吉字藤ノ木83番地2有料老人ホームクレア藍住 有料老人ホームクレア藍住",
    "lat": 34.126196,
    "lng": 134.5024308,
    "tel": "088-677-6515",
    "url": "",
    "pref": "徳島県",
    "city": "藍住町",
    "category": "day_service",
    "serviceType": "通所介護",
    "capacity": 0,
    "openDays": [
      "平日",
      "土曜日",
      "祝日"
    ],
    "openDaysNote": ""
  },
  {
    "id": "3671500233",
    "name": "さわやか徳島デイサービスセンター",
    "kana": "サワヤカトクシマデイサービスセンター",
    "address": "板野郡藍住町富吉字地神60番3",
    "lat": 34.1374334,
    "lng": 134.4874489,
    "tel": "088-692-3457",
    "url": "http://55web.jp/sawayaka/",
    "pref": "徳島県",
    "city": "藍住町",
    "category": "day_service",
    "serviceType": "通所介護",
    "capacity": 0,
    "openDays": [
      "平日",
      "土曜日",
      "日曜日",
      "祝日"
    ],
    "openDaysNote": ""
  },
  {
    "id": "3671502023",
    "name": "デイサービス　ウェルネスあいずみ",
    "kana": "デイサービス　ウェルネスアイズミ",
    "address": "徳島県板野郡藍住町笠木字中野72-1",
    "lat": 34.1348275680514,
    "lng": 134.502013676721,
    "tel": "088-624-7210",
    "url": "",
    "pref": "徳島県",
    "city": "藍住町",
    "category": "day_service",
    "serviceType": "通所介護",
    "capacity": null,
    "openDays": [
      "平日",
      "祝日"
    ],
    "openDaysNote": ""
  },
  {
    "id": "3671501660",
    "name": "デイサービス　コルマール",
    "kana": "デイサービス　コルマール",
    "address": "徳島県板野郡藍住町東中富字朏傍示54番地3アルザスロレーヌ虹の橋　１F アルザスロレーヌ虹の橋　１F",
    "lat": 34.1255954,
    "lng": 134.4762975,
    "tel": "088-678-8125",
    "url": "http://nijinohashikaigo.com/alsace-lorraine/",
    "pref": "徳島県",
    "city": "藍住町",
    "category": "day_service",
    "serviceType": "通所介護",
    "capacity": 45,
    "openDays": [
      "平日",
      "土曜日",
      "日曜日",
      "祝日"
    ],
    "openDaysNote": "アルザスロレーヌ虹の橋内併設"
  },
  {
    "id": "3671501470",
    "name": "デイサービスいつでも夢を",
    "kana": "デイサービスイツデモユメヲ",
    "address": "徳島県板野郡藍住町東中富字北傍示４５番地５",
    "lat": 34.1331586,
    "lng": 134.4801413,
    "tel": "088-692-8589",
    "url": "http://いつもここから.com/",
    "pref": "徳島県",
    "city": "藍住町",
    "category": "day_service",
    "serviceType": "通所介護",
    "capacity": 25,
    "openDays": [
      "平日",
      "土曜日",
      "日曜日",
      "祝日"
    ],
    "openDaysNote": ""
  },
  {
    "id": "3671502262",
    "name": "デイサービススマイリング",
    "kana": "デイサービススマイリング",
    "address": "徳島県板野郡藍住町矢上字原190-１",
    "lat": 34.1268838602666,
    "lng": 134.501180274869,
    "tel": "088-692-6002",
    "url": "https://nodoka-hinata.jp/",
    "pref": "徳島県",
    "city": "藍住町",
    "category": "day_service",
    "serviceType": "通所介護",
    "capacity": 0,
    "openDays": [
      "平日",
      "土曜日"
    ],
    "openDaysNote": ""
  },
  {
    "id": "3671502254",
    "name": "デイサービスセンター　りぶら",
    "kana": "デイサービスセンター　リブラ",
    "address": "徳島県板野郡藍住町東中富東傍示44",
    "lat": 34.1205701,
    "lng": 134.4772701,
    "tel": "088-635-2826",
    "url": "hhtps:/www.libra-co.jp/",
    "pref": "徳島県",
    "city": "藍住町",
    "category": "day_service",
    "serviceType": "通所介護",
    "capacity": 0,
    "openDays": [
      "平日",
      "祝日"
    ],
    "openDaysNote": ""
  },
  {
    "id": "3671501728",
    "name": "デイサービスセンター恵藍住",
    "kana": "デイサービスセンターケイアイズミ",
    "address": "徳島県板野郡藍住町徳命字新居須80番1",
    "lat": 34.1144115,
    "lng": 134.5036401,
    "tel": "088-693-1878",
    "url": "http://itsumosmile.jp/",
    "pref": "徳島県",
    "city": "藍住町",
    "category": "day_service",
    "serviceType": "通所介護",
    "capacity": 0,
    "openDays": [
      "平日",
      "土曜日",
      "日曜日",
      "祝日"
    ],
    "openDaysNote": "※365日24時間連絡対応可能"
  },
  {
    "id": "3671501769",
    "name": "デイサービスセンター藍寿苑",
    "kana": "デイサービスセンターアイジュエン",
    "address": "徳島県板野郡藍住町富吉字穂実66-3",
    "lat": 34.1410601622988,
    "lng": 134.488615308975,
    "tel": "088-692-5166",
    "url": "http://www.ryoun.com",
    "pref": "徳島県",
    "city": "藍住町",
    "category": "day_service",
    "serviceType": "通所介護",
    "capacity": 45,
    "openDays": [
      "平日",
      "土曜日",
      "日曜日",
      "祝日"
    ],
    "openDaysNote": ""
  },
  {
    "id": "3671501892",
    "name": "デイサービスセンター蘭方",
    "kana": "デイサービスセンターランポウ",
    "address": "徳島県板野郡藍住町矢上字春日１００番地２",
    "lat": 34.1366468,
    "lng": 134.490863,
    "tel": "０８８－６７６－２３１７",
    "url": "",
    "pref": "徳島県",
    "city": "藍住町",
    "category": "day_service",
    "serviceType": "通所介護",
    "capacity": null,
    "openDays": [
      "平日",
      "土曜日",
      "日曜日",
      "祝日"
    ],
    "openDaysNote": ""
  },
  {
    "id": "3671502197",
    "name": "デイサービスセンター蘭方",
    "kana": "デイサービスセンターランポウ",
    "address": "徳島県板野郡藍住町矢上字春日１００－２",
    "lat": 34.13665,
    "lng": 134.490871,
    "tel": "０８８－６７６－２３１７",
    "url": "",
    "pref": "徳島県",
    "city": "藍住町",
    "category": "day_service",
    "serviceType": "通所介護",
    "capacity": 0,
    "openDays": [
      "平日",
      "土曜日",
      "日曜日",
      "祝日"
    ],
    "openDaysNote": ""
  },
  {
    "id": "3671501835",
    "name": "デイサービスゆうひな",
    "kana": "デイサービスユウヒナ",
    "address": "徳島県板野郡藍住町矢上字北分6番４",
    "lat": 34.1357861899547,
    "lng": 134.494134854975,
    "tel": "０８８－６２４－７４７１",
    "url": "",
    "pref": "徳島県",
    "city": "藍住町",
    "category": "day_service",
    "serviceType": "通所介護",
    "capacity": 0,
    "openDays": [
      "平日",
      "土曜日",
      "日曜日",
      "祝日"
    ],
    "openDaysNote": ""
  },
  {
    "id": "3671501405",
    "name": "デイサービス彩",
    "kana": "デイサービス　サイ",
    "address": "徳島県板野郡藍住町富吉字豊吉８６－１サービス付き高齢者向け住宅　ライフヴィライース徳島１F サービス付き高齢者向け住宅　ライフヴィライース徳島１F",
    "lat": 34.1330588,
    "lng": 134.4877906,
    "tel": "088-679-9500",
    "url": "http://www.seijyukai-med.jp/",
    "pref": "徳島県",
    "city": "藍住町",
    "category": "day_service",
    "serviceType": "通所介護",
    "capacity": 0,
    "openDays": [
      "平日",
      "土曜日",
      "祝日"
    ],
    "openDaysNote": "時間帯はご相談に応じ個別対応可能"
  },
  {
    "id": "3671502205",
    "name": "デイサービス歩の華",
    "kana": "デイサービスホノカ",
    "address": "徳島県板野郡藍住町徳命字前須東13-1",
    "lat": 34.1171538,
    "lng": 134.490466,
    "tel": "088-635-7665",
    "url": "",
    "pref": "徳島県",
    "city": "藍住町",
    "category": "day_service",
    "serviceType": "通所介護",
    "capacity": null,
    "openDays": [
      "平日",
      "土曜日",
      "日曜日",
      "祝日"
    ],
    "openDaysNote": ""
  },
  {
    "id": "3671501074",
    "name": "デイサービス優",
    "kana": "デイサービスユウ",
    "address": "徳島県板野郡藍住町徳命字新居須65-1ライフコンシェルジェ徳島１階（デイサービス優） ライフコンシェルジェ徳島１階（デイサービス優）",
    "lat": 34.1128584,
    "lng": 134.5051781,
    "tel": "088-677-5300",
    "url": "http://www.seijyukai-med.jp/shimizudayyu/",
    "pref": "徳島県",
    "city": "藍住町",
    "category": "day_service",
    "serviceType": "通所介護",
    "capacity": 0,
    "openDays": [
      "平日",
      "土曜日",
      "祝日"
    ],
    "openDaysNote": "悪天候等各種事情により中止する場合があります。"
  },
  {
    "id": "3671502122",
    "name": "デイサービス優樹",
    "kana": "デイサービスユウジュ",
    "address": "徳島県板野郡藍住町東中富字慶長47-1",
    "lat": 34.1169668,
    "lng": 134.4685382,
    "tel": "088-692-5553",
    "url": "http://www.seijukai-med.jp/",
    "pref": "徳島県",
    "city": "藍住町",
    "category": "day_service",
    "serviceType": "通所介護",
    "capacity": 0,
    "openDays": [
      "平日",
      "祝日"
    ],
    "openDaysNote": ""
  },
  {
    "id": "3671500936",
    "name": "デイセンター日吉丸",
    "kana": "デイセンター　ヒヨシマル",
    "address": "徳島県板野郡藍住町徳命字小塚北92番地3",
    "lat": 34.1133023,
    "lng": 134.4871357,
    "tel": "088-693-0001",
    "url": "https://www.kenshokai.group",
    "pref": "徳島県",
    "city": "藍住町",
    "category": "day_service",
    "serviceType": "通所介護",
    "capacity": 0,
    "openDays": [
      "平日",
      "土曜日",
      "祝日"
    ],
    "openDaysNote": ""
  },
  {
    "id": "3671502213",
    "name": "リニエデイサービス藍住",
    "kana": "リニエデイサービスアイズミ",
    "address": "徳島県板野郡藍住町徳命字新居須77‐1",
    "lat": 34.1140170764219,
    "lng": 134.503623260119,
    "tel": "088-677-9926",
    "url": "https://linie-group.jp/office/day-service-aizumi/",
    "pref": "徳島県",
    "city": "藍住町",
    "category": "day_service",
    "serviceType": "通所介護",
    "capacity": 0,
    "openDays": [
      "平日",
      "祝日"
    ],
    "openDaysNote": ""
  },
  {
    "id": "3671500639",
    "name": "清水内科デイサービスセンター",
    "kana": "シミズナイカデイサービスセンター",
    "address": "徳島県板野郡藍住町徳命字新居須64-2",
    "lat": 34.112523979124,
    "lng": 134.50492992209,
    "tel": "088-637-3400",
    "url": "http://www.seijyukai-med.jp/shimizuday/",
    "pref": "徳島県",
    "city": "藍住町",
    "category": "day_service",
    "serviceType": "通所介護",
    "capacity": 65,
    "openDays": [
      "平日",
      "土曜日",
      "祝日"
    ],
    "openDaysNote": "サービス提供時間　8時45分～16時45分（時間帯は個別にご相談ください）"
  },
  {
    "id": "3671502049",
    "name": "有限会社オルト商事",
    "kana": "ユウゲンガイシャオルトショウジ",
    "address": "徳島県板野郡藍住町東中富字権現傍示51－1",
    "lat": 34.1238716,
    "lng": 134.4767359,
    "tel": "088-692-5151",
    "url": "",
    "pref": "徳島県",
    "city": "藍住町",
    "category": "day_service",
    "serviceType": "通所介護",
    "capacity": null,
    "openDays": [
      "平日",
      "土曜日",
      "祝日"
    ],
    "openDaysNote": ""
  }
]