[
  {
    "id": "3874000213",
    "name": "デイサービスセンター自在",
    "kana": "デイサービスセンタージザイ",
    "address": "愛媛県南宇和郡愛南町満倉2301番地1",
    "lat": 32.9532311535954,
    "lng": 132.60309832253,
    "tel": "0895-73-7117",
    "url": "https://m-fukushi.or.jp/",
    "pref": "愛媛県",
    "city": "愛南町",
    "category": "day_service",
    "serviceType": "通所介護",
    "capacity": 25,
    "openDays": [
      "平日",
      "土曜日",
      "日曜日",
      "祝日"
    ],
    "openDaysNote": "11月23日の定休日は、地域交流文化祭を行います。"
  },
  {
    "id": "3873700359",
    "name": "ディサービスセンター瀬戸あいじゅ",
    "kana": "ディサービスセンターセトアイジュ",
    "address": "愛媛県西宇和郡伊方町川之浜５９４",
    "lat": 33.4264078,
    "lng": 132.2291363,
    "tel": "0894-53-0622",
    "url": "http://aijukai-group.com",
    "pref": "愛媛県",
    "city": "伊方町",
    "category": "day_service",
    "serviceType": "通所介護",
    "capacity": 0,
    "openDays": [
      "平日",
      "祝日"
    ],
    "openDaysNote": "年始【１月１・２日】休み"
  },
  {
    "id": "3873700532",
    "name": "伊方老人デイサービスセンター",
    "kana": "イカタロウジンデイサービスセンター",
    "address": "愛媛県西宇和郡伊方町湊浦871番地2",
    "lat": 33.4898238,
    "lng": 132.3556256,
    "tel": "0894-38-0008",
    "url": "",
    "pref": "愛媛県",
    "city": "伊方町",
    "category": "day_service",
    "serviceType": "通所介護",
    "capacity": 0,
    "openDays": [
      "平日",
      "祝日"
    ],
    "openDaysNote": "特になし。"
  },
  {
    "id": "3873700540",
    "name": "三崎デイサービスセンター",
    "kana": "ミサキデイサービスセンター",
    "address": "愛媛県西宇和郡伊方町三崎1700番地16　三崎保健福祉センター",
    "lat": 33.391376,
    "lng": 132.11652,
    "tel": "0894-54-2222",
    "url": "",
    "pref": "愛媛県",
    "city": "伊方町",
    "category": "day_service",
    "serviceType": "通所介護",
    "capacity": 0,
    "openDays": [
      "平日",
      "祝日"
    ],
    "openDaysNote": "特になし"
  },
  {
    "id": "3873700516",
    "name": "瀬戸デイサービスセンター",
    "kana": "セトデイサービスセンター",
    "address": "愛媛県西宇和郡伊方町三机乙1087番地1",
    "lat": 33.4566436,
    "lng": 132.2444091,
    "tel": "0894-57-2180",
    "url": "http://www.shakyo.or.jp/hp/1487/",
    "pref": "愛媛県",
    "city": "伊方町",
    "category": "day_service",
    "serviceType": "通所介護",
    "capacity": 0,
    "openDays": [
      "平日",
      "祝日"
    ],
    "openDaysNote": "特になし"
  },
  {
    "id": "3873700524",
    "name": "町見老人デイサービスセンター",
    "kana": "マチミロウジンデイサービスセンター",
    "address": "愛媛県西宇和郡伊方町九町6番耕地840番地14",
    "lat": 33.4719595955673,
    "lng": 132.307206653165,
    "tel": "0894-39-0390",
    "url": "",
    "pref": "愛媛県",
    "city": "伊方町",
    "category": "day_service",
    "serviceType": "通所介護",
    "capacity": 0,
    "openDays": [
      "平日",
      "祝日"
    ],
    "openDaysNote": "特になし"
  },
  {
    "id": "3871000455",
    "name": "デイサービスセンター　ケアフル伊予",
    "kana": "デイサービスセンター　ケアフルイヨ",
    "address": "愛媛県伊予市市場甲1021-3",
    "lat": 33.7574293,
    "lng": 132.7037292,
    "tel": "089-982-7770",
    "url": "http://yamakikai.com",
    "pref": "愛媛県",
    "city": "伊予市",
    "category": "day_service",
    "serviceType": "通所介護",
    "capacity": 0,
    "openDays": [
      "平日",
      "土曜日",
      "祝日"
    ],
    "openDaysNote": ""
  },
  {
    "id": "3871000158",
    "name": "デイサービスセンター　もものさと",
    "kana": "デイサービスセンター　モモノサト",
    "address": "愛媛県伊予市上野580",
    "lat": 33.7728919,
    "lng": 132.7415695,
    "tel": "089-983-0011",
    "url": "http://www.ja-e-chuo.or.jp/public_html/seikatsu/hukusi/fukushi.html",
    "pref": "愛媛県",
    "city": "伊予市",
    "category": "day_service",
    "serviceType": "通所介護",
    "capacity": 30,
    "openDays": [
      "平日",
      "土曜日",
      "祝日"
    ],
    "openDaysNote": "24時間電話対応しています。"
  },
  {
    "id": "3871000141",
    "name": "デイサービスセンター　伊予あいじゅ",
    "kana": "デイサービスセンター　イヨアイジュ",
    "address": "愛媛県伊予市下吾川字北西原1781番地1",
    "lat": 33.7672814,
    "lng": 132.7051666,
    "tel": "089-989-6413",
    "url": "http://www.aijukai-group.com/",
    "pref": "愛媛県",
    "city": "伊予市",
    "category": "day_service",
    "serviceType": "通所介護",
    "capacity": 0,
    "openDays": [
      "平日",
      "土曜日",
      "祝日"
    ],
    "openDaysNote": ""
  },
  {
    "id": "3871000745",
    "name": "デイサービスセンターたちばな",
    "kana": "デイサービスセンタータチバナ",
    "address": "愛媛県伊予市灘町136番地2",
    "lat": 33.7589842,
    "lng": 132.7010803,
    "tel": "089-983-0622",
    "url": "",
    "pref": "愛媛県",
    "city": "伊予市",
    "category": "day_service",
    "serviceType": "通所介護",
    "capacity": 20,
    "openDays": [
      "平日",
      "土曜日",
      "日曜日",
      "祝日"
    ],
    "openDaysNote": ""
  },
  {
    "id": "3871000240",
    "name": "デイサービスセンター森の園",
    "kana": "デイサービスセンターモリノソノ",
    "address": "愛媛県伊予市森甲440-1",
    "lat": 33.7390822211106,
    "lng": 132.68837618496,
    "tel": "089-982-7474",
    "url": "http://morinosono.sakura.ne.jp/",
    "pref": "愛媛県",
    "city": "伊予市",
    "category": "day_service",
    "serviceType": "通所介護",
    "capacity": 0,
    "openDays": [
      "平日",
      "土曜日",
      "祝日"
    ],
    "openDaysNote": "特にありません。"
  },
  {
    "id": "3871000570",
    "name": "医療法人財団尚温会　デイサービスセンターあがわ",
    "kana": "イリョウホウジンザイダンショウオンカイ　デイサービスセンターアガワ",
    "address": "愛媛県伊予市下吾川１１９－１",
    "lat": 33.7619346,
    "lng": 132.7140087,
    "tel": "089-997-3535",
    "url": "http://www.iyohp.jp",
    "pref": "愛媛県",
    "city": "伊予市",
    "category": "day_service",
    "serviceType": "通所介護",
    "capacity": 40,
    "openDays": [
      "平日",
      "土曜日",
      "祝日"
    ],
    "openDaysNote": "特にありません。"
  },
  {
    "id": "3873500312",
    "name": "指定通所介護事業所　なかやま幸梅園",
    "kana": "シテイツウショカイゴジギョウショ　ナカヤマコウバイエン",
    "address": "愛媛県伊予市中山町中山寅381番地",
    "lat": 33.6386598,
    "lng": 132.7066246,
    "tel": "089-967-1605",
    "url": "http://www.koubaien-b.jp/",
    "pref": "愛媛県",
    "city": "伊予市",
    "category": "day_service",
    "serviceType": "通所介護",
    "capacity": 0,
    "openDays": [
      "平日",
      "土曜日",
      "祝日"
    ],
    "openDaysNote": ""
  },
  {
    "id": "3873500320",
    "name": "指定通所介護事業所デイサービスセンター双海夕なぎ荘",
    "kana": "シテイツウショカイゴジギョウショデイサービスセンターフタミユウナギソウ",
    "address": "愛媛県伊予市双海町上灘甲5269番地1",
    "lat": 33.6856230727834,
    "lng": 132.649496964371,
    "tel": "089-986-0055",
    "url": "http://www2.odn.ne.jp/~aav34770/",
    "pref": "愛媛県",
    "city": "伊予市",
    "category": "day_service",
    "serviceType": "通所介護",
    "capacity": 0,
    "openDays": [
      "平日",
      "土曜日",
      "祝日"
    ],
    "openDaysNote": "特にありません。"
  },
  {
    "id": "3870301722",
    "name": "7つの扉",
    "kana": "ナナツノトビラ",
    "address": "愛媛県宇和島市別当1丁目6-30",
    "lat": 33.2094913,
    "lng": 132.5489001,
    "tel": "0895-23-7010",
    "url": "http://www.nanatsunotobira.jp/",
    "pref": "愛媛県",
    "city": "宇和島市",
    "category": "day_service",
    "serviceType": "通所介護",
    "capacity": 10,
    "openDays": [
      "平日",
      "祝日"
    ],
    "openDaysNote": "営業日・営業時間の他、電話等により24時間常時連絡が可能な体制とする"
  },
  {
    "id": "3870301300",
    "name": "ケアプラスデイサービスセンター宇和島",
    "kana": "ケアプラスデイサービスセンターウワジマ",
    "address": "愛媛県宇和島市宮下甲1535番地25",
    "lat": 33.2098106,
    "lng": 132.5421229,
    "tel": "0895-28-6950",
    "url": "http://www.carep.jp/",
    "pref": "愛媛県",
    "city": "宇和島市",
    "category": "day_service",
    "serviceType": "通所介護",
    "capacity": 52,
    "openDays": [
      "平日",
      "土曜日",
      "日曜日",
      "祝日"
    ],
    "openDaysNote": "特になし。"
  },
  {
    "id": "3870301938",
    "name": "ケアプラスデイサービスセンター北宇和島",
    "kana": "ケアプラスデイサービスセンターキタウワジマ",
    "address": "愛媛県宇和島市伊吹町甲1226-1",
    "lat": 33.2391777,
    "lng": 132.5708815,
    "tel": "0895－24－3434",
    "url": "http://www.carep.jp/",
    "pref": "愛媛県",
    "city": "宇和島市",
    "category": "day_service",
    "serviceType": "通所介護",
    "capacity": 46,
    "openDays": [
      "平日",
      "土曜日",
      "日曜日",
      "祝日"
    ],
    "openDaysNote": "特になし。"
  },
  {
    "id": "3870302035",
    "name": "デイサービス　すぎなの里",
    "kana": "デイサービス　スギナノサト",
    "address": "愛媛県宇和島市寄松甲1244番地1",
    "lat": 33.1928954,
    "lng": 132.5326603,
    "tel": "0895-49-1876",
    "url": "",
    "pref": "愛媛県",
    "city": "宇和島市",
    "category": "day_service",
    "serviceType": "通所介護",
    "capacity": 0,
    "openDays": [
      "平日",
      "土曜日",
      "祝日"
    ],
    "openDaysNote": "１２月３１日から１月３日は年末年始休業"
  },
  {
    "id": "3870300658",
    "name": "デイサービス　なごみ荘",
    "kana": "デイサービス　ナゴミソウ",
    "address": "愛媛県宇和島市高串1-424",
    "lat": 33.2449188,
    "lng": 132.5736007,
    "tel": "0895-24-0753",
    "url": "http://www.nagomisou.com/",
    "pref": "愛媛県",
    "city": "宇和島市",
    "category": "day_service",
    "serviceType": "通所介護",
    "capacity": 40,
    "openDays": [
      "平日",
      "土曜日",
      "祝日"
    ],
    "openDaysNote": "特になし"
  },
  {
    "id": "3870302183",
    "name": "デイサービス　愛ウェルネス丸穂",
    "kana": "デイサービス　アイウェルネスマルオ",
    "address": "愛媛県宇和島市丸穂町1丁目9番10号",
    "lat": 33.2243500598485,
    "lng": 132.578973380068,
    "tel": "0895-25-5138",
    "url": "http://www.ai-wellness.co.jp/",
    "pref": "愛媛県",
    "city": "宇和島市",
    "category": "day_service",
    "serviceType": "通所介護",
    "capacity": 22,
    "openDays": [
      "平日",
      "土曜日",
      "祝日"
    ],
    "openDaysNote": ""
  },
  {
    "id": "3870302225",
    "name": "デイサービス　未来",
    "kana": "デイサービス　ミライ",
    "address": "愛媛県宇和島市吉田町東小路甲14番地5有料老人ホーム　未来 有料老人ホーム　未来",
    "lat": 33.2803878,
    "lng": 132.5416231,
    "tel": "0895-49-5555",
    "url": "http://care-net.biz/38/yoshimaru1930/",
    "pref": "愛媛県",
    "city": "宇和島市",
    "category": "day_service",
    "serviceType": "通所介護",
    "capacity": 37,
    "openDays": [
      "平日",
      "土曜日",
      "祝日"
    ],
    "openDaysNote": ""
  },
  {
    "id": "3870301334",
    "name": "デイサービスあん",
    "kana": "デイサービスアン",
    "address": "愛媛県宇和島市中沢町一丁目2-32",
    "lat": 33.2091166,
    "lng": 132.5573216,
    "tel": "0895-65-9799",
    "url": "",
    "pref": "愛媛県",
    "city": "宇和島市",
    "category": "day_service",
    "serviceType": "通所介護",
    "capacity": 20,
    "openDays": [
      "平日",
      "土曜日",
      "日曜日",
      "祝日"
    ],
    "openDaysNote": "特にありません"
  },
  {
    "id": "3870301797",
    "name": "デイサービスこころ",
    "kana": "デイサービス　ココロ",
    "address": "愛媛県宇和島市三間町迫目1052番地",
    "lat": 33.2820735074041,
    "lng": 132.604519234853,
    "tel": "0895-20-7006",
    "url": "",
    "pref": "愛媛県",
    "city": "宇和島市",
    "category": "day_service",
    "serviceType": "通所介護",
    "capacity": 25,
    "openDays": [
      "平日",
      "土曜日",
      "日曜日",
      "祝日"
    ],
    "openDaysNote": "年中無休とする"
  },
  {
    "id": "3870302068",
    "name": "デイサービスセンター　笑歩会　丸之内",
    "kana": "デイサービスセンター　ショウホカイ　マルノウチ",
    "address": "愛媛県宇和島市丸之内五丁目５番１５号",
    "lat": 33.222049,
    "lng": 132.5641926,
    "tel": "0895-22-3060",
    "url": "http://shouhokai.jp/",
    "pref": "愛媛県",
    "city": "宇和島市",
    "category": "day_service",
    "serviceType": "通所介護",
    "capacity": 0,
    "openDays": [
      "平日",
      "土曜日",
      "日曜日",
      "祝日"
    ],
    "openDaysNote": ""
  },
  {
    "id": "3870301508",
    "name": "デイサービスセンター　未来　よしだ",
    "kana": "デイサービスセンター　ミライ　ヨシダ",
    "address": "愛媛県宇和島市吉田町東小路57番",
    "lat": 33.2803609765028,
    "lng": 132.541777639287,
    "tel": "0895-49-1235",
    "url": "http://care-net.biz/38/yoshimaru1930/b15.php#service02",
    "pref": "愛媛県",
    "city": "宇和島市",
    "category": "day_service",
    "serviceType": "通所介護",
    "capacity": 35,
    "openDays": [
      "平日",
      "土曜日",
      "祝日"
    ],
    "openDaysNote": "年末年始の定休日がカレンダー上５日を超える場合は、利用者の希望により臨時営業することもある。"
  },
  {
    "id": "3870300591",
    "name": "デイサービスセンターきくぞの",
    "kana": "デイサービスセンターキクゾノ",
    "address": "愛媛県宇和島市和霊元町四丁目1番12号",
    "lat": 33.2287343,
    "lng": 132.5666736,
    "tel": "0895-23-8668",
    "url": "www.kikuzono.co.jp",
    "pref": "愛媛県",
    "city": "宇和島市",
    "category": "day_service",
    "serviceType": "通所介護",
    "capacity": 0,
    "openDays": [
      "平日",
      "土曜日",
      "祝日"
    ],
    "openDaysNote": "12/31～1/3を除く。"
  },
  {
    "id": "3870301227",
    "name": "デイサービスセンターそよ風",
    "kana": "デイサービスセンターソヨカゼ",
    "address": "愛媛県宇和島市吉田町立間尻甲729番地4",
    "lat": 33.2830749,
    "lng": 132.5377619,
    "tel": "0895-52-7272",
    "url": "",
    "pref": "愛媛県",
    "city": "宇和島市",
    "category": "day_service",
    "serviceType": "通所介護",
    "capacity": 40,
    "openDays": [
      "平日",
      "祝日"
    ],
    "openDaysNote": "特になし"
  },
  {
    "id": "3870301219",
    "name": "デイサービスセンターほで",
    "kana": "デイサービスセンターホデ",
    "address": "宇和島市保手2丁目5番31号",
    "lat": 33.2118301,
    "lng": 132.5511499,
    "tel": "0895-28-6200",
    "url": "https://www.hidamari6200.com",
    "pref": "愛媛県",
    "city": "宇和島市",
    "category": "day_service",
    "serviceType": "通所介護",
    "capacity": 20,
    "openDays": [
      "平日",
      "土曜日",
      "日曜日",
      "祝日"
    ],
    "openDaysNote": ""
  },
  {
    "id": "3870302274",
    "name": "デイサービスセンターまごころ庵御殿内",
    "kana": "デイサービスセンターマゴコロアンゴテンウチ",
    "address": "--愛媛県宇和島市吉田町立間尻甲2083-1",
    "lat": 33.2786383,
    "lng": 132.5485088,
    "tel": "0895-49-5111",
    "url": "https://yell-care.com/",
    "pref": "愛媛県",
    "city": "宇和島市",
    "category": "day_service",
    "serviceType": "通所介護",
    "capacity": 0,
    "openDays": [
      "平日",
      "祝日"
    ],
    "openDaysNote": "なし"
  },
  {
    "id": "3870301854",
    "name": "デイサービスセンター祝の森",
    "kana": "デイサービスセンターイワイノモリ",
    "address": "愛媛県宇和島市祝森甲2407番地特別養護老人ホーム祝の郷 特別養護老人ホーム祝の郷",
    "lat": 33.1738027863316,
    "lng": 132.557336335657,
    "tel": "0895-27-4351",
    "url": "http://iwainosato2605.wix.com/iwainosato",
    "pref": "愛媛県",
    "city": "宇和島市",
    "category": "day_service",
    "serviceType": "通所介護",
    "capacity": null,
    "openDays": [
      "平日",
      "土曜日",
      "祝日"
    ],
    "openDaysNote": ""
  },
  {
    "id": "3873900314",
    "name": "デイサービスセンター白浦茜荘",
    "kana": "デイサービスセンターシロウラアカネソウ",
    "address": "愛媛県宇和島市吉田町白浦3番地2",
    "lat": 33.3126467,
    "lng": 132.5270814,
    "tel": "0895-52-0203",
    "url": "http://wwwa.pikara.ne.jp/akanesou/",
    "pref": "愛媛県",
    "city": "宇和島市",
    "category": "day_service",
    "serviceType": "通所介護",
    "capacity": 35,
    "openDays": [
      "平日",
      "祝日"
    ],
    "openDaysNote": "なし"
  },
  {
    "id": "3870301961",
    "name": "デイサービスひより",
    "kana": "デイサービスヒヨリ",
    "address": "愛媛県宇和島市川内甲2530番地1",
    "lat": 33.1948281052194,
    "lng": 132.569735560111,
    "tel": "0895-27-1866",
    "url": "",
    "pref": "愛媛県",
    "city": "宇和島市",
    "category": "day_service",
    "serviceType": "通所介護",
    "capacity": 0,
    "openDays": [
      "平日",
      "土曜日",
      "日曜日",
      "祝日"
    ],
    "openDaysNote": ""
  },
  {
    "id": "3870301235",
    "name": "デイサービスみるく",
    "kana": "デイサービスミルク",
    "address": "宇和島市住吉町６２１－１",
    "lat": 33.2287030741662,
    "lng": 132.557566642992,
    "tel": "0895-28-6006",
    "url": "https://www.ehime-miruku.com",
    "pref": "愛媛県",
    "city": "宇和島市",
    "category": "day_service",
    "serviceType": "通所介護",
    "capacity": 2,
    "openDays": [
      "平日",
      "土曜日",
      "日曜日",
      "祝日"
    ],
    "openDaysNote": ""
  },
  {
    "id": "3870302191",
    "name": "デイサービス愛顔宇和島",
    "kana": "デイサービスエガオウワジマ",
    "address": "愛媛県宇和島市野川甲1179",
    "lat": 33.2163069113014,
    "lng": 132.575188650177,
    "tel": "0895-24-6866",
    "url": "http://kibou-e.jp",
    "pref": "愛媛県",
    "city": "宇和島市",
    "category": "day_service",
    "serviceType": "通所介護",
    "capacity": 0,
    "openDays": [
      "平日",
      "土曜日",
      "日曜日",
      "祝日"
    ],
    "openDaysNote": ""
  },
  {
    "id": "3870301839",
    "name": "デイサービス希望の里ゆずりは",
    "kana": "デイサービスキボウノサトユズリハ",
    "address": "愛媛県宇和島市高串3番耕地434-1デイサービス希望の里ゆずりは デイサービス希望の里ゆずりは",
    "lat": 33.2447521,
    "lng": 132.5708899,
    "tel": "0895-65-9915",
    "url": "https://caresupport-yuzuri",
    "pref": "愛媛県",
    "city": "宇和島市",
    "category": "day_service",
    "serviceType": "通所介護",
    "capacity": 10,
    "openDays": [
      "平日",
      "土曜日",
      "日曜日",
      "祝日"
    ],
    "openDaysNote": "なし"
  },
  {
    "id": "3870301748",
    "name": "デイサービス紙ひこうき",
    "kana": "デイサービスカミヒコウキ",
    "address": "愛媛県宇和島市三間町戸雁６０４番２",
    "lat": 33.2932995271724,
    "lng": 132.600763262427,
    "tel": "0895-20-7373",
    "url": "https://angelhouse.co.jp",
    "pref": "愛媛県",
    "city": "宇和島市",
    "category": "day_service",
    "serviceType": "通所介護",
    "capacity": 25,
    "openDays": [
      "平日",
      "土曜日",
      "祝日"
    ],
    "openDaysNote": ""
  },
  {
    "id": "3870301920",
    "name": "デイサービス心音",
    "kana": "デイサービスココネ",
    "address": "愛媛県宇和島市栄町港2丁目4-16",
    "lat": 33.2221599,
    "lng": 132.5611907,
    "tel": "0895-28-6633",
    "url": "",
    "pref": "愛媛県",
    "city": "宇和島市",
    "category": "day_service",
    "serviceType": "通所介護",
    "capacity": 23,
    "openDays": [
      "平日",
      "土曜日",
      "祝日"
    ],
    "openDaysNote": ""
  },
  {
    "id": "3870301649",
    "name": "デイサービス夢の国ゆずりは",
    "kana": "デイサービスユメノクニユズリハ",
    "address": "愛媛県宇和島市祝森甲１１３６番地５",
    "lat": 33.1741106,
    "lng": 132.5513816,
    "tel": "０８９５－２７－１０１１",
    "url": "",
    "pref": "愛媛県",
    "city": "宇和島市",
    "category": "day_service",
    "serviceType": "通所介護",
    "capacity": 0,
    "openDays": [
      "平日",
      "土曜日",
      "日曜日",
      "祝日"
    ],
    "openDaysNote": ""
  },
  {
    "id": "3873900587",
    "name": "デイサービス蓮家",
    "kana": "デイサービスレンゲ",
    "address": "愛媛県宇和島市津島町高田丙70番",
    "lat": 33.1213057007811,
    "lng": 132.519314440897,
    "tel": "0895-32-5085",
    "url": "https://www.npo-hanazono.com/",
    "pref": "愛媛県",
    "city": "宇和島市",
    "category": "day_service",
    "serviceType": "通所介護",
    "capacity": 25,
    "openDays": [
      "平日",
      "土曜日",
      "日曜日",
      "祝日"
    ],
    "openDaysNote": "年中無休"
  },
  {
    "id": "3870302100",
    "name": "デイスパ駒鳥",
    "kana": "デイスパコマドリ",
    "address": "愛媛県宇和島市寄松甲３６８-１",
    "lat": 33.1995895,
    "lng": 132.547967,
    "tel": "0895-49-3113",
    "url": "",
    "pref": "愛媛県",
    "city": "宇和島市",
    "category": "day_service",
    "serviceType": "通所介護",
    "capacity": 0,
    "openDays": [
      "平日",
      "祝日"
    ],
    "openDaysNote": "土、日の祝日はお休みします。"
  },
  {
    "id": "3870300211",
    "name": "ニチイケアセンターうわじま",
    "kana": "ニチイケアセンターウワジマ",
    "address": "愛媛県宇和島市川内甲978番地1",
    "lat": 33.2049946,
    "lng": 132.5510222,
    "tel": "0895-20-0135",
    "url": "http://www.nichiigakkan.co.jp",
    "pref": "愛媛県",
    "city": "宇和島市",
    "category": "day_service",
    "serviceType": "通所介護",
    "capacity": 0,
    "openDays": [
      "平日",
      "土曜日",
      "祝日"
    ],
    "openDaysNote": "特にありません。"
  },
  {
    "id": "3870300732",
    "name": "ゆずりはデイサービス",
    "kana": "ユズリハデイサービス",
    "address": "愛媛県宇和島市祝森甲3081番地47",
    "lat": 33.1712764,
    "lng": 132.5536729,
    "tel": "0895-27-1873",
    "url": "https://caresupport-yuzuriha.jp",
    "pref": "愛媛県",
    "city": "宇和島市",
    "category": "day_service",
    "serviceType": "通所介護",
    "capacity": 0,
    "openDays": [
      "平日",
      "土曜日",
      "日曜日",
      "祝日"
    ],
    "openDaysNote": "なし"
  },
  {
    "id": "3870302019",
    "name": "ラポールえびすデイサービス",
    "kana": "ラポールエビスデイサービス",
    "address": "愛媛県宇和島市恵美須町1-3-10ラポール恵美須　５階 ラポール恵美須　５階",
    "lat": 33.2235376,
    "lng": 132.5645099,
    "tel": "0895-22-2722",
    "url": "http://www.apotry.net/",
    "pref": "愛媛県",
    "city": "宇和島市",
    "category": "day_service",
    "serviceType": "通所介護",
    "capacity": 20,
    "openDays": [
      "平日",
      "土曜日",
      "祝日"
    ],
    "openDaysNote": "年末　12/30、12/31は9時から13時15分までとする。（改行）年始　１/1～1/3休み"
  },
  {
    "id": "3870300872",
    "name": "ラポールデイサービス",
    "kana": "ラポールデイサービス",
    "address": "愛媛県宇和島市恵美須町1-3-10ラポール恵美須 ラポール恵美須",
    "lat": 33.2234886353656,
    "lng": 132.564818139505,
    "tel": "0895-23-2006",
    "url": "http://www.apotry.net/",
    "pref": "愛媛県",
    "city": "宇和島市",
    "category": "day_service",
    "serviceType": "通所介護",
    "capacity": 10,
    "openDays": [
      "平日",
      "土曜日",
      "祝日"
    ],
    "openDaysNote": "特になし。"
  },
  {
    "id": "3870302175",
    "name": "愛ほっとリハビリステーションうわじま",
    "kana": "アイホットリハビリステーションウワジマ",
    "address": "愛媛県宇和島市新町1丁目1番14号アクティブモア本社ビル アクティブモア本社ビル",
    "lat": 33.2233904,
    "lng": 132.5677235,
    "tel": "0895-28-6566",
    "url": "http://ai-hot.jp/",
    "pref": "愛媛県",
    "city": "宇和島市",
    "category": "day_service",
    "serviceType": "通所介護",
    "capacity": 0,
    "openDays": [
      "平日",
      "祝日"
    ],
    "openDaysNote": "12月31日～1月2日休み"
  },
  {
    "id": "3870300815",
    "name": "宇和島市社会福祉協議会　宇和島介護保険事業所",
    "kana": "ウワジマシシャカイフクシキョウギカイ　ウワジマカイゴホケンジギョウショ",
    "address": "愛媛県宇和島市住吉町一丁目6番16号宇和島市総合福祉センター 宇和島市総合福祉センター",
    "lat": 33.2259179,
    "lng": 132.5580882,
    "tel": "0895-23-3711",
    "url": "http://www.uwajima-shakyo.or.jp/",
    "pref": "愛媛県",
    "city": "宇和島市",
    "category": "day_service",
    "serviceType": "通所介護",
    "capacity": 30,
    "openDays": [
      "平日"
    ],
    "openDaysNote": ""
  },
  {
    "id": "3870300831",
    "name": "宇和島市社会福祉協議会　三間介護保険事業所",
    "kana": "ウワジマシシャカイフクシキョウギカイ　ミマカイゴホケンジギョウショ",
    "address": "愛媛県宇和島市三間町迫目126番地",
    "lat": 33.2877845,
    "lng": 132.6060187,
    "tel": "0895-58-1052",
    "url": "http://www.uwajima-shakyo.or.jp/",
    "pref": "愛媛県",
    "city": "宇和島市",
    "category": "day_service",
    "serviceType": "通所介護",
    "capacity": 35,
    "openDays": [
      "平日",
      "祝日"
    ],
    "openDaysNote": ""
  },
  {
    "id": "3870300161",
    "name": "指定通所介護事業所老人デイサービスセンターいこい",
    "kana": "シテイツウショカイゴジギョウショロウジンデイサービスセンターイコイ",
    "address": "愛媛県宇和島市和霊元町1丁目5-27",
    "lat": 33.2277983,
    "lng": 132.567143,
    "tel": "0895-22-0203",
    "url": "http://www.siminkyousaikai.jp/",
    "pref": "愛媛県",
    "city": "宇和島市",
    "category": "day_service",
    "serviceType": "通所介護",
    "capacity": 30,
    "openDays": [
      "平日",
      "土曜日",
      "祝日"
    ],
    "openDaysNote": "特になし"
  },
  {
    "id": "3870301177",
    "name": "時の実",
    "kana": "トキノミ",
    "address": "愛媛県宇和島市御幸町二丁目５番7号",
    "lat": 33.2267428,
    "lng": 132.5633822,
    "tel": "0895-24-5780",
    "url": "ｓｏｕｄａｎ＠ｔｏｋｉｎｏｍｉ．ｃｏ．ｊｐ",
    "pref": "愛媛県",
    "city": "宇和島市",
    "category": "day_service",
    "serviceType": "通所介護",
    "capacity": 0,
    "openDays": [
      "平日"
    ],
    "openDaysNote": ""
  },
  {
    "id": "3873900827",
    "name": "デイサービスゆう",
    "kana": "デイサービスユウ",
    "address": "愛媛県北宇和郡鬼北町大字永野市76",
    "lat": 33.2547686,
    "lng": 132.6856646,
    "tel": "0895-45-2256",
    "url": "",
    "pref": "愛媛県",
    "city": "鬼北町",
    "category": "day_service",
    "serviceType": "通所介護",
    "capacity": 0,
    "openDays": [
      "平日",
      "土曜日",
      "日曜日",
      "祝日"
    ],
    "openDaysNote": "天災その他やむを得ず業務を遂行できない日を除く"
  },
  {
    "id": "3873900249",
    "name": "デイサービス施設勝山荘",
    "kana": "デイサービスシセツカツヤマソウ",
    "address": "愛媛県北宇和郡鬼北町大字上大野322番地",
    "lat": 33.3258185,
    "lng": 132.7960386,
    "tel": "0895-44-2781",
    "url": "http://www.nanpu.or.jp/",
    "pref": "愛媛県",
    "city": "鬼北町",
    "category": "day_service",
    "serviceType": "通所介護",
    "capacity": 20,
    "openDays": [
      "平日"
    ],
    "openDaysNote": "特にありません。"
  },
  {
    "id": "3873900975",
    "name": "愛ほっとデイサ－ビスきほく",
    "kana": "アイホットデイサ-ビスキホク",
    "address": "愛媛県北宇和郡鬼北町大字中野川528番地",
    "lat": 33.2471275,
    "lng": 132.6743795,
    "tel": "0895-49-1600",
    "url": "http://ai-hot.jp",
    "pref": "愛媛県",
    "city": "鬼北町",
    "category": "day_service",
    "serviceType": "通所介護",
    "capacity": 0,
    "openDays": [
      "平日",
      "土曜日",
      "祝日"
    ],
    "openDaysNote": ""
  },
  {
    "id": "3873900629",
    "name": "社会福祉法人　鬼北町社会福祉協議会",
    "kana": "シャカイフクシホウジン　キホクチョウシャカイフクシキョウギカイ",
    "address": "愛媛県北宇和郡鬼北町大字近永782番地",
    "lat": 33.2573933,
    "lng": 132.6843814,
    "tel": "0895-45-3709",
    "url": "http://kihoku-syakyo.or.jp/",
    "pref": "愛媛県",
    "city": "鬼北町",
    "category": "day_service",
    "serviceType": "通所介護",
    "capacity": 0,
    "openDays": [
      "平日",
      "祝日"
    ],
    "openDaysNote": "災害などで介護サービスが提供できない場合は中止になります。"
  },
  {
    "id": "3873900793",
    "name": "通所介護事業所あおぞら",
    "kana": "ツウショカイゴジギョウショアオゾラ",
    "address": "愛媛県北宇和郡鬼北町大字興野々1251番地",
    "lat": 33.2503478,
    "lng": 132.7154842,
    "tel": "0895-45-3900",
    "url": "http://careplazaaozora.community.officelive.com/aboutus.aspx",
    "pref": "愛媛県",
    "city": "鬼北町",
    "category": "day_service",
    "serviceType": "通所介護",
    "capacity": null,
    "openDays": [
      "平日",
      "祝日"
    ],
    "openDaysNote": "休日＝その他事業所が指定した日（雪・台風等やむを得ないと判断した場合）"
  },
  {
    "id": "3873900934",
    "name": "通所介護事業所桜桃",
    "kana": "ツウショカイゴジギョウショサクランボ",
    "address": "愛媛県北宇和郡鬼北町大字内深田1066番地3",
    "lat": 33.2616432087677,
    "lng": 132.664522402547,
    "tel": "0895-45-0125",
    "url": "",
    "pref": "愛媛県",
    "city": "鬼北町",
    "category": "day_service",
    "serviceType": "通所介護",
    "capacity": 0,
    "openDays": [
      "平日",
      "祝日"
    ],
    "openDaysNote": "年末年始の定休日はその年によって異なります。"
  },
  {
    "id": "3873400281",
    "name": "デイサービスセンター直瀬",
    "kana": "デイサービスセンターナオセ",
    "address": "愛媛県上浮穴郡久万高原町直瀬甲3974番地6",
    "lat": 33.704731,
    "lng": 132.9596364,
    "tel": "0892-50-1150",
    "url": "",
    "pref": "愛媛県",
    "city": "久万高原町",
    "category": "day_service",
    "serviceType": "通所介護",
    "capacity": 0,
    "openDays": [
      "平日",
      "祝日"
    ],
    "openDaysNote": "特になし"
  },
  {
    "id": "3873400109",
    "name": "指定通所介護事業所デイサービスセンター久万の里",
    "kana": "シテイツウショカイゴジギョウショデイサービスセンタークマノサト",
    "address": "愛媛県上浮穴郡久万高原町菅生3番耕地580番地24",
    "lat": 33.6481232,
    "lng": 132.9111648,
    "tel": "0892-21-1000",
    "url": "http://kikuju.or.jp/",
    "pref": "愛媛県",
    "city": "久万高原町",
    "category": "day_service",
    "serviceType": "通所介護",
    "capacity": 0,
    "openDays": [
      "平日",
      "祝日"
    ],
    "openDaysNote": "特になし"
  },
  {
    "id": "3873400406",
    "name": "美川デイサービスセンター",
    "kana": "ミカワデイサービスセンター",
    "address": "愛媛県上浮穴郡久万高原町上黒岩2920番地１",
    "lat": 33.6144269,
    "lng": 132.976153,
    "tel": "0892-56-0750",
    "url": "http://www.kumakougen-shakyo.or.jp/",
    "pref": "愛媛県",
    "city": "久万高原町",
    "category": "day_service",
    "serviceType": "通所介護",
    "capacity": 0,
    "openDays": [
      "平日"
    ],
    "openDaysNote": "なし"
  },
  {
    "id": "3870200601",
    "name": "ＪＡおちいまばりデイサービスセンター元気",
    "kana": "ジェイエイオチイマバリデイサービスセンターゲンキ",
    "address": "愛媛県今治市鐘場町１丁目２番９号",
    "lat": 34.0844152,
    "lng": 132.9903881,
    "tel": "0898-23-3715",
    "url": "http://www.ja-ochiima.or.jp/fukushi/",
    "pref": "愛媛県",
    "city": "今治市",
    "category": "day_service",
    "serviceType": "通所介護",
    "capacity": 0,
    "openDays": [
      "平日",
      "土曜日",
      "日曜日",
      "祝日"
    ],
    "openDaysNote": "特にありません。"
  },
  {
    "id": "3870201682",
    "name": "ＪＡおちいまばりデイサービスセンター元気玉川",
    "kana": "ジェイエイオチイマバリデイサービスセンターゲンキタマガワ",
    "address": "愛媛県今治市玉川町中村甲４９６番地１",
    "lat": 34.0229133,
    "lng": 132.9554847,
    "tel": "0898-36-8001",
    "url": "http://www.ja-ochiima.or.jp/fukushi/",
    "pref": "愛媛県",
    "city": "今治市",
    "category": "day_service",
    "serviceType": "通所介護",
    "capacity": 0,
    "openDays": [
      "平日",
      "土曜日",
      "祝日"
    ],
    "openDaysNote": "特にありません。"
  },
  {
    "id": "3870200924",
    "name": "ＪＡおちいまばりデイサービスセンター元気桜井",
    "kana": "ジェイエイオチイマバリデイサービスセンターゲンキサクライ",
    "address": "愛媛県今治市桜井４丁目１３番７号",
    "lat": 34.0198831,
    "lng": 133.0384383,
    "tel": "0898-48-1212",
    "url": "http://www.ja-ochiima.or.jp/fukushi/",
    "pref": "愛媛県",
    "city": "今治市",
    "category": "day_service",
    "serviceType": "通所介護",
    "capacity": 0,
    "openDays": [
      "平日",
      "土曜日",
      "日曜日",
      "祝日"
    ],
    "openDaysNote": "特にありません。"
  },
  {
    "id": "3873200749",
    "name": "ＪＡおちいまばりデイサービスセンター元気伯方",
    "kana": "ジェイエイオチイマバリデイサービスセンターゲンキハカタ",
    "address": "愛媛県今治市伯方町叶浦甲１６６６番地４",
    "lat": 34.2069393,
    "lng": 133.0737201,
    "tel": "0897-72-2830",
    "url": "http://www.ja-ochiima.or.jp/fukushi/",
    "pref": "愛媛県",
    "city": "今治市",
    "category": "day_service",
    "serviceType": "通所介護",
    "capacity": 0,
    "openDays": [
      "平日",
      "土曜日",
      "日曜日",
      "祝日"
    ],
    "openDaysNote": "特にありません。"
  },
  {
    "id": "3870201351",
    "name": "ケアセンターいきいき",
    "kana": "ケアセンターイキイキ",
    "address": "愛媛県今治市北宝来町3-2-12",
    "lat": 34.066553,
    "lng": 132.9937829,
    "tel": "0898-33-2121",
    "url": "https://www.ikirukai.or.jp",
    "pref": "愛媛県",
    "city": "今治市",
    "category": "day_service",
    "serviceType": "通所介護",
    "capacity": 0,
    "openDays": [
      "平日",
      "土曜日",
      "祝日"
    ],
    "openDaysNote": "特にありません。"
  },
  {
    "id": "3870201765",
    "name": "ケアフィットしまなみ",
    "kana": "ケアフィットシマナミ",
    "address": "今治市近見町１丁目３番４号",
    "lat": 34.0873622,
    "lng": 132.9875716,
    "tel": "0898-32-5505",
    "url": "http://www.best-care.jp/",
    "pref": "愛媛県",
    "city": "今治市",
    "category": "day_service",
    "serviceType": "通所介護",
    "capacity": 40,
    "openDays": [
      "平日",
      "土曜日",
      "祝日"
    ],
    "openDaysNote": ""
  },
  {
    "id": "3870202557",
    "name": "ケアプラスデイサービスセンター今治",
    "kana": "ケアプラスデイサービスセンターイマバリ",
    "address": "愛媛県今治市北鳥生町1丁目3番55号",
    "lat": 34.0567318,
    "lng": 133.0137202,
    "tel": "0898-52-8189",
    "url": "http://carep.jp",
    "pref": "愛媛県",
    "city": "今治市",
    "category": "day_service",
    "serviceType": "通所介護",
    "capacity": 45,
    "openDays": [
      "平日",
      "土曜日",
      "日曜日",
      "祝日"
    ],
    "openDaysNote": "特になし"
  },
  {
    "id": "3870202664",
    "name": "デイサ－ビストリトン",
    "kana": "デイサ-ビストリトン",
    "address": "愛媛県今治市吉海町名4680番地",
    "lat": 34.1273204,
    "lng": 133.0253506,
    "tel": "0897-84-3113",
    "url": "http://www.katagihosp.com/",
    "pref": "愛媛県",
    "city": "今治市",
    "category": "day_service",
    "serviceType": "通所介護",
    "capacity": 0,
    "openDays": [
      "平日",
      "土曜日",
      "祝日"
    ],
    "openDaysNote": "天候により営業を中止の場合もあり"
  },
  {
    "id": "3870202102",
    "name": "デイサービス　カインドハウス北浜",
    "kana": "デイサービス　カインドハウス",
    "address": "愛媛県今治市北浜町３番１０号",
    "lat": 34.078311253266,
    "lng": 132.997223495626,
    "tel": "0898-35-5511",
    "url": "http://www.kindhouse.jp/",
    "pref": "愛媛県",
    "city": "今治市",
    "category": "day_service",
    "serviceType": "通所介護",
    "capacity": 20,
    "openDays": [
      "平日",
      "土曜日",
      "祝日"
    ],
    "openDaysNote": ""
  },
  {
    "id": "3870201716",
    "name": "デイサービス　天然温泉くろがねの湯",
    "kana": "デイサービス　テンネンオンセンクロガネノユ",
    "address": "愛媛県今治市大西町紺原甲290番地1",
    "lat": 34.0678222,
    "lng": 132.9379635,
    "tel": "0898-53-6500",
    "url": "http://kouhukai.com",
    "pref": "愛媛県",
    "city": "今治市",
    "category": "day_service",
    "serviceType": "通所介護",
    "capacity": 0,
    "openDays": [
      "平日",
      "祝日"
    ],
    "openDaysNote": "特にありません。"
  },
  {
    "id": "3870201575",
    "name": "デイサービスウィルケアひろせ",
    "kana": "デイサービスウィルケアヒロセ",
    "address": "愛媛県今治市喜田村6丁目4-20",
    "lat": 34.0434492,
    "lng": 133.0233397,
    "tel": "0898-47-0002",
    "url": "http://www.hirose-youseikai.org/",
    "pref": "愛媛県",
    "city": "今治市",
    "category": "day_service",
    "serviceType": "通所介護",
    "capacity": 30,
    "openDays": [
      "平日",
      "土曜日",
      "祝日"
    ],
    "openDaysNote": "元日は休み"
  },
  {
    "id": "3870202508",
    "name": "デイサービスすずらん",
    "kana": "デイサービススズラン",
    "address": "愛媛県今治市宮下町一丁目1番62号",
    "lat": 34.067958,
    "lng": 132.9898696,
    "tel": "0898-23-5000",
    "url": "http://www.shimanamifukushikai.com",
    "pref": "愛媛県",
    "city": "今治市",
    "category": "day_service",
    "serviceType": "通所介護",
    "capacity": 0,
    "openDays": [
      "平日",
      "土曜日",
      "祝日"
    ],
    "openDaysNote": ""
  },
  {
    "id": "3870201393",
    "name": "デイサービスセンター　はとり",
    "kana": "デイサービスセンター　ハトリ",
    "address": "愛媛県今治市南宝来町3丁目4番地1",
    "lat": 34.0585186,
    "lng": 133.0023926,
    "tel": "0898-33-7100",
    "url": "",
    "pref": "愛媛県",
    "city": "今治市",
    "category": "day_service",
    "serviceType": "通所介護",
    "capacity": 5,
    "openDays": [
      "平日",
      "土曜日",
      "祝日"
    ],
    "openDaysNote": "随時見学可能です。"
  },
  {
    "id": "3870201278",
    "name": "デイサービスセンターラ・ファミーユ",
    "kana": "デイサービスセンターラ・ファミーユ",
    "address": "愛媛県今治市菊間町浜1453番地1",
    "lat": 34.0430979,
    "lng": 132.8474294,
    "tel": "0898-54-5678",
    "url": "http://www.nissinkai.jp/",
    "pref": "愛媛県",
    "city": "今治市",
    "category": "day_service",
    "serviceType": "通所介護",
    "capacity": 0,
    "openDays": [
      "平日",
      "祝日"
    ],
    "openDaysNote": ""
  },
  {
    "id": "3870200304",
    "name": "デイサービスセンター唐子荘",
    "kana": "デイサービスセンターカラコソウ",
    "address": "愛媛県今治市旦甲479番地1",
    "lat": 34.0162655344146,
    "lng": 133.030173277415,
    "tel": "0898-48-2667",
    "url": "http://imabari-shisetsukyo.or.jp",
    "pref": "愛媛県",
    "city": "今治市",
    "category": "day_service",
    "serviceType": "通所介護",
    "capacity": 30,
    "openDays": [
      "平日",
      "土曜日",
      "祝日"
    ],
    "openDaysNote": "特にありません。"
  },
  {
    "id": "3870201146",
    "name": "デイサービスたちばな",
    "kana": "デイサービスタチバナ",
    "address": "愛媛県今治市北高下町3丁目3番18号",
    "lat": 34.0499785,
    "lng": 133.0111607,
    "tel": "0898-34-8862",
    "url": "http://nttbj.itp.ne.jp/0898348862/index.html",
    "pref": "愛媛県",
    "city": "今治市",
    "category": "day_service",
    "serviceType": "通所介護",
    "capacity": 25,
    "openDays": [
      "平日",
      "土曜日",
      "祝日"
    ],
    "openDaysNote": "特になし"
  },
  {
    "id": "3870202680",
    "name": "デイサービスなないろ今治阿方",
    "kana": "デイサービスナナイロイマバリアガタ",
    "address": "愛媛県今治阿方甲407-1",
    "lat": 34.0628010857229,
    "lng": 132.96485246106,
    "tel": "0898-52-7720",
    "url": "",
    "pref": "愛媛県",
    "city": "今治市",
    "category": "day_service",
    "serviceType": "通所介護",
    "capacity": null,
    "openDays": [
      "平日",
      "土曜日"
    ],
    "openDaysNote": ""
  },
  {
    "id": "3870200197",
    "name": "デイサービスひまわり",
    "kana": "デイサービスヒマワリ",
    "address": "愛媛県今治市郷本町3丁目5番37号",
    "lat": 34.0449170062267,
    "lng": 132.992960976057,
    "tel": "0898-35-5633",
    "url": "http://silvercare-himawari.mix.com/sunflower",
    "pref": "愛媛県",
    "city": "今治市",
    "category": "day_service",
    "serviceType": "通所介護",
    "capacity": 40,
    "openDays": [
      "平日",
      "土曜日",
      "祝日"
    ],
    "openDaysNote": "特になし。"
  },
  {
    "id": "3870202698",
    "name": "デイサービスフレンズ",
    "kana": "デイサービスフレンズ",
    "address": "愛媛県今治市立花町4丁目5番26号",
    "lat": 34.0477317,
    "lng": 132.9996353,
    "tel": "0898-52-7796",
    "url": "https://www.shimanamifukushikai.com/day-friends.html",
    "pref": "愛媛県",
    "city": "今治市",
    "category": "day_service",
    "serviceType": "通所介護",
    "capacity": 25,
    "openDays": [
      "平日",
      "土曜日"
    ],
    "openDaysNote": ""
  },
  {
    "id": "3870201773",
    "name": "トレーニングデイ110",
    "kana": "トレーニングデイ　イチイチマル",
    "address": "蒼社町２丁目2番60号",
    "lat": 34.0541548215139,
    "lng": 132.994715632541,
    "tel": "０８９８－２５－０１１０",
    "url": "",
    "pref": "愛媛県",
    "city": "今治市",
    "category": "day_service",
    "serviceType": "通所介護",
    "capacity": 0,
    "openDays": [
      "平日",
      "土曜日",
      "祝日"
    ],
    "openDaysNote": ""
  },
  {
    "id": "3870201542",
    "name": "ベストケア・デイサービスセンターしまなみ",
    "kana": "ベストケア・デイサービスセンターシマナミ",
    "address": "愛媛県今治市近見町１丁目３番３号",
    "lat": 34.0875566,
    "lng": 132.987366,
    "tel": "0898-34-0606",
    "url": "http://www.best-care.jp/",
    "pref": "愛媛県",
    "city": "今治市",
    "category": "day_service",
    "serviceType": "通所介護",
    "capacity": 45,
    "openDays": [
      "平日",
      "土曜日",
      "祝日"
    ],
    "openDaysNote": ""
  },
  {
    "id": "3870202037",
    "name": "リハビリデイサービスセンター華蓮",
    "kana": "リハビリデイサービスセンターカレン",
    "address": "愛媛県今治市国分2丁目12番62号",
    "lat": 34.0295533,
    "lng": 133.0187319,
    "tel": "0898-35-4788",
    "url": "http://activevision.co.jp",
    "pref": "愛媛県",
    "city": "今治市",
    "category": "day_service",
    "serviceType": "通所介護",
    "capacity": 35,
    "openDays": [
      "平日",
      "土曜日",
      "祝日"
    ],
    "openDaysNote": ""
  },
  {
    "id": "3870201849",
    "name": "リハビリデイサービスセンター晃誠",
    "kana": "リハビリデイサービスセンターコウセイ",
    "address": "愛媛県今治市延喜甲31番地1",
    "lat": 34.0733314290639,
    "lng": 132.960612684934,
    "tel": "0898-35-1388",
    "url": "http://activevision.co.jp/",
    "pref": "愛媛県",
    "city": "今治市",
    "category": "day_service",
    "serviceType": "通所介護",
    "capacity": 34,
    "openDays": [
      "平日",
      "土曜日"
    ],
    "openDaysNote": "特になし"
  },
  {
    "id": "3870201047",
    "name": "今治市社協デイサービスセンター菊間",
    "kana": "イマバリシシャキョウデイサービスセンターキクマ",
    "address": "愛媛県今治市菊間町池原34番地",
    "lat": 34.0256135,
    "lng": 132.8569707,
    "tel": "0898-54-3733",
    "url": "http://www.imabari-shakyo.jp./",
    "pref": "愛媛県",
    "city": "今治市",
    "category": "day_service",
    "serviceType": "通所介護",
    "capacity": 27,
    "openDays": [
      "平日",
      "土曜日",
      "祝日"
    ],
    "openDaysNote": "特にありません。"
  },
  {
    "id": "3870201096",
    "name": "今治市社協デイサービスセンター上浦",
    "kana": "イマバリシシャキョウデイサービスセンターカミウラ",
    "address": "愛媛県今治市上浦町甘崎3878-1",
    "lat": 34.2359732,
    "lng": 133.0523709,
    "tel": "0897-87-4274",
    "url": "http://www.imabari-shakyo.jp/",
    "pref": "愛媛県",
    "city": "今治市",
    "category": "day_service",
    "serviceType": "通所介護",
    "capacity": 0,
    "openDays": [
      "平日",
      "土曜日",
      "祝日"
    ],
    "openDaysNote": "特にありません。"
  },
  {
    "id": "3870201104",
    "name": "今治市社協デイサービスセンター大三島",
    "kana": "イマバリシシャキョウデイサービスセンターオオミシマ",
    "address": "愛媛県今治市大三島町野々江2435番地2今治市大三島福祉センター内 今治市大三島福祉センター内",
    "lat": 34.2207241,
    "lng": 132.9901056,
    "tel": "0897-83-1110",
    "url": "http://www.imabari-shakyo.jp/",
    "pref": "愛媛県",
    "city": "今治市",
    "category": "day_service",
    "serviceType": "通所介護",
    "capacity": 0,
    "openDays": [
      "平日",
      "土曜日",
      "祝日"
    ],
    "openDaysNote": "随時対応しています。"
  },
  {
    "id": "3870201013",
    "name": "今治市社協デイサービスセンター朝倉",
    "kana": "イマバリシシャキョウデイサービスセンターアサクラ",
    "address": "愛媛県今治市朝倉下乙１１２－２",
    "lat": 34.0000703,
    "lng": 133.0055219,
    "tel": "0898-56-3550",
    "url": "http//www.imabari-shakyo.jp",
    "pref": "愛媛県",
    "city": "今治市",
    "category": "day_service",
    "serviceType": "通所介護",
    "capacity": 0,
    "openDays": [
      "平日",
      "土曜日",
      "祝日"
    ],
    "openDaysNote": ""
  },
  {
    "id": "3870201039",
    "name": "今治市社協デイサービスセンター波方",
    "kana": "イマバリシシャキョウデイサ－ビスセンターナミカタ",
    "address": "愛媛県今治市波方町樋口甲264番地1",
    "lat": 34.0972679079258,
    "lng": 132.952175400206,
    "tel": "0898-41-7700",
    "url": "http://www.imabari-syakyo.jp/",
    "pref": "愛媛県",
    "city": "今治市",
    "category": "day_service",
    "serviceType": "通所介護",
    "capacity": 0,
    "openDays": [
      "平日",
      "土曜日",
      "祝日"
    ],
    "openDaysNote": "年末年始は変更する場合がございます。"
  },
  {
    "id": "3870201070",
    "name": "今治市社協デイサービスセンター伯方",
    "kana": "イマバリシシャキョウデイサービスセンターハカタ",
    "address": "愛媛県今治市伯方町木浦甲3930番地1今治市伯方福祉センター内 今治市伯方福祉センター内",
    "lat": 34.211638436133,
    "lng": 133.113461320099,
    "tel": "0897-74-2123",
    "url": "http://www.imabari-shakyo.jp/",
    "pref": "愛媛県",
    "city": "今治市",
    "category": "day_service",
    "serviceType": "通所介護",
    "capacity": 40,
    "openDays": [
      "平日",
      "土曜日",
      "祝日"
    ],
    "openDaysNote": "特にありません。"
  },
  {
    "id": "3870200981",
    "name": "今治市社協介護サービスセンター",
    "kana": "イマバリシシャキョウカイゴサービスセンター",
    "address": "愛媛県今治市南宝来町1-9-8",
    "lat": 34.0601487,
    "lng": 132.9980182,
    "tel": "0898-22-8451",
    "url": "http://www.imabari-shakyo.jp",
    "pref": "愛媛県",
    "city": "今治市",
    "category": "day_service",
    "serviceType": "通所介護",
    "capacity": 0,
    "openDays": [
      "平日",
      "土曜日",
      "祝日"
    ],
    "openDaysNote": "本会会長が必要と認めたときは、営業日又は営業時間を変更し、又は臨時に休業することができる。"
  },
  {
    "id": "3870201054",
    "name": "今治市社協介護サービスセンター大島",
    "kana": "イマバリシシャキョウカイゴサービスセンターオオシマ",
    "address": "愛媛県今治市宮窪町宮窪3544番地の2今治市宮窪福祉センター 今治市宮窪福祉センター",
    "lat": 34.1616813,
    "lng": 133.0721389,
    "tel": "0897-86-3939",
    "url": "http://www.imabari-shakyo.jp",
    "pref": "愛媛県",
    "city": "今治市",
    "category": "day_service",
    "serviceType": "通所介護",
    "capacity": 0,
    "openDays": [
      "平日",
      "祝日"
    ],
    "openDaysNote": "特にありません。"
  },
  {
    "id": "3873200384",
    "name": "指定通所介護事業所デイサービスセンター菊仙荘",
    "kana": "シテイツウショカイゴジギョウショデイサービスセンターキクセンソウ",
    "address": "愛媛県今治市菊間町種3560番地5",
    "lat": 34.0485478,
    "lng": 132.8658969,
    "tel": "0898-54-3403",
    "url": "http://www.kazahaya-k.org/",
    "pref": "愛媛県",
    "city": "今治市",
    "category": "day_service",
    "serviceType": "通所介護",
    "capacity": null,
    "openDays": [
      "平日",
      "土曜日",
      "祝日"
    ],
    "openDaysNote": "特にありません。"
  },
  {
    "id": "3870200296",
    "name": "指定通所介護事業所デイサービスセンター吹揚",
    "kana": "シテイツウショカイゴジギョウショデイサービスセンターフキアゲ",
    "address": "愛媛県今治市黄金町3丁目2番地6",
    "lat": 34.0629988,
    "lng": 133.004784,
    "tel": "0898-25-7575",
    "url": "http://www.yuyukaifukiage.com/",
    "pref": "愛媛県",
    "city": "今治市",
    "category": "day_service",
    "serviceType": "通所介護",
    "capacity": 0,
    "openDays": [
      "平日",
      "土曜日",
      "祝日"
    ],
    "openDaysNote": "特にありません。"
  },
  {
    "id": "3873200517",
    "name": "指定通所介護事業所阿育苑",
    "kana": "シテイツウショカイゴジギョウショアショカエン",
    "address": "愛媛県今治市吉海町仁江262番地1",
    "lat": 34.1511437,
    "lng": 133.0539103,
    "tel": "0897-84-4608",
    "url": "http://asyokaen.jp/",
    "pref": "愛媛県",
    "city": "今治市",
    "category": "day_service",
    "serviceType": "通所介護",
    "capacity": 30,
    "openDays": [
      "平日",
      "土曜日"
    ],
    "openDaysNote": "特にありません。"
  },
  {
    "id": "3871300517",
    "name": "JAうまデイサービスセンターあったか荘三島",
    "kana": "ジェイエイウマデイサービスセンターアッタカソウミシマ",
    "address": "中之庄町1684-4",
    "lat": 33.9800711972975,
    "lng": 133.531786357811,
    "tel": "0896-24-8712",
    "url": "",
    "pref": "愛媛県",
    "city": "四国中央市",
    "category": "day_service",
    "serviceType": "通所介護",
    "capacity": 0,
    "openDays": [
      "平日",
      "土曜日",
      "祝日"
    ],
    "openDaysNote": ""
  },
  {
    "id": "3870800251",
    "name": "JAうまデイサービスセンターあったか荘川之江",
    "kana": "ジェイエイウマデイサービスセンターアッタカソウカワノエ",
    "address": "愛媛県四国中央市妻鳥町1525",
    "lat": 33.9908868,
    "lng": 133.5717345,
    "tel": "0896-58-2132",
    "url": "",
    "pref": "愛媛県",
    "city": "四国中央市",
    "category": "day_service",
    "serviceType": "通所介護",
    "capacity": 0,
    "openDays": [
      "平日",
      "土曜日",
      "祝日"
    ],
    "openDaysNote": "特になし"
  },
  {
    "id": "3871300129",
    "name": "ＪＡうまデイサービスセンターあったか荘土居",
    "kana": "ジェーエーウマデイサービスセンターアッタカソウドイ",
    "address": "愛媛県四国中央市土居町土居885-1",
    "lat": 33.9570437,
    "lng": 133.4209918,
    "tel": "0896-74-0150",
    "url": "",
    "pref": "愛媛県",
    "city": "四国中央市",
    "category": "day_service",
    "serviceType": "通所介護",
    "capacity": 35,
    "openDays": [
      "平日",
      "祝日"
    ],
    "openDaysNote": "特になし"
  },
  {
    "id": "3870800103",
    "name": "かわのえ",
    "kana": "カワノエ",
    "address": "愛媛県四国中央市川之江町長須７１3番地",
    "lat": 34.0305532,
    "lng": 133.5867213,
    "tel": "0896-58-8765",
    "url": "https://www.care-net.biz/38/kawanoesou/company.php",
    "pref": "愛媛県",
    "city": "四国中央市",
    "category": "day_service",
    "serviceType": "通所介護",
    "capacity": 0,
    "openDays": [
      "平日",
      "祝日"
    ],
    "openDaysNote": ""
  },
  {
    "id": "3871300947",
    "name": "ケアプラザ「サン愛」三島事業所",
    "kana": "ケアプラザ「サンアイ」ミシマジギョウショ",
    "address": "愛媛県四国中央市中之庄町621-1",
    "lat": 33.974636,
    "lng": 133.5361485,
    "tel": "0896-28-7920",
    "url": "http://www.sun-i.biz/",
    "pref": "愛媛県",
    "city": "四国中央市",
    "category": "day_service",
    "serviceType": "通所介護",
    "capacity": 0,
    "openDays": [
      "平日",
      "土曜日",
      "祝日"
    ],
    "openDaysNote": ""
  },
  {
    "id": "3871300889",
    "name": "デイサービス　かがやき",
    "kana": "デイサービス　カガヤキ",
    "address": "愛媛県四国中央市寒川町７５８番地１のんびりライフかがやき のんびりライフかがやき",
    "lat": 33.9705584,
    "lng": 133.5195273,
    "tel": "0896-29-5137",
    "url": "http://kagayaki2012.com",
    "pref": "愛媛県",
    "city": "四国中央市",
    "category": "day_service",
    "serviceType": "通所介護",
    "capacity": 6,
    "openDays": [
      "平日",
      "土曜日",
      "祝日"
    ],
    "openDaysNote": ""
  },
  {
    "id": "3871300699",
    "name": "デイサービス　きずな",
    "kana": "デイサービス　キズナ",
    "address": "愛媛県四国中央市中之庄町462番地１のんびりライフタウンかがやき１F のんびりライフタウンかがやき１F",
    "lat": 33.9776545997578,
    "lng": 133.533953658861,
    "tel": "0896-29-5102",
    "url": "http://kagayaki2012.com",
    "pref": "愛媛県",
    "city": "四国中央市",
    "category": "day_service",
    "serviceType": "通所介護",
    "capacity": 30,
    "openDays": [
      "平日",
      "土曜日",
      "祝日"
    ],
    "openDaysNote": ""
  },
  {
    "id": "3871301259",
    "name": "デイサービス　ほのぼの",
    "kana": "デイサービス　ホノボノ",
    "address": "愛媛県四国中央市金生町下分１３３０番地",
    "lat": 33.9996883,
    "lng": 133.5803056,
    "tel": "0896-22-3803",
    "url": "http://meisei-hasegawa.com/publics/index/23/",
    "pref": "愛媛県",
    "city": "四国中央市",
    "category": "day_service",
    "serviceType": "通所介護",
    "capacity": 0,
    "openDays": [
      "平日",
      "土曜日",
      "祝日"
    ],
    "openDaysNote": "特になし"
  },
  {
    "id": "3870800236",
    "name": "デイサービス「ふれあい」",
    "kana": "デイサービス「フレアイ」",
    "address": "愛媛県四国中央市金生町下分1243番地の1",
    "lat": 33.9975534468217,
    "lng": 133.580270463866,
    "tel": "0896-58-5889",
    "url": "http://meisei-hasegawa.com/",
    "pref": "愛媛県",
    "city": "四国中央市",
    "category": "day_service",
    "serviceType": "通所介護",
    "capacity": 5,
    "openDays": [
      "平日",
      "土曜日",
      "祝日"
    ],
    "openDaysNote": "特になし。"
  },
  {
    "id": "3871301267",
    "name": "デイサービスいきいき",
    "kana": "デイサービスイキイキ",
    "address": "愛媛県四国中央市金生町下分１３４８番地１",
    "lat": 33.9985663,
    "lng": 133.5809,
    "tel": "０８９６－２２－３８４３",
    "url": "http://meisei-hasegawa.com",
    "pref": "愛媛県",
    "city": "四国中央市",
    "category": "day_service",
    "serviceType": "通所介護",
    "capacity": 0,
    "openDays": [
      "平日",
      "土曜日",
      "祝日"
    ],
    "openDaysNote": "特になし"
  },
  {
    "id": "3871301481",
    "name": "デイサービスセンター　三島の杜",
    "kana": "デイサービスセンターミシマノモリ",
    "address": "愛媛県四国中央市上柏町２０２番地１地域密着型介護老人福祉施設三島の杜 地域密着型介護老人福祉施設三島の杜",
    "lat": 33.9800974,
    "lng": 133.5611937,
    "tel": "0896-22-4477",
    "url": "http://www.aibikai.jp/",
    "pref": "愛媛県",
    "city": "四国中央市",
    "category": "day_service",
    "serviceType": "通所介護",
    "capacity": 24,
    "openDays": [
      "平日",
      "土曜日",
      "祝日"
    ],
    "openDaysNote": "サービス提供時間については９時１５分から１６時２０分とします。（改行）但し、利用者から希望があり、それに対応可能な場合はこの限りではありません。"
  },
  {
    "id": "3871300442",
    "name": "デイサービスセンター・スマイル",
    "kana": "デイサービスセンター・スマイル",
    "address": "愛媛県四国中央市土居町土居1105-1",
    "lat": 33.9522074984457,
    "lng": 133.415570537434,
    "tel": "0896-74-0155",
    "url": "https://yuyusya.co.jp/",
    "pref": "愛媛県",
    "city": "四国中央市",
    "category": "day_service",
    "serviceType": "通所介護",
    "capacity": 75,
    "openDays": [
      "平日",
      "土曜日",
      "祝日"
    ],
    "openDaysNote": "・特別行事及び複数の利用者から要望がある場合は、休業日もサービスを行う場合があります。"
  },
  {
    "id": "3871301150",
    "name": "デイサービスセンターさくらスマイル",
    "kana": "デイサービスセンターサクラスマイル",
    "address": "土居町畑野713-7",
    "lat": 33.9484278,
    "lng": 133.4098126,
    "tel": "0896-72-6222",
    "url": "http://www.yuyusya.co.jp/",
    "pref": "愛媛県",
    "city": "四国中央市",
    "category": "day_service",
    "serviceType": "通所介護",
    "capacity": 25,
    "openDays": [
      "平日",
      "土曜日",
      "祝日"
    ],
    "openDaysNote": ""
  },
  {
    "id": "3870900309",
    "name": "デイサービスセンターしあわせの家",
    "kana": "デイサービスセンターシアワセノイエ",
    "address": "愛媛県四国中央市豊岡町大町字東原2786番地2",
    "lat": 33.9577345,
    "lng": 133.4900572,
    "tel": "0896-28-2873",
    "url": "http://shiawasenoie.jp/",
    "pref": "愛媛県",
    "city": "四国中央市",
    "category": "day_service",
    "serviceType": "通所介護",
    "capacity": 40,
    "openDays": [
      "平日",
      "土曜日",
      "祝日"
    ],
    "openDaysNote": "特になし。"
  },
  {
    "id": "3871301556",
    "name": "デイサービスセンターしあわせの家寒川",
    "kana": "デイサービスセンターシアワセノイエサンガワ",
    "address": "愛媛県四国中央市寒川町3677",
    "lat": 33.9665576,
    "lng": 133.5054693,
    "tel": "0896-29-5827",
    "url": "http://shiawasenoie.jp/",
    "pref": "愛媛県",
    "city": "四国中央市",
    "category": "day_service",
    "serviceType": "通所介護",
    "capacity": null,
    "openDays": [
      "平日",
      "祝日"
    ],
    "openDaysNote": ""
  },
  {
    "id": "3871300855",
    "name": "デイサービスセンターなないろ",
    "kana": "デイサービスセンターナナイロ",
    "address": "中曽根町1051番地",
    "lat": 33.9710232,
    "lng": 133.5562862,
    "tel": "0896-77-5629",
    "url": "http://www.hiro-homepage4.com/",
    "pref": "愛媛県",
    "city": "四国中央市",
    "category": "day_service",
    "serviceType": "通所介護",
    "capacity": 0,
    "openDays": [
      "平日",
      "土曜日",
      "祝日"
    ],
    "openDaysNote": "特になし。"
  },
  {
    "id": "3871301291",
    "name": "デイサービスセンターなないろ豊岡",
    "kana": "デイサービスセンターナナイロトヨオカ",
    "address": "愛媛県四国中央市豊岡町長田1655番地1",
    "lat": 33.9657735,
    "lng": 133.4765172,
    "tel": "0896-77-4196",
    "url": "https://nanairo-toyooka.webnode.jp/",
    "pref": "愛媛県",
    "city": "四国中央市",
    "category": "day_service",
    "serviceType": "通所介護",
    "capacity": 25,
    "openDays": [
      "平日",
      "祝日"
    ],
    "openDaysNote": ""
  },
  {
    "id": "3871300244",
    "name": "デイサービスセンターやすらぎ",
    "kana": "デイサービスセンターヤスラギ",
    "address": "愛媛県四国中央市金生町下分969番地の1",
    "lat": 33.9997189,
    "lng": 133.5767726,
    "tel": "0896-57-1677",
    "url": "",
    "pref": "愛媛県",
    "city": "四国中央市",
    "category": "day_service",
    "serviceType": "通所介護",
    "capacity": 30,
    "openDays": [
      "平日",
      "土曜日",
      "祝日"
    ],
    "openDaysNote": ""
  },
  {
    "id": "3871300145",
    "name": "デイサービスひかり",
    "kana": "デイサービスヒカリ",
    "address": "愛媛県四国中央市三島金子1丁目4番31号",
    "lat": 33.9816129,
    "lng": 133.5379845,
    "tel": "0896-24-5017",
    "url": "",
    "pref": "愛媛県",
    "city": "四国中央市",
    "category": "day_service",
    "serviceType": "通所介護",
    "capacity": 0,
    "openDays": [
      "平日",
      "土曜日"
    ],
    "openDaysNote": "特になし"
  },
  {
    "id": "3871300277",
    "name": "デイサービス菜の花",
    "kana": "デイサービスナノハナ",
    "address": "愛媛県四国中央市中之庄町59番1",
    "lat": 33.9750274,
    "lng": 133.5290378,
    "tel": "0896-24-2929",
    "url": "http://care-net.biz/38/nanohana/",
    "pref": "愛媛県",
    "city": "四国中央市",
    "category": "day_service",
    "serviceType": "通所介護",
    "capacity": 35,
    "openDays": [
      "平日",
      "土曜日",
      "祝日"
    ],
    "openDaysNote": "サービス提供時間は　9：00～16：15"
  },
  {
    "id": "3871301366",
    "name": "リハビリデイサービスたんぽぽ",
    "kana": "リハビリデイサービスタンポポ",
    "address": "愛媛県四国中央市金生町下分1330番地ハートケアタウン陽だまり1階 ハートケアタウン陽だまり1階",
    "lat": 33.9993689953478,
    "lng": 133.58035764841,
    "tel": "0896-22-3805",
    "url": "http://meisei-hasegawa.com",
    "pref": "愛媛県",
    "city": "四国中央市",
    "category": "day_service",
    "serviceType": "通所介護",
    "capacity": 0,
    "openDays": [
      "平日",
      "土曜日",
      "祝日"
    ],
    "openDaysNote": ""
  },
  {
    "id": "3870900051",
    "name": "共楽園",
    "kana": "キョウラクエン",
    "address": "愛媛県四国中央市寒川町1792番地2",
    "lat": 33.9636092,
    "lng": 133.5166911,
    "tel": "0896-25-1943",
    "url": "http://iyo-fsk.com/",
    "pref": "愛媛県",
    "city": "四国中央市",
    "category": "day_service",
    "serviceType": "通所介護",
    "capacity": 0,
    "openDays": [
      "平日"
    ],
    "openDaysNote": "特になし"
  },
  {
    "id": "3871301218",
    "name": "指定通所介護事業所　みどり荘",
    "kana": "シテイツウショカイゴジギョウショ　ミドリソウ",
    "address": "愛媛県四国中央市中之庄町542",
    "lat": 33.9768912,
    "lng": 133.5348541,
    "tel": "0896-28-7751",
    "url": "https://www.aibikai.jp",
    "pref": "愛媛県",
    "city": "四国中央市",
    "category": "day_service",
    "serviceType": "通所介護",
    "capacity": 35,
    "openDays": [
      "平日",
      "土曜日",
      "祝日"
    ],
    "openDaysNote": "サービス提供時間は9：15～16：30。（改行）祝日も年末年始以外営業しています。"
  },
  {
    "id": "3810910178",
    "name": "生協宇摩リハビリデイサービス",
    "kana": "セイキョウウマリハビリデイサービス",
    "address": "愛媛県四国中央市寒川町2912-1",
    "lat": 33.9672817,
    "lng": 133.5076316,
    "tel": "0896-25-0046",
    "url": "https://www.ehime-med.or.jp/index.php",
    "pref": "愛媛県",
    "city": "四国中央市",
    "category": "day_service",
    "serviceType": "通所介護",
    "capacity": 0,
    "openDays": [
      "平日"
    ],
    "openDaysNote": "営業・休業日から除いた日であっても、感染症又は災害の発生その他やむ負えない場合に限り、臨時に営業または休業することがある。"
  },
  {
    "id": "3871301036",
    "name": "通所介護事業所　ひうち荘",
    "kana": "ツウショカイゴジギョウショ　ヒウチソウ",
    "address": "愛媛県四国中央市土居町津根2639",
    "lat": 33.9668779542664,
    "lng": 133.45856651786,
    "tel": "0896-29-5151",
    "url": "https://www.aibikai.jp/",
    "pref": "愛媛県",
    "city": "四国中央市",
    "category": "day_service",
    "serviceType": "通所介護",
    "capacity": 0,
    "openDays": [
      "平日",
      "土曜日",
      "祝日"
    ],
    "openDaysNote": "12/31～1/3休み"
  },
  {
    "id": "3871300574",
    "name": "通所介護事業所くりのみ土居",
    "kana": "ツウショカイゴジギョウショクリノミドイ",
    "address": "愛媛県四国中央市土居町津根3008-1",
    "lat": 33.9663965,
    "lng": 133.4535686,
    "tel": "0896-74-6541",
    "url": "",
    "pref": "愛媛県",
    "city": "四国中央市",
    "category": "day_service",
    "serviceType": "通所介護",
    "capacity": 90,
    "openDays": [
      "平日",
      "土曜日"
    ],
    "openDaysNote": "特になし"
  },
  {
    "id": "3870800178",
    "name": "樋谷荘",
    "kana": "ヒノタニソウ",
    "address": "愛媛県四国中央市上分町乙8番地2",
    "lat": 33.9803829,
    "lng": 133.5871303,
    "tel": "0896-56-0006",
    "url": "https://www.aibikai.jp/",
    "pref": "愛媛県",
    "city": "四国中央市",
    "category": "day_service",
    "serviceType": "通所介護",
    "capacity": 0,
    "openDays": [
      "平日",
      "土曜日",
      "祝日"
    ],
    "openDaysNote": "特になし"
  },
  {
    "id": "3870105388",
    "name": "AWCたかなわデイサービスセンター",
    "kana": "エーダブルシータカナワデイサービスセンター",
    "address": "愛媛県松山市苞木甲２４７番地２",
    "lat": 33.9407300823501,
    "lng": 132.778320056068,
    "tel": "089-994-3393",
    "url": "awc-tdc@ace.ocn.ne.jp",
    "pref": "愛媛県",
    "city": "松山市",
    "category": "day_service",
    "serviceType": "通所介護",
    "capacity": 0,
    "openDays": [
      "平日"
    ],
    "openDaysNote": "サービス提供時間は9：00～16：30まで"
  },
  {
    "id": "3870105255",
    "name": "ＭＭＣフレンド",
    "kana": "エムエムシーフレンド",
    "address": "愛媛県松山市湯渡町３－１８",
    "lat": 33.8394079,
    "lng": 132.7831486,
    "tel": "089-945-0088",
    "url": "https://mmcdreamservice.jimdo.com/",
    "pref": "愛媛県",
    "city": "松山市",
    "category": "day_service",
    "serviceType": "通所介護",
    "capacity": 53,
    "openDays": [
      "平日",
      "土曜日",
      "祝日"
    ],
    "openDaysNote": ""
  },
  {
    "id": "3870113093",
    "name": "MORE",
    "kana": "モア",
    "address": "愛媛県松山市福角町甲1434番地1",
    "lat": 33.8950921,
    "lng": 132.7589084,
    "tel": "089-909-3646",
    "url": "https://www.hukuzumikai.com",
    "pref": "愛媛県",
    "city": "松山市",
    "category": "day_service",
    "serviceType": "通所介護",
    "capacity": 0,
    "openDays": [
      "平日",
      "土曜日"
    ],
    "openDaysNote": "ただし祝祭日及び年末年始については土曜日等に振り替えて営業することもある。"
  },
  {
    "id": "3870108010",
    "name": "あおぞらの里　森松デイサービスセンター",
    "kana": "アオゾラノサト　モリマツデイサービスセンター",
    "address": "愛媛県松山市森松301-2",
    "lat": 33.7905275,
    "lng": 132.7947115,
    "tel": "089-918-0010",
    "url": "http://www.aozoranosato.jp/lib/center/index.php?id=57",
    "pref": "愛媛県",
    "city": "松山市",
    "category": "day_service",
    "serviceType": "通所介護",
    "capacity": 0,
    "openDays": [
      "平日",
      "土曜日",
      "祝日"
    ],
    "openDaysNote": "年末年始や祝日・祭日も、日曜日以外は営業しております。"
  },
  {
    "id": "3870102427",
    "name": "アシストジャパンデイサービスセンター1号館",
    "kana": "アシストジャパンデイサービスセンターイチゴウカン",
    "address": "愛媛県松山市久米窪田町713-1",
    "lat": 33.8088841,
    "lng": 132.817201,
    "tel": "089-970-4072",
    "url": "http://www.assistjapan.com",
    "pref": "愛媛県",
    "city": "松山市",
    "category": "day_service",
    "serviceType": "通所介護",
    "capacity": 0,
    "openDays": [
      "平日",
      "土曜日",
      "日曜日",
      "祝日"
    ],
    "openDaysNote": "特にありません。"
  },
  {
    "id": "3870104340",
    "name": "アシストジャパンデイサービスセンター3号館",
    "kana": "アシストジャパンデイサービスセンターサンゴウカン",
    "address": "愛媛県松山市南高井町1817番地1",
    "lat": 33.790386,
    "lng": 132.8062854,
    "tel": "089-970-2120",
    "url": "http://www.assistjapan.com/",
    "pref": "愛媛県",
    "city": "松山市",
    "category": "day_service",
    "serviceType": "通所介護",
    "capacity": 0,
    "openDays": [
      "平日",
      "土曜日",
      "日曜日",
      "祝日"
    ],
    "openDaysNote": "特にありません。"
  },
  {
    "id": "3870106014",
    "name": "アシストジャパンデイサービスセンター5号館",
    "kana": "アシストジャパンデイサービスセンターゴゴウカン",
    "address": "愛媛県松山市山越6丁目7-30",
    "lat": 33.858102,
    "lng": 132.7514376,
    "tel": "089-996-8261",
    "url": "http://www.assistjapan.com",
    "pref": "愛媛県",
    "city": "松山市",
    "category": "day_service",
    "serviceType": "通所介護",
    "capacity": 0,
    "openDays": [
      "平日",
      "土曜日",
      "日曜日",
      "祝日"
    ],
    "openDaysNote": "特にありません。"
  },
  {
    "id": "3870102047",
    "name": "アユーラデイサービスセンター",
    "kana": "アユーラデイサービスセンター",
    "address": "愛媛県松山市日の出町10-803Ｆ 3Ｆ",
    "lat": 33.8377248,
    "lng": 132.7837708,
    "tel": "089-947-6388",
    "url": "http://www.ayurastation-matsuyama.jp/",
    "pref": "愛媛県",
    "city": "松山市",
    "category": "day_service",
    "serviceType": "通所介護",
    "capacity": 33,
    "openDays": [
      "平日",
      "土曜日"
    ],
    "openDaysNote": "特にありません。"
  },
  {
    "id": "3870104712",
    "name": "ケアスペース　ももたろう",
    "kana": "ケアスペース　モモタロウ",
    "address": "松山市高浜町１丁目乙60番地150",
    "lat": 33.8768147,
    "lng": 132.7029959,
    "tel": "089-908-8300",
    "url": "",
    "pref": "愛媛県",
    "city": "松山市",
    "category": "day_service",
    "serviceType": "通所介護",
    "capacity": 0,
    "openDays": [
      "平日",
      "土曜日"
    ],
    "openDaysNote": ""
  },
  {
    "id": "3870106139",
    "name": "ケアフィット石井",
    "kana": "ケアフィットイシイ",
    "address": "愛媛県松山市東石井7丁目4番30号",
    "lat": 33.8082837,
    "lng": 132.7768884,
    "tel": "089-969-7020",
    "url": "http://www.best-care.jp/",
    "pref": "愛媛県",
    "city": "松山市",
    "category": "day_service",
    "serviceType": "通所介護",
    "capacity": 40,
    "openDays": [
      "平日",
      "土曜日",
      "祝日"
    ],
    "openDaysNote": "特になし。"
  },
  {
    "id": "3870109570",
    "name": "ケアプラスデイサービスセンター垣生",
    "kana": "ケアプラスデイサービスセンターハブ",
    "address": "愛媛県松山市東垣生町70番地1",
    "lat": 33.8123432425087,
    "lng": 132.718297389584,
    "tel": "089-989-6516",
    "url": "http://www.carep.jp/",
    "pref": "愛媛県",
    "city": "松山市",
    "category": "day_service",
    "serviceType": "通所介護",
    "capacity": 45,
    "openDays": [
      "平日",
      "土曜日",
      "日曜日",
      "祝日"
    ],
    "openDaysNote": "特になし"
  },
  {
    "id": "3870105826",
    "name": "ケアプラスデイサービスセンター三津",
    "kana": "ケアプラスデイサービスセンターミツ",
    "address": "愛媛県松山市中須賀1丁目5-3",
    "lat": 33.8634941154742,
    "lng": 132.723740031877,
    "tel": "089-953-3993",
    "url": "http://carep.jp/",
    "pref": "愛媛県",
    "city": "松山市",
    "category": "day_service",
    "serviceType": "通所介護",
    "capacity": 45,
    "openDays": [
      "平日",
      "土曜日",
      "日曜日",
      "祝日"
    ],
    "openDaysNote": "特になし。"
  },
  {
    "id": "3870109232",
    "name": "ケアプラスデイサービスセンター道後持田",
    "kana": "ケアプラスデイサービスセンタードウゴモチダ",
    "address": "愛媛県松山市南持田町2番地10",
    "lat": 33.8417995776124,
    "lng": 132.778178013492,
    "tel": "089-968-1239",
    "url": "http://carep.jp",
    "pref": "愛媛県",
    "city": "松山市",
    "category": "day_service",
    "serviceType": "通所介護",
    "capacity": 45,
    "openDays": [
      "平日",
      "土曜日",
      "日曜日",
      "祝日"
    ],
    "openDaysNote": "特になし"
  },
  {
    "id": "3870103904",
    "name": "サンケア潮見",
    "kana": "サンケアシオミ",
    "address": "愛媛県松山市平田町246-1",
    "lat": 33.8843094255397,
    "lng": 132.75317009956,
    "tel": "089-911-8028",
    "url": "http://www.ja-e-chuo.or.jp/public_html/top.html",
    "pref": "愛媛県",
    "city": "松山市",
    "category": "day_service",
    "serviceType": "通所介護",
    "capacity": 0,
    "openDays": [
      "平日",
      "土曜日",
      "祝日"
    ],
    "openDaysNote": "基本利用時間は7～8時間ですが、利用者様の状態・要望を聞いたうえで短い利用時間にも対応いたします。"
  },
  {
    "id": "3870112855",
    "name": "ツクイサンフオレスト松山デイサービス",
    "kana": "ツクイサンフォレストマツヤマデイサービス",
    "address": "愛媛県松山市若草町4-1",
    "lat": 33.8462059,
    "lng": 132.7599414,
    "tel": "089-986-7642",
    "url": "https://www.tsukui.net",
    "pref": "愛媛県",
    "city": "松山市",
    "category": "day_service",
    "serviceType": "通所介護",
    "capacity": null,
    "openDays": [
      "平日",
      "土曜日",
      "日曜日",
      "祝日"
    ],
    "openDaysNote": ""
  },
  {
    "id": "3870112897",
    "name": "ツクイ松山桑原",
    "kana": "ツクイマツヤマクワバラ",
    "address": "愛媛県松山市桑原3丁目14番30号",
    "lat": 33.8346288,
    "lng": 132.7979825,
    "tel": "089-986-6688",
    "url": "https://www.tsukui.net/",
    "pref": "愛媛県",
    "city": "松山市",
    "category": "day_service",
    "serviceType": "通所介護",
    "capacity": 0,
    "openDays": [
      "平日",
      "土曜日",
      "日曜日",
      "祝日"
    ],
    "openDaysNote": ""
  },
  {
    "id": "3870112913",
    "name": "ツクイ松山土居田",
    "kana": "ツクイマツヤマドイダ",
    "address": "愛媛県松山市土居田町117-3",
    "lat": 33.8246285,
    "lng": 132.7520793,
    "tel": "089-915-3625",
    "url": "http://www.tsukui.net",
    "pref": "愛媛県",
    "city": "松山市",
    "category": "day_service",
    "serviceType": "通所介護",
    "capacity": 0,
    "openDays": [
      "平日",
      "土曜日",
      "日曜日",
      "祝日"
    ],
    "openDaysNote": "365日年中無休で対応させていただきます。"
  },
  {
    "id": "3870110016",
    "name": "ﾃﾞｲｻｰﾋﾞｽｾﾝﾀｰ　ﾌｫｰﾒﾝﾐﾈﾙﾜ",
    "kana": "デイサービスセンター　フォーメンミネルワ",
    "address": "愛媛県松山市東垣生町903番地1",
    "lat": 33.817742,
    "lng": 132.7186379,
    "tel": "089-972-7575",
    "url": "http://www.m-m-corp.jp/forlife-mineruwa/",
    "pref": "愛媛県",
    "city": "松山市",
    "category": "day_service",
    "serviceType": "通所介護",
    "capacity": 0,
    "openDays": [
      "平日",
      "土曜日",
      "祝日"
    ],
    "openDaysNote": "特になし"
  },
  {
    "id": "3870113143",
    "name": "デイサービス　アトラス瀬戸",
    "kana": "デイサービス　アトラスセト",
    "address": "愛媛県松山市小川甲456",
    "lat": 33.9250480590409,
    "lng": 132.758950471967,
    "tel": "089-909-6811",
    "url": "http://ogawa.miyoshi-s.jp/",
    "pref": "愛媛県",
    "city": "松山市",
    "category": "day_service",
    "serviceType": "通所介護",
    "capacity": null,
    "openDays": [
      "平日"
    ],
    "openDaysNote": ""
  },
  {
    "id": "3870110131",
    "name": "デイサービス　きたえる～む松山本町",
    "kana": "ディサービス　キタエル～ムマツヤマホンマチ",
    "address": "愛媛県松山市本町六丁目1-5葡萄館1F 葡萄館1F",
    "lat": 33.8517029,
    "lng": 132.7590619,
    "tel": "089-924-8003",
    "url": "http://www.kitaeroom.com/",
    "pref": "愛媛県",
    "city": "松山市",
    "category": "day_service",
    "serviceType": "通所介護",
    "capacity": 0,
    "openDays": [
      "平日",
      "土曜日"
    ],
    "openDaysNote": ""
  },
  {
    "id": "3870111444",
    "name": "デイサービス　きたえるーむ　松山来住",
    "kana": "デイサービス　キタエルーム　マツヤマキシ",
    "address": "愛媛県松山市来住町243-2ラポール来住1階 ラポール来住1階",
    "lat": 33.8086508777868,
    "lng": 132.805163691372,
    "tel": "089-909-7062",
    "url": "",
    "pref": "愛媛県",
    "city": "松山市",
    "category": "day_service",
    "serviceType": "通所介護",
    "capacity": null,
    "openDays": [
      "平日",
      "土曜日"
    ],
    "openDaysNote": ""
  },
  {
    "id": "3870113952",
    "name": "でいさーびす　たいしょう",
    "kana": "デイサービス大将",
    "address": "大橋町335番地",
    "lat": 33.7824531,
    "lng": 132.8113747,
    "tel": "089-909-3826",
    "url": "https://taisyou.net",
    "pref": "愛媛県",
    "city": "松山市",
    "category": "day_service",
    "serviceType": "通所介護",
    "capacity": null,
    "openDays": [
      "平日",
      "土曜日",
      "祝日"
    ],
    "openDaysNote": ""
  },
  {
    "id": "3870108119",
    "name": "デイサービス　ハウディー",
    "kana": "デイサービス　ハウディー",
    "address": "愛媛県松山市和気町１丁目４３１－１有料老人ホームハウディー１Ｆ 有料老人ホームハウディー１Ｆ",
    "lat": 33.8942202,
    "lng": 132.7386804,
    "tel": "089-989-8133",
    "url": "https://www.big-advance.site/s/169/1236",
    "pref": "愛媛県",
    "city": "松山市",
    "category": "day_service",
    "serviceType": "通所介護",
    "capacity": 20,
    "openDays": [
      "平日",
      "祝日"
    ],
    "openDaysNote": ""
  },
  {
    "id": "3870107004",
    "name": "デイサービス　ほがら家",
    "kana": "デイサービス　ホガラカ",
    "address": "松山市六軒家町3-22",
    "lat": 33.8520332,
    "lng": 132.7497183,
    "tel": "089-907-5252",
    "url": "http://4seasons-m.com/hogaraka_top.html",
    "pref": "愛媛県",
    "city": "松山市",
    "category": "day_service",
    "serviceType": "通所介護",
    "capacity": 0,
    "openDays": [
      "平日",
      "土曜日",
      "祝日"
    ],
    "openDaysNote": "12月31日～1月3日休日"
  },
  {
    "id": "3870109158",
    "name": "デイサービス　花ぜん",
    "kana": "デイサービス　ハナゼン",
    "address": "愛媛県松山市南江戸３丁目２番１号",
    "lat": 33.8366293,
    "lng": 132.7450382,
    "tel": "089-996-7575",
    "url": "Ｅ-ｍail:hanazen@yuyusya.co.jp",
    "pref": "愛媛県",
    "city": "松山市",
    "category": "day_service",
    "serviceType": "通所介護",
    "capacity": 30,
    "openDays": [
      "平日",
      "土曜日",
      "祝日"
    ],
    "openDaysNote": ""
  },
  {
    "id": "3870111956",
    "name": "デイサービス　華桔梗",
    "kana": "デイサービス　ハナキキョウ",
    "address": "愛媛県松山市南高井町1378番地５介護施設　デイサービス　華桔梗 介護施設　デイサービス　華桔梗",
    "lat": 33.7913331,
    "lng": 132.8011526,
    "tel": "089-970-8787",
    "url": "http://hanakikyo.co.jp",
    "pref": "愛媛県",
    "city": "松山市",
    "category": "day_service",
    "serviceType": "通所介護",
    "capacity": 5,
    "openDays": [
      "平日"
    ],
    "openDaysNote": ""
  },
  {
    "id": "3870108838",
    "name": "デイサービス　気楽",
    "kana": "デイサービス　キラク",
    "address": "愛媛県松山市畑寺町787番地1",
    "lat": 33.8389560144111,
    "lng": 132.804098712897,
    "tel": "089-906-0167",
    "url": "https://care-net.biz/38/kiraku/",
    "pref": "愛媛県",
    "city": "松山市",
    "category": "day_service",
    "serviceType": "通所介護",
    "capacity": 30,
    "openDays": [
      "平日",
      "土曜日",
      "祝日"
    ],
    "openDaysNote": ""
  },
  {
    "id": "3870109687",
    "name": "デイサービス　笑歩会　岩ぜき",
    "kana": "デイサービス　ショウホカイ　イワゼキ",
    "address": "愛媛県松山市溝辺町甲346-7",
    "lat": 33.8517765,
    "lng": 132.8082521,
    "tel": "089-907-6603",
    "url": "http://shouhokai.jp/",
    "pref": "愛媛県",
    "city": "松山市",
    "category": "day_service",
    "serviceType": "通所介護",
    "capacity": 0,
    "openDays": [
      "平日",
      "祝日"
    ],
    "openDaysNote": ""
  },
  {
    "id": "3870113317",
    "name": "デイサービス　竹の郷",
    "kana": "デイサービス　タケノサト",
    "address": "愛媛県松山市太山寺町1466番地1",
    "lat": 33.8868895,
    "lng": 132.7247156,
    "tel": "089-979-7786",
    "url": "http://www.setofukuzikai.com/",
    "pref": "愛媛県",
    "city": "松山市",
    "category": "day_service",
    "serviceType": "通所介護",
    "capacity": 0,
    "openDays": [
      "平日",
      "土曜日"
    ],
    "openDaysNote": "お盆　年末年始休暇あり"
  },
  {
    "id": "3870101593",
    "name": "デイサービス　梅本の里",
    "kana": "デイサービス　ウメモトノサト",
    "address": "愛媛県松山市平井町1287番地",
    "lat": 33.8089913777008,
    "lng": 132.835267161257,
    "tel": "089-997-7762",
    "url": "http://www.umemotonosato.com/",
    "pref": "愛媛県",
    "city": "松山市",
    "category": "day_service",
    "serviceType": "通所介護",
    "capacity": 45,
    "openDays": [
      "平日",
      "土曜日",
      "祝日"
    ],
    "openDaysNote": "特になし。"
  },
  {
    "id": "3870109729",
    "name": "デイサービスいきいきわかば",
    "kana": "デイサービスイキイキワカバ",
    "address": "若葉町4番27号",
    "lat": 33.8557157581454,
    "lng": 132.716746834918,
    "tel": "089－989－9710",
    "url": "http://www.ikiiki-wakaba.com/",
    "pref": "愛媛県",
    "city": "松山市",
    "category": "day_service",
    "serviceType": "通所介護",
    "capacity": 0,
    "openDays": [
      "平日",
      "土曜日",
      "祝日"
    ],
    "openDaysNote": "特にありません。"
  },
  {
    "id": "3870111287",
    "name": "デイサービスおはなはん",
    "kana": "デイサービスオハナハン",
    "address": "愛媛県松山市清水町３丁目43－9森本ビル1Ｆ 森本ビル1Ｆ",
    "lat": 33.852653,
    "lng": 132.7657696,
    "tel": "089-995-8741",
    "url": "",
    "pref": "愛媛県",
    "city": "松山市",
    "category": "day_service",
    "serviceType": "通所介護",
    "capacity": 0,
    "openDays": [
      "平日",
      "土曜日",
      "祝日"
    ],
    "openDaysNote": "12/31～1/3休業"
  },
  {
    "id": "3870112236",
    "name": "デイサービスクリア2号店",
    "kana": "デイサービズクリアニゴウテン",
    "address": "愛媛県松山市空港通り1丁目8-28",
    "lat": 33.8282971,
    "lng": 132.7494435,
    "tel": "089-989-5720",
    "url": "http://www.clears.life",
    "pref": "愛媛県",
    "city": "松山市",
    "category": "day_service",
    "serviceType": "通所介護",
    "capacity": null,
    "openDays": [
      "平日",
      "土曜日",
      "祝日"
    ],
    "openDaysNote": ""
  },
  {
    "id": "3870113267",
    "name": "デイサービスこころ",
    "kana": "デイサービスココロ",
    "address": "愛媛県松山市松前町3丁目2-2ﾊﾟｲﾝｳﾞｨﾚｯｼﾞ松前1階南側 ﾊﾟｲﾝｳﾞｨﾚｯｼﾞ松前1階南側",
    "lat": 33.8455496,
    "lng": 132.7574931,
    "tel": "899102798",
    "url": "",
    "pref": "愛媛県",
    "city": "松山市",
    "category": "day_service",
    "serviceType": "通所介護",
    "capacity": 220,
    "openDays": [
      "平日",
      "祝日"
    ],
    "openDaysNote": ""
  },
  {
    "id": "3870112087",
    "name": "デイサービスセンター　あいじゅ祝谷",
    "kana": "デイサービスセンター　アイジュイワイダニ",
    "address": "愛媛県松山市祝谷6丁目1027番地1高齢者総合福祉施設あいじゅ祝谷 高齢者総合福祉施設あいじゅ祝谷",
    "lat": 33.862941,
    "lng": 132.7754966,
    "tel": "089-994-5887",
    "url": "http://aijukai-group.com/facilities/iwaidani.html",
    "pref": "愛媛県",
    "city": "松山市",
    "category": "day_service",
    "serviceType": "通所介護",
    "capacity": 0,
    "openDays": [
      "平日",
      "土曜日",
      "祝日"
    ],
    "openDaysNote": ""
  },
  {
    "id": "3870103607",
    "name": "デイサービスセンター　あすれ",
    "kana": "デイサービスセンター　アスレ",
    "address": "愛媛県松山市空港通４丁目７番２号",
    "lat": 33.8287177748977,
    "lng": 132.735155504927,
    "tel": "089-909-8588",
    "url": "http://www.asre.co.jp",
    "pref": "愛媛県",
    "city": "松山市",
    "category": "day_service",
    "serviceType": "通所介護",
    "capacity": 0,
    "openDays": [
      "平日",
      "土曜日",
      "祝日"
    ],
    "openDaysNote": "特になし"
  },
  {
    "id": "3870112186",
    "name": "デイサービスセンター　ウェルケア道後",
    "kana": "デイサービスセンター　ウェルケアドウゴ",
    "address": "愛媛県松山市下伊台町乙129-3",
    "lat": 33.8740474843773,
    "lng": 132.783115122287,
    "tel": "089-993-8232",
    "url": "http://kikuju.or.jp/",
    "pref": "愛媛県",
    "city": "松山市",
    "category": "day_service",
    "serviceType": "通所介護",
    "capacity": 45,
    "openDays": [
      "平日",
      "土曜日",
      "日曜日",
      "祝日"
    ],
    "openDaysNote": "但し、1月1日～1月3日は休業"
  },
  {
    "id": "3870105156",
    "name": "デイサービスセンター　さや",
    "kana": "デイサービスセンター　サヤ",
    "address": "愛媛県松山市南斎院町1158",
    "lat": 33.8347459,
    "lng": 132.7356696,
    "tel": "089-972-6000",
    "url": "http://www.aijukai-group.com/",
    "pref": "愛媛県",
    "city": "松山市",
    "category": "day_service",
    "serviceType": "通所介護",
    "capacity": 30,
    "openDays": [
      "平日",
      "土曜日",
      "祝日"
    ],
    "openDaysNote": "特にありません。"
  },
  {
    "id": "3870111105",
    "name": "デイサービスセンター　サンシティ北条",
    "kana": "デイサービスセンター　サンシティホウジョウ",
    "address": "愛媛県松山市下難波甲1377番2高齢者総合福祉施設　サンシティ北条 高齢者総合福祉施設　サンシティ北条",
    "lat": 33.9837602,
    "lng": 132.7883462,
    "tel": "089-992-3301",
    "url": "http://suncity-hojo.jp",
    "pref": "愛媛県",
    "city": "松山市",
    "category": "day_service",
    "serviceType": "通所介護",
    "capacity": 0,
    "openDays": [
      "平日",
      "土曜日",
      "日曜日",
      "祝日"
    ],
    "openDaysNote": "特になし。"
  },
  {
    "id": "3870101635",
    "name": "デイサービスセンター　であい",
    "kana": "デイサービスセンター　デアイ",
    "address": "愛媛県松山市余戸南5丁目3-18",
    "lat": 33.8088459,
    "lng": 132.7244456,
    "tel": "089-972-2500",
    "url": "http://www.aijukai-group.com",
    "pref": "愛媛県",
    "city": "松山市",
    "category": "day_service",
    "serviceType": "通所介護",
    "capacity": 50,
    "openDays": [
      "平日",
      "土曜日",
      "祝日"
    ],
    "openDaysNote": "特にありません。"
  },
  {
    "id": "3870110891",
    "name": "デイサービスセンター　ドマーニ",
    "kana": "デイサービスセンター　ドマーニ",
    "address": "愛媛県松山市小栗2丁目3番5号",
    "lat": 33.8256063845872,
    "lng": 132.75924283373,
    "tel": "089-931-1556",
    "url": "http://domani.sunliberal.com",
    "pref": "愛媛県",
    "city": "松山市",
    "category": "day_service",
    "serviceType": "通所介護",
    "capacity": 0,
    "openDays": [
      "平日",
      "土曜日",
      "祝日"
    ],
    "openDaysNote": "特になし"
  },
  {
    "id": "3870108465",
    "name": "デイサービスセンター　プリンス",
    "kana": "デイサービスセンター　プリンス",
    "address": "西石井1丁目1番5号",
    "lat": 33.8159688,
    "lng": 132.7743164,
    "tel": "089-961-1177",
    "url": "http://care-life-energy.jp",
    "pref": "愛媛県",
    "city": "松山市",
    "category": "day_service",
    "serviceType": "通所介護",
    "capacity": 0,
    "openDays": [
      "平日",
      "土曜日",
      "日曜日",
      "祝日"
    ],
    "openDaysNote": ""
  },
  {
    "id": "3870113630",
    "name": "デイサービスセンター　リハライフ小坂",
    "kana": "デイサービスセンター　リハライフコサカ",
    "address": "愛媛県松山市小坂４丁目7-8",
    "lat": 33.8279659,
    "lng": 132.7813043,
    "tel": "899093456",
    "url": "https://www.rehalife-kochi.com/",
    "pref": "愛媛県",
    "city": "松山市",
    "category": "day_service",
    "serviceType": "通所介護",
    "capacity": 0,
    "openDays": [
      "平日",
      "土曜日",
      "祝日"
    ],
    "openDaysNote": ""
  },
  {
    "id": "3870110743",
    "name": "デイサービスセンター　珠の実",
    "kana": "デイサービスセンター　タマノミ",
    "address": "愛媛県松山市余戸西三丁目9番29号",
    "lat": 33.8136666284281,
    "lng": 132.719916331562,
    "tel": "089-989-9166",
    "url": "https://tamanomi.jp/",
    "pref": "愛媛県",
    "city": "松山市",
    "category": "day_service",
    "serviceType": "通所介護",
    "capacity": 0,
    "openDays": [
      "平日",
      "土曜日",
      "祝日"
    ],
    "openDaysNote": "特になし"
  },
  {
    "id": "3870112467",
    "name": "デイサービスセンターあいえ",
    "kana": "デイサービスセンターアイエ",
    "address": "愛媛県松山市竹原2丁目4-28",
    "lat": 33.8319608,
    "lng": 132.7520412,
    "tel": "089-916-5888",
    "url": "",
    "pref": "愛媛県",
    "city": "松山市",
    "category": "day_service",
    "serviceType": "通所介護",
    "capacity": 0,
    "openDays": [
      "平日",
      "土曜日",
      "日曜日",
      "祝日"
    ],
    "openDaysNote": "年末年始のみ休日となる場合があります。"
  },
  {
    "id": "3870105511",
    "name": "デイサービスセンターあおいほし",
    "kana": "デイサービスセンターアオイホシ",
    "address": "愛媛県松山市古川北一丁目２２番２２号",
    "lat": 33.8150797,
    "lng": 132.7626482,
    "tel": "089-956-5317",
    "url": "",
    "pref": "愛媛県",
    "city": "松山市",
    "category": "day_service",
    "serviceType": "通所介護",
    "capacity": 0,
    "openDays": [
      "平日"
    ],
    "openDaysNote": "１２月３１日～１月３日が定休日となっております。"
  },
  {
    "id": "3870112590",
    "name": "デイサービスセンターあさなぎ",
    "kana": "デイサービスセンターアサナギ",
    "address": "愛媛県松山市南吉田町1730番地2",
    "lat": 33.8286824,
    "lng": 132.713682,
    "tel": "089－946－6604",
    "url": "",
    "pref": "愛媛県",
    "city": "松山市",
    "category": "day_service",
    "serviceType": "通所介護",
    "capacity": null,
    "openDays": [
      "平日",
      "土曜日",
      "祝日"
    ],
    "openDaysNote": ""
  },
  {
    "id": "3870106212",
    "name": "デイサービスセンターアテーナ",
    "kana": "デイサービスセンターアテーナ",
    "address": "愛媛県松山市保免中三丁目3番23号",
    "lat": 33.814482,
    "lng": 132.7459525,
    "tel": "089-905-6855",
    "url": "http://ate-na.jp",
    "pref": "愛媛県",
    "city": "松山市",
    "category": "day_service",
    "serviceType": "通所介護",
    "capacity": 0,
    "openDays": [
      "平日",
      "土曜日",
      "祝日"
    ],
    "openDaysNote": ""
  },
  {
    "id": "3870106352",
    "name": "デイサービスセンターうめの小町",
    "kana": "デイサービスセンターウメノコマチ",
    "address": "愛媛県松山市南梅本町50番地2",
    "lat": 33.7984358,
    "lng": 132.8425933,
    "tel": "089-970-0305",
    "url": "https://www.umekoma.jp/",
    "pref": "愛媛県",
    "city": "松山市",
    "category": "day_service",
    "serviceType": "通所介護",
    "capacity": 45,
    "openDays": [
      "平日",
      "土曜日",
      "祝日"
    ],
    "openDaysNote": ""
  },
  {
    "id": "3870111816",
    "name": "デイサービスセンターおもや",
    "kana": "デイサービスセンターオモヤ",
    "address": "愛媛県松山市大橋町335番地",
    "lat": 33.7820009,
    "lng": 132.8099407,
    "tel": "089-963-8620",
    "url": "http://ely-omoya.jp",
    "pref": "愛媛県",
    "city": "松山市",
    "category": "day_service",
    "serviceType": "通所介護",
    "capacity": 0,
    "openDays": [
      "平日",
      "土曜日",
      "祝日"
    ],
    "openDaysNote": "サービス提供時間　９：００～１６：００（時短・延長時間対応可能）（改行）（改行）その他年間の休日（改行）お盆：８月１４日～１６日の内の２日間（毎年４月に掲示し利用者に周知）（改行）年末･年始：１２月３１日～１月３日"
  },
  {
    "id": "3870112574",
    "name": "デイサービスセンターかがやき松山",
    "kana": "デイサービスセンターカガヤキマツヤマ",
    "address": "愛媛県松山市西石井6丁目12番27号Sグラン松山 Sグラン松山",
    "lat": 33.8149533242997,
    "lng": 132.774659852779,
    "tel": "089-909-3893",
    "url": "",
    "pref": "愛媛県",
    "city": "松山市",
    "category": "day_service",
    "serviceType": "通所介護",
    "capacity": null,
    "openDays": [
      "平日",
      "土曜日",
      "日曜日",
      "祝日"
    ],
    "openDaysNote": "サービス提供時間：8時40分から16時40分"
  },
  {
    "id": "3870102781",
    "name": "デイサービスセンターケアフル土居田",
    "kana": "デイサービスセンターケアフルドイダ",
    "address": "愛媛県松山市土居田町81-1",
    "lat": 33.8240584665603,
    "lng": 132.752429630093,
    "tel": "089-987-7580",
    "url": "http://yamakikai.com",
    "pref": "愛媛県",
    "city": "松山市",
    "category": "day_service",
    "serviceType": "通所介護",
    "capacity": 0,
    "openDays": [
      "平日",
      "土曜日",
      "祝日"
    ],
    "openDaysNote": "特になし。"
  },
  {
    "id": "3870101676",
    "name": "デイサービスセンターごごしま",
    "kana": "デイサービスセンターゴゴシマ",
    "address": "愛媛県松山市泊町618-4",
    "lat": 33.8819244,
    "lng": 132.6800157,
    "tel": "089-961-5800",
    "url": "nigitatsu.saiseikai.or.jp",
    "pref": "愛媛県",
    "city": "松山市",
    "category": "day_service",
    "serviceType": "通所介護",
    "capacity": 30,
    "openDays": [
      "平日",
      "土曜日",
      "祝日"
    ],
    "openDaysNote": "台風などにより、フェリーが欠航した場合は、休業しています。"
  },
  {
    "id": "3870109091",
    "name": "デイサービスセンターこのみ余戸",
    "kana": "デイサービスセンターコノミヨウゴ",
    "address": "松山市余戸西5丁目15-9",
    "lat": 33.8191502,
    "lng": 132.722068,
    "tel": "089-989-7047",
    "url": "https://konomi-kokoro.co.jp/",
    "pref": "愛媛県",
    "city": "松山市",
    "category": "day_service",
    "serviceType": "通所介護",
    "capacity": 23,
    "openDays": [
      "平日",
      "祝日"
    ],
    "openDaysNote": ""
  },
  {
    "id": "3870112426",
    "name": "デイサービスセンターそえる",
    "kana": "デイサービスセンターソエル",
    "address": "愛媛県松山市辰巳町7-21",
    "lat": 33.8678558,
    "lng": 132.7178628,
    "tel": "089-904-6031",
    "url": "https://www.kaisei-iyo.com/",
    "pref": "愛媛県",
    "city": "松山市",
    "category": "day_service",
    "serviceType": "通所介護",
    "capacity": 0,
    "openDays": [
      "平日",
      "土曜日",
      "日曜日",
      "祝日"
    ],
    "openDaysNote": ""
  },
  {
    "id": "3870102229",
    "name": "デイサービスセンターハッピー愛媛",
    "kana": "デイサービスセンターハッピーエヒメ",
    "address": "愛媛県松山市中央1丁目17番35号",
    "lat": 33.8547273,
    "lng": 132.7487712,
    "tel": "089-911-0002",
    "url": "http://www.carejapan.co.jp/",
    "pref": "愛媛県",
    "city": "松山市",
    "category": "day_service",
    "serviceType": "通所介護",
    "capacity": 0,
    "openDays": [
      "平日",
      "土曜日",
      "祝日"
    ],
    "openDaysNote": "特にありません。"
  },
  {
    "id": "3870105776",
    "name": "デイサービスセンタービハーラ",
    "kana": "デイサービスセンタービハーラ",
    "address": "愛媛県松山市安城寺町524番地",
    "lat": 33.8744665,
    "lng": 132.7405664,
    "tel": "089-979-4084",
    "url": "http://vihara.or.jp",
    "pref": "愛媛県",
    "city": "松山市",
    "category": "day_service",
    "serviceType": "通所介護",
    "capacity": 45,
    "openDays": [
      "平日",
      "土曜日",
      "祝日"
    ],
    "openDaysNote": "特にありません。"
  },
  {
    "id": "3870110313",
    "name": "デイサービスセンタープリンスハウス土居田",
    "kana": "デイサービスセンター　プリンスハウスドイダ",
    "address": "愛媛県松山市土居田町821番地",
    "lat": 33.8212951,
    "lng": 132.7469911,
    "tel": "089-994-5557",
    "url": "",
    "pref": "愛媛県",
    "city": "松山市",
    "category": "day_service",
    "serviceType": "通所介護",
    "capacity": 25,
    "openDays": [
      "平日",
      "土曜日",
      "祝日"
    ],
    "openDaysNote": ""
  },
  {
    "id": "3870108887",
    "name": "デイサービスセンタープリンセス",
    "kana": "デイサービスセンタープリンセス",
    "address": "愛媛県松山市北井門五丁目２４番１８号プリンスハウス北井門 プリンスハウス北井門",
    "lat": 33.8044034,
    "lng": 132.7696615,
    "tel": "961－1556",
    "url": "http://care-life-energy.jp/",
    "pref": "愛媛県",
    "city": "松山市",
    "category": "day_service",
    "serviceType": "通所介護",
    "capacity": 0,
    "openDays": [
      "平日",
      "土曜日",
      "祝日"
    ],
    "openDaysNote": ""
  },
  {
    "id": "3870105933",
    "name": "デイサービスセンターふるさと",
    "kana": "デイサービスセンターフルサト",
    "address": "愛媛県松山市松ノ木2丁目696番6",
    "lat": 33.8717105,
    "lng": 132.7206099,
    "tel": "089-968-3320",
    "url": "",
    "pref": "愛媛県",
    "city": "松山市",
    "category": "day_service",
    "serviceType": "通所介護",
    "capacity": 0,
    "openDays": [
      "平日",
      "土曜日",
      "日曜日",
      "祝日"
    ],
    "openDaysNote": ""
  },
  {
    "id": "3870106527",
    "name": "デイサービスセンターミネルワ",
    "kana": "デイサービスセンターミネルワ",
    "address": "愛媛県松山市高岡町301-13",
    "lat": 33.8266215,
    "lng": 132.7223347,
    "tel": "089-972-1088",
    "url": "http://www.mineruwa.jp/",
    "pref": "愛媛県",
    "city": "松山市",
    "category": "day_service",
    "serviceType": "通所介護",
    "capacity": 40,
    "openDays": [
      "平日",
      "土曜日",
      "祝日"
    ],
    "openDaysNote": "特になし"
  },
  {
    "id": "3870105024",
    "name": "デイサービスセンターゆうゆう",
    "kana": "デイサービスセンターユウユウ",
    "address": "愛媛県松山市余戸南二丁目24番38号",
    "lat": 33.8108294,
    "lng": 132.7351421,
    "tel": "089-965-2050",
    "url": "http://www.yuyusya.co.jp/",
    "pref": "愛媛県",
    "city": "松山市",
    "category": "day_service",
    "serviceType": "通所介護",
    "capacity": 5,
    "openDays": [
      "平日",
      "土曜日",
      "祝日"
    ],
    "openDaysNote": "特にありません。"
  },
  {
    "id": "3870113069",
    "name": "デイサービスセンターりはらぼ三津浜",
    "kana": "デイサービスセンターリハラボミツハマ",
    "address": "愛媛県松山市神田町8-17　ワイズ三津浜",
    "lat": 33.8624031148746,
    "lng": 132.718775821426,
    "tel": "089-909-8440",
    "url": "",
    "pref": "愛媛県",
    "city": "松山市",
    "category": "day_service",
    "serviceType": "通所介護",
    "capacity": 0,
    "openDays": [
      "平日",
      "土曜日",
      "祝日"
    ],
    "openDaysNote": ""
  },
  {
    "id": "3870109331",
    "name": "デイサービスセンター愛音",
    "kana": "デイサービスセンター　アイネ",
    "address": "愛媛県松山市永木町2丁目1番地25号シティらいふ石手川　3階 シティらいふ石手川　3階",
    "lat": 33.8354776,
    "lng": 132.7749661,
    "tel": "089－986－3151",
    "url": "http://sou-corporation.sakura.ne.jp/",
    "pref": "愛媛県",
    "city": "松山市",
    "category": "day_service",
    "serviceType": "通所介護",
    "capacity": 35,
    "openDays": [
      "平日",
      "土曜日",
      "祝日"
    ],
    "openDaysNote": "特になし"
  },
  {
    "id": "3870101643",
    "name": "デイサービスセンター愛寿荘",
    "kana": "デイサービスセンターアイジュソウ",
    "address": "愛媛県松山市来住町1171番地1",
    "lat": 33.8089400511949,
    "lng": 132.797392313725,
    "tel": "089-948-8332",
    "url": "http://www.aijukai-group.com/",
    "pref": "愛媛県",
    "city": "松山市",
    "category": "day_service",
    "serviceType": "通所介護",
    "capacity": 0,
    "openDays": [
      "平日",
      "土曜日",
      "祝日"
    ],
    "openDaysNote": "特になし。"
  },
  {
    "id": "3870101551",
    "name": "デイサービスセンター安寿荘",
    "kana": "デイサービスセンターアンジュソウ",
    "address": "愛媛県松山市安城寺町1427番地1",
    "lat": 33.8849636293717,
    "lng": 132.736998752779,
    "tel": "089-978-6976",
    "url": "http://anju-kai.jp",
    "pref": "愛媛県",
    "city": "松山市",
    "category": "day_service",
    "serviceType": "通所介護",
    "capacity": 5,
    "openDays": [
      "平日",
      "土曜日",
      "祝日"
    ],
    "openDaysNote": "特にありません。"
  },
  {
    "id": "3870113432",
    "name": "デイサービスセンター華音",
    "kana": "デイサービスセンターカノン",
    "address": "愛媛県松山市堀江町甲955番地1えみらいふ堀江 えみらいふ堀江",
    "lat": 33.902819612029,
    "lng": 132.745357880057,
    "tel": "089-992-9700",
    "url": "",
    "pref": "愛媛県",
    "city": "松山市",
    "category": "day_service",
    "serviceType": "通所介護",
    "capacity": 25,
    "openDays": [
      "平日",
      "土曜日",
      "祝日"
    ],
    "openDaysNote": ""
  },
  {
    "id": "3870102112",
    "name": "デイサービスセンター五明苑",
    "kana": "デイサービスセンターゴミョウエン",
    "address": "愛媛県松山市菅沢町乙491-6",
    "lat": 33.9024671917075,
    "lng": 132.807805995107,
    "tel": "089-977-6652",
    "url": "http://www.gomyoen.jp/",
    "pref": "愛媛県",
    "city": "松山市",
    "category": "day_service",
    "serviceType": "通所介護",
    "capacity": 0,
    "openDays": [
      "平日",
      "祝日"
    ],
    "openDaysNote": "特にありません。"
  },
  {
    "id": "3870104928",
    "name": "デイサービスセンター星岡",
    "kana": "デイサービスセンターホシオカ",
    "address": "愛媛県松山市星岡2丁目8番24号",
    "lat": 33.8192992,
    "lng": 132.7825627,
    "tel": "089-914-8668",
    "url": "http://www.junpu.or.jp/kanfu.center/",
    "pref": "愛媛県",
    "city": "松山市",
    "category": "day_service",
    "serviceType": "通所介護",
    "capacity": 0,
    "openDays": [
      "平日",
      "土曜日",
      "日曜日",
      "祝日"
    ],
    "openDaysNote": "特になし"
  },
  {
    "id": "3870111626",
    "name": "デイサービスセンター樽味",
    "kana": "デイサービスセンタータルミ",
    "address": "愛媛県松山市樽味4丁目12番地18",
    "lat": 33.8392692,
    "lng": 132.7880843,
    "tel": "089-932-4050",
    "url": "",
    "pref": "愛媛県",
    "city": "松山市",
    "category": "day_service",
    "serviceType": "通所介護",
    "capacity": 10,
    "openDays": [
      "平日",
      "土曜日",
      "日曜日",
      "祝日"
    ],
    "openDaysNote": ""
  },
  {
    "id": "3870101627",
    "name": "デイサービスセンター道後",
    "kana": "デイサービスセンタードウゴ",
    "address": "愛媛県松山市溝辺町539番地1",
    "lat": 33.8531652,
    "lng": 132.8028881,
    "tel": "089-977-8383",
    "url": "http://aijukai-group.com/facilities/daycare",
    "pref": "愛媛県",
    "city": "松山市",
    "category": "day_service",
    "serviceType": "通所介護",
    "capacity": 0,
    "openDays": [
      "平日",
      "土曜日",
      "祝日"
    ],
    "openDaysNote": "特にありません。"
  },
  {
    "id": "3870108549",
    "name": "デイサービスセンター梅本の里・小梅",
    "kana": "デイサービスセンターウメモトノサト・コウメ",
    "address": "愛媛県松山市水泥町９６１番地",
    "lat": 33.806143,
    "lng": 132.8325941,
    "tel": "089-970-8839",
    "url": "http://www.umemotonosato.com/",
    "pref": "愛媛県",
    "city": "松山市",
    "category": "day_service",
    "serviceType": "通所介護",
    "capacity": 0,
    "openDays": [
      "平日",
      "土曜日",
      "祝日"
    ],
    "openDaysNote": ""
  },
  {
    "id": "3873300119",
    "name": "デイサービスセンター姫ヶ浜荘",
    "kana": "デイサービスセンターヒメガハマソウ",
    "address": "愛媛県松山市長師156番地1",
    "lat": 33.9587645,
    "lng": 132.6266611,
    "tel": "089-997-0777",
    "url": "",
    "pref": "愛媛県",
    "city": "松山市",
    "category": "day_service",
    "serviceType": "通所介護",
    "capacity": 0,
    "openDays": [
      "平日",
      "土曜日",
      "祝日"
    ],
    "openDaysNote": "台風による天災は中止させていただきます。"
  },
  {
    "id": "3870112749",
    "name": "デイサービスセンター未来たかのこ",
    "kana": "デイサービスセンターミライタカノコ",
    "address": "愛媛県松山市鷹子町1061番地1",
    "lat": 33.8168842280046,
    "lng": 132.812637115344,
    "tel": "089-970-5511",
    "url": "http://www.care-net.biz/38/yoshimaru1930/",
    "pref": "愛媛県",
    "city": "松山市",
    "category": "day_service",
    "serviceType": "通所介護",
    "capacity": null,
    "openDays": [
      "平日",
      "土曜日",
      "祝日"
    ],
    "openDaysNote": ""
  },
  {
    "id": "3870104365",
    "name": "デイサービスセンター友",
    "kana": "デイサービスセンターユウ",
    "address": "愛媛県松山市築山町7-14",
    "lat": 33.8382496,
    "lng": 132.7779269,
    "tel": "089-913-7365",
    "url": "https://care-net.biz/38/aikoukaiyou/",
    "pref": "愛媛県",
    "city": "松山市",
    "category": "day_service",
    "serviceType": "通所介護",
    "capacity": 20,
    "openDays": [
      "平日",
      "土曜日",
      "祝日"
    ],
    "openDaysNote": "特になし"
  },
  {
    "id": "3870102500",
    "name": "デイサービスセンター和光苑",
    "kana": "デイサービスセンターワコウエン",
    "address": "愛媛県松山市井門町1099番地",
    "lat": 33.796821,
    "lng": 132.7771356,
    "tel": "089-969-0001",
    "url": "http://wakouen.okoshi-yasu.com/",
    "pref": "愛媛県",
    "city": "松山市",
    "category": "day_service",
    "serviceType": "通所介護",
    "capacity": 55,
    "openDays": [
      "平日",
      "祝日"
    ],
    "openDaysNote": "特になし。"
  },
  {
    "id": "3870101544",
    "name": "デイサービスセンター和泉",
    "kana": "デイサービスセンターイズミ",
    "address": "愛媛県松山市和泉北１丁目20番28号",
    "lat": 33.8255256,
    "lng": 132.7620508,
    "tel": "089-935-7001",
    "url": "",
    "pref": "愛媛県",
    "city": "松山市",
    "category": "day_service",
    "serviceType": "通所介護",
    "capacity": 0,
    "openDays": [
      "平日",
      "土曜日",
      "日曜日",
      "祝日"
    ],
    "openDaysNote": "特になし"
  },
  {
    "id": "3870107046",
    "name": "デイサービスセンター煌乃星",
    "kana": "デイサービスセンターキラメキノホシ",
    "address": "愛媛県松山市和泉南4丁目１4番23号",
    "lat": 33.8143240149292,
    "lng": 132.756659873302,
    "tel": "089-908-5325",
    "url": "",
    "pref": "愛媛県",
    "city": "松山市",
    "category": "day_service",
    "serviceType": "通所介護",
    "capacity": 0,
    "openDays": [
      "平日"
    ],
    "openDaysNote": "１２月３１日～１月３日を定休日とする。"
  },
  {
    "id": "3870113788",
    "name": "デイサービスダイヤスター",
    "kana": "デイサービスダイヤスター",
    "address": "愛媛県松山市星岡二丁目1番27号",
    "lat": 33.8168353351623,
    "lng": 132.785320449074,
    "tel": "089-993-7353",
    "url": "https://daiyaservice.co.jp/",
    "pref": "愛媛県",
    "city": "松山市",
    "category": "day_service",
    "serviceType": "通所介護",
    "capacity": null,
    "openDays": [
      "平日",
      "土曜日"
    ],
    "openDaysNote": ""
  },
  {
    "id": "3870107970",
    "name": "デイサービスなでしこ",
    "kana": "デイサービスナデシコ",
    "address": "愛媛県松山市高井町647番6",
    "lat": 33.7986935,
    "lng": 132.8152235,
    "tel": "089-993-5972",
    "url": "http://www.ehime-medix.jp",
    "pref": "愛媛県",
    "city": "松山市",
    "category": "day_service",
    "serviceType": "通所介護",
    "capacity": 0,
    "openDays": [
      "平日",
      "土曜日",
      "祝日"
    ],
    "openDaysNote": "1月1日から1月3日まで休み"
  },
  {
    "id": "3870110255",
    "name": "デイサービスひがし野　夢の石手",
    "kana": "デイサービスヒガシノ　ユメノイシテ",
    "address": "愛媛県松山市石手2丁目5番11号",
    "lat": 33.8460824,
    "lng": 132.7971577,
    "tel": "089-914-3300",
    "url": "http://www.higashino-group.com/",
    "pref": "愛媛県",
    "city": "松山市",
    "category": "day_service",
    "serviceType": "通所介護",
    "capacity": 25,
    "openDays": [
      "平日",
      "土曜日",
      "祝日"
    ],
    "openDaysNote": ""
  },
  {
    "id": "3871100214",
    "name": "デイサービスほうじょう",
    "kana": "デイサービス　ホウジョウ",
    "address": "愛媛県松山市北条辻771-4",
    "lat": 33.9667512,
    "lng": 132.7766445,
    "tel": "089-993-2222",
    "url": "http://www.lnt.jp/",
    "pref": "愛媛県",
    "city": "松山市",
    "category": "day_service",
    "serviceType": "通所介護",
    "capacity": 0,
    "openDays": [
      "平日",
      "土曜日",
      "祝日"
    ],
    "openDaysNote": "特になし"
  },
  {
    "id": "3870109083",
    "name": "デイサービスほわいと",
    "kana": "デイサービスホワイト",
    "address": "松山市北久米町996-3",
    "lat": 33.8138888095554,
    "lng": 132.791438219049,
    "tel": "089-956-5656",
    "url": "http://www.kaigohowaito.jp",
    "pref": "愛媛県",
    "city": "松山市",
    "category": "day_service",
    "serviceType": "通所介護",
    "capacity": 30,
    "openDays": [
      "平日",
      "土曜日",
      "祝日"
    ],
    "openDaysNote": ""
  },
  {
    "id": "3870112400",
    "name": "デイサービスゆうりん",
    "kana": "デイサービスユウリン",
    "address": "愛媛県松山市津吉町1008番地",
    "lat": 33.774828,
    "lng": 132.8356615,
    "tel": "089-963-1008",
    "url": "http://www.yurinen.com",
    "pref": "愛媛県",
    "city": "松山市",
    "category": "day_service",
    "serviceType": "通所介護",
    "capacity": 23,
    "openDays": [
      "平日",
      "土曜日",
      "祝日"
    ],
    "openDaysNote": ""
  },
  {
    "id": "3870104290",
    "name": "デイサービスわかば",
    "kana": "デイサービスワカバ",
    "address": "愛媛県松山市若葉町7番5号",
    "lat": 33.8569066,
    "lng": 132.7166105,
    "tel": "089-968-3730",
    "url": "http://www.ikiiki-wakaba.com/",
    "pref": "愛媛県",
    "city": "松山市",
    "category": "day_service",
    "serviceType": "通所介護",
    "capacity": 0,
    "openDays": [
      "平日",
      "土曜日",
      "祝日"
    ],
    "openDaysNote": "特にありません。"
  },
  {
    "id": "3870113507",
    "name": "デイサービス一笑万倍",
    "kana": "デイサービスイチショウマンバイ",
    "address": "愛媛県松山市森松町465-3",
    "lat": 33.7889599,
    "lng": 132.7873109,
    "tel": "089-909-5889",
    "url": "",
    "pref": "愛媛県",
    "city": "松山市",
    "category": "day_service",
    "serviceType": "通所介護",
    "capacity": 0,
    "openDays": [
      "平日",
      "土曜日",
      "日曜日",
      "祝日"
    ],
    "openDaysNote": ""
  },
  {
    "id": "3870110362",
    "name": "デイサービス寧音",
    "kana": "デイサービスネネ",
    "address": "愛媛県松山市南斎院町935番地1サービス付き高齢者向け住宅ゆうゆう南斎院 サービス付き高齢者向け住宅ゆうゆう南斎院",
    "lat": 33.8328961,
    "lng": 132.7319116,
    "tel": "089-968-6223",
    "url": "https://yuyusya.co.jp/",
    "pref": "愛媛県",
    "city": "松山市",
    "category": "day_service",
    "serviceType": "通所介護",
    "capacity": 0,
    "openDays": [
      "平日",
      "土曜日",
      "祝日"
    ],
    "openDaysNote": ""
  },
  {
    "id": "3870112624",
    "name": "デイサービス余土のてんこう",
    "kana": "デイサービスヨドノテンコウ",
    "address": "愛媛県松山市余戸中2丁目12番17号",
    "lat": 33.8144354,
    "lng": 132.7289241,
    "tel": "899103073",
    "url": "http://hp.kaipoke.biz/mmu/index.html",
    "pref": "愛媛県",
    "city": "松山市",
    "category": "day_service",
    "serviceType": "通所介護",
    "capacity": 0,
    "openDays": [
      "平日",
      "土曜日",
      "日曜日",
      "祝日"
    ],
    "openDaysNote": ""
  },
  {
    "id": "3870103094",
    "name": "デイサービス来住",
    "kana": "デイサービスキシ",
    "address": "愛媛県松山市来住町1057-1",
    "lat": 33.8037957,
    "lng": 132.7981917,
    "tel": "089-990-3111",
    "url": "http://www.cross-service.co.jp",
    "pref": "愛媛県",
    "city": "松山市",
    "category": "day_service",
    "serviceType": "通所介護",
    "capacity": 24,
    "openDays": [
      "平日",
      "土曜日",
      "祝日"
    ],
    "openDaysNote": ""
  },
  {
    "id": "3870110776",
    "name": "デイフィットASRE和えだまつ",
    "kana": "デイフィットアスレヤマトエダマツ",
    "address": "愛媛県松山市枝松1丁目1-1",
    "lat": 33.8361362,
    "lng": 132.7864622,
    "tel": "089-915-5090",
    "url": "http://www.asreyamato.co.jp",
    "pref": "愛媛県",
    "city": "松山市",
    "category": "day_service",
    "serviceType": "通所介護",
    "capacity": 0,
    "openDays": [
      "平日",
      "土曜日",
      "祝日"
    ],
    "openDaysNote": ""
  },
  {
    "id": "3870113176",
    "name": "デイフィットASRE和しみずまち",
    "kana": "デイフィットアスレヤマトシミズマチ",
    "address": "愛媛県松山市清水町３丁目３７-２",
    "lat": 33.8522847,
    "lng": 132.7657994,
    "tel": "089-909-6988",
    "url": "http://www.asreyamato.co.jp/",
    "pref": "愛媛県",
    "city": "松山市",
    "category": "day_service",
    "serviceType": "通所介護",
    "capacity": null,
    "openDays": [
      "平日",
      "土曜日",
      "祝日"
    ],
    "openDaysNote": "なし"
  },
  {
    "id": "3870110784",
    "name": "デイフィットＡＳＲＥ和はなみずき",
    "kana": "デイフィットアスレヤマトハナミズキ",
    "address": "愛媛県松山市古川北二丁目1番5号アスレヤマトはなみずき店 アスレヤマトはなみずき店",
    "lat": 33.812058,
    "lng": 132.7673228,
    "tel": "089-905-8822",
    "url": "http://asreyamato.co.jp/",
    "pref": "愛媛県",
    "city": "松山市",
    "category": "day_service",
    "serviceType": "通所介護",
    "capacity": 0,
    "openDays": [
      "平日",
      "土曜日",
      "祝日"
    ],
    "openDaysNote": "なし"
  },
  {
    "id": "3870103029",
    "name": "テルウェル西日本愛松園デイサービス愛松園",
    "kana": "テルウェルニシニッポンアイショウエンデイサービスアイショウエン",
    "address": "愛媛県松山市喜与町1丁目8-4",
    "lat": 33.8436516,
    "lng": 132.7738328,
    "tel": "089-934-3700",
    "url": "",
    "pref": "愛媛県",
    "city": "松山市",
    "category": "day_service",
    "serviceType": "通所介護",
    "capacity": 0,
    "openDays": [
      "平日",
      "祝日"
    ],
    "openDaysNote": "特にありません。"
  },
  {
    "id": "3870101973",
    "name": "ニチイケアセンターやまごえ",
    "kana": "ニチイケアセンターヤマゴエ",
    "address": "愛媛県松山市山越6-7-20",
    "lat": 33.8573298,
    "lng": 132.7515709,
    "tel": "089-917-5772",
    "url": "http://www.nichiigakkan.co.jp/",
    "pref": "愛媛県",
    "city": "松山市",
    "category": "day_service",
    "serviceType": "通所介護",
    "capacity": 0,
    "openDays": [
      "平日",
      "土曜日",
      "祝日"
    ],
    "openDaysNote": ""
  },
  {
    "id": "3870110115",
    "name": "パワリハスタジオ　みちしるべ",
    "kana": "パワリハスタジオ　ミチシルベ",
    "address": "愛媛松山市山越5丁目5-9",
    "lat": 33.860661,
    "lng": 132.7523464,
    "tel": "089-906-6582",
    "url": "https://www.mitisirube.info",
    "pref": "愛媛県",
    "city": "松山市",
    "category": "day_service",
    "serviceType": "通所介護",
    "capacity": 0,
    "openDays": [
      "平日",
      "祝日"
    ],
    "openDaysNote": "8月15日お盆休み（改行）12月31日～1月3日までお正月休み（改行）暴風警報発令時は念のためお休み"
  },
  {
    "id": "3870105222",
    "name": "ファミリーケア垣生デイサービスセンターいまづ",
    "kana": "ファミリーケアハブデイサービスセンターイマヅ",
    "address": "愛媛県松山市西垣生町1184-6",
    "lat": 33.8150809,
    "lng": 132.7035397,
    "tel": "089-972-0050",
    "url": "http://familycare.co.jp/",
    "pref": "愛媛県",
    "city": "松山市",
    "category": "day_service",
    "serviceType": "通所介護",
    "capacity": 0,
    "openDays": [
      "平日",
      "土曜日",
      "祝日"
    ],
    "openDaysNote": "特にありません。"
  },
  {
    "id": "3870113804",
    "name": "ファミリーケア垣生デイサービスセンターいまづ",
    "kana": "ファミリーケアハブデイサービスセンターイマヅ",
    "address": "愛媛県松山市西垣生町1184番6",
    "lat": 33.8150125,
    "lng": 132.703458,
    "tel": "089-972-0050",
    "url": "familycare.co.jp",
    "pref": "愛媛県",
    "city": "松山市",
    "category": "day_service",
    "serviceType": "通所介護",
    "capacity": 0,
    "openDays": [
      "平日",
      "土曜日",
      "祝日"
    ],
    "openDaysNote": "12/31・1/1・1/2定休日"
  },
  {
    "id": "3870102211",
    "name": "ベストケア・デイサービスセンター",
    "kana": "ベストケア・デイサービスセンター",
    "address": "愛媛県松山市山越六丁目２番３３号",
    "lat": 33.8578159,
    "lng": 132.7525514,
    "tel": "089-911-0102",
    "url": "http://www.best-care.jp",
    "pref": "愛媛県",
    "city": "松山市",
    "category": "day_service",
    "serviceType": "通所介護",
    "capacity": 0,
    "openDays": [
      "平日",
      "土曜日",
      "祝日"
    ],
    "openDaysNote": "特にありません。"
  },
  {
    "id": "3870102674",
    "name": "ベストケア・デイサービスセンター石井",
    "kana": "ベストケア・デイサービスセンターイシイ",
    "address": "愛媛県松山市東石井七丁目５番２９号",
    "lat": 33.8084948,
    "lng": 132.7759218,
    "tel": "089-914-8880",
    "url": "http://www.best-care.jp/",
    "pref": "愛媛県",
    "city": "松山市",
    "category": "day_service",
    "serviceType": "通所介護",
    "capacity": 40,
    "openDays": [
      "平日",
      "土曜日",
      "祝日"
    ],
    "openDaysNote": "特になし"
  },
  {
    "id": "3870105818",
    "name": "ベストケア・デイサービスセンター中村",
    "kana": "ベストケア・デイサービスセンターナカムラ",
    "address": "愛媛県松山市中村二丁目７番３３号　１階",
    "lat": 33.833103,
    "lng": 132.7779103,
    "tel": "089-998-3060",
    "url": "http://www.best-care.jp/",
    "pref": "愛媛県",
    "city": "松山市",
    "category": "day_service",
    "serviceType": "通所介護",
    "capacity": 0,
    "openDays": [
      "平日",
      "土曜日",
      "祝日"
    ],
    "openDaysNote": "特にありません。"
  },
  {
    "id": "3870107525",
    "name": "ベストケア・デイサービスセンター来住",
    "kana": "ベストケア・デイサービスセンターキシ",
    "address": "松山市来住町１３０７番地５",
    "lat": 33.8045567,
    "lng": 132.7951253,
    "tel": "089-905-3351",
    "url": "http://www.best-care.jp/",
    "pref": "愛媛県",
    "city": "松山市",
    "category": "day_service",
    "serviceType": "通所介護",
    "capacity": 40,
    "openDays": [
      "平日",
      "土曜日",
      "祝日"
    ],
    "openDaysNote": ""
  },
  {
    "id": "3870113671",
    "name": "ポシブル空港通",
    "kana": "ポシブルクウコウドオリ",
    "address": "愛媛県松山市空港通6丁目6-30",
    "lat": 33.8261762,
    "lng": 132.7310573,
    "tel": "089-995-8555",
    "url": "https://possible-jhs.co.jp/",
    "pref": "愛媛県",
    "city": "松山市",
    "category": "day_service",
    "serviceType": "通所介護",
    "capacity": null,
    "openDays": [
      "平日",
      "祝日"
    ],
    "openDaysNote": ""
  },
  {
    "id": "3870109356",
    "name": "ポシブル石手川",
    "kana": "ポシブルイシテガワ",
    "address": "永木町2丁目1-25シティーらいふ石手川２F シティーらいふ石手川２F",
    "lat": 33.8354776,
    "lng": 132.7749661,
    "tel": "089-968-1188",
    "url": "http://possible-jhs.co.jp/",
    "pref": "愛媛県",
    "city": "松山市",
    "category": "day_service",
    "serviceType": "通所介護",
    "capacity": 25,
    "openDays": [
      "平日",
      "祝日"
    ],
    "openDaysNote": ""
  },
  {
    "id": "3870112251",
    "name": "ポシブル来住",
    "kana": "ポシブルキシ",
    "address": "愛媛県松山市来住町1332番地1",
    "lat": 33.810781,
    "lng": 132.7942032,
    "tel": "089-993-6600",
    "url": "http://www.possible-plus.co.jp/",
    "pref": "愛媛県",
    "city": "松山市",
    "category": "day_service",
    "serviceType": "通所介護",
    "capacity": 0,
    "openDays": [
      "平日",
      "祝日"
    ],
    "openDaysNote": ""
  },
  {
    "id": "3870112129",
    "name": "ボディメンテナンスセンターアスレネオ石井",
    "kana": "ボディメンテナンスセンターアスレネオイシイ",
    "address": "愛媛県松山市西石井1丁目1番30号",
    "lat": 33.816313911669,
    "lng": 132.774786019643,
    "tel": "089-956-1112",
    "url": "http://www.asre.co.jp",
    "pref": "愛媛県",
    "city": "松山市",
    "category": "day_service",
    "serviceType": "通所介護",
    "capacity": 0,
    "openDays": [
      "平日",
      "土曜日",
      "祝日"
    ],
    "openDaysNote": ""
  },
  {
    "id": "3870104035",
    "name": "みなみの杜デイサービスセンター",
    "kana": "ミナミノモリデイサービスセンター",
    "address": "愛媛県松山市南高井町320-1",
    "lat": 33.7879671,
    "lng": 132.8231228,
    "tel": "089-970-7370",
    "url": "http://www.tensinkai.or.jp/",
    "pref": "愛媛県",
    "city": "松山市",
    "category": "day_service",
    "serviceType": "通所介護",
    "capacity": 5,
    "openDays": [
      "平日",
      "土曜日",
      "祝日"
    ],
    "openDaysNote": "特になし"
  },
  {
    "id": "3870107772",
    "name": "ユーミーケアたかのこデイサービス",
    "kana": "ユーミーケアタカノコデイサービス",
    "address": "愛媛県松山市鷹子町403-1",
    "lat": 33.8122922,
    "lng": 132.8191424,
    "tel": "089-993-6515",
    "url": "http://you-me-care.co.jp",
    "pref": "愛媛県",
    "city": "松山市",
    "category": "day_service",
    "serviceType": "通所介護",
    "capacity": 0,
    "openDays": [
      "平日",
      "土曜日",
      "日曜日",
      "祝日"
    ],
    "openDaysNote": ""
  },
  {
    "id": "3870113457",
    "name": "りはびりでいさーびすえん",
    "kana": "リハビリデイサービスエン",
    "address": "愛媛県松山市井門町764-1",
    "lat": 33.797677,
    "lng": 132.7817876,
    "tel": "089-909-3830",
    "url": "https://engroup.care",
    "pref": "愛媛県",
    "city": "松山市",
    "category": "day_service",
    "serviceType": "通所介護",
    "capacity": 0,
    "openDays": [
      "平日",
      "祝日"
    ],
    "openDaysNote": ""
  },
  {
    "id": "3870109877",
    "name": "リハビリデイサービス太陽がいっぱい。",
    "kana": "リハビリデイサービスタイヨウガイッパイ。",
    "address": "愛媛県松山市針田町１１２番地1",
    "lat": 33.8241528,
    "lng": 132.7367169,
    "tel": "089-965-3456",
    "url": "https://www.taiyougaippai.com",
    "pref": "愛媛県",
    "city": "松山市",
    "category": "day_service",
    "serviceType": "通所介護",
    "capacity": 0,
    "openDays": [
      "平日",
      "土曜日",
      "祝日"
    ],
    "openDaysNote": ""
  },
  {
    "id": "3870112665",
    "name": "リハビリ特化型デイサービス　れすと",
    "kana": "リハビリトッカガタデイサービス　レスト",
    "address": "愛媛県松山市東一万町1番地東一万ビル101 東一万ビル101",
    "lat": 33.847148,
    "lng": 132.7782467,
    "tel": "089-910-3175",
    "url": "",
    "pref": "愛媛県",
    "city": "松山市",
    "category": "day_service",
    "serviceType": "通所介護",
    "capacity": 0,
    "openDays": [
      "平日"
    ],
    "openDaysNote": ""
  },
  {
    "id": "3870106899",
    "name": "医療法人財団　尚温会　　デイサービスセンター　ほうゆー温泉",
    "kana": "イリョウホウジンザイダン　ショウオンカイ　　デイサービスセンター　ホウユーオンセン",
    "address": "愛媛県松山市余戸東５丁目３－３６グレースフォーユー余戸１階 グレースフォーユー余戸１階",
    "lat": 33.8164204,
    "lng": 132.7381002,
    "tel": "089-971-1511",
    "url": "http://www.iyohp.jp",
    "pref": "愛媛県",
    "city": "松山市",
    "category": "day_service",
    "serviceType": "通所介護",
    "capacity": 0,
    "openDays": [
      "平日",
      "土曜日",
      "祝日"
    ],
    "openDaysNote": "特にありません"
  },
  {
    "id": "3870113275",
    "name": "株式会社サニーマート　ジョイリハ山越",
    "kana": "カブシキガイシャサニーマート　ジョイリハヤマゴエ",
    "address": "愛媛県松山市山越4丁目3-20セントヒルズ大任１階 セントヒルズ大任１階",
    "lat": 33.8628653,
    "lng": 132.7571198,
    "tel": "089-917-8160",
    "url": "https://joyreha.co.jp",
    "pref": "愛媛県",
    "city": "松山市",
    "category": "day_service",
    "serviceType": "通所介護",
    "capacity": 0,
    "openDays": [
      "平日",
      "土曜日",
      "祝日"
    ],
    "openDaysNote": "年末年始のお休み　12/30～1/3"
  },
  {
    "id": "3870104746",
    "name": "久谷デイサービスセンター",
    "kana": "クタニデイサービスセンター",
    "address": "愛媛県松山市上川原町甲1522番地5",
    "lat": 33.7783402,
    "lng": 132.8119211,
    "tel": "089-963-2148",
    "url": "",
    "pref": "愛媛県",
    "city": "松山市",
    "category": "day_service",
    "serviceType": "通所介護",
    "capacity": 25,
    "openDays": [
      "平日",
      "土曜日",
      "日曜日",
      "祝日"
    ],
    "openDaysNote": "１２月３１日～１月３日お正月休み"
  },
  {
    "id": "3870113333",
    "name": "共生型デイサービスURURA",
    "kana": "キョウセイガタデイサービスウルラ",
    "address": "愛媛県松山市南高井町１５３２番地",
    "lat": 33.7941133,
    "lng": 132.8029326,
    "tel": "０８９‐９１０‐６８６４",
    "url": "https://d-writes.com/urura/",
    "pref": "愛媛県",
    "city": "松山市",
    "category": "day_service",
    "serviceType": "通所介護",
    "capacity": null,
    "openDays": [
      "平日",
      "土曜日",
      "祝日"
    ],
    "openDaysNote": "事務所は8時30分～17時30分まで"
  },
  {
    "id": "3870111485",
    "name": "済生会デイサービス三津",
    "kana": "サイセイカイデイサービスミツ",
    "address": "愛媛県松山市住吉２－６－８",
    "lat": 33.8634529,
    "lng": 132.7152829,
    "tel": "０８９－９１１－６００１",
    "url": "http://www.m-tokuro.com/",
    "pref": "愛媛県",
    "city": "松山市",
    "category": "day_service",
    "serviceType": "通所介護",
    "capacity": 20,
    "openDays": [
      "平日",
      "土曜日",
      "祝日"
    ],
    "openDaysNote": ""
  },
  {
    "id": "3870101684",
    "name": "済生会介護支援センター姫原",
    "kana": "サイセイカイカイゴシエンセンターヒメバラ",
    "address": "愛媛県松山市姫原1丁目1656番地",
    "lat": 33.8677123,
    "lng": 132.7646697,
    "tel": "089-926-8775",
    "url": "http://www.himebara-saiseikai.jp/",
    "pref": "愛媛県",
    "city": "松山市",
    "category": "day_service",
    "serviceType": "通所介護",
    "capacity": 0,
    "openDays": [
      "平日",
      "土曜日",
      "祝日"
    ],
    "openDaysNote": ""
  },
  {
    "id": "3870107632",
    "name": "指定通所介護（介護予防）事業所　ウェルケア高浜",
    "kana": "シテイツウショカイゴ（カイゴヨボウ）ジギョウショ　ウェルケアタカハマ",
    "address": "愛媛県松山市松ノ木2丁目789番地",
    "lat": 33.8735853,
    "lng": 132.7203739,
    "tel": "０８９－９９４－６６８８",
    "url": "http://kikuju.or.jp/",
    "pref": "愛媛県",
    "city": "松山市",
    "category": "day_service",
    "serviceType": "通所介護",
    "capacity": 0,
    "openDays": [
      "平日",
      "土曜日",
      "祝日"
    ],
    "openDaysNote": "夜間は夜勤者による電話対応。"
  },
  {
    "id": "3870101601",
    "name": "指定通所介護事業所　幸富久荘",
    "kana": "シテイツウショカイゴジギョウショ　コウフクソウ",
    "address": "愛媛県松山市富久町412-1",
    "lat": 33.8197919,
    "lng": 132.7250678,
    "tel": "089-965-1584",
    "url": "https://dousinkai.jp/",
    "pref": "愛媛県",
    "city": "松山市",
    "category": "day_service",
    "serviceType": "通所介護",
    "capacity": 35,
    "openDays": [
      "平日",
      "土曜日",
      "祝日"
    ],
    "openDaysNote": "特になし。"
  },
  {
    "id": "3870103748",
    "name": "指定通所介護事業所デイサービスセンターウェルケアみどろ",
    "kana": "シテイツウショカイゴジギョウショデイサービスセンターウェルケアミドロ",
    "address": "愛媛県松山市水泥町132番地1",
    "lat": 33.8015406,
    "lng": 132.828114,
    "tel": "089-905-9115",
    "url": "http://kikuju.ftw.jp/",
    "pref": "愛媛県",
    "city": "松山市",
    "category": "day_service",
    "serviceType": "通所介護",
    "capacity": 28,
    "openDays": [
      "平日",
      "土曜日",
      "祝日"
    ],
    "openDaysNote": "特にありません。"
  },
  {
    "id": "3870101122",
    "name": "指定通所介護事業所デイサービスセンター第二権現荘",
    "kana": "シテイツウショカイゴジギョウショデイサービスセンターダイニゴンゲンソウ",
    "address": "愛媛県松山市権現町甲639番地1",
    "lat": 33.895149705526,
    "lng": 132.770164948579,
    "tel": "089-978-6626",
    "url": "https://www.gongensou.or.jp/04/",
    "pref": "愛媛県",
    "city": "松山市",
    "category": "day_service",
    "serviceType": "通所介護",
    "capacity": 25,
    "openDays": [
      "平日",
      "土曜日",
      "祝日"
    ],
    "openDaysNote": "特にありません。"
  },
  {
    "id": "3870106378",
    "name": "社会福祉法人恩賜財団済生会　松山特別養護老人ホーム　在宅介護サービス",
    "kana": "シャカイフクシホウジンオンシザイダンサイセイカイマツヤマトクベツヨウゴロウジンホームザイタクカイゴサービス",
    "address": "松山市久万ノ台１７１７番地",
    "lat": 33.861626,
    "lng": 132.7354252,
    "tel": "089-927-0261",
    "url": "http://www.m-tokuro.com",
    "pref": "愛媛県",
    "city": "松山市",
    "category": "day_service",
    "serviceType": "通所介護",
    "capacity": 0,
    "openDays": [
      "平日",
      "土曜日",
      "祝日"
    ],
    "openDaysNote": "年末年始（１２月３１日～１月３日）は休業日（改行）ゴールデンウイーク、祝日、お盆は営業しております"
  },
  {
    "id": "3871100438",
    "name": "松山シルバー北条指定通所介護事業所",
    "kana": "マツヤマシルバーホウジョウシテイツウショカイゴジギョウショ",
    "address": "愛媛県松山市河野別府937番地1",
    "lat": 33.9581383,
    "lng": 132.7814388,
    "tel": "089-993-2877",
    "url": "http://m-silver.sakura.ne.jp/",
    "pref": "愛媛県",
    "city": "松山市",
    "category": "day_service",
    "serviceType": "通所介護",
    "capacity": 35,
    "openDays": [
      "平日",
      "祝日"
    ],
    "openDaysNote": ""
  },
  {
    "id": "3870106758",
    "name": "松山南ケアセンターそよ風",
    "kana": "マツヤマミナミケアセンターソヨカゼ",
    "address": "愛媛県松山市森松町992－1",
    "lat": 33.7943605,
    "lng": 132.7926672,
    "tel": "089-969-6676",
    "url": "https://www.sykz.co.jp/map/search?pref_name=%E6%84%9B%E5%AA%9B%E7%9C%8C",
    "pref": "愛媛県",
    "city": "松山市",
    "category": "day_service",
    "serviceType": "通所介護",
    "capacity": 25,
    "openDays": [
      "平日",
      "土曜日",
      "日曜日",
      "祝日"
    ],
    "openDaysNote": "特にありません。"
  },
  {
    "id": "3870112756",
    "name": "松山福音寺ケアセンターそよ風",
    "kana": "マツヤマフクオンジケアセンターソヨカゼ",
    "address": "愛媛県松山市福音寺町31番地1",
    "lat": 33.8197189800837,
    "lng": 132.79382789915,
    "tel": "089-905-9001",
    "url": "https://www.sykz.co.jp/",
    "pref": "愛媛県",
    "city": "松山市",
    "category": "day_service",
    "serviceType": "通所介護",
    "capacity": 40,
    "openDays": [
      "平日",
      "土曜日",
      "祝日"
    ],
    "openDaysNote": ""
  },
  {
    "id": "3870110669",
    "name": "障害者支援施設スマイル",
    "kana": "ショウガイシャシエンシセツスマイル",
    "address": "愛媛県松山市余戸南6丁目5番3号",
    "lat": 33.8112104,
    "lng": 132.7199385,
    "tel": "089-965-0294",
    "url": "http://www.smile-power.jp/index.html",
    "pref": "愛媛県",
    "city": "松山市",
    "category": "day_service",
    "serviceType": "通所介護",
    "capacity": 25,
    "openDays": [
      "平日",
      "土曜日",
      "祝日"
    ],
    "openDaysNote": "各月数から8日を控除した日数より、各月数から１か月の土曜日・日曜日の数や年末年始の休業日等を控除した日数の方が少ない場合は、本来休業日であった土曜日を管理者の判断により営業することがある。"
  },
  {
    "id": "3870111352",
    "name": "通所介護　ふくずみ",
    "kana": "ツウショカイゴ　フクズミ",
    "address": "愛媛県松山市福角町甲６１６番地１",
    "lat": 33.8956261,
    "lng": 132.7532263,
    "tel": "089－911－8700",
    "url": "http://anju-kai.jp/",
    "pref": "愛媛県",
    "city": "松山市",
    "category": "day_service",
    "serviceType": "通所介護",
    "capacity": 11,
    "openDays": [
      "平日",
      "土曜日",
      "祝日"
    ],
    "openDaysNote": "特になし。"
  },
  {
    "id": "3870106709",
    "name": "通所介護　歩風里",
    "kana": "ツウショカイゴホフリ",
    "address": "愛媛県松山市北斎院町402-4",
    "lat": 33.8381565,
    "lng": 132.7295729,
    "tel": "089-965-3535",
    "url": "",
    "pref": "愛媛県",
    "city": "松山市",
    "category": "day_service",
    "serviceType": "通所介護",
    "capacity": 0,
    "openDays": [
      "平日",
      "土曜日",
      "祝日"
    ],
    "openDaysNote": "特にありません。"
  },
  {
    "id": "3870111345",
    "name": "通所介護こうの",
    "kana": "ツウショカイゴコウノ",
    "address": "愛媛県松山市河野別府179-1小規模多機能の家こうの 小規模多機能の家こうの",
    "lat": 33.9494088,
    "lng": 132.7814169,
    "tel": "089-993-2900",
    "url": "http://anju-kai.ｊｐ",
    "pref": "愛媛県",
    "city": "松山市",
    "category": "day_service",
    "serviceType": "通所介護",
    "capacity": 9,
    "openDays": [
      "平日",
      "土曜日",
      "日曜日",
      "祝日"
    ],
    "openDaysNote": ""
  },
  {
    "id": "3870105842",
    "name": "通所介護事業所　アロハ居相",
    "kana": "ツウショカイゴジギョウショ　アロハイアイ",
    "address": "愛媛県松山市居相三丁目14-20",
    "lat": 33.8113164,
    "lng": 132.7696114,
    "tel": "089-956-0707",
    "url": "",
    "pref": "愛媛県",
    "city": "松山市",
    "category": "day_service",
    "serviceType": "通所介護",
    "capacity": 30,
    "openDays": [
      "平日",
      "土曜日",
      "祝日"
    ],
    "openDaysNote": "但し、12月31日から1月3日、及び施設の改修・点検時等は定休日とさせていただきます。"
  },
  {
    "id": "3870107285",
    "name": "通所介護事業所　ウェルケア畑寺",
    "kana": "ツウショカイゴジギョウショ　ウェルケアハタデラ",
    "address": "愛媛県松山市畑寺3町目8番41号",
    "lat": 33.8279958,
    "lng": 132.797586,
    "tel": "089-907-2810",
    "url": "http://kikuju.or.jp/",
    "pref": "愛媛県",
    "city": "松山市",
    "category": "day_service",
    "serviceType": "通所介護",
    "capacity": 28,
    "openDays": [
      "平日",
      "土曜日",
      "日曜日",
      "祝日"
    ],
    "openDaysNote": ""
  },
  {
    "id": "3870109893",
    "name": "通所介護事業所　味酒野ていれぎ荘",
    "kana": "ツウショカイゴジギョウショ　ミサケノテイレギソウ",
    "address": "愛媛県松山市衣山5丁目719番地1",
    "lat": 33.8484112796097,
    "lng": 132.735653094304,
    "tel": "089-989-5571",
    "url": "",
    "pref": "愛媛県",
    "city": "松山市",
    "category": "day_service",
    "serviceType": "通所介護",
    "capacity": 0,
    "openDays": [
      "平日",
      "土曜日",
      "祝日"
    ],
    "openDaysNote": ""
  },
  {
    "id": "3870101585",
    "name": "通所介護事業所アドバンス",
    "kana": "ツウショカイゴジギョウショアドバンス",
    "address": "愛媛県松山市畑寺町丙1-2",
    "lat": 33.8331954,
    "lng": 132.8035575,
    "tel": "089-931-8080",
    "url": "http://yuhokai.net",
    "pref": "愛媛県",
    "city": "松山市",
    "category": "day_service",
    "serviceType": "通所介護",
    "capacity": 0,
    "openDays": [
      "平日",
      "土曜日",
      "祝日"
    ],
    "openDaysNote": "特になし。"
  },
  {
    "id": "3870101650",
    "name": "通所介護事業所ていれぎ荘",
    "kana": "ツウショカイゴジギョウショテイレギソウ",
    "address": "愛媛県松山市水泥町405番地1",
    "lat": 33.8009655,
    "lng": 132.8221062,
    "tel": "089-975-5558",
    "url": "https://www.jikoukai-ehime.or.jp/teiregisou",
    "pref": "愛媛県",
    "city": "松山市",
    "category": "day_service",
    "serviceType": "通所介護",
    "capacity": null,
    "openDays": [
      "平日",
      "土曜日",
      "祝日"
    ],
    "openDaysNote": "特になし。"
  },
  {
    "id": "3870102609",
    "name": "南高井デイサービスセンター",
    "kana": "ミナミタカイデイサービスセンター",
    "address": "愛媛県松山市南高井町333番地",
    "lat": 33.7880282,
    "lng": 132.8245755,
    "tel": "089-976-7793",
    "url": "http://www.tensinkai.or.jp",
    "pref": "愛媛県",
    "city": "松山市",
    "category": "day_service",
    "serviceType": "通所介護",
    "capacity": 20,
    "openDays": [
      "平日",
      "土曜日",
      "日曜日",
      "祝日"
    ],
    "openDaysNote": "特にありません。"
  },
  {
    "id": "3870107574",
    "name": "有限会社アシストジャパンデイサービスセンター8号館",
    "kana": "ユウゲンカイシャアシストジャパンデイサービスセンターハチゴウカン",
    "address": "北斎院町631-6",
    "lat": 33.8393785,
    "lng": 132.7282897,
    "tel": "089-994-6623",
    "url": "aj8@assistjapan.com",
    "pref": "愛媛県",
    "city": "松山市",
    "category": "day_service",
    "serviceType": "通所介護",
    "capacity": 35,
    "openDays": [
      "平日",
      "土曜日",
      "日曜日",
      "祝日"
    ],
    "openDaysNote": ""
  },
  {
    "id": "3873500858",
    "name": "ケアフィット松前",
    "kana": "ケアフィットマサキ",
    "address": "愛媛県伊予郡松前町北黒田２４２番地１",
    "lat": 33.7807017,
    "lng": 132.7105949,
    "tel": "089-961-6606",
    "url": "http://www.best-care.jp/",
    "pref": "愛媛県",
    "city": "松前町",
    "category": "day_service",
    "serviceType": "通所介護",
    "capacity": 40,
    "openDays": [
      "平日",
      "土曜日",
      "祝日"
    ],
    "openDaysNote": "特になし"
  },
  {
    "id": "3873500619",
    "name": "こころ",
    "kana": "ココロ",
    "address": "愛媛県伊予郡松前町大間225",
    "lat": 33.7984253,
    "lng": 132.7382782,
    "tel": "089-985-4533",
    "url": "",
    "pref": "愛媛県",
    "city": "松前町",
    "category": "day_service",
    "serviceType": "通所介護",
    "capacity": 19,
    "openDays": [
      "平日",
      "祝日"
    ],
    "openDaysNote": "特にありません。"
  },
  {
    "id": "3873501062",
    "name": "セルフ-クリエイト　くるみ",
    "kana": "セルフ　クリエイト　クルミ",
    "address": "愛媛県伊予郡松前町北黒田679-1",
    "lat": 33.7795599059409,
    "lng": 132.70446122209,
    "tel": "089-916-3611",
    "url": "https://qualia-kurumi.com/",
    "pref": "愛媛県",
    "city": "松前町",
    "category": "day_service",
    "serviceType": "通所介護",
    "capacity": 20,
    "openDays": [
      "平日",
      "祝日"
    ],
    "openDaysNote": "祝日・祭日に関係なく、“土曜日・日曜日以外”は営業している。"
  },
  {
    "id": "3873500684",
    "name": "デイサ－ビスセンターのどか",
    "kana": "デイサービスセンターノドカ",
    "address": "愛媛県伊予郡松前町大字北黒田173番地1",
    "lat": 33.781785,
    "lng": 132.713389,
    "tel": "089-961-6373",
    "url": "",
    "pref": "愛媛県",
    "city": "松前町",
    "category": "day_service",
    "serviceType": "通所介護",
    "capacity": 25,
    "openDays": [
      "平日",
      "土曜日",
      "祝日"
    ],
    "openDaysNote": "利用者の希望に応じ変更することがある。"
  },
  {
    "id": "3873501211",
    "name": "デイサービス　未来まさき",
    "kana": "デイサービス　ミライマサキ",
    "address": "愛媛県伊予郡松前町東古泉１番地９",
    "lat": 33.7835259048612,
    "lng": 132.71380025531,
    "tel": "089-985-4400",
    "url": "",
    "pref": "愛媛県",
    "city": "松前町",
    "category": "day_service",
    "serviceType": "通所介護",
    "capacity": 19,
    "openDays": [
      "平日",
      "祝日"
    ],
    "openDaysNote": "午前　8：55～12：05　午後13：25～16：35の2単位制"
  },
  {
    "id": "3873500965",
    "name": "デイサービスセンターエンゼルなかがわら",
    "kana": "デイサービスセンターエンゼルナカガワラ",
    "address": "愛媛県伊予郡松前町大字中川原168番地1",
    "lat": 33.7971953,
    "lng": 132.7546159,
    "tel": "089-984-7666",
    "url": "http://www.angel-welfare.jp/",
    "pref": "愛媛県",
    "city": "松前町",
    "category": "day_service",
    "serviceType": "通所介護",
    "capacity": 30,
    "openDays": [
      "平日",
      "祝日"
    ],
    "openDaysNote": ""
  },
  {
    "id": "3873501278",
    "name": "デイサービスセンターれもん",
    "kana": "デイサービスセンターレモン",
    "address": "愛媛県伊予郡松前町恵久美８０４番１",
    "lat": 33.7988598,
    "lng": 132.7276587,
    "tel": "089-909-6096",
    "url": "https://mikankai.com/",
    "pref": "愛媛県",
    "city": "松前町",
    "category": "day_service",
    "serviceType": "通所介護",
    "capacity": null,
    "openDays": [
      "平日"
    ],
    "openDaysNote": ""
  },
  {
    "id": "3873500494",
    "name": "デイサービスセンター玉泉",
    "kana": "デイサービスセンターギョクセン",
    "address": "愛媛県伊予郡松前町大字北川原33番地1",
    "lat": 33.7993023,
    "lng": 132.7130164,
    "tel": "089-984-6407",
    "url": "http://www.angel-welfare.jp/",
    "pref": "愛媛県",
    "city": "松前町",
    "category": "day_service",
    "serviceType": "通所介護",
    "capacity": 0,
    "openDays": [
      "平日",
      "土曜日",
      "日曜日",
      "祝日"
    ],
    "openDaysNote": ""
  },
  {
    "id": "3873501021",
    "name": "デイサービスセンター福家",
    "kana": "デイサービスセンターフクヤ",
    "address": "愛媛県伊予郡松前町北黒田680番地",
    "lat": 33.7795218725125,
    "lng": 132.704704338623,
    "tel": "089-906-6027",
    "url": "",
    "pref": "愛媛県",
    "city": "松前町",
    "category": "day_service",
    "serviceType": "通所介護",
    "capacity": 0,
    "openDays": [
      "平日",
      "土曜日",
      "祝日"
    ],
    "openDaysNote": ""
  },
  {
    "id": "3873500718",
    "name": "ベストケア・デイサービスセンター松前",
    "kana": "ベストケアデイサービスセンターマサキ",
    "address": "愛媛県伊予郡松前町北黒田242-5",
    "lat": 33.7807599063975,
    "lng": 132.710945980891,
    "tel": "089-961-6363",
    "url": "http://www.best-care.jp/",
    "pref": "愛媛県",
    "city": "松前町",
    "category": "day_service",
    "serviceType": "通所介護",
    "capacity": 0,
    "openDays": [
      "平日",
      "土曜日",
      "祝日"
    ],
    "openDaysNote": ""
  },
  {
    "id": "3873500791",
    "name": "医療法人財団尚温会デイサービスセンターたかやなぎ",
    "kana": "イリョウホウジンザイダンショウオンカイデイサービスセンタータカヤナギ",
    "address": "愛媛県伊予郡松前町西高柳258番地",
    "lat": 33.8036796,
    "lng": 132.7156216,
    "tel": "089-985-3222",
    "url": "http://www.iyohp.jp",
    "pref": "愛媛県",
    "city": "松前町",
    "category": "day_service",
    "serviceType": "通所介護",
    "capacity": 30,
    "openDays": [
      "平日",
      "土曜日",
      "祝日"
    ],
    "openDaysNote": "特にありません。"
  },
  {
    "id": "3873500239",
    "name": "指定通所介護事業所　鶴寿荘",
    "kana": "シテイツウショカイゴジギョウショカクジュソウ",
    "address": "愛媛県伊予郡松前町大字鶴吉635番地1",
    "lat": 33.782838,
    "lng": 132.7358229,
    "tel": "089-985-0170",
    "url": "http://kakuju.or.jp/",
    "pref": "愛媛県",
    "city": "松前町",
    "category": "day_service",
    "serviceType": "通所介護",
    "capacity": 10,
    "openDays": [
      "平日",
      "土曜日",
      "祝日"
    ],
    "openDaysNote": "1月1日～1月3日までは利用希望アンケートを行った上で利用希望人数により営業を判断。"
  },
  {
    "id": "3873500395",
    "name": "松前社協デイサービスセンターみどり",
    "kana": "マサキシャキョウデイサービスセンターミドリ",
    "address": "愛媛県伊予郡松前町大字筒井710番地1松前町総合福祉センター内1階 松前町総合福祉センター内1階",
    "lat": 33.787101,
    "lng": 132.7125751,
    "tel": "089-985-4150",
    "url": "http://www.ecomnet.or.jp/~masaki-shakyou",
    "pref": "愛媛県",
    "city": "松前町",
    "category": "day_service",
    "serviceType": "通所介護",
    "capacity": 0,
    "openDays": [
      "平日",
      "土曜日",
      "祝日"
    ],
    "openDaysNote": "特にありません。"
  },
  {
    "id": "3873500825",
    "name": "通所介護事業所スイムアンドデイ",
    "kana": "ツウショカイゴジギョウショスイムアンドデイ",
    "address": "愛媛県伊予郡松前町南黒田428番地1",
    "lat": 33.7770215,
    "lng": 132.7087868,
    "tel": "089-961-6320",
    "url": "",
    "pref": "愛媛県",
    "city": "松前町",
    "category": "day_service",
    "serviceType": "通所介護",
    "capacity": 20,
    "openDays": [
      "平日",
      "祝日"
    ],
    "openDaysNote": "特になし"
  },
  {
    "id": "3873900512",
    "name": "デイサービスセンター　なごみ",
    "kana": "デイサービスセンター　ナゴミ",
    "address": "愛媛県北宇和郡松野町大字豊岡3063",
    "lat": 33.2303193,
    "lng": 132.7038964,
    "tel": "0895-42-0148",
    "url": "http://www.nagomisou.com/",
    "pref": "愛媛県",
    "city": "松野町",
    "category": "day_service",
    "serviceType": "通所介護",
    "capacity": 42,
    "openDays": [
      "平日",
      "土曜日",
      "祝日"
    ],
    "openDaysNote": ""
  },
  {
    "id": "3873900876",
    "name": "デイサービス虹",
    "kana": "デイサービスニジ",
    "address": "愛媛県北宇和郡松野町大字豊岡3011番地1",
    "lat": 33.2315164,
    "lng": 132.7027826,
    "tel": "0895-20-5011",
    "url": "",
    "pref": "愛媛県",
    "city": "松野町",
    "category": "day_service",
    "serviceType": "通所介護",
    "capacity": 0,
    "openDays": [
      "平日",
      "土曜日",
      "日曜日",
      "祝日"
    ],
    "openDaysNote": "12/31、1/1　休み"
  },
  {
    "id": "3870500901",
    "name": "ケアサポート・ライカ",
    "kana": "ケアサポート・ライカ",
    "address": "愛媛県新居浜市新須賀町１丁目８番６３号",
    "lat": 33.9654938751678,
    "lng": 133.283741742328,
    "tel": "0897-32-9772",
    "url": "",
    "pref": "愛媛県",
    "city": "新居浜市",
    "category": "day_service",
    "serviceType": "通所介護",
    "capacity": 40,
    "openDays": [
      "平日",
      "土曜日",
      "日曜日",
      "祝日"
    ],
    "openDaysNote": ""
  },
  {
    "id": "3870502493",
    "name": "ケアプラザ「サン愛」坂井事業所",
    "kana": "ケアプラザ　サンアイ　サカイジギョウショ",
    "address": "愛媛県新居浜市坂井町1丁目8番20号",
    "lat": 33.9464715,
    "lng": 133.2918751,
    "tel": "0897-36-3581",
    "url": "http://www.sun-i.biz/",
    "pref": "愛媛県",
    "city": "新居浜市",
    "category": "day_service",
    "serviceType": "通所介護",
    "capacity": 0,
    "openDays": [
      "平日",
      "土曜日",
      "祝日"
    ],
    "openDaysNote": ""
  },
  {
    "id": "3870502840",
    "name": "ケアプラスデイサービスセンター新居浜",
    "kana": "ケアプラスデイサービスセンターニイハマ",
    "address": "愛媛県新居浜市坂井町一丁目6番12号",
    "lat": 33.9467018,
    "lng": 133.2900682,
    "tel": "0897-47-4940",
    "url": "http://carep.jp",
    "pref": "愛媛県",
    "city": "新居浜市",
    "category": "day_service",
    "serviceType": "通所介護",
    "capacity": 40,
    "openDays": [
      "平日",
      "土曜日",
      "祝日"
    ],
    "openDaysNote": "特になし"
  },
  {
    "id": "3870502667",
    "name": "さわやか新居浜館ﾃﾞｲｻｰﾋﾞｽｾﾝﾀｰ",
    "kana": "サワヤカニイハマカンデイサービスセンター",
    "address": "愛媛県新居浜市東田3丁目乙11-77さわやか新居浜館 さわやか新居浜館",
    "lat": 33.9451417,
    "lng": 133.3191551,
    "tel": "0897-66-2266",
    "url": "http://niihamakan.sawayakaclub.jp/",
    "pref": "愛媛県",
    "city": "新居浜市",
    "category": "day_service",
    "serviceType": "通所介護",
    "capacity": 25,
    "openDays": [
      "平日",
      "祝日"
    ],
    "openDaysNote": "年末年始、お盆、地方祭、祝日に関しましては、土曜日・日曜日以外は営業致します。"
  },
  {
    "id": "3870500828",
    "name": "シニアセンター　ｖｉｖｉｄ",
    "kana": "シニアセンター　ビビッド",
    "address": "愛媛県新居浜市徳常町５番８号",
    "lat": 33.9629197,
    "lng": 133.2796126,
    "tel": "0897-35-1000",
    "url": "http://www.hapinesu.com/",
    "pref": "愛媛県",
    "city": "新居浜市",
    "category": "day_service",
    "serviceType": "通所介護",
    "capacity": 0,
    "openDays": [
      "平日",
      "土曜日",
      "祝日"
    ],
    "openDaysNote": "特にありません。"
  },
  {
    "id": "3870502535",
    "name": "デイサービス　風花",
    "kana": "デイサービス　カザハナ",
    "address": "愛媛県新居浜市萩生1061番地",
    "lat": 33.9257734,
    "lng": 133.2667348,
    "tel": "0897-40-2526",
    "url": "http://niihama-mcoop.or.jp/?page_id=214",
    "pref": "愛媛県",
    "city": "新居浜市",
    "category": "day_service",
    "serviceType": "通所介護",
    "capacity": 22,
    "openDays": [
      "平日",
      "土曜日",
      "日曜日",
      "祝日"
    ],
    "openDaysNote": ""
  },
  {
    "id": "3870502634",
    "name": "デイサービスあさひの里",
    "kana": "デイサービスアサヒノサト",
    "address": "愛媛県新居浜市中村二丁目４番２５号",
    "lat": 33.9302050970728,
    "lng": 133.288660722615,
    "tel": "0897-31-8788",
    "url": "",
    "pref": "愛媛県",
    "city": "新居浜市",
    "category": "day_service",
    "serviceType": "通所介護",
    "capacity": 0,
    "openDays": [
      "平日",
      "土曜日",
      "祝日"
    ],
    "openDaysNote": ""
  },
  {
    "id": "3870500463",
    "name": "デイサービスセンター　さくらんぼ",
    "kana": "デイサービスセンター　サクランボ",
    "address": "愛媛県新居浜市東雲町1丁目4番33号",
    "lat": 33.9692916,
    "lng": 133.295903,
    "tel": "0897-65-1003",
    "url": "http://www.sakura@nii-coop.shikoku.ne.jp",
    "pref": "愛媛県",
    "city": "新居浜市",
    "category": "day_service",
    "serviceType": "通所介護",
    "capacity": 0,
    "openDays": [
      "平日",
      "土曜日",
      "祝日"
    ],
    "openDaysNote": "特になし"
  },
  {
    "id": "3870502287",
    "name": "デイサービスセンター　すみの",
    "kana": "デイサービスセンター　スミノ",
    "address": "愛媛県新居浜市中筋町二丁目１番５号",
    "lat": 33.9228463457585,
    "lng": 133.302193,
    "tel": "0897-40-7077",
    "url": "",
    "pref": "愛媛県",
    "city": "新居浜市",
    "category": "day_service",
    "serviceType": "通所介護",
    "capacity": 80,
    "openDays": [
      "平日",
      "土曜日"
    ],
    "openDaysNote": ""
  },
  {
    "id": "3870501651",
    "name": "デイサービスセンター　ピッパラ",
    "kana": "デイサービスセンター　ピッパラ",
    "address": "愛媛県新居浜市高田1-1-3",
    "lat": 33.9667113,
    "lng": 133.3083292,
    "tel": "0897-33-1927",
    "url": "https://dgwell.wixsite.com/pippala2022",
    "pref": "愛媛県",
    "city": "新居浜市",
    "category": "day_service",
    "serviceType": "通所介護",
    "capacity": 100,
    "openDays": [
      "平日",
      "土曜日",
      "祝日"
    ],
    "openDaysNote": ""
  },
  {
    "id": "3870502592",
    "name": "デイサービスセンター　ゆうらり",
    "kana": "デイサービスセンター　ユウラリ",
    "address": "愛媛県新居浜市庄内町５丁目１１番３２号ゆうらり昭和館内 ゆうらり昭和館内",
    "lat": 33.9505623095167,
    "lng": 133.292862522188,
    "tel": "0897-33-6730",
    "url": "http://yuurari.co.jp/",
    "pref": "愛媛県",
    "city": "新居浜市",
    "category": "day_service",
    "serviceType": "通所介護",
    "capacity": null,
    "openDays": [
      "平日",
      "土曜日"
    ],
    "openDaysNote": "営業日のうち、8月16日、10月18日、12月31日～1月3日を除く。"
  },
  {
    "id": "3870501420",
    "name": "デイサービスセンターおくじま",
    "kana": "デイサービスセンターオクジマ",
    "address": "愛媛県新居浜市北新町12番52号",
    "lat": 33.9586061,
    "lng": 133.2701047,
    "tel": "0897-65-3093",
    "url": "http://www.houko.jp",
    "pref": "愛媛県",
    "city": "新居浜市",
    "category": "day_service",
    "serviceType": "通所介護",
    "capacity": 0,
    "openDays": [
      "平日",
      "土曜日",
      "祝日"
    ],
    "openDaysNote": "特になし"
  },
  {
    "id": "3870500869",
    "name": "デイサービスセンターおくらの里",
    "kana": "デイサービスセンター　オクラノサト",
    "address": "愛媛県新居浜市御蔵町11番23号",
    "lat": 33.9165802,
    "lng": 133.2855114,
    "tel": "0897-31-6113",
    "url": "http://www.okuranosato.com/",
    "pref": "愛媛県",
    "city": "新居浜市",
    "category": "day_service",
    "serviceType": "通所介護",
    "capacity": 40,
    "openDays": [
      "平日",
      "土曜日",
      "祝日"
    ],
    "openDaysNote": "祝祭日のうち、5月3日～5日、8月16日、10月17日、12月31日～1月3日は休業となります。"
  },
  {
    "id": "3870502154",
    "name": "デイサービスセンターふたばの森",
    "kana": "デイサービスセンターフタバノモリ",
    "address": "愛媛県新居浜市船木3101番地1",
    "lat": 33.9335847,
    "lng": 133.3335479,
    "tel": "0897-47-4542",
    "url": "http://ww9.tiki.ne.jp/~futaba/",
    "pref": "愛媛県",
    "city": "新居浜市",
    "category": "day_service",
    "serviceType": "通所介護",
    "capacity": 35,
    "openDays": [
      "平日",
      "土曜日",
      "祝日"
    ],
    "openDaysNote": ""
  },
  {
    "id": "3870500950",
    "name": "デイサービスセンターわっはっは",
    "kana": "デイサービスセンターワッハッハ",
    "address": "愛媛県新居浜市岸の上町1丁目10-40",
    "lat": 33.9449026,
    "lng": 133.3084564,
    "tel": "0897-31-6617",
    "url": "http://www.yuyusya.co.jp/",
    "pref": "愛媛県",
    "city": "新居浜市",
    "category": "day_service",
    "serviceType": "通所介護",
    "capacity": 0,
    "openDays": [
      "平日",
      "土曜日",
      "祝日"
    ],
    "openDaysNote": "特別行事や利用者の特別な要請があった場合には営業することがあります。"
  },
  {
    "id": "3870500836",
    "name": "デイサービスセンター風のうた",
    "kana": "デイサービスセンターカゼノウタ",
    "address": "愛媛県新居浜市萩生1061番地",
    "lat": 33.9257734,
    "lng": 133.2667376,
    "tel": "0897-40-5570",
    "url": "http://niihama-mcoop.or.jp/",
    "pref": "愛媛県",
    "city": "新居浜市",
    "category": "day_service",
    "serviceType": "通所介護",
    "capacity": 48,
    "openDays": [
      "平日",
      "土曜日",
      "祝日"
    ],
    "openDaysNote": "特別な理由があるときのみ、２２時までの提供時間延長可能"
  },
  {
    "id": "3870500935",
    "name": "デイサービスでんでんむし",
    "kana": "デイサービスデンデンムシ",
    "address": "愛媛県新居浜市中西町3番20号",
    "lat": 33.9269642096438,
    "lng": 133.303466812764,
    "tel": "0897-31-6385",
    "url": "",
    "pref": "愛媛県",
    "city": "新居浜市",
    "category": "day_service",
    "serviceType": "通所介護",
    "capacity": 23,
    "openDays": [
      "平日",
      "土曜日",
      "祝日"
    ],
    "openDaysNote": "上記営業時間外でも相談等に応じる体制をとるとともに、電話等により２４時間常時連絡可能な体制とします。"
  },
  {
    "id": "3870501842",
    "name": "デイサービスみんなの家",
    "kana": "デイサービスミンナノイエ",
    "address": "愛媛県新居浜市船木４６２０番地２",
    "lat": 33.9394563,
    "lng": 133.3230933,
    "tel": "0897-31-8710",
    "url": "http://www.shikoku.ne.jp/nii-coop/",
    "pref": "愛媛県",
    "city": "新居浜市",
    "category": "day_service",
    "serviceType": "通所介護",
    "capacity": 20,
    "openDays": [
      "平日",
      "土曜日",
      "日曜日",
      "祝日"
    ],
    "openDaysNote": "２４時間連絡体制あり。"
  },
  {
    "id": "3870501164",
    "name": "デイサービスわいわいクラブ",
    "kana": "デイサービスワイワイクラブ",
    "address": "愛媛県新居浜市高津町3番20号",
    "lat": 33.9709331,
    "lng": 133.3004303,
    "tel": "0897-31-1818",
    "url": "http://www.shikoku.ne.jp/nii-coop/",
    "pref": "愛媛県",
    "city": "新居浜市",
    "category": "day_service",
    "serviceType": "通所介護",
    "capacity": 0,
    "openDays": [
      "平日",
      "土曜日",
      "祝日"
    ],
    "openDaysNote": "ほかに年末年始(12月31日から1月3日まで)、盆（8月15日16日）、地方祭（10月17日18日）は休みます。24時間連絡体制あり。"
  },
  {
    "id": "3870502568",
    "name": "デイサービス子馬",
    "kana": "デイサービスコウマ",
    "address": "愛媛県新居浜市高田二丁目5-63",
    "lat": 33.9710025,
    "lng": 133.3097431,
    "tel": "0897-47-7822",
    "url": "http://www.koumainfo/",
    "pref": "愛媛県",
    "city": "新居浜市",
    "category": "day_service",
    "serviceType": "通所介護",
    "capacity": 30,
    "openDays": [
      "平日",
      "土曜日",
      "祝日"
    ],
    "openDaysNote": ""
  },
  {
    "id": "3870502873",
    "name": "デイサービス笑顔新居浜",
    "kana": "デイサービスエガオニイハマ",
    "address": "愛媛県新居浜市東田1丁甲1243－1",
    "lat": 33.9454774468668,
    "lng": 133.314966389331,
    "tel": "0897－43－1077",
    "url": "http://kibou-e.jp",
    "pref": "愛媛県",
    "city": "新居浜市",
    "category": "day_service",
    "serviceType": "通所介護",
    "capacity": 0,
    "openDays": [
      "平日",
      "土曜日",
      "祝日"
    ],
    "openDaysNote": ""
  },
  {
    "id": "3870501909",
    "name": "デイサービス友",
    "kana": "デイサービストモ",
    "address": "愛媛県新居浜市本郷三丁目４番３７号",
    "lat": 33.9323506,
    "lng": 133.2835032,
    "tel": "0897-47-4260",
    "url": "",
    "pref": "愛媛県",
    "city": "新居浜市",
    "category": "day_service",
    "serviceType": "通所介護",
    "capacity": 0,
    "openDays": [
      "平日",
      "土曜日",
      "祝日"
    ],
    "openDaysNote": ""
  },
  {
    "id": "3870500554",
    "name": "ニチイケアセンターたきはま",
    "kana": "ニチイケアセンタータキハマ",
    "address": "愛媛県新居浜市阿島1丁目7番24号",
    "lat": 33.9789541,
    "lng": 133.3522519,
    "tel": "0897-67-1137",
    "url": "http://www.nichiigakkan.co.jp",
    "pref": "愛媛県",
    "city": "新居浜市",
    "category": "day_service",
    "serviceType": "通所介護",
    "capacity": 0,
    "openDays": [
      "平日",
      "土曜日",
      "祝日"
    ],
    "openDaysNote": "※居宅サービス計画により休業日及び営業時間外であってもサービスを提供する場合があります。"
  },
  {
    "id": "3870501800",
    "name": "ベストケア・デイサービスセンターいずみ",
    "kana": "ベストケア・デイサービスセンターイズミ",
    "address": "愛媛県新居浜市星原町12番46号",
    "lat": 33.9372255,
    "lng": 133.3056287,
    "tel": "0897-31-6630",
    "url": "http://www.best-care.jp",
    "pref": "愛媛県",
    "city": "新居浜市",
    "category": "day_service",
    "serviceType": "通所介護",
    "capacity": 45,
    "openDays": [
      "平日",
      "土曜日",
      "祝日"
    ],
    "openDaysNote": "特になし。"
  },
  {
    "id": "3870502048",
    "name": "ベストケア・デイサービスセンターひうち",
    "kana": "ベストケアデイサービスセンターヒウチ",
    "address": "愛媛県新居浜市泉池町１１番１１号",
    "lat": 33.966422,
    "lng": 133.2740158,
    "tel": "0897-32-1820",
    "url": "http://www.best-care.jp",
    "pref": "愛媛県",
    "city": "新居浜市",
    "category": "day_service",
    "serviceType": "通所介護",
    "capacity": 0,
    "openDays": [
      "平日",
      "土曜日",
      "祝日"
    ],
    "openDaysNote": ""
  },
  {
    "id": "3870501388",
    "name": "ライフケア",
    "kana": "ライフケア",
    "address": "愛媛県新居浜市喜光地町1丁目7番17号",
    "lat": 33.9359625,
    "lng": 133.300298,
    "tel": "0897-40-2964",
    "url": "https://www.lifecare-n.jp",
    "pref": "愛媛県",
    "city": "新居浜市",
    "category": "day_service",
    "serviceType": "通所介護",
    "capacity": 0,
    "openDays": [
      "平日",
      "祝日"
    ],
    "openDaysNote": "定休日であっても電話対応は可能。"
  },
  {
    "id": "3870502626",
    "name": "介護プラザサン",
    "kana": "カイゴプラザサン",
    "address": "愛媛県新居浜市久保田町一丁目８番１２号",
    "lat": 33.9561177,
    "lng": 133.2839954,
    "tel": "0897-33-6370",
    "url": "http://www.sun-i.biz/",
    "pref": "愛媛県",
    "city": "新居浜市",
    "category": "day_service",
    "serviceType": "通所介護",
    "capacity": null,
    "openDays": [
      "平日",
      "土曜日",
      "祝日"
    ],
    "openDaysNote": ""
  },
  {
    "id": "3870501917",
    "name": "株式会社　仁愛",
    "kana": "カブシキガイシャ　ジンアイ",
    "address": "久保田町1-8-10",
    "lat": 33.9562427,
    "lng": 133.2840316,
    "tel": "0897-65-3430",
    "url": "http://www.sun-i.biz/",
    "pref": "愛媛県",
    "city": "新居浜市",
    "category": "day_service",
    "serviceType": "通所介護",
    "capacity": 35,
    "openDays": [
      "平日",
      "土曜日",
      "祝日"
    ],
    "openDaysNote": ""
  },
  {
    "id": "3870500539",
    "name": "指定通所介護事業所　アソカ園",
    "kana": "シテイツウショカイゴジギョウショ　アソカエン",
    "address": "愛媛県新居浜市郷三丁目16番58号",
    "lat": 33.9617785,
    "lng": 133.3095373,
    "tel": "0897-46-5514",
    "url": "",
    "pref": "愛媛県",
    "city": "新居浜市",
    "category": "day_service",
    "serviceType": "通所介護",
    "capacity": 0,
    "openDays": [
      "平日",
      "土曜日",
      "祝日"
    ],
    "openDaysNote": "地方祭のお休みは年によって変動する場合がございます。"
  },
  {
    "id": "3870501743",
    "name": "通所介護事業所おいでんや",
    "kana": "ツウショカイゴジギョウショオイデンヤ",
    "address": "愛媛県新居浜市多喜浜一丁目2番16号",
    "lat": 33.9735661,
    "lng": 133.3305683,
    "tel": "0897-46-4545",
    "url": "http://www.commu-sankei.sankeikai.com/",
    "pref": "愛媛県",
    "city": "新居浜市",
    "category": "day_service",
    "serviceType": "通所介護",
    "capacity": 0,
    "openDays": [
      "平日",
      "土曜日",
      "祝日"
    ],
    "openDaysNote": ""
  },
  {
    "id": "3870500521",
    "name": "通所介護事業所きぼうの苑",
    "kana": "ツウショカイゴジギョウショキボウノソノ",
    "address": "愛媛県新居浜市西の土居町二丁目8番12号",
    "lat": 33.949421,
    "lng": 133.2748847,
    "tel": "0897-47-7241",
    "url": "http://www.sankeikai.or.jp",
    "pref": "愛媛県",
    "city": "新居浜市",
    "category": "day_service",
    "serviceType": "通所介護",
    "capacity": 0,
    "openDays": [
      "平日",
      "土曜日"
    ],
    "openDaysNote": "特になし"
  },
  {
    "id": "3870500547",
    "name": "通所介護事業所ハートランド三恵",
    "kana": "ツウショカイゴジギョウショハートランドサンケイ",
    "address": "愛媛県新居浜市萩生17",
    "lat": 33.9304507,
    "lng": 133.259788,
    "tel": "0897-40-0006",
    "url": "http://www.heartland.sankeikai.com/",
    "pref": "愛媛県",
    "city": "新居浜市",
    "category": "day_service",
    "serviceType": "通所介護",
    "capacity": 0,
    "openDays": [
      "平日",
      "土曜日",
      "祝日"
    ],
    "openDaysNote": "特になし。"
  },
  {
    "id": "3870501461",
    "name": "通所介護事業所プラチナガーデン",
    "kana": "ツウショカイゴジギョウショプラチナガーデン",
    "address": "愛媛県新居浜市一宮町二丁目6番72号",
    "lat": 33.9583118,
    "lng": 133.2780348,
    "tel": "0897-31-3200",
    "url": "http://www.hapinesu.com/",
    "pref": "愛媛県",
    "city": "新居浜市",
    "category": "day_service",
    "serviceType": "通所介護",
    "capacity": 0,
    "openDays": [
      "平日",
      "土曜日",
      "祝日"
    ],
    "openDaysNote": "特にありません。"
  },
  {
    "id": "3870500083",
    "name": "豊園荘",
    "kana": "ホウエンソウ",
    "address": "愛媛県新居浜市船木甲2216番地の29",
    "lat": 33.9408365929961,
    "lng": 133.340379266223,
    "tel": "0897-31-8525",
    "url": "http://www.hapinesu.com/",
    "pref": "愛媛県",
    "city": "新居浜市",
    "category": "day_service",
    "serviceType": "通所介護",
    "capacity": 0,
    "openDays": [
      "平日",
      "土曜日",
      "祝日"
    ],
    "openDaysNote": "特になし"
  },
  {
    "id": "3870501016",
    "name": "有限会社　デイサービスセンター　ふれんど",
    "kana": "ユウゲンガイシャ　デイサービスセンターフレンド",
    "address": "愛媛県新居浜市萩生2896番地2",
    "lat": 33.9141664,
    "lng": 133.2762314,
    "tel": "0897-40-2775",
    "url": "https://dsc-friends.com/",
    "pref": "愛媛県",
    "city": "新居浜市",
    "category": "day_service",
    "serviceType": "通所介護",
    "capacity": 0,
    "openDays": [
      "平日",
      "土曜日",
      "日曜日",
      "祝日"
    ],
    "openDaysNote": "特にありません。"
  },
  {
    "id": "3870600347",
    "name": "ＪＡえひめ未来デイサービスセンターいずみの里",
    "kana": "ジェイエイエヒメミライデイサービスセンターイズミノサト",
    "address": "愛媛県西条市大町980番地4",
    "lat": 33.9089565422683,
    "lng": 133.190661195493,
    "tel": "0897-52-1600",
    "url": "http://www.ja-ehimemirai.or.jp",
    "pref": "愛媛県",
    "city": "西条市",
    "category": "day_service",
    "serviceType": "通所介護",
    "capacity": 0,
    "openDays": [
      "平日",
      "土曜日",
      "祝日"
    ],
    "openDaysNote": "特にありません。"
  },
  {
    "id": "3870600966",
    "name": "アシストジャパンデイサービスセンター６号館",
    "kana": "アシストジャパンデイサービスセンターロクゴウカン",
    "address": "愛媛県西条市大町字御舟川539-1",
    "lat": 33.9172219,
    "lng": 133.1841445,
    "tel": "0897-55-7576",
    "url": "http://www.assistjapan.com/company/",
    "pref": "愛媛県",
    "city": "西条市",
    "category": "day_service",
    "serviceType": "通所介護",
    "capacity": 0,
    "openDays": [
      "平日",
      "土曜日",
      "日曜日",
      "祝日"
    ],
    "openDaysNote": ""
  },
  {
    "id": "3870601048",
    "name": "ケアコンシェルジュ今井",
    "kana": "ケアコンシェルジュイマイ",
    "address": "丹原町今井155－1",
    "lat": 33.9008678,
    "lng": 133.0553257,
    "tel": "0898-68-8878",
    "url": "htt://care.imai-clinic/net",
    "pref": "愛媛県",
    "city": "西条市",
    "category": "day_service",
    "serviceType": "通所介護",
    "capacity": 0,
    "openDays": [
      "平日",
      "土曜日",
      "祝日"
    ],
    "openDaysNote": ""
  },
  {
    "id": "3870601105",
    "name": "ケアプラザ「サン愛」大町事業所",
    "kana": "ケアプラザ「サンアイ」オオマチジギョウショ",
    "address": "愛媛県西条市大町字柳ヶ内７７６－２２",
    "lat": 33.9141085380833,
    "lng": 133.189543182078,
    "tel": "0897-55-2313",
    "url": "http://www.sun-i.biz/",
    "pref": "愛媛県",
    "city": "西条市",
    "category": "day_service",
    "serviceType": "通所介護",
    "capacity": 0,
    "openDays": [
      "平日",
      "土曜日",
      "祝日"
    ],
    "openDaysNote": ""
  },
  {
    "id": "3870601717",
    "name": "スポーツデイたんばら",
    "kana": "スポーツデイタンバラ",
    "address": "愛媛県西条市丹原町願連寺196－6",
    "lat": 33.9100066,
    "lng": 133.0698882,
    "tel": "0898－68－8882",
    "url": "https://campus.mond.jp/",
    "pref": "愛媛県",
    "city": "西条市",
    "category": "day_service",
    "serviceType": "通所介護",
    "capacity": 0,
    "openDays": [
      "平日",
      "祝日"
    ],
    "openDaysNote": ""
  },
  {
    "id": "3870601428",
    "name": "デイサービス　こもれび",
    "kana": "デイサービス　コモレビ",
    "address": "愛媛県西条市小松町大頭甲118番地2",
    "lat": 33.8811507,
    "lng": 133.0750243,
    "tel": "0898-35-4811",
    "url": "http://www.komorebi-saijo.com",
    "pref": "愛媛県",
    "city": "西条市",
    "category": "day_service",
    "serviceType": "通所介護",
    "capacity": 0,
    "openDays": [
      "平日",
      "土曜日",
      "祝日"
    ],
    "openDaysNote": "特になし"
  },
  {
    "id": "3870600388",
    "name": "デイサービス　川辺の家",
    "kana": "デイサービスカワベノイエ",
    "address": "愛媛県西条市船屋甲584番地2号",
    "lat": 33.9350071,
    "lng": 133.2052928,
    "tel": "0897-52-0578",
    "url": "https://niihama-mcoop.or.jp/",
    "pref": "愛媛県",
    "city": "西条市",
    "category": "day_service",
    "serviceType": "通所介護",
    "capacity": 19,
    "openDays": [
      "平日",
      "土曜日"
    ],
    "openDaysNote": "特になし。"
  },
  {
    "id": "3870601519",
    "name": "デイサービスあゆみ",
    "kana": "デイサービス　アユミ",
    "address": "愛媛県西条市河原津甲492番地3",
    "lat": 33.9645262898692,
    "lng": 133.060790206368,
    "tel": "0898-55-8765",
    "url": "",
    "pref": "愛媛県",
    "city": "西条市",
    "category": "day_service",
    "serviceType": "通所介護",
    "capacity": 0,
    "openDays": [
      "平日",
      "土曜日",
      "祝日"
    ],
    "openDaysNote": ""
  },
  {
    "id": "3870600701",
    "name": "デイサービスいしづちの湯",
    "kana": "デイサービスイシヅチノユ",
    "address": "愛媛県西条市西田甲421番地5",
    "lat": 33.8950623,
    "lng": 133.157913,
    "tel": "0897-55-8800",
    "url": "http://jcomm-care.co.jp/",
    "pref": "愛媛県",
    "city": "西条市",
    "category": "day_service",
    "serviceType": "通所介護",
    "capacity": 0,
    "openDays": [
      "平日",
      "土曜日",
      "日曜日",
      "祝日"
    ],
    "openDaysNote": "特になし。"
  },
  {
    "id": "3870601493",
    "name": "デイサービスセンター　セトウチ",
    "kana": "デイサービスセンター　セトウチ",
    "address": "愛媛県西条市壬生川675番地1",
    "lat": 33.9397641,
    "lng": 133.0824819,
    "tel": "0898-65-5505",
    "url": "http://www.rainbowflower-saijo.com/",
    "pref": "愛媛県",
    "city": "西条市",
    "category": "day_service",
    "serviceType": "通所介護",
    "capacity": 0,
    "openDays": [
      "平日",
      "土曜日",
      "祝日"
    ],
    "openDaysNote": ""
  },
  {
    "id": "3870600859",
    "name": "デイサービスセンター　ル・ソレイユ",
    "kana": "デイサービスセンタール・ソレイユ",
    "address": "愛媛県西条市丹原町今井457番地1",
    "lat": 33.9014734,
    "lng": 133.060478,
    "tel": "0898-76-2111",
    "url": "http://www.le-soleil.or.jp/",
    "pref": "愛媛県",
    "city": "西条市",
    "category": "day_service",
    "serviceType": "通所介護",
    "capacity": 0,
    "openDays": [
      "平日",
      "祝日"
    ],
    "openDaysNote": "特にありません。"
  },
  {
    "id": "3870601568",
    "name": "デイサービスセンター　笑歩会　西条神拝",
    "kana": "デイサービスセンター　ショウホカイ　サイジョウカンバイ",
    "address": "愛媛県西条市神拝甲561番地1",
    "lat": 33.9165968,
    "lng": 133.1783837,
    "tel": "0897-55-6003",
    "url": "http://shouhokai.jp/",
    "pref": "愛媛県",
    "city": "西条市",
    "category": "day_service",
    "serviceType": "通所介護",
    "capacity": 0,
    "openDays": [
      "平日",
      "祝日"
    ],
    "openDaysNote": ""
  },
  {
    "id": "3870501545",
    "name": "デイサービスセンターあさひ",
    "kana": "デイサービスセンターアサヒ",
    "address": "愛媛県西条市神拝乙35-5",
    "lat": 33.9244573,
    "lng": 133.1796337,
    "tel": "0897-55-8045",
    "url": "",
    "pref": "愛媛県",
    "city": "西条市",
    "category": "day_service",
    "serviceType": "通所介護",
    "capacity": 25,
    "openDays": [
      "平日",
      "土曜日"
    ],
    "openDaysNote": "特に無"
  },
  {
    "id": "3871200212",
    "name": "デイサービスセンターなごみ",
    "kana": "デイサービスセンターナゴミ",
    "address": "愛媛県西条市周布326番地",
    "lat": 33.9259575,
    "lng": 133.0881644,
    "tel": "0898-64-7003",
    "url": "www.nagomi2012.com",
    "pref": "愛媛県",
    "city": "西条市",
    "category": "day_service",
    "serviceType": "通所介護",
    "capacity": 30,
    "openDays": [
      "平日",
      "土曜日",
      "祝日"
    ],
    "openDaysNote": "台風、大雪の気象状況によっては、ご利用者の送迎時安全性の観点から、臨時的に休日とする場合もあり。"
  },
  {
    "id": "3870600792",
    "name": "デイサービスセンターひうち",
    "kana": "デイサービスセンターヒウチ",
    "address": "愛媛県西条市下島山甲1384番地",
    "lat": 33.9229147,
    "lng": 133.2109151,
    "tel": "0897-56-1001",
    "url": "",
    "pref": "愛媛県",
    "city": "西条市",
    "category": "day_service",
    "serviceType": "通所介護",
    "capacity": 25,
    "openDays": [
      "平日",
      "土曜日"
    ],
    "openDaysNote": "天候事情（台風等）により警報が発令された場合は、臨時休業になる場合があります。"
  },
  {
    "id": "3871200089",
    "name": "デイサービスセンター亀天荘",
    "kana": "デイサービスセンターキテンソウ",
    "address": "愛媛県西条市大野１９０番地１",
    "lat": 33.9463514,
    "lng": 133.0498465,
    "tel": "0898-66-0066",
    "url": "http://kitenkai.or.jp/",
    "pref": "愛媛県",
    "city": "西条市",
    "category": "day_service",
    "serviceType": "通所介護",
    "capacity": 25,
    "openDays": [
      "平日",
      "土曜日"
    ],
    "openDaysNote": "なし"
  },
  {
    "id": "3870600891",
    "name": "デイサービスセンター丹原",
    "kana": "デイサービスセンタータンバラ",
    "address": "愛媛県西条市丹原町池田1651-1",
    "lat": 33.9105393,
    "lng": 133.0693884,
    "tel": "0898-68-4356",
    "url": "http://campus.mond.jp",
    "pref": "愛媛県",
    "city": "西条市",
    "category": "day_service",
    "serviceType": "通所介護",
    "capacity": 35,
    "openDays": [
      "平日",
      "土曜日",
      "祝日"
    ],
    "openDaysNote": "特になし"
  },
  {
    "id": "3870600917",
    "name": "デイサービスセンター東予",
    "kana": "デイサービスセンタートウヨ",
    "address": "愛媛県西条市円海寺247-7",
    "lat": 33.9339644,
    "lng": 133.0743494,
    "tel": "0898-64-3303",
    "url": "https://www.rainbowflower-saijo.com/touyo",
    "pref": "愛媛県",
    "city": "西条市",
    "category": "day_service",
    "serviceType": "通所介護",
    "capacity": 35,
    "openDays": [
      "平日",
      "土曜日",
      "祝日"
    ],
    "openDaysNote": "特にありません。"
  },
  {
    "id": "3870600933",
    "name": "デイサービスセンター飯岡",
    "kana": "デイサービスセンターイイオカ",
    "address": "愛媛県西条市飯岡3796-2",
    "lat": 33.9158064,
    "lng": 133.2168584,
    "tel": "0897-53-2735",
    "url": "http://campus.mond.jp",
    "pref": "愛媛県",
    "city": "西条市",
    "category": "day_service",
    "serviceType": "通所介護",
    "capacity": 0,
    "openDays": [
      "平日",
      "祝日"
    ],
    "openDaysNote": "特にありません。"
  },
  {
    "id": "3870601741",
    "name": "デイサービスなないろ西条南",
    "kana": "デイサービスナナイロサイジョウミナミ",
    "address": "愛媛県西条市大町1176-1",
    "lat": 33.9044489,
    "lng": 133.1859531,
    "tel": "0897-66-7070",
    "url": "",
    "pref": "愛媛県",
    "city": "西条市",
    "category": "day_service",
    "serviceType": "通所介護",
    "capacity": null,
    "openDays": [
      "平日",
      "土曜日"
    ],
    "openDaysNote": ""
  },
  {
    "id": "3870601659",
    "name": "レッツ倶楽部　西条古川",
    "kana": "レッツクラブ　サイジョウフルカワ",
    "address": "愛媛県西条市古川甲417-3",
    "lat": 33.9153755,
    "lng": 133.1643813,
    "tel": "0897-66-7211",
    "url": "https://www.lets-club.jp/shop/saijofurukawa/",
    "pref": "愛媛県",
    "city": "西条市",
    "category": "day_service",
    "serviceType": "通所介護",
    "capacity": 0,
    "openDays": [
      "平日",
      "土曜日",
      "祝日"
    ],
    "openDaysNote": ""
  },
  {
    "id": "3870601469",
    "name": "済生会西条デイサービス事業所",
    "kana": "サイセイカイサイジョウデイサービスジギョウショ",
    "address": "愛媛県西条市新田109番地1",
    "lat": 33.928677483065,
    "lng": 133.192684151126,
    "tel": "0897-55-5130",
    "url": "http://www.saiseikaisaijo.jp/",
    "pref": "愛媛県",
    "city": "西条市",
    "category": "day_service",
    "serviceType": "通所介護",
    "capacity": 0,
    "openDays": [
      "平日",
      "土曜日",
      "祝日"
    ],
    "openDaysNote": "台風など、悪天候の際は、状況に応じて休止する。"
  },
  {
    "id": "3870600289",
    "name": "指定通所介護事業所　デイサービスセンター福武荘",
    "kana": "シテイツウショカイゴジギョウショ　デイサービスセンターフクタケソウ",
    "address": "愛媛県西条市飯岡3406番地",
    "lat": 33.9116412275666,
    "lng": 133.21057526286,
    "tel": "0897-53-5818",
    "url": "http://www.saijo-kaiseikai.jp/",
    "pref": "愛媛県",
    "city": "西条市",
    "category": "day_service",
    "serviceType": "通所介護",
    "capacity": 0,
    "openDays": [
      "平日",
      "土曜日",
      "日曜日",
      "祝日"
    ],
    "openDaysNote": ""
  },
  {
    "id": "3870600164",
    "name": "指定通所介護事業所デイサービスセンター光風館",
    "kana": "シテイツウショカイゴジギョウショデイサービスセンターコウフウカン",
    "address": "愛媛県西条市氷見字上寺丙１９５番地",
    "lat": 33.9195105,
    "lng": 133.1811697,
    "tel": "0897-57-6605",
    "url": "http://saijo-seifuukai.or.jp",
    "pref": "愛媛県",
    "city": "西条市",
    "category": "day_service",
    "serviceType": "通所介護",
    "capacity": 0,
    "openDays": [
      "平日",
      "土曜日",
      "祝日"
    ],
    "openDaysNote": "天候により、営業中止及び時間短縮を行う（改行）感染症を発症した場合、医師の指示があるまで利用中止"
  },
  {
    "id": "3870601782",
    "name": "生活介護事業所　きずな",
    "kana": "セイカツカイゴジギョウショ　キズナ",
    "address": "愛媛県西条市明屋敷363-1",
    "lat": 33.9203936,
    "lng": 133.1757095,
    "tel": "0897-47-5825",
    "url": "",
    "pref": "愛媛県",
    "city": "西条市",
    "category": "day_service",
    "serviceType": "通所介護",
    "capacity": null,
    "openDays": [
      "平日",
      "祝日"
    ],
    "openDaysNote": "サービス提供時間は9時３０分～15時３０分"
  },
  {
    "id": "3870600677",
    "name": "西条市社協デイサービスセンターさくら",
    "kana": "サイジョウシシャキョウデイサービスセンターサクラ",
    "address": "愛媛県西条市丹原町来見乙26番地2西条市丹原高齢者生活福祉センター 西条市丹原高齢者生活福祉センター",
    "lat": 33.8571186,
    "lng": 133.0098367,
    "tel": "0898-73-2960",
    "url": "http://www.saijoshakyo.or.jp",
    "pref": "愛媛県",
    "city": "西条市",
    "category": "day_service",
    "serviceType": "通所介護",
    "capacity": 50,
    "openDays": [
      "平日"
    ],
    "openDaysNote": "臨時休業（台風等の悪天候の場合、施設設備の保守管理・点検等）"
  },
  {
    "id": "3870600685",
    "name": "西条市社協デイサービスセンターつばき",
    "kana": "サイジョウシシャキョウ　デイサービスセンターツバキ",
    "address": "愛媛県西条市小松町新屋敷乙４８番地１",
    "lat": 33.8961839,
    "lng": 133.1159585,
    "tel": "0898-72-6363",
    "url": "http://www.saijoshakyo.or.jp",
    "pref": "愛媛県",
    "city": "西条市",
    "category": "day_service",
    "serviceType": "通所介護",
    "capacity": 45,
    "openDays": [
      "平日"
    ],
    "openDaysNote": "特になし"
  },
  {
    "id": "3870600669",
    "name": "西条市社協デイサービスセンターひまわり",
    "kana": "サイジョウシシャキョウデイサービスセンターヒマワリ",
    "address": "愛媛県西条市周布６０６番地１西条市東予総合福祉センター 西条市東予総合福祉センター",
    "lat": 33.9256518,
    "lng": 133.0818984,
    "tel": "0898-76-1673",
    "url": "http://www.saijoshakyo.or.jp/",
    "pref": "愛媛県",
    "city": "西条市",
    "category": "day_service",
    "serviceType": "通所介護",
    "capacity": 10,
    "openDays": [
      "平日"
    ],
    "openDaysNote": "臨時休業（台風等の悪天候時、施設設備の保守管理・点検時、職員研修等）。"
  },
  {
    "id": "3871200220",
    "name": "通所介護センターまほろば",
    "kana": "ツウショカイゴセンターマホロバ",
    "address": "愛媛県西条市三津屋南10番20",
    "lat": 33.9311819,
    "lng": 133.088831,
    "tel": "0898-64-6010",
    "url": "http://www.koujin.net",
    "pref": "愛媛県",
    "city": "西条市",
    "category": "day_service",
    "serviceType": "通所介護",
    "capacity": 30,
    "openDays": [
      "平日",
      "土曜日",
      "祝日"
    ],
    "openDaysNote": "なし。"
  },
  {
    "id": "3871400523",
    "name": "デイサービス　さくら",
    "kana": "デイサービス　サクラ",
    "address": "愛媛県西予市宇和町山田１５５８番地",
    "lat": 33.3753173,
    "lng": 132.476934,
    "tel": "0894-62-8061",
    "url": "",
    "pref": "愛媛県",
    "city": "西予市",
    "category": "day_service",
    "serviceType": "通所介護",
    "capacity": 30,
    "openDays": [
      "平日",
      "土曜日",
      "祝日"
    ],
    "openDaysNote": ""
  },
  {
    "id": "3871400606",
    "name": "デイサービス　ねぶの花",
    "kana": "デイサービス　ネブノハナ",
    "address": "愛媛県西予市宇和町卯之町五丁目1番地4",
    "lat": 33.3618651,
    "lng": 132.5284409,
    "tel": "0894-62-1117",
    "url": "",
    "pref": "愛媛県",
    "city": "西予市",
    "category": "day_service",
    "serviceType": "通所介護",
    "capacity": 0,
    "openDays": [
      "平日",
      "土曜日",
      "日曜日",
      "祝日"
    ],
    "openDaysNote": "特になし"
  },
  {
    "id": "3871400671",
    "name": "デイサービスセンター　めぐみの里",
    "kana": "デイサービスセンター　メグミノサト",
    "address": "愛媛県西予市明浜町俵津4番耕地44番地",
    "lat": 33.326099,
    "lng": 132.490962,
    "tel": "0894-69-3101",
    "url": "http://care-net.biz/38/hyakushouikki/",
    "pref": "愛媛県",
    "city": "西予市",
    "category": "day_service",
    "serviceType": "通所介護",
    "capacity": 35,
    "openDays": [
      "平日",
      "土曜日",
      "祝日"
    ],
    "openDaysNote": "7:30～19：30時間延長可"
  },
  {
    "id": "3871400754",
    "name": "デイサービスセンター　海里",
    "kana": "デイサービスセンター　ミサト",
    "address": "愛媛県西予市明浜町俵津4-69-1",
    "lat": 33.3280577856261,
    "lng": 132.486361378296,
    "tel": "0894-65-0122",
    "url": "http://care-net.biz/38/hyakushouikki/b33.php",
    "pref": "愛媛県",
    "city": "西予市",
    "category": "day_service",
    "serviceType": "通所介護",
    "capacity": 35,
    "openDays": [
      "平日",
      "土曜日",
      "日曜日",
      "祝日"
    ],
    "openDaysNote": "7：30～19：30の間で時間延長可"
  },
  {
    "id": "3871400192",
    "name": "デイサービスセンター・バンブー",
    "kana": "デイサービスセンター・バンプー",
    "address": "愛媛県西予市野村町野村11-110",
    "lat": 33.3722375,
    "lng": 132.6439296,
    "tel": "0894-72-3801",
    "url": "http://iseki-mc.wixsite.com/iseki-mc",
    "pref": "愛媛県",
    "city": "西予市",
    "category": "day_service",
    "serviceType": "通所介護",
    "capacity": 325,
    "openDays": [
      "平日",
      "土曜日",
      "祝日"
    ],
    "openDaysNote": "特にありません。"
  },
  {
    "id": "3873800217",
    "name": "デイサービスセンターふれあい",
    "kana": "デイサービスセンターフレアイ",
    "address": "愛媛県西予市野村町野村13号288番地",
    "lat": 33.3775512578342,
    "lng": 132.639541656757,
    "tel": "0894-72-2851",
    "url": "http://noshiro-f.jp/",
    "pref": "愛媛県",
    "city": "西予市",
    "category": "day_service",
    "serviceType": "通所介護",
    "capacity": 0,
    "openDays": [
      "平日",
      "祝日"
    ],
    "openDaysNote": "特にありません。"
  },
  {
    "id": "3873700375",
    "name": "デイサービスセンターまほろば",
    "kana": "デイサービスセンターマホロバ",
    "address": "愛媛県西予市三瓶町朝立2-1-7",
    "lat": 33.3846535,
    "lng": 132.4252601,
    "tel": "0894-33-2877",
    "url": "",
    "pref": "愛媛県",
    "city": "西予市",
    "category": "day_service",
    "serviceType": "通所介護",
    "capacity": 0,
    "openDays": [
      "平日",
      "土曜日"
    ],
    "openDaysNote": "特にありません。"
  },
  {
    "id": "3871400705",
    "name": "デイサービスセンター寿楽苑",
    "kana": "デイサービスセンタージュラクエン",
    "address": "愛媛県西予市城川町魚成7026番地1",
    "lat": 33.379989,
    "lng": 132.7310206,
    "tel": "0894-82-0021",
    "url": "http://noshiro-f.jp/",
    "pref": "愛媛県",
    "city": "西予市",
    "category": "day_service",
    "serviceType": "通所介護",
    "capacity": 0,
    "openDays": [
      "平日",
      "土曜日",
      "祝日"
    ],
    "openDaysNote": ""
  },
  {
    "id": "3871400283",
    "name": "デイサービスセンター蒼月",
    "kana": "デイサービスセンターソウゲツ",
    "address": "愛媛県西予市宇和町岡山545番地",
    "lat": 33.4232874,
    "lng": 132.5055751,
    "tel": "0894-66-0234",
    "url": "http://www5.ocn.ne.jp/~shinpu/",
    "pref": "愛媛県",
    "city": "西予市",
    "category": "day_service",
    "serviceType": "通所介護",
    "capacity": 0,
    "openDays": [
      "平日",
      "土曜日",
      "祝日"
    ],
    "openDaysNote": "特になし。"
  },
  {
    "id": "3871400739",
    "name": "デイサービスはなみずき",
    "kana": "デイサービスハナミズキ",
    "address": "愛媛県西予市宇和町坂戸437番地",
    "lat": 33.389912201654,
    "lng": 132.505792165112,
    "tel": "0894-62-0087",
    "url": "http://www.hanamizuki-seiyo.com",
    "pref": "愛媛県",
    "city": "西予市",
    "category": "day_service",
    "serviceType": "通所介護",
    "capacity": 0,
    "openDays": [
      "平日",
      "土曜日",
      "祝日"
    ],
    "openDaysNote": "お正月休み　12/31から1/3"
  },
  {
    "id": "3871400838",
    "name": "リハビリ専門デイサービス歩",
    "kana": "リハビリセンモンデイサービスアユミ",
    "address": "愛媛県西予市宇和町卯之町3-486",
    "lat": 33.3612224126403,
    "lng": 132.512953912689,
    "tel": "0894-62-7155",
    "url": "http://www.seiyofukushi.com/",
    "pref": "愛媛県",
    "city": "西予市",
    "category": "day_service",
    "serviceType": "通所介護",
    "capacity": 0,
    "openDays": [
      "平日"
    ],
    "openDaysNote": ""
  },
  {
    "id": "3873800191",
    "name": "福祉の里デイサービスセンター",
    "kana": "フクシノサトデイサービスセンター",
    "address": "愛媛県西予市宇和町久枝甲1442番地1",
    "lat": 33.3618557,
    "lng": 132.49583,
    "tel": "0894-62-4611",
    "url": "http//www.seiyofukusi.com/",
    "pref": "愛媛県",
    "city": "西予市",
    "category": "day_service",
    "serviceType": "通所介護",
    "capacity": 30,
    "openDays": [
      "平日",
      "土曜日",
      "祝日"
    ],
    "openDaysNote": "特になし。"
  },
  {
    "id": "3870700691",
    "name": "ケアプラスデイサービスセンター大洲",
    "kana": "ケアプラスデイサービスセンターオオズ",
    "address": "愛媛県大洲市中村649-1",
    "lat": 33.5129512,
    "lng": 132.5461889,
    "tel": "0893-57-6511",
    "url": "http://www.carep.jp",
    "pref": "愛媛県",
    "city": "大洲市",
    "category": "day_service",
    "serviceType": "通所介護",
    "capacity": 45,
    "openDays": [
      "平日",
      "土曜日",
      "祝日"
    ],
    "openDaysNote": "特になし。"
  },
  {
    "id": "3870700972",
    "name": "デイサービス　笑歩会　大洲",
    "kana": "デイサービス　ショウホカイ　オオズ",
    "address": "愛媛県大洲市徳森2632-3笑歩会　大洲 笑歩会　大洲",
    "lat": 33.5217339,
    "lng": 132.5793783,
    "tel": "0893-25-5005",
    "url": "http://shouhokai.jp/",
    "pref": "愛媛県",
    "city": "大洲市",
    "category": "day_service",
    "serviceType": "通所介護",
    "capacity": null,
    "openDays": [
      "平日"
    ],
    "openDaysNote": ""
  },
  {
    "id": "3870700907",
    "name": "デイサービスセンター　ゆうゆう大洲",
    "kana": "デイサービスセンター　ユウユウオオズ",
    "address": "愛媛県大洲市田口甲１８９５番地2",
    "lat": 33.5176038,
    "lng": 132.5634708,
    "tel": "0893-57-6664",
    "url": "http://www.yuyusya.co.jp/",
    "pref": "愛媛県",
    "city": "大洲市",
    "category": "day_service",
    "serviceType": "通所介護",
    "capacity": null,
    "openDays": [
      "平日",
      "土曜日",
      "祝日"
    ],
    "openDaysNote": "天災その他やむを得ず業務を遂行できない日は、営業日であっても臨時休業となる場合がある。また、特別行事の場合、営業日以外もサービスを行う場合がある。"
  },
  {
    "id": "3870700105",
    "name": "デイサービスセンター春賀",
    "kana": "デイサービスセンターハルカ",
    "address": "愛媛県大洲市春賀甲1655番地",
    "lat": 33.5638182617174,
    "lng": 132.554047770809,
    "tel": "0893-26-1471",
    "url": "http://www.ecomnet.or.jp/~ohzuhome",
    "pref": "愛媛県",
    "city": "大洲市",
    "category": "day_service",
    "serviceType": "通所介護",
    "capacity": 0,
    "openDays": [
      "平日",
      "土曜日",
      "祝日"
    ],
    "openDaysNote": "特にありません。"
  },
  {
    "id": "3870700931",
    "name": "デイサービスセンター翠星",
    "kana": "デイサービスセンタースイセイ",
    "address": "愛媛県大洲市新谷甲43番地",
    "lat": 33.5351583,
    "lng": 132.6134013,
    "tel": "０８９３－２５－５１１０",
    "url": "http://www.shinpukai.co.jp/",
    "pref": "愛媛県",
    "city": "大洲市",
    "category": "day_service",
    "serviceType": "通所介護",
    "capacity": 0,
    "openDays": [
      "平日",
      "土曜日",
      "祝日"
    ],
    "openDaysNote": ""
  },
  {
    "id": "3870700428",
    "name": "デイサービスセンター東大洲",
    "kana": "デイサービスセンターヒガシオオズ",
    "address": "愛媛県大洲市東大洲270番地1",
    "lat": 33.5211115,
    "lng": 132.5552214,
    "tel": "0893-23-0313",
    "url": "http://www.ozushakyou.jp",
    "pref": "愛媛県",
    "city": "大洲市",
    "category": "day_service",
    "serviceType": "通所介護",
    "capacity": 40,
    "openDays": [
      "平日",
      "土曜日",
      "祝日"
    ],
    "openDaysNote": "特にありません。"
  },
  {
    "id": "3870700154",
    "name": "指定通所介護事業所デイサービス施設とみす寮",
    "kana": "シテイツウショカイゴジギョウショデイサービスシセツトミスリョウ",
    "address": "愛媛県大洲市大洲810番地1",
    "lat": 33.5103993778613,
    "lng": 132.538768484131,
    "tel": "0893-23-0210",
    "url": "https://tomisuryou.com/",
    "pref": "愛媛県",
    "city": "大洲市",
    "category": "day_service",
    "serviceType": "通所介護",
    "capacity": 0,
    "openDays": [
      "平日",
      "祝日"
    ],
    "openDaysNote": "特にありません。"
  },
  {
    "id": "3870700626",
    "name": "大洲市老人デイサービスセンター肱流苑",
    "kana": "オオズシロウジンデイサービスセンターコウリュウエン",
    "address": "愛媛県大洲市肱川町宇和川６５番地１",
    "lat": 33.4830768,
    "lng": 132.6558945,
    "tel": "0893-34-3391",
    "url": "",
    "pref": "愛媛県",
    "city": "大洲市",
    "category": "day_service",
    "serviceType": "通所介護",
    "capacity": 0,
    "openDays": [
      "平日",
      "土曜日",
      "祝日"
    ],
    "openDaysNote": ""
  },
  {
    "id": "3870700832",
    "name": "複合型介護施設キネマ　デイサービス",
    "kana": "フクゴウガタカイゴシセツキネマデイサービス",
    "address": "愛媛県大洲市新谷乙537-1",
    "lat": 33.5346086,
    "lng": 132.5920426,
    "tel": "0893-23-9565",
    "url": "",
    "pref": "愛媛県",
    "city": "大洲市",
    "category": "day_service",
    "serviceType": "通所介護",
    "capacity": 0,
    "openDays": [
      "平日",
      "土曜日",
      "日曜日",
      "祝日"
    ],
    "openDaysNote": "早朝・延長サービスのご利用も受付ております。施設で朝食をお出ししたり夕食を食べて自宅にお送りすることも可能です。担当のケアマネさんとご相談いただき、ご利用ください。"
  },
  {
    "id": "3873501252",
    "name": "デイサービス　ほわいと・とべ",
    "kana": "デイサービス　ホワイト・トベ",
    "address": "愛媛県伊予郡砥部町大南457",
    "lat": 33.7389353,
    "lng": 132.7935161,
    "tel": "089-909-3202",
    "url": "https://www.kaigohowaito.jp",
    "pref": "愛媛県",
    "city": "砥部町",
    "category": "day_service",
    "serviceType": "通所介護",
    "capacity": null,
    "openDays": [
      "平日",
      "土曜日",
      "祝日"
    ],
    "openDaysNote": "12月30・31日　1月1.2.3日は休み"
  },
  {
    "id": "3873501138",
    "name": "デイサービスセンターTo-be",
    "kana": "デイサービスセンター",
    "address": "伊予郡砥部町麻生38-1",
    "lat": 33.781326788193,
    "lng": 132.789928530191,
    "tel": "089-969-0075",
    "url": "to-be.daysurvice@tobebyouin.com",
    "pref": "愛媛県",
    "city": "砥部町",
    "category": "day_service",
    "serviceType": "通所介護",
    "capacity": 0,
    "openDays": [
      "平日"
    ],
    "openDaysNote": ""
  },
  {
    "id": "3873501070",
    "name": "デイサービスセンターあったか",
    "kana": "デイサービスセンターアッタカ",
    "address": "愛媛県伊予郡砥部町高尾田1171-2",
    "lat": 33.7771483,
    "lng": 132.7961864,
    "tel": "089-957-2007",
    "url": "https://tobe-k.com",
    "pref": "愛媛県",
    "city": "砥部町",
    "category": "day_service",
    "serviceType": "通所介護",
    "capacity": null,
    "openDays": [
      "平日",
      "土曜日",
      "祝日"
    ],
    "openDaysNote": "特になし"
  },
  {
    "id": "3873501187",
    "name": "デイフィットＡＳＲＥ和とべ",
    "kana": "デイフィットアスレヤマトトベ",
    "address": "愛媛県伊予郡砥部町重光181－４",
    "lat": 33.7855583,
    "lng": 132.7828432,
    "tel": "089-961-1286",
    "url": "http://asreyamato.co.jp/",
    "pref": "愛媛県",
    "city": "砥部町",
    "category": "day_service",
    "serviceType": "通所介護",
    "capacity": null,
    "openDays": [
      "平日",
      "土曜日",
      "祝日"
    ],
    "openDaysNote": "なし"
  },
  {
    "id": "3873500742",
    "name": "砥部町デイサービスセンター",
    "kana": "トベチョウデイサービスセンター",
    "address": "愛媛県伊予郡砥部町総津３９８番地",
    "lat": 33.6304188,
    "lng": 132.7986935,
    "tel": "089-969-2211",
    "url": "https://www.koujukai-hirota.com/",
    "pref": "愛媛県",
    "city": "砥部町",
    "category": "day_service",
    "serviceType": "通所介護",
    "capacity": 0,
    "openDays": [
      "平日",
      "祝日"
    ],
    "openDaysNote": "なし"
  },
  {
    "id": "3871500249",
    "name": "つながるデイサービス",
    "kana": "ツナガルデイサービス",
    "address": "愛媛県東温市南野田３３番２",
    "lat": 33.7893643009277,
    "lng": 132.843611158356,
    "tel": "089-916-6118",
    "url": "https://www.tsunagaru-genki.com/",
    "pref": "愛媛県",
    "city": "東温市",
    "category": "day_service",
    "serviceType": "通所介護",
    "capacity": 24,
    "openDays": [
      "平日",
      "土曜日",
      "祝日"
    ],
    "openDaysNote": ""
  },
  {
    "id": "3873300127",
    "name": "デイサービス　ガリラヤ荘",
    "kana": "デイサービス　ガリラヤソウ",
    "address": "愛媛県東温市南方1766番地1",
    "lat": 33.7976382152625,
    "lng": 132.897862120238,
    "tel": "089-966-2293",
    "url": "https://www.ailinen.jp/",
    "pref": "愛媛県",
    "city": "東温市",
    "category": "day_service",
    "serviceType": "通所介護",
    "capacity": 0,
    "openDays": [
      "平日",
      "土曜日",
      "祝日"
    ],
    "openDaysNote": "特になし"
  },
  {
    "id": "3871500371",
    "name": "デイサービスセンターplum",
    "kana": "デイサービスセンタープラム",
    "address": "愛媛県東温市野田3丁目1-13",
    "lat": 33.7957203581096,
    "lng": 132.835558158676,
    "tel": "089-948-4133",
    "url": "https://umemoto.clinic/",
    "pref": "愛媛県",
    "city": "東温市",
    "category": "day_service",
    "serviceType": "通所介護",
    "capacity": null,
    "openDays": [
      "平日",
      "土曜日"
    ],
    "openDaysNote": ""
  },
  {
    "id": "3871500280",
    "name": "デイサービスセンターあ・ベンチ",
    "kana": "デイサービスセンターア・ベンチ",
    "address": "愛媛県東温市下林別府甲1939-3",
    "lat": 33.7774836,
    "lng": 132.8703658,
    "tel": "089-909-5506",
    "url": "http://abench.sakura.ne.jp",
    "pref": "愛媛県",
    "city": "東温市",
    "category": "day_service",
    "serviceType": "通所介護",
    "capacity": 25,
    "openDays": [
      "平日",
      "土曜日",
      "祝日"
    ],
    "openDaysNote": ""
  },
  {
    "id": "3873300218",
    "name": "デイサービスセンターウェルケア重信",
    "kana": "デイサービスセンターウェルケアシゲノブ",
    "address": "愛媛県東温市北野田５３３番１",
    "lat": 33.7934473,
    "lng": 132.8329108,
    "tel": "089-909-6828",
    "url": "http://kikuju.or.jp/",
    "pref": "愛媛県",
    "city": "東温市",
    "category": "day_service",
    "serviceType": "通所介護",
    "capacity": 50,
    "openDays": [
      "平日",
      "土曜日",
      "日曜日",
      "祝日"
    ],
    "openDaysNote": "特になし"
  },
  {
    "id": "3871500363",
    "name": "デイサービスだん",
    "kana": "デイサービスダン",
    "address": "愛媛県東温市南方222",
    "lat": 33.7995814,
    "lng": 132.9156333,
    "tel": "089-909-3511",
    "url": "https://day-dan.jimdofree.com/",
    "pref": "愛媛県",
    "city": "東温市",
    "category": "day_service",
    "serviceType": "通所介護",
    "capacity": 0,
    "openDays": [
      "平日",
      "祝日"
    ],
    "openDaysNote": "年末年始（12/29～1/3）は休み"
  },
  {
    "id": "3873300226",
    "name": "指定通所介護事業所デイサービスセンターあいくる",
    "kana": "シテイツウショカイゴジギョウショデイサービスセンターアイクル",
    "address": "愛媛県東温市志津川甲83番地1",
    "lat": 33.796737,
    "lng": 132.8728489,
    "tel": "089-964-7061",
    "url": "http:/www.kikuju.ftw.jp/",
    "pref": "愛媛県",
    "city": "東温市",
    "category": "day_service",
    "serviceType": "通所介護",
    "capacity": 50,
    "openDays": [
      "平日",
      "土曜日",
      "日曜日",
      "祝日"
    ],
    "openDaysNote": ""
  },
  {
    "id": "3873600583",
    "name": "デイサービスセンターやすらぎ",
    "kana": "デイサービスセンターヤスラギ",
    "address": "愛媛県喜多郡内子町内子716番地",
    "lat": 33.5446974,
    "lng": 132.64789,
    "tel": "0893-44-6310",
    "url": "http://forcecorp.pupu.jp",
    "pref": "愛媛県",
    "city": "内子町",
    "category": "day_service",
    "serviceType": "通所介護",
    "capacity": 25,
    "openDays": [
      "平日",
      "祝日"
    ],
    "openDaysNote": ""
  },
  {
    "id": "3873600559",
    "name": "デイサービス内子さくら",
    "kana": "デイサービスウチコサクラ",
    "address": "愛媛県喜多郡内子町内子4271－15",
    "lat": 33.55580480817,
    "lng": 132.64362844185,
    "tel": "0893-44-6711（",
    "url": "",
    "pref": "愛媛県",
    "city": "内子町",
    "category": "day_service",
    "serviceType": "通所介護",
    "capacity": 30,
    "openDays": [
      "平日",
      "土曜日",
      "祝日"
    ],
    "openDaysNote": ""
  },
  {
    "id": "3873600534",
    "name": "ユーミーケア内子デイサービス",
    "kana": "ユーミーケアウチコデイサービス",
    "address": "愛媛県喜多郡内子町内子251番1",
    "lat": 33.5493060953436,
    "lng": 132.647525520238,
    "tel": "0893-59-2259",
    "url": "http://www.you-me-care.co.jp",
    "pref": "愛媛県",
    "city": "内子町",
    "category": "day_service",
    "serviceType": "通所介護",
    "capacity": 0,
    "openDays": [
      "平日",
      "土曜日",
      "日曜日",
      "祝日"
    ],
    "openDaysNote": "年中無休"
  },
  {
    "id": "3870400557",
    "name": "おるｄｅ新町デイサービスセンター",
    "kana": "オルデシンマチデイサービスセンター",
    "address": "愛媛県八幡浜市天神通一丁目1420番地",
    "lat": 33.4585437,
    "lng": 132.4245123,
    "tel": "0894-22-1080",
    "url": "http://www.orude.jp/",
    "pref": "愛媛県",
    "city": "八幡浜市",
    "category": "day_service",
    "serviceType": "通所介護",
    "capacity": 55,
    "openDays": [
      "平日",
      "土曜日",
      "祝日"
    ],
    "openDaysNote": "延長受入時は19：59まで営業。"
  },
  {
    "id": "3870400953",
    "name": "デイサービスきずな湯島",
    "kana": "デイサービスキズナユトウ",
    "address": "愛媛県八幡浜市五反田１番耕地５０６番地１",
    "lat": 33.4474711298152,
    "lng": 132.439910296326,
    "tel": "０８９４－２１－１６７４",
    "url": "",
    "pref": "愛媛県",
    "city": "八幡浜市",
    "category": "day_service",
    "serviceType": "通所介護",
    "capacity": 0,
    "openDays": [
      "平日",
      "土曜日",
      "日曜日",
      "祝日"
    ],
    "openDaysNote": "なし"
  },
  {
    "id": "3870400193",
    "name": "デイサービスセンターことぶき荘",
    "kana": "デイサービスセンターコトブキソウ",
    "address": "愛媛県八幡浜市向灘229番地18",
    "lat": 33.4663947,
    "lng": 132.4245971,
    "tel": "0894-24-6655",
    "url": "http://tokuyou-kotobuki.or.jp/",
    "pref": "愛媛県",
    "city": "八幡浜市",
    "category": "day_service",
    "serviceType": "通所介護",
    "capacity": 0,
    "openDays": [
      "平日",
      "土曜日"
    ],
    "openDaysNote": "特になし"
  }
]