[
  {
    "id": "971400288",
    "name": "ケアステーションあさひさくら",
    "kana": "ケアステーションアサヒサクラ",
    "address": "栃木県さくら市氏家3245-1",
    "lat": 36.7012853,
    "lng": 139.9677182,
    "tel": "028-681-8901",
    "url": "http://www.vati.co.jp/",
    "pref": "栃木県",
    "city": "さくら市",
    "category": "day_service",
    "serviceType": "通所介護",
    "capacity": 0,
    "openDays": [
      "平日",
      "土曜日",
      "日曜日",
      "祝日"
    ],
    "openDaysNote": ""
  },
  {
    "id": "972600423",
    "name": "ケアセンターさくら",
    "kana": "ケアセンターサクラ",
    "address": "栃木県さくら市氏家３４５２番地１７",
    "lat": 36.7060595,
    "lng": 139.9588411,
    "tel": "028-682-8312",
    "url": "http://sakura-popura.jp",
    "pref": "栃木県",
    "city": "さくら市",
    "category": "day_service",
    "serviceType": "通所介護",
    "capacity": 0,
    "openDays": [
      "平日",
      "土曜日",
      "祝日"
    ],
    "openDaysNote": ""
  },
  {
    "id": "971400049",
    "name": "デイサービスインマイライフさくら氏家",
    "kana": "デイサービスインマイライフサクラウジイエ",
    "address": "栃木県さくら市氏家3205-1",
    "lat": 36.6939479445108,
    "lng": 139.969359670639,
    "tel": "028-681-7818",
    "url": "https://daruma-sakura.jp/",
    "pref": "栃木県",
    "city": "さくら市",
    "category": "day_service",
    "serviceType": "通所介護",
    "capacity": 30,
    "openDays": [
      "平日",
      "土曜日",
      "日曜日",
      "祝日"
    ],
    "openDaysNote": ""
  },
  {
    "id": "972600175",
    "name": "デイサービスセンターエリム",
    "kana": "デイサービスセンターエリム",
    "address": "栃木県さくら市鍛冶ケ澤５７番地1",
    "lat": 36.6847529,
    "lng": 140.0263939,
    "tel": "028-681-1211",
    "url": "http://erimu.jp",
    "pref": "栃木県",
    "city": "さくら市",
    "category": "day_service",
    "serviceType": "通所介護",
    "capacity": 0,
    "openDays": [
      "平日",
      "土曜日",
      "日曜日",
      "祝日"
    ],
    "openDaysNote": "-"
  },
  {
    "id": "971400064",
    "name": "デイホームつきみ",
    "kana": "デイホームツキミ",
    "address": "さくら市氏家3260番地12",
    "lat": 36.7048404,
    "lng": 139.9679181,
    "tel": "028-681-5635",
    "url": "http://cara-mamoru.jp/",
    "pref": "栃木県",
    "city": "さくら市",
    "category": "day_service",
    "serviceType": "通所介護",
    "capacity": 0,
    "openDays": [
      "平日",
      "土曜日",
      "日曜日",
      "祝日"
    ],
    "openDaysNote": ""
  },
  {
    "id": "971400411",
    "name": "デイホームはる",
    "kana": "デイホームハル",
    "address": "栃木県さくら市フィオーレ喜連川五丁目1番11号",
    "lat": 36.7401336581403,
    "lng": 140.029609494443,
    "tel": "028-688-0061",
    "url": "https://hp.kaipoke.biz/057/index.html",
    "pref": "栃木県",
    "city": "さくら市",
    "category": "day_service",
    "serviceType": "通所介護",
    "capacity": 0,
    "openDays": [
      "平日",
      "土曜日",
      "日曜日",
      "祝日"
    ],
    "openDaysNote": ""
  },
  {
    "id": "971400130",
    "name": "ハートピアさくらの郷　デイサービス",
    "kana": "ハートピアサクラノサト　デイサービス",
    "address": "栃木県さくら市喜連川5633",
    "lat": 36.7246372,
    "lng": 140.0333356,
    "tel": "028-686-7091",
    "url": "",
    "pref": "栃木県",
    "city": "さくら市",
    "category": "day_service",
    "serviceType": "通所介護",
    "capacity": 0,
    "openDays": [
      "平日",
      "土曜日",
      "日曜日",
      "祝日"
    ],
    "openDaysNote": ""
  },
  {
    "id": "972600407",
    "name": "ほっと喜連川デイサービスセンター",
    "kana": "ホットキツレガワデイサービスセンター",
    "address": "栃木県さくら市鷲宿3292",
    "lat": 36.7493587405111,
    "lng": 139.973918767459,
    "tel": "028-686-0053",
    "url": "",
    "pref": "栃木県",
    "city": "さくら市",
    "category": "day_service",
    "serviceType": "通所介護",
    "capacity": 30,
    "openDays": [
      "平日",
      "土曜日",
      "祝日"
    ],
    "openDaysNote": "-"
  },
  {
    "id": "971400304",
    "name": "リハビリデイサービス　ステップぱーとなーさくら",
    "kana": "リハビリデイサービス　ステップパートナーサクラ",
    "address": "栃木県さくら市馬場247-1",
    "lat": 36.6873093,
    "lng": 139.9562169,
    "tel": "028-681-7777",
    "url": "",
    "pref": "栃木県",
    "city": "さくら市",
    "category": "day_service",
    "serviceType": "通所介護",
    "capacity": 19,
    "openDays": [
      "平日",
      "祝日"
    ],
    "openDaysNote": "定員・・・午前１９人　午後１９人の１日３８人定員。"
  },
  {
    "id": "971400387",
    "name": "リハビリパーク歩",
    "kana": "リハビリパークアユム",
    "address": "喜連川473-1",
    "lat": 36.7178039,
    "lng": 140.0360838,
    "tel": "028-688-8016",
    "url": "riha-ayumu.net",
    "pref": "栃木県",
    "city": "さくら市",
    "category": "day_service",
    "serviceType": "通所介護",
    "capacity": 40,
    "openDays": [
      "平日",
      "祝日"
    ],
    "openDaysNote": ""
  },
  {
    "id": "971400320",
    "name": "家族の家ひまわり氏家",
    "kana": "カゾクノイエヒマワリウジイエ",
    "address": "卯の里4-52-1",
    "lat": 36.6799715,
    "lng": 139.9588225,
    "tel": "028-681-5850",
    "url": "www.saneido.co.jp>ujiie>info>outline",
    "pref": "栃木県",
    "city": "さくら市",
    "category": "day_service",
    "serviceType": "通所介護",
    "capacity": 0,
    "openDays": [
      "平日",
      "土曜日",
      "日曜日",
      "祝日"
    ],
    "openDaysNote": ""
  },
  {
    "id": "972600043",
    "name": "在宅介護支援センター　にこん",
    "kana": "ザイタクカイゴシエンエンセンター　ニコン",
    "address": "栃木県さくら市下河戸1942-2",
    "lat": 36.7722645,
    "lng": 140.0184457,
    "tel": "028-685-3196",
    "url": "http://www.hoaikai.or.jp",
    "pref": "栃木県",
    "city": "さくら市",
    "category": "day_service",
    "serviceType": "通所介護",
    "capacity": 25,
    "openDays": [
      "平日",
      "土曜日",
      "祝日"
    ],
    "openDaysNote": ""
  },
  {
    "id": "970107793",
    "name": "ＳＯＭＰＯケア　宇都宮さつき　デイサービス",
    "kana": "ソンポケア　ウツノミヤサツキ　デイサービス",
    "address": "栃木県宇都宮市さつき2-18-9",
    "lat": 36.4851088,
    "lng": 139.8619003,
    "tel": "028-653-6951",
    "url": "",
    "pref": "栃木県",
    "city": "宇都宮市",
    "category": "day_service",
    "serviceType": "通所介護",
    "capacity": 0,
    "openDays": [
      "平日",
      "祝日"
    ],
    "openDaysNote": "サービス提供は月曜日～金曜日、祝日は営業"
  },
  {
    "id": "970103008",
    "name": "アースサポート宇都宮",
    "kana": "アースサポートウツノミヤ",
    "address": "栃木県宇都宮市戸祭3丁目5番3号",
    "lat": 36.5764261,
    "lng": 139.8671573,
    "tel": "028-624-3011",
    "url": "https://www.earthsupport.co.jp/",
    "pref": "栃木県",
    "city": "宇都宮市",
    "category": "day_service",
    "serviceType": "通所介護",
    "capacity": 0,
    "openDays": [
      "平日",
      "土曜日",
      "祝日"
    ],
    "openDaysNote": "なし"
  },
  {
    "id": "970106779",
    "name": "あおぞらの里御幸ヶ原デイサービスセンター",
    "kana": "アオゾラノサトミユキガハラデイサービスセンター",
    "address": "栃木県宇都宮市御幸ヶ原町84-4",
    "lat": 36.5910548,
    "lng": 139.9261229,
    "tel": "028-613-0021",
    "url": "http:/www.cedar-web.com",
    "pref": "栃木県",
    "city": "宇都宮市",
    "category": "day_service",
    "serviceType": "通所介護",
    "capacity": 30,
    "openDays": [
      "平日",
      "土曜日",
      "祝日"
    ],
    "openDaysNote": "定休日は、日曜日のみですので祝祭日（年末年始を含む）は営業いたします。"
  },
  {
    "id": "970107603",
    "name": "あずみ苑宇都宮南",
    "kana": "アズミエンウツノミヤミナミ",
    "address": "兵庫塚町281番地1",
    "lat": 36.5024762,
    "lng": 139.8596111,
    "tel": "028-688-4165",
    "url": "http://www.azumien.jp/search/utsunomiyaminami/",
    "pref": "栃木県",
    "city": "宇都宮市",
    "category": "day_service",
    "serviceType": "通所介護",
    "capacity": 0,
    "openDays": [
      "平日",
      "土曜日",
      "祝日"
    ],
    "openDaysNote": "・1月1日・1月2日は定休日"
  },
  {
    "id": "970107348",
    "name": "いきいきデイ　さくら星の宮",
    "kana": "イキイキデイ　サクラホシノミヤ",
    "address": "栃木県宇都宮市屋板町1112-3",
    "lat": 36.5147558,
    "lng": 139.8951912,
    "tel": "028-656-3311",
    "url": "",
    "pref": "栃木県",
    "city": "宇都宮市",
    "category": "day_service",
    "serviceType": "通所介護",
    "capacity": null,
    "openDays": [
      "平日",
      "土曜日",
      "祝日"
    ],
    "openDaysNote": ""
  },
  {
    "id": "970107264",
    "name": "きたえるーむうつのみやたけばやしてん",
    "kana": "キタエルーム宇都宮竹林店",
    "address": "栃木県宇都宮市竹林町115番地8",
    "lat": 36.5805287386792,
    "lng": 139.913100742328,
    "tel": "028-611-3331",
    "url": "https://kitaeroom.com/shop/post-93.shtml",
    "pref": "栃木県",
    "city": "宇都宮市",
    "category": "day_service",
    "serviceType": "通所介護",
    "capacity": 0,
    "openDays": [
      "平日",
      "祝日"
    ],
    "openDaysNote": ""
  },
  {
    "id": "970104667",
    "name": "グッドエイジクラブ宇都宮",
    "kana": "グッドエイジクラブウツノミヤ",
    "address": "宇都宮市細谷町490-1グッドエイジクラブ宇都宮 グッドエイジクラブ宇都宮",
    "lat": 36.5934874969015,
    "lng": 139.853952828758,
    "tel": "028-688-0612",
    "url": "http://www.seikeikai.jp",
    "pref": "栃木県",
    "city": "宇都宮市",
    "category": "day_service",
    "serviceType": "通所介護",
    "capacity": 60,
    "openDays": [
      "平日",
      "祝日"
    ],
    "openDaysNote": ""
  },
  {
    "id": "970107165",
    "name": "ケアステーションあさひ　宇都宮城南",
    "kana": "ケアステーションアサヒ　ウツノミヤジョウナン",
    "address": "栃木県宇都宮市城南3丁目4-11",
    "lat": 36.5097505,
    "lng": 139.8801317,
    "tel": "028-688-5580",
    "url": "http://www.vati.co.jp/",
    "pref": "栃木県",
    "city": "宇都宮市",
    "category": "day_service",
    "serviceType": "通所介護",
    "capacity": 0,
    "openDays": [
      "平日",
      "土曜日",
      "日曜日",
      "祝日"
    ],
    "openDaysNote": ""
  },
  {
    "id": "970106811",
    "name": "ケアステーションあさひゆいの杜",
    "kana": "ケアステーションアサヒユイノモリ",
    "address": "栃木県宇都宮市ゆいの杜5丁目10番23号",
    "lat": 36.5673372,
    "lng": 139.9941384,
    "tel": "028-670-1460",
    "url": "http://www.vati.co.jp/",
    "pref": "栃木県",
    "city": "宇都宮市",
    "category": "day_service",
    "serviceType": "通所介護",
    "capacity": null,
    "openDays": [
      "平日",
      "土曜日",
      "日曜日",
      "祝日"
    ],
    "openDaysNote": ""
  },
  {
    "id": "970106092",
    "name": "ケアステーションあさひ宇都宮鶴田",
    "kana": "ケアステーションアサヒウツノミヤツルタ",
    "address": "栃木県宇都宮市鶴田2-19-1",
    "lat": 36.561625,
    "lng": 139.8540068,
    "tel": "028-612-6871",
    "url": "http://www.vati.co.jp/",
    "pref": "栃木県",
    "city": "宇都宮市",
    "category": "day_service",
    "serviceType": "通所介護",
    "capacity": 0,
    "openDays": [
      "平日",
      "土曜日",
      "日曜日",
      "祝日"
    ],
    "openDaysNote": ""
  },
  {
    "id": "970107280",
    "name": "ケアステーションあさひ雀の宮",
    "kana": "ケアステーションアサヒスズメノミヤ",
    "address": "栃木県宇都宮市五代2丁目",
    "lat": 36.4945792,
    "lng": 139.8656059,
    "tel": "028-688-1311",
    "url": "",
    "pref": "栃木県",
    "city": "宇都宮市",
    "category": "day_service",
    "serviceType": "通所介護",
    "capacity": 0,
    "openDays": [
      "平日",
      "土曜日",
      "日曜日",
      "祝日"
    ],
    "openDaysNote": ""
  },
  {
    "id": "970108965",
    "name": "ケアステーションみずほの",
    "kana": "ケアステーション　ミズホノ",
    "address": "宇都宮市瑞穂2-1-1",
    "lat": 36.5103021,
    "lng": 139.918169,
    "tel": "028-657-8330",
    "url": "",
    "pref": "栃木県",
    "city": "宇都宮市",
    "category": "day_service",
    "serviceType": "通所介護",
    "capacity": null,
    "openDays": [
      "平日",
      "土曜日",
      "祝日"
    ],
    "openDaysNote": ""
  },
  {
    "id": "970103099",
    "name": "ケアパートナー宇都宮",
    "kana": "ケアパートナーウツノミヤ",
    "address": "宇都宮市竹林町433-1",
    "lat": 36.5788056,
    "lng": 139.9105142,
    "tel": "028-650-5210",
    "url": "",
    "pref": "栃木県",
    "city": "宇都宮市",
    "category": "day_service",
    "serviceType": "通所介護",
    "capacity": 69,
    "openDays": [
      "平日",
      "土曜日",
      "日曜日",
      "祝日"
    ],
    "openDaysNote": ""
  },
  {
    "id": "970107876",
    "name": "ケアパートナー宇都宮南",
    "kana": "ケアパートナーウツノミヤミナミ",
    "address": "宇都宮市簗瀬町2563-5",
    "lat": 36.5400975700308,
    "lng": 139.897796939951,
    "tel": "028-610-0712",
    "url": "https://www.care-partner.com/place/utsunomiyaminami/",
    "pref": "栃木県",
    "city": "宇都宮市",
    "category": "day_service",
    "serviceType": "通所介護",
    "capacity": 0,
    "openDays": [
      "平日",
      "土曜日",
      "日曜日",
      "祝日"
    ],
    "openDaysNote": ""
  },
  {
    "id": "970103891",
    "name": "コープデイサービスセンター江曽島",
    "kana": "コープデイサービスセンターエソシマ",
    "address": "栃木県宇都宮市江曽島2-11-21",
    "lat": 36.5250486,
    "lng": 139.8626406,
    "tel": "028-659-5577",
    "url": "http://www.fureai-coop.com/",
    "pref": "栃木県",
    "city": "宇都宮市",
    "category": "day_service",
    "serviceType": "通所介護",
    "capacity": 0,
    "openDays": [
      "平日",
      "土曜日",
      "祝日"
    ],
    "openDaysNote": ""
  },
  {
    "id": "970104774",
    "name": "コープデイサービスセンター石井",
    "kana": "コープデイサービスセンターイシイ",
    "address": "栃木県宇都宮市石井町3129-156",
    "lat": 36.5359611,
    "lng": 139.9252274,
    "tel": "286668881",
    "url": "https://fureai-coop.com/",
    "pref": "栃木県",
    "city": "宇都宮市",
    "category": "day_service",
    "serviceType": "通所介護",
    "capacity": 27,
    "openDays": [
      "平日",
      "土曜日",
      "祝日"
    ],
    "openDaysNote": ""
  },
  {
    "id": "970108411",
    "name": "コンパスウォーク宇都宮岩曽",
    "kana": "コンパスウォークウツノミヤイワゾ",
    "address": "栃木県宇都宮市岩曽町52-1",
    "lat": 36.5889943,
    "lng": 139.894457,
    "tel": "028-678-6838",
    "url": "",
    "pref": "栃木県",
    "city": "宇都宮市",
    "category": "day_service",
    "serviceType": "通所介護",
    "capacity": null,
    "openDays": [
      "平日",
      "祝日"
    ],
    "openDaysNote": "年末年始（１２月３１日～１月３日）および事業所が定めた日も定休日とする。"
  },
  {
    "id": "970108874",
    "name": "コンパスウォーク宇都宮平松",
    "kana": "コンパスウォークウツノミヤヒラマツ",
    "address": "栃木県宇都宮市平松本町325-1",
    "lat": 36.5459242,
    "lng": 139.9068795,
    "tel": "028-678-6644",
    "url": "https://compass-walk.com/",
    "pref": "栃木県",
    "city": "宇都宮市",
    "category": "day_service",
    "serviceType": "通所介護",
    "capacity": 0,
    "openDays": [
      "平日",
      "祝日"
    ],
    "openDaysNote": ""
  },
  {
    "id": "960190239",
    "name": "さくらがおかケアセンター",
    "kana": "サクラガオカケアセンター",
    "address": "栃木県宇都宮市宝木町２－２５７０－１２",
    "lat": 36.5869716,
    "lng": 139.8461722,
    "tel": "028-680-5493",
    "url": "",
    "pref": "栃木県",
    "city": "宇都宮市",
    "category": "day_service",
    "serviceType": "通所介護",
    "capacity": 0,
    "openDays": [
      "平日",
      "土曜日",
      "祝日"
    ],
    "openDaysNote": "ただし、１２月３０日から１月３日は除く"
  },
  {
    "id": "970103305",
    "name": "さくらがおかケアセンター氷室",
    "kana": "サクラガオカケアセンターヒムロ",
    "address": "栃木県宇都宮市氷室町1014-1",
    "lat": 36.540515,
    "lng": 140.00098,
    "tel": "028-670-3131",
    "url": "",
    "pref": "栃木県",
    "city": "宇都宮市",
    "category": "day_service",
    "serviceType": "通所介護",
    "capacity": 0,
    "openDays": [
      "平日",
      "土曜日",
      "祝日"
    ],
    "openDaysNote": ""
  },
  {
    "id": "970108494",
    "name": "ジョイリハ宇都宮",
    "kana": "ジョイリハウツノミヤ",
    "address": "栃木県宇都宮市松原2-2-26",
    "lat": 36.5702739,
    "lng": 139.8724509,
    "tel": "028-650-4780",
    "url": "http://www.aobaya.co.jp/",
    "pref": "栃木県",
    "city": "宇都宮市",
    "category": "day_service",
    "serviceType": "通所介護",
    "capacity": 0,
    "openDays": [
      "平日",
      "土曜日"
    ],
    "openDaysNote": "年末年始は休業させていただきます。"
  },
  {
    "id": "970108486",
    "name": "ジョイリハ宇都宮南",
    "kana": "ジョイリハウツノミヤミナミ",
    "address": "栃木県宇都宮市若松原1-16-41",
    "lat": 36.5010712,
    "lng": 139.867906,
    "tel": "028-655-6522",
    "url": "https://www.aobaya.co.jp/",
    "pref": "栃木県",
    "city": "宇都宮市",
    "category": "day_service",
    "serviceType": "通所介護",
    "capacity": 0,
    "openDays": [
      "平日",
      "土曜日"
    ],
    "openDaysNote": "年末年始は休業させていただきます。"
  },
  {
    "id": "970108361",
    "name": "ツクイ・サンフォレスト宇都宮",
    "kana": "ツクイ・サンフォレストウツノミヤ",
    "address": "栃木県宇都宮市簗瀬4-4-7",
    "lat": 36.5536934,
    "lng": 139.899547,
    "tel": "028-614-8016",
    "url": "https://corp.tsukui.net/",
    "pref": "栃木県",
    "city": "宇都宮市",
    "category": "day_service",
    "serviceType": "通所介護",
    "capacity": null,
    "openDays": [
      "平日",
      "土曜日",
      "日曜日",
      "祝日"
    ],
    "openDaysNote": "サービス提供時間は午前９時３０分から午後４時４０分までとします。"
  },
  {
    "id": "970108353",
    "name": "ツクイ宇都宮",
    "kana": "ツクイウツノミヤ",
    "address": "栃木県宇都宮市鶴田町739-15",
    "lat": 36.5554367,
    "lng": 139.8564308,
    "tel": "028-649-1313",
    "url": "https://www.tsukui.net",
    "pref": "栃木県",
    "city": "宇都宮市",
    "category": "day_service",
    "serviceType": "通所介護",
    "capacity": 0,
    "openDays": [
      "平日",
      "土曜日",
      "日曜日",
      "祝日"
    ],
    "openDaysNote": ""
  },
  {
    "id": "970108338",
    "name": "ツクイ宇都宮いちり",
    "kana": "ツクイウツノミヤイチリ",
    "address": "栃木県宇都宮市上横田町800",
    "lat": 36.5237911,
    "lng": 139.8792465,
    "tel": "028-684-1801",
    "url": "htttp://www.tsukui.net",
    "pref": "栃木県",
    "city": "宇都宮市",
    "category": "day_service",
    "serviceType": "通所介護",
    "capacity": 0,
    "openDays": [
      "平日",
      "土曜日",
      "日曜日",
      "祝日"
    ],
    "openDaysNote": "年中無休"
  },
  {
    "id": "970108346",
    "name": "ツクイ宇都宮ゆいの杜",
    "kana": "ツクイウツノミヤユイノモリ",
    "address": "ゆいの杜５丁目２番６号ツクイ宇都宮ゆいの杜 ツクイ宇都宮ゆいの杜",
    "lat": 36.5673974,
    "lng": 139.9881055,
    "tel": "028-670-8016",
    "url": "tsukuiutunomiya-yuinomori.net",
    "pref": "栃木県",
    "city": "宇都宮市",
    "category": "day_service",
    "serviceType": "通所介護",
    "capacity": 0,
    "openDays": [
      "平日",
      "土曜日",
      "日曜日",
      "祝日"
    ],
    "openDaysNote": ""
  },
  {
    "id": "970108320",
    "name": "ツクイ宇都宮東",
    "kana": "ツクイウツノミヤヒガシ",
    "address": "元今泉6-14-30",
    "lat": 36.5602269,
    "lng": 139.9137089,
    "tel": "028-613-2440",
    "url": "",
    "pref": "栃木県",
    "city": "宇都宮市",
    "category": "day_service",
    "serviceType": "通所介護",
    "capacity": 0,
    "openDays": [
      "平日",
      "土曜日",
      "日曜日",
      "祝日"
    ],
    "openDaysNote": ""
  },
  {
    "id": "970108387",
    "name": "ツクイ宇都宮茂原",
    "kana": "ツクイウツノミヤモバラ",
    "address": "栃木県宇都宮市茂原1-3-9",
    "lat": 36.4740433,
    "lng": 139.8709063,
    "tel": "028-688-3741",
    "url": "http://www.tsukui.net",
    "pref": "栃木県",
    "city": "宇都宮市",
    "category": "day_service",
    "serviceType": "通所介護",
    "capacity": 0,
    "openDays": [
      "平日",
      "土曜日",
      "日曜日",
      "祝日"
    ],
    "openDaysNote": "365日年中無休"
  },
  {
    "id": "970108379",
    "name": "ツクイ戸祭",
    "kana": "ツクイトマツリ",
    "address": "栃木県宇都宮市中戸祭町3017-8",
    "lat": 36.5826901,
    "lng": 139.8726265,
    "tel": "028-616-1702",
    "url": "https://www.tsukui.net/",
    "pref": "栃木県",
    "city": "宇都宮市",
    "category": "day_service",
    "serviceType": "通所介護",
    "capacity": 0,
    "openDays": [
      "平日",
      "土曜日",
      "日曜日",
      "祝日"
    ],
    "openDaysNote": ""
  },
  {
    "id": "970104055",
    "name": "デイサービス　あおぞらさん家",
    "kana": "デイサービス　アオゾラサンチ",
    "address": "栃木県宇都宮市ゆいの杜２丁目２３－３１",
    "lat": 36.5770084120917,
    "lng": 139.997120266006,
    "tel": "028-670-0551",
    "url": "",
    "pref": "栃木県",
    "city": "宇都宮市",
    "category": "day_service",
    "serviceType": "通所介護",
    "capacity": 36,
    "openDays": [
      "平日",
      "土曜日",
      "日曜日",
      "祝日"
    ],
    "openDaysNote": ""
  },
  {
    "id": "970107694",
    "name": "デイサービス　ガッテン！",
    "kana": "デイサービス　ガッテン！",
    "address": "栃木県宇都宮市西原町13番地1",
    "lat": 36.5370478896895,
    "lng": 139.883643632541,
    "tel": "028-615-7835",
    "url": "http://masatomi-f.com/",
    "pref": "栃木県",
    "city": "宇都宮市",
    "category": "day_service",
    "serviceType": "通所介護",
    "capacity": 20,
    "openDays": [
      "平日",
      "土曜日",
      "祝日"
    ],
    "openDaysNote": ""
  },
  {
    "id": "970105573",
    "name": "デイサービス　だんとつ",
    "kana": "デイサービス　ダントツ",
    "address": "栃木県宇都宮市川田町1020番地9",
    "lat": 36.5382784,
    "lng": 139.8884295,
    "tel": "028-680-6631",
    "url": "http://www.forestikoi.co.jp/",
    "pref": "栃木県",
    "city": "宇都宮市",
    "category": "day_service",
    "serviceType": "通所介護",
    "capacity": 30,
    "openDays": [
      "平日",
      "土曜日",
      "祝日"
    ],
    "openDaysNote": ""
  },
  {
    "id": "970109096",
    "name": "デイサービスあやめの郷　ゆいの杜",
    "kana": "デイサービスアヤメノサト　ユイノモリ",
    "address": "栃木県宇都宮市ゆいの杜5丁目12番45号",
    "lat": 36.5664933,
    "lng": 139.9929845,
    "tel": "028-670-1120",
    "url": "",
    "pref": "栃木県",
    "city": "宇都宮市",
    "category": "day_service",
    "serviceType": "通所介護",
    "capacity": null,
    "openDays": [
      "平日",
      "土曜日",
      "日曜日",
      "祝日"
    ],
    "openDaysNote": ""
  },
  {
    "id": "970105961",
    "name": "デイサービスうつのみやファミリー",
    "kana": "デイサービスウツノミヤファミリー",
    "address": "駒生２丁目２０－１",
    "lat": 36.5759828,
    "lng": 139.8498876,
    "tel": "０２８（６１２）５７２０",
    "url": "",
    "pref": "栃木県",
    "city": "宇都宮市",
    "category": "day_service",
    "serviceType": "通所介護",
    "capacity": 0,
    "openDays": [
      "平日",
      "土曜日",
      "祝日"
    ],
    "openDaysNote": ""
  },
  {
    "id": "970108841",
    "name": "デイサービスうつのみやファミリー鶴田",
    "kana": "デイサービスウツノミヤファミリーツルタ",
    "address": "栃木県宇都宮市鶴田町3666-8",
    "lat": 36.5702128,
    "lng": 139.8503572,
    "tel": "028-612-1731",
    "url": "",
    "pref": "栃木県",
    "city": "宇都宮市",
    "category": "day_service",
    "serviceType": "通所介護",
    "capacity": 0,
    "openDays": [
      "平日",
      "土曜日",
      "祝日"
    ],
    "openDaysNote": ""
  },
  {
    "id": "970107892",
    "name": "デイサービスきたえるーむ宇都宮旭",
    "kana": "デイサービスキタエルームウツノミヤアサヒ",
    "address": "栃木県宇都宮市旭2丁目14番13号きたえるーむ宇都宮旭店 きたえるーむ宇都宮旭店",
    "lat": 36.5517184,
    "lng": 139.8840405,
    "tel": "028-678-2712",
    "url": "",
    "pref": "栃木県",
    "city": "宇都宮市",
    "category": "day_service",
    "serviceType": "通所介護",
    "capacity": 0,
    "openDays": [
      "平日",
      "祝日"
    ],
    "openDaysNote": ""
  },
  {
    "id": "970108064",
    "name": "デイサービスきたえるーむ宇都宮江曽島",
    "kana": "デイサービスキタエルームウツノミヤエソジマ",
    "address": "栃木県宇都宮市双葉２丁目１１番３号",
    "lat": 36.5269888895468,
    "lng": 139.858890723279,
    "tel": "028-666-8666",
    "url": "",
    "pref": "栃木県",
    "city": "宇都宮市",
    "category": "day_service",
    "serviceType": "通所介護",
    "capacity": 0,
    "openDays": [
      "平日",
      "祝日"
    ],
    "openDaysNote": "年末年始、夏季休暇、GW休み"
  },
  {
    "id": "970102844",
    "name": "デイサービスセンター　つるた",
    "kana": "デイサービスセンター　ツルタ",
    "address": "宇都宮市鶴田町2701番地１",
    "lat": 36.5553645,
    "lng": 139.8622892,
    "tel": "028-610-7620",
    "url": "http://www.fukushi-asahikai.or.jp",
    "pref": "栃木県",
    "city": "宇都宮市",
    "category": "day_service",
    "serviceType": "通所介護",
    "capacity": 35,
    "openDays": [
      "平日",
      "土曜日",
      "祝日"
    ],
    "openDaysNote": "12月30日から1月3日まで年末年始休み"
  },
  {
    "id": "970100608",
    "name": "デイサービスセンター　宝寿苑",
    "kana": "デイサービスセンター　ホウジュエン",
    "address": "栃木県宇都宮市宝木本町1768",
    "lat": 36.6082274,
    "lng": 139.8352027,
    "tel": "028-665-0520",
    "url": "http://www.seikeikai.jp",
    "pref": "栃木県",
    "city": "宇都宮市",
    "category": "day_service",
    "serviceType": "通所介護",
    "capacity": 0,
    "openDays": [
      "平日",
      "土曜日",
      "祝日"
    ],
    "openDaysNote": ""
  },
  {
    "id": "970102075",
    "name": "デイサービスセンターあかつき",
    "kana": "デイサービスセンターアカツキ",
    "address": "栃木県宇都宮市一番町3-17シロアムマンション花　3階 シロアムマンション花　3階",
    "lat": 36.558965161818,
    "lng": 139.891555144825,
    "tel": "028-638-3012",
    "url": "http://siloam.ryi.jp",
    "pref": "栃木県",
    "city": "宇都宮市",
    "category": "day_service",
    "serviceType": "通所介護",
    "capacity": 0,
    "openDays": [
      "平日",
      "祝日"
    ],
    "openDaysNote": ""
  },
  {
    "id": "970106647",
    "name": "デイサービスセンターあかり",
    "kana": "デイサービスセンターアカリ",
    "address": "栃木県宇都宮市駒生町1219-1",
    "lat": 36.5756468,
    "lng": 139.8406105,
    "tel": "028-902-1121",
    "url": "http://www.kaigo-akari.or.jp/",
    "pref": "栃木県",
    "city": "宇都宮市",
    "category": "day_service",
    "serviceType": "通所介護",
    "capacity": null,
    "openDays": [
      "平日",
      "土曜日",
      "日曜日",
      "祝日"
    ],
    "openDaysNote": ""
  },
  {
    "id": "970107637",
    "name": "デイサービスセンターとれもんて",
    "kana": "デイサービスセンタートレモンテ",
    "address": "栃木県宇都宮市石井町2972-1トレモンテ明日館内 トレモンテ明日館内",
    "lat": 36.5399517163678,
    "lng": 139.926875216373,
    "tel": "028-678-9337",
    "url": "http://tremonte.net",
    "pref": "栃木県",
    "city": "宇都宮市",
    "category": "day_service",
    "serviceType": "通所介護",
    "capacity": 20,
    "openDays": [
      "平日",
      "土曜日",
      "祝日"
    ],
    "openDaysNote": "ゴールデンウィーク、お盆、年末年始も休まず営業しております。"
  },
  {
    "id": "970105060",
    "name": "デイサービスセンターむつみ",
    "kana": "デイサービスセンタームツミ",
    "address": "栃木県宇都宮市下平出906-1",
    "lat": 36.5577559,
    "lng": 139.9357934,
    "tel": "028-663-8388",
    "url": "https://www.kaigo-mutumi.com/",
    "pref": "栃木県",
    "city": "宇都宮市",
    "category": "day_service",
    "serviceType": "通所介護",
    "capacity": 0,
    "openDays": [
      "平日",
      "土曜日",
      "祝日"
    ],
    "openDaysNote": ""
  },
  {
    "id": "970100525",
    "name": "デイサービスセンター元気の里",
    "kana": "デイサービスセンターゲンキノサト",
    "address": "栃木県宇都宮市幕田町1456-1",
    "lat": 36.4965601,
    "lng": 139.8518951,
    "tel": "028-655-2611",
    "url": "http://nantokai.com",
    "pref": "栃木県",
    "city": "宇都宮市",
    "category": "day_service",
    "serviceType": "通所介護",
    "capacity": 0,
    "openDays": [
      "平日",
      "土曜日",
      "祝日"
    ],
    "openDaysNote": ""
  },
  {
    "id": "970102786",
    "name": "デイサービスセンター五代",
    "kana": "デイサービスセンターゴダイ",
    "address": "栃木県宇都宮市五代2-9-8",
    "lat": 36.4977851,
    "lng": 139.8658858,
    "tel": "028-688-3255",
    "url": "http://www.fukushi-asahikai.or.jp",
    "pref": "栃木県",
    "city": "宇都宮市",
    "category": "day_service",
    "serviceType": "通所介護",
    "capacity": 35,
    "openDays": [
      "平日",
      "土曜日",
      "祝日"
    ],
    "openDaysNote": ""
  },
  {
    "id": "972100275",
    "name": "デイサービスセンター奈坪ヶ丘",
    "kana": "デイサービスセンター　ナツボガオカ",
    "address": "栃木県宇都宮市中岡本町３７４９－３７",
    "lat": 36.6089332,
    "lng": 139.9286969,
    "tel": "028-902-1028",
    "url": "http://www4.ocn.ne.jp/~natubo/",
    "pref": "栃木県",
    "city": "宇都宮市",
    "category": "day_service",
    "serviceType": "通所介護",
    "capacity": 0,
    "openDays": [
      "平日",
      "土曜日",
      "祝日"
    ],
    "openDaysNote": "特になし"
  },
  {
    "id": "970106928",
    "name": "デイサービスセンター奈坪ヶ丘第2",
    "kana": "デイサービスセンターナツボガオカダイニ",
    "address": "栃木県宇都宮市中岡本町3730-8",
    "lat": 36.6085889,
    "lng": 139.9294525,
    "tel": "028-678-6650",
    "url": "http://www4.ocn.ne.jp/~natubo",
    "pref": "栃木県",
    "city": "宇都宮市",
    "category": "day_service",
    "serviceType": "通所介護",
    "capacity": null,
    "openDays": [
      "平日",
      "土曜日",
      "祝日"
    ],
    "openDaysNote": "特になし"
  },
  {
    "id": "970104782",
    "name": "デイサービスセンター南の里あい・あらはり",
    "kana": "テ゛イサービスセンターミナミノサト　アイ・アラハリ",
    "address": "栃木県宇都宮市下荒針町3473-97",
    "lat": 36.5637604,
    "lng": 139.8387597,
    "tel": "028-647-5580",
    "url": "http://www.minaminosato.com/",
    "pref": "栃木県",
    "city": "宇都宮市",
    "category": "day_service",
    "serviceType": "通所介護",
    "capacity": 0,
    "openDays": [
      "平日",
      "土曜日",
      "祝日"
    ],
    "openDaysNote": ""
  },
  {
    "id": "970101994",
    "name": "デイサービスセンター六本杉",
    "kana": "デイサービスセンターロッポンスギ",
    "address": "宇都宮市徳次郎町2632-1",
    "lat": 36.6586884,
    "lng": 139.8398756,
    "tel": "028-666-3366",
    "url": "http://www.saiseikai.or.jp",
    "pref": "栃木県",
    "city": "宇都宮市",
    "category": "day_service",
    "serviceType": "通所介護",
    "capacity": 0,
    "openDays": [
      "平日",
      "土曜日",
      "祝日"
    ],
    "openDaysNote": ""
  },
  {
    "id": "970108163",
    "name": "ディサービスわたしン家円か",
    "kana": "ディサービスワタシンチマドカ",
    "address": "下田原1799番地1",
    "lat": 36.6367566,
    "lng": 139.9039192,
    "tel": "028-689-9797",
    "url": "",
    "pref": "栃木県",
    "city": "宇都宮市",
    "category": "day_service",
    "serviceType": "通所介護",
    "capacity": 25,
    "openDays": [
      "平日",
      "土曜日",
      "祝日"
    ],
    "openDaysNote": "祝日は営業となっています。"
  },
  {
    "id": "970106027",
    "name": "デイサービス幸笑",
    "kana": "シンフー",
    "address": "栃木県宇都宮市平松本町756",
    "lat": 36.5389348,
    "lng": 139.9143021,
    "tel": "028-637-8090",
    "url": "",
    "pref": "栃木県",
    "city": "宇都宮市",
    "category": "day_service",
    "serviceType": "通所介護",
    "capacity": 10,
    "openDays": [
      "平日",
      "土曜日"
    ],
    "openDaysNote": ""
  },
  {
    "id": "970108478",
    "name": "デイサービス昭和の里　宇都宮東",
    "kana": "デイサービスショウワノサト　ウツノミヤヒガシ",
    "address": "栃木県宇都宮市越戸町109-1",
    "lat": 36.5717811,
    "lng": 139.9245164,
    "tel": "028-613-3510",
    "url": "",
    "pref": "栃木県",
    "city": "宇都宮市",
    "category": "day_service",
    "serviceType": "通所介護",
    "capacity": null,
    "openDays": [
      "平日",
      "土曜日",
      "日曜日",
      "祝日"
    ],
    "openDaysNote": ""
  },
  {
    "id": "970108759",
    "name": "デイサービス虹",
    "kana": "デイサービスニジ",
    "address": "栃木県宇都宮市宝木町２丁目1028-17",
    "lat": 36.5923801544145,
    "lng": 139.845677825795,
    "tel": "028-600-1601",
    "url": "https://www.tochigihoken.or.jp",
    "pref": "栃木県",
    "city": "宇都宮市",
    "category": "day_service",
    "serviceType": "通所介護",
    "capacity": 10,
    "openDays": [
      "平日",
      "土曜日",
      "祝日"
    ],
    "openDaysNote": ""
  },
  {
    "id": "970108817",
    "name": "デイサービス陽だまりの里",
    "kana": "デイサービスヒダマリノサト",
    "address": "さつき2丁目3-5",
    "lat": 36.4869146,
    "lng": 139.8622059,
    "tel": "028-623-1177",
    "url": "https://hidamarino-sato.jp",
    "pref": "栃木県",
    "city": "宇都宮市",
    "category": "day_service",
    "serviceType": "通所介護",
    "capacity": 0,
    "openDays": [
      "平日",
      "土曜日",
      "日曜日",
      "祝日"
    ],
    "openDaysNote": ""
  },
  {
    "id": "970100731",
    "name": "デイホームきよはら",
    "kana": "デイホームキヨハラ",
    "address": "栃木県宇都宮市鐺山町1983番地",
    "lat": 36.5387033,
    "lng": 139.9759271,
    "tel": "028-667-0002",
    "url": "http://www.kiyohara.jp/",
    "pref": "栃木県",
    "city": "宇都宮市",
    "category": "day_service",
    "serviceType": "通所介護",
    "capacity": 0,
    "openDays": [
      "平日",
      "土曜日",
      "祝日"
    ],
    "openDaysNote": "-"
  },
  {
    "id": "970108114",
    "name": "デイホーム孫の手・宮ひがし",
    "kana": "デイホームマゴノテ・ミヤヒガシ",
    "address": "栃木県宇都宮市元今泉7丁目32番16号",
    "lat": 36.5668523,
    "lng": 139.9147473,
    "tel": "028-615-7286",
    "url": "https://magonote-inc.jp/",
    "pref": "栃木県",
    "city": "宇都宮市",
    "category": "day_service",
    "serviceType": "通所介護",
    "capacity": 40,
    "openDays": [
      "平日",
      "土曜日",
      "祝日"
    ],
    "openDaysNote": ""
  },
  {
    "id": "970100020",
    "name": "ニチイケアセンター宇都宮",
    "kana": "ニチイケアセンターウツノミヤ",
    "address": "宇都宮市城東2丁目26-40",
    "lat": 36.5516721,
    "lng": 139.9060939,
    "tel": "028-651-3322",
    "url": "hstb71@nichiigakkan.co.jp",
    "pref": "栃木県",
    "city": "宇都宮市",
    "category": "day_service",
    "serviceType": "通所介護",
    "capacity": 30,
    "openDays": [
      "平日",
      "土曜日",
      "日曜日",
      "祝日"
    ],
    "openDaysNote": "-"
  },
  {
    "id": "970105615",
    "name": "ハートフルサポートとちぎデイサービス",
    "kana": "ハートフルサポートトチギデイサービス",
    "address": "栃木県宇都宮市柳田町1771-1",
    "lat": 36.5689332074501,
    "lng": 139.957840471506,
    "tel": "028-683-6010",
    "url": "http://hs-tochigi.com/",
    "pref": "栃木県",
    "city": "宇都宮市",
    "category": "day_service",
    "serviceType": "通所介護",
    "capacity": 0,
    "openDays": [
      "平日",
      "土曜日",
      "祝日"
    ],
    "openDaysNote": "12月30日から翌1月3日は休業"
  },
  {
    "id": "970102711",
    "name": "フィットネスケア　けやき",
    "kana": "フィットネスケア　ケヤキ",
    "address": "栃木県宇都宮市大通り三丁目５番１８号宮リバーハイツ　1階 宮リバーハイツ　1階",
    "lat": 36.5589095,
    "lng": 139.8927589,
    "tel": "028-633-6556",
    "url": "http://www.fcare.jp",
    "pref": "栃木県",
    "city": "宇都宮市",
    "category": "day_service",
    "serviceType": "通所介護",
    "capacity": 30,
    "openDays": [
      "平日",
      "土曜日",
      "祝日"
    ],
    "openDaysNote": "祝日営業においては土曜日や月曜日などの祝日は休業する。火曜日～金曜日で単日祝日の場合は営業する。"
  },
  {
    "id": "970103446",
    "name": "フィットネスケアけやき江曽島",
    "kana": "フィットネスケアケヤキエソシマ",
    "address": "栃木県宇都宮市大和２丁目１２－３０",
    "lat": 36.5305396,
    "lng": 139.8607961,
    "tel": "028-684-2700",
    "url": "",
    "pref": "栃木県",
    "city": "宇都宮市",
    "category": "day_service",
    "serviceType": "通所介護",
    "capacity": 30,
    "openDays": [
      "平日",
      "土曜日",
      "祝日"
    ],
    "openDaysNote": "火曜日～金曜日の単日祝日の場合は営業する。"
  },
  {
    "id": "972100549",
    "name": "ふれんど岡本デイサービスセンター",
    "kana": "フレンドオカモトデイサービスセンター",
    "address": "栃木県宇都宮市下岡本町２１７５－９",
    "lat": 36.5975576498981,
    "lng": 139.938650445282,
    "tel": "028-671-8282",
    "url": "http://www.f-pw.jp",
    "pref": "栃木県",
    "city": "宇都宮市",
    "category": "day_service",
    "serviceType": "通所介護",
    "capacity": 0,
    "openDays": [
      "平日",
      "土曜日",
      "祝日"
    ],
    "openDaysNote": "特になし"
  },
  {
    "id": "970104550",
    "name": "ふれんど富士見が丘デイサービスセンター",
    "kana": "フレンドフジミガオカデイサービスセンター",
    "address": "栃木県宇都宮市富士見が丘１－１４－１０",
    "lat": 36.5848037,
    "lng": 139.8841307,
    "tel": "028-666-0105",
    "url": "http://www.f-pw.jp",
    "pref": "栃木県",
    "city": "宇都宮市",
    "category": "day_service",
    "serviceType": "通所介護",
    "capacity": 30,
    "openDays": [
      "平日",
      "土曜日",
      "祝日"
    ],
    "openDaysNote": ""
  },
  {
    "id": "970108668",
    "name": "リハ・ステップ",
    "kana": "リハ・ステップ",
    "address": "栃木県宇都宮市江曽島３丁目７５５ー７",
    "lat": 36.5288336,
    "lng": 139.8688263,
    "tel": "028-666-0782",
    "url": "https://www.fukushi-asahikai.or.jp",
    "pref": "栃木県",
    "city": "宇都宮市",
    "category": "day_service",
    "serviceType": "通所介護",
    "capacity": 0,
    "openDays": [
      "平日",
      "土曜日",
      "祝日"
    ],
    "openDaysNote": "年末年始休業(１２月３０日～１月３日　５日間）"
  },
  {
    "id": "970109179",
    "name": "リハ・ステップひらまつ",
    "kana": "リハ・ステップヒラマツ",
    "address": "栃木県宇都宮市東峰１丁目１２－１８",
    "lat": 36.5408547738082,
    "lng": 139.91856222275,
    "tel": "028-612-4381",
    "url": "http://www.fukushi-asahikai.or.jp",
    "pref": "栃木県",
    "city": "宇都宮市",
    "category": "day_service",
    "serviceType": "通所介護",
    "capacity": 0,
    "openDays": [
      "平日",
      "土曜日",
      "祝日"
    ],
    "openDaysNote": "年末年始休業（12月30日～1月3日　5日間）"
  },
  {
    "id": "970107835",
    "name": "リハートひらまつ",
    "kana": "リハートヒラマツ",
    "address": "栃木県宇都宮市平松2丁目8番12号",
    "lat": 36.5421077,
    "lng": 139.9163352,
    "tel": "028-680-6270",
    "url": "https://www.fukushi-asahikai.or.jp/publics/index/46/",
    "pref": "栃木県",
    "city": "宇都宮市",
    "category": "day_service",
    "serviceType": "通所介護",
    "capacity": null,
    "openDays": [
      "平日",
      "土曜日",
      "祝日"
    ],
    "openDaysNote": ""
  },
  {
    "id": "970108130",
    "name": "レッツ倶楽部今泉",
    "kana": "レッツクラブイマイズミ",
    "address": "栃木県宇都宮市元今泉2丁目21番地13",
    "lat": 36.5638655,
    "lng": 139.9041993,
    "tel": "028-612-7568",
    "url": "https://www.lets-club.jp/shop/imaizumi/",
    "pref": "栃木県",
    "city": "宇都宮市",
    "category": "day_service",
    "serviceType": "通所介護",
    "capacity": null,
    "openDays": [
      "平日",
      "祝日"
    ],
    "openDaysNote": ""
  },
  {
    "id": "970108007",
    "name": "レッツ俱楽部つるた",
    "kana": "レッツクラブツルタ",
    "address": "栃木県宇都宮市鶴田町１６２７番地1",
    "lat": 36.5522076,
    "lng": 139.8497767,
    "tel": "028-688-0128",
    "url": "https://www.lets-club.jp/shop/tsuruta/",
    "pref": "栃木県",
    "city": "宇都宮市",
    "category": "day_service",
    "serviceType": "通所介護",
    "capacity": null,
    "openDays": [
      "平日",
      "祝日"
    ],
    "openDaysNote": ""
  },
  {
    "id": "970106902",
    "name": "医療法人社団慶和会高瀬整形外科リハビリステーションことの葉",
    "kana": "イリョウホウジンシャダンケイワカイタカセセイケイゲカリハビリステーションコトノハ",
    "address": "栃木県宇都宮市戸祭1丁目7番17号",
    "lat": 36.5719639,
    "lng": 139.8693191,
    "tel": "028-600-3683",
    "url": "takaseseikei.com",
    "pref": "栃木県",
    "city": "宇都宮市",
    "category": "day_service",
    "serviceType": "通所介護",
    "capacity": 35,
    "openDays": [
      "平日",
      "土曜日"
    ],
    "openDaysNote": ""
  },
  {
    "id": "970103776",
    "name": "一条デイサービスセンターみやスマイル",
    "kana": "イチジョウデイサービスセンターミヤスマイル",
    "address": "栃木県宇都宮市一条２－６－２２",
    "lat": 36.5520058687978,
    "lng": 139.880678627122,
    "tel": "028-614-5277",
    "url": "",
    "pref": "栃木県",
    "city": "宇都宮市",
    "category": "day_service",
    "serviceType": "通所介護",
    "capacity": 0,
    "openDays": [
      "平日",
      "土曜日",
      "祝日"
    ],
    "openDaysNote": "-"
  },
  {
    "id": "970108460",
    "name": "宇都宮ケアセンターそよ風",
    "kana": "ウツノミヤケアセンターソヨカゼ",
    "address": "栃木県宇都宮市西3丁目1-26",
    "lat": 36.5559641813843,
    "lng": 139.878666846033,
    "tel": "028-651-0771",
    "url": "http://www.sykz.co.jp/",
    "pref": "栃木県",
    "city": "宇都宮市",
    "category": "day_service",
    "serviceType": "通所介護",
    "capacity": 0,
    "openDays": [
      "平日",
      "土曜日",
      "日曜日",
      "祝日"
    ],
    "openDaysNote": ""
  },
  {
    "id": "970102349",
    "name": "下戸祭ふれあいデイサービスセンターえがお",
    "kana": "シモトマツリフレアイデイサービスセンターエガオ",
    "address": "栃木県宇都宮市下戸祭1-4-1",
    "lat": 36.572963,
    "lng": 139.8811371,
    "tel": "028-650-5552",
    "url": "http://egao-miyasmile.com",
    "pref": "栃木県",
    "city": "宇都宮市",
    "category": "day_service",
    "serviceType": "通所介護",
    "capacity": null,
    "openDays": [
      "平日",
      "土曜日",
      "祝日"
    ],
    "openDaysNote": "時間については相談に応じます。"
  },
  {
    "id": "970107207",
    "name": "家族の家ひまわり宇都宮ゆいの杜通所介護事業所",
    "kana": "カゾクノイエヒマワリウツノミヤユイノモリツウショカイゴジギョウショ",
    "address": "栃木県宇都宮市ゆいの杜6-13-8",
    "lat": 36.569662,
    "lng": 139.9953354,
    "tel": "028-670-0831",
    "url": "http://www.saneido.co.jp/kaigo/yuinomori/",
    "pref": "栃木県",
    "city": "宇都宮市",
    "category": "day_service",
    "serviceType": "通所介護",
    "capacity": null,
    "openDays": [
      "平日",
      "土曜日",
      "日曜日",
      "祝日"
    ],
    "openDaysNote": "サービス提供時間、午前9時30分から午後4時30分まで"
  },
  {
    "id": "970107652",
    "name": "家族の家ひまわり宇都宮富屋",
    "kana": "カゾクノイエヒマワリウツノミヤトミヤ　ツウショカイゴジギョウショ",
    "address": "栃木県宇都宮市下金井町字金井696-1",
    "lat": 36.6293899,
    "lng": 139.8516372,
    "tel": "028-666-2100",
    "url": "http://www.saneido.co.jp/kaigo/tomiya/tomiya.html",
    "pref": "栃木県",
    "city": "宇都宮市",
    "category": "day_service",
    "serviceType": "通所介護",
    "capacity": 0,
    "openDays": [
      "平日",
      "土曜日",
      "日曜日",
      "祝日"
    ],
    "openDaysNote": ""
  },
  {
    "id": "970108858",
    "name": "株式会社ケア＆スポーツ",
    "kana": "カブシキガイシャケアアンドスポーツ",
    "address": "宝木町2-2570-44",
    "lat": 36.5878493,
    "lng": 139.8460732,
    "tel": "028-689-8910",
    "url": "",
    "pref": "栃木県",
    "city": "宇都宮市",
    "category": "day_service",
    "serviceType": "通所介護",
    "capacity": 0,
    "openDays": [
      "平日",
      "土曜日"
    ],
    "openDaysNote": ""
  },
  {
    "id": "970101028",
    "name": "敬祥苑デイサービスセンター",
    "kana": "ケイショウエンデイサービスセンター",
    "address": "栃木県宇都宮市宝木本町2141番地",
    "lat": 36.6296692,
    "lng": 139.8431986,
    "tel": "028-665-5633",
    "url": "http://numaog.or.jp/",
    "pref": "栃木県",
    "city": "宇都宮市",
    "category": "day_service",
    "serviceType": "通所介護",
    "capacity": 0,
    "openDays": [
      "平日",
      "祝日"
    ],
    "openDaysNote": ""
  },
  {
    "id": "970101861",
    "name": "今泉ケアセンター　そよ風",
    "kana": "イマイズミケアセンターソヨカゼ",
    "address": "栃木県宇都宮市中今泉四丁目22番1号",
    "lat": 36.5685539,
    "lng": 139.9099454,
    "tel": "028-613-5781",
    "url": "",
    "pref": "栃木県",
    "city": "宇都宮市",
    "category": "day_service",
    "serviceType": "通所介護",
    "capacity": 0,
    "openDays": [
      "平日",
      "土曜日",
      "祝日"
    ],
    "openDaysNote": ""
  },
  {
    "id": "970100111",
    "name": "在宅介護支援センターケアプラザ而今",
    "kana": "ザイタクカイゴシエンセンターケアプラザニコン",
    "address": "栃木県宇都宮市砥上町５４－１",
    "lat": 36.544146,
    "lng": 139.8452966,
    "tel": "028-649-2941",
    "url": "",
    "pref": "栃木県",
    "city": "宇都宮市",
    "category": "day_service",
    "serviceType": "通所介護",
    "capacity": null,
    "openDays": [
      "平日",
      "土曜日",
      "祝日"
    ],
    "openDaysNote": "-"
  },
  {
    "id": "970108023",
    "name": "社会福祉法人　美のりの里　のん美里ホームながおか",
    "kana": "シャカイフクシホウジン　ミノリノサト　ノンビリホームナガオカ",
    "address": "栃木県宇都宮市長岡町167-5",
    "lat": 36.6009815,
    "lng": 139.8769274,
    "tel": "028-622-7007",
    "url": "http://www.minorinosato.or.jp/nonbiri/",
    "pref": "栃木県",
    "city": "宇都宮市",
    "category": "day_service",
    "serviceType": "通所介護",
    "capacity": 25,
    "openDays": [
      "平日",
      "土曜日",
      "祝日"
    ],
    "openDaysNote": ""
  },
  {
    "id": "970100681",
    "name": "社会福祉法人　梨一会　豊幸の郷石井",
    "kana": "シャカイフクシホウジン　リイチカイ　ホウコウノサトイシイ",
    "address": "栃木県宇都宮市石井町２５８０－１",
    "lat": 36.5443184,
    "lng": 139.9391467,
    "tel": "028-683-3313",
    "url": "http://www.houkounosatoishii.com/",
    "pref": "栃木県",
    "city": "宇都宮市",
    "category": "day_service",
    "serviceType": "通所介護",
    "capacity": 0,
    "openDays": [
      "平日",
      "土曜日",
      "祝日"
    ],
    "openDaysNote": "但し、１２／２９～１／３休業"
  },
  {
    "id": "970100079",
    "name": "社会福祉法人長寿栄光会　宮の里",
    "kana": "シャカイフクシホウジンチョウジュエイコウカイ　ミヤノサト",
    "address": "栃木県宇都宮市田野町666-2",
    "lat": 36.5953813,
    "lng": 139.8070193,
    "tel": "028-652-8122",
    "url": "http://www.miyanosato.net/",
    "pref": "栃木県",
    "city": "宇都宮市",
    "category": "day_service",
    "serviceType": "通所介護",
    "capacity": 0,
    "openDays": [
      "平日",
      "土曜日",
      "祝日"
    ],
    "openDaysNote": ""
  },
  {
    "id": "970103768",
    "name": "若草デイサービスセンターみやスマイル",
    "kana": "ワカクサデイサービスセンターミヤスマイル",
    "address": "栃木県宇都宮市若草4-8-25",
    "lat": 36.5849081,
    "lng": 139.8577021,
    "tel": "028-650-7722",
    "url": "http://egao‐miyasmile.com",
    "pref": "栃木県",
    "city": "宇都宮市",
    "category": "day_service",
    "serviceType": "通所介護",
    "capacity": 35,
    "openDays": [
      "平日",
      "土曜日",
      "祝日"
    ],
    "openDaysNote": ""
  },
  {
    "id": "972100317",
    "name": "上河内デイサービスセンター",
    "kana": "カミカワチデイサービスセンター",
    "address": "栃木県宇都宮市下小倉町1313-26",
    "lat": 36.6873864,
    "lng": 139.9163761,
    "tel": "028-674-8811",
    "url": "https://seikeikai.jp/kamikawachi_day.html",
    "pref": "栃木県",
    "city": "宇都宮市",
    "category": "day_service",
    "serviceType": "通所介護",
    "capacity": 40,
    "openDays": [
      "平日",
      "土曜日",
      "祝日"
    ],
    "openDaysNote": ""
  },
  {
    "id": "970100178",
    "name": "上籠谷デイサービスセンター",
    "kana": "カミコモリヤデイサービスセンター",
    "address": "栃木県宇都宮市上籠谷町3569番６",
    "lat": 36.5311592,
    "lng": 139.9647979,
    "tel": "028-670-1311",
    "url": "http://kamikomoriya.or.jp/",
    "pref": "栃木県",
    "city": "宇都宮市",
    "category": "day_service",
    "serviceType": "通所介護",
    "capacity": 45,
    "openDays": [
      "平日",
      "土曜日",
      "祝日"
    ],
    "openDaysNote": ""
  },
  {
    "id": "970106571",
    "name": "西川田ケアセンターそよ風",
    "kana": "ニシカワタケアセンターソヨカゼ",
    "address": "西川田本町一丁目5番1号",
    "lat": 36.5185706313866,
    "lng": 139.847064734254,
    "tel": "028-684-1220",
    "url": "http://www.sykz.co.jp",
    "pref": "栃木県",
    "city": "宇都宮市",
    "category": "day_service",
    "serviceType": "通所介護",
    "capacity": 0,
    "openDays": [
      "平日",
      "土曜日",
      "祝日"
    ],
    "openDaysNote": ""
  },
  {
    "id": "970102091",
    "name": "川田ふれあいデイサービスセンターえがお",
    "kana": "カワダフレアイデイサービスセンターエガオ",
    "address": "栃木県宇都宮市川田町1051",
    "lat": 36.5393088,
    "lng": 139.8875351,
    "tel": "028-651-0033",
    "url": "http://egao-miyasmile.com",
    "pref": "栃木県",
    "city": "宇都宮市",
    "category": "day_service",
    "serviceType": "通所介護",
    "capacity": 0,
    "openDays": [
      "平日",
      "土曜日",
      "祝日"
    ],
    "openDaysNote": ""
  },
  {
    "id": "970107595",
    "name": "通所介護事業所あじさい",
    "kana": "ツウショカイゴジギョウショアジサイ",
    "address": "中岡本町3720-67",
    "lat": 36.6127748,
    "lng": 139.9311018,
    "tel": "286880290",
    "url": "www.suginomekai.or.jp",
    "pref": "栃木県",
    "city": "宇都宮市",
    "category": "day_service",
    "serviceType": "通所介護",
    "capacity": 0,
    "openDays": [
      "平日",
      "土曜日",
      "祝日"
    ],
    "openDaysNote": ""
  },
  {
    "id": "970100376",
    "name": "徳次郎デイサービスセンター",
    "kana": "トクジラデイサービスセンター",
    "address": "栃木県宇都宮市徳次郎町63-1",
    "lat": 36.6442344,
    "lng": 139.8480396,
    "tel": "028-665-7771",
    "url": "http://tokujira-dsc.jp/",
    "pref": "栃木県",
    "city": "宇都宮市",
    "category": "day_service",
    "serviceType": "通所介護",
    "capacity": 35,
    "openDays": [
      "平日",
      "土曜日",
      "祝日"
    ],
    "openDaysNote": "１２月２９日～１月４日は休み"
  },
  {
    "id": "972100093",
    "name": "特別養護老人ホーム　さくらの杜",
    "kana": "トクベツヨウゴロウジンホーム　サクラノモリ",
    "address": "栃木県宇都宮市逆面町261-1",
    "lat": 36.658037,
    "lng": 139.8989236,
    "tel": "028-672-0013",
    "url": "https://sakura-mori.jp/",
    "pref": "栃木県",
    "city": "宇都宮市",
    "category": "day_service",
    "serviceType": "通所介護",
    "capacity": 35,
    "openDays": [
      "平日",
      "土曜日",
      "祝日"
    ],
    "openDaysNote": ""
  },
  {
    "id": "970100632",
    "name": "飯田福祉会ことぶき",
    "kana": "イイダフクシカイコトブキ",
    "address": "栃木県宇都宮市屋板町558番地",
    "lat": 36.5113757,
    "lng": 139.8987021,
    "tel": "028-656-8938",
    "url": "http://www.iida-fukushi.net/",
    "pref": "栃木県",
    "city": "宇都宮市",
    "category": "day_service",
    "serviceType": "通所介護",
    "capacity": 20,
    "openDays": [
      "平日",
      "土曜日",
      "祝日"
    ],
    "openDaysNote": ""
  },
  {
    "id": "970100624",
    "name": "飯田福祉会高砂荘",
    "kana": "イイダフクシカイタカサゴソウ",
    "address": "栃木県宇都宮市平出町1510-1",
    "lat": 36.5783208,
    "lng": 139.945086,
    "tel": "028-663-4330",
    "url": "http://iida-f.jp/",
    "pref": "栃木県",
    "city": "宇都宮市",
    "category": "day_service",
    "serviceType": "通所介護",
    "capacity": 0,
    "openDays": [
      "平日",
      "土曜日",
      "祝日"
    ],
    "openDaysNote": ""
  },
  {
    "id": "970106688",
    "name": "宝木本町ふれあいデイサービスセンターえがお",
    "kana": "タカラギホンチョウフレアイデイサービスセンターエガオ",
    "address": "栃木県宇都宮市宝木本町2060-1",
    "lat": 36.6188513239133,
    "lng": 139.851302980426,
    "tel": "028-612-6333",
    "url": "http://egao-miyasmile.com/",
    "pref": "栃木県",
    "city": "宇都宮市",
    "category": "day_service",
    "serviceType": "通所介護",
    "capacity": 0,
    "openDays": [
      "平日",
      "土曜日",
      "祝日"
    ],
    "openDaysNote": ""
  },
  {
    "id": "970103792",
    "name": "豊郷台デイサービスセンターみやスマイル",
    "kana": "トヨサトダイデイサービスセンターミヤスマイル",
    "address": "宇都宮市長岡町550-1",
    "lat": 36.5967305,
    "lng": 139.8877159,
    "tel": "028-600-3988",
    "url": "http://www.honzawa-net.co.jp/miyasmile",
    "pref": "栃木県",
    "city": "宇都宮市",
    "category": "day_service",
    "serviceType": "通所介護",
    "capacity": 0,
    "openDays": [
      "平日",
      "土曜日",
      "祝日"
    ],
    "openDaysNote": ""
  },
  {
    "id": "970100442",
    "name": "老人デイサービスセンター　えそしま",
    "kana": "ロウジンデイサービスセンター　エソシマ",
    "address": "栃木県宇都宮市江曽島町１２１８－２",
    "lat": 36.5310788,
    "lng": 139.8746477,
    "tel": "028-645-7005",
    "url": "http://esoshima.shakunage.net/",
    "pref": "栃木県",
    "city": "宇都宮市",
    "category": "day_service",
    "serviceType": "通所介護",
    "capacity": 0,
    "openDays": [
      "平日",
      "土曜日",
      "祝日"
    ],
    "openDaysNote": "利用日が年末年始の休業日と重なった場合には振り替え利用が可能です。"
  },
  {
    "id": "970102265",
    "name": "老人デイサービスセンター　とよさと",
    "kana": "ロウジンデイサービスセンター　トヨサト",
    "address": "栃木県宇都宮市川俣町897-8",
    "lat": 36.5988254,
    "lng": 139.9039277,
    "tel": "028-616-1235",
    "url": "https://www.toyosato-g.or.jp/",
    "pref": "栃木県",
    "city": "宇都宮市",
    "category": "day_service",
    "serviceType": "通所介護",
    "capacity": 35,
    "openDays": [
      "平日",
      "土曜日",
      "祝日"
    ],
    "openDaysNote": "送迎地域により、ご相談いたします。"
  },
  {
    "id": "970100517",
    "name": "老人デイサービスセンターはりがや",
    "kana": "ロウジンデイサービスセンターハリガヤ",
    "address": "栃木県宇都宮市針ヶ谷町６５５番地",
    "lat": 36.489586,
    "lng": 139.851587,
    "tel": "028-688-1555",
    "url": "http://www.fukushi-asahikai.or.jp",
    "pref": "栃木県",
    "city": "宇都宮市",
    "category": "day_service",
    "serviceType": "通所介護",
    "capacity": 0,
    "openDays": [
      "平日",
      "土曜日",
      "祝日"
    ],
    "openDaysNote": "-"
  },
  {
    "id": "972700942",
    "name": "キミのあったか広場",
    "kana": "キミノアッタカヒロバ",
    "address": "栃木県芳賀郡益子町益子2053",
    "lat": 36.4624703,
    "lng": 140.0899368,
    "tel": "0285－81－3182",
    "url": "http://hp.kaipoke.biz/pew/",
    "pref": "栃木県",
    "city": "益子町",
    "category": "day_service",
    "serviceType": "通所介護",
    "capacity": 29,
    "openDays": [
      "平日",
      "日曜日",
      "祝日"
    ],
    "openDaysNote": ""
  },
  {
    "id": "972700769",
    "name": "デイサービスセンターイケダ",
    "kana": "デイサービスセンターイケダ",
    "address": "栃木県益子町長堤1086-1",
    "lat": 36.427184500299,
    "lng": 140.077357097037,
    "tel": "0285-70-6167",
    "url": "http://care-net.biz/09/dsc-ikeda/",
    "pref": "栃木県",
    "city": "益子町",
    "category": "day_service",
    "serviceType": "通所介護",
    "capacity": 28,
    "openDays": [
      "平日",
      "土曜日",
      "祝日"
    ],
    "openDaysNote": "お盆など　曜日に関係するので　休みが毎年変わります。"
  },
  {
    "id": "972700462",
    "name": "まろん・ど・おおはた",
    "kana": "マロン・ド・オオハタ",
    "address": "栃木県芳賀郡益子町大字益子2660-6",
    "lat": 36.4704471,
    "lng": 140.0973887,
    "tel": "0285-72-3365",
    "url": "http://hp.kaipoke.biz.pew/",
    "pref": "栃木県",
    "city": "益子町",
    "category": "day_service",
    "serviceType": "通所介護",
    "capacity": 34,
    "openDays": [
      "平日",
      "土曜日",
      "祝日"
    ],
    "openDaysNote": "・ゴールデンウイーク(5/3～5/5)（改行）・お盆(8/13～8/16)（改行）・年末年始(12/30～1/3)"
  },
  {
    "id": "972600282",
    "name": "デイサービスセンター　せせらぎ",
    "kana": "デイサービスセンター　セセラギ",
    "address": "栃木県塩谷郡塩谷町大字上沢９６８番地",
    "lat": 36.7567678,
    "lng": 139.8173124,
    "tel": "0287-47-2001",
    "url": "http://www.asunaro-swc.jp",
    "pref": "栃木県",
    "city": "塩谷町",
    "category": "day_service",
    "serviceType": "通所介護",
    "capacity": 0,
    "openDays": [
      "平日",
      "土曜日",
      "祝日"
    ],
    "openDaysNote": "-"
  },
  {
    "id": "971600838",
    "name": "ケアステーションあさひ小金井",
    "kana": "ケアステーションアサヒコガネイ",
    "address": "栃木県下野市小金井3丁目1-4",
    "lat": 36.382162,
    "lng": 139.8386315,
    "tel": "0285-43-1911",
    "url": "http://www.vati.co.jp/",
    "pref": "栃木県",
    "city": "下野市",
    "category": "day_service",
    "serviceType": "通所介護",
    "capacity": null,
    "openDays": [
      "平日",
      "土曜日",
      "日曜日",
      "祝日"
    ],
    "openDaysNote": ""
  },
  {
    "id": "971600853",
    "name": "デイサービス　ぽこあ",
    "kana": "デイサービス　ポコア",
    "address": "栃木県下野市文教1丁目11-7",
    "lat": 36.4413360000126,
    "lng": 139.860368303076,
    "tel": "0285-53-0100",
    "url": "https://tomaruseikei.com/kaigo/",
    "pref": "栃木県",
    "city": "下野市",
    "category": "day_service",
    "serviceType": "通所介護",
    "capacity": 120,
    "openDays": [
      "平日",
      "土曜日"
    ],
    "openDaysNote": ""
  },
  {
    "id": "972300693",
    "name": "デイサービスえびはら",
    "kana": "デイサービス　エビハラ",
    "address": "栃木県下野市小金井五丁目２６番地30",
    "lat": 36.3751436,
    "lng": 139.8393541,
    "tel": "0285-43-1177",
    "url": "https://www.ebihara-clinic.jp/dayservice-ebihara",
    "pref": "栃木県",
    "city": "下野市",
    "category": "day_service",
    "serviceType": "通所介護",
    "capacity": 25,
    "openDays": [
      "平日",
      "土曜日",
      "祝日"
    ],
    "openDaysNote": "なし"
  },
  {
    "id": "971600903",
    "name": "デイサービスセンターかえで",
    "kana": "デイサービスセンターカエデ",
    "address": "栃木県下野市笹原108-28",
    "lat": 36.4039846,
    "lng": 139.8576663,
    "tel": "0285-44-6724",
    "url": "http://www.sensinkai.or.jp",
    "pref": "栃木県",
    "city": "下野市",
    "category": "day_service",
    "serviceType": "通所介護",
    "capacity": 40,
    "openDays": [
      "平日",
      "土曜日",
      "祝日"
    ],
    "openDaysNote": ""
  },
  {
    "id": "972100515",
    "name": "デイサービスにらがわ",
    "kana": "デイサービス　ニラガワ",
    "address": "栃木県下野市仁良川1443",
    "lat": 36.3749531,
    "lng": 139.8777484,
    "tel": "0285-47-0055",
    "url": "https://www.ebihara-clinic.jp/dayservice-niragawa",
    "pref": "栃木県",
    "city": "下野市",
    "category": "day_service",
    "serviceType": "通所介護",
    "capacity": 0,
    "openDays": [
      "平日",
      "土曜日",
      "祝日"
    ],
    "openDaysNote": "祝日でも月・火・水・木・金・土は営業しています。"
  },
  {
    "id": "971600705",
    "name": "デイサービス智光薬湯あかり",
    "kana": "デイサービスチコウヤクトウアカリ",
    "address": "栃木県下野市上古山字明内708‐139",
    "lat": 36.4729464,
    "lng": 139.8603314,
    "tel": "0285-51-0188",
    "url": "http://www.chikouyakutou.co.jp/",
    "pref": "栃木県",
    "city": "下野市",
    "category": "day_service",
    "serviceType": "通所介護",
    "capacity": 0,
    "openDays": [
      "平日",
      "祝日"
    ],
    "openDaysNote": "上記定休日に臨時営業する事あり"
  },
  {
    "id": "972100465",
    "name": "ふれんど南河内デイサービスセンター",
    "kana": "フレンドミナミカワチデイサービスセンター",
    "address": "栃木県下野市薬師寺3181-6",
    "lat": 36.394547,
    "lng": 139.8655318,
    "tel": "0285-40-1330",
    "url": "http://www.f-pw.jp",
    "pref": "栃木県",
    "city": "下野市",
    "category": "day_service",
    "serviceType": "通所介護",
    "capacity": 30,
    "openDays": [
      "平日",
      "土曜日",
      "祝日"
    ],
    "openDaysNote": ""
  },
  {
    "id": "971600820",
    "name": "リハビリセンター　アルクルトータス",
    "kana": "リハビリセンター　アルクルセンター",
    "address": "2522-1",
    "lat": 36.006641,
    "lng": 139.644271,
    "tel": "0285-38-6730",
    "url": "http://tortoise-f.jp",
    "pref": "栃木県",
    "city": "下野市",
    "category": "day_service",
    "serviceType": "通所介護",
    "capacity": 0,
    "openDays": [
      "平日",
      "祝日"
    ],
    "openDaysNote": ""
  },
  {
    "id": "971600077",
    "name": "下野市社協デイサービスセンターのぞみ",
    "kana": "シモツケシシャキョウデイサービスセンターノゾミ",
    "address": "栃木県下野市小金井７８９番地",
    "lat": 36.3850119646638,
    "lng": 139.837613991402,
    "tel": "0285-43-1227",
    "url": "https://www.shimotsuke-syakyo.or.jp",
    "pref": "栃木県",
    "city": "下野市",
    "category": "day_service",
    "serviceType": "通所介護",
    "capacity": null,
    "openDays": [
      "平日"
    ],
    "openDaysNote": "-"
  },
  {
    "id": "971600507",
    "name": "家族の家ひまわり石橋通所介護事業所",
    "kana": "カゾクノイエヒマワリイシバシツウショカイゴジギョウショ",
    "address": "栃木県下野市文教一丁目20番23号",
    "lat": 36.4434521,
    "lng": 139.8625383,
    "tel": "0285-51-1751",
    "url": "http://www.saneido.co.jp/kaigo/ishibashi/",
    "pref": "栃木県",
    "city": "下野市",
    "category": "day_service",
    "serviceType": "通所介護",
    "capacity": null,
    "openDays": [
      "平日",
      "土曜日",
      "日曜日",
      "祝日"
    ],
    "openDaysNote": ""
  },
  {
    "id": "972300511",
    "name": "社会福祉法人　関記念　栃の木会　老人デイサービスセンターきらら",
    "kana": "シャカイフクシホウジンセキキネントチノキカイロウジンデイサービスセンターキララ",
    "address": "栃木県下野市下古山１２２０",
    "lat": 36.4451486,
    "lng": 139.8435896,
    "tel": "0285-52-3710",
    "url": "hhtp://www.tochinokikai.or.jp",
    "pref": "栃木県",
    "city": "下野市",
    "category": "day_service",
    "serviceType": "通所介護",
    "capacity": 0,
    "openDays": [
      "平日",
      "土曜日",
      "祝日"
    ],
    "openDaysNote": ""
  },
  {
    "id": "971600309",
    "name": "日新けあパレス（デイ・サービス）",
    "kana": "ニッシンケアパレス（デイ・サービス）",
    "address": "栃木県下野市本吉田771番地1",
    "lat": 36.373174112059,
    "lng": 139.909771688361,
    "tel": "0285-38-7145",
    "url": "http://nissin-care.com/",
    "pref": "栃木県",
    "city": "下野市",
    "category": "day_service",
    "serviceType": "通所介護",
    "capacity": 0,
    "openDays": [
      "平日",
      "祝日"
    ],
    "openDaysNote": "その他事業所の体制等により営業ができない日"
  },
  {
    "id": "972300206",
    "name": "老人デイサービスセンターいしばし",
    "kana": "ロウジンデイサービスセンターイシバシ",
    "address": "栃木県下野市上古山１８４９－１",
    "lat": 36.467530019888,
    "lng": 139.859072939046,
    "tel": "0285-39-8341",
    "url": "https://tochinokikai.or.jp/",
    "pref": "栃木県",
    "city": "下野市",
    "category": "day_service",
    "serviceType": "通所介護",
    "capacity": 0,
    "openDays": [
      "平日",
      "日曜日",
      "祝日"
    ],
    "openDaysNote": ""
  },
  {
    "id": "972600753",
    "name": "かなうホーム照和",
    "kana": "カナウホームショウワ",
    "address": "栃木県塩谷郡高根沢町大字石末2859番地1",
    "lat": 36.6367667,
    "lng": 139.9825087,
    "tel": "028-678-3842",
    "url": "http:teamshowa.com",
    "pref": "栃木県",
    "city": "高根沢町",
    "category": "day_service",
    "serviceType": "通所介護",
    "capacity": 34,
    "openDays": [
      "平日",
      "土曜日",
      "祝日"
    ],
    "openDaysNote": "年間を通して日曜日を除き、ゴールデンウィーク、お盆、年末年始も営業しております。"
  },
  {
    "id": "972600050",
    "name": "ケアハウス　フローラ",
    "kana": "ケアハウス　フローラ",
    "address": "栃木県塩谷郡高根沢町大字上柏崎５５１－１",
    "lat": 36.6348607,
    "lng": 140.0537857,
    "tel": "028-676-3300",
    "url": "http://www.kouseikai-flora.or.jp/",
    "pref": "栃木県",
    "city": "高根沢町",
    "category": "day_service",
    "serviceType": "通所介護",
    "capacity": 35,
    "openDays": [
      "平日",
      "土曜日",
      "祝日"
    ],
    "openDaysNote": "12月30日～１月３日は休業。"
  },
  {
    "id": "972600811",
    "name": "ツクイ高根沢",
    "kana": "ツクイタカネザワ",
    "address": "宝石台3-10-5",
    "lat": 36.6185393,
    "lng": 139.99088,
    "tel": "028-680-2003",
    "url": "https://www.tsukui.net/",
    "pref": "栃木県",
    "city": "高根沢町",
    "category": "day_service",
    "serviceType": "通所介護",
    "capacity": 0,
    "openDays": [
      "平日",
      "土曜日",
      "日曜日",
      "祝日"
    ],
    "openDaysNote": ""
  },
  {
    "id": "972600746",
    "name": "家族の家ひまわり宝積寺通所介護事業所",
    "kana": "カゾクノイエヒマワリホウシャクジツウショカイゴジギョウショ",
    "address": "栃木県塩谷郡高根沢町光陽台6-1-2",
    "lat": 36.622574,
    "lng": 139.9812009,
    "tel": "028-680-1021",
    "url": "http://www.saneido.co.jp/kaigo/hoshakuji/",
    "pref": "栃木県",
    "city": "高根沢町",
    "category": "day_service",
    "serviceType": "通所介護",
    "capacity": null,
    "openDays": [
      "平日",
      "土曜日",
      "日曜日",
      "祝日"
    ],
    "openDaysNote": ""
  },
  {
    "id": "972600209",
    "name": "老人デイサービスセンター　のぞみ",
    "kana": "ロウジンデイサービスセンターノゾミ",
    "address": "栃木県塩谷郡高根沢町大字花岡２１５８－１０",
    "lat": 36.6408251,
    "lng": 140.0055203,
    "tel": "028-676-3366",
    "url": "http://kuntoukai.sakura.ne.jp",
    "pref": "栃木県",
    "city": "高根沢町",
    "category": "day_service",
    "serviceType": "通所介護",
    "capacity": 20,
    "openDays": [
      "平日",
      "土曜日",
      "祝日"
    ],
    "openDaysNote": "大雪、台風、及び災害等の場合は休業となる場合があります。"
  },
  {
    "id": "970402145",
    "name": "あかみ倶楽部　生活向上委員会",
    "kana": "アカミクラブ　セイカツコウジョウイインカイ",
    "address": "栃木県佐野市赤見町3109-1",
    "lat": 36.3513665448108,
    "lng": 139.537968851096,
    "tel": "0283-55-5431",
    "url": "",
    "pref": "栃木県",
    "city": "佐野市",
    "category": "day_service",
    "serviceType": "通所介護",
    "capacity": 20,
    "openDays": [
      "平日"
    ],
    "openDaysNote": ""
  },
  {
    "id": "970401782",
    "name": "ケアステーションあさひ佐野高萩",
    "kana": "ケアステーションアサヒサノタカハギ",
    "address": "栃木県佐野市高萩町1305-6",
    "lat": 36.3026819,
    "lng": 139.6024532,
    "tel": "0283-85-9271",
    "url": "http://www.vati.co.jp/",
    "pref": "栃木県",
    "city": "佐野市",
    "category": "day_service",
    "serviceType": "通所介護",
    "capacity": 0,
    "openDays": [
      "平日",
      "土曜日",
      "日曜日",
      "祝日"
    ],
    "openDaysNote": ""
  },
  {
    "id": "970401055",
    "name": "ケアパートナー佐野",
    "kana": "ケアパートナーサノ",
    "address": "佐野市吉水町１１１６番地１",
    "lat": 36.3592249,
    "lng": 139.5756503,
    "tel": "0283-61-1255",
    "url": "http://www.care-partner.com",
    "pref": "栃木県",
    "city": "佐野市",
    "category": "day_service",
    "serviceType": "通所介護",
    "capacity": 10,
    "openDays": [
      "平日",
      "土曜日",
      "日曜日",
      "祝日"
    ],
    "openDaysNote": ""
  },
  {
    "id": "970402384",
    "name": "ツクイ佐野赤坂",
    "kana": "ツクイサノアカサカ",
    "address": "栃木県佐野市赤坂町974-1",
    "lat": 36.3047151,
    "lng": 139.5667118,
    "tel": "0283-20-8460",
    "url": "https://www.tsukui.net",
    "pref": "栃木県",
    "city": "佐野市",
    "category": "day_service",
    "serviceType": "通所介護",
    "capacity": null,
    "openDays": [
      "平日",
      "土曜日",
      "日曜日",
      "祝日"
    ],
    "openDaysNote": "1/1は応相談。"
  },
  {
    "id": "970402251",
    "name": "デイサービス　集い",
    "kana": "デイサービス　ツドイ",
    "address": "栃木県佐野市葛生西３丁目12-21",
    "lat": 36.4086856,
    "lng": 139.6091004,
    "tel": "0283-86-7320",
    "url": "",
    "pref": "栃木県",
    "city": "佐野市",
    "category": "day_service",
    "serviceType": "通所介護",
    "capacity": 20,
    "openDays": [
      "平日",
      "祝日"
    ],
    "openDaysNote": ""
  },
  {
    "id": "970400446",
    "name": "デイサービスセンター　　大栗の里",
    "kana": "デイサービスセンター　　オオグリノサト",
    "address": "栃木県佐野市犬伏中町２４４１－１",
    "lat": 36.3298428,
    "lng": 139.5976942,
    "tel": "0283-27-0560",
    "url": "",
    "pref": "栃木県",
    "city": "佐野市",
    "category": "day_service",
    "serviceType": "通所介護",
    "capacity": 0,
    "openDays": [
      "平日",
      "土曜日",
      "祝日"
    ],
    "openDaysNote": "１２月３１日から１月２日まで年末年始休業日"
  },
  {
    "id": "970400404",
    "name": "デイサービスセンターいちごの里",
    "kana": "デイサービスセンターイチゴノサト",
    "address": "栃木県佐野市田島町213",
    "lat": 36.294148,
    "lng": 139.5646041,
    "tel": "0283-27-0115",
    "url": "http://tokuchikai.com/",
    "pref": "栃木県",
    "city": "佐野市",
    "category": "day_service",
    "serviceType": "通所介護",
    "capacity": 35,
    "openDays": [
      "平日",
      "土曜日",
      "祝日"
    ],
    "openDaysNote": "-"
  },
  {
    "id": "970402137",
    "name": "デイサービスセンターすまいる　いが",
    "kana": "デイサービスセンタースマイル　イガ",
    "address": "栃木県佐野市伊賀町708-3",
    "lat": 36.3163203,
    "lng": 139.5758067,
    "tel": "0283-85-7777",
    "url": "",
    "pref": "栃木県",
    "city": "佐野市",
    "category": "day_service",
    "serviceType": "通所介護",
    "capacity": null,
    "openDays": [
      "平日",
      "土曜日",
      "日曜日",
      "祝日"
    ],
    "openDaysNote": ""
  },
  {
    "id": "970401543",
    "name": "デイサービスセンターひまわり",
    "kana": "デイサービスセンターヒマワリ",
    "address": "栃木県佐野市田沼町1242番地2デイサービスセンターひまわり デイサービスセンターひまわり",
    "lat": 36.3694682,
    "lng": 139.5778718,
    "tel": "0283-85-8412",
    "url": "http://himawari-sano.com/",
    "pref": "栃木県",
    "city": "佐野市",
    "category": "day_service",
    "serviceType": "通所介護",
    "capacity": 35,
    "openDays": [
      "平日",
      "土曜日",
      "日曜日",
      "祝日"
    ],
    "openDaysNote": ""
  },
  {
    "id": "970402335",
    "name": "デイサービスセンターほほえみ古里館",
    "kana": "デイサービスセンターホホエミフルサトカン",
    "address": "栃木県佐野市多田町1722-1",
    "lat": 36.3874594,
    "lng": 139.5967682,
    "tel": "0283-85-8602",
    "url": "http://www.hohoemi-care.co.jp",
    "pref": "栃木県",
    "city": "佐野市",
    "category": "day_service",
    "serviceType": "通所介護",
    "capacity": null,
    "openDays": [
      "平日",
      "土曜日",
      "祝日"
    ],
    "openDaysNote": "１月１日から１月３日は休業日"
  },
  {
    "id": "970401428",
    "name": "デイサービスセンターゆうゆうクラブ",
    "kana": "デイサービスセンターユウユウクラブ",
    "address": "栃木県佐野市相生町2815番地",
    "lat": 36.312966,
    "lng": 139.5813103,
    "tel": "0283-22-8880",
    "url": "http://yuyu.s-y.gr.com/",
    "pref": "栃木県",
    "city": "佐野市",
    "category": "day_service",
    "serviceType": "通所介護",
    "capacity": 0,
    "openDays": [
      "平日",
      "土曜日",
      "日曜日",
      "祝日"
    ],
    "openDaysNote": "特になし"
  },
  {
    "id": "970400875",
    "name": "デイサービスセンター春日和佐野",
    "kana": "デイサービスセンターハルビヨリサノ",
    "address": "栃木県佐野市浅沼町２８９",
    "lat": 36.3105803,
    "lng": 139.5878848,
    "tel": "0283-25-7155",
    "url": "",
    "pref": "栃木県",
    "city": "佐野市",
    "category": "day_service",
    "serviceType": "通所介護",
    "capacity": 0,
    "openDays": [
      "平日",
      "土曜日",
      "祝日"
    ],
    "openDaysNote": ""
  },
  {
    "id": "970402467",
    "name": "デイサービスセンター春日和佐野堀米",
    "kana": "デイサービスセンターハルビヨリサノホリゴメ",
    "address": "栃木県佐野市堀米町3339-1",
    "lat": 36.3291529,
    "lng": 139.5763839,
    "tel": "0283-86-8910",
    "url": "",
    "pref": "栃木県",
    "city": "佐野市",
    "category": "day_service",
    "serviceType": "通所介護",
    "capacity": 0,
    "openDays": [
      "平日",
      "土曜日",
      "祝日"
    ],
    "openDaysNote": ""
  },
  {
    "id": "970402277",
    "name": "デイサービスセンター陽向佐野",
    "kana": "デイサービスセンターヒナタサノ",
    "address": "栃木県佐野市大橋町3204-3",
    "lat": 36.3163953530893,
    "lng": 139.561093311115,
    "tel": "0283-25-8721",
    "url": "http://rientesano.wp.xdomain.jp/",
    "pref": "栃木県",
    "city": "佐野市",
    "category": "day_service",
    "serviceType": "通所介護",
    "capacity": 25,
    "openDays": [
      "平日",
      "土曜日",
      "日曜日",
      "祝日"
    ],
    "openDaysNote": ""
  },
  {
    "id": "970401063",
    "name": "デイサービスぬくもり",
    "kana": "デイサービスヌクモリ",
    "address": "栃木県佐野市飯田町209-1",
    "lat": 36.2875878,
    "lng": 139.59416,
    "tel": "0283-20-1244",
    "url": "",
    "pref": "栃木県",
    "city": "佐野市",
    "category": "day_service",
    "serviceType": "通所介護",
    "capacity": 0,
    "openDays": [
      "平日",
      "土曜日",
      "祝日"
    ],
    "openDaysNote": "年末年始はお休み"
  },
  {
    "id": "970401808",
    "name": "デイサービスふわり",
    "kana": "デイサービスフワリ",
    "address": "栃木県佐野市小中町1255-1",
    "lat": 36.3426492290498,
    "lng": 139.558661073016,
    "tel": "0283-20-8871",
    "url": "http://huwari.net",
    "pref": "栃木県",
    "city": "佐野市",
    "category": "day_service",
    "serviceType": "通所介護",
    "capacity": 20,
    "openDays": [
      "平日",
      "土曜日",
      "祝日"
    ],
    "openDaysNote": ""
  },
  {
    "id": "970401477",
    "name": "デイサービスゆめみ",
    "kana": "デイサービスユメミ",
    "address": "栃木県佐野市伊保内町3841-1",
    "lat": 36.2807168,
    "lng": 139.5812419,
    "tel": "0283-23-3211",
    "url": "http://www.kamedaiin.com/genkimura/",
    "pref": "栃木県",
    "city": "佐野市",
    "category": "day_service",
    "serviceType": "通所介護",
    "capacity": 0,
    "openDays": [
      "平日",
      "土曜日",
      "祝日"
    ],
    "openDaysNote": "施設の改修点検時等は定休日となります。（改行）その他大雪・自然災害など営業が困難なときは定休日となります。"
  },
  {
    "id": "970402582",
    "name": "デイホーム孫の手・さの",
    "kana": "デイホームマゴノテ・サノ",
    "address": "栃木県佐野市高萩町1326番1",
    "lat": 36.2992232,
    "lng": 139.6034185,
    "tel": "0283-86-7086",
    "url": "https://magonote-inc.jp/service/day/tochigi/sano/",
    "pref": "栃木県",
    "city": "佐野市",
    "category": "day_service",
    "serviceType": "通所介護",
    "capacity": 20,
    "openDays": [
      "平日",
      "土曜日",
      "祝日"
    ],
    "openDaysNote": ""
  },
  {
    "id": "972400204",
    "name": "ふれんど田沼デイサービスセンター",
    "kana": "フレンドタヌマデイサービスセンター",
    "address": "栃木県佐野市吉水駅前1-14-4",
    "lat": 36.3482958,
    "lng": 139.5800228,
    "tel": "0283-61-0210",
    "url": "http://www.f-pw.jp",
    "pref": "栃木県",
    "city": "佐野市",
    "category": "day_service",
    "serviceType": "通所介護",
    "capacity": 0,
    "openDays": [
      "平日",
      "土曜日",
      "祝日"
    ],
    "openDaysNote": "祝祭日は既定の通り営業となる。"
  },
  {
    "id": "970401659",
    "name": "リハビリDSどまんなか",
    "kana": "リハビリディーエスドマンナカ",
    "address": "栃木県佐野市吉水町７５１－１",
    "lat": 36.3504009,
    "lng": 139.5757007,
    "tel": "0283-85-8704",
    "url": "http://www.asuark.com/",
    "pref": "栃木県",
    "city": "佐野市",
    "category": "day_service",
    "serviceType": "通所介護",
    "capacity": 40,
    "openDays": [
      "平日",
      "土曜日",
      "祝日"
    ],
    "openDaysNote": ""
  },
  {
    "id": "970402046",
    "name": "リハビリLab.花咲",
    "kana": "リハビリラボハナエミ",
    "address": "栃木県佐野市富岡町１４５４番地",
    "lat": 36.3161418344385,
    "lng": 139.592933496265,
    "tel": "0283-86-7830",
    "url": "http://www.hohoemi-care.co.jp/",
    "pref": "栃木県",
    "city": "佐野市",
    "category": "day_service",
    "serviceType": "通所介護",
    "capacity": 0,
    "openDays": [
      "平日",
      "土曜日",
      "日曜日",
      "祝日"
    ],
    "openDaysNote": ""
  },
  {
    "id": "970400800",
    "name": "リハビリデイサービスセンター万葉",
    "kana": "リハビリデイサービスセンターマンヨウ",
    "address": "栃木県佐野市堀米町1336-1",
    "lat": 36.3305449,
    "lng": 139.5795736,
    "tel": "0283-20-6399",
    "url": "http://www.manyou.or.jp/",
    "pref": "栃木県",
    "city": "佐野市",
    "category": "day_service",
    "serviceType": "通所介護",
    "capacity": 0,
    "openDays": [
      "平日",
      "土曜日",
      "祝日"
    ],
    "openDaysNote": ""
  },
  {
    "id": "970401139",
    "name": "リハビリパーク　ほほえみ",
    "kana": "リハビリパーク　ホホエミ",
    "address": "栃木県佐野市寺中町2417番地１",
    "lat": 36.2995557,
    "lng": 139.5739558,
    "tel": "0283-27-0850",
    "url": "http://www.hohoemi-cara.co.jp/",
    "pref": "栃木県",
    "city": "佐野市",
    "category": "day_service",
    "serviceType": "通所介護",
    "capacity": 0,
    "openDays": [
      "平日",
      "土曜日",
      "祝日"
    ],
    "openDaysNote": "-"
  },
  {
    "id": "970402053",
    "name": "丸光ケアサービス株式会社　デイサービスさんさん佐野",
    "kana": "マルミツケアサービスカブシキガイシャ　デイサービスサンサンサノ",
    "address": "栃木県佐野市富岡町229-12",
    "lat": 36.3174742,
    "lng": 139.5899844,
    "tel": "0283-86-8072",
    "url": "https://marumitsu-care.co.jp/company/",
    "pref": "栃木県",
    "city": "佐野市",
    "category": "day_service",
    "serviceType": "通所介護",
    "capacity": 0,
    "openDays": [
      "平日",
      "土曜日",
      "祝日"
    ],
    "openDaysNote": ""
  },
  {
    "id": "970400909",
    "name": "佐野デイサービスセンター花の広場",
    "kana": "サノデイサービスセンターハナノヒロバ",
    "address": "栃木県佐野市小見町７３２番地",
    "lat": 36.3500897,
    "lng": 139.5714511,
    "tel": "0283-62-8270",
    "url": "http://hanano-hiroba.sakura.ne.jp",
    "pref": "栃木県",
    "city": "佐野市",
    "category": "day_service",
    "serviceType": "通所介護",
    "capacity": 0,
    "openDays": [
      "平日",
      "土曜日",
      "祝日"
    ],
    "openDaysNote": ""
  },
  {
    "id": "970400552",
    "name": "佐野市デイサービスセンターふくしの里",
    "kana": "サノシデイサービスセンターフクシノサト",
    "address": "栃木県佐野市大橋町３２１２番地２７",
    "lat": 36.3123239,
    "lng": 139.5649033,
    "tel": "0283-22-8162",
    "url": "http://www.sanoshakyo.or.jp",
    "pref": "栃木県",
    "city": "佐野市",
    "category": "day_service",
    "serviceType": "通所介護",
    "capacity": 30,
    "openDays": [
      "平日",
      "土曜日",
      "祝日"
    ],
    "openDaysNote": "１２月２９日は、臨時営業となる場合あり。"
  },
  {
    "id": "970402459",
    "name": "佐野市遠原の里デイサービスセンター",
    "kana": "サノシトオバラノサトデイサービスセンター",
    "address": "栃木県佐野市閑馬町515番地1",
    "lat": 36.4008644254752,
    "lng": 139.518574849668,
    "tel": "0283-65-7071",
    "url": "http://www.hohoemi-care.co.jp",
    "pref": "栃木県",
    "city": "佐野市",
    "category": "day_service",
    "serviceType": "通所介護",
    "capacity": 30,
    "openDays": [
      "平日",
      "土曜日",
      "祝日"
    ],
    "openDaysNote": "1月1日、2日、3日はお休みさせていただきます"
  },
  {
    "id": "972400139",
    "name": "蓬莱荘　ゆうあいホーム",
    "kana": "ホウライソウ　ユウアイホーム",
    "address": "栃木県佐野市長谷場町１７９８－１",
    "lat": 36.4298658,
    "lng": 139.5502245,
    "tel": "0283-67-1001",
    "url": "http://www.hourai.or.jp/",
    "pref": "栃木県",
    "city": "佐野市",
    "category": "day_service",
    "serviceType": "通所介護",
    "capacity": 1,
    "openDays": [
      "平日",
      "土曜日",
      "祝日"
    ],
    "openDaysNote": "悪天候の場合は中止になる場合があります"
  },
  {
    "id": "970402160",
    "name": "有限会社結",
    "kana": "ユウゲンガイシャユイ",
    "address": "栃木県佐野市小中町1248-1",
    "lat": 36.3428821,
    "lng": 139.5597801,
    "tel": "0283-25-8300",
    "url": "",
    "pref": "栃木県",
    "city": "佐野市",
    "category": "day_service",
    "serviceType": "通所介護",
    "capacity": 0,
    "openDays": [
      "平日",
      "土曜日",
      "日曜日",
      "祝日"
    ],
    "openDaysNote": ""
  },
  {
    "id": "970400305",
    "name": "老人デイサービスセンター悠生園",
    "kana": "ロウジンデイサービスセンターユウセイエン",
    "address": "栃木県佐野市寺久保町２３８",
    "lat": 36.3761804,
    "lng": 139.5268484,
    "tel": "0283-25-0540",
    "url": "https://yusei.s-y.gr.com/",
    "pref": "栃木県",
    "city": "佐野市",
    "category": "day_service",
    "serviceType": "通所介護",
    "capacity": 20,
    "openDays": [
      "平日",
      "土曜日",
      "祝日"
    ],
    "openDaysNote": ""
  },
  {
    "id": "972700264",
    "name": "ＪＡはが野デイサービスセンターすこやか市貝",
    "kana": "ジェイエイハガノデイサービスセンタースコヤカイチカイ",
    "address": "栃木県芳賀郡市貝町市塙１７６９番地３",
    "lat": 36.5393229,
    "lng": 140.1083901,
    "tel": "0285-67-1160",
    "url": "http://www.ja-hagano.or.jp/",
    "pref": "栃木県",
    "city": "市貝町",
    "category": "day_service",
    "serviceType": "通所介護",
    "capacity": 0,
    "openDays": [
      "平日",
      "土曜日",
      "祝日"
    ],
    "openDaysNote": ""
  },
  {
    "id": "972700785",
    "name": "アットホームたたら",
    "kana": "アットホームタタラ",
    "address": "栃木県芳賀郡市貝町大字多田羅736－1",
    "lat": 36.5143252,
    "lng": 140.0895288,
    "tel": "0285-68-3232",
    "url": "at-home-gr.co.jp",
    "pref": "栃木県",
    "city": "市貝町",
    "category": "day_service",
    "serviceType": "通所介護",
    "capacity": 0,
    "openDays": [
      "平日",
      "土曜日",
      "祝日"
    ],
    "openDaysNote": ""
  },
  {
    "id": "972700843",
    "name": "デイサービスセンター　なごみ",
    "kana": "デイサービスセンター　ナゴミ",
    "address": "栃木県芳賀郡市貝町椎谷219-3",
    "lat": 36.5622722,
    "lng": 140.0863157,
    "tel": "0285-68-3323",
    "url": "",
    "pref": "栃木県",
    "city": "市貝町",
    "category": "day_service",
    "serviceType": "通所介護",
    "capacity": 0,
    "openDays": [
      "平日",
      "土曜日",
      "祝日"
    ],
    "openDaysNote": "営業時間外でも管理者携帯に転送、対応可"
  },
  {
    "id": "972701015",
    "name": "デイサロン　リハ＆スパあかばね",
    "kana": "デイサロン　リハアンドスパアカバネ",
    "address": "栃木県芳賀郡市貝町赤羽3647-1",
    "lat": 36.5418657,
    "lng": 140.0634989,
    "tel": "0285-81-5410",
    "url": "",
    "pref": "栃木県",
    "city": "市貝町",
    "category": "day_service",
    "serviceType": "通所介護",
    "capacity": 0,
    "openDays": [
      "平日",
      "土曜日",
      "祝日"
    ],
    "openDaysNote": ""
  },
  {
    "id": "970500278",
    "name": "オレンジホームデイサービスセンター",
    "kana": "オレンジホームデイサービスセンター",
    "address": "栃木県鹿沼市富岡492-2",
    "lat": 36.6155575,
    "lng": 139.7350696,
    "tel": "0289-63-3807",
    "url": "http://www.ryokufukai.jp/",
    "pref": "栃木県",
    "city": "鹿沼市",
    "category": "day_service",
    "serviceType": "通所介護",
    "capacity": 0,
    "openDays": [
      "平日",
      "土曜日",
      "日曜日",
      "祝日"
    ],
    "openDaysNote": ""
  },
  {
    "id": "970500252",
    "name": "グリーンホームデイサービスセンター",
    "kana": "グリーンホームデイサービスセンター",
    "address": "栃木県鹿沼市下日向438-1",
    "lat": 36.5504111,
    "lng": 139.7173597,
    "tel": "0289-63-3800",
    "url": "http://www.ryokufukai.jp/",
    "pref": "栃木県",
    "city": "鹿沼市",
    "category": "day_service",
    "serviceType": "通所介護",
    "capacity": 30,
    "openDays": [
      "平日",
      "土曜日",
      "日曜日",
      "祝日"
    ],
    "openDaysNote": ""
  },
  {
    "id": "970500930",
    "name": "ケアステーションあさひ鹿沼",
    "kana": "ケアステーションアサヒカヌマ",
    "address": "栃木県鹿沼市貝島町5038-5",
    "lat": 36.5550957,
    "lng": 139.7567815,
    "tel": "0289-74-5921",
    "url": "http://www.vati.co.jp/",
    "pref": "栃木県",
    "city": "鹿沼市",
    "category": "day_service",
    "serviceType": "通所介護",
    "capacity": 32,
    "openDays": [
      "平日",
      "土曜日",
      "日曜日",
      "祝日"
    ],
    "openDaysNote": ""
  },
  {
    "id": "970500682",
    "name": "ケアパートナー鹿沼",
    "kana": "ケアパートナーカヌマ",
    "address": "栃木県鹿沼市鳥居跡町９８９－１",
    "lat": 36.5552675,
    "lng": 139.7475961,
    "tel": "0289-60-0221",
    "url": "http://www.care-partner.com/",
    "pref": "栃木県",
    "city": "鹿沼市",
    "category": "day_service",
    "serviceType": "通所介護",
    "capacity": 55,
    "openDays": [
      "平日",
      "土曜日",
      "祝日"
    ],
    "openDaysNote": "月に一度、日曜日の営業あり。"
  },
  {
    "id": "970500153",
    "name": "さつき荘デイサービスセンター",
    "kana": "サツキソウデイサービスセンター",
    "address": "栃木県鹿沼市白桑田254-7",
    "lat": 36.5501948,
    "lng": 139.8130596,
    "tel": "0289-76-2959",
    "url": "http://www.tudafukushi.com",
    "pref": "栃木県",
    "city": "鹿沼市",
    "category": "day_service",
    "serviceType": "通所介護",
    "capacity": 35,
    "openDays": [
      "平日",
      "土曜日",
      "祝日"
    ],
    "openDaysNote": ""
  },
  {
    "id": "970500146",
    "name": "さつき荘西茂呂デイサービスセンター",
    "kana": "サツキソウニシモロデイサービスセンター",
    "address": "栃木県鹿沼市西茂呂4-30-1",
    "lat": 36.5465205830518,
    "lng": 139.766508801852,
    "tel": "0289-63-6551",
    "url": "http://www.tudafukushi.com",
    "pref": "栃木県",
    "city": "鹿沼市",
    "category": "day_service",
    "serviceType": "通所介護",
    "capacity": 0,
    "openDays": [
      "平日",
      "土曜日",
      "日曜日",
      "祝日"
    ],
    "openDaysNote": ""
  },
  {
    "id": "970500674",
    "name": "デイサービス　智光薬湯",
    "kana": "デイサービス　チコウヤクトウ",
    "address": "栃木県鹿沼市花岡町１３６－４",
    "lat": 36.5567544164514,
    "lng": 139.739774456656,
    "tel": "0289-74-5150",
    "url": "http://care-net.biz/09/kusuriyu/",
    "pref": "栃木県",
    "city": "鹿沼市",
    "category": "day_service",
    "serviceType": "通所介護",
    "capacity": 0,
    "openDays": [
      "平日",
      "祝日"
    ],
    "openDaysNote": ""
  },
  {
    "id": "970501383",
    "name": "デイサービスさかた園",
    "kana": "デイサービスサカタエン",
    "address": "栃木県鹿沼市日吉町937番地4",
    "lat": 36.5678629,
    "lng": 139.7341637,
    "tel": "0289-60-2340",
    "url": "http://nikko-fukueikai.or.jp",
    "pref": "栃木県",
    "city": "鹿沼市",
    "category": "day_service",
    "serviceType": "通所介護",
    "capacity": 0,
    "openDays": [
      "平日",
      "土曜日",
      "祝日"
    ],
    "openDaysNote": ""
  },
  {
    "id": "970500583",
    "name": "デイサービスセンター　おりづる",
    "kana": "デイサービスセンター　オリヅル",
    "address": "栃木県鹿沼市茂呂1090-25",
    "lat": 36.549136,
    "lng": 139.7796435,
    "tel": "0289-60-2273",
    "url": "http://moro-skf.jp/",
    "pref": "栃木県",
    "city": "鹿沼市",
    "category": "day_service",
    "serviceType": "通所介護",
    "capacity": 24,
    "openDays": [
      "平日",
      "土曜日",
      "祝日"
    ],
    "openDaysNote": "但し、12月31日～1月3日を除く"
  },
  {
    "id": "970500187",
    "name": "デイサービスセンター　メロディー",
    "kana": "デイサービスセンター　メロディー",
    "address": "栃木県鹿沼市村井町１４６－６",
    "lat": 36.5483071,
    "lng": 139.7460047,
    "tel": "0289-63-5536",
    "url": "http://kyuujyu.com/",
    "pref": "栃木県",
    "city": "鹿沼市",
    "category": "day_service",
    "serviceType": "通所介護",
    "capacity": 35,
    "openDays": [
      "平日",
      "土曜日",
      "祝日"
    ],
    "openDaysNote": ""
  },
  {
    "id": "970501151",
    "name": "ディサービスセンター「暖らいふ」",
    "kana": "ディサービスセンター「ダンライフ」",
    "address": "栃木県鹿沼市北半田１４８９番地1",
    "lat": 36.4960802995479,
    "lng": 139.720860575567,
    "tel": "0289-75-2883",
    "url": "https://www.fukushiya.jp/",
    "pref": "栃木県",
    "city": "鹿沼市",
    "category": "day_service",
    "serviceType": "通所介護",
    "capacity": 0,
    "openDays": [
      "平日",
      "土曜日",
      "日曜日",
      "祝日"
    ],
    "openDaysNote": ""
  },
  {
    "id": "970500468",
    "name": "デイサービスセンターリズム",
    "kana": "デイサービスセンターリズム",
    "address": "栃木県鹿沼市樅山町４０－２",
    "lat": 36.5315952,
    "lng": 139.7481828,
    "tel": "0289-60-2001",
    "url": "http://kyuujyu.com",
    "pref": "栃木県",
    "city": "鹿沼市",
    "category": "day_service",
    "serviceType": "通所介護",
    "capacity": 35,
    "openDays": [
      "平日",
      "土曜日",
      "祝日"
    ],
    "openDaysNote": "日曜日と1月1～3日はお休みです。（改行）その他の祝祭日は営業しています。（改行）12/31は時間短縮営業になります。"
  },
  {
    "id": "970501201",
    "name": "デイサービス智光薬湯さくら",
    "kana": "デイサービスチコウヤクトウサクラ",
    "address": "栃木県鹿沼市花岡町137-8",
    "lat": 36.5569221260293,
    "lng": 139.740163503705,
    "tel": "0289-78-5550",
    "url": "http://www.chikouyakutou.co.jp/page6",
    "pref": "栃木県",
    "city": "鹿沼市",
    "category": "day_service",
    "serviceType": "通所介護",
    "capacity": 0,
    "openDays": [
      "平日",
      "土曜日",
      "祝日"
    ],
    "openDaysNote": "【お盆休み】8月14日・8月15日（改行）【年末年始休み】12月31日～1月3日"
  },
  {
    "id": "970500443",
    "name": "デイホームさつき",
    "kana": "デイホームサツキ",
    "address": "栃木県鹿沼市下沢４２０－７",
    "lat": 36.5783021,
    "lng": 139.7043521,
    "tel": "0289-62-1422",
    "url": "http://kanuma-satsuki.org/",
    "pref": "栃木県",
    "city": "鹿沼市",
    "category": "day_service",
    "serviceType": "通所介護",
    "capacity": 0,
    "openDays": [
      "平日",
      "土曜日",
      "祝日"
    ],
    "openDaysNote": ""
  },
  {
    "id": "970501250",
    "name": "家族の家ひまわり鹿沼通所介護事業所",
    "kana": "カゾクノイエヒマワリカヌマツウショカイゴジギョウショ",
    "address": "栃木県鹿沼市千渡2326-10",
    "lat": 36.5593239,
    "lng": 139.786862,
    "tel": "0289-60-6933",
    "url": "http://www.saneido.co.jp/kaigo/kanuma/",
    "pref": "栃木県",
    "city": "鹿沼市",
    "category": "day_service",
    "serviceType": "通所介護",
    "capacity": 40,
    "openDays": [
      "平日",
      "土曜日",
      "日曜日",
      "祝日"
    ],
    "openDaysNote": "延長時間は午前8時30分から午前9時30分まで及び午後4時30分から午後5時30分までとなります。"
  },
  {
    "id": "970500740",
    "name": "介護ステーションたけむら",
    "kana": "カイゴステーションタケムラ",
    "address": "栃木県鹿沼市西茂呂四丁目46番3",
    "lat": 36.5430641,
    "lng": 139.7673809,
    "tel": "0289-63-3010",
    "url": "http://take2002.on.arena.ne.jp/",
    "pref": "栃木県",
    "city": "鹿沼市",
    "category": "day_service",
    "serviceType": "通所介護",
    "capacity": 35,
    "openDays": [
      "平日",
      "土曜日",
      "日曜日",
      "祝日"
    ],
    "openDaysNote": "受付時間外でも、常時連絡可能な体制をとっています。"
  },
  {
    "id": "970500716",
    "name": "鹿沼ケアセンターそよ風",
    "kana": "カヌマケアセンターソヨカゼ",
    "address": "栃木県鹿沼市西茂呂2-5-3",
    "lat": 36.5554318,
    "lng": 139.7694411,
    "tel": "0289-60-2360",
    "url": "",
    "pref": "栃木県",
    "city": "鹿沼市",
    "category": "day_service",
    "serviceType": "通所介護",
    "capacity": 0,
    "openDays": [
      "平日",
      "土曜日",
      "祝日"
    ],
    "openDaysNote": ""
  },
  {
    "id": "970501292",
    "name": "社会福祉法人　優心会　和音",
    "kana": "シャカイフクシホウジン　ユウシンカイ　ワオン",
    "address": "栃木県鹿沼市下永野２４５-３",
    "lat": 36.4892461,
    "lng": 139.6146121,
    "tel": "０２８９-８４-７３３２",
    "url": "http;//yu-shinkai.com",
    "pref": "栃木県",
    "city": "鹿沼市",
    "category": "day_service",
    "serviceType": "通所介護",
    "capacity": 0,
    "openDays": [
      "平日",
      "土曜日"
    ],
    "openDaysNote": "夏季休業(8/13～8/16)（改行）冬季休業(12/29～1/3)"
  },
  {
    "id": "970501664",
    "name": "宅老所はいこんちょ",
    "kana": "タクロウショハイコンチョ",
    "address": "栃木県鹿沼市上野町212-2",
    "lat": 36.5680127,
    "lng": 139.7633364,
    "tel": "0289-78-4347",
    "url": "鹿沼デイサービス.com",
    "pref": "栃木県",
    "city": "鹿沼市",
    "category": "day_service",
    "serviceType": "通所介護",
    "capacity": null,
    "openDays": [
      "平日",
      "土曜日",
      "日曜日",
      "祝日"
    ],
    "openDaysNote": ""
  },
  {
    "id": "970500195",
    "name": "南押原デイサービスセンター",
    "kana": "ミナミオシハラデイサービスセンター",
    "address": "栃木県鹿沼市楡木町5番地",
    "lat": 36.5024398,
    "lng": 139.7543666,
    "tel": "0289-75-2220",
    "url": "http://www.kyuujyu.com/",
    "pref": "栃木県",
    "city": "鹿沼市",
    "category": "day_service",
    "serviceType": "通所介護",
    "capacity": 35,
    "openDays": [
      "平日",
      "土曜日",
      "祝日"
    ],
    "openDaysNote": ""
  },
  {
    "id": "972200067",
    "name": "老人デイサービスセンター　粟野荘",
    "kana": "ロウジンデイサービスセンターアワノソウ",
    "address": "栃木県鹿沼市深程1520",
    "lat": 36.4962164847072,
    "lng": 139.698097679762,
    "tel": "0289-85-2872",
    "url": "http://awanosou.jp",
    "pref": "栃木県",
    "city": "鹿沼市",
    "category": "day_service",
    "serviceType": "通所介護",
    "capacity": 0,
    "openDays": [
      "平日",
      "土曜日",
      "祝日"
    ],
    "openDaysNote": ""
  },
  {
    "id": "970802849",
    "name": "あいあいタウンデイサービスセンター",
    "kana": "アイアイタウンデイサービスセンター",
    "address": "栃木県小山市千駄塚350-1",
    "lat": 36.2802852,
    "lng": 139.77535,
    "tel": "0285-41-2151",
    "url": "www.aiaitown.com",
    "pref": "栃木県",
    "city": "小山市",
    "category": "day_service",
    "serviceType": "通所介護",
    "capacity": null,
    "openDays": [
      "平日",
      "祝日"
    ],
    "openDaysNote": ""
  },
  {
    "id": "970802294",
    "name": "イーストピア小山",
    "kana": "イーストピアオヤマ",
    "address": "栃木県小山市駅東通り１－２１－２１",
    "lat": 36.3088282,
    "lng": 139.8089607,
    "tel": "0285-23-2159",
    "url": "http://isutopiaoyama.jimdofree.com/",
    "pref": "栃木県",
    "city": "小山市",
    "category": "day_service",
    "serviceType": "通所介護",
    "capacity": 20,
    "openDays": [
      "平日",
      "土曜日",
      "祝日"
    ],
    "openDaysNote": ""
  },
  {
    "id": "970800272",
    "name": "きぬの里ディサービスセンター",
    "kana": "キヌノサトディサービスセンター",
    "address": "栃木県小山市高椅132-1",
    "lat": 36.3390051,
    "lng": 139.8881236,
    "tel": "0285-49-3636",
    "url": "http://www.kinunosato.sakura.ne.jp",
    "pref": "栃木県",
    "city": "小山市",
    "category": "day_service",
    "serviceType": "通所介護",
    "capacity": 0,
    "openDays": [
      "平日",
      "土曜日",
      "祝日"
    ],
    "openDaysNote": ""
  },
  {
    "id": "970802211",
    "name": "ケアステーションあさひ　小山第弐",
    "kana": "ケアステーション　アサヒ　オヤマダイニ",
    "address": "栃木県小山市東城南2丁目24番地3ケアステーションあさひ小山第弐 ケアステーションあさひ小山第弐",
    "lat": 36.296306289688,
    "lng": 139.815291626295,
    "tel": "0285-31-3006",
    "url": "http//www.vati.co.jp",
    "pref": "栃木県",
    "city": "小山市",
    "category": "day_service",
    "serviceType": "通所介護",
    "capacity": 0,
    "openDays": [
      "平日",
      "土曜日",
      "日曜日",
      "祝日"
    ],
    "openDaysNote": ""
  },
  {
    "id": "970801643",
    "name": "ケアステーションあさひ小山",
    "kana": "ケアステーションアサヒオヤマ",
    "address": "栃木県小山市東城南2-21-14",
    "lat": 36.2965477647368,
    "lng": 139.815754095107,
    "tel": "0285-38-8236",
    "url": "http://www.vati.co.jp/",
    "pref": "栃木県",
    "city": "小山市",
    "category": "day_service",
    "serviceType": "通所介護",
    "capacity": 40,
    "openDays": [
      "平日",
      "土曜日",
      "日曜日",
      "祝日"
    ],
    "openDaysNote": ""
  },
  {
    "id": "970800579",
    "name": "ケアネット小山サービスセンター",
    "kana": "ケアネットオヤマサービスセンター",
    "address": "栃木県小山市城東５丁目８番１０号",
    "lat": 36.3149004,
    "lng": 139.8212509,
    "tel": "0285-32-7077",
    "url": "http://www.carenet.fujitsu.com/web/scdsp.php?scid=40",
    "pref": "栃木県",
    "city": "小山市",
    "category": "day_service",
    "serviceType": "通所介護",
    "capacity": 0,
    "openDays": [
      "平日",
      "土曜日",
      "祝日"
    ],
    "openDaysNote": ""
  },
  {
    "id": "970801189",
    "name": "ケアパートナー小山",
    "kana": "ケアパートナーオヤマ",
    "address": "栃木県小山市東城南１丁目7番地3サンリット萩山公園１階 サンリット萩山公園１階",
    "lat": 36.2978835,
    "lng": 139.8112693,
    "tel": "0285-31-3670",
    "url": "http://www.care-partner.com",
    "pref": "栃木県",
    "city": "小山市",
    "category": "day_service",
    "serviceType": "通所介護",
    "capacity": 0,
    "openDays": [
      "平日",
      "土曜日",
      "日曜日",
      "祝日"
    ],
    "openDaysNote": ""
  },
  {
    "id": "970802500",
    "name": "コープデイサービスセンター喜沢",
    "kana": "コープデイサービスセンターキザワ",
    "address": "栃木県小山市大字喜沢1475-98",
    "lat": 36.3299749715503,
    "lng": 139.802435628836,
    "tel": "0285-38-7694",
    "url": "coop-fukushitochigi.jp",
    "pref": "栃木県",
    "city": "小山市",
    "category": "day_service",
    "serviceType": "通所介護",
    "capacity": 0,
    "openDays": [
      "平日",
      "土曜日",
      "祝日"
    ],
    "openDaysNote": "年末年始、ＧＷ、お盆期間に関わらす、1月1日・日曜日以外は祝祭日も営業しております。"
  },
  {
    "id": "970800744",
    "name": "サンフラワーデイサービスセンター",
    "kana": "サンフラワーデイサービスセンター",
    "address": "栃木県小山市大字出井１９３８",
    "lat": 36.3345264,
    "lng": 139.8369833,
    "tel": "0285-22-6644",
    "url": "http://www.sensinkai.or.jp/",
    "pref": "栃木県",
    "city": "小山市",
    "category": "day_service",
    "serviceType": "通所介護",
    "capacity": 25,
    "openDays": [
      "平日",
      "土曜日",
      "祝日"
    ],
    "openDaysNote": "なし"
  },
  {
    "id": "970802948",
    "name": "ツクイ小山",
    "kana": "ツクイオヤマ",
    "address": "栃木県栃木県小山市西城南4-1-19",
    "lat": 36.294786,
    "lng": 139.8005208,
    "tel": "0285-31-0531",
    "url": "https://www.tsukui.net/",
    "pref": "栃木県",
    "city": "小山市",
    "category": "day_service",
    "serviceType": "通所介護",
    "capacity": 0,
    "openDays": [
      "平日",
      "土曜日",
      "日曜日",
      "祝日"
    ],
    "openDaysNote": ""
  },
  {
    "id": "970801171",
    "name": "デイサービス　サンテーヌ",
    "kana": "デイサービス　サンテーヌ",
    "address": "栃木県小山市八幡町2ー7ー22",
    "lat": 36.3081082,
    "lng": 139.7978064,
    "tel": "0285-21-7739",
    "url": "",
    "pref": "栃木県",
    "city": "小山市",
    "category": "day_service",
    "serviceType": "通所介護",
    "capacity": 30,
    "openDays": [
      "平日",
      "土曜日"
    ],
    "openDaysNote": ""
  },
  {
    "id": "970801981",
    "name": "デイサービス　ゆう愛",
    "kana": "デイサービス　ユウアイ",
    "address": "栃木県小山市神鳥谷5-12-13",
    "lat": 36.2951732,
    "lng": 139.7905299,
    "tel": "0285-25-0030",
    "url": "http://www.sugimura-hospital.jp/yuuai/",
    "pref": "栃木県",
    "city": "小山市",
    "category": "day_service",
    "serviceType": "通所介護",
    "capacity": null,
    "openDays": [
      "平日",
      "祝日"
    ],
    "openDaysNote": ""
  },
  {
    "id": "970803102",
    "name": "デイサービスあむーる",
    "kana": "デイサービスアムール",
    "address": "栃木県小山市犬塚49-2",
    "lat": 36.324215,
    "lng": 139.8321326,
    "tel": "0285-39-8003",
    "url": "https://taiyougroup.jp/",
    "pref": "栃木県",
    "city": "小山市",
    "category": "day_service",
    "serviceType": "通所介護",
    "capacity": 0,
    "openDays": [
      "平日",
      "土曜日"
    ],
    "openDaysNote": ""
  },
  {
    "id": "970801049",
    "name": "デイサービスきみぼ（王望）",
    "kana": "デイサービスキミボ",
    "address": "栃木県小山市暁３－１－12",
    "lat": 36.2565981160987,
    "lng": 139.760524715973,
    "tel": "0285-45-3256",
    "url": "http://kimibo.jp/",
    "pref": "栃木県",
    "city": "小山市",
    "category": "day_service",
    "serviceType": "通所介護",
    "capacity": 0,
    "openDays": [
      "平日",
      "土曜日",
      "祝日"
    ],
    "openDaysNote": "-"
  },
  {
    "id": "970801973",
    "name": "デイサービスセンター　あとりえ",
    "kana": "デイサービスセンター　アトリエ",
    "address": "栃木県小山市西城南５丁目８番地１９",
    "lat": 36.2958734,
    "lng": 139.7961042,
    "tel": "０２８５－３９－７８００",
    "url": "http://www.auslese-nishijyounan.com/",
    "pref": "栃木県",
    "city": "小山市",
    "category": "day_service",
    "serviceType": "通所介護",
    "capacity": 0,
    "openDays": [
      "平日",
      "土曜日",
      "祝日"
    ],
    "openDaysNote": "12月30日は営業。（改行）12月31日から1月3日の4日間は完全休業"
  },
  {
    "id": "970800975",
    "name": "デイサービスセンター　エブリデイ",
    "kana": "デイサービスセンター　エブリデイ",
    "address": "栃木県小山市中久喜1640-1",
    "lat": 36.3182673,
    "lng": 139.8392415,
    "tel": "0285-30-1180",
    "url": "http://oyamaseifukai.or.jp/",
    "pref": "栃木県",
    "city": "小山市",
    "category": "day_service",
    "serviceType": "通所介護",
    "capacity": 42,
    "openDays": [
      "平日",
      "土曜日",
      "祝日"
    ],
    "openDaysNote": "年末年始の定休日には変動あり"
  },
  {
    "id": "970800306",
    "name": "デイサービスセンター　ラ・ポール",
    "kana": "デイサービスセンター　ラ・ポール",
    "address": "栃木県小山市中久喜1273-1",
    "lat": 36.3236804,
    "lng": 139.8344057,
    "tel": "0285-23-0566",
    "url": "http://oyamaseifukai.or.jp/",
    "pref": "栃木県",
    "city": "小山市",
    "category": "day_service",
    "serviceType": "通所介護",
    "capacity": 40,
    "openDays": [
      "平日",
      "土曜日",
      "祝日"
    ],
    "openDaysNote": ""
  },
  {
    "id": "970802039",
    "name": "デイサービスセンター　虹の郷",
    "kana": "デイサービスセンター　ニジノサト",
    "address": "栃木県小山市西黒田３００番地１",
    "lat": 36.2669020896087,
    "lng": 139.779145157356,
    "tel": "0285-45-8011",
    "url": "http://www.hoshinokai.com",
    "pref": "栃木県",
    "city": "小山市",
    "category": "day_service",
    "serviceType": "通所介護",
    "capacity": 0,
    "openDays": [
      "平日",
      "祝日"
    ],
    "openDaysNote": "行事のある時は適宜土・日も行う。"
  },
  {
    "id": "970800405",
    "name": "デイサービスセンター栗林荘",
    "kana": "デイサービスセンターリツリンソウ",
    "address": "栃木県小山市塚崎　463-1",
    "lat": 36.2634334,
    "lng": 139.8151558,
    "tel": "0285-27-1582",
    "url": "",
    "pref": "栃木県",
    "city": "小山市",
    "category": "day_service",
    "serviceType": "通所介護",
    "capacity": null,
    "openDays": [
      "平日",
      "土曜日",
      "祝日"
    ],
    "openDaysNote": "特になし"
  },
  {
    "id": "970800330",
    "name": "デイサービスセンター富士見荘",
    "kana": "デイサービスセンターフジミソウ",
    "address": "栃木県小山市大字上石塚５番地",
    "lat": 36.3326043,
    "lng": 139.776344,
    "tel": "0285-38-3232（",
    "url": "www8.ocn.ne.jp/~kunpukai/",
    "pref": "栃木県",
    "city": "小山市",
    "category": "day_service",
    "serviceType": "通所介護",
    "capacity": 0,
    "openDays": [
      "平日",
      "土曜日",
      "祝日"
    ],
    "openDaysNote": "但し、日曜日臨時営業する場合もある。"
  },
  {
    "id": "970800389",
    "name": "デイサービスセンター穂の香苑",
    "kana": "デイサービスセンターホノカエン",
    "address": "栃木県小山市間々田１４４２",
    "lat": 36.2679172,
    "lng": 139.7628305,
    "tel": "0285-45-1156",
    "url": "http://www.honokaen.jp/",
    "pref": "栃木県",
    "city": "小山市",
    "category": "day_service",
    "serviceType": "通所介護",
    "capacity": 0,
    "openDays": [
      "平日",
      "土曜日",
      "祝日"
    ],
    "openDaysNote": "-"
  },
  {
    "id": "970802559",
    "name": "デイサービスひらわ",
    "kana": "デイサービスヒラワ",
    "address": "栃木県小山市平和263-5",
    "lat": 36.2560134,
    "lng": 139.7737495,
    "tel": "0285-38-8318",
    "url": "hirawanosato@iaa.itkeeper.ne.jp",
    "pref": "栃木県",
    "city": "小山市",
    "category": "day_service",
    "serviceType": "通所介護",
    "capacity": 0,
    "openDays": [
      "平日",
      "土曜日",
      "祝日"
    ],
    "openDaysNote": ""
  },
  {
    "id": "970803128",
    "name": "デイホーム孫の手・おやま",
    "kana": "デイホームマゴノテ・オヤマ",
    "address": "栃木県小山市城東6丁目18番17号",
    "lat": 36.3100403,
    "lng": 139.8206617,
    "tel": "0285-38-8533",
    "url": "https://magonote-inc.jp",
    "pref": "栃木県",
    "city": "小山市",
    "category": "day_service",
    "serviceType": "通所介護",
    "capacity": 35,
    "openDays": [
      "平日",
      "土曜日",
      "祝日"
    ],
    "openDaysNote": ""
  },
  {
    "id": "970800025",
    "name": "ニチイケアセンターおやま",
    "kana": "ニチイケアセンターオヤマ",
    "address": "小山市神鳥谷2丁目13番14号",
    "lat": 36.3010366,
    "lng": 139.7949319,
    "tel": "0285-30-5620",
    "url": "http://www.nichiigakkan.co.jp",
    "pref": "栃木県",
    "city": "小山市",
    "category": "day_service",
    "serviceType": "通所介護",
    "capacity": 0,
    "openDays": [
      "平日",
      "土曜日",
      "祝日"
    ],
    "openDaysNote": "―"
  },
  {
    "id": "970801379",
    "name": "ふれあいの里・美田",
    "kana": "フレアイノサト・ミタ",
    "address": "栃木県小山市生駒７０２",
    "lat": 36.3189942,
    "lng": 139.752627,
    "tel": "0285-38-0751",
    "url": "",
    "pref": "栃木県",
    "city": "小山市",
    "category": "day_service",
    "serviceType": "通所介護",
    "capacity": 0,
    "openDays": [
      "平日",
      "土曜日",
      "祝日"
    ],
    "openDaysNote": ""
  },
  {
    "id": "970801114",
    "name": "ふれんど小山デイサービスセンター",
    "kana": "フレンドオヤマデイサービスセンター",
    "address": "栃木県小山市若木町1-18-6",
    "lat": 36.3277118,
    "lng": 139.8044109,
    "tel": "0285-30-0130",
    "url": "http://www.f-pw.jp",
    "pref": "栃木県",
    "city": "小山市",
    "category": "day_service",
    "serviceType": "通所介護",
    "capacity": 30,
    "openDays": [
      "平日",
      "土曜日",
      "祝日"
    ],
    "openDaysNote": ""
  },
  {
    "id": "970801536",
    "name": "ゆうゆうケアステーションびわの里",
    "kana": "ユウユウケアステーションビワノサト",
    "address": "栃木県小山市立木710-1",
    "lat": 36.3345654,
    "lng": 139.7819851,
    "tel": "0285-32-1870",
    "url": "http://yuuyuuworld.com/",
    "pref": "栃木県",
    "city": "小山市",
    "category": "day_service",
    "serviceType": "通所介護",
    "capacity": 0,
    "openDays": [
      "平日",
      "土曜日",
      "祝日"
    ],
    "openDaysNote": ""
  },
  {
    "id": "970802526",
    "name": "らしさデイサービス",
    "kana": "ラシサデイサービス",
    "address": "栃木県小山市鉢形396-1",
    "lat": 36.338121,
    "lng": 139.8591984,
    "tel": "0285-39-8081",
    "url": "",
    "pref": "栃木県",
    "city": "小山市",
    "category": "day_service",
    "serviceType": "通所介護",
    "capacity": 0,
    "openDays": [
      "平日",
      "祝日"
    ],
    "openDaysNote": "年末年始12月30日～1月3日"
  },
  {
    "id": "970802252",
    "name": "家族の家ひまわり小山通所介護事業所",
    "kana": "カゾクノイエヒマワリオヤマツウショカイゴジギョウショ",
    "address": "栃木県小山市駅東通り1-22-28",
    "lat": 36.3094392,
    "lng": 139.8088107,
    "tel": "0285-20-3215",
    "url": "http://www.saneido.co.jp/kaigo/",
    "pref": "栃木県",
    "city": "小山市",
    "category": "day_service",
    "serviceType": "通所介護",
    "capacity": null,
    "openDays": [
      "平日",
      "土曜日",
      "日曜日",
      "祝日"
    ],
    "openDaysNote": ""
  },
  {
    "id": "970800355",
    "name": "山田記念ふれんど羽川デイサービスセンター",
    "kana": "ヤマダキネンフレンドハネカワデイサービスセンター",
    "address": "栃木県小山市羽川524-1",
    "lat": 36.3664185123325,
    "lng": 139.836607671828,
    "tel": "0285-23-8886",
    "url": "http://www.f-pw.jp/",
    "pref": "栃木県",
    "city": "小山市",
    "category": "day_service",
    "serviceType": "通所介護",
    "capacity": 0,
    "openDays": [
      "平日",
      "土曜日",
      "祝日"
    ],
    "openDaysNote": ""
  },
  {
    "id": "970801387",
    "name": "小山ケアセンターそよ風",
    "kana": "オヤマケアセンターソヨカゼ",
    "address": "栃木県小山市犬塚8丁目3番地8",
    "lat": 36.3023799473181,
    "lng": 139.832077053967,
    "tel": "0285-31-0352",
    "url": "oyama@sykz.co.jp",
    "pref": "栃木県",
    "city": "小山市",
    "category": "day_service",
    "serviceType": "通所介護",
    "capacity": 35,
    "openDays": [
      "平日",
      "土曜日",
      "祝日"
    ],
    "openDaysNote": ""
  },
  {
    "id": "970802872",
    "name": "通所介護事業所　スーパーデイみらい",
    "kana": "ツウショカイゴジギョウショ　スーパーデイミライ",
    "address": "栃木県小山市雨ヶ谷814番地2",
    "lat": 36.278449,
    "lng": 139.8112293,
    "tel": "0285-31-5000",
    "url": "http://www.ai-wa-kai.com",
    "pref": "栃木県",
    "city": "小山市",
    "category": "day_service",
    "serviceType": "通所介護",
    "capacity": 0,
    "openDays": [
      "平日",
      "土曜日",
      "祝日"
    ],
    "openDaysNote": ""
  },
  {
    "id": "972100655",
    "name": "ケアステーションあさひ上三川",
    "kana": "ケアステーションアサヒカミノカワ",
    "address": "栃木県河内郡上三川町しらさぎ一丁目32-9",
    "lat": 36.4398649,
    "lng": 139.9112425,
    "tel": "0285-55-2550",
    "url": "http://www.vati.co.jp/",
    "pref": "栃木県",
    "city": "上三川町",
    "category": "day_service",
    "serviceType": "通所介護",
    "capacity": 44,
    "openDays": [
      "平日",
      "土曜日",
      "日曜日",
      "祝日"
    ],
    "openDaysNote": ""
  },
  {
    "id": "972100341",
    "name": "デイサービスポプラ",
    "kana": "デイサービスポプラ",
    "address": "栃木県河内郡上三川町大字石田１２３１番地１",
    "lat": 36.4637451,
    "lng": 139.900851,
    "tel": "0285-56-3399",
    "url": "http://sakura-popura.jp",
    "pref": "栃木県",
    "city": "上三川町",
    "category": "day_service",
    "serviceType": "通所介護",
    "capacity": 27,
    "openDays": [
      "平日",
      "土曜日",
      "祝日"
    ],
    "openDaysNote": ""
  },
  {
    "id": "972100119",
    "name": "トータスホーム　デイサービスセンター",
    "kana": "トータスホーム　デイサービスセンター",
    "address": "河内郡上三川町下神主229-6",
    "lat": 36.4524571,
    "lng": 139.881703,
    "tel": "0285-52-1000",
    "url": "http://www.tortoise-h.com",
    "pref": "栃木県",
    "city": "上三川町",
    "category": "day_service",
    "serviceType": "通所介護",
    "capacity": 0,
    "openDays": [
      "平日",
      "土曜日",
      "祝日"
    ],
    "openDaysNote": ""
  },
  {
    "id": "972100663",
    "name": "リライフトータス",
    "kana": "リライフトータス",
    "address": "栃木県河内郡上三川町下神主249-1",
    "lat": 36.4512972,
    "lng": 139.8867302,
    "tel": "0285-51-1133",
    "url": "staff01@tortoise-h.jp",
    "pref": "栃木県",
    "city": "上三川町",
    "category": "day_service",
    "serviceType": "通所介護",
    "capacity": 0,
    "openDays": [
      "平日",
      "土曜日",
      "祝日"
    ],
    "openDaysNote": ""
  },
  {
    "id": "972100408",
    "name": "三本木デイサービスセンター",
    "kana": "サンボンギデイサービスセンター",
    "address": "栃木県河内郡上三川町大字三本木４１１番地４号",
    "lat": 36.4104466,
    "lng": 139.9239839,
    "tel": "0285-55-2005",
    "url": "http://www.sannbonngids-sssannbonngi-1.jimdosite.com",
    "pref": "栃木県",
    "city": "上三川町",
    "category": "day_service",
    "serviceType": "通所介護",
    "capacity": 0,
    "openDays": [
      "平日",
      "土曜日",
      "祝日"
    ],
    "openDaysNote": "-"
  },
  {
    "id": "972100598",
    "name": "社会福祉法人　順仁会　デイサービスセンター　ふじやまの里（平成22年度新規指定事業所）",
    "kana": "シャカイフクシホウジン　ジュンジンカイ　デイサービスセンター　フジヤマノサト",
    "address": "大字上三川３９５０番地１",
    "lat": 36.4240473,
    "lng": 139.9091766,
    "tel": "0285-55-0963",
    "url": "http://www.fujiyamanosato.or.jp/",
    "pref": "栃木県",
    "city": "上三川町",
    "category": "day_service",
    "serviceType": "通所介護",
    "capacity": 25,
    "openDays": [
      "平日",
      "土曜日",
      "祝日"
    ],
    "openDaysNote": ""
  },
  {
    "id": "972100382",
    "name": "通所介護センターふれあいホーム",
    "kana": "ツウショカイゴセンターフレアイホーム",
    "address": "栃木県河内郡上三川町西汗1553-13",
    "lat": 36.4754629961723,
    "lng": 139.924211220238,
    "tel": "0285-55-1580",
    "url": "",
    "pref": "栃木県",
    "city": "上三川町",
    "category": "day_service",
    "serviceType": "通所介護",
    "capacity": 0,
    "openDays": [
      "平日",
      "土曜日",
      "祝日"
    ],
    "openDaysNote": ""
  },
  {
    "id": "972701114",
    "name": "Giシェル＆シティ",
    "kana": "ジイアイシェルアンドシティ",
    "address": "栃木県芳賀郡市貝町赤羽1712-1",
    "lat": 36.5131854,
    "lng": 140.0629954,
    "tel": "0285-67-1000",
    "url": "",
    "pref": "栃木県",
    "city": "真岡市",
    "category": "day_service",
    "serviceType": "通所介護",
    "capacity": 0,
    "openDays": [
      "平日",
      "土曜日"
    ],
    "openDaysNote": "年末年始とお盆期間は休みあり"
  },
  {
    "id": "970900148",
    "name": "ＪＡはが野デイサービスセンターすこやか山前",
    "kana": "ジェイエイハガノデイサービスセンタースコヤカヤマザキ",
    "address": "栃木県真岡市小林７１２",
    "lat": 36.4267908030123,
    "lng": 140.040682830034,
    "tel": "0285-83-0286",
    "url": "http://www.ja-hagano.or.jp/",
    "pref": "栃木県",
    "city": "真岡市",
    "category": "day_service",
    "serviceType": "通所介護",
    "capacity": 0,
    "openDays": [
      "平日",
      "土曜日",
      "祝日"
    ],
    "openDaysNote": "なし"
  },
  {
    "id": "970900155",
    "name": "ＪＡはが野デイサービスセンターすこやか大内",
    "kana": "ジェイエイハガノデイサービスセンタースコヤカオオウチ",
    "address": "栃木県真岡市飯貝５５８番地１",
    "lat": 36.4775674,
    "lng": 140.018665,
    "tel": "0285-83-6319",
    "url": "http://www.ja-hagano.or.jp/",
    "pref": "栃木県",
    "city": "真岡市",
    "category": "day_service",
    "serviceType": "通所介護",
    "capacity": 0,
    "openDays": [
      "平日",
      "土曜日",
      "祝日"
    ],
    "openDaysNote": ""
  },
  {
    "id": "972700090",
    "name": "ＪＡはが野デイサービスセンターすこやか二宮",
    "kana": "ジェイエイハガノデイサービスセンタースコヤカニノミヤ",
    "address": "栃木県真岡市久下田1603-1",
    "lat": 36.3955452,
    "lng": 140.0054884,
    "tel": "0285-73-1022",
    "url": "http://www.ja-hagano.or.jp/",
    "pref": "栃木県",
    "city": "真岡市",
    "category": "day_service",
    "serviceType": "通所介護",
    "capacity": 0,
    "openDays": [
      "平日",
      "土曜日",
      "祝日"
    ],
    "openDaysNote": ""
  },
  {
    "id": "970900635",
    "name": "ケアステーションあさひ真岡",
    "kana": "ケアステーションアサヒモオカ",
    "address": "栃木県真岡市下高間木１丁目30-5",
    "lat": 36.4357157,
    "lng": 139.9839194,
    "tel": "0285-80-2020",
    "url": "http://www.vati.co.jp/",
    "pref": "栃木県",
    "city": "真岡市",
    "category": "day_service",
    "serviceType": "通所介護",
    "capacity": 0,
    "openDays": [
      "平日",
      "土曜日",
      "日曜日",
      "祝日"
    ],
    "openDaysNote": ""
  },
  {
    "id": "970900833",
    "name": "ケアステーションあさひ真岡第弐",
    "kana": "ケアステーションアサヒモオカダイニ",
    "address": "栃木県真岡市下高間木1丁目28-2",
    "lat": 36.4359288,
    "lng": 139.9851642,
    "tel": "0285-80-7310",
    "url": "http://www.vati.co.jp/",
    "pref": "栃木県",
    "city": "真岡市",
    "category": "day_service",
    "serviceType": "通所介護",
    "capacity": 0,
    "openDays": [
      "平日",
      "土曜日",
      "日曜日",
      "祝日"
    ],
    "openDaysNote": ""
  },
  {
    "id": "970900346",
    "name": "さわやかデイホーム悠々",
    "kana": "サワヤカデイホームユウユウ",
    "address": "栃木県真岡市荒町２－１７－１",
    "lat": 36.4484143,
    "lng": 140.0111262,
    "tel": "0285-84-2043",
    "url": "",
    "pref": "栃木県",
    "city": "真岡市",
    "category": "day_service",
    "serviceType": "通所介護",
    "capacity": null,
    "openDays": [
      "平日",
      "土曜日",
      "祝日"
    ],
    "openDaysNote": "自然災害時等、事故防止"
  },
  {
    "id": "970900320",
    "name": "デイサービスセンター　　すずらん",
    "kana": "デイサービスセンター　スズラン",
    "address": "栃木県真岡市上高間木2-24-3",
    "lat": 36.441729,
    "lng": 139.985433,
    "tel": "0285-80-5056",
    "url": "http://www.i-souseikai.com/",
    "pref": "栃木県",
    "city": "真岡市",
    "category": "day_service",
    "serviceType": "通所介護",
    "capacity": 0,
    "openDays": [
      "平日",
      "土曜日"
    ],
    "openDaysNote": ""
  },
  {
    "id": "972700249",
    "name": "デイサービスセンター　自由館",
    "kana": "デイサービスセンター　ジユウカン",
    "address": "栃木県真岡市石島463",
    "lat": 36.3935833,
    "lng": 139.9743501,
    "tel": "0285-74-3714",
    "url": "http://www.kibousou.jp",
    "pref": "栃木県",
    "city": "真岡市",
    "category": "day_service",
    "serviceType": "通所介護",
    "capacity": 35,
    "openDays": [
      "平日",
      "土曜日",
      "日曜日",
      "祝日"
    ],
    "openDaysNote": "年始休業　１月１日～３日"
  },
  {
    "id": "970900122",
    "name": "デイサービスセンター　椿寿園",
    "kana": "デイサービスセンター　チンジュエン",
    "address": "栃木県真岡市亀山３５０－２０",
    "lat": 36.459577,
    "lng": 139.9889155,
    "tel": "0285-84-1566",
    "url": "http://care-net.biz/09/shinkikai/",
    "pref": "栃木県",
    "city": "真岡市",
    "category": "day_service",
    "serviceType": "通所介護",
    "capacity": 0,
    "openDays": [
      "平日",
      "土曜日",
      "祝日"
    ],
    "openDaysNote": ""
  },
  {
    "id": "970900171",
    "name": "デイサービスセンターきたはら",
    "kana": "デイサービスセンターキタハラ",
    "address": "栃木県真岡市若旅656番地",
    "lat": 36.4023594,
    "lng": 139.9484327,
    "tel": "0285-83-6662",
    "url": "https://keikoukai.or.jp/",
    "pref": "栃木県",
    "city": "真岡市",
    "category": "day_service",
    "serviceType": "通所介護",
    "capacity": 0,
    "openDays": [
      "平日",
      "土曜日",
      "祝日"
    ],
    "openDaysNote": ""
  },
  {
    "id": "970900676",
    "name": "デイサービスセンター田井の里",
    "kana": "デイサービスセンタータイノサト",
    "address": "栃木県真岡市西田井７４８－２",
    "lat": 36.4537583771976,
    "lng": 140.070465586414,
    "tel": "０２８５－８１－６５００",
    "url": "URL:http://tobiyama.org/",
    "pref": "栃木県",
    "city": "真岡市",
    "category": "day_service",
    "serviceType": "通所介護",
    "capacity": 0,
    "openDays": [
      "平日",
      "祝日"
    ],
    "openDaysNote": ""
  },
  {
    "id": "972700892",
    "name": "デイサービスにのみや",
    "kana": "デイサービスニノミヤ",
    "address": "栃木県真岡市久下田956-1",
    "lat": 36.3750241,
    "lng": 139.9683705,
    "tel": "0285-73-2641",
    "url": "http://ncclinic.or.jp/",
    "pref": "栃木県",
    "city": "真岡市",
    "category": "day_service",
    "serviceType": "通所介護",
    "capacity": 20,
    "openDays": [
      "平日",
      "土曜日",
      "祝日"
    ],
    "openDaysNote": ""
  },
  {
    "id": "970900106",
    "name": "ニチイケアセンター真岡",
    "kana": "ニチイケアセンターモオカ",
    "address": "真岡市荒町35-3",
    "lat": 36.441877,
    "lng": 140.0119139,
    "tel": "0285-80-5151",
    "url": "http://www.nichiigakkan.co.jp",
    "pref": "栃木県",
    "city": "真岡市",
    "category": "day_service",
    "serviceType": "通所介護",
    "capacity": 0,
    "openDays": [
      "平日",
      "土曜日",
      "日曜日",
      "祝日"
    ],
    "openDaysNote": ""
  },
  {
    "id": "970900734",
    "name": "ふれんど真岡デイサービスセンター",
    "kana": "フレンドモオカデイサービスセンター",
    "address": "栃木県真岡市八木岡377-6",
    "lat": 36.426525589075,
    "lng": 139.995096660094,
    "tel": "0285-81-1120",
    "url": "",
    "pref": "栃木県",
    "city": "真岡市",
    "category": "day_service",
    "serviceType": "通所介護",
    "capacity": 30,
    "openDays": [
      "平日",
      "土曜日",
      "祝日"
    ],
    "openDaysNote": ""
  },
  {
    "id": "970900460",
    "name": "マストクデイサービス",
    "kana": "マストクデイサービス",
    "address": "栃木県真岡市田町１５５６－１",
    "lat": 36.434639,
    "lng": 140.0132668,
    "tel": "0285-82-8098",
    "url": "http://box.find1.jp/masutoku/",
    "pref": "栃木県",
    "city": "真岡市",
    "category": "day_service",
    "serviceType": "通所介護",
    "capacity": 0,
    "openDays": [
      "平日",
      "土曜日",
      "祝日"
    ],
    "openDaysNote": "お盆・GWにおいては年度により異なる。"
  },
  {
    "id": "970900494",
    "name": "よしむら整骨院のデイサービス",
    "kana": "ヨシムラセイコツインノデイサービス",
    "address": "栃木県真岡市小林550－1",
    "lat": 36.4241348,
    "lng": 140.0377066,
    "tel": "0285-83-6432",
    "url": "",
    "pref": "栃木県",
    "city": "真岡市",
    "category": "day_service",
    "serviceType": "通所介護",
    "capacity": 30,
    "openDays": [
      "平日",
      "土曜日",
      "祝日"
    ],
    "openDaysNote": ""
  },
  {
    "id": "970900759",
    "name": "家族の家ひまわり真岡　通所介護事業所",
    "kana": "カゾクノイエヒマワリモオカ　ツウショカイゴジギョウショ",
    "address": "栃木県真岡市荒町3-25-6",
    "lat": 36.442891,
    "lng": 140.017605,
    "tel": "0285-80-3715",
    "url": "http://www.saneido.co.jp/",
    "pref": "栃木県",
    "city": "真岡市",
    "category": "day_service",
    "serviceType": "通所介護",
    "capacity": 40,
    "openDays": [
      "平日",
      "土曜日",
      "日曜日",
      "祝日"
    ],
    "openDaysNote": "延長時間は午前8時30分から午前9時30分まで及び午後4時30分から午後5時30分までとなります。"
  },
  {
    "id": "970900783",
    "name": "家族の家ひまわり真岡二宮　通所介護事業所",
    "kana": "カゾクノイエヒマワリモオカニノミヤ　ツウショカイゴジギョウショ",
    "address": "栃木県真岡市久下田西2-7",
    "lat": 36.3756379,
    "lng": 139.9664846,
    "tel": "0285-73-1515",
    "url": "http://www.saneido.co.jp/",
    "pref": "栃木県",
    "city": "真岡市",
    "category": "day_service",
    "serviceType": "通所介護",
    "capacity": null,
    "openDays": [
      "平日",
      "土曜日",
      "日曜日",
      "祝日"
    ],
    "openDaysNote": ""
  },
  {
    "id": "970900551",
    "name": "高齢者介護施設たいよう（平成22年度新規指定事業所）",
    "kana": "コウレイシャカイゴシセツタイヨウ",
    "address": "鷲巣５１７",
    "lat": 36.0439422,
    "lng": 139.7964175,
    "tel": "0285-81-5761",
    "url": "http://www.kinugaoka.com",
    "pref": "栃木県",
    "city": "真岡市",
    "category": "day_service",
    "serviceType": "通所介護",
    "capacity": 0,
    "openDays": [
      "平日",
      "土曜日",
      "祝日"
    ],
    "openDaysNote": "家族の要望に沿ってケアマネと相談の上、受け入れを検討します。"
  },
  {
    "id": "970900353",
    "name": "社会福祉法人　三起デイサービスセンター",
    "kana": "シャカイフクシホウジン　サンキ",
    "address": "栃木県真岡市西郷１１８－２",
    "lat": 36.453067,
    "lng": 139.9997425,
    "tel": "0285-81-1515",
    "url": "http://www.timc.or.jp/sanki/",
    "pref": "栃木県",
    "city": "真岡市",
    "category": "day_service",
    "serviceType": "通所介護",
    "capacity": 0,
    "openDays": [
      "平日",
      "土曜日",
      "日曜日",
      "祝日"
    ],
    "openDaysNote": ""
  },
  {
    "id": "970900379",
    "name": "特別養護老人ホーム　やまさわの里",
    "kana": "トクベツヨウゴロウジンホーム　ヤマサワノサト",
    "address": "栃木県真岡市熊倉町3435番地1",
    "lat": 36.4329276,
    "lng": 139.9964684,
    "tel": "0285-81-1188",
    "url": "http://www.yamasawanosato.or.jp/",
    "pref": "栃木県",
    "city": "真岡市",
    "category": "day_service",
    "serviceType": "通所介護",
    "capacity": 0,
    "openDays": [
      "平日",
      "土曜日",
      "祝日"
    ],
    "openDaysNote": ""
  },
  {
    "id": "972700652",
    "name": "特別養護老人ホーム　桜の華　通所介護事業所",
    "kana": "トクベツヨウゴロウジンホーム　サクラノハナ　ツウショカイゴジギョウショ",
    "address": "栃木県真岡市久下田712-8",
    "lat": 36.3743964,
    "lng": 139.9678206,
    "tel": "0285-74-5520",
    "url": "https://sakuranohana.net",
    "pref": "栃木県",
    "city": "真岡市",
    "category": "day_service",
    "serviceType": "通所介護",
    "capacity": 25,
    "openDays": [
      "平日",
      "土曜日",
      "祝日"
    ],
    "openDaysNote": ""
  },
  {
    "id": "972301501",
    "name": "おもちゃのまち機能訓練デイサービスホーム",
    "kana": "オモチャノマチキノウクンレンデイサービスホーム",
    "address": "栃木県下都賀郡壬生町安塚733-5",
    "lat": 36.4686457860304,
    "lng": 139.832118076721,
    "tel": "0282-85-4888",
    "url": "nakamura-3h.com",
    "pref": "栃木県",
    "city": "壬生町",
    "category": "day_service",
    "serviceType": "通所介護",
    "capacity": 25,
    "openDays": [
      "平日"
    ],
    "openDaysNote": "年末年始12/30～1/3・お盆休み8/14/～8/16"
  },
  {
    "id": "972301428",
    "name": "ケアステーションあさひ　壬生",
    "kana": "ケアステーションアサヒ　ミブ",
    "address": "栃木県下都賀郡壬生町中央町6番26号",
    "lat": 36.4255523,
    "lng": 139.8035599,
    "tel": "0282-81-2281",
    "url": "http://www.vati.co.jp/",
    "pref": "栃木県",
    "city": "壬生町",
    "category": "day_service",
    "serviceType": "通所介護",
    "capacity": null,
    "openDays": [
      "平日",
      "土曜日",
      "日曜日",
      "祝日"
    ],
    "openDaysNote": ""
  },
  {
    "id": "972301162",
    "name": "デイサービスセンターおもちゃのまちえがお",
    "kana": "デイサービスセンターオモチャノマチエガオ",
    "address": "栃木県下都賀郡壬生町大字安塚字拓生3344番地10",
    "lat": 36.4270577,
    "lng": 139.8039321,
    "tel": "0282-81-2345",
    "url": "http://care-net.biz/09/egaokai/",
    "pref": "栃木県",
    "city": "壬生町",
    "category": "day_service",
    "serviceType": "通所介護",
    "capacity": 0,
    "openDays": [
      "平日",
      "土曜日",
      "祝日"
    ],
    "openDaysNote": "年末年始のみ休み。"
  },
  {
    "id": "972301600",
    "name": "デイサービス楽笑",
    "kana": "デイサービスラクショウ",
    "address": "栃木県下都賀郡壬生町至宝三丁目9番地3号",
    "lat": 36.4601089,
    "lng": 139.8258981,
    "tel": "0282-28-6285",
    "url": "http://raku-shou.jp/",
    "pref": "栃木県",
    "city": "壬生町",
    "category": "day_service",
    "serviceType": "通所介護",
    "capacity": 0,
    "openDays": [
      "平日",
      "土曜日"
    ],
    "openDaysNote": ""
  },
  {
    "id": "972300545",
    "name": "デイホームえがお",
    "kana": "デイホームエガオ",
    "address": "栃木県下都賀郡壬生町藤井1672-4",
    "lat": 36.4273468,
    "lng": 139.8121397,
    "tel": "0282-81-0517",
    "url": "http://care-net.biz/09/egaokai/",
    "pref": "栃木県",
    "city": "壬生町",
    "category": "day_service",
    "serviceType": "通所介護",
    "capacity": 25,
    "openDays": [
      "平日",
      "土曜日",
      "祝日"
    ],
    "openDaysNote": "正月休み"
  },
  {
    "id": "972301584",
    "name": "リハビリ特化型デイサービス　あいケアステーションワザリハ",
    "kana": "リハビリトッカガタデイサービス　アイケアステーションワザリハ",
    "address": "栃木県下都賀郡壬生町中央町11-21",
    "lat": 36.4237647356295,
    "lng": 139.801164077771,
    "tel": "0282-25-7516",
    "url": "https//:www.i-care.co.jp",
    "pref": "栃木県",
    "city": "壬生町",
    "category": "day_service",
    "serviceType": "通所介護",
    "capacity": null,
    "openDays": [
      "平日",
      "祝日"
    ],
    "openDaysNote": ""
  },
  {
    "id": "972300966",
    "name": "株式会社　光星電機　みぶケアーズ",
    "kana": "カブシキガイシャ　コウセイデンキ　ミブケアーズ",
    "address": "栃木県下都賀郡壬生町大字安塚888",
    "lat": 36.4856774,
    "lng": 139.828217,
    "tel": "0282-85-0560",
    "url": "https://mibu-cares.com/",
    "pref": "栃木県",
    "city": "壬生町",
    "category": "day_service",
    "serviceType": "通所介護",
    "capacity": 0,
    "openDays": [
      "平日",
      "土曜日"
    ],
    "openDaysNote": ""
  },
  {
    "id": "972301386",
    "name": "星風会デイサービスセンター　みぶ例幣使",
    "kana": "セイフウカイデイサービセンター　ミブレイヘイシ",
    "address": "栃木県下都賀郡壬生町大字壬生甲2620番地",
    "lat": 36.4406045483484,
    "lng": 139.787095856053,
    "tel": "0282-81-2810",
    "url": "http://www.sfk.or.jp",
    "pref": "栃木県",
    "city": "壬生町",
    "category": "day_service",
    "serviceType": "通所介護",
    "capacity": 30,
    "openDays": [
      "平日",
      "土曜日",
      "祝日"
    ],
    "openDaysNote": ""
  },
  {
    "id": "972300248",
    "name": "有限会社あゆむ",
    "kana": "ユウゲンガイシャアユム",
    "address": "栃木県下都賀郡壬生町壬生丁232-1",
    "lat": 36.4595222,
    "lng": 139.837681,
    "tel": "0282-82-2886",
    "url": "",
    "pref": "栃木県",
    "city": "壬生町",
    "category": "day_service",
    "serviceType": "通所介護",
    "capacity": 0,
    "openDays": [
      "平日",
      "土曜日",
      "祝日"
    ],
    "openDaysNote": ""
  },
  {
    "id": "972300099",
    "name": "老人デイサービスセンターしもつけ荘",
    "kana": "ロウジンデイサービスセンターシモツケソウ",
    "address": "栃木県下都賀郡壬生町大字北小林812",
    "lat": 36.4751034,
    "lng": 139.8206875,
    "tel": "0282-86-0177",
    "url": "http://tochinokikai.or.jp/",
    "pref": "栃木県",
    "city": "壬生町",
    "category": "day_service",
    "serviceType": "通所介護",
    "capacity": 0,
    "openDays": [
      "平日",
      "土曜日",
      "祝日"
    ],
    "openDaysNote": "-"
  },
  {
    "id": "970200762",
    "name": "ＪＡ足利デイサービスセンターらいでん",
    "kana": "ジェイエイアシカガデイサービスセンターライデン",
    "address": "栃木県足利市下渋垂町７５１番地",
    "lat": 36.2951823,
    "lng": 139.4852879,
    "tel": "0284-70-6511",
    "url": "http://www.jaashikaga.or.jp",
    "pref": "栃木県",
    "city": "足利市",
    "category": "day_service",
    "serviceType": "通所介護",
    "capacity": 0,
    "openDays": [
      "平日",
      "土曜日",
      "祝日"
    ],
    "openDaysNote": "年末年始休業１２/３０～１/３・夏期休業８/１３～８/１６"
  },
  {
    "id": "970203360",
    "name": "ＳＯＭＰＯケア　足利　デイサービス",
    "kana": "ソンポケア　アシカガ　デイサービス",
    "address": "栃木県足利市有楽町８４１番地3岩崎ビル１階 岩崎ビル１階",
    "lat": 36.3416958,
    "lng": 139.4560755,
    "tel": "0284-43-1801",
    "url": "",
    "pref": "栃木県",
    "city": "足利市",
    "category": "day_service",
    "serviceType": "通所介護",
    "capacity": 0,
    "openDays": [
      "平日",
      "祝日"
    ],
    "openDaysNote": "サービス提供日は月曜日～金曜日（祝日含む）"
  },
  {
    "id": "970203790",
    "name": "アイデイサービスなかま",
    "kana": "アイデイサービスナカマ",
    "address": "栃木県足利市常見町2-11-3",
    "lat": 36.3187981,
    "lng": 139.4852588,
    "tel": "284228255",
    "url": "",
    "pref": "栃木県",
    "city": "足利市",
    "category": "day_service",
    "serviceType": "通所介護",
    "capacity": null,
    "openDays": [
      "平日"
    ],
    "openDaysNote": ""
  },
  {
    "id": "970203063",
    "name": "アイホーム笑の樹",
    "kana": "アイホームワラノキ",
    "address": "常見町2－11－7",
    "lat": 36.3186909,
    "lng": 139.4852405,
    "tel": "0284-22-7667",
    "url": "http://kaigo.ir06.com/index.html",
    "pref": "栃木県",
    "city": "足利市",
    "category": "day_service",
    "serviceType": "通所介護",
    "capacity": 0,
    "openDays": [
      "平日",
      "土曜日",
      "日曜日",
      "祝日"
    ],
    "openDaysNote": ""
  },
  {
    "id": "970203055",
    "name": "アイホーム足利",
    "kana": "アイホームアシカガ",
    "address": "常見町2－11－8",
    "lat": 36.3186437,
    "lng": 139.4856099,
    "tel": "0284－22－3271",
    "url": "http://kaigo.ir06.com/index.html",
    "pref": "栃木県",
    "city": "足利市",
    "category": "day_service",
    "serviceType": "通所介護",
    "capacity": 0,
    "openDays": [
      "平日",
      "土曜日",
      "日曜日",
      "祝日"
    ],
    "openDaysNote": "年中無休"
  },
  {
    "id": "970202123",
    "name": "カルナレジェンド（平成22年度新規指定事業所）",
    "kana": "カルナレジェンド",
    "address": "大前町706番地",
    "lat": 36.3558697,
    "lng": 139.3969742,
    "tel": "0284-65-4161",
    "url": "",
    "pref": "栃木県",
    "city": "足利市",
    "category": "day_service",
    "serviceType": "通所介護",
    "capacity": null,
    "openDays": [
      "平日",
      "土曜日",
      "祝日"
    ],
    "openDaysNote": ""
  },
  {
    "id": "970203741",
    "name": "グッデイ足利",
    "kana": "グッデイアシカガ",
    "address": "栃木県足利市朝倉町3丁目7-7",
    "lat": 36.3207408,
    "lng": 139.4434132,
    "tel": "0284-71-1892",
    "url": "https://www.ryomomaruzen.co.jp/",
    "pref": "栃木県",
    "city": "足利市",
    "category": "day_service",
    "serviceType": "通所介護",
    "capacity": 0,
    "openDays": [
      "平日",
      "土曜日"
    ],
    "openDaysNote": ""
  },
  {
    "id": "970202446",
    "name": "ケアステーションあさひ足利",
    "kana": "ケアステーションアサヒアシカガ",
    "address": "栃木県足利市福富町2178-1",
    "lat": 36.3162343,
    "lng": 139.4586981,
    "tel": "0284-22-4371",
    "url": "http://www.vati.co.jp/",
    "pref": "栃木県",
    "city": "足利市",
    "category": "day_service",
    "serviceType": "通所介護",
    "capacity": 0,
    "openDays": [
      "平日",
      "土曜日",
      "日曜日",
      "祝日"
    ],
    "openDaysNote": ""
  },
  {
    "id": "970203428",
    "name": "デイサービス　サクラ",
    "kana": "デイサービス　サクラ",
    "address": "栃木県足利市大前町720-1",
    "lat": 36.3569369,
    "lng": 139.3955404,
    "tel": "0284-65-0620",
    "url": "",
    "pref": "栃木県",
    "city": "足利市",
    "category": "day_service",
    "serviceType": "通所介護",
    "capacity": 0,
    "openDays": [
      "平日",
      "土曜日",
      "祝日"
    ],
    "openDaysNote": ""
  },
  {
    "id": "970201331",
    "name": "デイサービス　ひまわり",
    "kana": "デイサービス　ヒマワリ",
    "address": "栃木県足利市大久保町７５４－１",
    "lat": 36.315389,
    "lng": 139.4999668,
    "tel": "0284-91-2601",
    "url": "http://www.hsc-group.jp",
    "pref": "栃木県",
    "city": "足利市",
    "category": "day_service",
    "serviceType": "通所介護",
    "capacity": 0,
    "openDays": [
      "平日",
      "土曜日",
      "祝日"
    ],
    "openDaysNote": "―"
  },
  {
    "id": "970201000",
    "name": "デイサービス　時の渚",
    "kana": "デイサービス　トキノナギサ",
    "address": "栃木県足利市福居町843番地居宅介護複合施設　うるしばら 居宅介護複合施設　うるしばら",
    "lat": 36.3143037,
    "lng": 139.4509044,
    "tel": "0284-72-0584",
    "url": "https://urushibara-kaigo.net",
    "pref": "栃木県",
    "city": "足利市",
    "category": "day_service",
    "serviceType": "通所介護",
    "capacity": 20,
    "openDays": [
      "平日",
      "土曜日",
      "祝日"
    ],
    "openDaysNote": ""
  },
  {
    "id": "970202768",
    "name": "デイサービス　天の川きらら",
    "kana": "デイサービス　アマノガワキララ",
    "address": "栃木県足利市江川町3-5-4",
    "lat": 36.3543803873898,
    "lng": 139.465929693254,
    "tel": "0284-22-3662",
    "url": "https://amanogawa-kaigo.com/",
    "pref": "栃木県",
    "city": "足利市",
    "category": "day_service",
    "serviceType": "通所介護",
    "capacity": 20,
    "openDays": [
      "平日",
      "土曜日",
      "祝日"
    ],
    "openDaysNote": ""
  },
  {
    "id": "970203295",
    "name": "デイサービスe-らいふ　大坊",
    "kana": "デイサービスイーライフダイボウ",
    "address": "栃木県足利市八椚町375-1e-らいふほーむ大坊 e-らいふほーむ大坊",
    "lat": 36.3207305476854,
    "lng": 139.488997288307,
    "tel": "0284-22-3960",
    "url": "http://lifecareclub.co.jp/charge.html",
    "pref": "栃木県",
    "city": "足利市",
    "category": "day_service",
    "serviceType": "通所介護",
    "capacity": 20,
    "openDays": [
      "平日",
      "土曜日",
      "祝日"
    ],
    "openDaysNote": ""
  },
  {
    "id": "970202552",
    "name": "デイサービスさくら",
    "kana": "デイサービスサクラ",
    "address": "栃木県足利市板倉町914-1",
    "lat": 36.3786049,
    "lng": 139.4144932,
    "tel": "0284-64-9510",
    "url": "sakura-day-service.com",
    "pref": "栃木県",
    "city": "足利市",
    "category": "day_service",
    "serviceType": "通所介護",
    "capacity": 0,
    "openDays": [
      "平日",
      "土曜日",
      "祝日"
    ],
    "openDaysNote": ""
  },
  {
    "id": "970203147",
    "name": "デイサービスシニア俱楽部",
    "kana": "デイサービスシニアクラブ",
    "address": "栃木県足利市通5丁目2822番1",
    "lat": 36.3380263,
    "lng": 139.4435936,
    "tel": "0284-22-0400",
    "url": "",
    "pref": "栃木県",
    "city": "足利市",
    "category": "day_service",
    "serviceType": "通所介護",
    "capacity": 0,
    "openDays": [
      "平日",
      "土曜日",
      "祝日"
    ],
    "openDaysNote": ""
  },
  {
    "id": "970203022",
    "name": "デイサービスセンター　グリーンハーベストあしかが",
    "kana": "デイサービスセンター　グリーンハーベストアシカガ",
    "address": "栃木県足利市鵤木町１２３－２",
    "lat": 36.3161499,
    "lng": 139.4979892,
    "tel": "0284-22-3255",
    "url": "",
    "pref": "栃木県",
    "city": "足利市",
    "category": "day_service",
    "serviceType": "通所介護",
    "capacity": 30,
    "openDays": [
      "平日",
      "土曜日",
      "祝日"
    ],
    "openDaysNote": ""
  },
  {
    "id": "970200689",
    "name": "デイサービスセンター　たんぽぽ",
    "kana": "デイサービスセンター　タンポポ",
    "address": "栃木県足利市通5丁目3435番地3",
    "lat": 36.3360125,
    "lng": 139.4420882,
    "tel": "0284-22-1161",
    "url": "http://www.tanpopo-net.or.jp/",
    "pref": "栃木県",
    "city": "足利市",
    "category": "day_service",
    "serviceType": "通所介護",
    "capacity": null,
    "openDays": [
      "平日",
      "土曜日",
      "祝日"
    ],
    "openDaysNote": "-"
  },
  {
    "id": "970203162",
    "name": "デイサービスセンター　喜重苑",
    "kana": "デイサービスセンター　キジュウエン",
    "address": "栃木県足利市今福町397-1",
    "lat": 36.3372039,
    "lng": 139.4340558,
    "tel": "0284-22-3805",
    "url": "seimeien.or.jp/index.html",
    "pref": "栃木県",
    "city": "足利市",
    "category": "day_service",
    "serviceType": "通所介護",
    "capacity": 25,
    "openDays": [
      "平日",
      "土曜日",
      "祝日"
    ],
    "openDaysNote": "１２/３１～１/３は定休日としております。"
  },
  {
    "id": "970201430",
    "name": "デイサービスセンター　大地",
    "kana": "デイサービスセンター　ダイチ",
    "address": "栃木県足利市駒場町568-1",
    "lat": 36.3166507,
    "lng": 139.5285224,
    "tel": "0284-90-2299",
    "url": "https://n-p-o.or.jp",
    "pref": "栃木県",
    "city": "足利市",
    "category": "day_service",
    "serviceType": "通所介護",
    "capacity": 20,
    "openDays": [
      "平日",
      "土曜日",
      "祝日"
    ],
    "openDaysNote": ""
  },
  {
    "id": "970202081",
    "name": "デイサービスセンター　大地West",
    "kana": "デイサービスセンター　ダイチウエスト",
    "address": "栃木県足利市山下町1395-1",
    "lat": 36.355646,
    "lng": 139.4087753,
    "tel": "0284-65-0506",
    "url": "https://n-p-o.or.jp",
    "pref": "栃木県",
    "city": "足利市",
    "category": "day_service",
    "serviceType": "通所介護",
    "capacity": 0,
    "openDays": [
      "平日",
      "土曜日",
      "祝日"
    ],
    "openDaysNote": ""
  },
  {
    "id": "970203733",
    "name": "デイサービスセンターアルヴェアーレ借宿",
    "kana": "デイサービスセンターアルウ˝ェアーレカリヤド",
    "address": "栃木県足利市借宿町605－2",
    "lat": 36.326899156355,
    "lng": 139.427413984239,
    "tel": "0284－22－7930",
    "url": "",
    "pref": "栃木県",
    "city": "足利市",
    "category": "day_service",
    "serviceType": "通所介護",
    "capacity": null,
    "openDays": [
      "平日",
      "土曜日"
    ],
    "openDaysNote": ""
  },
  {
    "id": "970202008",
    "name": "デイサービスセンターカルナ",
    "kana": "デイサービスセンターカルナ",
    "address": "栃木県足利市大前町706番地",
    "lat": 36.3554681,
    "lng": 139.3974931,
    "tel": "0284-65-4161",
    "url": "",
    "pref": "栃木県",
    "city": "足利市",
    "category": "day_service",
    "serviceType": "通所介護",
    "capacity": 0,
    "openDays": [
      "平日",
      "土曜日",
      "祝日"
    ],
    "openDaysNote": ""
  },
  {
    "id": "970201141",
    "name": "デイサービスセンターたんぽぽ北",
    "kana": "デイサービスセンタータンポポキタ",
    "address": "栃木県足利市利保町１丁目４３番地２",
    "lat": 36.352623,
    "lng": 139.4710049,
    "tel": "0284-40-3955",
    "url": "http://www.tanpopo-net.or.jp",
    "pref": "栃木県",
    "city": "足利市",
    "category": "day_service",
    "serviceType": "通所介護",
    "capacity": 0,
    "openDays": [
      "平日",
      "土曜日",
      "祝日"
    ],
    "openDaysNote": ""
  },
  {
    "id": "970202420",
    "name": "デイサービスセンターとなりのたんぽぽ。",
    "kana": "デイサービスセンタートナリノタンポポ。",
    "address": "栃木県足利市通５丁目３４３３―１２",
    "lat": 36.3362347,
    "lng": 139.4416549,
    "tel": "0284-64-7155",
    "url": "http://www.tanpopo-net.or.jp",
    "pref": "栃木県",
    "city": "足利市",
    "category": "day_service",
    "serviceType": "通所介護",
    "capacity": 0,
    "openDays": [
      "平日",
      "土曜日",
      "祝日"
    ],
    "openDaysNote": ""
  },
  {
    "id": "970201307",
    "name": "デイサービスセンター春日和",
    "kana": "デイサービスセンターハルビヨリ",
    "address": "栃木県足利市堀込町2462番地1",
    "lat": 36.3069044,
    "lng": 139.4538404,
    "tel": "0284-70-0875",
    "url": "http://www.worldstay.jp/",
    "pref": "栃木県",
    "city": "足利市",
    "category": "day_service",
    "serviceType": "通所介護",
    "capacity": 0,
    "openDays": [
      "平日",
      "土曜日",
      "祝日"
    ],
    "openDaysNote": ""
  },
  {
    "id": "970202164",
    "name": "デイサービスセンター春日和　いかるぎ",
    "kana": "デイサービスセンターハルビヨリ　イカルギ",
    "address": "栃木県足利市鵤木町２２９－１",
    "lat": 36.3169914,
    "lng": 139.4938202,
    "tel": "0284-64-9971",
    "url": "",
    "pref": "栃木県",
    "city": "足利市",
    "category": "day_service",
    "serviceType": "通所介護",
    "capacity": 0,
    "openDays": [
      "平日",
      "土曜日",
      "日曜日",
      "祝日"
    ],
    "openDaysNote": ""
  },
  {
    "id": "970202180",
    "name": "デイサービスセンター春日和　堀込",
    "kana": "デイサービスセンターハルビヨリ　ホリゴメ",
    "address": "堀込町2582-1デイサービスセンター春日和堀込 デイサービスセンター春日和堀込",
    "lat": 36.3139759,
    "lng": 139.4450744,
    "tel": "0284-64-7175",
    "url": "http://www.worldstay.jp",
    "pref": "栃木県",
    "city": "足利市",
    "category": "day_service",
    "serviceType": "通所介護",
    "capacity": 25,
    "openDays": [
      "平日",
      "土曜日",
      "日曜日",
      "祝日"
    ],
    "openDaysNote": ""
  },
  {
    "id": "970203410",
    "name": "デイサービスセンター春日和鹿島",
    "kana": "デイサービスセンターハルビヨリカシマ",
    "address": "栃木県足利市鹿島町452番地5",
    "lat": 36.3470784343374,
    "lng": 139.401484703456,
    "tel": "0284-22-4222",
    "url": "",
    "pref": "栃木県",
    "city": "足利市",
    "category": "day_service",
    "serviceType": "通所介護",
    "capacity": null,
    "openDays": [
      "平日",
      "土曜日",
      "日曜日",
      "祝日"
    ],
    "openDaysNote": ""
  },
  {
    "id": "970201190",
    "name": "デイサービスセンター陽のあたる場所",
    "kana": "デイサービスセンターヒノアタルバショ",
    "address": "足利市今福町４７１－１０",
    "lat": 36.3360789,
    "lng": 139.4319228,
    "tel": "0284－20-2880",
    "url": "",
    "pref": "栃木県",
    "city": "足利市",
    "category": "day_service",
    "serviceType": "通所介護",
    "capacity": 0,
    "openDays": [
      "平日",
      "祝日"
    ],
    "openDaysNote": ""
  },
  {
    "id": "970203394",
    "name": "デイサービスたんぽぽみなみ",
    "kana": "デイサービスタンポポミナミ",
    "address": "栃木県足利市福居町685番地1",
    "lat": 36.3144009,
    "lng": 139.4496406,
    "tel": "0284-22-7155",
    "url": "http://www.tanpopo-net.or.jp/",
    "pref": "栃木県",
    "city": "足利市",
    "category": "day_service",
    "serviceType": "通所介護",
    "capacity": null,
    "openDays": [
      "平日",
      "土曜日",
      "祝日"
    ],
    "openDaysNote": ""
  },
  {
    "id": "970203717",
    "name": "デイサービス季の里",
    "kana": "デイサービストキノサト",
    "address": "栃木県足利市大久保町617-1",
    "lat": 36.3139315,
    "lng": 139.5074995,
    "tel": "0284-64-8185",
    "url": "",
    "pref": "栃木県",
    "city": "足利市",
    "category": "day_service",
    "serviceType": "通所介護",
    "capacity": 0,
    "openDays": [
      "平日",
      "土曜日",
      "祝日"
    ],
    "openDaysNote": ""
  },
  {
    "id": "970203121",
    "name": "ディバシティ足利大前町",
    "kana": "ディバシティアシカガオオマエチョウ",
    "address": "栃木県足利市大前町220-1",
    "lat": 36.3579892817006,
    "lng": 139.392712012269,
    "tel": "0284-22-7087",
    "url": "https://azisaicc.co.jp/",
    "pref": "栃木県",
    "city": "足利市",
    "category": "day_service",
    "serviceType": "通所介護",
    "capacity": 29,
    "openDays": [
      "平日",
      "土曜日",
      "日曜日",
      "祝日"
    ],
    "openDaysNote": ""
  },
  {
    "id": "970202917",
    "name": "ディバシティ藍燦々",
    "kana": "ディバシティアイサンサン",
    "address": "小俣町898",
    "lat": 36.3825206,
    "lng": 139.3685191,
    "tel": "0284-22-3775",
    "url": "https://azisaicc.co.jp/",
    "pref": "栃木県",
    "city": "足利市",
    "category": "day_service",
    "serviceType": "通所介護",
    "capacity": 0,
    "openDays": [
      "平日",
      "土曜日",
      "日曜日",
      "祝日"
    ],
    "openDaysNote": ""
  },
  {
    "id": "970201695",
    "name": "デイホーム孫の手・あしかが",
    "kana": "デイホーム　マゴノテ・アシカガ",
    "address": "栃木県足利市五十部町361-1",
    "lat": 36.3423115,
    "lng": 139.4257374,
    "tel": "0284-43-8055",
    "url": "http://magonote-inc.jp",
    "pref": "栃木県",
    "city": "足利市",
    "category": "day_service",
    "serviceType": "通所介護",
    "capacity": 0,
    "openDays": [
      "平日",
      "土曜日",
      "祝日"
    ],
    "openDaysNote": ""
  },
  {
    "id": "970202362",
    "name": "ニチイケアセンター足利東山",
    "kana": "ニチイケアセンターアシカガヒガシヤマ",
    "address": "栃木県足利市助戸東山町865-2",
    "lat": 36.3398852,
    "lng": 139.4688997,
    "tel": "0284-44-6480",
    "url": "www.nichiigakkan.co.jp",
    "pref": "栃木県",
    "city": "足利市",
    "category": "day_service",
    "serviceType": "通所介護",
    "capacity": 35,
    "openDays": [
      "平日",
      "土曜日",
      "祝日"
    ],
    "openDaysNote": ""
  },
  {
    "id": "970200820",
    "name": "フリージアデイサービスセンター",
    "kana": "フリージアデイサービスセンター",
    "address": "栃木県足利市瑞穂野町７３５－１",
    "lat": 36.2816622,
    "lng": 139.512197,
    "tel": "0284-73-4347",
    "url": "https://freesiaday.sakura.ne.jp",
    "pref": "栃木県",
    "city": "足利市",
    "category": "day_service",
    "serviceType": "通所介護",
    "capacity": 0,
    "openDays": [
      "平日",
      "土曜日",
      "祝日"
    ],
    "openDaysNote": ""
  },
  {
    "id": "970203543",
    "name": "リハビリセンターはっち",
    "kana": "リハビリセンターハッチ",
    "address": "栃木県足利市八幡町2丁目11-5",
    "lat": 36.3220027788489,
    "lng": 139.438147011639,
    "tel": "0284-70-5775",
    "url": "https://goodcare78.jp",
    "pref": "栃木県",
    "city": "足利市",
    "category": "day_service",
    "serviceType": "通所介護",
    "capacity": 0,
    "openDays": [
      "平日",
      "祝日"
    ],
    "openDaysNote": "祝日は運営しております。"
  },
  {
    "id": "970202750",
    "name": "リハビリテーションLoungeLink",
    "kana": "リハビリテーションラウンジリンク",
    "address": "栃木県足利市小俣町1788-7",
    "lat": 36.3731742,
    "lng": 139.3798106,
    "tel": "0284-62-8388",
    "url": "http://nishida-handm.jp/",
    "pref": "栃木県",
    "city": "足利市",
    "category": "day_service",
    "serviceType": "通所介護",
    "capacity": 25,
    "openDays": [
      "平日",
      "土曜日"
    ],
    "openDaysNote": "午前の部・午後の部に分れております。"
  },
  {
    "id": "970201406",
    "name": "愛・やままえケアセンター",
    "kana": "アイ・ヤママエケアセンター",
    "address": "栃木県足利市鹿島町479番地1",
    "lat": 36.3480479085334,
    "lng": 139.401583365021,
    "tel": "0284-62-3750",
    "url": "aiyamamae.jp",
    "pref": "栃木県",
    "city": "足利市",
    "category": "day_service",
    "serviceType": "通所介護",
    "capacity": 25,
    "openDays": [
      "平日",
      "祝日"
    ],
    "openDaysNote": ""
  },
  {
    "id": "970202990",
    "name": "家族の家ひまわり足利通所介護事業所",
    "kana": "カゾクノイエヒマワリアシカガツウショカイゴジギョウショ",
    "address": "栃木県足利市福居町399",
    "lat": 36.3061295,
    "lng": 139.4549792,
    "tel": "0284-74-2036",
    "url": "http://www.saneido.co.jp/kaigo/ashikaga/",
    "pref": "栃木県",
    "city": "足利市",
    "category": "day_service",
    "serviceType": "通所介護",
    "capacity": null,
    "openDays": [
      "平日",
      "土曜日",
      "日曜日",
      "祝日"
    ],
    "openDaysNote": ""
  },
  {
    "id": "970203592",
    "name": "株式会社アイヴィレッジ",
    "kana": "カブシキガイシャアイヴィレッジ",
    "address": "栃木県足利市葉鹿町1丁目29番地35",
    "lat": 36.3635227,
    "lng": 139.3947916,
    "tel": "0284-55-4765",
    "url": "https://i-village.jp/",
    "pref": "栃木県",
    "city": "足利市",
    "category": "day_service",
    "serviceType": "通所介護",
    "capacity": 0,
    "openDays": [
      "平日",
      "土曜日",
      "祝日"
    ],
    "openDaysNote": ""
  },
  {
    "id": "970201109",
    "name": "健康デイサービスセンター　けやき",
    "kana": "ケンコウデイサービスセンター　ケヤキ",
    "address": "栃木県足利市大月町８１１－１",
    "lat": 36.3483541,
    "lng": 139.4758269,
    "tel": "0284-40-4660",
    "url": "seimeien.or.jp/index.html",
    "pref": "栃木県",
    "city": "足利市",
    "category": "day_service",
    "serviceType": "通所介護",
    "capacity": 45,
    "openDays": [
      "平日",
      "土曜日",
      "祝日"
    ],
    "openDaysNote": "１２/３１～１/３は定休日としております。"
  },
  {
    "id": "970201547",
    "name": "高齢者介護福祉施設　八木宿",
    "kana": "コウレイシャカイゴフクシシセツ　ヤギジュク",
    "address": "栃木県足利市福居町１８０番地１",
    "lat": 36.3070461,
    "lng": 139.4469883,
    "tel": "0284-73-5660",
    "url": "",
    "pref": "栃木県",
    "city": "足利市",
    "category": "day_service",
    "serviceType": "通所介護",
    "capacity": 0,
    "openDays": [
      "平日",
      "土曜日",
      "祝日"
    ],
    "openDaysNote": ""
  },
  {
    "id": "970200408",
    "name": "社会福祉法人　豊岡福祉会　デイサービスセンター天王",
    "kana": "シャカイフクシホウジントヨオカフクシカイデイサービスセンターテンノウ",
    "address": "足利市福居町750-1",
    "lat": 36.3123872,
    "lng": 139.4513905,
    "tel": "0284-71-1596",
    "url": "http://www.jpw.co.jp/tennou",
    "pref": "栃木県",
    "city": "足利市",
    "category": "day_service",
    "serviceType": "通所介護",
    "capacity": 50,
    "openDays": [
      "平日",
      "土曜日",
      "日曜日",
      "祝日"
    ],
    "openDaysNote": ""
  },
  {
    "id": "970201828",
    "name": "足利ケアセンターそよ風",
    "kana": "アシカガケアセンターソヨカゼ",
    "address": "栃木県足利市山川町1078-2",
    "lat": 36.3277437513498,
    "lng": 139.47843083904,
    "tel": "0284-40-1611",
    "url": "http://corp.sykz.co.jp/",
    "pref": "栃木県",
    "city": "足利市",
    "category": "day_service",
    "serviceType": "通所介護",
    "capacity": 25,
    "openDays": [
      "平日",
      "土曜日",
      "日曜日",
      "祝日"
    ],
    "openDaysNote": ""
  },
  {
    "id": "970202610",
    "name": "足利リハビリカレッジ",
    "kana": "アシカガリハビリカレッジ",
    "address": "栃木県足利市今福町３５１－１",
    "lat": 36.3413471946297,
    "lng": 139.430857480951,
    "tel": "0284-22-4734",
    "url": "http://www.asuark.com",
    "pref": "栃木県",
    "city": "足利市",
    "category": "day_service",
    "serviceType": "通所介護",
    "capacity": 0,
    "openDays": [
      "平日",
      "土曜日",
      "祝日"
    ],
    "openDaysNote": ""
  },
  {
    "id": "970200085",
    "name": "醍醐の森指定通所介護事業所",
    "kana": "ダイゴノモリシテイツウショカイゴジギョウショ",
    "address": "栃木県足利市山川町１１４４",
    "lat": 36.3282287,
    "lng": 139.4863542,
    "tel": "0284-41-1328",
    "url": "",
    "pref": "栃木県",
    "city": "足利市",
    "category": "day_service",
    "serviceType": "通所介護",
    "capacity": null,
    "openDays": [
      "平日",
      "土曜日",
      "祝日"
    ],
    "openDaysNote": ""
  },
  {
    "id": "970200853",
    "name": "湯の里長寿苑デイサービスセンター",
    "kana": "ユノサトチョウジュエンデイサービスセンター",
    "address": "栃木県足利市大沼田町2163番地1",
    "lat": 36.3352003,
    "lng": 139.4926675,
    "tel": "0284-90-2831",
    "url": "https://yunosato2003.com/",
    "pref": "栃木県",
    "city": "足利市",
    "category": "day_service",
    "serviceType": "通所介護",
    "capacity": null,
    "openDays": [
      "平日",
      "土曜日",
      "祝日"
    ],
    "openDaysNote": ""
  },
  {
    "id": "970200218",
    "name": "特別養護老人ホーム　義明苑",
    "kana": "トクベツヨウゴロウジンホーム　ギメイエン",
    "address": "栃木県足利市久保田町1223",
    "lat": 36.2956188,
    "lng": 139.494951,
    "tel": "0284-73-4600",
    "url": "https://www.mimeikai.com/",
    "pref": "栃木県",
    "city": "足利市",
    "category": "day_service",
    "serviceType": "通所介護",
    "capacity": 45,
    "openDays": [
      "平日",
      "土曜日",
      "祝日"
    ],
    "openDaysNote": "時間延長サービス対応可能（応相談）"
  },
  {
    "id": "970200077",
    "name": "特別養護老人ホーム　清明苑",
    "kana": "トクベツヨウゴロウジンホーム　セイメイエン",
    "address": "栃木県足利市大月町１０４２－２",
    "lat": 36.3497236,
    "lng": 139.4755168,
    "tel": "0284-41-1165",
    "url": "https://seimeien.or.jp",
    "pref": "栃木県",
    "city": "足利市",
    "category": "day_service",
    "serviceType": "通所介護",
    "capacity": 25,
    "openDays": [
      "平日",
      "土曜日",
      "祝日"
    ],
    "openDaysNote": "１２/３１～１/３は定休日としております。"
  },
  {
    "id": "970200200",
    "name": "特別養護老人ホーム　和見山苑",
    "kana": "トクベツヨウゴロウジンホーム　ワミヤマエン",
    "address": "栃木県足利市稲岡町１０８３－１",
    "lat": 36.3339749139572,
    "lng": 139.5326436,
    "tel": "0284-91-3751",
    "url": "https://seimeien.or.jp/wamiyamaen/dayservice",
    "pref": "栃木県",
    "city": "足利市",
    "category": "day_service",
    "serviceType": "通所介護",
    "capacity": 0,
    "openDays": [
      "平日",
      "祝日"
    ],
    "openDaysNote": ""
  },
  {
    "id": "970200168",
    "name": "特別養護老人ホームプロムナードひこや",
    "kana": "トクベツヨウゴロウジンホームプロムナードヒコヤ",
    "address": "栃木県足利市葉鹿町２０１９番地１",
    "lat": 36.3742186,
    "lng": 139.3851797,
    "tel": "0284-64-0662",
    "url": "",
    "pref": "栃木県",
    "city": "足利市",
    "category": "day_service",
    "serviceType": "通所介護",
    "capacity": 30,
    "openDays": [
      "平日",
      "土曜日",
      "祝日"
    ],
    "openDaysNote": ""
  },
  {
    "id": "970201091",
    "name": "特別養護老人ホーム義明苑　デイサービスセンター相生",
    "kana": "トクベツヨウゴロウジンホームギメイエン　デイサービスセンターアイオイ",
    "address": "栃木県足利市大橋町２丁目１８１０番地６",
    "lat": 36.3357687,
    "lng": 139.4624529,
    "tel": "0284-44-4165",
    "url": "https://www.mimeikai.com/",
    "pref": "栃木県",
    "city": "足利市",
    "category": "day_service",
    "serviceType": "通所介護",
    "capacity": 35,
    "openDays": [
      "平日",
      "土曜日",
      "祝日"
    ],
    "openDaysNote": "時間延長サービス対応可能（応相談）"
  },
  {
    "id": "970203279",
    "name": "板通デイサービスさくらの里",
    "kana": "イタツウデイサービスサクラノサト",
    "address": "栃木県足利市常盤町６４",
    "lat": 36.3281891,
    "lng": 139.4682582,
    "tel": "0284-43-8823",
    "url": "http://it-sakuranosato.com/",
    "pref": "栃木県",
    "city": "足利市",
    "category": "day_service",
    "serviceType": "通所介護",
    "capacity": 0,
    "openDays": [
      "平日",
      "祝日"
    ],
    "openDaysNote": "12/30～1/3はお休み"
  },
  {
    "id": "970200283",
    "name": "麗日荘デイサービスセンター",
    "kana": "レイジツソウデイサービスセンター",
    "address": "栃木県足利市田中町１００",
    "lat": 36.3243695,
    "lng": 139.4511708,
    "tel": "0284-71-9988",
    "url": "reijitsusou.jp",
    "pref": "栃木県",
    "city": "足利市",
    "category": "day_service",
    "serviceType": "通所介護",
    "capacity": 0,
    "openDays": [
      "平日",
      "土曜日",
      "祝日"
    ],
    "openDaysNote": ""
  },
  {
    "id": "971001060",
    "name": "ケアステーションあさひ大田原",
    "kana": "ケアステーションアサヒオオタワラ",
    "address": "栃木県大田原市美原3丁目3267-1",
    "lat": 36.8614565,
    "lng": 140.0009968,
    "tel": "0287-24-6007",
    "url": "http://www.vati.co.jp",
    "pref": "栃木県",
    "city": "大田原市",
    "category": "day_service",
    "serviceType": "通所介護",
    "capacity": 0,
    "openDays": [
      "平日",
      "土曜日",
      "日曜日",
      "祝日"
    ],
    "openDaysNote": ""
  },
  {
    "id": "971000377",
    "name": "だいな若草デイサ－ビス",
    "kana": "ダイナワカクサデイサ－ビス",
    "address": "栃木県大田原市紫塚3-2633-10",
    "lat": 36.877755139863,
    "lng": 140.02171224107,
    "tel": "050-8885-1135",
    "url": "http://dyna.gotdns.com",
    "pref": "栃木県",
    "city": "大田原市",
    "category": "day_service",
    "serviceType": "通所介護",
    "capacity": 0,
    "openDays": [
      "平日",
      "土曜日",
      "日曜日",
      "祝日"
    ],
    "openDaysNote": ""
  },
  {
    "id": "971000393",
    "name": "デイサービスこころ",
    "kana": "デイサービスココロ",
    "address": "栃木県大田原市本町2-2829-35",
    "lat": 36.8710198961612,
    "lng": 140.008964052779,
    "tel": "0287-24-2484",
    "url": "",
    "pref": "栃木県",
    "city": "大田原市",
    "category": "day_service",
    "serviceType": "通所介護",
    "capacity": 0,
    "openDays": [
      "平日",
      "日曜日",
      "祝日"
    ],
    "openDaysNote": ""
  },
  {
    "id": "972500243",
    "name": "デイサービスセンター　ほのぼの園",
    "kana": "デイサービスセンター　ホノボノエン",
    "address": "栃木県大田原市湯津上5-989",
    "lat": 36.8252085,
    "lng": 140.1054834,
    "tel": "0287-98-3161",
    "url": "http://www.nasubm.co.jp/keifukukai/honobono/",
    "pref": "栃木県",
    "city": "大田原市",
    "category": "day_service",
    "serviceType": "通所介護",
    "capacity": null,
    "openDays": [
      "平日",
      "土曜日",
      "日曜日",
      "祝日"
    ],
    "openDaysNote": ""
  },
  {
    "id": "971000146",
    "name": "デイサービスセンター　やすらぎ舎",
    "kana": "デイサービスセンター　ヤスラギシャ",
    "address": "栃木県大田原市北大和久１番地３",
    "lat": 36.8451681,
    "lng": 140.0514707,
    "tel": "0287-20-1455",
    "url": "http://www.yasuragi1977.jp",
    "pref": "栃木県",
    "city": "大田原市",
    "category": "day_service",
    "serviceType": "通所介護",
    "capacity": 30,
    "openDays": [
      "平日",
      "土曜日",
      "日曜日",
      "祝日"
    ],
    "openDaysNote": ""
  },
  {
    "id": "971001409",
    "name": "デイサービスセンター春日和大田原",
    "kana": "デイサービスセンターハルビヨリオオタワラ",
    "address": "栃木県大田原市美原2-3255-5",
    "lat": 36.86203,
    "lng": 140.0028465,
    "tel": "0287-20-2117",
    "url": "https://www.worldstay.jp",
    "pref": "栃木県",
    "city": "大田原市",
    "category": "day_service",
    "serviceType": "通所介護",
    "capacity": 0,
    "openDays": [
      "平日",
      "土曜日",
      "日曜日",
      "祝日"
    ],
    "openDaysNote": ""
  },
  {
    "id": "971001383",
    "name": "デイサービス花はな",
    "kana": "デイサービスハナハナ",
    "address": "黒羽田町802番地10",
    "lat": 36.8617735598313,
    "lng": 140.120286733135,
    "tel": "0287-53-7687",
    "url": "",
    "pref": "栃木県",
    "city": "大田原市",
    "category": "day_service",
    "serviceType": "通所介護",
    "capacity": 25,
    "openDays": [
      "平日",
      "土曜日",
      "祝日"
    ],
    "openDaysNote": ""
  },
  {
    "id": "971000104",
    "name": "ニチイケアセンター大田原",
    "kana": "ニチイケアセンターオオタワラ",
    "address": "栃木県大田原市佐久山3227",
    "lat": 36.8085096,
    "lng": 140.0002461,
    "tel": "0287-28-7066",
    "url": "http://www.nichiigakkan.co.jp",
    "pref": "栃木県",
    "city": "大田原市",
    "category": "day_service",
    "serviceType": "通所介護",
    "capacity": 0,
    "openDays": [
      "平日",
      "土曜日",
      "祝日"
    ],
    "openDaysNote": ""
  },
  {
    "id": "971000492",
    "name": "ほっとアスターデイサービスセンター",
    "kana": "ホットアスターデイサービスセンター",
    "address": "栃木県大田原市前田８６３－５",
    "lat": 36.8670092,
    "lng": 140.1308688,
    "tel": "0287-54-0763",
    "url": "http://hotaster.com/",
    "pref": "栃木県",
    "city": "大田原市",
    "category": "day_service",
    "serviceType": "通所介護",
    "capacity": 0,
    "openDays": [
      "平日",
      "土曜日",
      "祝日"
    ],
    "openDaysNote": "現状、元旦・２日・３日は休日としています。（改行）毎週日曜日が休日となります。"
  },
  {
    "id": "971001292",
    "name": "家族の家ひまわり大田原",
    "kana": "カゾクノイエヒマワリオオタワラ",
    "address": "加治屋83-11",
    "lat": 36.8558269,
    "lng": 139.9965082,
    "tel": "0287-20-0005",
    "url": "http://www.saneido.co.jp/",
    "pref": "栃木県",
    "city": "大田原市",
    "category": "day_service",
    "serviceType": "通所介護",
    "capacity": null,
    "openDays": [
      "平日",
      "土曜日",
      "日曜日",
      "祝日"
    ],
    "openDaysNote": "延長時間は午前8時30分から午前9時30分まで及び午後4時30分から午後5時30分までとなります。"
  },
  {
    "id": "971000211",
    "name": "晴風園デイサービスセンター",
    "kana": "セイフウエンデイサービスセンター",
    "address": "栃木県大田原市下石上１２５８",
    "lat": 36.8518786,
    "lng": 139.9459609,
    "tel": "0287-29-0481",
    "url": "http://shiseikai-seifuen.com",
    "pref": "栃木県",
    "city": "大田原市",
    "category": "day_service",
    "serviceType": "通所介護",
    "capacity": null,
    "openDays": [
      "平日",
      "土曜日",
      "日曜日",
      "祝日"
    ],
    "openDaysNote": ""
  },
  {
    "id": "971001300",
    "name": "早稲田イーライフ大田原",
    "kana": "ワセダイーライフオオタワラ",
    "address": "栃木県大田原市中央1-3-15トコトコ大田原1F トコトコ大田原1F",
    "lat": 36.8684679,
    "lng": 140.025893,
    "tel": "0287-53-7390",
    "url": "",
    "pref": "栃木県",
    "city": "大田原市",
    "category": "day_service",
    "serviceType": "通所介護",
    "capacity": 190,
    "openDays": [
      "平日",
      "祝日"
    ],
    "openDaysNote": "祝日も月～金の場合営業"
  },
  {
    "id": "971000690",
    "name": "大田原ケアセンターそよ風",
    "kana": "オオタワラケアセンターソヨカゼ",
    "address": "栃木県大田原市新富町３－７－２４",
    "lat": 36.8621103,
    "lng": 140.0231269,
    "tel": "0287-20-2620",
    "url": "ohtawara@sykz.co.jp",
    "pref": "栃木県",
    "city": "大田原市",
    "category": "day_service",
    "serviceType": "通所介護",
    "capacity": 0,
    "openDays": [
      "平日",
      "土曜日",
      "日曜日",
      "祝日"
    ],
    "openDaysNote": ""
  },
  {
    "id": "971000237",
    "name": "老人デイサービスセンター　藍",
    "kana": "ロウジンデイサービスセンター　アイ",
    "address": "栃木県大田原市小滝１７－２２",
    "lat": 36.8965225,
    "lng": 140.0790162,
    "tel": "0287-20-5252",
    "url": "doai-ai@dream.ocn.ne.jp",
    "pref": "栃木県",
    "city": "大田原市",
    "category": "day_service",
    "serviceType": "通所介護",
    "capacity": 25,
    "openDays": [
      "平日",
      "土曜日",
      "祝日"
    ],
    "openDaysNote": ""
  },
  {
    "id": "972500268",
    "name": "老人デイサービスセンター山百合荘",
    "kana": "ロウジンデイサービスセンターヤマユリソウ",
    "address": "栃木県大田原市久野又８０７－１",
    "lat": 36.8899072,
    "lng": 140.1376703,
    "tel": "0287-59-8020",
    "url": "yamayuriso.com",
    "pref": "栃木県",
    "city": "大田原市",
    "category": "day_service",
    "serviceType": "通所介護",
    "capacity": 30,
    "openDays": [
      "平日",
      "土曜日",
      "日曜日",
      "祝日"
    ],
    "openDaysNote": ""
  },
  {
    "id": "970302360",
    "name": "あずみ苑栃木大町",
    "kana": "アズミエントチギダイチョウ",
    "address": "栃木県栃木市大町25-27",
    "lat": 36.396287,
    "lng": 139.7348263,
    "tel": "0282-24-4165",
    "url": "https://www.azumien.jp/search/tochigidaicho/",
    "pref": "栃木県",
    "city": "栃木市",
    "category": "day_service",
    "serviceType": "通所介護",
    "capacity": 0,
    "openDays": [
      "平日",
      "土曜日",
      "祝日"
    ],
    "openDaysNote": "1月1日、2日は定休日"
  },
  {
    "id": "970300232",
    "name": "うづまデイサービスセンター",
    "kana": "ウヅマデイサービスセンター",
    "address": "栃木県栃木市川原田町１６１０－２",
    "lat": 36.4067026,
    "lng": 139.7383376,
    "tel": "0282-25-2025",
    "url": "http://www.cc9.ne.jp/~koseikai/",
    "pref": "栃木県",
    "city": "栃木市",
    "category": "day_service",
    "serviceType": "通所介護",
    "capacity": 0,
    "openDays": [
      "平日",
      "祝日"
    ],
    "openDaysNote": ""
  },
  {
    "id": "970301396",
    "name": "ケアステーションあさひ　栃木",
    "kana": "ケアステーションアサヒ　トチギ",
    "address": "栃木県栃木市城内町2-10-13",
    "lat": 36.3750508,
    "lng": 139.7474801,
    "tel": "0282-20-8822",
    "url": "http://www.vati.co.jp/",
    "pref": "栃木県",
    "city": "栃木市",
    "category": "day_service",
    "serviceType": "通所介護",
    "capacity": 35,
    "openDays": [
      "平日",
      "土曜日",
      "日曜日",
      "祝日"
    ],
    "openDaysNote": ""
  },
  {
    "id": "970301552",
    "name": "ケアステーションあさひ栃木薗部町",
    "kana": "ケアステーションアサヒトチギソノベチョウ",
    "address": "薗部町4丁目1番49号",
    "lat": 36.3740515346971,
    "lng": 139.710609264418,
    "tel": "0282-20-1302",
    "url": "http://www.vati.co.jp/",
    "pref": "栃木県",
    "city": "栃木市",
    "category": "day_service",
    "serviceType": "通所介護",
    "capacity": 0,
    "openDays": [
      "平日",
      "土曜日",
      "日曜日",
      "祝日"
    ],
    "openDaysNote": ""
  },
  {
    "id": "970301792",
    "name": "ケアステーションあさひ栃木藤岡",
    "kana": "ケアステーションアサヒトチギフジオカ",
    "address": "栃木県栃木市藤岡町藤岡4287-1",
    "lat": 36.2857632,
    "lng": 139.6346445,
    "tel": "0282-61-2110",
    "url": "http://www.vati.co.jp/",
    "pref": "栃木県",
    "city": "栃木市",
    "category": "day_service",
    "serviceType": "通所介護",
    "capacity": null,
    "openDays": [
      "平日",
      "土曜日",
      "日曜日",
      "祝日"
    ],
    "openDaysNote": ""
  },
  {
    "id": "970301909",
    "name": "コープデイサービスセンター今泉",
    "kana": "コープデイサービスセンターイマイズミ",
    "address": "栃木県栃木市今泉町1丁目17-29",
    "lat": 36.386872,
    "lng": 139.7491016,
    "tel": "0282-28-0294",
    "url": "https://fureai-coop.com/",
    "pref": "栃木県",
    "city": "栃木市",
    "category": "day_service",
    "serviceType": "通所介護",
    "capacity": 0,
    "openDays": [
      "平日",
      "土曜日",
      "祝日"
    ],
    "openDaysNote": ""
  },
  {
    "id": "970302246",
    "name": "ツクイ栃木城内",
    "kana": "ツクイトチギジョウナイ",
    "address": "城内町2丁目24番24号",
    "lat": 36.372550393126,
    "lng": 139.7457110705,
    "tel": "0282-20-1255",
    "url": "https://www.tsukui.net/",
    "pref": "栃木県",
    "city": "栃木市",
    "category": "day_service",
    "serviceType": "通所介護",
    "capacity": null,
    "openDays": [
      "平日",
      "土曜日",
      "日曜日",
      "祝日"
    ],
    "openDaysNote": ""
  },
  {
    "id": "970301578",
    "name": "デイサービスあんず",
    "kana": "デイサービスアンズ",
    "address": "栃木県栃木市沼和田町42番28号",
    "lat": 36.3655713,
    "lng": 139.733032,
    "tel": "0282-51-1735",
    "url": "",
    "pref": "栃木県",
    "city": "栃木市",
    "category": "day_service",
    "serviceType": "通所介護",
    "capacity": 19,
    "openDays": [
      "平日",
      "土曜日",
      "祝日"
    ],
    "openDaysNote": "年末年始（12/30～1/3まで）を除く。"
  },
  {
    "id": "970301974",
    "name": "デイサービスセンター　みながわ桜",
    "kana": "デイサービスセンターミナガワサクラ",
    "address": "栃木県栃木市皆川城内町520番地",
    "lat": 36.3977087,
    "lng": 139.6893427,
    "tel": "0282-20-8770",
    "url": "minagawa-sakura.com",
    "pref": "栃木県",
    "city": "栃木市",
    "category": "day_service",
    "serviceType": "通所介護",
    "capacity": 0,
    "openDays": [
      "平日",
      "土曜日",
      "日曜日",
      "祝日"
    ],
    "openDaysNote": ""
  },
  {
    "id": "970302113",
    "name": "デイサービスセンターあいの杜とちぎ",
    "kana": "デイサービスセンターアイノモリトチギ",
    "address": "栃木県栃木市新井町1005-1",
    "lat": 36.4017614,
    "lng": 139.7112822,
    "tel": "0282-20-7716",
    "url": "https//:i-care.co.jp",
    "pref": "栃木県",
    "city": "栃木市",
    "category": "day_service",
    "serviceType": "通所介護",
    "capacity": null,
    "openDays": [
      "平日",
      "土曜日",
      "祝日"
    ],
    "openDaysNote": ""
  },
  {
    "id": "970301867",
    "name": "デイサービスセンターきらら",
    "kana": "デイサービスセンターキララ",
    "address": "大平町下皆川２０１９－１",
    "lat": 36.3508671,
    "lng": 139.7104244,
    "tel": "0282-88-1071",
    "url": "",
    "pref": "栃木県",
    "city": "栃木市",
    "category": "day_service",
    "serviceType": "通所介護",
    "capacity": 20,
    "openDays": [
      "平日",
      "土曜日",
      "祝日"
    ],
    "openDaysNote": ""
  },
  {
    "id": "972300404",
    "name": "デイサービスセンターふじいと",
    "kana": "デイサービスセンター　フジイト",
    "address": "栃木県栃木市都賀町臼久保301-1",
    "lat": 36.4359843,
    "lng": 139.7084231,
    "tel": "0282-92-0299",
    "url": "",
    "pref": "栃木県",
    "city": "栃木市",
    "category": "day_service",
    "serviceType": "通所介護",
    "capacity": 40,
    "openDays": [
      "平日",
      "土曜日",
      "祝日"
    ],
    "openDaysNote": ""
  },
  {
    "id": "970301032",
    "name": "デイサービスセンターみどり",
    "kana": "デイサービスセンターミドリ",
    "address": "栃木県栃木市平柳町3-42-13",
    "lat": 36.3944904,
    "lng": 139.7447071,
    "tel": "0282-29-1801",
    "url": "http://www.medical-green.com",
    "pref": "栃木県",
    "city": "栃木市",
    "category": "day_service",
    "serviceType": "通所介護",
    "capacity": 0,
    "openDays": [
      "平日",
      "土曜日",
      "日曜日",
      "祝日"
    ],
    "openDaysNote": ""
  },
  {
    "id": "970302410",
    "name": "デイサービスセンターみどり",
    "kana": "デイサービスセンターミドリ",
    "address": "平柳町3-42-13",
    "lat": 36.392875,
    "lng": 139.7447655,
    "tel": "0282-29-1801",
    "url": "https://sou-kaigo.jp",
    "pref": "栃木県",
    "city": "栃木市",
    "category": "day_service",
    "serviceType": "通所介護",
    "capacity": 30,
    "openDays": [
      "平日",
      "土曜日",
      "祝日"
    ],
    "openDaysNote": "年末年始12/30～1/3は定休となります。"
  },
  {
    "id": "970301669",
    "name": "デイサービスセンターみどりの郷",
    "kana": "デイサービスセンターミドリノサト",
    "address": "大平町下皆川133-2",
    "lat": 36.3489617,
    "lng": 139.7102682,
    "tel": "0282-45-1920",
    "url": "",
    "pref": "栃木県",
    "city": "栃木市",
    "category": "day_service",
    "serviceType": "通所介護",
    "capacity": 22,
    "openDays": [
      "平日",
      "土曜日",
      "祝日"
    ],
    "openDaysNote": ""
  },
  {
    "id": "972200117",
    "name": "デイサービスセンター雅の風",
    "kana": "デイサービスセンターミヤビノカゼ",
    "address": "栃木県栃木市西方町金崎４０３－１",
    "lat": 36.4691706,
    "lng": 139.7451823,
    "tel": "0282-92-0533",
    "url": "http://miyabinokaze.com",
    "pref": "栃木県",
    "city": "栃木市",
    "category": "day_service",
    "serviceType": "通所介護",
    "capacity": null,
    "openDays": [
      "平日",
      "土曜日",
      "祝日"
    ],
    "openDaysNote": ""
  },
  {
    "id": "970302097",
    "name": "デイサービスセンター常若の杜みながわ",
    "kana": "デイサービスセンタートコワカノモリミナガワ",
    "address": "皆川城内町1771-1",
    "lat": 36.3915851,
    "lng": 139.6821245,
    "tel": "0282-25-6996",
    "url": "https://taishinokai.or.jp/",
    "pref": "栃木県",
    "city": "栃木市",
    "category": "day_service",
    "serviceType": "通所介護",
    "capacity": null,
    "openDays": [
      "平日",
      "土曜日",
      "祝日"
    ],
    "openDaysNote": ""
  },
  {
    "id": "970301271",
    "name": "デイサービスセンター湯っくり",
    "kana": "デイサービスセンターユックリ",
    "address": "栃木県栃木市川原田町２３８番地２",
    "lat": 36.4027169,
    "lng": 139.7346547,
    "tel": "0282-22-5484",
    "url": "http://hp.kaipoke.biz/32r/",
    "pref": "栃木県",
    "city": "栃木市",
    "category": "day_service",
    "serviceType": "通所介護",
    "capacity": 30,
    "openDays": [
      "平日",
      "土曜日",
      "祝日"
    ],
    "openDaysNote": "年末年始休業あり。"
  },
  {
    "id": "970302238",
    "name": "デイサービス家中",
    "kana": "デイサービスイエナカ",
    "address": "栃木県栃木市都賀町家中2195番地",
    "lat": 36.4252465,
    "lng": 139.748363,
    "tel": "0282-28-0005",
    "url": "https://tsuga-central-clinic.com/ienaka.html",
    "pref": "栃木県",
    "city": "栃木市",
    "category": "day_service",
    "serviceType": "通所介護",
    "capacity": 0,
    "openDays": [
      "平日",
      "土曜日",
      "祝日"
    ],
    "openDaysNote": ""
  },
  {
    "id": "972200224",
    "name": "デイサービス真名子",
    "kana": "デイサービスマナゴ",
    "address": "栃木県栃木市西方町真名子1400-1",
    "lat": 36.4768695,
    "lng": 139.6935704,
    "tel": "0282-92-0909",
    "url": "http://www.tochigishi-shakyo.or.jp/",
    "pref": "栃木県",
    "city": "栃木市",
    "category": "day_service",
    "serviceType": "通所介護",
    "capacity": 0,
    "openDays": [
      "平日",
      "土曜日",
      "祝日"
    ],
    "openDaysNote": ""
  },
  {
    "id": "972300487",
    "name": "デイサービス八州苑",
    "kana": "デイサービスハッシュウエン",
    "address": "栃木県栃木市藤岡町太田1394番地1",
    "lat": 36.307873699499,
    "lng": 139.648651976721,
    "tel": "0282-61-1171",
    "url": "https://www.mokusuikai.com/",
    "pref": "栃木県",
    "city": "栃木市",
    "category": "day_service",
    "serviceType": "通所介護",
    "capacity": 0,
    "openDays": [
      "平日",
      "土曜日",
      "日曜日",
      "祝日"
    ],
    "openDaysNote": ""
  },
  {
    "id": "970300950",
    "name": "デイサービス福寿園（平成22年度新規指定事業所）",
    "kana": "デイサービスフクジュエン",
    "address": "栃木市千塚町２１０",
    "lat": 36.4155919,
    "lng": 139.6928151,
    "tel": "0282-31-3666",
    "url": "http://www.cc9.ne.jp/~tochigishishakyo/",
    "pref": "栃木県",
    "city": "栃木市",
    "category": "day_service",
    "serviceType": "通所介護",
    "capacity": 35,
    "openDays": [
      "平日",
      "土曜日",
      "祝日"
    ],
    "openDaysNote": ""
  },
  {
    "id": "970302170",
    "name": "デイホーム孫の手・とちぎ",
    "kana": "デイホームマゴノテ・トチギ",
    "address": "栃木県栃木市柳橋町22-7",
    "lat": 36.3832130246488,
    "lng": 139.720732603566,
    "tel": "0282-25-0088",
    "url": "https://magonote-inc.jp/service/day/tochigi/tochigi/",
    "pref": "栃木県",
    "city": "栃木市",
    "category": "day_service",
    "serviceType": "通所介護",
    "capacity": 50,
    "openDays": [
      "平日",
      "土曜日",
      "祝日"
    ],
    "openDaysNote": ""
  },
  {
    "id": "970300133",
    "name": "ニチイケアセンター栃木",
    "kana": "ニチイケアセンタートチギ",
    "address": "栃木県栃木市平柳町３－３８－１０",
    "lat": 36.3971484,
    "lng": 139.7442181,
    "tel": "0282-29-3081",
    "url": "http://www.nichiigakkan.co.jp",
    "pref": "栃木県",
    "city": "栃木市",
    "category": "day_service",
    "serviceType": "通所介護",
    "capacity": 0,
    "openDays": [
      "平日",
      "土曜日",
      "祝日"
    ],
    "openDaysNote": "諸事情につき営業できない日を定休日とする。"
  },
  {
    "id": "970302295",
    "name": "はまリハDayスタジオ大平",
    "kana": "ハマリハデイスタジオオオヒラ",
    "address": "大平町西野田202-1",
    "lat": 36.3254252,
    "lng": 139.7133569,
    "tel": "0282-25-7022",
    "url": "https://hama-reha.co.jp/",
    "pref": "栃木県",
    "city": "栃木市",
    "category": "day_service",
    "serviceType": "通所介護",
    "capacity": 0,
    "openDays": [
      "平日"
    ],
    "openDaysNote": ""
  },
  {
    "id": "970301289",
    "name": "丸光ケアサービス株式会社デイサービスさんさん栃木",
    "kana": "マルミツケアサービスカブシキガイシャデイサービスサンサントチギ",
    "address": "栃木県栃木市箱森町50-15",
    "lat": 36.3972173,
    "lng": 139.7272141,
    "tel": "0282-21-7443",
    "url": "https://marumitsu-care.co.jp/company/",
    "pref": "栃木県",
    "city": "栃木市",
    "category": "day_service",
    "serviceType": "通所介護",
    "capacity": 0,
    "openDays": [
      "平日",
      "土曜日",
      "祝日"
    ],
    "openDaysNote": ""
  },
  {
    "id": "972301121",
    "name": "腰塚デイサービスセンターなごみ",
    "kana": "コシヅカデイサービスセンターナゴミ",
    "address": "栃木県栃木市藤岡町藤岡1822番地1",
    "lat": 36.2519672,
    "lng": 139.6485912,
    "tel": "0282-61-2230",
    "url": "",
    "pref": "栃木県",
    "city": "栃木市",
    "category": "day_service",
    "serviceType": "通所介護",
    "capacity": 25,
    "openDays": [
      "平日",
      "祝日"
    ],
    "openDaysNote": ""
  },
  {
    "id": "970301982",
    "name": "自由選択型デイサービスちょいす",
    "kana": "ジユウセンタクガタデイサービスチョイス",
    "address": "栃木県栃木市片柳町5-7-22",
    "lat": 36.3713582,
    "lng": 139.7131175,
    "tel": "0282-25-7721",
    "url": "https//www.i-care.co.jp",
    "pref": "栃木県",
    "city": "栃木市",
    "category": "day_service",
    "serviceType": "通所介護",
    "capacity": null,
    "openDays": [
      "平日",
      "祝日"
    ],
    "openDaysNote": ""
  },
  {
    "id": "972300628",
    "name": "社会福祉法人スイートホームひまわり",
    "kana": "シャカイフクシホウジンスイートホームヒマワリ",
    "address": "栃木県栃木市都賀町原宿１４２４－１",
    "lat": 36.4381208,
    "lng": 139.7291903,
    "tel": "0282-29-3232",
    "url": "http://www.tochigi-himawari.jp",
    "pref": "栃木県",
    "city": "栃木市",
    "category": "day_service",
    "serviceType": "通所介護",
    "capacity": 33,
    "openDays": [
      "平日",
      "土曜日",
      "祝日"
    ],
    "openDaysNote": "上記時間以外でも、２４時間電話にて対応可能です。"
  },
  {
    "id": "970300091",
    "name": "星風会デイサービスセンター",
    "kana": "セイフウカイ　デイサービスセンター",
    "address": "栃木県栃木市惣社町137-1番地",
    "lat": 36.3997632,
    "lng": 139.7817403,
    "tel": "0282-27-8511",
    "url": "http://www.sfk.or.jp/",
    "pref": "栃木県",
    "city": "栃木市",
    "category": "day_service",
    "serviceType": "通所介護",
    "capacity": 35,
    "openDays": [
      "平日",
      "土曜日",
      "祝日"
    ],
    "openDaysNote": "8:30以前、（改行）16：30の送迎終了後は、ご家族の送迎となる。"
  },
  {
    "id": "970301222",
    "name": "星風会デイサービスセンターおおひら",
    "kana": "セイフウカイデイサービスセンターオオヒラ",
    "address": "栃木県栃木市大平町西水代1930-1",
    "lat": 36.3201934,
    "lng": 139.7106166,
    "tel": "0282-45-2770",
    "url": "http://www.or.jp/",
    "pref": "栃木県",
    "city": "栃木市",
    "category": "day_service",
    "serviceType": "通所介護",
    "capacity": 0,
    "openDays": [
      "平日",
      "土曜日",
      "祝日"
    ],
    "openDaysNote": ""
  },
  {
    "id": "970301479",
    "name": "星風会デイサービスセンターとちぎ泉川",
    "kana": "セイフウカイデイサービスセンタートチギイズミガワ",
    "address": "栃木県栃木市泉川町73番地1",
    "lat": 36.387568,
    "lng": 139.7121275,
    "tel": "0282-20-2112",
    "url": "http://www.sfk.or.jp/",
    "pref": "栃木県",
    "city": "栃木市",
    "category": "day_service",
    "serviceType": "通所介護",
    "capacity": 15,
    "openDays": [
      "平日",
      "土曜日",
      "祝日"
    ],
    "openDaysNote": "年末年始の休業については事前に通知あり（変動する場合有）"
  },
  {
    "id": "970300992",
    "name": "大平高齢者デイサービスセンターまゆみ（平成22年度新規指定事業所）",
    "kana": "オオヒラコウレイシャデイサービスセンターマユミ",
    "address": "栃木県栃木市大平町真弓1438",
    "lat": 36.3366022,
    "lng": 139.7191869,
    "tel": "0282-45-1726",
    "url": "",
    "pref": "栃木県",
    "city": "栃木市",
    "category": "day_service",
    "serviceType": "通所介護",
    "capacity": 0,
    "openDays": [
      "平日",
      "土曜日"
    ],
    "openDaysNote": ""
  },
  {
    "id": "970300570",
    "name": "通所介護事業所　まろにえ四季の里",
    "kana": "ツウショカイゴジギョウショ　マロニエシキノサト",
    "address": "栃木県栃木市大宮町2023-3",
    "lat": 36.3926993,
    "lng": 139.7563479,
    "tel": "0282-27-8501",
    "url": "http://souwakai.or.jp/",
    "pref": "栃木県",
    "city": "栃木市",
    "category": "day_service",
    "serviceType": "通所介護",
    "capacity": 20,
    "openDays": [
      "平日",
      "土曜日",
      "祝日"
    ],
    "openDaysNote": "利用者の希望により20時まで延長する"
  },
  {
    "id": "970300042",
    "name": "特別養護老人ホーム　レユーナ",
    "kana": "トクベツヨウゴロウジンホーム　レユーナ",
    "address": "栃木県栃木市箱森町１－１４",
    "lat": 36.3850493,
    "lng": 139.7273926,
    "tel": "0282-22-6033",
    "url": "http://www.reyuna.com",
    "pref": "栃木県",
    "city": "栃木市",
    "category": "day_service",
    "serviceType": "通所介護",
    "capacity": 0,
    "openDays": [
      "平日",
      "祝日"
    ],
    "openDaysNote": ""
  },
  {
    "id": "972300172",
    "name": "特別養護老人ホーム清松園",
    "kana": "トクベツヨウゴロウジンホームセイショウエン",
    "address": "栃木県栃木市岩舟町和泉８１６",
    "lat": 36.3239173,
    "lng": 139.6717759,
    "tel": "0282-55-6677",
    "url": "http://seisho.s-y.gr.com/",
    "pref": "栃木県",
    "city": "栃木市",
    "category": "day_service",
    "serviceType": "通所介護",
    "capacity": 29,
    "openDays": [
      "平日",
      "土曜日",
      "祝日"
    ],
    "openDaysNote": ""
  },
  {
    "id": "972300313",
    "name": "特別養護老人ホーム緑風苑　通所介護事業所",
    "kana": "トクベツヨウゴロウジンホームリョクフウエン　ツウショカイゴジギョウショ",
    "address": "栃木県栃木市藤岡町中根355-2",
    "lat": 36.2845761665349,
    "lng": 139.68906706627,
    "tel": "0282-67-3922",
    "url": "http://www.ryokufuen.or.jp/",
    "pref": "栃木県",
    "city": "栃木市",
    "category": "day_service",
    "serviceType": "通所介護",
    "capacity": 20,
    "openDays": [
      "平日",
      "土曜日",
      "祝日"
    ],
    "openDaysNote": ""
  },
  {
    "id": "970300638",
    "name": "栃木ケアサポートひまわり　デイサービスセンター",
    "kana": "トチギケアサポートヒマワリ　ディサービスセンター",
    "address": "栃木県栃木市川原田町前野　254-10",
    "lat": 36.4047180150242,
    "lng": 139.733170800525,
    "tel": "0282-23-6009",
    "url": "https://tcs-himawari.co.jp",
    "pref": "栃木県",
    "city": "栃木市",
    "category": "day_service",
    "serviceType": "通所介護",
    "capacity": 30,
    "openDays": [
      "平日",
      "土曜日",
      "祝日"
    ],
    "openDaysNote": "御希望時、朝８時以降のお迎え可能です。"
  },
  {
    "id": "970300398",
    "name": "栃木ケアセンターそよ風",
    "kana": "トチギケアセンターソヨカゼ",
    "address": "栃木県栃木市沼和田町9-27",
    "lat": 36.3692846,
    "lng": 139.7294933,
    "tel": "0282-20-5436",
    "url": "http://www.unimat-soyokaze.co.jp",
    "pref": "栃木県",
    "city": "栃木市",
    "category": "day_service",
    "serviceType": "通所介護",
    "capacity": 10,
    "openDays": [
      "平日",
      "土曜日",
      "祝日"
    ],
    "openDaysNote": ""
  },
  {
    "id": "970300414",
    "name": "有限会社　栃木ケアーズ",
    "kana": "ユウゲンガイシャ　トチギケアーズ",
    "address": "栃木県栃木市箱森町19-34",
    "lat": 36.3899985,
    "lng": 139.7205596,
    "tel": "0282-25-0550",
    "url": "http://www.t-cares.co.jp",
    "pref": "栃木県",
    "city": "栃木市",
    "category": "day_service",
    "serviceType": "通所介護",
    "capacity": 0,
    "openDays": [
      "平日",
      "土曜日",
      "祝日"
    ],
    "openDaysNote": ""
  },
  {
    "id": "970301610",
    "name": "老人デイサービスセンター　蔵の街ひまわり",
    "kana": "ロウジンデイサービスセンター　　クラノマチヒマワリ",
    "address": "栃木県栃木市城内町2丁目17番23号",
    "lat": 36.3715211,
    "lng": 139.7519023,
    "tel": "0282-21-8807",
    "url": "",
    "pref": "栃木県",
    "city": "栃木市",
    "category": "day_service",
    "serviceType": "通所介護",
    "capacity": 0,
    "openDays": [
      "平日",
      "土曜日",
      "祝日"
    ],
    "openDaysNote": ""
  },
  {
    "id": "972501340",
    "name": "JAなす南デイサービスセンターえがお",
    "kana": "ジェイエイナスミナミデイサービスセンターエガオ",
    "address": "栃木県那須郡那珂川町大山田下郷1275番地１",
    "lat": 36.7889541,
    "lng": 140.2173116,
    "tel": "0287-93-6050",
    "url": "",
    "pref": "栃木県",
    "city": "那珂川町",
    "category": "day_service",
    "serviceType": "通所介護",
    "capacity": 0,
    "openDays": [
      "平日",
      "祝日"
    ],
    "openDaysNote": ""
  },
  {
    "id": "972501076",
    "name": "那珂川町社協介護サービス事業所",
    "kana": "ナカガワマチシャキョウカイゴサービスジギョウショ",
    "address": "栃木県那須郡那珂川町馬頭５６０－１",
    "lat": 36.7361756,
    "lng": 140.1736232,
    "tel": "0287-92-1273",
    "url": "http://nakagawa.syakyo.com",
    "pref": "栃木県",
    "city": "那珂川町",
    "category": "day_service",
    "serviceType": "通所介護",
    "capacity": 0,
    "openDays": [
      "平日"
    ],
    "openDaysNote": ""
  },
  {
    "id": "972500227",
    "name": "八溝の里　デイサービスセンター",
    "kana": "ヤミゾノサト　デイサービスセンター",
    "address": "栃木県那須郡那珂川町久那瀬５４４－１",
    "lat": 36.7262544,
    "lng": 140.1514029,
    "tel": "0287-92-0012",
    "url": "",
    "pref": "栃木県",
    "city": "那珂川町",
    "category": "day_service",
    "serviceType": "通所介護",
    "capacity": 0,
    "openDays": [
      "平日",
      "祝日"
    ],
    "openDaysNote": "-"
  },
  {
    "id": "972501407",
    "name": "老人デイサービスセンター　まほろば",
    "kana": "ロウジンデイサービスセンター　マホロバ",
    "address": "栃木県那須郡那珂川町小川2958－2",
    "lat": 36.7607799,
    "lng": 140.1197619,
    "tel": "0287－96－7330",
    "url": "http://www.katakurinosato.jp",
    "pref": "栃木県",
    "city": "那珂川町",
    "category": "day_service",
    "serviceType": "通所介護",
    "capacity": null,
    "openDays": [
      "平日",
      "土曜日",
      "祝日"
    ],
    "openDaysNote": ""
  },
  {
    "id": "972500334",
    "name": "老人デイサービスセンター　リヴレット",
    "kana": "ロウジンデイサービスセンター　リヴレット",
    "address": "栃木県那須郡那珂川町芳井８４０－４",
    "lat": 36.77546,
    "lng": 140.0701076,
    "tel": "0287-96-5555",
    "url": "",
    "pref": "栃木県",
    "city": "那珂川町",
    "category": "day_service",
    "serviceType": "通所介護",
    "capacity": 10,
    "openDays": [
      "平日",
      "土曜日",
      "祝日"
    ],
    "openDaysNote": "上記以外の時間にも相談に応じる"
  },
  {
    "id": "972500540",
    "name": "ＪＡなす南デイサービスセンターひまわり",
    "kana": "ジェイエイナスミナミデイサービスセンターヒマワリ",
    "address": "栃木県那須烏山市熊田268番地2",
    "lat": 36.686731352999,
    "lng": 140.10905200181,
    "tel": "0287-88-2251",
    "url": "",
    "pref": "栃木県",
    "city": "那須烏山市",
    "category": "day_service",
    "serviceType": "通所介護",
    "capacity": 0,
    "openDays": [
      "平日",
      "祝日"
    ],
    "openDaysNote": ""
  },
  {
    "id": "971500210",
    "name": "JOYSフィットネスクラブ",
    "kana": "ジョイズフィットネスクラブ",
    "address": "栃木県那須烏山市田野倉48-7リエゾンコミュニティラボ リエゾンコミュニティラボ",
    "lat": 36.6564684,
    "lng": 140.0829646,
    "tel": "0287-83-8872",
    "url": "https://keiaikai-nasukarasuyama.com/",
    "pref": "栃木県",
    "city": "那須烏山市",
    "category": "day_service",
    "serviceType": "通所介護",
    "capacity": 0,
    "openDays": [
      "平日",
      "祝日"
    ],
    "openDaysNote": ""
  },
  {
    "id": "971500038",
    "name": "デイサービスセンター大金の里",
    "kana": "デイサービスセンターオオガネノサト",
    "address": "栃木県那須烏山市田野倉528番地2",
    "lat": 36.6528951,
    "lng": 140.0865178,
    "tel": "0287-88-5580",
    "url": "erimu.jp",
    "pref": "栃木県",
    "city": "那須烏山市",
    "category": "day_service",
    "serviceType": "通所介護",
    "capacity": 0,
    "openDays": [
      "平日"
    ],
    "openDaysNote": ""
  },
  {
    "id": "972500789",
    "name": "ほっとからすやまデイサービスセンター",
    "kana": "ホットカラスヤマデイサービスセンター",
    "address": "栃木県那須烏山市野上1623-1",
    "lat": 36.6369904,
    "lng": 140.1596039,
    "tel": "0287-80-0515",
    "url": "https://www.hot-claire.co.jp",
    "pref": "栃木県",
    "city": "那須烏山市",
    "category": "day_service",
    "serviceType": "通所介護",
    "capacity": 0,
    "openDays": [
      "平日",
      "土曜日",
      "祝日"
    ],
    "openDaysNote": "前年度は年末３１日まで営業、年始１日より3日まで休日"
  },
  {
    "id": "971500202",
    "name": "リハビリステーション歩",
    "kana": "リハビリテーションアユム",
    "address": "栃木県那須烏山市興野776－2",
    "lat": 36.6734861,
    "lng": 140.1637822,
    "tel": "0287－83－8175",
    "url": "",
    "pref": "栃木県",
    "city": "那須烏山市",
    "category": "day_service",
    "serviceType": "通所介護",
    "capacity": 40,
    "openDays": [
      "平日",
      "祝日"
    ],
    "openDaysNote": ""
  },
  {
    "id": "972500862",
    "name": "烏山ケアステージとちの木",
    "kana": "カラスヤマケアステージトチノキ",
    "address": "栃木県那須烏山市神長487-5",
    "lat": 36.6631477,
    "lng": 140.1346712,
    "tel": "0287-80-0818",
    "url": "https://karasuyama-tochinoki.jimdofree.com/",
    "pref": "栃木県",
    "city": "那須烏山市",
    "category": "day_service",
    "serviceType": "通所介護",
    "capacity": 0,
    "openDays": [
      "平日",
      "土曜日",
      "祝日"
    ],
    "openDaysNote": ""
  },
  {
    "id": "972500045",
    "name": "特別養護老人ホーム　愛和苑",
    "kana": "トクベツヨウゴロウジンホーム　アイワエン",
    "address": "栃木県那須烏山市三箇183-1",
    "lat": 36.6912674,
    "lng": 140.0742361,
    "tel": "0287-88-0311",
    "url": "http://www.seisyu-kai.net/",
    "pref": "栃木県",
    "city": "那須烏山市",
    "category": "day_service",
    "serviceType": "通所介護",
    "capacity": 0,
    "openDays": [
      "平日",
      "土曜日",
      "祝日"
    ],
    "openDaysNote": ""
  },
  {
    "id": "972500342",
    "name": "特別養護老人ホーム敬愛荘",
    "kana": "トクベツヨウゴロウジンホームケイアイソウ",
    "address": "栃木県那須烏山市滝田１８６７－３",
    "lat": 36.6769213,
    "lng": 140.1456223,
    "tel": "0287-84-1176",
    "url": "http://www.syahukukeiaikai.or.jp",
    "pref": "栃木県",
    "city": "那須烏山市",
    "category": "day_service",
    "serviceType": "通所介護",
    "capacity": 0,
    "openDays": [
      "平日",
      "土曜日",
      "日曜日",
      "祝日"
    ],
    "openDaysNote": ""
  },
  {
    "id": "971200340",
    "name": "くろいそケアセンターそよ風",
    "kana": "クロイソケアセンターソヨカゼ",
    "address": "栃木県那須塩原市豊浦南町83-120",
    "lat": 36.962656,
    "lng": 140.0387727,
    "tel": "0287-60-7851",
    "url": "",
    "pref": "栃木県",
    "city": "那須塩原市",
    "category": "day_service",
    "serviceType": "通所介護",
    "capacity": 0,
    "openDays": [
      "平日",
      "土曜日",
      "日曜日",
      "祝日"
    ],
    "openDaysNote": ""
  },
  {
    "id": "971300140",
    "name": "ケアステーション「たかばやし」",
    "kana": "ケアステーション「タカバヤシ」",
    "address": "栃木県那須塩原市高林476番地1",
    "lat": 36.9872643,
    "lng": 139.9415058,
    "tel": "0287-68-1116",
    "url": "",
    "pref": "栃木県",
    "city": "那須塩原市",
    "category": "day_service",
    "serviceType": "通所介護",
    "capacity": 30,
    "openDays": [
      "平日",
      "土曜日",
      "祝日"
    ],
    "openDaysNote": ""
  },
  {
    "id": "971301742",
    "name": "けあすてーしょんあさひくろいそ",
    "kana": "ケアステーションアサヒ黒磯",
    "address": "栃木県那須塩原市豊浦北町69-65",
    "lat": 36.9775194,
    "lng": 140.0395223,
    "tel": "0287-73-2310",
    "url": "",
    "pref": "栃木県",
    "city": "那須塩原市",
    "category": "day_service",
    "serviceType": "通所介護",
    "capacity": 0,
    "openDays": [
      "平日",
      "土曜日",
      "日曜日",
      "祝日"
    ],
    "openDaysNote": ""
  },
  {
    "id": "971301486",
    "name": "ケアセンターきらきらりん",
    "kana": "ケアセンターキラキラリン",
    "address": "鍋掛１４７６－１３９",
    "lat": 36.9450698,
    "lng": 140.0821169,
    "tel": "０２８７－６３－０９１４",
    "url": "",
    "pref": "栃木県",
    "city": "那須塩原市",
    "category": "day_service",
    "serviceType": "通所介護",
    "capacity": 0,
    "openDays": [
      "平日",
      "祝日"
    ],
    "openDaysNote": ""
  },
  {
    "id": "971300454",
    "name": "さくらケアセンター",
    "kana": "サクラケアセンター",
    "address": "那須塩原市佐野26ー1",
    "lat": 36.934359,
    "lng": 140.0492611,
    "tel": "0287-62-9557",
    "url": "",
    "pref": "栃木県",
    "city": "那須塩原市",
    "category": "day_service",
    "serviceType": "通所介護",
    "capacity": null,
    "openDays": [
      "平日",
      "土曜日",
      "祝日"
    ],
    "openDaysNote": ""
  },
  {
    "id": "971301023",
    "name": "ステップリハビリ・那須",
    "kana": "ステップリハビリ・ナス",
    "address": "栃木県那須塩原市下永田五丁目１３５６番地６",
    "lat": 36.8835763,
    "lng": 139.9924404,
    "tel": "0287－48－6162",
    "url": "https://step-rehabili-nasu.com/",
    "pref": "栃木県",
    "city": "那須塩原市",
    "category": "day_service",
    "serviceType": "通所介護",
    "capacity": 28,
    "openDays": [
      "平日",
      "土曜日",
      "祝日"
    ],
    "openDaysNote": ""
  },
  {
    "id": "971301197",
    "name": "デイサービス　あおば",
    "kana": "デイサービス　アオバ",
    "address": "栃木県那須塩原市大原間西1－19－6",
    "lat": 36.929655113815,
    "lng": 140.015519765607,
    "tel": "0287－65－3070",
    "url": "meitokusha.jp",
    "pref": "栃木県",
    "city": "那須塩原市",
    "category": "day_service",
    "serviceType": "通所介護",
    "capacity": 30,
    "openDays": [
      "平日",
      "土曜日",
      "祝日"
    ],
    "openDaysNote": "12月31日から1月3日は休みとなります。"
  },
  {
    "id": "971301411",
    "name": "デイサービス・ファインド健康クラブ",
    "kana": "デイサービス・ファインドケンコウクラブ",
    "address": "栃木県那須塩原市扇町10番5号",
    "lat": 36.8848719,
    "lng": 139.9827634,
    "tel": "287475559",
    "url": "http://findkenkou.com",
    "pref": "栃木県",
    "city": "那須塩原市",
    "category": "day_service",
    "serviceType": "通所介護",
    "capacity": 45,
    "openDays": [
      "平日",
      "祝日"
    ],
    "openDaysNote": "月曜日から金曜日の祝日は通常営業で、土曜日、日曜日にかかる祝日はお休みとなります。（改行）8月13日～16日、12月29日～1月3日は、お休みとなります。"
  },
  {
    "id": "971301189",
    "name": "デイサービス“バーム”",
    "kana": "デイサービスバーム",
    "address": "春日町１２１－５１４",
    "lat": 36.9684608,
    "lng": 140.0305006,
    "tel": "0287-73-5771",
    "url": "https://www.shika-forest.jp",
    "pref": "栃木県",
    "city": "那須塩原市",
    "category": "day_service",
    "serviceType": "通所介護",
    "capacity": null,
    "openDays": [
      "平日",
      "土曜日"
    ],
    "openDaysNote": ""
  },
  {
    "id": "971200498",
    "name": "デイサービススマイリア",
    "kana": "デイサービススマイリア",
    "address": "栃木県那須塩原市松浦町121-470",
    "lat": 36.9671465,
    "lng": 140.033894,
    "tel": "0287-74-5456",
    "url": "",
    "pref": "栃木県",
    "city": "那須塩原市",
    "category": "day_service",
    "serviceType": "通所介護",
    "capacity": 0,
    "openDays": [
      "平日"
    ],
    "openDaysNote": ""
  },
  {
    "id": "971300355",
    "name": "デイサービスセンター　松の実",
    "kana": "デイサービスセンター　マツノミ",
    "address": "栃木県那須塩原市百村3042-31",
    "lat": 37.0471015,
    "lng": 139.9391458,
    "tel": "0287-69-0053",
    "url": "http://www.kousaikai-itamuro.or.jp",
    "pref": "栃木県",
    "city": "那須塩原市",
    "category": "day_service",
    "serviceType": "通所介護",
    "capacity": 0,
    "openDays": [
      "平日",
      "祝日"
    ],
    "openDaysNote": ""
  },
  {
    "id": "971200399",
    "name": "デイサービスセンター安暮里",
    "kana": "デイサービスセンターアグリ",
    "address": "那須塩原市鍋掛1416-3",
    "lat": 36.9511383,
    "lng": 140.0660427,
    "tel": "0287-73-2550",
    "url": "http://www.keifukukai.com",
    "pref": "栃木県",
    "city": "那須塩原市",
    "category": "day_service",
    "serviceType": "通所介護",
    "capacity": 0,
    "openDays": [
      "平日",
      "土曜日",
      "日曜日",
      "祝日"
    ],
    "openDaysNote": ""
  },
  {
    "id": "971301734",
    "name": "デイサービスセンター春日和　西那須野",
    "kana": "デイサービスセンターハルビヨリ　ニシナスノ",
    "address": "栃木県那須塩原市井口532-8",
    "lat": 36.9088373,
    "lng": 139.9778006,
    "tel": "0287-36-6911",
    "url": "https://www.worldstay.jp",
    "pref": "栃木県",
    "city": "那須塩原市",
    "category": "day_service",
    "serviceType": "通所介護",
    "capacity": 0,
    "openDays": [
      "平日",
      "土曜日",
      "日曜日",
      "祝日"
    ],
    "openDaysNote": ""
  },
  {
    "id": "971301726",
    "name": "デイサービスセンター春日和　那須塩原",
    "kana": "デイサービスセンターハルビヨリ　ナスシオバラ",
    "address": "栃木県那須塩原市沓掛2-1-6",
    "lat": 36.9335305,
    "lng": 140.0188993,
    "tel": "0287-65-2351",
    "url": "https://www.worldstay.jp",
    "pref": "栃木県",
    "city": "那須塩原市",
    "category": "day_service",
    "serviceType": "通所介護",
    "capacity": 0,
    "openDays": [
      "平日",
      "土曜日",
      "日曜日",
      "祝日"
    ],
    "openDaysNote": ""
  },
  {
    "id": "971301841",
    "name": "デイサービスセンター春日和黒磯",
    "kana": "デイサービスセンターハルビヨリクロイソ",
    "address": "栃木県那須塩原市埼玉字稲村6-1378",
    "lat": 36.9807334465699,
    "lng": 140.019111674012,
    "tel": "0287-73-6606",
    "url": "https://worldstay.jp/",
    "pref": "栃木県",
    "city": "那須塩原市",
    "category": "day_service",
    "serviceType": "通所介護",
    "capacity": null,
    "openDays": [
      "平日",
      "土曜日",
      "日曜日",
      "祝日"
    ],
    "openDaysNote": ""
  },
  {
    "id": "972500318",
    "name": "デイサービスセンター栃の実荘",
    "kana": "デイサービスセンタートチノミソウ",
    "address": "栃木県那須塩原市井口533-20",
    "lat": 36.9105677405317,
    "lng": 139.973919629614,
    "tel": "0287-37-5531",
    "url": "http://hoyukai.iuhw.ac.jp/tochinomisou/",
    "pref": "栃木県",
    "city": "那須塩原市",
    "category": "day_service",
    "serviceType": "通所介護",
    "capacity": 0,
    "openDays": [
      "平日",
      "土曜日",
      "日曜日",
      "祝日"
    ],
    "openDaysNote": ""
  },
  {
    "id": "971300314",
    "name": "デイサービスにしいわさき",
    "kana": "デイサービスニシイワサキ",
    "address": "那須塩原市西岩崎233-315",
    "lat": 37.0292987,
    "lng": 139.9853686,
    "tel": "0287-62-1902",
    "url": "",
    "pref": "栃木県",
    "city": "那須塩原市",
    "category": "day_service",
    "serviceType": "通所介護",
    "capacity": 0,
    "openDays": [
      "平日",
      "土曜日",
      "祝日"
    ],
    "openDaysNote": ""
  },
  {
    "id": "971301643",
    "name": "デイサービスわたしン家愉楽",
    "kana": "デイサービスワタシンチユラク",
    "address": "栃木県那須塩原市橋本町８番５０号",
    "lat": 36.977079,
    "lng": 140.055748,
    "tel": "0287-73-2222",
    "url": "",
    "pref": "栃木県",
    "city": "那須塩原市",
    "category": "day_service",
    "serviceType": "通所介護",
    "capacity": null,
    "openDays": [
      "平日",
      "土曜日",
      "祝日"
    ],
    "openDaysNote": "サービス提供時間に関しては午前９時から午後４時４５分"
  },
  {
    "id": "971300744",
    "name": "デイサービス松の家塩原温泉",
    "kana": "デイサービスマツノイエシオバラオンセン",
    "address": "栃木県那須塩原市関谷１４２５番地２１１号",
    "lat": 36.9596071,
    "lng": 139.8803267,
    "tel": "０２８７-４８-６５７０",
    "url": "http://www.matsunoie.com/shiobara_index.html",
    "pref": "栃木県",
    "city": "那須塩原市",
    "category": "day_service",
    "serviceType": "通所介護",
    "capacity": 0,
    "openDays": [
      "平日",
      "祝日"
    ],
    "openDaysNote": ""
  },
  {
    "id": "971300157",
    "name": "ほっと乃木ケアセンター",
    "kana": "ホットノギケアセンター",
    "address": "栃木県那須塩原市新南163番地280",
    "lat": 36.8833543,
    "lng": 139.9978287,
    "tel": "0287-36-6905",
    "url": "http://www.5566.jp/hot-nogi",
    "pref": "栃木県",
    "city": "那須塩原市",
    "category": "day_service",
    "serviceType": "通所介護",
    "capacity": 10,
    "openDays": [
      "平日",
      "土曜日",
      "日曜日",
      "祝日"
    ],
    "openDaysNote": "-"
  },
  {
    "id": "971301353",
    "name": "家族の家ひまわり西那須野　通所介護事業所",
    "kana": "カゾクノイエヒマワリ西那須野　ツウショカイゴジギョウショ",
    "address": "栃木県那須塩原市西三島2-159-4",
    "lat": 36.8912052,
    "lng": 139.9706341,
    "tel": "0287-39-3318",
    "url": "http://www.saneido.co.jp/",
    "pref": "栃木県",
    "city": "那須塩原市",
    "category": "day_service",
    "serviceType": "通所介護",
    "capacity": null,
    "openDays": [
      "平日",
      "土曜日",
      "日曜日",
      "祝日"
    ],
    "openDaysNote": "延長時間は午前8時30分から午前9時30分まで及び午後4時30分から午後5時30分までとなります。"
  },
  {
    "id": "971300512",
    "name": "黒磯デイサービスセンターみやスマイル",
    "kana": "クロイソデイサービスセンターミヤスマイル",
    "address": "栃木県那須塩原市上厚崎400-18",
    "lat": 36.957098,
    "lng": 140.0335145,
    "tel": "0287-60-0788",
    "url": "",
    "pref": "栃木県",
    "city": "那須塩原市",
    "category": "day_service",
    "serviceType": "通所介護",
    "capacity": 0,
    "openDays": [
      "平日",
      "祝日"
    ],
    "openDaysNote": ""
  },
  {
    "id": "971300207",
    "name": "指定通所介護事業所さちの森",
    "kana": "シテイツウショカイゴジギョウショサチノモリ",
    "address": "栃木県那須塩原市野間４５３番地２３",
    "lat": 36.9318491,
    "lng": 140.0809674,
    "tel": "0287-60-1331",
    "url": "http://.sachinomori.jp",
    "pref": "栃木県",
    "city": "那須塩原市",
    "category": "day_service",
    "serviceType": "通所介護",
    "capacity": 0,
    "openDays": [
      "平日",
      "土曜日",
      "祝日"
    ],
    "openDaysNote": ""
  },
  {
    "id": "972500185",
    "name": "特別養護老人ホーム　生きいきの里",
    "kana": "トクベツヨウゴロウジンホーム　イキイキノサト",
    "address": "栃木県那須塩原市下田野２８２番地６",
    "lat": 36.9417286,
    "lng": 139.895481,
    "tel": "0287-35-3734",
    "url": "https://www.ikiikinosato.com.",
    "pref": "栃木県",
    "city": "那須塩原市",
    "category": "day_service",
    "serviceType": "通所介護",
    "capacity": 0,
    "openDays": [
      "平日",
      "土曜日",
      "日曜日",
      "祝日"
    ],
    "openDaysNote": "－"
  },
  {
    "id": "972500359",
    "name": "那須順天荘デイサービスセンター",
    "kana": "ナスジュンテンソウデイサービスセンター",
    "address": "栃木県那須塩原市上赤田238番地658",
    "lat": 36.9072780307751,
    "lng": 139.948328720377,
    "tel": "0287-36-8825",
    "url": "",
    "pref": "栃木県",
    "city": "那須塩原市",
    "category": "day_service",
    "serviceType": "通所介護",
    "capacity": 0,
    "openDays": [
      "平日",
      "土曜日",
      "祝日"
    ],
    "openDaysNote": "特になし"
  },
  {
    "id": "971300686",
    "name": "木の実デイサービス",
    "kana": "コノミデイサービス",
    "address": "栃木県那須塩原市鍋掛1102番地8",
    "lat": 36.9438505,
    "lng": 140.0803892,
    "tel": "0287-62-5835",
    "url": "http://www.kb-service.co.jp",
    "pref": "栃木県",
    "city": "那須塩原市",
    "category": "day_service",
    "serviceType": "通所介護",
    "capacity": 0,
    "openDays": [
      "平日",
      "祝日"
    ],
    "openDaysNote": "年末年始・夏季休暇（お盆の時期）休日有"
  },
  {
    "id": "971200209",
    "name": "有限会社　ライフサポート遊歩",
    "kana": "ユウゲンガイシャライフサポートユウホ",
    "address": "栃木県那須塩原市豊浦10-129",
    "lat": 36.9492189,
    "lng": 140.0599098,
    "tel": "0287-63-8234",
    "url": "",
    "pref": "栃木県",
    "city": "那須塩原市",
    "category": "day_service",
    "serviceType": "通所介護",
    "capacity": 0,
    "openDays": [
      "平日",
      "土曜日",
      "日曜日",
      "祝日"
    ],
    "openDaysNote": "上記の時間以外でも対応可"
  },
  {
    "id": "972500177",
    "name": "ＪＡなすのなごやかデイサービスセンター",
    "kana": "ＪＡナスノナゴヤカデイサービスセンター",
    "address": "栃木県那須郡那須町大字伊王野1570-1",
    "lat": 36.9584981,
    "lng": 140.157298,
    "tel": "0287-75-7070",
    "url": "http://www.janasuno.or.jp",
    "pref": "栃木県",
    "city": "那須町",
    "category": "day_service",
    "serviceType": "通所介護",
    "capacity": 25,
    "openDays": [
      "平日",
      "土曜日",
      "祝日"
    ],
    "openDaysNote": "－"
  },
  {
    "id": "972500763",
    "name": "ケアステーション「あけぼの」",
    "kana": "ケアステーション「アケボノ」",
    "address": "栃木県那須郡那須町高久甲西山６１１８",
    "lat": 36.9901088,
    "lng": 140.0493127,
    "tel": "0287-62-3553",
    "url": "",
    "pref": "栃木県",
    "city": "那須町",
    "category": "day_service",
    "serviceType": "通所介護",
    "capacity": 26,
    "openDays": [
      "平日",
      "土曜日",
      "祝日"
    ],
    "openDaysNote": "-"
  },
  {
    "id": "972501027",
    "name": "デイサービスセンター　なすの苑",
    "kana": "デイサービスセンター　ナスノエン",
    "address": "栃木県那須郡那須町大字寺子乙３９１２－５",
    "lat": 37.009805,
    "lng": 140.1254697,
    "tel": "0287-72-7301",
    "url": "http://www.nasu-kaigo.or.jp",
    "pref": "栃木県",
    "city": "那須町",
    "category": "day_service",
    "serviceType": "通所介護",
    "capacity": 0,
    "openDays": [
      "平日",
      "祝日"
    ],
    "openDaysNote": ""
  },
  {
    "id": "972500805",
    "name": "デイサービスセンター　りんどう",
    "kana": "デイサービスセンター　リンドウ",
    "address": "栃木県那須郡那須町大字高久丙１７７７-４３４",
    "lat": 37.0648668664014,
    "lng": 140.041442600691,
    "tel": "0287-76-8321",
    "url": "http://www.nasu-kaigo.or.jp/",
    "pref": "栃木県",
    "city": "那須町",
    "category": "day_service",
    "serviceType": "通所介護",
    "capacity": 0,
    "openDays": [
      "平日",
      "祝日"
    ],
    "openDaysNote": ""
  },
  {
    "id": "972501597",
    "name": "多笑デイサービス",
    "kana": "タワラデイサービス",
    "address": "栃木県那須郡那須町高久甲１６４８番地１9",
    "lat": 36.9949292,
    "lng": 140.0845051,
    "tel": "0287-73-8838",
    "url": "",
    "pref": "栃木県",
    "city": "那須町",
    "category": "day_service",
    "serviceType": "通所介護",
    "capacity": null,
    "openDays": [
      "平日",
      "土曜日",
      "日曜日",
      "祝日"
    ],
    "openDaysNote": ""
  },
  {
    "id": "970600607",
    "name": "ケアステーションあさひ日光",
    "kana": "ケアステーションアサヒニッコウ",
    "address": "栃木県日光市七里692-3",
    "lat": 36.7430454,
    "lng": 139.6320045,
    "tel": "0288-50-3011",
    "url": "http://www.vati.co.jp/",
    "pref": "栃木県",
    "city": "日光市",
    "category": "day_service",
    "serviceType": "通所介護",
    "capacity": null,
    "openDays": [
      "平日",
      "土曜日",
      "日曜日",
      "祝日"
    ],
    "openDaysNote": ""
  },
  {
    "id": "972600456",
    "name": "デイサービスうえの荘",
    "kana": "デイサービスウエノソウ",
    "address": "栃木県日光市鬼怒川温泉大原８５３",
    "lat": 36.8223023,
    "lng": 139.7175019,
    "tel": "0288-76-0853",
    "url": "",
    "pref": "栃木県",
    "city": "日光市",
    "category": "day_service",
    "serviceType": "通所介護",
    "capacity": 0,
    "openDays": [
      "平日",
      "土曜日",
      "祝日"
    ],
    "openDaysNote": "利用時間の延長・短縮可能"
  },
  {
    "id": "970700118",
    "name": "デイサービスセンター　誠心園",
    "kana": "デイサービスセンター　セイシンエン",
    "address": "栃木県日光市倉ケ崎６０５番地７",
    "lat": 36.7550186,
    "lng": 139.7127239,
    "tel": "0288-21-7020",
    "url": "http://www.sankokai.com",
    "pref": "栃木県",
    "city": "日光市",
    "category": "day_service",
    "serviceType": "通所介護",
    "capacity": null,
    "openDays": [
      "平日",
      "土曜日",
      "日曜日",
      "祝日"
    ],
    "openDaysNote": "－"
  },
  {
    "id": "970600193",
    "name": "ひかりの里（介護予防）通所介護",
    "kana": "ヒカリノサト（カイゴヨボウ）ツウショカイゴ",
    "address": "栃木県日光市今市1086番地2",
    "lat": 36.7248243,
    "lng": 139.6977575,
    "tel": "0288-30-3915",
    "url": "",
    "pref": "栃木県",
    "city": "日光市",
    "category": "day_service",
    "serviceType": "通所介護",
    "capacity": 20,
    "openDays": [
      "平日",
      "土曜日",
      "祝日"
    ],
    "openDaysNote": "担当者不在の場合でも、連絡がとれる体制で対応。"
  },
  {
    "id": "970600763",
    "name": "家族の家ひまわり日光　通所介護事業所",
    "kana": "カゾクノイエヒマワリニッコウ　ツウショカイゴジギョウショ",
    "address": "栃木県日光市瀬川40-1",
    "lat": 36.7261185,
    "lng": 139.6940774,
    "tel": "0288-30-5055",
    "url": "http://www.saneido.co.jp/",
    "pref": "栃木県",
    "city": "日光市",
    "category": "day_service",
    "serviceType": "通所介護",
    "capacity": 0,
    "openDays": [
      "平日",
      "土曜日",
      "祝日"
    ],
    "openDaysNote": "延長時間は午前8時30分から午前9時30分まで及び午後4時30分から午後5時30分までとなります。"
  },
  {
    "id": "970700019",
    "name": "在宅介護支援センター　おちあい",
    "kana": "ザイタクカイゴシエンセンター　オチアイ",
    "address": "栃木県日光市板橋2190-2",
    "lat": 36.6492286,
    "lng": 139.7351187,
    "tel": "0288-27-1281",
    "url": "http://www.taikei.jp/",
    "pref": "栃木県",
    "city": "日光市",
    "category": "day_service",
    "serviceType": "通所介護",
    "capacity": 0,
    "openDays": [
      "平日",
      "土曜日",
      "祝日"
    ],
    "openDaysNote": ""
  },
  {
    "id": "970700399",
    "name": "老人デイサービスセンターさくら苑",
    "kana": "ロウジンデイサービスセンターサクラエン",
    "address": "栃木県日光市大室863-7",
    "lat": 36.7229311,
    "lng": 139.7501241,
    "tel": "0288-26-4141",
    "url": "http://oomurosakuraen.jp",
    "pref": "栃木県",
    "city": "日光市",
    "category": "day_service",
    "serviceType": "通所介護",
    "capacity": 0,
    "openDays": [
      "平日",
      "土曜日",
      "祝日"
    ],
    "openDaysNote": "年末12月31日と1月1,2,3日は休み"
  },
  {
    "id": "972700256",
    "name": "ＪＡはが野デイサービスセンターすこやか南高",
    "kana": "ジェイエイハガノデイサービスセンタースコヤカナンタカ",
    "address": "栃木県芳賀郡芳賀町上稲毛田８２５",
    "lat": 36.5934218,
    "lng": 140.077782,
    "tel": "028-687-1777",
    "url": "http://www.ja-hagano.or.jp/",
    "pref": "栃木県",
    "city": "芳賀町",
    "category": "day_service",
    "serviceType": "通所介護",
    "capacity": 0,
    "openDays": [
      "平日",
      "土曜日",
      "祝日"
    ],
    "openDaysNote": ""
  },
  {
    "id": "972700041",
    "name": "在宅介護支援センター　而今荘",
    "kana": "ザイタクカイゴシエンセンター　ニコンソウ",
    "address": "栃木県芳賀郡芳賀町稲毛田1887-4",
    "lat": 36.5506206,
    "lng": 140.0718313,
    "tel": "028-677-5736",
    "url": "http://www.hoaikai.or.jp/",
    "pref": "栃木県",
    "city": "芳賀町",
    "category": "day_service",
    "serviceType": "通所介護",
    "capacity": 0,
    "openDays": [
      "平日",
      "土曜日",
      "祝日"
    ],
    "openDaysNote": "正月三が日は休み"
  },
  {
    "id": "972700819",
    "name": "芳賀ケアセンターそよ風",
    "kana": "ハガケアセンターソヨカゼ",
    "address": "栃木県芳賀郡芳賀町祖母井８１２－１",
    "lat": 36.5544033,
    "lng": 140.0601793,
    "tel": "028-677-0690",
    "url": "http://corp.sykz.co.jp",
    "pref": "栃木県",
    "city": "芳賀町",
    "category": "day_service",
    "serviceType": "通所介護",
    "capacity": 0,
    "openDays": [
      "平日",
      "土曜日",
      "祝日"
    ],
    "openDaysNote": ""
  },
  {
    "id": "972700231",
    "name": "ききょうの里デイサービスセンター",
    "kana": "キキョウノサトデイサービスセンター",
    "address": "栃木県芳賀郡茂木町大字飯1694",
    "lat": 36.474662,
    "lng": 140.170607,
    "tel": "0285-65-0166",
    "url": "https://kikyonosato.jp/",
    "pref": "栃木県",
    "city": "茂木町",
    "category": "day_service",
    "serviceType": "通所介護",
    "capacity": 0,
    "openDays": [
      "平日",
      "土曜日",
      "祝日"
    ],
    "openDaysNote": ""
  },
  {
    "id": "972701130",
    "name": "デイサービスセンターうぐいすの杜",
    "kana": "デイサービスセンターウグイスノモリ",
    "address": "栃木県芳賀郡茂木町大字茂木1824-28",
    "lat": 36.534019215052,
    "lng": 140.181261381147,
    "tel": "0285-64-1588",
    "url": "https://www.motegi-uguisunomori.com",
    "pref": "栃木県",
    "city": "茂木町",
    "category": "day_service",
    "serviceType": "通所介護",
    "capacity": 25,
    "openDays": [
      "平日",
      "土曜日",
      "祝日"
    ],
    "openDaysNote": ""
  },
  {
    "id": "972301519",
    "name": "ケアステーションあさひ野木",
    "kana": "ケアステーションアサヒノギ",
    "address": "栃木県下都賀郡野木町丸林647番地3",
    "lat": 36.2266796,
    "lng": 139.7336539,
    "tel": "0280-54-0010",
    "url": "http://www.vati.co.jp/",
    "pref": "栃木県",
    "city": "野木町",
    "category": "day_service",
    "serviceType": "通所介護",
    "capacity": null,
    "openDays": [
      "平日",
      "土曜日",
      "日曜日",
      "祝日"
    ],
    "openDaysNote": ""
  },
  {
    "id": "972301592",
    "name": "令和ケアプランセンター",
    "kana": "レイワケアプランセンター",
    "address": "栃木県下都賀郡野木町丸林670-2",
    "lat": 36.2256939511031,
    "lng": 139.735022218385,
    "tel": "0280-33-6754",
    "url": "http://reiwa-dss-1.jimdosite.com",
    "pref": "栃木県",
    "city": "野木町",
    "category": "day_service",
    "serviceType": "通所介護",
    "capacity": 0,
    "openDays": [
      "平日",
      "土曜日",
      "祝日"
    ],
    "openDaysNote": ""
  },
  {
    "id": "971100615",
    "name": "ＳＯＭＰＯケア　矢板　デイサービス",
    "kana": "ソンポケア　ヤイタ　デイサービス",
    "address": "栃木県矢板市東町1250番地1",
    "lat": 36.7940827,
    "lng": 139.9422835,
    "tel": "0287-44-3201",
    "url": "",
    "pref": "栃木県",
    "city": "矢板市",
    "category": "day_service",
    "serviceType": "通所介護",
    "capacity": null,
    "openDays": [
      "平日",
      "祝日"
    ],
    "openDaysNote": "サービス提供時間は月曜日～金曜日（祝日含む）8時45分～16時45分"
  },
  {
    "id": "971100706",
    "name": "デイサービスかさね",
    "kana": "デイサービスカサネ",
    "address": "栃木県矢板市中2011番地4ケアプラザ矢板 ケアプラザ矢板",
    "lat": 36.8052462,
    "lng": 139.9405748,
    "tel": "0287-47-5570",
    "url": "https://www.careplaza-yaita.com",
    "pref": "栃木県",
    "city": "矢板市",
    "category": "day_service",
    "serviceType": "通所介護",
    "capacity": 0,
    "openDays": [
      "平日",
      "土曜日"
    ],
    "openDaysNote": ""
  },
  {
    "id": "971100151",
    "name": "デイサービス元気倶楽部",
    "kana": "デイサービスゲンキクラブ",
    "address": "栃木県矢板市扇町2丁目8番地34",
    "lat": 36.8140078,
    "lng": 139.9327944,
    "tel": "0287-40-0007",
    "url": "http://www.ogata-cl.or.jp/ioukai/index.html",
    "pref": "栃木県",
    "city": "矢板市",
    "category": "day_service",
    "serviceType": "通所介護",
    "capacity": 0,
    "openDays": [
      "平日",
      "土曜日",
      "祝日"
    ],
    "openDaysNote": ""
  },
  {
    "id": "971100599",
    "name": "家族の家ひまわり矢板　通所介護事業所",
    "kana": "カゾクノイエヒマワリヤイタツウショカイゴジギョウショ",
    "address": "栃木県矢板市扇町2丁目13番39号",
    "lat": 36.8137994,
    "lng": 139.9287754,
    "tel": "0287-40-0130",
    "url": "http://www.saneido.co.jp/",
    "pref": "栃木県",
    "city": "矢板市",
    "category": "day_service",
    "serviceType": "通所介護",
    "capacity": null,
    "openDays": [
      "平日",
      "土曜日",
      "日曜日",
      "祝日"
    ],
    "openDaysNote": "延長時間は午前8時30分から午前9時30分まで及び午後4時30分から午後5時30分までとなります。"
  },
  {
    "id": "971100714",
    "name": "片岡デイサービスセンター",
    "kana": "カタオカデイサービスセンター",
    "address": "栃木県矢板市石関1289-6",
    "lat": 36.7542588,
    "lng": 139.942337,
    "tel": "0287-41-8005",
    "url": "daruma-sakura.jp",
    "pref": "栃木県",
    "city": "矢板市",
    "category": "day_service",
    "serviceType": "通所介護",
    "capacity": null,
    "openDays": [
      "平日",
      "土曜日"
    ],
    "openDaysNote": ""
  },
  {
    "id": "971100375",
    "name": "老人デイサービスセンター　やしお",
    "kana": "ロウジンデイサービスセンター　ヤシオ",
    "address": "栃木県矢板市川崎反町330-1",
    "lat": 36.792249,
    "lng": 139.9216634,
    "tel": "0287-40-0840",
    "url": "",
    "pref": "栃木県",
    "city": "矢板市",
    "category": "day_service",
    "serviceType": "通所介護",
    "capacity": 0,
    "openDays": [
      "平日",
      "土曜日",
      "祝日"
    ],
    "openDaysNote": ""
  },
  {
    "id": "971100128",
    "name": "老人デイサービスセンター八汐苑",
    "kana": "ロウジンデイサービスセンターヤシオエン",
    "address": "栃木県矢板市平野１３６２番地１２",
    "lat": 36.8574432,
    "lng": 139.8969159,
    "tel": "0287-43-7748",
    "url": "http://yasioen.jp/",
    "pref": "栃木県",
    "city": "矢板市",
    "category": "day_service",
    "serviceType": "通所介護",
    "capacity": 0,
    "openDays": [
      "平日",
      "日曜日",
      "祝日"
    ],
    "openDaysNote": ""
  }
]