[
  {
    "id": "4770301457",
    "name": "SYMデイサービスセンター穂",
    "kana": "エスワイエムデイサービスセンターミノリ",
    "address": "上江洲156-1",
    "lat": 26.3589944,
    "lng": 127.8563916,
    "tel": "989746551",
    "url": "http://www.sym-cs.com",
    "pref": "沖縄県",
    "city": "うるま市",
    "category": "day_service",
    "serviceType": "通所介護",
    "capacity": 24,
    "openDays": [
      "平日",
      "土曜日",
      "祝日"
    ],
    "openDaysNote": "祝祭日営業"
  },
  {
    "id": "4770300608",
    "name": "ＳＹＭデイサービスセンター煌",
    "kana": "エスワイエムデイサービスセンターキラリ",
    "address": "具志川2436番地",
    "lat": 26.361155816576,
    "lng": 127.868190193993,
    "tel": "098-989-8592",
    "url": "http://www.sym-cs.com/",
    "pref": "沖縄県",
    "city": "うるま市",
    "category": "day_service",
    "serviceType": "通所介護",
    "capacity": 98,
    "openDays": [
      "平日",
      "土曜日",
      "日曜日",
      "祝日"
    ],
    "openDaysNote": ""
  },
  {
    "id": "4770301622",
    "name": "WANSTYLEJOB",
    "kana": "ワンスタイルジョブ",
    "address": "大田276-8",
    "lat": 35.561407,
    "lng": 139.7160626,
    "tel": "989891715",
    "url": "https://www.wan-style.okinawa",
    "pref": "沖縄県",
    "city": "うるま市",
    "category": "day_service",
    "serviceType": "通所介護",
    "capacity": 35,
    "openDays": [
      "平日",
      "土曜日",
      "祝日"
    ],
    "openDaysNote": ""
  },
  {
    "id": "4770301069",
    "name": "あい・ゆうデイサービス",
    "kana": "アイ・ユウデイサービス",
    "address": "沖縄県うるま市与那城饒辺２３９番地２1階 1階",
    "lat": 26.3111759,
    "lng": 127.9076433,
    "tel": "098-923-3321",
    "url": "http://www.aiyuu-home.okinawa/",
    "pref": "沖縄県",
    "city": "うるま市",
    "category": "day_service",
    "serviceType": "通所介護",
    "capacity": 30,
    "openDays": [
      "平日",
      "土曜日",
      "祝日"
    ],
    "openDaysNote": "その他、年末年始（１２月３１日、１月１日、１月２日）"
  },
  {
    "id": "4770300426",
    "name": "うるまケアセンター通所介護",
    "kana": "ウルマケアセンターツウショカイゴ",
    "address": "沖縄県うるま市みどり町5丁目14番7号",
    "lat": 26.3765983,
    "lng": 127.8527223,
    "tel": "098-972-5383",
    "url": "http://www.cyutoku.or.jp/groups/carenet/index.html",
    "pref": "沖縄県",
    "city": "うるま市",
    "category": "day_service",
    "serviceType": "通所介護",
    "capacity": 20,
    "openDays": [
      "平日",
      "土曜日",
      "祝日"
    ],
    "openDaysNote": "祝祭日も営業行っています。"
  },
  {
    "id": "4772000040",
    "name": "うるま市社協指定通所介護事業所",
    "kana": "ウルマシシャキョウシテイツウショカイゴジギョウショ",
    "address": "沖縄県うるま市与那城屋慶名1098番地うるま市与那城社会福祉センタ－ うるま市与那城社会福祉センタ－",
    "lat": 26.3228083,
    "lng": 127.9082931,
    "tel": "098-978-0011",
    "url": "",
    "pref": "沖縄県",
    "city": "うるま市",
    "category": "day_service",
    "serviceType": "通所介護",
    "capacity": 35,
    "openDays": [
      "平日",
      "土曜日",
      "祝日"
    ],
    "openDaysNote": ""
  },
  {
    "id": "4770300079",
    "name": "ケアサポート海風",
    "kana": "ケアサポート　ウミカゼ",
    "address": "沖縄県うるま市字具志川１３４５－１",
    "lat": 26.3452524,
    "lng": 127.8738376,
    "tel": "098-979-0631・",
    "url": "keasapo_toumi@yahoo.co.jp",
    "pref": "沖縄県",
    "city": "うるま市",
    "category": "day_service",
    "serviceType": "通所介護",
    "capacity": 0,
    "openDays": [
      "平日",
      "土曜日",
      "祝日"
    ],
    "openDaysNote": ""
  },
  {
    "id": "4770300475",
    "name": "デイサービス　あおぞら",
    "kana": "デイサービス　アオゾラ",
    "address": "沖縄県うるま市江洲38-3デイサービス　あおぞら・サービス付高齢者向け住宅あおぞら デイサービス　あおぞら・サービス付高齢者向け住宅あおぞら",
    "lat": 26.3517756,
    "lng": 127.8269335,
    "tel": "098-979-2500",
    "url": "",
    "pref": "沖縄県",
    "city": "うるま市",
    "category": "day_service",
    "serviceType": "通所介護",
    "capacity": 0,
    "openDays": [
      "平日",
      "土曜日",
      "祝日"
    ],
    "openDaysNote": ""
  },
  {
    "id": "4770300293",
    "name": "デイサービス　あかみち",
    "kana": "デイサービス　アカミチ",
    "address": "沖縄県うるま市字赤道12-16",
    "lat": 26.3571919,
    "lng": 127.834416,
    "tel": "098-979-0068",
    "url": "www.akamichi.net/dayservice.php",
    "pref": "沖縄県",
    "city": "うるま市",
    "category": "day_service",
    "serviceType": "通所介護",
    "capacity": 19,
    "openDays": [
      "平日",
      "土曜日",
      "祝日"
    ],
    "openDaysNote": "台風時、感染症流行時においてはお休みの協力願いをしています。（改行）年末年始に２日間お休みをいただいています。"
  },
  {
    "id": "4770300657",
    "name": "デイサービス　カシータ",
    "kana": "デイサービス　カシータ",
    "address": "字江洲135-3",
    "lat": 26.3436154,
    "lng": 127.8327277,
    "tel": "098-975-3124",
    "url": "http://www.casita-tls.com/",
    "pref": "沖縄県",
    "city": "うるま市",
    "category": "day_service",
    "serviceType": "通所介護",
    "capacity": 45,
    "openDays": [
      "平日",
      "土曜日",
      "祝日"
    ],
    "openDaysNote": ""
  },
  {
    "id": "4770300665",
    "name": "デイサービス　ここいちうるま",
    "kana": "デイサービス　ココイチウルマ",
    "address": "沖縄県うるま市石川東恩納133-1ここいちうるま ここいちうるま",
    "lat": 26.4116778,
    "lng": 127.8328842,
    "tel": "098-963-0271",
    "url": "https://isshin.gr.jp/index.php",
    "pref": "沖縄県",
    "city": "うるま市",
    "category": "day_service",
    "serviceType": "通所介護",
    "capacity": 0,
    "openDays": [
      "平日",
      "土曜日",
      "祝日"
    ],
    "openDaysNote": ""
  },
  {
    "id": "4770300590",
    "name": "デイサービス　ちぃぱっぱ",
    "kana": "デイサービス　チィパッパ",
    "address": "栄野比155-5",
    "lat": 26.3933635821344,
    "lng": 127.831899722748,
    "tel": "098-923-0680",
    "url": "www.chipappa.jp",
    "pref": "沖縄県",
    "city": "うるま市",
    "category": "day_service",
    "serviceType": "通所介護",
    "capacity": 19,
    "openDays": [
      "平日",
      "土曜日",
      "祝日"
    ],
    "openDaysNote": ""
  },
  {
    "id": "4710310311",
    "name": "デイサービス　てぃんさぐ苑",
    "kana": "ディサービスティンサグエン",
    "address": "沖縄県うるま市字栄野比１１５１番地１",
    "lat": 26.3964931,
    "lng": 127.8278517,
    "tel": "098-972-4578",
    "url": "http://www.izumihospital1985.or.jp/",
    "pref": "沖縄県",
    "city": "うるま市",
    "category": "day_service",
    "serviceType": "通所介護",
    "capacity": 0,
    "openDays": [
      "平日",
      "土曜日",
      "祝日"
    ],
    "openDaysNote": ""
  },
  {
    "id": "4770300830",
    "name": "デイサービス　てるてる",
    "kana": "デイサービス　テルテル",
    "address": "安慶名963番地1F 1F",
    "lat": 26.3828802653235,
    "lng": 127.853287599999,
    "tel": "098-988-5477",
    "url": "",
    "pref": "沖縄県",
    "city": "うるま市",
    "category": "day_service",
    "serviceType": "通所介護",
    "capacity": 34,
    "openDays": [
      "平日",
      "土曜日",
      "祝日"
    ],
    "openDaysNote": "台風等、非常災害時は休業とします。"
  },
  {
    "id": "4770301127",
    "name": "デイサービス　プライム",
    "kana": "デイサービス　プライム",
    "address": "前原260－5プライムガーデンうるま プライムガーデンうるま",
    "lat": 26.3369832,
    "lng": 127.8473183,
    "tel": "098－983－6110",
    "url": "",
    "pref": "沖縄県",
    "city": "うるま市",
    "category": "day_service",
    "serviceType": "通所介護",
    "capacity": 30,
    "openDays": [
      "平日",
      "土曜日",
      "祝日"
    ],
    "openDaysNote": "台風に伴う暴風警報発令時など休業とさせていただくことがあります。"
  },
  {
    "id": "4770300418",
    "name": "デイサービス　奈の花",
    "kana": "デイサービス　ナノハナ",
    "address": "沖縄県うるま市字江洲636番地",
    "lat": 26.3479697637115,
    "lng": 127.835467076044,
    "tel": "098-995-8718",
    "url": "http://www.minowak.com",
    "pref": "沖縄県",
    "city": "うるま市",
    "category": "day_service",
    "serviceType": "通所介護",
    "capacity": 28,
    "openDays": [
      "平日",
      "土曜日",
      "祝日"
    ],
    "openDaysNote": "・"
  },
  {
    "id": "4770300723",
    "name": "デイサービス　風車星",
    "kana": "デイサービス　カジマヤーブシ",
    "address": "沖縄県うるま市石川白浜2丁目5番14号1階 1階",
    "lat": 26.4257633,
    "lng": 127.8264579,
    "tel": "989231863",
    "url": "",
    "pref": "沖縄県",
    "city": "うるま市",
    "category": "day_service",
    "serviceType": "通所介護",
    "capacity": 19,
    "openDays": [
      "平日",
      "祝日"
    ],
    "openDaysNote": ""
  },
  {
    "id": "4770301325",
    "name": "デイサービスLIB（リブ）",
    "kana": "デイサービスリブ",
    "address": "沖縄県うるま市字具志川１９３１－３４",
    "lat": 26.3538695981327,
    "lng": 127.87056366449,
    "tel": "098-974-1206",
    "url": "https://www.co-creation.okinawa/",
    "pref": "沖縄県",
    "city": "うるま市",
    "category": "day_service",
    "serviceType": "通所介護",
    "capacity": 45,
    "openDays": [
      "平日",
      "土曜日",
      "祝日"
    ],
    "openDaysNote": ""
  },
  {
    "id": "4770301705",
    "name": "デイサービスREAD",
    "kana": "デイサービスリード",
    "address": "沖縄県うるま市石川東恩納642-1",
    "lat": 26.4115526,
    "lng": 127.8258773,
    "tel": "098-989-6337",
    "url": "https://www.co-creation.okinawa/",
    "pref": "沖縄県",
    "city": "うるま市",
    "category": "day_service",
    "serviceType": "通所介護",
    "capacity": 30,
    "openDays": [
      "平日",
      "土曜日",
      "祝日"
    ],
    "openDaysNote": ""
  },
  {
    "id": "4770301713",
    "name": "デイサービスあや",
    "kana": "デイサービスアヤ",
    "address": "沖縄県うるま市与那城照間909番地10",
    "lat": 26.3397667897402,
    "lng": 127.886743628836,
    "tel": "989797706",
    "url": "https://hp.kaipoke.biz/71e/173691/base_0004.html",
    "pref": "沖縄県",
    "city": "うるま市",
    "category": "day_service",
    "serviceType": "通所介護",
    "capacity": 25,
    "openDays": [
      "平日"
    ],
    "openDaysNote": ""
  },
  {
    "id": "4770301101",
    "name": "デイサービスおもろの郷",
    "kana": "デイサービスオモロノサト",
    "address": "沖縄県うるま市安慶名三丁目4番23号",
    "lat": 26.3791175,
    "lng": 127.8507002,
    "tel": "０９８－９７２－７２７７",
    "url": "",
    "pref": "沖縄県",
    "city": "うるま市",
    "category": "day_service",
    "serviceType": "通所介護",
    "capacity": 32,
    "openDays": [
      "平日",
      "土曜日",
      "祝日"
    ],
    "openDaysNote": ""
  },
  {
    "id": "4770300863",
    "name": "デイサービスここいち上江洲",
    "kana": "デイサービスココイチウエズ",
    "address": "字上江洲466-1ここいち上江洲 ここいち上江洲",
    "lat": 26.3559899423279,
    "lng": 127.861617548579,
    "tel": "098-979-0010",
    "url": "https://isshin.gr.jp/index.php",
    "pref": "沖縄県",
    "city": "うるま市",
    "category": "day_service",
    "serviceType": "通所介護",
    "capacity": 0,
    "openDays": [
      "平日",
      "土曜日",
      "祝日"
    ],
    "openDaysNote": ""
  },
  {
    "id": "4772000016",
    "name": "デイサービスセンター　あやはし苑",
    "kana": "デイサービスセンター　アヤハシエン",
    "address": "沖縄県うるま市与那城屋慶名１４１０",
    "lat": 26.3270803880565,
    "lng": 127.909120768123,
    "tel": "098-978-5566",
    "url": "http://ayahashien.com/",
    "pref": "沖縄県",
    "city": "うるま市",
    "category": "day_service",
    "serviceType": "通所介護",
    "capacity": 40,
    "openDays": [
      "平日",
      "土曜日",
      "祝日"
    ],
    "openDaysNote": ""
  },
  {
    "id": "4770301721",
    "name": "デイサービスセンター　ルナサン",
    "kana": "デイサービスセンター　ルナサン",
    "address": "沖縄県うるま市与那城屋慶名1131-3",
    "lat": 26.323619,
    "lng": 127.9072948,
    "tel": "098-989-1310",
    "url": "kaigonanafuku＠yahoo.co.jp",
    "pref": "沖縄県",
    "city": "うるま市",
    "category": "day_service",
    "serviceType": "通所介護",
    "capacity": 23,
    "openDays": [
      "平日",
      "土曜日",
      "日曜日",
      "祝日"
    ],
    "openDaysNote": ""
  },
  {
    "id": "4770300764",
    "name": "デイサービスセンター　大育の杜　育（はぐくみ）",
    "kana": "デイサービスセンター　ダイイクノモリ　ハグクミ",
    "address": "沖縄県うるま市石川２２８４－１",
    "lat": 26.4347227,
    "lng": 127.8245118,
    "tel": "098-923-2446",
    "url": "http://daiiku08.jimdo.com/",
    "pref": "沖縄県",
    "city": "うるま市",
    "category": "day_service",
    "serviceType": "通所介護",
    "capacity": 25,
    "openDays": [
      "平日",
      "土曜日",
      "祝日"
    ],
    "openDaysNote": ""
  },
  {
    "id": "4770300897",
    "name": "デイサービスセンターいちゅい",
    "kana": "デイサービスセンターイチュイ",
    "address": "沖縄県うるま市字川崎145-1デイサービスセンターいちゅい デイサービスセンターいちゅい",
    "lat": 26.3866008813676,
    "lng": 127.842163780368,
    "tel": "098－972-7238",
    "url": "https://day-service-ichui.com/",
    "pref": "沖縄県",
    "city": "うるま市",
    "category": "day_service",
    "serviceType": "通所介護",
    "capacity": 28,
    "openDays": [
      "平日",
      "日曜日",
      "祝日"
    ],
    "openDaysNote": "サービスの利用にあたっては、医師の診断や日常生活上の留意事項、利用当日の健康状態を職員に連絡し、心身の状況に応じたサービスの提供を受けるよう留意するものとします。"
  },
  {
    "id": "4770300194",
    "name": "デイサービスセンターうるまの里",
    "kana": "デイサービスセンターウルマノサト",
    "address": "沖縄県うるま市字宇堅１３２２－１",
    "lat": 26.3776044,
    "lng": 127.8737043,
    "tel": "098-974-5552",
    "url": "http://www.urumanosato.com/",
    "pref": "沖縄県",
    "city": "うるま市",
    "category": "day_service",
    "serviceType": "通所介護",
    "capacity": 0,
    "openDays": [
      "平日",
      "土曜日",
      "祝日"
    ],
    "openDaysNote": ""
  },
  {
    "id": "4770301002",
    "name": "デイサービスセンターかつれん",
    "kana": "デイサービスセンターカツレン",
    "address": "沖縄県うるま市勝連内間1215番地1",
    "lat": 26.3140335,
    "lng": 127.8980131,
    "tel": "098-978-1265",
    "url": "",
    "pref": "沖縄県",
    "city": "うるま市",
    "category": "day_service",
    "serviceType": "通所介護",
    "capacity": 0,
    "openDays": [
      "平日",
      "祝日"
    ],
    "openDaysNote": ""
  },
  {
    "id": "4770300285",
    "name": "デイサービスセンタースイム",
    "kana": "デイサービスセンタースイム",
    "address": "沖縄県うるま市栄野比753-2",
    "lat": 26.3901912,
    "lng": 127.8372539,
    "tel": "098-972-7101",
    "url": "https://www.sss-swim.com/",
    "pref": "沖縄県",
    "city": "うるま市",
    "category": "day_service",
    "serviceType": "通所介護",
    "capacity": 30,
    "openDays": [
      "平日",
      "土曜日",
      "祝日"
    ],
    "openDaysNote": ""
  },
  {
    "id": "4770300327",
    "name": "デイサービスセンターつわぶき",
    "kana": "デイサービスセンターツワブキ",
    "address": "沖縄県うるま市江洲135番地5デイサービスセンターつわぶき デイサービスセンターつわぶき",
    "lat": 26.3441194,
    "lng": 127.8326157,
    "tel": "098-982-6648",
    "url": "",
    "pref": "沖縄県",
    "city": "うるま市",
    "category": "day_service",
    "serviceType": "通所介護",
    "capacity": 20,
    "openDays": [
      "平日",
      "土曜日",
      "祝日"
    ],
    "openDaysNote": "年末年始休み（12月31日〜1月1日）"
  },
  {
    "id": "4770300384",
    "name": "デイサービスセンターのいえ",
    "kana": "デイサービスセンター　ノイエ",
    "address": "沖縄県うるま市字川田481番地1",
    "lat": 26.3481658,
    "lng": 127.8680298,
    "tel": "098-974-4165",
    "url": "http://www.day-ie.com",
    "pref": "沖縄県",
    "city": "うるま市",
    "category": "day_service",
    "serviceType": "通所介護",
    "capacity": 23,
    "openDays": [
      "平日",
      "土曜日",
      "祝日"
    ],
    "openDaysNote": "台風接近などの公共機関の運行が休止になった場合、天災発生は休業とします。"
  },
  {
    "id": "4770301085",
    "name": "デイサービスセンターポモック",
    "kana": "デイサービスセンター　ポモック",
    "address": "沖縄県うるま市与那城106",
    "lat": 26.3252597646436,
    "lng": 127.890422746033,
    "tel": "098-989-7231",
    "url": "https://www.pomoc.jp",
    "pref": "沖縄県",
    "city": "うるま市",
    "category": "day_service",
    "serviceType": "通所介護",
    "capacity": 19,
    "openDays": [
      "平日",
      "土曜日",
      "祝日"
    ],
    "openDaysNote": "令和4年4月から日曜日は定休日に変更。"
  },
  {
    "id": "4770300038",
    "name": "デイサービスセンター輝指定通所介護事業所",
    "kana": "デイサービスセンターカガヤキシテイツウショカイゴジギョウショ",
    "address": "沖縄県うるま市字赤野１４０６番地１",
    "lat": 26.3745098,
    "lng": 127.8606606,
    "tel": "098-973-6824",
    "url": "http://daykagayaki.wix.com/kagayaki",
    "pref": "沖縄県",
    "city": "うるま市",
    "category": "day_service",
    "serviceType": "通所介護",
    "capacity": 0,
    "openDays": [
      "平日",
      "土曜日",
      "祝日"
    ],
    "openDaysNote": ""
  },
  {
    "id": "4770301390",
    "name": "デイサービスセンター島の風",
    "kana": "デイサービスセンターシマノカゼ",
    "address": "沖縄県うるま市川崎315-1",
    "lat": 26.3861688534181,
    "lng": 127.838357743977,
    "tel": "098-923-0381",
    "url": "https://www.shimanokaze-okinawa.com/",
    "pref": "沖縄県",
    "city": "うるま市",
    "category": "day_service",
    "serviceType": "通所介護",
    "capacity": 0,
    "openDays": [
      "平日",
      "祝日"
    ],
    "openDaysNote": ""
  },
  {
    "id": "4770300434",
    "name": "デイサービスセンター美和",
    "kana": "デイサービスセンターミワ",
    "address": "沖縄県うるま市字喜屋武672番地美和ケアセンター 美和ケアセンター",
    "lat": 26.357592,
    "lng": 127.8477982,
    "tel": "098-973-0733",
    "url": "https://www.miwacarecenter.com/",
    "pref": "沖縄県",
    "city": "うるま市",
    "category": "day_service",
    "serviceType": "通所介護",
    "capacity": 35,
    "openDays": [
      "平日",
      "土曜日",
      "日曜日",
      "祝日"
    ],
    "openDaysNote": ""
  },
  {
    "id": "4770300103",
    "name": "デイサービスたばた",
    "kana": "デイサービスタバタ",
    "address": "沖縄県うるま市字喜屋武１６０番",
    "lat": 26.3644357,
    "lng": 127.8476785,
    "tel": "098-974-0285",
    "url": "http://www.kaigosa-bisu-tabata.com",
    "pref": "沖縄県",
    "city": "うるま市",
    "category": "day_service",
    "serviceType": "通所介護",
    "capacity": 0,
    "openDays": [
      "平日",
      "土曜日",
      "祝日"
    ],
    "openDaysNote": "特になし"
  },
  {
    "id": "4770300822",
    "name": "デイサービスふくろう",
    "kana": "デイサービス　フクロウ",
    "address": "石川2122番地1ふくろうビル ふくろうビル",
    "lat": 26.4169939640353,
    "lng": 127.832042173529,
    "tel": "098-964-2962",
    "url": "",
    "pref": "沖縄県",
    "city": "うるま市",
    "category": "day_service",
    "serviceType": "通所介護",
    "capacity": 28,
    "openDays": [
      "平日",
      "土曜日",
      "日曜日",
      "祝日"
    ],
    "openDaysNote": "年末年始の休みのみ　１２月３１日～１月３日迄"
  },
  {
    "id": "4770300905",
    "name": "デイサービスみどり町",
    "kana": "デイサービスミドリマチ",
    "address": "西原785番地",
    "lat": 26.3771141506606,
    "lng": 127.841619159925,
    "tel": "098-923-0520",
    "url": "http://day-midorimachi.com",
    "pref": "沖縄県",
    "city": "うるま市",
    "category": "day_service",
    "serviceType": "通所介護",
    "capacity": 40,
    "openDays": [
      "平日",
      "祝日"
    ],
    "openDaysNote": "台風時（基本暴風域）災害時は休業"
  },
  {
    "id": "4770300632",
    "name": "デイサービスりっか",
    "kana": "デイサービスリッカ",
    "address": "沖縄県うるま市字具志川1321番地1１F １F",
    "lat": 26.3439621,
    "lng": 127.8761038,
    "tel": "098－973-0755",
    "url": "",
    "pref": "沖縄県",
    "city": "うるま市",
    "category": "day_service",
    "serviceType": "通所介護",
    "capacity": null,
    "openDays": [
      "平日",
      "土曜日"
    ],
    "openDaysNote": ""
  },
  {
    "id": "4770301077",
    "name": "デイサービス愛の花",
    "kana": "デイサービスアイノハナ",
    "address": "沖縄県うるま市石川東恩納942-3",
    "lat": 26.4123704089149,
    "lng": 127.8219794,
    "tel": "098-923-2987",
    "url": "",
    "pref": "沖縄県",
    "city": "うるま市",
    "category": "day_service",
    "serviceType": "通所介護",
    "capacity": null,
    "openDays": [
      "平日",
      "祝日"
    ],
    "openDaysNote": "台風や緊急災害時等はお休みになります。"
  },
  {
    "id": "4770301143",
    "name": "デイサービス縁満",
    "kana": "デイサービス　エンマン",
    "address": "石川伊波１４２番地",
    "lat": 26.4209905,
    "lng": 127.8155492,
    "tel": "098-988-7580",
    "url": "",
    "pref": "沖縄県",
    "city": "うるま市",
    "category": "day_service",
    "serviceType": "通所介護",
    "capacity": 20,
    "openDays": [
      "平日",
      "土曜日",
      "祝日"
    ],
    "openDaysNote": ""
  },
  {
    "id": "4710310709",
    "name": "ハートケア与勝デイサービスセンター",
    "kana": "ハートケアヨカツデイサービスセンター",
    "address": "沖縄県うるま市勝連南風原3601番地2",
    "lat": 26.328057,
    "lng": 127.881895,
    "tel": "098-978-2703",
    "url": "",
    "pref": "沖縄県",
    "city": "うるま市",
    "category": "day_service",
    "serviceType": "通所介護",
    "capacity": 0,
    "openDays": [
      "平日",
      "土曜日",
      "祝日"
    ],
    "openDaysNote": "特になし"
  },
  {
    "id": "4770301556",
    "name": "パワーアップさくら",
    "kana": "パワーアップサクラ",
    "address": "安慶名1丁目2番14号　コーポYONAHA１　101号",
    "lat": 26.3744447,
    "lng": 127.8540082,
    "tel": "098-979-2373",
    "url": "",
    "pref": "沖縄県",
    "city": "うるま市",
    "category": "day_service",
    "serviceType": "通所介護",
    "capacity": 0,
    "openDays": [
      "平日"
    ],
    "openDaysNote": "月・水・金は１単位制として10：00～15：05（改行）火・木は午前と午後にわかれていて（改行）１単位目　8：45～11：50　２単位目　13：30～16：35"
  },
  {
    "id": "4770300491",
    "name": "よかつデイサービス",
    "kana": "ヨカツデイサービス",
    "address": "沖縄県うるま市勝連平安名1655番地1",
    "lat": 26.3245574,
    "lng": 127.8899134,
    "tel": "098-978-0801",
    "url": "",
    "pref": "沖縄県",
    "city": "うるま市",
    "category": "day_service",
    "serviceType": "通所介護",
    "capacity": 0,
    "openDays": [
      "平日",
      "土曜日",
      "祝日"
    ],
    "openDaysNote": ""
  },
  {
    "id": "4770301655",
    "name": "らいおんハートリハビリデイサービス赤道",
    "kana": "ライオンハートリハビリデイサービスアカミチ",
    "address": "沖縄県うるま市赤道2-15",
    "lat": 26.3560699,
    "lng": 127.8330304,
    "tel": "098-923-1941",
    "url": "https://lion-heart.co/",
    "pref": "沖縄県",
    "city": "うるま市",
    "category": "day_service",
    "serviceType": "通所介護",
    "capacity": 0,
    "openDays": [
      "平日"
    ],
    "openDaysNote": ""
  },
  {
    "id": "4770301580",
    "name": "らいおんハートリハビリデイサービス平安郷",
    "kana": "ライオンハート　リハビリデイサービス　ヘイアンキョウ",
    "address": "沖縄県うるま市与那城平安座427-1",
    "lat": 26.3403457894648,
    "lng": 127.955923852644,
    "tel": "098-983-1515",
    "url": "",
    "pref": "沖縄県",
    "city": "うるま市",
    "category": "day_service",
    "serviceType": "通所介護",
    "capacity": null,
    "openDays": [
      "平日",
      "祝日"
    ],
    "openDaysNote": ""
  },
  {
    "id": "4770301614",
    "name": "リハビックス　うるま店",
    "kana": "リハビックス　ウルマテン",
    "address": "沖縄県うるま市安慶名2-5-21",
    "lat": 26.3764543,
    "lng": 127.8524227,
    "tel": "098-923-4012",
    "url": "https://bestlife-okinawa.co.jp/",
    "pref": "沖縄県",
    "city": "うるま市",
    "category": "day_service",
    "serviceType": "通所介護",
    "capacity": 0,
    "openDays": [
      "平日"
    ],
    "openDaysNote": ""
  },
  {
    "id": "4710310725",
    "name": "伊禮内科クリニック　リハビリ型デイサービスセンター",
    "kana": "イレイナイカクリニック　リハビリガタデイサービスセンター",
    "address": "沖縄県うるま市与那城24番地",
    "lat": 26.3270574,
    "lng": 127.8935855,
    "tel": "098-978-1077",
    "url": "https://www.irei-naika.com/dayservice.php",
    "pref": "沖縄県",
    "city": "うるま市",
    "category": "day_service",
    "serviceType": "通所介護",
    "capacity": 0,
    "openDays": [
      "平日",
      "土曜日",
      "祝日"
    ],
    "openDaysNote": ""
  },
  {
    "id": "4770200014",
    "name": "楽寿園指定通所介護事業所",
    "kana": "ラクジュエンシテイツウショカイゴジギョウショ",
    "address": "沖縄県うるま市石川嘉手苅９６１番地17",
    "lat": 26.4254036,
    "lng": 127.7975895,
    "tel": "098-965-6308",
    "url": "http://www.ikusan-k.jp",
    "pref": "沖縄県",
    "city": "うるま市",
    "category": "day_service",
    "serviceType": "通所介護",
    "capacity": 45,
    "openDays": [
      "平日",
      "土曜日",
      "祝日"
    ],
    "openDaysNote": "台風接近時、暴風警報発令の場合は休み。"
  },
  {
    "id": "4770301747",
    "name": "機能訓練型デイサービス　パワーアップ　さくら",
    "kana": "キノウクンレンガタデイサービス　パワーアップ　サクラ",
    "address": "字安慶名1丁目2番14号コーポYONAHA1　101号 コーポYONAHA1　101号",
    "lat": 26.3744447,
    "lng": 127.8540082,
    "tel": "098-979-2373",
    "url": "hikobaematsuda@yahoo.co.jp",
    "pref": "沖縄県",
    "city": "うるま市",
    "category": "day_service",
    "serviceType": "通所介護",
    "capacity": 0,
    "openDays": [
      "平日"
    ],
    "openDaysNote": ""
  },
  {
    "id": "4770301838",
    "name": "健やかデイサービス",
    "kana": "スコヤカデイサービス",
    "address": "与那城饒辺239-1",
    "lat": 26.3112036,
    "lng": 127.9071779,
    "tel": "098-989-5462",
    "url": "http://www.aiyuu-home.okinawa/",
    "pref": "沖縄県",
    "city": "うるま市",
    "category": "day_service",
    "serviceType": "通所介護",
    "capacity": 0,
    "openDays": [
      "平日",
      "土曜日"
    ],
    "openDaysNote": ""
  },
  {
    "id": "4770300889",
    "name": "合同会社サンライズグループ　シニアデイサービスセンター",
    "kana": "ゴウドウガイシャサンライズグループ　シニアデイサービスセンター",
    "address": "沖縄県うるま市石川東恩納1508番地1",
    "lat": 26.4095141,
    "lng": 127.832151,
    "tel": "098-923-2741",
    "url": "https://sunrise-oki.com/",
    "pref": "沖縄県",
    "city": "うるま市",
    "category": "day_service",
    "serviceType": "通所介護",
    "capacity": 44,
    "openDays": [
      "平日",
      "土曜日",
      "祝日"
    ],
    "openDaysNote": "台風の際は、バスの運行が運休になると休みになります。"
  },
  {
    "id": "4772100022",
    "name": "指定通所介護事業所　与勝の里",
    "kana": "シテイツウショカイゴジギョウショヨカツノサト",
    "address": "沖縄県うるま市勝連南風原4902番地",
    "lat": 26.3421501,
    "lng": 127.8770789,
    "tel": "098-978-4434",
    "url": "http://www.yokatsu.okinawa",
    "pref": "沖縄県",
    "city": "うるま市",
    "category": "day_service",
    "serviceType": "通所介護",
    "capacity": null,
    "openDays": [
      "平日",
      "土曜日",
      "祝日"
    ],
    "openDaysNote": "12月31日（大晦日）、元旦(1月1日)、1月2日は休館日"
  },
  {
    "id": "4770301242",
    "name": "通所介護　さくらの木",
    "kana": "ツウショカイゴ　サクラノキ",
    "address": "沖縄県うるま市勝連南風原1950番地2",
    "lat": 26.3358903,
    "lng": 127.875104,
    "tel": "098-923-2400",
    "url": "",
    "pref": "沖縄県",
    "city": "うるま市",
    "category": "day_service",
    "serviceType": "通所介護",
    "capacity": null,
    "openDays": [
      "平日",
      "土曜日"
    ],
    "openDaysNote": ""
  },
  {
    "id": "4770300525",
    "name": "通所介護　ひまわり石川",
    "kana": "ツウショカイゴ　ヒマワリイシカワ",
    "address": "沖縄県うるま市石川二丁目11番24号レジデンスIHA　1F レジデンスIHA　1F",
    "lat": 26.4287093,
    "lng": 127.8221067,
    "tel": "098-965-6207",
    "url": "http://www.happiness-himawari.com",
    "pref": "沖縄県",
    "city": "うるま市",
    "category": "day_service",
    "serviceType": "通所介護",
    "capacity": 40,
    "openDays": [
      "平日",
      "土曜日",
      "祝日"
    ],
    "openDaysNote": "＊公休日は通常通り営業（改行）＊災害警報及び台風接近の際は、状況に応じて臨時休業する場合もあります。"
  },
  {
    "id": "4770301259",
    "name": "通所介護　飛新",
    "kana": "ツウショカイゴ　ヒシン",
    "address": "与那城照間1466番地",
    "lat": 26.3419903,
    "lng": 127.8790199,
    "tel": "098-923-2702",
    "url": "",
    "pref": "沖縄県",
    "city": "うるま市",
    "category": "day_service",
    "serviceType": "通所介護",
    "capacity": 0,
    "openDays": [
      "平日",
      "土曜日",
      "祝日"
    ],
    "openDaysNote": "台風接近時、災害時等は利用者の安全を優先して休む場合もあります。"
  },
  {
    "id": "4770301531",
    "name": "通所介護ひまわり宮里",
    "kana": "ツウショカイゴヒマワリミヤザト",
    "address": "沖縄県うるま市字宮里８３０番地１１",
    "lat": 26.3534364,
    "lng": 127.8341292,
    "tel": "098-979-3830",
    "url": "https://lifecarehimawari.hp.gogo.jp",
    "pref": "沖縄県",
    "city": "うるま市",
    "category": "day_service",
    "serviceType": "通所介護",
    "capacity": null,
    "openDays": [
      "平日",
      "祝日"
    ],
    "openDaysNote": "※台風接近時、災害時は状況に応じて臨時休業する場合があります。"
  },
  {
    "id": "4770301218",
    "name": "通所介護ひまわり赤道",
    "kana": "ツウショカイゴヒマワリアカミチ",
    "address": "沖縄県うるま市字赤道３６９番地",
    "lat": 26.3577584,
    "lng": 127.8268112,
    "tel": "０９８－９７５－００８９",
    "url": "https://lifecarehimawari.hp.gogo.jp/pc",
    "pref": "沖縄県",
    "city": "うるま市",
    "category": "day_service",
    "serviceType": "通所介護",
    "capacity": 30,
    "openDays": [
      "平日",
      "土曜日",
      "祝日"
    ],
    "openDaysNote": "※台風接近時、災害時は状況に応じて臨時休業する場合があります。"
  },
  {
    "id": "4770300244",
    "name": "通所介護事業所　千家",
    "kana": "ツウショカイゴジギョウショ　センヤ",
    "address": "沖縄県うるま市勝連南風原4022番地1",
    "lat": 26.3316929,
    "lng": 127.8835698,
    "tel": "098-923-0257",
    "url": "https://senya.okinawa",
    "pref": "沖縄県",
    "city": "うるま市",
    "category": "day_service",
    "serviceType": "通所介護",
    "capacity": 0,
    "openDays": [
      "平日",
      "土曜日",
      "祝日"
    ],
    "openDaysNote": ""
  },
  {
    "id": "4770300186",
    "name": "有限会社かりゆしデイサービス",
    "kana": "ユウゲンガイシャカリユシデイサービス",
    "address": "沖縄県うるま市字兼箇段912番地13",
    "lat": 26.3684741,
    "lng": 127.8397097,
    "tel": "098-973-1165",
    "url": "dei.cariyusi@shore.ocn.ne.jp",
    "pref": "沖縄県",
    "city": "うるま市",
    "category": "day_service",
    "serviceType": "通所介護",
    "capacity": 0,
    "openDays": [
      "平日",
      "土曜日",
      "祝日"
    ],
    "openDaysNote": "介護サービスの提供日は毎日　休日なし　営業日は月曜日～土曜日　定休日は日曜日と（旧盆、旧15日）　（12月31日～1月3日）"
  },
  {
    "id": "4770301424",
    "name": "老人デイサービスセンターうるまおきなわ長寿苑",
    "kana": "ロウジンデイサービスセンターウルマオキナワチョウジュエン",
    "address": "沖縄県うるま市字江洲1365番地",
    "lat": 26.3411142533028,
    "lng": 127.844222128207,
    "tel": "098-923-1165",
    "url": "www.chojyuen.com",
    "pref": "沖縄県",
    "city": "うるま市",
    "category": "day_service",
    "serviceType": "通所介護",
    "capacity": 0,
    "openDays": [
      "平日",
      "土曜日",
      "祝日"
    ],
    "openDaysNote": ""
  },
  {
    "id": "4771900067",
    "name": "株式会社REIS",
    "kana": "カブシキガイシャレイズ",
    "address": "沖縄県国頭郡伊江村字西江前271番地1",
    "lat": 26.7156351885877,
    "lng": 127.79671473936,
    "tel": "0980-49-5915",
    "url": "subaru-iejima.com",
    "pref": "沖縄県",
    "city": "伊江村",
    "category": "day_service",
    "serviceType": "通所介護",
    "capacity": 19,
    "openDays": [
      "平日",
      "祝日"
    ],
    "openDaysNote": ""
  },
  {
    "id": "4771900018",
    "name": "社会福祉法人麗峰会通所介護事業所いえしま",
    "kana": "シャカイフクシホウジンレイホウカイツウショカイゴジギョウショイエシマ",
    "address": "沖縄県国頭郡伊江村字東江前２３０３－１",
    "lat": 26.7109275,
    "lng": 127.8251795,
    "tel": "0980-49-5502",
    "url": "http://reihoukai.or.jp/",
    "pref": "沖縄県",
    "city": "伊江村",
    "category": "day_service",
    "serviceType": "通所介護",
    "capacity": 0,
    "openDays": [
      "平日"
    ],
    "openDaysNote": ""
  },
  {
    "id": "4774500013",
    "name": "伊平屋村指定通所介護事業所",
    "kana": "イヘヤソンシテイツウショカイゴジギョウショ",
    "address": "沖縄県島尻郡伊平屋村字我喜屋３００番地伊平屋村高齢者生活福祉センター 伊平屋村高齢者生活福祉センター",
    "lat": 27.0387239,
    "lng": 127.9656495,
    "tel": "0980-46-2339",
    "url": "http://www.",
    "pref": "沖縄県",
    "city": "伊平屋村",
    "category": "day_service",
    "serviceType": "通所介護",
    "capacity": 0,
    "openDays": [
      "平日",
      "祝日"
    ],
    "openDaysNote": ""
  },
  {
    "id": "4770801936",
    "name": "FUJIYARELIFE",
    "kana": "フジヤリライフ",
    "address": "沖縄県浦添市前田3-15-10OceanCurrent1F OceanCurrent1F",
    "lat": 26.2446173441507,
    "lng": 127.740700001313,
    "tel": "098-894-2311",
    "url": "https://fujiyarelife.com",
    "pref": "沖縄県",
    "city": "浦添市",
    "category": "day_service",
    "serviceType": "通所介護",
    "capacity": 0,
    "openDays": [
      "平日",
      "祝日"
    ],
    "openDaysNote": ""
  },
  {
    "id": "4770801639",
    "name": "おおなでいさーびすせんたーうらそえ",
    "kana": "大名デイサービスセンターウラソエ",
    "address": "沖縄県浦添市内間２丁目６番２２号ニューシャインビル２０１号 ニューシャインビル２０１号",
    "lat": 26.2363494,
    "lng": 127.7071123,
    "tel": "０９８－９８８－８７８３",
    "url": "",
    "pref": "沖縄県",
    "city": "浦添市",
    "category": "day_service",
    "serviceType": "通所介護",
    "capacity": null,
    "openDays": [
      "平日",
      "土曜日",
      "祝日"
    ],
    "openDaysNote": ""
  },
  {
    "id": "4710810740",
    "name": "かりまた内科指定通所介護センター",
    "kana": "カリマタナイカシテイツウショカイゴセンター",
    "address": "沖縄県浦添市内間4丁目23番21号",
    "lat": 26.2411851,
    "lng": 127.7023002,
    "tel": "098-878-5126",
    "url": "",
    "pref": "沖縄県",
    "city": "浦添市",
    "category": "day_service",
    "serviceType": "通所介護",
    "capacity": 30,
    "openDays": [
      "平日",
      "土曜日",
      "祝日"
    ],
    "openDaysNote": ""
  },
  {
    "id": "4770801654",
    "name": "ツクイ沖縄浦西",
    "kana": "ツクイオキナワウラニシ",
    "address": "沖縄県浦添市西原5-4-33",
    "lat": 26.2499388,
    "lng": 127.7402237,
    "tel": "098-870-1536",
    "url": "https://tsukui-hd.co.jp",
    "pref": "沖縄県",
    "city": "浦添市",
    "category": "day_service",
    "serviceType": "通所介護",
    "capacity": 0,
    "openDays": [
      "平日",
      "土曜日",
      "日曜日",
      "祝日"
    ],
    "openDaysNote": ""
  },
  {
    "id": "4770801787",
    "name": "デイサービス　アイビス",
    "kana": "デイサービス　アイビス",
    "address": "沖縄県浦添市当山三丁目10番1号",
    "lat": 26.2481537,
    "lng": 127.7348139,
    "tel": "098-987-6753",
    "url": "https:www.ymtibis.com",
    "pref": "沖縄県",
    "city": "浦添市",
    "category": "day_service",
    "serviceType": "通所介護",
    "capacity": null,
    "openDays": [
      "平日",
      "土曜日",
      "祝日"
    ],
    "openDaysNote": ""
  },
  {
    "id": "4770801605",
    "name": "デイサービス　ちゅらさん",
    "kana": "デイサービス　チュラサン",
    "address": "沖縄県浦添市西原2丁目2番2号1階",
    "lat": 26.2574086,
    "lng": 127.7399004,
    "tel": "098-879-1165",
    "url": "",
    "pref": "沖縄県",
    "city": "浦添市",
    "category": "day_service",
    "serviceType": "通所介護",
    "capacity": null,
    "openDays": [
      "平日",
      "土曜日",
      "祝日"
    ],
    "openDaysNote": ""
  },
  {
    "id": "4770801860",
    "name": "デイサービス　なーぐすく",
    "kana": "デイサービス　ナーグスク",
    "address": "沖縄県浦添市内間５－８－７　パレス２１　１階",
    "lat": 26.2387825,
    "lng": 127.6980596,
    "tel": "089-988-4374",
    "url": "https://www.mirai-okinawa.net/",
    "pref": "沖縄県",
    "city": "浦添市",
    "category": "day_service",
    "serviceType": "通所介護",
    "capacity": 0,
    "openDays": [
      "平日",
      "土曜日",
      "祝日"
    ],
    "openDaysNote": ""
  },
  {
    "id": "4770800987",
    "name": "デイサービス　ﾌｪｱﾈｽ　経塚",
    "kana": "ディサービス　フェアネス　キョウヅカ",
    "address": "沖縄県浦添市経塚５８５番地1　２階メディカルモール経塚 メディカルモール経塚",
    "lat": 26.2421001,
    "lng": 127.7240515,
    "tel": "098-943--0111",
    "url": "",
    "pref": "沖縄県",
    "city": "浦添市",
    "category": "day_service",
    "serviceType": "通所介護",
    "capacity": 65,
    "openDays": [
      "平日",
      "土曜日",
      "祝日"
    ],
    "openDaysNote": ""
  },
  {
    "id": "4770800755",
    "name": "デイサービス　ぷらす",
    "kana": "デイサービス　プラス",
    "address": "沖縄県浦添市宮城1-29-1",
    "lat": 26.2506428,
    "lng": 127.7022998,
    "tel": "098-876-2820",
    "url": "day-plus.net",
    "pref": "沖縄県",
    "city": "浦添市",
    "category": "day_service",
    "serviceType": "通所介護",
    "capacity": 0,
    "openDays": [
      "平日",
      "土曜日",
      "祝日"
    ],
    "openDaysNote": ""
  },
  {
    "id": "4770800524",
    "name": "デイサービス　みかん西原",
    "kana": "デイサービス　ミカンニシバル",
    "address": "沖縄県浦添市西原1丁目14番23号みかん西原 みかん西原",
    "lat": 26.2547697478045,
    "lng": 127.740873888885,
    "tel": "098-979-9993",
    "url": "http://mikan-orange.com/",
    "pref": "沖縄県",
    "city": "浦添市",
    "category": "day_service",
    "serviceType": "通所介護",
    "capacity": 5,
    "openDays": [
      "平日",
      "土曜日",
      "祝日"
    ],
    "openDaysNote": ""
  },
  {
    "id": "4770100305",
    "name": "デイサービス　小枝",
    "kana": "デイサービス　コエダ",
    "address": "沖縄県浦添市字経塚３５０番地有料老人ホーム　ぶどうの木経塚　2階 有料老人ホーム　ぶどうの木経塚　2階",
    "lat": 26.2340675,
    "lng": 127.7238798,
    "tel": "098-870-5555",
    "url": "http://www.care-and-service.com",
    "pref": "沖縄県",
    "city": "浦添市",
    "category": "day_service",
    "serviceType": "通所介護",
    "capacity": 0,
    "openDays": [
      "平日",
      "土曜日",
      "祝日"
    ],
    "openDaysNote": ""
  },
  {
    "id": "4770800482",
    "name": "デイサービス　牧港の小枝",
    "kana": "デイサービス　マキミナトノコエダ",
    "address": "沖縄県浦添市牧港2-9-5",
    "lat": 26.2598319,
    "lng": 127.7232839,
    "tel": "098-871-1677",
    "url": "http://www.care-and-service.com/",
    "pref": "沖縄県",
    "city": "浦添市",
    "category": "day_service",
    "serviceType": "通所介護",
    "capacity": 0,
    "openDays": [
      "平日",
      "土曜日",
      "祝日"
    ],
    "openDaysNote": ""
  },
  {
    "id": "4770800953",
    "name": "デイサービスいやしの邦",
    "kana": "デイサービスイヤシノクニ",
    "address": "西原５丁目４５番２号",
    "lat": 26.2480125150323,
    "lng": 127.744397762566,
    "tel": "098-873-3333",
    "url": "http://www.iyashinokuni.net/home.html",
    "pref": "沖縄県",
    "city": "浦添市",
    "category": "day_service",
    "serviceType": "通所介護",
    "capacity": 30,
    "openDays": [
      "平日",
      "土曜日",
      "祝日"
    ],
    "openDaysNote": ""
  },
  {
    "id": "4770801480",
    "name": "デイサービスおやまカフェ",
    "kana": "デイサービスオヤマカフェ",
    "address": "沖縄県浦添市沢岻2丁目4番34号おやまビル３F おやまビル３F",
    "lat": 26.2337227828134,
    "lng": 127.716229560852,
    "tel": "098-894-8385",
    "url": "https://www.instagram.com/oyamacafe_day",
    "pref": "沖縄県",
    "city": "浦添市",
    "category": "day_service",
    "serviceType": "通所介護",
    "capacity": 32,
    "openDays": [
      "平日",
      "土曜日",
      "祝日"
    ],
    "openDaysNote": ""
  },
  {
    "id": "4770800896",
    "name": "デイサービスセンター　りらく",
    "kana": "デイサービスセンター　リラク",
    "address": "沖縄県浦添市内間４丁目１８番３号",
    "lat": 26.2410344622073,
    "lng": 127.70559846703,
    "tel": "098-875-5211",
    "url": "",
    "pref": "沖縄県",
    "city": "浦添市",
    "category": "day_service",
    "serviceType": "通所介護",
    "capacity": 0,
    "openDays": [
      "平日",
      "土曜日",
      "祝日"
    ],
    "openDaysNote": ""
  },
  {
    "id": "4770800227",
    "name": "デイサービスセンターえん",
    "kana": "デイサービスセンターエン",
    "address": "沖縄県浦添市宮城３－９－１８栄アパート　1階 栄アパート　1階",
    "lat": 26.2470709,
    "lng": 127.7043498,
    "tel": "098-875-4747",
    "url": "http://www.lstedako.com",
    "pref": "沖縄県",
    "city": "浦添市",
    "category": "day_service",
    "serviceType": "通所介護",
    "capacity": 20,
    "openDays": [
      "平日",
      "土曜日",
      "祝日"
    ],
    "openDaysNote": ""
  },
  {
    "id": "4770801316",
    "name": "デイサービスセンターてだこ苑",
    "kana": "デイサービスセンターテダコエン",
    "address": "沖縄県浦添大平2丁目13番10号２階",
    "lat": 26.2433270103553,
    "lng": 127.709642461969,
    "tel": "098-917-5063",
    "url": "http://tedakoen.or.jp",
    "pref": "沖縄県",
    "city": "浦添市",
    "category": "day_service",
    "serviceType": "通所介護",
    "capacity": 0,
    "openDays": [
      "平日",
      "土曜日",
      "祝日"
    ],
    "openDaysNote": ""
  },
  {
    "id": "4770800805",
    "name": "デイサービスセンターゆい",
    "kana": "デイサービスセンターユイ",
    "address": "沖縄県浦添市内間1丁目14番9号コーポアサヒ1階 コーポアサヒ1階",
    "lat": 26.2387855,
    "lng": 127.7061251,
    "tel": "098-963-9456",
    "url": "https://www.yuusei-okinawa.com",
    "pref": "沖縄県",
    "city": "浦添市",
    "category": "day_service",
    "serviceType": "通所介護",
    "capacity": 30,
    "openDays": [
      "平日",
      "土曜日",
      "祝日"
    ],
    "openDaysNote": "台風等で送迎ができない場合は休む場合が有ります"
  },
  {
    "id": "4770800680",
    "name": "デイサービスセンター花ぐすく",
    "kana": "デイサービスセンターハナグスク",
    "address": "沖縄県浦添市字城間2680番地３ロイヤルＮＹマンション201 ロイヤルＮＹマンション201",
    "lat": 26.2611476,
    "lng": 127.7117822,
    "tel": "098-942-5454",
    "url": "",
    "pref": "沖縄県",
    "city": "浦添市",
    "category": "day_service",
    "serviceType": "通所介護",
    "capacity": 20,
    "openDays": [
      "平日",
      "土曜日"
    ],
    "openDaysNote": ""
  },
  {
    "id": "4770800706",
    "name": "デイサービスセンター聖紫花",
    "kana": "デイサービスセンターセイシカ",
    "address": "沖縄県浦添市内間二丁目６番１６号沖東ビル１階 沖東ビル１階",
    "lat": 26.236167040087,
    "lng": 127.707241849223,
    "tel": "098-988-3190",
    "url": "",
    "pref": "沖縄県",
    "city": "浦添市",
    "category": "day_service",
    "serviceType": "通所介護",
    "capacity": 30,
    "openDays": [
      "平日",
      "土曜日",
      "祝日"
    ],
    "openDaysNote": "台風にて、暴風警報発令されている場合は１日定休とする"
  },
  {
    "id": "4770801720",
    "name": "デイサービスたのシーサー",
    "kana": "デイサービスタノシーサー",
    "address": "沖縄県浦添市勢理客3丁目9-1勢理客産業ビル3-C号 勢理客産業ビル3-C号",
    "lat": 26.2426992,
    "lng": 127.6919693,
    "tel": "098-870-8839",
    "url": "",
    "pref": "沖縄県",
    "city": "浦添市",
    "category": "day_service",
    "serviceType": "通所介護",
    "capacity": null,
    "openDays": [
      "平日",
      "土曜日",
      "祝日"
    ],
    "openDaysNote": ""
  },
  {
    "id": "4770801415",
    "name": "デイサービスながみね",
    "kana": "デイサービスナガミネ",
    "address": "沖縄県浦添市牧港4丁目14番16号長嶺内科医院２Ｆ 長嶺内科医院２Ｆ",
    "lat": 26.2674895,
    "lng": 127.7291441,
    "tel": "098-876-1213",
    "url": "",
    "pref": "沖縄県",
    "city": "浦添市",
    "category": "day_service",
    "serviceType": "通所介護",
    "capacity": 0,
    "openDays": [
      "平日"
    ],
    "openDaysNote": ""
  },
  {
    "id": "4770800243",
    "name": "デイサービスナンクル",
    "kana": "デイサービスナンクル",
    "address": "沖縄県浦添市仲西2-3-3コーポメルヘン１階 コーポメルヘン１階",
    "lat": 26.2464336,
    "lng": 127.6999047,
    "tel": "098-878-1889",
    "url": "",
    "pref": "沖縄県",
    "city": "浦添市",
    "category": "day_service",
    "serviceType": "通所介護",
    "capacity": 19,
    "openDays": [
      "平日",
      "土曜日",
      "祝日"
    ],
    "openDaysNote": "台風接近時、災害時等は、利用者の安全を優先し臨時休業の場合もあります。"
  },
  {
    "id": "4770801225",
    "name": "デイサービスパレスソレイユ",
    "kana": "デイサービスパレス　ソレイユ",
    "address": "沖縄県浦添市仲間１丁目２１番１号",
    "lat": 26.2538935,
    "lng": 127.7236203,
    "tel": "098-943-1205",
    "url": "www.soleil.okinawa/index.php",
    "pref": "沖縄県",
    "city": "浦添市",
    "category": "day_service",
    "serviceType": "通所介護",
    "capacity": 0,
    "openDays": [
      "平日",
      "土曜日",
      "祝日"
    ],
    "openDaysNote": ""
  },
  {
    "id": "4770801803",
    "name": "デイサービスひいの",
    "kana": "デイサービスヒイノ",
    "address": "沖縄県浦添市港川254番地ピーズタウン内 ピーズタウン内",
    "lat": 26.2651783,
    "lng": 127.7137583,
    "tel": "098-871-1108",
    "url": "https://www.trinity-hiino.com/",
    "pref": "沖縄県",
    "city": "浦添市",
    "category": "day_service",
    "serviceType": "通所介護",
    "capacity": 0,
    "openDays": [
      "平日",
      "土曜日"
    ],
    "openDaysNote": ""
  },
  {
    "id": "4770801399",
    "name": "デイサービスひより",
    "kana": "デイサービスヒヨリ",
    "address": "沖縄県浦添市港川３６１－１",
    "lat": 26.266367,
    "lng": 127.7118684,
    "tel": "０９８－９８８－０３４２",
    "url": "http://ekolutake.wix.com/hiyori",
    "pref": "沖縄県",
    "city": "浦添市",
    "category": "day_service",
    "serviceType": "通所介護",
    "capacity": 25,
    "openDays": [
      "平日",
      "土曜日",
      "祝日"
    ],
    "openDaysNote": ""
  },
  {
    "id": "4770801217",
    "name": "デイサービス浦添南",
    "kana": "デイサービスウラソエミナミ",
    "address": "沖縄県浦添市字経塚３９３番地",
    "lat": 26.2421001,
    "lng": 127.7240515,
    "tel": "098-943-5921",
    "url": "http://www.urasoeminami.com/",
    "pref": "沖縄県",
    "city": "浦添市",
    "category": "day_service",
    "serviceType": "通所介護",
    "capacity": 36,
    "openDays": [
      "平日",
      "土曜日",
      "祝日"
    ],
    "openDaysNote": "１２月３１日～１月２日の年末年始"
  },
  {
    "id": "4770800458",
    "name": "デイサービス福寿の郷",
    "kana": "デイサービスフクジュノサト",
    "address": "沖縄県浦添市牧港3-1-5RV RV",
    "lat": 26.2488859,
    "lng": 127.7381917,
    "tel": "098-879-3610",
    "url": "",
    "pref": "沖縄県",
    "city": "浦添市",
    "category": "day_service",
    "serviceType": "通所介護",
    "capacity": 40,
    "openDays": [
      "平日",
      "土曜日",
      "祝日"
    ],
    "openDaysNote": "日曜日については、直接担当職員までご連絡することにより対応することができます。詳しくは当施設までお問合せください。又、台風やその他災害時においては、休日となる場合がございます。（バスが運休した場合）"
  },
  {
    "id": "4770801449",
    "name": "ニライデイサービス",
    "kana": "ニライデイサービス",
    "address": "屋富祖3-34-2メディカルプラザたろう3階 メディカルプラザたろう3階",
    "lat": 26.252214150289,
    "lng": 127.704176728806,
    "tel": "098-873-3200",
    "url": "",
    "pref": "沖縄県",
    "city": "浦添市",
    "category": "day_service",
    "serviceType": "通所介護",
    "capacity": null,
    "openDays": [
      "平日"
    ],
    "openDaysNote": ""
  },
  {
    "id": "4770801878",
    "name": "リハばる浦添",
    "kana": "リハバルウラソエ",
    "address": "大平451リモトビル１階 リモトビル１階",
    "lat": 26.2439815545388,
    "lng": 127.711178316268,
    "tel": "098-988-9240",
    "url": "",
    "pref": "沖縄県",
    "city": "浦添市",
    "category": "day_service",
    "serviceType": "通所介護",
    "capacity": 150,
    "openDays": [
      "平日",
      "土曜日",
      "祝日"
    ],
    "openDaysNote": ""
  },
  {
    "id": "4770801621",
    "name": "リハビリデイサービスぴたさぽ経塚",
    "kana": "リハビリデイサービスピタサポキョウヅカ",
    "address": "沖縄県浦添市経塚663瑞慶山マンション2F 瑞慶山マンション2F",
    "lat": 26.2388246916368,
    "lng": 127.722730396295,
    "tel": "098-873-0080",
    "url": "http://carepro.ryuseki-group.jp/",
    "pref": "沖縄県",
    "city": "浦添市",
    "category": "day_service",
    "serviceType": "通所介護",
    "capacity": 0,
    "openDays": [
      "平日",
      "祝日"
    ],
    "openDaysNote": ""
  },
  {
    "id": "4770801258",
    "name": "リハビリデイサービスぴたさぽ牧港",
    "kana": "リハビリデイサービスピタサポマキミナト",
    "address": "浦添市牧港2－４８－１９",
    "lat": 26.265619403915,
    "lng": 127.725016236385,
    "tel": "098-871-0088",
    "url": "http://carepro.ryuseki-group.jp/",
    "pref": "沖縄県",
    "city": "浦添市",
    "category": "day_service",
    "serviceType": "通所介護",
    "capacity": 0,
    "openDays": [
      "平日",
      "祝日"
    ],
    "openDaysNote": ""
  },
  {
    "id": "4770801662",
    "name": "レッツ倶楽部浦添３３０",
    "kana": "レッツクラブウラソエサンサンマル",
    "address": "沖縄県浦添市大平４５１リモトビル１F リモトビル１F",
    "lat": 26.2439637,
    "lng": 127.7111623,
    "tel": "988746095",
    "url": "https://www.lets-club.jp/shop/urasoe330/",
    "pref": "沖縄県",
    "city": "浦添市",
    "category": "day_service",
    "serviceType": "通所介護",
    "capacity": null,
    "openDays": [
      "平日",
      "土曜日",
      "祝日"
    ],
    "openDaysNote": ""
  },
  {
    "id": "4770801191",
    "name": "経塚デイサービスセンター",
    "kana": "キョウヅカデイサービスセンター",
    "address": "沖縄県浦添市字経塚349番地",
    "lat": 26.2343963739927,
    "lng": 127.724405116333,
    "tel": "０９８－９８８－１２５０",
    "url": "http://www.w-maeda.com/",
    "pref": "沖縄県",
    "city": "浦添市",
    "category": "day_service",
    "serviceType": "通所介護",
    "capacity": 35,
    "openDays": [
      "平日",
      "土曜日",
      "祝日"
    ],
    "openDaysNote": "日曜日の休日に関して１月３日が日曜日の場合は営業とする。"
  },
  {
    "id": "4770800409",
    "name": "経塚リハビリケアセンター",
    "kana": "キョウヅカリハビリケアセンター",
    "address": "沖縄県浦添市経塚424番地MLビル MLビル",
    "lat": 26.236131,
    "lng": 127.720141,
    "tel": "098-871-1770",
    "url": "www.mediline.co.jp",
    "pref": "沖縄県",
    "city": "浦添市",
    "category": "day_service",
    "serviceType": "通所介護",
    "capacity": 35,
    "openDays": [
      "平日",
      "土曜日",
      "祝日"
    ],
    "openDaysNote": ""
  },
  {
    "id": "4770800581",
    "name": "指定通所介護　デイサービス　とどろきの里",
    "kana": "シテイツウショカイゴ　デイサービストドロキノサト",
    "address": "沖縄県浦添市大平三丁目１６番１０号",
    "lat": 26.2434567,
    "lng": 127.7169096,
    "tel": "098-871-1656",
    "url": "",
    "pref": "沖縄県",
    "city": "浦添市",
    "category": "day_service",
    "serviceType": "通所介護",
    "capacity": 45,
    "openDays": [
      "平日",
      "土曜日",
      "日曜日",
      "祝日"
    ],
    "openDaysNote": "天候による急なお休みあり　　例：台風時など"
  },
  {
    "id": "4770800029",
    "name": "指定通所介護事業所ゆいぽーと",
    "kana": "シテイツウショカイゴジギョウショユイポート",
    "address": "沖縄県浦添市字前田997番地",
    "lat": 26.2460473,
    "lng": 127.7386556,
    "tel": "098-877-0977",
    "url": "http://www.okicolo.or.jp",
    "pref": "沖縄県",
    "city": "浦添市",
    "category": "day_service",
    "serviceType": "通所介護",
    "capacity": 95,
    "openDays": [
      "平日",
      "土曜日",
      "日曜日",
      "祝日"
    ],
    "openDaysNote": "日曜営業は、ゆいぽーと1組（1単位目）のみ。ゆいぽーと2組（2単位目）、ゆいぽーと3組(3単位目)は休み。"
  },
  {
    "id": "4770801357",
    "name": "生き生きデイサ-ビス",
    "kana": "イキイキデイサ-ビス",
    "address": "沖縄県浦添市屋冨祖２丁目２４番７号中村ビル３階 中村ビル３階",
    "lat": 26.2531902,
    "lng": 127.709352,
    "tel": "098-943-6382",
    "url": "",
    "pref": "沖縄県",
    "city": "浦添市",
    "category": "day_service",
    "serviceType": "通所介護",
    "capacity": 0,
    "openDays": [
      "平日",
      "土曜日",
      "祝日"
    ],
    "openDaysNote": "12/31～1/2まで休み"
  },
  {
    "id": "4770400663",
    "name": "（医）至政会　デイサービスセンター　もろみの里",
    "kana": "イリョウホウジン　シセイカイデイサービスセンター　モロミノサト",
    "address": "沖縄県沖縄市諸見里１-26-10",
    "lat": 26.3290628,
    "lng": 127.7932928,
    "tel": "098-930-7878",
    "url": "http://www.",
    "pref": "沖縄県",
    "city": "沖縄市",
    "category": "day_service",
    "serviceType": "通所介護",
    "capacity": 30,
    "openDays": [
      "平日",
      "土曜日"
    ],
    "openDaysNote": "特になし"
  },
  {
    "id": "4770400937",
    "name": "JAおきなわ　中部介護福祉センター　デイサービス",
    "kana": "ジェイエイオキナワ　チュウブカイゴフクシセンター　デイサービス",
    "address": "沖縄県沖縄市美里１丁目２７番６号",
    "lat": 26.3419548512856,
    "lng": 127.818501267325,
    "tel": "098-921-0206",
    "url": "",
    "pref": "沖縄県",
    "city": "沖縄市",
    "category": "day_service",
    "serviceType": "通所介護",
    "capacity": 20,
    "openDays": [
      "平日",
      "土曜日",
      "祝日"
    ],
    "openDaysNote": "特になし"
  },
  {
    "id": "4770402263",
    "name": "WANSTYLE　TOPOS",
    "kana": "ワンスタイル　トポス",
    "address": "沖縄県沖縄市与儀一丁目２番２３号1階 1階",
    "lat": 26.3138508252057,
    "lng": 127.815022983656,
    "tel": "098-989-3561",
    "url": "http://www.wan-style.okinawa/",
    "pref": "沖縄県",
    "city": "沖縄市",
    "category": "day_service",
    "serviceType": "通所介護",
    "capacity": 60,
    "openDays": [
      "平日",
      "土曜日",
      "祝日"
    ],
    "openDaysNote": ""
  },
  {
    "id": "4770402446",
    "name": "WANSTYLE+（ワンスタイルプラス）",
    "kana": "ワンスタイルプラス",
    "address": "沖縄県沖縄市泡瀬4丁目21番17号",
    "lat": 26.3167537,
    "lng": 127.8300448,
    "tel": "098-989-3903",
    "url": "http://www.wan-style.okinawa/",
    "pref": "沖縄県",
    "city": "沖縄市",
    "category": "day_service",
    "serviceType": "通所介護",
    "capacity": 4,
    "openDays": [
      "平日",
      "土曜日",
      "祝日"
    ],
    "openDaysNote": ""
  },
  {
    "id": "4770401554",
    "name": "あいケアー　通所介護事業所",
    "kana": "アイケアー　ツウショカイゴジギョウショ",
    "address": "池原５丁目３番２９号",
    "lat": 26.3842862,
    "lng": 127.8303074,
    "tel": "098－923－2582",
    "url": "sawayaka-info@sawayaka-okinawa.jp",
    "pref": "沖縄県",
    "city": "沖縄市",
    "category": "day_service",
    "serviceType": "通所介護",
    "capacity": 0,
    "openDays": [
      "平日",
      "土曜日",
      "祝日"
    ],
    "openDaysNote": ""
  },
  {
    "id": "4770402123",
    "name": "アワセ第一デイサービス",
    "kana": "アワセダイイチデイサービス",
    "address": "沖縄県沖縄市泡瀬２丁目５３番１９号",
    "lat": 26.3159609,
    "lng": 127.8366169,
    "tel": "989342674",
    "url": "www.sukoyaka-day.jp",
    "pref": "沖縄県",
    "city": "沖縄市",
    "category": "day_service",
    "serviceType": "通所介護",
    "capacity": 50,
    "openDays": [
      "平日",
      "土曜日",
      "祝日"
    ],
    "openDaysNote": ""
  },
  {
    "id": "4770401141",
    "name": "いきがいのまちデイサービス美里",
    "kana": "イキガイノマチデイサービスミサト",
    "address": "沖縄県沖縄市美原2-8-7",
    "lat": 26.3466699803196,
    "lng": 127.816778821574,
    "tel": "098-989-3645",
    "url": "http://ikigai-days.com/",
    "pref": "沖縄県",
    "city": "沖縄市",
    "category": "day_service",
    "serviceType": "通所介護",
    "capacity": 34,
    "openDays": [
      "平日",
      "土曜日",
      "祝日"
    ],
    "openDaysNote": "台風にて、警報発令時はお休みとさせていただくことがあります"
  },
  {
    "id": "4770403105",
    "name": "がんじゅうの扉　ザ・テラス",
    "kana": "ガンジュウノトビラ　ザ・テラス",
    "address": "沖縄県沖縄市高原3-9-111階 1階",
    "lat": 26.3237281,
    "lng": 127.8170592,
    "tel": "098-975-6588",
    "url": "http:/www.ganjyunotobira.com/",
    "pref": "沖縄県",
    "city": "沖縄市",
    "category": "day_service",
    "serviceType": "通所介護",
    "capacity": null,
    "openDays": [
      "平日",
      "祝日"
    ],
    "openDaysNote": ""
  },
  {
    "id": "4770400887",
    "name": "コザ介護福祉センター",
    "kana": "コザカイゴフクシセンタァ",
    "address": "沖縄県沖縄市知花６丁目１５番５号",
    "lat": 26.3619411,
    "lng": 127.8149565,
    "tel": "098-921-0278",
    "url": "kozakaigo@outlook.ne.jp",
    "pref": "沖縄県",
    "city": "沖縄市",
    "category": "day_service",
    "serviceType": "通所介護",
    "capacity": 0,
    "openDays": [
      "平日",
      "土曜日",
      "祝日"
    ],
    "openDaysNote": ""
  },
  {
    "id": "4770402891",
    "name": "シンタウン登川",
    "kana": "シンタウンノボリカワ",
    "address": "登川695-1",
    "lat": 26.3700114355774,
    "lng": 127.826150840003,
    "tel": "080-9851-3187",
    "url": "https://bestlife-okinawa.co.jp/rehabix",
    "pref": "沖縄県",
    "city": "沖縄市",
    "category": "day_service",
    "serviceType": "通所介護",
    "capacity": 154,
    "openDays": [
      "平日",
      "土曜日",
      "日曜日",
      "祝日"
    ],
    "openDaysNote": "365日営業しているリハビリ特化型１日デイサービスです。"
  },
  {
    "id": "4770402370",
    "name": "ツクイ沖縄古謝",
    "kana": "ツクイオキナワコジャ",
    "address": "沖縄県沖縄市古謝津嘉山町10-8",
    "lat": 26.3409678,
    "lng": 127.8284069,
    "tel": "098-921-0802",
    "url": "https://www.tsukui.net/",
    "pref": "沖縄県",
    "city": "沖縄市",
    "category": "day_service",
    "serviceType": "通所介護",
    "capacity": 0,
    "openDays": [
      "平日",
      "土曜日",
      "日曜日",
      "祝日"
    ],
    "openDaysNote": ""
  },
  {
    "id": "4770401281",
    "name": "デイ・サービス　がんじゅう堂",
    "kana": "デイ・サービス　ガンジュウドウ",
    "address": "沖縄市古謝2丁目21番41号",
    "lat": 26.3354801,
    "lng": 127.8325974,
    "tel": "098-938-0808",
    "url": "http://ganjudo.com/",
    "pref": "沖縄県",
    "city": "沖縄市",
    "category": "day_service",
    "serviceType": "通所介護",
    "capacity": 0,
    "openDays": [
      "平日",
      "土曜日",
      "祝日"
    ],
    "openDaysNote": "１医師の診断や日常生活上の留意事項、利用当日の健康状態等心身の状況に応じたサービスの提供を受けるように留意します。（改行）２原則全館禁煙です。（改行）３電化製品の持ち込みは原則禁止にしています。（改行）４貴重品の紛失・破損については責任を負いかねますのでお持ち込みにならないようお願いします。（改行）５利用者の営利行為、宗教の勧誘、特定の政治活動は禁止します。"
  },
  {
    "id": "4770402768",
    "name": "デイサービス　NICOUS",
    "kana": "デイサービス　ニコアス",
    "address": "沖縄県沖縄市海邦二丁目27番1号",
    "lat": 26.3329448,
    "lng": 127.8390217,
    "tel": "098-989-4668",
    "url": "",
    "pref": "沖縄県",
    "city": "沖縄市",
    "category": "day_service",
    "serviceType": "通所介護",
    "capacity": null,
    "openDays": [
      "平日",
      "土曜日"
    ],
    "openDaysNote": ""
  },
  {
    "id": "4770400465",
    "name": "デイサービス　ありがとうの木",
    "kana": "デイサービス　アリガトウノキ",
    "address": "沖縄県沖縄市大里５６番地有限会社　ニヘーデービル　1階 有限会社　ニヘーデービル　1階",
    "lat": 26.3258613,
    "lng": 127.8248956,
    "tel": "０９８－９８９－９４５５",
    "url": "http://arigatou-okinawa.com",
    "pref": "沖縄県",
    "city": "沖縄市",
    "category": "day_service",
    "serviceType": "通所介護",
    "capacity": 5,
    "openDays": [
      "平日",
      "土曜日",
      "祝日"
    ],
    "openDaysNote": ""
  },
  {
    "id": "4770400762",
    "name": "デイサービス　さつき",
    "kana": "デイサービス　サツキ",
    "address": "沖縄県沖縄市大里１－１９－４６（２F）",
    "lat": 26.3307608,
    "lng": 127.8220624,
    "tel": "098-939-6618",
    "url": "http://www.",
    "pref": "沖縄県",
    "city": "沖縄市",
    "category": "day_service",
    "serviceType": "通所介護",
    "capacity": 0,
    "openDays": [
      "平日",
      "日曜日",
      "祝日"
    ],
    "openDaysNote": ""
  },
  {
    "id": "4770402404",
    "name": "デイサービス　サンライズいさ",
    "kana": "デイサービス　サンライズイサ",
    "address": "沖縄県沖縄市与儀一丁目29番19号",
    "lat": 26.3082551,
    "lng": 127.8124187,
    "tel": "098-989-5920",
    "url": "https://www.sunrise-isa.com/",
    "pref": "沖縄県",
    "city": "沖縄市",
    "category": "day_service",
    "serviceType": "通所介護",
    "capacity": null,
    "openDays": [
      "平日",
      "土曜日",
      "祝日"
    ],
    "openDaysNote": ""
  },
  {
    "id": "4770401455",
    "name": "デイサービス　ニヘーデービル",
    "kana": "デイサービス　ニヘーデービル",
    "address": "沖縄県沖縄市大里３－２２－１５",
    "lat": 26.325654,
    "lng": 127.8275582,
    "tel": "098-989-6502",
    "url": "http://arigatou-okinawa.com",
    "pref": "沖縄県",
    "city": "沖縄市",
    "category": "day_service",
    "serviceType": "通所介護",
    "capacity": 40,
    "openDays": [
      "平日",
      "土曜日",
      "日曜日",
      "祝日"
    ],
    "openDaysNote": "１月１日が水曜日の場合振替休日とする"
  },
  {
    "id": "4770403147",
    "name": "デイサービス　フェアネス美里",
    "kana": "デイサービス　フェアネスミサト",
    "address": "沖縄県沖縄市美里4丁目17-7",
    "lat": 26.3531571,
    "lng": 127.8132103,
    "tel": "098-979-7677",
    "url": "",
    "pref": "沖縄県",
    "city": "沖縄市",
    "category": "day_service",
    "serviceType": "通所介護",
    "capacity": null,
    "openDays": [
      "平日",
      "土曜日"
    ],
    "openDaysNote": ""
  },
  {
    "id": "4770401794",
    "name": "デイサービス　ふれ愛・高原",
    "kana": "デイサービス　フレアイ・タカハラ",
    "address": "沖縄県沖縄市高原２－３－７",
    "lat": 26.3273137,
    "lng": 127.8166741,
    "tel": "０９８－９８９－５５００",
    "url": "h.fureai@basil.ocn.ne.jp",
    "pref": "沖縄県",
    "city": "沖縄市",
    "category": "day_service",
    "serviceType": "通所介護",
    "capacity": 25,
    "openDays": [
      "平日",
      "土曜日",
      "祝日"
    ],
    "openDaysNote": ""
  },
  {
    "id": "4770403048",
    "name": "デイサービス　結らんどⅡ",
    "kana": "デイサービス　ユイランドツー",
    "address": "比屋根7丁目28番29号",
    "lat": 26.3193652,
    "lng": 127.8145611,
    "tel": "098-979-5507",
    "url": "",
    "pref": "沖縄県",
    "city": "沖縄市",
    "category": "day_service",
    "serviceType": "通所介護",
    "capacity": null,
    "openDays": [
      "平日",
      "土曜日",
      "日曜日",
      "祝日"
    ],
    "openDaysNote": "サービス提供時間（改行）月曜日～土曜日：9:00～16:15　日曜日：9:00～14:15（改行）（祝日は曜日に準ずる）"
  },
  {
    "id": "4770401471",
    "name": "デイサービス　美らさん",
    "kana": "デイサービス　チュラサン",
    "address": "高原６丁目２番２号ラフィーネ泡瀬　101号室 ラフィーネ泡瀬　101号室",
    "lat": 26.3213478,
    "lng": 127.8286121,
    "tel": "０９８－９８９－７３０４",
    "url": "https://www.sanhou-okinawa.com/デイサービス美らさん/",
    "pref": "沖縄県",
    "city": "沖縄市",
    "category": "day_service",
    "serviceType": "通所介護",
    "capacity": 20,
    "openDays": [
      "平日",
      "土曜日",
      "祝日"
    ],
    "openDaysNote": ""
  },
  {
    "id": "4770402354",
    "name": "デイサービスＤＩＳＣＯ",
    "kana": "デイサービスディスコ",
    "address": "沖縄県沖縄市八重島3-2-2高齢者複合施設THEDISCO&RESORTS 高齢者複合施設THEDISCO&RESORTS",
    "lat": 26.3467625006307,
    "lng": 127.806626320238,
    "tel": "098-923-3037",
    "url": "",
    "pref": "沖縄県",
    "city": "沖縄市",
    "category": "day_service",
    "serviceType": "通所介護",
    "capacity": null,
    "openDays": [
      "平日",
      "土曜日",
      "祝日"
    ],
    "openDaysNote": ""
  },
  {
    "id": "4770401422",
    "name": "デイサービスあおい",
    "kana": "デイサービスアオイ",
    "address": "沖縄県沖縄市美原１丁目１１番２１号知花高齢者施設 知花高齢者施設",
    "lat": 26.3470427,
    "lng": 127.8228313,
    "tel": "０９８－９３９－３３１１",
    "url": "",
    "pref": "沖縄県",
    "city": "沖縄市",
    "category": "day_service",
    "serviceType": "通所介護",
    "capacity": 25,
    "openDays": [
      "平日",
      "土曜日",
      "祝日"
    ],
    "openDaysNote": ""
  },
  {
    "id": "4770400606",
    "name": "デイサービスあわせ",
    "kana": "デイサービスアワセ",
    "address": "沖縄県沖縄市泡瀬四丁目41番7号",
    "lat": 26.3154372,
    "lng": 127.8277346,
    "tel": "098-934-7773",
    "url": "http://www16.ocn.ne.jp/~tapick/index.htm",
    "pref": "沖縄県",
    "city": "沖縄市",
    "category": "day_service",
    "serviceType": "通所介護",
    "capacity": 30,
    "openDays": [
      "平日",
      "土曜日",
      "祝日"
    ],
    "openDaysNote": ""
  },
  {
    "id": "4770402248",
    "name": "デイサービスえんまぁる",
    "kana": "デイサービスエンマァル",
    "address": "沖縄県沖縄市松本７－１－５",
    "lat": 26.3579051,
    "lng": 127.806138,
    "tel": "０８０－６４９５－５９７４",
    "url": "",
    "pref": "沖縄県",
    "city": "沖縄市",
    "category": "day_service",
    "serviceType": "通所介護",
    "capacity": 0,
    "openDays": [
      "平日",
      "土曜日",
      "祝日"
    ],
    "openDaysNote": ""
  },
  {
    "id": "4770401679",
    "name": "デイサービスくくる",
    "kana": "デイサービスククル",
    "address": "沖縄県沖縄市南桃原2丁目17番27号",
    "lat": 26.318772,
    "lng": 127.7805218,
    "tel": "098-979-9586",
    "url": "",
    "pref": "沖縄県",
    "city": "沖縄市",
    "category": "day_service",
    "serviceType": "通所介護",
    "capacity": 30,
    "openDays": [
      "平日",
      "土曜日",
      "祝日"
    ],
    "openDaysNote": ""
  },
  {
    "id": "4770401687",
    "name": "デイサービスここいち池原",
    "kana": "デイサービスココイチイケハラ",
    "address": "沖縄県沖縄市池原2-7-25ここいち池原 ここいち池原",
    "lat": 26.3802255,
    "lng": 127.8245746,
    "tel": "098-929-2030",
    "url": "https://isshin.gr.jp/index.php",
    "pref": "沖縄県",
    "city": "沖縄市",
    "category": "day_service",
    "serviceType": "通所介護",
    "capacity": 0,
    "openDays": [
      "平日",
      "土曜日",
      "祝日"
    ],
    "openDaysNote": ""
  },
  {
    "id": "4770402131",
    "name": "デイサービススイム池原苑",
    "kana": "デイサービススイムイケハラエン",
    "address": "沖縄県沖縄市池原3－10－112",
    "lat": 26.390105,
    "lng": 127.8280546,
    "tel": "098-937-9727",
    "url": "http://www.sss-swim.com/",
    "pref": "沖縄県",
    "city": "沖縄市",
    "category": "day_service",
    "serviceType": "通所介護",
    "capacity": 35,
    "openDays": [
      "平日",
      "土曜日",
      "日曜日",
      "祝日"
    ],
    "openDaysNote": ""
  },
  {
    "id": "4770400812",
    "name": "デイサービスセンターエデンの園",
    "kana": "デイサービスセンターエデンノソノ",
    "address": "沖縄県沖縄市仲宗根町13-18番地",
    "lat": 26.3356015,
    "lng": 127.8045166,
    "tel": "098-939-7332",
    "url": "http://www.naviokicom1",
    "pref": "沖縄県",
    "city": "沖縄市",
    "category": "day_service",
    "serviceType": "通所介護",
    "capacity": 0,
    "openDays": [
      "平日",
      "土曜日",
      "祝日"
    ],
    "openDaysNote": "旧盆、台風接近時状況判断して短縮時間でやるかもしくは、お休みとする。"
  },
  {
    "id": "4770401182",
    "name": "デイサービスセンターシオン",
    "kana": "デイサービスセンターシオン",
    "address": "山内一丁目七番五号安立医院　4階 安立医院　4階",
    "lat": 26.3273801003123,
    "lng": 127.786851995662,
    "tel": "098-989-5655",
    "url": "http://adachi-cl.or.jp/",
    "pref": "沖縄県",
    "city": "沖縄市",
    "category": "day_service",
    "serviceType": "通所介護",
    "capacity": 38,
    "openDays": [
      "平日",
      "土曜日",
      "祝日"
    ],
    "openDaysNote": "特になし"
  },
  {
    "id": "4770400986",
    "name": "デイサービスセンター海邦",
    "kana": "デイサービスセンターカイホウ",
    "address": "沖縄県沖縄市海邦1-15-8",
    "lat": 26.328839,
    "lng": 127.8347613,
    "tel": "098-921-1255",
    "url": "http://nasebanaru-kabusiki.jimdo.com/",
    "pref": "沖縄県",
    "city": "沖縄市",
    "category": "day_service",
    "serviceType": "通所介護",
    "capacity": 48,
    "openDays": [
      "平日",
      "土曜日",
      "祝日"
    ],
    "openDaysNote": ""
  },
  {
    "id": "4770402255",
    "name": "デイサービスセンター樹",
    "kana": "デイサービスセンターイツキ",
    "address": "沖縄市大里二丁目6番6号",
    "lat": 26.3266084,
    "lng": 127.8243373,
    "tel": "098-923-1000",
    "url": "https://home-itsuki.com/",
    "pref": "沖縄県",
    "city": "沖縄市",
    "category": "day_service",
    "serviceType": "通所介護",
    "capacity": 34,
    "openDays": [
      "平日",
      "土曜日",
      "祝日"
    ],
    "openDaysNote": "※　暴風警報発令、公共交通機関が運休となった場合"
  },
  {
    "id": "4770400903",
    "name": "デイサービスセンター美浦",
    "kana": "デイサービスセンターミウラ",
    "address": "沖縄県沖縄市古謝三丁目12番20号",
    "lat": 26.3374606,
    "lng": 127.836922,
    "tel": "098-979-5070",
    "url": "http://miura.o-oi.net/",
    "pref": "沖縄県",
    "city": "沖縄市",
    "category": "day_service",
    "serviceType": "通所介護",
    "capacity": 0,
    "openDays": [
      "平日",
      "土曜日",
      "祝日"
    ],
    "openDaysNote": ""
  },
  {
    "id": "4770401398",
    "name": "デイサービスたんぽぽ松本",
    "kana": "デイサービスタンポポマツモト",
    "address": "沖縄市松本５丁目１３－２０番地",
    "lat": 26.3578246,
    "lng": 127.8092183,
    "tel": "098-939-1165",
    "url": "yomitanpopo.jp",
    "pref": "沖縄県",
    "city": "沖縄市",
    "category": "day_service",
    "serviceType": "通所介護",
    "capacity": 32,
    "openDays": [
      "平日",
      "土曜日",
      "祝日"
    ],
    "openDaysNote": ""
  },
  {
    "id": "4770403022",
    "name": "デイサービスちむじゅらさん",
    "kana": "デイサービスチムジュラサン",
    "address": "沖縄県沖縄市仲宗根町３８番２号Gハウス2階 Gハウス2階",
    "lat": 26.3324111,
    "lng": 127.8058657,
    "tel": "（098）934－7336",
    "url": "",
    "pref": "沖縄県",
    "city": "沖縄市",
    "category": "day_service",
    "serviceType": "通所介護",
    "capacity": null,
    "openDays": [
      "平日",
      "土曜日",
      "祝日"
    ],
    "openDaysNote": ""
  },
  {
    "id": "4770401562",
    "name": "デイサービスちむどんどん",
    "kana": "デイサービスチムドンドン",
    "address": "池原５丁目３－２９",
    "lat": 26.3833635160623,
    "lng": 127.830972587836,
    "tel": "098-923-2580",
    "url": "sawayaka-info@sawayaka-okinawa.jp",
    "pref": "沖縄県",
    "city": "沖縄市",
    "category": "day_service",
    "serviceType": "通所介護",
    "capacity": 30,
    "openDays": [
      "平日",
      "土曜日",
      "祝日"
    ],
    "openDaysNote": ""
  },
  {
    "id": "4770401711",
    "name": "デイサービスちむわざ",
    "kana": "デイサービスチムワザ",
    "address": "泡瀬3-26-5",
    "lat": 26.3153841,
    "lng": 127.8324498,
    "tel": "098-938-5517",
    "url": "",
    "pref": "沖縄県",
    "city": "沖縄市",
    "category": "day_service",
    "serviceType": "通所介護",
    "capacity": 28,
    "openDays": [
      "平日",
      "土曜日"
    ],
    "openDaysNote": ""
  },
  {
    "id": "4770402164",
    "name": "デイサービスちむわざてぃーち",
    "kana": "デイサービスチムワザティーチ",
    "address": "沖縄県沖縄市泡瀬5-2-8",
    "lat": 26.3218895,
    "lng": 127.8317618,
    "tel": "098-939-5337",
    "url": "",
    "pref": "沖縄県",
    "city": "沖縄市",
    "category": "day_service",
    "serviceType": "通所介護",
    "capacity": 0,
    "openDays": [
      "平日",
      "土曜日",
      "祝日"
    ],
    "openDaysNote": ""
  },
  {
    "id": "4770401943",
    "name": "デイサービスりんご",
    "kana": "デイサービスリンゴ",
    "address": "与儀３－３－２デイサービスりんご デイサービスりんご",
    "lat": 26.3106019957574,
    "lng": 127.817236476057,
    "tel": "098-989-0713",
    "url": "https://www.jun-ringo.com/",
    "pref": "沖縄県",
    "city": "沖縄市",
    "category": "day_service",
    "serviceType": "通所介護",
    "capacity": 25,
    "openDays": [
      "平日",
      "土曜日",
      "祝日"
    ],
    "openDaysNote": ""
  },
  {
    "id": "4770402347",
    "name": "デイサービス一期一会",
    "kana": "デイサービスイチゴイチエ",
    "address": "沖縄県沖縄市知花6丁目30番6号",
    "lat": 26.3637259,
    "lng": 127.8220206,
    "tel": "098-989-9272",
    "url": "",
    "pref": "沖縄県",
    "city": "沖縄市",
    "category": "day_service",
    "serviceType": "通所介護",
    "capacity": 0,
    "openDays": [
      "平日",
      "土曜日",
      "祝日"
    ],
    "openDaysNote": "要支援者の方の受け入れは、月曜日から金曜日まで。提供時間は変更なし。（改行）年末31日～年始3日間　お盆3日目は休業。"
  },
  {
    "id": "4770400978",
    "name": "デイサービス一歩",
    "kana": "デイサービスイッポ",
    "address": "沖縄県沖縄市池原５丁目２番１３号",
    "lat": 26.3835675924262,
    "lng": 127.828375109787,
    "tel": "098-938-7330",
    "url": "info@startline-oki.jp",
    "pref": "沖縄県",
    "city": "沖縄市",
    "category": "day_service",
    "serviceType": "通所介護",
    "capacity": 27,
    "openDays": [
      "平日",
      "土曜日",
      "祝日"
    ],
    "openDaysNote": "天災、災害、事業所設備の故障、その他やむ得ない理由により、事業所を利用できない場合はお休みとなります。"
  },
  {
    "id": "4770402008",
    "name": "デイサービス結らんど",
    "kana": "デイサービスユイランド",
    "address": "沖縄県沖縄市比屋根7-28-30",
    "lat": 26.3193838,
    "lng": 127.8143579,
    "tel": "098-983-8765",
    "url": "rycom@bbcom-web.com",
    "pref": "沖縄県",
    "city": "沖縄市",
    "category": "day_service",
    "serviceType": "通所介護",
    "capacity": 29,
    "openDays": [
      "平日",
      "土曜日",
      "日曜日",
      "祝日"
    ],
    "openDaysNote": "祝日は曜日に準ずる"
  },
  {
    "id": "4770401372",
    "name": "デイサービス寿ぬ館",
    "kana": "デイサービスクトゥブチヌヤカタ",
    "address": "沖縄県沖縄市与儀１丁目22番1号",
    "lat": 26.3105602575104,
    "lng": 127.81359001786,
    "tel": "098-933-5660",
    "url": "",
    "pref": "沖縄県",
    "city": "沖縄市",
    "category": "day_service",
    "serviceType": "通所介護",
    "capacity": 25,
    "openDays": [
      "平日",
      "土曜日",
      "祝日"
    ],
    "openDaysNote": ""
  },
  {
    "id": "4770402149",
    "name": "デイサービス松本三丁目",
    "kana": "デイサービスマツモトサンチョウメ",
    "address": "沖縄市松本　３丁目１９番１１号",
    "lat": 26.3561001,
    "lng": 127.820084,
    "tel": "098-987-8773",
    "url": "http://care-c-santyoume.com",
    "pref": "沖縄県",
    "city": "沖縄市",
    "category": "day_service",
    "serviceType": "通所介護",
    "capacity": 34,
    "openDays": [
      "平日",
      "土曜日",
      "祝日"
    ],
    "openDaysNote": ""
  },
  {
    "id": "4770400895",
    "name": "デイサービス大樹",
    "kana": "デイサービスタイジュ",
    "address": "沖縄県沖縄市上地二丁目９番５号みやす商事ビル　１階 みやす商事ビル　１階",
    "lat": 26.3314794,
    "lng": 127.7968369,
    "tel": "098-923-0821",
    "url": "",
    "pref": "沖縄県",
    "city": "沖縄市",
    "category": "day_service",
    "serviceType": "通所介護",
    "capacity": 29,
    "openDays": [
      "平日",
      "土曜日",
      "祝日"
    ],
    "openDaysNote": "施設改修時及び台風による暴風雨警報発令時は休業となる場合があります"
  },
  {
    "id": "4770400176",
    "name": "デイサービス桃原",
    "kana": "デイサービストウバル",
    "address": "沖縄県沖縄市桃原4丁目5番1号",
    "lat": 26.3318192,
    "lng": 127.8283007,
    "tel": "098-921-0835",
    "url": "http://www.",
    "pref": "沖縄県",
    "city": "沖縄市",
    "category": "day_service",
    "serviceType": "通所介護",
    "capacity": 35,
    "openDays": [
      "平日",
      "土曜日",
      "祝日"
    ],
    "openDaysNote": ""
  },
  {
    "id": "4770402693",
    "name": "デイサービス美々",
    "kana": "デイサービス　ビビ",
    "address": "沖縄県沖縄市海邦１－６－５",
    "lat": 26.3247629,
    "lng": 127.8332584,
    "tel": "098－988－5354",
    "url": "",
    "pref": "沖縄県",
    "city": "沖縄市",
    "category": "day_service",
    "serviceType": "通所介護",
    "capacity": 30,
    "openDays": [
      "平日",
      "土曜日",
      "祝日"
    ],
    "openDaysNote": ""
  },
  {
    "id": "4770402966",
    "name": "テラスホーム(デイサービス)",
    "kana": "テラスホーム（デイサービス）",
    "address": "沖縄県沖縄市古謝2-12-4",
    "lat": 26.3364495,
    "lng": 127.8311644,
    "tel": "098-923-3331",
    "url": "https://www.jun-ringo.com/",
    "pref": "沖縄県",
    "city": "沖縄市",
    "category": "day_service",
    "serviceType": "通所介護",
    "capacity": 0,
    "openDays": [
      "平日",
      "土曜日",
      "祝日"
    ],
    "openDaysNote": "＊台風接近時、災害時等は利用者の安全を優先して臨時休業とする場合もあります。"
  },
  {
    "id": "4770402107",
    "name": "プラザ・デイサービス高原",
    "kana": "プラザ・デイサービスタカハラ",
    "address": "沖縄県沖縄市高原5-2-5有料老人ホーム　ノリア館 有料老人ホーム　ノリア館",
    "lat": 26.3243447,
    "lng": 127.824093,
    "tel": "098-937-3266",
    "url": "",
    "pref": "沖縄県",
    "city": "沖縄市",
    "category": "day_service",
    "serviceType": "通所介護",
    "capacity": 0,
    "openDays": [
      "平日",
      "土曜日",
      "祝日"
    ],
    "openDaysNote": ""
  },
  {
    "id": "4770401091",
    "name": "プラザデイ・サービス",
    "kana": "プラザデイ・サービス",
    "address": "沖縄県沖縄市南桃原3-22-10",
    "lat": 26.3228453046017,
    "lng": 127.783325028359,
    "tel": "098-989-6682",
    "url": "",
    "pref": "沖縄県",
    "city": "沖縄市",
    "category": "day_service",
    "serviceType": "通所介護",
    "capacity": 25,
    "openDays": [
      "平日",
      "土曜日",
      "祝日"
    ],
    "openDaysNote": "通所介護に同じ"
  },
  {
    "id": "4770400440",
    "name": "まつもと医院デイサービスセンター",
    "kana": "マツモトイインデイサービスセンター",
    "address": "沖縄県沖縄市松本1-22-2",
    "lat": 26.3560611,
    "lng": 127.8176398,
    "tel": "098-934-7351",
    "url": "",
    "pref": "沖縄県",
    "city": "沖縄市",
    "category": "day_service",
    "serviceType": "通所介護",
    "capacity": 30,
    "openDays": [
      "平日",
      "土曜日"
    ],
    "openDaysNote": ""
  },
  {
    "id": "4770401828",
    "name": "みやらび沖縄美里",
    "kana": "ミヤラビオキナワミサト",
    "address": "沖縄県沖縄市美里二丁目28番5ナーシングホーム沖縄美里 ナーシングホーム沖縄美里",
    "lat": 26.3442872,
    "lng": 127.8165792,
    "tel": "098-934-7711",
    "url": "",
    "pref": "沖縄県",
    "city": "沖縄市",
    "category": "day_service",
    "serviceType": "通所介護",
    "capacity": 30,
    "openDays": [
      "平日",
      "土曜日",
      "祝日"
    ],
    "openDaysNote": "台風等の災害時には、臨時休業することがあります。"
  },
  {
    "id": "4770401976",
    "name": "リハビリ型デイサービス　がんじゅうの扉",
    "kana": "リハビリガタデイサービス　ガンジュウノトビラ",
    "address": "沖縄県沖縄市胡屋2-9-2ディアコート胡屋101 ディアコート胡屋101",
    "lat": 26.334293,
    "lng": 127.8018627,
    "tel": "098-923-0056",
    "url": "http:/www.ganjyunotobira.com/",
    "pref": "沖縄県",
    "city": "沖縄市",
    "category": "day_service",
    "serviceType": "通所介護",
    "capacity": 0,
    "openDays": [
      "平日",
      "土曜日",
      "祝日"
    ],
    "openDaysNote": ""
  },
  {
    "id": "4770401935",
    "name": "わくわくﾃﾞｲサービス沖縄",
    "kana": "ワクワクデイサービスオキナワ",
    "address": "沖縄県沖縄市胡屋6丁目11番7号",
    "lat": 26.3238721,
    "lng": 127.808511,
    "tel": "098-989-8939",
    "url": "",
    "pref": "沖縄県",
    "city": "沖縄市",
    "category": "day_service",
    "serviceType": "通所介護",
    "capacity": 0,
    "openDays": [
      "平日",
      "土曜日",
      "祝日"
    ],
    "openDaysNote": ""
  },
  {
    "id": "4770400580",
    "name": "愛聖クリニック　泡瀬北デイサービスセンター",
    "kana": "アイセイクリニック　アワセキタデイサービスセンター",
    "address": "沖縄県沖縄市海邦1丁目15番１０号",
    "lat": 26.3289362,
    "lng": 127.8346835,
    "tel": "098-939-5104",
    "url": "http://anshinkai.jp",
    "pref": "沖縄県",
    "city": "沖縄市",
    "category": "day_service",
    "serviceType": "通所介護",
    "capacity": 45,
    "openDays": [
      "平日",
      "土曜日",
      "祝日"
    ],
    "openDaysNote": "12月31日～1月1日は休業となります。（改行）但し、年末年始が日曜日にあたる場合は必要に応じて営業致します。"
  },
  {
    "id": "4770401604",
    "name": "愛聖クリニックデイサービスセンターはる",
    "kana": "アイセイクリニックデイサービスセンターハル",
    "address": "沖縄県沖縄市古謝二丁目16番10号",
    "lat": 26.3342141186352,
    "lng": 127.832675749459,
    "tel": "098-934-8800",
    "url": "http://anshinkai.jp",
    "pref": "沖縄県",
    "city": "沖縄市",
    "category": "day_service",
    "serviceType": "通所介護",
    "capacity": 40,
    "openDays": [
      "平日",
      "土曜日",
      "祝日"
    ],
    "openDaysNote": ""
  },
  {
    "id": "4770402024",
    "name": "医療法人わかな会LET'ｓ俱楽部おきなわ",
    "kana": "イリョウホウジンワカナカイレッツクラブオキナワ",
    "address": "沖縄県沖縄市胡屋2-12-10橋口店舗　1F 橋口店舗　1F",
    "lat": 26.33291,
    "lng": 127.8022086,
    "tel": "098-930-2828",
    "url": "http://www.lets-club.jp/shop/okinawa/",
    "pref": "沖縄県",
    "city": "沖縄市",
    "category": "day_service",
    "serviceType": "通所介護",
    "capacity": 30,
    "openDays": [
      "平日",
      "祝日"
    ],
    "openDaysNote": ""
  },
  {
    "id": "4770402537",
    "name": "沖縄一条園通所介護事業所",
    "kana": "オキナワイチジョウエンツウショカイゴジギョウショ",
    "address": "沖縄県沖縄市与儀３丁目５－１０沖縄一条園デイサービス 沖縄一条園デイサービス",
    "lat": 26.3100966,
    "lng": 127.8162766,
    "tel": "098-933-9955",
    "url": "https://www.reihoukai.or.jp/",
    "pref": "沖縄県",
    "city": "沖縄市",
    "category": "day_service",
    "serviceType": "通所介護",
    "capacity": 30,
    "openDays": [
      "平日",
      "祝日"
    ],
    "openDaysNote": "その他：BCP計画をもとに介護サービスの提供"
  },
  {
    "id": "4770402297",
    "name": "介護支援センター中部",
    "kana": "カイゴシエンセンターチュウブ",
    "address": "沖縄市室川2丁目7-49",
    "lat": 26.3373469,
    "lng": 127.8089399,
    "tel": "098-921-0670",
    "url": "",
    "pref": "沖縄県",
    "city": "沖縄市",
    "category": "day_service",
    "serviceType": "通所介護",
    "capacity": null,
    "openDays": [
      "平日",
      "土曜日",
      "祝日"
    ],
    "openDaysNote": ""
  },
  {
    "id": "4760490104",
    "name": "株式会社まなざし",
    "kana": "カブシキガイシャマナザシ",
    "address": "沖縄県沖縄市室川１－７－６",
    "lat": 26.3360576,
    "lng": 127.8070685,
    "tel": "０９８－９２３－３７７０",
    "url": "https://www.manazashi-okinawa.com/",
    "pref": "沖縄県",
    "city": "沖縄市",
    "category": "day_service",
    "serviceType": "通所介護",
    "capacity": 16,
    "openDays": [
      "平日",
      "土曜日",
      "祝日"
    ],
    "openDaysNote": ""
  },
  {
    "id": "4770402222",
    "name": "機能訓練専門デイサービスきたえるーむ沖縄知花",
    "kana": "キノウクンレンセンモンデイサービスキタエルームオキナワチバナ",
    "address": "沖縄県沖縄市知花1丁目26番地6号",
    "lat": 26.3601719,
    "lng": 127.8197839,
    "tel": "098-989-7558",
    "url": "kitae-okinawa@ryucom.ne.jp",
    "pref": "沖縄県",
    "city": "沖縄市",
    "category": "day_service",
    "serviceType": "通所介護",
    "capacity": 0,
    "openDays": [
      "平日",
      "土曜日"
    ],
    "openDaysNote": "午前・午後　2単位制"
  },
  {
    "id": "4770402792",
    "name": "古謝ぴーす美らさん",
    "kana": "コジャピースチュラサン",
    "address": "古謝2-32-10",
    "lat": 26.3361881,
    "lng": 127.8354621,
    "tel": "098-989-8183",
    "url": "https://www.sanhou-okinawa.com/",
    "pref": "沖縄県",
    "city": "沖縄市",
    "category": "day_service",
    "serviceType": "通所介護",
    "capacity": 0,
    "openDays": [
      "平日",
      "土曜日"
    ],
    "openDaysNote": ""
  },
  {
    "id": "4770402313",
    "name": "社会福祉法人沖縄にじの会　住宅型有料老人ホーム美里ハウス／デイサービ美里",
    "kana": "シャカイフクシホウジンオキナワニジノカイ　ジュウタクガタユウリョウロウジンホームミサトハウス／デイサービスミサト",
    "address": "沖縄県沖縄市美里2丁目27番20号",
    "lat": 26.3446962,
    "lng": 127.8167743,
    "tel": "098-938-9155",
    "url": "http://www.okiniji.or.jp",
    "pref": "沖縄県",
    "city": "沖縄市",
    "category": "day_service",
    "serviceType": "通所介護",
    "capacity": null,
    "openDays": [
      "平日",
      "土曜日",
      "祝日"
    ],
    "openDaysNote": "※１２月３１日～１月２日、旧盆は休み"
  },
  {
    "id": "4770402834",
    "name": "社会福祉法人沖縄にじの会デイサービス美里第２",
    "kana": "シャカイフクシホウジンオキナワニジノカイデイサービスミサトダイ二",
    "address": "沖縄県沖縄市美原2-3-1デイサービス美里第２ デイサービス美里第２",
    "lat": 26.3431966,
    "lng": 127.8173757,
    "tel": "098-934-1181",
    "url": "http://www.okiniji.or.jp/",
    "pref": "沖縄県",
    "city": "沖縄市",
    "category": "day_service",
    "serviceType": "通所介護",
    "capacity": null,
    "openDays": [
      "平日",
      "土曜日",
      "祝日"
    ],
    "openDaysNote": "12/30～1/3まで年末年始休み"
  },
  {
    "id": "4770400374",
    "name": "松本デイサービスセンター",
    "kana": "マツモトデイサービスセンター",
    "address": "沖縄県沖縄市松本5丁目2番2号",
    "lat": 26.3559943,
    "lng": 127.8126736,
    "tel": "098-982-1717",
    "url": "http://www.shiaikai.com",
    "pref": "沖縄県",
    "city": "沖縄市",
    "category": "day_service",
    "serviceType": "通所介護",
    "capacity": 0,
    "openDays": [
      "平日",
      "土曜日",
      "祝日"
    ],
    "openDaysNote": ""
  },
  {
    "id": "4770402362",
    "name": "生活介護・通所介護事業所　希望の丘",
    "kana": "セイカツカイゴ・ツウショカイゴジギョウショ　キボウノオカ",
    "address": "沖縄県沖縄市与儀二丁目16番25号",
    "lat": 26.3160309,
    "lng": 127.8093397,
    "tel": "098-987-8001",
    "url": "",
    "pref": "沖縄県",
    "city": "沖縄市",
    "category": "day_service",
    "serviceType": "通所介護",
    "capacity": null,
    "openDays": [
      "平日",
      "土曜日",
      "祝日"
    ],
    "openDaysNote": "暴風警報が発令された日"
  },
  {
    "id": "4770400705",
    "name": "通所介護　しおひら",
    "kana": "ツウショカイゴ　シオヒラ",
    "address": "沖縄県沖縄市園田２丁目１５番５号",
    "lat": 26.3279254369941,
    "lng": 127.800598247855,
    "tel": "098-933-5371",
    "url": "http://www.shiohira.jp",
    "pref": "沖縄県",
    "city": "沖縄市",
    "category": "day_service",
    "serviceType": "通所介護",
    "capacity": 25,
    "openDays": [
      "平日",
      "土曜日",
      "祝日"
    ],
    "openDaysNote": "1月1日、1月2日は休業"
  },
  {
    "id": "4770402321",
    "name": "通所介護　ハートフルハンド",
    "kana": "ツウショカイゴ　ハートフルハンド",
    "address": "沖縄市胡屋5丁目19-16",
    "lat": 36.7033234,
    "lng": 137.2163095,
    "tel": "098-988-7673",
    "url": "",
    "pref": "沖縄県",
    "city": "沖縄市",
    "category": "day_service",
    "serviceType": "通所介護",
    "capacity": null,
    "openDays": [
      "平日",
      "土曜日",
      "祝日"
    ],
    "openDaysNote": ""
  },
  {
    "id": "4770401158",
    "name": "通所介護　ひまわり古謝",
    "kana": "ツウショカイゴヒマワリコジャ",
    "address": "沖縄県沖縄市古謝津嘉山町14番20号共立ハイツ",
    "lat": 26.3389241,
    "lng": 127.8279227,
    "tel": "098-989-8515",
    "url": "http://www.happiness-himawari.com",
    "pref": "沖縄県",
    "city": "沖縄市",
    "category": "day_service",
    "serviceType": "通所介護",
    "capacity": 0,
    "openDays": [
      "平日",
      "土曜日",
      "祝日"
    ],
    "openDaysNote": "災害警報及び台風接近の際は、状況に応じて臨時休業する場合もあります。"
  },
  {
    "id": "4770402776",
    "name": "通所介護あお",
    "kana": "ツウショカイゴアオ",
    "address": "美里1－10－24",
    "lat": 26.3428408,
    "lng": 127.8149702,
    "tel": "098-989-3871",
    "url": "",
    "pref": "沖縄県",
    "city": "沖縄市",
    "category": "day_service",
    "serviceType": "通所介護",
    "capacity": 0,
    "openDays": [
      "平日",
      "土曜日",
      "祝日"
    ],
    "openDaysNote": ""
  },
  {
    "id": "4770400457",
    "name": "通所介護センター　登川の里",
    "kana": "ツウショカイゴセンター　ノボリカワノサト",
    "address": "沖縄県沖縄市字登川742番地",
    "lat": 26.3707766,
    "lng": 127.8270885,
    "tel": "098-937-4814",
    "url": "http://www.noborikawanosato.com",
    "pref": "沖縄県",
    "city": "沖縄市",
    "category": "day_service",
    "serviceType": "通所介護",
    "capacity": 0,
    "openDays": [
      "平日",
      "土曜日",
      "祝日"
    ],
    "openDaysNote": ""
  },
  {
    "id": "4770400416",
    "name": "通所介護センターアワセ敬老館",
    "kana": "ツウショカイゴセンターアワセケイロウカン",
    "address": "沖縄県沖縄市泡瀬1丁目31番17",
    "lat": 26.3207008,
    "lng": 127.8390556,
    "tel": "098-938-9558",
    "url": "keiroukan@yuk-group.com",
    "pref": "沖縄県",
    "city": "沖縄市",
    "category": "day_service",
    "serviceType": "通所介護",
    "capacity": 0,
    "openDays": [
      "平日",
      "土曜日",
      "祝日"
    ],
    "openDaysNote": "台風などの場合は臨時休業"
  },
  {
    "id": "4770402453",
    "name": "通所介護ハートぴあ",
    "kana": "ツウショカイゴハートピア",
    "address": "沖縄県沖縄市胡屋1丁目5番6号",
    "lat": 26.3374542,
    "lng": 127.8033146,
    "tel": "098-989-9386",
    "url": "hand7673@yahoo.co.jp",
    "pref": "沖縄県",
    "city": "沖縄市",
    "category": "day_service",
    "serviceType": "通所介護",
    "capacity": 32,
    "openDays": [
      "平日",
      "土曜日",
      "祝日"
    ],
    "openDaysNote": ""
  },
  {
    "id": "4770401919",
    "name": "通所介護ひまわりコザ",
    "kana": "ツウショカイゴヒマワリコザ",
    "address": "沖縄県沖縄市城前町２番２号",
    "lat": 26.335078594431,
    "lng": 127.804400749752,
    "tel": "098-939-0555",
    "url": "http:/www.happiness-himawari.com/",
    "pref": "沖縄県",
    "city": "沖縄市",
    "category": "day_service",
    "serviceType": "通所介護",
    "capacity": 0,
    "openDays": [
      "平日",
      "土曜日",
      "祝日"
    ],
    "openDaysNote": "災害警報及び台風接近の際は、状況に応じて臨時休業する場合もあります。"
  },
  {
    "id": "4770403063",
    "name": "藤デイサービス",
    "kana": "フジデイサービス",
    "address": "池原2丁目20-26",
    "lat": 26.382161,
    "lng": 127.8247858,
    "tel": "098-979-5310",
    "url": "fuji-deyservice.jimdosite.com",
    "pref": "沖縄県",
    "city": "沖縄市",
    "category": "day_service",
    "serviceType": "通所介護",
    "capacity": null,
    "openDays": [
      "平日",
      "土曜日",
      "祝日"
    ],
    "openDaysNote": "台風時（暴風域）"
  },
  {
    "id": "4770400028",
    "name": "緑樹苑指定通所介護事業所",
    "kana": "リョクジュエンシテイツウショカイゴジギョウショ",
    "address": "沖縄県沖縄市胡屋7丁目２番10号",
    "lat": 26.3258331,
    "lng": 127.8113829,
    "tel": "098-932-6566",
    "url": "http://www.ryokujukai.or.jp",
    "pref": "沖縄県",
    "city": "沖縄市",
    "category": "day_service",
    "serviceType": "通所介護",
    "capacity": 35,
    "openDays": [
      "平日",
      "土曜日",
      "祝日"
    ],
    "openDaysNote": ""
  },
  {
    "id": "4770400085",
    "name": "老人デイサービスセンター　おきなわ長寿苑",
    "kana": "ロウジンデイサービスセンターオキナワチョウジュエン",
    "address": "沖縄県沖縄市字登川1403番地",
    "lat": 26.3751761,
    "lng": 127.8233248,
    "tel": "098-921-1103",
    "url": "http://www.chojyuen.com",
    "pref": "沖縄県",
    "city": "沖縄市",
    "category": "day_service",
    "serviceType": "通所介護",
    "capacity": 50,
    "openDays": [
      "平日",
      "土曜日",
      "祝日"
    ],
    "openDaysNote": "特になし"
  },
  {
    "id": "4771600022",
    "name": "デイサービスセンターかたばる",
    "kana": "デイサービスセンターカタバル",
    "address": "沖縄県国頭郡恩納村字恩納6302番地恩納村総合保健福祉センター内 恩納村総合保健福祉センター内",
    "lat": 26.4873576797955,
    "lng": 127.847657664418,
    "tel": "098-966-1150",
    "url": "",
    "pref": "沖縄県",
    "city": "恩納村",
    "category": "day_service",
    "serviceType": "通所介護",
    "capacity": 0,
    "openDays": [
      "平日",
      "土曜日",
      "祝日"
    ],
    "openDaysNote": ""
  },
  {
    "id": "4771600014",
    "name": "デイサービスセンター谷茶の丘",
    "kana": "デイサービスセンタータンチャノオカ",
    "address": "沖縄県国頭郡恩納村字谷茶１９１９番地の７",
    "lat": 26.4563964,
    "lng": 127.8255494,
    "tel": "098-966-2211",
    "url": "http://www.yuunanokai.or.jp",
    "pref": "沖縄県",
    "city": "恩納村",
    "category": "day_service",
    "serviceType": "通所介護",
    "capacity": 0,
    "openDays": [
      "平日",
      "土曜日",
      "祝日"
    ],
    "openDaysNote": "台風発生時等において、地元警察・消防・気象台からの注意報・警報、公立学校の休校、公共交通機関の運休等の状況を踏まえて、安全にサービス提供が行えないと事業主が判断した場合には臨時休業することがある"
  },
  {
    "id": "4771600147",
    "name": "通所介護うんな",
    "kana": "ツウショカイゴウンナ",
    "address": "沖縄県国頭郡恩納村字恩納2514番地",
    "lat": 26.4991313663508,
    "lng": 127.850541098559,
    "tel": "090-1945-0841",
    "url": "",
    "pref": "沖縄県",
    "city": "恩納村",
    "category": "day_service",
    "serviceType": "通所介護",
    "capacity": null,
    "openDays": [
      "平日",
      "土曜日",
      "日曜日",
      "祝日"
    ],
    "openDaysNote": ""
  },
  {
    "id": "4771600071",
    "name": "福ら舎通所介護事業所",
    "kana": "フクラシャツウショカイゴジギョウショ",
    "address": "沖縄県恩納村字恩納6332番地",
    "lat": 26.4883195,
    "lng": 127.8464468,
    "tel": "098-966-1771",
    "url": "http://fukurasha.com/",
    "pref": "沖縄県",
    "city": "恩納村",
    "category": "day_service",
    "serviceType": "通所介護",
    "capacity": 20,
    "openDays": [
      "平日",
      "土曜日",
      "祝日"
    ],
    "openDaysNote": ""
  },
  {
    "id": "4772300119",
    "name": "デイサービスセンター　サンハート",
    "kana": "デイサービスセンター　サンハート",
    "address": "沖縄県中頭郡嘉手納町屋良１丁目21-1住宅型有料老人ホーム　サンハート 住宅型有料老人ホーム　サンハート",
    "lat": 26.3647292352783,
    "lng": 127.762654290738,
    "tel": "098-956-8101",
    "url": "http://www.sunheart-kadena.com/",
    "pref": "沖縄県",
    "city": "嘉手納町",
    "category": "day_service",
    "serviceType": "通所介護",
    "capacity": 45,
    "openDays": [
      "平日",
      "土曜日",
      "祝日"
    ],
    "openDaysNote": ""
  },
  {
    "id": "4772300010",
    "name": "デイサービスセンター　比謝川の里",
    "kana": "デイサービスセンター　ヒジャガワノサト",
    "address": "沖縄県中頭郡嘉手納町字久得242番地の２",
    "lat": 26.3721612349231,
    "lng": 127.770980143517,
    "tel": "098-957-3838",
    "url": "比謝川の里.com",
    "pref": "沖縄県",
    "city": "嘉手納町",
    "category": "day_service",
    "serviceType": "通所介護",
    "capacity": 0,
    "openDays": [
      "平日",
      "土曜日",
      "祝日"
    ],
    "openDaysNote": "台風等自然災害時には、安全を考慮して利用中止及び時間の調整の場合もある。"
  },
  {
    "id": "4772300143",
    "name": "リハビリ型デイサービス　さんだん花カデナ",
    "kana": "リハビリガタデイサービスサンダンカカデナ",
    "address": "嘉手納290-4ロータリー2号館　104号 ロータリー2号館　104号",
    "lat": 26.36312,
    "lng": 127.7552692,
    "tel": "098-956-2112",
    "url": "www.tougou.jp",
    "pref": "沖縄県",
    "city": "嘉手納町",
    "category": "day_service",
    "serviceType": "通所介護",
    "capacity": 0,
    "openDays": [
      "平日",
      "土曜日",
      "祝日"
    ],
    "openDaysNote": ""
  },
  {
    "id": "4772300176",
    "name": "ロータリーぐすくデイサービスセンター",
    "kana": "ロータリーグスクデイサービスセンター",
    "address": "沖縄県中頭郡嘉手納町字屋良771番地",
    "lat": 26.3669863840122,
    "lng": 127.766786083801,
    "tel": "098-979-7911",
    "url": "",
    "pref": "沖縄県",
    "city": "嘉手納町",
    "category": "day_service",
    "serviceType": "通所介護",
    "capacity": 0,
    "openDays": [
      "平日",
      "土曜日",
      "祝日"
    ],
    "openDaysNote": "祝日などの公休日であっても月曜日・火曜日・水曜日・金曜日・土曜日は営業します。（改行）台風の接近により、送迎時間も含め利用者様及び職員の安全が確保できないと判断した場合は休業いたします。"
  },
  {
    "id": "4772300168",
    "name": "沖縄二人三脚ﾃﾞｲｻｰﾋﾞｽ",
    "kana": "オキナワニニンサンキャクデイサービス",
    "address": "嘉手納169-3",
    "lat": 26.3671013,
    "lng": 127.7592626,
    "tel": "098-989-4564",
    "url": "http://okinawanininsankyaku.com/index.html",
    "pref": "沖縄県",
    "city": "嘉手納町",
    "category": "day_service",
    "serviceType": "通所介護",
    "capacity": 0,
    "openDays": [
      "平日",
      "祝日"
    ],
    "openDaysNote": ""
  },
  {
    "id": "4761290099",
    "name": "聖隷デイサービスセンターゆい",
    "kana": "セイレイデイサービスセンターユイ",
    "address": "沖縄県中頭郡嘉手納町字嘉手納270-19平安名ビル1階 平安名ビル1階",
    "lat": 26.3656391,
    "lng": 127.7554163,
    "tel": "098-989-3004",
    "url": "http://www.seirei.or.jp/hq/",
    "pref": "沖縄県",
    "city": "嘉手納町",
    "category": "day_service",
    "serviceType": "通所介護",
    "capacity": 20,
    "openDays": [
      "平日",
      "土曜日",
      "祝日"
    ],
    "openDaysNote": ""
  },
  {
    "id": "4771700061",
    "name": "介護センターかんな指定通所介護事業所",
    "kana": "カイゴセンターカンナシテイツウショカイゴジギョウショ",
    "address": "沖縄県国頭郡宜野座村字漢那１９５３番地１",
    "lat": 26.4839944,
    "lng": 127.9541298,
    "tel": "０９８－９６８－３１１６",
    "url": "",
    "pref": "沖縄県",
    "city": "宜野座村",
    "category": "day_service",
    "serviceType": "通所介護",
    "capacity": 22,
    "openDays": [
      "平日",
      "土曜日",
      "祝日"
    ],
    "openDaysNote": "※災害・暴風警報発令時には休みとなります。"
  },
  {
    "id": "4771700012",
    "name": "宜野座村通所介護事業所",
    "kana": "ギノザソンツウショカイゴジギョウショ",
    "address": "沖縄県国頭郡宜野座村字惣慶１８９８番地（宜野座村地域福祉センター内） （宜野座村地域福祉センター内）",
    "lat": 26.4831725,
    "lng": 127.9716396,
    "tel": "098-968-4482",
    "url": "http://www.ginozaｰshakyo.or.jp",
    "pref": "沖縄県",
    "city": "宜野座村",
    "category": "day_service",
    "serviceType": "通所介護",
    "capacity": 0,
    "openDays": [
      "平日",
      "土曜日",
      "祝日"
    ],
    "openDaysNote": ""
  },
  {
    "id": "4770500454",
    "name": "さんだん花ガーデンデイサービス",
    "kana": "サンダンカガーデンデイサービス",
    "address": "沖縄県宜野湾市宇地泊2丁目23番15号",
    "lat": 26.2723641,
    "lng": 127.7303188,
    "tel": "098-943-2237",
    "url": "http://www.tougou.jp",
    "pref": "沖縄県",
    "city": "宜野湾市",
    "category": "day_service",
    "serviceType": "通所介護",
    "capacity": 35,
    "openDays": [
      "平日",
      "土曜日",
      "祝日"
    ],
    "openDaysNote": "年末年始１２月３１日～１月３日・５月３日～５月５日・お盆旧暦７月１５日はお休みです。"
  },
  {
    "id": "4770501007",
    "name": "ﾃﾞｲｻｰﾋﾞｽ　楽愛知",
    "kana": "デイサービス　ラクアイチ",
    "address": "沖縄県宜野湾市愛知２丁目７番地６号",
    "lat": 26.2666156,
    "lng": 127.7707432,
    "tel": "098-892-1171",
    "url": "https://www.partner-raku.com/about.php",
    "pref": "沖縄県",
    "city": "宜野湾市",
    "category": "day_service",
    "serviceType": "通所介護",
    "capacity": 40,
    "openDays": [
      "平日",
      "土曜日",
      "祝日"
    ],
    "openDaysNote": ""
  },
  {
    "id": "4770500181",
    "name": "デイサービス　さんだん花",
    "kana": "デイサービス　サンダンカ",
    "address": "沖縄県宜野湾市大山七丁目７番２２号",
    "lat": 26.2875326,
    "lng": 127.7453114,
    "tel": "098-890-1212",
    "url": "http://www.tougou.jp",
    "pref": "沖縄県",
    "city": "宜野湾市",
    "category": "day_service",
    "serviceType": "通所介護",
    "capacity": 75,
    "openDays": [
      "平日",
      "土曜日",
      "祝日"
    ],
    "openDaysNote": ""
  },
  {
    "id": "4710510480",
    "name": "デイサービス　まえはら",
    "kana": "デイサービス　マエハラ",
    "address": "沖縄県宜野湾市真栄原３－７－７",
    "lat": 26.2625651,
    "lng": 127.7417102,
    "tel": "098-897-3239",
    "url": "http://www.ginowanseikei.or.jp",
    "pref": "沖縄県",
    "city": "宜野湾市",
    "category": "day_service",
    "serviceType": "通所介護",
    "capacity": null,
    "openDays": [
      "平日",
      "祝日"
    ],
    "openDaysNote": "特になし"
  },
  {
    "id": "4770500447",
    "name": "デイサービス　花笠",
    "kana": "デイサービス　ハナガサ",
    "address": "沖縄県宜野湾市野嵩三丁目３３番１5号",
    "lat": 26.2864193,
    "lng": 127.7861975,
    "tel": "098-988-8703",
    "url": "https://www.hanagasakasa.com/",
    "pref": "沖縄県",
    "city": "宜野湾市",
    "category": "day_service",
    "serviceType": "通所介護",
    "capacity": 24,
    "openDays": [
      "平日",
      "土曜日",
      "祝日"
    ],
    "openDaysNote": "暴風警報発令中でバス運行停止の場合休みになります。"
  },
  {
    "id": "4770501015",
    "name": "デイサービスあまどころ",
    "kana": "デイサービスアマドコロ",
    "address": "野嵩２丁目６番９号武島AP　1階 武島AP　1階",
    "lat": 26.2827460825792,
    "lng": 127.777772010244,
    "tel": "098-894－2218",
    "url": "deiamadokoro@yahoo.co.jp",
    "pref": "沖縄県",
    "city": "宜野湾市",
    "category": "day_service",
    "serviceType": "通所介護",
    "capacity": 19,
    "openDays": [
      "平日",
      "土曜日",
      "日曜日",
      "祝日"
    ],
    "openDaysNote": "正月3日まで休み。"
  },
  {
    "id": "4770500421",
    "name": "デイサービスおれんじ",
    "kana": "デイサービスオレンジ",
    "address": "沖縄県宜野湾市嘉数２－２－１広栄メディカルビル５階 広栄メディカルビル５階",
    "lat": 26.255129,
    "lng": 127.739589,
    "tel": "098-897-0139",
    "url": "https://mikan-orange.com/",
    "pref": "沖縄県",
    "city": "宜野湾市",
    "category": "day_service",
    "serviceType": "通所介護",
    "capacity": 60,
    "openDays": [
      "平日",
      "土曜日",
      "祝日"
    ],
    "openDaysNote": "サービス提供時間が異なる、複数単位を導入。（改行）1日型（1単位）：9：00～16：15（改行）半日型　午前の部（2単位）：9：30～12：35（土曜日は休み）（改行）半日型　午後の部（3単位）：13：45～16：50（土曜日は休み）"
  },
  {
    "id": "4770500652",
    "name": "デイサービスおれんじ嘉数",
    "kana": "デイサービスオレンジカカズ",
    "address": "沖縄県宜野湾市嘉数２－５－３２パルビューラー　トゥレス パルビューラー　トゥレス",
    "lat": 26.2559546,
    "lng": 127.7375719,
    "tel": "０９８－８９８－３５０２",
    "url": "https://mikan-orange.com/",
    "pref": "沖縄県",
    "city": "宜野湾市",
    "category": "day_service",
    "serviceType": "通所介護",
    "capacity": 56,
    "openDays": [
      "平日",
      "土曜日",
      "祝日"
    ],
    "openDaysNote": "台風時は営業がお休みになる事があります。ご了承ください。"
  },
  {
    "id": "4770500470",
    "name": "デイサービスセンター　ぎのわん",
    "kana": "デイサービスセンター　ギノワン",
    "address": "沖縄県宜野湾市大山6-25-7パークサイドテラス101号",
    "lat": 26.2772588,
    "lng": 127.7380319,
    "tel": "098-943-5998",
    "url": "",
    "pref": "沖縄県",
    "city": "宜野湾市",
    "category": "day_service",
    "serviceType": "通所介護",
    "capacity": 0,
    "openDays": [
      "平日"
    ],
    "openDaysNote": "１２月３０日～１月３日は休み"
  },
  {
    "id": "4770500405",
    "name": "デイサービスセンター　寿愛",
    "kana": "デイサービスセンター　ジュアイ",
    "address": "沖縄県宜野湾市大謝名2-2-10　1F",
    "lat": 26.2640232,
    "lng": 127.7396547,
    "tel": "098-898-6758",
    "url": "",
    "pref": "沖縄県",
    "city": "宜野湾市",
    "category": "day_service",
    "serviceType": "通所介護",
    "capacity": 50,
    "openDays": [
      "平日",
      "土曜日",
      "祝日"
    ],
    "openDaysNote": ""
  },
  {
    "id": "4770500413",
    "name": "デイサービスセンターがじまぁる",
    "kana": "デイサービスセンター",
    "address": "沖縄県宜野湾市宇地泊2-37-3イサムビル１階 イサムビル１階",
    "lat": 26.2680811,
    "lng": 127.7289913,
    "tel": "098-942-8239",
    "url": "https://www.gajima-ru.com/",
    "pref": "沖縄県",
    "city": "宜野湾市",
    "category": "day_service",
    "serviceType": "通所介護",
    "capacity": 65,
    "openDays": [
      "平日",
      "土曜日",
      "祝日"
    ],
    "openDaysNote": ""
  },
  {
    "id": "4770500256",
    "name": "デイサービスセンターマナ",
    "kana": "デイサービスセンターマナ",
    "address": "沖縄県宜野湾市志真志1－13－19",
    "lat": 26.2586104,
    "lng": 127.7627232,
    "tel": "098-894-7317",
    "url": "http://www.c-manna.co.jp/",
    "pref": "沖縄県",
    "city": "宜野湾市",
    "category": "day_service",
    "serviceType": "通所介護",
    "capacity": 0,
    "openDays": [
      "平日",
      "土曜日",
      "祝日"
    ],
    "openDaysNote": ""
  },
  {
    "id": "4770500686",
    "name": "デイサービスセンター志真志",
    "kana": "デイサービスセンターシマシ",
    "address": "沖縄県宜野湾市志真志３－２－５シルバーハウス志真志 シルバーハウス志真志",
    "lat": 26.2571215,
    "lng": 127.7617368,
    "tel": "098-897-3166",
    "url": "",
    "pref": "沖縄県",
    "city": "宜野湾市",
    "category": "day_service",
    "serviceType": "通所介護",
    "capacity": 30,
    "openDays": [
      "平日",
      "土曜日",
      "祝日"
    ],
    "openDaysNote": ""
  },
  {
    "id": "4770500959",
    "name": "デイサービスセンター寿愛　我如古",
    "kana": "デイサービスセンタージュアイ　ガネコ",
    "address": "沖縄県宜野湾市我如古1丁目55番13号　1階",
    "lat": 26.2581607,
    "lng": 127.7570047,
    "tel": "098-943-1724",
    "url": "",
    "pref": "沖縄県",
    "city": "宜野湾市",
    "category": "day_service",
    "serviceType": "通所介護",
    "capacity": 0,
    "openDays": [
      "平日",
      "土曜日",
      "祝日"
    ],
    "openDaysNote": ""
  },
  {
    "id": "4770500306",
    "name": "デイサービスセンター想い",
    "kana": "デイサービスセンターウムイ",
    "address": "沖縄県宜野湾市宜野湾３丁目９番１４号",
    "lat": 26.2596266,
    "lng": 127.753379,
    "tel": "098-893-2890",
    "url": "https://www.uera.co.jp",
    "pref": "沖縄県",
    "city": "宜野湾市",
    "category": "day_service",
    "serviceType": "通所介護",
    "capacity": 60,
    "openDays": [
      "平日",
      "土曜日",
      "日曜日",
      "祝日"
    ],
    "openDaysNote": ""
  },
  {
    "id": "4770500793",
    "name": "デイサービスプルメリア",
    "kana": "デイサービスプルメリア",
    "address": "大山５－３－１ナーシングホーム宜野湾 ナーシングホーム宜野湾",
    "lat": 26.2794415,
    "lng": 127.7475451,
    "tel": "０９８－８９０－７７００",
    "url": "http://nursinghome-ginowan.com/",
    "pref": "沖縄県",
    "city": "宜野湾市",
    "category": "day_service",
    "serviceType": "通所介護",
    "capacity": 0,
    "openDays": [
      "平日",
      "土曜日",
      "祝日"
    ],
    "openDaysNote": ""
  },
  {
    "id": "4770500579",
    "name": "デイサービス森の川",
    "kana": "デイサービスモリノカワ",
    "address": "沖縄県宜野湾市宜野湾2-18-18　1F",
    "lat": 26.2639949,
    "lng": 127.7582042,
    "tel": "098-917-1925",
    "url": "https://www.chaski-morinokawa.com/morinokawa",
    "pref": "沖縄県",
    "city": "宜野湾市",
    "category": "day_service",
    "serviceType": "通所介護",
    "capacity": 25,
    "openDays": [
      "平日",
      "土曜日",
      "祝日"
    ],
    "openDaysNote": ""
  },
  {
    "id": "4770500850",
    "name": "はにんすの森デイサービス",
    "kana": "ハニンスノモリデイサービス",
    "address": "沖縄県宜野湾市野嵩１丁目１１番１４号",
    "lat": 26.2804669,
    "lng": 127.7801815,
    "tel": "098-892-2708",
    "url": "",
    "pref": "沖縄県",
    "city": "宜野湾市",
    "category": "day_service",
    "serviceType": "通所介護",
    "capacity": 0,
    "openDays": [
      "平日",
      "祝日"
    ],
    "openDaysNote": ""
  },
  {
    "id": "4770500967",
    "name": "ふれあいデイサービス愛知",
    "kana": "フレアイデイサービスアイチ",
    "address": "沖縄県宜野湾市愛知3丁目17番20号介護複合施設　ふれあい愛知の丘　1F 介護複合施設　ふれあい愛知の丘　1F",
    "lat": 26.2641630559386,
    "lng": 127.771352222055,
    "tel": "098-892-4165",
    "url": "http://fureai-kaigo.com/",
    "pref": "沖縄県",
    "city": "宜野湾市",
    "category": "day_service",
    "serviceType": "通所介護",
    "capacity": 25,
    "openDays": [
      "平日",
      "土曜日",
      "祝日"
    ],
    "openDaysNote": "日曜日を除く祝日は営業しています。"
  },
  {
    "id": "4770500264",
    "name": "ふれあいデイサービス宜野湾事業所",
    "kana": "フレアイデイサービスギノワンジギョウショ",
    "address": "沖縄県宜野湾市宜野湾一丁目１番２号",
    "lat": 26.2651539,
    "lng": 127.763728,
    "tel": "098-896-0567",
    "url": "http://fureai-kaigo.com/",
    "pref": "沖縄県",
    "city": "宜野湾市",
    "category": "day_service",
    "serviceType": "通所介護",
    "capacity": 45,
    "openDays": [
      "平日",
      "土曜日",
      "祝日"
    ],
    "openDaysNote": "サービス提供時間は9：30～16：45となっております。"
  },
  {
    "id": "4710510894",
    "name": "医療法人　悠々会　デイサービス池原",
    "kana": "イリョウホウジン　ユウユウカイ　デイサービスイケハラ",
    "address": "沖縄県宜野湾市新城２丁目４０番２７号",
    "lat": 26.2875578,
    "lng": 127.7681515,
    "tel": "098-893-1615",
    "url": "",
    "pref": "沖縄県",
    "city": "宜野湾市",
    "category": "day_service",
    "serviceType": "通所介護",
    "capacity": 0,
    "openDays": [
      "平日",
      "土曜日"
    ],
    "openDaysNote": ""
  },
  {
    "id": "4770500215",
    "name": "医療法人おもと会　デイサービスセンター上原",
    "kana": "イリョウホウジンオモトカイ　デイサービスセンターウエハラ",
    "address": "沖縄県宜野湾市上原1丁目15番11号",
    "lat": 26.2772809,
    "lng": 127.7754042,
    "tel": "098-894-0101",
    "url": "http://www.omotokai.or.jp",
    "pref": "沖縄県",
    "city": "宜野湾市",
    "category": "day_service",
    "serviceType": "通所介護",
    "capacity": 0,
    "openDays": [
      "平日",
      "土曜日",
      "祝日"
    ],
    "openDaysNote": "臨時休業（台風接近、非常災害時など）"
  },
  {
    "id": "4770500595",
    "name": "株式会社　エールサポート",
    "kana": "カブシキカイシャ　エールサポート",
    "address": "赤道1-12-19デイサービスセンターてぃーち デイサービスセンターてぃーち",
    "lat": 26.2745279980249,
    "lng": 127.769979073448,
    "tel": "098-894-2243",
    "url": "",
    "pref": "沖縄県",
    "city": "宜野湾市",
    "category": "day_service",
    "serviceType": "通所介護",
    "capacity": 30,
    "openDays": [
      "平日",
      "土曜日",
      "日曜日",
      "祝日"
    ],
    "openDaysNote": ""
  },
  {
    "id": "4770500041",
    "name": "社会福祉法人善隣福祉会　通所介護事業所　愛誠園",
    "kana": "シャカイフクシホウジンゼンリンフクシカイ　ツウショカイゴジギョウショ　アイセイエン",
    "address": "沖縄県宜野湾市伊佐3丁目26番8号",
    "lat": 26.2925916295545,
    "lng": 127.758109085812,
    "tel": "098-897-8231",
    "url": "aiseien-okinawa.com/",
    "pref": "沖縄県",
    "city": "宜野湾市",
    "category": "day_service",
    "serviceType": "通所介護",
    "capacity": 55,
    "openDays": [
      "平日",
      "土曜日",
      "祝日"
    ],
    "openDaysNote": ""
  },
  {
    "id": "4770500660",
    "name": "通所介護センター彩風の杜ぎのわん",
    "kana": "ツウショカイゴセンターアヤカゼノモリギノワン",
    "address": "沖縄県宜野湾市上原2-8-6普天間産業ビル 普天間産業ビル",
    "lat": 26.2786476,
    "lng": 127.7789705,
    "tel": "098-893-7208",
    "url": "www.okichuen.jp",
    "pref": "沖縄県",
    "city": "宜野湾市",
    "category": "day_service",
    "serviceType": "通所介護",
    "capacity": 0,
    "openDays": [
      "平日",
      "土曜日",
      "祝日"
    ],
    "openDaysNote": "・台風での暴風警報発令時（バスの運行休止時）事業所は、休みとなります。"
  },
  {
    "id": "4770500736",
    "name": "福寿園デイサービスセンター",
    "kana": "フクジュエンデイサービスセンター",
    "address": "宜野湾市赤道２－７－２",
    "lat": 26.2710869,
    "lng": 127.7723381,
    "tel": "917-2344",
    "url": "http://kijyukaisaiyou.com/",
    "pref": "沖縄県",
    "city": "宜野湾市",
    "category": "day_service",
    "serviceType": "通所介護",
    "capacity": 0,
    "openDays": [
      "平日",
      "土曜日",
      "祝日"
    ],
    "openDaysNote": ""
  },
  {
    "id": "4775800016",
    "name": "デイホーム　家福みー家　大田事業所",
    "kana": "デイホーム　イーフミーヤ　オオタジギョウショ",
    "address": "沖縄県島尻郡久米島町字大田５７０番地",
    "lat": 26.3443395,
    "lng": 126.7519591,
    "tel": "098-985-3220",
    "url": "",
    "pref": "沖縄県",
    "city": "久米島町",
    "category": "day_service",
    "serviceType": "通所介護",
    "capacity": 24,
    "openDays": [
      "平日",
      "土曜日",
      "祝日"
    ],
    "openDaysNote": "（1）上記の休み以外に災害時等（台風など）の場合、事業所が危険と判断する場合は休みになることがあります。（改行）（2）定休日に行事を行う場合があります。"
  },
  {
    "id": "4775800040",
    "name": "デイホーム家福みー家（美崎事業所）",
    "kana": "デイホームイーフミーヤ（ミサキジギョウショ）",
    "address": "沖縄県島尻郡久米島町真謝2番地",
    "lat": 26.3503454,
    "lng": 126.810976,
    "tel": "098-985-7588",
    "url": "",
    "pref": "沖縄県",
    "city": "久米島町",
    "category": "day_service",
    "serviceType": "通所介護",
    "capacity": 24,
    "openDays": [
      "平日",
      "土曜日",
      "祝日"
    ],
    "openDaysNote": ""
  },
  {
    "id": "4775800081",
    "name": "社会福祉法人心の会　デイサービスセンターかりゆし",
    "kana": "シャカイフクシホウジンククルノカイ　デイサービスセンターカリユシ",
    "address": "沖縄県島尻郡久米島町字真我里366番地",
    "lat": 26.3259896,
    "lng": 126.8046333,
    "tel": "098-985-8800",
    "url": "",
    "pref": "沖縄県",
    "city": "久米島町",
    "category": "day_service",
    "serviceType": "通所介護",
    "capacity": 34,
    "openDays": [
      "平日",
      "土曜日",
      "祝日"
    ],
    "openDaysNote": ""
  },