[
  {
    "id": "2571700372",
    "name": "デイサービスセンター長野の里",
    "kana": "デイサービスセンターナガノノサト",
    "address": "滋賀県愛知郡愛荘町長野1499番地",
    "lat": 35.1928092,
    "lng": 136.2100785,
    "tel": "0749-47-3200",
    "url": "http://www.nagano⁻sato.com/",
    "pref": "滋賀県",
    "city": "愛荘町",
    "category": "day_service",
    "serviceType": "通所介護",
    "capacity": null,
    "openDays": [
      "平日",
      "祝日"
    ],
    "openDaysNote": ""
  },
  {
    "id": "2571700083",
    "name": "社会福祉法人青祥会　デイサービスセンターやまびこ",
    "kana": "シャカイフクシホウジンセイショウカイデイサービスセンターヤマビコ",
    "address": "滋賀県愛知郡愛荘町安孫子1235番地",
    "lat": 35.1722192,
    "lng": 136.2502865,
    "tel": "0749-37-8532",
    "url": "http://www.seishokai.jp/",
    "pref": "滋賀県",
    "city": "愛荘町",
    "category": "day_service",
    "serviceType": "通所介護",
    "capacity": 20,
    "openDays": [
      "平日",
      "土曜日",
      "祝日"
    ],
    "openDaysNote": ""
  },
  {
    "id": "2570400024",
    "name": "ＪＡグリーン近江　デイサービスセンター　のどか",
    "kana": "グリーンオウミ　デイサービスセンター　ノドカ",
    "address": "滋賀県近江八幡市中小森町１１３８",
    "lat": 35.1097994,
    "lng": 136.0831111,
    "tel": "0748-33-2000",
    "url": "",
    "pref": "滋賀県",
    "city": "近江八幡市",
    "category": "day_service",
    "serviceType": "通所介護",
    "capacity": 0,
    "openDays": [
      "平日",
      "土曜日",
      "祝日"
    ],
    "openDaysNote": ""
  },
  {
    "id": "2570400065",
    "name": "オアシスデイサービスセンター",
    "kana": "オアシスデイサービスセンター",
    "address": "近江八幡市馬渕町６９０番地",
    "lat": 35.0963541,
    "lng": 136.1175684,
    "tel": "0748-38-0294",
    "url": "https://oasisdayservice.jp",
    "pref": "滋賀県",
    "city": "近江八幡市",
    "category": "day_service",
    "serviceType": "通所介護",
    "capacity": 30,
    "openDays": [
      "平日",
      "土曜日",
      "祝日"
    ],
    "openDaysNote": ""
  },
  {
    "id": "2570400982",
    "name": "コンパスウォーク近江八幡",
    "kana": "コンパスウォークオウミハチマン",
    "address": "滋賀県近江八幡市土田町1325-1",
    "lat": 35.1263026869887,
    "lng": 136.093609803041,
    "tel": "0748-43-1383",
    "url": "https://keigo-group.co.jp/shop/shigaken/15622/",
    "pref": "滋賀県",
    "city": "近江八幡市",
    "category": "day_service",
    "serviceType": "通所介護",
    "capacity": 0,
    "openDays": [
      "平日"
    ],
    "openDaysNote": "年末年始休暇　12月31～1月3日"
  },
  {
    "id": "2570400941",
    "name": "ツクイ近江八幡鷹飼",
    "kana": "ツクイオウミハチマンタカカイ",
    "address": "近江八幡市鷹飼町北4丁目21番地2号",
    "lat": 35.1276746,
    "lng": 136.101774,
    "tel": "0748‐31‐1120",
    "url": "https://www.tsukui.net/home-care/2585/",
    "pref": "滋賀県",
    "city": "近江八幡市",
    "category": "day_service",
    "serviceType": "通所介護",
    "capacity": 20,
    "openDays": [
      "平日",
      "土曜日",
      "日曜日",
      "祝日"
    ],
    "openDaysNote": ""
  },
  {
    "id": "2570400453",
    "name": "デイサービスセンターひまわり",
    "kana": "デイサービスセンターヒマワリ",
    "address": "滋賀県近江八幡市土田町1313番地近江八幡市総合福祉センターひまわり館内 近江八幡市総合福祉センターひまわり館内",
    "lat": 35.127272,
    "lng": 136.0928073,
    "tel": "0748-34-6905",
    "url": "http://www.shakyo.orjp/hp/1117/",
    "pref": "滋賀県",
    "city": "近江八幡市",
    "category": "day_service",
    "serviceType": "通所介護",
    "capacity": 45,
    "openDays": [
      "平日",
      "土曜日",
      "祝日"
    ],
    "openDaysNote": "年末年始（12月30日～1月3日）"
  },
  {
    "id": "2570400818",
    "name": "デイサービスセンターふれあい",
    "kana": "デイサービスセンターフレアイ",
    "address": "滋賀県近江八幡市上田町1315-1",
    "lat": 35.1168516,
    "lng": 136.1116328,
    "tel": "0748-37-8716",
    "url": "https://www.honobonokai.com",
    "pref": "滋賀県",
    "city": "近江八幡市",
    "category": "day_service",
    "serviceType": "通所介護",
    "capacity": 0,
    "openDays": [
      "平日",
      "土曜日",
      "祝日"
    ],
    "openDaysNote": "12/31～1/3は除く"
  },
  {
    "id": "2570400081",
    "name": "デイサービスセンターむべの里",
    "kana": "デイサービスセンタームベノサト",
    "address": "滋賀県近江八幡市北之庄町1103",
    "lat": 35.1457456457337,
    "lng": 136.08924663373,
    "tel": "0748-32-7254",
    "url": "http://www.kohitujikai/net/mube/",
    "pref": "滋賀県",
    "city": "近江八幡市",
    "category": "day_service",
    "serviceType": "通所介護",
    "capacity": 30,
    "openDays": [
      "平日",
      "土曜日",
      "日曜日",
      "祝日"
    ],
    "openDaysNote": "年末・年始の休み12/30～1/3"
  },
  {
    "id": "2570400016",
    "name": "デイサービスセンター赤煉瓦の郷",
    "kana": "デイサービスセンターアカレンガノサト",
    "address": "近江八幡市船木町59番地３",
    "lat": 35.137826,
    "lng": 136.0804502,
    "tel": "0748-34-7126",
    "url": "https://ichizenkai.com/",
    "pref": "滋賀県",
    "city": "近江八幡市",
    "category": "day_service",
    "serviceType": "通所介護",
    "capacity": 35,
    "openDays": [
      "平日",
      "土曜日",
      "祝日"
    ],
    "openDaysNote": ""
  },
  {
    "id": "2570400784",
    "name": "レッツ倶楽部たかはし近江八幡",
    "kana": "レッツクラブタカハシオウミハチマン",
    "address": "滋賀県近江八幡市出町653六芳舎ビル１F 六芳舎ビル１F",
    "lat": 35.1314299,
    "lng": 136.0996231,
    "tel": "0748-36-2251",
    "url": "http://www.lets-club.jp/shop/takahashi-omihachiman/",
    "pref": "滋賀県",
    "city": "近江八幡市",
    "category": "day_service",
    "serviceType": "通所介護",
    "capacity": 0,
    "openDays": [
      "平日",
      "祝日"
    ],
    "openDaysNote": "ただし12月31日から1月3日を除く"
  },
  {
    "id": "2570400073",
    "name": "水茎の里デイサービスセンター",
    "kana": "スイケイノサトデイサービスセンター",
    "address": "滋賀県近江八幡市牧町1885番地",
    "lat": 35.1400755,
    "lng": 136.0485921,
    "tel": "0748-33-5337",
    "url": "http://www.ii.kaigo.or.jp",
    "pref": "滋賀県",
    "city": "近江八幡市",
    "category": "day_service",
    "serviceType": "通所介護",
    "capacity": 35,
    "openDays": [
      "平日",
      "土曜日",
      "祝日"
    ],
    "openDaysNote": ""
  },
  {
    "id": "2571200423",
    "name": "あうんデイサービス栗東",
    "kana": "アウンデイサービスリットウ",
    "address": "滋賀県栗東市出庭862-2",
    "lat": 35.0383369,
    "lng": 136.0018672,
    "tel": "077-554-8137",
    "url": "https://aun-shiga.co.jp/",
    "pref": "滋賀県",
    "city": "栗東市",
    "category": "day_service",
    "serviceType": "通所介護",
    "capacity": 30,
    "openDays": [
      "平日",
      "土曜日",
      "祝日"
    ],
    "openDaysNote": ""
  },
  {
    "id": "2571200431",
    "name": "こんぜデイサービスセンター",
    "kana": "コンゼデイサービスセンター",
    "address": "滋賀県栗東市御園2025番地2",
    "lat": 34.9956763,
    "lng": 136.0239212,
    "tel": "077-558-0046",
    "url": "",
    "pref": "滋賀県",
    "city": "栗東市",
    "category": "day_service",
    "serviceType": "通所介護",
    "capacity": 0,
    "openDays": [
      "平日",
      "土曜日",
      "祝日"
    ],
    "openDaysNote": "1月1日から1月3日は休業"
  },
  {
    "id": "2571200134",
    "name": "デイサービス　すずらんの郷",
    "kana": "デイサービス　スズランノサト",
    "address": "滋賀県栗東市下戸山1493-1",
    "lat": 35.0105555170958,
    "lng": 135.988688429161,
    "tel": "077-552-7755",
    "url": "http://suzurannosato.jp/",
    "pref": "滋賀県",
    "city": "栗東市",
    "category": "day_service",
    "serviceType": "通所介護",
    "capacity": 29,
    "openDays": [
      "平日",
      "土曜日",
      "祝日"
    ],
    "openDaysNote": ""
  },
  {
    "id": "2571200795",
    "name": "デイサービス　栗東すみれ園",
    "kana": "デイサービス　リットウスミレエン",
    "address": "滋賀県栗東市小野363番地",
    "lat": 35.0202104749423,
    "lng": 136.010931849074,
    "tel": "077-551-5501",
    "url": "http://www.ritto-sumire-en.jp/",
    "pref": "滋賀県",
    "city": "栗東市",
    "category": "day_service",
    "serviceType": "通所介護",
    "capacity": 35,
    "openDays": [
      "平日",
      "土曜日",
      "祝日"
    ],
    "openDaysNote": ""
  },
  {
    "id": "2571200449",
    "name": "デイサービスセンター　いきいき",
    "kana": "デイサービスセンター　イキイキ",
    "address": "滋賀県栗東市綣5丁目15番38号",
    "lat": 35.0386253,
    "lng": 135.9749006,
    "tel": "077-553-2800",
    "url": "http://www.mashimo.or.jp/",
    "pref": "滋賀県",
    "city": "栗東市",
    "category": "day_service",
    "serviceType": "通所介護",
    "capacity": 35,
    "openDays": [
      "平日",
      "土曜日"
    ],
    "openDaysNote": ""
  },
  {
    "id": "2571200993",
    "name": "デイサービスセンターリヤンド栗東",
    "kana": "デイサービスセンターリヤンドリットウ",
    "address": "滋賀県栗東市野尻121-2",
    "lat": 35.0377707,
    "lng": 135.991151,
    "tel": "077-551-2105",
    "url": "liende-kizuna.jp",
    "pref": "滋賀県",
    "city": "栗東市",
    "category": "day_service",
    "serviceType": "通所介護",
    "capacity": 0,
    "openDays": [
      "平日",
      "土曜日",
      "祝日"
    ],
    "openDaysNote": ""
  },
  {
    "id": "2511200616",
    "name": "デイサービスセンター悠々",
    "kana": "デイサービスセンターユウユウ",
    "address": "滋賀県栗東市霊仙寺1丁目1番52号",
    "lat": 35.0387781,
    "lng": 135.9749339,
    "tel": "077-553-1118",
    "url": "http://www.mashimo.or.jp/",
    "pref": "滋賀県",
    "city": "栗東市",
    "category": "day_service",
    "serviceType": "通所介護",
    "capacity": 35,
    "openDays": [
      "平日",
      "土曜日"
    ],
    "openDaysNote": ""
  },
  {
    "id": "2571200803",
    "name": "デイサービスらっく　小柿",
    "kana": "デイサービスラック　オガキ",
    "address": "滋賀県栗東市小柿6丁目2-2",
    "lat": 35.0222663,
    "lng": 135.9714096,
    "tel": "077-552-7800",
    "url": "http://www.rac-kaigo.jp/",
    "pref": "滋賀県",
    "city": "栗東市",
    "category": "day_service",
    "serviceType": "通所介護",
    "capacity": 0,
    "openDays": [
      "平日",
      "土曜日",
      "祝日"
    ],
    "openDaysNote": "祝日は平常通り営業いたします。（改行）（改行）介護予防・総合事業の方には季節休暇（ゴールデンウィーク・お盆休み・年末休暇等）があります。"
  },
  {
    "id": "2571200340",
    "name": "デイサービスらっく安養寺",
    "kana": "デイサービスラックアンヨウジ",
    "address": "滋賀県栗東市安養寺1丁目4-15",
    "lat": 35.0224862,
    "lng": 136.0003761,
    "tel": "077-552-6661",
    "url": "http://www.rac-kaigo.jp",
    "pref": "滋賀県",
    "city": "栗東市",
    "category": "day_service",
    "serviceType": "通所介護",
    "capacity": 20,
    "openDays": [
      "平日",
      "土曜日",
      "祝日"
    ],
    "openDaysNote": "祝日は平常通り営業します"
  },
  {
    "id": "2571200845",
    "name": "またあした栗東",
    "kana": "マタアシタリットウ",
    "address": "滋賀県栗東市安養寺6丁目9番60号イセムラビル1F イセムラビル1F",
    "lat": 35.020653,
    "lng": 135.9964239,
    "tel": "077-516-7888",
    "url": "http://mataashita.jp/",
    "pref": "滋賀県",
    "city": "栗東市",
    "category": "day_service",
    "serviceType": "通所介護",
    "capacity": 3,
    "openDays": [
      "平日",
      "土曜日",
      "祝日"
    ],
    "openDaysNote": "台風・地震など想定外の災害により臨時休業することがあります。（改行）（改行）年末年始　12月31日から1月3日までは冬季休業いたします。"
  },
  {
    "id": "2571200928",
    "name": "株式会社ツクイ　ツクイ栗東小柿",
    "kana": "カブシキガイシャツクイ　ツクイリットウオガキ",
    "address": "滋賀県栗東市小柿1丁目4-14",
    "lat": 35.0252215,
    "lng": 135.9757847,
    "tel": "077-554-7005",
    "url": "",
    "pref": "滋賀県",
    "city": "栗東市",
    "category": "day_service",
    "serviceType": "通所介護",
    "capacity": 0,
    "openDays": [
      "平日",
      "土曜日",
      "日曜日",
      "祝日"
    ],
    "openDaysNote": ""
  },
  {
    "id": "2571200027",
    "name": "栗東デイサービスセンター",
    "kana": "リットウデイサービスセンター",
    "address": "滋賀県栗東市出庭697-1",
    "lat": 35.0362732,
    "lng": 136.0034726,
    "tel": "077-551-1400",
    "url": "http://www.saiseikai-shiga.jp/tankaiso/",
    "pref": "滋賀県",
    "city": "栗東市",
    "category": "day_service",
    "serviceType": "通所介護",
    "capacity": 0,
    "openDays": [
      "平日",
      "土曜日",
      "祝日"
    ],
    "openDaysNote": "年末に1日だけ入浴サービスを行う。"
  },
  {
    "id": "2571200068",
    "name": "社会福祉法人　栗東市社会福祉協議会　通所介護事業所「やすらぎ」",
    "kana": "シャカイフクシホウジン　リットウシシャカイフクシキョウギカイ　ツウショカイゴジギョウショヤスラギ",
    "address": "滋賀県栗東市出庭７００－１",
    "lat": 35.0365871,
    "lng": 136.0042614,
    "tel": "077-554-0606",
    "url": "http://ritto-shakyo.jp/",
    "pref": "滋賀県",
    "city": "栗東市",
    "category": "day_service",
    "serviceType": "通所介護",
    "capacity": 30,
    "openDays": [
      "平日",
      "土曜日"
    ],
    "openDaysNote": ""
  },
  {
    "id": "2571200019",
    "name": "社会福祉法人栗東市社会福祉協議会通所介護事業所「なごやか」",
    "kana": "シャカイフクシホウジンリットウシシャカイフクシキョウギカイツウショカイゴジギョウショ「ナゴヤカ」",
    "address": "滋賀県栗東市安養寺１９０栗東市総合福祉保健センター　なごやか 栗東市総合福祉保健センター　なごやか",
    "lat": 35.0176603798954,
    "lng": 136.004035920238,
    "tel": "077-554-6113",
    "url": "https://www.ritto-shakyo.jp/",
    "pref": "滋賀県",
    "city": "栗東市",
    "category": "day_service",
    "serviceType": "通所介護",
    "capacity": 0,
    "openDays": [
      "平日",
      "土曜日"
    ],
    "openDaysNote": ""
  },
  {
    "id": "2571200050",
    "name": "社会福祉法人栗東市社会福祉協議会通所介護事業所「ゆうあい」",
    "kana": "シャカイフクシホウジンリットウシシャカイフクシキョウギカイツウショカイゴジギョウショ「ユウアイ」",
    "address": "滋賀県栗東市小柿一丁目１０－１０",
    "lat": 35.0271935,
    "lng": 135.9773645,
    "tel": "077-554-1004",
    "url": "http://www.ritto-shakyo.jp/index.html",
    "pref": "滋賀県",
    "city": "栗東市",
    "category": "day_service",
    "serviceType": "通所介護",
    "capacity": 0,
    "openDays": [
      "平日",
      "土曜日"
    ],
    "openDaysNote": ""
  },
  {
    "id": "2571200365",
    "name": "笑",
    "kana": "ワライ",
    "address": "滋賀県栗東市綣6丁目8-14",
    "lat": 35.0355896,
    "lng": 135.9767449,
    "tel": "077-598-6444",
    "url": "http://sksupport.net",
    "pref": "滋賀県",
    "city": "栗東市",
    "category": "day_service",
    "serviceType": "通所介護",
    "capacity": 19,
    "openDays": [
      "平日",
      "土曜日",
      "祝日"
    ],
    "openDaysNote": "延長サービスご利用の場合は１９時まで。"
  },
  {
    "id": "2572300263",
    "name": "デイサービス　スイッチオン銀河",
    "kana": "デイサービス　スイッチオンギンガ",
    "address": "湖南市石部東6丁目6番6号デンダーハウス　1F デンダーハウス　1F",
    "lat": 35.0069917841139,
    "lng": 136.062844525131,
    "tel": "0748-77-2877",
    "url": "http://switchon-s.xsrv.jp/",
    "pref": "滋賀県",
    "city": "湖南市",
    "category": "day_service",
    "serviceType": "通所介護",
    "capacity": 32,
    "openDays": [
      "平日",
      "土曜日",
      "祝日"
    ],
    "openDaysNote": ""
  },
  {
    "id": "2572300024",
    "name": "ぼだいじデイサービスセンター虹",
    "kana": "ボダイジデイサービスセンターニジ",
    "address": "滋賀県湖南市菩提寺327番地4ケアハウス　ピスガ甲西 ケアハウス　ピスガ甲西",
    "lat": 35.0404571,
    "lng": 136.0703797,
    "tel": "0748-74-3901",
    "url": "http://chiiroba.jp/",
    "pref": "滋賀県",
    "city": "湖南市",
    "category": "day_service",
    "serviceType": "通所介護",
    "capacity": 0,
    "openDays": [
      "平日",
      "土曜日",
      "祝日"
    ],
    "openDaysNote": ""
  },
  {
    "id": "2572300180",
    "name": "十二坊デイサービスセンター",
    "kana": "ジュウニボウデイサービスセンター",
    "address": "滋賀県湖南市岩根690番地の4",
    "lat": 35.0098462067701,
    "lng": 136.116410690213,
    "tel": "0748-75-8884",
    "url": "ohmiwajunkai.or.jp",
    "pref": "滋賀県",
    "city": "湖南市",
    "category": "day_service",
    "serviceType": "通所介護",
    "capacity": 30,
    "openDays": [
      "平日",
      "土曜日",
      "祝日"
    ],
    "openDaysNote": "年末年始の休業については、基本的には12月30日～1月3日の間。ただし、曜日の兼合いにより変更する場合がある。"
  },
  {
    "id": "2552380012",
    "name": "石部デイサービスセンター",
    "kana": "イシベデイサービスセンター",
    "address": "滋賀県湖南市丸山四丁目5番1号",
    "lat": 34.9987899,
    "lng": 136.0461164,
    "tel": "0748-77-0185",
    "url": "http://www.hachikikai.com",
    "pref": "滋賀県",
    "city": "湖南市",
    "category": "day_service",
    "serviceType": "通所介護",
    "capacity": 0,
    "openDays": [
      "平日",
      "土曜日",
      "日曜日",
      "祝日"
    ],
    "openDaysNote": ""
  },
  {
    "id": "2572300016",
    "name": "美松苑デイサービスセンター",
    "kana": "ビショウエンデイサービスセンター",
    "address": "湖南市１３２５番地",
    "lat": 27.6518754,
    "lng": 113.4941493,
    "tel": "0748-72-4705",
    "url": "http://www.ohmiwajunkai.or.jp/mimatsuen_hariko/",
    "pref": "滋賀県",
    "city": "湖南市",
    "category": "day_service",
    "serviceType": "通所介護",
    "capacity": 30,
    "openDays": [
      "平日",
      "土曜日",
      "祝日"
    ],
    "openDaysNote": "悪天候（台風・降雪）の為、警報が発令された場合や送迎に危険が伴うことが予測されるためやむなく業務を中止することがあります。"
  },
  {
    "id": "2571400460",
    "name": "（有）デイサービスひまわりの家事業所",
    "kana": "（ユウ）デイサービスヒマワリノイエジギョウショ",
    "address": "甲賀市信楽町長野１４３７－７０",
    "lat": 34.8871312,
    "lng": 136.0482871,
    "tel": "0748-83-1124",
    "url": "http//care-net.biz/25/himawarinoie/",
    "pref": "滋賀県",
    "city": "甲賀市",
    "category": "day_service",
    "serviceType": "通所介護",
    "capacity": 25,
    "openDays": [
      "平日",
      "土曜日",
      "祝日"
    ],
    "openDaysNote": ""
  },
  {
    "id": "2571400841",
    "name": "JAゆうハート　ほそはらデイサービスセンター",
    "kana": "JAユウハート　ホソハラデイサービスセンター",
    "address": "滋賀県甲賀市信楽町柞原793",
    "lat": 34.8614033553497,
    "lng": 136.026115756414,
    "tel": "0748-70-3397",
    "url": "http://www.ja-youheart.co.jp/",
    "pref": "滋賀県",
    "city": "甲賀市",
    "category": "day_service",
    "serviceType": "通所介護",
    "capacity": 150,
    "openDays": [
      "平日",
      "土曜日",
      "祝日"
    ],
    "openDaysNote": "台風その他自然災害等により、やむを得ず利用時間の変更、又は中止とさせて頂くことがあります。"
  },
  {
    "id": "2571400668",
    "name": "JAゆうハート甲南デイサービスセンター",
    "kana": "JAユウハートコウナンデイサービスセンター",
    "address": "滋賀県甲賀市甲南町杉谷106番地",
    "lat": 34.9245855,
    "lng": 136.1561467,
    "tel": "0748-86-8588",
    "url": "www.ja-youheart.co.jp",
    "pref": "滋賀県",
    "city": "甲賀市",
    "category": "day_service",
    "serviceType": "通所介護",
    "capacity": 0,
    "openDays": [
      "平日",
      "土曜日",
      "祝日"
    ],
    "openDaysNote": ""
  },
  {
    "id": "2571400569",
    "name": "ＮＰＯみなくちデイサービスセンター",
    "kana": "エヌピーオーミナクチデイサービスセンター",
    "address": "滋賀県甲賀市水口町京町7番5号",
    "lat": 34.966728,
    "lng": 136.179169,
    "tel": "0748-62-2880",
    "url": "https://npominakuchi.jp/",
    "pref": "滋賀県",
    "city": "甲賀市",
    "category": "day_service",
    "serviceType": "通所介護",
    "capacity": 0,
    "openDays": [
      "平日",
      "土曜日",
      "祝日"
    ],
    "openDaysNote": ""
  },
  {
    "id": "2571400015",
    "name": "せせらぎ苑デイサービスセンター",
    "kana": "セセラギエンデイサービスセンター",
    "address": "滋賀県甲賀市甲南町葛木855番地",
    "lat": 34.9321544,
    "lng": 136.1791334,
    "tel": "0748-86-1020",
    "url": "http://kohnankai.jp",
    "pref": "滋賀県",
    "city": "甲賀市",
    "category": "day_service",
    "serviceType": "通所介護",
    "capacity": 0,
    "openDays": [
      "平日",
      "土曜日",
      "祝日"
    ],
    "openDaysNote": ""
  },
  {
    "id": "2571400866",
    "name": "デイサービスあいむ水口",
    "kana": "デイサービスアイムミナクチ",
    "address": "水口町北泉1丁目138",
    "lat": 34.9836174,
    "lng": 136.1425075,
    "tel": "0748-62-2811",
    "url": "http://k-aimu.co.jp",
    "pref": "滋賀県",
    "city": "甲賀市",
    "category": "day_service",
    "serviceType": "通所介護",
    "capacity": 0,
    "openDays": [
      "平日",
      "土曜日"
    ],
    "openDaysNote": "令和3年8月1日より指定通所型サービスA実施（水曜日・土曜日（9：45～12：00）"
  },
  {
    "id": "2571400148",
    "name": "デイサービスセンターエーデル土山",
    "kana": "デイサービスセンターエーデルツチヤマ",
    "address": "甲賀市土山町北土山2057",
    "lat": 34.9389609,
    "lng": 136.281638,
    "tel": "0748-66-1911",
    "url": "http://www.edeltutiyama.com",
    "pref": "滋賀県",
    "city": "甲賀市",
    "category": "day_service",
    "serviceType": "通所介護",
    "capacity": 0,
    "openDays": [
      "平日",
      "土曜日",
      "日曜日",
      "祝日"
    ],
    "openDaysNote": "その年により、元旦営業　　※状況に応じ日曜日の営業もあり"
  },
  {
    "id": "2571400288",
    "name": "デイサービスセンターすこやか荘",
    "kana": "デイサービスセンタースコヤカソウ",
    "address": "甲賀市甲賀町大原中355番地",
    "lat": 34.91116,
    "lng": 136.2315293,
    "tel": "0748-88-5245",
    "url": "http://www.kokashakyo.sakura.ne.jp",
    "pref": "滋賀県",
    "city": "甲賀市",
    "category": "day_service",
    "serviceType": "通所介護",
    "capacity": 35,
    "openDays": [
      "平日",
      "土曜日",
      "祝日"
    ],
    "openDaysNote": "サービスにあたっての留意事項（改行）①サービスの利用にあたっては、医師の診断や日常生活上留意事項、利用当日の健康状態等を職員に連絡をお願いします。（改行）②サービスの利用の中止をする際には、すみやかに下記へご連絡ください。デイサービスセンターすこやか荘　TEL88－5245（改行）③利用者の都合でサービスを中止にする場合は、遅くとも前日までにご連絡ください。当日のキャンセルは、次のキャンセル料を申し受けることになりますのでご了承ください。（改行）サービス利用日の前日まで　無料（改行）サービス利用日の当日　　　介護保険告示額の50％（改行）※食事は外注の為当日9時20分以降のキャンセル時には、給食費650円を申し受けます。（ただし、利用者の容態の急変など、緊急やむを得ない事情がある場合は、キャンセル料は不要です。）（改行）④利用者のサービス提供時において、利用者に病状等の急変が生じた場合、その他の必要な場合には、速やかに関係機関等へ連絡を行い、必要な処置を講じます。"
  },
  {
    "id": "2571400973",
    "name": "デイサービスセンターたるみ",
    "kana": "デイサービスセンタータルミ",
    "address": "滋賀県甲賀市土山町頓宮807-1",
    "lat": 34.9408768741457,
    "lng": 136.257762460713,
    "tel": "0748-60-1617",
    "url": "http://www.tarumi-day.com",
    "pref": "滋賀県",
    "city": "甲賀市",
    "category": "day_service",
    "serviceType": "通所介護",
    "capacity": 23,
    "openDays": [
      "平日",
      "土曜日",
      "祝日"
    ],
    "openDaysNote": ""
  },
  {
    "id": "2571401096",
    "name": "デイサービスまごころ",
    "kana": "デイサービスマゴコロ",
    "address": "滋賀県甲賀市水口町山3938番地41",
    "lat": 35.0068038,
    "lng": 136.1741843,
    "tel": "0748-69-5810",
    "url": "http//www.dayservice-magokoro.com/",
    "pref": "滋賀県",
    "city": "甲賀市",
    "category": "day_service",
    "serviceType": "通所介護",
    "capacity": 0,
    "openDays": [
      "平日",
      "土曜日",
      "祝日"
    ],
    "openDaysNote": "年末年始（12/30～1/3）・夏季（8/13～8/16）はお休みとさせて頂きます"
  },
  {
    "id": "2571401294",
    "name": "デイサービス楽々",
    "kana": "デイサービス　ララ",
    "address": "滋賀県甲賀市信楽町勅旨349",
    "lat": 34.8930626,
    "lng": 136.0747935,
    "tel": "0748-60-5460",
    "url": "",
    "pref": "滋賀県",
    "city": "甲賀市",
    "category": "day_service",
    "serviceType": "通所介護",
    "capacity": 0,
    "openDays": [
      "平日",
      "土曜日",
      "祝日"
    ],
    "openDaysNote": ""
  },
  {
    "id": "2571400775",
    "name": "デイサービス憩々",
    "kana": "デイサービスイコイコイ",
    "address": "滋賀県甲賀市水口町北泉2丁目84",
    "lat": 34.9851533,
    "lng": 136.1394939,
    "tel": "0748-62-5552",
    "url": "",
    "pref": "滋賀県",
    "city": "甲賀市",
    "category": "day_service",
    "serviceType": "通所介護",
    "capacity": 34,
    "openDays": [
      "平日",
      "土曜日",
      "祝日"
    ],
    "openDaysNote": ""
  },
  {
    "id": "2571401013",
    "name": "はとがひらデイサービスセンター",
    "kana": "ハトガヒラデイサービスセンター",
    "address": "滋賀県甲賀市水口町水口6837-5特別養護老人ホームレーベンはとがひら 特別養護老人ホームレーベンはとがひら",
    "lat": 34.9617554706222,
    "lng": 136.183980979762,
    "tel": "0748-65-0066",
    "url": "http://www.ohmiwajunkai.or.jp",
    "pref": "滋賀県",
    "city": "甲賀市",
    "category": "day_service",
    "serviceType": "通所介護",
    "capacity": 30,
    "openDays": [
      "平日",
      "土曜日",
      "祝日"
    ],
    "openDaysNote": "年末年始は暦により定休日が変わります。"
  },
  {
    "id": "2571400981",
    "name": "レッツ倶楽部たかはし水口",
    "kana": "レッツクラブタカハシミナクチ",
    "address": "滋賀県甲賀市水口町伴中山3814-2",
    "lat": 34.9950802,
    "lng": 136.152095,
    "tel": "0748-69-7155",
    "url": "http://www.lets-club.jp/shop/takahashi-minakuchi",
    "pref": "滋賀県",
    "city": "甲賀市",
    "category": "day_service",
    "serviceType": "通所介護",
    "capacity": 25,
    "openDays": [
      "平日",
      "祝日"
    ],
    "openDaysNote": "ただし12月31日～1月3日を除く"
  },
  {
    "id": "2571400957",
    "name": "懐かし処いろり家",
    "kana": "ナツカシドコロイロリヤ",
    "address": "滋賀県甲賀市甲南町野尻434",
    "lat": 34.9161756,
    "lng": 136.1812896,
    "tel": "0748-86-4165",
    "url": "https://www.ikoi-iroriya.jp/",
    "pref": "滋賀県",
    "city": "甲賀市",
    "category": "day_service",
    "serviceType": "通所介護",
    "capacity": 0,
    "openDays": [
      "平日",
      "土曜日",
      "祝日"
    ],
    "openDaysNote": ""
  },
  {
    "id": "2571400262",
    "name": "甲賀市デイサービスセンター",
    "kana": "コウカシデイサービスセンター",
    "address": "滋賀県甲賀市水口町宇川２５番地",
    "lat": 34.9650975,
    "lng": 136.1488658,
    "tel": "0748-63-6080",
    "url": "//kotoukai.or.jp/",
    "pref": "滋賀県",
    "city": "甲賀市",
    "category": "day_service",
    "serviceType": "通所介護",
    "capacity": 30,
    "openDays": [
      "平日",
      "土曜日",
      "日曜日",
      "祝日"
    ],
    "openDaysNote": ""
  },
  {
    "id": "2571400031",
    "name": "信楽荘デイサービスセンター",
    "kana": "シガラキソウデイサービスセンター",
    "address": "滋賀県甲賀市信楽町牧1159番地",
    "lat": 34.9151572,
    "lng": 136.0753955,
    "tel": "0748-83-1313",
    "url": "http://www.shigaraki-itsuki.com",
    "pref": "滋賀県",
    "city": "甲賀市",
    "category": "day_service",
    "serviceType": "通所介護",
    "capacity": 0,
    "openDays": [
      "平日",
      "祝日"
    ],
    "openDaysNote": "年末年始期間は曜日等により決定する"
  },
  {
    "id": "2571401070",
    "name": "通所介護センター甲賀シルバーケア豊壽園",
    "kana": "ツウショカイゴセンターコウカシルバーケアホウジュエン",
    "address": "滋賀県甲賀市土山町北土山479",
    "lat": 34.9363587,
    "lng": 136.2896232,
    "tel": "0748-66-8088",
    "url": "http://www.sensin.or.jp",
    "pref": "滋賀県",
    "city": "甲賀市",
    "category": "day_service",
    "serviceType": "通所介護",
    "capacity": 6,
    "openDays": [
      "平日",
      "祝日"
    ],
    "openDaysNote": ""
  },
  {
    "id": "2571800115",
    "name": "甲良町デイサービスセンターけやき",
    "kana": "コウラチョウデイサービスセンターケヤキ",
    "address": "滋賀県犬上郡甲良町在士625",
    "lat": 35.210337043245,
    "lng": 136.255200907935,
    "tel": "0749-38-8181",
    "url": "http://www.toyosato.or.jp",
    "pref": "滋賀県",
    "city": "甲良町",
    "category": "day_service",
    "serviceType": "通所介護",
    "capacity": 0,
    "openDays": [
      "平日",
      "土曜日",
      "祝日"
    ],
    "openDaysNote": ""
  },
  {
    "id": "2572200554",
    "name": "あずみの郷通所介護事業所",
    "kana": "アズミノサトツウショカイゴジギョウショ",
    "address": "滋賀県高島市安曇川町田中3741-1あずみの郷デイサービスセンター あずみの郷デイサービスセンター",
    "lat": 35.3290982,
    "lng": 135.9966921,
    "tel": "0740-32-8391",
    "url": "www.ohyama-inc.co.jp/",
    "pref": "滋賀県",
    "city": "高島市",
    "category": "day_service",
    "serviceType": "通所介護",
    "capacity": 0,
    "openDays": [
      "平日",
      "土曜日",
      "日曜日",
      "祝日"
    ],
    "openDaysNote": ""
  },
  {
    "id": "2572200778",
    "name": "デイサービスてのひらいっぱい",
    "kana": "デイサービステノヒライッパイ",
    "address": "滋賀県高島市安曇川町西万木213番地",
    "lat": 35.3263432,
    "lng": 136.0243304,
    "tel": "740287718",
    "url": "",
    "pref": "滋賀県",
    "city": "高島市",
    "category": "day_service",
    "serviceType": "通所介護",
    "capacity": 0,
    "openDays": [
      "平日",
      "土曜日",
      "祝日"
    ],
    "openDaysNote": "年末年始　　　　　　12/30～1/3（改行）ゴールデンウイーク　5/3.5/4（改行）お盆　　　　　　　　8/14～8/16（改行）は休業となります。"
  },
  {
    "id": "2572200646",
    "name": "デイサービスひより",
    "kana": "デイサービス　ヒヨリ",
    "address": "滋賀県高島市新旭町旭892-1",
    "lat": 35.3541638678887,
    "lng": 136.036041131322,
    "tel": "0740-20-1810",
    "url": "",
    "pref": "滋賀県",
    "city": "高島市",
    "category": "day_service",
    "serviceType": "通所介護",
    "capacity": null,
    "openDays": [
      "平日",
      "土曜日",
      "祝日"
    ],
    "openDaysNote": ""
  },
  {
    "id": "2572200042",
    "name": "ふじの里デイサービスセンター",
    "kana": "フジノサトデイサービスセンター",
    "address": "滋賀県高島市安曇川町下小川３２２０番地１",
    "lat": 35.3200494,
    "lng": 136.0331223,
    "tel": "0740-32-4140",
    "url": "www.kouyoukai-fujinosato.jp",
    "pref": "滋賀県",
    "city": "高島市",
    "category": "day_service",
    "serviceType": "通所介護",
    "capacity": 0,
    "openDays": [
      "平日",
      "祝日"
    ],
    "openDaysNote": "なし"
  },
  {
    "id": "2572200752",
    "name": "ブルーミングケア新旭",
    "kana": "ブルーミングケアシンアサヒ",
    "address": "滋賀県高島市新旭町旭１０８２",
    "lat": 35.3602537493045,
    "lng": 136.039452223557,
    "tel": "740337178",
    "url": "",
    "pref": "滋賀県",
    "city": "高島市",
    "category": "day_service",
    "serviceType": "通所介護",
    "capacity": 20,
    "openDays": [
      "平日",
      "土曜日",
      "日曜日",
      "祝日"
    ],
    "openDaysNote": ""
  },
  {
    "id": "2572200166",
    "name": "レインボー",
    "kana": "レインボー",
    "address": "滋賀県高島市新旭町藁園2603番地",
    "lat": 35.3497412,
    "lng": 136.0462428,
    "tel": "0740-25-8288",
    "url": "http://shinasahi-minorikai.or.jp",
    "pref": "滋賀県",
    "city": "高島市",
    "category": "day_service",
    "serviceType": "通所介護",
    "capacity": 5,
    "openDays": [
      "平日",
      "土曜日",
      "祝日"
    ],
    "openDaysNote": "台風・大雪等警報が発令された場合には、やむを得ず休業することがあります。（改行）また年末年始休む場合があります"
  },
  {
    "id": "2572200018",
    "name": "高島市社会福祉協議会きらりマキノ",
    "kana": "タカシマシシャカイフクシキョウギカイキラリマキノ",
    "address": "高島市マキノ町新保1095番地",
    "lat": 35.4459642,
    "lng": 136.0314493,
    "tel": "0740-27-1700",
    "url": "",
    "pref": "滋賀県",
    "city": "高島市",
    "category": "day_service",
    "serviceType": "通所介護",
    "capacity": 0,
    "openDays": [
      "平日",
      "土曜日",
      "祝日"
    ],
    "openDaysNote": ""
  },
  {
    "id": "2572200034",
    "name": "高島市社会福祉協議会きらり安曇川",
    "kana": "タカシマシシャカイフクシキョウギカイキラリアドガワ",
    "address": "滋賀県高島市安曇川町田中555番地",
    "lat": 35.3319007,
    "lng": 136.0172485,
    "tel": "0740-32-2133",
    "url": "",
    "pref": "滋賀県",
    "city": "高島市",
    "category": "day_service",
    "serviceType": "通所介護",
    "capacity": 0,
    "openDays": [
      "平日",
      "土曜日",
      "祝日"
    ],
    "openDaysNote": ""
  },
  {
    "id": "2572200091",
    "name": "高島市社会福祉協議会きらり高島",
    "kana": "タカシマシシャカイフクシキョウギカイキラリタカシマ",
    "address": "高島市勝野680番地",
    "lat": 35.2998787,
    "lng": 136.010577,
    "tel": "0740-36-8222",
    "url": "",
    "pref": "滋賀県",
    "city": "高島市",
    "category": "day_service",
    "serviceType": "通所介護",
    "capacity": null,
    "openDays": [
      "平日",
      "土曜日",
      "祝日"
    ],
    "openDaysNote": "なし"
  },
  {
    "id": "2572200067",
    "name": "高島市社会福祉協議会きらり今津",
    "kana": "タカシマシシャカイフクシキョウギカイキラリイマヅ",
    "address": "滋賀県高島市今津町上弘部４３８番地２",
    "lat": 35.4070874,
    "lng": 136.0049508,
    "tel": "0740-22-8179",
    "url": "",
    "pref": "滋賀県",
    "city": "高島市",
    "category": "day_service",
    "serviceType": "通所介護",
    "capacity": 0,
    "openDays": [
      "平日",
      "土曜日",
      "祝日"
    ],
    "openDaysNote": ""
  },
  {
    "id": "2572200430",
    "name": "高島市社会福祉協議会きらり今津北",
    "kana": "タカシマシシャカイフクシキョウギカイ　キラリイマヅキタ",
    "address": "滋賀県高島市今津町桂８３０番地１デイサービスセンター　しふくの杜 デイサービスセンター　しふくの杜",
    "lat": 35.4302742,
    "lng": 136.0254643,
    "tel": "0740-22-8211",
    "url": "",
    "pref": "滋賀県",
    "city": "高島市",
    "category": "day_service",
    "serviceType": "通所介護",
    "capacity": 35,
    "openDays": [
      "平日",
      "土曜日",
      "祝日"
    ],
    "openDaysNote": ""
  },
  {
    "id": "2570701116",
    "name": "ツクイ守山今宿",
    "kana": "ツクイモリヤマイマジュク",
    "address": "滋賀県守山市今宿2-8-18",
    "lat": 35.0526068,
    "lng": 135.9854785,
    "tel": "077-514-0778",
    "url": "https://www.tsukui.net/home-care/2309/",
    "pref": "滋賀県",
    "city": "守山市",
    "category": "day_service",
    "serviceType": "通所介護",
    "capacity": 0,
    "openDays": [
      "平日",
      "土曜日",
      "日曜日",
      "祝日"
    ],
    "openDaysNote": ""
  },
  {
    "id": "2570701025",
    "name": "デイサービスあいむ勝部",
    "kana": "デイサービスアイムカツベ",
    "address": "滋賀県守山市勝部二丁目4-12BH勝部ビル BH勝部ビル",
    "lat": 35.0476413,
    "lng": 135.9891604,
    "tel": "077-514-0720",
    "url": "http://k-aimu.co.jp",
    "pref": "滋賀県",
    "city": "守山市",
    "category": "day_service",
    "serviceType": "通所介護",
    "capacity": 90,
    "openDays": [
      "平日",
      "土曜日",
      "祝日"
    ],
    "openDaysNote": ""
  },
  {
    "id": "2570700282",
    "name": "デイサービスセンターしがそせい苑",
    "kana": "デイサービスセンターシガソセイエン",
    "address": "守山市水保町２６５０－１",
    "lat": 35.0979095,
    "lng": 135.9619092,
    "tel": "077-585-7878",
    "url": "http://soseien.jp/shiga/index.html",
    "pref": "滋賀県",
    "city": "守山市",
    "category": "day_service",
    "serviceType": "通所介護",
    "capacity": 0,
    "openDays": [
      "平日",
      "土曜日",
      "祝日"
    ],
    "openDaysNote": "特になし"
  },
  {
    "id": "2570701082",
    "name": "デイサービスモリ",
    "kana": "デイサービス杜",
    "address": "滋賀県守山市今浜町2620-132",
    "lat": 35.124712,
    "lng": 135.94686,
    "tel": "077-585-0277",
    "url": "http://tkk-kaigoservice.com",
    "pref": "滋賀県",
    "city": "守山市",
    "category": "day_service",
    "serviceType": "通所介護",
    "capacity": null,
    "openDays": [
      "平日",
      "祝日"
    ],
    "openDaysNote": ""
  },
  {
    "id": "2570700449",
    "name": "デイホームまたあした伊勢",
    "kana": "デイホームマタアシタイセ",
    "address": "守山市伊勢町１６７－１",
    "lat": 35.0406893,
    "lng": 135.9857385,
    "tel": "077-582-0113",
    "url": "http://mataashita.jp/",
    "pref": "滋賀県",
    "city": "守山市",
    "category": "day_service",
    "serviceType": "通所介護",
    "capacity": 3,
    "openDays": [
      "平日",
      "土曜日",
      "祝日"
    ],
    "openDaysNote": "台風、地震など想定外の災害により臨時休業することあり。"
  },
  {
    "id": "2570700340",
    "name": "リハビリサポートすいれん",
    "kana": "リハビリサポートスイレン",
    "address": "滋賀県守山市川田町1541-4",
    "lat": 35.0818625062307,
    "lng": 135.994584752856,
    "tel": "077-584-2772",
    "url": "http://www.youlife.ne.jp",
    "pref": "滋賀県",
    "city": "守山市",
    "category": "day_service",
    "serviceType": "通所介護",
    "capacity": 30,
    "openDays": [
      "平日",
      "土曜日",
      "祝日"
    ],
    "openDaysNote": ""
  },
  {
    "id": "2570700019",
    "name": "リハビリサポートゆうらいふ",
    "kana": "リハビリサポートユウライフ",
    "address": "守山市立田町1231-4",
    "lat": 35.1015624,
    "lng": 135.9799214,
    "tel": "077-585-5700",
    "url": "http://www.youlife.ne.jp",
    "pref": "滋賀県",
    "city": "守山市",
    "category": "day_service",
    "serviceType": "通所介護",
    "capacity": 35,
    "openDays": [
      "平日",
      "土曜日",
      "祝日"
    ],
    "openDaysNote": "年末年始（12/30～1/3）は休み"
  },
  {
    "id": "2570700779",
    "name": "レッツ倶楽部たかはし守山",
    "kana": "レッツクラブタカハシモリヤマ",
    "address": "滋賀県守山市守山6丁目17-10",
    "lat": 35.0630941074141,
    "lng": 135.99128133018,
    "tel": "077-598-1177",
    "url": "http://www.lets-club.jp/shop/takahashi-moriyamadaimon/",
    "pref": "滋賀県",
    "city": "守山市",
    "category": "day_service",
    "serviceType": "通所介護",
    "capacity": 19,
    "openDays": [
      "平日",
      "祝日"
    ],
    "openDaysNote": "年末年始（12/31～1/3）を除く。"
  },
  {
    "id": "2570700050",
    "name": "社会福祉法人慈惠会ゆいの里幸津川デイサービスセンター",
    "kana": "シャカイフクシホウジンジエイカイユイノサトサヅカワデイサービスセンター",
    "address": "滋賀県守山市幸津川町1549の3",
    "lat": 35.1098504,
    "lng": 135.9835793,
    "tel": "077-585-8900",
    "url": "http://www.yuinosato.or.jp",
    "pref": "滋賀県",
    "city": "守山市",
    "category": "day_service",
    "serviceType": "通所介護",
    "capacity": 32,
    "openDays": [
      "平日",
      "土曜日",
      "祝日"
    ],
    "openDaysNote": "特になし"
  },
  {
    "id": "2570700043",
    "name": "社会福祉法人慈惠会ゆいの里守山デイサービスセンター",
    "kana": "シャカイフクシホウジンジエイカイユイノサトモリヤマデイサービスセンター",
    "address": "守山市洲本町１番地",
    "lat": 35.0951578,
    "lng": 135.9867237,
    "tel": "077-585-5020",
    "url": "http://www.yuinosato.or.jp",
    "pref": "滋賀県",
    "city": "守山市",
    "category": "day_service",
    "serviceType": "通所介護",
    "capacity": null,
    "openDays": [
      "平日",
      "祝日"
    ],
    "openDaysNote": "特になし"
  },
  {
    "id": "2570700076",
    "name": "社会福祉法人友愛三宅デイサービスセンター",
    "kana": "シャカイフクシホウジンユウアイミヤケデイサービスセンター",
    "address": "滋賀県守山市三宅町833-4",
    "lat": 35.0594976,
    "lng": 135.9682817,
    "tel": "077-581-1551",
    "url": "http://www.kanariya.or.jp",
    "pref": "滋賀県",
    "city": "守山市",
    "category": "day_service",
    "serviceType": "通所介護",
    "capacity": 35,
    "openDays": [
      "平日",
      "土曜日",
      "祝日"
    ],
    "openDaysNote": ""
  },
  {
    "id": "2570700241",
    "name": "石田デイサービスセンター",
    "kana": "イシダデイサービスセンター",
    "address": "滋賀県守山市石田町４２２番地社協石田ケアセンター 社協石田ケアセンター",
    "lat": 35.069394,
    "lng": 135.9790585,
    "tel": "077-585-5955",
    "url": "",
    "pref": "滋賀県",
    "city": "守山市",
    "category": "day_service",
    "serviceType": "通所介護",
    "capacity": null,
    "openDays": [
      "平日",
      "土曜日",
      "日曜日",
      "祝日"
    ],
    "openDaysNote": "施設行事及び施設メンテナンスのため閉所させていただくことがあります。"
  },
  {
    "id": "2570600961",
    "name": "あかねはうす草津　デイサービス",
    "kana": "アカネハウスクサツ　デイサービス",
    "address": "草津市西渋川1丁目21-14エルミナMCビル３階 エルミナMCビル３階",
    "lat": 35.0274104,
    "lng": 135.9587178,
    "tel": "077-599-0224",
    "url": "http://www.akanehouse.com",
    "pref": "滋賀県",
    "city": "草津市",
    "category": "day_service",
    "serviceType": "通所介護",
    "capacity": 58,
    "openDays": [
      "平日",
      "土曜日",
      "祝日"
    ],
    "openDaysNote": "＊通常規模型通所介護（改行）　機能訓練を重点的に行い、半日（ＡＭのみ）/1日利用（入浴・食事あり）の２パターンで展開しています。"
  },
  {
    "id": "2570600326",
    "name": "アサヒサンクリーン　デイサービス　かがやきの杜",
    "kana": "アサヒサンクリーン　デイサービス　カガヤキノモリ",
    "address": "滋賀県草津市追分南5丁目12-2",
    "lat": 35.0032376,
    "lng": 135.9645768,
    "tel": "050-3317-7761",
    "url": "http://www.asahi-sun-clean.co.jp",
    "pref": "滋賀県",
    "city": "草津市",
    "category": "day_service",
    "serviceType": "通所介護",
    "capacity": 35,
    "openDays": [
      "平日",
      "土曜日",
      "祝日"
    ],
    "openDaysNote": ""
  },
  {
    "id": "2570601472",
    "name": "デイサービス　ティエールみなみ草津",
    "kana": "デイサービス　ティエールミナミクサツ",
    "address": "滋賀県草津市東矢倉二丁目2番33号",
    "lat": 35.0071072,
    "lng": 135.9560976,
    "tel": "077-567-1414",
    "url": "",
    "pref": "滋賀県",
    "city": "草津市",
    "category": "day_service",
    "serviceType": "通所介護",
    "capacity": 0,
    "openDays": [
      "平日",
      "祝日"
    ],
    "openDaysNote": ""
  },
  {
    "id": "2570600995",
    "name": "デイサービス　風和里",
    "kana": "デイサービス　フワリ",
    "address": "岡本町217番地",
    "lat": 35.0016913,
    "lng": 135.9826342,
    "tel": "077-561-7511",
    "url": "http://www.yotsuba-lcn.or.jp/",
    "pref": "滋賀県",
    "city": "草津市",
    "category": "day_service",
    "serviceType": "通所介護",
    "capacity": 40,
    "openDays": [
      "平日",
      "土曜日",
      "祝日"
    ],
    "openDaysNote": ""
  },
  {
    "id": "2570600318",
    "name": "デイサービス愛",
    "kana": "デイサービスアイ",
    "address": "滋賀県草津市上笠２丁目5-6",
    "lat": 35.029937,
    "lng": 135.9481698,
    "tel": "077-566-8777",
    "url": "https://chowa888.com/",
    "pref": "滋賀県",
    "city": "草津市",
    "category": "day_service",
    "serviceType": "通所介護",
    "capacity": 25,
    "openDays": [
      "平日",
      "土曜日",
      "祝日"
    ],
    "openDaysNote": "臨時休業あり。事前にお知らせします。"
  },
  {
    "id": "2570600920",
    "name": "デイサービス暖団　草津",
    "kana": "デイサービスダンダン　クサツ",
    "address": "滋賀県草津市野村7丁目17-11",
    "lat": 35.0295761,
    "lng": 135.9567691,
    "tel": "077-569-5672",
    "url": "http://www.nippon-shooter.co.jp/prod/lifecare/dayservice/",
    "pref": "滋賀県",
    "city": "草津市",
    "category": "day_service",
    "serviceType": "通所介護",
    "capacity": 50,
    "openDays": [
      "平日",
      "土曜日"
    ],
    "openDaysNote": "台風にて滋賀県南部に朝７時時点で暴風警報が発令されている場合は休館。ご利用中に発令された場合は、随時帰所体制をとる。"
  },
  {
    "id": "2570600649",
    "name": "デイサービス和花",
    "kana": "デイサービスワカ",
    "address": "滋賀県草津市上笠２－５－８",
    "lat": 35.0300787,
    "lng": 135.9479837,
    "tel": "077-564-0033",
    "url": "",
    "pref": "滋賀県",
    "city": "草津市",
    "category": "day_service",
    "serviceType": "通所介護",
    "capacity": 0,
    "openDays": [
      "平日",
      "土曜日",
      "祝日"
    ],
    "openDaysNote": "年末年始（12/30～1/3）と当事業所が定める休業日"
  },
  {
    "id": "2570600508",
    "name": "ニチイケアセンター草津",
    "kana": "ニチイケアセンタークサツ",
    "address": "滋賀県草津市矢倉１丁目2-19-15ニチイケアセンター草津 ニチイケアセンター草津",
    "lat": 35.010956,
    "lng": 135.9547614,
    "tel": "077-569-4972",
    "url": "http://www.nichiigakkan.co.jp",
    "pref": "滋賀県",
    "city": "草津市",
    "category": "day_service",
    "serviceType": "通所介護",
    "capacity": 15,
    "openDays": [
      "平日",
      "土曜日",
      "祝日"
    ],
    "openDaysNote": "上記以外の窓口（24時間対応）（改行）ニチイケアサービス総合コールセンター　ＴＥＬ：0120-605025"
  },
  {
    "id": "2570601621",
    "name": "パナソニックエイジフリーケアセンター草津・デイサービス",
    "kana": "パナソニックエイジフリーケアセンタークサツ・デイサービス",
    "address": "滋賀県草津市草津町1742番1",
    "lat": 35.0140929822821,
    "lng": 135.954231678055,
    "tel": "077-565-8601",
    "url": "https://panasonic.co.jp/ls/paf/",
    "pref": "滋賀県",
    "city": "草津市",
    "category": "day_service",
    "serviceType": "通所介護",
    "capacity": 0,
    "openDays": [
      "平日",
      "土曜日",
      "祝日"
    ],
    "openDaysNote": "平日・土（祝日含む）：8時30分～17時30分"
  },
  {
    "id": "2570600292",
    "name": "マザーレイクデイサービスセンター",
    "kana": "マザーレイクデイサービスセンター",
    "address": "滋賀県草津市笠山５丁目3-66",
    "lat": 34.9799049,
    "lng": 135.9507232,
    "tel": "077-561-5135",
    "url": "http://www.grouphome.jp",
    "pref": "滋賀県",
    "city": "草津市",
    "category": "day_service",
    "serviceType": "通所介護",
    "capacity": 0,
    "openDays": [
      "平日",
      "土曜日",
      "祝日"
    ],
    "openDaysNote": ""
  },
  {
    "id": "2570601589",
    "name": "花まるデイサービス",
    "kana": "ハナマルデイサービス",
    "address": "滋賀県草津市若竹２－２４",
    "lat": 35.022234744168,
    "lng": 135.966856483554,
    "tel": "077-507-0006",
    "url": "",
    "pref": "滋賀県",
    "city": "草津市",
    "category": "day_service",
    "serviceType": "通所介護",
    "capacity": 25,
    "openDays": [
      "平日",
      "土曜日",
      "祝日"
    ],
    "openDaysNote": "年末年始のお休みは年によって変わります"
  },
  {
    "id": "2570602058",
    "name": "花まるデイサービス",
    "kana": "ハナマル",
    "address": "滋賀県草津市若竹町2-24",
    "lat": 35.0228533,
    "lng": 135.9673543,
    "tel": "775075910",
    "url": "",
    "pref": "滋賀県",
    "city": "草津市",
    "category": "day_service",
    "serviceType": "通所介護",
    "capacity": null,
    "openDays": [
      "平日",
      "土曜日",
      "祝日"
    ],
    "openDaysNote": ""
  },
  {
    "id": "2570601753",
    "name": "株式会社ツクイ　ツクイ南草津",
    "kana": "カブシキカイシャツクイ　ツクイミナミクサツ",
    "address": "滋賀県草津市二丁目6番3号",
    "lat": 35.0031867,
    "lng": 135.943502,
    "tel": "077-561-4107",
    "url": "",
    "pref": "滋賀県",
    "city": "草津市",
    "category": "day_service",
    "serviceType": "通所介護",
    "capacity": 0,
    "openDays": [
      "平日",
      "土曜日",
      "日曜日",
      "祝日"
    ],
    "openDaysNote": "365日　年中無休でデイサービス運営"
  },
  {
    "id": "2570601712",
    "name": "株式会社夕照",
    "kana": "カブシキガイシャセキショウ",
    "address": "滋賀県草津市矢橋町7-8",
    "lat": 35.0073667,
    "lng": 135.9375599,
    "tel": "077-575-5730",
    "url": "",
    "pref": "滋賀県",
    "city": "草津市",
    "category": "day_service",
    "serviceType": "通所介護",
    "capacity": 0,
    "openDays": [
      "平日",
      "祝日"
    ],
    "openDaysNote": ""
  },
  {
    "id": "2570600128",
    "name": "社会福祉法人　寿会　草津市北部デイサービスセンター　常輝の里",
    "kana": "シャカイフクシホウジン　コトブキカイ　クサツシホクブデイサービスセンター　トキノサト",
    "address": "草津市志那中町２５番地",
    "lat": 35.0505844,
    "lng": 135.9452226,
    "tel": "077-568-2161",
    "url": "http://tokinosato-k.com/",
    "pref": "滋賀県",
    "city": "草津市",
    "category": "day_service",
    "serviceType": "通所介護",
    "capacity": 0,
    "openDays": [
      "平日",
      "土曜日",
      "祝日"
    ],
    "openDaysNote": ""
  },
  {
    "id": "2570600029",
    "name": "菖蒲の郷デイサービスセンター",
    "kana": "ショウブノサトデイサービスセンター",
    "address": "滋賀県草津市山寺町837番地",
    "lat": 34.9919287,
    "lng": 135.9922391,
    "tel": "077-566-0202",
    "url": "http://shoubunosato.jp",
    "pref": "滋賀県",
    "city": "草津市",
    "category": "day_service",
    "serviceType": "通所介護",
    "capacity": 0,
    "openDays": [
      "平日",
      "土曜日",
      "祝日"
    ],
    "openDaysNote": ""
  },
  {
    "id": "2570601613",
    "name": "誠光福祉会　デイサービスセンターなぎさ",
    "kana": "セイコウフクシカイ　デイサービスセンターナギサ",
    "address": "滋賀県草津市集町260-1",
    "lat": 35.0414881,
    "lng": 135.9503005,
    "tel": "０７７－５６８－５１００",
    "url": "http://kaigo-nagisa.com/",
    "pref": "滋賀県",
    "city": "草津市",
    "category": "day_service",
    "serviceType": "通所介護",
    "capacity": null,
    "openDays": [
      "平日",
      "土曜日",
      "祝日"
    ],
    "openDaysNote": ""
  },
  {
    "id": "2570600094",
    "name": "草津市上笠デイサービスセンター湯楽里",
    "kana": "クサツシカミガサデイサービスセンターユラリ",
    "address": "草津市上笠1丁目9番11号",
    "lat": 35.0339602924496,
    "lng": 135.949903135582,
    "tel": "077-567-2688",
    "url": "http://popura.or.jp",
    "pref": "滋賀県",
    "city": "草津市",
    "category": "day_service",
    "serviceType": "通所介護",
    "capacity": 40,
    "openDays": [
      "平日",
      "土曜日",
      "祝日"
    ],
    "openDaysNote": ""
  },
  {
    "id": "2570600060",
    "name": "草津市南笠通所介護事業所あさひ",
    "kana": "クサツシミナミガサツウショカイゴジギョウショアサヒ",
    "address": "草津市笠山１－１－４６",
    "lat": 34.991745,
    "lng": 135.9457264,
    "tel": "077-569-0936",
    "url": "",
    "pref": "滋賀県",
    "city": "草津市",
    "category": "day_service",
    "serviceType": "通所介護",
    "capacity": 0,
    "openDays": [
      "平日",
      "土曜日",
      "祝日"
    ],
    "openDaysNote": ""
  },
  {
    "id": "2570601647",
    "name": "第二デイサービスかえで",
    "kana": "ダイニデイサービスカエデ",
    "address": "滋賀県草津市追分南1-8-34",
    "lat": 34.9996603856833,
    "lng": 135.961247802243,
    "tel": "077-566-7532",
    "url": "info@maple-kofu.com",
    "pref": "滋賀県",
    "city": "草津市",
    "category": "day_service",
    "serviceType": "通所介護",
    "capacity": 30,
    "openDays": [
      "平日",
      "土曜日",
      "祝日"
    ],
    "openDaysNote": ""
  },
  {
    "id": "2570600748",
    "name": "第二菖蒲の郷デイサービスセンター",
    "kana": "ダイニショウブノサトデイサービスセンター",
    "address": "滋賀県草津市追分南5丁目18番8号",
    "lat": 34.9925091,
    "lng": 135.9676496,
    "tel": "077-566-5363",
    "url": "http://shoubunosato.jp",
    "pref": "滋賀県",
    "city": "草津市",
    "category": "day_service",
    "serviceType": "通所介護",
    "capacity": 0,
    "openDays": [
      "平日",
      "土曜日",
      "祝日"
    ],
    "openDaysNote": ""
  },
  {
    "id": "2571800339",
    "name": "デイホームゆりの木多賀",
    "kana": "デイホームユリノキタガ",
    "address": "滋賀県犬上郡多賀町多賀1600－48",
    "lat": 35.220969,
    "lng": 136.2917408,
    "tel": "749487008",
    "url": "",
    "pref": "滋賀県",
    "city": "多賀町",
    "category": "day_service",
    "serviceType": "通所介護",
    "capacity": 0,
    "openDays": [
      "平日",
      "土曜日"
    ],
    "openDaysNote": ""
  },
  {
    "id": "2571800024",
    "name": "ハートフルデイサービスセンター",
    "kana": "ハートフルデイサービスセンター",
    "address": "滋賀県犬上郡多賀町中川原605-2",
    "lat": 35.2355997,
    "lng": 136.2792834,
    "tel": "0749-48-2610",
    "url": "http://kotoukai.or.jp/",
    "pref": "滋賀県",
    "city": "多賀町",
    "category": "day_service",
    "serviceType": "通所介護",
    "capacity": 30,
    "openDays": [
      "平日",
      "土曜日",
      "祝日"
    ],
    "openDaysNote": ""
  },
  {
    "id": "2571800107",
    "name": "通所介護施設　多賀清流の里",
    "kana": "ツウショカイゴシセツ　タガセイリュウノサト",
    "address": "滋賀県犬上郡多賀町大字佐目６７５",
    "lat": 35.20792,
    "lng": 136.3357552,
    "tel": "0749-49-8030",
    "url": "https://tashinkai.jp",
    "pref": "滋賀県",
    "city": "多賀町",
    "category": "day_service",
    "serviceType": "通所介護",
    "capacity": 0,
    "openDays": [
      "平日",
      "土曜日",
      "祝日"
    ],
    "openDaysNote": ""
  },
  {
    "id": "2570100566",
    "name": "あい・ネットデイサービスセンター",
    "kana": "アイネットデイサービスセンター",
    "address": "滋賀県大津市秋葉台７番２号",
    "lat": 34.9905573,
    "lng": 135.8859328,
    "tel": "077-511-3480",
    "url": "https://www.ainet-otsu.com/",
    "pref": "滋賀県",
    "city": "大津市",
    "category": "day_service",
    "serviceType": "通所介護",
    "capacity": 28,
    "openDays": [
      "平日",
      "土曜日"
    ],
    "openDaysNote": "送迎のお時間は交通事情等により若干変動致しますが、８時３０分頃から９時１０（改行）分頃までにはお迎えにあがらせていただきます。"
  },
  {
    "id": "2570105581",
    "name": "いきいきデイ　みずうみ",
    "kana": "イキイキデイミズウミ",
    "address": "滋賀県大津市和邇中浜476",
    "lat": 35.1639321,
    "lng": 135.9227056,
    "tel": "077-594-8808",
    "url": "http://hp.kaipoke.biz/nkz/",
    "pref": "滋賀県",
    "city": "大津市",
    "category": "day_service",
    "serviceType": "通所介護",
    "capacity": 0,
    "openDays": [
      "平日",
      "土曜日",
      "祝日"
    ],
    "openDaysNote": ""
  },
  {
    "id": "2570101663",
    "name": "おおぞらデイサービス",
    "kana": "オオゾラデイサービス",
    "address": "滋賀県大津市大江二丁目３０－１１",
    "lat": 34.9764958,
    "lng": 135.9138934,
    "tel": "077-547-2550",
    "url": "http://riverld.co.jp",
    "pref": "滋賀県",
    "city": "大津市",
    "category": "day_service",
    "serviceType": "通所介護",
    "capacity": 35,
    "openDays": [
      "平日",
      "土曜日",
      "祝日"
    ],
    "openDaysNote": ""
  },
  {
    "id": "2570103008",
    "name": "カーサ月の輪デイサービスセンター",
    "kana": "カーサツキノワデイサービスセンター",
    "address": "滋賀県大津市月輪１丁目１２番８号",
    "lat": 34.9922918,
    "lng": 135.9350079,
    "tel": "077-547-0951",
    "url": "http://koujyukai-otsu.com/casa/",
    "pref": "滋賀県",
    "city": "大津市",
    "category": "day_service",
    "serviceType": "通所介護",
    "capacity": 0,
    "openDays": [
      "平日",
      "土曜日",
      "祝日"
    ],
    "openDaysNote": ""
  },
  {
    "id": "2570100459",
    "name": "かねだデイサービス",
    "kana": "カネダデイサービス",
    "address": "大津市南郷一丁目7-21",
    "lat": 34.9446209,
    "lng": 135.9076053,
    "tel": "077-534-1978",
    "url": "",
    "pref": "滋賀県",
    "city": "大津市",
    "category": "day_service",
    "serviceType": "通所介護",
    "capacity": 750,
    "openDays": [
      "平日",
      "土曜日",
      "祝日"
    ],
    "openDaysNote": "介護職員等が対応可能な場合に限り、提供時間帯の前後に連続して1時間対応可能"
  },
  {
    "id": "2570105508",
    "name": "ぐらんしーるデイサービスセンター",
    "kana": "グランシールデイサービスセンター",
    "address": "見世2丁目7-7",
    "lat": 35.0426652,
    "lng": 135.8593144,
    "tel": "077-510-7305",
    "url": "",
    "pref": "滋賀県",
    "city": "大津市",
    "category": "day_service",
    "serviceType": "通所介護",
    "capacity": 0,
    "openDays": [
      "平日",
      "日曜日",
      "祝日"
    ],
    "openDaysNote": ""
  },
  {
    "id": "2570100970",
    "name": "ケアタウンからさき　デイサービスセンター",
    "kana": "ケアタウンカラサキ　デイサービスセンター",
    "address": "滋賀県大津市見世一丁目17番1号",
    "lat": 35.0406486,
    "lng": 135.8596313,
    "tel": "077-511-6222",
    "url": "http://www.kosei-f.jp/",
    "pref": "滋賀県",
    "city": "大津市",
    "category": "day_service",
    "serviceType": "通所介護",
    "capacity": 0,
    "openDays": [
      "平日",
      "土曜日",
      "祝日"
    ],
    "openDaysNote": ""
  },
  {
    "id": "2570103230",
    "name": "コミュニティ倶楽部　咲楽",
    "kana": "コミュニティクラブ　サクラ",
    "address": "滋賀県大津市美崎町11-22",
    "lat": 34.9815973,
    "lng": 135.8896574,
    "tel": "077-511-9323",
    "url": "http://www.two-morrow.jp",
    "pref": "滋賀県",
    "city": "大津市",
    "category": "day_service",
    "serviceType": "通所介護",
    "capacity": 0,
    "openDays": [
      "平日",
      "土曜日",
      "祝日"
    ],
    "openDaysNote": ""
  },
  {
    "id": "2570104493",
    "name": "コンソルテ　リハビリデイ",
    "kana": "コンソルテ　リハビリデイ",
    "address": "滋賀県大津市大江1丁目3番15号",
    "lat": 34.986028,
    "lng": 135.9124408,
    "tel": "077-548-8530",
    "url": "https://firmahabicht.net/",
    "pref": "滋賀県",
    "city": "大津市",
    "category": "day_service",
    "serviceType": "通所介護",
    "capacity": 0,
    "openDays": [
      "平日",
      "祝日"
    ],
    "openDaysNote": "12月30日から1月3日までは年末年始休業日"
  },
  {
    "id": "2570105375",
    "name": "ツクイ大津神領",
    "kana": "ツクイオオツジンリョウ",
    "address": "滋賀県大津市神領２丁目３２番２１号",
    "lat": 35.0178371,
    "lng": 135.8552084,
    "tel": "077-547-2856",
    "url": "http://www.tsukui.net",
    "pref": "滋賀県",
    "city": "大津市",
    "category": "day_service",
    "serviceType": "通所介護",
    "capacity": 0,
    "openDays": [
      "平日",
      "土曜日",
      "日曜日",
      "祝日"
    ],
    "openDaysNote": "年中無休"
  },
  {
    "id": "2570106134",
    "name": "デイサービス　アトラクト勧学",
    "kana": "デイサービス　アトラクトカンガク",
    "address": "滋賀県大津市勧学　勧学館",
    "lat": 35.0329652598008,
    "lng": 135.863457035937,
    "tel": "077-526-9222",
    "url": "",
    "pref": "滋賀県",
    "city": "大津市",
    "category": "day_service",
    "serviceType": "通所介護",
    "capacity": 0,
    "openDays": [
      "平日",
      "土曜日",
      "祝日"
    ],
    "openDaysNote": "営業日：月～土曜日（改行）ただし、12月30日～1月3日まで・5月第1土曜日・8月第2土曜日を除く。（改行）サービス提供時間：9時30分～16時45分までとする。"
  },
  {
    "id": "2570104451",
    "name": "デイサービス　万利の里",
    "kana": "デイサービス　バンリノサト",
    "address": "仰木の里東4-4-1",
    "lat": 35.1113124,
    "lng": 135.903189,
    "tel": "775755319",
    "url": "http://www.banrinosato.net/",
    "pref": "滋賀県",
    "city": "大津市",
    "category": "day_service",
    "serviceType": "通所介護",
    "capacity": 30,
    "openDays": [
      "平日",
      "祝日"
    ],
    "openDaysNote": "年末年始１２月２９日～１月３日は休み"
  },
  {
    "id": "2570103594",
    "name": "デイサービスあらいぜき",
    "kana": "デイサービスアライゼキ",
    "address": "滋賀県大津市南郷1-8-11",
    "lat": 34.9447498,
    "lng": 135.9082955,
    "tel": "077-507-3080",
    "url": "",
    "pref": "滋賀県",
    "city": "大津市",
    "category": "day_service",
    "serviceType": "通所介護",
    "capacity": 20,
    "openDays": [
      "平日",
      "土曜日",
      "日曜日",
      "祝日"
    ],
    "openDaysNote": ""
  },
  {
    "id": "2570101788",
    "name": "デイサービスセンター　松の浦湯治の郷",
    "kana": "デイサービスセンター　マツノウラトウジノサト",
    "address": "滋賀県大津市大物６６５番地の９",
    "lat": 35.209022,
    "lng": 135.9332621,
    "tel": "077-592-2614",
    "url": "https://biwakoaiwai.com",
    "pref": "滋賀県",
    "city": "大津市",
    "category": "day_service",
    "serviceType": "通所介護",
    "capacity": 0,
    "openDays": [
      "平日",
      "土曜日",
      "祝日"
    ],
    "openDaysNote": ""
  },
  {
    "id": "2570100640",
    "name": "デイサービスセンター　千寿の郷",
    "kana": "デイサービスセンター　センジュノサト",
    "address": "大津市石山千町276-1",
    "lat": 34.9494088,
    "lng": 135.8853661,
    "tel": "077-531-1105",
    "url": "http://senjyunosato.or.jp/",
    "pref": "滋賀県",
    "city": "大津市",
    "category": "day_service",
    "serviceType": "通所介護",
    "capacity": 0,
    "openDays": [
      "平日",
      "土曜日",
      "祝日"
    ],
    "openDaysNote": ""
  },
  {
    "id": "2570104147",
    "name": "デイサービスセンターあろは",
    "kana": "デイサービスセンターアロハ",
    "address": "滋賀県大津市萱野浦22-67",
    "lat": 34.9872222,
    "lng": 135.9092218,
    "tel": "775758708",
    "url": "http://love-smile-happiness.co.jp",
    "pref": "滋賀県",
    "city": "大津市",
    "category": "day_service",
    "serviceType": "通所介護",
    "capacity": 0,
    "openDays": [
      "平日",
      "土曜日",
      "祝日"
    ],
    "openDaysNote": ""
  },
  {
    "id": "2570105292",
    "name": "デイサービスセンターおかげさん",
    "kana": "デイサービスセンターオカゲサン",
    "address": "滋賀県大津市黒津二丁目1番11号",
    "lat": 34.944358,
    "lng": 135.9153154,
    "tel": "077-546-8801",
    "url": "https://www.okage-kaigo.com",
    "pref": "滋賀県",
    "city": "大津市",
    "category": "day_service",
    "serviceType": "通所介護",
    "capacity": 2,
    "openDays": [
      "平日",
      "土曜日",
      "祝日"
    ],
    "openDaysNote": ""
  },
  {
    "id": "2570101416",
    "name": "デイサービスセンターまつもと",
    "kana": "デイサービスセンターマツモト",
    "address": "滋賀県大津市松本2丁目12番26号",
    "lat": 35.005,
    "lng": 135.8746838,
    "tel": "077-522-8750",
    "url": "http://koujyukai-otsu.com/matsumoto/",
    "pref": "滋賀県",
    "city": "大津市",
    "category": "day_service",
    "serviceType": "通所介護",
    "capacity": 0,
    "openDays": [
      "平日",
      "土曜日",
      "祝日"
    ],
    "openDaysNote": ""
  },
  {
    "id": "2570102539",
    "name": "デイサービスセンターみちくさ",
    "kana": "デイサービスセンターミチクサ",
    "address": "滋賀県大津市月輪２丁目３－２１",
    "lat": 34.9872007,
    "lng": 135.9337636,
    "tel": "077-544-3193",
    "url": "wel-fare.co.jp/",
    "pref": "滋賀県",
    "city": "大津市",
    "category": "day_service",
    "serviceType": "通所介護",
    "capacity": 35,
    "openDays": [
      "平日",
      "土曜日",
      "日曜日",
      "祝日"
    ],
    "openDaysNote": ""
  },
  {
    "id": "2570105003",
    "name": "デイサービスセンターレイクヒル琴",
    "kana": "デイサービスセンターレイクヒルコト",
    "address": "滋賀県大津市雄琴一丁目13-25",
    "lat": 35.0909538,
    "lng": 135.894782,
    "tel": "077-579-8448",
    "url": "https://lakehill-koto.net",
    "pref": "滋賀県",
    "city": "大津市",
    "category": "day_service",
    "serviceType": "通所介護",
    "capacity": 0,
    "openDays": [
      "平日",
      "土曜日",
      "日曜日",
      "祝日"
    ],
    "openDaysNote": "日曜日は第２・４週のみ営業"
  },
  {
    "id": "2570102182",
    "name": "デイサービスセンター湖の花",
    "kana": "デイサービスセンターコノハナ",
    "address": "大津市衣川２－２７－１",
    "lat": 35.1143485,
    "lng": 135.9050248,
    "tel": "077-572-3006",
    "url": "http：//rakujyu-konohana.com",
    "pref": "滋賀県",
    "city": "大津市",
    "category": "day_service",
    "serviceType": "通所介護",
    "capacity": 28,
    "openDays": [
      "平日",
      "祝日"
    ],
    "openDaysNote": ""
  },
  {
    "id": "2570102166",
    "name": "ディサービスセンター国分",
    "kana": "ディサービスセンターコクブ",
    "address": "滋賀県大津市国分1丁目40番1号",
    "lat": 34.9711596,
    "lng": 135.8891936,
    "tel": "077-534-1500",
    "url": "http://hmkokubu.jp/　又は「デイ国分」で検索",
    "pref": "滋賀県",
    "city": "大津市",
    "category": "day_service",
    "serviceType": "通所介護",
    "capacity": 36,
    "openDays": [
      "平日",
      "土曜日"
    ],
    "openDaysNote": ""
  },
  {
    "id": "2570100046",
    "name": "デイサービスセンター真盛園",
    "kana": "デイサービスセンターシンセイエン",
    "address": "滋賀県大津市坂本5丁目13-1",
    "lat": 35.0803274062772,
    "lng": 135.868559466409,
    "tel": "077-578-8801",
    "url": "http://www.sinseien.jp/",
    "pref": "滋賀県",
    "city": "大津市",
    "category": "day_service",
    "serviceType": "通所介護",
    "capacity": 25,
    "openDays": [
      "平日",
      "土曜日",
      "祝日"
    ],
    "openDaysNote": ""
  },
  {
    "id": "2570102208",
    "name": "デイサービスみずうみ",
    "kana": "デイサービスミズウミ",
    "address": "大津市坂本三丁目３３－５５",
    "lat": 35.0691713106074,
    "lng": 135.878137397362,
    "tel": "077-535-9058",
    "url": "http://hp.kaipoke.biz/nkz/",
    "pref": "滋賀県",
    "city": "大津市",
    "category": "day_service",
    "serviceType": "通所介護",
    "capacity": 0,
    "openDays": [
      "平日",
      "土曜日",
      "祝日"
    ],
    "openDaysNote": ""
  },
  {
    "id": "2570102851",
    "name": "デイサービスりんく大津　懐風",
    "kana": "デイサービスリンクオオツ　カイフウ",
    "address": "大津市坂本1丁目3番27号",
    "lat": 35.0597102,
    "lng": 135.8658412,
    "tel": "077-579-5511",
    "url": "http://www.link-otsu.jp",
    "pref": "滋賀県",
    "city": "大津市",
    "category": "day_service",
    "serviceType": "通所介護",
    "capacity": 30,
    "openDays": [
      "平日",
      "土曜日",
      "祝日"
    ],
    "openDaysNote": ""
  },
  {
    "id": "2570101622",
    "name": "デイサービスりんく大津　湖都ケ丘",
    "kana": "デイサービスリンクオオツ　コトガオカ",
    "address": "大津市雄琴3丁目13番20号",
    "lat": 35.0990113,
    "lng": 135.9020447,
    "tel": "077-578-8267",
    "url": "http://www.link-otsu.jp/",
    "pref": "滋賀県",
    "city": "大津市",
    "category": "day_service",
    "serviceType": "通所介護",
    "capacity": 35,
    "openDays": [
      "平日",
      "土曜日"
    ],
    "openDaysNote": ""
  },
  {
    "id": "2570104238",
    "name": "デイサービスりんく大津浦の郷",
    "kana": "デイサービスリンクオオツウラノサト",
    "address": "滋賀県大津市本堅田2丁目1-12",
    "lat": 35.1126742,
    "lng": 135.9222922,
    "tel": "077-548-6670",
    "url": "http://www.link-otsu.jp/",
    "pref": "滋賀県",
    "city": "大津市",
    "category": "day_service",
    "serviceType": "通所介護",
    "capacity": 0,
    "openDays": [
      "平日",
      "土曜日",
      "日曜日",
      "祝日"
    ],
    "openDaysNote": ""
  },
  {
    "id": "2570106381",
    "name": "デイサービス勧学の里　見世館",
    "kana": "デイサービスカンガクノサト　ミセカン",
    "address": "滋賀県大津市見世1丁目2-31",
    "lat": 35.03822550894,
    "lng": 135.860895510451,
    "tel": "077-521-0202",
    "url": "",
    "pref": "滋賀県",
    "city": "大津市",
    "category": "day_service",
    "serviceType": "通所介護",
    "capacity": 0,
    "openDays": [
      "平日",
      "土曜日",
      "祝日"
    ],
    "openDaysNote": "(但し、１２月３０日から１月３日まで・5月第1土曜日・８月第2土曜日を除く)"
  },
  {
    "id": "2570103487",
    "name": "デイサービス輝楽里",
    "kana": "デイサービス　キラリ",
    "address": "滋賀県大津市下阪本三丁目16番18号",
    "lat": 35.0630588268565,
    "lng": 135.874719479762,
    "tel": "077-572-9100",
    "url": "https://support-oneself.com/",
    "pref": "滋賀県",
    "city": "大津市",
    "category": "day_service",
    "serviceType": "通所介護",
    "capacity": 25,
    "openDays": [
      "平日",
      "土曜日",
      "祝日"
    ],
    "openDaysNote": "上記定休日以外、祝日も営業しています。"
  },
  {
    "id": "2570104246",
    "name": "デイサービス天神山",
    "kana": "デイサービステンジンヤマ",
    "address": "滋賀県大津市衣川3丁目7-10",
    "lat": 35.1162977963659,
    "lng": 135.904656887172,
    "tel": "077-575-9904",
    "url": "http：//newearth.co.jp",
    "pref": "滋賀県",
    "city": "大津市",
    "category": "day_service",
    "serviceType": "通所介護",
    "capacity": 0,
    "openDays": [
      "平日",
      "土曜日"
    ],
    "openDaysNote": ""
  },
  {
    "id": "2570100152",
    "name": "ニチイケアセンターながら",
    "kana": "ニチイケアセンターナガラ",
    "address": "滋賀県大津市大門通16-45",
    "lat": 35.0148016,
    "lng": 135.8575267,
    "tel": "077-510-1551",
    "url": "http://www.nichiigakkan.co.jp",
    "pref": "滋賀県",
    "city": "大津市",
    "category": "day_service",
    "serviceType": "通所介護",
    "capacity": 0,
    "openDays": [
      "平日",
      "土曜日"
    ],
    "openDaysNote": ""
  },
  {
    "id": "2570104071",
    "name": "フォレスト真野通所介護事業所",
    "kana": "フォレストマノツウショカイゴジギョウショ",
    "address": "滋賀県大津市真野6丁目6番21号",
    "lat": 35.1350965,
    "lng": 135.9226533,
    "tel": "077－574-5573",
    "url": "",
    "pref": "滋賀県",
    "city": "大津市",
    "category": "day_service",
    "serviceType": "通所介護",
    "capacity": null,
    "openDays": [
      "平日",
      "土曜日",
      "祝日"
    ],
    "openDaysNote": ""
  },
  {
    "id": "2570106399",
    "name": "ポラリスデイサービスセンター大津高砂",
    "kana": "ポラリスデイサービスセンター　オオツタカサゴ",
    "address": "滋賀県大津市高砂町1-1",
    "lat": 35.0388819,
    "lng": 135.8576199,
    "tel": "077-525-1177",
    "url": "polaris.care/office/",
    "pref": "滋賀県",
    "city": "大津市",
    "category": "day_service",
    "serviceType": "通所介護",
    "capacity": 0,
    "openDays": [
      "平日",
      "土曜日",
      "祝日"
    ],
    "openDaysNote": ""
  },
  {
    "id": "2570105821",
    "name": "ポラリスデイサービスセンター大津大江",
    "kana": "ポラリスデイサービスセンターオオツオオエ",
    "address": "滋賀県大津市大江１丁目５番３５号",
    "lat": 34.9846013,
    "lng": 135.9117541,
    "tel": "077-572-6212",
    "url": "https://www.polaris.care/company/summary.html",
    "pref": "滋賀県",
    "city": "大津市",
    "category": "day_service",
    "serviceType": "通所介護",
    "capacity": 0,
    "openDays": [
      "平日",
      "祝日"
    ],
    "openDaysNote": "土曜日・日曜日：休止中　（改行）12/31～1/3はお休みとなる。"
  },
  {
    "id": "2570104527",
    "name": "みちくさリハビリデイサービス",
    "kana": "ミチクサリハビリデイサービス",
    "address": "滋賀県大津市瀬田1-15-3",
    "lat": 34.9730128,
    "lng": 135.9094773,
    "tel": "077-545-7845",
    "url": "http://wel-fare.co.jp/publics/index/197/",
    "pref": "滋賀県",
    "city": "大津市",
    "category": "day_service",
    "serviceType": "通所介護",
    "capacity": 0,
    "openDays": [
      "平日",
      "土曜日"
    ],
    "openDaysNote": "※年末年始の休業日について（改行）年末：12月30、31日（改行）年始：1月1、2、3日"
  },
  {
    "id": "2570105771",
    "name": "みどりやデイサービス仰木の里",
    "kana": "ミドリヤデイサービスオウギノサト",
    "address": "滋賀県大津市仰木の里７丁目1-10みどりやデイサービス仰木の里 みどりやデイサービス仰木の里",
    "lat": 35.1082115,
    "lng": 135.8938097,
    "tel": "077-576-8652",
    "url": "https://www.kyoto-midoriya.co.jp",
    "pref": "滋賀県",
    "city": "大津市",
    "category": "day_service",
    "serviceType": "通所介護",
    "capacity": 0,
    "openDays": [
      "平日",
      "土曜日",
      "日曜日",
      "祝日"
    ],
    "openDaysNote": ""
  },
  {
    "id": "2570106191",
    "name": "ライフハピネス螢",
    "kana": "ライフハピネスホタル",
    "address": "滋賀県大津市螢谷2-15",
    "lat": 34.9704531,
    "lng": 135.9046514,
    "tel": "077-536-5148",
    "url": "https:/www.lifehappiness..net",
    "pref": "滋賀県",
    "city": "大津市",
    "category": "day_service",
    "serviceType": "通所介護",
    "capacity": null,
    "openDays": [
      "平日",
      "土曜日",
      "日曜日",
      "祝日"
    ],
    "openDaysNote": ""
  },
  {
    "id": "2570105730",
    "name": "リハビリデイサービスセンター瀬田店",
    "kana": "リハビリデイサービスセンターセタテン",
    "address": "滋賀県大津市大将軍3丁目24-5メゾンマツオ101 メゾンマツオ101",
    "lat": 34.9915153,
    "lng": 135.9282498,
    "tel": "077-544-1700",
    "url": "",
    "pref": "滋賀県",
    "city": "大津市",
    "category": "day_service",
    "serviceType": "通所介護",
    "capacity": null,
    "openDays": [
      "平日",
      "祝日"
    ],
    "openDaysNote": ""
  },
  {
    "id": "2570106423",
    "name": "リハビリデイサービスはるか",
    "kana": "リハビリデイサービスハルカ",
    "address": "滋賀県大津市見世二丁目１０番１０号",
    "lat": 35.0427346,
    "lng": 135.8614849,
    "tel": "775246686",
    "url": "https://dayservice-haruka.net/",
    "pref": "滋賀県",
    "city": "大津市",
    "category": "day_service",
    "serviceType": "通所介護",
    "capacity": 0,
    "openDays": [
      "平日"
    ],
    "openDaysNote": ""
  },
  {
    "id": "2570106100",
    "name": "リハビリデイサービス満月",
    "kana": "リハビリデイサービスマンゲツ",
    "address": "坂本6丁目9-60",
    "lat": 35.0757213163848,
    "lng": 135.871936515344,
    "tel": "077-572-6099",
    "url": "http://www.mangetsu-rehabili.com",
    "pref": "滋賀県",
    "city": "大津市",
    "category": "day_service",
    "serviceType": "通所介護",
    "capacity": 0,
    "openDays": [
      "平日",
      "祝日"
    ],
    "openDaysNote": "年末年始は上記に限らず休業（12/29~01/04）"
  },
  {
    "id": "2570104626",
    "name": "医療法人弘英会デイサービスさくらテラス",
    "kana": "イリョウホウジンコウエイカイデイサービスサクラテラス",
    "address": "滋賀県大津市本堅田6丁目39番18号",
    "lat": 35.1214676117743,
    "lng": 135.911289322554,
    "tel": "077-571-2225",
    "url": "http://www.boh.or.jp",
    "pref": "滋賀県",
    "city": "大津市",
    "category": "day_service",
    "serviceType": "通所介護",
    "capacity": 0,
    "openDays": [
      "平日",
      "土曜日",
      "祝日"
    ],
    "openDaysNote": ""
  },
  {
    "id": "2570106035",
    "name": "共創ライフあをに工房大津堅田",
    "kana": "キョウソウライフアヲニコウボウオオツカタタ",
    "address": "滋賀県大津市堅田1丁目15－43",
    "lat": 35.1070343,
    "lng": 135.9109511,
    "tel": "077-571-0300",
    "url": "https://www.rirestage.co.jp",
    "pref": "滋賀県",
    "city": "大津市",
    "category": "day_service",
    "serviceType": "通所介護",
    "capacity": 35,
    "openDays": [
      "平日"
    ],
    "openDaysNote": ""
  },
  {
    "id": "2570101127",
    "name": "桐生園デイサービスセンター",
    "kana": "キリュウエンデイサービスセンター",
    "address": "大津市桐生一丁目26番7号",
    "lat": 34.9709673,
    "lng": 135.991462,
    "tel": "077-549-1130",
    "url": "http://www.kiryuen.jp",
    "pref": "滋賀県",
    "city": "大津市",
    "category": "day_service",
    "serviceType": "通所介護",
    "capacity": 0,
    "openDays": [
      "平日",
      "土曜日",
      "祝日"
    ],
    "openDaysNote": ""
  },
  {
    "id": "2570105433",
    "name": "近江笑生会松が丘デイサービスセンター",
    "kana": "オウミショウセイカイマツガオカデイサービスセンター",
    "address": "松が丘七丁目１５番１号",
    "lat": 34.9704259263953,
    "lng": 135.963779690213,
    "tel": "077-549-3666",
    "url": "oumisyouseikai@car.ocn.ne.jp",
    "pref": "滋賀県",
    "city": "大津市",
    "category": "day_service",
    "serviceType": "通所介護",
    "capacity": null,
    "openDays": [
      "平日",
      "土曜日",
      "日曜日"
    ],
    "openDaysNote": ""
  },
  {
    "id": "2570101721",
    "name": "近江舞子しょうぶ苑デイサービスセンター",
    "kana": "オウミマイコショウブエンデイサービスセンター",
    "address": "大津市南小松90番地",
    "lat": 35.2386972,
    "lng": 135.9588465,
    "tel": "077-596-2233",
    "url": "shiga-f.com",
    "pref": "滋賀県",
    "city": "大津市",
    "category": "day_service",
    "serviceType": "通所介護",
    "capacity": 30,
    "openDays": [
      "平日",
      "土曜日",
      "祝日"
    ],
    "openDaysNote": ""
  },
  {
    "id": "2570104501",
    "name": "憩デイサービスセンター",
    "kana": "イコイデイサービスセンター",
    "address": "滋賀県皇子が丘3-1-6ロータリーマンション西大津１番館 ロータリーマンション西大津１番館",
    "lat": 35.0221703,
    "lng": 135.8609956,
    "tel": "077-572-9159",
    "url": "http://www.l-i-fe-happiness.com",
    "pref": "滋賀県",
    "city": "大津市",
    "category": "day_service",
    "serviceType": "通所介護",
    "capacity": 28,
    "openDays": [
      "平日",
      "土曜日",
      "祝日"
    ],
    "openDaysNote": ""
  },
  {
    "id": "2570101374",
    "name": "湖南デイサービスセンター",
    "kana": "コナンデイサービスセンター",
    "address": "大津市里５丁目２－１３",
    "lat": 34.9365527,
    "lng": 135.9286057,
    "tel": "077-546-3014",
    "url": "http://yoshitoku.or.jp",
    "pref": "滋賀県",
    "city": "大津市",
    "category": "day_service",
    "serviceType": "通所介護",
    "capacity": 0,
    "openDays": [
      "平日",
      "土曜日",
      "祝日"
    ],
    "openDaysNote": ""
  },
  {
    "id": "2570102588",
    "name": "在宅リハビリテーション支援センター・デイサービス　リハビリパーク",
    "kana": "ザイタクリハビリテーションシエンセンター・デイサービス　リハビリパーク",
    "address": "滋賀県大津市雄琴北一丁目14番21号　　（リハビリパーク　サテライト）滋賀県大津市衣川一丁目11番21号",
    "lat": 35.0982534082552,
    "lng": 135.89759087879,
    "tel": "077-532-1654",
    "url": "https://www.reha-park.co.jp/",
    "pref": "滋賀県",
    "city": "大津市",
    "category": "day_service",
    "serviceType": "通所介護",
    "capacity": 25,
    "openDays": [
      "平日"
    ],
    "openDaysNote": "リハビリパーク　サテライトの営業時間は、火曜日と木曜日の９時４５分～１２時４５分です。国民の祝日、年末年始（１２月２９日～１月３日）は定休日となります。また、第５火曜日と第５木曜日は定休日となります。"
  },
  {
    "id": "2510104736",
    "name": "小西医院デイサービス",
    "kana": "コニシイインデイサービス",
    "address": "大萱１－１７－３５",
    "lat": 34.9863422,
    "lng": 135.9258838,
    "tel": "077-543-4099",
    "url": "http://www5.ocn.ne.jp/~kiseikai",
    "pref": "滋賀県",
    "city": "大津市",
    "category": "day_service",
    "serviceType": "通所介護",
    "capacity": 0,
    "openDays": [
      "平日",
      "土曜日",
      "祝日"
    ],
    "openDaysNote": "介護保険外サービスとして、希望者様に対して19時までの延長サービス、洗濯サービスを行っています。"
  },
  {
    "id": "2570103545",
    "name": "真情デイ・サービス横木",
    "kana": "マゴコロデイサービスヨコギ",
    "address": "滋賀県大津市横木一丁目9番4号",
    "lat": 34.9914591,
    "lng": 135.8294843,
    "tel": "775751460",
    "url": "http://magokoro-ds.com/",
    "pref": "滋賀県",
    "city": "大津市",
    "category": "day_service",
    "serviceType": "通所介護",
    "capacity": 0,
    "openDays": [
      "平日",
      "土曜日",
      "日曜日",
      "祝日"
    ],
    "openDaysNote": ""
  },
  {
    "id": "2570101044",
    "name": "大津ケアセンターそよ風",
    "kana": "オオツケアセンターソヨカゼ",
    "address": "大津市瀬田三丁目１８－２０",
    "lat": 34.9665162,
    "lng": 135.9074248,
    "tel": "077-547-4810",
    "url": "https://www.sykz.co.jp",
    "pref": "滋賀県",
    "city": "大津市",
    "category": "day_service",
    "serviceType": "通所介護",
    "capacity": 40,
    "openDays": [
      "平日",
      "土曜日",
      "日曜日",
      "祝日"
    ],
    "openDaysNote": "特に無し"
  },
  {
    "id": "2570101812",
    "name": "大津市立木戸デイサービスセンター",
    "kana": "オオツシリツキドデイサービスセンター",
    "address": "大津市木戸709番地",
    "lat": 35.2005562,
    "lng": 135.9210766,
    "tel": "077-592-8022",
    "url": "http://www.fukusi-otsu.or.jp/publics/index/21/",
    "pref": "滋賀県",
    "city": "大津市",
    "category": "day_service",
    "serviceType": "通所介護",
    "capacity": 35,
    "openDays": [
      "平日",
      "祝日"
    ],
    "openDaysNote": "特になし"
  },
  {
    "id": "2570100327",
    "name": "長等の里通所介護事業所",
    "kana": "ナガラノサトツウショカイゴジギョウショ",
    "address": "大津市神出開町字徴妙寺260番9号",
    "lat": 35.0054388,
    "lng": 135.8536106,
    "tel": "077-510-0017",
    "url": "http,//koujyukai-otsu.com",
    "pref": "滋賀県",
    "city": "大津市",
    "category": "day_service",
    "serviceType": "通所介護",
    "capacity": 0,
    "openDays": [
      "平日",
      "土曜日",
      "祝日"
    ],
    "openDaysNote": ""
  },
  {
    "id": "2570100061",
    "name": "特別養護老人ホーム榛原の里",
    "kana": "トクベツヨウゴロウジンホームハリハラノサト",
    "address": "滋賀県大津市真野普門三丁目1120番地",
    "lat": 35.1472502,
    "lng": 135.9006003,
    "tel": "077-573-9902",
    "url": "http://www.fukusi-otsu.or.jp/",
    "pref": "滋賀県",
    "city": "大津市",
    "category": "day_service",
    "serviceType": "通所介護",
    "capacity": 0,
    "openDays": [
      "平日",
      "祝日"
    ],
    "openDaysNote": ""
  },
  {
    "id": "2570105516",
    "name": "琵琶湖大橋デイサービス",
    "kana": "ビワコオオハシデイサービス",
    "address": "滋賀県大津市本堅田4丁目4-18",
    "lat": 35.1167927,
    "lng": 135.9194962,
    "tel": "077-571-1165",
    "url": "https://www.sanga-kaigo.co.jp",
    "pref": "滋賀県",
    "city": "大津市",
    "category": "day_service",
    "serviceType": "通所介護",
    "capacity": 0,
    "openDays": [
      "平日",
      "土曜日",
      "祝日"
    ],
    "openDaysNote": ""
  },
  {
    "id": "2570101754",
    "name": "蓬莱苑デイサービスセンター",
    "kana": "ホウライエンデイサービスセンター",
    "address": "滋賀県大津市八屋戸１５９７",
    "lat": 35.1844408,
    "lng": 135.9094303,
    "tel": "077-592-1457",
    "url": "http://hp.kaipoke.biz/du4/",
    "pref": "滋賀県",
    "city": "大津市",
    "category": "day_service",
    "serviceType": "通所介護",
    "capacity": 0,
    "openDays": [
      "平日",
      "土曜日",
      "祝日"
    ],
    "openDaysNote": ""
  },
  {
    "id": "2570105474",
    "name": "北雄琴デイサービス爽やかな風",
    "kana": "キタオゴトデイサービスサワヤカナカゼ",
    "address": "滋賀県大津市雄琴3-1-7",
    "lat": 35.0955404,
    "lng": 135.9002925,
    "tel": "077-577-1661",
    "url": "https://www.sanga-kaigo.co.jp",
    "pref": "滋賀県",
    "city": "大津市",
    "category": "day_service",
    "serviceType": "通所介護",
    "capacity": 30,
    "openDays": [
      "平日",
      "土曜日",
      "祝日"
    ],
    "openDaysNote": ""
  },
  {
    "id": "2570301776",
    "name": "ORANGE",
    "kana": "オレンジ",
    "address": "滋賀県長浜市曽根町1248",
    "lat": 35.4032397,
    "lng": 136.2512345,
    "tel": "0749-51-9101",
    "url": "https://tanakacare.co.jp/",
    "pref": "滋賀県",
    "city": "長浜市",
    "category": "day_service",
    "serviceType": "通所介護",
    "capacity": 0,
    "openDays": [
      "平日"
    ],
    "openDaysNote": "ただし、年末12/30～翌年1/3までは休日"
  },
  {
    "id": "2570300661",
    "name": "アンタレスデイサービスセンター",
    "kana": "アンタレスデイサービスセンター",
    "address": "滋賀県長浜市加田町3360",
    "lat": 35.3610679,
    "lng": 136.3049773,
    "tel": "0749-68-4115",
    "url": "https://www.seishokai.jp/antares",
    "pref": "滋賀県",
    "city": "長浜市",
    "category": "day_service",
    "serviceType": "通所介護",
    "capacity": 0,
    "openDays": [
      "平日",
      "土曜日",
      "祝日"
    ],
    "openDaysNote": ""
  },
  {
    "id": "2570300919",
    "name": "いきいきサロン『おたっしゃ倶楽部』",
    "kana": "イキイキサロンオタッシャクラブ",
    "address": "滋賀県長浜市高月町柏原1055",
    "lat": 35.4787947,
    "lng": 136.2445318,
    "tel": "0749-85-5012",
    "url": "http://www.care-care.jp/hp/otassya/",
    "pref": "滋賀県",
    "city": "長浜市",
    "category": "day_service",
    "serviceType": "通所介護",
    "capacity": 0,
    "openDays": [
      "平日",
      "土曜日",
      "祝日"
    ],
    "openDaysNote": "営業日：月曜日～土曜日"
  },
  {
    "id": "2570300976",
    "name": "しゃきょうデイサービス高月",
    "kana": "シャキョウデイサービスタカツキ",
    "address": "滋賀県長浜市高月町西物部73-1",
    "lat": 35.470656,
    "lng": 136.2244841,
    "tel": "0749-85-5700",
    "url": "www.nagahama-shakyo.or.jp/",
    "pref": "滋賀県",
    "city": "長浜市",
    "category": "day_service",
    "serviceType": "通所介護",
    "capacity": 0,
    "openDays": [
      "平日",
      "土曜日",
      "祝日"
    ],
    "openDaysNote": ""
  },
  {
    "id": "2570301628",
    "name": "ツクイ長浜神前",
    "kana": "ツクイナガハマシンゼン",
    "address": "滋賀県長浜市神前町11-25",
    "lat": 35.385191,
    "lng": 136.2749168,
    "tel": "0749-68-1725",
    "url": "",
    "pref": "滋賀県",
    "city": "長浜市",
    "category": "day_service",
    "serviceType": "通所介護",
    "capacity": 30,
    "openDays": [
      "平日",
      "土曜日",
      "日曜日",
      "祝日"
    ],
    "openDaysNote": ""
  },
  {
    "id": "2570301552",
    "name": "デイサービス　すみれ珈琲",
    "kana": "デイサービス　スミレコーヒー",
    "address": "滋賀県長浜市高月町東物部37-1",
    "lat": 35.482152584006,
    "lng": 136.229606077667,
    "tel": "0749-59-3141",
    "url": "http://www.rehaplus.co.jp/",
    "pref": "滋賀県",
    "city": "長浜市",
    "category": "day_service",
    "serviceType": "通所介護",
    "capacity": 0,
    "openDays": [
      "平日",
      "土曜日"
    ],
    "openDaysNote": ""
  },
  {
    "id": "2570301362",
    "name": "デイサービス　庄助",
    "kana": "デイサービス　ショウスケ",
    "address": "滋賀県高月町柏原８５",
    "lat": 35.4786919962891,
    "lng": 136.240273706063,
    "tel": "0749-53-4664",
    "url": "https://www.facebook.com/Shosuke.inc/",
    "pref": "滋賀県",
    "city": "長浜市",
    "category": "day_service",
    "serviceType": "通所介護",
    "capacity": 12,
    "openDays": [
      "平日",
      "土曜日",
      "祝日"
    ],
    "openDaysNote": "年末年始（12/29-1/4）、５月第3、９月の第4木曜日・金曜日・土曜日は休業となります。"
  },
  {
    "id": "2570300950",
    "name": "デイサービスいろはの湯",
    "kana": "デイサービス　イロハノユ",
    "address": "滋賀県長浜市宮部町3445番地　長浜市役所虎姫支所　生きがいセンター内",
    "lat": 35.422085,
    "lng": 136.2664415,
    "tel": "0749-73-8112",
    "url": "http://www.nagahama-shakyo.or.jp",
    "pref": "滋賀県",
    "city": "長浜市",
    "category": "day_service",
    "serviceType": "通所介護",
    "capacity": 30,
    "openDays": [
      "平日",
      "祝日"
    ],
    "openDaysNote": ""
  },
  {
    "id": "2570301503",
    "name": "デイサービスセンターアリビオ",
    "kana": "デイサービスセンターアリビオ",
    "address": "滋賀県長浜市加田町1402-6",
    "lat": 35.3672666,
    "lng": 136.2986387,
    "tel": "0749-51-9096",
    "url": "https://askacare.com",
    "pref": "滋賀県",
    "city": "長浜市",
    "category": "day_service",
    "serviceType": "通所介護",
    "capacity": null,
    "openDays": [
      "平日",
      "土曜日"
    ],
    "openDaysNote": ""
  },
  {
    "id": "2570301180",
    "name": "デイサービスセンターひととき",
    "kana": "デイサービスセンターヒトトキ",
    "address": "滋賀県長浜市唐国町260-2",
    "lat": 35.4158067,
    "lng": 136.2480886,
    "tel": "0749-73-8888",
    "url": "",
    "pref": "滋賀県",
    "city": "長浜市",
    "category": "day_service",
    "serviceType": "通所介護",
    "capacity": 0,
    "openDays": [
      "平日",
      "土曜日",
      "日曜日",
      "祝日"
    ],
    "openDaysNote": "年末年始12/31～1/3"
  },
  {
    "id": "2570300372",
    "name": "デイサービスセンター青芳",
    "kana": "デイサービスセンターセイホウ",
    "address": "滋賀県長浜市川道町2572",
    "lat": 35.4030773,
    "lng": 136.2353402,
    "tel": "0749-72-8311",
    "url": "seiho@seishokai.jp/seiho",
    "pref": "滋賀県",
    "city": "長浜市",
    "category": "day_service",
    "serviceType": "通所介護",
    "capacity": 40,
    "openDays": [
      "平日",
      "土曜日",
      "祝日"
    ],
    "openDaysNote": ""
  },
  {
    "id": "2570301495",
    "name": "デイサービスつどい",
    "kana": "デイサービスツドイ",
    "address": "常喜町671-1",
    "lat": 35.3691375395431,
    "lng": 136.312422929728,
    "tel": "0749-57-6886",
    "url": "http://tsudoi.sakura.ne.jp",
    "pref": "滋賀県",
    "city": "長浜市",
    "category": "day_service",
    "serviceType": "通所介護",
    "capacity": 0,
    "openDays": [
      "平日",
      "土曜日",
      "祝日"
    ],
    "openDaysNote": ""
  },
  {
    "id": "2570301156",
    "name": "デイサービス百庵長浜",
    "kana": "デイサービスモモアンナガハマ",
    "address": "滋賀県長浜市下坂浜町８０番地1",
    "lat": 35.3683688,
    "lng": 136.2748832,
    "tel": "0749ー57－6454",
    "url": "",
    "pref": "滋賀県",
    "city": "長浜市",
    "category": "day_service",
    "serviceType": "通所介護",
    "capacity": 29,
    "openDays": [
      "平日",
      "土曜日",
      "祝日"
    ],
    "openDaysNote": ""
  },
  {
    "id": "2570301529",
    "name": "デイプラザゆるりはNEXT",
    "kana": "デイプラザユルリハネクスト",
    "address": "滋賀県長浜市小堀町１１８－１",
    "lat": 35.3872638,
    "lng": 136.2901908,
    "tel": "0749-65-0441",
    "url": "http://www.yururiha.com",
    "pref": "滋賀県",
    "city": "長浜市",
    "category": "day_service",
    "serviceType": "通所介護",
    "capacity": 0,
    "openDays": [
      "平日",
      "土曜日",
      "祝日"
    ],
    "openDaysNote": ""
  },
  {
    "id": "2570301024",
    "name": "なごみ庵はる",
    "kana": "ナゴミアンハル",
    "address": "滋賀県長浜市富田町482-1",
    "lat": 35.4256881,
    "lng": 136.2231083,
    "tel": "0749-72-3232",
    "url": "https://konet.or.jp/",
    "pref": "滋賀県",
    "city": "長浜市",
    "category": "day_service",
    "serviceType": "通所介護",
    "capacity": 28,
    "openDays": [
      "平日",
      "土曜日",
      "日曜日",
      "祝日"
    ],
    "openDaysNote": ""
  },
  {
    "id": "2570300851",
    "name": "ニチイケアセンター木之本",
    "kana": "ニチイケアセンターキノモト",
    "address": "長浜市木之本町木之本1587-4",
    "lat": 35.5031722,
    "lng": 136.2188143,
    "tel": "0749-82-8121",
    "url": "http://www.nichiigakkan.co.jp",
    "pref": "滋賀県",
    "city": "長浜市",
    "category": "day_service",
    "serviceType": "通所介護",
    "capacity": 0,
    "openDays": [
      "平日",
      "土曜日",
      "祝日"
    ],
    "openDaysNote": ""
  },
  {
    "id": "2570300240",
    "name": "ニチイケアセンター六荘",
    "kana": "ニチイケアセンターロクショウ",
    "address": "滋賀県長浜市勝町452",
    "lat": 35.3727408,
    "lng": 136.2870238,
    "tel": "0749-64-5022",
    "url": "http://www.nichiigakkan.co.jp",
    "pref": "滋賀県",
    "city": "長浜市",
    "category": "day_service",
    "serviceType": "通所介護",
    "capacity": 24,
    "openDays": [
      "平日",
      "土曜日",
      "祝日"
    ],
    "openDaysNote": "営業時間には送迎時間は含みません。"
  },
  {
    "id": "2570301065",
    "name": "ふくら通所介護事業所",
    "kana": "フクラツウショカイゴジギョウショ",
    "address": "長浜市内保町４８０番地",
    "lat": 35.4319508,
    "lng": 136.3014518,
    "tel": "0749-74-0044",
    "url": "ｈｔｔｐ://glow.or.jp",
    "pref": "滋賀県",
    "city": "長浜市",
    "category": "day_service",
    "serviceType": "通所介護",
    "capacity": 0,
    "openDays": [
      "平日",
      "土曜日",
      "祝日"
    ],
    "openDaysNote": ""
  },
  {
    "id": "2570301545",
    "name": "ポラリスデイサービスセンター長浜",
    "kana": "ポラリスデサービスセンターナガハマ",
    "address": "滋賀県長浜市宮司町８４９",
    "lat": 35.3804725378416,
    "lng": 136.289863505523,
    "tel": "0749-65-5678",
    "url": "http://www.polaris.care/",
    "pref": "滋賀県",
    "city": "長浜市",
    "category": "day_service",
    "serviceType": "通所介護",
    "capacity": 120,
    "openDays": [
      "平日",
      "土曜日",
      "祝日"
    ],
    "openDaysNote": "年末年始（12/31～1/3）を休みとする。"
  },
  {
    "id": "2570300869",
    "name": "よりあい処いっぷく家",
    "kana": "ヨリアイドコロイップクヤ",
    "address": "滋賀県長浜市木之本町木之本2015",
    "lat": 35.5006588,
    "lng": 136.2230112,
    "tel": "0749-82-8345",
    "url": "a.matsui@care.tanaka-hd.jp",
    "pref": "滋賀県",
    "city": "長浜市",
    "category": "day_service",
    "serviceType": "通所介護",
    "capacity": 5,
    "openDays": [
      "平日",
      "土曜日",
      "祝日"
    ],
    "openDaysNote": ""
  },
  {
    "id": "2570300984",
    "name": "リハビリデイサービス　伊香の里アネックス",
    "kana": "リハビリデイサービス　イカノサトアネックス",
    "address": "滋賀県長浜市木之本町千田５３番地",
    "lat": 35.4988202,
    "lng": 136.2276832,
    "tel": "0749-82-8130",
    "url": "http://www.nagahama-shakyo.or.jp/",
    "pref": "滋賀県",
    "city": "長浜市",
    "category": "day_service",
    "serviceType": "通所介護",
    "capacity": 35,
    "openDays": [
      "平日",
      "土曜日",
      "祝日"
    ],
    "openDaysNote": ""
  },
  {
    "id": "2570301727",
    "name": "リハビリデイサービススマイ",
    "kana": "リハビリデイサービススマイ",
    "address": "滋賀県長浜市相撲町138番地",
    "lat": 35.3919329,
    "lng": 136.2562094,
    "tel": "749533366",
    "url": "",
    "pref": "滋賀県",
    "city": "長浜市",
    "category": "day_service",
    "serviceType": "通所介護",
    "capacity": null,
    "openDays": [
      "平日",
      "土曜日",
      "祝日"
    ],
    "openDaysNote": "12/31から1/3まで休みます"
  },
  {
    "id": "2570300968",
    "name": "リハビリデイサービス湖北",
    "kana": "リハビリデイサービスコホク",
    "address": "滋賀県長浜市湖北町速水１８６０番地",
    "lat": 35.4509889,
    "lng": 136.2426286,
    "tel": "0749-78-2144",
    "url": "http://www.nagahama-shakyo.or.jp",
    "pref": "滋賀県",
    "city": "長浜市",
    "category": "day_service",
    "serviceType": "通所介護",
    "capacity": 35,
    "openDays": [
      "平日",
      "土曜日",
      "祝日"
    ],
    "openDaysNote": ""
  },
  {
    "id": "2570301008",
    "name": "リハビリデイサービス西浅井",
    "kana": "リハビリデイサービスニシアザイ",
    "address": "滋賀県長浜市西浅井町塩津浜１７９５",
    "lat": 35.5224765,
    "lng": 136.1595469,
    "tel": "0749-88-8181",
    "url": "http://www.nagahama-shakyo.or.jp/",
    "pref": "滋賀県",
    "city": "長浜市",
    "category": "day_service",
    "serviceType": "通所介護",
    "capacity": 40,
    "openDays": [
      "平日",
      "土曜日",
      "祝日"
    ],
    "openDaysNote": "土曜日は22年1月より営業開始。祝祭日は22年7月より営業開始。年末29、30日は26年12月より営業開始。"
  },
  {
    "id": "2570300505",
    "name": "リハビリデイサービス浅井",
    "kana": "リハビリデイサービスアザイ",
    "address": "滋賀県長浜市今荘町859-1",
    "lat": 35.414073,
    "lng": 136.3393749,
    "tel": "0749-74-1411",
    "url": "www.nagahama-shakyo.or.jp",
    "pref": "滋賀県",
    "city": "長浜市",
    "category": "day_service",
    "serviceType": "通所介護",
    "capacity": 30,
    "openDays": [
      "平日",
      "土曜日",
      "祝日"
    ],
    "openDaysNote": ""
  },
  {
    "id": "2570300471",
    "name": "リハビリデイサービス東部",
    "kana": "リハビリデイサービストウブ",
    "address": "滋賀県長浜市東上坂町１０００長浜東部福祉ステーション 長浜東部福祉ステーション",
    "lat": 35.401406,
    "lng": 136.3196751,
    "tel": "0749-65-6263",
    "url": "http://www.nagahama-shakyo.or.jp/",
    "pref": "滋賀県",
    "city": "長浜市",
    "category": "day_service",
    "serviceType": "通所介護",
    "capacity": 35,
    "openDays": [
      "平日",
      "土曜日",
      "祝日"
    ],
    "openDaysNote": ""
  },
  {
    "id": "2570300711",
    "name": "医療法人東川クリニック　通所介護施設　ぽっぽ",
    "kana": "イリョウホウジンヒガシカワクリニック　ツウショカイゴシセツ　ポッポ",
    "address": "滋賀県長浜市落合町２３９",
    "lat": 35.4131178,
    "lng": 136.2386064,
    "tel": "0749-50-1275",
    "url": "",
    "pref": "滋賀県",
    "city": "長浜市",
    "category": "day_service",
    "serviceType": "通所介護",
    "capacity": 24,
    "openDays": [
      "平日",
      "土曜日",
      "日曜日",
      "祝日"
    ],
    "openDaysNote": "年末年始は12月31日～1月3日までは休み。"
  },
  {
    "id": "2570301487",
    "name": "七条つどい",
    "kana": "シチジョウツドイ",
    "address": "滋賀県長浜市七条町320-4七条つどい 七条つどい",
    "lat": 35.3897619,
    "lng": 136.316455,
    "tel": "0749-53-3900",
    "url": "sichijyoutudoi01@gmail.com",
    "pref": "滋賀県",
    "city": "長浜市",
    "category": "day_service",
    "serviceType": "通所介護",
    "capacity": 25,
    "openDays": [
      "平日",
      "土曜日",
      "祝日"
    ],
    "openDaysNote": ""
  },
  {
    "id": "2570300489",
    "name": "社会福祉法人長浜市社会福祉協議会神照リハビリデイサービス",
    "kana": "シャカイフクシホウジンナガハマシシャカイフクシキョウギカイカミテルリハビリデイサービス",
    "address": "滋賀県長浜市神照町288-1長浜市北部福祉ステーション 長浜市北部福祉ステーション",
    "lat": 35.3984763,
    "lng": 136.2757332,
    "tel": "0749-65-8270",
    "url": "http://www.nagahama-shakyo.or.jp/",
    "pref": "滋賀県",
    "city": "長浜市",
    "category": "day_service",
    "serviceType": "通所介護",
    "capacity": 35,
    "openDays": [
      "平日",
      "祝日"
    ],
    "openDaysNote": ""
  },
  {
    "id": "2570300802",
    "name": "社会福祉法人芳醇会　ケアステーションかけはし通所介護事業所",
    "kana": "シャカイフクシホウジンホウジュンカイ　ケアステーションカケハシツウショカイゴジギョウショ",
    "address": "滋賀県長浜市湖北町山本4290",
    "lat": 35.4420083,
    "lng": 136.2154399,
    "tel": "0749-79-8966",
    "url": "http://www.care-station-kakehashi.com/",
    "pref": "滋賀県",
    "city": "長浜市",
    "category": "day_service",
    "serviceType": "通所介護",
    "capacity": 0,
    "openDays": [
      "平日",
      "土曜日",
      "祝日"
    ],
    "openDaysNote": "盆休暇、年末年始休暇有"
  },
  {
    "id": "2570301339",
    "name": "長浜市社会福祉協議会　しゃきょうデイサービス伊香の里",
    "kana": "ナガハマシシャカイフクシキョウギカイシャキョウデイサービスイカノサト",
    "address": "滋賀県長浜市木之本町黒田1221",
    "lat": 35.5046661,
    "lng": 136.2124065,
    "tel": "0749-82-5611",
    "url": "http://www.nagahama-shakyo.or.jp/",
    "pref": "滋賀県",
    "city": "長浜市",
    "category": "day_service",
    "serviceType": "通所介護",
    "capacity": 40,
    "openDays": [
      "平日",
      "土曜日",
      "祝日"
    ],
    "openDaysNote": ""
  },
  {
    "id": "2570300257",
    "name": "長浜西部デイサービスセンター",
    "kana": "ナガハマセイブデイサービスセンター",
    "address": "滋賀県長浜市朝日町１９－３",
    "lat": 35.3775286,
    "lng": 136.2708142,
    "tel": "0749-65-8353",
    "url": "http://www.seishokai.jp/seijoen",
    "pref": "滋賀県",
    "city": "長浜市",
    "category": "day_service",
    "serviceType": "通所介護",
    "capacity": null,
    "openDays": [
      "平日",
      "土曜日",
      "祝日"
    ],
    "openDaysNote": ""
  },
  {
    "id": "2570300224",
    "name": "田中ケアサービス株式会社　長浜支援センター　デイサービス『よっといで』",
    "kana": "タナカケアサービスカブシキカイシャ　ナガハマシエンセンターデイサービスヨットイデ",
    "address": "滋賀県長浜市祇園町148-1",
    "lat": 35.3860078,
    "lng": 136.259418,
    "tel": "0749-68-4180",
    "url": "http://www.tanakacare.co.jp/",
    "pref": "滋賀県",
    "city": "長浜市",
    "category": "day_service",
    "serviceType": "通所介護",
    "capacity": 35,
    "openDays": [
      "平日",
      "土曜日",
      "祝日"
    ],
    "openDaysNote": ""
  },
  {
    "id": "2570300927",
    "name": "余呉はごろも村　やまなみデイサービス",
    "kana": "ヨゴハゴロモムラヤマナミデイサービス",
    "address": "滋賀県長浜市余呉町中之郷2434番地",
    "lat": 35.5423889,
    "lng": 136.2041372,
    "tel": "0749-86-8051",
    "url": "",
    "pref": "滋賀県",
    "city": "長浜市",
    "category": "day_service",
    "serviceType": "通所介護",
    "capacity": 0,
    "openDays": [
      "平日",
      "土曜日",
      "祝日"
    ],
    "openDaysNote": ""
  },
  {
    "id": "2570500724",
    "name": "いずみ介護サービスおがわ　デイサービス",
    "kana": "イズミカイゴサービスオガワ　デイサービス",
    "address": "滋賀県東近江市小川町３３１７番",
    "lat": 35.1920601007305,
    "lng": 136.164754200555,
    "tel": "0748-42-1777",
    "url": "http://care-net.biz/25/izumikaigo/",
    "pref": "滋賀県",
    "city": "東近江市",
    "category": "day_service",
    "serviceType": "通所介護",
    "capacity": 0,
    "openDays": [
      "平日",
      "土曜日",
      "祝日"
    ],
    "openDaysNote": "台風や豪雪等の天候不良や自然災害発生時において、ご利用者様の安全の確保が困難と判断した場合には臨時休業をさせて頂きます。"
  },
  {
    "id": "2570500179",
    "name": "こぼしデイサービスセンター",
    "kana": "コボシデイサービスセンター",
    "address": "滋賀県東近江市市辺町3477",
    "lat": 35.0991871,
    "lng": 136.1727817,
    "tel": "0748-20-0578",
    "url": "https://koboshi.p-kit.com/",
    "pref": "滋賀県",
    "city": "東近江市",
    "category": "day_service",
    "serviceType": "通所介護",
    "capacity": 0,
    "openDays": [
      "平日",
      "土曜日",
      "祝日"
    ],
    "openDaysNote": "年末年始休日等12月29日～1月3日"
  },
  {
    "id": "2570501508",
    "name": "つうしょかいごさんふらわーたてべにごうかん",
    "kana": "通所介護サンフラワー建部Ⅱ号館",
    "address": "滋賀県東近江市建部日吉町348-7",
    "lat": 35.1182372,
    "lng": 136.1981279,
    "tel": "0748-20-0172",
    "url": "",
    "pref": "滋賀県",
    "city": "東近江市",
    "category": "day_service",
    "serviceType": "通所介護",
    "capacity": null,
    "openDays": [
      "平日",
      "土曜日",
      "日曜日",
      "祝日"
    ],
    "openDaysNote": "第3日曜日のみ営業"
  },
  {
    "id": "2570501383",
    "name": "ツクイ東近江おきの",
    "kana": "ツクイヒガシオウミオキノ",
    "address": "滋賀県東近江市東沖野２丁目２−３４",
    "lat": 35.1047872,
    "lng": 136.2064614,
    "tel": "0748-20-1707",
    "url": "hpps://twww.tsukui.net",
    "pref": "滋賀県",
    "city": "東近江市",
    "category": "day_service",
    "serviceType": "通所介護",
    "capacity": 0,
    "openDays": [
      "平日",
      "土曜日",
      "日曜日",
      "祝日"
    ],
    "openDaysNote": ""
  },
  {
    "id": "2570501243",
    "name": "デイサービス　スイッチオン能登川",
    "kana": "デイサービス　スイッチオン　ノトガワ",
    "address": "滋賀県東近江市猪子町108-1",
    "lat": 35.1770254,
    "lng": 136.1665282,
    "tel": "0748-42-0664",
    "url": "",
    "pref": "滋賀県",
    "city": "東近江市",
    "category": "day_service",
    "serviceType": "通所介護",
    "capacity": 5,
    "openDays": [
      "平日",
      "土曜日",
      "祝日"
    ],
    "openDaysNote": ""
  },
  {
    "id": "2570501201",
    "name": "デイサービスいよもん",
    "kana": "デイサービスイヨモン",
    "address": "滋賀県東近江市石塔町６７６",
    "lat": 35.0658168038522,
    "lng": 136.206564447885,
    "tel": "０７４８－５６－１２５７",
    "url": "",
    "pref": "滋賀県",
    "city": "東近江市",
    "category": "day_service",
    "serviceType": "通所介護",
    "capacity": 0,
    "openDays": [
      "平日",
      "祝日"
    ],
    "openDaysNote": ""
  },
  {
    "id": "2570501052",
    "name": "デイサービススイッチオン五個荘",
    "kana": "デイサービススイッチオンゴカショウ",
    "address": "滋賀県ン東近江市五個荘五位田町592番地",
    "lat": 35.1613003,
    "lng": 136.1919444,
    "tel": "0748-48-6555",
    "url": "http://switchon-service.co.jp/",
    "pref": "滋賀県",
    "city": "東近江市",
    "category": "day_service",
    "serviceType": "通所介護",
    "capacity": null,
    "openDays": [
      "平日",
      "土曜日",
      "祝日"
    ],
    "openDaysNote": ""
  },
  {
    "id": "2570500682",
    "name": "デイサービスセンター　あい",
    "kana": "デイサービスセンター　アイ",
    "address": "東近江市市子殿町1308番地",
    "lat": 35.0614472,
    "lng": 136.1786272,
    "tel": "0748-45-2345",
    "url": "http://www.eonet.ne.jp/~kkshi-forusa",
    "pref": "滋賀県",
    "city": "東近江市",
    "category": "day_service",
    "serviceType": "通所介護",
    "capacity": 35,
    "openDays": [
      "平日",
      "祝日"
    ],
    "openDaysNote": "特別警報及び暴風警報発令時は、（基本）営業中止させて頂きます。"
  },
  {
    "id": "2570500518",
    "name": "デイサービスセンター　なごみ",
    "kana": "デイサービスセンター　ナゴミ",
    "address": "東近江市妙法寺町８０２番地",
    "lat": 35.0976438,
    "lng": 136.2248806,
    "tel": "0748-20-4165",
    "url": "olengnagomi@festa.ocn.ne.jp",
    "pref": "滋賀県",
    "city": "東近江市",
    "category": "day_service",
    "serviceType": "通所介護",
    "capacity": 30,
    "openDays": [
      "平日",
      "土曜日",
      "祝日"
    ],
    "openDaysNote": ""
  },
  {
    "id": "2570500054",
    "name": "デイサービスセンターカルナハウス",
    "kana": "デイサービスセンターカルナハウス",
    "address": "東近江市建部下野町７９７番地",
    "lat": 35.1391892,
    "lng": 136.1971766,
    "tel": "0748-23-3250",
    "url": "http://www.jishoukai.or.jp",
    "pref": "滋賀県",
    "city": "東近江市",
    "category": "day_service",
    "serviceType": "通所介護",
    "capacity": 0,
    "openDays": [
      "平日",
      "土曜日",
      "祝日"
    ],
    "openDaysNote": ""
  },
  {
    "id": "2570501375",
    "name": "デイサービスセンターはればれ",
    "kana": "デイサービスセンターハレバレ",
    "address": "滋賀県東近江市五個荘五位田町517番地2",
    "lat": 35.1593577,
    "lng": 136.192183,
    "tel": "0748-43-0557",
    "url": "",
    "pref": "滋賀県",
    "city": "東近江市",
    "category": "day_service",
    "serviceType": "通所介護",
    "capacity": null,
    "openDays": [
      "平日",
      "土曜日"
    ],
    "openDaysNote": "年末年始(12/29～1/3)休業です。"
  },
  {
    "id": "2570500856",
    "name": "デイサービス結里庵",
    "kana": "デイサービスユリアン",
    "address": "滋賀県東近江市小田苅町1834番地2",
    "lat": 35.1298295,
    "lng": 136.2149446,
    "tel": "0749-45-0120",
    "url": "",
    "pref": "滋賀県",
    "city": "東近江市",
    "category": "day_service",
    "serviceType": "通所介護",
    "capacity": 19,
    "openDays": [
      "平日",
      "土曜日",
      "祝日"
    ],
    "openDaysNote": ""
  },
  {
    "id": "2570500237",
    "name": "もみじデイサービスセンター",
    "kana": "モミジデイサービスセンター",
    "address": "滋賀県東近江市永源寺高野町431‐2",
    "lat": 35.0777865,
    "lng": 136.3098985,
    "tel": "0748-27-2040",
    "url": "http://www.hachikikai.com",
    "pref": "滋賀県",
    "city": "東近江市",
    "category": "day_service",
    "serviceType": "通所介護",
    "capacity": 35,
    "openDays": [
      "平日",
      "土曜日",
      "祝日"
    ],
    "openDaysNote": ""
  },
  {
    "id": "2570501490",
    "name": "リハビリデイサービスセンター桜川店",
    "kana": "リハビリデイサービスセンターサクラガワテン",
    "address": "滋賀県東近江市桜川西町130",
    "lat": 35.0634083,
    "lng": 136.188119,
    "tel": "0748-26-5325",
    "url": "",
    "pref": "滋賀県",
    "city": "東近江市",
    "category": "day_service",
    "serviceType": "通所介護",
    "capacity": null,
    "openDays": [
      "平日"
    ],
    "openDaysNote": "12月31日～1月3日まで休業"
  },
  {
    "id": "2570500542",
    "name": "愛近江ゆとろぎデイサービス",
    "kana": "アイオウミユトロギデイサービス",
    "address": "滋賀県東近江市勝堂町1702",
    "lat": 35.1540418,
    "lng": 136.2304599,
    "tel": "0749-45-3788",
    "url": "https://www.big-advance.site/s/135/1882",
    "pref": "滋賀県",
    "city": "東近江市",
    "category": "day_service",
    "serviceType": "通所介護",
    "capacity": 40,
    "openDays": [
      "平日",
      "土曜日",
      "祝日"
    ],
    "openDaysNote": "年末年始（12/31～1/4まで）"
  },
  {
    "id": "2510500693",
    "name": "医療法人社団幸信会　青葉メディカル夕暮れデイセンター",
    "kana": "イリョウホウジンシャダンコウシンカイ　アオバメディカルユウグレデイセンター",
    "address": "滋賀県東近江市青葉町1-46",
    "lat": 35.1060311,
    "lng": 136.197524,
    "tel": "0748-22-5077",
    "url": "https://aoba-med.com",
    "pref": "滋賀県",
    "city": "東近江市",
    "category": "day_service",
    "serviceType": "通所介護",
    "capacity": 30,
    "openDays": [
      "平日",
      "土曜日",
      "祝日"
    ],
    "openDaysNote": ""
  },
  {
    "id": "2570500500",
    "name": "沖野原デイサービス",
    "kana": "オキノハラデイサービス",
    "address": "滋賀県東近江市沖野3丁目10番18",
    "lat": 35.0946937,
    "lng": 136.2101484,
    "tel": "0748-22-7555",
    "url": "http://www.ex.biwa.ex.ne.jp/~okinohara/",
    "pref": "滋賀県",
    "city": "東近江市",
    "category": "day_service",
    "serviceType": "通所介護",
    "capacity": 0,
    "openDays": [
      "平日",
      "土曜日",
      "祝日"
    ],
    "openDaysNote": ""
  },
  {
    "id": "2570501367",
    "name": "近江デイサービスセンター",
    "kana": "オウミデイサービスセンター",
    "address": "東近江市北坂町966",
    "lat": 35.1321583,
    "lng": 136.2752349,
    "tel": "0749-46-1125",
    "url": "https://www.oumi-hp.or.jp",
    "pref": "滋賀県",
    "city": "東近江市",
    "category": "day_service",
    "serviceType": "通所介護",
    "capacity": 0,
    "openDays": [
      "平日",
      "土曜日"
    ],
    "openDaysNote": "2025年1月から定休日が土曜日曜祝日　年末年始（12月30日～1月3日）に変更となります。"
  },
  {
    "id": "2570500211",
    "name": "清水苑デイサービスセンター",
    "kana": "セイスイエンデイサービスセンター",
    "address": "滋賀県東近江市五個荘川並町268番地",
    "lat": 35.1468626,
    "lng": 136.1757209,
    "tel": "0748-48-5000",
    "url": "https://rokushinkai.com",
    "pref": "滋賀県",
    "city": "東近江市",
    "category": "day_service",
    "serviceType": "通所介護",
    "capacity": 0,
    "openDays": [
      "平日",
      "土曜日",
      "祝日"
    ],
    "openDaysNote": ""
  },
  {
    "id": "2570501409",
    "name": "通所介護サンフラワー建部",
    "kana": "ツウショカイゴサンフラワータテベ",
    "address": "滋賀県東近江市建部日吉町376番地",
    "lat": 35.1182372,
    "lng": 136.1981279,
    "tel": "0748-20-0172",
    "url": "",
    "pref": "滋賀県",
    "city": "東近江市",
    "category": "day_service",
    "serviceType": "通所介護",
    "capacity": null,
    "openDays": [
      "平日",
      "土曜日",
      "日曜日",
      "祝日"
    ],
    "openDaysNote": "月に１回の日曜デイを行っています。"
  },
  {
    "id": "2570500443",
    "name": "東近江市社会福祉協議会デイサービスセンターあさひの",
    "kana": "ヒガシオウミシシャカイフクシキョウギカイデイサービスセンターアサヒノ",
    "address": "滋賀県東近江市鋳物師町７０８－１",
    "lat": 35.0361003,
    "lng": 136.1982285,
    "tel": "0748-55-8501",
    "url": "http://www.higashiomi-shakyo.or.jp/",
    "pref": "滋賀県",
    "city": "東近江市",
    "category": "day_service",
    "serviceType": "通所介護",
    "capacity": 25,
    "openDays": [
      "平日",
      "土曜日",
      "祝日"
    ],
    "openDaysNote": ""
  },
  {
    "id": "2570500310",
    "name": "東近江市社会福祉協議会デイサービスセンターゆうあいの家",
    "kana": "ヒガシオウミシシャカイフクシキョウギカイデイサービスセンターユウアイノイエ",
    "address": "東近江市永源寺高野町437番地",
    "lat": 35.0782614,
    "lng": 136.3090875,
    "tel": "0748-27-2066",
    "url": "http://www.higashiomi-shakyo.or.jp/",
    "pref": "滋賀県",
    "city": "東近江市",
    "category": "day_service",
    "serviceType": "通所介護",
    "capacity": 25,
    "openDays": [
      "平日",
      "日曜日",
      "祝日"
    ],
    "openDaysNote": ""
  },
  {
    "id": "2570500401",
    "name": "能登川園デイサービスセンター",
    "kana": "ノトガワエンデイサービスセンター",
    "address": "東近江市新宮町５４７",
    "lat": 35.2017984050117,
    "lng": 136.150094046696,
    "tel": "0748-42-7025",
    "url": "http://shiga-shinjyukai.or.jp/",
    "pref": "滋賀県",
    "city": "東近江市",
    "category": "day_service",
    "serviceType": "通所介護",
    "capacity": 0,
    "openDays": [
      "平日",
      "土曜日",
      "祝日"
    ],
    "openDaysNote": ""
  },
  {
    "id": "2571500558",
    "name": "R&B暘々",
    "kana": "アールアンドビー　ヒノデノヒ",
    "address": "滋賀県蒲生郡日野町大窪680",
    "lat": 35.0120283,
    "lng": 136.2515711,
    "tel": "0748-26-3190",
    "url": "",
    "pref": "滋賀県",
    "city": "日野町",
    "category": "day_service",
    "serviceType": "通所介護",
    "capacity": 0,
    "openDays": [
      "平日",
      "土曜日",
      "祝日"
    ],
    "openDaysNote": "年末年始に休みの変動有"
  },
  {
    "id": "2571500384",
    "name": "デイサービスおおきに",
    "kana": "デイサービスオオキニ",
    "address": "滋賀県蒲生郡日野町いせの４６",
    "lat": 35.0130476,
    "lng": 136.2302005,
    "tel": "０７４８-５２-５３００",
    "url": "https://hinoookini.com/",
    "pref": "滋賀県",
    "city": "日野町",
    "category": "day_service",
    "serviceType": "通所介護",
    "capacity": 25,
    "openDays": [
      "平日",
      "土曜日",
      "祝日"
    ],
    "openDaysNote": ""
  },
  {
    "id": "2571500012",
    "name": "デイサービスセンター誉の松",
    "kana": "デイサービスセンターホマレノマツ",
    "address": "滋賀県蒲生郡日野町大字深山口524番地",
    "lat": 34.9891759,
    "lng": 136.2294793,
    "tel": "0748-53-0261",
    "url": "http://www.homare.or.jp",
    "pref": "滋賀県",
    "city": "日野町",
    "category": "day_service",
    "serviceType": "通所介護",
    "capacity": 39,
    "openDays": [
      "平日",
      "祝日"
    ],
    "openDaysNote": ""
  },
  {
    "id": "2571500509",
    "name": "デイサービス祭々",
    "kana": "デイサービスサイサイ",
    "address": "滋賀県蒲生郡日野町河原２丁目７１",
    "lat": 35.0165234,
    "lng": 136.2504117,
    "tel": "0748-29-3077",
    "url": "",
    "pref": "滋賀県",
    "city": "日野町",
    "category": "day_service",
    "serviceType": "通所介護",
    "capacity": 0,
    "openDays": [
      "平日"
    ],
    "openDaysNote": ""
  },
  {
    "id": "2571500194",
    "name": "株式会社ドリエジョ　ゆめさとデイサービス",
    "kana": "カブシキガイシャ　ドリエジョ　ユメサトデイサービス",
    "address": "滋賀県蒲生郡日野町西大路井上４３４－２",
    "lat": 35.0121618,
    "lng": 136.2610502,
    "tel": "0748-53-8722",
    "url": "https://www.dreyejo.com",
    "pref": "滋賀県",
    "city": "日野町",
    "category": "day_service",
    "serviceType": "通所介護",
    "capacity": 0,
    "openDays": [
      "平日",
      "祝日"
    ],
    "openDaysNote": ""
  },
  {
    "id": "2570200101",
    "name": "ＪＡ東びわこデイサービスセンター",
    "kana": "ジェイエイヒガシビワコデイサービスセンター",
    "address": "滋賀県彦根市賀田山町234-6",
    "lat": 35.2204509,
    "lng": 136.2133448,
    "tel": "0749-28-7878",
    "url": "http://www/east.jas.or.jp",
    "pref": "滋賀県",
    "city": "彦根市",
    "category": "day_service",
    "serviceType": "通所介護",
    "capacity": 30,
    "openDays": [
      "平日",
      "土曜日",
      "祝日"
    ],
    "openDaysNote": ""
  },
  {
    "id": "2570201349",
    "name": "ＪＡ東びわこデイサービスセンターたかみや",
    "kana": "ジェイエイヒガシビワコデイサービスセンタータカミヤ",
    "address": "滋賀県彦根市高宮町１０１７－２",
    "lat": 35.2365768,
    "lng": 136.2596885,
    "tel": "０７４９－２４－１１７７",
    "url": "ｈｔｔｐ：//ｗｗｗ．ｅａｓｔ．ｊａｓ．ｏｒ．ｊｐ",
    "pref": "滋賀県",
    "city": "彦根市",
    "category": "day_service",
    "serviceType": "通所介護",
    "capacity": 30,
    "openDays": [
      "平日",
      "土曜日",
      "祝日"
    ],
    "openDaysNote": ""
  },
  {
    "id": "2570200341",
    "name": "さざなみ苑デイサービスセンター",
    "kana": "サザナミエンデイサービスセンター",
    "address": "滋賀県彦根市城町二丁目13番3号",
    "lat": 35.2773069626763,
    "lng": 136.242006219049,
    "tel": "0749-27-1563",
    "url": "http://www.sazanamien.com",
    "pref": "滋賀県",
    "city": "彦根市",
    "category": "day_service",
    "serviceType": "通所介護",
    "capacity": 35,
    "openDays": [
      "平日",
      "土曜日",
      "祝日"
    ],
    "openDaysNote": "彦根市介護予防・日常生活支援総合事業（通所型サービスA）　月・水　11：40～15：40"
  },
  {
    "id": "2570201547",
    "name": "シンシア彦根",
    "kana": "シンシアヒコネ",
    "address": "滋賀県彦根市高宮町2426-1",
    "lat": 35.2364899,
    "lng": 136.2594079,
    "tel": "0749-27-0968",
    "url": "https://www.sincere-gri.com",
    "pref": "滋賀県",
    "city": "彦根市",
    "category": "day_service",
    "serviceType": "通所介護",
    "capacity": 0,
    "openDays": [
      "平日",
      "土曜日",
      "祝日"
    ],
    "openDaysNote": "1月4日が日曜日の場合は定休日となります。"
  },
  {
    "id": "2570201539",
    "name": "ツクイ彦根平田",
    "kana": "ツクイヒコネヒラタ",
    "address": "滋賀県彦根市平田町589-1",
    "lat": 35.2565761,
    "lng": 136.2379953,
    "tel": "0749-30-3606",
    "url": "https://www.tsukui.net/home-care/2429/",
    "pref": "滋賀県",
    "city": "彦根市",
    "category": "day_service",
    "serviceType": "通所介護",
    "capacity": 0,
    "openDays": [
      "平日",
      "土曜日",
      "日曜日",
      "祝日"
    ],
    "openDaysNote": ""
  },
  {
    "id": "2570201620",
    "name": "デイサービス　スリースターズ",
    "kana": "デイサービス　スリースターズ",
    "address": "滋賀県彦根市開出今町1414-6　TJF-KAI1・2",
    "lat": 35.2606397926199,
    "lng": 136.229774624872,
    "tel": "0749-29-9029",
    "url": "https://www.oozora-care.com/",
    "pref": "滋賀県",
    "city": "彦根市",
    "category": "day_service",
    "serviceType": "通所介護",
    "capacity": 0,
    "openDays": [
      "平日",
      "祝日"
    ],
    "openDaysNote": ""
  },
  {
    "id": "2570201653",
    "name": "デイサービスがじゅまる",
    "kana": "デイサービスガジュマル",
    "address": "川瀬馬場町1082-1",
    "lat": 35.2280039,
    "lng": 136.2241211,
    "tel": "0749-20-2642",
    "url": "",
    "pref": "滋賀県",
    "city": "彦根市",
    "category": "day_service",
    "serviceType": "通所介護",
    "capacity": 50,
    "openDays": [
      "平日",
      "土曜日",
      "祝日"
    ],
    "openDaysNote": ""
  },
  {
    "id": "2570200994",
    "name": "デイサービスさくら",
    "kana": "デイサービスサクラ",
    "address": "平田町１３６－５ハピネス ハピネス",
    "lat": 35.262445708506,
    "lng": 136.247054409231,
    "tel": "0749-24-8011",
    "url": "http://2018sakura.com/",
    "pref": "滋賀県",
    "city": "彦根市",
    "category": "day_service",
    "serviceType": "通所介護",
    "capacity": 30,
    "openDays": [
      "平日",
      "祝日"
    ],
    "openDaysNote": "月曜日～金曜日まで営業（祝日は営業）"
  },
  {
    "id": "2570200028",
    "name": "デイサービスセンターべるふらっと",
    "kana": "デイサービスセンターベルフラット",
    "address": "滋賀県彦根市平田町258-3",
    "lat": 35.2601675,
    "lng": 136.2423831,
    "tel": "0749-24-0445",
    "url": "http://suzukihealthcare.co.jp",
    "pref": "滋賀県",
    "city": "彦根市",
    "category": "day_service",
    "serviceType": "通所介護",
    "capacity": 0,
    "openDays": [
      "平日",
      "土曜日",
      "祝日"
    ],
    "openDaysNote": ""
  },
  {
    "id": "2570201224",
    "name": "デイサービスセンター寿安",
    "kana": "デイサービスセンタージュアン",
    "address": "滋賀県彦根市新海浜一丁目９番地５",
    "lat": 35.2160513,
    "lng": 136.1196685,
    "tel": "０７４９-４３-５７３３",
    "url": "http:/care39.net/",
    "pref": "滋賀県",
    "city": "彦根市",
    "category": "day_service",
    "serviceType": "通所介護",
    "capacity": 20,
    "openDays": [
      "平日",
      "祝日"
    ],
    "openDaysNote": ""
  },
  {
    "id": "2570201679",
    "name": "デイサービスはるのうみ",
    "kana": "デイサービスハルノウミ",
    "address": "西今町369-1",
    "lat": 35.2481051,
    "lng": 136.2420153,
    "tel": "0749-21-3983",
    "url": "http://www.hikone-rehacl.com/",
    "pref": "滋賀県",
    "city": "彦根市",
    "category": "day_service",
    "serviceType": "通所介護",
    "capacity": 30,
    "openDays": [
      "平日",
      "土曜日",
      "祝日"
    ],
    "openDaysNote": ""
  },
  {
    "id": "2570200879",
    "name": "デイサービスよもぎの里",
    "kana": "デイサービスヨモギノサト",
    "address": "滋賀県彦根市平田町901番",
    "lat": 35.2556016,
    "lng": 136.2466469,
    "tel": "０７４９－２０－５１８１",
    "url": "hi-yomogi.com",
    "pref": "滋賀県",
    "city": "彦根市",
    "category": "day_service",
    "serviceType": "通所介護",
    "capacity": 40,
    "openDays": [
      "平日",
      "土曜日",
      "祝日"
    ],
    "openDaysNote": ""
  },
  {
    "id": "2570200747",
    "name": "デイサービスりはたま",
    "kana": "デイサービスリハタマ",
    "address": "滋賀県彦根市平田町162番地15",
    "lat": 35.2625009266788,
    "lng": 136.246048110512,
    "tel": "0749-26-5535",
    "url": "oozora-care.com",
    "pref": "滋賀県",
    "city": "彦根市",
    "category": "day_service",
    "serviceType": "通所介護",
    "capacity": 35,
    "openDays": [
      "平日",
      "祝日"
    ],
    "openDaysNote": ""
  },
  {
    "id": "2570201414",
    "name": "デイホームゆりの木彦根",
    "kana": "デイホームユリノキヒコネ",
    "address": "滋賀県彦根市松原町字松中1136-1",
    "lat": 35.2889400090232,
    "lng": 136.25273057108,
    "tel": "0749-21-5678",
    "url": "https://senior-life.jp/service/yuri.php",
    "pref": "滋賀県",
    "city": "彦根市",
    "category": "day_service",
    "serviceType": "通所介護",
    "capacity": 0,
    "openDays": [
      "平日",
      "土曜日",
      "祝日"
    ],
    "openDaysNote": ""
  },
  {
    "id": "2570200283",
    "name": "ニチイケアセンター大藪",
    "kana": "ニチイケアセンターオオヤブ",
    "address": "彦根市大藪町2505-1",
    "lat": 35.2624945,
    "lng": 136.2351002,
    "tel": "0749-21-2560",
    "url": "http://www.nichiigakkan.co.jp",
    "pref": "滋賀県",
    "city": "彦根市",
    "category": "day_service",
    "serviceType": "通所介護",
    "capacity": 0,
    "openDays": [
      "平日",
      "土曜日",
      "祝日"
    ],
    "openDaysNote": ""
  },
  {
    "id": "2570200184",
    "name": "ニチイケアセンター彦根",
    "kana": "ニチイケアセンターヒコネ",
    "address": "西葛籠町311-6",
    "lat": 35.2255519,
    "lng": 136.2402955,
    "tel": "0749-28-7005",
    "url": "http://www.nichiigakkan.co.jp/",
    "pref": "滋賀県",
    "city": "彦根市",
    "category": "day_service",
    "serviceType": "通所介護",
    "capacity": 0,
    "openDays": [
      "平日",
      "土曜日"
    ],
    "openDaysNote": "・12/31は時間短縮営業。"
  },
  {
    "id": "2570201257",
    "name": "ハッピーフィットネスひこね",
    "kana": "ハッピーフィットネスヒコネ",
    "address": "滋賀県彦根市平田町289-6",
    "lat": 35.2593316,
    "lng": 136.2444052,
    "tel": "0749-47-5440",
    "url": "http://okaken.biz/",
    "pref": "滋賀県",
    "city": "彦根市",
    "category": "day_service",
    "serviceType": "通所介護",
    "capacity": 0,
    "openDays": [
      "平日",
      "祝日"
    ],
    "openDaysNote": "午前午後の２単位でおこなっております。"
  },
  {
    "id": "2570201521",
    "name": "レッツ俱楽部高宮町",
    "kana": "レッツクラブタカミヤチョウ",
    "address": "高宮町903番地1レマルージュ店舗1号室 レマルージュ店舗1号室",
    "lat": 35.2364899,
    "lng": 136.2594079,
    "tel": "0749-23-1600",
    "url": "",
    "pref": "滋賀県",
    "city": "彦根市",
    "category": "day_service",
    "serviceType": "通所介護",
    "capacity": 0,
    "openDays": [
      "平日",
      "土曜日",
      "祝日"
    ],
    "openDaysNote": ""
  },
  {
    "id": "2570201398",
    "name": "滋賀県彦根市川瀬馬場町９７１番地１",
    "kana": "サニープレイス河瀬デイサービス",
    "address": "滋賀県彦根市川瀬馬場町９７１番地１",
    "lat": 35.2277203,
    "lng": 136.2243325,
    "tel": "0749-28-7400",
    "url": "hinatakonon.jp",
    "pref": "滋賀県",
    "city": "彦根市",
    "category": "day_service",
    "serviceType": "通所介護",
    "capacity": 0,
    "openDays": [
      "平日"
    ],
    "openDaysNote": ""
  },
  {
    "id": "2570200374",
    "name": "正風園　旭森デイサービスセンターくるま座",
    "kana": "ショウフウエン　アサヒノモリデイサービスセンタークルマザ",
    "address": "滋賀県　彦根市　野田山町　1099-1番地",
    "lat": 35.247712,
    "lng": 136.2736724,
    "tel": "0749-30-9398",
    "url": "www.taijyukai.net",
    "pref": "滋賀県",
    "city": "彦根市",
    "category": "day_service",
    "serviceType": "通所介護",
    "capacity": null,
    "openDays": [
      "平日",
      "土曜日",
      "祝日"
    ],
    "openDaysNote": ""
  },
  {
    "id": "2570201604",
    "name": "彦根ケアセンターそよ風",
    "kana": "ヒコネケアセンターソヨカゼ",
    "address": "駅東町2-3",
    "lat": 35.2706709,
    "lng": 136.2647952,
    "tel": "0749-27-2131",
    "url": "https://www.sykz.co.jp/shisetsu-zaitaku/254493",
    "pref": "滋賀県",
    "city": "彦根市",
    "category": "day_service",
    "serviceType": "通所介護",
    "capacity": null,
    "openDays": [
      "平日",
      "土曜日",
      "祝日"
    ],
    "openDaysNote": ""
  },
  {
    "id": "2570201562",
    "name": "彦根ひらたデイサービス",
    "kana": "ヒコネヒラタデイサービス",
    "address": "滋賀県彦根市平田町448-1ひらた翔裕館Ⅱ号館 ひらた翔裕館Ⅱ号館",
    "lat": 35.2605948,
    "lng": 136.2384552,
    "tel": "0749-21-3715",
    "url": "https://www.sanga-kaigo.co.jp/",
    "pref": "滋賀県",
    "city": "彦根市",
    "category": "day_service",
    "serviceType": "通所介護",
    "capacity": 0,
    "openDays": [
      "平日",
      "土曜日",
      "日曜日",
      "祝日"
    ],
    "openDaysNote": "なし"
  },
  {
    "id": "2570200325",
    "name": "彦根市デイサービスセンターきらら",
    "kana": "ヒコネシデイサービスセンターキララ",
    "address": "彦根市川瀬馬場町1015-1",
    "lat": 35.2293005,
    "lng": 136.2212966,
    "tel": "0749-28-7353",
    "url": "http://www.toyosato.or.jp/index.html",
    "pref": "滋賀県",
    "city": "彦根市",
    "category": "day_service",
    "serviceType": "通所介護",
    "capacity": 40,
    "openDays": [
      "平日",
      "土曜日",
      "祝日"
    ],
    "openDaysNote": ""
  },
  {
    "id": "2570200382",
    "name": "彦根市ふたばデイサービスセンター",
    "kana": "ヒコネシフタバデイサービスセンター",
    "address": "彦根市金剛寺町95番地の1",
    "lat": 35.233701,
    "lng": 136.2396316,
    "tel": "0749-28-0065",
    "url": "http://www.yujin-yamazaki.co.jp/hutaba.html",
    "pref": "滋賀県",
    "city": "彦根市",
    "category": "day_service",
    "serviceType": "通所介護",
    "capacity": 25,
    "openDays": [
      "平日",
      "土曜日",
      "祝日"
    ],
    "openDaysNote": ""
  },
  {
    "id": "2570200267",
    "name": "彦根市佐和山デイサービスセンター",
    "kana": "ヒコネシサワヤマデイサービスセンター",
    "address": "芹川町484-4",
    "lat": 35.2625599,
    "lng": 136.264206,
    "tel": "0749-21-0700",
    "url": "http://www.yujin-yamazaki.co.jp/sawayam.html",
    "pref": "滋賀県",
    "city": "彦根市",
    "category": "day_service",
    "serviceType": "通所介護",
    "capacity": 40,
    "openDays": [
      "平日",
      "土曜日",
      "祝日"
    ],
    "openDaysNote": "特になし"
  },
  {
    "id": "2570201612",
    "name": "彦根市南デイサービスセンター",
    "kana": "ヒコネシミナミデイサービスセンター",
    "address": "滋賀県彦根市田原町13-2",
    "lat": 35.2135325,
    "lng": 136.1804244,
    "tel": "0749-43-6700",
    "url": "https://homesweethome.jp",
    "pref": "滋賀県",
    "city": "彦根市",
    "category": "day_service",
    "serviceType": "通所介護",
    "capacity": 0,
    "openDays": [
      "平日",
      "土曜日",
      "祝日"
    ],
    "openDaysNote": ""
  },
  {
    "id": "2570200051",
    "name": "彦根市北デイサービスセンター",
    "kana": "ヒコネシキタデイサービスセンター",
    "address": "滋賀県彦根市馬場一丁目５－５彦根市北老人福祉センター　ハピネスひこね（北デイサービス棟） 彦根市北老人福祉センター　ハピネスひこね（北デイサービス棟）",
    "lat": 35.2808651,
    "lng": 136.248204,
    "tel": "0749-21-0301",
    "url": "http://www.hikone-shakyou.or.jp",
    "pref": "滋賀県",
    "city": "彦根市",
    "category": "day_service",
    "serviceType": "通所介護",
    "capacity": 40,
    "openDays": [
      "平日",
      "土曜日",
      "祝日"
    ],
    "openDaysNote": ""
  },
  {
    "id": "2570200614",
    "name": "仄香の郷地蔵デイサービスセンター",
    "kana": "ホノカノサトジゾウデイサービスセンター",
    "address": "彦根市地蔵町73-2",
    "lat": 35.2564980387565,
    "lng": 136.269122155408,
    "tel": "0749-23-5557",
    "url": "http://www.iscare.co.jp",
    "pref": "滋賀県",
    "city": "彦根市",
    "category": "day_service",
    "serviceType": "通所介護",
    "capacity": 28,
    "openDays": [
      "平日",
      "土曜日",
      "祝日"
    ],
    "openDaysNote": ""
  },
  {
    "id": "2572400592",
    "name": "きらめきデイサービスセンター",
    "kana": "キラメキデイサービスセンター",
    "address": "滋賀県米原市朝妻筑摩2483番地",
    "lat": 35.3210292,
    "lng": 136.2709689,
    "tel": "0749－52－8816",
    "url": "http://www.taijyukai.net",
    "pref": "滋賀県",
    "city": "米原市",
    "category": "day_service",
    "serviceType": "通所介護",
    "capacity": 25,
    "openDays": [
      "平日",
      "土曜日",
      "祝日"
    ],
    "openDaysNote": ""
  },
  {
    "id": "2572400253",
    "name": "スマイルデイサービスセンター",
    "kana": "スマイルデイサービスセンター",
    "address": "米原市寺倉603番地の3",
    "lat": 35.3251115,
    "lng": 136.3112269,
    "tel": "0749-54-8204",
    "url": "https://www.oumikunpuukai.com",
    "pref": "滋賀県",
    "city": "米原市",
    "category": "day_service",
    "serviceType": "通所介護",
    "capacity": 0,
    "openDays": [
      "平日",
      "土曜日",
      "祝日"
    ],
    "openDaysNote": ""
  },
  {
    "id": "2572400642",
    "name": "デイサービスお庫裡さん",
    "kana": "デイサービスオクリサン",
    "address": "滋賀県米原市大清水1107",
    "lat": 35.3779542,
    "lng": 136.4007594,
    "tel": "0749-56-2309",
    "url": "",
    "pref": "滋賀県",
    "city": "米原市",
    "category": "day_service",
    "serviceType": "通所介護",
    "capacity": 0,
    "openDays": [
      "平日",
      "土曜日",
      "日曜日",
      "祝日"
    ],
    "openDaysNote": ""
  },
  {
    "id": "2572400360",
    "name": "デイサービスセンターやすらぎハウス",
    "kana": "デイサービスセンターヤスラギハウス",
    "address": "滋賀県米原市顔戸21番地2米原市近江地域福祉センターやすらぎハウス 米原市近江地域福祉センターやすらぎハウス",
    "lat": 35.3369267,
    "lng": 136.3106571,
    "tel": "0749-52-4393",
    "url": "http://www.taijyukai.net/",
    "pref": "滋賀県",
    "city": "米原市",
    "category": "day_service",
    "serviceType": "通所介護",
    "capacity": 35,
    "openDays": [
      "平日",
      "土曜日",
      "祝日"
    ],
    "openDaysNote": ""
  },
  {
    "id": "2572400287",
    "name": "デイサービスみしま池",
    "kana": "デイサービスミシマイケ",
    "address": "米原市池下５６３－１",
    "lat": 35.371667,
    "lng": 136.3557406,
    "tel": "0749-55-0304",
    "url": "https://www.cs-mishimaike.com/",
    "pref": "滋賀県",
    "city": "米原市",
    "category": "day_service",
    "serviceType": "通所介護",
    "capacity": 29,
    "openDays": [
      "平日",
      "土曜日",
      "祝日"
    ],
    "openDaysNote": ""
  },
  {
    "id": "2572400550",
    "name": "デイホームゆりの木米原",
    "kana": "デイホームユリノキマイバラ",
    "address": "滋賀県米原市世継1028-9",
    "lat": 35.3342867,
    "lng": 136.272709,
    "tel": "0749-52-8338",
    "url": "",
    "pref": "滋賀県",
    "city": "米原市",
    "category": "day_service",
    "serviceType": "通所介護",
    "capacity": 0,
    "openDays": [
      "平日"
    ],
    "openDaysNote": ""
  },
  {
    "id": "2572400451",
    "name": "ポラリスデイサービスセンター米原",
    "kana": "ポラリスデイサービスセンターマイバラ",
    "address": "岩脇482-1",
    "lat": 35.3249608347602,
    "lng": 136.291724733452,
    "tel": "0749-52-8067",
    "url": "http://www.polaris.care/",
    "pref": "滋賀県",
    "city": "米原市",
    "category": "day_service",
    "serviceType": "通所介護",
    "capacity": 24,
    "openDays": [
      "平日",
      "土曜日",
      "祝日"
    ],
    "openDaysNote": "日曜日・年末年始（12/31～1/3）を休みとする。"
  },
  {
    "id": "2572400527",
    "name": "リハデイいそ",
    "kana": "リハデイイソ",
    "address": "滋賀県米原市磯1703",
    "lat": 35.3066454,
    "lng": 136.2610743,
    "tel": "0749-52-8700",
    "url": "",
    "pref": "滋賀県",
    "city": "米原市",
    "category": "day_service",
    "serviceType": "通所介護",
    "capacity": 30,
    "openDays": [
      "平日",
      "土曜日",
      "祝日"
    ],
    "openDaysNote": ""
  },
  {
    "id": "2572400030",
    "name": "山東デイサービスセンター",
    "kana": "サントウデイサービスセンター",
    "address": "滋賀県米原市長岡１０５０－１",
    "lat": 35.3647178,
    "lng": 136.3675394,
    "tel": "0749-55-7188",
    "url": "http:/www.seishokai.jp/sakata",
    "pref": "滋賀県",
    "city": "米原市",
    "category": "day_service",
    "serviceType": "通所介護",
    "capacity": 0,
    "openDays": [
      "平日",
      "土曜日",
      "祝日"
    ],
    "openDaysNote": ""
  },
  {
    "id": "2572400170",
    "name": "社会福祉法人米原市社会福祉協議会デイサービスセンターゆめホール",
    "kana": "シャカイフクシホウジンマイバラシシャカイフクシキョウギカイデイサービスセンターユメホール",
    "address": "滋賀県米原市三吉５７０番地",
    "lat": 35.3200287,
    "lng": 136.3218813,
    "tel": "0749-51-9098",
    "url": "http://maibara-shakyo.or.jp/",
    "pref": "滋賀県",
    "city": "米原市",
    "category": "day_service",
    "serviceType": "通所介護",
    "capacity": 30,
    "openDays": [
      "平日",
      "土曜日",
      "祝日"
    ],
    "openDaysNote": "特になし"
  },
  {
    "id": "2572400154",
    "name": "社会福祉法人米原市社会福祉協議会デイサービスセンター愛らんど",
    "kana": "シャカイフクシホウジンマイバラシシャカイフクシキョウギカイデイサービスセンターアイランド",
    "address": "滋賀県米原市春照56米原市伊吹地域福祉センター愛らんど内 米原市伊吹地域福祉センター愛らんど内",
    "lat": 35.3830530033812,
    "lng": 136.383537083914,
    "tel": "0749-58-1422",
    "url": "http://maibara-shakyo.or.jp/",
    "pref": "滋賀県",
    "city": "米原市",
    "category": "day_service",
    "serviceType": "通所介護",
    "capacity": 30,
    "openDays": [
      "平日",
      "土曜日",
      "祝日"
    ],
    "openDaysNote": "但し、年末年始（12月31日～1月3日）は休業"
  },
  {
    "id": "2571800388",
    "name": "DSゆめのしっぽ",
    "kana": "ディスカバリーステーションユメノシッポ",
    "address": "滋賀県犬上郡豊郷町吉田1480-7",
    "lat": 35.1902281,
    "lng": 136.2267885,
    "tel": "0749-47-5412",
    "url": "marukusu.com",
    "pref": "滋賀県",
    "city": "豊郷町",
    "category": "day_service",
    "serviceType": "通所介護",
    "capacity": null,
    "openDays": [
      "平日",
      "祝日"
    ],
    "openDaysNote": "年末年始休暇（12/30～1/3）あり。"
  },
  {
    "id": "2571800065",
    "name": "デイサービスセンター　元気村",
    "kana": "デイサービスセンターゲンキムラ",
    "address": "滋賀県犬上郡豊郷町安食南２７７－１",
    "lat": 35.200268,
    "lng": 136.2288128,
    "tel": "0749-35-5220",
    "url": "http://www.eonet.ne.jp/~genkimura/",
    "pref": "滋賀県",
    "city": "豊郷町",
    "category": "day_service",
    "serviceType": "通所介護",
    "capacity": 35,
    "openDays": [
      "平日",
      "土曜日",
      "祝日"
    ],
    "openDaysNote": ""
  },
  {
    "id": "2571800297",
    "name": "ユアシス豊郷",
    "kana": "ユアシストヨサト",
    "address": "滋賀県犬上郡豊郷町吉田1480-7",
    "lat": 35.1903384,
    "lng": 136.2268796,
    "tel": "0749-35-8118",
    "url": "http://bestcare-shiga.com/",
    "pref": "滋賀県",
    "city": "豊郷町",
    "category": "day_service",
    "serviceType": "通所介護",
    "capacity": 0,
    "openDays": [
      "平日",
      "祝日"
    ],
    "openDaysNote": ""
  },
  {
    "id": "2571800016",
    "name": "社会福祉法人　豊郷町社会福祉協議会　通所介護事業所",
    "kana": "シャカイフクシホウジン　トヨサトチョウシャカイフクシキョウギカイ　ツウショカイゴジギョウショ",
    "address": "滋賀県犬上郡豊郷町四十九院１２５２",
    "lat": 35.2049207,
    "lng": 136.2393316,
    "tel": "0749-35-8056",
    "url": "",
    "pref": "滋賀県",
    "city": "豊郷町",
    "category": "day_service",
    "serviceType": "通所介護",
    "capacity": 0,
    "openDays": [
      "平日",
      "祝日"
    ],
    "openDaysNote": "12月28・29日、1月4日は曜日に関係なく営業日とします。（改行）※臨時休業や営業時間の短縮を行う場合があります。悪天候時、非常災害時、伝染病（感染病）等の発生ならびに従事職員の傷病等により営業することが困難と判断した場合（これらの場合は速やかにご家族等ならびに居宅介護支援事業所に連絡します）。（改行）※感染症予防対策のため、利用時間中に「マスクの着用等の協力」をお願いする場合があります。"
  },
  {
    "id": "2571800347",
    "name": "特別養護老人ホーム　いやしのさと　デイサービスセンター",
    "kana": "トクベツヨウゴロウジンホーム　イヤシノサト　デイサービスセンター",
    "address": "滋賀県犬上郡豊郷町沢517-4",
    "lat": 35.192018,
    "lng": 136.217003,
    "tel": "0749-35-0216",
    "url": "https://asunaroiyashinosat.wixsite.com/asunaro/blank-8",
    "pref": "滋賀県",
    "city": "豊郷町",
    "category": "day_service",
    "serviceType": "通所介護",
    "capacity": 20,
    "openDays": [
      "平日"
    ],
    "openDaysNote": "その他定休日あり。定休日は年間休日予定表によって決まっています。"
  },
  {
    "id": "2571300355",
    "name": "デイサービスあいむ祗王",
    "kana": "デイサービスアイムギオウ",
    "address": "滋賀県野洲市冨波乙177-4",
    "lat": 35.0750613,
    "lng": 136.031497,
    "tel": "077-518-1002",
    "url": "http://k-aimu.co.jp",
    "pref": "滋賀県",
    "city": "野洲市",
    "category": "day_service",
    "serviceType": "通所介護",
    "capacity": 30,
    "openDays": [
      "平日",
      "土曜日",
      "祝日"
    ],
    "openDaysNote": ""
  },
  {
    "id": "2571300090",
    "name": "デイサービスセンターあやめの里",
    "kana": "デイサービスセンターアヤメノサト",
    "address": "滋賀県野洲市吉川3854番地1",
    "lat": 35.1282789,
    "lng": 135.9929452,
    "tel": "077-589-8533",
    "url": "http://yasujikeikai.jp/",
    "pref": "滋賀県",
    "city": "野洲市",
    "category": "day_service",
    "serviceType": "通所介護",
    "capacity": 0,
    "openDays": [
      "平日",
      "土曜日",
      "祝日"
    ],
    "openDaysNote": ""
  },
  {
    "id": "2571300199",
    "name": "デイサービスセンターぎおうの里",
    "kana": "デイサービスセンターギオウノサト",
    "address": "滋賀県野洲市冨波甲1340番地1",
    "lat": 35.0896762,
    "lng": 136.0277752,
    "tel": "077-586-5444",
    "url": "https://yasujikeikai.jp/",
    "pref": "滋賀県",
    "city": "野洲市",
    "category": "day_service",
    "serviceType": "通所介護",
    "capacity": 0,
    "openDays": [
      "平日",
      "土曜日",
      "祝日"
    ],
    "openDaysNote": ""
  },
  {
    "id": "2571300652",
    "name": "デイサービスふじ",
    "kana": "デイサービスフジ",
    "address": "滋賀県野洲市三上241-8",
    "lat": 35.044737441513,
    "lng": 136.031851709787,
    "tel": "077-518-1980",
    "url": "http://day-fuji.jp/",
    "pref": "滋賀県",
    "city": "野洲市",
    "category": "day_service",
    "serviceType": "通所介護",
    "capacity": 19,
    "openDays": [
      "平日",
      "土曜日",
      "祝日"
    ],
    "openDaysNote": ""
  },
  {
    "id": "2571300108",
    "name": "デイセンターさくら",
    "kana": "デイセンターサクラ",
    "address": "野洲市南桜2292番地56",
    "lat": 35.0336355,
    "lng": 136.0417477,
    "tel": "077-518-0530",
    "url": "https://yasujikeikai.jp/",
    "pref": "滋賀県",
    "city": "野洲市",
    "category": "day_service",
    "serviceType": "通所介護",
    "capacity": null,
    "openDays": [
      "平日",
      "土曜日"
    ],
    "openDaysNote": ""
  },
  {
    "id": "2571300694",
    "name": "またあした　みそら",
    "kana": "マタアシタ　ミソラ",
    "address": "滋賀県野洲市比江４６１－１",
    "lat": 35.087104,
    "lng": 136.0127074,
    "tel": "077-589-5616",
    "url": "http://mataashita.jp/",
    "pref": "滋賀県",
    "city": "野洲市",
    "category": "day_service",
    "serviceType": "通所介護",
    "capacity": 3,
    "openDays": [
      "平日",
      "土曜日",
      "祝日"
    ],
    "openDaysNote": "台風。地震など想定外の災害により臨時休業することがあります。（改行）（改行）年末年始　12月31日から1月3日までは冬季休業いたします。"
  },
  {
    "id": "2571300777",
    "name": "ラ・ステイト野洲デイサービス",
    "kana": "ラステイトヤスデイサービス",
    "address": "滋賀県野洲市野洲2053-1",
    "lat": 35.0652378223326,
    "lng": 136.015131117787,
    "tel": "775990352",
    "url": "lastate.jp",
    "pref": "滋賀県",
    "city": "野洲市",
    "category": "day_service",
    "serviceType": "通所介護",
    "capacity": 20,
    "openDays": [
      "平日",
      "祝日"
    ],
    "openDaysNote": ""
  },
  {
    "id": "2571500483",
    "name": "デイサービススイッチオン竜王",
    "kana": "デイサービススイッチオンリュウオウ",
    "address": "滋賀県蒲生郡竜王町大字小口廣谷1303-24",
    "lat": 35.058858,
    "lng": 136.102462,
    "tel": "0748-58-2820",
    "url": "",
    "pref": "滋賀県",
    "city": "竜王町",
    "category": "day_service",
    "serviceType": "通所介護",
    "capacity": 40,
    "openDays": [
      "平日",
      "土曜日",
      "祝日"
    ],
    "openDaysNote": ""
  },
  {
    "id": "2571500368",
    "name": "デイサービスりゅうおう",
    "kana": "デイサービスリュウオウ",
    "address": "蒲生郡竜王町大字西川字中筋1457番5",
    "lat": 35.0877025248901,
    "lng": 136.099955839446,
    "tel": "０７４８－５８－１１０７",
    "url": "http://hp.kaipoke.biz/wh9/",
    "pref": "滋賀県",
    "city": "竜王町",
    "category": "day_service",
    "serviceType": "通所介護",
    "capacity": 25,
    "openDays": [
      "平日",
      "土曜日",
      "祝日"
    ],
    "openDaysNote": ""
  },
  {
    "id": "2571500418",
    "name": "デイサービス花水木",
    "kana": "デイサービス　ハナミズキ",
    "address": "滋賀県蒲生郡竜王町大字弓削字車瀬２３-１",
    "lat": 35.0889071,
    "lng": 136.1212599,
    "tel": "0748-43-1681",
    "url": "",
    "pref": "滋賀県",
    "city": "竜王町",
    "category": "day_service",
    "serviceType": "通所介護",
    "capacity": 25,
    "openDays": [
      "平日"
    ],
    "openDaysNote": ""
  },
  {
    "id": "2571500319",
    "name": "デイサービス桃の郷",
    "kana": "デイサービスモモノサト",
    "address": "滋賀県蒲生郡竜王町山之上5152-5",
    "lat": 35.0383662399238,
    "lng": 136.138290416672,
    "tel": "0748-57-0890",
    "url": "",
    "pref": "滋賀県",
    "city": "竜王町",
    "category": "day_service",
    "serviceType": "通所介護",
    "capacity": 30,
    "openDays": [
      "平日",
      "土曜日",
      "祝日"
    ],
    "openDaysNote": ""
  },
  {
    "id": "2571500152",
    "name": "第2デイサービス万葉の里",
    "kana": "ダイニデイサービスマンヨウノサト",
    "address": "滋賀県蒲生郡竜王町大字山之上６０６８",
    "lat": 35.0535787,
    "lng": 136.1458189,
    "tel": "0748-57-2106",
    "url": "http://care-net.biz/25/yukinokai/",
    "pref": "滋賀県",
    "city": "竜王町",
    "category": "day_service",
    "serviceType": "通所介護",
    "capacity": 35,
    "openDays": [
      "平日",
      "土曜日",
      "祝日"
    ],
    "openDaysNote": ""
  }
]