[
  {
    "id": "1772100028",
    "name": "あかしあ荘デイサービスセンター",
    "kana": "アカシアソウデイサービスセンター",
    "address": "石川県かほく市白尾タ220番地",
    "lat": 36.7175385976221,
    "lng": 136.6960877432,
    "tel": "076-283-2935",
    "url": "http://care-net.biz/17/akashiaday/index.php",
    "pref": "石川県",
    "city": "かほく市",
    "category": "day_service",
    "serviceType": "通所介護",
    "capacity": 0,
    "openDays": [
      "平日",
      "土曜日",
      "祝日"
    ],
    "openDaysNote": ""
  },
  {
    "id": "1772100150",
    "name": "かほくケアセンター",
    "kana": "カホクケアセンター",
    "address": "かほく市浜北ニ2-7",
    "lat": 36.7333194022394,
    "lng": 136.698675856622,
    "tel": "076-283-9220",
    "url": "http://kahoku41.com",
    "pref": "石川県",
    "city": "かほく市",
    "category": "day_service",
    "serviceType": "通所介護",
    "capacity": 0,
    "openDays": [
      "平日",
      "土曜日",
      "祝日"
    ],
    "openDaysNote": ""
  },
  {
    "id": "1772100127",
    "name": "デイサービスセンターあいおい",
    "kana": "デイサービスセンターアイオイ",
    "address": "石川県かほく市宇気イ51番地1高齢者複合施設あいおい 高齢者複合施設あいおい",
    "lat": 36.7365933918216,
    "lng": 136.713153096825,
    "tel": "076-208-6826",
    "url": "http://care-net.biz/17/unokeday/",
    "pref": "石川県",
    "city": "かほく市",
    "category": "day_service",
    "serviceType": "通所介護",
    "capacity": 25,
    "openDays": [
      "平日",
      "土曜日",
      "祝日"
    ],
    "openDaysNote": ""
  },
  {
    "id": "1772100291",
    "name": "デイサービスなぎさの家あじち",
    "kana": "デイサービスナギサノイエアジチ",
    "address": "石川県かほく市白尾タ18番地1",
    "lat": 36.7163249849083,
    "lng": 136.695167937959,
    "tel": "076-283-1035",
    "url": "http://hoyasakai1060nagisa.com",
    "pref": "石川県",
    "city": "かほく市",
    "category": "day_service",
    "serviceType": "通所介護",
    "capacity": 25,
    "openDays": [
      "平日",
      "土曜日",
      "祝日"
    ],
    "openDaysNote": "お盆休みは8月15日から16日（改行）（改行）年末年始は12月31日から1月3日までの4日間。"
  },
  {
    "id": "1772100317",
    "name": "なぎさ倶楽部Akusyu",
    "kana": "ナギサクラブアクシュ",
    "address": "石川県かほく市白尾ネ181番",
    "lat": 36.715771,
    "lng": 136.6885267,
    "tel": "076-283-8835",
    "url": "",
    "pref": "石川県",
    "city": "かほく市",
    "category": "day_service",
    "serviceType": "通所介護",
    "capacity": 0,
    "openDays": [
      "平日",
      "土曜日",
      "祝日"
    ],
    "openDaysNote": "お盆休み(８月１５日～８月１６日)（改行）年末年始休み(１２月３１日～１月３日)"
  },
  {
    "id": "1772100309",
    "name": "ひゃくまん星高松通所介護事業所",
    "kana": "ヒャクマンボシタカマツツウショカイゴジギョウショ",
    "address": "高松甲16番地10ひゃくまん星高松 ひゃくまん星高松",
    "lat": 36.7613436,
    "lng": 136.7112457,
    "tel": "076-281-1008",
    "url": "",
    "pref": "石川県",
    "city": "かほく市",
    "category": "day_service",
    "serviceType": "通所介護",
    "capacity": 24,
    "openDays": [
      "平日",
      "土曜日",
      "祝日"
    ],
    "openDaysNote": "国民の祝日は営業1月1日、1月2日定休日"
  },
  {
    "id": "1772100101",
    "name": "株式会社　中村産業　たからデイサービス",
    "kana": "カブシキガイシャ　ナカムラサンギョウ　タカラデイサービス",
    "address": "石川県かほく市白尾ナ４２番地１",
    "lat": 36.7129851,
    "lng": 136.6903678,
    "tel": "076-283-6318",
    "url": "www.nakamura-takara.com",
    "pref": "石川県",
    "city": "かほく市",
    "category": "day_service",
    "serviceType": "通所介護",
    "capacity": 0,
    "openDays": [
      "平日",
      "土曜日",
      "祝日"
    ],
    "openDaysNote": "年末年始休み"
  },
  {
    "id": "1772100200",
    "name": "天然温泉デイサービス　海青クラブ",
    "kana": "テンネンオンセンデイサービス　カイセイクラブ",
    "address": "石川県かほく市秋浜へ２０番地４",
    "lat": 36.7279721,
    "lng": 136.6923866,
    "tel": "076-283-5600",
    "url": "http://www.bijyoukai.net/",
    "pref": "石川県",
    "city": "かほく市",
    "category": "day_service",
    "serviceType": "通所介護",
    "capacity": 35,
    "openDays": [
      "平日",
      "祝日"
    ],
    "openDaysNote": ""
  },
  {
    "id": "1772100010",
    "name": "芙蓉会デイサービスセンター",
    "kana": "フヨウカイデイサービスセンター",
    "address": "石川県かほく市学園台5丁目19番地1",
    "lat": 36.7798485102557,
    "lng": 136.729651649399,
    "tel": "076-281-2660",
    "url": "https://f-kotobukien.jp",
    "pref": "石川県",
    "city": "かほく市",
    "category": "day_service",
    "serviceType": "通所介護",
    "capacity": 0,
    "openDays": [
      "平日",
      "土曜日",
      "祝日"
    ],
    "openDaysNote": ""
  },
  {
    "id": "1770700183",
    "name": "デイサービス　夢の華",
    "kana": "デイサービス　ユメノハナ",
    "address": "石川県羽咋市兵庫町巳１３番地１ダンデイライオン１Ｆ ダンデイライオン１Ｆ",
    "lat": 36.8879829,
    "lng": 136.7785105,
    "tel": "0767-22-5050",
    "url": "https://www.unedaya.biz/",
    "pref": "石川県",
    "city": "羽咋市",
    "category": "day_service",
    "serviceType": "通所介護",
    "capacity": 20,
    "openDays": [
      "平日",
      "土曜日",
      "祝日"
    ],
    "openDaysNote": ""
  },
  {
    "id": "1770700050",
    "name": "デイサービスセンターおうちの里",
    "kana": "デイサービスセンターオウチノサト",
    "address": "羽咋市飯山町ル1番地1",
    "lat": 36.9026902,
    "lng": 136.8283235,
    "tel": "0767-26-8811",
    "url": "http://www.bijyoukai.net/",
    "pref": "石川県",
    "city": "羽咋市",
    "category": "day_service",
    "serviceType": "通所介護",
    "capacity": 30,
    "openDays": [
      "平日",
      "土曜日",
      "祝日"
    ],
    "openDaysNote": ""
  },
  {
    "id": "1770700381",
    "name": "リハビリデイサービス　わたぼうし",
    "kana": "リハビリデイサービス　ワタボウシ",
    "address": "石川県羽咋市深江町ト107番地1",
    "lat": 36.9024812,
    "lng": 136.8015322,
    "tel": "0767-22-8702",
    "url": "https://www.rihabili-wataboushi.com/",
    "pref": "石川県",
    "city": "羽咋市",
    "category": "day_service",
    "serviceType": "通所介護",
    "capacity": 20,
    "openDays": [
      "平日",
      "祝日"
    ],
    "openDaysNote": "土曜日は介護保険外のスポーツジム"
  },
  {
    "id": "1770700175",
    "name": "羽咋市デイサービスセンター",
    "kana": "ハクイシデイサービスセンター",
    "address": "石川県羽咋市鹿島路町1788番地鹿島路ふれあいセンター 鹿島路ふれあいセンター",
    "lat": 36.935308,
    "lng": 136.8123826,
    "tel": "0767－24－1311",
    "url": "http://www.is.-ja.jp//hakui/",
    "pref": "石川県",
    "city": "羽咋市",
    "category": "day_service",
    "serviceType": "通所介護",
    "capacity": 0,
    "openDays": [
      "平日",
      "土曜日",
      "祝日"
    ],
    "openDaysNote": ""
  },
  {
    "id": "1770700027",
    "name": "眉丈園デイサービスセンター",
    "kana": "ビジョウエンデイサービスセンター",
    "address": "石川県羽咋市的場町稲荷山出ロ26番地2",
    "lat": 36.9018026731566,
    "lng": 136.780025628311,
    "tel": "0767-22-5262",
    "url": "http://www.bijyoukai.net/",
    "pref": "石川県",
    "city": "羽咋市",
    "category": "day_service",
    "serviceType": "通所介護",
    "capacity": 0,
    "openDays": [
      "平日",
      "土曜日",
      "祝日"
    ],
    "openDaysNote": ""
  },
  {
    "id": "1770600516",
    "name": "かがやきデイサービスセンター",
    "kana": "カガヤキデイサービスセンター",
    "address": "石川県加賀市山代温泉３５の１４番地の３かがやきサービス付き高齢者住宅 かがやきサービス付き高齢者住宅",
    "lat": 36.3011839272919,
    "lng": 136.358675941773,
    "tel": "0761-77-2310",
    "url": "http://itaya.kagahaku.jp/",
    "pref": "石川県",
    "city": "加賀市",
    "category": "day_service",
    "serviceType": "通所介護",
    "capacity": 35,
    "openDays": [
      "平日",
      "土曜日",
      "日曜日",
      "祝日"
    ],
    "openDaysNote": "なし"
  },
  {
    "id": "1770600359",
    "name": "ケアリス山代",
    "kana": "ケアリスヤマシロ",
    "address": "石川県加賀市山代温泉２３の６１番地の１",
    "lat": 36.2940683,
    "lng": 136.3596702,
    "tel": "0761-77-6500",
    "url": "https://suzuki-kenko.jp/",
    "pref": "石川県",
    "city": "加賀市",
    "category": "day_service",
    "serviceType": "通所介護",
    "capacity": 0,
    "openDays": [
      "平日",
      "土曜日"
    ],
    "openDaysNote": "特になし"
  },
  {
    "id": "1770600128",
    "name": "デイサービスセンター和（やわらぎ）",
    "kana": "デイサービスセンター　ヤワラギ",
    "address": "加賀市片山津町ム３０番",
    "lat": 36.3434040623166,
    "lng": 136.372744802116,
    "tel": "0761-75-3500",
    "url": "https://yawaragi.ne.jp/",
    "pref": "石川県",
    "city": "加賀市",
    "category": "day_service",
    "serviceType": "通所介護",
    "capacity": 0,
    "openDays": [
      "平日",
      "祝日"
    ],
    "openDaysNote": ""
  },
  {
    "id": "1770600649",
    "name": "デイサ花花",
    "kana": "デイサハナハナ",
    "address": "石川県加賀市柴山町ち91番地",
    "lat": 36.3572513,
    "lng": 136.3738447,
    "tel": "0761-74-2300",
    "url": "https://idagroupde.biz/social/hanahana/",
    "pref": "石川県",
    "city": "加賀市",
    "category": "day_service",
    "serviceType": "通所介護",
    "capacity": null,
    "openDays": [
      "平日",
      "土曜日"
    ],
    "openDaysNote": "12/30～1/3はお休み"
  },
  {
    "id": "1770600300",
    "name": "はるるデイサービスセンター",
    "kana": "ハルルデイサービスセンター",
    "address": "石川県加賀市山中温泉東町2丁目ツ35",
    "lat": 36.246208569611,
    "lng": 136.375604003041,
    "tel": "0761-78-5581",
    "url": "http://www.tokuhoukai.jp/",
    "pref": "石川県",
    "city": "加賀市",
    "category": "day_service",
    "serviceType": "通所介護",
    "capacity": 0,
    "openDays": [
      "平日",
      "土曜日"
    ],
    "openDaysNote": ""
  },
  {
    "id": "1770600557",
    "name": "リハビリディサービス　太陽のリゾート加賀",
    "kana": "リハビリディサービス　タイヨウノリゾートカガ",
    "address": "加賀市小菅波町2丁目54-1",
    "lat": 36.3167236,
    "lng": 136.3473985,
    "tel": "0761-75-7461",
    "url": "www.sunwels.jp",
    "pref": "石川県",
    "city": "加賀市",
    "category": "day_service",
    "serviceType": "通所介護",
    "capacity": 40,
    "openDays": [
      "平日",
      "土曜日",
      "祝日"
    ],
    "openDaysNote": ""
  },
  {
    "id": "1770600045",
    "name": "加賀中央デイサービスセンター",
    "kana": "カガチュウオウデイサービスセンター",
    "address": "石川県加賀市山田町蛇谷１－８",
    "lat": 36.3254416,
    "lng": 136.3350938,
    "tel": "0761-73-5122",
    "url": "http://www.tokuhoukai.jp/",
    "pref": "石川県",
    "city": "加賀市",
    "category": "day_service",
    "serviceType": "通所介護",
    "capacity": 0,
    "openDays": [
      "平日",
      "土曜日"
    ],
    "openDaysNote": ""
  },
  {
    "id": "1770600110",
    "name": "吉崎の丘デイサービスセンター",
    "kana": "ヨシザキノオカデイサービスセンター",
    "address": "加賀市吉崎町ト１３１番地",
    "lat": 36.2888168,
    "lng": 136.2620136,
    "tel": "0761-73-8040",
    "url": "http://www.tokuhoukai.jp/",
    "pref": "石川県",
    "city": "加賀市",
    "category": "day_service",
    "serviceType": "通所介護",
    "capacity": 0,
    "openDays": [
      "平日",
      "土曜日"
    ],
    "openDaysNote": ""
  },
  {
    "id": "1770600144",
    "name": "山代デイサービスセンター",
    "kana": "ヤマシロデイサービスセンター",
    "address": "石川県加賀市山代温泉11の108番地2山代いこいの家 山代いこいの家",
    "lat": 36.2880578,
    "lng": 136.3541238,
    "tel": "０７６１－７７－３５１５",
    "url": "http://www.kaganozomien.jp./service/ikoi.html",
    "pref": "石川県",
    "city": "加賀市",
    "category": "day_service",
    "serviceType": "通所介護",
    "capacity": 30,
    "openDays": [
      "平日",
      "祝日"
    ],
    "openDaysNote": ""
  },
  {
    "id": "1770600433",
    "name": "実乃里",
    "kana": "ミノリ",
    "address": "加賀市南郷町ト111番3",
    "lat": 36.3022833979056,
    "lng": 136.329567050229,
    "tel": "0761-76-6071",
    "url": "minori@chic.ocn.ne.jp",
    "pref": "石川県",
    "city": "加賀市",
    "category": "day_service",
    "serviceType": "通所介護",
    "capacity": 25,
    "openDays": [
      "平日",
      "土曜日",
      "祝日"
    ],
    "openDaysNote": "年末12月31日～年始1月3日まで休み"
  },
  {
    "id": "1770600250",
    "name": "打越デイサービスセンター",
    "kana": "ウチコシ",
    "address": "加賀市打越町ら110-1",
    "lat": 36.335761,
    "lng": 136.408302,
    "tel": "0761-75-3815",
    "url": "http://www.tokuhoukai.jp/",
    "pref": "石川県",
    "city": "加賀市",
    "category": "day_service",
    "serviceType": "通所介護",
    "capacity": 25,
    "openDays": [
      "平日",
      "土曜日"
    ],
    "openDaysNote": ""
  },
  {
    "id": "1770600060",
    "name": "篤寿苑デイサービスセンター",
    "kana": "トクジュエンデイサービスセンター",
    "address": "石川県加賀市上野町ケ254",
    "lat": 36.2936772,
    "lng": 136.3770294,
    "tel": "761777103",
    "url": "http://www.tokuhoukai.jp/",
    "pref": "石川県",
    "city": "加賀市",
    "category": "day_service",
    "serviceType": "通所介護",
    "capacity": 40,
    "openDays": [
      "平日",
      "土曜日",
      "祝日"
    ],
    "openDaysNote": "1月1日、2日、3日は休み"
  },
  {
    "id": "1770600037",
    "name": "篤豊会デイサービスセンター",
    "kana": "トクホウカイデイサービスセンター",
    "address": "石川県加賀市大聖寺東町一丁目26番地１",
    "lat": 36.3056101,
    "lng": 136.3183627,
    "tel": "０７６１－７３－３３２４",
    "url": "http;//www.tokuhoukai.jp/",
    "pref": "石川県",
    "city": "加賀市",
    "category": "day_service",
    "serviceType": "通所介護",
    "capacity": 0,
    "openDays": [
      "平日",
      "土曜日"
    ],
    "openDaysNote": ""
  },
  {
    "id": "1770600177",
    "name": "片山津温泉日日好日院デイサービスセンター",
    "kana": "カタヤマヅオンセンヒビコウジツインデイサービスセンター",
    "address": "石川県加賀市片山津温泉ア96番地1",
    "lat": 36.3487251,
    "lng": 136.3641062,
    "tel": "0761-74-7239",
    "url": "http://www.tokuhoukai.jp",
    "pref": "石川県",
    "city": "加賀市",
    "category": "day_service",
    "serviceType": "通所介護",
    "capacity": 0,
    "openDays": [
      "平日",
      "土曜日"
    ],
    "openDaysNote": ""
  },
  {
    "id": "1770103396",
    "name": "itosieデイサービス",
    "kana": "イトシエデイサービス",
    "address": "石川県金沢市問屋町1丁目37番地itosieデイサービス itosieデイサービス",
    "lat": 36.6067237,
    "lng": 136.6347998,
    "tel": "076‐225-8537",
    "url": "itosie.jp",
    "pref": "石川県",
    "city": "金沢市",
    "category": "day_service",
    "serviceType": "通所介護",
    "capacity": null,
    "openDays": [
      "平日",
      "土曜日",
      "祝日"
    ],
    "openDaysNote": ""
  },
  {
    "id": "1770105722",
    "name": "うめばちいりえ",
    "kana": "ウメバチイリエ",
    "address": "石川県金沢市入江２丁目３０６番地６",
    "lat": 36.5670683,
    "lng": 136.6268151,
    "tel": "０７６－２９１－６６００",
    "url": "http://raffi-ne.com/",
    "pref": "石川県",
    "city": "金沢市",
    "category": "day_service",
    "serviceType": "通所介護",
    "capacity": 0,
    "openDays": [
      "平日",
      "土曜日",
      "祝日"
    ],
    "openDaysNote": ""
  },
  {
    "id": "1770103529",
    "name": "うめばちすずみ",
    "kana": "ウメバチスズミ",
    "address": "金沢市鈴見台2丁目10番13号",
    "lat": 36.5628641,
    "lng": 136.6837867,
    "tel": "076-222-0031",
    "url": "http://raffi-ne.com",
    "pref": "石川県",
    "city": "金沢市",
    "category": "day_service",
    "serviceType": "通所介護",
    "capacity": 0,
    "openDays": [
      "平日",
      "土曜日",
      "祝日"
    ],
    "openDaysNote": ""
  },
  {
    "id": "1770102448",
    "name": "うめばちたがみ",
    "kana": "ウメバチタガミ",
    "address": "金沢市田上本町3丁目125番地2",
    "lat": 36.5392783,
    "lng": 136.6955085,
    "tel": "０７６－２６２－３２００",
    "url": "http://raffi-ne.com",
    "pref": "石川県",
    "city": "金沢市",
    "category": "day_service",
    "serviceType": "通所介護",
    "capacity": 0,
    "openDays": [
      "平日",
      "土曜日",
      "日曜日",
      "祝日"
    ],
    "openDaysNote": ""
  },
  {
    "id": "1770103024",
    "name": "くらつきデイサービス　スマイルアクア館",
    "kana": "クラツキデイサービス　スマイルアクアカン",
    "address": "南新保町ヌ204",
    "lat": 36.5974535,
    "lng": 136.6289529,
    "tel": "076-238-2215",
    "url": "",
    "pref": "石川県",
    "city": "金沢市",
    "category": "day_service",
    "serviceType": "通所介護",
    "capacity": 0,
    "openDays": [
      "平日",
      "土曜日"
    ],
    "openDaysNote": ""
  },
  {
    "id": "1770103966",
    "name": "ことほぎ高柳デイサービス",
    "kana": "コトホギタカヤナギデイサービス",
    "address": "石川県金沢市高柳町ニ37",
    "lat": 36.5928538118133,
    "lng": 136.662165036107,
    "tel": "076-255-1500",
    "url": "http://asty-k.jp/",
    "pref": "石川県",
    "city": "金沢市",
    "category": "day_service",
    "serviceType": "通所介護",
    "capacity": 62,
    "openDays": [
      "平日",
      "土曜日",
      "祝日"
    ],
    "openDaysNote": "原則として12/31～1/3の期間は休み"
  },
  {
    "id": "1770105540",
    "name": "ことほぎ三ツ屋デイサービス",
    "kana": "コトホギミツヤデイサービス",
    "address": "石川県金沢市三ツ屋町ロ１８番地１",
    "lat": 36.6108412661369,
    "lng": 136.644672113492,
    "tel": "076-237-6623",
    "url": "http://asty-k.jp/",
    "pref": "石川県",
    "city": "金沢市",
    "category": "day_service",
    "serviceType": "通所介護",
    "capacity": 60,
    "openDays": [
      "平日",
      "土曜日",
      "祝日"
    ],
    "openDaysNote": "原則として12/31～1/3の期間は休み"
  },
  {
    "id": "1770104246",
    "name": "サンケア赤土",
    "kana": "サンケアアカツチ",
    "address": "金沢市赤土町カ1-24",
    "lat": 36.5897676,
    "lng": 136.5837101,
    "tel": "076-266-8800",
    "url": "http://www.suncare-life.com",
    "pref": "石川県",
    "city": "金沢市",
    "category": "day_service",
    "serviceType": "通所介護",
    "capacity": 20,
    "openDays": [
      "平日",
      "土曜日",
      "祝日"
    ],
    "openDaysNote": "年末年始は休業（事前に利用者には通知いたします）"
  },
  {
    "id": "1770107512",
    "name": "ちきちき",
    "kana": "チキチキ",
    "address": "石川県金沢市横川５丁目４４１番地",
    "lat": 36.5418056,
    "lng": 136.6289399,
    "tel": "076-205-5443",
    "url": "chiki3.jimdofree.com",
    "pref": "石川県",
    "city": "金沢市",
    "category": "day_service",
    "serviceType": "通所介護",
    "capacity": 0,
    "openDays": [
      "平日",
      "土曜日",
      "祝日"
    ],
    "openDaysNote": ""
  },
  {
    "id": "1770106753",
    "name": "ツクイ金沢",
    "kana": "ツクイカナザワ",
    "address": "八日市5-460",
    "lat": 36.5503303,
    "lng": 136.6104288,
    "tel": "076-240-9696",
    "url": "",
    "pref": "石川県",
    "city": "金沢市",
    "category": "day_service",
    "serviceType": "通所介護",
    "capacity": 0,
    "openDays": [
      "平日",
      "土曜日",
      "日曜日",
      "祝日"
    ],
    "openDaysNote": "365日年中無休"
  },
  {
    "id": "1770106761",
    "name": "ツクイ金沢東営業所",
    "kana": "ツクイカナザワヒガシエイギョウショ",
    "address": "石川県金沢市駅西本町4丁目2番10号",
    "lat": 36.5836969,
    "lng": 136.632728,
    "tel": "076-234-2295",
    "url": "https://www.tsukui.net/home-care/2116/print/",
    "pref": "石川県",
    "city": "金沢市",
    "category": "day_service",
    "serviceType": "通所介護",
    "capacity": null,
    "openDays": [
      "平日",
      "土曜日",
      "日曜日",
      "祝日"
    ],
    "openDaysNote": ""
  },
  {
    "id": "1770105425",
    "name": "デイサービス　あおぞらハウス",
    "kana": "デイサービス　アオゾラハウス",
    "address": "石川県金沢市三馬1丁目381",
    "lat": 36.5256567,
    "lng": 136.6292666,
    "tel": "076-259-1412",
    "url": "",
    "pref": "石川県",
    "city": "金沢市",
    "category": "day_service",
    "serviceType": "通所介護",
    "capacity": 0,
    "openDays": [
      "平日",
      "土曜日",
      "祝日"
    ],
    "openDaysNote": ""
  },
  {
    "id": "1770102430",
    "name": "デイサービス　オールウェイ　金沢中央店",
    "kana": "デイサービス　オールウェイ　カナザワチュウオウテン",
    "address": "増泉4丁目4番25号エクセル増泉1F エクセル増泉1F",
    "lat": 36.5565865,
    "lng": 136.6352734,
    "tel": "076-245-0061",
    "url": "",
    "pref": "石川県",
    "city": "金沢市",
    "category": "day_service",
    "serviceType": "通所介護",
    "capacity": 35,
    "openDays": [
      "平日",
      "土曜日"
    ],
    "openDaysNote": ""
  },
  {
    "id": "1770103248",
    "name": "デイサービス　オールウェイ　東山店",
    "kana": "デイサービス　オールウェイ　ヒガシヤマテン",
    "address": "東山3丁目29番16号",
    "lat": 36.5767929,
    "lng": 136.6634347,
    "tel": "076-252-1210",
    "url": "",
    "pref": "石川県",
    "city": "金沢市",
    "category": "day_service",
    "serviceType": "通所介護",
    "capacity": 25,
    "openDays": [
      "平日",
      "土曜日"
    ],
    "openDaysNote": ""
  },
  {
    "id": "1770105821",
    "name": "デイサービス　きたえるーむ金沢大徳",
    "kana": "デイサービス　キタエルームカナザワダイトク",
    "address": "石川県金沢市寺中町イ93-3",
    "lat": 36.5935628380863,
    "lng": 136.600985809647,
    "tel": "076-256-0378",
    "url": "ｈｔｔｐ://kitaeroom.com/",
    "pref": "石川県",
    "city": "金沢市",
    "category": "day_service",
    "serviceType": "通所介護",
    "capacity": 0,
    "openDays": [
      "平日",
      "土曜日"
    ],
    "openDaysNote": ""
  },
  {
    "id": "1770103727",
    "name": "デイサービス　ゆうけあ相河",
    "kana": "デイサービス　ユウケアアイコ",
    "address": "西泉6丁目136番地",
    "lat": 36.5537339,
    "lng": 136.6283296,
    "tel": "０７６－２５５－７５１３",
    "url": "http://you-care-aiko.jp/",
    "pref": "石川県",
    "city": "金沢市",
    "category": "day_service",
    "serviceType": "通所介護",
    "capacity": 30,
    "openDays": [
      "平日",
      "土曜日",
      "祝日"
    ],
    "openDaysNote": ""
  },
  {
    "id": "1770102745",
    "name": "デイサービス　太陽のひだまり窪",
    "kana": "デイサービス　タイヨウノヒダマリクボ",
    "address": "金沢市窪２丁目１１－２",
    "lat": 36.526496,
    "lng": 136.6447041,
    "tel": "076-244-7900",
    "url": "http://www.sunwels.jp/",
    "pref": "石川県",
    "city": "金沢市",
    "category": "day_service",
    "serviceType": "通所介護",
    "capacity": 22,
    "openDays": [
      "平日",
      "土曜日",
      "祝日"
    ],
    "openDaysNote": ""
  },
  {
    "id": "1770100582",
    "name": "デイサービス　朗　粟崎",
    "kana": "デイサービス　ホガラカ　アワガサキ",
    "address": "石川県金沢市粟崎町2丁目414番地",
    "lat": 36.6268521,
    "lng": 136.6280604,
    "tel": "076-238‐7230",
    "url": "https://hogaraka.care",
    "pref": "石川県",
    "city": "金沢市",
    "category": "day_service",
    "serviceType": "通所介護",
    "capacity": 30,
    "openDays": [
      "平日",
      "土曜日",
      "祝日"
    ],
    "openDaysNote": ""
  },
  {
    "id": "1770104154",
    "name": "デイサービス･ベル金沢",
    "kana": "デイサービス・ベルカナザワ",
    "address": "石川県金沢市新保本3丁目130番地",
    "lat": 36.5571805,
    "lng": 136.6014043,
    "tel": "076-272-8375",
    "url": "https://nextbell.co.jp",
    "pref": "石川県",
    "city": "金沢市",
    "category": "day_service",
    "serviceType": "通所介護",
    "capacity": 30,
    "openDays": [
      "平日",
      "土曜日",
      "祝日"
    ],
    "openDaysNote": ""
  },
  {
    "id": "1770101960",
    "name": "デイサービス２１",
    "kana": "デイサービスニジュウイチ",
    "address": "石川県金沢市山科町午４０番地１",
    "lat": 36.5271156,
    "lng": 136.6525728,
    "tel": "076-241-8196",
    "url": "https://yowakai.jp",
    "pref": "石川県",
    "city": "金沢市",
    "category": "day_service",
    "serviceType": "通所介護",
    "capacity": 28,
    "openDays": [
      "平日",
      "土曜日",
      "祝日"
    ],
    "openDaysNote": ""
  },
  {
    "id": "1770106241",
    "name": "デイサービスGGフィットネス安原店",
    "kana": "デイサービスジージーフィットネス　ヤスハラテン",
    "address": "石川県金沢市打木東1414番地",
    "lat": 36.5664551,
    "lng": 136.5721811,
    "tel": "076-220-7561",
    "url": "",
    "pref": "石川県",
    "city": "金沢市",
    "category": "day_service",
    "serviceType": "通所介護",
    "capacity": 25,
    "openDays": [
      "平日",
      "土曜日"
    ],
    "openDaysNote": ""
  },
  {
    "id": "1770105730",
    "name": "デイサービスＧＧふぃっとねす金沢桂町店",
    "kana": "デイサービスジージーフィットネスカナザワカツラマチテン",
    "address": "石川県金沢市桂町イ43番地１",
    "lat": 36.6035661,
    "lng": 136.6068655,
    "tel": "762903983",
    "url": "https://www.ggfitness.info",
    "pref": "石川県",
    "city": "金沢市",
    "category": "day_service",
    "serviceType": "通所介護",
    "capacity": 30,
    "openDays": [
      "平日",
      "土曜日"
    ],
    "openDaysNote": "短時間の二部制　　9：30～12：30　　14：00～17：00"
  },
  {
    "id": "1770106613",
    "name": "デイサービスKANAZAWAPACE",
    "kana": "カナザワペース",
    "address": "御供田町ホ47番地",
    "lat": 36.6080322,
    "lng": 136.6257551,
    "tel": "076-225-8899",
    "url": "http://www.choooooz.com",
    "pref": "石川県",
    "city": "金沢市",
    "category": "day_service",
    "serviceType": "通所介護",
    "capacity": 24,
    "openDays": [
      "平日",
      "土曜日",
      "祝日"
    ],
    "openDaysNote": "盆休み　8月14～15日（改行）年末、年始12月29日～1月3日"
  },
  {
    "id": "1770106092",
    "name": "デイサービスあおぞら",
    "kana": "デイサービスアオゾラ",
    "address": "石川県金沢市四十万北ヲ２１番地1住宅型有料老人ホームあおぞら 住宅型有料老人ホームあおぞら",
    "lat": 36.5040044849067,
    "lng": 136.624643355295,
    "tel": "076-220-7456",
    "url": "http://aozora-kanazawa.com",
    "pref": "石川県",
    "city": "金沢市",
    "category": "day_service",
    "serviceType": "通所介護",
    "capacity": 0,
    "openDays": [
      "平日",
      "土曜日",
      "祝日"
    ],
    "openDaysNote": ""
  },
  {
    "id": "1770105201",
    "name": "デイサービスオールウェイ梅ちゃんの湯",
    "kana": "デイサービス　オールウェイ　ウメチャンノユ",
    "address": "長土塀２丁目11番17号",
    "lat": 36.5690491,
    "lng": 136.6429362,
    "tel": "076-2256-0130",
    "url": "http://allway.kitemi.net/",
    "pref": "石川県",
    "city": "金沢市",
    "category": "day_service",
    "serviceType": "通所介護",
    "capacity": 20,
    "openDays": [
      "平日",
      "土曜日"
    ],
    "openDaysNote": ""
  },
  {
    "id": "1770107124",
    "name": "デイサービスココファン金沢鞍月",
    "kana": "デイサービスココファンカナザワクラツキ",
    "address": "石川県金沢市鞍月5-219ココファン金沢鞍月 ココファン金沢鞍月",
    "lat": 36.5982186,
    "lng": 136.6263654,
    "tel": "076-254-6000",
    "url": "http://www.cocofump.co.jp",
    "pref": "石川県",
    "city": "金沢市",
    "category": "day_service",
    "serviceType": "通所介護",
    "capacity": null,
    "openDays": [
      "平日",
      "土曜日",
      "祝日"
    ],
    "openDaysNote": "年末年始（12月31日～1月2日）休み"
  },
  {
    "id": "1770105995",
    "name": "デイサービスココファン湯癒館・問屋町",
    "kana": "デイサービスココファンユーユーカントンヤマチ",
    "address": "石川県金沢市問屋町1-38-1デイサービスココファン湯癒館・問屋町 デイサービスココファン湯癒館・問屋町",
    "lat": 36.6067594,
    "lng": 136.6351362,
    "tel": "076-237-1234",
    "url": "http://www.cocofump.co.jp/",
    "pref": "石川県",
    "city": "金沢市",
    "category": "day_service",
    "serviceType": "通所介護",
    "capacity": 0,
    "openDays": [
      "平日",
      "土曜日",
      "祝日"
    ],
    "openDaysNote": ""
  },
  {
    "id": "1770100285",
    "name": "デイサービスさくらセンター",
    "kana": "デイサービスサクラセンター",
    "address": "石川県金沢市湊2丁目171番地",
    "lat": 36.6355738,
    "lng": 136.6520087,
    "tel": "076－237－4370",
    "url": "http://sakura-center.org/",
    "pref": "石川県",
    "city": "金沢市",
    "category": "day_service",
    "serviceType": "通所介護",
    "capacity": 0,
    "openDays": [
      "平日",
      "土曜日",
      "祝日"
    ],
    "openDaysNote": ""
  },
  {
    "id": "1770106944",
    "name": "デイサービスすまいる内川",
    "kana": "デイサービススマイルウチカワ",
    "address": "三小牛町24-3-3",
    "lat": 36.5033560469832,
    "lng": 136.673596050882,
    "tel": "076-201-0007",
    "url": "",
    "pref": "石川県",
    "city": "金沢市",
    "category": "day_service",
    "serviceType": "通所介護",
    "capacity": null,
    "openDays": [
      "平日"
    ],
    "openDaysNote": "8/14から8/16まで、及び12/31から1/3までを除きます。（改行）但し当社指定日に営業、休業する場合はその限りではありません。"
  },
  {
    "id": "1770102661",
    "name": "デイサービスセンター　めぐみ",
    "kana": "デイサービスセンター　メグミ",
    "address": "金沢市高尾台2丁目240番地",
    "lat": 36.5235626,
    "lng": 136.6322718,
    "tel": "076-298-5592",
    "url": "https://megumikaigo.com",
    "pref": "石川県",
    "city": "金沢市",
    "category": "day_service",
    "serviceType": "通所介護",
    "capacity": 0,
    "openDays": [
      "平日",
      "土曜日",
      "祝日"
    ],
    "openDaysNote": ""
  },
  {
    "id": "1770100186",
    "name": "デイサービスセンター　やすらぎ",
    "kana": "デイサービスセンター　ヤスラギ",
    "address": "金沢市上荒屋1-39",
    "lat": 36.5456846,
    "lng": 136.5930501,
    "tel": "076-269-1977",
    "url": "http://www.yasuragi39.com/",
    "pref": "石川県",
    "city": "金沢市",
    "category": "day_service",
    "serviceType": "通所介護",
    "capacity": 0,
    "openDays": [
      "平日",
      "土曜日",
      "祝日"
    ],
    "openDaysNote": ""
  },
  {
    "id": "1770103545",
    "name": "デイサービスセンターかいてき",
    "kana": "デイサービスセンターカイテキ",
    "address": "金沢市間明１丁目１４２ー１",
    "lat": 36.5672071,
    "lng": 136.6183824,
    "tel": "０７６－２９１－１５６５",
    "url": "http://kuturogi-kaigo.com/day/",
    "pref": "石川県",
    "city": "金沢市",
    "category": "day_service",
    "serviceType": "通所介護",
    "capacity": 0,
    "openDays": [
      "平日",
      "土曜日",
      "祝日"
    ],
    "openDaysNote": ""
  },
  {
    "id": "1770100301",
    "name": "デイサービスセンターさつき苑",
    "kana": "デイサービスセンターサツキエン",
    "address": "石川県金沢市小将町8番23号",
    "lat": 36.5632558,
    "lng": 136.6643656,
    "tel": "076-221-0963",
    "url": "http://www.daisanzenrinkan.or.jp/",
    "pref": "石川県",
    "city": "金沢市",
    "category": "day_service",
    "serviceType": "通所介護",
    "capacity": 34,
    "openDays": [
      "平日",
      "土曜日"
    ],
    "openDaysNote": ""
  },
  {
    "id": "1770101986",
    "name": "デイサービスセンターすこやか倶楽部ちかおか",
    "kana": "デイサービスセンタースコヤカクラブチカオカ",
    "address": "金沢市近岡町４２１－１",
    "lat": 36.6112849,
    "lng": 136.6315134,
    "tel": "076-239-0008",
    "url": "http://www.sukoyaka-club.co.jp",
    "pref": "石川県",
    "city": "金沢市",
    "category": "day_service",
    "serviceType": "通所介護",
    "capacity": 0,
    "openDays": [
      "平日",
      "土曜日",
      "祝日"
    ],
    "openDaysNote": ""
  },
  {
    "id": "1770105185",
    "name": "デイサービスセンターすこやか倶楽部なるわ",
    "kana": "デイサービスセンタースコヤカクラブナルワ",
    "address": "石川県金沢市春日町１１－１６",
    "lat": 36.5856839115085,
    "lng": 136.674614068123,
    "tel": "076-252-7788",
    "url": "http://www.sukoyaka-club/co.jp",
    "pref": "石川県",
    "city": "金沢市",
    "category": "day_service",
    "serviceType": "通所介護",
    "capacity": 0,
    "openDays": [
      "平日",
      "土曜日",
      "祝日"
    ],
    "openDaysNote": "サービス提供時間以外における前延長、後延長サービスあり（８時～２０時）（改行）夕食サービスあり(応相談）"
  },
  {
    "id": "1770106068",
    "name": "デイサービスセンターひきだ",
    "kana": "デイサービスセンターヒキダ",
    "address": "石川県金沢市疋田3丁目58番地",
    "lat": 36.6040337,
    "lng": 136.67308,
    "tel": "076-253-2672",
    "url": "http://sengi.jp/fukushisogo-hikida/",
    "pref": "石川県",
    "city": "金沢市",
    "category": "day_service",
    "serviceType": "通所介護",
    "capacity": null,
    "openDays": [
      "平日",
      "土曜日",
      "祝日"
    ],
    "openDaysNote": ""
  },
  {
    "id": "1770106308",
    "name": "デイサービスセンターひまり",
    "kana": "デイサービスセンターヒマリ",
    "address": "額新保2－200",
    "lat": 36.5193844586761,
    "lng": 136.615392392701,
    "tel": "076－296-1822",
    "url": "https://himari-kanazawa.com/",
    "pref": "石川県",
    "city": "金沢市",
    "category": "day_service",
    "serviceType": "通所介護",
    "capacity": 20,
    "openDays": [
      "平日",
      "土曜日",
      "祝日"
    ],
    "openDaysNote": ""
  },
  {
    "id": "1770103990",
    "name": "デイサービスセンターぽ～れぽ～れ四十万",
    "kana": "デイサービスセンター　ポーレポーレシジマ",
    "address": "石川県金沢市四十万５丁目１２２番地",
    "lat": 36.5052839,
    "lng": 136.6159816,
    "tel": "076-296-2121",
    "url": "http://pole-pole.jp/",
    "pref": "石川県",
    "city": "金沢市",
    "category": "day_service",
    "serviceType": "通所介護",
    "capacity": 30,
    "openDays": [
      "平日",
      "土曜日",
      "祝日"
    ],
    "openDaysNote": ""
  },
  {
    "id": "1770104469",
    "name": "デイサービスセンターほのか",
    "kana": "デイサービスセンターホノカ",
    "address": "金沢市南四十万1-222",
    "lat": 36.4974149,
    "lng": 136.6187928,
    "tel": "076-259-1515",
    "url": "https://houjikai.co.jp/",
    "pref": "石川県",
    "city": "金沢市",
    "category": "day_service",
    "serviceType": "通所介護",
    "capacity": 19,
    "openDays": [
      "平日",
      "土曜日",
      "祝日"
    ],
    "openDaysNote": ""
  },
  {
    "id": "1770105714",
    "name": "デイサービスセンターれんげの郷",
    "kana": "デイサービスセンターレンゲノサト",
    "address": "石川県金沢市小立野３丁目２４番１３号",
    "lat": 36.5489137280355,
    "lng": 136.677373380357,
    "tel": "（076）256ー0866",
    "url": "https://houju-fukushi.com/rengenosato/",
    "pref": "石川県",
    "city": "金沢市",
    "category": "day_service",
    "serviceType": "通所介護",
    "capacity": 20,
    "openDays": [
      "平日",
      "土曜日",
      "祝日"
    ],
    "openDaysNote": ""
  },
  {
    "id": "1770105045",
    "name": "デイサービスセンターロマン",
    "kana": "デイサービスセンターロマン",
    "address": "石川県金沢市荒屋１丁目３２番地住宅型有料老人ホームロマン 住宅型有料老人ホームロマン",
    "lat": 36.6148239523977,
    "lng": 136.68352134418,
    "tel": "076-257-7888",
    "url": "http://www.seisen-dayservice.jp/",
    "pref": "石川県",
    "city": "金沢市",
    "category": "day_service",
    "serviceType": "通所介護",
    "capacity": 0,
    "openDays": [
      "平日",
      "土曜日",
      "日曜日",
      "祝日"
    ],
    "openDaysNote": "電話等により営業時間外の常時連絡が可能な体制とする。"
  },
  {
    "id": "1770103115",
    "name": "デイサービスセンター医王山",
    "kana": "デイサービスセンターイオウザン",
    "address": "金沢市田上さくら１丁目３６番地住宅型有料老人ホーム医王山 住宅型有料老人ホーム医王山",
    "lat": 36.5407419,
    "lng": 136.6913665,
    "tel": "076-262-6688",
    "url": "http://www.seisen-dayservice.jp/iouzan/service03.php",
    "pref": "石川県",
    "city": "金沢市",
    "category": "day_service",
    "serviceType": "通所介護",
    "capacity": 50,
    "openDays": [
      "平日",
      "土曜日",
      "日曜日",
      "祝日"
    ],
    "openDaysNote": "自立支援を中心に利用者の意思及び人格を尊重して、常に利用者の立場に立ったサービスの提供に努める。"
  },
  {
    "id": "1770106324",
    "name": "デイサービスセンター玉川苑",
    "kana": "デイサービスセンタータマガワエン",
    "address": "石川県金沢市芳斉２丁目３番２８号",
    "lat": 36.5720001,
    "lng": 136.6499896,
    "tel": "076-260-6686",
    "url": "www.kanazawa-kenkou-plaza.or.jp/",
    "pref": "石川県",
    "city": "金沢市",
    "category": "day_service",
    "serviceType": "通所介護",
    "capacity": 0,
    "openDays": [
      "平日",
      "土曜日",
      "祝日"
    ],
    "openDaysNote": ""
  },
  {
    "id": "1770106431",
    "name": "デイサービスセンター金沢の里",
    "kana": "デイサービスセンターカナザワノサト",
    "address": "石川県金沢市大額3丁目160住宅型有料老人ホーム金沢の里 住宅型有料老人ホーム金沢の里",
    "lat": 36.5140331,
    "lng": 136.6247401,
    "tel": "076-298-6788",
    "url": "http://www.seisen-dayservice.jp/",
    "pref": "石川県",
    "city": "金沢市",
    "category": "day_service",
    "serviceType": "通所介護",
    "capacity": 25,
    "openDays": [
      "平日",
      "土曜日",
      "日曜日",
      "祝日"
    ],
    "openDaysNote": "電話等により営業時間外の常時連絡が可能な体制とする。"
  },
  {
    "id": "1770103065",
    "name": "デイサービスセンター朱鷺の苑円光寺",
    "kana": "デイサービスセンタートキノエンエンコウジ",
    "address": "金沢市円光寺3丁目1番7号",
    "lat": 36.5340868,
    "lng": 136.6469733,
    "tel": "076-242-2041",
    "url": "http://www.tokinoen.com/",
    "pref": "石川県",
    "city": "金沢市",
    "category": "day_service",
    "serviceType": "通所介護",
    "capacity": 35,
    "openDays": [
      "平日",
      "土曜日",
      "日曜日",
      "祝日"
    ],
    "openDaysNote": "年中無休にて対応させて頂いております。"
  },
  {
    "id": "1770104923",
    "name": "デイサービスセンター春日和　松村",
    "kana": "デイサービスセンターハルビヨリ　マツムラ",
    "address": "金沢市松村町ヌ16",
    "lat": 36.5908569,
    "lng": 136.6148736,
    "tel": "076-255-6377",
    "url": "",
    "pref": "石川県",
    "city": "金沢市",
    "category": "day_service",
    "serviceType": "通所介護",
    "capacity": 24,
    "openDays": [
      "平日",
      "土曜日",
      "祝日"
    ],
    "openDaysNote": ""
  },
  {
    "id": "1770104428",
    "name": "デイサービスセンター春日和　神宮寺",
    "kana": "デイサービスセンターハルビヨリ　ジングウジ",
    "address": "石川県金沢市神宮寺3丁目12-3",
    "lat": 36.5863527,
    "lng": 136.6669535,
    "tel": "076-208-3088",
    "url": "",
    "pref": "石川県",
    "city": "金沢市",
    "category": "day_service",
    "serviceType": "通所介護",
    "capacity": 22,
    "openDays": [
      "平日",
      "土曜日",
      "日曜日",
      "祝日"
    ],
    "openDaysNote": ""
  },
  {
    "id": "1770107306",
    "name": "デイサービスセンター有松",
    "kana": "デイサービスセンターアリマツ",
    "address": "石川県金沢市有松２－４－３２",
    "lat": 36.5426024,
    "lng": 136.6394595,
    "tel": "076-245-5602",
    "url": "http://fureai-town.com",
    "pref": "石川県",
    "city": "金沢市",
    "category": "day_service",
    "serviceType": "通所介護",
    "capacity": null,
    "openDays": [
      "平日",
      "土曜日",
      "祝日"
    ],
    "openDaysNote": ""
  },
  {
    "id": "1770102232",
    "name": "デイサービスだんけ",
    "kana": "デイサービスダンケ",
    "address": "金沢市入江２－８３－１",
    "lat": 36.56631,
    "lng": 136.6241431,
    "tel": "076-214-4141",
    "url": "http://dsdanke.jimdo.com/",
    "pref": "石川県",
    "city": "金沢市",
    "category": "day_service",
    "serviceType": "通所介護",
    "capacity": 33,
    "openDays": [
      "平日",
      "土曜日"
    ],
    "openDaysNote": "正月、盆休みあり"
  },
  {
    "id": "1770106035",
    "name": "デイサービスみどりサロン",
    "kana": "デイサービスミドリサロン",
    "address": "石川県金沢市上安原町934北陸綜合防災センタービル1階 北陸綜合防災センタービル1階",
    "lat": 36.5637851,
    "lng": 136.5861279,
    "tel": "076-249-3003",
    "url": "",
    "pref": "石川県",
    "city": "金沢市",
    "category": "day_service",
    "serviceType": "通所介護",
    "capacity": 0,
    "openDays": [
      "平日"
    ],
    "openDaysNote": ""
  },
  {
    "id": "1770106498",
    "name": "デイサービスみらい・太陽丘",
    "kana": "デイサービスミライタイヨウガオカ",
    "address": "石川県金沢市太陽が丘3丁目1-1",
    "lat": 36.5324261,
    "lng": 136.7080269,
    "tel": "076-233-2225",
    "url": "http://chuoufukufhikai.jp/day-m/",
    "pref": "石川県",
    "city": "金沢市",
    "category": "day_service",
    "serviceType": "通所介護",
    "capacity": 0,
    "openDays": [
      "平日",
      "土曜日",
      "祝日"
    ],
    "openDaysNote": ""
  },
  {
    "id": "1770105664",
    "name": "デイサービスゆとりの園西金沢",
    "kana": "デイサービスユトリノソノニシカナザワ",
    "address": "石川県金沢市米泉町7丁目59番地",
    "lat": 36.5520173,
    "lng": 136.6234995,
    "tel": "076-242-3900",
    "url": "http://yutorinosono.com/",
    "pref": "石川県",
    "city": "金沢市",
    "category": "day_service",
    "serviceType": "通所介護",
    "capacity": 22,
    "openDays": [
      "平日",
      "日曜日"
    ],
    "openDaysNote": "土曜日でない限り祝日も営業しています。"
  },
  {
    "id": "1770102760",
    "name": "デイサービス朗高尾台",
    "kana": "デイサービスホガラカタカオダイ",
    "address": "高尾台1丁目449番地",
    "lat": 36.5236212,
    "lng": 136.6394601,
    "tel": "076-298-7014",
    "url": "http://hogaraka.care",
    "pref": "石川県",
    "city": "金沢市",
    "category": "day_service",
    "serviceType": "通所介護",
    "capacity": 0,
    "openDays": [
      "平日",
      "土曜日",
      "祝日"
    ],
    "openDaysNote": ""
  },
  {
    "id": "1770101853",
    "name": "テルウェル介護センタ",
    "kana": "テルウェルカイゴセンタ",
    "address": "金沢市富樫３丁目６番１７号",
    "lat": 36.5376335,
    "lng": 136.6431569,
    "tel": "０７６－２４７－８２００",
    "url": "http://www.telwel-west.co.jp/kaigo/area/hokuriku/index.html",
    "pref": "石川県",
    "city": "金沢市",
    "category": "day_service",
    "serviceType": "通所介護",
    "capacity": 30,
    "openDays": [
      "平日",
      "土曜日",
      "祝日"
    ],
    "openDaysNote": ""
  },
  {
    "id": "1770101044",
    "name": "ニチイケアセンターかないわ",
    "kana": "ニチイケアセンターカナイワ",
    "address": "石川県金沢市金石本町ロ３１－１",
    "lat": 36.5979527,
    "lng": 136.5966306,
    "tel": "076-268-6201",
    "url": "http:Iiwww.nichiigakkan.co.jp",
    "pref": "石川県",
    "city": "金沢市",
    "category": "day_service",
    "serviceType": "通所介護",
    "capacity": 0,
    "openDays": [
      "平日",
      "土曜日",
      "祝日"
    ],
    "openDaysNote": "居宅ｻｰﾋﾞｽ計画により、休業日および営業時間外であってもサービスを提供する場合があります。"
  },
  {
    "id": "1770104618",
    "name": "ニチイケアセンターもろえ",
    "kana": "ニチイケアセンターモロエ",
    "address": "金沢市三口町火37",
    "lat": 36.6082937,
    "lng": 136.6420684,
    "tel": "076-238-8351",
    "url": "http://www.nichiigakkan.co.jp",
    "pref": "石川県",
    "city": "金沢市",
    "category": "day_service",
    "serviceType": "通所介護",
    "capacity": null,
    "openDays": [
      "平日",
      "土曜日",
      "祝日"
    ],
    "openDaysNote": "居宅サービス計画により、休業日であってもサービス提供を行なう場合がある。"
  },
  {
    "id": "1770101234",
    "name": "ニチイケアセンター笠舞",
    "kana": "ニチイケアセンターカサマイ",
    "address": "石川県金沢市笠舞本町１－４－５",
    "lat": 36.5453933,
    "lng": 136.6750713,
    "tel": "076-233-7233",
    "url": "http://www/nichiigakkan/co/jp",
    "pref": "石川県",
    "city": "金沢市",
    "category": "day_service",
    "serviceType": "通所介護",
    "capacity": 0,
    "openDays": [
      "平日",
      "土曜日",
      "祝日"
    ],
    "openDaysNote": "但し、居宅サービス計画により、休業日であっても、サービス提供を行う場合がある。"
  },
  {
    "id": "1770100863",
    "name": "ニチイケアセンター大額",
    "kana": "ニチイケアセンターオオヌカ",
    "address": "金沢市大額3丁目213番地",
    "lat": 36.5122331,
    "lng": 136.622906,
    "tel": "076-296-8166",
    "url": "http://www.nichiigakkan.co.jp",
    "pref": "石川県",
    "city": "金沢市",
    "category": "day_service",
    "serviceType": "通所介護",
    "capacity": 35,
    "openDays": [
      "平日",
      "土曜日",
      "祝日"
    ],
    "openDaysNote": "居宅サービス計画書により休業日及び営業時間外でもサービス提供する場合がある。"
  },
  {
    "id": "1770101051",
    "name": "ニチイケアセンター不動寺",
    "kana": "ニチイケアセンターフドウジ",
    "address": "石川県金沢市堅田町丙４８－１",
    "lat": 36.6092505,
    "lng": 136.7033771,
    "tel": "076-258-7780",
    "url": "http://www.nichiigakkan.co.jp",
    "pref": "石川県",
    "city": "金沢市",
    "category": "day_service",
    "serviceType": "通所介護",
    "capacity": null,
    "openDays": [
      "平日",
      "土曜日",
      "祝日"
    ],
    "openDaysNote": ""
  },
  {
    "id": "1770101655",
    "name": "ﾌﾟﾗﾄｰｹｱｾﾝﾀｰ金沢西",
    "kana": "プラトーケアセンターカナザワニシ",
    "address": "石川県金沢市畝田西2-17",
    "lat": 36.5940924,
    "lng": 136.6077992,
    "tel": "076-267-7738",
    "url": "",
    "pref": "石川県",
    "city": "金沢市",
    "category": "day_service",
    "serviceType": "通所介護",
    "capacity": 70,
    "openDays": [
      "平日",
      "土曜日",
      "祝日"
    ],
    "openDaysNote": "日曜日、祝日、8/14から8/16、12/31から1/3までを除きます。但し当社指定日に営業、休業する場合はその限りではありません。"
  },
  {
    "id": "1770102802",
    "name": "プラトーケアセンターシルバーフィットネス二口店",
    "kana": "プラトーケアセンターシルバーフィットネスフタクチテン",
    "address": "金沢市二口町ハ２８番地１",
    "lat": 36.5774034,
    "lng": 136.6345115,
    "tel": "076-231-2009",
    "url": "http://pds-plateau.com",
    "pref": "石川県",
    "city": "金沢市",
    "category": "day_service",
    "serviceType": "通所介護",
    "capacity": 30,
    "openDays": [
      "平日",
      "土曜日"
    ],
    "openDaysNote": ""
  },
  {
    "id": "1770103685",
    "name": "プラトーケアセンター金沢中央増泉店",
    "kana": "プラトーケアセンターカナザワチュウオウマスイズミテン",
    "address": "金沢市増泉２丁目１５番８号",
    "lat": 36.5591613,
    "lng": 136.6386036,
    "tel": "076-244-0722",
    "url": "http://pds-plateau.com",
    "pref": "石川県",
    "city": "金沢市",
    "category": "day_service",
    "serviceType": "通所介護",
    "capacity": 38,
    "openDays": [
      "平日",
      "土曜日"
    ],
    "openDaysNote": ""
  },
  {
    "id": "1770106993",
    "name": "プラトーケアセンター西念",
    "kana": "プラトーケアセンターサイネン",
    "address": "石川県金沢市西念1-4-11三翠ビル1階 三翠ビル1階",
    "lat": 36.5841787,
    "lng": 136.6425291,
    "tel": "762278516",
    "url": "https://www.slowbeach.jp",
    "pref": "石川県",
    "city": "金沢市",
    "category": "day_service",
    "serviceType": "通所介護",
    "capacity": 0,
    "openDays": [
      "平日",
      "土曜日",
      "祝日"
    ],
    "openDaysNote": "その他、事業所の都合により休業日有り。"
  },
  {
    "id": "1770104022",
    "name": "プラトーケアセンター大桑店",
    "kana": "プラトーケアセンターオオクワテン",
    "address": "金沢市大桑２丁目２７０番地",
    "lat": 36.5350231,
    "lng": 136.6741436,
    "tel": "０７６－２４１－１１７１",
    "url": "http://pds-plateau.com",
    "pref": "石川県",
    "city": "金沢市",
    "category": "day_service",
    "serviceType": "通所介護",
    "capacity": 35,
    "openDays": [
      "平日",
      "土曜日"
    ],
    "openDaysNote": ""
  },
  {
    "id": "1770101010",
    "name": "プラトーケアセンター涌波本店",
    "kana": "プラトーケアセンターワクナミホンテン",
    "address": "金沢市涌波３丁目５番３３号ミナミコーポ１階 ミナミコーポ１階",
    "lat": 36.5362312,
    "lng": 136.6838486,
    "tel": "０７６－２６２－４５５６",
    "url": "http://pds-plateau.com",
    "pref": "石川県",
    "city": "金沢市",
    "category": "day_service",
    "serviceType": "通所介護",
    "capacity": 55,
    "openDays": [
      "平日",
      "土曜日"
    ],
    "openDaysNote": ""
  },
  {
    "id": "1770101325",
    "name": "プラトー幸町アンドトレーニングセンター",
    "kana": "プラトーサイワイチョウ　アンド　トレーニングセンター",
    "address": "金沢市幸町３番１５号吉村ビル１階 吉村ビル１階",
    "lat": 36.5547746761787,
    "lng": 136.659353078574,
    "tel": "076-234-2338",
    "url": "http://pds-plateau.com",
    "pref": "石川県",
    "city": "金沢市",
    "category": "day_service",
    "serviceType": "通所介護",
    "capacity": 65,
    "openDays": [
      "平日",
      "土曜日"
    ],
    "openDaysNote": ""
  },
  {
    "id": "1770107116",
    "name": "ブルーミングケアいろは金澤",
    "kana": "ブル-ミングケアイロハカナザワ",
    "address": "石川県金沢市薬師堂町ハ102番地",
    "lat": 36.5788786,
    "lng": 136.6292238,
    "tel": "076-224-3132",
    "url": "",
    "pref": "石川県",
    "city": "金沢市",
    "category": "day_service",
    "serviceType": "通所介護",
    "capacity": null,
    "openDays": [
      "平日",
      "土曜日",
      "日曜日",
      "祝日"
    ],
    "openDaysNote": ""
  },
  {
    "id": "1770103669",
    "name": "ほっとスパ泉野",
    "kana": "ホットスパイズミノ",
    "address": "金沢市泉野町６－１７－３５泉野リブライフ101号 泉野リブライフ101号",
    "lat": 36.542272,
    "lng": 136.6490062,
    "tel": "０７６－２５５－７１８０",
    "url": "",
    "pref": "石川県",
    "city": "金沢市",
    "category": "day_service",
    "serviceType": "通所介護",
    "capacity": 25,
    "openDays": [
      "平日",
      "土曜日"
    ],
    "openDaysNote": ""
  },
  {
    "id": "1770103131",
    "name": "やすはら苑",
    "kana": "ヤスハラエン",
    "address": "金沢市下安原町東1458番地1",
    "lat": 36.5730751,
    "lng": 136.5757813,
    "tel": "076-240-6611",
    "url": "https://yasuharaen.or.jp/",
    "pref": "石川県",
    "city": "金沢市",
    "category": "day_service",
    "serviceType": "通所介護",
    "capacity": 30,
    "openDays": [
      "平日",
      "土曜日",
      "祝日"
    ],
    "openDaysNote": ""
  },
  {
    "id": "1770102117",
    "name": "リハビリデイサービスまごころ倶楽部",
    "kana": "リハビリデイサービス　マゴコロクラブ",
    "address": "金沢市横川3丁目43番地",
    "lat": 36.5379318236337,
    "lng": 136.627419282209,
    "tel": "076-280-0598",
    "url": "https://magokoro-club.com",
    "pref": "石川県",
    "city": "金沢市",
    "category": "day_service",
    "serviceType": "通所介護",
    "capacity": 0,
    "openDays": [
      "平日",
      "土曜日",
      "祝日"
    ],
    "openDaysNote": ""
  },
  {
    "id": "1770100376",
    "name": "粟崎デイサービスセンター　夕凪苑",
    "kana": "アワガサキデイサービスセンター　ユウナギエン",
    "address": "粟崎町1丁目4番地",
    "lat": 36.6252745,
    "lng": 136.6274521,
    "tel": "076-237-2154",
    "url": "http://www.yuunagien.jp/",
    "pref": "石川県",
    "city": "金沢市",
    "category": "day_service",
    "serviceType": "通所介護",
    "capacity": 25,
    "openDays": [
      "平日",
      "土曜日"
    ],
    "openDaysNote": ""
  },
  {
    "id": "1770103784",
    "name": "駅西デイサービス金沢健康企画",
    "kana": "エキニシデイサービスカナザワケンコウキカク",
    "address": "西念4丁目19-43",
    "lat": 36.5879214,
    "lng": 136.6339167,
    "tel": "076-255-0466",
    "url": "",
    "pref": "石川県",
    "city": "金沢市",
    "category": "day_service",
    "serviceType": "通所介護",
    "capacity": 30,
    "openDays": [
      "平日",
      "土曜日",
      "祝日"
    ],
    "openDaysNote": "祝日、8/14から8/16、12/31から1/4までを除きます。但し当社指定日に営業する場合はその限りではありません。"
  },
  {
    "id": "1770100830",
    "name": "株式会社　アイビス　デイサービスセンター愛美住・横川",
    "kana": "カブシキガイシャ　アイビス　デイサービスセンターアイビス・ヨコガワ",
    "address": "金沢市横川５丁目４４１番地愛・美・住　横川　１階 愛・美・住　横川　１階",
    "lat": 36.541877,
    "lng": 136.6288607,
    "tel": "076-245-2277",
    "url": "",
    "pref": "石川県",
    "city": "金沢市",
    "category": "day_service",
    "serviceType": "通所介護",
    "capacity": 25,
    "openDays": [
      "平日",
      "土曜日",
      "祝日"
    ],
    "openDaysNote": ""
  },
  {
    "id": "1770102307",
    "name": "株式会社ＫＳＨ",
    "kana": "カブシキカイシャケイエスエイチ",
    "address": "四十万町リ２０２",
    "lat": 36.5019011,
    "lng": 136.6232949,
    "tel": "076-287-3281",
    "url": "",
    "pref": "石川県",
    "city": "金沢市",
    "category": "day_service",
    "serviceType": "通所介護",
    "capacity": 9,
    "openDays": [
      "平日",
      "土曜日",
      "祝日"
    ],
    "openDaysNote": "なし"
  },
  {
    "id": "1770106977",
    "name": "株式会社インテグラルウェルネス",
    "kana": "カブシキガイシャインテグラルウェルネス",
    "address": "玉鉾3-210",
    "lat": 36.5713101,
    "lng": 136.6225944,
    "tel": "076-227-8451",
    "url": "https://day-kirari.com/",
    "pref": "石川県",
    "city": "金沢市",
    "category": "day_service",
    "serviceType": "通所介護",
    "capacity": 0,
    "openDays": [
      "平日",
      "祝日"
    ],
    "openDaysNote": "①9：00～12：00（改行）②13：00～16:00"
  },
  {
    "id": "1770101929",
    "name": "株式会社ふれあいタウン　デイサービスセンター有松",
    "kana": "カブシキガイシャフレアイタウン　デイサービスセンターアリマツ",
    "address": "石川県金沢市有松2丁目4-32",
    "lat": 36.5426105,
    "lng": 136.6394459,
    "tel": "076-245-5602",
    "url": "http://fureai-town.com/",
    "pref": "石川県",
    "city": "金沢市",
    "category": "day_service",
    "serviceType": "通所介護",
    "capacity": 0,
    "openDays": [
      "平日",
      "土曜日",
      "祝日"
    ],
    "openDaysNote": ""
  },
  {
    "id": "1770102489",
    "name": "吉原温泉デイサービスセンター魁",
    "kana": "ヨシハラオンセン　デイサービスセンターサキガケ",
    "address": "金沢市弥勒町イ１１－１",
    "lat": 36.6110692,
    "lng": 136.6886979,
    "tel": "076-257-1800",
    "url": "http://me-c.jp/index.html",
    "pref": "石川県",
    "city": "金沢市",
    "category": "day_service",
    "serviceType": "通所介護",
    "capacity": 0,
    "openDays": [
      "平日",
      "土曜日",
      "祝日"
    ],
    "openDaysNote": ""
  },
  {
    "id": "1770104543",
    "name": "金沢フィジオセンター",
    "kana": "カナザワフィジオセンター",
    "address": "金沢市駅西本町2丁目1番20号",
    "lat": 36.5805141,
    "lng": 136.6353141,
    "tel": "076-254-0011",
    "url": "",
    "pref": "石川県",
    "city": "金沢市",
    "category": "day_service",
    "serviceType": "通所介護",
    "capacity": 0,
    "openDays": [
      "平日"
    ],
    "openDaysNote": ""
  },
  {
    "id": "1770104196",
    "name": "金沢りんくケアセンター",
    "kana": "カナザワリンクケアセンター",
    "address": "金沢市額谷１丁目８１番地",
    "lat": 36.5104037159735,
    "lng": 136.628273929639,
    "tel": "076-298-0351",
    "url": "http://www.feelcare.net",
    "pref": "石川県",
    "city": "金沢市",
    "category": "day_service",
    "serviceType": "通所介護",
    "capacity": 0,
    "openDays": [
      "平日",
      "土曜日"
    ],
    "openDaysNote": ""
  },
  {
    "id": "1770102265",
    "name": "金沢りんくケアセンター　泉野",
    "kana": "カナザワリンクケアセンター　イズミノ",
    "address": "泉野4丁目18-14",
    "lat": 36.5441574571864,
    "lng": 136.650358628636,
    "tel": "076-280-2422",
    "url": "http://www.feelcare.net/",
    "pref": "石川県",
    "city": "金沢市",
    "category": "day_service",
    "serviceType": "通所介護",
    "capacity": 0,
    "openDays": [
      "平日",
      "土曜日",
      "祝日"
    ],
    "openDaysNote": ""
  },
  {
    "id": "1770103321",
    "name": "金沢りんくケアセンター額新保",
    "kana": "カナザワリンクケアセンターヌカシンボ",
    "address": "額新保１丁目１８０",
    "lat": 36.5134719,
    "lng": 136.6236254,
    "tel": "076-214-6310",
    "url": "http://www.feelcare.net/",
    "pref": "石川県",
    "city": "金沢市",
    "category": "day_service",
    "serviceType": "通所介護",
    "capacity": 0,
    "openDays": [
      "平日",
      "土曜日"
    ],
    "openDaysNote": ""
  },
  {
    "id": "1770101663",
    "name": "金沢りんくケアセンター南店",
    "kana": "カナザワリンクケアセンターミナミテン",
    "address": "金沢市伏見台１丁目１４－２６",
    "lat": 36.5337588,
    "lng": 136.6392684,
    "tel": "076-201-4750",
    "url": "http://www.feelcare.net/",
    "pref": "石川県",
    "city": "金沢市",
    "category": "day_service",
    "serviceType": "通所介護",
    "capacity": 0,
    "openDays": [
      "平日",
      "土曜日"
    ],
    "openDaysNote": ""
  },
  {
    "id": "1770100699",
    "name": "金沢市デイサービスセンター湖陽苑",
    "kana": "カナザワシデイサービスセンターコヨウエン",
    "address": "八田町東９１２番地",
    "lat": 36.628375,
    "lng": 136.6879557,
    "tel": "076－257－7353",
    "url": "http:/care-net.biz/17/hattahome/",
    "pref": "石川県",
    "city": "金沢市",
    "category": "day_service",
    "serviceType": "通所介護",
    "capacity": 0,
    "openDays": [
      "平日",
      "土曜日",
      "祝日"
    ],
    "openDaysNote": ""
  },
  {
    "id": "1770103412",
    "name": "金沢西コンディショニングセンター",
    "kana": "カナザワニシコンディショニングセンター",
    "address": "金沢市寺中町イ20番地3",
    "lat": 36.5953477,
    "lng": 136.6040023,
    "tel": "076-225-7723",
    "url": "",
    "pref": "石川県",
    "city": "金沢市",
    "category": "day_service",
    "serviceType": "通所介護",
    "capacity": 45,
    "openDays": [
      "平日",
      "土曜日",
      "祝日"
    ],
    "openDaysNote": "日曜日、祝日、8/14から8/16、12/31から1/3までを除きます。但し当社指定日に営業、休業する場合はその限りではありません。"
  },
  {
    "id": "1770106076",
    "name": "金沢西彩庵デイサービス",
    "kana": "カナザワニシサイアンデイサービス",
    "address": "石川県金沢市金石東1丁目4番11号",
    "lat": 36.5996726855763,
    "lng": 136.597298340497,
    "tel": "076-267-7752",
    "url": "",
    "pref": "石川県",
    "city": "金沢市",
    "category": "day_service",
    "serviceType": "通所介護",
    "capacity": 0,
    "openDays": [
      "平日",
      "土曜日",
      "祝日"
    ],
    "openDaysNote": "年末年始　１２月３１日～１月３日はお休み。"
  },
  {
    "id": "1770107058",
    "name": "金沢東コンディショニングセンター",
    "kana": "カナザワヒガシコンディショニングセンター",
    "address": "石川県金沢市木越町チ105-1",
    "lat": 36.621967,
    "lng": 136.662858,
    "tel": "076-238-6001",
    "url": "",
    "pref": "石川県",
    "city": "金沢市",
    "category": "day_service",
    "serviceType": "通所介護",
    "capacity": null,
    "openDays": [
      "平日",
      "土曜日",
      "祝日"
    ],
    "openDaysNote": ""
  },
  {
    "id": "1770104550",
    "name": "金沢南コンディショニングセンター",
    "kana": "カナザワミナミコンディショニングセンター",
    "address": "八日市3丁目567番地",
    "lat": 36.5475761,
    "lng": 136.6043016,
    "tel": "076-269-0022",
    "url": "",
    "pref": "石川県",
    "city": "金沢市",
    "category": "day_service",
    "serviceType": "通所介護",
    "capacity": 0,
    "openDays": [
      "平日",
      "土曜日"
    ],
    "openDaysNote": "当社指定日に営業、休業する場合もございます。"
  },
  {
    "id": "1770107025",
    "name": "金沢北安江ケアセンターそよ風",
    "kana": "カナザワキタヤスエケアセンターソヨカゼ",
    "address": "金沢市北安江1-10-6",
    "lat": 36.5832905,
    "lng": 136.6512628,
    "tel": "076-224-1256",
    "url": "https://www.soyokaze.co.jp/",
    "pref": "石川県",
    "city": "金沢市",
    "category": "day_service",
    "serviceType": "通所介護",
    "capacity": 20,
    "openDays": [
      "平日",
      "土曜日",
      "祝日"
    ],
    "openDaysNote": ""
  },
  {
    "id": "1710119791",
    "name": "公益社団法人石川勤労者医療協会　通所介護ゆらり",
    "kana": "コウエキシャダンホウジン　イシカワキンロウシャイリョウキョウカイ　ツウショカイゴ　ユラリ",
    "address": "石川県金沢市上荒屋1丁目79番地",
    "lat": 36.5463401,
    "lng": 136.5922834,
    "tel": "076－249－6931",
    "url": "http://www.incl.ne.jp/kanariha/",
    "pref": "石川県",
    "city": "金沢市",
    "category": "day_service",
    "serviceType": "通所介護",
    "capacity": null,
    "openDays": [
      "平日",
      "土曜日",
      "日曜日",
      "祝日"
    ],
    "openDaysNote": ""
  },
  {
    "id": "1770103867",
    "name": "社会福祉法人　北伸福祉会　ﾃﾞｲｻｰﾋﾞｽｾﾝﾀｰ朱鷺の苑城北",
    "kana": "シャカイフクシホウジン　ホクシンフクシカイ　　トキノエンジョウホク",
    "address": "金沢市小坂町北168番地",
    "lat": 36.595996,
    "lng": 136.6789604,
    "tel": "076-253-2004",
    "url": "北伸福祉会　検索願います。",
    "pref": "石川県",
    "city": "金沢市",
    "category": "day_service",
    "serviceType": "通所介護",
    "capacity": 30,
    "openDays": [
      "平日",
      "土曜日",
      "日曜日",
      "祝日"
    ],
    "openDaysNote": "金沢マラソン実施日は臨時休業"
  },
  {
    "id": "1770103859",
    "name": "社会福祉法人　北伸福祉会　ﾃﾞｲｻｰﾋﾞｽｾﾝﾀｰ朱鷺の苑彦三",
    "kana": "シャカイフクシホウジン　ホクシンフクシカイ　トキノエンヒコソ",
    "address": "金沢市彦三町1丁目3番1号",
    "lat": 36.5738821,
    "lng": 136.6580351,
    "tel": "221-1400",
    "url": "北伸福祉会　検索願います",
    "pref": "石川県",
    "city": "金沢市",
    "category": "day_service",
    "serviceType": "通所介護",
    "capacity": 45,
    "openDays": [
      "平日",
      "土曜日",
      "日曜日",
      "祝日"
    ],
    "openDaysNote": ""
  },
  {
    "id": "1770103487",
    "name": "社会福祉法人　北伸福祉会　デイサービスセンター朱鷺の苑幸町",
    "kana": "トキノエンサイワイチョウ",
    "address": "金沢市幸町3番35号",
    "lat": 36.5550875007126,
    "lng": 136.658650509787,
    "tel": "076-262-0080",
    "url": "http://www.tokinoen.com",
    "pref": "石川県",
    "city": "金沢市",
    "category": "day_service",
    "serviceType": "通所介護",
    "capacity": 0,
    "openDays": [
      "平日",
      "土曜日",
      "祝日"
    ],
    "openDaysNote": ""
  },
  {
    "id": "1770104279",
    "name": "社会福祉法人　北伸福祉会　デイサービスセンター朱鷺の苑松寺",
    "kana": "シャカイフクシホウジンホクシンフクシカイデイサービスセンタートキノエンマツデラ",
    "address": "石川県金沢市松寺町寅57番2",
    "lat": 36.6078411,
    "lng": 136.6510957,
    "tel": "076-238-8181",
    "url": "matsudera@tokinoen.com",
    "pref": "石川県",
    "city": "金沢市",
    "category": "day_service",
    "serviceType": "通所介護",
    "capacity": 0,
    "openDays": [
      "平日",
      "土曜日",
      "日曜日",
      "祝日"
    ],
    "openDaysNote": ""
  },
  {
    "id": "1770100244",
    "name": "社会福祉法人　北伸福祉会　金沢朱鷺の苑デイサービスセンター",
    "kana": "シャカイフクシホウジン　ホクシンフクシカイ　カナザワトキノエン　デイサービスセンター",
    "address": "金沢市岸川町ほ５番地",
    "lat": 36.6400462,
    "lng": 136.7114505,
    "tel": "076－257－7100",
    "url": "http://www.tokinoen.com/",
    "pref": "石川県",
    "city": "金沢市",
    "category": "day_service",
    "serviceType": "通所介護",
    "capacity": 40,
    "openDays": [
      "平日",
      "土曜日",
      "祝日"
    ],
    "openDaysNote": ""
  },
  {
    "id": "1770100236",
    "name": "社会福祉法人　北伸福祉会　第二金沢朱鷺の苑",
    "kana": "シャカイフクシホウジン　ホクシンフクシカイ　ダイニカナザワトキノエン",
    "address": "石川県金沢市上辰巳町10-211-1",
    "lat": 36.5154265,
    "lng": 136.7026698,
    "tel": "076-229-8181",
    "url": "http://www.tokinoen.com",
    "pref": "石川県",
    "city": "金沢市",
    "category": "day_service",
    "serviceType": "通所介護",
    "capacity": 25,
    "openDays": [
      "平日",
      "土曜日",
      "日曜日",
      "祝日"
    ],
    "openDaysNote": ""
  },
  {
    "id": "1770104451",
    "name": "社会福祉法人　北伸福祉会　中央金沢朱鷺の苑　　デイサービスセンター",
    "kana": "シャカイフクシホウジン　ホクシンフクシカイ　チュウオウカナザワトキノエンデイサービスセンター",
    "address": "石川県金沢市広岡2丁目1番7号",
    "lat": 36.5769342,
    "lng": 136.6437859,
    "tel": "076-234-2125",
    "url": "http://www.tokinoen.com",
    "pref": "石川県",
    "city": "金沢市",
    "category": "day_service",
    "serviceType": "通所介護",
    "capacity": 30,
    "openDays": [
      "平日",
      "土曜日",
      "祝日"
    ],
    "openDaysNote": ""
  },
  {
    "id": "1770106084",
    "name": "社会福祉法人北伸福祉会　デイサービスセンター朱鷺の苑かがやき",
    "kana": "トキノエンカガヤキ",
    "address": "石川県金沢市米泉町10丁目1番地159",
    "lat": 36.5565091844916,
    "lng": 136.623982767806,
    "tel": "076-249-0020",
    "url": "http://www.tokinoen.com/",
    "pref": "石川県",
    "city": "金沢市",
    "category": "day_service",
    "serviceType": "通所介護",
    "capacity": null,
    "openDays": [
      "平日",
      "土曜日",
      "祝日"
    ],
    "openDaysNote": ""
  },
  {
    "id": "1770103032",
    "name": "社会福祉法人北伸福祉会デイサービスセンター朱鷺の苑二塚",
    "kana": "シャカイフクシホウジンホクシンフクシカイデイサービスセンタートキノエンフタツカ",
    "address": "金沢市北塚町西475番地デイサービスセンター朱鷺の苑二塚 デイサービスセンター朱鷺の苑二塚",
    "lat": 36.5695596,
    "lng": 136.5944546,
    "tel": "076-249-2031",
    "url": "http://www.tokinoen.com",
    "pref": "石川県",
    "city": "金沢市",
    "category": "day_service",
    "serviceType": "通所介護",
    "capacity": 40,
    "openDays": [
      "平日",
      "土曜日",
      "日曜日",
      "祝日"
    ],
    "openDaysNote": ""
  },
  {
    "id": "1770106696",
    "name": "春うららデイサービス",
    "kana": "ハルウララデイサービス",
    "address": "石川県金沢市窪７丁目284",
    "lat": 36.5300217,
    "lng": 136.6384448,
    "tel": "076-209-7201",
    "url": "http://hp.kaipoke.biz/3yb",
    "pref": "石川県",
    "city": "金沢市",
    "category": "day_service",
    "serviceType": "通所介護",
    "capacity": 25,
    "openDays": [
      "平日",
      "土曜日",
      "祝日"
    ],
    "openDaysNote": ""
  },
  {
    "id": "1770102323",
    "name": "清泉デイサービスセンター",
    "kana": "セイセンデイサービスセンター",
    "address": "金沢市泉本町１丁目１０７番地１号",
    "lat": 36.5462184,
    "lng": 136.6365266,
    "tel": "０７６－２４５－７７８８",
    "url": "http://www.seisen-dayservice.jp/index.html",
    "pref": "石川県",
    "city": "金沢市",
    "category": "day_service",
    "serviceType": "通所介護",
    "capacity": 0,
    "openDays": [
      "平日",
      "土曜日",
      "日曜日",
      "祝日"
    ],
    "openDaysNote": "電話等により営業時間外の常時連絡が可能な体制とする。"
  },
  {
    "id": "1770100178",
    "name": "第四善隣館デイサービスセンターさくら苑",
    "kana": "ダイヨンゼンリンカンデイサービスセンターサクラエン",
    "address": "金沢市泉野町1丁目1番25号",
    "lat": 36.5474743,
    "lng": 136.6553611,
    "tel": "076-241-1477",
    "url": "https://dai4zenrinkan-sakuraen.com",
    "pref": "石川県",
    "city": "金沢市",
    "category": "day_service",
    "serviceType": "通所介護",
    "capacity": 23,
    "openDays": [
      "平日",
      "土曜日",
      "祝日"
    ],
    "openDaysNote": ""
  },
  {
    "id": "1750180299",
    "name": "通所介護ピカソⅡ",
    "kana": "ツウショカイゴピカソツー",
    "address": "石川県金沢市田上本町カ４５番地１",
    "lat": 36.5294132,
    "lng": 136.701269,
    "tel": "076-262-0880",
    "url": "http://picasso-kaigo.jp",
    "pref": "石川県",
    "city": "金沢市",
    "category": "day_service",
    "serviceType": "通所介護",
    "capacity": 20,
    "openDays": [
      "平日",
      "土曜日"
    ],
    "openDaysNote": ""
  },
  {
    "id": "1770106191",
    "name": "通所介護事業所　想愛戸板",
    "kana": "ツウショカイゴジギョウショ　ソウアイトイタ",
    "address": "石川県金沢市戸板１丁目26番池サンケア戸板 サンケア戸板",
    "lat": 36.5791138,
    "lng": 136.6247512,
    "tel": "076-254-1010",
    "url": "http://www.suncare-life.com",
    "pref": "石川県",
    "city": "金沢市",
    "category": "day_service",
    "serviceType": "通所介護",
    "capacity": 0,
    "openDays": [
      "平日",
      "土曜日",
      "祝日"
    ],
    "openDaysNote": "毎年年末年始は休みを頂いている（改行）期間はその年によって若干変わるが、概ね12/31〜1/2としている"
  },
  {
    "id": "1770105367",
    "name": "東山フィジオセンター",
    "kana": "ヒガシヤマフィジオセンター",
    "address": "東山3丁目31-19",
    "lat": 36.5770151,
    "lng": 136.6648707,
    "tel": "252-1555",
    "url": "",
    "pref": "石川県",
    "city": "金沢市",
    "category": "day_service",
    "serviceType": "通所介護",
    "capacity": 19,
    "openDays": [
      "平日"
    ],
    "openDaysNote": ""
  },
  {
    "id": "1770100772",
    "name": "彦三きらく園デイサービスセンター",
    "kana": "ヒコソキラクエンデイサービスセンター",
    "address": "金沢市彦三町１丁目８番８号",
    "lat": 36.5730989,
    "lng": 136.6613016,
    "tel": "076-223-6611",
    "url": "http://www.kirakuen.net/",
    "pref": "石川県",
    "city": "金沢市",
    "category": "day_service",
    "serviceType": "通所介護",
    "capacity": 25,
    "openDays": [
      "平日",
      "土曜日"
    ],
    "openDaysNote": "年末年始、ＧＷは臨時営業日を設けています。その他の祝日も状況に応じ営業する場合があります。"
  },
  {
    "id": "1770106472",
    "name": "悠悠泉本町デイサービス",
    "kana": "ユウユウイズミホンマチデイサービス",
    "address": "泉本町４丁目２０番地１",
    "lat": 36.5510224,
    "lng": 136.6388648,
    "tel": "076-242-3355",
    "url": "http://www.you2care.jp",
    "pref": "石川県",
    "city": "金沢市",
    "category": "day_service",
    "serviceType": "通所介護",
    "capacity": 0,
    "openDays": [
      "平日",
      "土曜日",
      "祝日"
    ],
    "openDaysNote": ""
  },
  {
    "id": "1770100145",
    "name": "陽風園デイサービスセンター",
    "kana": "ヨウフウエンデイサービスセンター",
    "address": "金沢市三口新町1丁目8番1号",
    "lat": 36.5398058,
    "lng": 136.6833846,
    "tel": "076-263-7698",
    "url": "http://yofuen.com/",
    "pref": "石川県",
    "city": "金沢市",
    "category": "day_service",
    "serviceType": "通所介護",
    "capacity": 32,
    "openDays": [
      "平日",
      "土曜日",
      "祝日"
    ],
    "openDaysNote": ""
  },
  {
    "id": "1770102109",
    "name": "陽風園木越デイサービスセンター",
    "kana": "ヨウフウエン　キゴシデイサービスセンター",
    "address": "石川県金沢市木越町チ６０番地１陽風園木越デイサービスセンター 陽風園木越デイサービスセンター",
    "lat": 36.6218923,
    "lng": 136.6636859,
    "tel": "０７６－２５８－１４１８",
    "url": "http//www.yofuen.com",
    "pref": "石川県",
    "city": "金沢市",
    "category": "day_service",
    "serviceType": "通所介護",
    "capacity": 30,
    "openDays": [
      "平日",
      "土曜日",
      "祝日"
    ],
    "openDaysNote": "ご家族による送迎の場合は、午前８時３０分から午後５時３０分までサービスを提供します。"
  },
  {
    "id": "1771700398",
    "name": "（株）まごころ　デイサービスセンター　ささゆりの丘",
    "kana": "カブシキガイシャ　マゴコロ　デイサービスセンター　ササユリノオカ",
    "address": "石川県鳳珠郡穴水町字此木1の120番地",
    "lat": 37.2431639254297,
    "lng": 136.899939882417,
    "tel": "0768-52-1888",
    "url": "info@magokoro-sasayuri.com",
    "pref": "石川県",
    "city": "穴水町",
    "category": "day_service",
    "serviceType": "通所介護",
    "capacity": 0,
    "openDays": [
      "平日",
      "土曜日",
      "祝日"
    ],
    "openDaysNote": "緊急の場合２４時間電話で対応しています。"
  },
  {
    "id": "1771700380",
    "name": "デイサービスセンター朱鷺の苑穴水",
    "kana": "デイサービスセンタートキノエンアナミズ",
    "address": "鳳珠郡穴水町字志ケ浦１５－１－３",
    "lat": 37.2027396,
    "lng": 136.8980689,
    "tel": "０７６８－５２－４１２２",
    "url": "",
    "pref": "石川県",
    "city": "穴水町",
    "category": "day_service",
    "serviceType": "通所介護",
    "capacity": 0,
    "openDays": [
      "平日",
      "土曜日",
      "祝日"
    ],
    "openDaysNote": ""
  },
  {
    "id": "1771700364",
    "name": "清水の里デイサービスセンター穴水",
    "kana": "キヨミズノサトデイサービスセンターアナミズ",
    "address": "石川県鳳珠郡穴水町字宇加川イ142能登清水の里穴水 能登清水の里穴水",
    "lat": 37.2247802,
    "lng": 137.0658412,
    "tel": "0768-57-1688",
    "url": "http://kiyomizunosato.jp",
    "pref": "石川県",
    "city": "穴水町",
    "category": "day_service",
    "serviceType": "通所介護",
    "capacity": 0,
    "openDays": [
      "平日",
      "土曜日",
      "日曜日",
      "祝日"
    ],
    "openDaysNote": "電話等により営業時間外の常時連絡が可能な体制をとる。"
  },
  {
    "id": "1771700125",
    "name": "聖頌園デイサービスセンター",
    "kana": "セイショウエンデイサービスセンター",
    "address": "鳳珠郡穴水町字岩車6,27の2番地",
    "lat": 37.2112538,
    "lng": 136.9606872,
    "tel": "0768-56-1581",
    "url": "http://bokuyoufukushikai.com/",
    "pref": "石川県",
    "city": "穴水町",
    "category": "day_service",
    "serviceType": "通所介護",
    "capacity": 0,
    "openDays": [
      "平日",
      "土曜日",
      "祝日"
    ],
    "openDaysNote": ""
  },
  {
    "id": "1771500418",
    "name": "デイサービスセンターアイリス",
    "kana": "デイサービスセンターアイリス",
    "address": "石川県羽咋郡志賀町給分ニ27番1",
    "lat": 37.1511500728682,
    "lng": 136.725939349074,
    "tel": "0767-42-2600",
    "url": "http://care-net.biz/17/reishinkai/",
    "pref": "石川県",
    "city": "志賀町",
    "category": "day_service",
    "serviceType": "通所介護",
    "capacity": 20,
    "openDays": [
      "平日",
      "土曜日",
      "祝日"
    ],
    "openDaysNote": "感染症のまん延及び災害、積雪等天候の不良により送迎または適切なサービス提供に大きな支障が生じる場合等は営業を中止することがあります。"
  },
  {
    "id": "1771500095",
    "name": "はまなす園デイサービスセンター",
    "kana": "ハマナスエンデイサービスセンター",
    "address": "石川県羽咋郡志賀町赤住ハの４番地１",
    "lat": 37.0498217,
    "lng": 136.7404754,
    "tel": "0767-32-3890",
    "url": "https://www.hamanasuen.jp",
    "pref": "石川県",
    "city": "志賀町",
    "category": "day_service",
    "serviceType": "通所介護",
    "capacity": 0,
    "openDays": [
      "平日",
      "土曜日",
      "祝日"
    ],
    "openDaysNote": ""
  },
  {
    "id": "1771500046",
    "name": "はまなす園富来デイサービスセンター",
    "kana": "ハマナスエントギデイサービスセンター",
    "address": "石川県羽咋郡志賀町酒見河原51番地",
    "lat": 37.1526109677703,
    "lng": 136.701348580395,
    "tel": "0767-42-8181",
    "url": "http://www.hamanasuen.jp",
    "pref": "石川県",
    "city": "志賀町",
    "category": "day_service",
    "serviceType": "通所介護",
    "capacity": 0,
    "openDays": [
      "平日",
      "土曜日",
      "祝日"
    ],
    "openDaysNote": ""
  },
  {
    "id": "1771500327",
    "name": "志賀町デイサービスセンター",
    "kana": "シカマチデイサービスセンター",
    "address": "石川県羽咋郡志賀町高浜町レの２４番地１",
    "lat": 37.0078514024907,
    "lng": 136.772406742057,
    "tel": "0767-32-6000",
    "url": "http://www.hamanasuen.jp",
    "pref": "石川県",
    "city": "志賀町",
    "category": "day_service",
    "serviceType": "通所介護",
    "capacity": 0,
    "openDays": [
      "平日",
      "土曜日",
      "日曜日",
      "祝日"
    ],
    "openDaysNote": ""
  },
  {
    "id": "1770200010",
    "name": "エレガンテなぎの浦通所介護事業所",
    "kana": "エレガンテナギノウラツウショカイゴジギョウショ",
    "address": "石川県七尾市津向町ト部１０７番地４",
    "lat": 37.056433008702,
    "lng": 136.9551621925,
    "tel": "0767-52-0223",
    "url": "http://www.tokujyu.jp",
    "pref": "石川県",
    "city": "七尾市",
    "category": "day_service",
    "serviceType": "通所介護",
    "capacity": 0,
    "openDays": [
      "平日",
      "土曜日",
      "祝日"
    ],
    "openDaysNote": "なし"
  },
  {
    "id": "1770200382",
    "name": "デイサービスセンター　あっとほーむイースト",
    "kana": "デイサービスセンター　アットホームイースト",
    "address": "石川県七尾市大田町6部66の1番地",
    "lat": 37.054625,
    "lng": 137.0019358,
    "tel": "0767-53-6690",
    "url": "http://www.homewakaba.com",
    "pref": "石川県",
    "city": "七尾市",
    "category": "day_service",
    "serviceType": "通所介護",
    "capacity": 40,
    "openDays": [
      "平日",
      "土曜日"
    ],
    "openDaysNote": ""
  },
  {
    "id": "1770200457",
    "name": "デイサービスセンター　あっとほーむウエスト",
    "kana": "デイサービスセンター　アットホームウエスト",
    "address": "石川県七尾市古屋敷町ヨ部11番地1",
    "lat": 37.024604386824,
    "lng": 136.974129682942,
    "tel": "0767-54-0477",
    "url": "http://www.homewakaba.com",
    "pref": "石川県",
    "city": "七尾市",
    "category": "day_service",
    "serviceType": "通所介護",
    "capacity": 0,
    "openDays": [
      "平日",
      "土曜日"
    ],
    "openDaysNote": "大型連休、年末年始等日程の状況に応じて、祝日営業する日もある。"
  },
  {
    "id": "1770200184",
    "name": "デイサービスセンター　せんじゅ",
    "kana": "デイサービスセンター　センジュ",
    "address": "七尾市千野町に部15番地",
    "lat": 37.0176170913004,
    "lng": 136.953189641803,
    "tel": "0767-57-8803",
    "url": "http://enyama.jp/senjuen/",
    "pref": "石川県",
    "city": "七尾市",
    "category": "day_service",
    "serviceType": "通所介護",
    "capacity": 0,
    "openDays": [
      "平日",
      "土曜日"
    ],
    "openDaysNote": ""
  },
  {
    "id": "1770200507",
    "name": "デイサービスセンターなでしこ",
    "kana": "デイサービスセンターナデシコ",
    "address": "石川県七尾市八幡町は部９番地",
    "lat": 37.0181396425731,
    "lng": 136.953195006221,
    "tel": "0767-57-8804",
    "url": "http://enyama.jp/senjuen/",
    "pref": "石川県",
    "city": "七尾市",
    "category": "day_service",
    "serviceType": "通所介護",
    "capacity": 0,
    "openDays": [
      "平日",
      "土曜日",
      "祝日"
    ],
    "openDaysNote": ""
  },
  {
    "id": "1770200424",
    "name": "デイサービスセンターもみの木苑",
    "kana": "デイサービスセンターモミノキエン",
    "address": "石川県七尾市田鶴浜町リ部27番地",
    "lat": 37.0644689245956,
    "lng": 136.888130339235,
    "tel": "0767-68-6363",
    "url": "http://www.tokujyu.jp/mominokien/index.html",
    "pref": "石川県",
    "city": "七尾市",
    "category": "day_service",
    "serviceType": "通所介護",
    "capacity": 30,
    "openDays": [
      "平日",
      "土曜日",
      "祝日"
    ],
    "openDaysNote": "12月31日～1月3日(年末年始休業期間)"
  },
  {
    "id": "1770200614",
    "name": "デイサービス三島サロン",
    "kana": "デイサービスミシマサロン",
    "address": "石川県七尾市三島町７９番地５号",
    "lat": 37.0486727,
    "lng": 136.9650287,
    "tel": "0767-53-0007",
    "url": "",
    "pref": "石川県",
    "city": "七尾市",
    "category": "day_service",
    "serviceType": "通所介護",
    "capacity": 0,
    "openDays": [
      "平日",
      "土曜日",
      "祝日"
    ],
    "openDaysNote": ""
  },
  {
    "id": "1770200416",
    "name": "のとじまデイサービスセンター",
    "kana": "ノトジマデイサービスセンター",
    "address": "石川県七尾市能登島向田町ろ部８－１",
    "lat": 37.1259325771471,
    "lng": 136.996819119821,
    "tel": "0767-84-0065",
    "url": "https://www.saharagroup.jp/",
    "pref": "石川県",
    "city": "七尾市",
    "category": "day_service",
    "serviceType": "通所介護",
    "capacity": 35,
    "openDays": [
      "平日",
      "土曜日",
      "祝日"
    ],
    "openDaysNote": ""
  },
  {
    "id": "1770200440",
    "name": "ふれあいの里",
    "kana": "フレアイノサト",
    "address": "石川県七尾市松百町2部57番地1",
    "lat": 37.0665716675635,
    "lng": 136.942345582528,
    "tel": "0767－54－8500",
    "url": "http://www.tokujyu.jp",
    "pref": "石川県",
    "city": "七尾市",
    "category": "day_service",
    "serviceType": "通所介護",
    "capacity": 0,
    "openDays": [
      "平日",
      "土曜日",
      "祝日"
    ],
    "openDaysNote": "行事や施設内設備管理等により、お休みさせていただく場合があります。"
  },
  {
    "id": "1770200259",
    "name": "秀楽苑デイサービスセンター",
    "kana": "シュウラクエン　デイサービスセンター",
    "address": "中島町鹿島台は部17番地３",
    "lat": 37.1309103,
    "lng": 136.8894968,
    "tel": "0767-66-1030",
    "url": "http://www.shurakuen.jp/",
    "pref": "石川県",
    "city": "七尾市",
    "category": "day_service",
    "serviceType": "通所介護",
    "capacity": 90,
    "openDays": [
      "平日",
      "祝日"
    ],
    "openDaysNote": ""
  },
  {
    "id": "1770500039",
    "name": "珠洲市みさきデイサービスセンター",
    "kana": "スズシミサキデイサービスセンター",
    "address": "石川県珠洲市三崎町宇治ヲ部７",
    "lat": 37.4682259977774,
    "lng": 137.341030251312,
    "tel": "0768-88-8002",
    "url": "http://www.suzushi-syakyou.or.jp",
    "pref": "石川県",
    "city": "珠洲市",
    "category": "day_service",
    "serviceType": "通所介護",
    "capacity": 0,
    "openDays": [
      "平日",
      "土曜日",
      "日曜日",
      "祝日"
    ],
    "openDaysNote": ""
  },
  {
    "id": "1770500054",
    "name": "珠洲市波の花デイサービスセンター",
    "kana": "スズシナミノハナデイサービスセンター",
    "address": "石川県珠洲市大谷町１字１１番地の４波の花デイサービスセンター 波の花デイサービスセンター",
    "lat": 37.5002737,
    "lng": 137.173758,
    "tel": "0768-87-2288",
    "url": "http://suzushi-syakyo.or.jp",
    "pref": "石川県",
    "city": "珠洲市",
    "category": "day_service",
    "serviceType": "通所介護",
    "capacity": 0,
    "openDays": [
      "平日",
      "土曜日",
      "祝日"
    ],
    "openDaysNote": "震災後より、稼働なし"
  },
  {
    "id": "1770500013",
    "name": "長寿園デイサービスセンター",
    "kana": "チョウジュエンデイサービスセンター",
    "address": "石川県珠洲市宝立町春日野4字117番地長寿園デイサービスセンター 長寿園デイサービスセンター",
    "lat": 37.4113186,
    "lng": 137.2402722,
    "tel": "0768－84－2057",
    "url": "http;//choujukai-isk.jp/",
    "pref": "石川県",
    "city": "珠洲市",
    "category": "day_service",
    "serviceType": "通所介護",
    "capacity": 0,
    "openDays": [
      "平日",
      "土曜日",
      "日曜日",
      "祝日"
    ],
    "openDaysNote": ""
  },
  {
    "id": "1770300844",
    "name": "JAきらら粟津指定通所介護事業所",
    "kana": "ジェイエイキララアワヅシテイツウショカイゴジギョウショ",
    "address": "石川県小松市符津町ウ75番地3",
    "lat": 36.3553674465707,
    "lng": 136.425699596959,
    "tel": "0761-43-0500",
    "url": "http://jakirara.com",
    "pref": "石川県",
    "city": "小松市",
    "category": "day_service",
    "serviceType": "通所介護",
    "capacity": 0,
    "openDays": [
      "平日",
      "土曜日",
      "祝日"
    ],
    "openDaysNote": ""
  },
  {
    "id": "1770300018",
    "name": "JAきらら指定通所介護事業所",
    "kana": "ジェイエイキララシテイツウショカイゴジギョウショ",
    "address": "小松市長谷町５０番地５",
    "lat": 36.3568784,
    "lng": 136.4857751,
    "tel": "0761-46-8200",
    "url": "",
    "pref": "石川県",
    "city": "小松市",
    "category": "day_service",
    "serviceType": "通所介護",
    "capacity": 45,
    "openDays": [
      "平日",
      "土曜日",
      "祝日"
    ],
    "openDaysNote": ""
  },
  {
    "id": "1770300323",
    "name": "ＪＡきらら千代指定通所介護事業所",
    "kana": "ジェイエイキララセンダイシテイツウショカイゴジギョウショ",
    "address": "石川県小松市千代町丁1番地１",
    "lat": 36.4102415,
    "lng": 136.4935593,
    "tel": "0761-23-6500",
    "url": "https://jakirara.com/contents/company.html",
    "pref": "石川県",
    "city": "小松市",
    "category": "day_service",
    "serviceType": "通所介護",
    "capacity": 25,
    "openDays": [
      "平日",
      "土曜日",
      "祝日"
    ],
    "openDaysNote": "定休日は年度により変更となることがあります。"
  },
  {
    "id": "1770300356",
    "name": "さわらびデイサービス",
    "kana": "サワラビデイサービス",
    "address": "石川県小松市北浅井町と67番地",
    "lat": 36.387425,
    "lng": 136.4602259,
    "tel": "0761-22-5556",
    "url": "https://drmitani.com/sawarabiday1/",
    "pref": "石川県",
    "city": "小松市",
    "category": "day_service",
    "serviceType": "通所介護",
    "capacity": 0,
    "openDays": [
      "平日",
      "土曜日",
      "祝日"
    ],
    "openDaysNote": ""
  },
  {
    "id": "1770301008",
    "name": "ツクイ小松大領中",
    "kana": "ツクイコマツダイリョウナカ",
    "address": "小松市大領中町2丁目120番地",
    "lat": 36.3866162594474,
    "lng": 136.443531140475,
    "tel": "0761-24-0050",
    "url": "http://www.tsukui.net/search/2538/detail.html",
    "pref": "石川県",
    "city": "小松市",
    "category": "day_service",
    "serviceType": "通所介護",
    "capacity": null,
    "openDays": [
      "平日",
      "土曜日",
      "日曜日",
      "祝日"
    ],
    "openDaysNote": "営業日は月曜日から日曜日までとします。"
  },
  {
    "id": "1770300828",
    "name": "デイサービス　き楽な里",
    "kana": "デイサービス　キラクナサト",
    "address": "串茶屋町上野８７－１",
    "lat": 36.3752995,
    "lng": 136.4283826,
    "tel": "0761-43-2713",
    "url": "http://www.kirakuna-sato.co.jp",
    "pref": "石川県",
    "city": "小松市",
    "category": "day_service",
    "serviceType": "通所介護",
    "capacity": 20,
    "openDays": [
      "平日",
      "土曜日",
      "祝日"
    ],
    "openDaysNote": "ただし、8月15日及び1月1日～1月3日は休業日"
  },
  {
    "id": "1770300281",
    "name": "デイサービス　サンタの家",
    "kana": "デイサービス　サンタノイエ",
    "address": "額見町ら３番地1",
    "lat": 36.3574877,
    "lng": 136.4078687,
    "tel": "（０７６１）　４４－２２１",
    "url": "http://www.santas-house.co.jp",
    "pref": "石川県",
    "city": "小松市",
    "category": "day_service",
    "serviceType": "通所介護",
    "capacity": 30,
    "openDays": [
      "平日",
      "土曜日",
      "祝日"
    ],
    "openDaysNote": "朝、家族送迎の方に限り８：００から受け入れ可能です。"
  },
  {
    "id": "1770300497",
    "name": "デイサービス　サンタの家やわた",
    "kana": "デイサービス　サンタノイエヤワタ",
    "address": "石川県小松市八幡　癸141-5",
    "lat": 36.3921542,
    "lng": 136.4893102,
    "tel": "0761-47-4616",
    "url": "http://www.santas-house.co.jp",
    "pref": "石川県",
    "city": "小松市",
    "category": "day_service",
    "serviceType": "通所介護",
    "capacity": 25,
    "openDays": [
      "平日",
      "土曜日",
      "祝日"
    ],
    "openDaysNote": "朝、家族送迎に限り8時からの受け入れも可能です。送迎車での送迎についても、ご家族のご要望に可能な限り時間調整して対応しています。（例：帰りは17時以降など）また、ご利用日についても受診などの都合に応じてご利用日の振り替えなども随時対応しています。"
  },
  {
    "id": "1770300406",
    "name": "デイサービス　ほっと今江",
    "kana": "デイサービスホットイマエ",
    "address": "今江町7丁目18番地1",
    "lat": 36.3815603,
    "lng": 136.4357703,
    "tel": "0761-24-2826",
    "url": "https://piripo.co.jp",
    "pref": "石川県",
    "city": "小松市",
    "category": "day_service",
    "serviceType": "通所介護",
    "capacity": 0,
    "openDays": [
      "平日",
      "土曜日",
      "祝日"
    ],
    "openDaysNote": ""
  },
  {
    "id": "1770300547",
    "name": "デイサービスセンター　ここ・から",
    "kana": "デイサービスセンター　ココ・カラ",
    "address": "小松市城北町258番地",
    "lat": 36.4301032,
    "lng": 136.4550834,
    "tel": "0761-48-8111",
    "url": "",
    "pref": "石川県",
    "city": "小松市",
    "category": "day_service",
    "serviceType": "通所介護",
    "capacity": 0,
    "openDays": [
      "平日",
      "土曜日",
      "日曜日",
      "祝日"
    ],
    "openDaysNote": ""
  },
  {
    "id": "1770300521",
    "name": "デイサービスセンター　菜の花",
    "kana": "デイサービスセンター　ナノハナ",
    "address": "石川県小松市蛭川町西１０３番地１",
    "lat": 36.4341718,
    "lng": 136.4552138,
    "tel": "０７６１－２０－２７８８",
    "url": "https://meihou-kai.jp",
    "pref": "石川県",
    "city": "小松市",
    "category": "day_service",
    "serviceType": "通所介護",
    "capacity": 0,
    "openDays": [
      "平日",
      "土曜日",
      "祝日"
    ],
    "openDaysNote": ""
  },
  {
    "id": "1770300141",
    "name": "デイサービスセンターかすかみ",
    "kana": "デイサービスセンターカスカミ",
    "address": "石川県小松市岩渕町４６番地１",
    "lat": 36.3893007,
    "lng": 136.5242979,
    "tel": "0671-47-4745",
    "url": "http://www.tayakai.or.jp/",
    "pref": "石川県",
    "city": "小松市",
    "category": "day_service",
    "serviceType": "通所介護",
    "capacity": 0,
    "openDays": [
      "平日",
      "土曜日",
      "祝日"
    ],
    "openDaysNote": "祝日は営業しています。（改行）火、木、金曜日16：30～18：30までの延長サービスあり。"
  },
  {
    "id": "1770300059",
    "name": "デイサービスセンターファミール",
    "kana": "デイサービスセンターファミール",
    "address": "石川県小松市安宅町ル１番地８",
    "lat": 36.424925,
    "lng": 136.4247363,
    "tel": "0761-24-8702",
    "url": "http://www.asahikai.net/",
    "pref": "石川県",
    "city": "小松市",
    "category": "day_service",
    "serviceType": "通所介護",
    "capacity": 5,
    "openDays": [
      "平日",
      "土曜日",
      "祝日"
    ],
    "openDaysNote": ""
  },
  {
    "id": "1770300422",
    "name": "デイサービスセンターみゆき",
    "kana": "デイサービスセンターミユキ",
    "address": "石川県小松市松崎町赤場１番１",
    "lat": 36.3718409,
    "lng": 136.4142456,
    "tel": "(0761)43-1138",
    "url": "https://tensenkai.jp/miyukinosato/",
    "pref": "石川県",
    "city": "小松市",
    "category": "day_service",
    "serviceType": "通所介護",
    "capacity": 0,
    "openDays": [
      "平日",
      "土曜日",
      "祝日"
    ],
    "openDaysNote": "12/31～1/3は休業"
  },
  {
    "id": "1770300083",
    "name": "デイサービスセンター松寿園",
    "kana": "デイサービスセンターショウジュエン",
    "address": "石川県小松市向本折町ホ31番地",
    "lat": 36.3968306,
    "lng": 136.4397442,
    "tel": "0761-22-0352",
    "url": "htt://care-net.biz/17/syojyuen/",
    "pref": "石川県",
    "city": "小松市",
    "category": "day_service",
    "serviceType": "通所介護",
    "capacity": 0,
    "openDays": [
      "平日",
      "土曜日",
      "祝日"
    ],
    "openDaysNote": ""
  },
  {
    "id": "1770300976",
    "name": "デイサービスそのまちサロン",
    "kana": "デイサービスソノマチサロン",
    "address": "石川県小松市園町ホ126-1北陸綜合警備保障株式会社　小松支社 北陸綜合警備保障株式会社　小松支社",
    "lat": 36.4075849,
    "lng": 136.4582429,
    "tel": "0761-21-9080",
    "url": "",
    "pref": "石川県",
    "city": "小松市",
    "category": "day_service",
    "serviceType": "通所介護",
    "capacity": 0,
    "openDays": [
      "平日",
      "土曜日",
      "祝日"
    ],
    "openDaysNote": ""
  },
  {
    "id": "1770300703",
    "name": "まそらデイサービス",
    "kana": "マソラデイサービス",
    "address": "石川県小松市西町85番地",
    "lat": 36.4050483704273,
    "lng": 136.449857607407,
    "tel": "0761-21-2281",
    "url": "http://drmitani.com/masora-day1/",
    "pref": "石川県",
    "city": "小松市",
    "category": "day_service",
    "serviceType": "通所介護",
    "capacity": 0,
    "openDays": [
      "平日",
      "土曜日",
      "祝日"
    ],
    "openDaysNote": ""
  },
  {
    "id": "1770300034",
    "name": "自生園つどい",
    "kana": "ジショウエンツドイ",
    "address": "石川県小松市上荒屋町ソ4番地10",
    "lat": 36.3281492,
    "lng": 136.4312025,
    "tel": "0761-65-3363",
    "url": "https://jishoen.com/",
    "pref": "石川県",
    "city": "小松市",
    "category": "day_service",
    "serviceType": "通所介護",
    "capacity": 0,
    "openDays": [
      "平日",
      "土曜日",
      "祝日"
    ],
    "openDaysNote": "上記の営業時間外についても、利用者又は家族の必要に応じて午前8時30分から午前9時30分、午後4時30分から午後5時30分において延長サービスが可能な体制をとっています。"
  },
  {
    "id": "1770300042",
    "name": "自生園ひらんて",
    "kana": "ジショウエンヒランテ",
    "address": "石川県小松市平面町ト26番地",
    "lat": 36.4161403,
    "lng": 136.4648471,
    "tel": "0761-23-5222",
    "url": "https://jishoen.com/",
    "pref": "石川県",
    "city": "小松市",
    "category": "day_service",
    "serviceType": "通所介護",
    "capacity": 0,
    "openDays": [
      "平日",
      "土曜日",
      "祝日"
    ],
    "openDaysNote": "上記の営業時間外についても、利用者又は家族の必要に応じて午前8時30分から午前9時30分、午後4時30分から午後5時30分において延長サービスが可能な体制をとっています。"
  },
  {
    "id": "1770301057",
    "name": "社会福祉法人天宣会　デイサービスセンターめぐみの里",
    "kana": "シャカイフクシホウジンテンセンカイ　デイサービスセンターメグミノサト",
    "address": "石川県小松市平面町へ133番地1特別養護老人ホームめぐみの里 特別養護老人ホームめぐみの里",
    "lat": 36.4172913,
    "lng": 136.4699386,
    "tel": "0761-22-8226",
    "url": "https://tensenkai.jp/meguminosato/",
    "pref": "石川県",
    "city": "小松市",
    "category": "day_service",
    "serviceType": "通所介護",
    "capacity": 35,
    "openDays": [
      "平日",
      "土曜日",
      "祝日"
    ],
    "openDaysNote": "12/31～1/3は休業"
  },
  {
    "id": "1770300653",
    "name": "松寿園デイサービスセンターやざき",
    "kana": "ショウジュエンデイサービスセンターヤザキ",
    "address": "小松市矢崎町甲５２番地松寿園デイサービスセンターやざき 松寿園デイサービスセンターやざき",
    "lat": 36.3660364985704,
    "lng": 136.428943824992,
    "tel": "０７６１－４６－６１３２",
    "url": "https://syoujyuen.jp",
    "pref": "石川県",
    "city": "小松市",
    "category": "day_service",
    "serviceType": "通所介護",
    "capacity": 25,
    "openDays": [
      "平日",
      "土曜日",
      "祝日"
    ],
    "openDaysNote": "年末年始の営業日・営業時間は変則"
  },
  {
    "id": "1770300836",
    "name": "長寿365かけはし",
    "kana": "チョウジュ365　カケハシ",
    "address": "石川県小松市梯町ト50",
    "lat": 36.419347,
    "lng": 136.4538089,
    "tel": "0761-21-2122",
    "url": "http://www.tyouju.co.jp/",
    "pref": "石川県",
    "city": "小松市",
    "category": "day_service",
    "serviceType": "通所介護",
    "capacity": 27,
    "openDays": [
      "平日",
      "土曜日",
      "日曜日",
      "祝日"
    ],
    "openDaysNote": ""
  },
  {
    "id": "1770300240",
    "name": "有限会社陽だまり",
    "kana": "ユウゲンガイシャヒダマリ",
    "address": "小松市吉竹町４丁目４０３",
    "lat": 36.3953193,
    "lng": 136.4710502,
    "tel": "0761-23-6508",
    "url": "hidamarigram1305",
    "pref": "石川県",
    "city": "小松市",
    "category": "day_service",
    "serviceType": "通所介護",
    "capacity": 0,
    "openDays": [
      "平日",
      "土曜日",
      "日曜日",
      "祝日"
    ],
    "openDaysNote": ""
  },
  {
    "id": "1771200118",
    "name": "川北町デイサービスセンター",
    "kana": "カワキタマチデイサービスセンター",
    "address": "石川県能美郡川北町字壱ツ屋１９６番地",
    "lat": 36.4673548,
    "lng": 136.5435534,
    "tel": "０７６－２７７－８１１０",
    "url": "",
    "pref": "石川県",
    "city": "川北町",
    "category": "day_service",
    "serviceType": "通所介護",
    "capacity": 0,
    "openDays": [
      "平日",
      "土曜日",
      "祝日"
    ],
    "openDaysNote": ""
  },
  {
    "id": "1771600226",
    "name": "デイサービスセンターひまわり",
    "kana": "デイサービスセンターヒマワリ",
    "address": "石川県鹿島郡中能登町能登部上チ部３０番地",
    "lat": 36.9665242916928,
    "lng": 136.875847170178,
    "tel": "0767-72-3983",
    "url": "https://nakanoto-syakyou.sakura.ne.jp/care/index.html",
    "pref": "石川県",
    "city": "中能登町",
    "category": "day_service",
    "serviceType": "通所介護",
    "capacity": 0,
    "openDays": [
      "平日",
      "土曜日",
      "祝日"
    ],
    "openDaysNote": ""
  },
  {
    "id": "1771600051",
    "name": "デイサービスセンター鹿寿苑",
    "kana": "デイサービスセンターロクジュエン",
    "address": "鹿島郡中能登町西馬場エ部56番地",
    "lat": 36.9702764,
    "lng": 136.8876485,
    "tel": "0767－72－3900",
    "url": "https://www.rokujyuen.com",
    "pref": "石川県",
    "city": "中能登町",
    "category": "day_service",
    "serviceType": "通所介護",
    "capacity": 0,
    "openDays": [
      "平日",
      "土曜日",
      "祝日"
    ],
    "openDaysNote": ""
  },
  {
    "id": "1771600028",
    "name": "ほのぼの通所介護事業所「ほのぼの」",
    "kana": "ホノボノツウショカイゴジギョウショ　ホノボノ",
    "address": "石川県鹿島郡中能登町末坂2部33番地1",
    "lat": 36.9917566663748,
    "lng": 136.902926752393,
    "tel": "0767-74-8065",
    "url": "http:/www.keiju.co.jp",
    "pref": "石川県",
    "city": "中能登町",
    "category": "day_service",
    "serviceType": "通所介護",
    "capacity": 0,
    "openDays": [
      "平日",
      "土曜日",
      "祝日"
    ],
    "openDaysNote": ""
  },
  {
    "id": "1771400734",
    "name": "JA石川かほくほのぼのデイサービス",
    "kana": "ジェイエイイシカワカホクホノボノデイサービス",
    "address": "石川県河北郡津幡町字川尻タ51番地",
    "lat": 36.6731737,
    "lng": 136.7194566,
    "tel": "076-289-2060",
    "url": "",
    "pref": "石川県",
    "city": "津幡町",
    "category": "day_service",
    "serviceType": "通所介護",
    "capacity": 35,
    "openDays": [
      "平日",
      "祝日"
    ],
    "openDaysNote": ""
  },
  {
    "id": "1771400916",
    "name": "すまいる津幡",
    "kana": "スマイルツバタ",
    "address": "石川県河北郡津幡町字潟端そ3-6",
    "lat": 36.6469233685059,
    "lng": 136.71151087791,
    "tel": "762896788",
    "url": "",
    "pref": "石川県",
    "city": "津幡町",
    "category": "day_service",
    "serviceType": "通所介護",
    "capacity": 0,
    "openDays": [
      "平日",
      "祝日"
    ],
    "openDaysNote": "ゴールデンウィーク、お盆、年末年始などについて休業することもある。"
  },
  {
    "id": "1771400668",
    "name": "デイサービスセンター　恵比寿",
    "kana": "デイサービスセンター　エビス",
    "address": "石川県河北郡津幡町字中橋ロ10-1aisumaru　２階 aisumaru　２階",
    "lat": 36.6723928019198,
    "lng": 136.723345131908,
    "tel": "076-255-3251",
    "url": "http://ebisu-day.com",
    "pref": "石川県",
    "city": "津幡町",
    "category": "day_service",
    "serviceType": "通所介護",
    "capacity": 0,
    "openDays": [
      "平日",
      "土曜日",
      "祝日"
    ],
    "openDaysNote": ""
  },
  {
    "id": "1771400148",
    "name": "デイサービスセンターあがたの里",
    "kana": "デイサービスセンターアガタノサト",
    "address": "石川県河北郡津幡町字能瀬イ1番地1あがたの里 あがたの里",
    "lat": 36.6895246,
    "lng": 136.7261805,
    "tel": "076-288-8913",
    "url": "http://www.agata.ecnet.jp",
    "pref": "石川県",
    "city": "津幡町",
    "category": "day_service",
    "serviceType": "通所介護",
    "capacity": 0,
    "openDays": [
      "平日",
      "土曜日",
      "祝日"
    ],
    "openDaysNote": "定休日の問い合わせ等は日直者及び通年で夜間帯は宿直者が対応"
  },
  {
    "id": "1771400312",
    "name": "デイサービスセンターかえで",
    "kana": "デイサービスセンターカエデ",
    "address": "石川県河北郡津幡町字横浜ほ14-2",
    "lat": 36.665927,
    "lng": 136.7296055,
    "tel": "076-289-0618",
    "url": "",
    "pref": "石川県",
    "city": "津幡町",
    "category": "day_service",
    "serviceType": "通所介護",
    "capacity": 0,
    "openDays": [
      "平日",
      "土曜日",
      "祝日"
    ],
    "openDaysNote": ""
  },
  {
    "id": "1771400775",
    "name": "デイサービスセンターふぃらーじゅ",
    "kana": "デイサービスセンターフィラージュ",
    "address": "石川県河北郡津幡町字東荒屋４１３番地",
    "lat": 36.6634122,
    "lng": 136.750967,
    "tel": "076-288-1765",
    "url": "http://www.feuillage.gr.jp/",
    "pref": "石川県",
    "city": "津幡町",
    "category": "day_service",
    "serviceType": "通所介護",
    "capacity": 35,
    "openDays": [
      "平日",
      "祝日"
    ],
    "openDaysNote": "年末年始は休日営業を行うこともあります。"
  },
  {
    "id": "1771400866",
    "name": "デイサービスセンターみずほガーデン",
    "kana": "デイサービスセンターミズホガーデン",
    "address": "石川県河北郡津幡町字潟端344番地1",
    "lat": 36.6566260875685,
    "lng": 136.710669759138,
    "tel": "076-288-6210",
    "url": "https://home.mizuho-mg.com",
    "pref": "石川県",
    "city": "津幡町",
    "category": "day_service",
    "serviceType": "通所介護",
    "capacity": null,
    "openDays": [
      "平日",
      "祝日"
    ],
    "openDaysNote": "年末年始（１２月３０日～１月３日）とお盆（８月１４日～１６日）はお休み"
  },
  {
    "id": "1711410793",
    "name": "デイサービスセンターみどり",
    "kana": "デイサービスセンターミドリ",
    "address": "石川県河北郡内灘町緑台1丁目5番地",
    "lat": 36.6355537,
    "lng": 136.6317404,
    "tel": "076-255-1670",
    "url": "koni2006byoinnavi.jp/",
    "pref": "石川県",
    "city": "内灘町",
    "category": "day_service",
    "serviceType": "通所介護",
    "capacity": 20,
    "openDays": [
      "平日",
      "土曜日"
    ],
    "openDaysNote": "8月にお盆休み、年末年始12月30日～1月3日はお休みします。"
  },
  {
    "id": "1771400429",
    "name": "デイサービスセンター内灘の風",
    "kana": "デイサービスセンターウチナダノカゼ",
    "address": "大根布１丁目31-8",
    "lat": 36.6472027,
    "lng": 136.6454059,
    "tel": "076-286-8800",
    "url": "http://uchinada.jp/",
    "pref": "石川県",
    "city": "内灘町",
    "category": "day_service",
    "serviceType": "通所介護",
    "capacity": 35,
    "openDays": [
      "平日",
      "土曜日"
    ],
    "openDaysNote": "その他休業日（改行）ゴールデンウィーク　３日間　（改行）お盆　２日間　（改行）年末年始　１２月３０日～１月３日"
  },
  {
    "id": "1771400759",
    "name": "デイサービス姿勢調整フィットネス内灘",
    "kana": "デイサービスシセイチョウセイフィットネスウチナダ",
    "address": "石川県河北郡内灘町字緑台一丁目306番1ヴィラサンライズ1F ヴィラサンライズ1F",
    "lat": 36.6367342,
    "lng": 136.6302098,
    "tel": "076-237-7707",
    "url": "",
    "pref": "石川県",
    "city": "内灘町",
    "category": "day_service",
    "serviceType": "通所介護",
    "capacity": 21,
    "openDays": [
      "平日"
    ],
    "openDaysNote": ""
  },
  {
    "id": "1771400445",
    "name": "リハビリステーション金沢きらら",
    "kana": "リハビリステーションカナザワキララ",
    "address": "石川県河北郡内灘町字向粟崎３丁目４１番地",
    "lat": 36.632703,
    "lng": 136.63487,
    "tel": "076-208-4744",
    "url": "https://popura4744.com/kirara/",
    "pref": "石川県",
    "city": "内灘町",
    "category": "day_service",
    "serviceType": "通所介護",
    "capacity": 21,
    "openDays": [
      "平日",
      "祝日"
    ],
    "openDaysNote": "祝日は営業"
  },
  {
    "id": "1771700174",
    "name": "デイサービスセンター　こすもす",
    "kana": "デイサービスセンター　コスモス",
    "address": "石川県鳳珠郡能登町字五郎左エ門分藤17番地",
    "lat": 37.3447932710363,
    "lng": 137.087284943129,
    "tel": "0768-76-2002",
    "url": "www.cosmos-seisyokai.com",
    "pref": "石川県",
    "city": "能登町",
    "category": "day_service",
    "serviceType": "通所介護",
    "capacity": 35,
    "openDays": [
      "平日",
      "土曜日",
      "祝日"
    ],
    "openDaysNote": "原則、12月31日及び1月1日を休業します。（状況に応じて振り替えをすることがあります。）"
  },
  {
    "id": "1771700265",
    "name": "第二長寿園　デイサービスセンター",
    "kana": "ダイニチョウジュエン　デイサービスセンター",
    "address": "鳳珠郡能登町字布浦ノ字１０番地３",
    "lat": 37.3449061,
    "lng": 137.2531794,
    "tel": "0768-72-8887",
    "url": "https://choujukai-isk.jp",
    "pref": "石川県",
    "city": "能登町",
    "category": "day_service",
    "serviceType": "通所介護",
    "capacity": 0,
    "openDays": [
      "平日",
      "土曜日",
      "日曜日",
      "祝日"
    ],
    "openDaysNote": ""
  },
  {
    "id": "1771700117",
    "name": "藤波デイサービスセンター",
    "kana": "フジナミデイサービスセンター",
    "address": "石川県鳳珠郡能登町字藤波井字４２番地２",
    "lat": 37.3532156,
    "lng": 137.2445214,
    "tel": "0768-62-3666",
    "url": "http://care-net.biz/17/houjyusou",
    "pref": "石川県",
    "city": "能登町",
    "category": "day_service",
    "serviceType": "通所介護",
    "capacity": null,
    "openDays": [
      "平日"
    ],
    "openDaysNote": "従業員の研修・その他、必要により臨時的に営業をしない場合があります。（改行）午前７時３０分から午前８時３０分及び午後５時３０分から午後７時３０分の間は、家族送迎での受け入れを行っています。（応相談）"
  },
  {
    "id": "1772300370",
    "name": "アクティブスタジオ",
    "kana": "アクティブスタジオ",
    "address": "石川県能美市大浜町ク６４番地１",
    "lat": 36.4567783851461,
    "lng": 136.456350408459,
    "tel": "0761-58-2688",
    "url": "http://www.anthree.co.jp",
    "pref": "石川県",
    "city": "能美市",
    "category": "day_service",
    "serviceType": "通所介護",
    "capacity": 0,
    "openDays": [
      "平日",
      "祝日"
    ],
    "openDaysNote": ""
  },
  {
    "id": "1772300339",
    "name": "デイサービス　ほたるの里",
    "kana": "デイサービス　ホタルノサト",
    "address": "能美市舘町甲１６４番地",
    "lat": 36.4276159,
    "lng": 136.5613858,
    "tel": "0761-27-0133",
    "url": "",
    "pref": "石川県",
    "city": "能美市",
    "category": "day_service",
    "serviceType": "通所介護",
    "capacity": 19,
    "openDays": [
      "平日",
      "土曜日",
      "日曜日",
      "祝日"
    ],
    "openDaysNote": "年始は1日～3日まで休みあり(利用要相談)"
  },
  {
    "id": "1772300453",
    "name": "デイサービスココファン辰口",
    "kana": "デイサービスココファンタツノクチ",
    "address": "石川県能美市三ツ屋町35番地1",
    "lat": 36.4529696,
    "lng": 136.5471328,
    "tel": "0761-51-2226",
    "url": "http//www.cocofump.co.jp/",
    "pref": "石川県",
    "city": "能美市",
    "category": "day_service",
    "serviceType": "通所介護",
    "capacity": 0,
    "openDays": [
      "平日",
      "土曜日"
    ],
    "openDaysNote": "12月31日～1月2日休み。"
  },
  {
    "id": "1772300289",
    "name": "デイサービスセンター笑楽部",
    "kana": "デイサービスセンターワラベ",
    "address": "能美市三道山町ト１１－１",
    "lat": 36.4475138,
    "lng": 136.5065906,
    "tel": "0761-57-4431",
    "url": "",
    "pref": "石川県",
    "city": "能美市",
    "category": "day_service",
    "serviceType": "通所介護",
    "capacity": 0,
    "openDays": [
      "平日",
      "土曜日",
      "日曜日",
      "祝日"
    ],
    "openDaysNote": ""
  },
  {
    "id": "1772300487",
    "name": "デイサービス零",
    "kana": "デイサービスゼロ",
    "address": "石川県能美市緑が丘11丁目49番地1",
    "lat": 36.4422867088378,
    "lng": 136.533667106607,
    "tel": "0761-51-7786",
    "url": "https://hisui.or.jp",
    "pref": "石川県",
    "city": "能美市",
    "category": "day_service",
    "serviceType": "通所介護",
    "capacity": 80,
    "openDays": [
      "平日",
      "土曜日",
      "祝日"
    ],
    "openDaysNote": ""
  },
  {
    "id": "1772300073",
    "name": "ニチイケアセンター能美",
    "kana": "ニチイケアセンターノミ",
    "address": "石川県能美市寺井町ぬ82番地",
    "lat": 36.4402393,
    "lng": 136.4999273,
    "tel": "0761-57-4473",
    "url": "http://www.nichiigakkan.co.jp",
    "pref": "石川県",
    "city": "能美市",
    "category": "day_service",
    "serviceType": "通所介護",
    "capacity": 55,
    "openDays": [
      "平日",
      "土曜日",
      "祝日"
    ],
    "openDaysNote": "居宅サービス計画により、休業日であってもサービス提供を行う場合がある"
  },
  {
    "id": "1772300495",
    "name": "はあとん",
    "kana": "ハアトン",
    "address": "石川県能美市西二口町丙28番地",
    "lat": 36.4482922986903,
    "lng": 136.468967050892,
    "tel": "0761-55-8810",
    "url": "http://idagroupde.biz/",
    "pref": "石川県",
    "city": "能美市",
    "category": "day_service",
    "serviceType": "通所介護",
    "capacity": 0,
    "openDays": [
      "平日",
      "土曜日",
      "祝日"
    ],
    "openDaysNote": "ゴールデンウイークやお盆などの休業日については、各月で別途ご案内いたします。"
  },
  {
    "id": "1772300438",
    "name": "リハビリ長寿～いきいき道場～",
    "kana": "リハビリチョウジュ　イキイキドウジョウ",
    "address": "石川県能美市大長野町チ125-1",
    "lat": 36.4255707,
    "lng": 136.4814459,
    "tel": "0761-58-5123",
    "url": "http://www.tyouju.co.jp/",
    "pref": "石川県",
    "city": "能美市",
    "category": "day_service",
    "serviceType": "通所介護",
    "capacity": 0,
    "openDays": [
      "平日",
      "祝日"
    ],
    "openDaysNote": ""
  },
  {
    "id": "1772300479",
    "name": "株式会社トリプルエイチ",
    "kana": "カブシキガイシャトリプルエイチ",
    "address": "石川県能美市五間堂町戊46番地6",
    "lat": 36.4437547,
    "lng": 136.4880116,
    "tel": "0761-58-5115",
    "url": "",
    "pref": "石川県",
    "city": "能美市",
    "category": "day_service",
    "serviceType": "通所介護",
    "capacity": null,
    "openDays": [
      "平日",
      "祝日"
    ],
    "openDaysNote": ""
  },
  {
    "id": "1772300040",
    "name": "指定通所介護事業所　ボニュール根上苑",
    "kana": "シテイツウショカイゴジギョウショ　ボニュールネアガリエン",
    "address": "石川県能美市下ノ江町イ201番地1",
    "lat": 36.4385405,
    "lng": 136.4534722,
    "tel": "0761-56-0082",
    "url": "http://kihoukai.jp",
    "pref": "石川県",
    "city": "能美市",
    "category": "day_service",
    "serviceType": "通所介護",
    "capacity": 0,
    "openDays": [
      "平日",
      "土曜日",
      "祝日"
    ],
    "openDaysNote": "祝日は日曜日以外は定休日とはならず。"
  },
  {
    "id": "1772300057",
    "name": "湯寿園デイサービスセンター",
    "kana": "トウジュエンデイサービスセンター",
    "address": "湯谷町乙88番地",
    "lat": 36.4361135,
    "lng": 136.524228,
    "tel": "0761-58-6555",
    "url": "",
    "pref": "石川県",
    "city": "能美市",
    "category": "day_service",
    "serviceType": "通所介護",
    "capacity": 0,
    "openDays": [
      "平日",
      "土曜日",
      "祝日"
    ],
    "openDaysNote": ""
  },
  {
    "id": "1772200885",
    "name": "Ｐｌｕｓ　体操教室",
    "kana": "プラス　タイソウキョウシツ",
    "address": "石川県白山市新田町197番地",
    "lat": 36.5345772,
    "lng": 136.5712324,
    "tel": "076-200-7576",
    "url": "http://plus2016.com",
    "pref": "石川県",
    "city": "白山市",
    "category": "day_service",
    "serviceType": "通所介護",
    "capacity": 25,
    "openDays": [
      "平日",
      "土曜日",
      "祝日"
    ],
    "openDaysNote": ""
  },
  {
    "id": "1772200455",
    "name": "あいのきデイサービス",
    "kana": "アイノキデイサービス",
    "address": "白山市相木町８２０番地",
    "lat": 36.5348075,
    "lng": 136.5654939,
    "tel": "076-276-6460",
    "url": "",
    "pref": "石川県",
    "city": "白山市",
    "category": "day_service",
    "serviceType": "通所介護",
    "capacity": 50,
    "openDays": [
      "平日",
      "土曜日"
    ],
    "openDaysNote": ""
  },
  {
    "id": "1772200638",
    "name": "キラッと美川デイサービスセンター",
    "kana": "キラットミカワデイサービスセンター",
    "address": "石川県白山市美川和波町カ１－３",
    "lat": 36.4914865,
    "lng": 136.4877296,
    "tel": "０７６－２２７－９１０８",
    "url": "http://www.tokuhoukai.jp/",
    "pref": "石川県",
    "city": "白山市",
    "category": "day_service",
    "serviceType": "通所介護",
    "capacity": 25,
    "openDays": [
      "平日",
      "土曜日",
      "祝日"
    ],
    "openDaysNote": ""
  },
  {
    "id": "1762291134",
    "name": "こみけあデイサービスセンター陽羽里",
    "kana": "コミケアデイサービスセンターヒバリ",
    "address": "石川県白山市陽羽里2-44-1ケアセンターこみけあ陽羽里 ケアセンターこみけあ陽羽里",
    "lat": 36.4934772814614,
    "lng": 136.613761175255,
    "tel": "076-214-6110",
    "url": "http://www.komicare.co.jp",
    "pref": "石川県",
    "city": "白山市",
    "category": "day_service",
    "serviceType": "通所介護",
    "capacity": 0,
    "openDays": [
      "平日",
      "土曜日",
      "祝日"
    ],
    "openDaysNote": ""
  },
  {
    "id": "1772200125",
    "name": "つるべ荘デイサービスセンター",
    "kana": "ツルベソウデイサービスセンター",
    "address": "一塚町1351番地１",
    "lat": 36.5614951,
    "lng": 136.5589191,
    "tel": "０７６－２７６－２５３８",
    "url": "http://www.fukushikai-m.com",
    "pref": "石川県",
    "city": "白山市",
    "category": "day_service",
    "serviceType": "通所介護",
    "capacity": null,
    "openDays": [
      "平日",
      "土曜日",
      "祝日"
    ],
    "openDaysNote": ""
  },
  {
    "id": "1772200208",
    "name": "デイサービス　あじさいの郷",
    "kana": "デイサービス　アジサイノサト",
    "address": "白山市明島町春130番地",
    "lat": 36.4610958,
    "lng": 136.6128519,
    "tel": "076-273-5006",
    "url": "https://care-net.biz/17/ajisai2004/",
    "pref": "石川県",
    "city": "白山市",
    "category": "day_service",
    "serviceType": "通所介護",
    "capacity": 0,
    "openDays": [
      "平日",
      "土曜日",
      "祝日"
    ],
    "openDaysNote": ""
  },
  {
    "id": "1772200588",
    "name": "デイサービス　しおん",
    "kana": "デイサービス　シオン",
    "address": "石川県白山市明島町西115番地１",
    "lat": 36.4686471,
    "lng": 136.6033695,
    "tel": "０７６－２７２－７７２０",
    "url": "sion-hakusan.com",
    "pref": "石川県",
    "city": "白山市",
    "category": "day_service",
    "serviceType": "通所介護",
    "capacity": 0,
    "openDays": [
      "平日",
      "土曜日",
      "祝日"
    ],
    "openDaysNote": ""
  },
  {
    "id": "1772201008",
    "name": "デイサービスGGフィットネス白山店",
    "kana": "デイサービスジージーフィットネスハクサンテン",
    "address": "石川県白山市宮保町1361-1",
    "lat": 36.5108583,
    "lng": 136.5359136,
    "tel": "076-256-3531",
    "url": "http:；//www.ggfitness.info",
    "pref": "石川県",
    "city": "白山市",
    "category": "day_service",
    "serviceType": "通所介護",
    "capacity": 0,
    "openDays": [
      "平日",
      "土曜日"
    ],
    "openDaysNote": "その他GW、お盆休みあり"
  },
  {
    "id": "1772200653",
    "name": "デイサービスセンターすまいる",
    "kana": "デイサービスセンタースマイル",
    "address": "白山市平加町ニ66-1",
    "lat": 36.4927213306536,
    "lng": 136.4998235705,
    "tel": "076-259-6020",
    "url": "https://cavie-es.com/",
    "pref": "石川県",
    "city": "白山市",
    "category": "day_service",
    "serviceType": "通所介護",
    "capacity": null,
    "openDays": [
      "平日",
      "土曜日",
      "祝日"
    ],
    "openDaysNote": "年末年始　　12月29日～1月3日は休業"
  },
  {
    "id": "1772200927",
    "name": "デイサービスひより",
    "kana": "デイサービスヒヨリ",
    "address": "石川県白山市知気寺町は36番地1",
    "lat": 36.4792484,
    "lng": 136.6005835,
    "tel": "076-255-7838",
    "url": "ray-cia.com",
    "pref": "石川県",
    "city": "白山市",
    "category": "day_service",
    "serviceType": "通所介護",
    "capacity": null,
    "openDays": [
      "平日",
      "土曜日"
    ],
    "openDaysNote": ""
  },
  {
    "id": "1772200059",
    "name": "ニチイケアセンター松任",
    "kana": "ニチイケアセンター　マットウ",
    "address": "白山市石同新町275-1",
    "lat": 36.5196264,
    "lng": 136.5698466,
    "tel": "076-274-1861",
    "url": "http://www.nichiigakkan.co.jp",
    "pref": "石川県",
    "city": "白山市",
    "category": "day_service",
    "serviceType": "通所介護",
    "capacity": 0,
    "openDays": [
      "平日",
      "土曜日",
      "祝日"
    ],
    "openDaysNote": ""
  },
  {
    "id": "1772200620",
    "name": "ばんじょうでいさーびす",
    "kana": "バンジョウデイサービス",
    "address": "番匠町３５１番地",
    "lat": 36.5301946,
    "lng": 136.5803874,
    "tel": "076-227-9090",
    "url": "https://lifeone-hakusan.com/",
    "pref": "石川県",
    "city": "白山市",
    "category": "day_service",
    "serviceType": "通所介護",
    "capacity": 0,
    "openDays": [
      "平日",
      "土曜日",
      "祝日"
    ],
    "openDaysNote": ""
  },
  {
    "id": "1772201131",
    "name": "ぷらちなくらぶ",
    "kana": "プラチナクラブ",
    "address": "石川県白山市宮丸町1144番地",
    "lat": 36.5053476,
    "lng": 136.5524809,
    "tel": "762562988",
    "url": "https://lifeone-hakusan.com/",
    "pref": "石川県",
    "city": "白山市",
    "category": "day_service",
    "serviceType": "通所介護",
    "capacity": 0,
    "openDays": [
      "平日",
      "土曜日"
    ],
    "openDaysNote": ""
  },
  {
    "id": "1772201081",
    "name": "リハビリ＆フィットネス寿リハ松任",
    "kana": "リハビリアンドフィットネスジュリハマットウ",
    "address": "白山市中町54-3",
    "lat": 36.5229661,
    "lng": 136.5651476,
    "tel": "076-274-0740",
    "url": "http://aimkaigo.fitness-aim.com",
    "pref": "石川県",
    "city": "白山市",
    "category": "day_service",
    "serviceType": "通所介護",
    "capacity": null,
    "openDays": [
      "平日"
    ],
    "openDaysNote": ""
  },
  {
    "id": "1772200539",
    "name": "リハビリデイサービス　太陽のリゾート白山",
    "kana": "リハビリデイサービス　タイヨウノリゾートハクサン",
    "address": "石川県白山市北安田西2丁目6番地",
    "lat": 36.5212697,
    "lng": 136.544732,
    "tel": "076-287-5977",
    "url": "http://www.sunwels.jp",
    "pref": "石川県",
    "city": "白山市",
    "category": "day_service",
    "serviceType": "通所介護",
    "capacity": 35,
    "openDays": [
      "平日",
      "土曜日",
      "日曜日",
      "祝日"
    ],
    "openDaysNote": "365日営業しております。"
  },
  {
    "id": "1772201065",
    "name": "リハ本舗おおまち",
    "kana": "リハホンポオオマチ",
    "address": "石川県白山市四日市町5番地リハ本舗おおまち リハ本舗おおまち",
    "lat": 36.5226583,
    "lng": 136.568245,
    "tel": "076-275-8070",
    "url": "http://oomachi.care-trustgroup.com/",
    "pref": "石川県",
    "city": "白山市",
    "category": "day_service",
    "serviceType": "通所介護",
    "capacity": null,
    "openDays": [
      "平日",
      "土曜日",
      "祝日"
    ],
    "openDaysNote": ""
  },
  {
    "id": "1772200026",
    "name": "笠間デイサービスセンター",
    "kana": "カサマデイサービスセンター",
    "address": "白山市笠間町273番地1",
    "lat": 36.5024601,
    "lng": 136.5218374,
    "tel": "076-274-2262",
    "url": "http://www.fukujyukai.jp/",
    "pref": "石川県",
    "city": "白山市",
    "category": "day_service",
    "serviceType": "通所介護",
    "capacity": 0,
    "openDays": [
      "平日",
      "土曜日",
      "祝日"
    ],
    "openDaysNote": ""
  },
  {
    "id": "1772200349",
    "name": "剣崎デイサービスセンター",
    "kana": "ケンザキデイサービスセンター",
    "address": "石川県白山市剣崎町1484番地",
    "lat": 36.4987597,
    "lng": 136.5642753,
    "tel": "076-275-6915",
    "url": "http://www.fukujyukai.jp/",
    "pref": "石川県",
    "city": "白山市",
    "category": "day_service",
    "serviceType": "通所介護",
    "capacity": 0,
    "openDays": [
      "平日",
      "土曜日",
      "祝日"
    ],
    "openDaysNote": ""
  },
  {
    "id": "1772200034",
    "name": "光野デイサービスセンター",
    "kana": "ヒカリノデイサービスセンター",
    "address": "白山市番匠町443番地",
    "lat": 36.5358967,
    "lng": 136.5803124,
    "tel": "076-274-7811",
    "url": "http://www.fukujyukai.jp",
    "pref": "石川県",
    "city": "白山市",
    "category": "day_service",
    "serviceType": "通所介護",
    "capacity": 0,
    "openDays": [
      "平日",
      "土曜日",
      "祝日"
    ],
    "openDaysNote": ""
  },
  {
    "id": "1772200067",
    "name": "千代野デイサービスセンター",
    "kana": "チヨノデイサービスセンター",
    "address": "白山市千代野東５丁目1-2千代野会館 千代野会館",
    "lat": 36.5231083,
    "lng": 136.5437903,
    "tel": "076-276-3737",
    "url": "http://www.hakusankai.jp/",
    "pref": "石川県",
    "city": "白山市",
    "category": "day_service",
    "serviceType": "通所介護",
    "capacity": 0,
    "openDays": [
      "平日",
      "土曜日",
      "祝日"
    ],
    "openDaysNote": ""
  },
  {
    "id": "1772200224",
    "name": "大門園デイサービスセンター",
    "kana": "ダイモンエンデイサービスセンター",
    "address": "石川県白山市佐良ロ１２３番地",
    "lat": 36.3245518246372,
    "lng": 136.646847117648,
    "tel": "076-255-5221",
    "url": "https://daimonen.com",
    "pref": "石川県",
    "city": "白山市",
    "category": "day_service",
    "serviceType": "通所介護",
    "capacity": 33,
    "openDays": [
      "平日",
      "土曜日",
      "祝日"
    ],
    "openDaysNote": ""
  },
  {
    "id": "1772200505",
    "name": "白山コンディショニングセンター",
    "kana": "ハクサンコンディショニングセンター",
    "address": "白山市北安田町5024番地",
    "lat": 36.5252305,
    "lng": 136.5478994,
    "tel": "076-214-6881",
    "url": "bsc0762146881@gmail.com",
    "pref": "石川県",
    "city": "白山市",
    "category": "day_service",
    "serviceType": "通所介護",
    "capacity": 39,
    "openDays": [
      "平日",
      "土曜日",
      "祝日"
    ],
    "openDaysNote": "当社指定日に営業、休業する場合はその限りではありません。"
  },
  {
    "id": "1772200612",
    "name": "白山ヘルスセンター",
    "kana": "ハクサンヘルスセンター",
    "address": "石川県白山市橋爪町339番",
    "lat": 36.5160493,
    "lng": 136.5864259,
    "tel": "076-274-2122",
    "url": "",
    "pref": "石川県",
    "city": "白山市",
    "category": "day_service",
    "serviceType": "通所介護",
    "capacity": 49,
    "openDays": [
      "平日",
      "土曜日",
      "祝日"
    ],
    "openDaysNote": "日曜日・祝日8/14から8/16、12/31から1/3までを除きます。但し当社指定日に営業、休業する場合はその限りではありません。"
  },
  {
    "id": "1772200257",
    "name": "美杉の郷デイサービスセンター",
    "kana": "ミスギノサトデイサービスセンター",
    "address": "白山市桑島４号８７番地５",
    "lat": 36.1985246,
    "lng": 136.6255982,
    "tel": "076-259-2117",
    "url": "www.misuginosato.jp",
    "pref": "石川県",
    "city": "白山市",
    "category": "day_service",
    "serviceType": "通所介護",
    "capacity": 0,
    "openDays": [
      "平日",
      "祝日"
    ],
    "openDaysNote": "12月31日～1月3日は休業。"
  },
  {
    "id": "1772200018",
    "name": "福寿園デイサービスセンター",
    "kana": "フクジュエンデイサービスセンター",
    "address": "石川県白山市山島台4丁目100番地",
    "lat": 36.4706687,
    "lng": 136.5758196,
    "tel": "076-276-6810",
    "url": "http://www.fukujyukai.jp",
    "pref": "石川県",
    "city": "白山市",
    "category": "day_service",
    "serviceType": "通所介護",
    "capacity": 0,
    "openDays": [
      "平日",
      "土曜日",
      "祝日"
    ],
    "openDaysNote": ""
  },
  {
    "id": "1772200737",
    "name": "湊デイサービスセンター",
    "kana": "ミナトデイサービスセンター",
    "address": "石川県白山市湊町カ377番地1",
    "lat": 36.4686503926953,
    "lng": 136.473481430025,
    "tel": "（076）278-8811",
    "url": "http://www.tokuhoukai.jp/blog-kiratto/",
    "pref": "石川県",
    "city": "白山市",
    "category": "day_service",
    "serviceType": "通所介護",
    "capacity": 30,
    "openDays": [
      "平日",
      "土曜日",
      "祝日"
    ],
    "openDaysNote": ""
  },
  {
    "id": "1771500178",
    "name": "ＪＡたんぽぽデイサービスセンター",
    "kana": "ジェイエイタンポポデイサービスセンター",
    "address": "石川県羽咋郡宝達志水町子浦そ15－1ＪＡたんぽぽデイサービスセンター ＪＡたんぽぽデイサービスセンター",
    "lat": 36.8622204,
    "lng": 136.7981067,
    "tel": "0767－29－8555",
    "url": "ｈｔｔｐ://www.is-ja.jp/hakui/",
    "pref": "石川県",
    "city": "宝達志水町",
    "category": "day_service",
    "serviceType": "通所介護",
    "capacity": 0,
    "openDays": [
      "平日",
      "土曜日",
      "祝日"
    ],
    "openDaysNote": "定休日、時間外は24時間電話転送にて対応可"
  },
  {
    "id": "1771500111",
    "name": "ちどり園老人デイサービスセンター",
    "kana": "チドリエンロウジンデイサービスセンター",
    "address": "石川県羽咋郡宝達志水町宿五号１０番地２",
    "lat": 36.8441142,
    "lng": 136.7756657,
    "tel": "0767-28-5511",
    "url": "www.nagisa-chidori.com",
    "pref": "石川県",
    "city": "宝達志水町",
    "category": "day_service",
    "serviceType": "通所介護",
    "capacity": 30,
    "openDays": [
      "平日",
      "土曜日",
      "祝日"
    ],
    "openDaysNote": ""
  },
  {
    "id": "1771500368",
    "name": "デイサービス　第二宝達苑",
    "kana": "デイサービス　ダイニホウダツエン",
    "address": "石川県羽咋郡宝達志水町小川ハ２５０番地",
    "lat": 36.8213159389609,
    "lng": 136.758690998672,
    "tel": "0767-28-5688",
    "url": "koukenkai.com",
    "pref": "石川県",
    "city": "宝達志水町",
    "category": "day_service",
    "serviceType": "通所介護",
    "capacity": 0,
    "openDays": [
      "平日",
      "土曜日",
      "祝日"
    ],
    "openDaysNote": "営業日　月曜日～土曜日、国民の祝日（但し、年末・年始を除く）"
  },
  {
    "id": "1771500228",
    "name": "押水デイサービスセンター",
    "kana": "オシミズデイサービスセンター",
    "address": "石川県羽咋郡宝達志水町門前サ１１番地町民センターアステラス内 町民センターアステラス内",
    "lat": 36.8163283083279,
    "lng": 136.76459907151,
    "tel": "767288302",
    "url": "http://www.houshi-shakyo.or.jp/",
    "pref": "石川県",
    "city": "宝達志水町",
    "category": "day_service",
    "serviceType": "通所介護",
    "capacity": 20,
    "openDays": [
      "平日",
      "土曜日",
      "祝日"
    ],
    "openDaysNote": "早朝時間外利用8:15～9:15（最長1時間）（改行）延長時間外利用16:20～17:20（最長1時間）（改行）※どちらか1時間"
  },
  {
    "id": "1771500400",
    "name": "機能訓練特化型デイサービス　まほろば",
    "kana": "キノウクンレントッカガタデイサービス　マホロバ",
    "address": "石川県羽咋郡宝達志水町北川尻参138番地1",
    "lat": 36.8023187,
    "lng": 136.7480729,
    "tel": "0767-28-2110",
    "url": "",
    "pref": "石川県",
    "city": "宝達志水町",
    "category": "day_service",
    "serviceType": "通所介護",
    "capacity": 20,
    "openDays": [
      "平日",
      "祝日"
    ],
    "openDaysNote": ""
  },
  {
    "id": "1771300967",
    "name": "GGフィットネス野々市",
    "kana": "ジージーフィットネスノノイチテン",
    "address": "石川県野々市市野代1－59野代Ｙ貸事務所 野代Ｙ貸事務所",
    "lat": 36.5388673,
    "lng": 136.6032987,
    "tel": "076－220－7939",
    "url": "",
    "pref": "石川県",
    "city": "野々市市",
    "category": "day_service",
    "serviceType": "通所介護",
    "capacity": null,
    "openDays": [
      "平日",
      "土曜日"
    ],
    "openDaysNote": "ゴールデンウイーク（改行）お盆休み（改行）年末年始休業"
  },
  {
    "id": "1771300843",
    "name": "うめばちあかね",
    "kana": "ウメバチアカネ",
    "address": "石川県野々市市白山町11番4号",
    "lat": 36.527595,
    "lng": 136.6116563,
    "tel": "076-294-1007",
    "url": "raffi-ne.com",
    "pref": "石川県",
    "city": "野々市市",
    "category": "day_service",
    "serviceType": "通所介護",
    "capacity": null,
    "openDays": [
      "平日",
      "土曜日",
      "祝日"
    ],
    "openDaysNote": ""
  },
  {
    "id": "1771300512",
    "name": "ケアパートナー野々市",
    "kana": "ケアパートナーノノイチ",
    "address": "野々市市二日市4丁目32番地ロイヤルグランデⅢ ロイヤルグランデⅢ",
    "lat": 36.5376564059269,
    "lng": 136.598647716568,
    "tel": "076－294－2012",
    "url": "http：//www.care-partner.com",
    "pref": "石川県",
    "city": "野々市市",
    "category": "day_service",
    "serviceType": "通所介護",
    "capacity": 45,
    "openDays": [
      "平日",
      "土曜日",
      "日曜日",
      "祝日"
    ],
    "openDaysNote": ""
  },
  {
    "id": "1771300488",
    "name": "デイサービス　オールウェイ　野々市本店",
    "kana": "デイサービス　オールウェイ　ノノイチホンテン",
    "address": "横宮町130-1",
    "lat": 36.5344804,
    "lng": 136.6179315,
    "tel": "076-294-1150",
    "url": "",
    "pref": "石川県",
    "city": "野々市市",
    "category": "day_service",
    "serviceType": "通所介護",
    "capacity": 35,
    "openDays": [
      "平日",
      "土曜日"
    ],
    "openDaysNote": ""
  },
  {
    "id": "1771300561",
    "name": "デイサービス　そよ風",
    "kana": "デイサービス　ソヨカゼ",
    "address": "野々市市白山町1-39",
    "lat": 36.5284645,
    "lng": 136.6139902,
    "tel": "076-218-7666",
    "url": "http://www.nakagen.co.jp",
    "pref": "石川県",
    "city": "野々市市",
    "category": "day_service",
    "serviceType": "通所介護",
    "capacity": 25,
    "openDays": [
      "平日",
      "土曜日",
      "祝日"
    ],
    "openDaysNote": ""
  },
  {
    "id": "1771300959",
    "name": "デイサービス　野々花",
    "kana": "デイサービス　野々花",
    "address": "石川県野々市市野代1丁目50",
    "lat": 36.5384833,
    "lng": 136.6041832,
    "tel": "076-259-6192",
    "url": "http://www.aisunsun.co.jp",
    "pref": "石川県",
    "city": "野々市市",
    "category": "day_service",
    "serviceType": "通所介護",
    "capacity": 0,
    "openDays": [
      "平日",
      "祝日"
    ],
    "openDaysNote": ""
  },
  {
    "id": "1771300611",
    "name": "デイサービスセンター　ぽ～れぽ～れ野々市",
    "kana": "デイサービスセンター　ポ～レポ～レノノイチ",
    "address": "野々市市粟田５丁目４８６番地ぽ～れぽ～れ野々市 ぽ～れぽ～れ野々市",
    "lat": 36.5152883,
    "lng": 136.6079574,
    "tel": "076-281-6111",
    "url": "http://pole-pole.jp/",
    "pref": "石川県",
    "city": "野々市市",
    "category": "day_service",
    "serviceType": "通所介護",
    "capacity": 33,
    "openDays": [
      "平日",
      "土曜日",
      "祝日"
    ],
    "openDaysNote": ""
  },
  {
    "id": "1771300744",
    "name": "ディサービスセンター　名峰白山",
    "kana": "デイサービスセンター　メイホウハクサン",
    "address": "粟田3丁目６－１住宅型有料老人ホーム　名峰白山 住宅型有料老人ホーム　名峰白山",
    "lat": 36.5134968,
    "lng": 136.6144123,
    "tel": "076-246-7888",
    "url": "",
    "pref": "石川県",
    "city": "野々市市",
    "category": "day_service",
    "serviceType": "通所介護",
    "capacity": 0,
    "openDays": [
      "平日",
      "土曜日",
      "日曜日",
      "祝日"
    ],
    "openDaysNote": ""
  },
  {
    "id": "1771300736",
    "name": "デイサービスセンターかめはうす",
    "kana": "デイサービスセンターカメハウス",
    "address": "石川県野々市市三日市１丁目６番地有料老人ホームかめはうす内１階 有料老人ホームかめはうす内１階",
    "lat": 36.535858,
    "lng": 136.5966028,
    "tel": "０７６－２５９－５４２８",
    "url": "http://www.kamehouse-01.jp",
    "pref": "石川県",
    "city": "野々市市",
    "category": "day_service",
    "serviceType": "通所介護",
    "capacity": 0,
    "openDays": [
      "平日",
      "土曜日",
      "祝日"
    ],
    "openDaysNote": ""
  },
  {
    "id": "1771300710",
    "name": "デイサービスセンター春日和ののいち",
    "kana": "デイサービスセンターハルビヨリノノイチ",
    "address": "石川県野々市市粟田5丁目391番地1",
    "lat": 36.5149423037309,
    "lng": 136.609491824745,
    "tel": "076-259-1822",
    "url": "http://www.worldstay.jp/",
    "pref": "石川県",
    "city": "野々市市",
    "category": "day_service",
    "serviceType": "通所介護",
    "capacity": 25,
    "openDays": [
      "平日",
      "土曜日",
      "日曜日",
      "祝日"
    ],
    "openDaysNote": ""
  },
  {
    "id": "1771300694",
    "name": "プラトーリハセンター野々市１号店",
    "kana": "プラトーリハセンターノノイチイチゴウテン",
    "address": "野々市市本町１丁目７－３",
    "lat": 36.5378384,
    "lng": 136.619709,
    "tel": "076-259-6951",
    "url": "http://pds-plateau.com",
    "pref": "石川県",
    "city": "野々市市",
    "category": "day_service",
    "serviceType": "通所介護",
    "capacity": 20,
    "openDays": [
      "平日",
      "土曜日"
    ],
    "openDaysNote": ""
  },
  {
    "id": "1771300421",
    "name": "マナの家デイサービス",
    "kana": "マナノイエデイサービス",
    "address": "石川県野々市市本町１丁目２１番２号",
    "lat": 36.5356099003493,
    "lng": 136.619572628827,
    "tel": "076-294-0550",
    "url": "http://mananoie.com/",
    "pref": "石川県",
    "city": "野々市市",
    "category": "day_service",
    "serviceType": "通所介護",
    "capacity": 23,
    "openDays": [
      "平日",
      "土曜日",
      "祝日"
    ],
    "openDaysNote": "定休日は日曜日と元旦"
  },
  {
    "id": "1771300660",
    "name": "リハビリデイサービス太陽のリゾート野々市",
    "kana": "リハビリデイサービス　タイヨウノリゾートノノイチ",
    "address": "石川県野々市市徳用1丁目34番地",
    "lat": 36.532214,
    "lng": 136.5929532,
    "tel": "076-259-5030",
    "url": "http://www.sunwels.jp",
    "pref": "石川県",
    "city": "野々市市",
    "category": "day_service",
    "serviceType": "通所介護",
    "capacity": 0,
    "openDays": [
      "平日",
      "土曜日",
      "祝日"
    ],
    "openDaysNote": ""
  },
  {
    "id": "1771300801",
    "name": "リハビリ型デイサービス　てまりフィットネス",
    "kana": "リハビリガタデイサービス　テマリフィットネス",
    "address": "石川県野々市市高橋町24-3-2",
    "lat": 36.5301927776402,
    "lng": 136.6301948836,
    "tel": "076-220-6619",
    "url": "http://spatel.co.jp",
    "pref": "石川県",
    "city": "野々市市",
    "category": "day_service",
    "serviceType": "通所介護",
    "capacity": 0,
    "openDays": [
      "平日",
      "祝日"
    ],
    "openDaysNote": "8月15日～16日（夏季休暇）、12月29日～1月3日（冬季休暇）"
  },
  {
    "id": "1771300264",
    "name": "金沢南デイサービスセンター",
    "kana": "カナザワミナミデイサービスセンター",
    "address": "野々市市蓮花寺町７９番地１",
    "lat": 36.5293644,
    "lng": 136.5924754,
    "tel": "076-227-5777",
    "url": "http;//www.jintikai.com",
    "pref": "石川県",
    "city": "野々市市",
    "category": "day_service",
    "serviceType": "通所介護",
    "capacity": 0,
    "openDays": [
      "平日",
      "土曜日",
      "祝日"
    ],
    "openDaysNote": ""
  },
  {
    "id": "1771300173",
    "name": "富樫苑デイサービスセンター",
    "kana": "トガシエンデイサービスセンター",
    "address": "石川県野々市市中林4-62",
    "lat": 36.5160576,
    "lng": 136.600508,
    "tel": "076-248-8471",
    "url": "http://www.togashien.jp",
    "pref": "石川県",
    "city": "野々市市",
    "category": "day_service",
    "serviceType": "通所介護",
    "capacity": 0,
    "openDays": [
      "平日",
      "土曜日",
      "祝日"
    ],
    "openDaysNote": ""
  },
  {
    "id": "1770400016",
    "name": "あての木園デイサービスセンター",
    "kana": "アテノキエンデイサービスセンター",
    "address": "輪島市三井町小泉上野２番地",
    "lat": 37.2970977,
    "lng": 136.8964318,
    "tel": "0768-26-1910",
    "url": "",
    "pref": "石川県",
    "city": "輪島市",
    "category": "day_service",
    "serviceType": "通所介護",
    "capacity": 0,
    "openDays": [
      "平日",
      "土曜日",
      "祝日"
    ],
    "openDaysNote": ""
  },
  {
    "id": "1770400115",
    "name": "デイサービスセンターあかかみ",
    "kana": "デイサービスセンターアカカミ",
    "address": "石川県輪島市門前町赤神１０の１番地",
    "lat": 37.2461951,
    "lng": 136.708625466934,
    "tel": "0768-45-1249",
    "url": "http//www.akakami.jp/",
    "pref": "石川県",
    "city": "輪島市",
    "category": "day_service",
    "serviceType": "通所介護",
    "capacity": 0,
    "openDays": [
      "平日",
      "土曜日",
      "祝日"
    ],
    "openDaysNote": ""
  },
  {
    "id": "1770400123",
    "name": "デイサービスセンターゆきわりそう",
    "kana": "デイサービスセンターユキワリソウ",
    "address": "石川県輪島市門前町深田２２－４２番地",
    "lat": 37.2891781,
    "lng": 136.7805975,
    "tel": "0768-42-3333",
    "url": "http://yukiwarisou.org",
    "pref": "石川県",
    "city": "輪島市",
    "category": "day_service",
    "serviceType": "通所介護",
    "capacity": 0,
    "openDays": [
      "平日",
      "祝日"
    ],
    "openDaysNote": ""
  },
  {
    "id": "1770400099",
    "name": "みやびデイサービスセンター",
    "kana": "ミヤビデイサービスセンター",
    "address": "輪島市町野町寺地1027番地",
    "lat": 37.4349397,
    "lng": 137.0870975,
    "tel": "0768-32-0006",
    "url": "https://kotobukifukushikai.com/miyabi/",
    "pref": "石川県",
    "city": "輪島市",
    "category": "day_service",
    "serviceType": "通所介護",
    "capacity": 25,
    "openDays": [
      "平日",
      "土曜日",
      "祝日"
    ],
    "openDaysNote": ""
  }
]