[
  {
    "id": "1870800123",
    "name": "ウエルネス木村",
    "kana": "ウエルネスキムラ",
    "address": "福井県あわら市自由ヶ丘２－１５－２３",
    "lat": 36.2182995,
    "lng": 136.2358828,
    "tel": "0776-73-7788",
    "url": "http://www.s-fukushi.or.jp/wellness/",
    "pref": "福井県",
    "city": "あわら市",
    "category": "day_service",
    "serviceType": "通所介護",
    "capacity": 35,
    "openDays": [
      "平日",
      "土曜日",
      "祝日"
    ],
    "openDaysNote": ""
  },
  {
    "id": "1870800313",
    "name": "デイサービスうたね",
    "kana": "デイサービスウタネ",
    "address": "福井県あわら市北潟276-123",
    "lat": 36.2729625,
    "lng": 136.2251379,
    "tel": "0776-76-7146",
    "url": "http://hp.kaipoke.biz/xlx/",
    "pref": "福井県",
    "city": "あわら市",
    "category": "day_service",
    "serviceType": "通所介護",
    "capacity": 0,
    "openDays": [
      "平日",
      "土曜日",
      "祝日"
    ],
    "openDaysNote": ""
  },
  {
    "id": "1870800271",
    "name": "みんなの家大溝",
    "kana": "ミンナノイエオオミゾ",
    "address": "大溝3丁目4番32号みんなの家大溝 みんなの家大溝",
    "lat": 36.2086671,
    "lng": 136.2218262,
    "tel": "0776-73-8555",
    "url": "",
    "pref": "福井県",
    "city": "あわら市",
    "category": "day_service",
    "serviceType": "通所介護",
    "capacity": 35,
    "openDays": [
      "平日"
    ],
    "openDaysNote": ""
  },
  {
    "id": "1870800255",
    "name": "リハビリスタジオなるざの森",
    "kana": "リハビリスタジオナルザノモリ",
    "address": "二面2－301",
    "lat": 36.2272753,
    "lng": 136.200472,
    "tel": "0776－77－2251",
    "url": "http://www.naruza.jp",
    "pref": "福井県",
    "city": "あわら市",
    "category": "day_service",
    "serviceType": "通所介護",
    "capacity": null,
    "openDays": [
      "平日"
    ],
    "openDaysNote": ""
  },
  {
    "id": "1870800016",
    "name": "芦原メロン苑デイサービスセンター",
    "kana": "アワラメロンエンデイサービスセンター",
    "address": "あわら市井江葭５０－１８",
    "lat": 36.2403604,
    "lng": 136.218481,
    "tel": "0776-78-7880",
    "url": "http://www.meron-en.or.jp/",
    "pref": "福井県",
    "city": "あわら市",
    "category": "day_service",
    "serviceType": "通所介護",
    "capacity": 40,
    "openDays": [
      "平日",
      "土曜日",
      "祝日"
    ],
    "openDaysNote": ""
  },
  {
    "id": "1860890019",
    "name": "坂井地区医師会デイサービスセンター",
    "kana": "サカイチクイシカイデイサービスセンター",
    "address": "福井県あわら市東善寺5-27",
    "lat": 36.2111778,
    "lng": 136.2183236,
    "tel": "0776-73-8710",
    "url": "https://www.sakaichiku-med.com/",
    "pref": "福井県",
    "city": "あわら市",
    "category": "day_service",
    "serviceType": "通所介護",
    "capacity": 25,
    "openDays": [
      "平日",
      "土曜日"
    ],
    "openDaysNote": "受け入れ時間は、9時～16時30分です。（改行）ＧＷ期間中は何日か営業を行っています。（改行）シルバーウイークのような長い連休にも１日営業行っています。"
  },
  {
    "id": "1872300148",
    "name": "おおい町社会福祉協議会あっとほーむいきいき館指定通所介護事業所",
    "kana": "オオイチョウシャカイフクシキョウギカイアットホームイキイキカンシテイツウショカイゴジギョウショ",
    "address": "福井県大飯郡おおい町名田庄下第６号１番地あっとほ～むいきいき館 あっとほ～むいきいき館",
    "lat": 35.4071391460277,
    "lng": 135.644034908598,
    "tel": "0770-67-2318",
    "url": "http://ohi-shakyo.or.jp/",
    "pref": "福井県",
    "city": "おおい町",
    "category": "day_service",
    "serviceType": "通所介護",
    "capacity": 0,
    "openDays": [
      "平日",
      "祝日"
    ],
    "openDaysNote": ""
  },
  {
    "id": "1872300189",
    "name": "デイサービス　はな",
    "kana": "デイサービス　ハナ",
    "address": "福井県大飯郡おおい町名田庄三重34-10-1",
    "lat": 35.4104492,
    "lng": 135.6827589,
    "tel": "0770-67-3339",
    "url": "",
    "pref": "福井県",
    "city": "おおい町",
    "category": "day_service",
    "serviceType": "通所介護",
    "capacity": 24,
    "openDays": [
      "平日",
      "土曜日",
      "祝日"
    ],
    "openDaysNote": ""
  },
  {
    "id": "1871600290",
    "name": "デイサービス・リハビリサポートセンター　木漏れ日ハウス",
    "kana": "デイサービス・リハビリサポートセンター　コモレビハウス",
    "address": "福井県吉田郡永平寺町山王7-28",
    "lat": 36.0795601,
    "lng": 136.3978018,
    "tel": "0776-64-3355",
    "url": "http://www.hikarigroup.jp/komorebi/",
    "pref": "福井県",
    "city": "永平寺町",
    "category": "day_service",
    "serviceType": "通所介護",
    "capacity": 30,
    "openDays": [
      "平日",
      "土曜日",
      "祝日"
    ],
    "openDaysNote": "年始1/1～1/2は休業日"
  },
  {
    "id": "1871600183",
    "name": "永平寺デイサービスセンター",
    "kana": "エイヘイジデイサービスセンター",
    "address": "福井県吉田郡永平寺町飯島6号34番地",
    "lat": 36.0898437,
    "lng": 136.3566212,
    "tel": "0776-63-3010",
    "url": "http://www.eiheijishakyo.jp",
    "pref": "福井県",
    "city": "永平寺町",
    "category": "day_service",
    "serviceType": "通所介護",
    "capacity": 0,
    "openDays": [
      "平日"
    ],
    "openDaysNote": "12月31日から1月3日まではお休みをいただいております。"
  },
  {
    "id": "1871600050",
    "name": "永平寺ハウスデイサービスセンター",
    "kana": "エイヘイジハウスデイサービスセンター",
    "address": "吉田郡永平寺町けやき台８１３－１",
    "lat": 36.0768645,
    "lng": 136.3174986,
    "tel": "0776-63-4373",
    "url": "https://www.fukusenkai.jp/eiheiji",
    "pref": "福井県",
    "city": "永平寺町",
    "category": "day_service",
    "serviceType": "通所介護",
    "capacity": 0,
    "openDays": [
      "平日",
      "土曜日",
      "祝日"
    ],
    "openDaysNote": ""
  },
  {
    "id": "1871600191",
    "name": "松岡デイサービスセンター",
    "kana": "マツオカデイサービスセンター",
    "address": "福井県吉田郡永平寺町松岡吉野堺15-47",
    "lat": 36.0873068,
    "lng": 136.297068,
    "tel": "0776-61-4575",
    "url": "http://www.eiheijishakyo.jp/",
    "pref": "福井県",
    "city": "永平寺町",
    "category": "day_service",
    "serviceType": "通所介護",
    "capacity": 0,
    "openDays": [
      "平日"
    ],
    "openDaysNote": "12月31日から翌年1月3日までの年末年始は休館となります。"
  },
  {
    "id": "1871600209",
    "name": "上志比デイサービスセンター",
    "kana": "カミシヒデイサービスセンター",
    "address": "福井県吉田郡永平寺町石上27-27",
    "lat": 36.0721722,
    "lng": 136.4008159,
    "tel": "0776-64-3294",
    "url": "http://www.eiheijishakyo.jp",
    "pref": "福井県",
    "city": "永平寺町",
    "category": "day_service",
    "serviceType": "通所介護",
    "capacity": 35,
    "openDays": [
      "平日"
    ],
    "openDaysNote": ""
  },
  {
    "id": "1870301023",
    "name": "いきいきデイサービス",
    "kana": "イキイキデイサービス",
    "address": "福井県越前市高瀬2丁目4-22",
    "lat": 35.89926,
    "lng": 136.160889,
    "tel": "0778-22-2500",
    "url": "https://ikiiki.website",
    "pref": "福井県",
    "city": "越前市",
    "category": "day_service",
    "serviceType": "通所介護",
    "capacity": null,
    "openDays": [
      "平日",
      "土曜日",
      "祝日"
    ],
    "openDaysNote": ""
  },
  {
    "id": "1870300231",
    "name": "いちばん介護ディサービスセンター",
    "kana": "イチバンカイゴディサービスセンター",
    "address": "越前市瓜生町３１－１",
    "lat": 35.9189194,
    "lng": 136.1828644,
    "tel": "0778-22-0055",
    "url": "http://ichibankaigo.jp/",
    "pref": "福井県",
    "city": "越前市",
    "category": "day_service",
    "serviceType": "通所介護",
    "capacity": 0,
    "openDays": [
      "平日",
      "土曜日",
      "祝日"
    ],
    "openDaysNote": ""
  },
  {
    "id": "1870300611",
    "name": "えっほ　わかたけ",
    "kana": "エッホ　ワカタケ",
    "address": "福井県越前市堀川町9番15号フォーユーエクセルわかたけ フォーユーエクセルわかたけ",
    "lat": 35.8984992,
    "lng": 136.1711605,
    "tel": "0778-29-3500",
    "url": "",
    "pref": "福井県",
    "city": "越前市",
    "category": "day_service",
    "serviceType": "通所介護",
    "capacity": 0,
    "openDays": [
      "平日",
      "祝日"
    ],
    "openDaysNote": ""
  },
  {
    "id": "1870300678",
    "name": "ケアフルハウスデイサービス",
    "kana": "ケアフルハウスデイサービス",
    "address": "越前市広瀬町１５３－１２－３",
    "lat": 35.8895608,
    "lng": 136.1467049,
    "tel": "0778-22-0030",
    "url": "http://carefull.co.jp/",
    "pref": "福井県",
    "city": "越前市",
    "category": "day_service",
    "serviceType": "通所介護",
    "capacity": 25,
    "openDays": [
      "平日",
      "土曜日",
      "祝日"
    ],
    "openDaysNote": ""
  },
  {
    "id": "1870300793",
    "name": "さくら倶楽部",
    "kana": "サクラクラブ",
    "address": "横市町4-5",
    "lat": 35.9117177,
    "lng": 136.1904944,
    "tel": "0778-21-1307",
    "url": "http://hp.kaipoke.biz/88d/index.html",
    "pref": "福井県",
    "city": "越前市",
    "category": "day_service",
    "serviceType": "通所介護",
    "capacity": 30,
    "openDays": [
      "平日",
      "土曜日",
      "祝日"
    ],
    "openDaysNote": "祝日、お盆（13～15日）、ゴールデンウィーク等も営業しております。"
  },
  {
    "id": "1870301106",
    "name": "さんらいふりはすてーしょん",
    "kana": "サンライフリハステーション",
    "address": "常久町7-1-1",
    "lat": 35.8885854523598,
    "lng": 136.164700357672,
    "tel": "0778-42-7633",
    "url": "http://sunlifeonodani.jp/",
    "pref": "福井県",
    "city": "越前市",
    "category": "day_service",
    "serviceType": "通所介護",
    "capacity": null,
    "openDays": [
      "平日",
      "土曜日",
      "祝日"
    ],
    "openDaysNote": ""
  },
  {
    "id": "1870300371",
    "name": "しくらデイ明日花",
    "kana": "シクラデイアスカ",
    "address": "越前市千福町３２８",
    "lat": 35.8880223,
    "lng": 136.1565538,
    "tel": "0778-25-5522",
    "url": "http://www.ikebata.jp/shikuraasuka.html",
    "pref": "福井県",
    "city": "越前市",
    "category": "day_service",
    "serviceType": "通所介護",
    "capacity": 35,
    "openDays": [
      "平日",
      "祝日"
    ],
    "openDaysNote": ""
  },
  {
    "id": "1870301049",
    "name": "デイ・フィットネス　楽らく　越前南店",
    "kana": "デイ・フィットネス　ラクラク　エチゼンミナミテン",
    "address": "福井県越前市東千福町10-19",
    "lat": 35.8910908,
    "lng": 136.1597956,
    "tel": "0778-22-5350",
    "url": "https://www.df-rakuraku.com/",
    "pref": "福井県",
    "city": "越前市",
    "category": "day_service",
    "serviceType": "通所介護",
    "capacity": 0,
    "openDays": [
      "平日",
      "土曜日",
      "祝日"
    ],
    "openDaysNote": ""
  },
  {
    "id": "1870300348",
    "name": "デイサービス　パワーリハビリ　アイ",
    "kana": "デイサービス　パワーリハビリ　アイ",
    "address": "福井県越前市本多１丁目12-3",
    "lat": 35.9061564,
    "lng": 136.1630638,
    "tel": "0778-21-5833",
    "url": "http://www.tsukioka-med.com",
    "pref": "福井県",
    "city": "越前市",
    "category": "day_service",
    "serviceType": "通所介護",
    "capacity": 45,
    "openDays": [
      "平日",
      "土曜日"
    ],
    "openDaysNote": ""
  },
  {
    "id": "1870300439",
    "name": "デイサービスセンターメゾンいまだて",
    "kana": "デイサービスセンターメゾンイマダテ",
    "address": "福井県越前市東樫尾町８番３８号",
    "lat": 35.9382156,
    "lng": 136.2829452,
    "tel": "0778-43-1800",
    "url": "http://www.mezon-f.com/",
    "pref": "福井県",
    "city": "越前市",
    "category": "day_service",
    "serviceType": "通所介護",
    "capacity": 35,
    "openDays": [
      "平日",
      "土曜日",
      "祝日"
    ],
    "openDaysNote": ""
  },
  {
    "id": "1870300306",
    "name": "デイサービスセンターわかたけ",
    "kana": "デイサービスセンターワカタケ",
    "address": "福井県越前市本多2丁目3-19",
    "lat": 35.9071952,
    "lng": 136.1653441,
    "tel": "0778-25-5252",
    "url": "http://www.wakatake.ne.jp/",
    "pref": "福井県",
    "city": "越前市",
    "category": "day_service",
    "serviceType": "通所介護",
    "capacity": 0,
    "openDays": [
      "平日",
      "土曜日",
      "祝日"
    ],
    "openDaysNote": ""
  },
  {
    "id": "1870300124",
    "name": "デイサービスセンター第２和上苑",
    "kana": "デイサービスセンターダイ２ワジョウエン",
    "address": "福井県越前市白崎町第34号2番地1",
    "lat": 35.8644917,
    "lng": 136.145103,
    "tel": "0778-25-6363",
    "url": "http://www.wakatake.ne.jp",
    "pref": "福井県",
    "city": "越前市",
    "category": "day_service",
    "serviceType": "通所介護",
    "capacity": 0,
    "openDays": [
      "平日",
      "土曜日",
      "祝日"
    ],
    "openDaysNote": ""
  },
  {
    "id": "1870300728",
    "name": "デイサービスセンター和上苑",
    "kana": "デイサービスセンターワジョウエン",
    "address": "福井県越前市高木町12-7-1コミュニティハウス　わかたけ　デイサービスセンター和上苑 コミュニティハウス　わかたけ　デイサービスセンター和上苑",
    "lat": 35.9282074,
    "lng": 136.1904939,
    "tel": "0778-23-4565",
    "url": "http://www.wakatake.ne.jp/",
    "pref": "福井県",
    "city": "越前市",
    "category": "day_service",
    "serviceType": "通所介護",
    "capacity": 0,
    "openDays": [
      "平日",
      "土曜日",
      "祝日"
    ],
    "openDaysNote": ""
  },
  {
    "id": "1870300066",
    "name": "ニチイケアセンター武生",
    "kana": "ニチイケアセンタータケフ",
    "address": "越前市国高1-16-16",
    "lat": 35.911176,
    "lng": 136.1866226,
    "tel": "0778-25-5080",
    "url": "http://www.nichiigakkan.co.jp/",
    "pref": "福井県",
    "city": "越前市",
    "category": "day_service",
    "serviceType": "通所介護",
    "capacity": 0,
    "openDays": [
      "平日",
      "土曜日",
      "祝日"
    ],
    "openDaysNote": ""
  },
  {
    "id": "1870300264",
    "name": "ほっと地域リハビリセンター",
    "kana": "ホットチイキリハビリセンター",
    "address": "福井県越前市高木町55-11-15",
    "lat": 35.9189865199473,
    "lng": 136.191767922754,
    "tel": "0778-21-5208",
    "url": "http://www.hotreha.com",
    "pref": "福井県",
    "city": "越前市",
    "category": "day_service",
    "serviceType": "通所介護",
    "capacity": null,
    "openDays": [
      "平日",
      "土曜日",
      "祝日"
    ],
    "openDaysNote": ""
  },
  {
    "id": "1870300595",
    "name": "リハフィットほっとチャレンジ越前",
    "kana": "リハフィットホットチャレンジエチゼン",
    "address": "福井県越前市高木町55－11－18",
    "lat": 35.9190196,
    "lng": 136.1920939,
    "tel": "0778-29-3000",
    "url": "http://www.hotreha.com",
    "pref": "福井県",
    "city": "越前市",
    "category": "day_service",
    "serviceType": "通所介護",
    "capacity": 65,
    "openDays": [
      "平日",
      "土曜日",
      "祝日"
    ],
    "openDaysNote": ""
  },
  {
    "id": "1870300967",
    "name": "レッツデイサービス横根",
    "kana": "レッツデイサービスヨコネ",
    "address": "福井県越前市横根町12-4-1",
    "lat": 35.9090411296699,
    "lng": 136.134569461902,
    "tel": "0778-43-5311",
    "url": "http://lifemore.ne.jp/",
    "pref": "福井県",
    "city": "越前市",
    "category": "day_service",
    "serviceType": "通所介護",
    "capacity": 35,
    "openDays": [
      "平日",
      "土曜日",
      "祝日"
    ],
    "openDaysNote": "年末年始の休業日については，事前に別途お知らせさせて頂きます。"
  },
  {
    "id": "1870300504",
    "name": "越前市社会福祉協議会デイサービスセンターいまだて",
    "kana": "エチゼンシシャカイフクシキョウギカイデイサービスセンターイマダテ",
    "address": "福井県越前市杉尾町第1号27番地1越前市社会福祉センター内 越前市社会福祉センター内",
    "lat": 35.9203142703238,
    "lng": 136.25247144841,
    "tel": "0778-43-1212",
    "url": "",
    "pref": "福井県",
    "city": "越前市",
    "category": "day_service",
    "serviceType": "通所介護",
    "capacity": 0,
    "openDays": [
      "平日",
      "土曜日"
    ],
    "openDaysNote": ""
  },
  {
    "id": "1870300512",
    "name": "越前市社会福祉協議会デイサービスセンター芦山",
    "kana": "エチゼンシシャカイフクシキョウギカイデイサービスセンターロザン",
    "address": "福井県越前市矢船町第8号12番地1",
    "lat": 35.8878535,
    "lng": 136.1772325,
    "tel": "0778-25-0070",
    "url": "",
    "pref": "福井県",
    "city": "越前市",
    "category": "day_service",
    "serviceType": "通所介護",
    "capacity": 0,
    "openDays": [
      "平日",
      "土曜日"
    ],
    "openDaysNote": ""
  },
  {
    "id": "1870300421",
    "name": "県民せいきょう丹南きらめきデイサービス",
    "kana": "ケンミンセイキョウタンナンキラメキデイサービス",
    "address": "福井県越前市家久町49字",
    "lat": 35.9317646,
    "lng": 136.1666099,
    "tel": "0778-22-5001",
    "url": "http://www.fukui.coop/",
    "pref": "福井県",
    "city": "越前市",
    "category": "day_service",
    "serviceType": "通所介護",
    "capacity": 0,
    "openDays": [
      "平日",
      "土曜日",
      "祝日"
    ],
    "openDaysNote": ""
  },
  {
    "id": "1870300389",
    "name": "総合支援センターわかたけ",
    "kana": "ソウゴウシエンセンターワカタケ",
    "address": "越前市西谷町33-10-2",
    "lat": 35.8779884,
    "lng": 136.1898982,
    "tel": "0778-21-0300",
    "url": "",
    "pref": "福井県",
    "city": "越前市",
    "category": "day_service",
    "serviceType": "通所介護",
    "capacity": 15,
    "openDays": [
      "平日",
      "土曜日"
    ],
    "openDaysNote": ""
  },
  {
    "id": "1872000508",
    "name": "さくらデイサービス",
    "kana": "サクラデイサービス",
    "address": "福井県丹生郡越前町内郡５-柳町-６８",
    "lat": 35.974208,
    "lng": 136.1297425,
    "tel": "0778-42-6115",
    "url": "https://d-sakura.net/",
    "pref": "福井県",
    "city": "越前町",
    "category": "day_service",
    "serviceType": "通所介護",
    "capacity": 0,
    "openDays": [
      "平日",
      "土曜日",
      "祝日"
    ],
    "openDaysNote": "年末年始（12/30～1/3）休み"
  },
  {
    "id": "1872000565",
    "name": "デイサービスセンター　ひまわり",
    "kana": "デイサービスセンター　ヒマワリ",
    "address": "福井県丹生郡越前町四ツ杉3-10",
    "lat": 35.9607264,
    "lng": 136.0355446,
    "tel": "0778-36-2170",
    "url": "https://www.sekishin-himawari.or.jp/index.html",
    "pref": "福井県",
    "city": "越前町",
    "category": "day_service",
    "serviceType": "通所介護",
    "capacity": null,
    "openDays": [
      "平日",
      "土曜日",
      "祝日"
    ],
    "openDaysNote": ""
  },
  {
    "id": "1872000458",
    "name": "越前町越前デイサービスセンター",
    "kana": "エチゼンチョウエチゼンデイサービスセンター",
    "address": "福井県丹生郡越前町梅浦60-15越前地域福祉センター 越前地域福祉センター",
    "lat": 35.9528585,
    "lng": 135.9833555,
    "tel": "0778-37-0627",
    "url": "https://www.e-shakyo.or.jp",
    "pref": "福井県",
    "city": "越前町",
    "category": "day_service",
    "serviceType": "通所介護",
    "capacity": 25,
    "openDays": [
      "平日",
      "土曜日",
      "祝日"
    ],
    "openDaysNote": ""
  },
  {
    "id": "1872000383",
    "name": "越前町宮崎デイサービスセンター「ホタル荘」",
    "kana": "エチゼンチョウミヤザキデイサービスセンターホタルソウ",
    "address": "福井県丹生郡越前町八田5-51-1",
    "lat": 35.925672,
    "lng": 136.1124576,
    "tel": "0778-32-2900",
    "url": "http://wwｗ.e-shakyo.or.jp/",
    "pref": "福井県",
    "city": "越前町",
    "category": "day_service",
    "serviceType": "通所介護",
    "capacity": 25,
    "openDays": [
      "平日",
      "土曜日",
      "祝日"
    ],
    "openDaysNote": ""
  },
  {
    "id": "1872000466",
    "name": "越前町織田デイサービスセンター",
    "kana": "エチゼンチョウオタデイサービスセンター",
    "address": "福井県丹生郡越前町織田１０６－５１－１",
    "lat": 35.9573218,
    "lng": 136.0477322,
    "tel": "0778-36-1150",
    "url": "http://www.e-shakyo.or.jp/",
    "pref": "福井県",
    "city": "越前町",
    "category": "day_service",
    "serviceType": "通所介護",
    "capacity": 30,
    "openDays": [
      "平日",
      "土曜日",
      "祝日"
    ],
    "openDaysNote": ""
  },
  {
    "id": "1872000441",
    "name": "越前町朝日デイサービスセンター「朝寿苑」",
    "kana": "エチゼンチョウアサヒデイサービスセンター　チョウジュエン",
    "address": "福井県丹生郡越前町西田中8-20-22",
    "lat": 35.9767382,
    "lng": 136.1280203,
    "tel": "0778-34-0500",
    "url": "http://www.e-shakyo.or.jp/",
    "pref": "福井県",
    "city": "越前町",
    "category": "day_service",
    "serviceType": "通所介護",
    "capacity": 25,
    "openDays": [
      "平日",
      "土曜日",
      "祝日"
    ],
    "openDaysNote": ""
  },
  {
    "id": "1872000052",
    "name": "海楽園デイサービスセンター",
    "kana": "カイラクエンデイサービスセンター",
    "address": "丹生郡越前町米ノ46-1-1",
    "lat": 35.8918781,
    "lng": 135.9958671,
    "tel": "0778-39-1800",
    "url": "http://echizen-kairakuen.jp/",
    "pref": "福井県",
    "city": "越前町",
    "category": "day_service",
    "serviceType": "通所介護",
    "capacity": 0,
    "openDays": [
      "平日",
      "祝日"
    ],
    "openDaysNote": ""
  },
  {
    "id": "1872000524",
    "name": "指定通所介護事業所　デイサービスセンターさざんかホール",
    "kana": "シテイツウショカイゴジギョウショ　デイサービスセンターサザンカホール",
    "address": "福井県丹生郡越前町朝日22字7－1",
    "lat": 35.9709529,
    "lng": 136.119688,
    "tel": "0778－34－1220",
    "url": "http://www.kodoen.or.jp",
    "pref": "福井県",
    "city": "越前町",
    "category": "day_service",
    "serviceType": "通所介護",
    "capacity": 0,
    "openDays": [
      "平日",
      "土曜日",
      "祝日"
    ],
    "openDaysNote": "月曜日から土曜日、祝日は営業日"
  },
  {
    "id": "1872300122",
    "name": "デイサービスセンター　グっと倶楽部",
    "kana": "デイサービスセンター　グットクラブ",
    "address": "大飯郡高浜町薗部49-3",
    "lat": 35.4876005,
    "lng": 135.5557566,
    "tel": "0770-72-1160",
    "url": "http://g-support-takahama.com",
    "pref": "福井県",
    "city": "高浜町",
    "category": "day_service",
    "serviceType": "通所介護",
    "capacity": 0,
    "openDays": [
      "平日",
      "祝日"
    ],
    "openDaysNote": "年末12/30、12/31　年始1/1～1/3は休業"
  },
  {
    "id": "1872300155",
    "name": "株式会社　高浜ケアサポート　デイサービスセンター　であい",
    "kana": "カブシキガイシャ　タカハマケアサポート　デイサービスセンター　デアイ",
    "address": "福井県大飯郡高浜町青１字宮ヶ谷１号３番の１",
    "lat": 35.4825318225726,
    "lng": 135.500065081972,
    "tel": "0770-50-7643",
    "url": "https://r.goope.jp/taka-care/",
    "pref": "福井県",
    "city": "高浜町",
    "category": "day_service",
    "serviceType": "通所介護",
    "capacity": 0,
    "openDays": [
      "平日",
      "土曜日",
      "祝日"
    ],
    "openDaysNote": ""
  },
  {
    "id": "1872300106",
    "name": "高浜けいあいの里デイサービスセンター",
    "kana": "タカハマケイアイノサトデイサービスセンター",
    "address": "福井県大飯郡高浜町和田１６８－２２",
    "lat": 35.4878213624545,
    "lng": 135.582520379762,
    "tel": "0770-71-1022",
    "url": "http://www.t-keiai.jp/",
    "pref": "福井県",
    "city": "高浜町",
    "category": "day_service",
    "serviceType": "通所介護",
    "capacity": 19,
    "openDays": [
      "平日",
      "祝日"
    ],
    "openDaysNote": ""
  },
  {
    "id": "1872300023",
    "name": "高浜町デイサービスセンター",
    "kana": "タカハマチョウデイサービスセンター",
    "address": "福井県大飯郡高浜町緑ヶ丘1－1－1",
    "lat": 35.4928915,
    "lng": 135.5080766,
    "tel": "0770-72-5633",
    "url": "http://takahamashakyou.sunnyday.jp/",
    "pref": "福井県",
    "city": "高浜町",
    "category": "day_service",
    "serviceType": "通所介護",
    "capacity": 0,
    "openDays": [
      "平日",
      "祝日"
    ],
    "openDaysNote": "大型連休の場合は、休日営業することが有ります。"
  },
  {
    "id": "1871700348",
    "name": "ＪＡ福井県デイサ－ビスセンタ－こもれびの郷",
    "kana": "ジェイエーフクイケンデイサ－ビスセンタ－コモレビノサト",
    "address": "福井県坂井市春江町本堂２３－２１",
    "lat": 36.1341894,
    "lng": 136.2040593,
    "tel": "0776-58-0080",
    "url": "http://www.ja-fukuiken.or.jp",
    "pref": "福井県",
    "city": "坂井市",
    "category": "day_service",
    "serviceType": "通所介護",
    "capacity": 0,
    "openDays": [
      "平日",
      "土曜日",
      "祝日"
    ],
    "openDaysNote": ""
  },
  {
    "id": "1871700389",
    "name": "JA福井県デイサービスセンターはなさき",
    "kana": "ジェイエイフクイケンデイサービスセンターハナサキ",
    "address": "福井県坂井市丸岡町一本田33-14",
    "lat": 36.1476591,
    "lng": 136.2655301,
    "tel": "0776-66-1111",
    "url": "http://www.ja-fukuiken.or.jp",
    "pref": "福井県",
    "city": "坂井市",
    "category": "day_service",
    "serviceType": "通所介護",
    "capacity": 80,
    "openDays": [
      "平日",
      "土曜日",
      "祝日"
    ],
    "openDaysNote": ""
  },
  {
    "id": "1871700744",
    "name": "アプトケア・三国",
    "kana": "アプトケア・ミクニ",
    "address": "福井県坂井市三国町三国東2丁目9-23",
    "lat": 36.2122123,
    "lng": 136.1612452,
    "tel": "0776-60-0105",
    "url": "http://aptcare.jp",
    "pref": "福井県",
    "city": "坂井市",
    "category": "day_service",
    "serviceType": "通所介護",
    "capacity": 30,
    "openDays": [
      "平日",
      "土曜日",
      "祝日"
    ],
    "openDaysNote": ""
  },
  {
    "id": "1871700108",
    "name": "ガーデンハイツ春江　デイサービスセンター",
    "kana": "ガーデンハイツハルエ　デイサービスセンター",
    "address": "福井県坂井市春江町針原48-28-1",
    "lat": 36.1286039,
    "lng": 136.2073841,
    "tel": "0776-51-6233",
    "url": "http://fj-g.jp/",
    "pref": "福井県",
    "city": "坂井市",
    "category": "day_service",
    "serviceType": "通所介護",
    "capacity": 45,
    "openDays": [
      "平日",
      "土曜日",
      "祝日"
    ],
    "openDaysNote": ""
  },
  {
    "id": "1871700405",
    "name": "さかいディサービスセンター",
    "kana": "サカイデイサービスセンター",
    "address": "福井県坂井市坂井町折戸第１号５８番地",
    "lat": 36.1713585,
    "lng": 136.1702412,
    "tel": "0776-72-3411",
    "url": "https://sakaicare.com/",
    "pref": "福井県",
    "city": "坂井市",
    "category": "day_service",
    "serviceType": "通所介護",
    "capacity": 30,
    "openDays": [
      "平日",
      "土曜日",
      "祝日"
    ],
    "openDaysNote": "日曜日の営業は令和7年1月より終了予定"
  },
  {
    "id": "1871700637",
    "name": "デイサービス　リハビリセンター　木の花",
    "kana": "デイサービス　リハビリセンター　コノハナ",
    "address": "坂井市坂井町下新庄１８－１５－１",
    "lat": 36.1669730352784,
    "lng": 136.225009919609,
    "tel": "0776-50-1000",
    "url": "http://tomorrows-reha.com/",
    "pref": "福井県",
    "city": "坂井市",
    "category": "day_service",
    "serviceType": "通所介護",
    "capacity": 55,
    "openDays": [
      "平日",
      "土曜日"
    ],
    "openDaysNote": ""
  },
  {
    "id": "1871701015",
    "name": "デイサービス　リハビリ施設陽和縁",
    "kana": "デイサービス　リハビリシセツヒヨリエン",
    "address": "福井県坂井市春江町西長田40-46デイサービスリハビリ施設陽和縁 デイサービスリハビリ施設陽和縁",
    "lat": 36.156966721927,
    "lng": 136.201305670364,
    "tel": "0776-72-3900",
    "url": "http://heart2-caring.co.jp/",
    "pref": "福井県",
    "city": "坂井市",
    "category": "day_service",
    "serviceType": "通所介護",
    "capacity": 50,
    "openDays": [
      "平日",
      "土曜日"
    ],
    "openDaysNote": ""
  },
  {
    "id": "1871700843",
    "name": "デイサービス　山のいえ　笑楽日",
    "kana": "デイサービスヤマノイエワラビ",
    "address": "坂井市丸岡町山口５９－１３",
    "lat": 36.1606475790983,
    "lng": 136.331717308598,
    "tel": "0776-67-2396",
    "url": "http://day-warabi.com/",
    "pref": "福井県",
    "city": "坂井市",
    "category": "day_service",
    "serviceType": "通所介護",
    "capacity": 60,
    "openDays": [
      "平日",
      "土曜日",
      "祝日"
    ],
    "openDaysNote": "延長利用可　※ご相談下さい。"
  },
  {
    "id": "1871701106",
    "name": "デイサービスセンター　カルミア春江",
    "kana": "デイサービスセンター　カルミアハルエ",
    "address": "福井県坂井市春江町江留下屋敷54-1",
    "lat": 36.1279599,
    "lng": 136.2219129,
    "tel": "0776-51-1250",
    "url": "http://www.harue-hp.org/",
    "pref": "福井県",
    "city": "坂井市",
    "category": "day_service",
    "serviceType": "通所介護",
    "capacity": 0,
    "openDays": [
      "平日",
      "祝日"
    ],
    "openDaysNote": ""
  },
  {
    "id": "1871700132",
    "name": "デイサービスセンターあじさい園",
    "kana": "デイサービスセンターアジサイエン",
    "address": "福井県坂井市三国町梶49-18",
    "lat": 36.2463430797246,
    "lng": 136.15543644418,
    "tel": "0776-82-5383",
    "url": "http://www.hakurakuso.com/",
    "pref": "福井県",
    "city": "坂井市",
    "category": "day_service",
    "serviceType": "通所介護",
    "capacity": 35,
    "openDays": [
      "平日",
      "土曜日",
      "祝日"
    ],
    "openDaysNote": ""
  },
  {
    "id": "1871700694",
    "name": "デイサービスセンターさかい生喜庵",
    "kana": "デイサービスセンターサカイセイキアン",
    "address": "福井県坂井市坂井町上新庄第４０号５９番地",
    "lat": 36.1633256,
    "lng": 136.2303631,
    "tel": "0776-67-7717",
    "url": "",
    "pref": "福井県",
    "city": "坂井市",
    "category": "day_service",
    "serviceType": "通所介護",
    "capacity": 0,
    "openDays": [
      "平日",
      "土曜日",
      "祝日"
    ],
    "openDaysNote": ""
  },
  {
    "id": "1871700355",
    "name": "デイハウスいってこさ",
    "kana": "デイハウスイッテコサ",
    "address": "福井県坂井市三国町殿島5-23",
    "lat": 36.2059849,
    "lng": 136.1520741,
    "tel": "0776-82-8711",
    "url": "",
    "pref": "福井県",
    "city": "坂井市",
    "category": "day_service",
    "serviceType": "通所介護",
    "capacity": 0,
    "openDays": [
      "平日",
      "土曜日",
      "祝日"
    ],
    "openDaysNote": "お休みの場合は前日までに事業所に連絡してください。"
  },
  {
    "id": "1871701205",
    "name": "デイフィットネス楽らく春江店",
    "kana": "デイフィットネスラクラクハルエテン",
    "address": "春江町江留上錦63",
    "lat": 36.1219858,
    "lng": 136.2179919,
    "tel": "0776-51-0678",
    "url": "http://www.df-rakuraku.com",
    "pref": "福井県",
    "city": "坂井市",
    "category": "day_service",
    "serviceType": "通所介護",
    "capacity": null,
    "openDays": [
      "平日",
      "土曜日",
      "祝日"
    ],
    "openDaysNote": ""
  },
  {
    "id": "1871701148",
    "name": "トゥモローズ　ホームリハビリセンター坂井",
    "kana": "トゥモローズ　ホームリハビリセンターサカイ",
    "address": "福井県坂井市坂井町下新庄１８－１６－１",
    "lat": 36.16705,
    "lng": 136.2249356,
    "tel": "0776-50-2551",
    "url": "http://tomorrows-reha.com/",
    "pref": "福井県",
    "city": "坂井市",
    "category": "day_service",
    "serviceType": "通所介護",
    "capacity": 55,
    "openDays": [
      "平日",
      "土曜日"
    ],
    "openDaysNote": ""
  },
  {
    "id": "1871700421",
    "name": "まるおかデイサービスセンター",
    "kana": "マルオカデイサービスセンター",
    "address": "福井県坂井市丸岡町八ヶ郷第23号19番地3",
    "lat": 36.1553225,
    "lng": 136.2798366,
    "tel": "0776-67-7771",
    "url": "http://www.life-sp.jp",
    "pref": "福井県",
    "city": "坂井市",
    "category": "day_service",
    "serviceType": "通所介護",
    "capacity": 0,
    "openDays": [
      "平日",
      "土曜日",
      "祝日"
    ],
    "openDaysNote": ""
  },
  {
    "id": "1871700835",
    "name": "ゆりデイサービスセンター",
    "kana": "ユリデイサービスセンター",
    "address": "福井県坂井市春江町本堂２７－１－１",
    "lat": 36.1388055,
    "lng": 136.2039341,
    "tel": "0776-51-8100",
    "url": "",
    "pref": "福井県",
    "city": "坂井市",
    "category": "day_service",
    "serviceType": "通所介護",
    "capacity": 0,
    "openDays": [
      "平日",
      "土曜日",
      "祝日"
    ],
    "openDaysNote": ""
  },
  {
    "id": "1871700991",
    "name": "リハビリデイサービスあすなろ",
    "kana": "リハビリデイサービスアスナロ",
    "address": "福井県坂井市三国町覚善8-65-1",
    "lat": 36.2206317101467,
    "lng": 136.158293143517,
    "tel": "0776-81-3383",
    "url": "",
    "pref": "福井県",
    "city": "坂井市",
    "category": "day_service",
    "serviceType": "通所介護",
    "capacity": 20,
    "openDays": [
      "平日",
      "土曜日"
    ],
    "openDaysNote": "上記営業時間外でも相談等に応じる体制をとる。"
  },
  {
    "id": "1871701163",
    "name": "運動型デイサービス　アクティ",
    "kana": "ウンドウガタデイサービス　アクティ",
    "address": "春江町中筋100-75",
    "lat": 36.1273855,
    "lng": 136.2362228,
    "tel": "0776-58-0189",
    "url": "",
    "pref": "福井県",
    "city": "坂井市",
    "category": "day_service",
    "serviceType": "通所介護",
    "capacity": null,
    "openDays": [
      "平日",
      "土曜日",
      "祝日"
    ],
    "openDaysNote": "12/31-1/3は年末年始のため休み"
  },
  {
    "id": "1871701239",
    "name": "機能訓練特化型　長寿園デイサービスセンターりーふ",
    "kana": "キノウクンレントッカガタ　チョウジュエンデイサービスセンターリーフ",
    "address": "福井県坂井市丸岡町谷町2丁目32番地機能訓練特化型　長寿園デイサービスセンターりーふ 機能訓練特化型　長寿園デイサービスセンターりーふ",
    "lat": 36.1482306,
    "lng": 136.269953,
    "tel": "0776-68-1680",
    "url": "http://www.choujuen.com",
    "pref": "福井県",
    "city": "坂井市",
    "category": "day_service",
    "serviceType": "通所介護",
    "capacity": 0,
    "openDays": [
      "平日",
      "祝日"
    ],
    "openDaysNote": ""
  },
  {
    "id": "1871700785",
    "name": "県民せいきょう坂井きらめきデイサービス",
    "kana": "ケンミンセイキョウサカイキラメキデイサービス",
    "address": "坂井市坂井町大味56号",
    "lat": 36.1849615702963,
    "lng": 136.19542227791,
    "tel": "0776-72-3701",
    "url": "https://www.fukui.coop/care/shisetsu/sakai-kirameki/",
    "pref": "福井県",
    "city": "坂井市",
    "category": "day_service",
    "serviceType": "通所介護",
    "capacity": 28,
    "openDays": [
      "平日",
      "土曜日",
      "祝日"
    ],
    "openDaysNote": ""
  },
  {
    "id": "1871700587",
    "name": "坂井市社会福祉協議会　霞の郷デイサービスセンター",
    "kana": "サカイシシャカイフクシキョウギカイ　カスミノサトデイサービスセンター",
    "address": "福井県坂井市丸岡町八ケ郷２１－７－１",
    "lat": 36.1602132255834,
    "lng": 136.283320920901,
    "tel": "0776-68-5065",
    "url": "http://www.sakaicityshakyo.jp/",
    "pref": "福井県",
    "city": "坂井市",
    "category": "day_service",
    "serviceType": "通所介護",
    "capacity": 30,
    "openDays": [
      "平日",
      "土曜日",
      "祝日"
    ],
    "openDaysNote": "サービス提供時間　9時00分～17時00分　（改行）延長受入時間　8時00分～9時00分、17時00分～19時00分"
  },
  {
    "id": "1871700470",
    "name": "長寿園デイサービスセンター　りらく",
    "kana": "チョウジュエンデイサービスセンターリラク",
    "address": "福井県坂井市丸岡町西瓜屋６－１７",
    "lat": 36.1463711063894,
    "lng": 136.269804322749,
    "tel": "0776-66-6803",
    "url": "http://www.choujuen.com",
    "pref": "福井県",
    "city": "坂井市",
    "category": "day_service",
    "serviceType": "通所介護",
    "capacity": 0,
    "openDays": [
      "平日",
      "土曜日",
      "祝日"
    ],
    "openDaysNote": ""
  },
  {
    "id": "1871701072",
    "name": "長寿園デイサービスセンターりんどう",
    "kana": "チョウジュエンデイサービスセンターリンドウ",
    "address": "福井県坂井市丸岡町里丸岡3丁目7番",
    "lat": 36.1431238,
    "lng": 136.2766846,
    "tel": "０７７６－６７－０３００",
    "url": "http://www.choujuen.com",
    "pref": "福井県",
    "city": "坂井市",
    "category": "day_service",
    "serviceType": "通所介護",
    "capacity": 0,
    "openDays": [
      "平日",
      "土曜日",
      "祝日"
    ],
    "openDaysNote": "1月1日、1月2日は休日"
  },
  {
    "id": "1871700090",
    "name": "豊楽園デイサービスセンター",
    "kana": "ホウラクエンデイサービスセンター",
    "address": "福井県坂井市坂井町下関42-2",
    "lat": 36.1908598582216,
    "lng": 136.227961450787,
    "tel": "0776-72-2630",
    "url": "https://s-fukushi.or.jp/hourakuen/",
    "pref": "福井県",
    "city": "坂井市",
    "category": "day_service",
    "serviceType": "通所介護",
    "capacity": 0,
    "openDays": [
      "平日",
      "土曜日",
      "祝日"
    ],
    "openDaysNote": ""
  },
  {
    "id": "1871701197",
    "name": "理学療法士のデイサービス　PEP",
    "kana": "リガクリョウホウシノデイサービス　ペップ",
    "address": "福井県坂井市丸岡町霞町4-40-1",
    "lat": 36.152578,
    "lng": 136.2755451,
    "tel": "0776-63-6763",
    "url": "",
    "pref": "福井県",
    "city": "坂井市",
    "category": "day_service",
    "serviceType": "通所介護",
    "capacity": 0,
    "openDays": [
      "平日",
      "土曜日"
    ],
    "openDaysNote": "感染症対策の為、臨時営業・臨時休業することあり"
  },
  {
    "id": "1870700521",
    "name": "OneHeartリハビリの家",
    "kana": "ワンハート　リハビリノイエ",
    "address": "福井県鯖江市川島町１９−１４",
    "lat": 35.9467595715009,
    "lng": 136.228830401189,
    "tel": "0778-43-5356",
    "url": "",
    "pref": "福井県",
    "city": "鯖江市",
    "category": "day_service",
    "serviceType": "通所介護",
    "capacity": 35,
    "openDays": [
      "平日",
      "土曜日",
      "祝日"
    ],
    "openDaysNote": "その他：事業所が定める日　GW間1日など"
  },
  {
    "id": "1870700430",
    "name": "アミューズメントリゾート　ドリームデイサービス",
    "kana": "アミューズメントリゾート　ドリームデイサービス",
    "address": "福井県鯖江市東鯖江二丁目9番16号",
    "lat": 35.9482659,
    "lng": 136.196312,
    "tel": "0778-54-7800",
    "url": "dream-create.wixsite.com/dreamcreate",
    "pref": "福井県",
    "city": "鯖江市",
    "category": "day_service",
    "serviceType": "通所介護",
    "capacity": 40,
    "openDays": [
      "平日",
      "土曜日"
    ],
    "openDaysNote": "送迎時間の連絡…　やむを得ず変更される場合は前日までに電話連絡ください。（改行）体調不良等によるサービスの中止・変更…　体調が優れない場合は、状況をご報告ください。嘔吐や発熱等、感染する病気が考えられる場合は、利用を控えるようにしてください。（改行）通所中に発熱・嘔吐等がみられた場合、状況により、受診を勧めさせていただくこともあります。（改行）食事のキャンセル…　前日の午前中までにご連絡ください。それ以降になると食事料金が発生する場合がございますので、あらかじめご了承ください。（改行）設備・器具の利用…　丁寧に扱い、使用後は元の場所に戻していただきます。"
  },
  {
    "id": "1870700166",
    "name": "エレガントセニールガーデン",
    "kana": "エレガントセニールガーデン",
    "address": "福井県鯖江市吉江町３１－７－１",
    "lat": 35.986754,
    "lng": 136.168302,
    "tel": "0778-53-2772",
    "url": "",
    "pref": "福井県",
    "city": "鯖江市",
    "category": "day_service",
    "serviceType": "通所介護",
    "capacity": 0,
    "openDays": [
      "平日",
      "土曜日",
      "日曜日",
      "祝日"
    ],
    "openDaysNote": ""
  },
  {
    "id": "1870700299",
    "name": "おしどり荘デイサービスセンター",
    "kana": "オシドリソウデイサービスセンター",
    "address": "福井県鯖江市別司町41-30",
    "lat": 35.947612,
    "lng": 136.2603324,
    "tel": "0778-65-3124",
    "url": "http://www.touyoukai.or.jp",
    "pref": "福井県",
    "city": "鯖江市",
    "category": "day_service",
    "serviceType": "通所介護",
    "capacity": 0,
    "openDays": [
      "平日",
      "土曜日",
      "祝日"
    ],
    "openDaysNote": ""
  },
  {
    "id": "1870700067",
    "name": "ことぶき荘デイサービスセンター",
    "kana": "コトブキソウデイサービスセンター",
    "address": "福井県鯖江市大野町3-1",
    "lat": 35.9780763,
    "lng": 136.2283956,
    "tel": "0778-51-7780",
    "url": "http://www.touyoukai.or.jp",
    "pref": "福井県",
    "city": "鯖江市",
    "category": "day_service",
    "serviceType": "通所介護",
    "capacity": 0,
    "openDays": [
      "平日",
      "土曜日",
      "祝日"
    ],
    "openDaysNote": ""
  },
  {
    "id": "1870700570",
    "name": "さくら倶楽部　聚楽第",
    "kana": "サクラクラブ　ジュラクテイ",
    "address": "下河端町4-6-1",
    "lat": 35.9664018,
    "lng": 136.1880791,
    "tel": "0778-54-8448",
    "url": "httzp：//hp.kaipoke.biz/88d/index.html",
    "pref": "福井県",
    "city": "鯖江市",
    "category": "day_service",
    "serviceType": "通所介護",
    "capacity": 32,
    "openDays": [
      "平日",
      "土曜日",
      "祝日"
    ],
    "openDaysNote": ""
  },
  {
    "id": "1870700232",
    "name": "ツクイ福井さばえ",
    "kana": "ツクイフクイサバエ",
    "address": "鯖江市三六町1-6-2",
    "lat": 35.9717952,
    "lng": 136.180482130688,
    "tel": "0778-51-9300",
    "url": "http://www.tsukui.net",
    "pref": "福井県",
    "city": "鯖江市",
    "category": "day_service",
    "serviceType": "通所介護",
    "capacity": 30,
    "openDays": [
      "平日",
      "土曜日",
      "日曜日",
      "祝日"
    ],
    "openDaysNote": ""
  },
  {
    "id": "1870700182",
    "name": "デイサービスセンターいろり",
    "kana": "デイサービスセンターイロリ",
    "address": "鯖江市鳥羽３丁目１－２９",
    "lat": 35.9845074,
    "lng": 136.1856284,
    "tel": "0778-54-7300",
    "url": "http://www.wakatake.ne.jp",
    "pref": "福井県",
    "city": "鯖江市",
    "category": "day_service",
    "serviceType": "通所介護",
    "capacity": 0,
    "openDays": [
      "平日",
      "土曜日",
      "祝日"
    ],
    "openDaysNote": ""
  },
  {
    "id": "1870700034",
    "name": "デイサービスセンターうぐいすの里",
    "kana": "デイサービスセンターウグイスノサト",
    "address": "福井県鯖江市漆原町２０－８",
    "lat": 35.9385881,
    "lng": 136.1455202,
    "tel": "0778-62-2804",
    "url": "https://gogakuen.com",
    "pref": "福井県",
    "city": "鯖江市",
    "category": "day_service",
    "serviceType": "通所介護",
    "capacity": 0,
    "openDays": [
      "平日",
      "祝日"
    ],
    "openDaysNote": ""
  },
  {
    "id": "1870700174",
    "name": "デイサービスセンターなかま",
    "kana": "デイサービスセンターナカマ",
    "address": "鯖江市神明町5丁目5番37号",
    "lat": 35.9813889105585,
    "lng": 136.186115659455,
    "tel": "0778-51-1839",
    "url": "http://www.sabae-shakyo.or.jp",
    "pref": "福井県",
    "city": "鯖江市",
    "category": "day_service",
    "serviceType": "通所介護",
    "capacity": 30,
    "openDays": [
      "平日",
      "土曜日",
      "祝日"
    ],
    "openDaysNote": ""
  },
  {
    "id": "1870700471",
    "name": "デイサービスセンターわらく",
    "kana": "デイサービスセンターワラク",
    "address": "住吉町２丁目16-12",
    "lat": 35.9400444,
    "lng": 136.1804917,
    "tel": "0778-52-1117",
    "url": "",
    "pref": "福井県",
    "city": "鯖江市",
    "category": "day_service",
    "serviceType": "通所介護",
    "capacity": 50,
    "openDays": [
      "平日",
      "土曜日",
      "祝日"
    ],
    "openDaysNote": ""
  },
  {
    "id": "1870700364",
    "name": "ニチイケアセンターたちまち",
    "kana": "ニチイケアセンタータチマチ",
    "address": "吉江町303",
    "lat": 35.9851405,
    "lng": 136.1761792,
    "tel": "0778-53-0066",
    "url": "http://www.nichiigakkan.co.jp",
    "pref": "福井県",
    "city": "鯖江市",
    "category": "day_service",
    "serviceType": "通所介護",
    "capacity": 0,
    "openDays": [
      "平日",
      "土曜日",
      "祝日"
    ],
    "openDaysNote": ""
  },
  {
    "id": "1870700729",
    "name": "ほっと地域リハビリセンター鯖江",
    "kana": "ホットチイキリハビリセンターサバエ",
    "address": "鳥羽町107-70",
    "lat": 35.9880289,
    "lng": 136.1996017,
    "tel": "0778-52-7720",
    "url": "http://www.hotreha.com",
    "pref": "福井県",
    "city": "鯖江市",
    "category": "day_service",
    "serviceType": "通所介護",
    "capacity": null,
    "openDays": [
      "平日",
      "土曜日",
      "祝日"
    ],
    "openDaysNote": ""
  },
  {
    "id": "1870700596",
    "name": "株式会社　永樹",
    "kana": "カブシキカイシャ　エイジュ",
    "address": "東鯖江4丁目8-2",
    "lat": 35.9469293,
    "lng": 136.198513,
    "tel": "0778-67-8876",
    "url": "eiju.fukui.jp",
    "pref": "福井県",
    "city": "鯖江市",
    "category": "day_service",
    "serviceType": "通所介護",
    "capacity": 0,
    "openDays": [
      "平日",
      "祝日"
    ],
    "openDaysNote": ""
  },
  {
    "id": "1870700208",
    "name": "憩の里デイサービスセンター",
    "kana": "イコイノサトデイサービスセンター",
    "address": "鯖江市中野町12-8-1",
    "lat": 35.9459499,
    "lng": 136.2073106,
    "tel": "0778-51-1501",
    "url": "http://saito-hospital.org/",
    "pref": "福井県",
    "city": "鯖江市",
    "category": "day_service",
    "serviceType": "通所介護",
    "capacity": 5,
    "openDays": [
      "平日",
      "土曜日",
      "祝日"
    ],
    "openDaysNote": ""
  },
  {
    "id": "1870700042",
    "name": "社会福祉法人　鯖江市社会福祉協議会デイサービスセンター",
    "kana": "シャカイフクシホウジン　サバエシシャカイフクシキョウギカイデイサービスセンター",
    "address": "福井県鯖江市水落町2丁目30番1号アイアイ鯖江健康福祉センター アイアイ鯖江健康福祉センター",
    "lat": 35.9617386,
    "lng": 136.1878182,
    "tel": "0778-51-0091",
    "url": "http://www.sabae-shakyo.or.jp",
    "pref": "福井県",
    "city": "鯖江市",
    "category": "day_service",
    "serviceType": "通所介護",
    "capacity": 35,
    "openDays": [
      "平日",
      "土曜日",
      "祝日"
    ],
    "openDaysNote": "利用日はその都度相談に応じています。"
  },
  {
    "id": "1870700083",
    "name": "丹南デイサービスセンター",
    "kana": "タンナンデイサービスセンター",
    "address": "福井県鯖江市持明寺町１４－１４－１",
    "lat": 35.9635234,
    "lng": 136.1447693,
    "tel": "0778-62-0236",
    "url": "https://fujinosato.or.jp",
    "pref": "福井県",
    "city": "鯖江市",
    "category": "day_service",
    "serviceType": "通所介護",
    "capacity": 20,
    "openDays": [
      "平日",
      "土曜日"
    ],
    "openDaysNote": ""
  },
  {
    "id": "1872400161",
    "name": "デイサービスセンターわらく",
    "kana": "デイサービスセンターワラク",
    "address": "福井県三方上中郡若狭町有田第11号20番地の10",
    "lat": 35.4846773,
    "lng": 135.867291,
    "tel": "0770-64-1030",
    "url": "http://www.s-a-care.co.jp/",
    "pref": "福井県",
    "city": "若狭町",
    "category": "day_service",
    "serviceType": "通所介護",
    "capacity": 0,
    "openDays": [
      "平日",
      "土曜日",
      "日曜日",
      "祝日"
    ],
    "openDaysNote": ""
  },
  {
    "id": "1872400021",
    "name": "ナイスプラザ若狭",
    "kana": "ナイスプラザワカサ",
    "address": "福井県三方上中郡若狭町下タ中１１－２７－１",
    "lat": 35.4860719,
    "lng": 135.8755016,
    "tel": "0770-62-2550",
    "url": "",
    "pref": "福井県",
    "city": "若狭町",
    "category": "day_service",
    "serviceType": "通所介護",
    "capacity": null,
    "openDays": [
      "平日",
      "土曜日"
    ],
    "openDaysNote": ""
  },
  {
    "id": "1872400179",
    "name": "ニチイケアセンターわかさ",
    "kana": "ニチイケアセンターワカサ",
    "address": "三方上中郡若狭町北前川29号6-1",
    "lat": 35.54868,
    "lng": 135.9074428,
    "tel": "0770-45-3305",
    "url": "http://www.nichiigakkan.co.jp/",
    "pref": "福井県",
    "city": "若狭町",
    "category": "day_service",
    "serviceType": "通所介護",
    "capacity": 0,
    "openDays": [
      "平日",
      "土曜日",
      "祝日"
    ],
    "openDaysNote": "ただし、居宅サービス計画により、休業日及び営業時間外であってもサービスを提供する場合がある。"
  },
  {
    "id": "1872400294",
    "name": "リリ・オキュペ",
    "kana": "リリ・オキュペ",
    "address": "福井県三方上中郡若狭町井崎47-2-1",
    "lat": 35.5129834,
    "lng": 135.8992801,
    "tel": "0770-45-3311",
    "url": "https://rerephysio.com/",
    "pref": "福井県",
    "city": "若狭町",
    "category": "day_service",
    "serviceType": "通所介護",
    "capacity": 0,
    "openDays": [
      "平日",
      "土曜日",
      "祝日"
    ],
    "openDaysNote": ""
  },
  {
    "id": "1872400047",
    "name": "松寿苑デイサービスあ・うん",
    "kana": "ショウジュエンデイサービスア・ウン",
    "address": "福井県三方上中郡若狭町井ノ口32-6-1",
    "lat": 35.4642958583981,
    "lng": 135.854046672949,
    "tel": "0770-62-0100",
    "url": "http://shojukai.jp/",
    "pref": "福井県",
    "city": "若狭町",
    "category": "day_service",
    "serviceType": "通所介護",
    "capacity": 0,
    "openDays": [
      "平日",
      "土曜日",
      "祝日"
    ],
    "openDaysNote": "年末年始12月31日から翌年1月3日までは休業"
  },
  {
    "id": "1870600127",
    "name": "さくら荘デイサービスセンター",
    "kana": "サクラソウデイサービスセンター",
    "address": "福井県勝山市芳野町２丁目１－１１さくら荘在宅サービス支援センター　さくらんぼ さくら荘在宅サービス支援センター　さくらんぼ",
    "lat": 36.066972,
    "lng": 136.4992673,
    "tel": "0779-88-6500",
    "url": "http://k-sakurasou.jp",
    "pref": "福井県",
    "city": "勝山市",
    "category": "day_service",
    "serviceType": "通所介護",
    "capacity": 0,
    "openDays": [
      "平日",
      "土曜日",
      "祝日"
    ],
    "openDaysNote": ""
  },
  {
    "id": "1870600010",
    "name": "さつき苑　デイサービスセンター",
    "kana": "サツキエンデイサービスセンター",
    "address": "福井県勝山市片瀬第15号22番地",
    "lat": 36.0487165,
    "lng": 136.5215714,
    "tel": "0779-87-7711",
    "url": "http://www.satsuki.or.jp/",
    "pref": "福井県",
    "city": "勝山市",
    "category": "day_service",
    "serviceType": "通所介護",
    "capacity": 0,
    "openDays": [
      "平日",
      "祝日"
    ],
    "openDaysNote": ""
  },
  {
    "id": "1870600143",
    "name": "デイサービスセンターえがお",
    "kana": "デイサービスセンターエガオ",
    "address": "福井県勝山市荒土町新保6－103番地",
    "lat": 36.0751235,
    "lng": 136.4788633,
    "tel": "0779-64-5366",
    "url": "",
    "pref": "福井県",
    "city": "勝山市",
    "category": "day_service",
    "serviceType": "通所介護",
    "capacity": 0,
    "openDays": [
      "平日",
      "土曜日",
      "祝日"
    ],
    "openDaysNote": "年末年始（12月31日～1月3日）"
  },
  {
    "id": "1870600101",
    "name": "デイサービスセンターわかば",
    "kana": "デイサービスセンターワカバ",
    "address": "福井県勝山市昭和町１丁目１番２８号",
    "lat": 36.0629615,
    "lng": 136.5035393,
    "tel": "0779-87-6550",
    "url": "",
    "pref": "福井県",
    "city": "勝山市",
    "category": "day_service",
    "serviceType": "通所介護",
    "capacity": 0,
    "openDays": [
      "平日",
      "土曜日",
      "祝日"
    ],
    "openDaysNote": "年末年始　１２月３１日　１月１日　１月２日　１月３日　（４日定休日）"
  },
  {
    "id": "1870600044",
    "name": "ディサービスセンター九頭竜",
    "kana": "ディサービスセンタークズリュウ",
    "address": "福井県勝山市旭町3丁目107番２",
    "lat": 36.0496376521458,
    "lng": 136.514265605621,
    "tel": "0779-87-6306",
    "url": "https://kuzuryuworkshop.com/",
    "pref": "福井県",
    "city": "勝山市",
    "category": "day_service",
    "serviceType": "通所介護",
    "capacity": 30,
    "openDays": [
      "平日",
      "祝日"
    ],
    "openDaysNote": "事業所が特別に定める日について休日となる場合がありますので、その際はご連絡いたします。"
  },
  {
    "id": "1870600085",
    "name": "ひなたぼっこデイサービスセンター",
    "kana": "ヒナタボッコデイサービスセンター",
    "address": "福井県勝山市鹿谷町西光寺25字-9-1",
    "lat": 36.0576169,
    "lng": 136.462732,
    "tel": "0779-89-3281",
    "url": "",
    "pref": "福井県",
    "city": "勝山市",
    "category": "day_service",
    "serviceType": "通所介護",
    "capacity": 20,
    "openDays": [
      "平日",
      "土曜日",
      "祝日"
    ],
    "openDaysNote": "年末年始休業については変更がある場合には事前にご連絡致します。"
  },
  {
    "id": "1870400239",
    "name": "JA福井県デイサービスセンターみのり",
    "kana": "ジェイエイフクイケンデイサービスセンターミノリ",
    "address": "小浜市遠敷8-1-1",
    "lat": 35.4899194,
    "lng": 135.776764,
    "tel": "0770-56-3948",
    "url": "",
    "pref": "福井県",
    "city": "小浜市",
    "category": "day_service",
    "serviceType": "通所介護",
    "capacity": 0,
    "openDays": [
      "平日"
    ],
    "openDaysNote": "年末年始一部休業"
  },
  {
    "id": "1870400288",
    "name": "デイサービス　あお空",
    "kana": "デイサービス　アオゾラ",
    "address": "福井県小浜市遠敷10丁目601番地1",
    "lat": 35.4852366,
    "lng": 135.7749392,
    "tel": "0770-56-5525",
    "url": "",
    "pref": "福井県",
    "city": "小浜市",
    "category": "day_service",
    "serviceType": "通所介護",
    "capacity": 0,
    "openDays": [
      "平日",
      "土曜日"
    ],
    "openDaysNote": "年末年始休暇（１２月３１日から翌年１月３日までを基本とする）"
  },
  {
    "id": "1870400429",
    "name": "デイサービスあゆみ",
    "kana": "デイサービスアユミ",
    "address": "福井県小浜市大手町８番３３号",
    "lat": 35.497279,
    "lng": 135.7462356,
    "tel": "0770-53-5070",
    "url": "http://www.ayumi-ote.com",
    "pref": "福井県",
    "city": "小浜市",
    "category": "day_service",
    "serviceType": "通所介護",
    "capacity": 22,
    "openDays": [
      "平日",
      "土曜日",
      "祝日"
    ],
    "openDaysNote": ""
  },
  {
    "id": "1870400155",
    "name": "デイサービスセンター　もみじの里",
    "kana": "デイサービスセンター　モミジノサト",
    "address": "福井県小浜市東勢11号3番",
    "lat": 35.482683,
    "lng": 135.7204101,
    "tel": "0770-52-0084",
    "url": "http://www.momijist.jp/",
    "pref": "福井県",
    "city": "小浜市",
    "category": "day_service",
    "serviceType": "通所介護",
    "capacity": null,
    "openDays": [
      "平日",
      "土曜日",
      "日曜日",
      "祝日"
    ],
    "openDaysNote": ""
  },
  {
    "id": "1870400098",
    "name": "ニチイケアセンター小浜",
    "kana": "ニチイケアセンターオバマ",
    "address": "小浜市南川町11-35",
    "lat": 35.4920769,
    "lng": 135.7555237,
    "tel": "0770-53-2623",
    "url": "http://www.nichiigakkan.co.jp",
    "pref": "福井県",
    "city": "小浜市",
    "category": "day_service",
    "serviceType": "通所介護",
    "capacity": 0,
    "openDays": [
      "平日",
      "土曜日",
      "祝日"
    ],
    "openDaysNote": ""
  },
  {
    "id": "1860490042",
    "name": "リリ・フィジオ",
    "kana": "リリ・フィジオ",
    "address": "福井県小浜市遠敷7丁目301AYATTO内 AYATTO内",
    "lat": 35.4851732501259,
    "lng": 135.775907713847,
    "tel": "0770-53-3302",
    "url": "http://rerephysio-sanaikai.jp",
    "pref": "福井県",
    "city": "小浜市",
    "category": "day_service",
    "serviceType": "通所介護",
    "capacity": 0,
    "openDays": [
      "平日",
      "土曜日",
      "祝日"
    ],
    "openDaysNote": ""
  },
  {
    "id": "1870400189",
    "name": "株式会社ライフサ－ビスデイサ－ビスセンタ－たぶの木",
    "kana": "カブシキガイシャライフサービスデイサービスセンタータブノキ",
    "address": "小浜市山王前一丁目６－１０",
    "lat": 35.5113443,
    "lng": 135.7536433,
    "tel": "0770-53-0262",
    "url": "https://www.life-kaigo.jp/",
    "pref": "福井県",
    "city": "小浜市",
    "category": "day_service",
    "serviceType": "通所介護",
    "capacity": 30,
    "openDays": [
      "平日",
      "祝日"
    ],
    "openDaysNote": "年末年始の休業日が長い場合は、営業する場合もあります。（改行）（例）令和６年度　12/30営業"
  },
  {
    "id": "1870400049",
    "name": "若狭ハイツデイサービスセンター",
    "kana": "ワカサハイツデイサービスセンター",
    "address": "小浜市阿納尻第５９号９番地の１",
    "lat": 35.5295762,
    "lng": 135.7628649,
    "tel": "0770-53-2940",
    "url": "http://www.wakasa-fukushikai.com",
    "pref": "福井県",
    "city": "小浜市",
    "category": "day_service",
    "serviceType": "通所介護",
    "capacity": null,
    "openDays": [
      "平日",
      "祝日"
    ],
    "openDaysNote": ""
  },
  {
    "id": "1870400015",
    "name": "小浜市デイサービスセンター",
    "kana": "オバマシデイサービスセンター",
    "address": "福井県小浜市遠敷84-3-4サン・サンホーム小浜 サン・サンホーム小浜",
    "lat": 35.4849674,
    "lng": 135.7813388,
    "tel": "0770-56-5803",
    "url": "http://www.obama-shakyo.or.jp/",
    "pref": "福井県",
    "city": "小浜市",
    "category": "day_service",
    "serviceType": "通所介護",
    "capacity": 0,
    "openDays": [
      "平日",
      "土曜日"
    ],
    "openDaysNote": ""
  },
  {
    "id": "1870500145",
    "name": "デイサービスさくらの家",
    "kana": "デイサービスサクラノイエ",
    "address": "福井県大野市中津川32-33",
    "lat": 36.0004586,
    "lng": 136.4986986,
    "tel": "0779-69-7090",
    "url": "http://www.koseikaigroup.jp/hospital/",
    "pref": "福井県",
    "city": "大野市",
    "category": "day_service",
    "serviceType": "通所介護",
    "capacity": null,
    "openDays": [
      "平日",
      "土曜日",
      "祝日"
    ],
    "openDaysNote": ""
  },
  {
    "id": "1870500335",
    "name": "デイサービス施設「パワーリハビリふぁいと」",
    "kana": "デイサービスシセツ　パワーリハビリファイト",
    "address": "福井県大野市桜塚町905番地",
    "lat": 35.9704882,
    "lng": 136.5017538,
    "tel": "0779-66-6435",
    "url": "http://www.takeipowergym.com/about_gym.html",
    "pref": "福井県",
    "city": "大野市",
    "category": "day_service",
    "serviceType": "通所介護",
    "capacity": 20,
    "openDays": [
      "平日",
      "土曜日",
      "祝日"
    ],
    "openDaysNote": ""
  },
  {
    "id": "1870500392",
    "name": "ほっと地域リハビリセンター大野",
    "kana": "ホットチイキリハビリセンターオオノ",
    "address": "福井県大野市月美町1005",
    "lat": 35.9872006294208,
    "lng": 136.50019676454,
    "tel": "0779-65-0001",
    "url": "http://www.hotreha.com",
    "pref": "福井県",
    "city": "大野市",
    "category": "day_service",
    "serviceType": "通所介護",
    "capacity": null,
    "openDays": [
      "平日",
      "土曜日",
      "祝日"
    ],
    "openDaysNote": ""
  },
  {
    "id": "1870500012",
    "name": "一乗ハイツデイサービスセンター",
    "kana": "イチジョウハイツデイサービスセンター",
    "address": "大野市牛ヶ原154-1-1",
    "lat": 35.9937401,
    "lng": 136.4659465,
    "tel": "0779-65-5719",
    "url": "",
    "pref": "福井県",
    "city": "大野市",
    "category": "day_service",
    "serviceType": "通所介護",
    "capacity": 30,
    "openDays": [
      "平日",
      "祝日"
    ],
    "openDaysNote": ""
  },
  {
    "id": "1870500020",
    "name": "聖和園デイサービスセンター",
    "kana": "セイワエンデイサービスセンター",
    "address": "大野市蕨生158-35",
    "lat": 35.9819682,
    "lng": 136.5469602,
    "tel": "0779-66-3308",
    "url": "http://www.saiseikai-seiwaen.jp/",
    "pref": "福井県",
    "city": "大野市",
    "category": "day_service",
    "serviceType": "通所介護",
    "capacity": 0,
    "openDays": [
      "平日",
      "土曜日",
      "祝日"
    ],
    "openDaysNote": "なし"
  },
  {
    "id": "1870500061",
    "name": "大野市社会福祉協議会天神デイサービスセンター",
    "kana": "オオノシシャカイフクシキョウギカイテンジンデイサービスセンター",
    "address": "大野市天神町7番15号",
    "lat": 35.9779839,
    "lng": 136.4884942,
    "tel": "0779-65-8774",
    "url": "http://ono-shakyo.jp/",
    "pref": "福井県",
    "city": "大野市",
    "category": "day_service",
    "serviceType": "通所介護",
    "capacity": 0,
    "openDays": [
      "平日",
      "土曜日",
      "祝日"
    ],
    "openDaysNote": "なし"
  },
  {
    "id": "1870500038",
    "name": "大野和光園デイサービスセンター",
    "kana": "オオノワコウエンデイサービスセンター",
    "address": "福井県大野市篠座７９号１１番地",
    "lat": 35.9647917,
    "lng": 136.5008511,
    "tel": "0779-66-2551",
    "url": "www.ono-wakouen.jp",
    "pref": "福井県",
    "city": "大野市",
    "category": "day_service",
    "serviceType": "通所介護",
    "capacity": null,
    "openDays": [
      "平日",
      "土曜日",
      "日曜日",
      "祝日"
    ],
    "openDaysNote": ""
  },
  {
    "id": "1860590072",
    "name": "通所介護施設わかくさ",
    "kana": "ツウショカイゴシセツワカクサ",
    "address": "福井県大野市月美町8-3",
    "lat": 35.9848171,
    "lng": 136.500435,
    "tel": "0779-65-1321",
    "url": "https://rehaspot.com/",
    "pref": "福井県",
    "city": "大野市",
    "category": "day_service",
    "serviceType": "通所介護",
    "capacity": null,
    "openDays": [
      "平日",
      "土曜日",
      "祝日"
    ],
    "openDaysNote": "利用時間は午前8：30～12：00.午後13：30～17：00の2部制が中心です。1日ご利用の方は全体の利用者のうち5名です、その他の方は半日利用になっています。"
  },
  {
    "id": "1870500194",
    "name": "福井県農業協同デイサービスセンターテラルのほほえみ（令和2年4月1日　吸収合併）",
    "kana": "フクイケンノウギョウキョウドウクミアイデイサービスセンターテラルノホホエミ",
    "address": "大野市中挾１丁目１４01",
    "lat": 35.985826504983,
    "lng": 136.504374857672,
    "tel": "0779-65-6111",
    "url": "http://www.jaterral.com/",
    "pref": "福井県",
    "city": "大野市",
    "category": "day_service",
    "serviceType": "通所介護",
    "capacity": 0,
    "openDays": [
      "平日",
      "土曜日",
      "祝日"
    ],
    "openDaysNote": ""
  },
  {
    "id": "1871800122",
    "name": "ほっとプラザデイサービスセンター",
    "kana": "ホットプラザデイサービスセンター",
    "address": "福井県今立郡池田町薮田第５号３番地の１総合保健福祉センター　　ほっとプラザ 総合保健福祉センター　　ほっとプラザ",
    "lat": 35.8957354,
    "lng": 136.3457067,
    "tel": "0778-44-8020",
    "url": "http://www.shakyo.or.jp/hp/827/",
    "pref": "福井県",
    "city": "池田町",
    "category": "day_service",
    "serviceType": "通所介護",
    "capacity": 0,
    "openDays": [
      "平日",
      "土曜日",
      "日曜日",
      "祝日"
    ],
    "openDaysNote": "但し、１２月２９日から翌年の１月３日までは休業"
  },
  {
    "id": "1870200084",
    "name": "エメラルドハウスデイサービスセンター",
    "kana": "エメラルドハウスデイサービスセンター",
    "address": "福井県敦賀市中81号岩ケ鼻1番1",
    "lat": 35.645898,
    "lng": 136.0885452,
    "tel": "0770-21-6500",
    "url": "http://emerald-house.or.jp",
    "pref": "福井県",
    "city": "敦賀市",
    "category": "day_service",
    "serviceType": "通所介護",
    "capacity": 20,
    "openDays": [
      "平日"
    ],
    "openDaysNote": ""
  },
  {
    "id": "1870200399",
    "name": "かくだデイサービスセンター「さくら」",
    "kana": "カクダデイサービスセンター「サクラ」",
    "address": "敦賀市中央町２－１０－３４",
    "lat": 35.6457081,
    "lng": 136.0539715,
    "tel": "0770-25-0055",
    "url": "https://kakuda4141.co.jp/",
    "pref": "福井県",
    "city": "敦賀市",
    "category": "day_service",
    "serviceType": "通所介護",
    "capacity": 30,
    "openDays": [
      "平日",
      "土曜日",
      "祝日"
    ],
    "openDaysNote": "時間外延長サービス可能"
  },
  {
    "id": "1870200241",
    "name": "つるが生協デイサービスてくてく",
    "kana": "ツルガセイキョウデイサービステクテク",
    "address": "敦賀市公文名1-6",
    "lat": 35.623019,
    "lng": 136.0601572,
    "tel": "0770-21-6111",
    "url": "http://www.fukui-min-iren.com/iryouseikyou/",
    "pref": "福井県",
    "city": "敦賀市",
    "category": "day_service",
    "serviceType": "通所介護",
    "capacity": 0,
    "openDays": [
      "平日",
      "土曜日",
      "日曜日",
      "祝日"
    ],
    "openDaysNote": ""
  },
  {
    "id": "1870200498",
    "name": "デイサービスこばやし",
    "kana": "デイサービスコバヤシ",
    "address": "福井県敦賀市ひばりケ丘町1108番",
    "lat": 35.6231946956635,
    "lng": 136.041035329129,
    "tel": "0770-25-8008",
    "url": "http://care-koba.com/day/",
    "pref": "福井県",
    "city": "敦賀市",
    "category": "day_service",
    "serviceType": "通所介護",
    "capacity": 0,
    "openDays": [
      "平日",
      "土曜日",
      "日曜日",
      "祝日"
    ],
    "openDaysNote": ""
  },
  {
    "id": "1870200712",
    "name": "デイサービスセンター幸",
    "kana": "デイサービスセンターサチ",
    "address": "平和町1-23",
    "lat": 34.9099808,
    "lng": 136.9041151,
    "tel": "0770-25-3100",
    "url": "http://fukushika.com/",
    "pref": "福井県",
    "city": "敦賀市",
    "category": "day_service",
    "serviceType": "通所介護",
    "capacity": 0,
    "openDays": [
      "平日",
      "土曜日",
      "祝日"
    ],
    "openDaysNote": ""
  },
  {
    "id": "1870200308",
    "name": "ほっと地域リハビリセンター敦賀",
    "kana": "ホットチイキリハビリセンターツルガ",
    "address": "福井県敦賀市沓見141-2-1",
    "lat": 35.6441114715221,
    "lng": 136.032163053113,
    "tel": "0770-37-1000",
    "url": "http://www.hotreha.com",
    "pref": "福井県",
    "city": "敦賀市",
    "category": "day_service",
    "serviceType": "通所介護",
    "capacity": 0,
    "openDays": [
      "平日",
      "土曜日",
      "祝日"
    ],
    "openDaysNote": ""
  },
  {
    "id": "1870200415",
    "name": "リハビリ特化型デイサービスR-style",
    "kana": "リハビリトッカガタデイサービスアールスタイル",
    "address": "敦賀市白銀町10-15",
    "lat": 35.6474391,
    "lng": 136.0725137,
    "tel": "0770-22-2282",
    "url": "http://rehaplus.co.jp/",
    "pref": "福井県",
    "city": "敦賀市",
    "category": "day_service",
    "serviceType": "通所介護",
    "capacity": 50,
    "openDays": [
      "平日",
      "土曜日"
    ],
    "openDaysNote": "サービス提供時間は9:00-12:00（15名）と13:30-16:30（15名）"
  },
  {
    "id": "1870200019",
    "name": "渓山荘デイサービスセンター",
    "kana": "ケイザンソウデイサービスセンター",
    "address": "福井県敦賀市中８１－１－５",
    "lat": 35.6389014,
    "lng": 136.0878538,
    "tel": "0770-24-2780",
    "url": "http://www.keizansou.or.jp",
    "pref": "福井県",
    "city": "敦賀市",
    "category": "day_service",
    "serviceType": "通所介護",
    "capacity": 40,
    "openDays": [
      "平日",
      "土曜日"
    ],
    "openDaysNote": "土曜日（第2土曜日を除く）・日曜日・祝日休み"
  },
  {
    "id": "1870200316",
    "name": "第２渓山荘ぽっぽ　デイサービスセンター",
    "kana": "ダイニケイザンソウポッポ　デイサービスセンター",
    "address": "福井県敦賀市鉄輪町1丁目2番57",
    "lat": 35.6431534324305,
    "lng": 136.073968011486,
    "tel": "0770-21-1616",
    "url": "https://kjinkai.jp/facility/poppo/",
    "pref": "福井県",
    "city": "敦賀市",
    "category": "day_service",
    "serviceType": "通所介護",
    "capacity": 0,
    "openDays": [
      "平日",
      "土曜日"
    ],
    "openDaysNote": "毎月第３土曜日は営業"
  },
  {
    "id": "1870200589",
    "name": "第３渓山荘あおぞらデイサービスセンター",
    "kana": "ダイサンケイザンソウアオゾラデイサービスセンター",
    "address": "福井県敦賀市松島町２丁目６番３５号",
    "lat": 35.6518883,
    "lng": 136.0592874,
    "tel": "0770-22-8572",
    "url": "https://kjinkai.jp/",
    "pref": "福井県",
    "city": "敦賀市",
    "category": "day_service",
    "serviceType": "通所介護",
    "capacity": 0,
    "openDays": [
      "平日",
      "土曜日"
    ],
    "openDaysNote": ""
  },
  {
    "id": "1870200159",
    "name": "敦賀ケアセンタ－かくだ",
    "kana": "ツルガケアセンタ-カクダ",
    "address": "福井県敦賀市昭和町二丁目20番地16",
    "lat": 35.6396644,
    "lng": 136.0586489,
    "tel": "0770-25-4141",
    "url": "https://kakuda4141.co.jp",
    "pref": "福井県",
    "city": "敦賀市",
    "category": "day_service",
    "serviceType": "通所介護",
    "capacity": 25,
    "openDays": [
      "平日",
      "土曜日",
      "日曜日",
      "祝日"
    ],
    "openDaysNote": ""
  },
  {
    "id": "1870200027",
    "name": "敦賀市社会福祉協議会地域リハビリセンター「あいあい」",
    "kana": "ツルガシシャカイフクシキョウギカイチイキリハビリセンター「アイアイ」",
    "address": "敦賀市東洋町４番1号敦賀市福祉総合センター「あいあいプラザ」内 敦賀市福祉総合センター「あいあいプラザ」内",
    "lat": 35.643824463997,
    "lng": 136.069427034671,
    "tel": "0770-22-2250",
    "url": "http://tsurugashishakyo.ec-net.jp/",
    "pref": "福井県",
    "city": "敦賀市",
    "category": "day_service",
    "serviceType": "通所介護",
    "capacity": 0,
    "openDays": [
      "平日",
      "日曜日",
      "祝日"
    ],
    "openDaysNote": ""
  },
  {
    "id": "1870200209",
    "name": "敦賀市社会福祉協議会地域リハビリセンター「ぬくもりの里」",
    "kana": "ツルガシシャカイフクシキョウギカイチイキリハビリセンター「ヌクモリノサト」",
    "address": "敦賀市御名７０号１１番地２",
    "lat": 35.6088234,
    "lng": 136.0479114,
    "tel": "0770-20-1777",
    "url": "http://tsurugashishakyo.ec-net.jp/",
    "pref": "福井県",
    "city": "敦賀市",
    "category": "day_service",
    "serviceType": "通所介護",
    "capacity": 0,
    "openDays": [
      "平日",
      "土曜日",
      "祝日"
    ],
    "openDaysNote": ""
  },
  {
    "id": "1871900120",
    "name": "デイサービス　神久ファミリー",
    "kana": "デイサービス　カミキュウファミリー",
    "address": "福井県南条郡南越前町今庄115-3-3",
    "lat": 35.7660975384026,
    "lng": 136.201679201852,
    "tel": "0778-45-0153",
    "url": "https://r.goope.jp/kamikyu",
    "pref": "福井県",
    "city": "南越前町",
    "category": "day_service",
    "serviceType": "通所介護",
    "capacity": 30,
    "openDays": [
      "平日",
      "祝日"
    ],
    "openDaysNote": "なし"
  },
  {
    "id": "1872100118",
    "name": "ダブルアール　生活リハビリセンター",
    "kana": "ダブルアール　セイカツリハビリセンター",
    "address": "大藪９－２",
    "lat": 35.592011564272,
    "lng": 135.916657625795,
    "tel": "0770-32-1720",
    "url": "http://www.rehaplus.co.jp",
    "pref": "福井県",
    "city": "美浜町",
    "category": "day_service",
    "serviceType": "通所介護",
    "capacity": 0,
    "openDays": [
      "平日",
      "土曜日"
    ],
    "openDaysNote": ""
  },
  {
    "id": "1872100027",
    "name": "美浜町デイサービスセンター",
    "kana": "ミハマチョウデイサービスセンター",
    "address": "福井県三方郡美浜町山上1-11-1",
    "lat": 35.6273573,
    "lng": 135.9827001,
    "tel": "0770-37-2294",
    "url": "http://www.mihamachoshakyo.com",
    "pref": "福井県",
    "city": "美浜町",
    "category": "day_service",
    "serviceType": "通所介護",
    "capacity": 0,
    "openDays": [
      "平日",
      "祝日"
    ],
    "openDaysNote": ""
  },
  {
    "id": "1870101704",
    "name": "HOME　TOWN　コスモス老人デイサービス事業所",
    "kana": "ホーム　タウン　コスモスロウジンデイサービスジギョウショ",
    "address": "福井県福井市帆谷町１字外山３３",
    "lat": 36.0075305717752,
    "lng": 136.235892012581,
    "tel": "0776-38-1159",
    "url": "http://www.ht-cosmos.or.jp",
    "pref": "福井県",
    "city": "福井市",
    "category": "day_service",
    "serviceType": "通所介護",
    "capacity": null,
    "openDays": [
      "平日",
      "土曜日",
      "祝日"
    ],
    "openDaysNote": "上記営業時間内のうち、７時間が基本的な利用時間になります。（改行）そのほか、７時間未満の短時間利用や、９時間以上の長時間利用の対応もいたしますので、お気軽にご相談ください。"
  },
  {
    "id": "1870100987",
    "name": "JA福井県デイサービスセンター　わかば",
    "kana": "ジョエイエイフクイケンデイサービスセンター　ワカバ",
    "address": "福井県福井市渕4丁目606番地",
    "lat": 36.0464855,
    "lng": 136.1856642,
    "tel": "0776-33-1165",
    "url": "https://www.ja-fukuiken.or.jp",
    "pref": "福井県",
    "city": "福井市",
    "category": "day_service",
    "serviceType": "通所介護",
    "capacity": 0,
    "openDays": [
      "平日",
      "土曜日",
      "祝日"
    ],
    "openDaysNote": ""
  },
  {
    "id": "1870101845",
    "name": "あさがおリハビリサポートセンター",
    "kana": "アサガオリハビリサポートセンター",
    "address": "福井市新保町19字35番1",
    "lat": 36.0851414,
    "lng": 136.2588132,
    "tel": "0776-52-6300",
    "url": "http://fukui-medix.com/",
    "pref": "福井県",
    "city": "福井市",
    "category": "day_service",
    "serviceType": "通所介護",
    "capacity": 60,
    "openDays": [
      "平日",
      "土曜日",
      "祝日"
    ],
    "openDaysNote": ""
  },
  {
    "id": "1870101209",
    "name": "あさくら苑デイサービスセンター",
    "kana": "アサクラエンデイサービスセンター",
    "address": "福井市下六条町１８字３２番",
    "lat": 36.0351768,
    "lng": 136.2293781,
    "tel": "0776-41-8402",
    "url": "http://www.asakuraen.jp",
    "pref": "福井県",
    "city": "福井市",
    "category": "day_service",
    "serviceType": "通所介護",
    "capacity": 0,
    "openDays": [
      "平日",
      "土曜日",
      "祝日"
    ],
    "openDaysNote": ""
  },
  {
    "id": "1870100227",
    "name": "あさむつ苑　ディサービスセンター",
    "kana": "アサムツ苑　デイサービスセンター",
    "address": "福井市引目町第21号9番地の2",
    "lat": 36.022397,
    "lng": 136.1974224,
    "tel": "0776-38-9282",
    "url": "http://www.asamutuen.jp/",
    "pref": "福井県",
    "city": "福井市",
    "category": "day_service",
    "serviceType": "通所介護",
    "capacity": 35,
    "openDays": [
      "平日",
      "土曜日",
      "祝日"
    ],
    "openDaysNote": "サービス提供日において時間延長対応あり"
  },
  {
    "id": "1870100177",
    "name": "アスプラふじしまデイサービスセンター",
    "kana": "アスプラフジシマデイサービスセンター",
    "address": "福井市高木中央３－１７０1",
    "lat": 36.092005917551,
    "lng": 136.239788688361,
    "tel": "0776-52-1166",
    "url": "http://www.fujishimaen.or.jp/",
    "pref": "福井県",
    "city": "福井市",
    "category": "day_service",
    "serviceType": "通所介護",
    "capacity": 47,
    "openDays": [
      "平日",
      "土曜日",
      "祝日"
    ],
    "openDaysNote": ""
  },
  {
    "id": "1870101936",
    "name": "あすわリハビリサポートセンター",
    "kana": "アスワリハビリサポートセンター",
    "address": "福井市足羽4丁目4番12号",
    "lat": 36.0569233,
    "lng": 136.2004516,
    "tel": "0776-35-9876",
    "url": "http://fukui-medix.com/",
    "pref": "福井県",
    "city": "福井市",
    "category": "day_service",
    "serviceType": "通所介護",
    "capacity": null,
    "openDays": [
      "平日",
      "土曜日",
      "祝日"
    ],
    "openDaysNote": ""
  },
  {
    "id": "1870103478",
    "name": "あたごデイサービス",
    "kana": "アタゴデイサービス",
    "address": "福井県福井市明里町９番２０号",
    "lat": 36.0600771078238,
    "lng": 136.197495928836,
    "tel": "0776-33-6808",
    "url": "",
    "pref": "福井県",
    "city": "福井市",
    "category": "day_service",
    "serviceType": "通所介護",
    "capacity": 0,
    "openDays": [
      "平日",
      "土曜日"
    ],
    "openDaysNote": ""
  },
  {
    "id": "1870103999",
    "name": "アルク",
    "kana": "アルク",
    "address": "福井市宝永4-3-1サクラNビル サクラNビル",
    "lat": 36.0670944,
    "lng": 136.2189026,
    "tel": "776222208",
    "url": "https://alcsport.com/",
    "pref": "福井県",
    "city": "福井市",
    "category": "day_service",
    "serviceType": "通所介護",
    "capacity": null,
    "openDays": [
      "平日",
      "土曜日",
      "祝日"
    ],
    "openDaysNote": "年末年始、GW、夏季休暇あり"
  },
  {
    "id": "1870101399",
    "name": "いちごデイセンターみのり",
    "kana": "イチゴデイセンターミノリ",
    "address": "福井県福井市月見4丁目3-29",
    "lat": 36.0480384,
    "lng": 136.2035932,
    "tel": "0776-33-1541",
    "url": "http://www.kenkoukai.or.jp/",
    "pref": "福井県",
    "city": "福井市",
    "category": "day_service",
    "serviceType": "通所介護",
    "capacity": 50,
    "openDays": [
      "平日",
      "土曜日",
      "祝日"
    ],
    "openDaysNote": "12月31日、1月1日、1月2日は休みになります。"
  },
  {
    "id": "1870101159",
    "name": "いちごデイセンター福井",
    "kana": "イチゴデイセンターフクイ",
    "address": "福井市米松１丁目14-15",
    "lat": 36.0670981,
    "lng": 136.2410395,
    "tel": "0776-54-7616",
    "url": "http://www.kenkoukai.or.jp/",
    "pref": "福井県",
    "city": "福井市",
    "category": "day_service",
    "serviceType": "通所介護",
    "capacity": 50,
    "openDays": [
      "平日",
      "土曜日",
      "祝日"
    ],
    "openDaysNote": "12月31日、1月1日、2日はお休みを頂いております。"
  },
  {
    "id": "1870102546",
    "name": "いなほリハビリサポートセンター",
    "kana": "イナホリハビリサポートセンター",
    "address": "福井市江端町20字20-24",
    "lat": 36.0258803952551,
    "lng": 136.212410561083,
    "tel": "0776-38-2202",
    "url": "http://fukui-medix.com/",
    "pref": "福井県",
    "city": "福井市",
    "category": "day_service",
    "serviceType": "通所介護",
    "capacity": 0,
    "openDays": [
      "平日",
      "土曜日",
      "祝日"
    ],
    "openDaysNote": ""
  },
  {
    "id": "1870101878",
    "name": "うららデイサービス",
    "kana": "ウララデイサービス",
    "address": "福井県福井市木田１丁目3308番地",
    "lat": 36.0470307,
    "lng": 136.2266387,
    "tel": "0776-33-2555",
    "url": "http://www.hikarigroup.jp",
    "pref": "福井県",
    "city": "福井市",
    "category": "day_service",
    "serviceType": "通所介護",
    "capacity": 25,
    "openDays": [
      "平日",
      "土曜日",
      "祝日"
    ],
    "openDaysNote": ""
  },
  {
    "id": "1870102371",
    "name": "くるみの森　福町",
    "kana": "クルミノモリフクマチ",
    "address": "福井市福新町509",
    "lat": 36.0483575,
    "lng": 136.1856059,
    "tel": "0776-97-5669",
    "url": "",
    "pref": "福井県",
    "city": "福井市",
    "category": "day_service",
    "serviceType": "通所介護",
    "capacity": 10,
    "openDays": [
      "平日",
      "土曜日",
      "日曜日",
      "祝日"
    ],
    "openDaysNote": ""
  },
  {
    "id": "1870100185",
    "name": "さくらが丘デイサ－ビスセンタ－",
    "kana": "サクラガオカデイサ－ビスセンタ－",
    "address": "福井県福井市本堂町５１字３３番地",
    "lat": 36.0564834,
    "lng": 136.1266844,
    "tel": "0776-37-0990",
    "url": "http://www.takaoen.jp/",
    "pref": "福井県",
    "city": "福井市",
    "category": "day_service",
    "serviceType": "通所介護",
    "capacity": 0,
    "openDays": [
      "平日",
      "土曜日",
      "祝日"
    ],
    "openDaysNote": ""
  },
  {
    "id": "1870102405",
    "name": "サンサン・ケアホームえばた",
    "kana": "サンサン・ケアホームエバタ",
    "address": "福井県福井市江端町６－１４－２",
    "lat": 36.0299439,
    "lng": 136.2160097,
    "tel": "0776-33-3363",
    "url": "",
    "pref": "福井県",
    "city": "福井市",
    "category": "day_service",
    "serviceType": "通所介護",
    "capacity": 20,
    "openDays": [
      "平日",
      "土曜日",
      "祝日"
    ],
    "openDaysNote": "年末年始については営業日及び営業時間の変更あり"
  },
  {
    "id": "1870101597",
    "name": "すみれ荘デイサービスセンター",
    "kana": "スミレソウデイサービスセンター",
    "address": "福井県福井市島寺町第83号1番地",
    "lat": 36.0174078,
    "lng": 136.1423865,
    "tel": "0776-98-5578",
    "url": "www.s-shinseikai.jp",
    "pref": "福井県",
    "city": "福井市",
    "category": "day_service",
    "serviceType": "通所介護",
    "capacity": 0,
    "openDays": [
      "平日",
      "土曜日",
      "祝日"
    ],
    "openDaysNote": ""
  },
  {
    "id": "1870100045",
    "name": "たんぽぽ苑デイサービスセンター",
    "kana": "タンポポエンデイサービスセンター",
    "address": "福井市石盛3丁目301番地",
    "lat": 36.1185606056332,
    "lng": 136.236726011602,
    "tel": "0776-56-3362",
    "url": "https://www.tanpopoen-senjukai.com",
    "pref": "福井県",
    "city": "福井市",
    "category": "day_service",
    "serviceType": "通所介護",
    "capacity": 0,
    "openDays": [
      "平日",
      "土曜日",
      "祝日"
    ],
    "openDaysNote": ""
  },
  {
    "id": "1870104120",
    "name": "ちいさなチカラ",
    "kana": "チイサナチカラ",
    "address": "福井県福井市丸山1丁目801",
    "lat": 36.07415,
    "lng": 136.2442875,
    "tel": "0776-43-6860",
    "url": "",
    "pref": "福井県",
    "city": "福井市",
    "category": "day_service",
    "serviceType": "通所介護",
    "capacity": null,
    "openDays": [
      "平日",
      "祝日"
    ],
    "openDaysNote": "12月31日～1月5日は休業"
  },
  {
    "id": "1870102280",
    "name": "ツクイ福井森田",
    "kana": "ツクイフクイモリタ",
    "address": "石盛１丁目１６０２",
    "lat": 36.1163724,
    "lng": 136.2301236,
    "tel": "0776-56-2681",
    "url": "http://www.tsukui.net",
    "pref": "福井県",
    "city": "福井市",
    "category": "day_service",
    "serviceType": "通所介護",
    "capacity": 50,
    "openDays": [
      "平日",
      "土曜日",
      "日曜日",
      "祝日"
    ],
    "openDaysNote": ""
  },
  {
    "id": "1870102918",
    "name": "ツクイ福井舞屋",
    "kana": "ツクイフクイマイヤ",
    "address": "舞屋町8-101",
    "lat": 36.0330042,
    "lng": 136.2020966,
    "tel": "0776-34-1511",
    "url": "http://www.tukui.net",
    "pref": "福井県",
    "city": "福井市",
    "category": "day_service",
    "serviceType": "通所介護",
    "capacity": 60,
    "openDays": [
      "平日",
      "土曜日",
      "日曜日",
      "祝日"
    ],
    "openDaysNote": ""
  },
  {
    "id": "1870101076",
    "name": "ツクイ福井文京",
    "kana": "ツクイフクイブンキョウ",
    "address": "福井市文京7-8-20",
    "lat": 36.0756682,
    "lng": 136.1955438,
    "tel": "0776-27-7874",
    "url": "http://www.tsukui.net",
    "pref": "福井県",
    "city": "福井市",
    "category": "day_service",
    "serviceType": "通所介護",
    "capacity": 30,
    "openDays": [
      "平日",
      "土曜日",
      "日曜日",
      "祝日"
    ],
    "openDaysNote": "365日年中無休"
  },
  {
    "id": "1870102397",
    "name": "デイ・フィットネス　楽らく大宮店",
    "kana": "デイ・フィットネス　ラクラクオオミヤテン",
    "address": "福井市大宮5丁目13番24号",
    "lat": 36.0819674,
    "lng": 136.2020099,
    "tel": "0776-29-7161",
    "url": "http://www.df-rakuraku.com",
    "pref": "福井県",
    "city": "福井市",
    "category": "day_service",
    "serviceType": "通所介護",
    "capacity": 35,
    "openDays": [
      "平日",
      "土曜日",
      "祝日"
    ],
    "openDaysNote": ""
  },
  {
    "id": "1870103635",
    "name": "ﾃﾞｲｻｰﾋﾞｽきたえる～む福井文京",
    "kana": "デイサービスキタエル~ムフクイブンキョウ",
    "address": "福井県福井市文京6-22-9",
    "lat": 36.0762649,
    "lng": 136.198561,
    "tel": "0776-50-2933",
    "url": "http://www.kitaeroom.com/",
    "pref": "福井県",
    "city": "福井市",
    "category": "day_service",
    "serviceType": "通所介護",
    "capacity": 33,
    "openDays": [
      "平日",
      "土曜日"
    ],
    "openDaysNote": ""
  },
  {
    "id": "1870102363",
    "name": "デイサービス　リハビリセンタートレフル",
    "kana": "デイサービス　リハビリセンタートレフル",
    "address": "福井市若杉１－２８０５",
    "lat": 36.0577537,
    "lng": 136.1888528,
    "tel": "0776-33-1233",
    "url": "http://www.tomorrows-reha.com",
    "pref": "福井県",
    "city": "福井市",
    "category": "day_service",
    "serviceType": "通所介護",
    "capacity": 60,
    "openDays": [
      "平日",
      "土曜日"
    ],
    "openDaysNote": ""
  },
  {
    "id": "1870102421",
    "name": "デイサービスいこい",
    "kana": "デイサービスイコイ",
    "address": "福井県福井市光陽2丁目21-3",
    "lat": 36.0647755997307,
    "lng": 136.200568808598,
    "tel": "0776-21-3010",
    "url": "ikoi151@indigo.plala.or.jp",
    "pref": "福井県",
    "city": "福井市",
    "category": "day_service",
    "serviceType": "通所介護",
    "capacity": 0,
    "openDays": [
      "平日",
      "土曜日",
      "日曜日",
      "祝日"
    ],
    "openDaysNote": "事業所の営業時間は上記の通りですが、ご相談に応じて延長利用も可能です。又、介護保険サービス以外に自費でのサービスご利用も行っています。"
  },
  {
    "id": "1870103650",
    "name": "ディサービスきたえる～む福井開発",
    "kana": "ディサービスキタエル～ムフクイカイホツ",
    "address": "福井県福井市開発4丁目111タワーグランデCHA103 タワーグランデCHA103",
    "lat": 36.0815181,
    "lng": 136.2375504,
    "tel": "0776-50-2368",
    "url": "http://kitaeroom.com/shop/post-92.shtml",
    "pref": "福井県",
    "city": "福井市",
    "category": "day_service",
    "serviceType": "通所介護",
    "capacity": 35,
    "openDays": [
      "平日",
      "土曜日"
    ],
    "openDaysNote": ""
  },
  {
    "id": "1870103106",
    "name": "デイサービスセンター　すずらん",
    "kana": "デイサービスセンター　スズラン",
    "address": "西開発3丁目306番地サービス付き高齢者向け住宅　すずらん サービス付き高齢者向け住宅　すずらん",
    "lat": 36.0837152,
    "lng": 136.2355871,
    "tel": "0776-52-0039",
    "url": "http://suzuran01-f.com/",
    "pref": "福井県",
    "city": "福井市",
    "category": "day_service",
    "serviceType": "通所介護",
    "capacity": 35,
    "openDays": [
      "平日",
      "土曜日",
      "祝日"
    ],
    "openDaysNote": "延長利用　応相談"
  },
  {
    "id": "1870100813",
    "name": "デイサービスセンター　モアヤング",
    "kana": "デイサービスセンター　モアヤング",
    "address": "福井県福井市和田中町東沖田３０番地の１",
    "lat": 36.0472005,
    "lng": 136.2466098,
    "tel": "0776-28-3727",
    "url": "https://www.moreyoung.jp/",
    "pref": "福井県",
    "city": "福井市",
    "category": "day_service",
    "serviceType": "通所介護",
    "capacity": 0,
    "openDays": [
      "平日",
      "祝日"
    ],
    "openDaysNote": ""
  },
  {
    "id": "1870102132",
    "name": "デイサービスセンター　東郷",
    "kana": "デイサービスセンター　トウゴウ",
    "address": "福井市東郷二ヶ町２７－１５－３リリーブ東郷 リリーブ東郷",
    "lat": 36.0157497,
    "lng": 136.2731888,
    "tel": "0776-41-7766",
    "url": "http://www.monjuen.com",
    "pref": "福井県",
    "city": "福井市",
    "category": "day_service",
    "serviceType": "通所介護",
    "capacity": 28,
    "openDays": [
      "平日",
      "土曜日",
      "祝日"
    ],
    "openDaysNote": "―"
  },
  {
    "id": "1870100029",
    "name": "デイサービスセンターあい愛",
    "kana": "デイサービスセンターアイアイ",
    "address": "福井県福井市舟橋新1丁目106番地",
    "lat": 36.0983516,
    "lng": 136.2125036,
    "tel": "0776-29-0101",
    "url": "aiai@ja-fukuiken.or.jp",
    "pref": "福井県",
    "city": "福井市",
    "category": "day_service",
    "serviceType": "通所介護",
    "capacity": 0,
    "openDays": [
      "平日",
      "土曜日",
      "祝日"
    ],
    "openDaysNote": ""
  },
  {
    "id": "1870102801",
    "name": "デイサービスセンターほっとかん",
    "kana": "デイサービスセンターホットカン",
    "address": "福井市椙谷町12-9-2",
    "lat": 35.9941949,
    "lng": 136.3733593,
    "tel": "0776-90-3838",
    "url": "http://www.koseikaigroup.jp/hospital/",
    "pref": "福井県",
    "city": "福井市",
    "category": "day_service",
    "serviceType": "通所介護",
    "capacity": 0,
    "openDays": [
      "平日",
      "祝日"
    ],
    "openDaysNote": ""
  },
  {
    "id": "1870101787",
    "name": "デイサービス六条リハビリセンター",
    "kana": "デイサービスロクジョウリハビリセンター",
    "address": "福井市下六条町２１７番地",
    "lat": 36.0368627,
    "lng": 136.2340722,
    "tel": "0776-41-3992",
    "url": "http://fukui-medix.com/",
    "pref": "福井県",
    "city": "福井市",
    "category": "day_service",
    "serviceType": "通所介護",
    "capacity": 0,
    "openDays": [
      "平日",
      "土曜日",
      "祝日"
    ],
    "openDaysNote": ""
  },
  {
    "id": "1870103536",
    "name": "デイセンターすずかぜ",
    "kana": "デイセンタースズカゼ",
    "address": "福井県福井市文京２丁目16番９号",
    "lat": 36.0794396559061,
    "lng": 136.219108692062,
    "tel": "0776-63-6513",
    "url": "suzukaze@fmatsubara.com",
    "pref": "福井県",
    "city": "福井市",
    "category": "day_service",
    "serviceType": "通所介護",
    "capacity": 3,
    "openDays": [
      "平日"
    ],
    "openDaysNote": ""
  },
  {
    "id": "1870102934",
    "name": "デイフィットネス楽らく　渕店",
    "kana": "デイフィットネスラクラク　フチテン",
    "address": "福井市渕3丁目134グランドコーポヤシロ1階 グランドコーポヤシロ1階",
    "lat": 36.043908,
    "lng": 136.1867252,
    "tel": "0776-43-9155",
    "url": "http://www.df-rakuraku.com",
    "pref": "福井県",
    "city": "福井市",
    "category": "day_service",
    "serviceType": "通所介護",
    "capacity": 0,
    "openDays": [
      "平日",
      "土曜日",
      "祝日"
    ],
    "openDaysNote": ""
  },
  {
    "id": "1870102959",
    "name": "トゥモローズ　ホームリハビリセンター",
    "kana": "トゥモローズ　ホームリハビリセンター",
    "address": "若杉１－２８０１",
    "lat": 36.0578172352459,
    "lng": 136.189185172769,
    "tel": "0776-33-3220",
    "url": "http://www.tomorrows-reha.com/",
    "pref": "福井県",
    "city": "福井市",
    "category": "day_service",
    "serviceType": "通所介護",
    "capacity": 60,
    "openDays": [
      "平日",
      "土曜日"
    ],
    "openDaysNote": "祝祭日の振り替え利用は随時で受け付けております。"
  },
  {
    "id": "1870103817",
    "name": "トゥモローズホームリハビリセンター福井南",
    "kana": "トゥモローズホームリハビリセンターフクイミナミ",
    "address": "福井県福井市花堂2-1-1トゥモローズホームリハビリセンター福井南 トゥモローズホームリハビリセンター福井南",
    "lat": 36.033392,
    "lng": 136.212143,
    "tel": "0776-50-6072",
    "url": "tomorrows-reha.com",
    "pref": "福井県",
    "city": "福井市",
    "category": "day_service",
    "serviceType": "通所介護",
    "capacity": 0,
    "openDays": [
      "平日",
      "土曜日"
    ],
    "openDaysNote": "祝祭日の振り替え利用は随時で受け付けております。"
  },
  {
    "id": "1870100656",
    "name": "ニチイケアセンター成和",
    "kana": "ニチイケアセンターセイワ",
    "address": "福井県福井市城東2丁目14－1",
    "lat": 36.0618263,
    "lng": 136.2360901,
    "tel": "0776-28-1470",
    "url": "http://www.nichiigakkan.co.jp",
    "pref": "福井県",
    "city": "福井市",
    "category": "day_service",
    "serviceType": "通所介護",
    "capacity": 0,
    "openDays": [
      "平日",
      "土曜日",
      "祝日"
    ],
    "openDaysNote": ""
  },
  {
    "id": "1870103387",
    "name": "ほっと地域リハビリセンター福井北",
    "kana": "ホットチイキリハビリセンターフクイキタ",
    "address": "福井県福井市大和田2丁目2101ほっと地域包括ケアセンター福井北 ほっと地域包括ケアセンター福井北",
    "lat": 36.0987194476693,
    "lng": 136.253445882834,
    "tel": "0776-57-1055",
    "url": "http://www.hotreha.com",
    "pref": "福井県",
    "city": "福井市",
    "category": "day_service",
    "serviceType": "通所介護",
    "capacity": null,
    "openDays": [
      "平日",
      "土曜日",
      "祝日"
    ],
    "openDaysNote": ""
  },
  {
    "id": "1870102595",
    "name": "ポラリスデイサービスセンター成和",
    "kana": "ポラリスデイサービスセンターセイワ",
    "address": "福井県福井市和田東1丁目221サン・ボニール102 サン・ボニール102",
    "lat": 36.0545831,
    "lng": 136.2461899,
    "tel": "0776－97－5391",
    "url": "http://www.aurorakai.com/",
    "pref": "福井県",
    "city": "福井市",
    "category": "day_service",
    "serviceType": "通所介護",
    "capacity": 0,
    "openDays": [
      "平日",
      "土曜日",
      "祝日"
    ],
    "openDaysNote": ""
  },
  {
    "id": "1870102124",
    "name": "みのりデイサービスセンターほのか",
    "kana": "ミノリデイサービスセンターホノカ",
    "address": "福井県福井市みのり１丁目5-16",
    "lat": 36.0494802,
    "lng": 136.2172309,
    "tel": "0776-34-6226",
    "url": "http://www.keishukai.com/",
    "pref": "福井県",
    "city": "福井市",
    "category": "day_service",
    "serviceType": "通所介護",
    "capacity": 35,
    "openDays": [
      "平日",
      "土曜日",
      "日曜日",
      "祝日"
    ],
    "openDaysNote": "サービス提供時間帯は基本９：００～１６：３０（７時間以上９時間未満）です。（改行）１６：３０～１８：３０は延長利用が可能です（夕食付）"
  },
  {
    "id": "1870101126",
    "name": "メイプルケア大宮デイサービスセンター",
    "kana": "メイプルケアオオミヤデイサービスセンター",
    "address": "福井県福井市大宮４丁目１３番１号",
    "lat": 36.0818606935953,
    "lng": 136.207936931877,
    "tel": "0776-25-0041",
    "url": "http://www.meipurucare.com/",
    "pref": "福井県",
    "city": "福井市",
    "category": "day_service",
    "serviceType": "通所介護",
    "capacity": 40,
    "openDays": [
      "平日",
      "土曜日",
      "祝日"
    ],
    "openDaysNote": "年末年始に関しては変更ある場合があります"
  },
  {
    "id": "1870102892",
    "name": "やろっさリハビリ",
    "kana": "ヤロッサリハビリ",
    "address": "丸山1丁目1002",
    "lat": 36.0748764608153,
    "lng": 136.243027056195,
    "tel": "0776－54－8603",
    "url": "yarossa.amebaownd.com",
    "pref": "福井県",
    "city": "福井市",
    "category": "day_service",
    "serviceType": "通所介護",
    "capacity": 8,
    "openDays": [
      "平日",
      "土曜日"
    ],
    "openDaysNote": ""
  },
  {
    "id": "1870100771",
    "name": "ゆうあいデイサービスセンター",
    "kana": "ユウアイデイサービスセンター",
    "address": "福井県福井市大願寺3丁目9－3",
    "lat": 36.0843564,
    "lng": 136.2283293,
    "tel": "0776-27-0019",
    "url": "http://fukui-youi.com/",
    "pref": "福井県",
    "city": "福井市",
    "category": "day_service",
    "serviceType": "通所介護",
    "capacity": 30,
    "openDays": [
      "平日",
      "土曜日",
      "祝日"
    ],
    "openDaysNote": ""
  },
  {
    "id": "1870102777",
    "name": "よつばリハビリサポートセンター",
    "kana": "ヨツバリハビリサポートセンター",
    "address": "福井市四ッ井1丁目13番23号",
    "lat": 36.0648009,
    "lng": 136.2369676,
    "tel": "0776-52-3155",
    "url": "yotuba@fukui-medix.com",
    "pref": "福井県",
    "city": "福井市",
    "category": "day_service",
    "serviceType": "通所介護",
    "capacity": 0,
    "openDays": [
      "平日",
      "土曜日",
      "祝日"
    ],
    "openDaysNote": ""
  },
  {
    "id": "1870103361",
    "name": "リハビリデイサービスわかすぎ",
    "kana": "リハビリデイサービスワカスギ",
    "address": "福井県福井市若杉4丁目1602番地リハビリデイサービスわかすぎ リハビリデイサービスわかすぎ",
    "lat": 36.0565760608599,
    "lng": 136.185328099806,
    "tel": "0776-33-0708",
    "url": "http://www.arigatou-ltd.co.jp",
    "pref": "福井県",
    "city": "福井市",
    "category": "day_service",
    "serviceType": "通所介護",
    "capacity": 36,
    "openDays": [
      "平日",
      "土曜日",
      "祝日"
    ],
    "openDaysNote": "年末年始、ゴールデンウイーク、夏期休暇あり"
  },
  {
    "id": "1870101886",
    "name": "リハフィットほっとチャレンジ",
    "kana": "リハフィットホットチャレンジ",
    "address": "福井県福井市四ツ井2-1-10ほっと地域リハビリセンター福井 ほっと地域リハビリセンター福井",
    "lat": 36.0685004,
    "lng": 136.2351147,
    "tel": "0776-57-5500",
    "url": "http://www.hotreha.com",
    "pref": "福井県",
    "city": "福井市",
    "category": "day_service",
    "serviceType": "通所介護",
    "capacity": 0,
    "openDays": [
      "平日",
      "祝日"
    ],
    "openDaysNote": ""
  },
  {
    "id": "1870100391",
    "name": "愛寿苑　デイサービスセンター",
    "kana": "アイジュエン　デイサービスセンター",
    "address": "福井市加茂緑苑町402番地",
    "lat": 36.0548513,
    "lng": 136.1916108,
    "tel": "0776-33-6767",
    "url": "http://www.aijuen.com/",
    "pref": "福井県",
    "city": "福井市",
    "category": "day_service",
    "serviceType": "通所介護",
    "capacity": 30,
    "openDays": [
      "平日",
      "祝日"
    ],
    "openDaysNote": "祝日であっても、12/31～1/3以外は営業をしているので、平日の営業時間と変わり無し。"
  },
  {
    "id": "1870100060",
    "name": "愛全園デイサービスセンター",
    "kana": "アイゼンエンデイサービスセンター",
    "address": "福井市丸山町40-7",
    "lat": 36.0776558,
    "lng": 136.2514637,
    "tel": "0776-53-5411",
    "url": "http://www.asuwafukushikai.jp/aizenen",
    "pref": "福井県",
    "city": "福井市",
    "category": "day_service",
    "serviceType": "通所介護",
    "capacity": 0,
    "openDays": [
      "平日",
      "土曜日",
      "祝日"
    ],
    "openDaysNote": ""
  },
  {
    "id": "1870100938",
    "name": "医療法人清風会　吉田医院デイサービスセンター",
    "kana": "イリョウホウジン　セイフウカイ　ヨシダイインデイサービスセンター",
    "address": "福井市順化１丁目８-１",
    "lat": 36.0639031,
    "lng": 136.2156804,
    "tel": "0776-22-1233",
    "url": "http://fukui-yoshidahospital.com/",
    "pref": "福井県",
    "city": "福井市",
    "category": "day_service",
    "serviceType": "通所介護",
    "capacity": 24,
    "openDays": [
      "平日",
      "祝日"
    ],
    "openDaysNote": ""
  },
  {
    "id": "1870100268",
    "name": "花園デイサービスセンター",
    "kana": "ハナゾノデイサービスセンター",
    "address": "福井県福井市松本1-36-15",
    "lat": 36.0756549,
    "lng": 136.2319344,
    "tel": "0776-29-1188",
    "url": "http://www.hanazono-f.com/",
    "pref": "福井県",
    "city": "福井市",
    "category": "day_service",
    "serviceType": "通所介護",
    "capacity": 40,
    "openDays": [
      "平日",
      "土曜日",
      "祝日"
    ],
    "openDaysNote": "希望により朝8時～20時まで利用可能"
  },
  {
    "id": "1870103171",
    "name": "株式会社ツクイ　ツクイ福井開発",
    "kana": "カブシキガイシャツクイ　ツクイフクイカイホツ",
    "address": "福井県福井市開発2丁目705番地ツクイ福井開発デイサービスセンター ツクイ福井開発デイサービスセンター",
    "lat": 36.0773696484205,
    "lng": 136.239824394057,
    "tel": "0776-53-2100",
    "url": "https://www.tsukui.net/search/2601/detail.html",
    "pref": "福井県",
    "city": "福井市",
    "category": "day_service",
    "serviceType": "通所介護",
    "capacity": 60,
    "openDays": [
      "平日",
      "土曜日",
      "日曜日",
      "祝日"
    ],
    "openDaysNote": ""
  },
  {
    "id": "1870100946",
    "name": "県民せいきょう羽水きらめきデイサービス",
    "kana": "ケンミンセイキョウウスイキラメキデイサービス",
    "address": "福井県福井市羽水1丁目107番地",
    "lat": 36.0422703,
    "lng": 136.2272668,
    "tel": "0776-32-6000",
    "url": "http://www.fukui.coop/",
    "pref": "福井県",
    "city": "福井市",
    "category": "day_service",
    "serviceType": "通所介護",
    "capacity": 40,
    "openDays": [
      "平日",
      "土曜日",
      "祝日"
    ],
    "openDaysNote": "※本事業所が特別に定めた場合はこの限りではありません。"
  },
  {
    "id": "1870104054",
    "name": "社会福祉法人　足羽福祉会　カラフル",
    "kana": "シャカイフクシホウジン　アスワフクシカイ　カラフル",
    "address": "福井県福井市林町62-3",
    "lat": 36.085662,
    "lng": 136.2603302,
    "tel": "0776-89-1870",
    "url": "https://www.asuwafukushikai.jp/",
    "pref": "福井県",
    "city": "福井市",
    "category": "day_service",
    "serviceType": "通所介護",
    "capacity": 1,
    "openDays": [
      "平日"
    ],
    "openDaysNote": "当該月日数から8日間を引いた日数が当該月合計の活動日となるため、祝日がある日の月はその分を満たすために土曜の営業を実施する場合がある。営業時間は平日の営業時間と同じ。"
  },
  {
    "id": "1870100797",
    "name": "新世紀らぼ",
    "kana": "シンセイキラボ",
    "address": "栗森1丁目102番地",
    "lat": 36.1164061,
    "lng": 136.2386007,
    "tel": "0776-63-6838",
    "url": "https://www.big-advance.site/s/163/1455",
    "pref": "福井県",
    "city": "福井市",
    "category": "day_service",
    "serviceType": "通所介護",
    "capacity": 20,
    "openDays": [
      "平日",
      "土曜日",
      "祝日"
    ],
    "openDaysNote": "半日利用、時間延長は要相談。"
  },
  {
    "id": "1870101688",
    "name": "仁愛ケアサポート通所介護事業所",
    "kana": "ジンアイケアサポートツウショカイゴジギョウショ",
    "address": "福井市乾徳4丁目4番7号",
    "lat": 36.0711715,
    "lng": 136.2056091,
    "tel": "0776-28-1000",
    "url": "http://www.jinai-cs.co.jp/",
    "pref": "福井県",
    "city": "福井市",
    "category": "day_service",
    "serviceType": "通所介護",
    "capacity": 10,
    "openDays": [
      "平日",
      "土曜日",
      "祝日"
    ],
    "openDaysNote": "1/1~1/3休業"
  },
  {
    "id": "1870100052",
    "name": "足羽利生苑デイサービスセンター",
    "kana": "アスワリショウエン　デイサービスセンター",
    "address": "福井市栂野町20－7",
    "lat": 36.0388432,
    "lng": 136.2580151,
    "tel": "0776-41-3121",
    "url": "http://www.asuwafukushikai.jp/risyoen/",
    "pref": "福井県",
    "city": "福井市",
    "category": "day_service",
    "serviceType": "通所介護",
    "capacity": 20,
    "openDays": [
      "平日",
      "土曜日",
      "祝日"
    ],
    "openDaysNote": "・営業時間は、8時30分～17時30分までとする。（改行）・サービス提供時間は、8時30分～17時までとする。"
  },
  {
    "id": "1870104021",
    "name": "福井板垣ケアセンターそよ風",
    "kana": "フクイイタガキケアセンターソヨカゼ",
    "address": "福井県福井市下馬3丁目１０２",
    "lat": 36.0422341,
    "lng": 136.2340767,
    "tel": "0776-36-1730",
    "url": "https://www.unimat-rc.co.jp/",
    "pref": "福井県",
    "city": "福井市",
    "category": "day_service",
    "serviceType": "通所介護",
    "capacity": 30,
    "openDays": [
      "平日",
      "土曜日",
      "祝日"
    ],
    "openDaysNote": ""
  },
  {
    "id": "1870100037",
    "name": "宝珠苑デイサービスセンター",
    "kana": "ホウジュエンデイサービスセンター",
    "address": "福井市内山梨子町3-46",
    "lat": 36.1340038,
    "lng": 136.1573815,
    "tel": "0776-83-1373",
    "url": "http://www.houjuen.org/",
    "pref": "福井県",
    "city": "福井市",
    "category": "day_service",
    "serviceType": "通所介護",
    "capacity": 0,
    "openDays": [
      "平日",
      "土曜日",
      "祝日"
    ],
    "openDaysNote": ""
  },
  {
    "id": "1870100250",
    "name": "悠和園デイサービスセンター",
    "kana": "ユウワエンデイサービスセンター",
    "address": "福井市免鳥町22-74",
    "lat": 36.1309826,
    "lng": 136.074891,
    "tel": "0776-87-2161",
    "url": "http://www.yuwaen.jp",
    "pref": "福井県",
    "city": "福井市",
    "category": "day_service",
    "serviceType": "通所介護",
    "capacity": 0,
    "openDays": [
      "平日",
      "土曜日",
      "祝日"
    ],
    "openDaysNote": ""
  }
]