[
  {
    "id": "4077300574",
    "name": "サンエステ株式会社デイサービス筑水荘",
    "kana": "サンエステカブシキガイシャデイサービスチクスイソウ",
    "address": "福岡県うきは市吉井町千年596",
    "lat": 33.3517899,
    "lng": 130.7751972,
    "tel": "0943-75-5660",
    "url": "",
    "pref": "福岡県",
    "city": "うきは市",
    "category": "day_service",
    "serviceType": "通所介護",
    "capacity": 0,
    "openDays": [
      "平日",
      "土曜日",
      "祝日"
    ],
    "openDaysNote": ""
  },
  {
    "id": "4077300384",
    "name": "デイサービスうるおい",
    "kana": "デイサービスウルオイ",
    "address": "福岡県うきは市吉井町八和田２４６番地３",
    "lat": 33.360318,
    "lng": 130.7516142,
    "tel": "0943-75-2239",
    "url": "https://www.uruoi-group.com",
    "pref": "福岡県",
    "city": "うきは市",
    "category": "day_service",
    "serviceType": "通所介護",
    "capacity": null,
    "openDays": [
      "平日",
      "土曜日",
      "日曜日",
      "祝日"
    ],
    "openDaysNote": ""
  },
  {
    "id": "4077500025",
    "name": "デイサービスセンターえびね",
    "kana": "デイサービスセンターエビネ",
    "address": "福岡県うきは市浮羽町古川　７０７－３",
    "lat": 33.3512864,
    "lng": 130.7947145,
    "tel": "0943-77-7610",
    "url": "http://ebine.jp",
    "pref": "福岡県",
    "city": "うきは市",
    "category": "day_service",
    "serviceType": "通所介護",
    "capacity": 0,
    "openDays": [
      "平日",
      "土曜日",
      "祝日"
    ],
    "openDaysNote": ""
  },
  {
    "id": "4077300087",
    "name": "デイサービスセンターかりん",
    "kana": "デイサービスセンターカリン",
    "address": "福岡県うきは市吉井町新治176－1",
    "lat": 33.3484192,
    "lng": 130.7601029,
    "tel": "0943-76-5366",
    "url": "http://www.tachiarai-kouseien.jp/",
    "pref": "福岡県",
    "city": "うきは市",
    "category": "day_service",
    "serviceType": "通所介護",
    "capacity": 30,
    "openDays": [
      "平日",
      "土曜日",
      "祝日"
    ],
    "openDaysNote": "ご要望に応じて夕食の提供を行っています。（改行）ご希望の方は前日までに「夕食希望」とお伝えください。（改行）※悪天候や感染症の拡大を予防するため、お休みになる事があります。"
  },
  {
    "id": "4077300368",
    "name": "デイサービスセンターかわせみ翡翠館",
    "kana": "デイサービスセンターカワセミヒスイカン",
    "address": "福岡県うきは市浮羽町古川1002番地21",
    "lat": 33.358067,
    "lng": 130.8124238,
    "tel": "0943-77-2886",
    "url": "https://kawasemi-care.com",
    "pref": "福岡県",
    "city": "うきは市",
    "category": "day_service",
    "serviceType": "通所介護",
    "capacity": 0,
    "openDays": [
      "平日",
      "土曜日",
      "祝日"
    ],
    "openDaysNote": "1、利用者又はその家族は、利用者の心身の状況等に変化が見られた場合は、速やかに事業所の従業者に連絡すること。（改行）2、事業所の設備・備品を利用する際には、事業所の従事者の指示に従うこと。（改行）3、他のサービスの利用者の迷惑となる行動等を慎むこと。"
  },
  {
    "id": "4077300509",
    "name": "デイサービスセンターゆたかの杜",
    "kana": "デイサービスセンターユタカノモリ",
    "address": "福岡県うきは市吉井町生葉632-1",
    "lat": 33.3450503,
    "lng": 130.7322433,
    "tel": "0943-76-9205",
    "url": "",
    "pref": "福岡県",
    "city": "うきは市",
    "category": "day_service",
    "serviceType": "通所介護",
    "capacity": 0,
    "openDays": [
      "平日",
      "土曜日",
      "祝日"
    ],
    "openDaysNote": ""
  },
  {
    "id": "4077300491",
    "name": "デイサービスセンター三春",
    "kana": "デイサービスセンターミハル",
    "address": "浮羽町三春1975-4",
    "lat": 33.3445826,
    "lng": 130.8230288,
    "tel": "0943-77-1007",
    "url": "",
    "pref": "福岡県",
    "city": "うきは市",
    "category": "day_service",
    "serviceType": "通所介護",
    "capacity": 19,
    "openDays": [
      "平日",
      "土曜日"
    ],
    "openDaysNote": ""
  },
  {
    "id": "4077300566",
    "name": "デイサービスセンター三春2号館",
    "kana": "デイサービスセンターミハル2ゴウカン",
    "address": "福岡県うきは市浮羽町三春1986-1",
    "lat": 33.3303688,
    "lng": 130.844989,
    "tel": "0943-73-7847",
    "url": "",
    "pref": "福岡県",
    "city": "うきは市",
    "category": "day_service",
    "serviceType": "通所介護",
    "capacity": 0,
    "openDays": [
      "平日",
      "土曜日"
    ],
    "openDaysNote": ""
  },
  {
    "id": "4077300376",
    "name": "デイサービスセンター千年の湯",
    "kana": "デイサービスセンターチトセノユ",
    "address": "福岡県うきは市吉井町千年74番地1",
    "lat": 33.348289,
    "lng": 130.7744938,
    "tel": "0943-75-4306",
    "url": "",
    "pref": "福岡県",
    "city": "うきは市",
    "category": "day_service",
    "serviceType": "通所介護",
    "capacity": 0,
    "openDays": [
      "平日",
      "土曜日"
    ],
    "openDaysNote": ""
  },
  {
    "id": "4077300285",
    "name": "デイルームみなみかぜ",
    "kana": "デイルームミナミカゼ",
    "address": "福岡県うきは市吉井町富永1864-2",
    "lat": 33.3333394273568,
    "lng": 130.736662505623,
    "tel": "0943-75-9300",
    "url": "http://www.soffione.biz",
    "pref": "福岡県",
    "city": "うきは市",
    "category": "day_service",
    "serviceType": "通所介護",
    "capacity": 32,
    "openDays": [
      "平日",
      "土曜日",
      "祝日"
    ],
    "openDaysNote": "営業日、営業時間以外については留守番電話受付を実施している"
  },
  {
    "id": "4077300541",
    "name": "ひじり会デイサービスセンターにじの家",
    "kana": "ヒジリカイデイサービスセンターニジノイエ",
    "address": "福岡県うきは市吉井町八和田876－1",
    "lat": 33.3551656,
    "lng": 130.7432867,
    "tel": "0943-74-2233",
    "url": "http://hijirikai.com/",
    "pref": "福岡県",
    "city": "うきは市",
    "category": "day_service",
    "serviceType": "通所介護",
    "capacity": null,
    "openDays": [
      "平日",
      "土曜日",
      "日曜日",
      "祝日"
    ],
    "openDaysNote": ""
  },
  {
    "id": "4077300319",
    "name": "株式会社サニーライフデイサービス筑水荘",
    "kana": "カブシキガイシャサニーライフデイサービスチクスイソウ",
    "address": "福岡県うきは市吉井町千年596",
    "lat": 33.3517247,
    "lng": 130.7754686,
    "tel": "0943-75-5660",
    "url": "http://www.sunnylife.info/",
    "pref": "福岡県",
    "city": "うきは市",
    "category": "day_service",
    "serviceType": "通所介護",
    "capacity": 0,
    "openDays": [
      "平日",
      "祝日"
    ],
    "openDaysNote": ""
  },
  {
    "id": "4079700540",
    "name": "サポートデイ　げんき",
    "kana": "サポートデイ　ゲンキ",
    "address": "福岡県京都郡みやこ町豊津1049番地3",
    "lat": 33.6747650821884,
    "lng": 130.978341462639,
    "tel": "0930-28-8616",
    "url": "http://hp.kaipoke.biz/uke/",
    "pref": "福岡県",
    "city": "みやこ町",
    "category": "day_service",
    "serviceType": "通所介護",
    "capacity": null,
    "openDays": [
      "平日",
      "土曜日",
      "祝日"
    ],
    "openDaysNote": ""
  },
  {
    "id": "4079700516",
    "name": "デイサービス　クローバー",
    "kana": "デイサービス　クローバー",
    "address": "福岡県京都郡みやこ町豊津744-11",
    "lat": 33.6838973994497,
    "lng": 130.975220608459,
    "tel": "0930-33-7005",
    "url": "www.dsclover.jp",
    "pref": "福岡県",
    "city": "みやこ町",
    "category": "day_service",
    "serviceType": "通所介護",
    "capacity": null,
    "openDays": [
      "平日",
      "祝日"
    ],
    "openDaysNote": ""
  },
  {
    "id": "4079700383",
    "name": "デイサービスセンター　桃の花",
    "kana": "デイサービスセンター　モモノハナ",
    "address": "京都郡みやこ町勝山大久保2362-1ケアポート　桃の花 ケアポート　桃の花",
    "lat": 33.6923038,
    "lng": 130.9167768,
    "tel": "0930-32-3866",
    "url": "",
    "pref": "福岡県",
    "city": "みやこ町",
    "category": "day_service",
    "serviceType": "通所介護",
    "capacity": 0,
    "openDays": [
      "平日",
      "祝日"
    ],
    "openDaysNote": ""
  },
  {
    "id": "4072601851",
    "name": "デイサービスセンター　陽",
    "kana": "デイサービスセンター　ヒナタ",
    "address": "福岡県京都郡みやこ町大字国分字240番地",
    "lat": 33.682832655253,
    "lng": 130.982829318742,
    "tel": "930288723",
    "url": "https://hinata-dsc.com",
    "pref": "福岡県",
    "city": "みやこ町",
    "category": "day_service",
    "serviceType": "通所介護",
    "capacity": 31,
    "openDays": [
      "平日",
      "土曜日",
      "祝日"
    ],
    "openDaysNote": "8/13～/15は送迎サービスがなく、利用定員19名になります。"
  },
  {
    "id": "4079700433",
    "name": "リハビリデイサービスCalm",
    "kana": "リハビリデイサービスカーム",
    "address": "福岡県京都郡みやこ町勝山上田946-1",
    "lat": 33.699417,
    "lng": 130.9188598,
    "tel": "0930-32-5552",
    "url": "https://itsuki-yukuhashi.com/calm/",
    "pref": "福岡県",
    "city": "みやこ町",
    "category": "day_service",
    "serviceType": "通所介護",
    "capacity": 0,
    "openDays": [
      "平日",
      "土曜日",
      "祝日"
    ],
    "openDaysNote": ""
  },
  {
    "id": "4070000841",
    "name": "京都病院デイサービスセンター",
    "kana": "ミヤコビョウインデイサービスセンター",
    "address": "福岡県京都郡みやこ町勝山箕田298番地",
    "lat": 33.6932896,
    "lng": 130.9079332,
    "tel": "0930-32-3773",
    "url": "http://www.miyako-hp.or.jp",
    "pref": "福岡県",
    "city": "みやこ町",
    "category": "day_service",
    "serviceType": "通所介護",
    "capacity": 0,
    "openDays": [
      "平日",
      "祝日"
    ],
    "openDaysNote": ""
  },
  {
    "id": "4079700466",
    "name": "犀川園デイサービスセンター",
    "kana": "サイガワエンデイサービスセンター",
    "address": "福岡県京都郡みやこ町犀川谷口759番地",
    "lat": 33.6598265,
    "lng": 130.9301133,
    "tel": "0930-42-3160",
    "url": "http://saigawaen.jp/",
    "pref": "福岡県",
    "city": "みやこ町",
    "category": "day_service",
    "serviceType": "通所介護",
    "capacity": 0,
    "openDays": [
      "平日",
      "祝日"
    ],
    "openDaysNote": ""
  },
  {
    "id": "4070000296",
    "name": "勝山苑通所介護事業所",
    "kana": "カツヤマエンツウショカイゴジギョウショ",
    "address": "福岡県京都郡みやこ町勝山大久保3224-1",
    "lat": 33.6897153,
    "lng": 130.9286397,
    "tel": "0930-32-4775",
    "url": "",
    "pref": "福岡県",
    "city": "みやこ町",
    "category": "day_service",
    "serviceType": "通所介護",
    "capacity": 0,
    "openDays": [
      "平日",
      "土曜日",
      "祝日"
    ],
    "openDaysNote": "なし"
  },
  {
    "id": "4070000361",
    "name": "聖家族の家デイサービスセンター",
    "kana": "セイカゾクノイエデイサービスセンター",
    "address": "福岡県京都郡みやこ町豊津566番地の2",
    "lat": 33.6773116,
    "lng": 130.9713307,
    "tel": "0930-33-5672",
    "url": "info-t@seikazoku.jp",
    "pref": "福岡県",
    "city": "みやこ町",
    "category": "day_service",
    "serviceType": "通所介護",
    "capacity": 30,
    "openDays": [
      "平日",
      "土曜日",
      "祝日"
    ],
    "openDaysNote": ""
  },
  {
    "id": "4079700417",
    "name": "暮らしさぽーとデイサービス",
    "kana": "クラシサポートデイサービス",
    "address": "福岡県京都郡みやこ町勝山箕田363-1旧安部産婦人科医院 旧安部産婦人科医院",
    "lat": 33.6924675,
    "lng": 130.9100969,
    "tel": "0930-55-6750",
    "url": "https://www.instagram.com/kurasapo_ds/",
    "pref": "福岡県",
    "city": "みやこ町",
    "category": "day_service",
    "serviceType": "通所介護",
    "capacity": 30,
    "openDays": [
      "平日",
      "土曜日",
      "祝日"
    ],
    "openDaysNote": "朝食サービスあり（８：１５～９：３０）（改行）１食につき２５０円より。（５０円でおかず１品追加可能です）"
  },
  {
    "id": "4079100188",
    "name": "JAみなみ筑後デイサービスセンター「あぐりの郷」",
    "kana": "ジェイエイミナミチクゴデイサービスセンターアグリノサト",
    "address": "福岡県みやま市高田町原1080-1",
    "lat": 33.1114963,
    "lng": 130.4764014,
    "tel": "0944-64-5532",
    "url": "http://www.minamickg-fk-ja.or.jp/",
    "pref": "福岡県",
    "city": "みやま市",
    "category": "day_service",
    "serviceType": "通所介護",
    "capacity": 30,
    "openDays": [
      "平日",
      "土曜日",
      "祝日"
    ],
    "openDaysNote": "年末年始休業（12/31～1/3）"
  },
  {
    "id": "4079100097",
    "name": "あたご苑デイサービスセンター",
    "kana": "アタゴエンデイサービスセンター",
    "address": "福岡県みやま市高田町今福３１４－１高田総合保健福祉センター 高田総合保健福祉センター",
    "lat": 33.1084964,
    "lng": 130.4666854,
    "tel": "0944-22-6411",
    "url": "http://www.kourinkai1237.org/pg93.html",
    "pref": "福岡県",
    "city": "みやま市",
    "category": "day_service",
    "serviceType": "通所介護",
    "capacity": 0,
    "openDays": [
      "平日",
      "祝日"
    ],
    "openDaysNote": ""
  },
  {
    "id": "4079100212",
    "name": "さくらの杜　デイサービス",
    "kana": "サクラノモリデイサービス",
    "address": "福岡県みやま市高田町大字下楠田1480-9",
    "lat": 33.095178,
    "lng": 130.4622418,
    "tel": "0944-64-5000",
    "url": "",
    "pref": "福岡県",
    "city": "みやま市",
    "category": "day_service",
    "serviceType": "通所介護",
    "capacity": 27,
    "openDays": [
      "平日",
      "土曜日",
      "日曜日",
      "祝日"
    ],
    "openDaysNote": "日曜日のサービス提供において、送迎サービスができない場合がある。"
  },
  {
    "id": "4078700764",
    "name": "デイサービス　あんずの実",
    "kana": "デイサービスアンズノミ",
    "address": "福岡県みやま市瀬高町本郷1348-1",
    "lat": 33.168235,
    "lng": 130.4850445,
    "tel": "0944-67-6500",
    "url": "http://hongo-fukushikai.com",
    "pref": "福岡県",
    "city": "みやま市",
    "category": "day_service",
    "serviceType": "通所介護",
    "capacity": 0,
    "openDays": [
      "平日",
      "土曜日",
      "祝日"
    ],
    "openDaysNote": ""
  },
  {
    "id": "4078700863",
    "name": "デイサービス　りらく",
    "kana": "デイサービス　リラク",
    "address": "福岡県みやま市瀬高町大字太神1511-2",
    "lat": 33.1271362,
    "lng": 130.4677805,
    "tel": "0944-85-6668",
    "url": "",
    "pref": "福岡県",
    "city": "みやま市",
    "category": "day_service",
    "serviceType": "通所介護",
    "capacity": null,
    "openDays": [
      "平日",
      "土曜日",
      "祝日"
    ],
    "openDaysNote": ""
  },
  {
    "id": "4079100196",
    "name": "デイサービス　青空",
    "kana": "デイサービス　アオゾラ",
    "address": "福岡県みやま市高田町南新開１９０－１",
    "lat": 33.0929809,
    "lng": 130.4579144,
    "tel": "0944-64-5515",
    "url": "",
    "pref": "福岡県",
    "city": "みやま市",
    "category": "day_service",
    "serviceType": "通所介護",
    "capacity": 0,
    "openDays": [
      "平日",
      "土曜日",
      "祝日"
    ],
    "openDaysNote": ""
  },
  {
    "id": "4078700483",
    "name": "デイサービス「やまびこ」",
    "kana": "デイサービス「ヤマビコ」",
    "address": "みやま市山川町河原内1227-3",
    "lat": 33.1371514478796,
    "lng": 130.519715131274,
    "tel": "0944-64-9100",
    "url": "https://yamabiko-care.com/",
    "pref": "福岡県",
    "city": "みやま市",
    "category": "day_service",
    "serviceType": "通所介護",
    "capacity": 27,
    "openDays": [
      "平日",
      "土曜日",
      "日曜日",
      "祝日"
    ],
    "openDaysNote": ""
  },
  {
    "id": "4078700848",
    "name": "デイサービス「やまびこプラス」",
    "kana": "デイサービスヤマビコプラス",
    "address": "福岡県みやま市高田町濃施濃施北516-1",
    "lat": 33.1033459814916,
    "lng": 130.456817904893,
    "tel": "0944-32-8110",
    "url": "https://www.yamabiko-care.com/",
    "pref": "福岡県",
    "city": "みやま市",
    "category": "day_service",
    "serviceType": "通所介護",
    "capacity": null,
    "openDays": [
      "平日",
      "土曜日",
      "日曜日",
      "祝日"
    ],
    "openDaysNote": "上記営業時間以外でも、利用者が必要とする場合は協議のうえ相談等に応じる体制をとる。"
  },
  {
    "id": "4078700541",
    "name": "デイサービスあとりえ",
    "kana": "デイサービスアトリエ",
    "address": "みやま市高田町濃施653-1",
    "lat": 33.1055437,
    "lng": 130.4619246,
    "tel": "0944-64-8050",
    "url": "www.nozoenomori.jp",
    "pref": "福岡県",
    "city": "みやま市",
    "category": "day_service",
    "serviceType": "通所介護",
    "capacity": 0,
    "openDays": [
      "平日",
      "土曜日",
      "祝日"
    ],
    "openDaysNote": "年始（1/1～1/3）は休み"
  },
  {
    "id": "4078700038",
    "name": "デイサービスセンター　やすらぎの里",
    "kana": "デイサービスセンター　ヤスラギノサト",
    "address": "福岡県みやま市瀬高町松田481",
    "lat": 33.1424013,
    "lng": 130.4851696,
    "tel": "0944-63-4655",
    "url": "",
    "pref": "福岡県",
    "city": "みやま市",
    "category": "day_service",
    "serviceType": "通所介護",
    "capacity": 0,
    "openDays": [
      "平日",
      "土曜日",
      "祝日"
    ],
    "openDaysNote": ""
  },
  {
    "id": "4078700756",
    "name": "デイサービスセンターすまいる楠田",
    "kana": "デイサービスセンタースマイルクスダ",
    "address": "福岡県みやま市高田町下楠田2153‐1",
    "lat": 33.09262,
    "lng": 130.4634057,
    "tel": "0944‐22‐6651",
    "url": "http://www.smilehome-kanri.jp",
    "pref": "福岡県",
    "city": "みやま市",
    "category": "day_service",
    "serviceType": "通所介護",
    "capacity": 0,
    "openDays": [
      "平日",
      "土曜日",
      "祝日"
    ],
    "openDaysNote": ""
  },
  {
    "id": "4079100170",
    "name": "デイサービスセンターねむの木",
    "kana": "デイサービスセンターネムノキ",
    "address": "福岡県みやま市高田町下楠田1257-1",
    "lat": 33.0946865,
    "lng": 130.4669721,
    "tel": "0944-64-5131",
    "url": "http://www.kourinkai1237.org/",
    "pref": "福岡県",
    "city": "みやま市",
    "category": "day_service",
    "serviceType": "通所介護",
    "capacity": 25,
    "openDays": [
      "平日",
      "祝日"
    ],
    "openDaysNote": ""
  },
  {
    "id": "4078700830",
    "name": "デイサービスセンターらいふ・ぷらす",
    "kana": "デイサービスセンターライフ・プラス",
    "address": "福岡県みやま市瀬高町小川570番地1",
    "lat": 33.1525954,
    "lng": 130.4838915,
    "tel": "0944-62-5533",
    "url": "",
    "pref": "福岡県",
    "city": "みやま市",
    "category": "day_service",
    "serviceType": "通所介護",
    "capacity": null,
    "openDays": [
      "平日",
      "土曜日",
      "祝日"
    ],
    "openDaysNote": ""
  },
  {
    "id": "4078700798",
    "name": "デイサービスりんご",
    "kana": "デイサービスリンゴ",
    "address": "福岡県みやま市瀬高町太神685-2",
    "lat": 33.136463,
    "lng": 130.4754094,
    "tel": "0944-85-7757",
    "url": "",
    "pref": "福岡県",
    "city": "みやま市",
    "category": "day_service",
    "serviceType": "通所介護",
    "capacity": 0,
    "openDays": [
      "平日",
      "土曜日",
      "日曜日",
      "祝日"
    ],
    "openDaysNote": "12/31~1/2は休業"
  },
  {
    "id": "4072400353",
    "name": "デイサービス清水",
    "kana": "デイサービスキヨミズ",
    "address": "福岡県みやま市瀬高町大草１７５５－７",
    "lat": 33.1579585,
    "lng": 130.5105679,
    "tel": "0944-63-3064",
    "url": "",
    "pref": "福岡県",
    "city": "みやま市",
    "category": "day_service",
    "serviceType": "通所介護",
    "capacity": 25,
    "openDays": [
      "平日",
      "土曜日",
      "日曜日",
      "祝日"
    ],
    "openDaysNote": ""
  },
  {
    "id": "4078700608",
    "name": "第二竹里館デイサービスセンター",
    "kana": "ダイニチクリカンデイサービスセンター",
    "address": "福岡県みやま市瀬高町高柳256-1",
    "lat": 33.1492088,
    "lng": 130.4629741,
    "tel": "0944-62-7001",
    "url": "http://www.myclinic.ne.jp/yamauchi-kcp/pc/free.html",
    "pref": "福岡県",
    "city": "みやま市",
    "category": "day_service",
    "serviceType": "通所介護",
    "capacity": 0,
    "openDays": [
      "平日",
      "土曜日",
      "祝日"
    ],
    "openDaysNote": ""
  },
  {
    "id": "4074900392",
    "name": "おいでよあしや",
    "kana": "オイデヨアシヤ",
    "address": "福岡県遠賀郡芦屋町山鹿1027-7",
    "lat": 33.9084402,
    "lng": 130.6671303,
    "tel": "093-221-1007",
    "url": "https://www.instagram.com/oideyo_day/",
    "pref": "福岡県",
    "city": "芦屋町",
    "category": "day_service",
    "serviceType": "通所介護",
    "capacity": 0,
    "openDays": [
      "平日",
      "土曜日",
      "祝日"
    ],
    "openDaysNote": ""
  },
  {
    "id": "4074900384",
    "name": "デイサービス　こころの里",
    "kana": "デイサービス　ココロノサト",
    "address": "福男県遠賀郡芦屋町山鹿１１番１号",
    "lat": 33.8988189935474,
    "lng": 130.666428005385,
    "tel": "093-482-9229",
    "url": "",
    "pref": "福岡県",
    "city": "芦屋町",
    "category": "day_service",
    "serviceType": "通所介護",
    "capacity": null,
    "openDays": [
      "平日",
      "土曜日"
    ],
    "openDaysNote": ""
  },
  {
    "id": "4074900376",
    "name": "デイサービス　この葉",
    "kana": "デイサービス　コノハ",
    "address": "福岡県遠賀郡芦屋町大字山鹿87-11",
    "lat": 33.8970325,
    "lng": 130.6740645,
    "tel": "093-221-5757",
    "url": "",
    "pref": "福岡県",
    "city": "芦屋町",
    "category": "day_service",
    "serviceType": "通所介護",
    "capacity": null,
    "openDays": [
      "平日",
      "土曜日",
      "日曜日",
      "祝日"
    ],
    "openDaysNote": ""
  },
  {
    "id": "4075000549",
    "name": "デイサービス　月のうさぎ",
    "kana": "デイサービス　ツキノウサギ",
    "address": "福岡県遠賀郡芦屋町幸町８－２４",
    "lat": 33.8946485,
    "lng": 130.6596157,
    "tel": "０９３－２２１－４８００",
    "url": "http：//care-usagi.com",
    "pref": "福岡県",
    "city": "芦屋町",
    "category": "day_service",
    "serviceType": "通所介護",
    "capacity": 20,
    "openDays": [
      "平日",
      "土曜日",
      "祝日"
    ],
    "openDaysNote": ""
  },
  {
    "id": "4074900160",
    "name": "デイサービスひまわり館",
    "kana": "デイサービスヒマワリカン",
    "address": "福岡県遠賀郡芦屋町中ノ浜8－18",
    "lat": 33.8941033,
    "lng": 130.6668511,
    "tel": "093-223-1393",
    "url": "hs-himawari.net/",
    "pref": "福岡県",
    "city": "芦屋町",
    "category": "day_service",
    "serviceType": "通所介護",
    "capacity": 8,
    "openDays": [
      "平日",
      "土曜日",
      "祝日"
    ],
    "openDaysNote": "営業時間以外は、転送電話による対応"
  },
  {
    "id": "4074900319",
    "name": "デイサービスみらい",
    "kana": "デイサービスミライ",
    "address": "福岡県遠賀郡芦屋町山鹿109番地２",
    "lat": 33.898611,
    "lng": 130.6679676,
    "tel": "093－701-8028",
    "url": "",
    "pref": "福岡県",
    "city": "芦屋町",
    "category": "day_service",
    "serviceType": "通所介護",
    "capacity": 0,
    "openDays": [
      "平日",
      "土曜日",
      "日曜日",
      "祝日"
    ],
    "openDaysNote": "ディサービスみらいサテライトは日曜日営業"
  },
  {
    "id": "4074900186",
    "name": "通所介護　花美・菜の花",
    "kana": "ツウショカイゴ　ハナミ・ナノハナ",
    "address": "福岡県遠賀郡芦屋町大字山鹿３８０－２",
    "lat": 33.9043700727694,
    "lng": 130.671696409049,
    "tel": "０９３－２２１－１６４１",
    "url": "www.c-nanohana.com",
    "pref": "福岡県",
    "city": "芦屋町",
    "category": "day_service",
    "serviceType": "通所介護",
    "capacity": 20,
    "openDays": [
      "平日",
      "土曜日",
      "祝日"
    ],
    "openDaysNote": ""
  },
  {
    "id": "4074900046",
    "name": "特別養護老人ホームまつかぜ荘　デイサービスセンター",
    "kana": "トクベツヨウゴロウジンホームマツカゼソウデイサービスセンター",
    "address": "福岡県遠賀郡芦屋町緑ヶ丘2-2",
    "lat": 33.8868015,
    "lng": 130.6672289,
    "tel": "093-222-0765",
    "url": "",
    "pref": "福岡県",
    "city": "芦屋町",
    "category": "day_service",
    "serviceType": "通所介護",
    "capacity": 30,
    "openDays": [
      "平日",
      "土曜日",
      "祝日"
    ],
    "openDaysNote": ""
  },
  {
    "id": "4075400582",
    "name": "デイサービス　シャフト",
    "kana": "デイサービス　シャフト",
    "address": "福岡県鞍手郡鞍手町大字猪倉360",
    "lat": 33.8004515,
    "lng": 130.6827868,
    "tel": "0949-52-7330",
    "url": "",
    "pref": "福岡県",
    "city": "鞍手町",
    "category": "day_service",
    "serviceType": "通所介護",
    "capacity": 5,
    "openDays": [
      "平日",
      "土曜日",
      "祝日"
    ],
    "openDaysNote": ""
  },
  {
    "id": "4075400442",
    "name": "デイサービスくらて",
    "kana": "デイサービスクラテ",
    "address": "鞍手郡鞍手町大字中山2446-32",
    "lat": 33.7841401253729,
    "lng": 130.687169176355,
    "tel": "0949-42-3188",
    "url": "http://fukushi-kurate.main.jp/index.html",
    "pref": "福岡県",
    "city": "鞍手町",
    "category": "day_service",
    "serviceType": "通所介護",
    "capacity": 35,
    "openDays": [
      "平日",
      "土曜日",
      "祝日"
    ],
    "openDaysNote": ""
  },
  {
    "id": "4075400558",
    "name": "デイサービスワンハンドレット",
    "kana": "デイサービスワンハンドレット",
    "address": "大字中山2402-6",
    "lat": 33.7856804,
    "lng": 130.6899157,
    "tel": "0949-43-1813",
    "url": "",
    "pref": "福岡県",
    "city": "鞍手町",
    "category": "day_service",
    "serviceType": "通所介護",
    "capacity": null,
    "openDays": [
      "平日",
      "土曜日"
    ],
    "openDaysNote": "特になし"
  },
  {
    "id": "4075400152",
    "name": "ふれあいYOUYOU館",
    "kana": "フレアイユウユウカン",
    "address": "鞍手郡鞍手町大字新延２８９－１",
    "lat": 33.7888242,
    "lng": 130.6704138,
    "tel": "0949-42-7378",
    "url": "http://kurate-yutaka-fukushikai.com",
    "pref": "福岡県",
    "city": "鞍手町",
    "category": "day_service",
    "serviceType": "通所介護",
    "capacity": 20,
    "openDays": [
      "平日",
      "土曜日",
      "祝日"
    ],
    "openDaysNote": ""
  },
  {
    "id": "4075400046",
    "name": "やすらぎ園デイサービスセンター",
    "kana": "ヤスラギエンデイサービスセンター",
    "address": "福岡県鞍手郡鞍手町大字木月1826番地1",
    "lat": 33.7989375310282,
    "lng": 130.677303182309,
    "tel": "0949-42-6896",
    "url": "http://www.yasuragi-en.or.jp",
    "pref": "福岡県",
    "city": "鞍手町",
    "category": "day_service",
    "serviceType": "通所介護",
    "capacity": 40,
    "openDays": [
      "平日",
      "土曜日",
      "祝日"
    ],
    "openDaysNote": "祝日、盆期間営業"
  },
  {
    "id": "4075400608",
    "name": "リハビリデイサービスアドバンス",
    "kana": "リハビリデイサービスアドバンス",
    "address": "福岡県鞍手郡鞍手町大字中山2377-1サンシャトービル101 サンシャトービル101",
    "lat": 33.7883938,
    "lng": 130.6877689,
    "tel": "0949-28-9466",
    "url": "http://hp.kaipoke.biz/zpg/",
    "pref": "福岡県",
    "city": "鞍手町",
    "category": "day_service",
    "serviceType": "通所介護",
    "capacity": 0,
    "openDays": [
      "平日",
      "祝日"
    ],
    "openDaysNote": ""
  },
  {
    "id": "4075400491",
    "name": "恵みの里　デイサービスセンター",
    "kana": "メグミノサト　デイサービスセンター",
    "address": "福岡県鞍手郡鞍手町大字新北1678番地",
    "lat": 33.7762147,
    "lng": 130.6757386,
    "tel": "0949-42-7750",
    "url": "http://meguminosato.net/",
    "pref": "福岡県",
    "city": "鞍手町",
    "category": "day_service",
    "serviceType": "通所介護",
    "capacity": 25,
    "openDays": [
      "平日",
      "土曜日",
      "祝日"
    ],
    "openDaysNote": "手厚い介護が提供できるよう、基準以上の要員を配置し対応しています。"
  },
  {
    "id": "4075400434",
    "name": "社会福祉法人グリーンコープやすらぎの家鞍手デイサービスセンター",
    "kana": "シャカイフクシホウジングリーンコープヤスラギノイエクラテデイサービスセンター",
    "address": "福岡県鞍手郡鞍手町大字中山2451グリーンコープ鞍手店2Ｆ グリーンコープ鞍手店2Ｆ",
    "lat": 33.7892023,
    "lng": 130.68481,
    "tel": "0949-42-5440",
    "url": "http://www.fukushai-greencoop.or.jp",
    "pref": "福岡県",
    "city": "鞍手町",
    "category": "day_service",
    "serviceType": "通所介護",
    "capacity": 20,
    "openDays": [
      "平日",
      "土曜日",
      "祝日"
    ],
    "openDaysNote": ""
  },
  {
    "id": "4073800528",
    "name": "すこやか　デイサービスセンター",
    "kana": "スコヤカ　デイサービスセンター",
    "address": "福岡県糟屋郡宇美町障子岳南２丁目２２番１０号",
    "lat": 33.5619947929429,
    "lng": 130.537953107378,
    "tel": "092-957-0107",
    "url": "",
    "pref": "福岡県",
    "city": "宇美町",
    "category": "day_service",
    "serviceType": "通所介護",
    "capacity": 0,
    "openDays": [
      "平日",
      "土曜日",
      "祝日"
    ],
    "openDaysNote": "お盆・正月は運営しております。"
  },
  {
    "id": "4073800692",
    "name": "デイサービスうみもも館",
    "kana": "デイサービスウミモモカン",
    "address": "福岡県糟屋郡宇美町平和1丁目17番7",
    "lat": 33.5719985492892,
    "lng": 130.521560923279,
    "tel": "092-405-0102",
    "url": "",
    "pref": "福岡県",
    "city": "宇美町",
    "category": "day_service",
    "serviceType": "通所介護",
    "capacity": 0,
    "openDays": [
      "平日",
      "土曜日",
      "祝日"
    ],
    "openDaysNote": ""
  },
  {
    "id": "4073800296",
    "name": "デイサービスセンター　ライフケア宇美",
    "kana": "デイサービスセンターライフケアウミ",
    "address": "福岡県糟屋郡宇美町大字井野414番地1",
    "lat": 33.5689951,
    "lng": 130.4974974,
    "tel": "092-515-3663",
    "url": "",
    "pref": "福岡県",
    "city": "宇美町",
    "category": "day_service",
    "serviceType": "通所介護",
    "capacity": 0,
    "openDays": [
      "平日",
      "土曜日",
      "祝日"
    ],
    "openDaysNote": ""
  },
  {
    "id": "4073800569",
    "name": "デイサービスセンター神苑",
    "kana": "デイサービスセンターシンエン",
    "address": "明神坂１丁目２番２３号住宅型有料老人ホーム神苑 住宅型有料老人ホーム神苑",
    "lat": 33.5722086,
    "lng": 130.5123038,
    "tel": "０９２－９３３－５１８１",
    "url": "",
    "pref": "福岡県",
    "city": "宇美町",
    "category": "day_service",
    "serviceType": "通所介護",
    "capacity": 0,
    "openDays": [
      "平日",
      "土曜日",
      "祝日"
    ],
    "openDaysNote": "お盆期間（8月13日～8月15日）は曜日の関係で営業が休みになる場合もある。"
  },
  {
    "id": "4073800601",
    "name": "デイサービスなかよし",
    "kana": "デイサービスナカヨシ",
    "address": "糟屋郡宇美町宇美東2丁目15番19号住宅型有料老人ホームなかよし 住宅型有料老人ホームなかよし",
    "lat": 33.5700066,
    "lng": 130.5350271,
    "tel": "092-957-6130",
    "url": "http://nakayoshi-kaigo.com",
    "pref": "福岡県",
    "city": "宇美町",
    "category": "day_service",
    "serviceType": "通所介護",
    "capacity": 30,
    "openDays": [
      "平日",
      "土曜日"
    ],
    "openDaysNote": ""
  },
  {
    "id": "4073800718",
    "name": "みかさの里デイサービスきふね",
    "kana": "ミカサノサトデイサービスキフネ",
    "address": "福岡県糟屋郡宇美町貴船1丁目30番1号",
    "lat": 33.564294,
    "lng": 130.5141052,
    "tel": "092-692-8192",
    "url": "",
    "pref": "福岡県",
    "city": "宇美町",
    "category": "day_service",
    "serviceType": "通所介護",
    "capacity": null,
    "openDays": [
      "平日",
      "土曜日",
      "日曜日",
      "祝日"
    ],
    "openDaysNote": ""
  },
  {
    "id": "4073800643",
    "name": "みらいサポ－ト株式会社",
    "kana": "ミライサポートカブシキガイシャ",
    "address": "福岡県糟屋郡宇美町宇美1-4-25",
    "lat": 33.5711115,
    "lng": 130.5116651,
    "tel": "092-933-7645",
    "url": "",
    "pref": "福岡県",
    "city": "宇美町",
    "category": "day_service",
    "serviceType": "通所介護",
    "capacity": 0,
    "openDays": [
      "平日",
      "土曜日",
      "祝日"
    ],
    "openDaysNote": "毎週土曜・日曜日と年始1/1.1/2は営業なし。祭日に関しては通常営業とする。"
  },
  {
    "id": "4073800387",
    "name": "ライフケア宇美Ⅱ号館",
    "kana": "ライフケアウミニゴウカン",
    "address": "糟屋郡宇美町大字井野532-1",
    "lat": 33.5677286,
    "lng": 130.5002581,
    "tel": "092-775-6121",
    "url": "",
    "pref": "福岡県",
    "city": "宇美町",
    "category": "day_service",
    "serviceType": "通所介護",
    "capacity": 0,
    "openDays": [
      "平日",
      "土曜日"
    ],
    "openDaysNote": ""
  },
  {
    "id": "4073800270",
    "name": "宇美中央デイサービスセンターふれあい倶楽部",
    "kana": "ウミチュウオウデイサービスセンターフレアイクラブ",
    "address": "福岡県糟屋郡宇美町障子岳6丁目4-16",
    "lat": 33.5642295,
    "lng": 130.5409735,
    "tel": "092-933-6211",
    "url": "https://www.amenitylife-f.co.jp/",
    "pref": "福岡県",
    "city": "宇美町",
    "category": "day_service",
    "serviceType": "通所介護",
    "capacity": 45,
    "openDays": [
      "平日",
      "土曜日",
      "祝日"
    ],
    "openDaysNote": "なし"
  },
  {
    "id": "4073800551",
    "name": "華の丘デイサービス",
    "kana": "ハナノオカデイサービス",
    "address": "福岡県糟屋郡宇美町神武原3-29-5住宅型有料老人ホームゆうはな 住宅型有料老人ホームゆうはな",
    "lat": 33.5757169,
    "lng": 130.5344931,
    "tel": "092－932－7051",
    "url": "",
    "pref": "福岡県",
    "city": "宇美町",
    "category": "day_service",
    "serviceType": "通所介護",
    "capacity": 25,
    "openDays": [
      "平日",
      "土曜日",
      "祝日"
    ],
    "openDaysNote": ""
  },
  {
    "id": "4073800726",
    "name": "悠愛デイサービスセンターお結び家",
    "kana": "ユウアイデイサービスセンターオムスビヤ",
    "address": "福岡県糟屋郡宇美町貴船２丁目３０番３号おむすび舎ゆうあい　1F おむすび舎ゆうあい　1F",
    "lat": 33.5596859699928,
    "lng": 130.510930214819,
    "tel": "092-410-1937",
    "url": "https://a-lifesupport.co.jp/",
    "pref": "福岡県",
    "city": "宇美町",
    "category": "day_service",
    "serviceType": "通所介護",
    "capacity": null,
    "openDays": [
      "平日",
      "土曜日",
      "祝日"
    ],
    "openDaysNote": ""
  },
  {
    "id": "4075200545",
    "name": "ソレイユ遠賀デイサービスセンター",
    "kana": "ソレイユオンガデイサービスセンター",
    "address": "福岡県遠賀郡遠賀町大字鬼津６４０番地１",
    "lat": 33.8688151,
    "lng": 130.6575883,
    "tel": "０９３－２９１－２０２０",
    "url": "http://soreiyugroup.or.jp",
    "pref": "福岡県",
    "city": "遠賀町",
    "category": "day_service",
    "serviceType": "通所介護",
    "capacity": 35,
    "openDays": [
      "平日",
      "土曜日",
      "祝日"
    ],
    "openDaysNote": "事業所の営業日及び営業時間はこの通りとする。ただし、災害・悪天候等止むを得ない事情が生じた場合は、利用者等に連絡の上、変更することがある。"
  },
  {
    "id": "4075000440",
    "name": "デイサービス　オアシス",
    "kana": "デイサービス　オアシス",
    "address": "福岡県遠賀郡遠賀町大字今古賀６３９－１",
    "lat": 33.8505090546929,
    "lng": 130.669560710576,
    "tel": "093-291-1656",
    "url": "",
    "pref": "福岡県",
    "city": "遠賀町",
    "category": "day_service",
    "serviceType": "通所介護",
    "capacity": 30,
    "openDays": [
      "平日",
      "土曜日",
      "祝日"
    ],
    "openDaysNote": ""
  },
  {
    "id": "4075200453",
    "name": "デイサービス　きもり",
    "kana": "デイサービス　キモリ",
    "address": "福岡県遠賀郡遠賀町大字浅木５７６番地シルバーケア　きもり シルバーケア　きもり",
    "lat": 33.8354812713667,
    "lng": 130.668676586369,
    "tel": "０９３－２９１－１８１１",
    "url": "kenai@kenai.or.jp",
    "pref": "福岡県",
    "city": "遠賀町",
    "category": "day_service",
    "serviceType": "通所介護",
    "capacity": 30,
    "openDays": [
      "平日",
      "土曜日",
      "祝日"
    ],
    "openDaysNote": ""
  },
  {
    "id": "4075200487",
    "name": "デイサービスこころ　１０人１０色",
    "kana": "デイサービスココロ　ジュウニントイロ",
    "address": "福岡県遠賀郡遠賀町別府３６５６ー６",
    "lat": 33.8477370237022,
    "lng": 130.660577126984,
    "tel": "093-291-1100",
    "url": "http://fukushinin.co.jp/wp/day_10nin/",
    "pref": "福岡県",
    "city": "遠賀町",
    "category": "day_service",
    "serviceType": "通所介護",
    "capacity": 25,
    "openDays": [
      "平日",
      "土曜日",
      "祝日"
    ],
    "openDaysNote": "営業時間外のご利用等もご相談に応じます。"
  },
  {
    "id": "4075200503",
    "name": "デイサービスこころ　む笑づ",
    "kana": "デイサービスココロ　ムショウヅ",
    "address": "福岡県遠賀郡遠賀町虫生津692-6",
    "lat": 33.8253395,
    "lng": 130.6619973,
    "tel": "093-293-2501",
    "url": "",
    "pref": "福岡県",
    "city": "遠賀町",
    "category": "day_service",
    "serviceType": "通所介護",
    "capacity": 30,
    "openDays": [
      "平日",
      "土曜日",
      "祝日"
    ],
    "openDaysNote": ""
  },
  {
    "id": "4075200578",
    "name": "デイサービスゆうわ　ひなた館",
    "kana": "デイサービスユウワ　ヒナタカン",
    "address": "福岡県遠賀郡遠賀町大字島津621-1デイサービスゆうわ　ひなた館 デイサービスゆうわ　ひなた館",
    "lat": 33.8740669887947,
    "lng": 130.673247938762,
    "tel": "093-291-3696",
    "url": "https://yuuwa-day.theblog.me",
    "pref": "福岡県",
    "city": "遠賀町",
    "category": "day_service",
    "serviceType": "通所介護",
    "capacity": 20,
    "openDays": [
      "平日",
      "土曜日",
      "祝日"
    ],
    "openDaysNote": ""
  },
  {
    "id": "4075200412",
    "name": "デイサービス森の風　遠賀",
    "kana": "デイサービス　モリノカゼ　オンガ",
    "address": "福岡県遠賀郡遠賀町４６６－２－３",
    "lat": 33.8476862269555,
    "lng": 130.665955755234,
    "tel": "093-291-2001",
    "url": "morinokaze.onga@voice.ocn.ne.jp",
    "pref": "福岡県",
    "city": "遠賀町",
    "category": "day_service",
    "serviceType": "通所介護",
    "capacity": 45,
    "openDays": [
      "平日",
      "土曜日",
      "祝日"
    ],
    "openDaysNote": ""
  },
  {
    "id": "4075200529",
    "name": "なごみデイサービス",
    "kana": "ナゴミデイサービス",
    "address": "福岡県遠賀郡遠賀町大字別府3161番1号",
    "lat": 33.8459762,
    "lng": 130.6583862,
    "tel": "093-701-6528",
    "url": "https://www.nozomi-sogopuran.com",
    "pref": "福岡県",
    "city": "遠賀町",
    "category": "day_service",
    "serviceType": "通所介護",
    "capacity": 19,
    "openDays": [
      "平日",
      "土曜日",
      "祝日"
    ],
    "openDaysNote": "祝日も営業しています（改行）8月13～15日（お盆）休み（改行）12月30日～1月3日（年末年始）休み"
  },
  {
    "id": "4075200396",
    "name": "リハデイオレンジ",
    "kana": "リハデイオレンジ",
    "address": "遠賀郡遠賀町広渡1977－7",
    "lat": 33.856586,
    "lng": 130.6741511,
    "tel": "093-701-7020",
    "url": "",
    "pref": "福岡県",
    "city": "遠賀町",
    "category": "day_service",
    "serviceType": "通所介護",
    "capacity": 30,
    "openDays": [
      "平日",
      "土曜日",
      "祝日"
    ],
    "openDaysNote": ""
  },
  {
    "id": "4075200495",
    "name": "リハビリデイサービス　いきいき遠賀",
    "kana": "リハビリデイサービス　イキイキオンガ",
    "address": "福岡県遠賀郡遠賀町別府4105",
    "lat": 33.8505946370039,
    "lng": 130.656005482581,
    "tel": "093-291-1801",
    "url": "grin-onga.com",
    "pref": "福岡県",
    "city": "遠賀町",
    "category": "day_service",
    "serviceType": "通所介護",
    "capacity": 0,
    "openDays": [
      "平日",
      "土曜日",
      "祝日"
    ],
    "openDaysNote": "12月31日、1月1日～1月3日は休み"
  },
  {
    "id": "4075200081",
    "name": "遠賀園指定通所介護事業所　ふれあい",
    "kana": "オンガエンシテイツウショカイゴジギョウショ　フレアイ",
    "address": "福岡県遠賀郡遠賀町浅木3丁目18-1",
    "lat": 33.8256312,
    "lng": 130.6672052,
    "tel": "093-293-5522",
    "url": "http://ongaen.net/",
    "pref": "福岡県",
    "city": "遠賀町",
    "category": "day_service",
    "serviceType": "通所介護",
    "capacity": 0,
    "openDays": [
      "平日",
      "土曜日",
      "祝日"
    ],
    "openDaysNote": "時間外は要相談。"
  },
  {
    "id": "4075100141",
    "name": "いこいの里　デイサービスセンター",
    "kana": "イコイノサト　デイサービスセンター",
    "address": "福岡県遠賀郡岡垣町大字高倉598-1",
    "lat": 33.8486193,
    "lng": 130.6038632,
    "tel": "093-283-2811",
    "url": "http://nihonsyouisya.jp/",
    "pref": "福岡県",
    "city": "岡垣町",
    "category": "day_service",
    "serviceType": "通所介護",
    "capacity": 0,
    "openDays": [
      "平日",
      "土曜日",
      "日曜日",
      "祝日"
    ],
    "openDaysNote": ""
  },
  {
    "id": "4075101032",
    "name": "サンライト海老津",
    "kana": "サンライトエビツ",
    "address": "福岡県遠賀郡岡垣町大字海老津1100番地1",
    "lat": 33.8359142482832,
    "lng": 130.614992226029,
    "tel": "093-482-8878",
    "url": "https://light-sogo.com",
    "pref": "福岡県",
    "city": "岡垣町",
    "category": "day_service",
    "serviceType": "通所介護",
    "capacity": 30,
    "openDays": [
      "平日",
      "土曜日",
      "祝日"
    ],
    "openDaysNote": ""
  },
  {
    "id": "4075101065",
    "name": "デイサービスセンター　クレア",
    "kana": "デイサービスセンタークレア",
    "address": "福岡県遠賀郡岡垣町中央台３丁目２２番１号",
    "lat": 33.8484367,
    "lng": 130.6222694,
    "tel": "093-281-3032",
    "url": "",
    "pref": "福岡県",
    "city": "岡垣町",
    "category": "day_service",
    "serviceType": "通所介護",
    "capacity": 0,
    "openDays": [
      "平日",
      "祝日"
    ],
    "openDaysNote": ""
  },
  {
    "id": "4075100992",
    "name": "デイサービスセンターいいあす",
    "kana": "デイサービスセンターイイアス",
    "address": "福岡県遠賀郡岡垣町公園通り1-13-2",
    "lat": 33.8487749,
    "lng": 130.608657537434,
    "tel": "093-701-7408",
    "url": "https://www.asunaro-okagaki.jp/iiasu/",
    "pref": "福岡県",
    "city": "岡垣町",
    "category": "day_service",
    "serviceType": "通所介護",
    "capacity": 32,
    "openDays": [
      "平日",
      "土曜日",
      "祝日"
    ],
    "openDaysNote": "台風接近や積雪、大雨に伴う臨時休業および時間短縮あり。"
  },
  {
    "id": "4075100612",
    "name": "デイサービスわらいの里",
    "kana": "デイサービスワライノサト",
    "address": "大字糠塚436-1住宅型有料老人ホームわらいの里 住宅型有料老人ホームわらいの里",
    "lat": 40.4945417,
    "lng": 141.4824557,
    "tel": "932831600",
    "url": "http://www.warainosato.co.jp",
    "pref": "福岡県",
    "city": "岡垣町",
    "category": "day_service",
    "serviceType": "通所介護",
    "capacity": 30,
    "openDays": [
      "平日",
      "土曜日",
      "日曜日",
      "祝日"
    ],
    "openDaysNote": ""
  },
  {
    "id": "4075100661",
    "name": "リハデイ吉木",
    "kana": "リハデイヨシキ",
    "address": "遠賀郡岡垣町吉木東二丁目２３番１号",
    "lat": 33.8593403,
    "lng": 130.6057655,
    "tel": "093-701-5381",
    "url": "http://www.re-live1105.com",
    "pref": "福岡県",
    "city": "岡垣町",
    "category": "day_service",
    "serviceType": "通所介護",
    "capacity": 22,
    "openDays": [
      "平日",
      "土曜日",
      "祝日"
    ],
    "openDaysNote": "日曜と、年末年始（１２月３１日から１月３日）は休み"
  },
  {
    "id": "4075101115",
    "name": "リハビリデイホワイト",
    "kana": "リハビリデイホワイト",
    "address": "福岡県遠賀郡岡垣町海老津3-1-5シティフォレスト海老津103 シティフォレスト海老津103",
    "lat": 33.8380812,
    "lng": 130.6162187,
    "tel": "093-701-7718",
    "url": "http://rihabiridei-white.my.canva.site/",
    "pref": "福岡県",
    "city": "岡垣町",
    "category": "day_service",
    "serviceType": "通所介護",
    "capacity": null,
    "openDays": [
      "平日",
      "祝日"
    ],
    "openDaysNote": ""
  },
  {
    "id": "4075101107",
    "name": "リハビリ特化型デイ　ＳＭＩＬＥ　ＵＰ",
    "kana": "リハビリトッカガタデイ　スマイルアップ",
    "address": "福岡県遠賀郡岡垣町野間2丁目15-18",
    "lat": 33.8479277,
    "lng": 130.6136581,
    "tel": "093-281-5566",
    "url": "",
    "pref": "福岡県",
    "city": "岡垣町",
    "category": "day_service",
    "serviceType": "通所介護",
    "capacity": null,
    "openDays": [
      "平日",
      "祝日"
    ],
    "openDaysNote": ""
  },
  {
    "id": "4075101040",
    "name": "りんどう",
    "kana": "リンドウ",
    "address": "福岡県遠賀郡岡垣町大字山田679番地",
    "lat": 33.8555506,
    "lng": 130.6308774,
    "tel": "093-701-6655",
    "url": "",
    "pref": "福岡県",
    "city": "岡垣町",
    "category": "day_service",
    "serviceType": "通所介護",
    "capacity": 20,
    "openDays": [
      "平日",
      "土曜日",
      "祝日"
    ],
    "openDaysNote": "台風や大雪など荒天時や災害時には熟慮の上、利用者様の安全を考慮してお休みとすることあり。"
  },
  {
    "id": "4075100232",
    "name": "恵壽苑でいさーびす",
    "kana": "ケイジュエンデイサービス",
    "address": "福岡県遠賀郡岡垣町大字手野1380番地2",
    "lat": 33.8659919,
    "lng": 130.5790701,
    "tel": "093-283-0810",
    "url": "",
    "pref": "福岡県",
    "city": "岡垣町",
    "category": "day_service",
    "serviceType": "通所介護",
    "capacity": 20,
    "openDays": [
      "平日",
      "土曜日",
      "祝日"
    ],
    "openDaysNote": ""
  },
  {
    "id": "4075100802",
    "name": "芸術を楽しむ人と恋人達",
    "kana": "ゲイジュツヲタノシムヒトトコイビトタチ",
    "address": "福岡県遠賀郡岡垣町中央台六丁目10番9号",
    "lat": 33.8482707535804,
    "lng": 130.616923107548,
    "tel": "093-701-7688",
    "url": "http://www.akarikai.net/",
    "pref": "福岡県",
    "city": "岡垣町",
    "category": "day_service",
    "serviceType": "通所介護",
    "capacity": 0,
    "openDays": [
      "平日",
      "土曜日",
      "祝日"
    ],
    "openDaysNote": ""
  },
  {
    "id": "4075100711",
    "name": "山田の小道",
    "kana": "ヤマダノコミチ",
    "address": "福岡県遠賀郡岡垣町大字山田913番地2",
    "lat": 33.8552467486976,
    "lng": 130.632089413492,
    "tel": "093-281-3720",
    "url": "",
    "pref": "福岡県",
    "city": "岡垣町",
    "category": "day_service",
    "serviceType": "通所介護",
    "capacity": 20,
    "openDays": [
      "平日",
      "土曜日",
      "祝日"
    ],
    "openDaysNote": ""
  },
  {
    "id": "4075100778",
    "name": "自立支援型デイサービスこころ　1娯1笑",
    "kana": "ジリツシエンガタデイサービスココロ　イチゴイチエ",
    "address": "福岡県遠賀郡岡垣町大字山田944番地",
    "lat": 33.8561853,
    "lng": 130.6306467,
    "tel": "093-701-8870",
    "url": "http://fukushinin.co.jp",
    "pref": "福岡県",
    "city": "岡垣町",
    "category": "day_service",
    "serviceType": "通所介護",
    "capacity": 20,
    "openDays": [
      "平日",
      "土曜日",
      "祝日"
    ],
    "openDaysNote": "体験利用は初回無料（昼食代も無料）です。（改行）自費利用も相談に応じて実施しています。（改行）短時間や半日のご利用も可能です。"
  },
  {
    "id": "4075100810",
    "name": "松島医院　遊友館デイサービスセンター",
    "kana": "マツシマイイン　ユウユウカンデイサービスセンター",
    "address": "福岡県遠賀郡岡垣町大字高倉1935番１",
    "lat": 33.8416032381555,
    "lng": 130.595510213862,
    "tel": "093-281-3502",
    "url": "",
    "pref": "福岡県",
    "city": "岡垣町",
    "category": "day_service",
    "serviceType": "通所介護",
    "capacity": 25,
    "openDays": [
      "平日",
      "土曜日",
      "祝日"
    ],
    "openDaysNote": ""
  },
  {
    "id": "4072100581",
    "name": "アベニール・デイ　ちゃい夢",
    "kana": "アベニール・デイ　チャイム",
    "address": "福岡県嘉麻市山野1278-31",
    "lat": 33.6133110231971,
    "lng": 130.703193456622,
    "tel": "0948-42-1003",
    "url": "",
    "pref": "福岡県",
    "city": "嘉麻市",
    "category": "day_service",
    "serviceType": "通所介護",
    "capacity": 20,
    "openDays": [
      "平日",
      "土曜日",
      "祝日"
    ],
    "openDaysNote": ""
  },
  {
    "id": "4072100631",
    "name": "デイサービスこころの森",
    "kana": "デイサービスココロノモリ",
    "address": "福岡県嘉麻市鴨生94-28",
    "lat": 33.606345,
    "lng": 130.7332507,
    "tel": "0948-42-6644",
    "url": "http://cocoroplus.co.jp/contact.html",
    "pref": "福岡県",
    "city": "嘉麻市",
    "category": "day_service",
    "serviceType": "通所介護",
    "capacity": 25,
    "openDays": [
      "平日",
      "土曜日",
      "祝日"
    ],
    "openDaysNote": ""
  },
  {
    "id": "4072100912",
    "name": "デイサービスすぱいだー",
    "kana": "デイサービススパイダー",
    "address": "貞月340-1株式会社アロヒスパイダー 株式会社アロヒスパイダー",
    "lat": 33.5547453,
    "lng": 130.7316085,
    "tel": "0948-52-3937",
    "url": "https://alohi-spider.com/",
    "pref": "福岡県",
    "city": "嘉麻市",
    "category": "day_service",
    "serviceType": "通所介護",
    "capacity": 20,
    "openDays": [
      "平日",
      "土曜日",
      "日曜日",
      "祝日"
    ],
    "openDaysNote": ""
  },
  {
    "id": "4072100797",
    "name": "デイサービスすまいる",
    "kana": "デイサービススマイル",
    "address": "福岡県嘉麻市平山11番地1",
    "lat": 33.5609407,
    "lng": 130.6968426,
    "tel": "0948-20-8070",
    "url": "",
    "pref": "福岡県",
    "city": "嘉麻市",
    "category": "day_service",
    "serviceType": "通所介護",
    "capacity": 0,
    "openDays": [
      "平日",
      "土曜日",
      "祝日"
    ],
    "openDaysNote": "その他、12月30日～1月3日の5日間"
  },
  {
    "id": "4072100532",
    "name": "ベストライフ株式会社　東ケ丘デイサービスセンターひばり",
    "kana": "ベストライフカブシキガイシャ　ヒガシガオカデイサービスセンターヒバリ",
    "address": "福岡県嘉麻市漆生１３１７番地２６",
    "lat": 33.5898577587498,
    "lng": 130.723041078049,
    "tel": "０９４８－４２－５４００",
    "url": "http//www.best-fukushi.co.jp",
    "pref": "福岡県",
    "city": "嘉麻市",
    "category": "day_service",
    "serviceType": "通所介護",
    "capacity": 49,
    "openDays": [
      "平日",
      "土曜日",
      "日曜日",
      "祝日"
    ],
    "openDaysNote": ""
  },
  {
    "id": "4072100854",
    "name": "ローシャルデイサービス嘉麻",
    "kana": "ローシャルデイサービスカマ",
    "address": "福岡県嘉麻市山野2295-10",
    "lat": 33.6048802,
    "lng": 130.7063924,
    "tel": "0948-43-8490",
    "url": "https://www.the-harmony.net/facility/index.html",
    "pref": "福岡県",
    "city": "嘉麻市",
    "category": "day_service",
    "serviceType": "通所介護",
    "capacity": 0,
    "openDays": [
      "平日",
      "土曜日",
      "日曜日",
      "祝日"
    ],
    "openDaysNote": ""
  },
  {
    "id": "4072100896",
    "name": "愛恵デイサービス",
    "kana": "アイケイデイサービス",
    "address": "福岡県嘉麻市鴨生222番地",
    "lat": 33.6065653,
    "lng": 130.7295198,
    "tel": "0948-42-6579",
    "url": "",
    "pref": "福岡県",
    "city": "嘉麻市",
    "category": "day_service",
    "serviceType": "通所介護",
    "capacity": null,
    "openDays": [
      "平日",
      "土曜日"
    ],
    "openDaysNote": ""
  },
  {
    "id": "4072100490",
    "name": "嘉麻良創夢デイサービスセンター",
    "kana": "カマ　ラソウムデイサービスセンター",
    "address": "福岡県嘉麻市飯田５１１－１",
    "lat": 33.5675837704579,
    "lng": 130.697836263619,
    "tel": "0948-20-8021",
    "url": "http://www.rasoumu.co.jp/",
    "pref": "福岡県",
    "city": "嘉麻市",
    "category": "day_service",
    "serviceType": "通所介護",
    "capacity": 10,
    "openDays": [
      "平日",
      "土曜日",
      "祝日"
    ],
    "openDaysNote": ""
  },
  {
    "id": "4076000092",
    "name": "鎌田病院デイサービスセンター",
    "kana": "カマダビョウインデイサービスセンター",
    "address": "福岡県嘉麻市中益420-1",
    "lat": 33.5449047,
    "lng": 130.7456774,
    "tel": "0948-57-3533",
    "url": "kamada-day@bloom.ocn.ne.jp",
    "pref": "福岡県",
    "city": "嘉麻市",
    "category": "day_service",
    "serviceType": "通所介護",
    "capacity": 48,
    "openDays": [
      "平日",
      "土曜日",
      "祝日"
    ],
    "openDaysNote": ""
  },
  {
    "id": "4072100805",
    "name": "社会保険稲築病院デイサービスセンター",
    "kana": "シャカイホケンイナツキビョウインデイサービスセンター",
    "address": "福岡県嘉麻市口春744番地1",
    "lat": 33.6004446,
    "lng": 130.7134013,
    "tel": "0948-43-0755",
    "url": "",
    "pref": "福岡県",
    "city": "嘉麻市",
    "category": "day_service",
    "serviceType": "通所介護",
    "capacity": null,
    "openDays": [
      "平日",
      "土曜日",
      "祝日"
    ],
    "openDaysNote": ""
  },
  {
    "id": "4075800112",
    "name": "松寿園デイサ－ビスセンター",
    "kana": "ショウジュエンデイサービスセンター",
    "address": "福岡県嘉麻市漆生2338-1",
    "lat": 33.5900492,
    "lng": 130.7088923,
    "tel": "0948-42-2200",
    "url": "",
    "pref": "福岡県",
    "city": "嘉麻市",
    "category": "day_service",
    "serviceType": "通所介護",
    "capacity": 30,
    "openDays": [
      "平日",
      "土曜日",
      "祝日"
    ],
    "openDaysNote": ""
  },
  {
    "id": "4072100862",
    "name": "笑顔満開はなことば稲築",
    "kana": "エガオマンカイハナコトバイナツキ",
    "address": "岩崎503-1",
    "lat": null,
    "lng": null,
    "tel": "0948-43-8480",
    "url": "",
    "pref": "福岡県",
    "city": "嘉麻市",
    "category": "day_service",
    "serviceType": "通所介護",
    "capacity": 25,
    "openDays": [
      "平日",
      "土曜日",
      "日曜日",
      "祝日"
    ],
    "openDaysNote": "２４時間対応可能（改行）『お泊りデイサービス』"
  },
  {
    "id": "4075800245",
    "name": "第二稲穂園デイサービスセンター",
    "kana": "ダイニイナホエンデイサービスセンター",
    "address": "福岡県嘉麻市山野2373番地145",
    "lat": 33.6011147,
    "lng": 130.70682,
    "tel": "0948-43-1808",
    "url": "http://daini-inaho.jp",
    "pref": "福岡県",
    "city": "嘉麻市",
    "category": "day_service",
    "serviceType": "通所介護",
    "capacity": 0,
    "openDays": [
      "平日",
      "土曜日",
      "祝日"
    ],
    "openDaysNote": "祝日は営業"
  },
  {
    "id": "4075900029",
    "name": "通所介護　うすいの里",
    "kana": "ツウショカイゴ　ウスイノサト",
    "address": "福岡県嘉麻市下臼井１０５５番地",
    "lat": 33.5745742937768,
    "lng": 130.702854191506,
    "tel": "0948-62-5149",
    "url": "https://www.chikuhouen5020.jp",
    "pref": "福岡県",
    "city": "嘉麻市",
    "category": "day_service",
    "serviceType": "通所介護",
    "capacity": 30,
    "openDays": [
      "平日",
      "土曜日"
    ],
    "openDaysNote": "定休日以外の休日・・８月１３日～８月１５日　　１２月３１日～１月３日（改行）送迎時に利用者様に危害が及ぶ可能性が高い時（台風・大雪等）には、臨時休業をさせて頂く場合がございます。（改行）尚、臨時休業時においても電話は繋がります。（事業所が停電の時を除く）"
  },
  {
    "id": "4078000462",
    "name": "ツクイ苅田京町",
    "kana": "ツクイカンダキョウマチ",
    "address": "福岡県京都郡苅田町京町1-3-1",
    "lat": 33.7826378856197,
    "lng": 130.982164242239,
    "tel": "093-435-5255",
    "url": "https://www.tsukui.net/home-care/2437/",
    "pref": "福岡県",
    "city": "苅田町",
    "category": "day_service",
    "serviceType": "通所介護",
    "capacity": 30,
    "openDays": [
      "平日",
      "土曜日",
      "日曜日",
      "祝日"
    ],
    "openDaysNote": "1月1日のみ休業"
  },
  {
    "id": "4078000173",
    "name": "デイサービスセンター　えがお",
    "kana": "デイサービスセンター　エガオ",
    "address": "福岡県京都郡苅田町大字提字唐松２７８１番地",
    "lat": 33.7759209,
    "lng": 130.9805103,
    "tel": "093-434-6716",
    "url": "http://www.hakuaikai-group.jp/hakuaien/",
    "pref": "福岡県",
    "city": "苅田町",
    "category": "day_service",
    "serviceType": "通所介護",
    "capacity": 0,
    "openDays": [
      "平日",
      "土曜日",
      "祝日"
    ],
    "openDaysNote": ""
  },
  {
    "id": "4078000439",
    "name": "デイサービスセンター　コスモスかんだ",
    "kana": "デイサービスセンター　コスモスカンダ",
    "address": "福岡県京都郡苅田町尾倉2990-1住宅型有料老人ホームコスモスかんだ 住宅型有料老人ホームコスモスかんだ",
    "lat": 33.7652414,
    "lng": 130.978708,
    "tel": "093-435-0161",
    "url": "",
    "pref": "福岡県",
    "city": "苅田町",
    "category": "day_service",
    "serviceType": "通所介護",
    "capacity": 0,
    "openDays": [
      "平日",
      "土曜日",
      "祝日"
    ],
    "openDaysNote": ""
  },
  {
    "id": "4078000504",
    "name": "デイサービスセンター　ゆい",
    "kana": "デイサービスセンター　ユイ",
    "address": "福岡県京都郡苅田町与原2003番地8",
    "lat": 33.7537705984672,
    "lng": 130.994140228836,
    "tel": "0930-26-0023",
    "url": "",
    "pref": "福岡県",
    "city": "苅田町",
    "category": "day_service",
    "serviceType": "通所介護",
    "capacity": 0,
    "openDays": [
      "平日",
      "土曜日",
      "祝日"
    ],
    "openDaysNote": ""
  },
  {
    "id": "4078000314",
    "name": "通所介護リハビリセンターきずな　苅田店",
    "kana": "ツウショカイゴリハビリセンターキズナ　カンダテン",
    "address": "福岡県京都郡苅田町神田町一丁目6番地3MDIマンション一階 MDIマンション一階",
    "lat": 33.7828563,
    "lng": 130.9797407,
    "tel": "093-383-9213",
    "url": "https://www.reha-kizuna.com/",
    "pref": "福岡県",
    "city": "苅田町",
    "category": "day_service",
    "serviceType": "通所介護",
    "capacity": 20,
    "openDays": [
      "平日",
      "祝日"
    ],
    "openDaysNote": ""
  },
  {
    "id": "4070000163",
    "name": "白川園デイサービスセンター",
    "kana": "シラカワエン",
    "address": "福岡県　京都郡　苅田町大字法正寺６２３－１",
    "lat": 33.7482534,
    "lng": 130.9284872,
    "tel": "0930-23-8627",
    "url": "http://shirakawaen.group/",
    "pref": "福岡県",
    "city": "苅田町",
    "category": "day_service",
    "serviceType": "通所介護",
    "capacity": 80,
    "openDays": [
      "平日",
      "土曜日",
      "祝日"
    ],
    "openDaysNote": "連絡は２４時間対応しています。（改行）台風や積雪等で送迎が困難となった場合には休業する事もあります。その際は朝7時頃から連絡を入れています。"
  },
  {
    "id": "4074300098",
    "name": "デイサービスＴＯＲＩＵＳ",
    "kana": "デイサービストリアス",
    "address": "糟屋郡久山町大字山田1095-1トリアスＮ1棟 トリアスＮ1棟",
    "lat": 33.6551721667161,
    "lng": 130.490164935057,
    "tel": "092-957-5757",
    "url": "http://www.day-torius.com",
    "pref": "福岡県",
    "city": "久山町",
    "category": "day_service",
    "serviceType": "通所介護",
    "capacity": 80,
    "openDays": [
      "平日",
      "祝日"
    ],
    "openDaysNote": ""
  },
  {
    "id": "4074300072",
    "name": "デイサービスセンターレイクウッド久山",
    "kana": "デイサービスセンターレイクウッドヒサヤマ",
    "address": "福岡県糟屋郡久山町大字猪野字池ノ浦1610-40",
    "lat": 33.6781075410279,
    "lng": 130.500048176721,
    "tel": "092-976-0045",
    "url": "www.lakewoodhisayama.com",
    "pref": "福岡県",
    "city": "久山町",
    "category": "day_service",
    "serviceType": "通所介護",
    "capacity": 45,
    "openDays": [
      "平日",
      "土曜日",
      "祝日"
    ],
    "openDaysNote": ""
  },
  {
    "id": "4071600540",
    "name": "ＪＡくるめデイサービスセンターひかり",
    "kana": "ジェイエイクルメデイサービスセンターヒカリ",
    "address": "福岡県久留米市篠原町4-7",
    "lat": 33.3120511,
    "lng": 130.525405,
    "tel": "0942-33-2300",
    "url": "http://www.ja-kurume.or.jp/",
    "pref": "福岡県",
    "city": "久留米市",
    "category": "day_service",
    "serviceType": "通所介護",
    "capacity": 40,
    "openDays": [
      "平日",
      "土曜日",
      "祝日"
    ],
    "openDaysNote": ""
  },
  {
    "id": "4077800128",
    "name": "あおぎり荘在宅介護サービスセンター",
    "kana": "アオギリソウザイタクカイゴサービスセンター",
    "address": "福岡県久留米市城島町芦塚804番地1",
    "lat": 33.2798631,
    "lng": 130.4352064,
    "tel": "0942-62-2150",
    "url": "j-aogiri@ec5.technowave.ne.jp",
    "pref": "福岡県",
    "city": "久留米市",
    "category": "day_service",
    "serviceType": "通所介護",
    "capacity": 0,
    "openDays": [
      "平日",
      "土曜日",
      "日曜日",
      "祝日"
    ],
    "openDaysNote": ""
  },
  {
    "id": "4071603569",
    "name": "あかりデイサービス",
    "kana": "アカリデイサービス",
    "address": "福岡県久留米市大善寺町宮本３４２－２３",
    "lat": 33.2836615,
    "lng": 130.4851424,
    "tel": "0942-27-8238",
    "url": "http://akari24.jp/",
    "pref": "福岡県",
    "city": "久留米市",
    "category": "day_service",
    "serviceType": "通所介護",
    "capacity": 0,
    "openDays": [
      "平日",
      "土曜日",
      "祝日"
    ],
    "openDaysNote": ""
  },
  {
    "id": "4071602629",
    "name": "いきいき安武デイサービスセンター",
    "kana": "イキイキヤスタケデイサービスセンター",
    "address": "福岡県久留米市安武町安武本3273-4",
    "lat": 33.288182574626,
    "lng": 130.490289443317,
    "tel": "0942-26-8686",
    "url": "http://www.iki2-k.com",
    "pref": "福岡県",
    "city": "久留米市",
    "category": "day_service",
    "serviceType": "通所介護",
    "capacity": 42,
    "openDays": [
      "平日",
      "土曜日",
      "祝日"
    ],
    "openDaysNote": ""
  },
  {
    "id": "4071603395",
    "name": "いきいき野中デイサービスセンター",
    "kana": "イキイキノナカデイサービスセンター",
    "address": "久留米市野中町３２９－１",
    "lat": 33.3062546,
    "lng": 130.5386679,
    "tel": "0942-40-8383",
    "url": "http://www.iki2-k.com",
    "pref": "福岡県",
    "city": "久留米市",
    "category": "day_service",
    "serviceType": "通所介護",
    "capacity": 42,
    "openDays": [
      "平日",
      "土曜日",
      "祝日"
    ],
    "openDaysNote": ""
  },
  {
    "id": "4071606596",
    "name": "こがデイサービス大石町",
    "kana": "コガデイサービスオオイシマチ",
    "address": "大石町29－1",
    "lat": 33.3151811,
    "lng": 130.4984743,
    "tel": "0942－27－6639",
    "url": "http://www.tenjinkai.or.jp",
    "pref": "福岡県",
    "city": "久留米市",
    "category": "day_service",
    "serviceType": "通所介護",
    "capacity": 5,
    "openDays": [
      "平日",
      "土曜日",
      "祝日"
    ],
    "openDaysNote": ""
  },
  {
    "id": "4071606679",
    "name": "こがデイサービス縄手",
    "kana": "コガデイサービスナワテ",
    "address": "福岡県久留米市白山町２１０番地１住宅型有料老人ホーム　こがケアアベニュー縄手 住宅型有料老人ホーム　こがケアアベニュー縄手",
    "lat": 33.316332,
    "lng": 130.5014943,
    "tel": "0942-65-5247",
    "url": "http://www.tenjinkai.or.jp",
    "pref": "福岡県",
    "city": "久留米市",
    "category": "day_service",
    "serviceType": "通所介護",
    "capacity": 0,
    "openDays": [
      "平日",
      "土曜日",
      "祝日"
    ],
    "openDaysNote": ""
  },
  {
    "id": "4071604781",
    "name": "こがデイサービス野伏間",
    "kana": "コガデイサービスノブスマ",
    "address": "久留米市野伏間1－13－35",
    "lat": 33.2843703,
    "lng": 130.5125564,
    "tel": "090-2096-7969",
    "url": "https://www.tenjinkai.or.jp/top/shinkoga/",
    "pref": "福岡県",
    "city": "久留米市",
    "category": "day_service",
    "serviceType": "通所介護",
    "capacity": 40,
    "openDays": [
      "平日",
      "土曜日",
      "祝日"
    ],
    "openDaysNote": "台風、積雪の際には営業を中止することがあります。"
  },
  {
    "id": "4071606695",
    "name": "コロボックルの学校",
    "kana": "コロボックルノガッコウ",
    "address": "福岡県久留米市荒木町荒木1516-1",
    "lat": 33.2686452356796,
    "lng": 130.501885306854,
    "tel": "050-1807-2064",
    "url": "",
    "pref": "福岡県",
    "city": "久留米市",
    "category": "day_service",
    "serviceType": "通所介護",
    "capacity": 25,
    "openDays": [
      "平日",
      "土曜日"
    ],
    "openDaysNote": ""
  },
  {
    "id": "4071607669",
    "name": "コンパスウォーク久留米",
    "kana": "コンパスウォーククルメ",
    "address": "中央町35-1",
    "lat": 31.5843525,
    "lng": 130.544502,
    "tel": "0942-27-8868",
    "url": "https://www.kagasiya.co.jp/service/compasswalk/",
    "pref": "福岡県",
    "city": "久留米市",
    "category": "day_service",
    "serviceType": "通所介護",
    "capacity": 20,
    "openDays": [
      "平日"
    ],
    "openDaysNote": "祝日は月曜日から金曜日の間であれば営業します。（改行）土曜日、日曜日を完全定休日とします。（改行）ただし、年末年始は12月31日～1月3日までは曜日に関わらず特別休業日とする"
  },
  {
    "id": "4071605697",
    "name": "スパビレッジデイサービス",
    "kana": "スパビレッジデイサービス",
    "address": "福岡県久留米市花畑3丁目18番1スパビレッジ・ホリカワ スパビレッジ・ホリカワ",
    "lat": 33.3038193822985,
    "lng": 130.51595346732,
    "tel": "0942-31-3604",
    "url": "http://horikawa.or.jp/spavillage/",
    "pref": "福岡県",
    "city": "久留米市",
    "category": "day_service",
    "serviceType": "通所介護",
    "capacity": 35,
    "openDays": [
      "平日",
      "土曜日",
      "祝日"
    ],
    "openDaysNote": ""
  },
  {
    "id": "4071606315",
    "name": "ソーシャルライフ梅満",
    "kana": "ソーシャルライフウメミツ",
    "address": "梅満町320番地1ソーシャルライフ梅満 ソーシャルライフ梅満",
    "lat": 33.3118221740358,
    "lng": 130.495108492143,
    "tel": "0942-65-6797",
    "url": "kyu-fukushi-service.co.jp/company/index.html",
    "pref": "福岡県",
    "city": "久留米市",
    "category": "day_service",
    "serviceType": "通所介護",
    "capacity": 51,
    "openDays": [
      "平日",
      "土曜日",
      "日曜日",
      "祝日"
    ],
    "openDaysNote": ""
  },
  {
    "id": "4071607065",
    "name": "ツクイ久留米東合川",
    "kana": "ツクイクルメヒガシアイカワ",
    "address": "福岡県久留米市東合川2丁目5番35号",
    "lat": 33.3199485,
    "lng": 130.549805,
    "tel": "0942-40-7337",
    "url": "https://www.tsukui.net/home-care/2402/",
    "pref": "福岡県",
    "city": "久留米市",
    "category": "day_service",
    "serviceType": "通所介護",
    "capacity": 0,
    "openDays": [
      "平日",
      "土曜日",
      "日曜日",
      "祝日"
    ],
    "openDaysNote": "2025年　元日休業"
  },
  {
    "id": "4071600995",
    "name": "デイサ－ビスセンタ－はぜ並樹",
    "kana": "デイサ－ビスセンタ－ハゼナミキ",
    "address": "福岡県久留米市山本町豊田1567-1",
    "lat": 33.3089688,
    "lng": 130.5934226,
    "tel": "0942-41-4666",
    "url": "http://www.hazenomikai.or.jp/",
    "pref": "福岡県",
    "city": "久留米市",
    "category": "day_service",
    "serviceType": "通所介護",
    "capacity": 35,
    "openDays": [
      "平日",
      "土曜日",
      "日曜日",
      "祝日"
    ],
    "openDaysNote": ""
  },
  {
    "id": "4071606109",
    "name": "デイサービス　エバーガーデン久留米中央町",
    "kana": "デイサービス　エバーガーデンクルメチュウオウマチ",
    "address": "福岡県久留米市中央町16番地33有料老人ホーム　エバーガーデン久留米中央町 有料老人ホーム　エバーガーデン久留米中央町",
    "lat": 33.3184837,
    "lng": 130.5047933,
    "tel": "0942-65-3096",
    "url": "https://evergarden-kurume.jp/",
    "pref": "福岡県",
    "city": "久留米市",
    "category": "day_service",
    "serviceType": "通所介護",
    "capacity": 0,
    "openDays": [
      "平日",
      "土曜日",
      "祝日"
    ],
    "openDaysNote": ""
  },
  {
    "id": "4071602389",
    "name": "デイサービス　シルバーステージ",
    "kana": "デイサービス　シルバーステージ",
    "address": "福岡県久留米市上津1-10-31",
    "lat": 33.2885512605131,
    "lng": 130.530150814733,
    "tel": "0942-51-0500",
    "url": "http://www.silverstage.jp",
    "pref": "福岡県",
    "city": "久留米市",
    "category": "day_service",
    "serviceType": "通所介護",
    "capacity": 0,
    "openDays": [
      "平日",
      "土曜日",
      "祝日"
    ],
    "openDaysNote": ""
  },
  {
    "id": "4071605242",
    "name": "デイサービス　スイ",
    "kana": "デイサービス　スイ",
    "address": "久留米市東櫛原町５０６－１",
    "lat": 33.3271445,
    "lng": 130.5184338,
    "tel": "０９４２－２７－５２４２",
    "url": "",
    "pref": "福岡県",
    "city": "久留米市",
    "category": "day_service",
    "serviceType": "通所介護",
    "capacity": 0,
    "openDays": [
      "平日",
      "土曜日",
      "祝日"
    ],
    "openDaysNote": ""
  },
  {
    "id": "4071606612",
    "name": "デイサービス　スイスイ",
    "kana": "デイサービス　スイスイ",
    "address": "久留米市荘島町459－1",
    "lat": 33.3123869,
    "lng": 130.5057341,
    "tel": "0942-27-5781",
    "url": "",
    "pref": "福岡県",
    "city": "久留米市",
    "category": "day_service",
    "serviceType": "通所介護",
    "capacity": null,
    "openDays": [
      "平日",
      "土曜日",
      "日曜日",
      "祝日"
    ],
    "openDaysNote": ""
  },
  {
    "id": "4071604427",
    "name": "でいさーびす　すまーとらいふ",
    "kana": "デイサービス　スマートライフ",
    "address": "福岡県久留米市南３丁目２６－５",
    "lat": 33.2910197,
    "lng": 130.5203277,
    "tel": "0942-22-3777",
    "url": "http://www.smartlife-ds.com/",
    "pref": "福岡県",
    "city": "久留米市",
    "category": "day_service",
    "serviceType": "通所介護",
    "capacity": 33,
    "openDays": [
      "平日",
      "土曜日",
      "祝日"
    ],
    "openDaysNote": "特になし"
  },
  {
    "id": "4071604955",
    "name": "デイサービス　なごみ",
    "kana": "デイサービス　ナゴミ",
    "address": "城島町大依315番地1",
    "lat": 33.2567668578627,
    "lng": 130.434432230027,
    "tel": "0942-62-1503",
    "url": "http://www.swc-hohoemi.or.jp",
    "pref": "福岡県",
    "city": "久留米市",
    "category": "day_service",
    "serviceType": "通所介護",
    "capacity": 22,
    "openDays": [
      "平日",
      "土曜日",
      "日曜日",
      "祝日"
    ],
    "openDaysNote": "正月休み、お盆休みもなく、年中無休です。"
  },
  {
    "id": "4071605861",
    "name": "ディサービス　なごみのとなり",
    "kana": "ディサービス　ナゴミノトナリ",
    "address": "福岡県久留米市田主丸町牧1385-12",
    "lat": 33.341931659636,
    "lng": 130.649289022615,
    "tel": "0943-72-7080",
    "url": "",
    "pref": "福岡県",
    "city": "久留米市",
    "category": "day_service",
    "serviceType": "通所介護",
    "capacity": 15,
    "openDays": [
      "平日",
      "土曜日",
      "祝日"
    ],
    "openDaysNote": ""
  },
  {
    "id": "4071603833",
    "name": "デイサービス　はなみずき",
    "kana": "デイサービス　ハナミズキ",
    "address": "福岡県久留米市御旗崎４丁目６番３０号",
    "lat": 33.3154432802455,
    "lng": 130.562810086569,
    "tel": "0942-45-0447",
    "url": "https://sunrisehana-kurume.wixsite.com/hanakurume",
    "pref": "福岡県",
    "city": "久留米市",
    "category": "day_service",
    "serviceType": "通所介護",
    "capacity": 35,
    "openDays": [
      "平日",
      "土曜日",
      "日曜日",
      "祝日"
    ],
    "openDaysNote": ""
  },
  {
    "id": "4071602900",
    "name": "デイサービス　ほほえみクラブ",
    "kana": "デイサービス　ホホエミクラブ",
    "address": "久留米市城島町城島36番地1",
    "lat": 33.2574849,
    "lng": 130.4314172,
    "tel": "0942-62-1028",
    "url": "http://care-net.biz/40/hohoemi/",
    "pref": "福岡県",
    "city": "久留米市",
    "category": "day_service",
    "serviceType": "通所介護",
    "capacity": 23,
    "openDays": [
      "平日",
      "土曜日",
      "祝日"
    ],
    "openDaysNote": "必要な時は対応可能"
  },
  {
    "id": "4071605044",
    "name": "デイサービス　まんてん",
    "kana": "デイサービス　マンテン",
    "address": "久留米市宮ノ陣6丁目２－１７",
    "lat": 33.3288001,
    "lng": 130.5389099,
    "tel": "0942－27－6960",
    "url": "",
    "pref": "福岡県",
    "city": "久留米市",
    "category": "day_service",
    "serviceType": "通所介護",
    "capacity": 0,
    "openDays": [
      "平日",
      "土曜日",
      "祝日"
    ],
    "openDaysNote": ""
  },
  {
    "id": "4071605143",
    "name": "デイサービス　みんなの時間",
    "kana": "デイサービス　ミンナノジカン",
    "address": "福岡県久留米市北野町今山370-5",
    "lat": 33.343336016541,
    "lng": 130.581595001852,
    "tel": "0942-41-3537",
    "url": "http://www.tanakamasaharu-clinic.jp/dayservice/",
    "pref": "福岡県",
    "city": "久留米市",
    "category": "day_service",
    "serviceType": "通所介護",
    "capacity": 20,
    "openDays": [
      "平日",
      "土曜日",
      "祝日"
    ],
    "openDaysNote": ""
  },
  {
    "id": "4071605713",
    "name": "デイサービス　和おん",
    "kana": "デイサービス　ワオン",
    "address": "福岡県久留米市宮ノ陣４丁目１３－１２シルバーケア和おん シルバーケア和おん",
    "lat": 33.3295778,
    "lng": 130.5345436,
    "tel": "0942-48-7799",
    "url": "",
    "pref": "福岡県",
    "city": "久留米市",
    "category": "day_service",
    "serviceType": "通所介護",
    "capacity": 0,
    "openDays": [
      "平日",
      "土曜日",
      "日曜日",
      "祝日"
    ],
    "openDaysNote": ""
  },
  {
    "id": "4071603924",
    "name": "デイサービスあいあい",
    "kana": "デイサービスアイアイ",
    "address": "福岡県久留米市小頭町３番１６号",
    "lat": 33.3126925,
    "lng": 130.5102008,
    "tel": "0942-38-8500",
    "url": "",
    "pref": "福岡県",
    "city": "久留米市",
    "category": "day_service",
    "serviceType": "通所介護",
    "capacity": 0,
    "openDays": [
      "平日",
      "土曜日",
      "祝日"
    ],
    "openDaysNote": ""
  },
  {
    "id": "4071604534",
    "name": "デイサービスきずなの里",
    "kana": "デイサービスキズナノサト",
    "address": "福岡県久留米市御井旗崎３丁目4-6有料老人ホームきずなの里 有料老人ホームきずなの里",
    "lat": 33.3174124,
    "lng": 130.5604914,
    "tel": "0942-40-8815",
    "url": "http:/www.kizunanosato.jp/",
    "pref": "福岡県",
    "city": "久留米市",
    "category": "day_service",
    "serviceType": "通所介護",
    "capacity": 33,
    "openDays": [
      "平日",
      "土曜日",
      "祝日"
    ],
    "openDaysNote": ""
  },
  {
    "id": "4071602363",
    "name": "デイサービスくましろ",
    "kana": "デイサービスクマシロ",
    "address": "福岡県久留米市北野町八重亀４１２番地",
    "lat": 33.3553489,
    "lng": 130.6247745,
    "tel": "0942-23-4887",
    "url": "www//kumashiro-hospital.or.jp",
    "pref": "福岡県",
    "city": "久留米市",
    "category": "day_service",
    "serviceType": "通所介護",
    "capacity": 0,
    "openDays": [
      "平日",
      "土曜日",
      "祝日"
    ],
    "openDaysNote": ""
  },
  {
    "id": "4071607297",
    "name": "デイサービススマートライフリハビリぷらす",
    "kana": "デイサービス　スマートライフ　リハビリ　プラス",
    "address": "西町　130-9",
    "lat": 33.2950150099252,
    "lng": 130.515770930689,
    "tel": "0942-65-4811",
    "url": "http://wwww.smartlife-ds.com",
    "pref": "福岡県",
    "city": "久留米市",
    "category": "day_service",
    "serviceType": "通所介護",
    "capacity": 40,
    "openDays": [
      "平日",
      "土曜日",
      "祝日"
    ],
    "openDaysNote": ""
  },
  {
    "id": "4071602843",
    "name": "デイサービスセンター　　くしはら",
    "kana": "デイサービスセンター　　クシハラ",
    "address": "久留米市東櫛原町６１－１",
    "lat": 33.3246114,
    "lng": 130.522475,
    "tel": "0942-30-7751",
    "url": "http://www.villa-kushihara.or.jp/",
    "pref": "福岡県",
    "city": "久留米市",
    "category": "day_service",
    "serviceType": "通所介護",
    "capacity": 35,
    "openDays": [
      "平日",
      "祝日"
    ],
    "openDaysNote": ""
  },
  {
    "id": "4071605432",
    "name": "ﾃﾞｲサービスセンター　しらゆりの郷",
    "kana": "デイサービスセンターシラユリノサト",
    "address": "福岡県久留米市小森野４丁目１番２２号ケアタウンしらゆりの郷 ケアタウンしらゆりの郷",
    "lat": 33.3342578,
    "lng": 130.515115,
    "tel": "０９４２－３８－２２１８",
    "url": "",
    "pref": "福岡県",
    "city": "久留米市",
    "category": "day_service",
    "serviceType": "通所介護",
    "capacity": 0,
    "openDays": [
      "平日",
      "土曜日"
    ],
    "openDaysNote": ""
  },
  {
    "id": "4071605192",
    "name": "デイサービスセンター　共生の里荒木",
    "kana": "デイサービスセンター　キョウセイノサトアラキ",
    "address": "荒木町白口1515",
    "lat": 33.2810081375539,
    "lng": 130.511392875871,
    "tel": "0942－51ー3703",
    "url": "http://ks-araki.jp/",
    "pref": "福岡県",
    "city": "久留米市",
    "category": "day_service",
    "serviceType": "通所介護",
    "capacity": 0,
    "openDays": [
      "平日",
      "土曜日",
      "祝日"
    ],
    "openDaysNote": "年末年始は、12月31日～1月2日までの3日間休業"
  },
  {
    "id": "4071600359",
    "name": "デイサービスセンター　光寿苑",
    "kana": "デイサービスセンター　コウジュエン",
    "address": "福岡県久留米市宮ノ陣町大杜467-1",
    "lat": 33.3370801,
    "lng": 130.5455427,
    "tel": "0942-30-8877",
    "url": "http://kojyuen.net/",
    "pref": "福岡県",
    "city": "久留米市",
    "category": "day_service",
    "serviceType": "通所介護",
    "capacity": 20,
    "openDays": [
      "平日",
      "土曜日",
      "祝日"
    ],
    "openDaysNote": "祝日は通常通り営業"
  },
  {
    "id": "4071601928",
    "name": "デイサービスセンター　合川りんどう",
    "kana": "デイサービスセンター　アイカワリンドウ",
    "address": "久留米市合川町４１６－１",
    "lat": 33.3144735,
    "lng": 130.5445981,
    "tel": "0942-45-4165",
    "url": "",
    "pref": "福岡県",
    "city": "久留米市",
    "category": "day_service",
    "serviceType": "通所介護",
    "capacity": 30,
    "openDays": [
      "平日",
      "土曜日",
      "日曜日",
      "祝日"
    ],
    "openDaysNote": ""
  },
  {
    "id": "4077400150",
    "name": "デイサービスセンターあおぞら",
    "kana": "デイサービスセンターアオゾラ",
    "address": "福岡県久留米市田主丸町田主丸７５０番地３",
    "lat": 33.3387539,
    "lng": 130.6824897,
    "tel": "0943-74-7878",
    "url": "",
    "pref": "福岡県",
    "city": "久留米市",
    "category": "day_service",
    "serviceType": "通所介護",
    "capacity": null,
    "openDays": [
      "平日",
      "土曜日",
      "祝日"
    ],
    "openDaysNote": "電話等により２４時間常時連絡が可能な体制をとっています。"
  },
  {
    "id": "4077600056",
    "name": "デイサービスセンターコスモス",
    "kana": "デイサービスセンターコスモス",
    "address": "福岡県久留米市北野町鳥巣浜３６番地の１",
    "lat": 33.3348107757213,
    "lng": 130.584917533096,
    "tel": "0942-78-7980",
    "url": "http://www.houseien.net",
    "pref": "福岡県",
    "city": "久留米市",
    "category": "day_service",
    "serviceType": "通所介護",
    "capacity": 2,
    "openDays": [
      "平日",
      "土曜日",
      "祝日"
    ],
    "openDaysNote": "特になし"
  },
  {
    "id": "4071601381",
    "name": "デイサービスセンターメゾンマリア",
    "kana": "デイサービスセンターメゾンマリア",
    "address": "福岡県久留米市津福本町字草場276-2",
    "lat": 33.303621,
    "lng": 130.511234,
    "tel": "0942-35-0200",
    "url": "http://www.heiwanoseibo.com",
    "pref": "福岡県",
    "city": "久留米市",
    "category": "day_service",
    "serviceType": "通所介護",
    "capacity": 0,
    "openDays": [
      "平日",
      "土曜日",
      "祝日"
    ],
    "openDaysNote": ""
  },
  {
    "id": "4071607545",
    "name": "デイサービスセンター縁家高良",
    "kana": "デイサービスセンターエンヤコウラ",
    "address": "福岡県久留米市高良内町3795番地2",
    "lat": 33.2868625,
    "lng": 130.5501769,
    "tel": "0942-43-3811",
    "url": "https://soshin-care.co.jp/",
    "pref": "福岡県",
    "city": "久留米市",
    "category": "day_service",
    "serviceType": "通所介護",
    "capacity": null,
    "openDays": [
      "平日",
      "土曜日",
      "祝日"
    ],
    "openDaysNote": ""
  },
  {
    "id": "4071601985",
    "name": "デイサービスセンター久留米あいの里",
    "kana": "デイサービスセンタークルメアイノサト",
    "address": "久留米市山川安居野3丁目3番18号",
    "lat": 33.3185373,
    "lng": 130.572585,
    "tel": "0942-41-0123",
    "url": "http://www.houseien.net",
    "pref": "福岡県",
    "city": "久留米市",
    "category": "day_service",
    "serviceType": "通所介護",
    "capacity": 25,
    "openDays": [
      "平日",
      "土曜日",
      "日曜日",
      "祝日"
    ],
    "openDaysNote": ""
  },
  {
    "id": "4071603668",
    "name": "デイサービスセンター共生の里津福",
    "kana": "デイサービスセンターキョウセイノサトツブク",
    "address": "福岡県久留米市荒木町白口５５２－３",
    "lat": 33.2899834,
    "lng": 130.4991491,
    "tel": "0942-51-9065",
    "url": "http//ks-kyousei.jp",
    "pref": "福岡県",
    "city": "久留米市",
    "category": "day_service",
    "serviceType": "通所介護",
    "capacity": 35,
    "openDays": [
      "平日",
      "土曜日",
      "祝日"
    ],
    "openDaysNote": "年末年始休（１２月３１日～１月２日）"
  },
  {
    "id": "4071606737",
    "name": "デイサービスセンター江戸くま",
    "kana": "デイサービスセンターエドクマ",
    "address": "福岡県久留米市江戸屋敷１丁目１０番５５号",
    "lat": 33.2887805,
    "lng": 130.5112833,
    "tel": "0942-65-5070",
    "url": "",
    "pref": "福岡県",
    "city": "久留米市",
    "category": "day_service",
    "serviceType": "通所介護",
    "capacity": 60,
    "openDays": [
      "平日",
      "祝日"
    ],
    "openDaysNote": ""
  },
  {
    "id": "4071603056",
    "name": "デイサービスセンター笑福亭",
    "kana": "デイサービスセンターショウフクテイ",
    "address": "福岡県久留米市東櫛原町666番地の1",
    "lat": 33.3272580756695,
    "lng": 130.516692501852,
    "tel": "0942-35-2929",
    "url": "http://cloversupport.co.jp/",
    "pref": "福岡県",
    "city": "久留米市",
    "category": "day_service",
    "serviceType": "通所介護",
    "capacity": 30,
    "openDays": [
      "平日",
      "土曜日",
      "祝日"
    ],
    "openDaysNote": ""
  },
  {
    "id": "4071605028",
    "name": "デイサービスセンター晴家（ハレルヤ）",
    "kana": "デイサービスセンターハレルヤ（ハレルヤ）",
    "address": "福岡県久留米市北野町高良2168番地1",
    "lat": 33.3333357515423,
    "lng": 130.576438480951,
    "tel": "０９４２－２３－１７８８",
    "url": "",
    "pref": "福岡県",
    "city": "久留米市",
    "category": "day_service",
    "serviceType": "通所介護",
    "capacity": 0,
    "openDays": [
      "平日",
      "土曜日",
      "祝日"
    ],
    "openDaysNote": "気候や職員の研修により臨時休業等あり"
  },
  {
    "id": "4071606539",
    "name": "デイサービスなでしこ",
    "kana": "デイサービスナデシコ",
    "address": "福岡県久留米市荒木町白口1767番地1サービス付き高齢者向け住宅シニアレジデンスなでしこ サービス付き高齢者向け住宅シニアレジデンスなでしこ",
    "lat": 33.2799762,
    "lng": 130.5039934,
    "tel": "0942-27-3312",
    "url": "www.atataka-nadeshiko.com",
    "pref": "福岡県",
    "city": "久留米市",
    "category": "day_service",
    "serviceType": "通所介護",
    "capacity": 0,
    "openDays": [
      "平日",
      "土曜日",
      "祝日"
    ],
    "openDaysNote": ""
  },
  {
    "id": "4071605275",
    "name": "デイサービスひびき久留米西",
    "kana": "デイサービスヒビキクルメニシ",
    "address": "福岡県久留米市荒木町白口２４９５番地",
    "lat": 33.2771039235649,
    "lng": 130.494416633716,
    "tel": "０９４２-２７-０１１１",
    "url": "http://kurume-hibiki.com/",
    "pref": "福岡県",
    "city": "久留米市",
    "category": "day_service",
    "serviceType": "通所介護",
    "capacity": 35,
    "openDays": [
      "平日",
      "土曜日",
      "祝日"
    ],
    "openDaysNote": "定休日及び時間外でも転送電話により24時間連絡対応しております。"
  },
  {
    "id": "4071604187",
    "name": "デイサービスひびき久留米中央",
    "kana": "デイサービスヒビキクルメチュウオウ",
    "address": "福岡県久留米市諏訪野町2157-2",
    "lat": 33.3087429799482,
    "lng": 130.52784054768,
    "tel": "0942-37-6767",
    "url": "http://kurume-hibiki.com/",
    "pref": "福岡県",
    "city": "久留米市",
    "category": "day_service",
    "serviceType": "通所介護",
    "capacity": 80,
    "openDays": [
      "平日",
      "土曜日",
      "祝日"
    ],
    "openDaysNote": "年末年始休業（12/31～1/3）"
  },
  {
    "id": "4071607651",
    "name": "デイサービス寿寿苑",
    "kana": "デイサービス　ジュジュエン",
    "address": "福岡県久留米市善導寺町飯田５０３番地３",
    "lat": 33.3216426600654,
    "lng": 130.605848064418,
    "tel": "0942-80-3701",
    "url": "",
    "pref": "福岡県",
    "city": "久留米市",
    "category": "day_service",
    "serviceType": "通所介護",
    "capacity": 0,
    "openDays": [
      "平日",
      "土曜日",
      "祝日"
    ],
    "openDaysNote": ""
  },
  {
    "id": "4071604658",
    "name": "デイサービス楓弐番館",
    "kana": "デイサービスカエデニバンカン",
    "address": "久留米市藤山町217－16",
    "lat": 33.2772993,
    "lng": 130.5475819,
    "tel": "0942－51－0510",
    "url": "ライフサポート２４検索",
    "pref": "福岡県",
    "city": "久留米市",
    "category": "day_service",
    "serviceType": "通所介護",
    "capacity": 30,
    "openDays": [
      "平日",
      "土曜日",
      "日曜日",
      "祝日"
    ],
    "openDaysNote": ""
  },
  {
    "id": "4071603601",
    "name": "デイサービス風太",
    "kana": "デイサービスフウタ",
    "address": "福岡県久留米通東町5-16富士ビル1階 富士ビル1階",
    "lat": 33.3154246042734,
    "lng": 130.522681420377,
    "tel": "0942-30-3322",
    "url": "http://day-futa.com/",
    "pref": "福岡県",
    "city": "久留米市",
    "category": "day_service",
    "serviceType": "通所介護",
    "capacity": 30,
    "openDays": [
      "平日",
      "土曜日",
      "祝日"
    ],
    "openDaysNote": "営業日　月曜日から土曜日及び国民の祝日とする。（改行）ただし、年末年始（12/31～1/3）は除く。（改行）その他、悪天候等にて臨時休業あり。"
  },
  {
    "id": "4071605580",
    "name": "デイサービス豊潤庵",
    "kana": "デイサービスホウジュンアン",
    "address": "大石町374番地2",
    "lat": 33.3147042716743,
    "lng": 130.492776857672,
    "tel": "0942-35-5688",
    "url": "kosai-g.com",
    "pref": "福岡県",
    "city": "久留米市",
    "category": "day_service",
    "serviceType": "通所介護",
    "capacity": 0,
    "openDays": [
      "平日",
      "土曜日",
      "日曜日",
      "祝日"
    ],
    "openDaysNote": "12月31日～1月3日は相談に応じて営業する"
  },
  {
    "id": "4071605960",
    "name": "デイサービス理楽",
    "kana": "デイサービスリガク",
    "address": "福岡県久留米市田主丸町船越171-9",
    "lat": 33.3490743737597,
    "lng": 130.718294607603,
    "tel": "0943-72-1370",
    "url": "hhtp://www.soffione.biz",
    "pref": "福岡県",
    "city": "久留米市",
    "category": "day_service",
    "serviceType": "通所介護",
    "capacity": 0,
    "openDays": [
      "平日",
      "土曜日",
      "祝日"
    ],
    "openDaysNote": "緊急の場合は電話などでの対応を実施している"
  },
  {
    "id": "4071600961",
    "name": "ニチイケアセンターくるめ",
    "kana": "ニチイケアセンタークルメ",
    "address": "福岡県久留米市長門石2丁目1番5号",
    "lat": 33.3281772,
    "lng": 130.4921063,
    "tel": "0942-36-8000",
    "url": "",
    "pref": "福岡県",
    "city": "久留米市",
    "category": "day_service",
    "serviceType": "通所介護",
    "capacity": null,
    "openDays": [
      "平日",
      "土曜日",
      "祝日"
    ],
    "openDaysNote": "休業日以外であってもサービスの提供を行う場合がある"
  },
  {
    "id": "4071604484",
    "name": "ニチイケアセンター東町",
    "kana": "ニチイケアセンターヒガシマチ",
    "address": "久留米市諏訪野町１８１４－４",
    "lat": 33.3040293,
    "lng": 130.5228382,
    "tel": "0942-46-1370",
    "url": "",
    "pref": "福岡県",
    "city": "久留米市",
    "category": "day_service",
    "serviceType": "通所介護",
    "capacity": 0,
    "openDays": [
      "平日",
      "土曜日",
      "祝日"
    ],
    "openDaysNote": ""
  },
  {
    "id": "4071606356",
    "name": "ヒカリテラス“デルソルオレンジ”",
    "kana": "ヒカリテラス”デルソルオレンジ”",
    "address": "福岡県久留米市山川追分2丁目2番7号",
    "lat": 33.3151848,
    "lng": 130.5683548,
    "tel": "0942-65-8284",
    "url": "delsol-orange3.webnode.jp/",
    "pref": "福岡県",
    "city": "久留米市",
    "category": "day_service",
    "serviceType": "通所介護",
    "capacity": 27,
    "openDays": [
      "平日",
      "土曜日"
    ],
    "openDaysNote": ""
  },
  {
    "id": "4071606877",
    "name": "ブリッジライフ国分町",
    "kana": "ブリッジライフコクブマチ",
    "address": "福岡県久留米市国分町931番地11",
    "lat": 33.2910056044983,
    "lng": 130.536399949074,
    "tel": "0942-65-9741",
    "url": "http://www.bridge-life.jp/shop/kokubumachi.html",
    "pref": "福岡県",
    "city": "久留米市",
    "category": "day_service",
    "serviceType": "通所介護",
    "capacity": 25,
    "openDays": [
      "平日",
      "土曜日",
      "祝日"
    ],
    "openDaysNote": "年末年始　12月31日、1月1日、2日、3日休み"
  },
  {
    "id": "4077800037",
    "name": "ふれあいの園デイサービスセンター",
    "kana": "フレアイノソノデイサービスセンター",
    "address": "福岡県久留米市城島町上青木165番地",
    "lat": 33.2438193,
    "lng": 130.4112267,
    "tel": "0942-62-5134",
    "url": "http://www.fureainosono.com/",
    "pref": "福岡県",
    "city": "久留米市",
    "category": "day_service",
    "serviceType": "通所介護",
    "capacity": 40,
    "openDays": [
      "平日",
      "土曜日",
      "日曜日",
      "祝日"
    ],
    "openDaysNote": ""
  },
  {
    "id": "4071606703",
    "name": "みづまの杜デイサービスセンター",
    "kana": "ミヅマノモリデイサービスセンター",
    "address": "三潴町高三潴1303-3",
    "lat": 33.262071,
    "lng": 130.4527486,
    "tel": "0942-54-6360",
    "url": "",
    "pref": "福岡県",
    "city": "久留米市",
    "category": "day_service",
    "serviceType": "通所介護",
    "capacity": 0,
    "openDays": [
      "平日",
      "土曜日"
    ],
    "openDaysNote": ""
  },
  {
    "id": "4071602504",
    "name": "みづま敬和苑デイサービスセンター",
    "kana": "ミヅマケイワエンデイサービスセンター",
    "address": "福岡県　久留米市　三潴町　西牟田６１２８－１",
    "lat": 33.2476053464333,
    "lng": 130.503982001334,
    "tel": "0942-51-6667",
    "url": "http://www.keiwaen.com/miduma₋keiwaen/",
    "pref": "福岡県",
    "city": "久留米市",
    "category": "day_service",
    "serviceType": "通所介護",
    "capacity": 100,
    "openDays": [
      "平日",
      "土曜日",
      "日曜日",
      "祝日"
    ],
    "openDaysNote": ""
  },
  {
    "id": "4071606240",
    "name": "リハビリスポットTASUKI三潴店",
    "kana": "リハビリスポットタスキミヅマテン",
    "address": "福岡県久留米市三潴町福光292番地7",
    "lat": 33.2416849204828,
    "lng": 130.455053910178,
    "tel": "0942-64-6540",
    "url": "https://tasuki.wixsite.com/tasuki-homepage-",
    "pref": "福岡県",
    "city": "久留米市",
    "category": "day_service",
    "serviceType": "通所介護",
    "capacity": 0,
    "openDays": [
      "平日",
      "土曜日",
      "祝日"
    ],
    "openDaysNote": "お盆期間(8/14～8/15)・年末年始(12/31～1/3)は休日となります。"
  },
  {
    "id": "4071600250",
    "name": "山翠園デイサービスセンター",
    "kana": "サンスイエンデイサービスセンター",
    "address": "福岡県久留米市山本町耳納１９８９－１番地",
    "lat": 33.312283,
    "lng": 130.6134234,
    "tel": "0942-47-4823",
    "url": "https://sansuien-kurume.net",
    "pref": "福岡県",
    "city": "久留米市",
    "category": "day_service",
    "serviceType": "通所介護",
    "capacity": 25,
    "openDays": [
      "平日",
      "土曜日",
      "祝日"
    ],
    "openDaysNote": "・台風・積雪等で状況により閉館する場合があります。"
  },
  {
    "id": "4071602058",
    "name": "指定通所介護事業所　ふじの郷",
    "kana": "シテイツウショカイゴジギョウショ　フジノサト",
    "address": "福岡県久留米市白山町字垣添390番21",
    "lat": 33.3168827649342,
    "lng": 130.499858522394,
    "tel": "0942-38-2235",
    "url": "http://www.fujinosato0801.com/",
    "pref": "福岡県",
    "city": "久留米市",
    "category": "day_service",
    "serviceType": "通所介護",
    "capacity": 36,
    "openDays": [
      "平日",
      "土曜日",
      "祝日"
    ],
    "openDaysNote": ""
  },
  {
    "id": "4071603270",
    "name": "社会医療法人　天神会　デイサービス　アルカディア",
    "kana": "シャカイイリョウホウジン　テンジンカイ　デイサービス　アルカディア",
    "address": "福岡県久留米市宮ノ陣4丁目30-10こがケアアベニュー宮ノ陣1階 こがケアアベニュー宮ノ陣1階",
    "lat": 33.3335025,
    "lng": 130.5394546,
    "tel": "0942-38-2953",
    "url": "http://www.tenjinkai.or.jp/",
    "pref": "福岡県",
    "city": "久留米市",
    "category": "day_service",
    "serviceType": "通所介護",
    "capacity": 100,
    "openDays": [
      "平日",
      "土曜日",
      "祝日"
    ],
    "openDaysNote": "年末年始の休みは12月31日から1月3日までです。"
  },
  {
    "id": "4077400044",
    "name": "社会福祉法人ひじり会　通所介護さくら",
    "kana": "シャカイフクシホウジンヒジリカイ　ツウショカイゴサクラ",
    "address": "福岡県久留米市田主丸町石垣1291-6",
    "lat": 33.3265335,
    "lng": 130.7065267,
    "tel": "0943-73-7086",
    "url": "http://sky.geocities.jp/hijirikai5577/",
    "pref": "福岡県",
    "city": "久留米市",
    "category": "day_service",
    "serviceType": "通所介護",
    "capacity": 0,
    "openDays": [
      "平日",
      "土曜日",
      "祝日"
    ],
    "openDaysNote": ""
  },
  {
    "id": "4071605119",
    "name": "若久デイサービスセンター荒木",
    "kana": "ワカヒサデイサービスセンターアラキ",
    "address": "福岡県久留米市荒木町荒木1984-1高良台シニアビレッジ 高良台シニアビレッジ",
    "lat": 33.2637366087233,
    "lng": 130.510028522784,
    "tel": "0942-26-5380",
    "url": "http://www.kyueikai.jp/senior/",
    "pref": "福岡県",
    "city": "久留米市",
    "category": "day_service",
    "serviceType": "通所介護",
    "capacity": 20,
    "openDays": [
      "平日",
      "土曜日",
      "祝日"
    ],
    "openDaysNote": "1月1日、2日のみ休み"
  },
  {
    "id": "4071601001",
    "name": "上津デイサービスセンター",
    "kana": "カミツデイサービスセンター",
    "address": "福岡県久留米市上津町新井手１８６７番１",
    "lat": 33.2801712,
    "lng": 130.540099,
    "tel": "0942-22-2639",
    "url": "http://www.youfukukai.or.jp/",
    "pref": "福岡県",
    "city": "久留米市",
    "category": "day_service",
    "serviceType": "通所介護",
    "capacity": 45,
    "openDays": [
      "平日",
      "土曜日",
      "祝日"
    ],
    "openDaysNote": ""
  },
  {
    "id": "4071601845",
    "name": "生協デイサービス虹の樹",
    "kana": "セイキョウデイサービスニジノキ",
    "address": "福岡県久留米市東合川７丁目１番地２８号虹のセンター 虹のセンター",
    "lat": 33.3240930902063,
    "lng": 130.55244520463,
    "tel": "0942-23-7700",
    "url": "http://kurumeiryou.or.jp/",
    "pref": "福岡県",
    "city": "久留米市",
    "category": "day_service",
    "serviceType": "通所介護",
    "capacity": 39,
    "openDays": [
      "平日",
      "土曜日",
      "祝日"
    ],
    "openDaysNote": ""
  },
  {
    "id": "4071605754",
    "name": "暖ったか館久留米大石町デイサービスセンター",
    "kana": "アッタカカンクルメオオイシマチデイサービスセンター",
    "address": "福岡県久留米市大石町265番地8",
    "lat": 33.3143284,
    "lng": 130.4951913,
    "tel": "0942-33-2020",
    "url": "https://www.silver-star.biz/",
    "pref": "福岡県",
    "city": "久留米市",
    "category": "day_service",
    "serviceType": "通所介護",
    "capacity": 22,
    "openDays": [
      "平日",
      "土曜日",
      "祝日"
    ],
    "openDaysNote": ""
  },
  {
    "id": "4078000033",
    "name": "長生園デイサービス",
    "kana": "チョウセイエンデイサービス",
    "address": "福岡県久留米市三潴町早津崎３８６番地",
    "lat": 33.2663741,
    "lng": 130.4812349,
    "tel": "0942-64-4810",
    "url": "http://www.k-tyouseien.com",
    "pref": "福岡県",
    "city": "久留米市",
    "category": "day_service",
    "serviceType": "通所介護",
    "capacity": 0,
    "openDays": [
      "平日",
      "土曜日",
      "祝日"
    ],
    "openDaysNote": ""
  },
  {
    "id": "4075500795",
    "name": "あっとほーむデイサービス",
    "kana": "アットホームデイサービス",
    "address": "福岡県宮若市磯光１３１２－３",
    "lat": 33.7119701596058,
    "lng": 130.686791625131,
    "tel": "0949-32-9595",
    "url": "",
    "pref": "福岡県",
    "city": "宮若市",
    "category": "day_service",
    "serviceType": "通所介護",
    "capacity": 30,
    "openDays": [
      "平日",
      "土曜日",
      "祝日"
    ],
    "openDaysNote": "特になし"
  },
  {
    "id": "4075500860",
    "name": "デイサービス友愛",
    "kana": "デイサービスユウアイ",
    "address": "福岡県宮若市宮田２３２番地９",
    "lat": 33.7198956,
    "lng": 130.6647023,
    "tel": "0949-34-5200",
    "url": "yuuaikai@iaa.itkeeper.ne.jp",
    "pref": "福岡県",
    "city": "宮若市",
    "category": "day_service",
    "serviceType": "通所介護",
    "capacity": 3,
    "openDays": [
      "平日",
      "土曜日",
      "日曜日",
      "祝日"
    ],
    "openDaysNote": ""
  },
  {
    "id": "4075501009",
    "name": "ぬく森デイサービス",
    "kana": "ヌクモリデイサービス",
    "address": "福岡県宮若市下有木1241-1",
    "lat": 33.7568412,
    "lng": 130.6306396,
    "tel": "0949-33-3300",
    "url": "",
    "pref": "福岡県",
    "city": "宮若市",
    "category": "day_service",
    "serviceType": "通所介護",
    "capacity": null,
    "openDays": [
      "平日",
      "土曜日",
      "日曜日",
      "祝日"
    ],
    "openDaysNote": ""
  },
  {
    "id": "4075501017",
    "name": "リハビリ特化型デイサービス愛心",
    "kana": "リハビリトッカガタデイサービスアイシン",
    "address": "福岡県宮若市龍徳1106-6",
    "lat": 33.7318480228468,
    "lng": 130.685777261377,
    "tel": "0949-33-2800",
    "url": "",
    "pref": "福岡県",
    "city": "宮若市",
    "category": "day_service",
    "serviceType": "通所介護",
    "capacity": 0,
    "openDays": [
      "平日",
      "祝日"
    ],
    "openDaysNote": ""
  },
  {
    "id": "4075501074",
    "name": "医療法人相生会　宮田病院附属山桜デイサービス",
    "kana": "イリョウホウジン　ソウセイカイ　ミヤタビョウインフゾク　ヤマザクラデイサービス",
    "address": "福岡県宮若市本城723番地",
    "lat": 33.7290811,
    "lng": 130.6703681,
    "tel": "0949-32-9555",
    "url": "https://www.miyata-hospital.com",
    "pref": "福岡県",
    "city": "宮若市",
    "category": "day_service",
    "serviceType": "通所介護",
    "capacity": 70,
    "openDays": [
      "平日",
      "土曜日",
      "祝日"
    ],
    "openDaysNote": ""
  },
  {
    "id": "4075500233",
    "name": "有吉病院　デイサービスセンター",
    "kana": "アリヨシビョウイン　デイサービスセンター",
    "address": "福岡県宮若市上有木　３９７－１",
    "lat": 33.7616434,
    "lng": 130.6239509,
    "tel": "0949-33-3001",
    "url": "",
    "pref": "福岡県",
    "city": "宮若市",
    "category": "day_service",
    "serviceType": "通所介護",
    "capacity": 0,
    "openDays": [
      "平日",
      "土曜日",
      "祝日"
    ],
    "openDaysNote": ""
  },
  {
    "id": "4075500381",
    "name": "老人デイサービスセンター　暖家",
    "kana": "ロウジンデイサービスセンター　ダンケ",
    "address": "福岡県宮若市本城字隠谷1756番地6",
    "lat": 33.7349085,
    "lng": 130.6749537,
    "tel": "0949-34-7770",
    "url": "https://dankeday.com",
    "pref": "福岡県",
    "city": "宮若市",
    "category": "day_service",
    "serviceType": "通所介護",
    "capacity": 13,
    "openDays": [
      "平日",
      "土曜日",
      "祝日"
    ],
    "openDaysNote": ""
  },
  {
    "id": "4075700338",
    "name": "あかりデイサービス",
    "kana": "アカリデイサービス",
    "address": "土師平塚1243番地3",
    "lat": 33.5702507,
    "lng": 130.6853954,
    "tel": "0948-65-3811",
    "url": "",
    "pref": "福岡県",
    "city": "桂川町",
    "category": "day_service",
    "serviceType": "通所介護",
    "capacity": 0,
    "openDays": [
      "平日",
      "土曜日",
      "日曜日",
      "祝日"
    ],
    "openDaysNote": "特になし"
  },
  {
    "id": "4075700429",
    "name": "いろりデイサービス",
    "kana": "イロリ",
    "address": "九郎丸531-1",
    "lat": 33.5786834,
    "lng": 130.6663528,
    "tel": "-948",
    "url": "",
    "pref": "福岡県",
    "city": "桂川町",
    "category": "day_service",
    "serviceType": "通所介護",
    "capacity": null,
    "openDays": [
      "平日"
    ],
    "openDaysNote": ""
  },
  {
    "id": "4075700049",
    "name": "デイサービスセンター明日香園",
    "kana": "デイサービスセンターアスカエン",
    "address": "福岡県嘉穂郡桂川町大字土師4502-1",
    "lat": 33.564093,
    "lng": 130.674799,
    "tel": "0948-65-5500",
    "url": "www.asukaen.or.jp",
    "pref": "福岡県",
    "city": "桂川町",
    "category": "day_service",
    "serviceType": "通所介護",
    "capacity": 0,
    "openDays": [
      "平日",
      "土曜日"
    ],
    "openDaysNote": ""
  },
  {
    "id": "4075700270",
    "name": "ひかりデイサービス",
    "kana": "ヒカリデイサービス",
    "address": "福岡県嘉穂郡桂川町吉隈１１９９",
    "lat": 33.5857326,
    "lng": 130.6833312,
    "tel": "0948-65-2610",
    "url": "",
    "pref": "福岡県",
    "city": "桂川町",
    "category": "day_service",
    "serviceType": "通所介護",
    "capacity": 0,
    "openDays": [
      "平日",
      "土曜日",
      "日曜日",
      "祝日"
    ],
    "openDaysNote": ""
  },
  {
    "id": "4075700411",
    "name": "ほたるデイサービス",
    "kana": "ホタル",
    "address": "吉隈1200",
    "lat": 33.5871854,
    "lng": 130.6962133,
    "tel": "0948-65-2610",
    "url": "",
    "pref": "福岡県",
    "city": "桂川町",
    "category": "day_service",
    "serviceType": "通所介護",
    "capacity": 0,
    "openDays": [
      "平日"
    ],
    "openDaysNote": ""
  },
  {
    "id": "4075700452",
    "name": "リハビリデイサービス　スイッチ",
    "kana": "リハビリデイサービス　スイッチ",
    "address": "福岡県嘉穂郡桂川町土居1073番地2",
    "lat": 33.581581,
    "lng": 130.6711433,
    "tel": "0948-52-3474",
    "url": "",
    "pref": "福岡県",
    "city": "桂川町",
    "category": "day_service",
    "serviceType": "通所介護",
    "capacity": 0,
    "openDays": [
      "平日",
      "祝日"
    ],
    "openDaysNote": "夏季休暇　8月13日～8月15日　　年末年始休暇　12月30日～1月3日　5月3日～5月5日"
  },
  {
    "id": "4073600241",
    "name": "あおぞらの里　古賀デイサービスセンター",
    "kana": "アオゾラノサト　コガデイサービスセンター",
    "address": "福岡県古賀市今の庄２丁目８番２８号",
    "lat": 33.7273979,
    "lng": 130.476659,
    "tel": "092-940-4402",
    "url": "http://www.CEDAR-WEB.com",
    "pref": "福岡県",
    "city": "古賀市",
    "category": "day_service",
    "serviceType": "通所介護",
    "capacity": 0,
    "openDays": [
      "平日",
      "土曜日",
      "日曜日",
      "祝日"
    ],
    "openDaysNote": "年中無休"
  },
  {
    "id": "4073601025",
    "name": "つつみデイサービス",
    "kana": "ツツミデイサービス",
    "address": "福岡県古賀市薦野1892-1美原園内 美原園内",
    "lat": 33.7303130134058,
    "lng": 130.519977911639,
    "tel": "092-946-2145",
    "url": "",
    "pref": "福岡県",
    "city": "古賀市",
    "category": "day_service",
    "serviceType": "通所介護",
    "capacity": null,
    "openDays": [
      "平日",
      "土曜日",
      "祝日"
    ],
    "openDaysNote": ""
  },
  {
    "id": "4073601066",
    "name": "デイサービス　こはる茶屋",
    "kana": "デイサービス　コハルヂャヤ",
    "address": "福岡県古賀市米多比５５５－１",
    "lat": 33.7283934677235,
    "lng": 130.521097316086,
    "tel": "092-946-9055",
    "url": "https://www.koharudyaya.com/",
    "pref": "福岡県",
    "city": "古賀市",
    "category": "day_service",
    "serviceType": "通所介護",
    "capacity": 25,
    "openDays": [
      "平日",
      "土曜日",
      "日曜日",
      "祝日"
    ],
    "openDaysNote": ""
  },
  {
    "id": "4073601074",
    "name": "デイサービスセンターいこいの里古賀",
    "kana": "デイサービスセンターイコイノサトコガ",
    "address": "福岡県古賀市今の庄2丁目15番10号",
    "lat": 33.7269983,
    "lng": 130.4743868,
    "tel": "092-943-6677",
    "url": "http://ikoino-sato.com",
    "pref": "福岡県",
    "city": "古賀市",
    "category": "day_service",
    "serviceType": "通所介護",
    "capacity": null,
    "openDays": [
      "平日",
      "土曜日",
      "日曜日",
      "祝日"
    ],
    "openDaysNote": "災害・悪天候などやむを得ない状況の際、利用者の安全確保を最優先とした避難・誘導等の措置を取るものとする。"
  },
  {
    "id": "4073600696",
    "name": "デイサービスセンター花見",
    "kana": "デイサービスセンターハナミ",
    "address": "福岡県古賀市花見東７丁目2－１1",
    "lat": 33.7514812,
    "lng": 130.4700173,
    "tel": "092-943-7600",
    "url": "",
    "pref": "福岡県",
    "city": "古賀市",
    "category": "day_service",
    "serviceType": "通所介護",
    "capacity": 30,
    "openDays": [
      "平日",
      "土曜日",
      "日曜日",
      "祝日"
    ],
    "openDaysNote": ""
  },
  {
    "id": "4073600472",
    "name": "デイサービスどんぐり",
    "kana": "デイサービスドングリ",
    "address": "福岡県古賀市青柳町803番地",
    "lat": 33.7128189,
    "lng": 130.4853446,
    "tel": "092-943-7864",
    "url": "http://www.houshikai.or.jp",
    "pref": "福岡県",
    "city": "古賀市",
    "category": "day_service",
    "serviceType": "通所介護",
    "capacity": 25,
    "openDays": [
      "平日",
      "土曜日",
      "祝日"
    ],
    "openDaysNote": ""
  },
  {
    "id": "4073600274",
    "name": "デイサービス花梨",
    "kana": "デイサービス　カリン",
    "address": "福岡県古賀市花見南2-14-15ハイマート　花梨 ハイマート　花梨",
    "lat": 33.7428655,
    "lng": 130.4667983,
    "tel": "092-940-7200",
    "url": "http://www.houshikai.or.jp",
    "pref": "福岡県",
    "city": "古賀市",
    "category": "day_service",
    "serviceType": "通所介護",
    "capacity": 40,
    "openDays": [
      "平日",
      "土曜日",
      "祝日"
    ],
    "openDaysNote": ""
  },
  {
    "id": "4073601181",
    "name": "デイサービス古賀のたいよう",
    "kana": "デイサービスコガノタイヨウ",
    "address": "青柳字瓜尾1228-8",
    "lat": null,
    "lng": null,
    "tel": "092-410-4714",
    "url": "https://www.taiyouhome.com/",
    "pref": "福岡県",
    "city": "古賀市",
    "category": "day_service",
    "serviceType": "通所介護",
    "capacity": null,
    "openDays": [
      "平日",
      "土曜日",
      "祝日"
    ],
    "openDaysNote": ""
  },
  {
    "id": "4073601058",
    "name": "ベストケア・デイサービスセンター古賀",
    "kana": "ベストケア・デイサービスセンターコガ",
    "address": "福岡県古賀市中央2丁目825番7号",
    "lat": 33.7338245,
    "lng": 130.4745856,
    "tel": "092－986-8066",
    "url": "http://www.best-care.jp/",
    "pref": "福岡県",
    "city": "古賀市",
    "category": "day_service",
    "serviceType": "通所介護",
    "capacity": 0,
    "openDays": [
      "平日",
      "土曜日"
    ],
    "openDaysNote": ""
  },
  {
    "id": "4073600100",
    "name": "みどり苑デイサービスセンター",
    "kana": "ミドリエンデイサービスセンター",
    "address": "古賀市新原８４０番地",
    "lat": 33.7234016495218,
    "lng": 130.480559408598,
    "tel": "092-942-0200",
    "url": "",
    "pref": "福岡県",
    "city": "古賀市",
    "category": "day_service",
    "serviceType": "通所介護",
    "capacity": 0,
    "openDays": [
      "平日",
      "土曜日",
      "祝日"
    ],
    "openDaysNote": ""
  },
  {
    "id": "4073601090",
    "name": "ライズケアセンター古賀",
    "kana": "ライズケアセンターコガ",
    "address": "福岡県古賀市美明2丁目1-6",
    "lat": 33.7219283,
    "lng": 130.4622154,
    "tel": "092-940-7272",
    "url": "https://www.rise-info.com",
    "pref": "福岡県",
    "city": "古賀市",
    "category": "day_service",
    "serviceType": "通所介護",
    "capacity": 0,
    "openDays": [
      "平日",
      "祝日"
    ],
    "openDaysNote": ""
  },
  {
    "id": "4073601173",
    "name": "ライズトレーニングセンター古賀",
    "kana": "ライズトレーニングセンターコガ",
    "address": "福岡県古賀市天神5丁目10-7",
    "lat": 33.7313601,
    "lng": 130.4624638,
    "tel": "092-943-9666",
    "url": "https://www.rise-info.com/",
    "pref": "福岡県",
    "city": "古賀市",
    "category": "day_service",
    "serviceType": "通所介護",
    "capacity": null,
    "openDays": [
      "平日",
      "祝日"
    ],
    "openDaysNote": "年末年始（12/31～1/3）休館"
  },
  {
    "id": "4073600449",
    "name": "ライブリーワンデイサービス",
    "kana": "ライブリーワンデイサービス",
    "address": "福岡県古賀市天神１－８－３６",
    "lat": 33.7321582,
    "lng": 130.4654069,
    "tel": "092-941-1022",
    "url": "https://www.livelyone.jp/",
    "pref": "福岡県",
    "city": "古賀市",
    "category": "day_service",
    "serviceType": "通所介護",
    "capacity": 35,
    "openDays": [
      "平日",
      "祝日"
    ],
    "openDaysNote": ""
  },
  {
    "id": "4073600878",
    "name": "医療法人　Ｙ＆Ｋ　デイサービス　ブライカ",
    "kana": "イリョウホウジン　ワイアンドケイ　デイサービス　ブライカ",
    "address": "福岡県古賀市今の庄１丁目１５６－１",
    "lat": 33.7306144756993,
    "lng": 130.473825235107,
    "tel": "092-410-0943",
    "url": "www.buraika.jp/",
    "pref": "福岡県",
    "city": "古賀市",
    "category": "day_service",
    "serviceType": "通所介護",
    "capacity": 30,
    "openDays": [
      "平日",
      "土曜日",
      "祝日"
    ],
    "openDaysNote": ""
  },
  {
    "id": "4073600233",
    "name": "医療法人　植田脳神経外科医院デイサービスセンター",
    "kana": "イリョウホウジン　ウエタノウシンケイゲカイインデイサービスセンター",
    "address": "福岡県古賀市久保1095-1",
    "lat": 33.7384748,
    "lng": 130.4822586,
    "tel": "092-940-7071",
    "url": "",
    "pref": "福岡県",
    "city": "古賀市",
    "category": "day_service",
    "serviceType": "通所介護",
    "capacity": 0,
    "openDays": [
      "平日",
      "土曜日",
      "祝日"
    ],
    "openDaysNote": ""
  },
  {
    "id": "4073600365",
    "name": "介護事業所　ほたるの郷",
    "kana": "カイゴジギョウショ　ホタルノサト",
    "address": "福岡県古賀市薬王寺518-1",
    "lat": 33.7161159,
    "lng": 130.5166193,
    "tel": "092-946-9111",
    "url": "hotarunosatokoga@theia.ocn.ne.jp",
    "pref": "福岡県",
    "city": "古賀市",
    "category": "day_service",
    "serviceType": "通所介護",
    "capacity": 3,
    "openDays": [
      "平日",
      "土曜日",
      "祝日"
    ],
    "openDaysNote": ""
  },
  {
    "id": "4073600084",
    "name": "古賀市社会福祉協議会　通所介護事業所　「はーとふる古賀」",
    "kana": "コガシシャカイフクシキョウギカイ　ツウショカイゴジギョウショ　ハートフルコガ",
    "address": "福岡県古賀市庄２０５番地サンコスモ古賀 サンコスモ古賀",
    "lat": 33.7297061,
    "lng": 130.4792672,
    "tel": "092-942-1153",
    "url": "http://www.kogasyakyou.jp/",
    "pref": "福岡県",
    "city": "古賀市",
    "category": "day_service",
    "serviceType": "通所介護",
    "capacity": 0,
    "openDays": [
      "平日",
      "土曜日",
      "祝日"
    ],
    "openDaysNote": ""
  },
  {
    "id": "4073600639",
    "name": "通所介護ライズ古賀",
    "kana": "ツウショカイゴライズコガ",
    "address": "福岡県古賀市天神5丁目10-8",
    "lat": 33.7313941414202,
    "lng": 130.462302466727,
    "tel": "092-940-2717",
    "url": "https://www.rise-info.com",
    "pref": "福岡県",
    "city": "古賀市",
    "category": "day_service",
    "serviceType": "通所介護",
    "capacity": 35,
    "openDays": [
      "平日",
      "祝日"
    ],
    "openDaysNote": ""
  },
  {
    "id": "4078400217",
    "name": "デイサービス　こもれびの家",
    "kana": "デイサービス　コモレビノイエ",
    "address": "福岡県八女郡広川町大字一條1065番地7",
    "lat": 33.2427522,
    "lng": 130.5150963,
    "tel": "0942-53-5511",
    "url": "http://www.komorebinoie.jp",
    "pref": "福岡県",
    "city": "広川町",
    "category": "day_service",
    "serviceType": "通所介護",
    "capacity": 26,
    "openDays": [
      "平日",
      "土曜日",
      "日曜日",
      "祝日"
    ],
    "openDaysNote": "日曜日は定員19名"
  },
  {
    "id": "4078400472",
    "name": "デイサービスえる暮らす",
    "kana": "デイサービスエルクラス",
    "address": "福岡県八女郡広川町新代字湯納楚1364番120",
    "lat": 33.2612460639043,
    "lng": 130.54097118579,
    "tel": "943228815",
    "url": "https://www.hidakaseikei.or.jp/dayservice.php",
    "pref": "福岡県",
    "city": "広川町",
    "category": "day_service",
    "serviceType": "通所介護",
    "capacity": 0,
    "openDays": [
      "平日",
      "土曜日",
      "祝日"
    ],
    "openDaysNote": "お盆休業：8月13日～8月15日（改行）年末休業：12月30日～翌年1月3日"
  },
  {
    "id": "4078400456",
    "name": "デイサービスステーション　ぶどうの木",
    "kana": "デイサービスステーション　ブドウノキ",
    "address": "福岡県八女郡広川町大字吉常723-4",
    "lat": 33.2442557,
    "lng": 130.5749512,
    "tel": "0943-24-9357",
    "url": "",
    "pref": "福岡県",
    "city": "広川町",
    "category": "day_service",
    "serviceType": "通所介護",
    "capacity": 19,
    "openDays": [
      "平日",
      "土曜日",
      "祝日"
    ],
    "openDaysNote": ""
  },
  {
    "id": "4078400134",
    "name": "デイサービスセンター　長峰の丘",
    "kana": "デイサービスセンター　ナガミネノオカ",
    "address": "福岡県八女郡広川町六田351番地の8",
    "lat": 33.2337154,
    "lng": 130.565918,
    "tel": "0943-23-6650",
    "url": "http://www.ryuuikukai.com/nagamine/index.html",
    "pref": "福岡県",
    "city": "広川町",
    "category": "day_service",
    "serviceType": "通所介護",
    "capacity": 0,
    "openDays": [
      "平日",
      "土曜日"
    ],
    "openDaysNote": "特になし"
  },
  {
    "id": "4072301379",
    "name": "デイサービスつどいの場",
    "kana": "デイサービスツドイノバ",
    "address": "福岡県八女郡広川町大字新代1811番地2",
    "lat": 33.2308907,
    "lng": 130.5739868,
    "tel": "0943-22-8319",
    "url": "",
    "pref": "福岡県",
    "city": "広川町",
    "category": "day_service",
    "serviceType": "通所介護",
    "capacity": 0,
    "openDays": [
      "平日",
      "土曜日",
      "祝日"
    ],
    "openDaysNote": ""
  },
  {
    "id": "4078400332",
    "name": "デイサービス舞風台",
    "kana": "デイサービスブフウダイ",
    "address": "福岡県八女郡広川町大字水原1498-11番地サービス付き高齢者向け住宅舞風台 サービス付き高齢者向け住宅舞風台",
    "lat": 33.2423750743448,
    "lng": 130.590702886647,
    "tel": "0943-33-1015",
    "url": "",
    "pref": "福岡県",
    "city": "広川町",
    "category": "day_service",
    "serviceType": "通所介護",
    "capacity": 50,
    "openDays": [
      "平日",
      "土曜日",
      "祝日"
    ],
    "openDaysNote": ""
  },
  {
    "id": "4078400399",
    "name": "広川デイサービスほっと",
    "kana": "ヒロカワデイサービスホット",
    "address": "福岡県八女郡広川町大字日吉1250番地1",
    "lat": 33.2591124,
    "lng": 130.5528794,
    "tel": "0943-22-8213",
    "url": "www.casework-nakagawa.com/",
    "pref": "福岡県",
    "city": "広川町",
    "category": "day_service",
    "serviceType": "通所介護",
    "capacity": 30,
    "openDays": [
      "平日",
      "土曜日",
      "祝日"
    ],
    "openDaysNote": ""
  },
  {
    "id": "4078400035",
    "name": "社会福祉法人広川町社会福祉協議会",
    "kana": "シャカイフクシホウジンヒロカワマチシャカイフクシキョウギカイ",
    "address": "福岡県八女郡広川町大字新代2165番地1",
    "lat": 33.2404673,
    "lng": 130.5523244,
    "tel": "0943-32-7072",
    "url": "hirokawashakyou.jp",
    "pref": "福岡県",
    "city": "広川町",
    "category": "day_service",
    "serviceType": "通所介護",
    "capacity": 0,
    "openDays": [
      "平日",
      "土曜日",
      "祝日"
    ],
    "openDaysNote": ""
  },
  {
    "id": "4078400076",
    "name": "若久デイサービスセンター",
    "kana": "ワカヒサデイサービスセンター",
    "address": "福岡県八女郡広川町新代1389-128",
    "lat": 33.2594091912027,
    "lng": 130.540270042822,
    "tel": "0943-32-3583",
    "url": "http://www.kyueikai.jp",
    "pref": "福岡県",
    "city": "広川町",
    "category": "day_service",
    "serviceType": "通所介護",
    "capacity": 40,
    "openDays": [
      "平日",
      "土曜日",
      "祝日"
    ],
    "openDaysNote": "1月1日は休館日とする。"
  },