[
  {
    "id": "770406627",
    "name": "i-stepトレーニングセンター",
    "kana": "アイステップトレーニングセンター",
    "address": "福島県いわき市平字紅葉町43-4",
    "lat": 37.0646061251552,
    "lng": 140.892823745369,
    "tel": "0246-84-5816",
    "url": "http://www.i-stepproject.jp/",
    "pref": "福島県",
    "city": "いわき市",
    "category": "day_service",
    "serviceType": "通所介護",
    "capacity": 250,
    "openDays": [
      "平日",
      "祝日"
    ],
    "openDaysNote": ""
  },
  {
    "id": "770408078",
    "name": "i-stepトレーニングセンタープラス",
    "kana": "アイステップトレーニングセンタープラス",
    "address": "福島県いわき市平上荒川桜町21-1",
    "lat": 37.0342282217855,
    "lng": 140.888824158322,
    "tel": "0246-88-7535",
    "url": "http://www.i-stepproject.jp",
    "pref": "福島県",
    "city": "いわき市",
    "category": "day_service",
    "serviceType": "通所介護",
    "capacity": 125,
    "openDays": [
      "平日"
    ],
    "openDaysNote": "お盆休み(8月13日～15日）（改行）年末年始休み（12月30日～1月3日）"
  },
  {
    "id": "770407641",
    "name": "JA福島さくら　デイサービスみなみ",
    "kana": "ジェイエイフクシマサクラ　デイサービスミナミ",
    "address": "福島県いわき市後田町柳町52番地いわき南福祉センター いわき南福祉センター",
    "lat": 36.9225265,
    "lng": 140.7895286,
    "tel": "0246-38-5702",
    "url": "",
    "pref": "福島県",
    "city": "いわき市",
    "category": "day_service",
    "serviceType": "通所介護",
    "capacity": 0,
    "openDays": [
      "平日",
      "土曜日",
      "祝日"
    ],
    "openDaysNote": ""
  },
  {
    "id": "770405850",
    "name": "PREMIUM　LOUNGE",
    "kana": "プレミアム　ラウンジ",
    "address": "福島県いわき市内郷高坂町八反田52番地",
    "lat": 37.0441895324132,
    "lng": 140.860623572492,
    "tel": "0246-38-6307",
    "url": "http://www.hot-daytra.com/",
    "pref": "福島県",
    "city": "いわき市",
    "category": "day_service",
    "serviceType": "通所介護",
    "capacity": 0,
    "openDays": [
      "平日",
      "土曜日",
      "祝日"
    ],
    "openDaysNote": ""
  },
  {
    "id": "770403608",
    "name": "アイカワ新舞子デイサービスセンター",
    "kana": "アイカワシンマイコデイサービスセンター",
    "address": "いわき市四倉町下仁井田字須賀向３０－２２",
    "lat": 37.0798295,
    "lng": 140.9794116,
    "tel": "０２４６－３２－６４１１",
    "url": "https://www.gurutto-iwaki.com/datail/index_840.html",
    "pref": "福島県",
    "city": "いわき市",
    "category": "day_service",
    "serviceType": "通所介護",
    "capacity": 40,
    "openDays": [
      "平日",
      "祝日"
    ],
    "openDaysNote": "年末年始の定休日は暦により変動有。"
  },
  {
    "id": "770406619",
    "name": "あじさい通所センター",
    "kana": "アジサイツウショセンター",
    "address": "福島県いわき市佐糠町東2丁目6-9Ｃ棟1 Ｃ棟1",
    "lat": 36.9174153,
    "lng": 140.8092103,
    "tel": "0246（88）1351",
    "url": "",
    "pref": "福島県",
    "city": "いわき市",
    "category": "day_service",
    "serviceType": "通所介護",
    "capacity": 0,
    "openDays": [
      "平日",
      "土曜日",
      "日曜日",
      "祝日"
    ],
    "openDaysNote": ""
  },
  {
    "id": "770406932",
    "name": "あったかほーむﾃﾞｲｻｰﾋﾞｽ神谷",
    "kana": "アッタカホームデイサービスカベヤ",
    "address": "福島県いわき市平中神谷字宿畑３４-３",
    "lat": 37.06305,
    "lng": 140.9353003,
    "tel": "0246-84-8812",
    "url": "",
    "pref": "福島県",
    "city": "いわき市",
    "category": "day_service",
    "serviceType": "通所介護",
    "capacity": 40,
    "openDays": [
      "平日",
      "土曜日",
      "祝日"
    ],
    "openDaysNote": "◇夏季休暇について、ご利用者の要望や状況等により、営業を検討します。"
  },
  {
    "id": "770406239",
    "name": "あったかほーむデイサービス",
    "kana": "アッタカホームデイサービス",
    "address": "福島県いわき市小島町一丁目４番地の２",
    "lat": 37.0504991,
    "lng": 140.8811443,
    "tel": "0246-38-8136",
    "url": "",
    "pref": "福島県",
    "city": "いわき市",
    "category": "day_service",
    "serviceType": "通所介護",
    "capacity": 0,
    "openDays": [
      "平日",
      "土曜日",
      "祝日"
    ],
    "openDaysNote": "当施設は、通常規模（一日定員30名）単独・一般型のデイサービスです。（改行）◇営業時間は平日、土曜、祝日ともに8時00分～17時30分で営業しております。（改行）◇夏季休暇については、ご利用者の要望や状況等により営業を検討します。"
  },
  {
    "id": "770407302",
    "name": "あったかほーむデイサービス御台境",
    "kana": "アッタカホームデイサービスミダイサカイ",
    "address": "福島県いわき市内郷御台境町字鶴巻75番地の8",
    "lat": 37.0501523,
    "lng": 140.8677796,
    "tel": "0246－88－8317",
    "url": "",
    "pref": "福島県",
    "city": "いわき市",
    "category": "day_service",
    "serviceType": "通所介護",
    "capacity": 0,
    "openDays": [
      "平日",
      "土曜日",
      "祝日"
    ],
    "openDaysNote": "・お盆休業について、ご利用者やご家族などの要望や希望に応じて、営業を検討します。（改行）・サービス提供時間(9時15分～16時30分)とするが、ご利用者の要望や希望により、延長サービスを提供します(要相談となります)"
  },
  {
    "id": "770400836",
    "name": "いわきゆったり館デイサービスセンター",
    "kana": "イワキユッタリカンデイサービスセンター",
    "address": "福島県いわき市常磐湯本町上浅貝22番地の１いわき市健康・福祉プラザ いわき市健康・福祉プラザ",
    "lat": 37.0102776,
    "lng": 140.8547392,
    "tel": "0246-43-0805",
    "url": "http://www.yuttarikan.ecnet.jp",
    "pref": "福島県",
    "city": "いわき市",
    "category": "day_service",
    "serviceType": "通所介護",
    "capacity": 25,
    "openDays": [
      "平日",
      "土曜日",
      "祝日"
    ],
    "openDaysNote": "なし"
  },
  {
    "id": "770400349",
    "name": "いわさき荘デイサービスセンター通所介護事業所",
    "kana": "イワサキソウデイサービスセンターツウショカイゴジギョウショ",
    "address": "福島県いわき市常磐上湯長谷町上ノ台８８－１",
    "lat": 37.0035059,
    "lng": 140.8384886,
    "tel": "0246-44-6634",
    "url": "http://iwasakisou.jp",
    "pref": "福島県",
    "city": "いわき市",
    "category": "day_service",
    "serviceType": "通所介護",
    "capacity": 0,
    "openDays": [
      "平日",
      "祝日"
    ],
    "openDaysNote": "年末年始休・１２月３１日～１月２日"
  },
  {
    "id": "770403913",
    "name": "カーナ・赤井デイサービス",
    "kana": "カーナ・アカイデイサービス",
    "address": "福島県いわき市平赤井字深田28番地",
    "lat": 37.0867888,
    "lng": 140.8609494,
    "tel": "0246-21-3006",
    "url": "",
    "pref": "福島県",
    "city": "いわき市",
    "category": "day_service",
    "serviceType": "通所介護",
    "capacity": 30,
    "openDays": [
      "平日",
      "土曜日",
      "祝日"
    ],
    "openDaysNote": ""
  },
  {
    "id": "770402816",
    "name": "きのこの山デイサービスセンター",
    "kana": "キノコノヤマデイサービスセンター",
    "address": "福島県いわき市遠野町字新川原101番地",
    "lat": 36.9876643,
    "lng": 140.7327133,
    "tel": "0246-74-1688",
    "url": "",
    "pref": "福島県",
    "city": "いわき市",
    "category": "day_service",
    "serviceType": "通所介護",
    "capacity": 0,
    "openDays": [
      "平日",
      "土曜日",
      "祝日"
    ],
    "openDaysNote": "12月30日～1月3日　年末年始は休み"
  },
  {
    "id": "770405751",
    "name": "くらしの郷デイサービスセンター",
    "kana": "クラシノサトデイサービスセンター",
    "address": "福島県いわき市中央台鹿島三丁目1番7",
    "lat": 37.0064735,
    "lng": 140.9166555,
    "tel": "0246-29-0193",
    "url": "http://jin-ai-kai.jp",
    "pref": "福島県",
    "city": "いわき市",
    "category": "day_service",
    "serviceType": "通所介護",
    "capacity": 0,
    "openDays": [
      "平日",
      "土曜日",
      "祝日"
    ],
    "openDaysNote": ""
  },
  {
    "id": "770409381",
    "name": "ケアクラブみかん",
    "kana": "ケアクラブ　ミカン",
    "address": "福島県いわき市久之浜町久之浜字立31-1",
    "lat": 37.1460933,
    "lng": 141.0001294,
    "tel": "0246-88-1953",
    "url": "",
    "pref": "福島県",
    "city": "いわき市",
    "category": "day_service",
    "serviceType": "通所介護",
    "capacity": null,
    "openDays": [
      "平日",
      "祝日"
    ],
    "openDaysNote": "12月30日～1月3日　休み。"
  },
  {
    "id": "770409159",
    "name": "ケアセンターつどいいわき",
    "kana": "ケアセンターツドイイワキ",
    "address": "福島県いわき市平北白土字ネキ内23",
    "lat": 37.0510448,
    "lng": 140.9168795,
    "tel": "0246-24-6622",
    "url": "https://mcp-net.jp",
    "pref": "福島県",
    "city": "いわき市",
    "category": "day_service",
    "serviceType": "通所介護",
    "capacity": null,
    "openDays": [
      "平日",
      "土曜日",
      "祝日"
    ],
    "openDaysNote": ""
  },
  {
    "id": "770404481",
    "name": "ケアパートナーいわき",
    "kana": "ケアパートナーイワキ",
    "address": "福島県いわき市平北白土字宮前48-1",
    "lat": 37.0502703,
    "lng": 140.9120424,
    "tel": "0246-35-5920",
    "url": "http://www.care-partner.com/",
    "pref": "福島県",
    "city": "いわき市",
    "category": "day_service",
    "serviceType": "通所介護",
    "capacity": 0,
    "openDays": [
      "平日",
      "土曜日",
      "日曜日",
      "祝日"
    ],
    "openDaysNote": "原則第３日曜日営業（祝日含む・１２月３０日～１月３日は除く）（改行）ただし、利用者の要望に応じて第1.2.4.5日曜日のいずれかに営業日を変更することがある。"
  },
  {
    "id": "770403483",
    "name": "ケイアンドワイデイサービス",
    "kana": "ケイアンドワイデイサービス",
    "address": "福島県いわき市泉ヶ丘2-10-6",
    "lat": 36.9644118,
    "lng": 140.8558658,
    "tel": "0246-75-2228",
    "url": "http://k-and-y.p-kit.com/",
    "pref": "福島県",
    "city": "いわき市",
    "category": "day_service",
    "serviceType": "通所介護",
    "capacity": 0,
    "openDays": [
      "平日",
      "土曜日",
      "祝日"
    ],
    "openDaysNote": ""
  },
  {
    "id": "770403996",
    "name": "こころの駅　デイサービスセンター",
    "kana": "ココロノエキ　デイサービスセンター",
    "address": "福島県いわき市小名浜字中原17-1",
    "lat": 36.9437517,
    "lng": 140.8731711,
    "tel": "0246-54-5000",
    "url": "kokoronoeki＠basil.ocn.ne.jp",
    "pref": "福島県",
    "city": "いわき市",
    "category": "day_service",
    "serviceType": "通所介護",
    "capacity": 20,
    "openDays": [
      "平日",
      "土曜日",
      "日曜日",
      "祝日"
    ],
    "openDaysNote": ""
  },
  {
    "id": "770404903",
    "name": "すいとぴー　デイサービスセンター　ひらくぼ",
    "kana": "スイトピー　デイサービスセンター　ヒラクボ",
    "address": "福島県いわき市平下平窪字鶯内101-1",
    "lat": 37.0704136,
    "lng": 140.8802654,
    "tel": "0246-35-7761",
    "url": "http://www.pcs.sweetpea.co.jp",
    "pref": "福島県",
    "city": "いわき市",
    "category": "day_service",
    "serviceType": "通所介護",
    "capacity": 30,
    "openDays": [
      "平日",
      "土曜日",
      "祝日"
    ],
    "openDaysNote": "特になし"
  },
  {
    "id": "770404895",
    "name": "すいとぴーデイサービスセンター中央台",
    "kana": "スイトピーデイサービスセンターチュウオウダイ",
    "address": "福島県いわき市中央台飯野４－７－２",
    "lat": 37.0166611,
    "lng": 140.9210184,
    "tel": "0246-46-1900",
    "url": "http://www.sweetpea.co.jp/",
    "pref": "福島県",
    "city": "いわき市",
    "category": "day_service",
    "serviceType": "通所介護",
    "capacity": 35,
    "openDays": [
      "平日",
      "土曜日",
      "祝日"
    ],
    "openDaysNote": "サービス提供時間（改行）　午前9：00～午後16:15（改行）※利用者の希望により延長可（時間においては要相談）"
  },
  {
    "id": "770408144",
    "name": "すみのや泉リハビリセンター",
    "kana": "スミノヤイズミリハビリセンター",
    "address": "福島県いわき市泉町下川字薬師前39-1",
    "lat": 36.9439291,
    "lng": 140.8556454,
    "tel": "0246-84-7377",
    "url": "http://www.suminoya.or.jp/",
    "pref": "福島県",
    "city": "いわき市",
    "category": "day_service",
    "serviceType": "通所介護",
    "capacity": 0,
    "openDays": [
      "平日",
      "土曜日",
      "祝日"
    ],
    "openDaysNote": ""
  },
  {
    "id": "770404531",
    "name": "すみのや林城デイサービスセンター",
    "kana": "スミノヤリンジョウデイサービスセンター",
    "address": "福島県いわき市小名浜林城字辻前2",
    "lat": 36.9823037,
    "lng": 140.8921437,
    "tel": "0246-58-1157",
    "url": "http://www.suminoya.or.jp/index.html",
    "pref": "福島県",
    "city": "いわき市",
    "category": "day_service",
    "serviceType": "通所介護",
    "capacity": 0,
    "openDays": [
      "平日",
      "土曜日",
      "祝日"
    ],
    "openDaysNote": "木曜日　１単位目　9：00　～　12：10（改行）　　　　２単位目　13：30　～　16：40"
  },
  {
    "id": "770400323",
    "name": "せいざん荘デイサービスセンター",
    "kana": "セイザンソウデイサービスセンター",
    "address": "福島県いわき市植田町堂ノ作49－12",
    "lat": 36.9305692,
    "lng": 140.7916419,
    "tel": "0246-62-1105",
    "url": "http://www.seizansou.jp",
    "pref": "福島県",
    "city": "いわき市",
    "category": "day_service",
    "serviceType": "通所介護",
    "capacity": 30,
    "openDays": [
      "平日",
      "土曜日",
      "祝日"
    ],
    "openDaysNote": ""
  },
  {
    "id": "770407955",
    "name": "だんらんデイサービス",
    "kana": "ダンランデイサービス",
    "address": "福島県いわき市錦町釈迦堂60番地",
    "lat": 36.9035603,
    "lng": 140.7835602,
    "tel": "0246-38-7561",
    "url": "",
    "pref": "福島県",
    "city": "いわき市",
    "category": "day_service",
    "serviceType": "通所介護",
    "capacity": 0,
    "openDays": [
      "平日",
      "祝日"
    ],
    "openDaysNote": ""
  },
  {
    "id": "770404697",
    "name": "つかさデイサービス",
    "kana": "ツカサデイサービス",
    "address": "福島県いわき市泉町下川字神山前91番地の７",
    "lat": 36.9413155756535,
    "lng": 140.862166579376,
    "tel": "0246-96-5366",
    "url": "",
    "pref": "福島県",
    "city": "いわき市",
    "category": "day_service",
    "serviceType": "通所介護",
    "capacity": 0,
    "openDays": [
      "平日",
      "土曜日",
      "祝日"
    ],
    "openDaysNote": ""
  },
  {
    "id": "770408995",
    "name": "ツクイいわき錦町",
    "kana": "ツクイイワキニシキマチ",
    "address": "福島県いわき市錦町竹ノ花32-2",
    "lat": 36.9047598,
    "lng": 140.7896398,
    "tel": "0246-77-2820",
    "url": "http://www.tsukui.net",
    "pref": "福島県",
    "city": "いわき市",
    "category": "day_service",
    "serviceType": "通所介護",
    "capacity": null,
    "openDays": [
      "平日",
      "土曜日",
      "日曜日",
      "祝日"
    ],
    "openDaysNote": "年中無休"
  },
  {
    "id": "770408987",
    "name": "ツクイいわき小名浜",
    "kana": "ツクイイワキ小名浜",
    "address": "福島県いわき市大原字小屋35－1ツクイいわき小名浜 ツクイいわき小名浜",
    "lat": 36.9649402,
    "lng": 140.8917249,
    "tel": "0246－73－2355",
    "url": "https://www.tsukui.net",
    "pref": "福島県",
    "city": "いわき市",
    "category": "day_service",
    "serviceType": "通所介護",
    "capacity": 34,
    "openDays": [
      "平日",
      "土曜日",
      "日曜日",
      "祝日"
    ],
    "openDaysNote": ""
  },
  {
    "id": "770409001",
    "name": "ツクイいわき内郷",
    "kana": "ツクイイワキウチゴウ",
    "address": "福島県いわき市内郷御厩町4-34",
    "lat": 37.0510994,
    "lng": 140.8738557,
    "tel": "0246-45-2350",
    "url": "https://www.tsukui.net/home-care/2267/",
    "pref": "福島県",
    "city": "いわき市",
    "category": "day_service",
    "serviceType": "通所介護",
    "capacity": 0,
    "openDays": [
      "平日",
      "土曜日",
      "日曜日",
      "祝日"
    ],
    "openDaysNote": ""
  },
  {
    "id": "770402683",
    "name": "デイサービス　そら",
    "kana": "デイサービス　ソラ",
    "address": "福島県いわき市平下神谷字出口１７番地１",
    "lat": 37.0728024,
    "lng": 140.9533033,
    "tel": "0246-34-8722",
    "url": "http://www.sora-kaigo.com/",
    "pref": "福島県",
    "city": "いわき市",
    "category": "day_service",
    "serviceType": "通所介護",
    "capacity": 10,
    "openDays": [
      "平日",
      "祝日"
    ],
    "openDaysNote": "最低利用数へ達しない場合、営業を休日とさせていただくこともあります。"
  },
  {
    "id": "770403582",
    "name": "デイサービス　トモ・ハウス",
    "kana": "デイサービス　トモ・ハウス",
    "address": "福島県いわき市中之作字勝見ヶ浦４９－１８",
    "lat": 36.9562523,
    "lng": 140.9475315,
    "tel": "0246-55-7100",
    "url": "",
    "pref": "福島県",
    "city": "いわき市",
    "category": "day_service",
    "serviceType": "通所介護",
    "capacity": 35,
    "openDays": [
      "平日",
      "土曜日",
      "祝日"
    ],
    "openDaysNote": "年末年始に定休日あり"
  },
  {
    "id": "770406775",
    "name": "デイサービス　恵和",
    "kana": "デイサービス　ケイワ",
    "address": "福島県いわき市平四ツ波字糖塚33-1",
    "lat": 37.0741888,
    "lng": 140.9030236,
    "tel": "0246-35-0007",
    "url": "http://www.day-keiwa.jp",
    "pref": "福島県",
    "city": "いわき市",
    "category": "day_service",
    "serviceType": "通所介護",
    "capacity": 0,
    "openDays": [
      "平日",
      "祝日"
    ],
    "openDaysNote": "平日が祝日の場合も営業しております。"
  },
  {
    "id": "770406114",
    "name": "デイサービス「いっしょ」",
    "kana": "デイサービス「イッショ」",
    "address": "福島県いわき市川部町赤坂101",
    "lat": 36.9037927,
    "lng": 140.728104,
    "tel": "0246-38-9975",
    "url": "",
    "pref": "福島県",
    "city": "いわき市",
    "category": "day_service",
    "serviceType": "通所介護",
    "capacity": 0,
    "openDays": [
      "平日",
      "土曜日",
      "祝日"
    ],
    "openDaysNote": ""
  },
  {
    "id": "770409282",
    "name": "デイサービスあゆみ",
    "kana": "デイサービスアユミ",
    "address": "福島県いわき市泉町下川字谷地川1-1",
    "lat": 36.941454,
    "lng": 140.861308,
    "tel": "0246-85-0123",
    "url": "",
    "pref": "福島県",
    "city": "いわき市",
    "category": "day_service",
    "serviceType": "通所介護",
    "capacity": 0,
    "openDays": [
      "平日",
      "土曜日",
      "日曜日",
      "祝日"
    ],
    "openDaysNote": ""
  },
  {
    "id": "770405462",
    "name": "デイサービスウィズハート",
    "kana": "デイサービスウィズハート",
    "address": "福島県いわき市泉町大田5",
    "lat": 36.9677844,
    "lng": 140.8706054,
    "tel": "0246-68-8415",
    "url": "",
    "pref": "福島県",
    "city": "いわき市",
    "category": "day_service",
    "serviceType": "通所介護",
    "capacity": 19,
    "openDays": [
      "平日",
      "土曜日",
      "祝日"
    ],
    "openDaysNote": "特になし"
  },
  {
    "id": "770408292",
    "name": "デイサービスおもだか",
    "kana": "デイサービスオモダカ",
    "address": "福島県いわき市常磐水野谷町千代鶴181番地の6",
    "lat": 37.0041744874677,
    "lng": 140.864176303319,
    "tel": "0246-99-2525",
    "url": "http://koujinkai.co.jp",
    "pref": "福島県",
    "city": "いわき市",
    "category": "day_service",
    "serviceType": "通所介護",
    "capacity": 0,
    "openDays": [
      "平日",
      "祝日"
    ],
    "openDaysNote": ""
  },
  {
    "id": "770407559",
    "name": "デイサービスお結び",
    "kana": "デイサービスオムスビ",
    "address": "福島県いわき市好間町下好間字渋井64-2",
    "lat": 37.061013,
    "lng": 140.8722535,
    "tel": "0246-84-6903",
    "url": "",
    "pref": "福島県",
    "city": "いわき市",
    "category": "day_service",
    "serviceType": "通所介護",
    "capacity": 0,
    "openDays": [
      "平日"
    ],
    "openDaysNote": "お盆休み・年末年始の休みあり。"
  },
  {
    "id": "770407625",
    "name": "デイサービスきづな",
    "kana": "デイサービスキヅナ",
    "address": "福島県いわき市平南白土字八ッ坂74番地",
    "lat": 37.0424504490269,
    "lng": 140.904751164557,
    "tel": "0246－38－5507",
    "url": "http://kizuna-iwaki.co.jp",
    "pref": "福島県",
    "city": "いわき市",
    "category": "day_service",
    "serviceType": "通所介護",
    "capacity": 25,
    "openDays": [
      "平日",
      "土曜日",
      "祝日"
    ],
    "openDaysNote": ""
  },
  {
    "id": "770403509",
    "name": "デイサービスセンターあい・あい",
    "kana": "デイサービスセンターアイ・アイ",
    "address": "福島県いわき市郷ヶ丘2丁目55-3",
    "lat": 37.0290092,
    "lng": 140.9034551,
    "tel": "0246-46-0633",
    "url": "http://www.aiai-kaigo.net/",
    "pref": "福島県",
    "city": "いわき市",
    "category": "day_service",
    "serviceType": "通所介護",
    "capacity": 0,
    "openDays": [
      "平日",
      "土曜日",
      "祝日"
    ],
    "openDaysNote": "-"
  },
  {
    "id": "770402873",
    "name": "デイサービスセンターさくら",
    "kana": "デイサービスセンターサクラ",
    "address": "福島県いわき市小名浜島字西屋98",
    "lat": 36.9732032,
    "lng": 140.8710467,
    "tel": "0246-58-2166",
    "url": "",
    "pref": "福島県",
    "city": "いわき市",
    "category": "day_service",
    "serviceType": "通所介護",
    "capacity": 0,
    "openDays": [
      "平日",
      "土曜日",
      "祝日"
    ],
    "openDaysNote": ""
  },
  {
    "id": "770408425",
    "name": "デイサービスセンターつながる",
    "kana": "デイサービスセンターツナガル",
    "address": "福島県いわき市泉町一丁目8番地9",
    "lat": 36.95458,
    "lng": 140.856661,
    "tel": "0246-68-8340",
    "url": "http://npo-fukushinetiwaki.com/dayservice-tsunagaru.html",
    "pref": "福島県",
    "city": "いわき市",
    "category": "day_service",
    "serviceType": "通所介護",
    "capacity": 0,
    "openDays": [
      "平日",
      "祝日"
    ],
    "openDaysNote": ""
  },
  {
    "id": "770403525",
    "name": "ディサービスセンターパノラマ",
    "kana": "ディサービスセンターパノラマ",
    "address": "福島県いわき市常磐藤原町湯ノ嶽３９番地の２",
    "lat": 37.0012301,
    "lng": 140.8092263,
    "tel": "０２４６－４４－５２５６",
    "url": "",
    "pref": "福島県",
    "city": "いわき市",
    "category": "day_service",
    "serviceType": "通所介護",
    "capacity": 0,
    "openDays": [
      "平日",
      "土曜日",
      "祝日"
    ],
    "openDaysNote": ""
  },
  {
    "id": "770408862",
    "name": "ディサービスセンタールアナ",
    "kana": "ディサービスセンタールアナ",
    "address": "福島県いわき市平字新田前５－２",
    "lat": 37.049707,
    "lng": 140.8958468,
    "tel": "0246-24-0068",
    "url": "",
    "pref": "福島県",
    "city": "いわき市",
    "category": "day_service",
    "serviceType": "通所介護",
    "capacity": null,
    "openDays": [
      "平日",
      "土曜日",
      "祝日"
    ],
    "openDaysNote": ""
  },
  {
    "id": "770403061",
    "name": "デイサービスセンター愛",
    "kana": "デイサービスセンターアイ",
    "address": "福島県いわき市洋向台三丁目6番地の8",
    "lat": 36.9661212,
    "lng": 140.9403109,
    "tel": "0246-55-5607",
    "url": "",
    "pref": "福島県",
    "city": "いわき市",
    "category": "day_service",
    "serviceType": "通所介護",
    "capacity": 0,
    "openDays": [
      "平日",
      "祝日"
    ],
    "openDaysNote": "台風・積雪にてやむを得ず休業することあり。"
  },
  {
    "id": "770408771",
    "name": "デイサービスセンター薬師前",
    "kana": "デイサービスセンターヤクシマエ",
    "address": "福島県いわき市小名浜南富岡字薬師前５－１ケアレジデンス小名浜 ケアレジデンス小名浜",
    "lat": 36.9636729,
    "lng": 140.8805761,
    "tel": "０２４６－５３－６１７７",
    "url": "http://www.tokiwa.or.jp/",
    "pref": "福島県",
    "city": "いわき市",
    "category": "day_service",
    "serviceType": "通所介護",
    "capacity": null,
    "openDays": [
      "平日",
      "祝日"
    ],
    "openDaysNote": ""
  },
  {
    "id": "770407237",
    "name": "デイサービスときめき倶楽部",
    "kana": "デイサービストキメキクラブ",
    "address": "福島県いわき市小名浜字大原境西166番地の1",
    "lat": 36.9540710452137,
    "lng": 140.888202711639,
    "tel": "0246-88-9992",
    "url": "https://www.again-care.jp/",
    "pref": "福島県",
    "city": "いわき市",
    "category": "day_service",
    "serviceType": "通所介護",
    "capacity": 0,
    "openDays": [
      "平日",
      "土曜日",
      "祝日"
    ],
    "openDaysNote": ""
  },
  {
    "id": "770408243",
    "name": "デイサービスとよま",
    "kana": "デイサービストヨマ",
    "address": "福島県いわき市平豊間字柳町49",
    "lat": 36.9918543,
    "lng": 140.9689707,
    "tel": "0246-84-6047",
    "url": "",
    "pref": "福島県",
    "city": "いわき市",
    "category": "day_service",
    "serviceType": "通所介護",
    "capacity": 0,
    "openDays": [
      "平日",
      "土曜日",
      "日曜日",
      "祝日"
    ],
    "openDaysNote": ""
  },
  {
    "id": "770409423",
    "name": "デイサービスニューウォーク",
    "kana": "デイサービスニューウォーク",
    "address": "福島県いわき市内郷高坂町高橋93ｰ5",
    "lat": 37.0402384,
    "lng": 140.8570532,
    "tel": "0246ｰ38ｰ6962",
    "url": "https://newwalk-iwaki.jp/",
    "pref": "福島県",
    "city": "いわき市",
    "category": "day_service",
    "serviceType": "通所介護",
    "capacity": null,
    "openDays": [
      "平日"
    ],
    "openDaysNote": ""
  },
  {
    "id": "770406841",
    "name": "デイサービス喜雲館",
    "kana": "デイサービス　キウンカン",
    "address": "福島県いわき市常磐関湯本町日渡117-4",
    "lat": 37.0230180553863,
    "lng": 140.839514590511,
    "tel": "0246-43-2860",
    "url": "http://www.antai.jp",
    "pref": "福島県",
    "city": "いわき市",
    "category": "day_service",
    "serviceType": "通所介護",
    "capacity": 910,
    "openDays": [
      "平日",
      "土曜日",
      "祝日"
    ],
    "openDaysNote": ""
  },
  {
    "id": "770407286",
    "name": "デイサービス御宿ぶどうや",
    "kana": "デイサービスオンヤドブドウヤ",
    "address": "福島県いわき市小名浜字中原13-1",
    "lat": 36.9446183,
    "lng": 140.8747292,
    "tel": "0246-54-5000",
    "url": "kokoronoeki@basil.ocn.ne.jp",
    "pref": "福島県",
    "city": "いわき市",
    "category": "day_service",
    "serviceType": "通所介護",
    "capacity": 0,
    "openDays": [
      "平日",
      "土曜日",
      "日曜日",
      "祝日"
    ],
    "openDaysNote": ""
  },
  {
    "id": "770406684",
    "name": "デイサービス悠中央台",
    "kana": "デイサービスユウチュウオウダイ",
    "address": "福島県いわき市中央台飯野３丁目３３番地の１",
    "lat": 37.0131317896353,
    "lng": 140.915413805557,
    "tel": "０２４６－２９－３１１１",
    "url": "http://m-isi.com",
    "pref": "福島県",
    "city": "いわき市",
    "category": "day_service",
    "serviceType": "通所介護",
    "capacity": 39,
    "openDays": [
      "平日",
      "土曜日",
      "祝日"
    ],
    "openDaysNote": ""
  },
  {
    "id": "770407153",
    "name": "デイサービス遊",
    "kana": "デイサービスユウ",
    "address": "福島県いわき市平下神谷字仲田57-1",
    "lat": 37.0743065979436,
    "lng": 140.953574139517,
    "tel": "0246-88-6525",
    "url": "http://yajima-you.co.jp/",
    "pref": "福島県",
    "city": "いわき市",
    "category": "day_service",
    "serviceType": "通所介護",
    "capacity": 0,
    "openDays": [
      "平日",
      "祝日"
    ],
    "openDaysNote": "8月に夏季休業として暦による定休日あり。年末年始に暦による定休日あり。5月・9月・3月に暦による定休日あり。"
  },
  {
    "id": "770400505",
    "name": "ニチイケアセンターいわき",
    "kana": "ニチイケアセンターイワキ",
    "address": "福島県いわき市好間町下好間字一町坪111-1",
    "lat": 37.0576152309787,
    "lng": 140.866158299759,
    "tel": "0246-41-9027",
    "url": "http://www.nichiigakkan.co.jp",
    "pref": "福島県",
    "city": "いわき市",
    "category": "day_service",
    "serviceType": "通所介護",
    "capacity": 0,
    "openDays": [
      "平日",
      "土曜日",
      "日曜日",
      "祝日"
    ],
    "openDaysNote": ""
  },
  {
    "id": "770405967",
    "name": "ニチイケアセンター小名浜",
    "kana": "ニチイケアセンターオナハマ",
    "address": "福島県いわき市小名浜岡小名三丁目6-14",
    "lat": 36.9631954,
    "lng": 140.9086155,
    "tel": "0246-73-0105",
    "url": "http://www.nichiigakkan.co.jp",
    "pref": "福島県",
    "city": "いわき市",
    "category": "day_service",
    "serviceType": "通所介護",
    "capacity": 0,
    "openDays": [
      "平日",
      "土曜日",
      "日曜日",
      "祝日"
    ],
    "openDaysNote": ""
  },
  {
    "id": "770403970",
    "name": "ぬくもりの郷　デイサービスセンター　まごの手",
    "kana": "ヌクモリノサト　デイサービスセンター　マゴノテ",
    "address": "福島県　いわき市　常磐湯本町宝海127番地の10",
    "lat": 37.0143158,
    "lng": 140.8389577,
    "tel": "0246-38-6933",
    "url": "http://sunvert-iwaki.com",
    "pref": "福島県",
    "city": "いわき市",
    "category": "day_service",
    "serviceType": "通所介護",
    "capacity": 40,
    "openDays": [
      "平日",
      "土曜日",
      "祝日"
    ],
    "openDaysNote": "お盆休暇(8/13～8/15)・年末年始休暇(12/30～1/3)は、休業日となっております"
  },
  {
    "id": "770405231",
    "name": "はつらつ勿来",
    "kana": "ハツラツナコソ",
    "address": "福島県いわき市勿来町窪田万谷３９－４",
    "lat": 36.8949739940355,
    "lng": 140.758513099336,
    "tel": "0246-65-7411",
    "url": "https://www.sympathycare.jp/",
    "pref": "福島県",
    "city": "いわき市",
    "category": "day_service",
    "serviceType": "通所介護",
    "capacity": 38,
    "openDays": [
      "平日",
      "土曜日"
    ],
    "openDaysNote": ""
  },
  {
    "id": "770405397",
    "name": "はるる小名浜デイサービスセンター",
    "kana": "ハルルオナハマデイサービスセンター",
    "address": "福島県いわき市小名浜大原字堀米７７－５",
    "lat": 36.9617252,
    "lng": 140.8902953,
    "tel": "0246-52-2258",
    "url": "",
    "pref": "福島県",
    "city": "いわき市",
    "category": "day_service",
    "serviceType": "通所介護",
    "capacity": 28,
    "openDays": [
      "平日",
      "土曜日",
      "日曜日",
      "祝日"
    ],
    "openDaysNote": "祝日も営業しております。"
  },
  {
    "id": "770400653",
    "name": "ひまわり荘通所介護事業所",
    "kana": "ヒマワリソウツウショカイゴジギョウショ",
    "address": "福島県いわき市平上片寄字上ノ内193番地",
    "lat": 37.0804717,
    "lng": 140.9151853,
    "tel": "0246-34-1714",
    "url": "https://fksyouhei.wixsite.com/syouheikou",
    "pref": "福島県",
    "city": "いわき市",
    "category": "day_service",
    "serviceType": "通所介護",
    "capacity": 0,
    "openDays": [
      "平日",
      "土曜日"
    ],
    "openDaysNote": ""
  },
  {
    "id": "770408821",
    "name": "フィットデイ郷ケ丘",
    "kana": "フィットデイサトガオカ",
    "address": "福島県いわき市郷ケ丘2丁目１０６番地5",
    "lat": 37.0233361,
    "lng": 140.9083459,
    "tel": "0246-84-7678",
    "url": "welfuture.jp",
    "pref": "福島県",
    "city": "いわき市",
    "category": "day_service",
    "serviceType": "通所介護",
    "capacity": 0,
    "openDays": [
      "平日",
      "土曜日"
    ],
    "openDaysNote": ""
  },
  {
    "id": "770408888",
    "name": "ぽぉけらハウス",
    "kana": "ポォケラハウス",
    "address": "福島県いわき市泉町下川字川向48-1",
    "lat": 36.9377961,
    "lng": 140.8606315,
    "tel": "0246-84-8901",
    "url": "https://chobora.wixsite.com/mysite",
    "pref": "福島県",
    "city": "いわき市",
    "category": "day_service",
    "serviceType": "通所介護",
    "capacity": 20,
    "openDays": [
      "平日",
      "土曜日",
      "祝日"
    ],
    "openDaysNote": ""
  },
  {
    "id": "770407732",
    "name": "ほっとデイトレあらかわ",
    "kana": "ホットデイトレアラカワ",
    "address": "平上荒川字安草43",
    "lat": 37.0370106,
    "lng": 140.8940977,
    "tel": "0246-85-0908",
    "url": "",
    "pref": "福島県",
    "city": "いわき市",
    "category": "day_service",
    "serviceType": "通所介護",
    "capacity": null,
    "openDays": [
      "平日"
    ],
    "openDaysNote": ""
  },
  {
    "id": "770407500",
    "name": "ほっとデイトレきため",
    "kana": "ホットデイトレキタメ",
    "address": "福島県いわき市平字北目町156-3",
    "lat": 37.0656534,
    "lng": 140.884357,
    "tel": "0246-84-5266",
    "url": "",
    "pref": "福島県",
    "city": "いわき市",
    "category": "day_service",
    "serviceType": "通所介護",
    "capacity": null,
    "openDays": [
      "平日",
      "土曜日"
    ],
    "openDaysNote": ""
  },
  {
    "id": "770408334",
    "name": "みなと整骨院デイサービス",
    "kana": "ミナトセイコツインデイサービス",
    "address": "福島県いわき市小名浜字下明神町48-7",
    "lat": 36.950194,
    "lng": 140.9098771,
    "tel": "0246-54-5612",
    "url": "",
    "pref": "福島県",
    "city": "いわき市",
    "category": "day_service",
    "serviceType": "通所介護",
    "capacity": null,
    "openDays": [
      "平日",
      "土曜日"
    ],
    "openDaysNote": ""
  },
  {
    "id": "770408300",
    "name": "めいじ永寿介護サービス株式会社",
    "kana": "メイジエイジュカイゴサービスカブシキカイシャ",
    "address": "明治団地１番地１４めいじ永寿介護サービスステーション めいじ永寿介護サービスステーション",
    "lat": 37.0436732138129,
    "lng": 140.892341753373,
    "tel": "0246-88-1355",
    "url": "",
    "pref": "福島県",
    "city": "いわき市",
    "category": "day_service",
    "serviceType": "通所介護",
    "capacity": 20,
    "openDays": [
      "平日"
    ],
    "openDaysNote": ""
  },
  {
    "id": "770406783",
    "name": "ゆかりの広場",
    "kana": "ユカリノヒロバ",
    "address": "福島県いわき市勿来町酒井関根57番地の6",
    "lat": 36.8869952976799,
    "lng": 140.749152228975,
    "tel": "0246-64-8888",
    "url": "http://www.kaigo-yukari.co.jp",
    "pref": "福島県",
    "city": "いわき市",
    "category": "day_service",
    "serviceType": "通所介護",
    "capacity": 26,
    "openDays": [
      "平日",
      "土曜日",
      "日曜日",
      "祝日"
    ],
    "openDaysNote": "特になし"
  },
  {
    "id": "770408227",
    "name": "ライフ・サポート",
    "kana": "ライフサポート",
    "address": "久之浜町末続字塩民79",
    "lat": 37.1695906196306,
    "lng": 140.990956728836,
    "tel": "0246-84-9562",
    "url": "",
    "pref": "福島県",
    "city": "いわき市",
    "category": "day_service",
    "serviceType": "通所介護",
    "capacity": null,
    "openDays": [
      "平日",
      "祝日"
    ],
    "openDaysNote": "関係各所に事前連絡の上年末年始、盆に臨時休業日を設定の場合あり"
  },
  {
    "id": "770409134",
    "name": "リエイブル悠　鹿島",
    "kana": "リエイブルユウカシマ",
    "address": "福島県いわき市鹿島町米田字日渡5鹿島ショッピングセンターエブリア1F 鹿島ショッピングセンターエブリア1F",
    "lat": 36.9940788,
    "lng": 140.9052341,
    "tel": "0246-38-4821",
    "url": "https://m-isi.com/",
    "pref": "福島県",
    "city": "いわき市",
    "category": "day_service",
    "serviceType": "通所介護",
    "capacity": 0,
    "openDays": [
      "平日",
      "土曜日",
      "祝日"
    ],
    "openDaysNote": "年末年始休みあり。"
  },
  {
    "id": "770408839",
    "name": "リカバリープラス",
    "kana": "リカバリープラス",
    "address": "福島県いわき市小名浜燈籠原53-17",
    "lat": 36.9527893,
    "lng": 140.8826083,
    "tel": "0246-38-8758",
    "url": "",
    "pref": "福島県",
    "city": "いわき市",
    "category": "day_service",
    "serviceType": "通所介護",
    "capacity": null,
    "openDays": [
      "平日",
      "祝日"
    ],
    "openDaysNote": ""
  },
  {
    "id": "770407658",
    "name": "ﾘﾊﾋﾞﾘ＆ﾘﾗｸｾﾞｰｼｮﾝﾌｫｰﾕｰ",
    "kana": "リハビリアンドリラクゼーションフォーユー",
    "address": "福島県いわき市中央台鹿島三丁目38-2",
    "lat": 37.0056531644172,
    "lng": 140.922179986508,
    "tel": "0246（84）6011",
    "url": "http//foryou-center.com/",
    "pref": "福島県",
    "city": "いわき市",
    "category": "day_service",
    "serviceType": "通所介護",
    "capacity": 25,
    "openDays": [
      "平日",
      "祝日"
    ],
    "openDaysNote": "平日・祝日は営業・但し年末（12月30日～１月4日）休業"
  },
  {
    "id": "770408037",
    "name": "リハビリテーション悠　中央台",
    "kana": "リハビリテーションユウ　チュウオウダイ",
    "address": "福島県いわき市中央台鹿島三丁目35番地の2",
    "lat": 37.0045639,
    "lng": 140.9235036,
    "tel": "0246-31-0085",
    "url": "",
    "pref": "福島県",
    "city": "いわき市",
    "category": "day_service",
    "serviceType": "通所介護",
    "capacity": 0,
    "openDays": [
      "平日"
    ],
    "openDaysNote": "年末年始（12/31～1/3）"
  },
  {
    "id": "770409118",
    "name": "リハビリ専科　カンナ",
    "kana": "リハビリセンカ　カンナ",
    "address": "福島県いわき市小名浜住吉字飯塚43－8",
    "lat": 36.9789586,
    "lng": 140.8905666,
    "tel": "0246－38－8196",
    "url": "",
    "pref": "福島県",
    "city": "いわき市",
    "category": "day_service",
    "serviceType": "通所介護",
    "capacity": 0,
    "openDays": [
      "平日",
      "土曜日",
      "祝日"
    ],
    "openDaysNote": "夏季休暇・年末年始休み"
  },
  {
    "id": "770408698",
    "name": "レンガ通りデイサービスセンター",
    "kana": "レンガトオリデイサービスセンター",
    "address": "福島県いわき市平字二町目39",
    "lat": 37.0551291,
    "lng": 140.8899366,
    "tel": "0246-84-8640",
    "url": "http://jin-ai-kai.jp",
    "pref": "福島県",
    "city": "いわき市",
    "category": "day_service",
    "serviceType": "通所介護",
    "capacity": 0,
    "openDays": [
      "平日",
      "土曜日",
      "祝日"
    ],
    "openDaysNote": ""
  },
  {
    "id": "770402600",
    "name": "愛心会通所介護　和顔",
    "kana": "アイシンカイツウショカイゴ　ワゲン",
    "address": "福島県いわき市平下神谷字後原４７－１",
    "lat": 37.0653886,
    "lng": 140.9369111,
    "tel": "0246-57-0606",
    "url": "http://aisinkai-iwaki.com",
    "pref": "福島県",
    "city": "いわき市",
    "category": "day_service",
    "serviceType": "通所介護",
    "capacity": 0,
    "openDays": [
      "平日",
      "土曜日",
      "祝日"
    ],
    "openDaysNote": ""
  },
  {
    "id": "770405918",
    "name": "葵会通所介護　寿楽庭",
    "kana": "アオイカイツウショカイゴ　ジュラクテイ",
    "address": "福島県いわき市泉町本谷字大田23-1",
    "lat": 36.967428758727,
    "lng": 140.871902854262,
    "tel": "0246-76-0808",
    "url": "http://jugemu-iwaki.com/",
    "pref": "福島県",
    "city": "いわき市",
    "category": "day_service",
    "serviceType": "通所介護",
    "capacity": 0,
    "openDays": [
      "平日",
      "祝日"
    ],
    "openDaysNote": ""
  },
  {
    "id": "770403780",
    "name": "医療生協デイサービスセンター岡小名",
    "kana": "イリョウセイキョウデイサービスセンターオカオナ",
    "address": "福島県いわき市小名浜岡小名字馬上前２１",
    "lat": 36.9628368,
    "lng": 140.9031189,
    "tel": "0246-73-3900",
    "url": "http://www.hamadori-coop.jp/",
    "pref": "福島県",
    "city": "いわき市",
    "category": "day_service",
    "serviceType": "通所介護",
    "capacity": 0,
    "openDays": [
      "平日",
      "土曜日",
      "祝日"
    ],
    "openDaysNote": ""
  },
  {
    "id": "770404937",
    "name": "介福たいむ通所介護事業所",
    "kana": "カイフクタイムツウショカイゴジギョウショ",
    "address": "福島県いわき市好間町上好間字洞３４－１",
    "lat": 37.0697987,
    "lng": 140.8469538,
    "tel": "0246-36-3366",
    "url": "",
    "pref": "福島県",
    "city": "いわき市",
    "category": "day_service",
    "serviceType": "通所介護",
    "capacity": 0,
    "openDays": [
      "平日",
      "祝日"
    ],
    "openDaysNote": ""
  },
  {
    "id": "770400380",
    "name": "楽寿荘通所介護事業所",
    "kana": "ラクジュソウツウショカイゴジギョウショ",
    "address": "福島県いわき市四倉町上仁井田字横川74-1",
    "lat": 37.0907376462345,
    "lng": 140.978488628172,
    "tel": "0246-32-6383",
    "url": "http://www.rakujukai.com/",
    "pref": "福島県",
    "city": "いわき市",
    "category": "day_service",
    "serviceType": "通所介護",
    "capacity": 0,
    "openDays": [
      "平日",
      "土曜日",
      "祝日"
    ],
    "openDaysNote": "利用者がいないため定休日としている。"
  },
  {
    "id": "770408979",
    "name": "株式会社ツクイいわき中央台営業所",
    "kana": "カブシキカイシャツクイ",
    "address": "福島県いわき市中央台高久1-15-3",
    "lat": 37.0109574,
    "lng": 140.9275529,
    "tel": "0246-46-2535",
    "url": "https://www.tsukui.net/",
    "pref": "福島県",
    "city": "いわき市",
    "category": "day_service",
    "serviceType": "通所介護",
    "capacity": 0,
    "openDays": [
      "平日",
      "土曜日",
      "日曜日",
      "祝日"
    ],
    "openDaysNote": ""
  },
  {
    "id": "770400620",
    "name": "亀齢荘デイサービスセンター",
    "kana": "キレイソウデイサービスセンター",
    "address": "福島県いわき市平山崎字熊ノ宮３８番地",
    "lat": 37.0565872,
    "lng": 140.9405222,
    "tel": "0246-34-2001",
    "url": "http://www.kireisou.com",
    "pref": "福島県",
    "city": "いわき市",
    "category": "day_service",
    "serviceType": "通所介護",
    "capacity": null,
    "openDays": [
      "平日",
      "土曜日",
      "祝日"
    ],
    "openDaysNote": ""
  },
  {
    "id": "770409290",
    "name": "元氣ジムいわき中央台",
    "kana": "ゲンキジムイワキチュウオウダイ",
    "address": "福島県いわき市中央台高久二丁目25-1",
    "lat": 37.0090634653422,
    "lng": 140.927975744011,
    "tel": "0246-51-1233",
    "url": "https://www.able-can.jp",
    "pref": "福島県",
    "city": "いわき市",
    "category": "day_service",
    "serviceType": "通所介護",
    "capacity": 0,
    "openDays": [
      "平日",
      "祝日"
    ],
    "openDaysNote": ""
  },
  {
    "id": "770400414",
    "name": "幸寿苑",
    "kana": "コウジュエン",
    "address": "福島県いわき市平上平窪字原田13番地の１",
    "lat": 37.1005847,
    "lng": 140.8738727,
    "tel": "0246-22-8100",
    "url": "http://www.kojuen.com",
    "pref": "福島県",
    "city": "いわき市",
    "category": "day_service",
    "serviceType": "通所介護",
    "capacity": null,
    "openDays": [
      "平日",
      "土曜日",
      "祝日"
    ],
    "openDaysNote": ""
  },
  {
    "id": "770406049",
    "name": "幸福の家　桜の里デイサービスセンター",
    "kana": "シアワセノイエ　サクラノサトデイサービスセンター",
    "address": "福島県いわき市平谷川瀬字根木作62",
    "lat": 37.0462446712593,
    "lng": 140.889786123943,
    "tel": "0246-24-7702",
    "url": "https://sakuranosato-iwaki.com/",
    "pref": "福島県",
    "city": "いわき市",
    "category": "day_service",
    "serviceType": "通所介護",
    "capacity": 10,
    "openDays": [
      "平日",
      "土曜日",
      "祝日"
    ],
    "openDaysNote": ""
  },
  {
    "id": "770400307",
    "name": "高砂荘デイサービスセンター",
    "kana": "タカサゴソウ　デイサービスセンター",
    "address": "福島県いわき市遠野町上遠野字沢繋１６番地の１７",
    "lat": 37.0058156,
    "lng": 140.7833282,
    "tel": "0246-89-2860",
    "url": "https://jin-ai-kai.jp/info/tds/",
    "pref": "福島県",
    "city": "いわき市",
    "category": "day_service",
    "serviceType": "通所介護",
    "capacity": 0,
    "openDays": [
      "平日",
      "土曜日",
      "祝日"
    ],
    "openDaysNote": ""
  },
  {
    "id": "770408318",
    "name": "指定通所介護事業所優しい時間",
    "kana": "シテイツウショカイゴジギョウショヤサシイジカン",
    "address": "福島県いわき市錦町古川7－3",
    "lat": 36.9113289,
    "lng": 140.7807296,
    "tel": "0246-88-8432",
    "url": "",
    "pref": "福島県",
    "city": "いわき市",
    "category": "day_service",
    "serviceType": "通所介護",
    "capacity": null,
    "openDays": [
      "平日",
      "祝日"
    ],
    "openDaysNote": ""
  },
  {
    "id": "770401396",
    "name": "社会福祉法人　光美会　老人デイサービスセンター　人生の里",
    "kana": "シャカイフクシホウジン　コウビカイ　ロウジンデイサービスセンター　イキガイノサト",
    "address": "福島県いわき市内郷高野町五合田36番地の1",
    "lat": 37.0447591559362,
    "lng": 140.801487595716,
    "tel": "0246-27-2500",
    "url": "https://www.koubikai.jp/",
    "pref": "福島県",
    "city": "いわき市",
    "category": "day_service",
    "serviceType": "通所介護",
    "capacity": 35,
    "openDays": [
      "平日",
      "土曜日",
      "祝日"
    ],
    "openDaysNote": ""
  },
  {
    "id": "770401347",
    "name": "織内スパデイサービス",
    "kana": "オリウチスパデイサービス",
    "address": "福島県いわき市常磐関船町迎11",
    "lat": 37.0026116,
    "lng": 140.8504372,
    "tel": "0246-44-1105",
    "url": "http://sinsei-kai.jp",
    "pref": "福島県",
    "city": "いわき市",
    "category": "day_service",
    "serviceType": "通所介護",
    "capacity": 40,
    "openDays": [
      "平日",
      "土曜日",
      "祝日"
    ],
    "openDaysNote": "特になし"
  },
  {
    "id": "770406262",
    "name": "生き活き錦",
    "kana": "イキイキニシキ",
    "address": "福島県いわき市錦町ウツギサキ26-2",
    "lat": 36.9008574919769,
    "lng": 140.790412083853,
    "tel": "0246-38-3121",
    "url": "https://www.sympathycare.jp/",
    "pref": "福島県",
    "city": "いわき市",
    "category": "day_service",
    "serviceType": "通所介護",
    "capacity": 25,
    "openDays": [
      "平日",
      "土曜日"
    ],
    "openDaysNote": ""
  },
  {
    "id": "770409472",
    "name": "通所介護wara笑",
    "kana": "ツウショカイゴワラワラ",
    "address": "福島県いわき市平字倉前109-11",
    "lat": 37.0496898,
    "lng": 140.900728,
    "tel": "0246-88-7052",
    "url": "",
    "pref": "福島県",
    "city": "いわき市",
    "category": "day_service",
    "serviceType": "通所介護",
    "capacity": 0,
    "openDays": [
      "平日",
      "祝日"
    ],
    "openDaysNote": "午前の部のサービス利用が8時40分～11時45分まで、午後の部のサービス利用が13時～16時05分までの2単位制になります。"
  },
  {
    "id": "770407583",
    "name": "通所介護事業所サニーポート小名浜",
    "kana": "ツウショカイゴジギョウショサニーポートオナハマ",
    "address": "福島県いわき市小名浜字神成塚１３３番地の1",
    "lat": 36.9515156,
    "lng": 140.884052,
    "tel": "0246-92-3321",
    "url": "http://sunny-port.net/",
    "pref": "福島県",
    "city": "いわき市",
    "category": "day_service",
    "serviceType": "通所介護",
    "capacity": 30,
    "openDays": [
      "平日",
      "土曜日",
      "祝日"
    ],
    "openDaysNote": "延長時間は個別対応します"
  },
  {
    "id": "770409043",
    "name": "東田デイサービスセンター",
    "kana": "アズマダデイサービスセンター",
    "address": "福島県いわき市東田町一丁目23番地の6東田デイサービスセンター 東田デイサービスセンター",
    "lat": 36.922451,
    "lng": 140.800439,
    "tel": "246770553",
    "url": "",
    "pref": "福島県",
    "city": "いわき市",
    "category": "day_service",
    "serviceType": "通所介護",
    "capacity": 20,
    "openDays": [
      "平日",
      "祝日"
    ],
    "openDaysNote": ""
  },
  {
    "id": "770403475",
    "name": "内郷デイサービスセンター",
    "kana": "ウチゴウデイサービスセンター",
    "address": "福島県いわき市内郷高坂町大町２７－１",
    "lat": 37.04568,
    "lng": 140.862151,
    "tel": "0246-27-7312",
    "url": "http://www.cosmocare.jp/",
    "pref": "福島県",
    "city": "いわき市",
    "category": "day_service",
    "serviceType": "通所介護",
    "capacity": 28,
    "openDays": [
      "平日",
      "土曜日",
      "祝日"
    ],
    "openDaysNote": ""
  },
  {
    "id": "770401388",
    "name": "白鳥の里デイサービスセンター",
    "kana": "シラトリノサト　デイサービスセンター",
    "address": "福島県いわき市常磐白鳥町壱丁田２３番地の4",
    "lat": 36.9859334,
    "lng": 140.8444079,
    "tel": "0246-72-1011",
    "url": "http://jin-ai-kai.jp",
    "pref": "福島県",
    "city": "いわき市",
    "category": "day_service",
    "serviceType": "通所介護",
    "capacity": 40,
    "openDays": [
      "平日",
      "土曜日",
      "祝日"
    ],
    "openDaysNote": ""
  },
  {
    "id": "770406270",
    "name": "福島さくら農業協同組合草野デイサービスセンター太陽",
    "kana": "フクシマサクラノウギョウキョウドウクミアイクサノデイサービスセンタータイヨウ",
    "address": "福島県いわき市平下神谷字馬洗39",
    "lat": 37.0663307806813,
    "lng": 140.942644743517,
    "tel": "0246-34-0750",
    "url": "i-ds-kusano@ja-fsakura.or.jp",
    "pref": "福島県",
    "city": "いわき市",
    "category": "day_service",
    "serviceType": "通所介護",
    "capacity": 30,
    "openDays": [
      "平日",
      "土曜日",
      "祝日"
    ],
    "openDaysNote": "年末年始球については12月31日～1月3日までとなっております。"
  },
  {
    "id": "770409407",
    "name": "福島県いわき市勿来町関田西1丁目7-8",
    "kana": "フクシマケンイワキシナコソマチセキタマチニシイッチョウメ7-8",
    "address": "福島県いわき市勿来町関田西1丁目7-8",
    "lat": 36.8832399,
    "lng": 140.7853665,
    "tel": "0246-88-8515",
    "url": "",
    "pref": "福島県",
    "city": "いわき市",
    "category": "day_service",
    "serviceType": "通所介護",
    "capacity": null,
    "openDays": [
      "平日"
    ],
    "openDaysNote": ""
  },
  {
    "id": "770400299",
    "name": "養生会　かしま（かしまデイサービスセンター）",
    "kana": "ヨウジョウカイ　カシマ（カシマデイサービスセンター）",
    "address": "福島県いわき市鹿島町下蔵持字中沢目24",
    "lat": 36.9925086,
    "lng": 140.9108978,
    "tel": "0246-58-8278",
    "url": "kashimasou.jp/",
    "pref": "福島県",
    "city": "いわき市",
    "category": "day_service",
    "serviceType": "通所介護",
    "capacity": 0,
    "openDays": [
      "平日",
      "土曜日",
      "祝日"
    ],
    "openDaysNote": "なし"
  },
  {
    "id": "771300621",
    "name": "デイサービスセンターはるか",
    "kana": "デイサービスセンターハルカ",
    "address": "福島県伊達市梁川町字北本町１７－１",
    "lat": 37.8565275,
    "lng": 140.6035118,
    "tel": "024-563-3771",
    "url": "http://www.happyisland.org/",
    "pref": "福島県",
    "city": "伊達市",
    "category": "day_service",
    "serviceType": "通所介護",
    "capacity": 0,
    "openDays": [
      "平日",
      "土曜日",
      "祝日"
    ],
    "openDaysNote": ""
  },
  {
    "id": "771300829",
    "name": "デイサービスセンターやながわ大生苑",
    "kana": "デイサービスセンターヤナガワタイセイエン",
    "address": "梁川町南本町４６－１",
    "lat": 37.854805,
    "lng": 140.60174,
    "tel": "０２４－５７３－０１１６",
    "url": "http://www.yanagawa-taiseien.jp/",
    "pref": "福島県",
    "city": "伊達市",
    "category": "day_service",
    "serviceType": "通所介護",
    "capacity": 0,
    "openDays": [
      "平日",
      "土曜日",
      "祝日"
    ],
    "openDaysNote": ""
  },
  {
    "id": "771300555",
    "name": "デイサービスセンターラスール伊達",
    "kana": "デイサービスセンターラスールダテ",
    "address": "福島県伊達市梁川町字東塩野川５６－１",
    "lat": 37.8640158,
    "lng": 140.6075445,
    "tel": "024-573-1327",
    "url": "http://koseikai-star.com/",
    "pref": "福島県",
    "city": "伊達市",
    "category": "day_service",
    "serviceType": "通所介護",
    "capacity": 30,
    "openDays": [
      "平日",
      "土曜日",
      "祝日"
    ],
    "openDaysNote": ""
  },
  {
    "id": "771300589",
    "name": "ハッピー愛ランドほばら　デイサービスセンター",
    "kana": "ハッピーアイランドホバラ　デイサービスセンター",
    "address": "福島県伊達市保原町泉町１－１",
    "lat": 37.824918,
    "lng": 140.5469454,
    "tel": "024-573-0813",
    "url": "http://www.kosodate-web.com/happyisland-hobara/",
    "pref": "福島県",
    "city": "伊達市",
    "category": "day_service",
    "serviceType": "通所介護",
    "capacity": 0,
    "openDays": [
      "平日",
      "土曜日",
      "祝日"
    ],
    "openDaysNote": ""
  },
  {
    "id": "772000964",
    "name": "ファミーユデイサービスセンター",
    "kana": "ファミーユデイサービスセンター",
    "address": "福島県伊達市保原町上保原字遍照原8-8",
    "lat": 37.8050115,
    "lng": 140.5336356,
    "tel": "024-575-2300",
    "url": "",
    "pref": "福島県",
    "city": "伊達市",
    "category": "day_service",
    "serviceType": "通所介護",
    "capacity": 0,
    "openDays": [
      "平日",
      "土曜日",
      "祝日"
    ],
    "openDaysNote": ""
  },
  {
    "id": "772000642",
    "name": "伊達すりかみ荘デイサービスセンター",
    "kana": "ダテスリカミソウデイサービスセンター",
    "address": "福島県伊達市一本松64番地",
    "lat": 37.8135318,
    "lng": 140.4919554,
    "tel": "024-572-6517",
    "url": "http://surikamisou.jp/",
    "pref": "福島県",
    "city": "伊達市",
    "category": "day_service",
    "serviceType": "通所介護",
    "capacity": 25,
    "openDays": [
      "平日",
      "土曜日",
      "祝日"
    ],
    "openDaysNote": "なし"
  },
  {
    "id": "771300019",
    "name": "伊達デイサービスセンター",
    "kana": "ダテデイサービスセンター",
    "address": "福島県伊達市箱崎字川端７番地",
    "lat": 37.815871,
    "lng": 140.5109203,
    "tel": "024-551-2134",
    "url": "http://www.dateshisyakyou.org/",
    "pref": "福島県",
    "city": "伊達市",
    "category": "day_service",
    "serviceType": "通所介護",
    "capacity": 0,
    "openDays": [
      "平日",
      "祝日"
    ],
    "openDaysNote": ""
  },
  {
    "id": "772000758",
    "name": "通所介護　日和",
    "kana": "ツウショカイゴ　ヒヨリ",
    "address": "福島県伊達市梁川町字赤五輪75-3",
    "lat": 37.8589834,
    "lng": 140.6153856,
    "tel": "024-527-2242",
    "url": "http://www.s-hiyori.com/",
    "pref": "福島県",
    "city": "伊達市",
    "category": "day_service",
    "serviceType": "通所介護",
    "capacity": 0,
    "openDays": [
      "平日",
      "土曜日",
      "日曜日",
      "祝日"
    ],
    "openDaysNote": ""
  },
  {
    "id": "772000543",
    "name": "梁川ホームデイサービスセンター",
    "kana": "ヤナガワホームデイサービスセンター",
    "address": "福島県伊達市梁川町字東土橋６５番地１",
    "lat": 37.8466254,
    "lng": 140.5931436,
    "tel": "024-577-6106",
    "url": "https://www.shintatsu.jp",
    "pref": "福島県",
    "city": "伊達市",
    "category": "day_service",
    "serviceType": "通所介護",
    "capacity": 0,
    "openDays": [
      "平日",
      "土曜日",
      "祝日"
    ],
    "openDaysNote": ""
  },
  {
    "id": "771300142",
    "name": "霊山・月館デイサービスセンター",
    "kana": "リョウゼンツキダテデイサービスセンター",
    "address": "福島県伊達市霊山町掛田字町田１４－５",
    "lat": 37.7799964,
    "lng": 140.5982479,
    "tel": "024-586-3715",
    "url": "http://www.dateshisyakyou.org",
    "pref": "福島県",
    "city": "伊達市",
    "category": "day_service",
    "serviceType": "通所介護",
    "capacity": 30,
    "openDays": [
      "平日",
      "祝日"
    ],
    "openDaysNote": "なし"
  },
  {
    "id": "772600532",
    "name": "JA会津よつば　デイサービスすみれ",
    "kana": "ジェイエイアイヅヨツバ　デイサービス　スミレ",
    "address": "福島県河沼郡会津坂下町大字宇内字寺内８９",
    "lat": 37.5984712,
    "lng": 139.8113504,
    "tel": "0242-83-2602",
    "url": "http://aizuyotuba.jp/",
    "pref": "福島県",
    "city": "会津坂下町",
    "category": "day_service",
    "serviceType": "通所介護",
    "capacity": 0,
    "openDays": [
      "平日",
      "土曜日",
      "祝日"
    ],
    "openDaysNote": ""
  },
  {
    "id": "772600433",
    "name": "デイサービスしなのき坂下",
    "kana": "デイサービスシナノキバンゲ",
    "address": "福島県河沼郡会津坂下町字小川原954",
    "lat": 37.5567594,
    "lng": 139.828381,
    "tel": "0242-85-7181",
    "url": "http://www.sinanoki.co.jp/",
    "pref": "福島県",
    "city": "会津坂下町",
    "category": "day_service",
    "serviceType": "通所介護",
    "capacity": 34,
    "openDays": [
      "平日",
      "土曜日",
      "祝日"
    ],
    "openDaysNote": ""
  },
  {
    "id": "772600201",
    "name": "ニチイケアセンターばんげ",
    "kana": "ニチイケアセンターバンゲ",
    "address": "福島県河沼郡会津坂下町大字宮古字村西40-3",
    "lat": 37.5574622,
    "lng": 139.8473592,
    "tel": "0242-84-23201",
    "url": "https://www.nichiigakkan.co.jp/",
    "pref": "福島県",
    "city": "会津坂下町",
    "category": "day_service",
    "serviceType": "通所介護",
    "capacity": 0,
    "openDays": [
      "平日",
      "土曜日",
      "日曜日",
      "祝日"
    ],
    "openDaysNote": ""
  },
  {
    "id": "772600094",
    "name": "会津坂下デイサービスセンター",
    "kana": "アイヅバンゲデイサービスセンター",
    "address": "福島県河沼郡会津坂下町字中岩田95",
    "lat": 37.5612999171948,
    "lng": 139.812302583606,
    "tel": "0242-83-1393",
    "url": "www.magokoro-egao-anshin.com/",
    "pref": "福島県",
    "city": "会津坂下町",
    "category": "day_service",
    "serviceType": "通所介護",
    "capacity": 0,
    "openDays": [
      "平日",
      "土曜日",
      "祝日"
    ],
    "openDaysNote": "なし"
  },
  {
    "id": "772600441",
    "name": "健康倶楽部あいづ　デイサービスセンター「アルク」",
    "kana": "ケンコウクラブアイヅ　デイサービスセンター「アルク」",
    "address": "福島県河沼郡会津坂下町字惣六１０番地",
    "lat": 37.5629989706979,
    "lng": 139.809582925517,
    "tel": "0242-85-7773",
    "url": "http://www.heiseikai-group.com/",
    "pref": "福島県",
    "city": "会津坂下町",
    "category": "day_service",
    "serviceType": "通所介護",
    "capacity": 0,
    "openDays": [
      "平日",
      "土曜日",
      "日曜日",
      "祝日"
    ],
    "openDaysNote": "ご要望により、営業時間外も対応。"
  },
  {
    "id": "770202521",
    "name": "K-fit会津",
    "kana": "ケーフィットアイヅ",
    "address": "福島県会津若松市駅前町4番3号",
    "lat": 37.5051887888341,
    "lng": 139.929639708598,
    "tel": "0242-93-7585",
    "url": "http://life-agent-japan.com",
    "pref": "福島県",
    "city": "会津若松市",
    "category": "day_service",
    "serviceType": "通所介護",
    "capacity": 60,
    "openDays": [
      "平日",
      "土曜日",
      "祝日"
    ],
    "openDaysNote": ""
  },
  {
    "id": "770202026",
    "name": "K－fit倶楽部会津",
    "kana": "ケーフィットクラブアイヅ",
    "address": "福島県会津若松市大町二丁目８番1８号",
    "lat": 37.5029268806273,
    "lng": 139.929867808073,
    "tel": "0242-23-7707",
    "url": "life-agent-japan.com",
    "pref": "福島県",
    "city": "会津若松市",
    "category": "day_service",
    "serviceType": "通所介護",
    "capacity": 20,
    "openDays": [
      "平日",
      "土曜日",
      "祝日"
    ],
    "openDaysNote": "12/30,31,1/1,2,3　休業"
  },
  {
    "id": "770202232",
    "name": "あいづ南花畑デイサービスセンター",
    "kana": "アイヅミナミハナバタケデイサービスセンター",
    "address": "福島県会津若松市南花畑2番58号",
    "lat": 37.4851592,
    "lng": 139.9225771,
    "tel": "0242-27-3922",
    "url": "http：//aizu-midorihome.com/",
    "pref": "福島県",
    "city": "会津若松市",
    "category": "day_service",
    "serviceType": "通所介護",
    "capacity": 35,
    "openDays": [
      "平日",
      "祝日"
    ],
    "openDaysNote": "祝日は上記定休日以外であれば営業いたします。"
  },
  {
    "id": "770201614",
    "name": "ケアテルデイサービスセンター　ハーブの園会津若松",
    "kana": "ケアテルデイサービスセンター　ハーブノソノアイヅワカマツ",
    "address": "福島県会津若松市河東町大字八田字坂ノ上176番地1",
    "lat": 37.5382175,
    "lng": 139.9637718,
    "tel": "090-2367-0027",
    "url": "http;//www.caretel.jp",
    "pref": "福島県",
    "city": "会津若松市",
    "category": "day_service",
    "serviceType": "通所介護",
    "capacity": 25,
    "openDays": [
      "平日",
      "土曜日",
      "祝日"
    ],
    "openDaysNote": ""
  },
  {
    "id": "770202430",
    "name": "ツクイ会津",
    "kana": "ツクイアイヅ",
    "address": "福島県会津若松市中央1-5-30",
    "lat": 37.5005651,
    "lng": 139.9305669,
    "tel": "0242-37-1320",
    "url": "https：/www.tsukui.net/",
    "pref": "福島県",
    "city": "会津若松市",
    "category": "day_service",
    "serviceType": "通所介護",
    "capacity": null,
    "openDays": [
      "平日",
      "土曜日",
      "日曜日",
      "祝日"
    ],
    "openDaysNote": "年中無休"
  },
  {
    "id": "770202406",
    "name": "ツクイ会津古川町",
    "kana": "ツクイアイヅフルカワマチ",
    "address": "福島県会津若松市古川町10-8",
    "lat": 37.4775956,
    "lng": 139.9312104,
    "tel": "0242-36-5123",
    "url": "https://www.tsukui.net",
    "pref": "福島県",
    "city": "会津若松市",
    "category": "day_service",
    "serviceType": "通所介護",
    "capacity": null,
    "openDays": [
      "平日",
      "土曜日",
      "日曜日",
      "祝日"
    ],
    "openDaysNote": "年中無休"
  },
  {
    "id": "770201754",
    "name": "デイサービス　ファミーナ",
    "kana": "デイサービス　ファミーナ",
    "address": "福島県会津若松市藤原一丁目５番地の30",
    "lat": 37.5111427,
    "lng": 139.9417024,
    "tel": "0242-24-8341",
    "url": "http://vellink.jp",
    "pref": "福島県",
    "city": "会津若松市",
    "category": "day_service",
    "serviceType": "通所介護",
    "capacity": 0,
    "openDays": [
      "平日",
      "土曜日",
      "祝日"
    ],
    "openDaysNote": ""
  },
  {
    "id": "770201739",
    "name": "デイサービス　米代の家",
    "kana": "デイサービス　ヨネダイノイエ",
    "address": "福島県会津若松市米代2丁目1-10セレッソよねだい セレッソよねだい",
    "lat": 37.486023,
    "lng": 139.9260296,
    "tel": "0242-23-7222",
    "url": "",
    "pref": "福島県",
    "city": "会津若松市",
    "category": "day_service",
    "serviceType": "通所介護",
    "capacity": 40,
    "openDays": [
      "平日",
      "土曜日",
      "日曜日",
      "祝日"
    ],
    "openDaysNote": ""
  },
  {
    "id": "770202596",
    "name": "デイサービス　米代の家",
    "kana": "デイサービス　ヨネダイノイエ",
    "address": "福島県会津若松市米代二丁目1-10",
    "lat": 37.4861744,
    "lng": 139.9258072,
    "tel": "0242-23-7222",
    "url": "www4.ocn.ne.jp/～seisoku/seresso.html",
    "pref": "福島県",
    "city": "会津若松市",
    "category": "day_service",
    "serviceType": "通所介護",
    "capacity": null,
    "openDays": [
      "平日",
      "土曜日",
      "日曜日",
      "祝日"
    ],
    "openDaysNote": ""
  },
  {
    "id": "770201283",
    "name": "デイサービス　門田の家",
    "kana": "デイサービス　モンデンノイエ",
    "address": "福島県会津若松市門田町御山字村下304-1",
    "lat": 37.469283,
    "lng": 139.9265107,
    "tel": "0242-38-3410",
    "url": "",
    "pref": "福島県",
    "city": "会津若松市",
    "category": "day_service",
    "serviceType": "通所介護",
    "capacity": 0,
    "openDays": [
      "平日",
      "土曜日",
      "日曜日",
      "祝日"
    ],
    "openDaysNote": "年中無休"
  },
  {
    "id": "770202588",
    "name": "デイサービス　門田の家",
    "kana": "デイサービス　モンデンノイエ",
    "address": "福島県会津若松市門田町御山字村下304-1",
    "lat": 37.4692694,
    "lng": 139.9265046,
    "tel": "0242-38-3410",
    "url": "",
    "pref": "福島県",
    "city": "会津若松市",
    "category": "day_service",
    "serviceType": "通所介護",
    "capacity": null,
    "openDays": [
      "平日",
      "土曜日",
      "日曜日",
      "祝日"
    ],
    "openDaysNote": "年中無休"
  },
  {
    "id": "770202117",
    "name": "デイサービス「そらと星のバラード」",
    "kana": "デイサービス「ソラトホシノバラード」",
    "address": "福島県会津若松市一箕町松長一丁目19番地",
    "lat": 37.5339637138265,
    "lng": 139.95458069259,
    "tel": "0242-93-5766",
    "url": "http://www.npo-prim.com",
    "pref": "福島県",
    "city": "会津若松市",
    "category": "day_service",
    "serviceType": "通所介護",
    "capacity": 22,
    "openDays": [
      "平日",
      "土曜日"
    ],
    "openDaysNote": "年末、年始の休業はその年の曜日の状況で変更します。"
  },
  {
    "id": "770201796",
    "name": "デイサービスしなのき新横東",
    "kana": "デイサービスシナノキシンヨコヒガシ",
    "address": "福島県会津若松市新横町4-6しなのき新横東 しなのき新横東",
    "lat": 37.0404614,
    "lng": 137.8478035,
    "tel": "0242-85-8511",
    "url": "http://www.sinanoki.co.jp/",
    "pref": "福島県",
    "city": "会津若松市",
    "category": "day_service",
    "serviceType": "通所介護",
    "capacity": 35,
    "openDays": [
      "平日",
      "土曜日",
      "祝日"
    ],
    "openDaysNote": ""
  },
  {
    "id": "770201093",
    "name": "デイサービスしなのき西七日町",
    "kana": "デイサービスシナノキニシナノカマチ",
    "address": "福島県会津若松市西七日町6－12",
    "lat": 37.5041037502111,
    "lng": 139.915570612859,
    "tel": "0242-93-6207",
    "url": "http://www.sinanoki.co.jp",
    "pref": "福島県",
    "city": "会津若松市",
    "category": "day_service",
    "serviceType": "通所介護",
    "capacity": 35,
    "openDays": [
      "平日",
      "土曜日",
      "祝日"
    ],
    "openDaysNote": ""
  },
  {
    "id": "770201523",
    "name": "デイサービスセンター多生苑",
    "kana": "デイサービスセンタータショウエン",
    "address": "福島県会津若松市東山町大字湯本字下原２４５",
    "lat": 37.4741332,
    "lng": 139.9622998,
    "tel": "0242-38-4155",
    "url": "http://www.onchikai.jp",
    "pref": "福島県",
    "city": "会津若松市",
    "category": "day_service",
    "serviceType": "通所介護",
    "capacity": 0,
    "openDays": [
      "平日",
      "土曜日",
      "日曜日",
      "祝日"
    ],
    "openDaysNote": "特になし"
  },
  {
    "id": "770202562",
    "name": "デイサービス悠里",
    "kana": "デイサービスユウリ",
    "address": "福島県会津若松市門田町大字黒岩字石高117ノ9",
    "lat": 37.472757,
    "lng": 139.9346443,
    "tel": "0242-38-3630",
    "url": "https://minenoyama.co.jp",
    "pref": "福島県",
    "city": "会津若松市",
    "category": "day_service",
    "serviceType": "通所介護",
    "capacity": null,
    "openDays": [
      "平日",
      "土曜日",
      "祝日"
    ],
    "openDaysNote": ""
  },
  {
    "id": "770200111",
    "name": "ニチイケアセンターわかまつ",
    "kana": "ニチイケアセンターワカマツ",
    "address": "福島県会津若松市南千石町２番２５号",
    "lat": 37.4940335,
    "lng": 139.9417308,
    "tel": "0242-36-0123",
    "url": "http://www.nichiigakkan.co.jp",
    "pref": "福島県",
    "city": "会津若松市",
    "category": "day_service",
    "serviceType": "通所介護",
    "capacity": 0,
    "openDays": [
      "平日",
      "土曜日",
      "日曜日",
      "祝日"
    ],
    "openDaysNote": ""
  },
  {
    "id": "770200947",
    "name": "ニチイケアセンター門田",
    "kana": "ニチイケアセンターモンデン",
    "address": "福島県会津若松市門田町日吉字小金井11",
    "lat": 37.4778542,
    "lng": 139.9181306,
    "tel": "0242-38-3034",
    "url": "http://www.nichiigakkan.co.jp",
    "pref": "福島県",
    "city": "会津若松市",
    "category": "day_service",
    "serviceType": "通所介護",
    "capacity": 0,
    "openDays": [
      "平日",
      "土曜日",
      "日曜日",
      "祝日"
    ],
    "openDaysNote": "‐"
  },
  {
    "id": "770202554",
    "name": "ゆめふる片柳店",
    "kana": "ユメフルカタヤナギテン",
    "address": "福島県会津若松市御旗町９－５",
    "lat": 37.4930989,
    "lng": 139.9112405,
    "tel": "050-1746-8869",
    "url": "https://search.yasashiite.com/detail/tsusyokaigo_katayanagi/",
    "pref": "福島県",
    "city": "会津若松市",
    "category": "day_service",
    "serviceType": "通所介護",
    "capacity": null,
    "openDays": [
      "平日",
      "土曜日",
      "祝日"
    ],
    "openDaysNote": "特に無し"
  },
  {
    "id": "770200293",
    "name": "芦ノ牧ホームデイサービスセンター",
    "kana": "アシノマキホームデイサービスセンター",
    "address": "福島県会津若松市大戸町大字芦牧字壇ノ下８４５番地",
    "lat": 37.3652674,
    "lng": 139.9107041,
    "tel": "0242-92-3185",
    "url": "http://ashinomaki-home.jp/",
    "pref": "福島県",
    "city": "会津若松市",
    "category": "day_service",
    "serviceType": "通所介護",
    "capacity": 25,
    "openDays": [
      "平日",
      "土曜日",
      "祝日"
    ],
    "openDaysNote": "特になし"
  },
  {
    "id": "770201358",
    "name": "医療生協　春風",
    "kana": "イリョウセイキョウ　ハルカゼ",
    "address": "福島県会津若松市東千石一丁目2-13",
    "lat": 37.4963676,
    "lng": 139.9444845,
    "tel": "0242-28-0972",
    "url": "",
    "pref": "福島県",
    "city": "会津若松市",
    "category": "day_service",
    "serviceType": "通所介護",
    "capacity": 110,
    "openDays": [
      "平日",
      "土曜日",
      "祝日"
    ],
    "openDaysNote": ""
  },
  {
    "id": "770201200",
    "name": "医療法人明精会　　会津西デイサービスセンター",
    "kana": "イリョウホウジンメイセイカイ　アイヅニシデイサービスセンター",
    "address": "福島県会津若松市北会津町東小松2335番地",
    "lat": 37.4726512852496,
    "lng": 139.889341197237,
    "tel": "0242-57-1220",
    "url": "http://www.meisei-kai.or.jp",
    "pref": "福島県",
    "city": "会津若松市",
    "category": "day_service",
    "serviceType": "通所介護",
    "capacity": 20,
    "openDays": [
      "平日",
      "土曜日",
      "祝日"
    ],
    "openDaysNote": "なし"
  },
  {
    "id": "770201127",
    "name": "河東デイサービスセンター",
    "kana": "カワヒガシデイサービスセンター",
    "address": "福島県会津若松市河東町郡山字中子山22番地",
    "lat": 37.5497103,
    "lng": 139.9257051,
    "tel": "0242-76-1566",
    "url": "http://www.awshakyo.or.jp/",
    "pref": "福島県",
    "city": "会津若松市",
    "category": "day_service",
    "serviceType": "通所介護",
    "capacity": 0,
    "openDays": [
      "平日",
      "土曜日",
      "祝日"
    ],
    "openDaysNote": ""
  },
  {
    "id": "770200277",
    "name": "会津長寿園デイサービスセンター",
    "kana": "アイヅチョウジュエンデイサービスセンター",
    "address": "福島県会津若松市門田町大字黒岩字五百山丙459-3",
    "lat": 37.4833931,
    "lng": 139.9467226,
    "tel": "0242-38-4720",
    "url": "http://www.choujuen.or.jp/",
    "pref": "福島県",
    "city": "会津若松市",
    "category": "day_service",
    "serviceType": "通所介護",
    "capacity": 5,
    "openDays": [
      "平日",
      "祝日"
    ],
    "openDaysNote": "年末年始（12月30日～1月3日）"
  },
  {
    "id": "770201507",
    "name": "株式会社ケアネット　会津サービスセンター　デイサービスセンター会津",
    "kana": "カブシキガイシャケアネット　アイヅサービスセンター　デイサービスセンターアイヅ",
    "address": "福島県会津若松市門田町工業団地37-1",
    "lat": 37.4644442,
    "lng": 139.9126512,
    "tel": "0242-85-7091",
    "url": "http://www.carenet.fujitsu.com/web/scdsp.php?scid=20",
    "pref": "福島県",
    "city": "会津若松市",
    "category": "day_service",
    "serviceType": "通所介護",
    "capacity": 0,
    "openDays": [
      "平日",
      "土曜日",
      "日曜日",
      "祝日"
    ],
    "openDaysNote": "なし"
  },
  {
    "id": "770201101",
    "name": "健康倶楽部あいづ　デイサービスセンター「ケアヒルズ青木」",
    "kana": "ケンコウクラブアイヅ　デイサービスセンター「ケアヒルズアオキ」",
    "address": "福島県会津若松市北青木８番２８号",
    "lat": 37.4789462,
    "lng": 139.9374541,
    "tel": "0242-36-6104",
    "url": "http://www.heiseikai-group.com/",
    "pref": "福島県",
    "city": "会津若松市",
    "category": "day_service",
    "serviceType": "通所介護",
    "capacity": 0,
    "openDays": [
      "平日",
      "土曜日",
      "祝日"
    ],
    "openDaysNote": "ご要望により利用時間外でも対応。"
  },
  {
    "id": "770201168",
    "name": "健康倶楽部あいづ　デイサービスセンター「ラフェスタ」",
    "kana": "ケンコウクラブアイヅ　デイサービスセンター「ラフェスタ」",
    "address": "福島県会津若松市一箕町大字亀賀字藤原332番地",
    "lat": 37.5104205,
    "lng": 139.9396137,
    "tel": "0242-37-1373",
    "url": "http://www.heiseikai-group.com/",
    "pref": "福島県",
    "city": "会津若松市",
    "category": "day_service",
    "serviceType": "通所介護",
    "capacity": 0,
    "openDays": [
      "平日",
      "土曜日",
      "日曜日",
      "祝日"
    ],
    "openDaysNote": "ご要望により営業時間外でも対応。（改行）月～土曜　定員　：　35名（改行）日曜　　　定員　：　20名"
  },
  {
    "id": "770200913",
    "name": "健康倶楽部あいづ　デイサービスセンター「鶴成館」",
    "kana": "ケンコウクラブアイヅ　デイサービスセンター「カクセイカン」",
    "address": "福島県会津若松市飯寺南三丁目2番22号",
    "lat": 37.47663830304,
    "lng": 139.908496646033,
    "tel": "0242-38-3863",
    "url": "http://www.heiseikai-group.com/",
    "pref": "福島県",
    "city": "会津若松市",
    "category": "day_service",
    "serviceType": "通所介護",
    "capacity": 0,
    "openDays": [
      "平日",
      "土曜日",
      "日曜日",
      "祝日"
    ],
    "openDaysNote": "ご要望により利用時間外も検討させて頂いております。"
  },
  {
    "id": "770200723",
    "name": "合資会社デイサービスセンター陽だまりの家",
    "kana": "ゴウシガイシャデイサービスセンターヒダマリノイエ",
    "address": "福島県会津若松市飯寺北一丁目9-28",
    "lat": 37.4800973688847,
    "lng": 139.907122128805,
    "tel": "0242-28-5380",
    "url": "http://care-net.biz/07hidamarinoie/",
    "pref": "福島県",
    "city": "会津若松市",
    "category": "day_service",
    "serviceType": "通所介護",
    "capacity": 0,
    "openDays": [
      "平日",
      "土曜日",
      "祝日"
    ],
    "openDaysNote": "年末12/31から正月3日間"
  },
  {
    "id": "770200269",
    "name": "指定通所介護事業所　会津みどりホームデイサービスセンター",
    "kana": "シテイツウショカイゴジギョウショ　アイヅミドリホームデイサービスセンター",
    "address": "福島県会津若松市神指町大字北四合字伊丹堂55-1",
    "lat": 37.524315,
    "lng": 139.8858963,
    "tel": "0242-22-7177",
    "url": "htt://aizu-midorihome.com/",
    "pref": "福島県",
    "city": "会津若松市",
    "category": "day_service",
    "serviceType": "通所介護",
    "capacity": 30,
    "openDays": [
      "平日",
      "祝日"
    ],
    "openDaysNote": ""
  },
  {
    "id": "770200350",
    "name": "枝雪零苑デイサービスセンター",
    "kana": "シズリエンデイサービスセンター",
    "address": "福島県会津若松市一箕町松長下長原１５２番地",
    "lat": 37.5237439,
    "lng": 139.9533787,
    "tel": "0242-39-2778",
    "url": "http://onchifukushikai.com/",
    "pref": "福島県",
    "city": "会津若松市",
    "category": "day_service",
    "serviceType": "通所介護",
    "capacity": 0,
    "openDays": [
      "平日",
      "土曜日"
    ],
    "openDaysNote": ""
  },
  {
    "id": "770200665",
    "name": "竹田ほほえみデイサービスセンター",
    "kana": "タケダホホエミデイサービスセンター",
    "address": "福島県会津若松市本町2‐61",
    "lat": 37.4914983469997,
    "lng": 139.920866435582,
    "tel": "0242‐36‐0880",
    "url": "竹田綜合病院スマートフォン版サイトhttp://www.takeda.or.jp",
    "pref": "福島県",
    "city": "会津若松市",
    "category": "day_service",
    "serviceType": "通所介護",
    "capacity": 30,
    "openDays": [
      "平日",
      "土曜日",
      "祝日"
    ],
    "openDaysNote": "要支援者の提供時間　9時30分～15時00となっています。"
  },
  {
    "id": "770200954",
    "name": "北会津デイサービスセンター",
    "kana": "キタアイヅデイサービスセンター",
    "address": "福島県会津若松市北会津町下荒井字矢倉林1番地",
    "lat": 37.4983675,
    "lng": 139.8691325,
    "tel": "0242-58-0032",
    "url": "http://www.awashakyo.or.jp",
    "pref": "福島県",
    "city": "会津若松市",
    "category": "day_service",
    "serviceType": "通所介護",
    "capacity": 0,
    "openDays": [
      "平日",
      "土曜日",
      "祝日"
    ],
    "openDaysNote": "利用日当日８時以降連絡があった場合は、キャンセル料（４００円食材料費相当）請求とする。"
  },
  {
    "id": "772700472",
    "name": "JA会津よつばデイサービスさくら",
    "kana": "ジェイエーアイヅヨツバデイサービスサクラ",
    "address": "福島県大沼郡会津美里町鶴野辺字宮ノ前649－3",
    "lat": 37.5100179,
    "lng": 139.8318939,
    "tel": "0242－79－1255",
    "url": "",
    "pref": "福島県",
    "city": "会津美里町",
    "category": "day_service",
    "serviceType": "通所介護",
    "capacity": 0,
    "openDays": [
      "平日",
      "土曜日",
      "祝日"
    ],
    "openDaysNote": ""
  },
  {
    "id": "772700498",
    "name": "デイサービスセンターえんじゅ",
    "kana": "デイサービスセンターエンジュ",
    "address": "福島県大沼郡会津美里町勝原字西勝728番地1",
    "lat": 37.4447392,
    "lng": 139.8501386,
    "tel": "0242-93-5040",
    "url": "https://enjyudayservice.wixsite.com/enjyu",
    "pref": "福島県",
    "city": "会津美里町",
    "category": "day_service",
    "serviceType": "通所介護",
    "capacity": 0,
    "openDays": [
      "平日",
      "土曜日",
      "祝日"
    ],
    "openDaysNote": "祝日は営業"
  },
  {
    "id": "772700548",
    "name": "デイサービス楽楽みさと",
    "kana": "デイサービスララミサト",
    "address": "福島県大沼郡会津美里町字高田前川原3578",
    "lat": 37.4710941299995,
    "lng": 139.8520823,
    "tel": "0242-23-9925",
    "url": "",
    "pref": "福島県",
    "city": "会津美里町",
    "category": "day_service",
    "serviceType": "通所介護",
    "capacity": 0,
    "openDays": [
      "平日",
      "土曜日",
      "日曜日",
      "祝日"
    ],
    "openDaysNote": ""
  },
  {
    "id": "772700373",
    "name": "ハーモニハウス　デイサービスセンター",
    "kana": "ハーモニーハウス　デイサービスセンター",
    "address": "福島県大沼郡会津美里町大石字下川原１番地１",
    "lat": 37.441441,
    "lng": 139.9047479,
    "tel": "242571620",
    "url": "https://sin-ai.com/",
    "pref": "福島県",
    "city": "会津美里町",
    "category": "day_service",
    "serviceType": "通所介護",
    "capacity": 0,
    "openDays": [
      "平日",
      "土曜日",
      "日曜日",
      "祝日"
    ],
    "openDaysNote": ""
  },
  {
    "id": "772700175",
    "name": "医療法人明精会　会津本郷デイサービスセンター",
    "kana": "イリョウホウジンメイセイカイ　アイヅホンゴウデイサービスセンター",
    "address": "福島県大沼郡会津美里町字北川原１９番地",
    "lat": 37.4521532,
    "lng": 139.8857463,
    "tel": "0242-56-3999",
    "url": "http://www.meisei-kai.or.jp",
    "pref": "福島県",
    "city": "会津美里町",
    "category": "day_service",
    "serviceType": "通所介護",
    "capacity": 0,
    "openDays": [
      "平日",
      "土曜日",
      "日曜日",
      "祝日"
    ],
    "openDaysNote": "なし"
  },
  {
    "id": "772700225",
    "name": "会津美里町新鶴デイサービスセンターちとせ",
    "kana": "アイヅミサトマチニイツルデイサービスセンターチトセ",
    "address": "福島県大沼郡会津美里町鶴野辺字廣町751-1",
    "lat": 37.5124024,
    "lng": 139.8290826,
    "tel": "0242-78-3610",
    "url": "https//senoukai.or.jp",
    "pref": "福島県",
    "city": "会津美里町",
    "category": "day_service",
    "serviceType": "通所介護",
    "capacity": 0,
    "openDays": [
      "平日",
      "土曜日",
      "祝日"
    ],
    "openDaysNote": ""
  },
  {
    "id": "772700449",
    "name": "健康倶楽部あいづ　デイサービスセンター「アルクＣＬＡＳＳ」",
    "kana": "ケンコウクラブアイヅ　デイサービスセンター「アルククラス」",
    "address": "福島県大沼郡会津美里町字高田道上２７８１番１号",
    "lat": 37.4674256808636,
    "lng": 139.843829244566,
    "tel": "0242-54-4590",
    "url": "http://www.heiseikai-group.com/",
    "pref": "福島県",
    "city": "会津美里町",
    "category": "day_service",
    "serviceType": "通所介護",
    "capacity": 0,
    "openDays": [
      "平日",
      "土曜日",
      "日曜日",
      "祝日"
    ],
    "openDaysNote": "ご要望により利用時間外も検討させて頂いております。"
  },
  {
    "id": "770800233",
    "name": "しょうぶ苑デイサービスセンター",
    "kana": "ショウブエンデイサービスセンター",
    "address": "福島県喜多方市岩月町大都字菖蒲沢3610番地1",
    "lat": 37.6906258,
    "lng": 139.8921137,
    "tel": "0241-23-0783",
    "url": "https://keiwakai.net/",
    "pref": "福島県",
    "city": "喜多方市",
    "category": "day_service",
    "serviceType": "通所介護",
    "capacity": 0,
    "openDays": [
      "平日",
      "土曜日",
      "祝日"
    ],
    "openDaysNote": "特になし"
  },
  {
    "id": "770800571",
    "name": "デイサービス　ベルハウス",
    "kana": "デイサービス　ベルハウス",
    "address": "福島県喜多方市字押切南２丁目７９番地デイサービス　ベルハウス デイサービス　ベルハウス",
    "lat": 37.645844,
    "lng": 139.8567217,
    "tel": "0241-21-8739",
    "url": "https://vellink.jp/velhouse_kitakata/",
    "pref": "福島県",
    "city": "喜多方市",
    "category": "day_service",
    "serviceType": "通所介護",
    "capacity": 25,
    "openDays": [
      "平日",
      "祝日"
    ],
    "openDaysNote": ""
  },
  {
    "id": "770800274",
    "name": "デイサービスセンター啓愛ヒルズ",
    "kana": "デイサービスセンターケイアイヒルズ",
    "address": "福島県喜多方市松山町村松字北原3656-1",
    "lat": 37.6834788,
    "lng": 139.8690412,
    "tel": "0241-24-5512",
    "url": "http://www.tenshinkai.or.jp",
    "pref": "福島県",
    "city": "喜多方市",
    "category": "day_service",
    "serviceType": "通所介護",
    "capacity": 0,
    "openDays": [
      "平日",
      "土曜日",
      "祝日"
    ],
    "openDaysNote": "年末年始は休業いたします。"
  },
  {
    "id": "770800928",
    "name": "ニチイケアセンターしおかわ",
    "kana": "ニチイケアセンターシオカワ",
    "address": "福島県喜多方市塩川町字東栄町２丁目2-6",
    "lat": 37.5940715,
    "lng": 139.8922841,
    "tel": "0241-28-1895",
    "url": "www.nichiigakkan.co.jp",
    "pref": "福島県",
    "city": "喜多方市",
    "category": "day_service",
    "serviceType": "通所介護",
    "capacity": 0,
    "openDays": [
      "平日",
      "土曜日",
      "日曜日",
      "祝日"
    ],
    "openDaysNote": ""
  },
  {
    "id": "770800456",
    "name": "医療法人佐原病院　デイサービスさわら",
    "kana": "イリョウホウジンサワラビョウイン　デイサービスサワラ",
    "address": "福島県喜多方市字さつきが丘１０１",
    "lat": 37.6407647,
    "lng": 139.8769394,
    "tel": "0241-23-0511",
    "url": "http://www.sawara.or.jp",
    "pref": "福島県",
    "city": "喜多方市",
    "category": "day_service",
    "serviceType": "通所介護",
    "capacity": 25,
    "openDays": [
      "平日",
      "祝日"
    ],
    "openDaysNote": "特になし"
  },
  {
    "id": "770800688",
    "name": "喜多方市社会福祉協議会　塩川デイサービスセンター",
    "kana": "キタカタシシャカイフクシキョウギカイ　シオカワデイサービスセンター",
    "address": "福島県喜多方市塩川町字身神３００－１",
    "lat": 37.5984321,
    "lng": 139.8889814,
    "tel": "0241-28-1255",
    "url": "",
    "pref": "福島県",
    "city": "喜多方市",
    "category": "day_service",
    "serviceType": "通所介護",
    "capacity": 0,
    "openDays": [
      "平日",
      "祝日"
    ],
    "openDaysNote": ""
  },
  {
    "id": "770800654",
    "name": "喜多方市社会福祉協議会　中央デイサービスセンター",
    "kana": "キタカタシシャカイフクシキョウギカイ　チュウオウデイサービスセンター",
    "address": "福島県喜多方市字上江３６４６番地１",
    "lat": 37.6555798,
    "lng": 139.8856715,
    "tel": "0241-23-0346",
    "url": "",
    "pref": "福島県",
    "city": "喜多方市",
    "category": "day_service",
    "serviceType": "通所介護",
    "capacity": 0,
    "openDays": [
      "平日",
      "祝日"
    ],
    "openDaysNote": ""
  },
  {
    "id": "770800670",
    "name": "喜多方市社会福祉協議会　夢の森デイサービスセンター",
    "kana": "キタカタシシャカイフクシキョウギカイユメノモリデイサービスセンター",
    "address": "福島県喜多方市熱塩加納町米岡字下平乙609番地",
    "lat": 37.7217748,
    "lng": 139.8715168,
    "tel": "0241-36-2563",
    "url": "",
    "pref": "福島県",
    "city": "喜多方市",
    "category": "day_service",
    "serviceType": "通所介護",
    "capacity": 0,
    "openDays": [
      "平日",
      "祝日"
    ],
    "openDaysNote": ""
  },
  {
    "id": "770800704",
    "name": "高郷デイサービスセンター「かたくり荘」",
    "kana": "タカサトデイサービスセンター「カタクリソウ」",
    "address": "福島県喜多方市高郷町揚津字袖山甲3067-3",
    "lat": 37.6317443,
    "lng": 139.7184829,
    "tel": "0241-44-7111",
    "url": "http://www.kitakata-shakyo.or.jp/",
    "pref": "福島県",
    "city": "喜多方市",
    "category": "day_service",
    "serviceType": "通所介護",
    "capacity": null,
    "openDays": [
      "平日",
      "祝日"
    ],
    "openDaysNote": ""
  },
  {
    "id": "770800696",
    "name": "山都デイサービスセンター「しゃくなげホーム」",
    "kana": "ヤマトデイサービスセンター「シャクナゲホーム」",
    "address": "福島県喜多方市山都町字北松ノ前３１４４番地喜多方市社会福祉協議会　山都支所 喜多方市社会福祉協議会　山都支所",
    "lat": 37.6400225,
    "lng": 139.7657088,
    "tel": "0241-38-3100",
    "url": "http://www.kitakata-shakyo.or.jp/",
    "pref": "福島県",
    "city": "喜多方市",
    "category": "day_service",
    "serviceType": "通所介護",
    "capacity": null,
    "openDays": [
      "平日",
      "祝日"
    ],
    "openDaysNote": "月曜日～金曜日　祝日は営業"
  },
  {
    "id": "772200127",
    "name": "鏡石町デイサービスセンター",
    "kana": "カガミイシマチデイサービスセンター",
    "address": "福島県岩瀬郡鏡石町鏡田かげ沼町139番地の１",
    "lat": 37.2684424,
    "lng": 140.3463242,
    "tel": "0248-62-2551",
    "url": "http://www.iwasefukushi.jp",
    "pref": "福島県",
    "city": "鏡石町",
    "category": "day_service",
    "serviceType": "通所介護",
    "capacity": 25,
    "openDays": [
      "平日",
      "土曜日",
      "祝日"
    ],
    "openDaysNote": ""
  },
  {
    "id": "773000245",
    "name": "介護事業所　玉川村ふれあいセンター",
    "kana": "カイゴジギョウショ　タマカワムラフレアイセンター",
    "address": "福島県石川郡玉川村大字中字入山５９番地",
    "lat": 37.2159941,
    "lng": 140.410827,
    "tel": "0247-57-4410",
    "url": "http://www.tamakawa-shakyo.jp/",
    "pref": "福島県",
    "city": "玉川村",
    "category": "day_service",
    "serviceType": "通所介護",
    "capacity": 0,
    "openDays": [
      "平日"
    ],
    "openDaysNote": ""
  },
  {
    "id": "772700084",
    "name": "かねやまホーム　デイサービスセンター",
    "kana": "カネヤマホーム　デイサービスセンター",
    "address": "福島県大沼郡金山町大字中川字沖根原1324番地",
    "lat": 37.4745462,
    "lng": 139.529466,
    "tel": "0241-55-3301",
    "url": "https://www.kaneyama-f.or.jp/pages/33/",
    "pref": "福島県",
    "city": "金山町",
    "category": "day_service",
    "serviceType": "通所介護",
    "capacity": 0,
    "openDays": [
      "平日",
      "祝日"
    ],
    "openDaysNote": ""
  },
  {
    "id": "772001046",
    "name": "デイサービスセンター　コクーン",
    "kana": "デイサービスセンター　コクーン",
    "address": "福島県伊達郡桑折町字桑島四　９－４",
    "lat": 37.844987,
    "lng": 140.5147802,
    "tel": "024-582-1211",
    "url": "http://www.cocoon.or.jp",
    "pref": "福島県",
    "city": "桑折町",
    "category": "day_service",
    "serviceType": "通所介護",
    "capacity": 0,
    "openDays": [
      "平日",
      "土曜日",
      "祝日"
    ],
    "openDaysNote": ""
  },
  {
    "id": "772000535",
    "name": "やすらぎ園デイサービスセンター",
    "kana": "ヤスラギエンデイサービスセンター",
    "address": "福島県伊達郡桑折町大字谷地字道下２２番地桑折町保健福祉センター　やすらぎ園 桑折町保健福祉センター　やすらぎ園",
    "lat": 37.8544,
    "lng": 140.5216071,
    "tel": "024-582-1177",
    "url": "https://www.koori-shakyo.or.jp/",
    "pref": "福島県",
    "city": "桑折町",
    "category": "day_service",
    "serviceType": "通所介護",
    "capacity": null,
    "openDays": [
      "平日",
      "土曜日",
      "祝日"
    ],
    "openDaysNote": "なし。"
  },
  {
    "id": "770305118",
    "name": "ＪＡ福島さくら日和田デイサービスセンターひなた",
    "kana": "ジェイエイフクシマサクラ　ヒワダデイサービスセンターヒナタ",
    "address": "福島県郡山市日和田町字日向6-1",
    "lat": 37.4465498,
    "lng": 140.3922933,
    "tel": "024-968-1001",
    "url": "http://www.ja-fsakura.or.jp/",
    "pref": "福島県",
    "city": "郡山市",
    "category": "day_service",
    "serviceType": "通所介護",
    "capacity": 80,
    "openDays": [
      "平日",
      "土曜日",
      "祝日"
    ],
    "openDaysNote": ""
  },
  {
    "id": "770305274",
    "name": "K-fit～八山田～",
    "kana": "ケイフィットヤツヤマダ",
    "address": "福島県郡山市八山田西4丁目150番地",
    "lat": 37.4289018248544,
    "lng": 140.367912096062,
    "tel": "024-983-6305",
    "url": "life-agent-japan.com",
    "pref": "福島県",
    "city": "郡山市",
    "category": "day_service",
    "serviceType": "通所介護",
    "capacity": 30,
    "openDays": [
      "平日",
      "土曜日",
      "祝日"
    ],
    "openDaysNote": "※祝祭日、営業しております。"
  },
  {
    "id": "770301760",
    "name": "あさかの杜温泉デイサービスセンター",
    "kana": "アサカノモリオンセンデイサービスセンター",
    "address": "福島県郡山市安積町成田字漆山５０",
    "lat": 37.3594552,
    "lng": 140.3400512,
    "tel": "024-954-3818",
    "url": "http://www.asakanomori.com",
    "pref": "福島県",
    "city": "郡山市",
    "category": "day_service",
    "serviceType": "通所介護",
    "capacity": 0,
    "openDays": [
      "平日",
      "土曜日"
    ],
    "openDaysNote": ""
  },
  {
    "id": "770306124",
    "name": "コンパスウォークArigato",
    "kana": "コンパスウォークアリガトウ",
    "address": "福島県郡山市安積四丁目33古泉ハイツ 古泉ハイツ",
    "lat": 37.3540262,
    "lng": 140.3642848,
    "tel": "024-983-8673",
    "url": "",
    "pref": "福島県",
    "city": "郡山市",
    "category": "day_service",
    "serviceType": "通所介護",
    "capacity": null,
    "openDays": [
      "平日",
      "祝日"
    ],
    "openDaysNote": "年末年始休業あり（改行）祝日営業あり"
  },
  {
    "id": "770305969",
    "name": "コンパスウォーク郡山安積店",
    "kana": "コンパスウォークコオリヤマアサカテン",
    "address": "福島県郡山市安積4-35",
    "lat": 37.3538601,
    "lng": 140.3642416,
    "tel": "024-983-6511",
    "url": "",
    "pref": "福島県",
    "city": "郡山市",
    "category": "day_service",
    "serviceType": "通所介護",
    "capacity": 0,
    "openDays": [
      "平日",
      "祝日"
    ],
    "openDaysNote": ""
  },
  {
    "id": "770305993",
    "name": "コンパスウォーク郡山桑野店",
    "kana": "コンパスウォークコオリヤマクワノテン",
    "address": "福島県郡山市桑野2丁目20-17",
    "lat": 37.4031753242968,
    "lng": 140.3553408,
    "tel": "024-954-4608",
    "url": "",
    "pref": "福島県",
    "city": "郡山市",
    "category": "day_service",
    "serviceType": "通所介護",
    "capacity": 0,
    "openDays": [
      "平日",
      "祝日"
    ],
    "openDaysNote": ""
  },
  {
    "id": "770305878",
    "name": "コンパスウォーク郡山富田",
    "kana": "コンパスウオークコオリヤマトミタ",
    "address": "郡山市富田町坦ノ腰32-1",
    "lat": 37.4242132,
    "lng": 140.3479744,
    "tel": "024-973-7737",
    "url": "https://kinoukaifuku.com/?p=4081",
    "pref": "福島県",
    "city": "郡山市",
    "category": "day_service",
    "serviceType": "通所介護",
    "capacity": 75,
    "openDays": [
      "平日",
      "祝日"
    ],
    "openDaysNote": "祝日営業あり（改行）年末年始休業あり"
  },
  {
    "id": "770302487",
    "name": "さかえデイサービスセンター",
    "kana": "サカエデイサービスセンター",
    "address": "郡山市横塚2-18-7",
    "lat": 37.3972443,
    "lng": 140.4007219,
    "tel": "024-943-1077",
    "url": "https://eishinkai-med.jp/",
    "pref": "福島県",
    "city": "郡山市",
    "category": "day_service",
    "serviceType": "通所介護",
    "capacity": 0,
    "openDays": [
      "平日",
      "土曜日",
      "祝日"
    ],
    "openDaysNote": "夏季休暇：8/13～16　年末年始休暇：12/31/～1/3"
  },
  {
    "id": "770304400",
    "name": "シニア健康教室　すぷーん上亀田",
    "kana": "シニアケンコウキヨウシツ　スプーンカミカメダ",
    "address": "富田町字上亀田3-16",
    "lat": 37.411272,
    "lng": 140.3453486,
    "tel": "024-983-5983",
    "url": "",
    "pref": "福島県",
    "city": "郡山市",
    "category": "day_service",
    "serviceType": "通所介護",
    "capacity": 23,
    "openDays": [
      "平日",
      "土曜日",
      "祝日"
    ],
    "openDaysNote": "年末年始休み　12月31日～翌1月4日"
  },
  {
    "id": "770305910",
    "name": "ジョイリハ郡山安積",
    "kana": "ジョイリハコオリヤマアサカ",
    "address": "福島県郡山市安積町笹川字北向2-52",
    "lat": 37.349325,
    "lng": 140.3543327,
    "tel": "024-955-6630",
    "url": "http://www.aobaya.co.jp/",
    "pref": "福島県",
    "city": "郡山市",
    "category": "day_service",
    "serviceType": "通所介護",
    "capacity": 0,
    "openDays": [
      "平日"
    ],
    "openDaysNote": "祝日は通常通り営業。"
  },
  {
    "id": "770305928",
    "name": "ジョイリハ郡山新さくら通り",
    "kana": "ジョイリハコオリヤマシンサクラドオリ",
    "address": "福島県郡山市島1丁目22-24",
    "lat": 37.3993558969607,
    "lng": 140.3439972,
    "tel": "024-991-6416",
    "url": "http://www.aobaya.co.jp/",
    "pref": "福島県",
    "city": "郡山市",
    "category": "day_service",
    "serviceType": "通所介護",
    "capacity": 0,
    "openDays": [
      "平日",
      "土曜日"
    ],
    "openDaysNote": "祝日営業、年末年始休業"
  },
  {
    "id": "770300697",
    "name": "スプリングガーデンあさか　デイサービスセンター",
    "kana": "スプリングガーデンアサカ　デイサービスセンター",
    "address": "福島県郡山市安積町笹川字目光池西１０－１",
    "lat": 37.3498872,
    "lng": 140.3617218,
    "tel": "024-905-1225",
    "url": "http://www.spring-garden.jp",
    "pref": "福島県",
    "city": "郡山市",
    "category": "day_service",
    "serviceType": "通所介護",
    "capacity": 30,
    "openDays": [
      "平日",
      "土曜日",
      "祝日"
    ],
    "openDaysNote": ""
  },
  {
    "id": "770301380",
    "name": "せいふうケア　リハビリ・ホーム小原田",
    "kana": "セイフウケア　リハビリ・ホームコハラダ",
    "address": "福島県郡山市小原田４－１１－７古川ビル 古川ビル",
    "lat": 37.3813342,
    "lng": 140.3814935,
    "tel": "024-941-3055",
    "url": "",
    "pref": "福島県",
    "city": "郡山市",
    "category": "day_service",
    "serviceType": "通所介護",
    "capacity": 125,
    "openDays": [
      "平日",
      "祝日"
    ],
    "openDaysNote": "-"
  },
  {
    "id": "770302206",
    "name": "せいふうケア　リハビリ・ホーム八山田",
    "kana": "セイフウケア　リハビリ・ホーム八山田",
    "address": "福島県郡山市八山田5-19",
    "lat": 37.4259423346334,
    "lng": 140.376911219417,
    "tel": "024-954-6733",
    "url": "",
    "pref": "福島県",
    "city": "郡山市",
    "category": "day_service",
    "serviceType": "通所介護",
    "capacity": 25,
    "openDays": [
      "平日",
      "土曜日",
      "日曜日",
      "祝日"
    ],
    "openDaysNote": "-"
  },
  {
    "id": "770305852",
    "name": "ツクイ郡山安積",
    "kana": "ツクイコオリヤマアサカ",
    "address": "福島県郡山市安積北井2丁目193",
    "lat": 37.3734415,
    "lng": 140.3625866,
    "tel": "024-937-1617",
    "url": "",
    "pref": "福島県",
    "city": "郡山市",
    "category": "day_service",
    "serviceType": "通所介護",
    "capacity": null,
    "openDays": [
      "平日",
      "土曜日",
      "日曜日",
      "祝日"
    ],
    "openDaysNote": ""
  },
  {
    "id": "770305977",
    "name": "ツクイ郡山桑野",
    "kana": "ツクイコオリヤマクワノ",
    "address": "福島県郡山市桑野5丁目7-17",
    "lat": 37.4101396167235,
    "lng": 140.354022164943,
    "tel": "024-927-1250",
    "url": "https://www.tsukui.net/",
    "pref": "福島県",
    "city": "郡山市",
    "category": "day_service",
    "serviceType": "通所介護",
    "capacity": null,
    "openDays": [
      "平日",
      "土曜日",
      "日曜日",
      "祝日"
    ],
    "openDaysNote": ""
  },
  {
    "id": "770305860",
    "name": "ツクイ郡山大槻",
    "kana": "ツクイコオリヤマオオツキ",
    "address": "大槻町南反田3-1",
    "lat": 37.3930424,
    "lng": 140.3269157,
    "tel": "024-962-7301",
    "url": "kooriyama-ootsuki@tsukui.net",
    "pref": "福島県",
    "city": "郡山市",
    "category": "day_service",
    "serviceType": "通所介護",
    "capacity": null,
    "openDays": [
      "平日",
      "土曜日",
      "祝日"
    ],
    "openDaysNote": ""
  },
  {
    "id": "770306199",
    "name": "デイサービス　アーク・コートふくやま",
    "kana": "デイサービスアーク・コートフクヤマ",
    "address": "福島県郡山市富久山町久保田字岡ノ城22-1",
    "lat": 37.411748,
    "lng": 140.3922743,
    "tel": "024-973-6442",
    "url": "maimai.fuku@iaa.itkeeper.ne.jp",
    "pref": "福島県",
    "city": "郡山市",
    "category": "day_service",
    "serviceType": "通所介護",
    "capacity": 0,
    "openDays": [
      "平日",
      "祝日"
    ],
    "openDaysNote": ""
  },
  {
    "id": "770304293",
    "name": "デイサービス　えがお",
    "kana": "デイサービス　エガオ",
    "address": "福島県郡山市東原2丁目１５４",
    "lat": 37.4319343,
    "lng": 140.3545166,
    "tel": "０２４－９５３－５１１８",
    "url": "",
    "pref": "福島県",
    "city": "郡山市",
    "category": "day_service",
    "serviceType": "通所介護",
    "capacity": 25,
    "openDays": [
      "平日",
      "祝日"
    ],
    "openDaysNote": "年末年始休業日あり。"
  },
  {
    "id": "770305290",
    "name": "デイサービスＨＡＴ",
    "kana": "デイサービスハット",
    "address": "福島県郡山市富田西五丁目106番地",
    "lat": 37.4252089,
    "lng": 140.3397647,
    "tel": "024-973-6201",
    "url": "http://day-hat.foractivelife.com/",
    "pref": "福島県",
    "city": "郡山市",
    "category": "day_service",
    "serviceType": "通所介護",
    "capacity": 0,
    "openDays": [
      "平日",
      "土曜日",
      "祝日"
    ],
    "openDaysNote": "夏期休業（8月14日～16日）、年末年始休業（12月29日～1月3日）あり。"
  },
  {
    "id": "770303527",
    "name": "デイサービスセンター「健康倶楽部館　ファンコート郡山」",
    "kana": "デイサービスセンター「クラブハウス　ファンコートコオリヤマ」",
    "address": "福島県郡山市安積町長久保四丁目2番1号",
    "lat": 37.3581614,
    "lng": 140.3575717,
    "tel": "024-937-3100",
    "url": "http://www.heiseikai-group.com/",
    "pref": "福島県",
    "city": "郡山市",
    "category": "day_service",
    "serviceType": "通所介護",
    "capacity": 30,
    "openDays": [
      "平日",
      "土曜日",
      "日曜日",
      "祝日"
    ],
    "openDaysNote": "ご要望により営業時間外でも対応。"
  },
  {
    "id": "770306082",
    "name": "デイサービスセンター「健康倶楽部館　ファンコート郡山北」",
    "kana": "デイサービスセンター　クラブハウスファンコートコオリヤマキタ",
    "address": "福島県郡山市東原一丁目33番地",
    "lat": 37.4284040508079,
    "lng": 140.355318848662,
    "tel": "024-953-6908",
    "url": "https://www.heiseikai-group.com/",
    "pref": "福島県",
    "city": "郡山市",
    "category": "day_service",
    "serviceType": "通所介護",
    "capacity": null,
    "openDays": [
      "平日",
      "土曜日",
      "日曜日",
      "祝日"
    ],
    "openDaysNote": ""
  },
  {
    "id": "770300945",
    "name": "デイサービスセンターおおつき",
    "kana": "デイサービスセンターオオツキ",
    "address": "福島県郡山市大槻町字西勝ノ木５番地の１",
    "lat": 37.3934809,
    "lng": 140.3062894,
    "tel": "024-962-3939",
    "url": "http://kuwano-fukushikai.jp",
    "pref": "福島県",
    "city": "郡山市",
    "category": "day_service",
    "serviceType": "通所介護",
    "capacity": 40,
    "openDays": [
      "平日",
      "土曜日",
      "祝日"
    ],
    "openDaysNote": "なし"
  },
  {
    "id": "770303998",
    "name": "デイサービスセンターなりた",
    "kana": "デイサービスセンターナリタ",
    "address": "福島県郡山市安積町牛庭一丁目98番",
    "lat": 37.3513891,
    "lng": 140.3326718,
    "tel": "024-973-5887",
    "url": "https://care-net.biz/07/narita249/",
    "pref": "福島県",
    "city": "郡山市",
    "category": "day_service",
    "serviceType": "通所介護",
    "capacity": 0,
    "openDays": [
      "平日",
      "祝日"
    ],
    "openDaysNote": "但し、年末年始を除く（改行）祝日は営業"
  },
  {
    "id": "770300606",
    "name": "デイサービスセンター光の森",
    "kana": "デイサービスセンターヒカリノモリ",
    "address": "福島県郡山市横川町字遠後50-8",
    "lat": 37.3918369,
    "lng": 140.4143766,
    "tel": "024-956-8500",
    "url": "http://hikarino-mori.jp/",
    "pref": "福島県",
    "city": "郡山市",
    "category": "day_service",
    "serviceType": "通所介護",
    "capacity": 35,
    "openDays": [
      "平日",
      "土曜日",
      "祝日"
    ],
    "openDaysNote": "祝日はカレンダー通りの営業です。"
  },
  {
    "id": "770301588",
    "name": "デイサービスふぁる",
    "kana": "デイサービスファル",
    "address": "福島県郡山市富田西五丁目161番地",
    "lat": 37.4252539,
    "lng": 140.339407,
    "tel": "024-961-4670",
    "url": "http://day-fal.foractivelife.com/",
    "pref": "福島県",
    "city": "郡山市",
    "category": "day_service",
    "serviceType": "通所介護",
    "capacity": 3,
    "openDays": [
      "平日",
      "土曜日",
      "祝日"
    ],
    "openDaysNote": "夏期休業（8月14日～16日）、年末年始休業（12月29日～1月3日）あり。"
  },
  {
    "id": "770305902",
    "name": "デイサービス未来郡山",
    "kana": "デイサービスミライコオリヤマ",
    "address": "田村町金屋冬室36",
    "lat": 37.3640501,
    "lng": 140.3944037,
    "tel": "024-954-4101",
    "url": "https://www.mirai-yoshimaru.com/",
    "pref": "福島県",
    "city": "郡山市",
    "category": "day_service",
    "serviceType": "通所介護",
    "capacity": 0,
    "openDays": [
      "平日",
      "祝日"
    ],
    "openDaysNote": ""
  },
  {
    "id": "770303436",
    "name": "デイセンターふれあい",
    "kana": "デイセンターフレアイ",
    "address": "喜久田町菖蒲池２２－５１７三昇ビル１階 三昇ビル１階",
    "lat": 37.4373953,
    "lng": 140.3371769,
    "tel": "024-959-5565",
    "url": "http://kaigo-fureai.com/",
    "pref": "福島県",
    "city": "郡山市",
    "category": "day_service",
    "serviceType": "通所介護",
    "capacity": 0,
    "openDays": [
      "平日",
      "祝日"
    ],
    "openDaysNote": ""
  },
  {
    "id": "770302040",
    "name": "ニチイケアセンターあさか",
    "kana": "ニチイケアセンターアサカ",
    "address": "福島県郡山市安積荒井二丁目２８５番地",
    "lat": 37.3688049,
    "lng": 140.3612235,
    "tel": "024-937-0012",
    "url": "http://www.nichiigakkan.co.jp",
    "pref": "福島県",
    "city": "郡山市",
    "category": "day_service",
    "serviceType": "通所介護",
    "capacity": 0,
    "openDays": [
      "平日",
      "土曜日",
      "日曜日",
      "祝日"
    ],
    "openDaysNote": "年中無休・３６５日営業しています。"
  },
  {
    "id": "770301331",
    "name": "ニチイケアセンターさくた",
    "kana": "ニチイケアセンターサクタ",
    "address": "福島県郡山市咲田２丁目９番８号",
    "lat": 37.4030098,
    "lng": 140.3780015,
    "tel": "024-995-5611",
    "url": "http//www.nichiigakkan.co,jp",
    "pref": "福島県",
    "city": "郡山市",
    "category": "day_service",
    "serviceType": "通所介護",
    "capacity": 0,
    "openDays": [
      "平日",
      "土曜日",
      "日曜日",
      "祝日"
    ],
    "openDaysNote": "365日営業"
  },
  {
    "id": "770304210",
    "name": "ぬくもりとゆめみ処　丸光ケア　しょうはくの湯",
    "kana": "ヌクモリトユメミドコロ　マルミツケア　ショウハクノユ",
    "address": "郡山市熱海町熱海5-283",
    "lat": 37.4879221,
    "lng": 140.2617089,
    "tel": "024-973-7580",
    "url": "http://marumitsu-care.jp/",
    "pref": "福島県",
    "city": "郡山市",
    "category": "day_service",
    "serviceType": "通所介護",
    "capacity": 38,
    "openDays": [
      "平日",
      "土曜日",
      "祝日"
    ],
    "openDaysNote": "事業所が休みでも、事業所に電話を頂ければ転送電話にて対応します。"
  },
  {
    "id": "770302909",
    "name": "ハーモニーみどりヶ丘デイサービスセンター",
    "kana": "ハーモニーミドリガオカデイサービスセンター",
    "address": "福島県郡山市緑ヶ丘東六丁目２６番地２",
    "lat": 37.3853049,
    "lng": 140.4393528,
    "tel": "024-941-1182",
    "url": "http://sin-ai.com/",
    "pref": "福島県",
    "city": "郡山市",
    "category": "day_service",
    "serviceType": "通所介護",
    "capacity": 0,
    "openDays": [
      "平日",
      "土曜日",
      "日曜日",
      "祝日"
    ],
    "openDaysNote": ""
  },
  {
    "id": "770305407",
    "name": "ポシブル郡山善宝池",
    "kana": "ポシブルコオリヤマゼンポウイケ",
    "address": "福島県郡山市富久山町久保田字愛宕71-3アークガーデン愛宕　1階 アークガーデン愛宕　1階",
    "lat": 37.4165612,
    "lng": 140.386771757672,
    "tel": "024-953-4182",
    "url": "https://www.amarc-possible.com/",
    "pref": "福島県",
    "city": "郡山市",
    "category": "day_service",
    "serviceType": "通所介護",
    "capacity": 0,
    "openDays": [
      "平日",
      "祝日"
    ],
    "openDaysNote": "夏季休暇及び年末年始は年度によって決定"
  },
  {
    "id": "770303139",
    "name": "ライフサポートセンター家楽～郡山～",
    "kana": "ライフサポートセンターカラク～コオリヤマ～",
    "address": "福島県郡山市八山田5-19-1",
    "lat": 37.4259322492292,
    "lng": 140.376884217583,
    "tel": "024-973-5876",
    "url": "life-agent-japan.com",
    "pref": "福島県",
    "city": "郡山市",
    "category": "day_service",
    "serviceType": "通所介護",
    "capacity": 35,
    "openDays": [
      "平日",
      "土曜日",
      "祝日"
    ],
    "openDaysNote": ""
  },
  {
    "id": "770304152",
    "name": "ライフサポートセンター家楽～八山田～",
    "kana": "ライフサポートセンターカラク　ヤツヤマダ",
    "address": "福島県郡山市八山田西四丁目150番地",
    "lat": 37.4289551529887,
    "lng": 140.368009324345,
    "tel": "024-983-6300",
    "url": "life-agent-japan.com",
    "pref": "福島県",
    "city": "郡山市",
    "category": "day_service",
    "serviceType": "通所介護",
    "capacity": 20,
    "openDays": [
      "平日",
      "土曜日",
      "祝日"
    ],
    "openDaysNote": "特に記載なし。"
  },
  {
    "id": "770302073",
    "name": "リハビリパーク　昭和浪漫",
    "kana": "リハビリパーク　ショウワロマン",
    "address": "福島県郡山市桜木1-1-11有料老人ホーム「雅」 有料老人ホーム「雅」",
    "lat": 37.4076325668465,
    "lng": 140.373788762175,
    "tel": "024-927-9777",
    "url": "http://muysukikai.com/",
    "pref": "福島県",
    "city": "郡山市",
    "category": "day_service",
    "serviceType": "通所介護",
    "capacity": 35,
    "openDays": [
      "平日",
      "土曜日",
      "祝日"
    ],
    "openDaysNote": "年始：1/1～1/3休業"
  },
  {
    "id": "770305142",
    "name": "医療生協デイサービスセンターなのはな",
    "kana": "イリョウセイキョウデイサービスセンターナノハナ",
    "address": "福島県郡山市鳴神１丁目63番地",
    "lat": 37.3956623,
    "lng": 140.3389081,
    "tel": "024-953-4006",
    "url": "koriyama-h-coop.or.jp/",
    "pref": "福島県",
    "city": "郡山市",
    "category": "day_service",
    "serviceType": "通所介護",
    "capacity": 0,
    "openDays": [
      "平日",
      "土曜日",
      "祝日"
    ],
    "openDaysNote": "5月3日から5月5日、8月14日から8月16日、12月30日から1月3日は休み"
  },
  {
    "id": "770301554",
    "name": "医療生協ふれあいデイサービスセンター",
    "kana": "イリョウセイキョウフレアイデイサービスセンター",
    "address": "福島県郡山市島2－２３－１７",
    "lat": 37.3966596,
    "lng": 140.3448158,
    "tel": "024-923-6219",
    "url": "http://www.koriyama-h-coop.or.jp/",
    "pref": "福島県",
    "city": "郡山市",
    "category": "day_service",
    "serviceType": "通所介護",
    "capacity": 0,
    "openDays": [
      "平日",
      "土曜日"
    ],
    "openDaysNote": ""
  },
  {
    "id": "770304046",
    "name": "医療法人むつき会　リハビリパーク「ひまわり健康倶楽部」",
    "kana": "イリョウホウジンムツキカイ　リハビリパーク「ヒマワリケンコウクラブ」",
    "address": "福島県郡山市桜木1丁目1-9",
    "lat": 37.4079758,
    "lng": 140.374285,
    "tel": "024-983-1251",
    "url": "http://www,mutukikai.con/",
    "pref": "福島県",
    "city": "郡山市",
    "category": "day_service",
    "serviceType": "通所介護",
    "capacity": 35,
    "openDays": [
      "平日",
      "土曜日",
      "祝日"
    ],
    "openDaysNote": ""
  },
  {
    "id": "770302123",
    "name": "医療法人健脳会　デイサービスセンター健脳",
    "kana": "イリョウホウジンケンノウカイ　デイサービスセンターケンノウ",
    "address": "福島県郡山市富田町字稲川原57番地",
    "lat": 37.4144362,
    "lng": 140.370199,
    "tel": "024-927-9596",
    "url": "",
    "pref": "福島県",
    "city": "郡山市",
    "category": "day_service",
    "serviceType": "通所介護",
    "capacity": 0,
    "openDays": [
      "平日",
      "土曜日"
    ],
    "openDaysNote": "特になし"
  },
  {
    "id": "770300846",
    "name": "郡山ケアセンターそよ風",
    "kana": "コオリヤマケアセンターソヨカゼ",
    "address": "福島県郡山市大槻町字弥八池南14-1",
    "lat": 37.3865774,
    "lng": 140.3443079,
    "tel": "024-927-5351",
    "url": "http://www.skyz.co.jp",
    "pref": "福島県",
    "city": "郡山市",
    "category": "day_service",
    "serviceType": "通所介護",
    "capacity": 0,
    "openDays": [
      "平日",
      "土曜日",
      "祝日"
    ],
    "openDaysNote": ""
  },
  {
    "id": "770300523",
    "name": "郡山市湖南デイ・サービスセンター",
    "kana": "コオリヤマシコナンデイ・サービスセンター",
    "address": "福島県郡山市湖南町福良字台畠8588番地",
    "lat": 37.3884983,
    "lng": 140.0889299,
    "tel": "024-983-2278",
    "url": "",
    "pref": "福島県",
    "city": "郡山市",
    "category": "day_service",
    "serviceType": "通所介護",
    "capacity": 0,
    "openDays": [
      "平日",
      "土曜日",
      "日曜日"
    ],
    "openDaysNote": ""
  },
  {
    "id": "770300515",
    "name": "郡山市中央デイ・サービスセンター",
    "kana": "コオリヤマシチュウオウデイ・サービスセンター",
    "address": "福島県郡山市朝日一丁目２９番９号",
    "lat": 37.4012344,
    "lng": 140.3587671,
    "tel": "024-924-2955",
    "url": "",
    "pref": "福島県",
    "city": "郡山市",
    "category": "day_service",
    "serviceType": "通所介護",
    "capacity": 25,
    "openDays": [
      "平日",
      "土曜日"
    ],
    "openDaysNote": "-"
  },
  {
    "id": "770300531",
    "name": "郡山市富久山デイ・サービスセンター",
    "kana": "コオリヤマシフクヤマデイ・サービスセンター",
    "address": "福島県郡山市富久山町久保田字大原123番地の1",
    "lat": 37.4205218,
    "lng": 140.3804674,
    "tel": "024-924-2040",
    "url": "huku-day@axel.ocn.ne.jp",
    "pref": "福島県",
    "city": "郡山市",
    "category": "day_service",
    "serviceType": "通所介護",
    "capacity": 25,
    "openDays": [
      "平日",
      "土曜日"
    ],
    "openDaysNote": "お盆も営業しています。"
  },
  {
    "id": "770304921",
    "name": "健院L-CUBデイ",
    "kana": "ケンインエルキューブデイ",
    "address": "福島県郡山市八山田3丁目8-3",
    "lat": 37.4296905413001,
    "lng": 140.374907715344,
    "tel": "024-991-1070",
    "url": "http://www.l-cub.jp/",
    "pref": "福島県",
    "city": "郡山市",
    "category": "day_service",
    "serviceType": "通所介護",
    "capacity": 0,
    "openDays": [
      "平日",
      "土曜日",
      "祝日"
    ],
    "openDaysNote": ""
  },
  {
    "id": "770301778",
    "name": "健康倶楽部郡山　デイサービスセンター「オークヒルズ」",
    "kana": "ケンコウクラブコオリヤマ　デイサービスセンター「オークヒルズ」",
    "address": "福島県郡山市八山田西四丁目12番",
    "lat": 37.4288300049252,
    "lng": 140.369985881615,
    "tel": "024-935-2571",
    "url": "http://www.heiseikai-group.com/",
    "pref": "福島県",
    "city": "郡山市",
    "category": "day_service",
    "serviceType": "通所介護",
    "capacity": 30,
    "openDays": [
      "平日",
      "土曜日",
      "日曜日",
      "祝日"
    ],
    "openDaysNote": ""
  },
  {
    "id": "770301711",
    "name": "健康倶楽部郡山　デイサービスセンター「希」",
    "kana": "ケンコウクラブコオリヤマ　デイサービスセンター「ノゾミ」",
    "address": "福島県郡山市御前南二丁目65番地",
    "lat": 37.3825332,
    "lng": 140.3341536,
    "tel": "024-962-0521",
    "url": "http://www.heiseikai-group.com/",
    "pref": "福島県",
    "city": "郡山市",
    "category": "day_service",
    "serviceType": "通所介護",
    "capacity": 0,
    "openDays": [
      "平日",
      "土曜日",
      "祝日"
    ],
    "openDaysNote": "ご要望により営業時間外でも対応。"
  },
  {
    "id": "770302297",
    "name": "健康倶楽部郡山　デイサービスセンター「守山」",
    "kana": "ケンコウクラブコオリヤマ　デイサービスセンター「モリヤマ」",
    "address": "福島県郡山市田村町守山字小性町11番地",
    "lat": 37.3324765,
    "lng": 140.4118849,
    "tel": "024-965-1881",
    "url": "http://www.heiseikai-group.com/",
    "pref": "福島県",
    "city": "郡山市",
    "category": "day_service",
    "serviceType": "通所介護",
    "capacity": 30,
    "openDays": [
      "平日",
      "土曜日",
      "祝日"
    ],
    "openDaysNote": ""
  },
  {
    "id": "770300630",
    "name": "社会福祉法人愛星福祉会星ヶ丘デイサービスセンター",
    "kana": "シャカイフクシホウジンアイセイフクシカイホシガオカデイサービスセンター",
    "address": "福島県郡山市片平町字妙見舘1番１",
    "lat": 37.4355939,
    "lng": 140.3184586,
    "tel": "024-952-6836",
    "url": "http://www.isei.or.jp",
    "pref": "福島県",
    "city": "郡山市",
    "category": "day_service",
    "serviceType": "通所介護",
    "capacity": 0,
    "openDays": [
      "平日",
      "土曜日",
      "祝日"
    ],
    "openDaysNote": "祝祭日は営業しております。"
  },
  {
    "id": "770303097",
    "name": "笑風デイサービスセンター",
    "kana": "ショウフウデイサービスセンター",
    "address": "福島県郡山市喜久田町前田沢字小室山5-45",
    "lat": 37.4754455,
    "lng": 140.3423245,
    "tel": "024-959-2929",
    "url": "http://syoufuukai.or.jp/",
    "pref": "福島県",
    "city": "郡山市",
    "category": "day_service",
    "serviceType": "通所介護",
    "capacity": 0,
    "openDays": [
      "平日",
      "土曜日",
      "祝日"
    ],
    "openDaysNote": ""
  },
  {
    "id": "770303212",
    "name": "針生ヶ丘デイサービスセンターなごみ",
    "kana": "ハリュウガオカデイサービスセンターナゴミ",
    "address": "福島県郡山市大槻町字天正坦11　　針生ヶ丘病院内",
    "lat": 37.386722,
    "lng": 140.3487852,
    "tel": "024-934-0064",
    "url": "http://www.haryu-hp.or.jp/kaigo/kaigo.html",
    "pref": "福島県",
    "city": "郡山市",
    "category": "day_service",
    "serviceType": "通所介護",
    "capacity": 25,
    "openDays": [
      "平日",
      "土曜日"
    ],
    "openDaysNote": ""
  },
  {
    "id": "770300580",
    "name": "太田デイサービスセンター",
    "kana": "オオタデイサービスセンター",
    "address": "福島県郡山市深沢2丁目3番1号",
    "lat": 37.3904443,
    "lng": 140.3715385,
    "tel": "024-925-8840",
    "url": "http://www.ohta-fukushi.or.jp",
    "pref": "福島県",
    "city": "郡山市",
    "category": "day_service",
    "serviceType": "通所介護",
    "capacity": 30,
    "openDays": [
      "平日",
      "土曜日",
      "祝日"
    ],
    "openDaysNote": "特になし"
  },
  {
    "id": "770301208",
    "name": "太田玉川デイサービスセンター",
    "kana": "オオタタマガワデイサービスセンター",
    "address": "福島県郡山市熱海町玉川字阿曽沢11番地1",
    "lat": 37.4824796569529,
    "lng": 140.286625658994,
    "tel": "024-984-3844",
    "url": "http://www.ohta-fukushi.or.jp",
    "pref": "福島県",
    "city": "郡山市",
    "category": "day_service",
    "serviceType": "通所介護",
    "capacity": 25,
    "openDays": [
      "平日",
      "祝日"
    ],
    "openDaysNote": "特になし"
  },
  {
    "id": "770303717",
    "name": "通所介護リハビリセンターむらかみ",
    "kana": "ツウショカイゴリハビリセンタームラカミ",
    "address": "福島県郡山市静西1-44むらかみ接骨院付属通所介護リハビリセンターむらかみ むらかみ接骨院付属通所介護リハビリセンターむらかみ",
    "lat": 37.3877741,
    "lng": 140.3318481,
    "tel": "024-952-5330",
    "url": "",
    "pref": "福島県",
    "city": "郡山市",
    "category": "day_service",
    "serviceType": "通所介護",
    "capacity": 0,
    "openDays": [
      "平日",
      "土曜日"
    ],
    "openDaysNote": ""
  },
  {
    "id": "770304764",
    "name": "南東北デイサービスセンター八山田",
    "kana": "ミナミトウホクデイサービスセンターヤツヤマダ",
    "address": "福島県郡山市富久山町八山田字土布池55-1",
    "lat": 37.4259593152814,
    "lng": 140.384476478435,
    "tel": "024-954-8505",
    "url": "http://www.fukushi-yatsuyamada.com/",
    "pref": "福島県",
    "city": "郡山市",
    "category": "day_service",
    "serviceType": "通所介護",
    "capacity": 55,
    "openDays": [
      "平日",
      "土曜日",
      "祝日"
    ],
    "openDaysNote": "サービス提供時間　10：00～15：30"
  },
  {
    "id": "770300960",
    "name": "南東北日和田デイサービスセンター",
    "kana": "ミナミトウホクヒワダデイサービスセンター",
    "address": "福島県郡山市日和田町梅沢字丹波山3-2",
    "lat": 37.4582542,
    "lng": 140.4143995,
    "tel": "024-968-1010",
    "url": "http://www.kaigo-hiwada.com",
    "pref": "福島県",
    "city": "郡山市",
    "category": "day_service",
    "serviceType": "通所介護",
    "capacity": 0,
    "openDays": [
      "平日",
      "土曜日",
      "祝日"
    ],
    "openDaysNote": ""
  },
  {
    "id": "770306231",
    "name": "半日型デイサービスいろどり安積店",
    "kana": "ハンニチガタデイサービスイロドリアサカテン",
    "address": "安積町笹川四角坦3-1戸建て 戸建て",
    "lat": 37.3504731,
    "lng": 140.3628217,
    "tel": "249549155",
    "url": "",
    "pref": "福島県",
    "city": "郡山市",
    "category": "day_service",
    "serviceType": "通所介護",
    "capacity": null,
    "openDays": [
      "平日",
      "土曜日",
      "日曜日",
      "祝日"
    ],
    "openDaysNote": "年末年始12/31～1/2は休業日になります。"
  },
  {
    "id": "770301034",
    "name": "富田デイサービスセンター",
    "kana": "トミタデイサービスセンター",
    "address": "福島県郡山市字上亀田21-5",
    "lat": 37.4085471,
    "lng": 140.3430906,
    "tel": "024-962-4145",
    "url": "http://kuwano-fukushikay.jp/tomita/",
    "pref": "福島県",
    "city": "郡山市",
    "category": "day_service",
    "serviceType": "通所介護",
    "capacity": 35,
    "openDays": [
      "平日",
      "土曜日",
      "祝日"
    ],
    "openDaysNote": "なし"
  },
  {
    "id": "770303683",
    "name": "富田温泉デイサービスセンター",
    "kana": "トミタオンセンデイサービスセンター",
    "address": "福島県郡山市不動前1丁目101番地",
    "lat": 37.4204937,
    "lng": 140.3565834,
    "tel": "024-931-2683",
    "url": "http://www.tomitaonsen.jp/",
    "pref": "福島県",
    "city": "郡山市",
    "category": "day_service",
    "serviceType": "通所介護",
    "capacity": 0,
    "openDays": [
      "平日",
      "土曜日",
      "祝日"
    ],
    "openDaysNote": "12月29日～1月3日休日とする（改行）8月13日～8月15日休日とする"
  },
  {
    "id": "770302479",
    "name": "福島県郡山市富田町字天神林50",
    "kana": "慈愛ノサト寿光庵",
    "address": "福島県郡山市富田町字天神林50",
    "lat": 37.4224232,
    "lng": 140.3591719,
    "tel": "249919755",
    "url": "http://jukoan.com/",
    "pref": "福島県",
    "city": "郡山市",
    "category": "day_service",
    "serviceType": "通所介護",
    "capacity": 23,
    "openDays": [
      "平日",
      "土曜日",
      "祝日"
    ],
    "openDaysNote": ""
  },
  {
    "id": "773000179",
    "name": "古殿町介護事業所「コスモス荘」",
    "kana": "フルドノマチカイゴジギョウショ「コスモスソウ」",
    "address": "福島県石川郡古殿町大字松川字横川99番地1",
    "lat": 37.0856652,
    "lng": 140.5586987,
    "tel": "0247-53-4394",
    "url": "http://www.furushakyo.jp/",
    "pref": "福島県",
    "city": "古殿町",
    "category": "day_service",
    "serviceType": "通所介護",
    "capacity": null,
    "openDays": [
      "平日",
      "土曜日",
      "祝日"
    ],
    "openDaysNote": ""
  },
  {
    "id": "773200209",
    "name": "広野町通所介護事業所",
    "kana": "ヒロノマチツウショカイゴジギョウショ",
    "address": "福島県双葉郡広野町大字下浅見川字桜田１１９－５",
    "lat": 37.2090816,
    "lng": 140.9948526,
    "tel": "0240-28-0151",
    "url": "https://schit.net/hirono-shakyou/",
    "pref": "福島県",
    "city": "広野町",
    "category": "day_service",
    "serviceType": "通所介護",
    "capacity": 0,
    "openDays": [
      "平日",
      "土曜日",
      "祝日"
    ],
    "openDaysNote": ""
  },
  {
    "id": "772001434",
    "name": "デイサービスセンター「国見の里」",
    "kana": "デイサービスセンター　クニミノサト",
    "address": "福島県伊達郡国見町小坂南3番地",
    "lat": 37.886002,
    "lng": 140.529386,
    "tel": "024－585－5163",
    "url": "kunimi-sato.or.jp",
    "pref": "福島県",
    "city": "国見町",
    "category": "day_service",
    "serviceType": "通所介護",
    "capacity": 30,
    "openDays": [
      "平日",
      "土曜日",
      "祝日"
    ],
    "openDaysNote": ""
  },
  {
    "id": "772000899",
    "name": "通所介護　日和　くにみ",
    "kana": "ツウショカイゴ　ヒヨリ　クニミ",
    "address": "福島県伊達郡国見町大字小坂字梅ノ町９－９",
    "lat": 37.8787113315985,
    "lng": 140.536614615344,
    "tel": "024-529-1711",
    "url": "http://www.s-hiyori.com/",
    "pref": "福島県",
    "city": "国見町",
    "category": "day_service",
    "serviceType": "通所介護",
    "capacity": 0,
    "openDays": [
      "平日",
      "土曜日",
      "日曜日",
      "祝日"
    ],
    "openDaysNote": ""
  },
  {
    "id": "772900130",
    "name": "鮫川村介護事業所「ひだまり荘」",
    "kana": "サメガワムラカイゴジギョウショ　「ヒダマリソウ」",
    "address": "福島県東白川郡鮫川村大字赤坂中野字宿ノ入３５",
    "lat": 37.0429685,
    "lng": 140.4978731,
    "tel": "0247-49-3600",
    "url": "samegawashakyo@athena.ocn.ne.jp",
    "pref": "福島県",
    "city": "鮫川村",
    "category": "day_service",
    "serviceType": "通所介護",
    "capacity": 30,
    "openDays": [
      "平日",
      "祝日"
    ],
    "openDaysNote": "サービスを中止した場合、同月内であれば、希望の日に振り替えることができます。ただし、定員の予約が入っている日には振り替えできません。"
  },
  {
    "id": "773100763",
    "name": "Ｌ－ＣＵＢデイサービス三春",
    "kana": "エルキューブデイサービスミハル",
    "address": "福島県田村郡三春町大字山田字クルミヤツ15-2-2ＬーＣＵＢデイサービス三春 ＬーＣＵＢデイサービス三春",
    "lat": 37.4260876,
    "lng": 140.4466448,
    "tel": "0247-61-6610",
    "url": "",
    "pref": "福島県",
    "city": "三春町",
    "category": "day_service",
    "serviceType": "通所介護",
    "capacity": 20,
    "openDays": [
      "平日",
      "土曜日",
      "祝日"
    ],
    "openDaysNote": "年末年始休み（12/31～1/3）"
  },
  {
    "id": "773100706",
    "name": "デイサービスセンターきずな",
    "kana": "デイサービスセンターキズナ",
    "address": "福島県田村郡三春町大字熊耳字上荒井８２番地の１",
    "lat": 37.4458682589631,
    "lng": 140.503648039287,
    "tel": "0247-62-0755",
    "url": "",
    "pref": "福島県",
    "city": "三春町",
    "category": "day_service",
    "serviceType": "通所介護",
    "capacity": 68,
    "openDays": [
      "平日",
      "土曜日",
      "祝日"
    ],
    "openDaysNote": "１月１日、２日は休業"
  },
  {
    "id": "773100581",
    "name": "なごみの里デイサービスセンター",
    "kana": "ナゴミノサトデイサービスセンター",
    "address": "福島県田村郡三春町字御免町１７６番地の１",
    "lat": 37.439867,
    "lng": 140.4877525,
    "tel": "0247-62-0753",
    "url": "",
    "pref": "福島県",
    "city": "三春町",
    "category": "day_service",
    "serviceType": "通所介護",
    "capacity": 60,
    "openDays": [
      "平日",
      "土曜日",
      "日曜日",
      "祝日"
    ],
    "openDaysNote": "特になし"
  },
  {
    "id": "773100441",
    "name": "三春デイサ－ビス機能訓練センタ－",
    "kana": "ミハルデイサ-ビスキノウクンレンセンタ-",
    "address": "福島県田村郡三春町八島台7-5-17",
    "lat": 37.4498323,
    "lng": 140.4742973,
    "tel": "0247-62-0010",
    "url": "http://www.seireikai.net",
    "pref": "福島県",
    "city": "三春町",
    "category": "day_service",
    "serviceType": "通所介護",
    "capacity": 65,
    "openDays": [
      "平日",
      "土曜日"
    ],
    "openDaysNote": ""
  },
  {
    "id": "773100219",
    "name": "三春町通所介護事業所",
    "kana": "ミハルマチツウショカイゴジギョウショ",
    "address": "福島県田村郡三春町字南町１番地三春町福祉会館 三春町福祉会館",
    "lat": 37.4408421,
    "lng": 140.4935268,
    "tel": "0247-62-8586",
    "url": "http://www.miharu-syakyo.jp",
    "pref": "福島県",
    "city": "三春町",
    "category": "day_service",
    "serviceType": "通所介護",
    "capacity": 40,
    "openDays": [
      "平日",
      "土曜日",
      "祝日"
    ],
    "openDaysNote": ""
  },
  {
    "id": "772700316",
    "name": "福寿草デイサービス",
    "kana": "フクジュソウデイサービス",
    "address": "福島県大沼郡三島町大字宮下字下乙田889番地三島町高齢者生活福祉センター福寿草 三島町高齢者生活福祉センター福寿草",
    "lat": 37.4741851,
    "lng": 139.6471072,
    "tel": "0241-48-5034",
    "url": "",
    "pref": "福島県",
    "city": "三島町",
    "category": "day_service",
    "serviceType": "通所介護",
    "capacity": 0,
    "openDays": [
      "平日",
      "祝日"
    ],
    "openDaysNote": "月曜日から金曜日。定休日以外は祝日でもサービス提供。"
  },
  {
    "id": "773100524",
    "name": "デイサービスセンター　あすか",
    "kana": "デイサービスセンター　アスカ",
    "address": "福島県田村郡小野町大字谷津作字池ノ平52番地2",
    "lat": 37.2695929898932,
    "lng": 140.640191484656,
    "tel": "0247-71-1182",
    "url": "https://www.aska-shinshin.com",
    "pref": "福島県",
    "city": "小野町",
    "category": "day_service",
    "serviceType": "通所介護",
    "capacity": 0,
    "openDays": [
      "平日",
      "土曜日",
      "祝日"
    ],
    "openDaysNote": "特になし"
  },
  {
    "id": "773100797",
    "name": "機能訓練センターさくら",
    "kana": "キノウクンレンセンターサクラ",
    "address": "福島県田村郡小野町大字小野新町字中通64-1",
    "lat": 37.280664,
    "lng": 140.6312361,
    "tel": "0247-72-6006",
    "url": "",
    "pref": "福島県",
    "city": "小野町",
    "category": "day_service",
    "serviceType": "通所介護",
    "capacity": 0,
    "openDays": [
      "平日",
      "土曜日"
    ],
    "openDaysNote": ""
  },
  {
    "id": "773100565",
    "name": "社会福祉法人小野町社会福祉協議会　小野町デイサービスセンター",
    "kana": "シャカイフクシホウジンオノマチシャカイフクシキョウギカイオノマチデイサービスセンター",
    "address": "福島県田村郡小野町大字小野新町字美売57番地1",
    "lat": 37.2928107,
    "lng": 140.6189917,
    "tel": "0247-72-6777",
    "url": "http://www.onomachi-shakyo.or.jp/",
    "pref": "福島県",
    "city": "小野町",
    "category": "day_service",
    "serviceType": "通所介護",
    "capacity": 0,
    "openDays": [
      "平日",
      "土曜日",
      "祝日"
    ],
    "openDaysNote": "特になし"
  },
  {
    "id": "773300074",
    "name": "新地町デイサービスセンター",
    "kana": "シンチマチデイサービスセンター",
    "address": "福島県相馬郡新地町小川字川向18番地",
    "lat": 37.8637108,
    "lng": 140.9177502,
    "tel": "0244-62-5111",
    "url": "http://www.shinchifukushukai.jp/main/",
    "pref": "福島県",
    "city": "新地町",
    "category": "day_service",
    "serviceType": "通所介護",
    "capacity": 0,
    "openDays": [
      "平日",
      "土曜日",
      "祝日"
    ],
    "openDaysNote": "なし"
  },
  {
    "id": "773300314",
    "name": "福田デイサービスセンター",
    "kana": "フクダデイサービスセンター",
    "address": "福島県相馬郡新地町大字福田字清水175番地",
    "lat": 37.8898438,
    "lng": 140.8983589,
    "tel": "0244-26-4550",
    "url": "http://shinchifukushikai.jp/",
    "pref": "福島県",
    "city": "新地町",
    "category": "day_service",
    "serviceType": "通所介護",
    "capacity": null,
    "openDays": [
      "平日",
      "祝日"
    ],
    "openDaysNote": ""
  },
  {
    "id": "770701514",
    "name": "せいふうケア　リハビリ・ホームスカガワ",
    "kana": "セイフウケア　リハビリ・ホーム須賀川",
    "address": "須賀川市舘取町８２番地の2",
    "lat": 37.2923043,
    "lng": 140.36627,
    "tel": "0248-63-7345",
    "url": "http://sh-care.com/",
    "pref": "福島県",
    "city": "須賀川市",
    "category": "day_service",
    "serviceType": "通所介護",
    "capacity": 0,
    "openDays": [
      "平日",
      "祝日"
    ],
    "openDaysNote": "午前・午後の2単制（改行）午前9：00～12：00（改行）午後13：30～16：30　の提供時間"
  },
  {
    "id": "770701431",
    "name": "ツクイ須賀川",
    "kana": "ツクイスカガワ",
    "address": "塚田89",
    "lat": 35.7225486,
    "lng": 139.9829861,
    "tel": "0248-63-7709",
    "url": "https://www.tsukui.net/",
    "pref": "福島県",
    "city": "須賀川市",
    "category": "day_service",
    "serviceType": "通所介護",
    "capacity": 0,
    "openDays": [
      "平日",
      "土曜日",
      "日曜日",
      "祝日"
    ],
    "openDaysNote": ""
  },
  {
    "id": "770700599",
    "name": "つくしデイサービス",
    "kana": "ツクシデイサービス",
    "address": "福島県須賀川市東作22-1",
    "lat": 37.2766592,
    "lng": 140.3827269,
    "tel": "0248-73-1233",
    "url": "http://houshinkai.jp",
    "pref": "福島県",
    "city": "須賀川市",
    "category": "day_service",
    "serviceType": "通所介護",
    "capacity": 28,
    "openDays": [
      "平日",
      "土曜日",
      "祝日"
    ],
    "openDaysNote": ""
  },
  {
    "id": "770700904",
    "name": "デイサービス　いわせ長寿苑",
    "kana": "デイサービスイワセチョウジュエン",
    "address": "福島県須賀川市矢沢字明池158",
    "lat": 37.3146444,
    "lng": 140.2858728,
    "tel": "0248-65-2448",
    "url": "http://www.iwase.or.jp/index.php",
    "pref": "福島県",
    "city": "須賀川市",
    "category": "day_service",
    "serviceType": "通所介護",
    "capacity": 20,
    "openDays": [
      "平日",
      "土曜日",
      "祝日"
    ],
    "openDaysNote": ""
  },
  {
    "id": "770701266",
    "name": "デイサービスセンター　野の花",
    "kana": "デイサービスセンター　ノノハナ",
    "address": "福島県須賀川市諏訪町9番地",
    "lat": 37.2913463,
    "lng": 140.373588,
    "tel": "0248-94-5390",
    "url": "http://pb-fukushima.jp/",
    "pref": "福島県",
    "city": "須賀川市",
    "category": "day_service",
    "serviceType": "通所介護",
    "capacity": 0,
    "openDays": [
      "平日",
      "土曜日",
      "祝日"
    ],
    "openDaysNote": "営業時間外及び定休日に於いても電話にてご相談可能です。"
  },
  {
    "id": "770700623",
    "name": "ニチイケアセンター西川",
    "kana": "ニチイケアセンターニシカワ",
    "address": "福島県須賀川市新町111",
    "lat": 37.2941681,
    "lng": 140.352759,
    "tel": "0248-63-7553",
    "url": "http://www.nichiigakkan.co.jp",
    "pref": "福島県",
    "city": "須賀川市",
    "category": "day_service",
    "serviceType": "通所介護",
    "capacity": 0,
    "openDays": [
      "平日",
      "土曜日",
      "日曜日",
      "祝日"
    ],
    "openDaysNote": ""
  },
  {
    "id": "770700722",
    "name": "ゆう遊館デイサービスセンター",
    "kana": "ユウユウカンデイサービスセンター",
    "address": "福島県須賀川市滑川字関ノ上２６番地４",
    "lat": 37.3256664,
    "lng": 140.3654835,
    "tel": "0248-63-2616",
    "url": "http://aishin-f.or.jp/",
    "pref": "福島県",
    "city": "須賀川市",
    "category": "day_service",
    "serviceType": "通所介護",
    "capacity": 0,
    "openDays": [
      "平日",
      "土曜日",
      "祝日"
    ],
    "openDaysNote": ""
  },
  {
    "id": "770701423",
    "name": "レッツ倶楽部　須賀川",
    "kana": "レッツクラブ　スカガワ",
    "address": "馬町72-1",
    "lat": null,
    "lng": null,
    "tel": "0248-94-2278",
    "url": "https://www.lets-club.jp/shop/sukagawa/index.html",
    "pref": "福島県",
    "city": "須賀川市",
    "category": "day_service",
    "serviceType": "通所介護",
    "capacity": 0,
    "openDays": [
      "平日",
      "土曜日",
      "祝日"
    ],
    "openDaysNote": "但し12月31日から1月3日を除く"
  },
  {
    "id": "770700532",
    "name": "菜の花デイサービス",
    "kana": "ナノハナデイサービス",
    "address": "福島県須賀川市和田字弥六内３６２番地２",
    "lat": 37.2870082,
    "lng": 140.3905785,
    "tel": "0248-63-7665",
    "url": "",
    "pref": "福島県",
    "city": "須賀川市",
    "category": "day_service",
    "serviceType": "通所介護",
    "capacity": 0,
    "openDays": [
      "平日",
      "土曜日"
    ],
    "openDaysNote": ""
  },
  {
    "id": "770700680",
    "name": "須賀川市いわせデイサービスセンター",
    "kana": "スカガワシイワセデイサービスセンター",
    "address": "福島県須賀川市畑田字諏訪入56",
    "lat": 37.3061561,
    "lng": 140.2697527,
    "tel": "0248-66-1577",
    "url": "http://su-shakyo.jp/index.html",
    "pref": "福島県",
    "city": "須賀川市",
    "category": "day_service",
    "serviceType": "通所介護",
    "capacity": 0,
    "openDays": [
      "平日",
      "祝日"
    ],
    "openDaysNote": ""
  },
  {
    "id": "770700367",
    "name": "須賀川市デイサービスセンター",
    "kana": "スカガワシデイサービスセンター",
    "address": "福島県須賀川市茶畑町71",
    "lat": 37.2930341,
    "lng": 140.3618538,
    "tel": "0248-72-7411",
    "url": "https://www.city.sukagawa.fukushima.jp/",
    "pref": "福島県",
    "city": "須賀川市",
    "category": "day_service",
    "serviceType": "通所介護",
    "capacity": null,
    "openDays": [
      "平日",
      "土曜日",
      "祝日"
    ],
    "openDaysNote": ""
  },
  {
    "id": "772200168",
    "name": "長沼デイサービスセンター",
    "kana": "ナガヌマデイサービスセンター",
    "address": "福島県須賀川市志茂字末津久保１番地２",
    "lat": 37.2933405,
    "lng": 140.2473777,
    "tel": "0248-77-1001",
    "url": "https://iwasefukushikai.jp/",
    "pref": "福島県",
    "city": "須賀川市",
    "category": "day_service",
    "serviceType": "通所介護",
    "capacity": 29,
    "openDays": [
      "平日",
      "土曜日",
      "祝日"
    ],
    "openDaysNote": "サービス提供時間　　　　　　　　　　　　　　　　　　　　　　　　　　　　　　　　　　　　　　　　　　　　午前９時３０分～午後４時３５分"
  },
  {
    "id": "770701365",
    "name": "南東北春日デイサービス",
    "kana": "ミナミトウホクカスガデイサービス",
    "address": "福島県須賀川市南上町１２３番地ー１",
    "lat": 37.2834807,
    "lng": 140.3865235,
    "tel": "0248-94-2348",
    "url": "http://www.kasuga-rehabili.com",
    "pref": "福島県",
    "city": "須賀川市",
    "category": "day_service",
    "serviceType": "通所介護",
    "capacity": null,
    "openDays": [
      "平日",
      "土曜日",
      "祝日"
    ],
    "openDaysNote": ""
  },
  {
    "id": "772500385",
    "name": "さゆりの園デイサービスセンターII",
    "kana": "サユリノソノデイサービスセンターニ",
    "address": "福島県耶麻郡西会津町登世島字田畑乙２０４２－７６",
    "lat": 37.5974913,
    "lng": 139.6380477,
    "tel": "0241-48-1581",
    "url": "https://nishiaizu-fukushi.jp",
    "pref": "福島県",
    "city": "西会津町",
    "category": "day_service",
    "serviceType": "通所介護",
    "capacity": 0,
    "openDays": [
      "平日",
      "土曜日",
      "祝日"
    ],
    "openDaysNote": ""
  },
  {
    "id": "772800967",
    "name": "デイサービスセンター　八福神　弐番館",
    "kana": "デイサービスセンター　ハチフクジン　ニバンカン",
    "address": "福島県西白河郡西郷村字屋敷裏西26",
    "lat": 37.1258576153322,
    "lng": 140.181661105067,
    "tel": "0248-21-6535",
    "url": "http://taro-rlcs.com/",
    "pref": "福島県",
    "city": "西郷村",
    "category": "day_service",
    "serviceType": "通所介護",
    "capacity": 0,
    "openDays": [
      "平日",
      "土曜日",
      "祝日"
    ],
    "openDaysNote": ""
  },
  {
    "id": "772800637",
    "name": "デイサービスセンター「ふれあいの家」",
    "kana": "デイサービスセンター「フレアイノイエ」",
    "address": "福島県西白河郡西郷村大字小田倉字上川向76-1",
    "lat": 37.1241116,
    "lng": 140.1562088,
    "tel": "0248-25-5161",
    "url": "http://www.nishigoshakyo.com/",
    "pref": "福島県",
    "city": "西郷村",
    "category": "day_service",
    "serviceType": "通所介護",
    "capacity": 30,
    "openDays": [
      "平日",
      "土曜日",
      "祝日"
    ],
    "openDaysNote": "なし"
  },
  {
    "id": "772800629",
    "name": "デイサービスセンター「やすらぎの家」",
    "kana": "デイサービスセンターヤスラギノイエ",
    "address": "福島県西白河郡西郷村大字鶴生字由井ケ原176番地",
    "lat": 37.1600538,
    "lng": 140.105159,
    "tel": "0248-25-5338",
    "url": "http://nishigo-shakyo.or.jp/",
    "pref": "福島県",
    "city": "西郷村",
    "category": "day_service",
    "serviceType": "通所介護",
    "capacity": 30,
    "openDays": [
      "平日",
      "土曜日",
      "祝日"
    ],
    "openDaysNote": ""
  },
  {
    "id": "773000427",
    "name": "誠励会デイサービスセンターいしかわ",
    "kana": "セイレイカイデイサービスセンターイシカワ",
    "address": "福島県石川郡石川町字新町98番地1",
    "lat": 37.1485097227183,
    "lng": 140.454202194512,
    "tel": "0247-26-8400",
    "url": "http://www.seireikai.net",
    "pref": "福島県",
    "city": "石川町",
    "category": "day_service",
    "serviceType": "通所介護",
    "capacity": 70,
    "openDays": [
      "平日",
      "土曜日"
    ],
    "openDaysNote": "なし"
  },
  {
    "id": "773000229",
    "name": "石川町デイサービスセンター「さくら荘」",
    "kana": "イシカワマチデイサービスセンター「サクラソウ」",
    "address": "福島県石川郡石川町大字南山形字中野沢５４",
    "lat": 37.1157561,
    "lng": 140.4689674,
    "tel": "0247-26-1100",
    "url": "",
    "pref": "福島県",
    "city": "石川町",
    "category": "day_service",
    "serviceType": "通所介護",
    "capacity": 0,
    "openDays": [
      "平日",
      "土曜日",
      "祝日"
    ],
    "openDaysNote": ""
  },
  {
    "id": "773000500",
    "name": "通所介護事業所　南東北春日リハデイ石川",
    "kana": "ツウショカイゴジギョウショ　ミナミトウホクカスガリハデイイシカワ",
    "address": "福島県石川郡石川町字屋敷ノ入１２",
    "lat": 37.152437,
    "lng": 140.4575615,
    "tel": "0247-56-3711",
    "url": "http://www.rehaday-ishikawa.jp/",
    "pref": "福島県",
    "city": "石川町",
    "category": "day_service",
    "serviceType": "通所介護",
    "capacity": 0,
    "openDays": [
      "平日",
      "土曜日",
      "祝日"
    ],
    "openDaysNote": ""
  },
  {
    "id": "773200332",
    "name": "川内村社会福祉協議会",
    "kana": "カワウチムラシャカイフクシキョウギカイ",
    "address": "福島県双葉郡川内村大字下川内字坂シ内133-5",
    "lat": 37.3320398,
    "lng": 140.8379332,
    "tel": "0240-38-3802",
    "url": "http:ｗｗｗ.kawauchimura.jp",
    "pref": "福島県",
    "city": "川内村",
    "category": "day_service",
    "serviceType": "通所介護",
    "capacity": 35,
    "openDays": [
      "平日",
      "祝日"
    ],
    "openDaysNote": ""
  },
  {
    "id": "772001012",
    "name": "南東北川俣デイサービスセンター",
    "kana": "ミナミトウホクカワマタデイサービスセンター",
    "address": "福島県伊達郡川俣町大字鶴沢字池ノ上30-1",
    "lat": 37.6644111,
    "lng": 140.574677,
    "tel": "024-538-0081",
    "url": "http://www.kaigo-kawamata.com/",
    "pref": "福島県",
    "city": "川俣町",
    "category": "day_service",
    "serviceType": "通所介護",
    "capacity": null,
    "openDays": [
      "平日",
      "土曜日",
      "祝日"
    ],
    "openDaysNote": ""
  },
  {
    "id": "772001475",
    "name": "優優かわまた",
    "kana": "ユウユウカワマタ",
    "address": "福島県伊達郡川俣町大字羽田字鶴巻8-19",
    "lat": 37.6803795850818,
    "lng": 140.565483133205,
    "tel": "024-573-6004",
    "url": "",
    "pref": "福島県",
    "city": "川俣町",
    "category": "day_service",
    "serviceType": "通所介護",
    "capacity": 0,
    "openDays": [
      "平日",
      "土曜日",
      "祝日"
    ],
    "openDaysNote": ""
  },
  {
    "id": "772800116",
    "name": "ケアハウス泉崎デイサービスセンター",
    "kana": "ケアハウスイズミザキデイサービスセンター",
    "address": "福島県西白河郡泉崎村大字太田川字金山３４番地",
    "lat": 37.1791211,
    "lng": 140.265773,
    "tel": "0248-53-3450",
    "url": "https://www.carehouse-izumizaki.com",
    "pref": "福島県",
    "city": "泉崎村",
    "category": "day_service",
    "serviceType": "通所介護",
    "capacity": 0,
    "openDays": [
      "平日",
      "祝日"
    ],
    "openDaysNote": ""
  },
  {
    "id": "773000567",
    "name": "浅川町デイサービスセンター",
    "kana": "アサカワマチデイサービスセンター",
    "address": "福島県石川郡浅川町袖山字森下288",
    "lat": 37.0714792,
    "lng": 140.4141596,
    "tel": "0247-36-3163",
    "url": "http://www.asakawashakyo.com",
    "pref": "福島県",
    "city": "浅川町",
    "category": "day_service",
    "serviceType": "通所介護",
    "capacity": 30,
    "openDays": [
      "平日",
      "土曜日"
    ],
    "openDaysNote": ""
  },
  {
    "id": "770900023",
    "name": "ニチイケアセンター宇多の郷",
    "kana": "ニチイケアセンター　ウダノサト",
    "address": "福島県相馬市大曲字大毛内146",
    "lat": 37.7926224,
    "lng": 140.9375628,
    "tel": "0244-37-3081",
    "url": "http://www.nichiigakkan.co.jp",
    "pref": "福島県",
    "city": "相馬市",
    "category": "day_service",
    "serviceType": "通所介護",
    "capacity": 0,
    "openDays": [
      "平日",
      "土曜日",
      "日曜日",
      "祝日"
    ],
    "openDaysNote": ""
  },
  {
    "id": "770900082",
    "name": "相馬市デイサービスセンター",
    "kana": "ソウマシデイサービスセンター",
    "address": "福島県相馬市小泉字高池357番地（相馬市総合福祉センター内）",
    "lat": 37.8071175,
    "lng": 140.9182944,
    "tel": "0244-36-1915",
    "url": "",
    "pref": "福島県",
    "city": "相馬市",
    "category": "day_service",
    "serviceType": "通所介護",
    "capacity": 30,
    "openDays": [
      "平日",
      "祝日"
    ],
    "openDaysNote": "台風や大雪等によりサービスの提供が困難と判断した場合は中止する事があります。この場合、事前にご利用者又はご家族にご連絡いたします。"
  },
  {
    "id": "770900116",
    "name": "相馬福祉会デイサービスセンター",
    "kana": "ソウマフクシカイデイサービスセンター",
    "address": "福島県相馬市小泉字高池718番地",
    "lat": 37.8106087,
    "lng": 140.9173526,
    "tel": "0244-36-3348",
    "url": "https://www.soumafukushikai.com/",
    "pref": "福島県",
    "city": "相馬市",
    "category": "day_service",
    "serviceType": "通所介護",
    "capacity": null,
    "openDays": [
      "平日",
      "祝日"
    ],
    "openDaysNote": "平日の祝日は営業"
  },
  {
    "id": "770900702",
    "name": "福島県相馬市馬場野字雨田4-1",
    "kana": "フクシマケンソウマシババノアザアメタ",
    "address": "福島県相馬市馬場野字雨田4-1",
    "lat": 37.7885586,
    "lng": 140.9308781,
    "tel": "0244-37-7122",
    "url": "",
    "pref": "福島県",
    "city": "相馬市",
    "category": "day_service",
    "serviceType": "通所介護",
    "capacity": 0,
    "openDays": [
      "平日",
      "土曜日",
      "日曜日",
      "祝日"
    ],
    "openDaysNote": ""
  },
  {
    "id": "772100657",
    "name": "特別養護老人ホーム　陽だまりの里",
    "kana": "トクベツヨウゴロウジンホーム　ヒダマリノサト",
    "address": "福島県安達郡大玉村玉井字台9番地1",
    "lat": 37.5327644,
    "lng": 140.3705254,
    "tel": "0243-68-2115",
    "url": "http://www.f-hidamarinosato.jp",
    "pref": "福島県",
    "city": "大玉村",
    "category": "day_service",
    "serviceType": "通所介護",
    "capacity": 24,
    "openDays": [
      "平日",
      "土曜日",
      "祝日"
    ],
    "openDaysNote": "サービス時間　9時30分～16時30分"
  },
  {
    "id": "772900080",
    "name": "寿恵園（通所介護事業所）",
    "kana": "ジュケイエン（ツウショカイゴジギョウショ）",
    "address": "福島県東白川郡棚倉町大字棚倉字舘ヶ丘７９番地",
    "lat": 37.0222757,
    "lng": 140.3764239,
    "tel": "0247-33-6061",
    "url": "",
    "pref": "福島県",
    "city": "棚倉町",
    "category": "day_service",
    "serviceType": "通所介護",
    "capacity": 0,
    "openDays": [
      "平日",
      "土曜日",
      "日曜日",
      "祝日"
    ],
    "openDaysNote": "３６５日営業。自然災害（地震・台風・大雪）等で通常営業が困難な場合は休みになる場合もあります。"
  },
  {
    "id": "772800983",
    "name": "デイサービスひかりの里",
    "kana": "デイサービスヒカリノサト",
    "address": "福島県西白河郡中島村大字滑津字宿裏１０番地１",
    "lat": 37.1526784,
    "lng": 140.3610835,
    "tel": "0248-21-5971",
    "url": "http://www.so-we-cosmo.or.jp",
    "pref": "福島県",
    "city": "中島村",
    "category": "day_service",
    "serviceType": "通所介護",
    "capacity": 0,
    "openDays": [
      "平日",
      "祝日"
    ],
    "openDaysNote": "祝日も通常営業をしております。"
  },
  {
    "id": "772800306",
    "name": "中島村社会福祉協議会指定通所介護事業所",
    "kana": "ナカジマムラシャカイフクシキョウギカイシテイツウショカイゴジギョウショ",
    "address": "福島県西白河郡中島村大字滑津字二ッ山65番地3",
    "lat": 37.1526574834108,
    "lng": 140.349430244705,
    "tel": "0248-52-3400",
    "url": "",
    "pref": "福島県",
    "city": "中島村",
    "category": "day_service",
    "serviceType": "通所介護",
    "capacity": 0,
    "openDays": [
      "平日"
    ],
    "openDaysNote": "なし"
  },
  {
    "id": "772500575",
    "name": "JA会津よつばデイサービス猪苗代",
    "kana": "ジェイエイアイヅヨツバデイサービスイナワシロ",
    "address": "福島県耶麻郡猪苗代町字本町2",
    "lat": 37.5624951,
    "lng": 140.1081154,
    "tel": "０２４２−７２−１１００",
    "url": "",
    "pref": "福島県",
    "city": "猪苗代町",
    "category": "day_service",
    "serviceType": "通所介護",
    "capacity": 24,
    "openDays": [
      "平日",
      "土曜日"
    ],
    "openDaysNote": ""
  },
  {
    "id": "772500195",
    "name": "いなわしろホームデイサービスセンター指定通所介護事業所",
    "kana": "イナワシロホームデイサービスセンターシテイツウショカイゴジギョウショ",
    "address": "福島県耶麻郡猪苗代町大字三郷字寺南７９６２番地１",
    "lat": 37.5633738,
    "lng": 140.1386344,
    "tel": "0242-66-4124",
    "url": "http://www.inawashiro-home.org/",
    "pref": "福島県",
    "city": "猪苗代町",
    "category": "day_service",
    "serviceType": "通所介護",
    "capacity": 0,
    "openDays": [
      "平日",
      "土曜日",
      "祝日"
    ],
    "openDaysNote": ""
  },
  {
    "id": "772500476",
    "name": "ケアテルデイサービスセンター　ハーブの園猪苗代",
    "kana": "ケアテルデイサービスセンター　ハーブノソノイナワシロ",
    "address": "福島県耶麻郡猪苗代町大字千代田字トヤガ崎38番地1",
    "lat": 37.5496488515371,
    "lng": 140.102918693918,
    "tel": "0242-62-5226",
    "url": "http;//www.caretel.jp/",
    "pref": "福島県",
    "city": "猪苗代町",
    "category": "day_service",
    "serviceType": "通所介護",
    "capacity": 25,
    "openDays": [
      "平日",
      "土曜日",
      "祝日"
    ],
    "openDaysNote": "台風や大雪等で利用者様に危険が生じると判断した場合、お休みや当日、早帰りする場合があります。"
  },
  {
    "id": "772500641",
    "name": "つばさ福祉センター　デイサービスこころ",
    "kana": "ツバサフクシセンター　デイサービスココロ",
    "address": "福島県耶麻郡猪苗代町大字磐里字百目貫736番地1",
    "lat": 37.5494868,
    "lng": 140.0981675,
    "tel": "0242-63-2770",
    "url": "",
    "pref": "福島県",
    "city": "猪苗代町",
    "category": "day_service",
    "serviceType": "通所介護",
    "capacity": null,
    "openDays": [
      "平日",
      "土曜日",
      "祝日"
    ],
    "openDaysNote": ""
  },
  {
    "id": "772200325",
    "name": "デイサービスはねっくら",
    "kana": "デイサービスハネックラ",
    "address": "福島県岩瀬郡天栄村飯豊字上原38",
    "lat": 37.2447339,
    "lng": 140.2957284,
    "tel": "0248-94-6940",
    "url": "http://www.iwase.or.jp",
    "pref": "福島県",
    "city": "天栄村",
    "category": "day_service",
    "serviceType": "通所介護",
    "capacity": 10,
    "openDays": [
      "平日",
      "土曜日",
      "祝日"
    ],
    "openDaysNote": ""
  },
  {
    "id": "772200135",
    "name": "天栄村デイサービスセンター",
    "kana": "テンエイムラデイサービスセンター",
    "address": "福島県岩瀬郡天栄村大字下松本字東田２３",
    "lat": 37.2562791337479,
    "lng": 140.243389577021,
    "tel": "0248-82-3820",
    "url": "",
    "pref": "福島県",
    "city": "天栄村",
    "category": "day_service",
    "serviceType": "通所介護",
    "capacity": 0,
    "openDays": [
      "平日",
      "土曜日",
      "祝日"
    ],
    "openDaysNote": ""
  },
  {
    "id": "771100369",
    "name": "ＪＡ福島さくら　デイサービスセンターきらら",
    "kana": "ジェイエイフクシマサクラ　デイサービスセンターキララ",
    "address": "福島県田村市船引町今泉字鳥足３４０－１",
    "lat": 37.4300399,
    "lng": 140.59616,
    "tel": "0247-82-1411",
    "url": "",
    "pref": "福島県",
    "city": "田村市",
    "category": "day_service",
    "serviceType": "通所介護",
    "capacity": 0,
    "openDays": [
      "平日",
      "土曜日",
      "祝日"
    ],
    "openDaysNote": ""
  },
  {
    "id": "771100310",
    "name": "デイサービス花音",
    "kana": "デイサービスカノン",
    "address": "福島県田村市船引町船引字下大平105番地1",
    "lat": 37.4463902846645,
    "lng": 140.570761377524,
    "tel": "0247-82-3500",
    "url": "https://sumire-fukushikai.or.jp/",
    "pref": "福島県",
    "city": "田村市",
    "category": "day_service",
    "serviceType": "通所介護",
    "capacity": null,
    "openDays": [
      "平日",
      "祝日"
    ],
    "openDaysNote": "ゴールデンウィーク、お盆休８月１４日～８月１６日、年末年始１２月３１日～１月３日は休みとなります。"
  },
  {
    "id": "771100377",
    "name": "リハビリセンターさくらの里",
    "kana": "リハビリセンターサクラノサト",
    "address": "福島県田村市滝根町菅谷字大子堂153番地25",
    "lat": 37.3540214114696,
    "lng": 140.647590884517,
    "tel": "0247-61-7551",
    "url": "https://www.keiseifukushikai.net",
    "pref": "福島県",
    "city": "田村市",
    "category": "day_service",
    "serviceType": "通所介護",
    "capacity": 7,
    "openDays": [
      "平日",
      "土曜日"
    ],
    "openDaysNote": ""
  },
  {
    "id": "771100104",
    "name": "常葉指定通所介護事業所",
    "kana": "トキワシテイツウショカイゴジギョウショ",
    "address": "福島県田村市常葉町常葉字備前作16-1",
    "lat": 37.4430335,
    "lng": 140.6447468,
    "tel": "0247-77-4426",
    "url": "tokiwashakyo.1985921@jeans.ocn.ne.jp",
    "pref": "福島県",
    "city": "田村市",
    "category": "day_service",
    "serviceType": "通所介護",
    "capacity": 30,
    "openDays": [
      "平日",
      "土曜日",
      "祝日"
    ],
    "openDaysNote": ""
  },
  {
    "id": "773100417",
    "name": "船引クリニック　すみれデイサービス",
    "kana": "フネヒキクリニック　スミレデイサービス",
    "address": "福島県田村市船引町船引字砂子田196",
    "lat": 37.4452114410006,
    "lng": 140.571830532541,
    "tel": "0247-82-0666",
    "url": "https://funehiki.clinic/",
    "pref": "福島県",
    "city": "田村市",
    "category": "day_service",
    "serviceType": "通所介護",
    "capacity": 0,
    "openDays": [
      "平日",
      "土曜日",
      "祝日"
    ],
    "openDaysNote": ""
  },
  {
    "id": "771100146",
    "name": "船引北部指定通所介護事業所",
    "kana": "フネヒキホクブシテイツウショカイゴジギョウショ",
    "address": "福島県田村市船引町上移字後田172",
    "lat": 37.5152092,
    "lng": 140.6525879,
    "tel": "0247-86-2691",
    "url": "",
    "pref": "福島県",
    "city": "田村市",
    "category": "day_service",
    "serviceType": "通所介護",
    "capacity": 0,
    "openDays": [
      "平日",
      "土曜日",
      "祝日"
    ],
    "openDaysNote": ""
  },
  {
    "id": "771100062",
    "name": "大越指定通所介護事業所",
    "kana": "オオゴエシテイツウショカイゴジギョウショ",
    "address": "福島県田村市大越町上大越字古川４９－２",
    "lat": 37.3921394,
    "lng": 140.6248375,
    "tel": "0247-79-1221",
    "url": "http://tamura-shakyo.or.jp/",
    "pref": "福島県",
    "city": "田村市",
    "category": "day_service",
    "serviceType": "通所介護",
    "capacity": 30,
    "openDays": [
      "平日",
      "土曜日",
      "祝日"
    ],
    "openDaysNote": "なし"
  },
  {
    "id": "771100039",
    "name": "滝根指定通所介護事業所",
    "kana": "タキネシテイツウショカイゴジギョウショ",
    "address": "福島県田村市滝根町広瀬字針湯５５番地",
    "lat": 37.3127206,
    "lng": 140.6593874,
    "tel": "0247-78-3822",
    "url": "",
    "pref": "福島県",
    "city": "田村市",
    "category": "day_service",
    "serviceType": "通所介護",
    "capacity": 25,
    "openDays": [
      "平日",
      "土曜日",
      "祝日"
    ],
    "openDaysNote": "自然災害（台風）や大雪の際は、状況を確認し事業所で営業を検討いたします"
  },
  {
    "id": "773100383",
    "name": "田村市船引デイサービスセンター",
    "kana": "タムラシフネヒキデイサービスセンター",
    "address": "福島県田村市船引町船引字源次郎131",
    "lat": 37.452998200599,
    "lng": 140.582403572344,
    "tel": "0247-82-6642",
    "url": "https://tamurafukushikai.com/",
    "pref": "福島県",
    "city": "田村市",
    "category": "day_service",
    "serviceType": "通所介護",
    "capacity": 0,
    "openDays": [
      "平日",
      "土曜日",
      "祝日"
    ],
    "openDaysNote": "特になし"
  },
  {
    "id": "773100391",
    "name": "都路まどか荘デイサービスセンター",
    "kana": "ミヤコジマドカソウデイサービスセンター",
    "address": "福島県田村市都路町古道字寺下60番地都路まどか荘デイサービスセンター 都路まどか荘デイサービスセンター",
    "lat": 37.434145,
    "lng": 140.7914163,
    "tel": "0247-75-3116",
    "url": "http://tamurafukushikai.com",
    "pref": "福島県",
    "city": "田村市",
    "category": "day_service",
    "serviceType": "通所介護",
    "capacity": 0,
    "openDays": [
      "平日",
      "土曜日",
      "祝日"
    ],
    "openDaysNote": ""
  },
  {
    "id": "772600334",
    "name": "湯川村デイサービスセンター",
    "kana": "ユガワムラデイサービスセンター",
    "address": "福島県河沼郡湯川村大字笈川字長瀞甲８７５－６",
    "lat": 37.5657045,
    "lng": 139.886078,
    "tel": "0241-28-1588",
    "url": "",
    "pref": "福島県",
    "city": "湯川村",
    "category": "day_service",
    "serviceType": "通所介護",
    "capacity": 50,
    "openDays": [
      "平日",
      "祝日"
    ],
    "openDaysNote": ""
  },
  {
    "id": "773200399",
    "name": "楢葉町デイサービスセンター",
    "kana": "ナラハマチデイサービスセンター",
    "address": "福島県双葉郡楢葉町大字山田岡字大堤入31-1",
    "lat": 37.2494702,
    "lng": 140.9961677,
    "tel": "0240-25-1077",
    "url": "http://naraha.fukushima-shakyo.com/",
    "pref": "福島県",
    "city": "楢葉町",
    "category": "day_service",
    "serviceType": "通所介護",
    "capacity": 0,
    "openDays": [
      "平日",
      "祝日"
    ],
    "openDaysNote": "臨時休業日（台風接近など自然災害時等）"
  },
  {
    "id": "772300679",
    "name": "デイサービス　みなみあいづ",
    "kana": "デイサービス　ミナミアイヅ",
    "address": "福島県南会津郡南会津町田島字北下原１１１番",
    "lat": 37.2078332,
    "lng": 139.7880801,
    "tel": "0241-64-5110",
    "url": "https://ouzyukai.jp",
    "pref": "福島県",
    "city": "南会津町",
    "category": "day_service",
    "serviceType": "通所介護",
    "capacity": 0,
    "openDays": [
      "平日",
      "土曜日",
      "祝日"
    ],
    "openDaysNote": ""
  },
  {
    "id": "772300638",
    "name": "デイサービス・メープルフェロー田島",
    "kana": "デイサービス　メープルフェロータジマ",
    "address": "南会津郡南会津町田島字田部原１２５番地１３",
    "lat": 37.2124608,
    "lng": 139.8004926,
    "tel": "０２４１－６２－０８９０",
    "url": "",
    "pref": "福島県",
    "city": "南会津町",
    "category": "day_service",
    "serviceType": "通所介護",
    "capacity": 20,
    "openDays": [
      "平日",
      "土曜日",
      "祝日"
    ],
    "openDaysNote": "8/13～16,12/29～1/3は休みます。(変更あり）"
  },
  {
    "id": "772300760",
    "name": "運動型デイサービス　アイテール聖光",
    "kana": "ウンドウガタデイサービス　アイテールセイコウ",
    "address": "福島県南会津郡南会津町田部字狐穴68",
    "lat": 37.193442,
    "lng": 139.804196,
    "tel": "0241-64-6300",
    "url": "",
    "pref": "福島県",
    "city": "南会津町",
    "category": "day_service",
    "serviceType": "通所介護",
    "capacity": null,
    "openDays": [
      "平日"
    ],
    "openDaysNote": ""
  },
  {
    "id": "771200680",
    "name": "〒975-0015　福島県南相馬市原町区国見町3丁目18-26",
    "kana": "ツクイ南相馬国見",
    "address": "福島県南相馬市原町区国見町3丁目18-26",
    "lat": 37.6239709,
    "lng": 140.9471067,
    "tel": "0244-25-3580",
    "url": "",
    "pref": "福島県",
    "city": "南相馬市",
    "category": "day_service",
    "serviceType": "通所介護",
    "capacity": 0,
    "openDays": [
      "平日",
      "土曜日",
      "日曜日",
      "祝日"
    ],
    "openDaysNote": "365日営業"
  },
  {
    "id": "771200698",
    "name": "ツクイ南相馬",
    "kana": "ツクイ　ミナミソウマ",
    "address": "福島県南相馬市原町区高見町1-144-6",
    "lat": 37.638759,
    "lng": 140.9832779,
    "tel": "0244-25-2205",
    "url": "",
    "pref": "福島県",
    "city": "南相馬市",
    "category": "day_service",
    "serviceType": "通所介護",
    "capacity": 0,
    "openDays": [
      "平日",
      "土曜日",
      "日曜日",
      "祝日"
    ],
    "openDaysNote": ""
  },
  {
    "id": "771200367",
    "name": "デイサービスステーションスマイル",
    "kana": "デイサービスステーションスマイル",
    "address": "福島県南相馬市原町区陣ヶ崎２０１",
    "lat": 37.6128979887674,
    "lng": 140.945353646033,
    "tel": "0244-26-3275",
    "url": "",
    "pref": "福島県",
    "city": "南相馬市",
    "category": "day_service",
    "serviceType": "通所介護",
    "capacity": 0,
    "openDays": [
      "平日",
      "祝日"
    ],
    "openDaysNote": "特に無し。"
  },
  {
    "id": "771200599",
    "name": "マヤーズデイサービス",
    "kana": "マヤーズデイサービス",
    "address": "福島県南相馬市鹿島区寺内字鷹巣１５",
    "lat": 37.6934817653939,
    "lng": 140.945572105141,
    "tel": "0244-26-8817",
    "url": "",
    "pref": "福島県",
    "city": "南相馬市",
    "category": "day_service",
    "serviceType": "通所介護",
    "capacity": null,
    "openDays": [
      "平日",
      "祝日"
    ],
    "openDaysNote": "特に無し。"
  },
  {
    "id": "771200334",
    "name": "らいぶりーデイサービスセンター",
    "kana": "ライブリーデイサービスセンター",
    "address": "福島県南相馬市原町区大木戸字松島３２６番地３",
    "lat": 37.6231815,
    "lng": 140.9423721,
    "tel": "0244-26-3507",
    "url": "",
    "pref": "福島県",
    "city": "南相馬市",
    "category": "day_service",
    "serviceType": "通所介護",
    "capacity": null,
    "openDays": [
      "平日",
      "土曜日",
      "祝日"
    ],
    "openDaysNote": "特になし"
  },
  {
    "id": "771200052",
    "name": "指定通所介護事業所　南相馬市社会福祉協議会　すみれデイサービスセンター",
    "kana": "シテイツウショカイゴジギョウショ　ミナミソウマシシャカイフクシキョウギカイ　スミレデイサービスセンター",
    "address": "福島県南相馬市鹿島区西町２－１６５",
    "lat": 37.7079871,
    "lng": 140.9602566,
    "tel": "0244-46-1277",
    "url": "http://www.m-somashakyo.or.jp/modules/center5/index.php?id=2",
    "pref": "福島県",
    "city": "南相馬市",
    "category": "day_service",
    "serviceType": "通所介護",
    "capacity": 35,
    "openDays": [
      "平日",
      "祝日"
    ],
    "openDaysNote": ""
  },
  {
    "id": "771200045",
    "name": "指定通所介護事業所　南相馬市社会福祉協議会　ひまわりデイサービスセンター",
    "kana": "シテイツウショカイゴジギョウショ　ミナミソウマシシャカイフクシキョウギカイ",
    "address": "福島県南相馬市鹿島区西町２－１１６",
    "lat": 37.7083176,
    "lng": 140.9608982,
    "tel": "0244-46-1770",
    "url": "http://www.m-somashakyo.or.jp/",
    "pref": "福島県",
    "city": "南相馬市",
    "category": "day_service",
    "serviceType": "通所介護",
    "capacity": 0,
    "openDays": [
      "平日",
      "祝日"
    ],
    "openDaysNote": "なし"
  },
  {
    "id": "771200037",
    "name": "指定通所介護事業所南相馬市社会福祉協議会あすなろデイサービスセンター",
    "kana": "シテイツウショカイゴジギョウショミナミソウマシシャカイフクシキョウギカイアスナロデイサービスセンター",
    "address": "福島県南相馬小高区小高字金谷前84番地小高区保健福祉センター　内 小高区保健福祉センター　内",
    "lat": 37.5685437572428,
    "lng": 140.993956925734,
    "tel": "０２４４－４４－１３３０",
    "url": "",
    "pref": "福島県",
    "city": "南相馬市",
    "category": "day_service",
    "serviceType": "通所介護",
    "capacity": 5,
    "openDays": [
      "平日",
      "祝日"
    ],
    "openDaysNote": ""
  },
  {
    "id": "770600146",
    "name": "社会福祉法人　車輪梅　デイサービスセンターしゃりん梅",
    "kana": "シャカイフクシホウジン　シャリンバイ　デイサービスセンターシャリンバイ",
    "address": "福島県南相馬市原町区橋本町四丁目15番地３",
    "lat": 37.6268816,
    "lng": 140.9610175,
    "tel": "0244-25-7123",
    "url": "http://www.syarinbai.jp",
    "pref": "福島県",
    "city": "南相馬市",
    "category": "day_service",
    "serviceType": "通所介護",
    "capacity": 25,
    "openDays": [
      "平日",
      "土曜日",
      "祝日"
    ],
    "openDaysNote": "なし"
  },
  {
    "id": "771200417",
    "name": "石神デイサービスセンター",
    "kana": "イシガミデイサービスセンター",
    "address": "福島県南相馬市原町区大木戸字西原７１－１",
    "lat": 37.6324085899292,
    "lng": 140.934503969867,
    "tel": "0244-26-5812",
    "url": "http://minamisomafukushikai.or.jp/",
    "pref": "福島県",
    "city": "南相馬市",
    "category": "day_service",
    "serviceType": "通所介護",
    "capacity": 0,
    "openDays": [
      "平日",
      "土曜日",
      "祝日"
    ],
    "openDaysNote": ""
  },
  {
    "id": "771200557",
    "name": "相馬の里デイサービスセンター",
    "kana": "ソウマノサトデイサービスセンター",
    "address": "福島県南相馬市原町区雫字上江２５２－５",
    "lat": 37.6176966692404,
    "lng": 140.99464625531,
    "tel": "０２４４－３２－０８８３",
    "url": "https://somanosato.jp",
    "pref": "福島県",
    "city": "南相馬市",
    "category": "day_service",
    "serviceType": "通所介護",
    "capacity": null,
    "openDays": [
      "平日",
      "祝日"
    ],
    "openDaysNote": ""
  },
  {
    "id": "770600112",
    "name": "福寿園デイサービスセンター",
    "kana": "フクジュエンデイサービスセンター",
    "address": "福島県南相馬市原町区高見町2丁目70番地",
    "lat": 37.6358122,
    "lng": 140.9849373,
    "tel": "0244-25-2811",
    "url": "http://minamisomafukushikai.or.jp",
    "pref": "福島県",
    "city": "南相馬市",
    "category": "day_service",
    "serviceType": "通所介護",
    "capacity": 0,
    "openDays": [
      "平日",
      "土曜日",
      "祝日"
    ],
    "openDaysNote": ""
  },
  {
    "id": "771000544",
    "name": "JWS陽だまりの郷デイサービスセンター",
    "kana": "ジェイダブリュエスヒダマリノサトデイサービスセンター",
    "address": "福島県二本松市表二丁目772",
    "lat": 37.603978275585,
    "lng": 140.43588578938,
    "tel": "0243-24-9141",
    "url": "https://jws-c.jp/",
    "pref": "福島県",
    "city": "二本松市",
    "category": "day_service",
    "serviceType": "通所介護",
    "capacity": 0,
    "openDays": [
      "平日",
      "土曜日",
      "日曜日",
      "祝日"
    ],
    "openDaysNote": ""
  },
  {
    "id": "771000650",
    "name": "コスモメディカルサポート　デイサービスセンター和・なごみ",
    "kana": "コスモメディカルサポート　デイサービスセンター　ナゴミ",
    "address": "福島県二本松市針道字橇町29番地１",
    "lat": 37.5964861,
    "lng": 140.5793929,
    "tel": "0243-66-2230",
    "url": "http://homepage3.nifty.com/drecomehome/index.html",
    "pref": "福島県",
    "city": "二本松市",
    "category": "day_service",
    "serviceType": "通所介護",
    "capacity": 0,
    "openDays": [
      "平日",
      "土曜日",
      "祝日"
    ],
    "openDaysNote": "なし"
  },
  {
    "id": "771000692",
    "name": "デイサービスセンターしずく",
    "kana": "デイサービスセンターシズク",
    "address": "金色409番地10",
    "lat": null,
    "lng": null,
    "tel": "0243-24-7212",
    "url": "",
    "pref": "福島県",
    "city": "二本松市",
    "category": "day_service",
    "serviceType": "通所介護",
    "capacity": null,
    "openDays": [
      "平日"
    ],
    "openDaysNote": ""
  },
  {
    "id": "771000676",
    "name": "デイサービスセンターのぽのぽ",
    "kana": "デイサービスセンターノポノポ",
    "address": "福島県二本松市榎戸1丁目319番地5",
    "lat": 37.5919969,
    "lng": 140.4497748,
    "tel": "0243-24-6803",
    "url": "",
    "pref": "福島県",
    "city": "二本松市",
    "category": "day_service",
    "serviceType": "通所介護",
    "capacity": 20,
    "openDays": [
      "平日"
    ],
    "openDaysNote": ""
  },
  {
    "id": "771000700",
    "name": "ふれあいデイサービス",
    "kana": "フレアイデイサービス",
    "address": "福島県二本松市安達ケ原5丁目６番地１",
    "lat": 37.5929755,
    "lng": 140.4660253,
    "tel": "0243‐24‐8341",
    "url": "",
    "pref": "福島県",
    "city": "二本松市",
    "category": "day_service",
    "serviceType": "通所介護",
    "capacity": 23,
    "openDays": [
      "平日",
      "土曜日",
      "祝日"
    ],
    "openDaysNote": ""
  },
  {
    "id": "771000361",
    "name": "二本松市社会福祉協議会　デイサービスセンターあだち",
    "kana": "ニホンマツシシャカイフクシキョウギカイ　デイサービスセンターアダチ",
    "address": "福島県二本松市油井字砂田101番地",
    "lat": 37.6075894,
    "lng": 140.462528,
    "tel": "0243-23-1721",
    "url": "http://nihonmatsushisyakyo.or.jp",
    "pref": "福島県",
    "city": "二本松市",
    "category": "day_service",
    "serviceType": "通所介護",
    "capacity": 0,
    "openDays": [
      "平日",
      "土曜日",
      "祝日"
    ],
    "openDaysNote": "上記時間帯が基本サービスですが、利用開始後の体調不良や急用事は時間短縮扱いになる場合があります。"
  },
  {
    "id": "771000379",
    "name": "二本松市社会福祉協議会　デイサービスセンターいわしろ",
    "kana": "ニホンマツシシャカイフクシキョウギカイ　デイサービスセンターイワシロ",
    "address": "福島県二本松市上長折字行部内４３番地",
    "lat": 37.5588704,
    "lng": 140.5150299,
    "tel": "0243-55-3240",
    "url": "https://nihonmatsushisyakyo.or.jp/",
    "pref": "福島県",
    "city": "二本松市",
    "category": "day_service",
    "serviceType": "通所介護",
    "capacity": 25,
    "openDays": [
      "平日",
      "土曜日",
      "祝日"
    ],
    "openDaysNote": ""
  },
  {
    "id": "771000387",
    "name": "二本松市社会福祉協議会　デイサービスセンターにほんまつ",
    "kana": "ニホンマツシシャカイフクシキョウギカイデイサービスセンターニホンマツ",
    "address": "福島県二本松市中江１１６番地",
    "lat": 37.5612715,
    "lng": 140.4171367,
    "tel": "0243-22-7890",
    "url": "http://nihonmatsushisyakyo.or.jp",
    "pref": "福島県",
    "city": "二本松市",
    "category": "day_service",
    "serviceType": "通所介護",
    "capacity": 0,
    "openDays": [
      "平日",
      "土曜日",
      "祝日"
    ],
    "openDaysNote": ""
  },
  {
    "id": "770501211",
    "name": "JA夢みなみデイサービスセンターかしま",
    "kana": "ジェイエイユメミナミ　デイサービスセンターカシマ",
    "address": "福島県白河市大鹿島前２５−４",
    "lat": 37.1221637,
    "lng": 140.2388402,
    "tel": "０２４８−２１−６１９１",
    "url": "",
    "pref": "福島県",
    "city": "白河市",
    "category": "day_service",
    "serviceType": "通所介護",
    "capacity": 0,
    "openDays": [
      "平日",
      "土曜日",
      "祝日"
    ],
    "openDaysNote": "年末年始（12月30日から1月3日）は休業します。"
  },
  {
    "id": "770500841",
    "name": "ぐりーんしゃとーゆうほ",
    "kana": "グリーンシャトー遊歩",
    "address": "白坂三輪台20-1",
    "lat": 37.1004479,
    "lng": 140.1938617,
    "tel": "0248-21-9130",
    "url": "ｇｒｅｅｎｃｈａｔｅａｕｙｕｕｈｏ＠ｉｒｉｓ．ｏｃｎ．ｎｅ．ｊｐ",
    "pref": "福島県",
    "city": "白河市",
    "category": "day_service",
    "serviceType": "通所介護",
    "capacity": 20,
    "openDays": [
      "平日",
      "祝日"
    ],
    "openDaysNote": ""
  },
  {
    "id": "770501450",
    "name": "デイサービス　パル・雨やどり",
    "kana": "デイサービス　パル・アマヤドリ",
    "address": "福島県白河市表郷金山字荒屋65-1",
    "lat": 37.0512108661435,
    "lng": 140.294325261655,
    "tel": "0248-21-9277",
    "url": "http://www.jssk.labo.jp/",
    "pref": "福島県",
    "city": "白河市",
    "category": "day_service",
    "serviceType": "通所介護",
    "capacity": 22,
    "openDays": [
      "平日",
      "土曜日",
      "日曜日",
      "祝日"
    ],
    "openDaysNote": "※早朝サービス7:00～9:00延長サービス17:00～21:00対応可（家族送迎に限る）"
  },
  {
    "id": "770501260",
    "name": "デイサービス　パル・夢百合草（アルストロメリア）",
    "kana": "デイサービス　パル・アルストロメリ（アルストロメリア）",
    "address": "福島県白河市北中川原147番地",
    "lat": 37.123138952535,
    "lng": 140.226180080577,
    "tel": "0248-21-8683",
    "url": "http://www.jssk-labo.jp/",
    "pref": "福島県",
    "city": "白河市",
    "category": "day_service",
    "serviceType": "通所介護",
    "capacity": 22,
    "openDays": [
      "平日",
      "土曜日",
      "日曜日",
      "祝日"
    ],
    "openDaysNote": "※希望により早朝７時からの利用可、また夜21時までの延長も可"
  },
  {
    "id": "770501468",
    "name": "デイサービス　八福神　参番館",
    "kana": "ハチフクジン　サンバンカン",
    "address": "福島県白河市大鹿島前３１番地",
    "lat": 37.1214574,
    "lng": 140.2418288,
    "tel": "0248-21-8212",
    "url": "http://taro-rlcs.com/",
    "pref": "福島県",
    "city": "白河市",
    "category": "day_service",
    "serviceType": "通所介護",
    "capacity": null,
    "openDays": [
      "平日",
      "土曜日",
      "祝日"
    ],
    "openDaysNote": ""
  },
  {
    "id": "770500106",
    "name": "デイサービスセンター　小峰苑",
    "kana": "デイサービスセンター　コミネエン",
    "address": "福島県白河市新夏梨１番地２",
    "lat": 37.0897947,
    "lng": 140.2275897,
    "tel": "0248-31-2223",
    "url": "http://care-net.biz/07/komineen/",
    "pref": "福島県",
    "city": "白河市",
    "category": "day_service",
    "serviceType": "通所介護",
    "capacity": 30,
    "openDays": [
      "平日",
      "土曜日",
      "祝日"
    ],
    "openDaysNote": ""
  },
  {
    "id": "770501005",
    "name": "デイサービスセンターひまわり茶屋",
    "kana": "デイサービスセンターヒマワリチャヤ",
    "address": "福島県白河市金勝寺1番3",
    "lat": 37.1366484240785,
    "lng": 140.204528053967,
    "tel": "0248-21-2388",
    "url": "",
    "pref": "福島県",
    "city": "白河市",
    "category": "day_service",
    "serviceType": "通所介護",
    "capacity": 30,
    "openDays": [
      "平日",
      "土曜日",
      "祝日"
    ],
    "openDaysNote": "サービス提供時間は9時30分～16時30分までとします。（改行）電話等により連絡が可能な体制とします。"
  },
  {
    "id": "770501385",
    "name": "デイサービスセンター表郷「聖・オリーブの郷」",
    "kana": "デイサービスセンターオモテゴウセイオリーブ",
    "address": "福島県白河市表郷堀之内字堀ノ内1-1",
    "lat": 37.0688403,
    "lng": 140.3195399,
    "tel": "0248-33-1111",
    "url": "https://sosei.org",
    "pref": "福島県",
    "city": "白河市",
    "category": "day_service",
    "serviceType": "通所介護",
    "capacity": null,
    "openDays": [
      "平日",
      "祝日"
    ],
    "openDaysNote": ""
  },
  {
    "id": "770500759",
    "name": "株式会社トーモクひまわり　デイサービスセンターひまわり",
    "kana": "カブシキガイシャトーモクヒマワリ　デイサービスセンターヒマワリ",
    "address": "福島県白河市円明寺24-1",
    "lat": 37.1229848,
    "lng": 140.2174422,
    "tel": "0248-21-8100",
    "url": "http://t-himawari.co.jp/service/cat01/",
    "pref": "福島県",
    "city": "白河市",
    "category": "day_service",
    "serviceType": "通所介護",
    "capacity": 24,
    "openDays": [
      "平日",
      "土曜日",
      "祝日"
    ],
    "openDaysNote": ""
  },
  {
    "id": "770500551",
    "name": "白河市大信デイサービスセンター",
    "kana": "シラカワシタイシンデイサービスセンター",
    "address": "福島県白河市大信増見字八幡山５５",
    "lat": 37.2035124,
    "lng": 140.241707,
    "tel": "0248-46-3641",
    "url": "http://www.shirakawa-shakyo.ne.jp/",
    "pref": "福島県",
    "city": "白河市",
    "category": "day_service",
    "serviceType": "通所介護",
    "capacity": 35,
    "openDays": [
      "平日",
      "祝日"
    ],
    "openDaysNote": "年末年始の定休日　　12/29～1/3"
  },
  {
    "id": "770500452",
    "name": "白河市中央デイサービスセンター",
    "kana": "シラカワシチュウオウデイサービスセンター",
    "address": "福島県白河市北中川原３１３番地白河市中央老人福祉センター 白河市中央老人福祉センター",
    "lat": 37.1244794,
    "lng": 140.2272636,
    "tel": "0248-22-1159",
    "url": "http://www.shirakawa-shakyo.ne.jp",
    "pref": "福島県",
    "city": "白河市",
    "category": "day_service",
    "serviceType": "通所介護",
    "capacity": 35,
    "openDays": [
      "平日",
      "土曜日",
      "祝日"
    ],
    "openDaysNote": "天候の悪化又は悪化が予想される場合で、ご利用者様に危険がおよぶ恐れがある場合や運営が困難と判断した場合には営業を休止させていただくこともございます。"
  },
  {
    "id": "770500528",
    "name": "白河市東デイサービスセンター",
    "kana": "シラカワシヒガシデイサービスセンター",
    "address": "福島県白河市東上野出島字干草場153番地3白河市東保健センター 白河市東保健センター",
    "lat": 37.1059236,
    "lng": 140.3637351,
    "tel": "0248-34-1082",
    "url": "http//www.shirakawa-shakyo.ne.jp",
    "pref": "福島県",
    "city": "白河市",
    "category": "day_service",
    "serviceType": "通所介護",
    "capacity": 35,
    "openDays": [
      "平日",
      "土曜日",
      "祝日"
    ],
    "openDaysNote": ""
  },
  {
    "id": "770500494",
    "name": "白河市表郷デイサービスセンター",
    "kana": "シラカワシオモテゴウデイサービスセンター",
    "address": "福島県白河市表郷堀之内字堀ノ内１－５白河市表郷福祉センター 白河市表郷福祉センター",
    "lat": 37.0690045,
    "lng": 140.3208077,
    "tel": "0248-32-3503",
    "url": "http://www.shirakawa-shakyo.ne.jp/",
    "pref": "福島県",
    "city": "白河市",
    "category": "day_service",
    "serviceType": "通所介護",
    "capacity": 40,
    "openDays": [
      "平日",
      "土曜日",
      "祝日"
    ],
    "openDaysNote": "特になし"
  },
  {
    "id": "770501328",
    "name": "緑フィットネス希望",
    "kana": "ミドリフィットネスキボウ",
    "address": "福島県白河市明戸15番3",
    "lat": 37.1247282,
    "lng": 140.2243624,
    "tel": "0248-21-8090",
    "url": "m.fitness.kibou@gmail.com",
    "pref": "福島県",
    "city": "白河市",
    "category": "day_service",
    "serviceType": "通所介護",
    "capacity": 30,
    "openDays": [
      "平日",
      "祝日"
    ],
    "openDaysNote": ""
  },
  {
    "id": "772900452",
    "name": "デイサービス絆",
    "kana": "デイサービスキズナ",
    "address": "福島県東白川郡塙町大字塙字大町4丁目27番地",
    "lat": 36.9564123,
    "lng": 140.4094702,
    "tel": "0247-57-6111",
    "url": "",
    "pref": "福島県",
    "city": "塙町",
    "category": "day_service",
    "serviceType": "通所介護",
    "capacity": 35,
    "openDays": [
      "平日",
      "土曜日",
      "祝日"
    ],
    "openDaysNote": ""
  },
  {
    "id": "772900155",
    "name": "塙町指定通所介護事業所",
    "kana": "ハナワマチシテイツウショカイゴジギョウショ",
    "address": "福島県東白川郡塙町大字塙字材木町32番地塙町デイサービスセンター 塙町デイサービスセンター",
    "lat": 36.960959,
    "lng": 140.4095922,
    "tel": "0247-43-2154",
    "url": "http://www.hanawa-shakyou.or.jp/publics/index/45/",
    "pref": "福島県",
    "city": "塙町",
    "category": "day_service",
    "serviceType": "通所介護",
    "capacity": 30,
    "openDays": [
      "平日",
      "土曜日",
      "祝日"
    ],
    "openDaysNote": "お盆期間中も、通常通りの営業を行っています。"
  },
  {
    "id": "772500328",
    "name": "磐梯町保健医療福祉センター",
    "kana": "バンダイマチホケンイリョウフクシセンター",
    "address": "福島県耶麻郡磐梯町大字磐梯字諏訪山２９２６番地",
    "lat": 37.5571353,
    "lng": 139.981228,
    "tel": "0242-74-1151",
    "url": "https://bandai.gr.jp/",
    "pref": "福島県",
    "city": "磐梯町",
    "category": "day_service",
    "serviceType": "通所介護",
    "capacity": 10,
    "openDays": [
      "平日",
      "土曜日",
      "祝日"
    ],
    "openDaysNote": "休業日の期間が長期にわたる場合は、その期間内において営業日を設けることができる。"
  },
  {
    "id": "773200910",
    "name": "デイサービスセンターもとまち",
    "kana": "デイサービスセンターモトマチ",
    "address": "福島県双葉郡富岡町本町一丁目１番地",
    "lat": 37.3411245,
    "lng": 141.0054442,
    "tel": "0240-21-1516",
    "url": "https://futaba-fukunosato.com/",
    "pref": "福島県",
    "city": "富岡町",
    "category": "day_service",
    "serviceType": "通所介護",
    "capacity": 0,
    "openDays": [
      "平日",
      "祝日"
    ],
    "openDaysNote": ""
  },
  {
    "id": "770103448",
    "name": "Qアップスタジオ森合",
    "kana": "キューアップスタジオモリアイ",
    "address": "福島県福島市森合字北向14-1",
    "lat": 37.771007,
    "lng": 140.4513632,
    "tel": "024-555-6381",
    "url": "http://www.care-partner.com/",
    "pref": "福島県",
    "city": "福島市",
    "category": "day_service",
    "serviceType": "通所介護",
    "capacity": 0,
    "openDays": [
      "平日",
      "土曜日",
      "祝日"
    ],
    "openDaysNote": ""
  },
  {
    "id": "770101871",
    "name": "おおぞらデイサービスセンター",
    "kana": "オオゾラディサービスセンター",
    "address": "福島県福島市飯坂町字笠松46-4",
    "lat": 37.8345253610461,
    "lng": 140.446175429196,
    "tel": "024-541-4551",
    "url": "https://oozora.ordermade.jp/",
    "pref": "福島県",
    "city": "福島市",
    "category": "day_service",
    "serviceType": "通所介護",
    "capacity": 0,
    "openDays": [
      "平日",
      "土曜日"
    ],
    "openDaysNote": "-"
  },
  {
    "id": "770106219",
    "name": "ケアステーションあさひ福島南中央",
    "kana": "ケアステーションアサヒフクシマミナミチュウ",
    "address": "福島県福島市南中央３丁目22－3",
    "lat": 37.7595339,
    "lng": 140.437622,
    "tel": "024-525-2200",
    "url": "http://www.vati.co.jp/",
    "pref": "福島県",
    "city": "福島市",
    "category": "day_service",
    "serviceType": "通所介護",
    "capacity": 35,
    "openDays": [
      "平日",
      "土曜日",
      "日曜日",
      "祝日"
    ],
    "openDaysNote": ""
  },
  {
    "id": "770102531",
    "name": "ケアパートナー福島",
    "kana": "ケアパートナーフクシマ",
    "address": "福島県福島市南矢野目字荒屋敷55-1セントラルパーク101 セントラルパーク101",
    "lat": 37.7901597,
    "lng": 140.4586814,
    "tel": "024-555-1210",
    "url": "https://www.care-partner.com/",
    "pref": "福島県",
    "city": "福島市",
    "category": "day_service",
    "serviceType": "通所介護",
    "capacity": 0,
    "openDays": [
      "平日",
      "土曜日",
      "日曜日",
      "祝日"
    ],
    "openDaysNote": ""
  },
  {
    "id": "770100501",
    "name": "けやきの村デイサービスセンター指定通所介護事業所",
    "kana": "ケヤキノムラデイサービスセンターシテイツウショカイゴジギョウショ",
    "address": "福島県福島市飯坂町中野字西高田１－２",
    "lat": 37.8214759,
    "lng": 140.4197334,
    "tel": "024-542-6633",
    "url": "http://keyakinomura.jp/",
    "pref": "福島県",
    "city": "福島市",
    "category": "day_service",
    "serviceType": "通所介護",
    "capacity": 0,
    "openDays": [
      "平日",
      "祝日"
    ],
    "openDaysNote": ""
  },
  {
    "id": "770105864",
    "name": "コンパスウォーク福島御山",
    "kana": "コンパスウォークフクシマオヤマ",
    "address": "福島県福島市御山字稲荷田４７－１",
    "lat": 37.7751204,
    "lng": 140.4637395,
    "tel": "024-572-3740",
    "url": "",
    "pref": "福島県",
    "city": "福島市",
    "category": "day_service",
    "serviceType": "通所介護",
    "capacity": 0,
    "openDays": [
      "平日",
      "祝日"
    ],
    "openDaysNote": ""
  },
  {
    "id": "770106409",
    "name": "コンパスウォーク福島笹谷",
    "kana": "コンパスウォークフクシマササヤ",
    "address": "福島県福島市笹谷字中田４－２",
    "lat": 37.7946499,
    "lng": 140.4357786,
    "tel": "024-529-6425",
    "url": "",
    "pref": "福島県",
    "city": "福島市",
    "category": "day_service",
    "serviceType": "通所介護",
    "capacity": null,
    "openDays": [
      "平日",
      "祝日"
    ],
    "openDaysNote": ""
  },
  {
    "id": "770106136",
    "name": "コンパスウォーク野田町",
    "kana": "コンパスウォークノダマチ",
    "address": "福島県福島市野田町6丁目１１ー２８",
    "lat": 37.7571956,
    "lng": 140.4416377,
    "tel": "024-572-5401",
    "url": "https://keigo-group.co.jp/shop/fukushimaken/1128/",
    "pref": "福島県",
    "city": "福島市",
    "category": "day_service",
    "serviceType": "通所介護",
    "capacity": 0,
    "openDays": [
      "平日"
    ],
    "openDaysNote": ""
  },
  {
    "id": "770105732",
    "name": "サポート24シニアスタンダーズデイサービスリハビリセンター",
    "kana": "サポートニジュウヨンシニアスタンダーズデイサービスリハビリセンター",
    "address": "御山字松川原1-22",
    "lat": 37.7813873,
    "lng": 140.4650031,
    "tel": "024-563-3131",
    "url": "http://senior-standards-house.com/about/",
    "pref": "福島県",
    "city": "福島市",
    "category": "day_service",
    "serviceType": "通所介護",
    "capacity": 0,
    "openDays": [
      "平日"
    ],
    "openDaysNote": ""
  },
  {
    "id": "770100923",
    "name": "さわやかアイリスデイサービスセンター",
    "kana": "サワヤカアイリスデイサービスセンター",
    "address": "福島県福島市在庭坂字志津山６番地の１",
    "lat": 37.75974,
    "lng": 140.3665113,
    "tel": "024-591-2185",
    "url": "https://sawayaka-iris.jp/",
    "pref": "福島県",
    "city": "福島市",
    "category": "day_service",
    "serviceType": "通所介護",
    "capacity": 0,
    "openDays": [
      "平日",
      "土曜日",
      "祝日"
    ],
    "openDaysNote": ""
  },
  {
    "id": "770104214",
    "name": "すこやか・ラコパ",
    "kana": "スコヤカ・ラコパ",
    "address": "福島県福島市仲間町4-8",
    "lat": 37.7573748242815,
    "lng": 140.470288204091,
    "tel": "024-597-8040",
    "url": "http://www.sukoyakanosato,jp/",
    "pref": "福島県",
    "city": "福島市",
    "category": "day_service",
    "serviceType": "通所介護",
    "capacity": 0,
    "openDays": [
      "平日",
      "土曜日",
      "祝日"
    ],
    "openDaysNote": ""
  },
  {
    "id": "770101772",
    "name": "すこやかの里デイサービスセンター指定通所介護事業所",
    "kana": "スコヤカノサトデイサービスセンターシテイツウショカイゴジギョウショ",
    "address": "福島県福島市沖高字中島14-1",
    "lat": 37.7998744,
    "lng": 140.4713383,
    "tel": "024-554-5022",
    "url": "http://www.sukoyakanosato.jp",
    "pref": "福島県",
    "city": "福島市",
    "category": "day_service",
    "serviceType": "通所介護",
    "capacity": 0,
    "openDays": [
      "平日",
      "土曜日",
      "祝日"
    ],
    "openDaysNote": "定員以内での振り替え利用可能。"
  },
  {
    "id": "770105831",
    "name": "ツクイ福島鎌田",
    "kana": "ツクイフクシマカマタ",
    "address": "福島県福島市鎌田字赤沼28-3",
    "lat": 37.7930376,
    "lng": 140.4878091,
    "tel": "024-552-5005",
    "url": "https://www.tsukui.net/",
    "pref": "福島県",
    "city": "福島市",
    "category": "day_service",
    "serviceType": "通所介護",
    "capacity": 45,
    "openDays": [
      "平日",
      "土曜日",
      "日曜日",
      "祝日"
    ],
    "openDaysNote": ""
  },
  {
    "id": "770105856",
    "name": "ツクイ福島黒岩",
    "kana": "ツクイフクシマクロイワ",
    "address": "福島県福島市黒岩字素利町8-1",
    "lat": 37.726101,
    "lng": 140.459934,
    "tel": "024-544-1112",
    "url": "https://www.tsukui.net/",
    "pref": "福島県",
    "city": "福島市",
    "category": "day_service",
    "serviceType": "通所介護",
    "capacity": 60,
    "openDays": [
      "平日",
      "土曜日",
      "日曜日",
      "祝日"
    ],
    "openDaysNote": ""
  },
  {
    "id": "770105849",
    "name": "ツクイ福島笹谷",
    "kana": "ツクイフクシマササヤ",
    "address": "福島県福島市笹谷字東中條10-1",
    "lat": 37.7877825,
    "lng": 140.4439917,
    "tel": "024-555-0068",
    "url": "http://www.tsukui.net",
    "pref": "福島県",
    "city": "福島市",
    "category": "day_service",
    "serviceType": "通所介護",
    "capacity": 0,
    "openDays": [
      "平日",
      "土曜日",
      "日曜日",
      "祝日"
    ],
    "openDaysNote": "年中無休（土日祝日含む）・365日営業"
  },
  {
    "id": "770102630",
    "name": "デイサービスステーション「回生」",
    "kana": "デイサービスステーションカイセイ",
    "address": "福島県福島市西中央4-13-2",
    "lat": 37.7592939,
    "lng": 140.4312072,
    "tel": "024-573-6174",
    "url": "http://e.oishasan.ne.jp/tajimaseikei",
    "pref": "福島県",
    "city": "福島市",
    "category": "day_service",
    "serviceType": "通所介護",
    "capacity": 30,
    "openDays": [
      "平日",
      "祝日"
    ],
    "openDaysNote": ""
  },
  {
    "id": "770101889",
    "name": "デイサービスセンター　ハートフェローユーズ",
    "kana": "デイサービスセンター　ハートフェローユーズ",
    "address": "福島県福島市泉字台１－１",
    "lat": 37.7791425,
    "lng": 140.4558958,
    "tel": "024-555-1355",
    "url": "yuzu-fukushi.com",
    "pref": "福島県",
    "city": "福島市",
    "category": "day_service",
    "serviceType": "通所介護",
    "capacity": 0,
    "openDays": [
      "平日",
      "土曜日",
      "祝日"
    ],
    "openDaysNote": "-"
  },
  {
    "id": "770102085",
    "name": "デイサービスセンター　はなしのぶ",
    "kana": "デイサービスセンター　ハナシノブ",
    "address": "福島県福島市平石字堰ノ上3",
    "lat": 37.7140081,
    "lng": 140.4467549,
    "tel": "024-544-1106",
    "url": "http://www.watari-fukushikai.jp/",
    "pref": "福島県",
    "city": "福島市",
    "category": "day_service",
    "serviceType": "通所介護",
    "capacity": 55,
    "openDays": [
      "平日",
      "土曜日",
      "祝日"
    ],
    "openDaysNote": ""
  },
  {
    "id": "770102580",
    "name": "デイサービスセンター　ふじの里",
    "kana": "デイサービスセンター　フジノサト",
    "address": "福島県福島市在庭坂字檀ノ前９番地1",
    "lat": 37.7579236,
    "lng": 140.3704722,
    "tel": "024-592-2220",
    "url": "http://fuji-sato.com",
    "pref": "福島県",
    "city": "福島市",
    "category": "day_service",
    "serviceType": "通所介護",
    "capacity": 0,
    "openDays": [
      "平日",
      "土曜日",
      "祝日"
    ],
    "openDaysNote": ""
  },
  {
    "id": "770105518",
    "name": "デイサービスセンター　健やかライフ",
    "kana": "デイサービスセンター　スコヤカライフ",
    "address": "福島県福島市飯坂町字湯町28番地の1",
    "lat": 37.8327172,
    "lng": 140.4511438,
    "tel": "024-529-5267",
    "url": "",
    "pref": "福島県",
    "city": "福島市",
    "category": "day_service",
    "serviceType": "通所介護",
    "capacity": 19,
    "openDays": [
      "平日",
      "土曜日",
      "祝日"
    ],
    "openDaysNote": ""
  },
  {
    "id": "770102887",
    "name": "デイサービスセンター　信夫の里",
    "kana": "デイサービスセンター　シノブノサト",
    "address": "福島県福島市仁井田字下川原17番地",
    "lat": 37.7533837,
    "lng": 140.4380735,
    "tel": "024-563-6359",
    "url": "http://sinobunosato-welfare.jp/",
    "pref": "福島県",
    "city": "福島市",
    "category": "day_service",
    "serviceType": "通所介護",
    "capacity": 30,
    "openDays": [
      "平日",
      "土曜日",
      "祝日"
    ],
    "openDaysNote": "なし"
  },
  {
    "id": "770103844",
    "name": "デイサービスセンター　風の丘",
    "kana": "デイサービスセンター　カゼノオカ",
    "address": "福島県福島市飯野町字小平３６－１",
    "lat": 37.6536078564019,
    "lng": 140.542761395648,
    "tel": "024-561-2600",
    "url": "",
    "pref": "福島県",
    "city": "福島市",
    "category": "day_service",
    "serviceType": "通所介護",
    "capacity": 20,
    "openDays": [
      "平日",
      "土曜日",
      "祝日"
    ],
    "openDaysNote": "年末年始は、12月31日から翌年の1月3日まで休みとなります。"
  },
  {
    "id": "770103679",
    "name": "デイサービスセンター　絆",
    "kana": "デイサービスセンター　キズナ",
    "address": "福島県福島市町庭坂字原ノ内３－２",
    "lat": 37.7757444,
    "lng": 140.3897915,
    "tel": "024-592-1212",
    "url": "fuji-sato.com",
    "pref": "福島県",
    "city": "福島市",
    "category": "day_service",
    "serviceType": "通所介護",
    "capacity": 0,
    "openDays": [
      "平日",
      "土曜日",
      "祝日"
    ],
    "openDaysNote": ""
  },
  {
    "id": "770104040",
    "name": "デイサービスセンター　絆2号館",
    "kana": "デイサービスセンター　キズナ　ニゴウカン",
    "address": "福島県福島市町庭坂字小道２６番地７",
    "lat": 37.7712088,
    "lng": 140.3889558,
    "tel": "024-592-2323",
    "url": "http://fuji-sato.com",
    "pref": "福島県",
    "city": "福島市",
    "category": "day_service",
    "serviceType": "通所介護",
    "capacity": 0,
    "openDays": [
      "平日",
      "土曜日",
      "祝日"
    ],
    "openDaysNote": "土曜日は定員10名となります。"
  },
  {
    "id": "770101293",
    "name": "デイサービスセンター「輝きの郷」",
    "kana": "デイサービスセンター「カガヤキノサト」",
    "address": "福島県福島市山口字七口13-1",
    "lat": 37.7648788,
    "lng": 140.5124996,
    "tel": "024-525-5010",
    "url": "http://www.sosei.org",
    "pref": "福島県",
    "city": "福島市",
    "category": "day_service",
    "serviceType": "通所介護",
    "capacity": 0,
    "openDays": [
      "平日",
      "土曜日",
      "祝日"
    ],
    "openDaysNote": ""
  },
  {
    "id": "770105252",
    "name": "デイサービスセンターあづまの郷",
    "kana": "デイサービスセンターアヅマノサト",
    "address": "福島県福島市上鳥渡字北河原2-1",
    "lat": 37.7326049,
    "lng": 140.4111014,
    "tel": "024-593-0303",
    "url": "https://sakura-fukushikai.hp.peraichi.com/",
    "pref": "福島県",
    "city": "福島市",
    "category": "day_service",
    "serviceType": "通所介護",
    "capacity": 5,
    "openDays": [
      "平日",
      "土曜日",
      "祝日"
    ],
    "openDaysNote": ""
  },
  {
    "id": "770103612",
    "name": "デイサービスセンターおぐらじ",
    "kana": "デイサービスセンターオグラジ",
    "address": "福島県福島市小倉寺字兜石１",
    "lat": 37.739522,
    "lng": 140.4710739,
    "tel": "024-529-6453",
    "url": "http://www.tender-info.co.jp",
    "pref": "福島県",
    "city": "福島市",
    "category": "day_service",
    "serviceType": "通所介護",
    "capacity": 0,
    "openDays": [
      "平日",
      "土曜日",
      "祝日"
    ],
    "openDaysNote": "祝祭日営業しています。"
  },
  {
    "id": "770100758",
    "name": "デイサービスセンターグリーンライト",
    "kana": "デイサービスセンターグリーンライト",
    "address": "福島県福島市飯坂町湯野字梁尻１番地の１",
    "lat": 37.8225325,
    "lng": 140.4562745,
    "tel": "024-542-7777",
    "url": "http://care-net.biz/07/ryokukouen/",
    "pref": "福島県",
    "city": "福島市",
    "category": "day_service",
    "serviceType": "通所介護",
    "capacity": 0,
    "openDays": [
      "平日",
      "土曜日",
      "祝日"
    ],
    "openDaysNote": ""
  },
  {
    "id": "770105674",
    "name": "デイサービスセンターしみずの里",
    "kana": "デイサービスセンターシミズノサト",
    "address": "福島市泉字清水内3-4",
    "lat": 37.7779598,
    "lng": 140.4441035,
    "tel": "245631695",
    "url": "https://shimizunosato.com/",
    "pref": "福島県",
    "city": "福島市",
    "category": "day_service",
    "serviceType": "通所介護",
    "capacity": 0,
    "openDays": [
      "平日"
    ],
    "openDaysNote": ""
  },
  {
    "id": "770103737",
    "name": "デイサービスセンターなごみの郷",
    "kana": "デイサービスセンターナゴミノサト",
    "address": "福島県福島市太平寺字町ノ内３０",
    "lat": 37.7322811,
    "lng": 140.4579945,
    "tel": "024-573-8218",
    "url": "http://nagomi-w.or.jp/",
    "pref": "福島県",
    "city": "福島市",
    "category": "day_service",
    "serviceType": "通所介護",
    "capacity": 0,
    "openDays": [
      "平日",
      "土曜日",
      "祝日"
    ],
    "openDaysNote": "なし"
  },
  {
    "id": "770104735",
    "name": "デイサービスセンターはなゆまち",
    "kana": "デイサービスセンターハナユマチ",
    "address": "福島県福島市飯坂町字湯町３７－１",
    "lat": 37.8321162607111,
    "lng": 140.451194845369,
    "tel": "024-542-8588",
    "url": "http://watari-fukushikai.jp",
    "pref": "福島県",
    "city": "福島市",
    "category": "day_service",
    "serviceType": "通所介護",
    "capacity": 35,
    "openDays": [
      "平日",
      "土曜日",
      "祝日"
    ],
    "openDaysNote": ""
  },
  {
    "id": "770100444",
    "name": "デイサービスセンター土湯宝生園指定通所介護事業所",
    "kana": "デイサービスセンターツチユホウショウエンシテイツウショカイゴジギョウショ",
    "address": "福島県福島市土湯温泉町字坂ノ上23番地",
    "lat": 37.6822148,
    "lng": 140.3284433,
    "tel": "024-594-5901",
    "url": "https://www.tahokai.jp",
    "pref": "福島県",
    "city": "福島市",
    "category": "day_service",
    "serviceType": "通所介護",
    "capacity": 25,
    "openDays": [
      "平日",
      "祝日"
    ],
    "openDaysNote": ""
  },
  {
    "id": "770105054",
    "name": "デイサービスセンター飯野ふるさと村",
    "kana": "デイサービスセンターイイノフルサトムラ",
    "address": "福島県福島市飯野町大久保字古枝41番1",
    "lat": 37.6714723,
    "lng": 140.5367299,
    "tel": "024-572-7801",
    "url": "www.iino-furusatomura.com",
    "pref": "福島県",
    "city": "福島市",
    "category": "day_service",
    "serviceType": "通所介護",
    "capacity": 0,
    "openDays": [
      "平日",
      "土曜日",
      "祝日"
    ],
    "openDaysNote": ""
  },
  {
    "id": "770103802",
    "name": "デイサービスセンター万葉",
    "kana": "デイサービスセンターマンヨウ",
    "address": "福島市松川町字南諏訪６番地の１",
    "lat": 37.6601165,
    "lng": 140.4600671,
    "tel": "024-573-6781",
    "url": "http://care-net.biz/07/midorinosato/",
    "pref": "福島県",
    "city": "福島市",
    "category": "day_service",
    "serviceType": "通所介護",
    "capacity": 20,
    "openDays": [
      "平日",
      "土曜日",
      "祝日"
    ],
    "openDaysNote": ""
  },
  {
    "id": "770106110",
    "name": "デイサービスたゆたふ",
    "kana": "デイサービスタユタフ",
    "address": "福島県福島市笹木野字町裏2-7",
    "lat": 37.7668509,
    "lng": 140.4219553,
    "tel": "024-573-5412",
    "url": "http://www.maru-kita.co.jp/",
    "pref": "福島県",
    "city": "福島市",
    "category": "day_service",
    "serviceType": "通所介護",
    "capacity": 0,
    "openDays": [
      "平日",
      "土曜日",
      "日曜日",
      "祝日"
    ],
    "openDaysNote": ""
  },
  {
    "id": "770100907",
    "name": "ニチイケアセンター鎌田",
    "kana": "ニチイケアセンター　カマタ",
    "address": "福島県福島市丸子字町頭14-1",
    "lat": 37.7852287,
    "lng": 140.4765521,
    "tel": "024-552-5353",
    "url": "",
    "pref": "福島県",
    "city": "福島市",
    "category": "day_service",
    "serviceType": "通所介護",
    "capacity": 35,
    "openDays": [
      "平日",
      "土曜日",
      "日曜日",
      "祝日"
    ],
    "openDaysNote": ""
  },
  {
    "id": "770100659",
    "name": "ニチイケアセンター南福島",
    "kana": "ニチイケアセンターミナミフクシマ",
    "address": "福島県福島市方木田字四斗蒔田6-22",
    "lat": 37.7421299,
    "lng": 140.451328,
    "tel": "024-544-3420",
    "url": "http://www.nichiigakkan.co.jp",
    "pref": "福島県",
    "city": "福島市",
    "category": "day_service",
    "serviceType": "通所介護",
    "capacity": 0,
    "openDays": [
      "平日",
      "土曜日",
      "日曜日",
      "祝日"
    ],
    "openDaysNote": ""
  },
  {
    "id": "770100469",
    "name": "ハッピー愛ランド",
    "kana": "ハッピーアイランド",
    "address": "福島県福島市南矢野目字才ノ後６－２",
    "lat": 37.788631,
    "lng": 140.4723302,
    "tel": "024-553-8353",
    "url": "http://www.happyisland.org/",
    "pref": "福島県",
    "city": "福島市",
    "category": "day_service",
    "serviceType": "通所介護",
    "capacity": 0,
    "openDays": [
      "平日",
      "土曜日",
      "祝日"
    ],
    "openDaysNote": ""
  },
  {
    "id": "770100782",
    "name": "ひまわり苑　デイサービスセンター",
    "kana": "ヒマワリエン　デイサービスセンター",
    "address": "福島県福島市田沢字入２０番地",
    "lat": 37.7014405,
    "lng": 140.4912738,
    "tel": "024-547-2220",
    "url": "http://www.seijukai.org/",
    "pref": "福島県",
    "city": "福島市",
    "category": "day_service",
    "serviceType": "通所介護",
    "capacity": 0,
    "openDays": [
      "平日",
      "土曜日",
      "祝日"
    ],
    "openDaysNote": "１２月３１日　１月１日　１月２日は休み"
  },
  {
    "id": "770105765",
    "name": "メープルＧｙｍ　1ｓｔ",
    "kana": "メープルジムファースト",
    "address": "福島県福島市曽根田町3-17メープルGym　1st メープルGym　1st",
    "lat": 37.7614452854154,
    "lng": 140.4594952,
    "tel": "024-572-6030",
    "url": "https://www.maple-gym.net/",
    "pref": "福島県",
    "city": "福島市",
    "category": "day_service",
    "serviceType": "通所介護",
    "capacity": 30,
    "openDays": [
      "平日",
      "祝日"
    ],
    "openDaysNote": "8/13-15（夏季休業）（改行）12/31-1/3（冬季休業）"
  },
  {
    "id": "770103455",
    "name": "リハビリセンター虹",
    "kana": "リハビリセンターニジ",
    "address": "福島県福島市野田町１丁目１３－５８",
    "lat": 37.7547672,
    "lng": 140.4495361,
    "tel": "024-531-6313",
    "url": "http://www.kirari-hcoop.com/",
    "pref": "福島県",
    "city": "福島市",
    "category": "day_service",
    "serviceType": "通所介護",
    "capacity": 45,
    "openDays": [
      "平日",
      "祝日"
    ],
    "openDaysNote": "祝祭日は営業（改行）夏季、年末年始はきらり健康生活協同組合が定める日"
  },
  {
    "id": "770104297",
    "name": "レッツ倶楽部瀬上",
    "kana": "レッツクラブセノウエ",
    "address": "福島県福島市瀬上町字南中川原２３－２",
    "lat": 37.8119378,
    "lng": 140.4992021,
    "tel": "024-552-1174",
    "url": "http://www.lets-club.jp/shop/senoue/",
    "pref": "福島県",
    "city": "福島市",
    "category": "day_service",
    "serviceType": "通所介護",
    "capacity": 23,
    "openDays": [
      "平日",
      "祝日"
    ],
    "openDaysNote": "平日（月曜～金曜）は祝日も通常通りに営業。（改行）午前　　９：００～１２：１５（改行）午後　１３：３０～１６：４５"
  },
  {
    "id": "770106029",
    "name": "レッツ俱楽部清明",
    "kana": "レッツクラブ　セイメイ",
    "address": "福島県福島市清明町1-7大河原ビル1階 大河原ビル1階",
    "lat": 37.7477334,
    "lng": 140.4608422,
    "tel": "024-572-4160",
    "url": "https://www.lets-club.jp/shop/seimei/",
    "pref": "福島県",
    "city": "福島市",
    "category": "day_service",
    "serviceType": "通所介護",
    "capacity": 27,
    "openDays": [
      "平日",
      "土曜日",
      "祝日"
    ],
    "openDaysNote": ""
  },
  {
    "id": "770101137",
    "name": "ロング・ライフ　デイサービスセンター",
    "kana": "ロング・ライフ　デイサービスセンター",
    "address": "福島県福島市松川町字産子内１番地の１",
    "lat": 37.6672997,
    "lng": 140.4780434,
    "tel": "024-567-5800",
    "url": "http://www.life-time-fukushima.jp/",
    "pref": "福島県",
    "city": "福島市",
    "category": "day_service",
    "serviceType": "通所介護",
    "capacity": 0,
    "openDays": [
      "平日",
      "土曜日",
      "日曜日",
      "祝日"
    ],
    "openDaysNote": "-"
  },
  {
    "id": "770100980",
    "name": "愛日荘園デイサービス指定通所介護センター",
    "kana": "アイニチソウエンデイサービスシテイツウショカイゴセンター",
    "address": "福島県福島市大波字熊野山１番地",
    "lat": 37.7523944,
    "lng": 140.5317044,
    "tel": "024-588-1020",
    "url": "http://www.ainichisouen.net/",
    "pref": "福島県",
    "city": "福島市",
    "category": "day_service",
    "serviceType": "通所介護",
    "capacity": 0,
    "openDays": [
      "平日",
      "土曜日",
      "祝日"
    ],
    "openDaysNote": "祝日は営業（12月30日～1月3日除く）"
  },
  {
    "id": "770103554",
    "name": "医療法人五光会　桃の光",
    "kana": "イリョウホウジンゴコウカイ　モモノヒカリ",
    "address": "福島県福島市笹谷字中田１－８",
    "lat": 37.7938656,
    "lng": 140.4361194,
    "tel": "024-555-1032",
    "url": "",
    "pref": "福島県",
    "city": "福島市",
    "category": "day_service",
    "serviceType": "通所介護",
    "capacity": 19,
    "openDays": [
      "平日",
      "土曜日",
      "祝日"
    ],
    "openDaysNote": ""
  },
  {
    "id": "770106243",
    "name": "共生型通所介護事業所はみんぐ",
    "kana": "キョウセイガタツウショカイゴジギョウショハミング",
    "address": "福島県福島市御山字一本木２５番地の５",
    "lat": 37.7778696,
    "lng": 140.4612271,
    "tel": "024-529-7550",
    "url": "https://www.earth-wave.net/",
    "pref": "福島県",
    "city": "福島市",
    "category": "day_service",
    "serviceType": "通所介護",
    "capacity": null,
    "openDays": [
      "平日",
      "土曜日"
    ],
    "openDaysNote": "当社カレンダーに基づく"
  },
  {
    "id": "770106284",
    "name": "元気サポート笹谷",
    "kana": "ゲンキサポートササヤ",
    "address": "福島県福島市笹谷字稲場23－4",
    "lat": 37.7876723508908,
    "lng": 140.446867264418,
    "tel": "024-555-2787",
    "url": "https://www.jisyokai.jp",
    "pref": "福島県",
    "city": "福島市",
    "category": "day_service",
    "serviceType": "通所介護",
    "capacity": null,
    "openDays": [
      "平日",
      "土曜日",
      "祝日"
    ],
    "openDaysNote": ""
  },
  {
    "id": "770106292",
    "name": "元気サポート生活機能向上センター",
    "kana": "ゲンキサポートセイカツキノウコウジョウセンター",
    "address": "福島県福島市笹谷字稲場23-4",
    "lat": 37.7876765903198,
    "lng": 140.4468619,
    "tel": "024-573-6284",
    "url": "https://www.jisyokai.jp",
    "pref": "福島県",
    "city": "福島市",
    "category": "day_service",
    "serviceType": "通所介護",
    "capacity": 0,
    "openDays": [
      "平日",
      "祝日"
    ],
    "openDaysNote": ""
  },
  {
    "id": "770100485",
    "name": "指定通所介護事業所　老人デイサービスセンター　はなひらの",
    "kana": "シテイツウショカイゴロウジンデイサービスセンターハナヒラノ",
    "address": "福島県福島市飯坂町平野字小深田　１番地５号",
    "lat": 37.8015067,
    "lng": 140.4407743,
    "tel": "024-543-1546",
    "url": "http://www.watari-fukushikai.jp",
    "pref": "福島県",
    "city": "福島市",
    "category": "day_service",
    "serviceType": "通所介護",
    "capacity": 40,
    "openDays": [
      "平日",
      "土曜日",
      "祝日"
    ],
    "openDaysNote": "年末年始、お盆休みなどは年間の計画によるものとする。"
  },
  {
    "id": "770100873",
    "name": "社会福祉法人ジェイエイ新ふくしま福祉会　アグリホームデイサービスセンター",
    "kana": "シャカイフクシホウジンジェイエイシンフクシマフクシカイ　アグリホームデイサービスセンター",
    "address": "福島県福島市笹木野字水口下13番地の１",
    "lat": 37.7665178,
    "lng": 140.4262795,
    "tel": "024-563-3542",
    "url": "http://www.aguri-home.com/",
    "pref": "福島県",
    "city": "福島市",
    "category": "day_service",
    "serviceType": "通所介護",
    "capacity": 0,
    "openDays": [
      "平日",
      "土曜日",
      "祝日"
    ],
    "openDaysNote": "特になし"
  },
  {
    "id": "770103315",
    "name": "創世春日町デイサービスセンター",
    "kana": "ソウセイカスガチョウデイサービスセンター",
    "address": "福島県福島市春日町１４番１４号",
    "lat": 37.7675108,
    "lng": 140.4750278,
    "tel": "024-525-1081",
    "url": "",
    "pref": "福島県",
    "city": "福島市",
    "category": "day_service",
    "serviceType": "通所介護",
    "capacity": 0,
    "openDays": [
      "平日",
      "祝日"
    ],
    "openDaysNote": ""
  },
  {
    "id": "770105898",
    "name": "通所介護あゆみ",
    "kana": "ツウショカイゴアユミ",
    "address": "福島県福島市在庭坂字松原11-52",
    "lat": 37.7647203888449,
    "lng": 140.361083338098,
    "tel": "024-573-8883",
    "url": "",
    "pref": "福島県",
    "city": "福島市",
    "category": "day_service",
    "serviceType": "通所介護",
    "capacity": 0,
    "openDays": [
      "平日",
      "祝日"
    ],
    "openDaysNote": ""
  },
  {
    "id": "770104693",
    "name": "通所介護リハビリステーション最幸",
    "kana": "ツウショカイゴリハビリステーションサイコウ",
    "address": "福島県福島市笹谷字稲場28-5",
    "lat": 37.7893085573053,
    "lng": 140.44668347791,
    "tel": "024-572-3739",
    "url": "http://3150-reha.jp/",
    "pref": "福島県",
    "city": "福島市",
    "category": "day_service",
    "serviceType": "通所介護",
    "capacity": 0,
    "openDays": [
      "平日",
      "土曜日"
    ],
    "openDaysNote": ""
  },
  {
    "id": "770102846",
    "name": "天家デイサービス",
    "kana": "テンヤデイサービス",
    "address": "福島県福島市飯坂町字十綱町１０",
    "lat": 37.8310064,
    "lng": 140.4542464,
    "tel": "024-541-2528",
    "url": "http://www.tenya7.jp/",
    "pref": "福島県",
    "city": "福島市",
    "category": "day_service",
    "serviceType": "通所介護",
    "capacity": 19,
    "openDays": [
      "平日"
    ],
    "openDaysNote": "8/14～16　　12/30～１/3　休業"
  },
  {
    "id": "770105971",
    "name": "渡利ケアセンターそよ風",
    "kana": "ワタリケアセンターソヨカゼ",
    "address": "福島県福島市渡利字番匠町58-1",
    "lat": 37.7480298724525,
    "lng": 140.479479765082,
    "tel": "024-525-8562",
    "url": "",
    "pref": "福島県",
    "city": "福島市",
    "category": "day_service",
    "serviceType": "通所介護",
    "capacity": 0,
    "openDays": [
      "平日",
      "土曜日",
      "祝日"
    ],
    "openDaysNote": ""
  },
  {
    "id": "770101160",
    "name": "南沢又デイサービスセンターすこやか指定通所介護事業所",
    "kana": "ミナミサワマタデイサービスセンタースコヤカシテイツウショカイゴジギョウショ",
    "address": "福島県福島市南沢又字上河原25-1南沢又団地３号棟 南沢又団地３号棟",
    "lat": 37.7824125,
    "lng": 140.4330501,
    "tel": "024-556-1500",
    "url": "http://sukoyakanosato.jp",
    "pref": "福島県",
    "city": "福島市",
    "category": "day_service",
    "serviceType": "通所介護",
    "capacity": null,
    "openDays": [
      "平日",
      "土曜日",
      "祝日"
    ],
    "openDaysNote": "職員の研修等で休業する場合、１か月前に通知いたします。"
  },
  {
    "id": "770104404",
    "name": "福島医療生協デイサービスセンターひだまり",
    "kana": "フクシマイリョウセイキョウデイサービスセンターヒダマリ",
    "address": "福島県福島市渡利字中江町40-1",
    "lat": 37.7481962,
    "lng": 140.4830782,
    "tel": "024-563-5784",
    "url": "",
    "pref": "福島県",
    "city": "福島市",
    "category": "day_service",
    "serviceType": "通所介護",
    "capacity": 40,
    "openDays": [
      "平日",
      "土曜日",
      "祝日"
    ],
    "openDaysNote": ""
  },
  {
    "id": "770101020",
    "name": "福島市中央デイサービスセンター",
    "kana": "フクシマシチュウオウデイサービスセンター",
    "address": "福島県福島市森合町10-1福島市保健福祉センター1階 福島市保健福祉センター1階",
    "lat": 37.7631082,
    "lng": 140.4633485,
    "tel": "024-526-3223",
    "url": "http://www.f-shishakyo.or.jp/",
    "pref": "福島県",
    "city": "福島市",
    "category": "day_service",
    "serviceType": "通所介護",
    "capacity": 0,
    "openDays": [
      "平日",
      "土曜日",
      "祝日"
    ],
    "openDaysNote": ""
  },
  {
    "id": "770103125",
    "name": "福島市飯野デイサービスセンター",
    "kana": "フクシマシイイノデイサービスセンター",
    "address": "福島県福島市飯野町字西宮平25番地の1",
    "lat": 37.6528607,
    "lng": 140.5397466,
    "tel": "024-562-4180",
    "url": "http://www.f-shishakyo.or.jp/",
    "pref": "福島県",
    "city": "福島市",
    "category": "day_service",
    "serviceType": "通所介護",
    "capacity": 25,
    "openDays": [
      "平日",
      "土曜日",
      "祝日"
    ],
    "openDaysNote": ""
  },
  {
    "id": "770101277",
    "name": "陽光園デイサービスセンター",
    "kana": "ヨウコウエンデイサービスセンター",
    "address": "福島県福島市南沢又字水門下１６０番地の３",
    "lat": 37.78223,
    "lng": 140.4113444,
    "tel": "024-591-4849",
    "url": "http://www.youkoukai.jp/",
    "pref": "福島県",
    "city": "福島市",
    "category": "day_service",
    "serviceType": "通所介護",
    "capacity": 30,
    "openDays": [
      "平日",
      "土曜日",
      "祝日"
    ],
    "openDaysNote": ""
  },
  {
    "id": "770101491",
    "name": "老人デイサービスセンターはなみずき",
    "kana": "ロウジンデイサービスセンターハナミズキ",
    "address": "福島市渡利字中江町29-3",
    "lat": 37.7474268,
    "lng": 140.4834393,
    "tel": "024-515-3150",
    "url": "www.watari-fukushikai.jp",
    "pref": "福島県",
    "city": "福島市",
    "category": "day_service",
    "serviceType": "通所介護",
    "capacity": 45,
    "openDays": [
      "平日",
      "土曜日",
      "祝日"
    ],
    "openDaysNote": "なし"
  },
  {
    "id": "773000302",
    "name": "誠励会　デイサービスセンターひらた",
    "kana": "セイレイカイ　デイサービスセンターヒラタ",
    "address": "福島県石川郡平田村上蓬田字大隅24-1",
    "lat": 37.2447035961787,
    "lng": 140.568313002902,
    "tel": "0247-55-2112",
    "url": "http://www.seireikai.net",
    "pref": "福島県",
    "city": "平田村",
    "category": "day_service",
    "serviceType": "通所介護",
    "capacity": 0,
    "openDays": [
      "平日",
      "土曜日"
    ],
    "openDaysNote": ""
  },
  {
    "id": "773000344",
    "name": "平田村デイサービスセンター",
    "kana": "ヒラタムラデイサービスセンター",
    "address": "福島県石川郡平田村大字永田字戸花１５０",
    "lat": 37.214528,
    "lng": 140.5740322,
    "tel": "0247-55-3500",
    "url": "http://hiratashakyo.jp/",
    "pref": "福島県",
    "city": "平田村",
    "category": "day_service",
    "serviceType": "通所介護",
    "capacity": 40,
    "openDays": [
      "平日",
      "土曜日",
      "祝日"
    ],
    "openDaysNote": "５月３日～５月５日、８月１３日～１５日、１２月２９日～１月４日は休業とする。（改行）春分の日、秋分の日も休業とする。"
  },
  {
    "id": "772500112",
    "name": "社会福祉法人　北塩原村社会福祉協議会",
    "kana": "シャカイフクシホウジン　キタシオバラムラシャカイフクシキョウギカイ",
    "address": "福島県耶麻郡北塩原村大字大塩字堀田山8518-93",
    "lat": 37.6611356,
    "lng": 140.0150231,
    "tel": "0241-28-3756",
    "url": "",
    "pref": "福島県",
    "city": "北塩原村",
    "category": "day_service",
    "serviceType": "通所介護",
    "capacity": 0,
    "openDays": [
      "平日",
      "土曜日",
      "祝日"
    ],
    "openDaysNote": ""
  },
  {
    "id": "772500419",
    "name": "小野デイサービスセンター",
    "kana": "オノデイサービスセンター",
    "address": "福島県耶麻郡北塩原村大字北山字地蔵堂2906番地の1",
    "lat": 37.6554008,
    "lng": 139.9353329,
    "tel": "0241-23-1717",
    "url": "http://www.fuyou-kai.or.jp/",
    "pref": "福島県",
    "city": "北塩原村",
    "category": "day_service",
    "serviceType": "通所介護",
    "capacity": 0,
    "openDays": [
      "平日",
      "土曜日",
      "祝日"
    ],
    "openDaysNote": ""
  },
  {
    "id": "771400165",
    "name": "ＪＡふくしま未来デイサービスセンターもとみや",
    "kana": "ジェイエイフクシマミライデイサービスセンターモトミヤ",
    "address": "福島県本宮市本宮字中台２０番地１",
    "lat": 37.5235051,
    "lng": 140.3946681,
    "tel": "0243-24-6200",
    "url": "",
    "pref": "福島県",
    "city": "本宮市",
    "category": "day_service",
    "serviceType": "通所介護",
    "capacity": 0,
    "openDays": [
      "平日",
      "土曜日",
      "祝日"
    ],
    "openDaysNote": "年末年始　１２月３１日～１月３日まで休み"
  },
  {
    "id": "772800124",
    "name": "デイサービスセンター寿光園",
    "kana": "デイサービスセンタージュコウエン",
    "address": "福島県西白河郡矢吹町滝八幡159番地2",
    "lat": 37.2143592,
    "lng": 140.3190374,
    "tel": "0248-44-4220",
    "url": "www.jukouen.or.jp/",
    "pref": "福島県",
    "city": "矢吹町",
    "category": "day_service",
    "serviceType": "通所介護",
    "capacity": 0,
    "openDays": [
      "平日",
      "土曜日"
    ],
    "openDaysNote": "年末年始（１２月３０日より１２月３１日まで及び１月２日から３日まで）"
  },
  {
    "id": "772800405",
    "name": "社会福祉法人矢吹町社会福祉協議会指定通所介護事業所(矢吹町デイサービスセンター）",
    "kana": "シャカイフクシホウジンヤブキマチシャカイフクシキョウギカイシテイツウショカイゴジギョウショ（ヤブキマチデイサービスセンター）",
    "address": "福島県西白河郡矢吹町一本木100-1矢吹町保健福祉センター内 矢吹町保健福祉センター内",
    "lat": 37.2025913,
    "lng": 140.3398028,
    "tel": "0248-44-5210",
    "url": "",
    "pref": "福島県",
    "city": "矢吹町",
    "category": "day_service",
    "serviceType": "通所介護",
    "capacity": 0,
    "openDays": [
      "平日",
      "土曜日"
    ],
    "openDaysNote": "特になし"
  },
  {
    "id": "772801064",
    "name": "緑フィットネス希望　矢吹店",
    "kana": "ミドリフィットネスキボウヤブキテン",
    "address": "福島県西白河郡矢吹町本町３２３番",
    "lat": 37.2057443,
    "lng": 140.3245197,
    "tel": "０２４８－２１－８６９０",
    "url": "",
    "pref": "福島県",
    "city": "矢吹町",
    "category": "day_service",
    "serviceType": "通所介護",
    "capacity": 30,
    "openDays": [
      "平日",
      "祝日"
    ],
    "openDaysNote": ""
  },
  {
    "id": "772600144",
    "name": "柳津デイサービスセンター",
    "kana": "ヤナイヅデイサービスセンター",
    "address": "福島県河沼郡柳津町大字柳津字上荒町甲1118番地",
    "lat": 37.5276932,
    "lng": 139.7264251,
    "tel": "0241-42-3456",
    "url": "http://www.magokoro-egao-anshin.com/",
    "pref": "福島県",
    "city": "柳津町",
    "category": "day_service",
    "serviceType": "通所介護",
    "capacity": 0,
    "openDays": [
      "平日",
      "祝日"
    ],
    "openDaysNote": "特になし"
  },
  {
    "id": "773200167",
    "name": "オンフール双葉デイサービスセンター",
    "kana": "オンフールフタバデイサービスセンター",
    "address": "福島県双葉郡浪江町大字末森字八合田134番地福島県二本松市油井字大窪118　　(避難先) 福島県二本松市油井字大窪118　　(避難先)",
    "lat": 37.4906597,
    "lng": 140.9430478,
    "tel": "0243-24-8655",
    "url": "",
    "pref": "福島県",
    "city": "浪江町",
    "category": "day_service",
    "serviceType": "通所介護",
    "capacity": 0,
    "openDays": [
      "平日",
      "祝日"
    ],
    "openDaysNote": ""
  }
]