[
  {
    "id": "572502839",
    "name": "デイサービスセンター蕉風苑",
    "kana": "デイサービスセンターショウフウエン",
    "address": "秋田県にかほ市象潟町大砂川字下橋２０－３",
    "lat": 39.1606773,
    "lng": 139.9018255,
    "tel": "0184-32-7050",
    "url": "http://kisakata-kenseikai.or.jp",
    "pref": "秋田県",
    "city": "にかほ市",
    "category": "day_service",
    "serviceType": "通所介護",
    "capacity": 0,
    "openDays": [
      "平日",
      "土曜日",
      "祝日"
    ],
    "openDaysNote": ""
  },
  {
    "id": "571321421",
    "name": "デイサービスわかば武道島",
    "kana": "デイサービスワカバブドウジマ",
    "address": "秋田県にかほ市象潟町字家ノ後65-26",
    "lat": 39.2054146106235,
    "lng": 139.90318560741,
    "tel": "0184-44-8222",
    "url": "http://www.ikeyaku.co.jp",
    "pref": "秋田県",
    "city": "にかほ市",
    "category": "day_service",
    "serviceType": "通所介護",
    "capacity": 30,
    "openDays": [
      "平日",
      "土曜日",
      "祝日"
    ],
    "openDaysNote": ""
  },
  {
    "id": "572512887",
    "name": "デイサービス倖",
    "kana": "デイサービスシアワセ",
    "address": "秋田県にかほ市象潟町字才の神20-5",
    "lat": 39.2173264675979,
    "lng": 139.900564088963,
    "tel": "0184-43-3353",
    "url": "http://www.siawase-home.com",
    "pref": "秋田県",
    "city": "にかほ市",
    "category": "day_service",
    "serviceType": "通所介護",
    "capacity": 0,
    "openDays": [
      "平日",
      "土曜日",
      "日曜日",
      "祝日"
    ],
    "openDaysNote": ""
  },
  {
    "id": "571313105",
    "name": "にかほ市デイサービスセンター",
    "kana": "ニカホシデイサービスセンター",
    "address": "秋田県にかほ市院内字畑ヶ田２１－１",
    "lat": 39.2823480383891,
    "lng": 139.961738149004,
    "tel": "0184-74-6100",
    "url": "http://nikaho-shakyo.jp",
    "pref": "秋田県",
    "city": "にかほ市",
    "category": "day_service",
    "serviceType": "通所介護",
    "capacity": 35,
    "openDays": [
      "平日",
      "土曜日",
      "祝日"
    ],
    "openDaysNote": ""
  },
  {
    "id": "572503431",
    "name": "浩寿苑デイサービス事業所",
    "kana": "コウジュエンデイサービスジギョウショ",
    "address": "秋田県にかほ市前川字中ノ森24番地5",
    "lat": 39.2370357,
    "lng": 139.9146386,
    "tel": "0184-38-4150",
    "url": "",
    "pref": "秋田県",
    "city": "にかほ市",
    "category": "day_service",
    "serviceType": "通所介護",
    "capacity": 0,
    "openDays": [
      "平日",
      "土曜日",
      "祝日"
    ],
    "openDaysNote": "特になし"
  },
  {
    "id": "572305654",
    "name": "さくら苑老人デイサービス事業所",
    "kana": "サクラエンロウジンデイサービスジギョウショ",
    "address": "南秋田郡井川町寺沢字綱木沢１４５－５",
    "lat": 39.894236,
    "lng": 140.1206789,
    "tel": "018-855-6123",
    "url": "http://www.sakuraen-akita-ikawa.org/",
    "pref": "秋田県",
    "city": "井川町",
    "category": "day_service",
    "serviceType": "通所介護",
    "capacity": 0,
    "openDays": [
      "平日",
      "祝日"
    ],
    "openDaysNote": "年末年始の定休日は変更あり。"
  },
  {
    "id": "572318772",
    "name": "リハビリセンターほっとリハ",
    "kana": "リハビリセンターホットリハ",
    "address": "秋田県南秋田郡井川町今戸字カチ田29－4",
    "lat": 39.9182724762878,
    "lng": 140.077327339426,
    "tel": "018-874-3843",
    "url": "https://hp.kaipoke.biz/y74/14269/index_0004.html",
    "pref": "秋田県",
    "city": "井川町",
    "category": "day_service",
    "serviceType": "通所介護",
    "capacity": 0,
    "openDays": [
      "平日",
      "土曜日",
      "祝日"
    ],
    "openDaysNote": ""
  },
  {
    "id": "574026456",
    "name": "五輪坂デイサービスセンター",
    "kana": "ゴリンザカデイサービスセンター",
    "address": "秋田県雄勝郡羽後町林崎字五林坂２１番地１",
    "lat": 39.2161238,
    "lng": 140.3949731,
    "tel": "０１８３－６２－５３１３",
    "url": "http://ugomachishakyo.or.jp/",
    "pref": "秋田県",
    "city": "羽後町",
    "category": "day_service",
    "serviceType": "通所介護",
    "capacity": null,
    "openDays": [
      "平日",
      "土曜日",
      "日曜日",
      "祝日"
    ],
    "openDaysNote": "11月1日～3月31日の営業時間は、9:00～16:00です。"
  },
  {
    "id": "572708857",
    "name": "アップルデイサービスセンター",
    "kana": "アップルデイサービスセンター",
    "address": "秋田県横手市平鹿町中吉田字竹原99-1",
    "lat": 39.2694879,
    "lng": 140.4962635,
    "tel": "0182-24-2294",
    "url": "http://www.healthyapple.jp",
    "pref": "秋田県",
    "city": "横手市",
    "category": "day_service",
    "serviceType": "通所介護",
    "capacity": 32,
    "openDays": [
      "平日",
      "土曜日",
      "祝日"
    ],
    "openDaysNote": "営業日及び営業時間は当センターが特別に定めた場合はこの限りではありません。"
  },
  {
    "id": "570326454",
    "name": "コンパスウォーク横手",
    "kana": "コンパスウォークヨコテ",
    "address": "秋田県横手市安田字堰添58-1",
    "lat": 39.3008941,
    "lng": 140.5558996,
    "tel": "0182-23-9423",
    "url": "https://kinoukaifuku.com/?p=3692",
    "pref": "秋田県",
    "city": "横手市",
    "category": "day_service",
    "serviceType": "通所介護",
    "capacity": 25,
    "openDays": [
      "平日",
      "祝日"
    ],
    "openDaysNote": ""
  },
  {
    "id": "570308866",
    "name": "デイサービスセンターすこやか森の家",
    "kana": "デイサービスセンタースコヤカモリノイエ",
    "address": "秋田県横手市婦気大堤字婦気前154-1",
    "lat": 39.3004775,
    "lng": 140.553466,
    "tel": "0182-35-6025",
    "url": "http://www.family-care-service.com/",
    "pref": "秋田県",
    "city": "横手市",
    "category": "day_service",
    "serviceType": "通所介護",
    "capacity": 25,
    "openDays": [
      "平日",
      "土曜日",
      "日曜日",
      "祝日"
    ],
    "openDaysNote": "冬期間のサービス提供時間は9時30分～15時45分（12月1日～3月31日）"
  },
  {
    "id": "570326355",
    "name": "デイサービスセンター宏川荘",
    "kana": "デイサービスセンターコウセンソウ",
    "address": "秋田県横手市雄物川町今宿字末館52番地1",
    "lat": 39.2825165,
    "lng": 140.4040847,
    "tel": "0182-23-7766",
    "url": "http://kosenso.jp",
    "pref": "秋田県",
    "city": "横手市",
    "category": "day_service",
    "serviceType": "通所介護",
    "capacity": 25,
    "openDays": [
      "平日",
      "祝日"
    ],
    "openDaysNote": ""
  },
  {
    "id": "570317602",
    "name": "デイサービスセンター沼の柵",
    "kana": "デイサービスセンターヌマノサク",
    "address": "秋田県横手市雄物川町今宿字鳴田１３６－１",
    "lat": 39.2905362,
    "lng": 140.4308121,
    "tel": "0182-22-2294",
    "url": "http://healthyapple.jp/",
    "pref": "秋田県",
    "city": "横手市",
    "category": "day_service",
    "serviceType": "通所介護",
    "capacity": 0,
    "openDays": [
      "平日",
      "祝日"
    ],
    "openDaysNote": "営業日及び営業時間は当センターが特別に定めた場合はこの限りではありません。"
  },
  {
    "id": "570322180",
    "name": "デイサービス雁の郷",
    "kana": "デイサービスカリノサト",
    "address": "秋田県横手市金沢中野字下矢来沢389-1老人ホーム雁ハウス 老人ホーム雁ハウス",
    "lat": 39.3681527,
    "lng": 140.5535476,
    "tel": "0182-23-6530",
    "url": "http://karinosato.com",
    "pref": "秋田県",
    "city": "横手市",
    "category": "day_service",
    "serviceType": "通所介護",
    "capacity": 25,
    "openDays": [
      "平日",
      "祝日"
    ],
    "openDaysNote": "・営業日は、月曜から金曜日までとする。（改行）・営業しない日、土・日曜・年末年始（12/31から1/2）（改行）・営業時間帯、午前8時30分から午後5時30分まで（改行）・利用定員、25名/日（改行）・サービス提供時間、午前9時15分から午後4時15分まで"
  },
  {
    "id": "570322719",
    "name": "デイスパ清川の里",
    "kana": "デイスパキヨカワノサト",
    "address": "秋田県横手市駅前町7-17プラザ・ウェルフェア横手　1階 プラザ・ウェルフェア横手　1階",
    "lat": 39.3080176738851,
    "lng": 140.561927619482,
    "tel": "0182-23-8445",
    "url": "https://kiyokawanosato.com/",
    "pref": "秋田県",
    "city": "横手市",
    "category": "day_service",
    "serviceType": "通所介護",
    "capacity": 30,
    "openDays": [
      "平日",
      "土曜日",
      "日曜日",
      "祝日"
    ],
    "openDaysNote": "延長時間：通所介護の延長サービスは16：30より19：00までご利用可能です（ご利用に際しての詳細はお問い合わせください）"
  },
  {
    "id": "570318618",
    "name": "ほのぼのデイサービスセンター",
    "kana": "ホノボノデイサービスセンター",
    "address": "秋田県横手市雄物川町造山字十足馬場115-1",
    "lat": 39.2812484,
    "lng": 140.4318845,
    "tel": "0182-22-5504",
    "url": "",
    "pref": "秋田県",
    "city": "横手市",
    "category": "day_service",
    "serviceType": "通所介護",
    "capacity": 35,
    "openDays": [
      "平日",
      "土曜日",
      "祝日"
    ],
    "openDaysNote": ""
  },
  {
    "id": "570303917",
    "name": "横手市デイサービスセンター　ふるさと館",
    "kana": "ヨコテシデイサービスセンター　フルサトカン",
    "address": "秋田県横手市上境字谷地中141-1",
    "lat": 39.3426492,
    "lng": 140.5274655,
    "tel": "0182-36-2040",
    "url": "http://sowakai.jp/",
    "pref": "秋田県",
    "city": "横手市",
    "category": "day_service",
    "serviceType": "通所介護",
    "capacity": 0,
    "openDays": [
      "平日",
      "祝日"
    ],
    "openDaysNote": ""
  },
  {
    "id": "570313379",
    "name": "横手市社会福祉協議会十文字福祉センター指定通所介護事業所",
    "kana": "ヨコテシシャカイフクシキョウギカイジュウモンジフクシセンターシテイツウショカイゴジギョウショ",
    "address": "秋田県横手市十文字町梨木字御休ノ上２９番地",
    "lat": 39.237548,
    "lng": 140.5243722,
    "tel": "0182-55-2211",
    "url": "",
    "pref": "秋田県",
    "city": "横手市",
    "category": "day_service",
    "serviceType": "通所介護",
    "capacity": 0,
    "openDays": [
      "平日",
      "土曜日",
      "祝日"
    ],
    "openDaysNote": "天災その他、やむを得ず業務を遂行できない日を除く"
  },
  {
    "id": "570313205",
    "name": "横手市社会福祉協議会平寿苑指定通所介護事業所",
    "kana": "ヨコテシシャカイフクシキョウギカイヘイジュエンシテイツウショカイゴジギョウショ",
    "address": "横手市平鹿町浅舞字館廻353番地",
    "lat": 39.2675732,
    "lng": 140.4838172,
    "tel": "0182-38-7011",
    "url": "http://www.yokote-shakyo.jp/",
    "pref": "秋田県",
    "city": "横手市",
    "category": "day_service",
    "serviceType": "通所介護",
    "capacity": 0,
    "openDays": [
      "平日",
      "土曜日",
      "日曜日",
      "祝日"
    ],
    "openDaysNote": "但し、天災等により通常の介護サービスが困難な場合を除く"
  },
  {
    "id": "570313262",
    "name": "横手市社会福祉協議会雄風荘指定通所介護事業所",
    "kana": "ヨコテシシャカイフクシキョウギカイユウフウソウシテイツウショカイゴジギョウショ",
    "address": "秋田県横手市雄物川町今宿字末館47番地2",
    "lat": 39.2837167,
    "lng": 140.4026765,
    "tel": "0182-22-3400",
    "url": "",
    "pref": "秋田県",
    "city": "横手市",
    "category": "day_service",
    "serviceType": "通所介護",
    "capacity": 25,
    "openDays": [
      "平日",
      "土曜日",
      "祝日"
    ],
    "openDaysNote": "但し、天災その他やむを得ず業務を遂行出来ない日は除く。"
  },
  {
    "id": "570313452",
    "name": "横手市大森町指定通所介護事業所",
    "kana": "ヨコテシオオモリマチシテイツウショカイゴジギョウショ",
    "address": "秋田県横手市大森町字菅生田２４５－２１４",
    "lat": 39.351928,
    "lng": 140.4185141,
    "tel": "0182-56-4155",
    "url": "",
    "pref": "秋田県",
    "city": "横手市",
    "category": "day_service",
    "serviceType": "通所介護",
    "capacity": 0,
    "openDays": [
      "平日",
      "土曜日",
      "祝日"
    ],
    "openDaysNote": ""
  },
  {
    "id": "570322867",
    "name": "悠林の丘",
    "kana": "ユウリンノオカ",
    "address": "秋田県横手市赤坂字仁坂105番地の2",
    "lat": 39.2975495,
    "lng": 140.5332118,
    "tel": "0182-32-2888",
    "url": "http://sowakai.jp/",
    "pref": "秋田県",
    "city": "横手市",
    "category": "day_service",
    "serviceType": "通所介護",
    "capacity": 0,
    "openDays": [
      "平日",
      "祝日"
    ],
    "openDaysNote": "天災その他やむを得ず業務を遂行できない日を除く。"
  },
  {
    "id": "571022649",
    "name": "デイサービスセンター　すてっぷ",
    "kana": "デイサービスセンター　ステップ",
    "address": "秋田県潟上市天王字追分西50-4",
    "lat": 39.8855888,
    "lng": 139.9904669,
    "tel": "018-838-0872",
    "url": "http://apollocuresurvice.web.fc2.com",
    "pref": "秋田県",
    "city": "潟上市",
    "category": "day_service",
    "serviceType": "通所介護",
    "capacity": 30,
    "openDays": [
      "平日",
      "土曜日",
      "祝日"
    ],
    "openDaysNote": ""
  },
  {
    "id": "571015635",
    "name": "デイサービスセンター　遊",
    "kana": "デイサービスセンター　ユウ",
    "address": "秋田県潟上市天王字細谷長根34番地１",
    "lat": 39.8522775,
    "lng": 140.0256758,
    "tel": "018-853-5533",
    "url": "",
    "pref": "秋田県",
    "city": "潟上市",
    "category": "day_service",
    "serviceType": "通所介護",
    "capacity": 20,
    "openDays": [
      "平日",
      "土曜日",
      "祝日"
    ],
    "openDaysNote": "お盆期間、年末年始は臨時的に営業する場合があります。"
  },
  {
    "id": "572309946",
    "name": "デイサービスセンターこもれび",
    "kana": "デイサービスセンターコモレビ",
    "address": "秋田県潟上市天王字上江川４７－１３０",
    "lat": 39.8754382534595,
    "lng": 139.992870949738,
    "tel": "018-872-2201",
    "url": "http://www.komorebi-kaigo.com",
    "pref": "秋田県",
    "city": "潟上市",
    "category": "day_service",
    "serviceType": "通所介護",
    "capacity": 6,
    "openDays": [
      "平日",
      "祝日"
    ],
    "openDaysNote": "お盆休（8月13日から8月15日）及び年末年始休（12月31日から1月3日）"
  },
  {
    "id": "571018282",
    "name": "デイサービスセンターふくろう",
    "kana": "デイサービスセンターフクロウ",
    "address": "秋田県潟上市天王字棒沼台247-4",
    "lat": 39.8585124,
    "lng": 140.0116985,
    "tel": "018-872-2510",
    "url": "http://www.seiwakai-net.com",
    "pref": "秋田県",
    "city": "潟上市",
    "category": "day_service",
    "serviceType": "通所介護",
    "capacity": 15,
    "openDays": [
      "平日",
      "土曜日",
      "祝日"
    ],
    "openDaysNote": "上記以外でも、利用される方・御家族の希望にお応えします。"
  },
  {
    "id": "572305431",
    "name": "潟上市昭和デイサービスセンター",
    "kana": "カタガミシショウワデイサービスセンター",
    "address": "秋田県潟上市昭和大久保字町後244",
    "lat": 39.8694149,
    "lng": 140.0580492,
    "tel": "018-877-6700",
    "url": "",
    "pref": "秋田県",
    "city": "潟上市",
    "category": "day_service",
    "serviceType": "通所介護",
    "capacity": 0,
    "openDays": [
      "平日",
      "土曜日",
      "祝日"
    ],
    "openDaysNote": "祝日は、休業とする場合もあります（5月5日、8月13日）。"
  },
  {
    "id": "572302917",
    "name": "社会福祉法人　敬仁会　デイサービスセンター　はまなす",
    "kana": "シャカイフクシホウジン　ケイジンカイ　デイサービスセンター　ハマナス",
    "address": "秋田県潟上市天王字上江川212番地2",
    "lat": 39.88181642039,
    "lng": 139.989249050595,
    "tel": "018-878-6383",
    "url": "https://keijinkai.akita.jp/facilities/hamanasu.html",
    "pref": "秋田県",
    "city": "潟上市",
    "category": "day_service",
    "serviceType": "通所介護",
    "capacity": 0,
    "openDays": [
      "平日",
      "土曜日",
      "祝日"
    ],
    "openDaysNote": ""
  },
  {
    "id": "572305167",
    "name": "飯田川デイサービスセンターわかば園",
    "kana": "イイタガワデイサービスセンターワカバエン",
    "address": "秋田県潟上市飯田川下虻川字上谷地168-1",
    "lat": 39.8693402,
    "lng": 140.0705929,
    "tel": "018-877-7077",
    "url": "http://www.wakabaen.or.jp/",
    "pref": "秋田県",
    "city": "潟上市",
    "category": "day_service",
    "serviceType": "通所介護",
    "capacity": 30,
    "openDays": [
      "平日",
      "土曜日",
      "祝日"
    ],
    "openDaysNote": ""
  },
  {
    "id": "572305746",
    "name": "社会福祉法人五城目やまゆり会　広青苑通所介護事業所",
    "kana": "シャカイフクシホウジンゴジョウメヤマユリカイ　コウセイエンツウショカイゴジギョウショ",
    "address": "秋田県南秋田郡五城目町上樋口字樽沢137番地",
    "lat": 39.9316711,
    "lng": 140.117156,
    "tel": "018-852-5400",
    "url": "https://yamayurikai-akita.jp/",
    "pref": "秋田県",
    "city": "五城目町",
    "category": "day_service",
    "serviceType": "通所介護",
    "capacity": 0,
    "openDays": [
      "平日",
      "祝日"
    ],
    "openDaysNote": "その他、夏まつりや公開講座などのお休みは、お知らせにて通知"
  },
  {
    "id": "572210375",
    "name": "ケアセンター　ほほえみ",
    "kana": "ケアセンターホホエミ",
    "address": "秋田県山本郡三種町森岳字木戸沢115-16",
    "lat": 40.0880833,
    "lng": 140.0931789,
    "tel": "0185-72-4343",
    "url": "http://www.cc-hohoemi.co.jp",
    "pref": "秋田県",
    "city": "三種町",
    "category": "day_service",
    "serviceType": "通所介護",
    "capacity": 0,
    "openDays": [
      "平日",
      "土曜日",
      "祝日"
    ],
    "openDaysNote": "土曜・祝祭日も営業しております"
  },
  {
    "id": "572201432",
    "name": "希望苑デイサービスセンター",
    "kana": "キボウエンデイサービスセンター",
    "address": "秋田県山本郡三種町鹿渡字町後２５０－２",
    "lat": 40.0403278,
    "lng": 140.0768387,
    "tel": "0185-72-2300",
    "url": "http://www.kibo-en.or.jp/",
    "pref": "秋田県",
    "city": "三種町",
    "category": "day_service",
    "serviceType": "通所介護",
    "capacity": 25,
    "openDays": [
      "平日",
      "土曜日",
      "祝日"
    ],
    "openDaysNote": ""
  },
  {
    "id": "572214211",
    "name": "三種町社会福祉協議会　山本デイサービスセンター",
    "kana": "ミタネチョウシャカイフクシキョウギカイ　ヤマモトデイサービスセンター",
    "address": "秋田県山本郡三種町森岳字上台93-5",
    "lat": 40.0797843,
    "lng": 140.0920349,
    "tel": "0185-83-4889",
    "url": "https://mitane-shakyo.jp/",
    "pref": "秋田県",
    "city": "三種町",
    "category": "day_service",
    "serviceType": "通所介護",
    "capacity": 0,
    "openDays": [
      "平日",
      "土曜日",
      "祝日"
    ],
    "openDaysNote": "天災その他やむを得ず業務を遂行できない日。"
  },
  {
    "id": "572205037",
    "name": "美幸苑デイサービスセンター",
    "kana": "ビコウエンデイサービスセンター",
    "address": "秋田県山本郡三種町鵜川字西本田８２番地１",
    "lat": 40.1005709,
    "lng": 140.0066338,
    "tel": "0185-72-1233",
    "url": "http://bikoen.net/",
    "pref": "秋田県",
    "city": "三種町",
    "category": "day_service",
    "serviceType": "通所介護",
    "capacity": 0,
    "openDays": [
      "平日",
      "土曜日",
      "祝日"
    ],
    "openDaysNote": ""
  },
  {
    "id": "570903641",
    "name": "ケアホームおおゆデイサービスセンター",
    "kana": "ケアホームオオユデイサービスセンター",
    "address": "秋田県鹿角市十和田大湯字湯の岱一丁目一番地",
    "lat": 40.2965997,
    "lng": 140.8347931,
    "tel": "0186-30-4010",
    "url": "http://aiseikai.or.jp",
    "pref": "秋田県",
    "city": "鹿角市",
    "category": "day_service",
    "serviceType": "通所介護",
    "capacity": 0,
    "openDays": [
      "平日",
      "土曜日",
      "祝日"
    ],
    "openDaysNote": ""
  },
  {
    "id": "570909499",
    "name": "医療法人楽山会　デイサービスセンター温泉保養館おおゆ",
    "kana": "イリョウホウジンラクザンカイ　デイサービスセンターオンセンホヨウカンオオユ",
    "address": "秋田県鹿角市十和田大湯字川原の湯9番地3",
    "lat": 40.292739,
    "lng": 140.8229106,
    "tel": "0186-30-4601",
    "url": "http://www.ink.or.jp/~hoyokan/",
    "pref": "秋田県",
    "city": "鹿角市",
    "category": "day_service",
    "serviceType": "通所介護",
    "capacity": 0,
    "openDays": [
      "平日",
      "土曜日",
      "祝日"
    ],
    "openDaysNote": ""
  },
  {
    "id": "570904631",
    "name": "医療法人恵愛会　鹿角中央病院デイサービスセンター",
    "kana": "イリョウホウジンケイアイカイカヅノチュウオウビョウインデイサービスセンター",
    "address": "秋田県鹿角市花輪字扇の間７－１",
    "lat": 40.2006741,
    "lng": 140.7905089,
    "tel": "0186-31-0120",
    "url": "http://keiai4131.cloudfree.jp",
    "pref": "秋田県",
    "city": "鹿角市",
    "category": "day_service",
    "serviceType": "通所介護",
    "capacity": 75,
    "openDays": [
      "平日",
      "土曜日",
      "日曜日",
      "祝日"
    ],
    "openDaysNote": ""
  },
  {
    "id": "570902098",
    "name": "東恵園指定通所介護事業所",
    "kana": "トウケイエンシテイツウショカイゴジギョウショ",
    "address": "秋田県鹿角市花輪字古館５番地１",
    "lat": 40.1943141,
    "lng": 140.8035525,
    "tel": "0186-31-0100",
    "url": "http://a-hanawafukushikai.jp",
    "pref": "秋田県",
    "city": "鹿角市",
    "category": "day_service",
    "serviceType": "通所介護",
    "capacity": 0,
    "openDays": [
      "平日",
      "土曜日",
      "日曜日",
      "祝日"
    ],
    "openDaysNote": ""
  },
  {
    "id": "570126508",
    "name": "きたえるーむ秋田泉",
    "kana": "キタエルームアキタイズミ",
    "address": "秋田県秋田市泉中央4丁目18-15",
    "lat": 39.7333246741514,
    "lng": 140.117358967398,
    "tel": "018-893-6313",
    "url": "http://kitaeroom.com",
    "pref": "秋田県",
    "city": "秋田市",
    "category": "day_service",
    "serviceType": "通所介護",
    "capacity": 0,
    "openDays": [
      "平日"
    ],
    "openDaysNote": ""
  },
  {
    "id": "570126490",
    "name": "きたえるーむ秋田土崎",
    "kana": "キタエルームアキタツチザキ",
    "address": "秋田県秋田市土崎港相染町大谷地３６－１１８",
    "lat": 39.771942,
    "lng": 140.0687496,
    "tel": "018-853-7191",
    "url": "http://kitaeroom.com/shop/post-123.shtml",
    "pref": "秋田県",
    "city": "秋田市",
    "category": "day_service",
    "serviceType": "通所介護",
    "capacity": 28,
    "openDays": [
      "平日"
    ],
    "openDaysNote": "単位ごとのサービス提供時間　(①9:00～12:05　②13:30～16:35）"
  },
  {
    "id": "570124347",
    "name": "きらら通所介護事業所竿燈通り",
    "kana": "キララツウショカイゴジギョウショカントウドオリ",
    "address": "秋田県秋田市大町２丁目５番１号きららアーバンパレス　３階 きららアーバンパレス　３階",
    "lat": 39.7188474,
    "lng": 140.1135355,
    "tel": "018-895-7280",
    "url": "http://www.kirara-tp.co.jp/",
    "pref": "秋田県",
    "city": "秋田市",
    "category": "day_service",
    "serviceType": "通所介護",
    "capacity": 0,
    "openDays": [
      "平日",
      "土曜日",
      "日曜日",
      "祝日"
    ],
    "openDaysNote": ""
  },
  {
    "id": "570110924",
    "name": "ケアセンターきらら通所介護事業所",
    "kana": "ケアセンターキララツウショカイゴジギョウショ",
    "address": "秋田県秋田市太平山谷字中山谷317－1",
    "lat": 39.7295846817355,
    "lng": 140.267536110976,
    "tel": "018-889-7272",
    "url": "http://kirara-tp.co.jp",
    "pref": "秋田県",
    "city": "秋田市",
    "category": "day_service",
    "serviceType": "通所介護",
    "capacity": 0,
    "openDays": [
      "平日",
      "土曜日",
      "日曜日",
      "祝日"
    ],
    "openDaysNote": ""
  },
  {
    "id": "570126748",
    "name": "コンパスウォーク山王",
    "kana": "コンパスウォークサンノウ",
    "address": "秋田県秋田市山王沼田町11-6",
    "lat": 39.7138429904571,
    "lng": 140.090820464418,
    "tel": "018-853-7460",
    "url": "",
    "pref": "秋田県",
    "city": "秋田市",
    "category": "day_service",
    "serviceType": "通所介護",
    "capacity": 0,
    "openDays": [
      "平日",
      "祝日"
    ],
    "openDaysNote": ""
  },
  {
    "id": "570115477",
    "name": "さとみ温泉　ゆったり倶楽部",
    "kana": "サトミオンセンユッタリクラブ",
    "address": "秋田市添川字境内川原　１４２－１",
    "lat": 39.7486113763231,
    "lng": 140.131241151382,
    "tel": "018-884-0602",
    "url": "http://www.satomi-e.com",
    "pref": "秋田県",
    "city": "秋田市",
    "category": "day_service",
    "serviceType": "通所介護",
    "capacity": 0,
    "openDays": [
      "平日",
      "土曜日"
    ],
    "openDaysNote": ""
  },
  {
    "id": "570110346",
    "name": "さとみ温泉　りらっくす倶楽部",
    "kana": "サトミオンセンリラックスクラブ",
    "address": "秋田市　添川　字　境内川原　１４２－１",
    "lat": 39.7485618826398,
    "lng": 140.131329664279,
    "tel": "018-893-5547",
    "url": "http://www.satomi-e.com",
    "pref": "秋田県",
    "city": "秋田市",
    "category": "day_service",
    "serviceType": "通所介護",
    "capacity": 50,
    "openDays": [
      "平日",
      "土曜日"
    ],
    "openDaysNote": ""
  },
  {
    "id": "570120899",
    "name": "ジョイリハ秋田寺内",
    "kana": "ジョイリハアキタテラウチ",
    "address": "秋田県秋田市寺内イサノ６０－２",
    "lat": 39.7384973,
    "lng": 140.0925557,
    "tel": "018-896-4154",
    "url": "http://www.joyreha.co.jp/",
    "pref": "秋田県",
    "city": "秋田市",
    "category": "day_service",
    "serviceType": "通所介護",
    "capacity": 0,
    "openDays": [
      "平日",
      "祝日"
    ],
    "openDaysNote": ""
  },
  {
    "id": "570121780",
    "name": "ジョイリハ秋田仁井田",
    "kana": "ジョイリハアキタニイダ",
    "address": "秋田県秋田市仁井田二ツ屋1-3-49",
    "lat": 39.6926481,
    "lng": 140.1216277,
    "tel": "018-893-3011",
    "url": "https://joyreha.co.jp/",
    "pref": "秋田県",
    "city": "秋田市",
    "category": "day_service",
    "serviceType": "通所介護",
    "capacity": 0,
    "openDays": [
      "平日",
      "土曜日",
      "祝日"
    ],
    "openDaysNote": "12月30日～1月3日と8月13日～8月15日、水曜日・日曜日以外の祝日は営業しております。"
  },
  {
    "id": "570112821",
    "name": "スマイル輝",
    "kana": "スマイルカガヤキ",
    "address": "秋田市将軍野東一丁目4番38号",
    "lat": 39.7545034,
    "lng": 140.0836227,
    "tel": "018-846-6868",
    "url": "",
    "pref": "秋田県",
    "city": "秋田市",
    "category": "day_service",
    "serviceType": "通所介護",
    "capacity": 0,
    "openDays": [
      "平日",
      "土曜日",
      "祝日"
    ],
    "openDaysNote": "営業時間中サービス提供時間午前９時３０分～午後４時４５分"
  },
  {
    "id": "570126656",
    "name": "ツクイ秋田茨島",
    "kana": "ツクイアキタバラジマ",
    "address": "秋田市茨島二丁目１１番６５号",
    "lat": 39.7001805,
    "lng": 140.1042899,
    "tel": "０１８－８６７－８８０１",
    "url": "https://corp.tsukui.net",
    "pref": "秋田県",
    "city": "秋田市",
    "category": "day_service",
    "serviceType": "通所介護",
    "capacity": 34,
    "openDays": [
      "平日",
      "土曜日",
      "日曜日",
      "祝日"
    ],
    "openDaysNote": "３６５日、年中無休"
  },
  {
    "id": "570126649",
    "name": "ツクイ秋田川尻",
    "kana": "ツクイアキタカワシリ",
    "address": "秋田県秋田市川尻御休町5-12",
    "lat": 39.713318,
    "lng": 140.0964523,
    "tel": "018-896-5442",
    "url": "http://www.tsukui.net",
    "pref": "秋田県",
    "city": "秋田市",
    "category": "day_service",
    "serviceType": "通所介護",
    "capacity": 0,
    "openDays": [
      "平日",
      "土曜日",
      "日曜日",
      "祝日"
    ],
    "openDaysNote": ""
  },
  {
    "id": "570126672",
    "name": "ツクイ秋田土崎",
    "kana": "ツクイアキタツチザキ",
    "address": "秋田県秋田市土崎港相染町字中谷地182-1",
    "lat": 39.7640119,
    "lng": 140.0660105,
    "tel": "018-816-0161",
    "url": "http://www.tsukui.net",
    "pref": "秋田県",
    "city": "秋田市",
    "category": "day_service",
    "serviceType": "通所介護",
    "capacity": 40,
    "openDays": [
      "平日",
      "土曜日",
      "日曜日",
      "祝日"
    ],
    "openDaysNote": "年中無休で営業しております。"
  },
  {
    "id": "570126060",
    "name": "つどい処グッと楽デイサービスセンター悠々くらぶ",
    "kana": "ツドイドコログットラクデイサービスセンターユウユウクラブ",
    "address": "秋田県秋田市土崎港東四丁目2-43",
    "lat": 39.7532757,
    "lng": 140.0822728,
    "tel": "018-816-0520",
    "url": "http://hp.kaipoke.biz/dzv/",
    "pref": "秋田県",
    "city": "秋田市",
    "category": "day_service",
    "serviceType": "通所介護",
    "capacity": 0,
    "openDays": [
      "平日",
      "土曜日",
      "祝日"
    ],
    "openDaysNote": "年末・年始（12月30～1月3日）定休日"
  },
  {
    "id": "570116764",
    "name": "デイサービス　赤とんぼ",
    "kana": "デイサービス　アカトンボ",
    "address": "秋田市雄和女米木字高麓沢45",
    "lat": 39.5434852,
    "lng": 140.2070849,
    "tel": "018-886-4126",
    "url": "http://www.kankyowebtown.com/akatonbo/menu2.html",
    "pref": "秋田県",
    "city": "秋田市",
    "category": "day_service",
    "serviceType": "通所介護",
    "capacity": 30,
    "openDays": [
      "平日",
      "土曜日",
      "祝日"
    ],
    "openDaysNote": "令和6年10月から日曜日が定休日になりました。"
  },
  {
    "id": "570119172",
    "name": "デイサービスおぐら",
    "kana": "デイサービスオグラ",
    "address": "秋田市河辺和田字坂本北470－4",
    "lat": 39.6568087,
    "lng": 140.2401102,
    "tel": "018-893-4546",
    "url": "http://www.ogura2011.jp",
    "pref": "秋田県",
    "city": "秋田市",
    "category": "day_service",
    "serviceType": "通所介護",
    "capacity": 20,
    "openDays": [
      "平日",
      "土曜日",
      "祝日"
    ],
    "openDaysNote": ""
  },
  {
    "id": "570126516",
    "name": "デイサービスきたえるーむ秋田広面",
    "kana": "デイサービスキタエルームアキタヒロオモテ",
    "address": "秋田県秋田市広面字家ノ下91-3",
    "lat": 39.7234747,
    "lng": 140.140828,
    "tel": "018-838-7460",
    "url": "http://kitaeroom.com/",
    "pref": "秋田県",
    "city": "秋田市",
    "category": "day_service",
    "serviceType": "通所介護",
    "capacity": null,
    "openDays": [
      "平日"
    ],
    "openDaysNote": ""
  },
  {
    "id": "570112664",
    "name": "デイサービスコリウス",
    "kana": "デイサービスコリウス",
    "address": "秋田市仁井田字大野174-3",
    "lat": 39.6813492,
    "lng": 140.1154093,
    "tel": "018-839-4600",
    "url": "https://27ows.hp.peraichi.com",
    "pref": "秋田県",
    "city": "秋田市",
    "category": "day_service",
    "serviceType": "通所介護",
    "capacity": 20,
    "openDays": [
      "平日",
      "土曜日",
      "祝日"
    ],
    "openDaysNote": "お盆期間、年末年始に関してはお休みとなることがあります。（改行）お客様及び、各事業所様へお休み期間に関しましてはご通知しております。"
  },
  {
    "id": "570113498",
    "name": "デイサービスセンターあいらんど",
    "kana": "デイサービスセンターアイランド",
    "address": "秋田市飯島新町1丁目3番15号",
    "lat": 39.764233,
    "lng": 140.0896357,
    "tel": "018-880-6688",
    "url": "http://www.aizenkai.com",
    "pref": "秋田県",
    "city": "秋田市",
    "category": "day_service",
    "serviceType": "通所介護",
    "capacity": 25,
    "openDays": [
      "平日",
      "土曜日",
      "祝日"
    ],
    "openDaysNote": ""
  },
  {
    "id": "572409662",
    "name": "デイサービスセンター緑水苑",
    "kana": "デイサービスセンターリョクスイエン",
    "address": "秋田県秋田市雄和石田字苗代沢25-1",
    "lat": 39.5956918,
    "lng": 140.1713754,
    "tel": "018-886-5110",
    "url": "http://www.yuuwafukushikai.or.jp/",
    "pref": "秋田県",
    "city": "秋田市",
    "category": "day_service",
    "serviceType": "通所介護",
    "capacity": 30,
    "openDays": [
      "平日",
      "祝日"
    ],
    "openDaysNote": "12月31日から1月3日の期間は休業することがある。"
  },
  {
    "id": "570109116",
    "name": "デイサービスひなたぼっこの家",
    "kana": "デイサービスヒナタボッコノイエ",
    "address": "秋田市茨島四丁目５番１０号",
    "lat": 39.69578,
    "lng": 140.102074,
    "tel": "018-896-0071",
    "url": "",
    "pref": "秋田県",
    "city": "秋田市",
    "category": "day_service",
    "serviceType": "通所介護",
    "capacity": 0,
    "openDays": [
      "平日",
      "土曜日",
      "日曜日",
      "祝日"
    ],
    "openDaysNote": "年中無休で営業しております。"
  },
  {
    "id": "570104794",
    "name": "ニチイケアセンター秋田",
    "kana": "ニチイケアセンターアキタ",
    "address": "秋田県秋田市卸町5丁目1-33",
    "lat": 39.6956524,
    "lng": 140.1056181,
    "tel": "018-895-7521",
    "url": "http://www.nichiigakkan.co.jp",
    "pref": "秋田県",
    "city": "秋田市",
    "category": "day_service",
    "serviceType": "通所介護",
    "capacity": 0,
    "openDays": [
      "平日",
      "土曜日",
      "祝日"
    ],
    "openDaysNote": ""
  },
  {
    "id": "570106294",
    "name": "ファミリー園デイサービスセンター",
    "kana": "ファミリーエンデイサービスセンター",
    "address": "秋田県秋田市桜一丁目4番21号",
    "lat": 39.7105855,
    "lng": 140.1447832,
    "tel": "018-887-3066",
    "url": "https://familyen.sakura.ne.jp",
    "pref": "秋田県",
    "city": "秋田市",
    "category": "day_service",
    "serviceType": "通所介護",
    "capacity": 0,
    "openDays": [
      "平日",
      "土曜日",
      "祝日"
    ],
    "openDaysNote": "お盆、年末、行事等により利用時間が短縮される場合があります。"
  },
  {
    "id": "570123505",
    "name": "まごころデイサービスセンター",
    "kana": "マゴコロデイサービスセンター",
    "address": "秋田県秋田市牛島西一丁目10番16号",
    "lat": 39.6951736723308,
    "lng": 140.111522696959,
    "tel": "018-884-1151",
    "url": "https://www.saint-care.com/niji/",
    "pref": "秋田県",
    "city": "秋田市",
    "category": "day_service",
    "serviceType": "通所介護",
    "capacity": 20,
    "openDays": [
      "平日",
      "土曜日",
      "祝日"
    ],
    "openDaysNote": "1月１日は休日の扱いとなります。"
  },
  {
    "id": "570102046",
    "name": "みそのホームデイサービスセンター",
    "kana": "ミソノホームデイサービスセンター",
    "address": "秋田県秋田市寺内蛭根２丁目６番３４号",
    "lat": 39.730259,
    "lng": 140.0869039,
    "tel": "018-824-3341",
    "url": "https://www.misono-f.com/senior/day_service/index.html",
    "pref": "秋田県",
    "city": "秋田市",
    "category": "day_service",
    "serviceType": "通所介護",
    "capacity": 0,
    "openDays": [
      "平日",
      "土曜日",
      "祝日"
    ],
    "openDaysNote": "年末年始の休みは12/31から1/3までです。お盆休みはありません。"
  },
  {
    "id": "570116277",
    "name": "みらいデイサ－ビスセンタ－",
    "kana": "ミライデイサ－ビスセンタ－",
    "address": "秋田県秋田市川尻上野町１番１９号",
    "lat": 39.7090589,
    "lng": 140.1018899,
    "tel": "018-896-0707",
    "url": "https://mirai-care.net",
    "pref": "秋田県",
    "city": "秋田市",
    "category": "day_service",
    "serviceType": "通所介護",
    "capacity": 0,
    "openDays": [
      "平日",
      "土曜日",
      "祝日"
    ],
    "openDaysNote": "その他休日　８月１３日・１４日　１２月３０日～１月３日"
  },
  {
    "id": "570114769",
    "name": "やすらぎの郷",
    "kana": "ヤスラギノサト",
    "address": "秋田県秋田市泉中央五丁目1番16号",
    "lat": 39.7314126,
    "lng": 140.1121488,
    "tel": "018-838-4500",
    "url": "https://www.saint-care.com/niji",
    "pref": "秋田県",
    "city": "秋田市",
    "category": "day_service",
    "serviceType": "通所介護",
    "capacity": 0,
    "openDays": [
      "平日",
      "土曜日",
      "祝日"
    ],
    "openDaysNote": ""
  },
  {
    "id": "570106278",
    "name": "リンデンバウムいずみデイサービスセンター",
    "kana": "リンデンバウムイズミデイサービスセンター",
    "address": "秋田県秋田市泉菅野二丁目１７番１１号リンデンバウムいずみ リンデンバウムいずみ",
    "lat": 39.7360816,
    "lng": 140.115076,
    "tel": "018-896-5887",
    "url": "http://www.izumi.akita.jp/",
    "pref": "秋田県",
    "city": "秋田市",
    "category": "day_service",
    "serviceType": "通所介護",
    "capacity": 0,
    "openDays": [
      "平日",
      "土曜日",
      "祝日"
    ],
    "openDaysNote": "年末年始休み有　（１２月３１日～１月３日）"
  },
  {
    "id": "570106054",
    "name": "旭川デイサービスセンター",
    "kana": "アサヒカワデイサービスセンター",
    "address": "秋田県秋田市添川字地ノ内１４３－５",
    "lat": 39.7504249,
    "lng": 140.134379,
    "tel": "018-884-1897",
    "url": "http://caremaneakita.ec-net.jp/",
    "pref": "秋田県",
    "city": "秋田市",
    "category": "day_service",
    "serviceType": "通所介護",
    "capacity": 0,
    "openDays": [
      "平日",
      "土曜日",
      "祝日"
    ],
    "openDaysNote": "利用者の状況により変更あり"
  },
  {
    "id": "570113662",
    "name": "御野場病院デイサービスセンター",
    "kana": "オノバビョウインデイサービスセンター",
    "address": "秋田市御野場４丁目３番４号御野場病院在宅ケアセンター 御野場病院在宅ケアセンター",
    "lat": 39.6724647,
    "lng": 140.1330384,
    "tel": "018-829-3410",
    "url": "http://seikankai.or.jp",
    "pref": "秋田県",
    "city": "秋田市",
    "category": "day_service",
    "serviceType": "通所介護",
    "capacity": 0,
    "openDays": [
      "平日",
      "土曜日",
      "祝日"
    ],
    "openDaysNote": ""
  },
  {
    "id": "570107128",
    "name": "社会福祉法人幸楽会　外旭川デイサービスセンター幸",
    "kana": "シャカイフクシホウジンコウラクカイ　ソトアサヒカワデイサービスセンターサチ",
    "address": "秋田県秋田市外旭川字鳥谷場136番地",
    "lat": 39.7526095,
    "lng": 140.0927802,
    "tel": "018-868-5415",
    "url": "http://www.kourakukai.or.jp",
    "pref": "秋田県",
    "city": "秋田市",
    "category": "day_service",
    "serviceType": "通所介護",
    "capacity": 0,
    "openDays": [
      "平日",
      "土曜日",
      "祝日"
    ],
    "openDaysNote": ""
  },
  {
    "id": "570110007",
    "name": "社会福祉法人晃和会　ひだまりデイサービスセンター",
    "kana": "シャカイフクシホウジンコウワカイ　ヒダマリデイサービスセンター",
    "address": "秋田県秋田市東通仲町４－１　秋田拠点センターアルヴェ５階",
    "lat": 39.71594,
    "lng": 140.1314118,
    "tel": "018-884-1400",
    "url": "http://www.kouwakai-akita.org/",
    "pref": "秋田県",
    "city": "秋田市",
    "category": "day_service",
    "serviceType": "通所介護",
    "capacity": 0,
    "openDays": [
      "平日",
      "土曜日",
      "祝日"
    ],
    "openDaysNote": ""
  },
  {
    "id": "570103754",
    "name": "社会福祉法人秋田県厚生協会　南寿園デイサービスセンター",
    "kana": "シャカイフクシホウジンアキタケンコウセイキョウカイ　ナンジュエンデイサービスセンター",
    "address": "秋田県秋田市上北手猿田字後谷地１０８－３",
    "lat": 39.6814676,
    "lng": 140.169932,
    "tel": "018-829-0991",
    "url": "http://www.akitaken-kouseikyoukai.jp",
    "pref": "秋田県",
    "city": "秋田市",
    "category": "day_service",
    "serviceType": "通所介護",
    "capacity": 33,
    "openDays": [
      "平日",
      "土曜日",
      "祝日"
    ],
    "openDaysNote": ""
  },
  {
    "id": "570101733",
    "name": "秋田けやき会デイサービスセンター",
    "kana": "アキタケヤキカイデイサービスセンター",
    "address": "秋田県秋田市御所野下堤五丁目１番５号",
    "lat": 39.6668883,
    "lng": 140.1549339,
    "tel": "018-838-6372",
    "url": "http://akita-keyaki.or.jp/",
    "pref": "秋田県",
    "city": "秋田市",
    "category": "day_service",
    "serviceType": "通所介護",
    "capacity": 0,
    "openDays": [
      "平日",
      "祝日"
    ],
    "openDaysNote": ""
  },
  {
    "id": "570112193",
    "name": "秋田ひまわりの家デイサービス",
    "kana": "アキタヒマワリノイエデイサービス",
    "address": "秋田県秋田市下北手桜字新桜谷地８５番地",
    "lat": 39.7165076,
    "lng": 140.1636367,
    "tel": "018-887-5221",
    "url": "http://www.himawarinoie.co.jp",
    "pref": "秋田県",
    "city": "秋田市",
    "category": "day_service",
    "serviceType": "通所介護",
    "capacity": 30,
    "openDays": [
      "平日",
      "土曜日",
      "日曜日",
      "祝日"
    ],
    "openDaysNote": ""
  },
  {
    "id": "570114009",
    "name": "秋田市北部デイサービスセンターゆりかご",
    "kana": "アキタシホクブデイサービスセンターユリカゴ",
    "address": "秋田県秋田市飯島字寄進田９４－１",
    "lat": 39.7927045,
    "lng": 140.0635664,
    "tel": "018-816-0065",
    "url": "",
    "pref": "秋田県",
    "city": "秋田市",
    "category": "day_service",
    "serviceType": "通所介護",
    "capacity": 0,
    "openDays": [
      "平日",
      "祝日"
    ],
    "openDaysNote": "土曜日、日曜日、年末年始転送電話にて対応しております。"
  },
  {
    "id": "570102939",
    "name": "松寿会指定通所介護事業所",
    "kana": "ショウジュカイシテイツウショカイゴジギョウショ",
    "address": "秋田県秋田市浜田字陳ヶ原35番地13",
    "lat": 39.6523155,
    "lng": 140.0679681,
    "tel": "018-828-6678",
    "url": "http://shoujukai.jp/",
    "pref": "秋田県",
    "city": "秋田市",
    "category": "day_service",
    "serviceType": "通所介護",
    "capacity": 0,
    "openDays": [
      "平日",
      "土曜日",
      "祝日"
    ],
    "openDaysNote": "年末については１２月３０日が日曜日の場合は１２月２９日までの営業となります。同様に年始については１月４日が日曜日の場合は１月５日からの営業となります。"
  },
  {
    "id": "570102269",
    "name": "通所介護施設　新成園",
    "kana": "ツウショカイゴシセツ　シンセイエン",
    "address": "秋田市浜田字元中村280－9",
    "lat": 39.6800283,
    "lng": 140.0694835,
    "tel": "018-828-0022",
    "url": "http://shinseikai-akita.com",
    "pref": "秋田県",
    "city": "秋田市",
    "category": "day_service",
    "serviceType": "通所介護",
    "capacity": 0,
    "openDays": [
      "平日",
      "土曜日",
      "祝日"
    ],
    "openDaysNote": "なし"
  },
  {
    "id": "570119339",
    "name": "八橋デイサービスセンター",
    "kana": "ヤバセデイサービスセンター",
    "address": "秋田県秋田市八橋南一丁目８－２",
    "lat": 39.7203629,
    "lng": 140.092079,
    "tel": "018-866-1343",
    "url": "http://www.akita-city-shakyo.jp/",
    "pref": "秋田県",
    "city": "秋田市",
    "category": "day_service",
    "serviceType": "通所介護",
    "capacity": 0,
    "openDays": [
      "平日",
      "土曜日"
    ],
    "openDaysNote": ""
  },
  {
    "id": "571226745",
    "name": "コンパスウォーク角館",
    "kana": "コンパスウォークカクノダテ",
    "address": "秋田県仙北市角館町小勝田下村117-2",
    "lat": 39.5986268,
    "lng": 140.5533642,
    "tel": "0187-49-6653",
    "url": "https://keigo-group.co.jp/shop/akitaken/1159/",
    "pref": "秋田県",
    "city": "仙北市",
    "category": "day_service",
    "serviceType": "通所介護",
    "capacity": 0,
    "openDays": [
      "平日",
      "祝日"
    ],
    "openDaysNote": ""
  },
  {
    "id": "571226752",
    "name": "コンパスウォーク神代",
    "kana": "コンパスウォークジンダイ",
    "address": "秋田県仙北市田沢湖小松字二枚橋81番地",
    "lat": 39.6103661,
    "lng": 140.5757655,
    "tel": "0187-42-8307",
    "url": "https://keigo-group.co.jp/shop/akitaken/11591/",
    "pref": "秋田県",
    "city": "仙北市",
    "category": "day_service",
    "serviceType": "通所介護",
    "capacity": 0,
    "openDays": [
      "平日",
      "祝日"
    ],
    "openDaysNote": ""
  },
  {
    "id": "571223528",
    "name": "デイサービスセンター　ささえ愛",
    "kana": "デイサービスセンター　ササエアイ",
    "address": "秋田県仙北市田沢湖卒田字北竹原３９番地3",
    "lat": 39.6203169,
    "lng": 140.6174954,
    "tel": "0187-42-8666",
    "url": "http://www.t-sasaeai.com",
    "pref": "秋田県",
    "city": "仙北市",
    "category": "day_service",
    "serviceType": "通所介護",
    "capacity": 0,
    "openDays": [
      "平日",
      "土曜日",
      "祝日"
    ],
    "openDaysNote": "●8/13（改行）●12/31・1/1（改行）お盆・正月は、上記の期間を休業します。"
  },
  {
    "id": "571215995",
    "name": "デイサービスふるさと通所介護事業所",
    "kana": "デイサービスフルサトツウショカイゴジギョウショ",
    "address": "秋田県仙北市田沢湖角館東前郷字杉林171-3",
    "lat": 39.6225569,
    "lng": 140.5724553,
    "tel": "0187-44-3453",
    "url": "",
    "pref": "秋田県",
    "city": "仙北市",
    "category": "day_service",
    "serviceType": "通所介護",
    "capacity": 0,
    "openDays": [
      "平日",
      "土曜日",
      "祝日"
    ],
    "openDaysNote": ""
  },
  {
    "id": "572610285",
    "name": "デイサービス角館さくらさくら",
    "kana": "デイサービスカクノダテサクラサクラ",
    "address": "秋田県仙北市角館町中菅沢84番地",
    "lat": 39.5890612,
    "lng": 140.567799,
    "tel": "0187-55-1117",
    "url": "https://www.kennanfukusi.jp/sakurasakura/#sisetu1",
    "pref": "秋田県",
    "city": "仙北市",
    "category": "day_service",
    "serviceType": "通所介護",
    "capacity": 50,
    "openDays": [
      "平日",
      "土曜日",
      "祝日"
    ],
    "openDaysNote": "なし"
  },
  {
    "id": "572604692",
    "name": "ハッピーデイ西木",
    "kana": "ハッピーデイニシキ",
    "address": "秋田県仙北市西木町桧木内字松葉２３２番地",
    "lat": 39.743207,
    "lng": 140.5910882,
    "tel": "0187-58-2102",
    "url": "https://www.kennanfukusi.jp/seiryuen/#sisetu1",
    "pref": "秋田県",
    "city": "仙北市",
    "category": "day_service",
    "serviceType": "通所介護",
    "capacity": 0,
    "openDays": [
      "平日"
    ],
    "openDaysNote": "なし"
  },
  {
    "id": "570401117",
    "name": "ケアセンター一心堂",
    "kana": "ケアセンター　イッシンドウ",
    "address": "大館市東台2丁目１－７５－２",
    "lat": 40.2704915,
    "lng": 140.5743068,
    "tel": "0186-49-3433",
    "url": "https://www.isshin-do.com",
    "pref": "秋田県",
    "city": "大館市",
    "category": "day_service",
    "serviceType": "通所介護",
    "capacity": 50,
    "openDays": [
      "平日",
      "土曜日",
      "日曜日",
      "祝日"
    ],
    "openDaysNote": ""
  },
  {
    "id": "570425785",
    "name": "デイサービスセンター　みどりの丘",
    "kana": "デイサービスセンター　ミドリノオカ",
    "address": "秋田県大館市釈迦内字台野道上102-13",
    "lat": 40.3017264,
    "lng": 140.5654696,
    "tel": "0186-59-5201",
    "url": "",
    "pref": "秋田県",
    "city": "大館市",
    "category": "day_service",
    "serviceType": "通所介護",
    "capacity": 0,
    "openDays": [
      "平日",
      "土曜日",
      "日曜日",
      "祝日"
    ],
    "openDaysNote": ""
  },
  {
    "id": "570414391",
    "name": "デイサービスセンター　大館南",
    "kana": "デイサービスセンター　　オオダテミナミ",
    "address": "秋田県大館市下川原字向野17番地4",
    "lat": 40.2442016,
    "lng": 140.5256148,
    "tel": "0186-44-5988",
    "url": "http://www.fukuokf.jp/",
    "pref": "秋田県",
    "city": "大館市",
    "category": "day_service",
    "serviceType": "通所介護",
    "capacity": 0,
    "openDays": [
      "平日",
      "土曜日",
      "祝日"
    ],
    "openDaysNote": ""
  },
  {
    "id": "570421883",
    "name": "デイサービスセンターあったかサロン",
    "kana": "デイサービスセンターアッタカサロン",
    "address": "秋田県大館市観音堂字391デイサービスセンターあったかサロン デイサービスセンターあったかサロン",
    "lat": 40.2798880463703,
    "lng": 140.579305618971,
    "tel": "0186-57-8545",
    "url": "http://kk-tact.com",
    "pref": "秋田県",
    "city": "大館市",
    "category": "day_service",
    "serviceType": "通所介護",
    "capacity": 5,
    "openDays": [
      "平日",
      "土曜日",
      "日曜日",
      "祝日"
    ],
    "openDaysNote": "サービス提供時間は営業日の9：30～16：30"
  },
  {
    "id": "570422253",
    "name": "デイサービスセンターいずみ",
    "kana": "デイサービスセンターイズミ",
    "address": "秋田県大館市泉町９番１９号泉町地域ふくしセンター 泉町地域ふくしセンター",
    "lat": 35.4398296,
    "lng": 139.3671079,
    "tel": "0186-44-5301",
    "url": "http://www.fukuokf.jp",
    "pref": "秋田県",
    "city": "大館市",
    "category": "day_service",
    "serviceType": "通所介護",
    "capacity": 30,
    "openDays": [
      "平日",
      "土曜日",
      "祝日"
    ],
    "openDaysNote": ""
  },
  {
    "id": "570404004",
    "name": "デイサービスセンターかみやま",
    "kana": "デイサービスセンターカミヤマ",
    "address": "秋田県大館市花岡町字神山６番地２",
    "lat": 40.3230236,
    "lng": 140.555556,
    "tel": "0186-46-2127",
    "url": "http://www.fukuokf.jp/",
    "pref": "秋田県",
    "city": "大館市",
    "category": "day_service",
    "serviceType": "通所介護",
    "capacity": 0,
    "openDays": [
      "平日",
      "土曜日"
    ],
    "openDaysNote": ""
  },
  {
    "id": "572103992",
    "name": "デイサービスセンターたしろ",
    "kana": "デイサービスセンタータシロ",
    "address": "秋田県大館市岩瀬字羽貫谷地中島２１－９０",
    "lat": 40.2897905,
    "lng": 140.4514771,
    "tel": "0186-54-2900",
    "url": "http://www.fukuokf.jp",
    "pref": "秋田県",
    "city": "大館市",
    "category": "day_service",
    "serviceType": "通所介護",
    "capacity": 0,
    "openDays": [
      "平日",
      "土曜日",
      "祝日"
    ],
    "openDaysNote": ""
  },
  {
    "id": "570426734",
    "name": "デイサービス一心堂ピース",
    "kana": "デイサービスイッシンドウピース",
    "address": "秋田県大館市水門町9-38",
    "lat": 40.2754458,
    "lng": 140.5502772,
    "tel": "0186-59-7735",
    "url": "https://isshin-do.com/",
    "pref": "秋田県",
    "city": "大館市",
    "category": "day_service",
    "serviceType": "通所介護",
    "capacity": 35,
    "openDays": [
      "平日",
      "土曜日",
      "祝日"
    ],
    "openDaysNote": ""
  },
  {
    "id": "570410498",
    "name": "ニチイケアセンター桂城",
    "kana": "ニチイケアセンターケイジョウ",
    "address": "秋田県大館市字水門前5番2",
    "lat": 40.2751599,
    "lng": 140.5571081,
    "tel": "0186-44-5531",
    "url": "http://www.nichiigakkan.co.jp",
    "pref": "秋田県",
    "city": "大館市",
    "category": "day_service",
    "serviceType": "通所介護",
    "capacity": 30,
    "openDays": [
      "平日",
      "土曜日",
      "日曜日",
      "祝日"
    ],
    "openDaysNote": ""
  },
  {
    "id": "570401554",
    "name": "ニチイケアセンター大館",
    "kana": "ニチイケアセンターオオダテ",
    "address": "秋田県大館市釈迦内字中台25-9",
    "lat": 40.3076536,
    "lng": 140.5699051,
    "tel": "0186-45-2251",
    "url": "http://www.nichiigakkan.co.jp",
    "pref": "秋田県",
    "city": "大館市",
    "category": "day_service",
    "serviceType": "通所介護",
    "capacity": 36,
    "openDays": [
      "平日",
      "土曜日",
      "日曜日",
      "祝日"
    ],
    "openDaysNote": ""
  },
  {
    "id": "570425207",
    "name": "よりあいたっこ森ガーデン",
    "kana": "ヨリアイ　タッコモリ　ガーデン",
    "address": "秋田県大館市比内町扇田字扇田423番地",
    "lat": 40.2293354,
    "lng": 140.5761859,
    "tel": "0186-55-3702",
    "url": "http://takkomori.com/",
    "pref": "秋田県",
    "city": "大館市",
    "category": "day_service",
    "serviceType": "通所介護",
    "capacity": 20,
    "openDays": [
      "平日",
      "土曜日",
      "日曜日",
      "祝日"
    ],
    "openDaysNote": ""
  },
  {
    "id": "570418301",
    "name": "介護サービスセンター山王台デイサービス",
    "kana": "カイゴサービスセンターサンノウダイデイサービス",
    "address": "秋田県大館市池内字上野234－1",
    "lat": 40.2556546,
    "lng": 140.5786514,
    "tel": "0186-42-1220",
    "url": "http://www.hinai-fukushikai.jp",
    "pref": "秋田県",
    "city": "大館市",
    "category": "day_service",
    "serviceType": "通所介護",
    "capacity": 30,
    "openDays": [
      "平日",
      "土曜日",
      "祝日"
    ],
    "openDaysNote": ""
  },
  {
    "id": "570405738",
    "name": "指定通所介護事業所水交苑デイサービスセンターのぎく",
    "kana": "シテイツウショカイゴジギョウショスイコウエンデイサービスセンターノギク",
    "address": "大館市字下綱２２番地１",
    "lat": 40.2901286417014,
    "lng": 140.58984126434,
    "tel": "0186-48-6600",
    "url": "https://suikohen.jp/publics/index/43/",
    "pref": "秋田県",
    "city": "大館市",
    "category": "day_service",
    "serviceType": "通所介護",
    "capacity": 3,
    "openDays": [
      "平日",
      "土曜日",
      "日曜日",
      "祝日"
    ],
    "openDaysNote": "機械設備等の他、事業所が定める日を休業日として設ける場合があります。"
  },
  {
    "id": "570415810",
    "name": "大館市デイサービスセンターかつら指定通所介護事業所",
    "kana": "オオダテシデイサービスセンターカツラシテイツウショカイゴジギョウショ",
    "address": "秋田県大館市字三ノ丸１０３番地４大館市総合福祉センター 大館市総合福祉センター",
    "lat": 40.2722355,
    "lng": 140.5634355,
    "tel": "0186-42-8107",
    "url": "http://www.oodate-shakyo.or.jp/",
    "pref": "秋田県",
    "city": "大館市",
    "category": "day_service",
    "serviceType": "通所介護",
    "capacity": 0,
    "openDays": [
      "平日",
      "土曜日",
      "祝日"
    ],
    "openDaysNote": ""
  },
  {
    "id": "570415794",
    "name": "大館市デイサービスセンター大滝",
    "kana": "オオダテシデイサービスセンターオオタキ",
    "address": "秋田県大館市十二所字大水口4番地5",
    "lat": 40.2158174,
    "lng": 140.6582148,
    "tel": "0186-47-7201",
    "url": "http://www.odate-sfj.jp/",
    "pref": "秋田県",
    "city": "大館市",
    "category": "day_service",
    "serviceType": "通所介護",
    "capacity": 30,
    "openDays": [
      "平日",
      "土曜日",
      "祝日"
    ],
    "openDaysNote": "施設の設備等機器点検等の為、臨時に休業することがあります。"
  },
  {
    "id": "570423111",
    "name": "通所介護事業所　COCOいきいき会館",
    "kana": "ツウショカイゴジギョウショ　ココイキイキカイカン",
    "address": "秋田県大館市釈迦内字山道上76-83",
    "lat": 40.297016387615,
    "lng": 140.578684123418,
    "tel": "0186-59-6137",
    "url": "",
    "pref": "秋田県",
    "city": "大館市",
    "category": "day_service",
    "serviceType": "通所介護",
    "capacity": 15,
    "openDays": [
      "平日",
      "祝日"
    ],
    "openDaysNote": "祝日営業（ゴールデンウィーク、お盆、年末年始を除く）（改行）土日以外に休業する場合はあらかじめ通知する"
  },
  {
    "id": "572103885",
    "name": "比内町福祉センターデイサービス",
    "kana": "ヒナイマチフクシセンターデイサービス",
    "address": "秋田県大館市比内町新館字館下79-1",
    "lat": 40.2176815,
    "lng": 140.5826749,
    "tel": "0186-55-1670",
    "url": "http://www.hinai-fukushikai.jp",
    "pref": "秋田県",
    "city": "大館市",
    "category": "day_service",
    "serviceType": "通所介護",
    "capacity": 0,
    "openDays": [
      "平日",
      "土曜日",
      "日曜日",
      "祝日"
    ],
    "openDaysNote": ""
  },
  {
    "id": "570826453",
    "name": "コンパスウォーク大曲",
    "kana": "コンパスウォークオオマガリ",
    "address": "秋田県大仙市花館字鶴田65",
    "lat": 39.4803024,
    "lng": 140.4840647,
    "tel": "0187-73-7976",
    "url": "https://kinoukaifuku.com/?p=470",
    "pref": "秋田県",
    "city": "大仙市",
    "category": "day_service",
    "serviceType": "通所介護",
    "capacity": 0,
    "openDays": [
      "平日",
      "祝日"
    ],
    "openDaysNote": ""
  },
  {
    "id": "570826016",
    "name": "デイサービスあんり",
    "kana": "デイサービスアンリ",
    "address": "秋田県大仙市戸蒔字福田132",
    "lat": 39.4564409,
    "lng": 140.4975565,
    "tel": "0187-63-8000",
    "url": "http:///anri-g.net/",
    "pref": "秋田県",
    "city": "大仙市",
    "category": "day_service",
    "serviceType": "通所介護",
    "capacity": 0,
    "openDays": [
      "平日",
      "土曜日",
      "祝日"
    ],
    "openDaysNote": ""
  },
  {
    "id": "570812727",
    "name": "デイサービスセンター　ハートフル刈和野",
    "kana": "デイサービスセンター　ハートフルカリワノ",
    "address": "秋田県大仙市刈和野字愛宕町17番地1",
    "lat": 39.5443045,
    "lng": 140.3701632,
    "tel": "0187-87-3003",
    "url": "http://warmheart-akita.com",
    "pref": "秋田県",
    "city": "大仙市",
    "category": "day_service",
    "serviceType": "通所介護",
    "capacity": 0,
    "openDays": [
      "平日",
      "土曜日",
      "祝日"
    ],
    "openDaysNote": "ゴールデンウィーク（5月3日～5日）お盆休み（8月13日～15日）・年末年始（12月31日～1月3日）以外の祝祭日は営業"
  },
  {
    "id": "570804880",
    "name": "ナイスデイ大曲",
    "kana": "ナイスデイオオマガリ",
    "address": "秋田県大仙市角間川町字元道巻97番地",
    "lat": 39.398635,
    "lng": 140.4800186,
    "tel": "0187-65-2011",
    "url": "http://www.kennanfukusi.jp/",
    "pref": "秋田県",
    "city": "大仙市",
    "category": "day_service",
    "serviceType": "通所介護",
    "capacity": 0,
    "openDays": [
      "平日",
      "土曜日",
      "祝日"
    ],
    "openDaysNote": "８月第４土曜日（大曲の花火）は時間を変更し営業しております。"
  },
  {
    "id": "570800433",
    "name": "ニチイケアセンター大曲",
    "kana": "ニチイケアセンターオオマガリ",
    "address": "秋田県大仙市四ッ屋字下古道55-1",
    "lat": 39.4917476,
    "lng": 140.4977214,
    "tel": "0187-66-8051",
    "url": "",
    "pref": "秋田県",
    "city": "大仙市",
    "category": "day_service",
    "serviceType": "通所介護",
    "capacity": 25,
    "openDays": [
      "平日",
      "土曜日",
      "日曜日",
      "祝日"
    ],
    "openDaysNote": ""
  },
  {
    "id": "570804898",
    "name": "フレンデイ大曲",
    "kana": "フレンデイオオマガリ",
    "address": "秋田県大仙市飯田字堰東２３５番地",
    "lat": 39.440395,
    "lng": 140.485339,
    "tel": "0187-63-2073",
    "url": "https://www.kennanfukusi.jp/",
    "pref": "秋田県",
    "city": "大仙市",
    "category": "day_service",
    "serviceType": "通所介護",
    "capacity": 0,
    "openDays": [
      "平日",
      "土曜日",
      "祝日"
    ],
    "openDaysNote": ""
  },
  {
    "id": "570824052",
    "name": "リハビリデイ　もみじの家",
    "kana": "リハビリデイ　モミジノイエ",
    "address": "秋田県大仙市戸蒔字谷地中16-3",
    "lat": 39.4500045,
    "lng": 140.5064957,
    "tel": "0187-66-1641",
    "url": "https://momijinoie.com/",
    "pref": "秋田県",
    "city": "大仙市",
    "category": "day_service",
    "serviceType": "通所介護",
    "capacity": 10,
    "openDays": [
      "平日",
      "祝日"
    ],
    "openDaysNote": ""
  },
  {
    "id": "570826131",
    "name": "リハプライド　大曲黒瀬",
    "kana": "リハプライド　オオマガリクロセ",
    "address": "秋田県大仙市大曲黒瀬町4-1サンパークタカナオ1階 サンパークタカナオ1階",
    "lat": 39.4615402,
    "lng": 140.4807861,
    "tel": "0187-73-7336",
    "url": "https://www.rehapride.co.jp/omagarikurose/",
    "pref": "秋田県",
    "city": "大仙市",
    "category": "day_service",
    "serviceType": "通所介護",
    "capacity": 20,
    "openDays": [
      "平日",
      "祝日"
    ],
    "openDaysNote": "お盆休み（8月13日～14日）・正月休み（12月31日～1月3日）"
  },
  {
    "id": "570824615",
    "name": "愛・会いデイサービスセンター",
    "kana": "アイ・アイデイサービスセンター",
    "address": "秋田県大仙市北長野字茶畑29番地",
    "lat": 39.5474913,
    "lng": 140.5443166,
    "tel": "0187-49-6188",
    "url": "https://www.yotsuba.care/",
    "pref": "秋田県",
    "city": "大仙市",
    "category": "day_service",
    "serviceType": "通所介護",
    "capacity": 0,
    "openDays": [
      "平日",
      "土曜日",
      "祝日"
    ],
    "openDaysNote": ""
  },
  {
    "id": "570816850",
    "name": "愛幸園デイサービスセンター",
    "kana": "アイコウエンデイサービスセンター",
    "address": "秋田県大仙市神宮寺字本郷道南７８番地",
    "lat": 39.4915252,
    "lng": 140.417305,
    "tel": "0187-87-1080",
    "url": "https://www.daisen-f.com/shisetu/aikoen/index.php",
    "pref": "秋田県",
    "city": "大仙市",
    "category": "day_service",
    "serviceType": "通所介護",
    "capacity": 0,
    "openDays": [
      "平日",
      "祝日"
    ],
    "openDaysNote": "なし"
  },
  {
    "id": "570812123",
    "name": "真木苑デイサービスセンター",
    "kana": "マギエンデイサービスセンター",
    "address": "秋田県大仙市太田町横沢字窪関南535－1",
    "lat": 39.5099222,
    "lng": 140.5987455,
    "tel": "0187-86-9060",
    "url": "http://www.daisenmisato.net",
    "pref": "秋田県",
    "city": "大仙市",
    "category": "day_service",
    "serviceType": "通所介護",
    "capacity": 25,
    "openDays": [
      "平日"
    ],
    "openDaysNote": ""
  },
  {
    "id": "570819367",
    "name": "虹の楽えん",
    "kana": "ニジノラクエン",
    "address": "秋田県大仙市戸蒔字谷地中11-1",
    "lat": 39.4502695,
    "lng": 140.5055251,
    "tel": "0187-88-8711",
    "url": "https://www.saint-care.com/niji/",
    "pref": "秋田県",
    "city": "大仙市",
    "category": "day_service",
    "serviceType": "通所介護",
    "capacity": 0,
    "openDays": [
      "平日",
      "土曜日",
      "祝日"
    ],
    "openDaysNote": ""
  },
  {
    "id": "570816041",
    "name": "老人デイサービス事業　テンダーヒルズ",
    "kana": "ロウジンデイサービスジギョウ　テンダーヒルズ",
    "address": "秋田県大仙市内小友字明通３６番２",
    "lat": 39.4318009,
    "lng": 140.4382504,
    "tel": "0187-68-2611",
    "url": "http://tenderhills.blog27.fc2.com/",
    "pref": "秋田県",
    "city": "大仙市",
    "category": "day_service",
    "serviceType": "通所介護",
    "capacity": 20,
    "openDays": [
      "平日",
      "土曜日",
      "祝日"
    ],
    "openDaysNote": ""
  },
  {
    "id": "572305613",
    "name": "デイサービスセンター和幸苑　通所介護事業所",
    "kana": "デイサービスセンターワコウエン　ツウショカイゴジギョウショ",
    "address": "秋田県男鹿市角間崎字岡見沢86番地12",
    "lat": 39.9602281,
    "lng": 139.9049199,
    "tel": "0185-46-2011",
    "url": "http://wakami-sakurakai.jp",
    "pref": "秋田県",
    "city": "男鹿市",
    "category": "day_service",
    "serviceType": "通所介護",
    "capacity": 0,
    "openDays": [
      "平日",
      "祝日"
    ],
    "openDaysNote": ""
  },
  {
    "id": "570616839",
    "name": "男鹿市北部デイサービスセンター",
    "kana": "オガシホクブデイサービスセンター",
    "address": "秋田県男鹿市北浦北浦字平岱山2番地24",
    "lat": 39.9517862,
    "lng": 139.7525344,
    "tel": "0185-33-2733",
    "url": "http://www.ogashakyo.com/",
    "pref": "秋田県",
    "city": "男鹿市",
    "category": "day_service",
    "serviceType": "通所介護",
    "capacity": 0,
    "openDays": [
      "平日",
      "土曜日",
      "祝日"
    ],
    "openDaysNote": ""
  },
  {
    "id": "570721712",
    "name": "ＪＡこまちデイサービス　夢こまちほのか",
    "kana": "ジェイエイコマチデイサービス　ユメコマチホノカ",
    "address": "秋田県湯沢市倉内字三ツ屋６番１",
    "lat": 39.1851100921673,
    "lng": 140.464056991927,
    "tel": "０１８３－７８－２０５０",
    "url": "http://ja-komachi.jp",
    "pref": "秋田県",
    "city": "湯沢市",
    "category": "day_service",
    "serviceType": "通所介護",
    "capacity": 0,
    "openDays": [
      "平日",
      "土曜日",
      "祝日"
    ],
    "openDaysNote": ""
  },
  {
    "id": "570713768",
    "name": "ケアセンターいなかわデイサービス",
    "kana": "ケアセンターイナカワデイサービス",
    "address": "秋田県湯沢市駒形町字八面狐塚５８番地",
    "lat": 39.1722855,
    "lng": 140.5543732,
    "tel": "0183-78-5306",
    "url": "http://www.inakawa-fukushi.or.jp/",
    "pref": "秋田県",
    "city": "湯沢市",
    "category": "day_service",
    "serviceType": "通所介護",
    "capacity": 35,
    "openDays": [
      "平日",
      "土曜日",
      "祝日"
    ],
    "openDaysNote": ""
  },
  {
    "id": "570726497",
    "name": "コンパスウォーク湯沢",
    "kana": "コンパスウォークユザワ",
    "address": "秋田県湯沢市材木町2-2-5",
    "lat": 39.1598296,
    "lng": 140.488972,
    "tel": "0183-56-6516",
    "url": "",
    "pref": "秋田県",
    "city": "湯沢市",
    "category": "day_service",
    "serviceType": "通所介護",
    "capacity": null,
    "openDays": [
      "平日",
      "祝日"
    ],
    "openDaysNote": ""
  },
  {
    "id": "570716621",
    "name": "デイサービスセンターコスモス",
    "kana": "デイサービスセンターコスモス",
    "address": "秋田県湯沢市相川字碇１０８番地",
    "lat": 39.0771384,
    "lng": 140.4919901,
    "tel": "0183-58-6100",
    "url": "http://www.yushakyo.or.jp/",
    "pref": "秋田県",
    "city": "湯沢市",
    "category": "day_service",
    "serviceType": "通所介護",
    "capacity": 0,
    "openDays": [
      "平日",
      "土曜日",
      "祝日"
    ],
    "openDaysNote": ""
  },
  {
    "id": "572810273",
    "name": "ひまり",
    "kana": "ヒマリ",
    "address": "秋田県湯沢市横堀字小正寺16番地の1",
    "lat": 39.0618793299755,
    "lng": 140.454102200525,
    "tel": "0183-78-6076",
    "url": "https://www.shiunkaku-komachi.com",
    "pref": "秋田県",
    "city": "湯沢市",
    "category": "day_service",
    "serviceType": "通所介護",
    "capacity": 0,
    "openDays": [
      "平日",
      "土曜日",
      "日曜日",
      "祝日"
    ],
    "openDaysNote": "年末年始休業　12/31～1/3（改行）お盆休業　　　8/13～8/15"
  },
  {
    "id": "570723890",
    "name": "ふくろう",
    "kana": "フクロウ",
    "address": "秋田県湯沢市横堀字小正寺18-2",
    "lat": 39.0611531,
    "lng": 140.454649,
    "tel": "0183-78-6660",
    "url": "https://www.shiunkaku-komachi.com",
    "pref": "秋田県",
    "city": "湯沢市",
    "category": "day_service",
    "serviceType": "通所介護",
    "capacity": 0,
    "openDays": [
      "平日",
      "土曜日",
      "祝日"
    ],
    "openDaysNote": "8月13日～8月15日と12月31日～1月3日は休日となります。"
  },
  {
    "id": "572204444",
    "name": "藤里町指定通所介護事業所",
    "kana": "フジサトマチシテイツウショカイゴジギョウショ",
    "address": "秋田県山本郡藤里町藤琴字三ツ谷脇40",
    "lat": 40.2819705,
    "lng": 140.2615648,
    "tel": "0185-79-3300",
    "url": "http://www.fujisato-shakyo.jp/",
    "pref": "秋田県",
    "city": "藤里町",
    "category": "day_service",
    "serviceType": "通所介護",
    "capacity": 0,
    "openDays": [
      "平日",
      "祝日"
    ],
    "openDaysNote": "なし"
  },
  {
    "id": "570210096",
    "name": "JAあきた白神デイサービスセンターいなほの里",
    "kana": "ジェイエイアキタシラカミデイサービスセンターイナホノサト",
    "address": "秋田県能代市鰄渕字古屋布43番地１",
    "lat": 40.1886321,
    "lng": 140.0797254,
    "tel": "0185-58-5822",
    "url": "http://akita-shirakami.jp",
    "pref": "秋田県",
    "city": "能代市",
    "category": "day_service",
    "serviceType": "通所介護",
    "capacity": 0,
    "openDays": [
      "平日",
      "土曜日",
      "祝日"
    ],
    "openDaysNote": ""
  },
  {
    "id": "570210195",
    "name": "デイサービスセンターしらかみ",
    "kana": "デイサービスセンターシラカミ",
    "address": "秋田県能代市字悪戸115-9",
    "lat": 40.1906455,
    "lng": 140.0570387,
    "tel": "0185-58-2816",
    "url": "http://www.shirakami.or.jp/~s-soyokaze/index.html",
    "pref": "秋田県",
    "city": "能代市",
    "category": "day_service",
    "serviceType": "通所介護",
    "capacity": 0,
    "openDays": [
      "平日",
      "土曜日",
      "祝日"
    ],
    "openDaysNote": ""
  },
  {
    "id": "572204345",
    "name": "デイサービスセンターよねしろ通所介護事業所",
    "kana": "デイサービスセンターヨネシロツウショカイゴジギョウショ",
    "address": "秋田県能代市二ツ井町字下野家後145番地",
    "lat": 40.2095759,
    "lng": 140.2421727,
    "tel": "0185-73-6661",
    "url": "",
    "pref": "秋田県",
    "city": "能代市",
    "category": "day_service",
    "serviceType": "通所介護",
    "capacity": 30,
    "openDays": [
      "平日",
      "土曜日",
      "祝日"
    ],
    "openDaysNote": "なし"
  },
  {
    "id": "570219345",
    "name": "デイサービスセンター清風のしろ",
    "kana": "デイサービスセンターセイフウノシロ",
    "address": "秋田県能代市落合字上前田149-1",
    "lat": 40.2273239,
    "lng": 140.0255818,
    "tel": "0185-89-1733",
    "url": "https://www.shouhouen.co.jp",
    "pref": "秋田県",
    "city": "能代市",
    "category": "day_service",
    "serviceType": "通所介護",
    "capacity": 0,
    "openDays": [
      "平日",
      "土曜日",
      "祝日"
    ],
    "openDaysNote": ""
  },
  {
    "id": "570220434",
    "name": "デイサービスみんなの家",
    "kana": "デイサービス　ミンナノイエ",
    "address": "秋田県能代市河戸川字谷地47番地1デイサービスみんなの家 デイサービスみんなの家",
    "lat": 40.1740648671057,
    "lng": 140.020838207502,
    "tel": "0185-88-8771",
    "url": "",
    "pref": "秋田県",
    "city": "能代市",
    "category": "day_service",
    "serviceType": "通所介護",
    "capacity": 0,
    "openDays": [
      "平日",
      "土曜日",
      "日曜日",
      "祝日"
    ],
    "openDaysNote": ""
  },
  {
    "id": "570216150",
    "name": "ドリームホープなかよしデイサービスセンター",
    "kana": "ドリームホープナカヨシデイサービスセンター",
    "address": "秋田県能代市浅内字石丁家下91番地",
    "lat": 40.1480017127595,
    "lng": 140.01535487335,
    "tel": "0185-54-8229",
    "url": "http://dreamhope-nakayoshi.com/",
    "pref": "秋田県",
    "city": "能代市",
    "category": "day_service",
    "serviceType": "通所介護",
    "capacity": 0,
    "openDays": [
      "平日",
      "土曜日",
      "祝日"
    ],
    "openDaysNote": "特になし"
  },
  {
    "id": "570225441",
    "name": "なかよしの家デイサービス",
    "kana": "ナカヨシノイエデイサービス",
    "address": "秋田県能代市通町３番１５",
    "lat": 40.2048293,
    "lng": 140.0214189,
    "tel": "0185-88-8575",
    "url": "http://dreamhope-nakayoshi.com/",
    "pref": "秋田県",
    "city": "能代市",
    "category": "day_service",
    "serviceType": "通所介護",
    "capacity": 25,
    "openDays": [
      "平日",
      "日曜日",
      "祝日"
    ],
    "openDaysNote": "特になし"
  },
  {
    "id": "570205534",
    "name": "ニチイケアセンター能代",
    "kana": "ニチイケアセンターノシロ",
    "address": "秋田県能代市落合字下前田198-2",
    "lat": 40.2236716,
    "lng": 140.0254569,
    "tel": "0185-89-2419",
    "url": "http://www.nichiigakkan.co.jp",
    "pref": "秋田県",
    "city": "能代市",
    "category": "day_service",
    "serviceType": "通所介護",
    "capacity": 0,
    "openDays": [
      "平日",
      "土曜日",
      "祝日"
    ],
    "openDaysNote": ""
  },
  {
    "id": "570206748",
    "name": "のしろケアセンターそよ風",
    "kana": "ノシロケアセンターソヨカゼ",
    "address": "秋田県能代市落合字古悪土１－２２８のしろケアセンターそよ風 のしろケアセンターそよ風",
    "lat": 40.226035,
    "lng": 140.0103857,
    "tel": "0185-89-5161",
    "url": "http://www.sykz.co.jp",
    "pref": "秋田県",
    "city": "能代市",
    "category": "day_service",
    "serviceType": "通所介護",
    "capacity": 0,
    "openDays": [
      "平日",
      "土曜日",
      "祝日"
    ],
    "openDaysNote": ""
  },
  {
    "id": "570226589",
    "name": "愛グループ　シャングリラ",
    "kana": "アイグループ　シャングリラ",
    "address": "秋田県能代市元町１６－６",
    "lat": 40.2089801526745,
    "lng": 140.034643978574,
    "tel": "0185-74-6730",
    "url": "https://ai-shangri-la.com/",
    "pref": "秋田県",
    "city": "能代市",
    "category": "day_service",
    "serviceType": "通所介護",
    "capacity": 0,
    "openDays": [
      "平日",
      "祝日"
    ],
    "openDaysNote": "夏季休業　８月１３日から１５日まで　　年末年始休業　１２月３１日から１月３日まで"
  },
  {
    "id": "570214643",
    "name": "長崎デイハウスふあり",
    "kana": "ナガサキデイハウスフアリ",
    "address": "秋田県能代市長崎227番地2",
    "lat": 40.1855705,
    "lng": 140.0231282,
    "tel": "0185-54-2143",
    "url": "",
    "pref": "秋田県",
    "city": "能代市",
    "category": "day_service",
    "serviceType": "通所介護",
    "capacity": 25,
    "openDays": [
      "平日",
      "土曜日",
      "日曜日",
      "祝日"
    ],
    "openDaysNote": ""
  },
  {
    "id": "570226894",
    "name": "虹の街デイサービスのしろ",
    "kana": "ニジノマチデイサービスノシロ",
    "address": "秋田県能代市河戸川字下大須賀40番",
    "lat": 40.1837893,
    "lng": 140.0209263,
    "tel": "0185-74-9333",
    "url": "",
    "pref": "秋田県",
    "city": "能代市",
    "category": "day_service",
    "serviceType": "通所介護",
    "capacity": 0,
    "openDays": [
      "平日",
      "土曜日",
      "祝日"
    ],
    "openDaysNote": ""
  },
  {
    "id": "570216697",
    "name": "能代ふれあいデイサービスセンター",
    "kana": "ノシロフレアイデイサービスセンター",
    "address": "能代市上町12番32号",
    "lat": 40.2127092,
    "lng": 140.0308067,
    "tel": "0185-89-5560",
    "url": "http://www.noshiroshakyo.jp/",
    "pref": "秋田県",
    "city": "能代市",
    "category": "day_service",
    "serviceType": "通所介護",
    "capacity": 0,
    "openDays": [
      "平日",
      "土曜日",
      "日曜日",
      "祝日"
    ],
    "openDaysNote": ""
  },
  {
    "id": "570214114",
    "name": "能代市社会福祉協議会二ツ井デイサービスセンター",
    "kana": "ノシロシシャカイフクシキョウギカイフタツイデイサービスセンター",
    "address": "秋田県能代市二ツ井町字三千苅４４番地３４",
    "lat": 40.2092175,
    "lng": 140.2393202,
    "tel": "0185-74-5868",
    "url": "http://www.noshiroshakyo.jp/",
    "pref": "秋田県",
    "city": "能代市",
    "category": "day_service",
    "serviceType": "通所介護",
    "capacity": 35,
    "openDays": [
      "平日",
      "土曜日",
      "祝日"
    ],
    "openDaysNote": ""
  },
  {
    "id": "570216689",
    "name": "能代市緑町デイサービスセンター",
    "kana": "ノシロシミドリマチデイサービスセンター",
    "address": "秋田県能代市緑町７番１７号",
    "lat": 40.1971111,
    "lng": 140.036143,
    "tel": "0185-89-2700",
    "url": "http://www.noshiroshakyo.jp/",
    "pref": "秋田県",
    "city": "能代市",
    "category": "day_service",
    "serviceType": "通所介護",
    "capacity": 0,
    "openDays": [
      "平日",
      "土曜日",
      "祝日"
    ],
    "openDaysNote": ""
  },
  {
    "id": "572204162",
    "name": "海光苑デイサービスセンター",
    "kana": "カイコウエンデイサービスセンター",
    "address": "秋田県山本郡八峰町八森字寺の後川向８番地１",
    "lat": 40.3396457,
    "lng": 140.0288143,
    "tel": "0185-70-4102",
    "url": "",
    "pref": "秋田県",
    "city": "八峰町",
    "category": "day_service",
    "serviceType": "通所介護",
    "capacity": 30,
    "openDays": [
      "平日",
      "土曜日",
      "日曜日",
      "祝日"
    ],
    "openDaysNote": ""
  },
  {
    "id": "572204147",
    "name": "松波苑デイサービスセンター",
    "kana": "マツナミエンデイサービスセンター",
    "address": "秋田県山本郡八峰町峰浜水沢字下カッチキ台41番地14",
    "lat": 40.296651,
    "lng": 140.0291921,
    "tel": "0185-76-3018",
    "url": "",
    "pref": "秋田県",
    "city": "八峰町",
    "category": "day_service",
    "serviceType": "通所介護",
    "capacity": 0,
    "openDays": [
      "平日",
      "土曜日",
      "日曜日",
      "祝日"
    ],
    "openDaysNote": ""
  },
  {
    "id": "572301281",
    "name": "うたせ苑デイサービスセンター　うぐいすの里",
    "kana": "ウタセエンデイサービスセンター　ウグイスノサト",
    "address": "秋田県南秋田郡八郎潟町真坂字沢田122",
    "lat": 39.9673586,
    "lng": 140.0827053,
    "tel": "018-855-4101",
    "url": "http://www13.plala.or.jp/eijyuen/",
    "pref": "秋田県",
    "city": "八郎潟町",
    "category": "day_service",
    "serviceType": "通所介護",
    "capacity": 0,
    "openDays": [
      "平日",
      "祝日"
    ],
    "openDaysNote": "特になし"
  },
  {
    "id": "572616472",
    "name": "いこいの里デイサービスセンター",
    "kana": "イコイノサト　デイサービスセンター",
    "address": "秋田県仙北郡美郷町六郷字遠槻２４－１",
    "lat": 39.4353411638521,
    "lng": 140.514140613922,
    "tel": "0187-84-1551",
    "url": "http://yumedical.jp/",
    "pref": "秋田県",
    "city": "美郷町",
    "category": "day_service",
    "serviceType": "通所介護",
    "capacity": 0,
    "openDays": [
      "平日",
      "土曜日",
      "祝日"
    ],
    "openDaysNote": ""
  },
  {
    "id": "573926961",
    "name": "コンパスウォークみさと",
    "kana": "コンパスウォークミサト",
    "address": "秋田県仙北郡美郷町六郷字安楽寺362",
    "lat": 39.4237962,
    "lng": 140.5512295,
    "tel": "0187-73-6551",
    "url": "",
    "pref": "秋田県",
    "city": "美郷町",
    "category": "day_service",
    "serviceType": "通所介護",
    "capacity": null,
    "openDays": [
      "平日",
      "祝日"
    ],
    "openDaysNote": ""
  },
  {
    "id": "572605483",
    "name": "デイサービスセンター仙南通所介護事業所",
    "kana": "デイサービスセンターセンナンツウショカイゴジギョウショ",
    "address": "秋田県仙北郡美郷町金沢西根字上糠渕3-2",
    "lat": 39.3865933,
    "lng": 140.5284023,
    "tel": "0187-87-8010",
    "url": "http://ｗｗｗ.rotopia.or.jp/",
    "pref": "秋田県",
    "city": "美郷町",
    "category": "day_service",
    "serviceType": "通所介護",
    "capacity": 0,
    "openDays": [
      "平日",
      "土曜日",
      "祝日"
    ],
    "openDaysNote": "管理者は利用者の希望により稼働日もしくは稼働時間以外でもサービスを提供できるものとする。"
  },
  {
    "id": "572605855",
    "name": "デイサービスセンター緑泉通所介護事業所",
    "kana": "デイサービスセンターリョクセンツウショカイゴジギョウショ",
    "address": "秋田県仙北郡美郷町六郷字作山１８７",
    "lat": 39.4154156,
    "lng": 140.5562235,
    "tel": "0187-84-3636",
    "url": "http://www.rotopia.or.jp",
    "pref": "秋田県",
    "city": "美郷町",
    "category": "day_service",
    "serviceType": "通所介護",
    "capacity": 35,
    "openDays": [
      "平日",
      "土曜日",
      "祝日"
    ],
    "openDaysNote": "管理者は利用者の希望により稼働時間以外でもサービスを提供できるものとする。"
  },
  {
    "id": "572607414",
    "name": "ほっと未来デイサービスセンター",
    "kana": "ホットミライデイサービスセンター",
    "address": "秋田県仙北郡美郷町畑屋字街道東201-1",
    "lat": 39.4358607,
    "lng": 140.56551,
    "tel": "0187-84-2882",
    "url": "",
    "pref": "秋田県",
    "city": "美郷町",
    "category": "day_service",
    "serviceType": "通所介護",
    "capacity": 0,
    "openDays": [
      "平日",
      "土曜日",
      "祝日"
    ],
    "openDaysNote": ""
  },
  {
    "id": "571116748",
    "name": "ケアタウンたかのす指定通所介護事業所",
    "kana": "ケアタウンタカノスシテイツウショカイゴジギョウショ",
    "address": "秋田県北秋田市脇神字南陣場岱１０番地",
    "lat": 40.2123008,
    "lng": 140.3918323,
    "tel": "0186-60-0506",
    "url": "http://www.kitaakita-shakyo.or.jp",
    "pref": "秋田県",
    "city": "北秋田市",
    "category": "day_service",
    "serviceType": "通所介護",
    "capacity": 0,
    "openDays": [
      "平日",
      "土曜日",
      "日曜日",
      "祝日"
    ],
    "openDaysNote": ""
  },
  {
    "id": "571116730",
    "name": "サポートハウスたかのす指定通所介護事業所",
    "kana": "サポートハウスタカノスシテイツウショカイゴジギョウショ",
    "address": "秋田県北秋田市脇神字南陣場岱２０番地",
    "lat": 40.2135173,
    "lng": 140.3911101,
    "tel": "0186-69-9711",
    "url": "http://www.kitaakita-shakyo.or.jp",
    "pref": "秋田県",
    "city": "北秋田市",
    "category": "day_service",
    "serviceType": "通所介護",
    "capacity": 0,
    "openDays": [
      "平日",
      "土曜日",
      "日曜日",
      "祝日"
    ],
    "openDaysNote": "R7年1月より毎週日曜日が定休日となる。"
  },
  {
    "id": "572110625",
    "name": "たかのすケアセンターそよ風　通所介護",
    "kana": "タカノスケアセンターソヨカゼ　ツウショカイゴ",
    "address": "秋田県北秋田市米代町5－4",
    "lat": 40.223446,
    "lng": 140.3662034,
    "tel": "0186-60-1371",
    "url": "",
    "pref": "秋田県",
    "city": "北秋田市",
    "category": "day_service",
    "serviceType": "通所介護",
    "capacity": 0,
    "openDays": [
      "平日",
      "土曜日",
      "祝日"
    ],
    "openDaysNote": ""
  },
  {
    "id": "571111236",
    "name": "たかのす社協つづれこ通所介護事業所",
    "kana": "タカノスシャキョウツヅレコツウショカイゴジギョウショ",
    "address": "秋田県北秋田市綴子字大堤家後２６番地３",
    "lat": 40.2546231831555,
    "lng": 140.383216507548,
    "tel": "0186-60-1260",
    "url": "http://www.kitaakita-shakyo.or.jp/",
    "pref": "秋田県",
    "city": "北秋田市",
    "category": "day_service",
    "serviceType": "通所介護",
    "capacity": 0,
    "openDays": [
      "平日",
      "土曜日",
      "祝日"
    ],
    "openDaysNote": "ただし、会長が認めた場合はこの限りではありません。"
  },
  {
    "id": "571111228",
    "name": "たかのす社協地福通所介護事業所",
    "kana": "タカノスシャキョウチフクツウショカイゴジギョウショ",
    "address": "秋田県北秋田市宮前町９番６８号",
    "lat": 40.2223991,
    "lng": 140.3724723,
    "tel": "0186-63-2558",
    "url": "http://www.kitaakita-shakyo.or.jp/",
    "pref": "秋田県",
    "city": "北秋田市",
    "category": "day_service",
    "serviceType": "通所介護",
    "capacity": 0,
    "openDays": [
      "平日",
      "土曜日",
      "祝日"
    ],
    "openDaysNote": "ただし、会長が認めた場合はこの限りではありません。"
  },
  {
    "id": "572104123",
    "name": "永楽苑デイサービスセンター指定通所介護事業所",
    "kana": "エイラクエンデイサービスセンターシテイツウショカイゴジギョウショ",
    "address": "秋田県北秋田市川井字才ノ神61-13",
    "lat": 40.1620081,
    "lng": 140.3229238,
    "tel": "0186-78-5155",
    "url": "http://aki-minsei.jp/publics/index/1/",
    "pref": "秋田県",
    "city": "北秋田市",
    "category": "day_service",
    "serviceType": "通所介護",
    "capacity": 0,
    "openDays": [
      "平日",
      "土曜日",
      "祝日"
    ],
    "openDaysNote": "９：４０～１５：５０迄の６時間以上７時間未満を営業時間としている。"
  },
  {
    "id": "571125269",
    "name": "音彩くらぶ",
    "kana": "ネイロクラブ",
    "address": "秋田県北秋田市材木町２番１３号",
    "lat": 40.2328406281875,
    "lng": 140.374386081754,
    "tel": "0186-67-6255",
    "url": "http://kitaakita-shakyo.or.jp/",
    "pref": "秋田県",
    "city": "北秋田市",
    "category": "day_service",
    "serviceType": "通所介護",
    "capacity": 30,
    "openDays": [
      "平日",
      "土曜日",
      "日曜日",
      "祝日"
    ],
    "openDaysNote": ""
  },
  {
    "id": "571114511",
    "name": "北秋田市森吉生活支援ハウス指定通所介護事業所",
    "kana": "キタアキタシモリヨシセイカツシエンハウスシテイツウショカイゴジギョウショ",
    "address": "秋田県北秋田市米内沢字寺の上85番地北秋田市森吉生活支援ハウス 北秋田市森吉生活支援ハウス",
    "lat": 40.1180223,
    "lng": 140.366142,
    "tel": "0186-72-5522",
    "url": "",
    "pref": "秋田県",
    "city": "北秋田市",
    "category": "day_service",
    "serviceType": "通所介護",
    "capacity": 0,
    "openDays": [
      "平日",
      "土曜日",
      "祝日"
    ],
    "openDaysNote": "サービス提供時間　（平日・土・祝祭日）９：１５～１６：１５　日曜日休業"
  },
  {
    "id": "570510032",
    "name": "ＪＡ秋田しんせいデイサービスセンターふれあい泉の里",
    "kana": "ジェイエイアキタシンセイデイサービスセンターフレアイイズミノサト",
    "address": "秋田県由利本荘市三条字前田75番地",
    "lat": 39.3593906,
    "lng": 140.0761064,
    "tel": "0184-27-1698",
    "url": "http://www.akita-shinsei.or.jp/",
    "pref": "秋田県",
    "city": "由利本荘市",
    "category": "day_service",
    "serviceType": "通所介護",
    "capacity": 0,
    "openDays": [
      "平日",
      "土曜日",
      "日曜日",
      "祝日"
    ],
    "openDaysNote": ""
  },
  {
    "id": "570512491",
    "name": "デイサービス　「わかば」",
    "kana": "デイサービス「ワカバ」",
    "address": "秋田県由利本荘市石脇字田尻野７番地３",
    "lat": 39.4047610501829,
    "lng": 140.031409476057,
    "tel": "0184-74-7626",
    "url": "http://www.ikeyaku.co.jp",
    "pref": "秋田県",
    "city": "由利本荘市",
    "category": "day_service",
    "serviceType": "通所介護",
    "capacity": 0,
    "openDays": [
      "平日",
      "土曜日",
      "祝日"
    ],
    "openDaysNote": ""
  },
  {
    "id": "570521526",
    "name": "デイサービス　ともに",
    "kana": "デイサービス　トモニ",
    "address": "秋田県由利本荘市東梵天109-3",
    "lat": 39.3830466,
    "lng": 140.0633313,
    "tel": "0184-44-8857",
    "url": "",
    "pref": "秋田県",
    "city": "由利本荘市",
    "category": "day_service",
    "serviceType": "通所介護",
    "capacity": 0,
    "openDays": [
      "平日",
      "土曜日",
      "祝日"
    ],
    "openDaysNote": ""
  },
  {
    "id": "570513861",
    "name": "デイサービス　華",
    "kana": "デイサービス　ハナ",
    "address": "秋田県由利本荘市矢島町元町字新所１４３",
    "lat": 39.2270446,
    "lng": 140.1548796,
    "tel": "0184-29-5577",
    "url": "",
    "pref": "秋田県",
    "city": "由利本荘市",
    "category": "day_service",
    "serviceType": "通所介護",
    "capacity": 0,
    "openDays": [
      "平日",
      "土曜日",
      "祝日"
    ],
    "openDaysNote": "なし"
  },
  {
    "id": "570508341",
    "name": "デイサービス　楓",
    "kana": "デイサービス　カエデ",
    "address": "秋田県由利本荘市一番堰128",
    "lat": 39.3776746,
    "lng": 140.0595232,
    "tel": "0184-23-8811",
    "url": "",
    "pref": "秋田県",
    "city": "由利本荘市",
    "category": "day_service",
    "serviceType": "通所介護",
    "capacity": 0,
    "openDays": [
      "平日",
      "土曜日"
    ],
    "openDaysNote": "なし"
  },
  {
    "id": "570516955",
    "name": "デイサービスセンターだいち",
    "kana": "デイサービスセンターダイチ",
    "address": "秋田県由利本荘市岩谷町字ハケノ下８０－２",
    "lat": 39.4480723,
    "lng": 140.1066182,
    "tel": "0184-62-0067",
    "url": "http://www.oouchi-satsukikai.or.jp/",
    "pref": "秋田県",
    "city": "由利本荘市",
    "category": "day_service",
    "serviceType": "通所介護",
    "capacity": 0,
    "openDays": [
      "平日",
      "日曜日",
      "祝日"
    ],
    "openDaysNote": ""
  },
  {
    "id": "570524017",
    "name": "デイサービスセンターたんぽぽプラザ",
    "kana": "デイサービスセンタータンポポプラザ",
    "address": "秋田県由利本荘市岩城赤平字長ヶ沢18-1",
    "lat": 39.5038849309926,
    "lng": 140.076236214958,
    "tel": "0184-74-6351",
    "url": "https://tanpopoplaza.co.jp/",
    "pref": "秋田県",
    "city": "由利本荘市",
    "category": "day_service",
    "serviceType": "通所介護",
    "capacity": 0,
    "openDays": [
      "平日",
      "土曜日",
      "祝日"
    ],
    "openDaysNote": ""
  },
  {
    "id": "572507218",
    "name": "デイサービスセンターひまわり",
    "kana": "デイサービスセンターヒマワリ",
    "address": "秋田県由利本荘市西目町海士剥字御月森１番地",
    "lat": 39.3687379,
    "lng": 140.0198736,
    "tel": "0184-32-1133",
    "url": "http://honjo-kyujyukai.net/",
    "pref": "秋田県",
    "city": "由利本荘市",
    "category": "day_service",
    "serviceType": "通所介護",
    "capacity": 0,
    "openDays": [
      "平日",
      "土曜日",
      "祝日"
    ],
    "openDaysNote": ""
  },
  {
    "id": "570515916",
    "name": "デイサービスセンターふるさと学び舎",
    "kana": "デイサービスセンターフルサトマナビヤ",
    "address": "秋田県由利本荘市土谷字新谷地157番地",
    "lat": 39.3918877,
    "lng": 140.0694002,
    "tel": "0184-28-1162",
    "url": "http://www.chuoukai.com/",
    "pref": "秋田県",
    "city": "由利本荘市",
    "category": "day_service",
    "serviceType": "通所介護",
    "capacity": 0,
    "openDays": [
      "平日",
      "土曜日",
      "日曜日",
      "祝日"
    ],
    "openDaysNote": ""
  },
  {
    "id": "570508168",
    "name": "デイサービスセンターマイ！！ともだち",
    "kana": "デイサービスセンターマイトモダチ",
    "address": "秋田県由利本荘市大鍬町162番地1",
    "lat": 39.3756883,
    "lng": 140.0467908,
    "tel": "0184-25-8282",
    "url": "http://www.chuoukai.com/",
    "pref": "秋田県",
    "city": "由利本荘市",
    "category": "day_service",
    "serviceType": "通所介護",
    "capacity": 0,
    "openDays": [
      "平日",
      "土曜日",
      "日曜日",
      "祝日"
    ],
    "openDaysNote": ""
  },
  {
    "id": "570516351",
    "name": "なかみちデイサービス",
    "kana": "ナカミチデイサービス",
    "address": "秋田県由利本荘市薬師堂字中道　257",
    "lat": 39.3694027,
    "lng": 140.0516459,
    "tel": "0184-74-5320",
    "url": "",
    "pref": "秋田県",
    "city": "由利本荘市",
    "category": "day_service",
    "serviceType": "通所介護",
    "capacity": 0,
    "openDays": [
      "平日",
      "土曜日",
      "祝日"
    ],
    "openDaysNote": ""
  },
  {
    "id": "570500058",
    "name": "ニチイケアセンター本荘",
    "kana": "ニチイケアセンターホンジョウ",
    "address": "秋田県由利本荘市川口字新田90",
    "lat": 39.4009092,
    "lng": 140.0618367,
    "tel": "0184-27-1850",
    "url": "",
    "pref": "秋田県",
    "city": "由利本荘市",
    "category": "day_service",
    "serviceType": "通所介護",
    "capacity": 0,
    "openDays": [
      "平日",
      "土曜日",
      "祝日"
    ],
    "openDaysNote": ""
  },
  {
    "id": "570513960",
    "name": "指定通所介護　デイサービスセンターゆうゆう",
    "kana": "シテイツウショカイゴ　デイサービスセンターユウユウ",
    "address": "秋田県由利本荘市一番堰142番地1",
    "lat": 39.3789578,
    "lng": 140.0567983,
    "tel": "0184-28-1005",
    "url": "http://honjo-kyujyukai.net/",
    "pref": "秋田県",
    "city": "由利本荘市",
    "category": "day_service",
    "serviceType": "通所介護",
    "capacity": 25,
    "openDays": [
      "平日",
      "土曜日",
      "祝日"
    ],
    "openDaysNote": ""
  },
  {
    "id": "570524496",
    "name": "鳥寿苑通所介護事業所",
    "kana": "チョウジュエンツウショカイゴジギョウショ",
    "address": "秋田県由利本荘市鳥海町伏見字久保77番地",
    "lat": 39.1896897,
    "lng": 140.1890495,
    "tel": "０１８４－５７－２５００",
    "url": "http://akita-yuai.com",
    "pref": "秋田県",
    "city": "由利本荘市",
    "category": "day_service",
    "serviceType": "通所介護",
    "capacity": 0,
    "openDays": [
      "平日",
      "土曜日",
      "日曜日",
      "祝日"
    ],
    "openDaysNote": ""
  },
  {
    "id": "570506428",
    "name": "通所介護　ほっと",
    "kana": "ツウショカイゴ　ホット",
    "address": "秋田県由利本荘市石脇字田尻２８－８０２",
    "lat": 39.3931782,
    "lng": 140.0251511,
    "tel": "0184-28-5525",
    "url": "https://www.hot-akita.com",
    "pref": "秋田県",
    "city": "由利本荘市",
    "category": "day_service",
    "serviceType": "通所介護",
    "capacity": 25,
    "openDays": [
      "平日",
      "土曜日",
      "祝日"
    ],
    "openDaysNote": "営業時間外であっても、電話やSNS等で連絡を受け取れる体制を整えております。"
  },
  {
    "id": "570522805",
    "name": "通所介護　夢うさぎ",
    "kana": "ツウショカイゴ　ユメウサギ",
    "address": "秋田県由利本荘市石脇字石ノ花１９４番地２３０",
    "lat": 39.3955592393541,
    "lng": 140.032561160787,
    "tel": "0184-74-3653",
    "url": "http://yumeusagi.info/",
    "pref": "秋田県",
    "city": "由利本荘市",
    "category": "day_service",
    "serviceType": "通所介護",
    "capacity": 0,
    "openDays": [
      "平日",
      "祝日"
    ],
    "openDaysNote": "但し、利用者からの要請に応じて対応を検討できるものとする。"
  },
  {
    "id": "570525097",
    "name": "東光苑通所介護事業所",
    "kana": "トウコウエンツウショカイゴジギョウショ",
    "address": "秋田県由利本荘市東由利蔵字蔵８３",
    "lat": 39.3157327,
    "lng": 140.2642913,
    "tel": "0184-69-3938",
    "url": "http://www.akita-yuai.com/tokoen",
    "pref": "秋田県",
    "city": "由利本荘市",
    "category": "day_service",
    "serviceType": "通所介護",
    "capacity": 0,
    "openDays": [
      "平日",
      "土曜日",
      "祝日"
    ],
    "openDaysNote": ""
  },
  {
    "id": "570524520",
    "name": "悠楽館通所介護事業所",
    "kana": "ユウラクカンツウショカイゴジギョウショ",
    "address": "秋田県由利本荘市鳥海町上笹子字堺台105番地ケアセンター「悠楽館」 ケアセンター「悠楽館」",
    "lat": 39.1094018,
    "lng": 140.2932311,
    "tel": "0184-59-2700",
    "url": "http://akita-yuai.com/yuurakukan",
    "pref": "秋田県",
    "city": "由利本荘市",
    "category": "day_service",
    "serviceType": "通所介護",
    "capacity": 0,
    "openDays": [
      "平日",
      "土曜日",
      "日曜日",
      "祝日"
    ],
    "openDaysNote": "年末年始　12月31日～1月3日は休み"
  },
  {
    "id": "570527036",
    "name": "由利本荘市社会福祉協議会　デイサービスゆりちゃん",
    "kana": "ユリホンジョウシシャカイフクシキョウギカイ　デイサービスユリチャン",
    "address": "秋田県由利本荘市前郷字家岸79番地17",
    "lat": 39.3141093,
    "lng": 140.1113804,
    "tel": "0184-53-2100",
    "url": "http://www.yurihonjo-shakyo.jp",
    "pref": "秋田県",
    "city": "由利本荘市",
    "category": "day_service",
    "serviceType": "通所介護",
    "capacity": 0,
    "openDays": [
      "平日",
      "土曜日",
      "祝日"
    ],
    "openDaysNote": ""
  },
  {
    "id": "570511675",
    "name": "由利本荘市社会福祉協議会　岩城通所介護事業所",
    "kana": "ユリホンジョウシシャカイフクシキョウギカイ　イワキツウショカイゴジギョウショ",
    "address": "秋田県由利本荘市岩城内道川字馬道43番地1",
    "lat": 39.5513748,
    "lng": 140.0592322,
    "tel": "0184-73-3300",
    "url": "http://www.yurihonjo-shakyo.jp/",
    "pref": "秋田県",
    "city": "由利本荘市",
    "category": "day_service",
    "serviceType": "通所介護",
    "capacity": 25,
    "openDays": [
      "平日",
      "土曜日",
      "祝日"
    ],
    "openDaysNote": ""
  },
  {
    "id": "570511584",
    "name": "由利本荘市社会福祉協議会通所介護事業所　さつき苑",
    "kana": "ユリホンジョウシシャカイフクシキョウギカイツウショカイゴジギョウショサツキエン",
    "address": "由利本荘市中田代字上ノ山163",
    "lat": 39.4372902,
    "lng": 140.2196297,
    "tel": "0184-67-2195",
    "url": "http://www.yurihonjo-shakyo.jp/",
    "pref": "秋田県",
    "city": "由利本荘市",
    "category": "day_service",
    "serviceType": "通所介護",
    "capacity": 20,
    "openDays": [
      "平日",
      "土曜日",
      "祝日"
    ],
    "openDaysNote": "心身の状況、その他利用者のやむを得ない事情により、通常も利用時間が短縮される場合がある。"
  },
  {
    "id": "570511576",
    "name": "由利本荘市社会福祉協議会通所介護事業所高台苑",
    "kana": "ユリホンジョウシシャカイフクシキョウギカイツウショカイゴジギョウショコウダイエン",
    "address": "秋田県由利本荘市岩谷町字ハケノ下58",
    "lat": 39.4473973,
    "lng": 140.1039796,
    "tel": "0184-65-2053",
    "url": "http://www.yurihonjo-shakyo.jp/ouchi",
    "pref": "秋田県",
    "city": "由利本荘市",
    "category": "day_service",
    "serviceType": "通所介護",
    "capacity": 25,
    "openDays": [
      "平日",
      "土曜日",
      "祝日"
    ],
    "openDaysNote": "ただし、利用者から事前に要請がある場合は、要請に対応できるものとする。"
  },
  {
    "id": "570511634",
    "name": "由利本荘市社会福祉協議会矢島通所介護事業所",
    "kana": "ユリホンジョウシシャカイフクシキョウギカイ　ヤシマツウショカイゴジギョウショ",
    "address": "秋田県由利本荘市矢島町城内字八森下486-1",
    "lat": 39.2338434,
    "lng": 140.1371838,
    "tel": "0184-56-2910",
    "url": "http://www.yurihonjo-shakyo.jp/",
    "pref": "秋田県",
    "city": "由利本荘市",
    "category": "day_service",
    "serviceType": "通所介護",
    "capacity": 0,
    "openDays": [
      "平日",
      "土曜日",
      "祝日"
    ],
    "openDaysNote": ""
  }
]