[
  {
    "id": "873000186",
    "name": "デイサービス　若葉",
    "kana": "デイサービスワカバ",
    "address": "茨城県かすみがうら市牛渡3275-15",
    "lat": 36.0662213076373,
    "lng": 140.349990120901,
    "tel": "029-834-6830",
    "url": "https://www.aoba-wakaba.net/",
    "pref": "茨城県",
    "city": "かすみがうら市",
    "category": "day_service",
    "serviceType": "通所介護",
    "capacity": 23,
    "openDays": [
      "平日",
      "土曜日",
      "日曜日",
      "祝日"
    ],
    "openDaysNote": ""
  },
  {
    "id": "873900567",
    "name": "デイサービスセンター　プルミエールひたち野２号館",
    "kana": "デイサービスセンター　プルミエールヒタチノニゴウカン",
    "address": "茨城県かすみがうら市稲吉二丁目２１番７号",
    "lat": 36.1223447720764,
    "lng": 140.245504271164,
    "tel": "029-833-3300",
    "url": "http://www.premierehitachino2.com/",
    "pref": "茨城県",
    "city": "かすみがうら市",
    "category": "day_service",
    "serviceType": "通所介護",
    "capacity": 0,
    "openDays": [
      "平日",
      "土曜日",
      "祝日"
    ],
    "openDaysNote": ""
  },
  {
    "id": "873000459",
    "name": "一生の杜デイリハビリセンター",
    "kana": "イツキノモリ　デイリハビリセンター",
    "address": "茨城県かすみがうら市宍倉5696-3",
    "lat": 36.130474,
    "lng": 140.2709785,
    "tel": "029-879-5025",
    "url": "https://www.meigakukai.net",
    "pref": "茨城県",
    "city": "かすみがうら市",
    "category": "day_service",
    "serviceType": "通所介護",
    "capacity": 5,
    "openDays": [
      "平日",
      "土曜日",
      "祝日"
    ],
    "openDaysNote": ""
  },
  {
    "id": "873900237",
    "name": "指定通所介護事業所プルミエールひたち野",
    "kana": "シテイツウショカイゴジギョウショプルミエールヒタチノ",
    "address": "茨城県かすみがうら市上土田字山田330-2",
    "lat": 36.1534677,
    "lng": 140.2357315,
    "tel": "0299-59-5611",
    "url": "http://www.premierehitachino.com",
    "pref": "茨城県",
    "city": "かすみがうら市",
    "category": "day_service",
    "serviceType": "通所介護",
    "capacity": 0,
    "openDays": [
      "平日",
      "土曜日",
      "祝日"
    ],
    "openDaysNote": ""
  },
  {
    "id": "873900492",
    "name": "社会福祉法人　聖隷会　デイサービス　霞ヶ浦の里",
    "kana": "シャカイフクシホウジン　セイレイカイ　デイサービス　カスミガウラノサト",
    "address": "茨城県かすみがうら市男神356番地１",
    "lat": 36.0883939,
    "lng": 140.3455459,
    "tel": "029-834-6000",
    "url": "http://www.seireikai.jp/",
    "pref": "茨城県",
    "city": "かすみがうら市",
    "category": "day_service",
    "serviceType": "通所介護",
    "capacity": 20,
    "openDays": [
      "平日",
      "土曜日",
      "祝日"
    ],
    "openDaysNote": ""
  },
  {
    "id": "873000392",
    "name": "通所介護事業所　筑水苑かすみがうら",
    "kana": "ツウショカイゴジギョウショ　チクスイエンカスミガウラ",
    "address": "茨城県かすみがうら市宍倉6150-5",
    "lat": 36.1233378,
    "lng": 140.2607993,
    "tel": "029-869-6331",
    "url": "http://www.tikusuien.jp/kasumigaura/about/",
    "pref": "茨城県",
    "city": "かすみがうら市",
    "category": "day_service",
    "serviceType": "通所介護",
    "capacity": null,
    "openDays": [
      "平日",
      "土曜日",
      "祝日"
    ],
    "openDaysNote": ""
  },
  {
    "id": "875500365",
    "name": "アプローズみらい平",
    "kana": "アプローズミライダイラ",
    "address": "茨城県つくばみらい市紫峰ヶ丘３－２－５",
    "lat": 36.0050633,
    "lng": 140.034152,
    "tel": "0297-34-1300",
    "url": "http://www.smile-one.info",
    "pref": "茨城県",
    "city": "つくばみらい市",
    "category": "day_service",
    "serviceType": "通所介護",
    "capacity": 30,
    "openDays": [
      "平日",
      "土曜日",
      "祝日"
    ],
    "openDaysNote": ""
  },
  {
    "id": "875500076",
    "name": "ケアステージつくばみらい指定通所介護事業所",
    "kana": "ケアステージツクバミライシテイツウショカイゴジギョウショ",
    "address": "茨城県つくばみらい市東楢戸872番地7",
    "lat": 35.9910649878714,
    "lng": 140.034200201136,
    "tel": "0297-38-6500",
    "url": "http://carewind.co.jp",
    "pref": "茨城県",
    "city": "つくばみらい市",
    "category": "day_service",
    "serviceType": "通所介護",
    "capacity": 100,
    "openDays": [
      "平日",
      "土曜日",
      "祝日"
    ],
    "openDaysNote": ""
  },
  {
    "id": "875500407",
    "name": "ご長寿くらぶつくばみらい伊奈東デイサービスセンター",
    "kana": "ゴチョウジュクラブツクバミライイナヒガシデイサービスセンター",
    "address": "茨城県つくばみらい市伊奈東33-98",
    "lat": 35.9920617,
    "lng": 140.0574874,
    "tel": "0297-44-8686",
    "url": "gochouzyuclub-inahigashi@iaa.itkeeper.ne.jp",
    "pref": "茨城県",
    "city": "つくばみらい市",
    "category": "day_service",
    "serviceType": "通所介護",
    "capacity": 0,
    "openDays": [
      "平日",
      "土曜日",
      "日曜日",
      "祝日"
    ],
    "openDaysNote": ""
  },
  {
    "id": "875500431",
    "name": "ご長寿くらぶつくばみらい小絹デイサービスセンター",
    "kana": "ゴチョウジュクラブツクバミライコキヌデイサービスセンター",
    "address": "茨城県つくばみらい市小絹1284-1",
    "lat": 35.9864678,
    "lng": 139.9777537,
    "tel": "0297-44-6688",
    "url": "gochouzyuclub-kokinu@iaa.inkeeper.ne.jp",
    "pref": "茨城県",
    "city": "つくばみらい市",
    "category": "day_service",
    "serviceType": "通所介護",
    "capacity": 0,
    "openDays": [
      "平日",
      "土曜日",
      "祝日"
    ],
    "openDaysNote": ""
  },
  {
    "id": "875500183",
    "name": "デイサービス　さくらの里",
    "kana": "デイサービス　サクラノサト",
    "address": "福岡3000-1",
    "lat": 36.0325826565816,
    "lng": 140.03105247866,
    "tel": "0297-44-9005",
    "url": "http://www.sakuranosato.org",
    "pref": "茨城県",
    "city": "つくばみらい市",
    "category": "day_service",
    "serviceType": "通所介護",
    "capacity": 10,
    "openDays": [
      "平日",
      "土曜日",
      "祝日"
    ],
    "openDaysNote": "年末　12月30日～1月3日　休み"
  },
  {
    "id": "874000102",
    "name": "デイサービスセンター　いなの里",
    "kana": "デイサービスセンター　イナノサト",
    "address": "つくばみらい市長渡呂新田840番地2",
    "lat": 35.9567133,
    "lng": 140.02731,
    "tel": "0297-57-1223",
    "url": "http://www.inanosato.com/",
    "pref": "茨城県",
    "city": "つくばみらい市",
    "category": "day_service",
    "serviceType": "通所介護",
    "capacity": 0,
    "openDays": [
      "平日",
      "土曜日",
      "祝日"
    ],
    "openDaysNote": "第１号通所事業（介護予防通所介護相当サービス）については、月、火、木、金の営業　水、土、日は休み"
  },
  {
    "id": "875500456",
    "name": "トヨリハ",
    "kana": "トヨリハ",
    "address": "茨城県つくばみらい市上小目166-1",
    "lat": 35.9873157,
    "lng": 139.9971982,
    "tel": "0297-21-2626",
    "url": "https://toyoshima-mirai-kikaku-1661.co.jp/",
    "pref": "茨城県",
    "city": "つくばみらい市",
    "category": "day_service",
    "serviceType": "通所介護",
    "capacity": 0,
    "openDays": [
      "平日",
      "土曜日",
      "祝日"
    ],
    "openDaysNote": ""
  },
  {
    "id": "874000169",
    "name": "株式会社　スマイルケア　指定通所介護事業所",
    "kana": "カブシキガイシャ　スマイルケア　シテイツウショカイゴジギョウショ",
    "address": "つくばみらい市福岡1275-1",
    "lat": 36.0251747,
    "lng": 140.0325703,
    "tel": "0297-20-5517",
    "url": "http://www.smile-care.jp/",
    "pref": "茨城県",
    "city": "つくばみらい市",
    "category": "day_service",
    "serviceType": "通所介護",
    "capacity": 30,
    "openDays": [
      "平日",
      "土曜日",
      "日曜日",
      "祝日"
    ],
    "openDaysNote": "２４時間対応"
  },
  {
    "id": "874000052",
    "name": "谷和原指定通所介護事業所",
    "kana": "ヤワラシテイツウショカイゴジギョウショ",
    "address": "茨城県つくばみらい市古川1047",
    "lat": 35.9927669,
    "lng": 140.013099,
    "tel": "0297-52-1280",
    "url": "http://nukumorisou.com/",
    "pref": "茨城県",
    "city": "つくばみらい市",
    "category": "day_service",
    "serviceType": "通所介護",
    "capacity": 25,
    "openDays": [
      "平日",
      "土曜日",
      "祝日"
    ],
    "openDaysNote": ""
  },
  {
    "id": "872001847",
    "name": "アイシーネット　さくらデイサービスセンター",
    "kana": "アイシーネット　サクラデイサービスセンター",
    "address": "つくば市柴崎１０５５",
    "lat": 36.1089362,
    "lng": 140.1191237,
    "tel": "029-896-5300",
    "url": "info@icnet-tsukuba.com",
    "pref": "茨城県",
    "city": "つくば市",
    "category": "day_service",
    "serviceType": "通所介護",
    "capacity": 25,
    "openDays": [
      "平日",
      "土曜日",
      "祝日"
    ],
    "openDaysNote": ""
  },
  {
    "id": "872001623",
    "name": "あずみ苑高見原",
    "kana": "アズミエンタカミハラ",
    "address": "茨城県つくば市高見原2-10-77",
    "lat": 35.9973224,
    "lng": 140.1315165,
    "tel": "029-878-5121",
    "url": "https://www.az-lifecare.co.jp/",
    "pref": "茨城県",
    "city": "つくば市",
    "category": "day_service",
    "serviceType": "通所介護",
    "capacity": 0,
    "openDays": [
      "平日",
      "土曜日",
      "日曜日",
      "祝日"
    ],
    "openDaysNote": ""
  },
  {
    "id": "872003074",
    "name": "アドニスケアセンター",
    "kana": "アドニスケアセンター",
    "address": "茨城県つくば市上郷8105-71",
    "lat": 36.0954835,
    "lng": 140.0300938,
    "tel": "029-828-8351",
    "url": "https://adonis0000.amebaownd.com/",
    "pref": "茨城県",
    "city": "つくば市",
    "category": "day_service",
    "serviceType": "通所介護",
    "capacity": 0,
    "openDays": [
      "平日",
      "祝日"
    ],
    "openDaysNote": ""
  },
  {
    "id": "872003082",
    "name": "グッド・デイサービス",
    "kana": "グッド・デイサービス",
    "address": "茨城県つくば市大貫235番地",
    "lat": 36.1928475,
    "lng": 140.0782166,
    "tel": "029-846-2985",
    "url": "http://hp.kaipoke.biz/km8/",
    "pref": "茨城県",
    "city": "つくば市",
    "category": "day_service",
    "serviceType": "通所介護",
    "capacity": null,
    "openDays": [
      "平日",
      "土曜日",
      "日曜日",
      "祝日"
    ],
    "openDaysNote": ""
  },
  {
    "id": "872003140",
    "name": "グッド・デイサービス　つくば花室",
    "kana": "グッド・デイサービス　ツクバハナムロ",
    "address": "茨城県つくば市花室493-1",
    "lat": 36.0904007,
    "lng": 140.1364928,
    "tel": "029-875-5566",
    "url": "http://hp.kaipoke.biz/km8/",
    "pref": "茨城県",
    "city": "つくば市",
    "category": "day_service",
    "serviceType": "通所介護",
    "capacity": null,
    "openDays": [
      "平日",
      "土曜日",
      "日曜日",
      "祝日"
    ],
    "openDaysNote": ""
  },
  {
    "id": "872003462",
    "name": "グッド・デイサービスつくば高野",
    "kana": "グッド・デイサービスツクバコウヤ",
    "address": "茨城県つくば市高野1155-2",
    "lat": 36.1063767,
    "lng": 140.0401441,
    "tel": "029-893-2610",
    "url": "http://hp.kaipoke.biz/km8/",
    "pref": "茨城県",
    "city": "つくば市",
    "category": "day_service",
    "serviceType": "通所介護",
    "capacity": null,
    "openDays": [
      "平日",
      "土曜日",
      "日曜日",
      "祝日"
    ],
    "openDaysNote": ""
  },
  {
    "id": "872002159",
    "name": "ケアステーションあさひつくば",
    "kana": "ケアステーションアサヒツクバ",
    "address": "茨城県つくば市研究学園4丁目4番地13",
    "lat": 36.0859545914356,
    "lng": 140.076240483127,
    "tel": "029-848-5170",
    "url": "http://www.vati.co.jp/",
    "pref": "茨城県",
    "city": "つくば市",
    "category": "day_service",
    "serviceType": "通所介護",
    "capacity": 0,
    "openDays": [
      "平日",
      "土曜日",
      "日曜日",
      "祝日"
    ],
    "openDaysNote": ""
  },
  {
    "id": "872000955",
    "name": "ケアパートナーつくば",
    "kana": "ケアパートナーツクバ",
    "address": "茨城県つくば市高野台３丁目５番１号",
    "lat": 36.02593,
    "lng": 140.1224271,
    "tel": "029-839-0311",
    "url": "http://www.care-partner.com/",
    "pref": "茨城県",
    "city": "つくば市",
    "category": "day_service",
    "serviceType": "通所介護",
    "capacity": 50,
    "openDays": [
      "平日",
      "土曜日",
      "日曜日",
      "祝日"
    ],
    "openDaysNote": "日曜営業：基本的に第3日曜日のみ営業（お客様の都合等により他日曜日に営業する場合もある）"
  },
  {
    "id": "872002738",
    "name": "コミュニティガーデンつくば",
    "kana": "コミュニティガーデンツクバ",
    "address": "西大井1733-33",
    "lat": 36.0186928027411,
    "lng": 140.130110939148,
    "tel": "029-896-6031",
    "url": "http://www.communitygarden.jp/tsukuba/",
    "pref": "茨城県",
    "city": "つくば市",
    "category": "day_service",
    "serviceType": "通所介護",
    "capacity": 190,
    "openDays": [
      "平日",
      "土曜日",
      "祝日"
    ],
    "openDaysNote": ""
  },
  {
    "id": "872002555",
    "name": "コンフォートつくばデイサービス",
    "kana": "コンフォートツクバデイサービス",
    "address": "茨城県つくば市台町2-3-10",
    "lat": 36.038683,
    "lng": 140.0838478,
    "tel": "029-875-5656",
    "url": "http://www.ssv-tsukuba.jp",
    "pref": "茨城県",
    "city": "つくば市",
    "category": "day_service",
    "serviceType": "通所介護",
    "capacity": 0,
    "openDays": [
      "平日",
      "土曜日",
      "祝日"
    ],
    "openDaysNote": ""
  },
  {
    "id": "872001870",
    "name": "ツクイ花畑",
    "kana": "ツクイハナバタケ",
    "address": "茨城県つくば市花畑3-21-3",
    "lat": 36.1304942,
    "lng": 140.0900351,
    "tel": "029-877-6287",
    "url": "http://www.tsukui.net",
    "pref": "茨城県",
    "city": "つくば市",
    "category": "day_service",
    "serviceType": "通所介護",
    "capacity": null,
    "openDays": [
      "平日",
      "土曜日",
      "日曜日",
      "祝日"
    ],
    "openDaysNote": "年中無休"
  },
  {
    "id": "872001987",
    "name": "つくばフィジカルフィットネススタジオ",
    "kana": "ツクバフィジカルフィットネススタジオ",
    "address": "大曽根3721-9",
    "lat": 36.1394959,
    "lng": 140.0793881,
    "tel": "029-864-8155",
    "url": "http://www.tsukuba-medicare-residence.jp",
    "pref": "茨城県",
    "city": "つくば市",
    "category": "day_service",
    "serviceType": "通所介護",
    "capacity": 20,
    "openDays": [
      "平日",
      "祝日"
    ],
    "openDaysNote": ""
  },
  {
    "id": "872003017",
    "name": "デイサービス　ココカラ",
    "kana": "デイサービス　ココカラ",
    "address": "茨城県つくば市高崎１７９７－９",
    "lat": 36.0016095714378,
    "lng": 140.124076491814,
    "tel": "029-869-8315",
    "url": "https://www.kokoro-color.com",
    "pref": "茨城県",
    "city": "つくば市",
    "category": "day_service",
    "serviceType": "通所介護",
    "capacity": 5,
    "openDays": [
      "平日",
      "土曜日",
      "祝日"
    ],
    "openDaysNote": "１２月３１日～１月３日は年末年始休暇"
  },
  {
    "id": "872003512",
    "name": "デイサービス　ご縁",
    "kana": "デイサービス　ゴエン",
    "address": "茨城県つくば市北条1646-7",
    "lat": 36.1738705,
    "lng": 140.1018936,
    "tel": "029-879-9362",
    "url": "https://www.connectring-50.info",
    "pref": "茨城県",
    "city": "つくば市",
    "category": "day_service",
    "serviceType": "通所介護",
    "capacity": null,
    "openDays": [
      "平日",
      "土曜日"
    ],
    "openDaysNote": ""
  },
  {
    "id": "872002720",
    "name": "デイサービス　つくばらいふ",
    "kana": "デイサービス　ツクバライフ",
    "address": "花畑1-16-5デイサービス　つくばらいふ デイサービス　つくばらいふ",
    "lat": 35.7988977,
    "lng": 139.8120108,
    "tel": "029-864-7717",
    "url": "tsukubaraifu@tombow-life.jp",
    "pref": "茨城県",
    "city": "つくば市",
    "category": "day_service",
    "serviceType": "通所介護",
    "capacity": 0,
    "openDays": [
      "平日",
      "土曜日",
      "祝日"
    ],
    "openDaysNote": ""
  },
  {
    "id": "872001995",
    "name": "デイサービス　ビーンズリハビリセンター",
    "kana": "デイサービス　ビーンズリハビリセンター",
    "address": "大角豆２０１２－２４７",
    "lat": 36.0545261,
    "lng": 140.1433216,
    "tel": "029-850-3914",
    "url": "http://tsukuba.rehabilitation.pro/",
    "pref": "茨城県",
    "city": "つくば市",
    "category": "day_service",
    "serviceType": "通所介護",
    "capacity": 0,
    "openDays": [
      "平日",
      "土曜日",
      "祝日"
    ],
    "openDaysNote": ""
  },
  {
    "id": "872002019",
    "name": "デイサービス　ひなた",
    "kana": "デイサービスヒナタ",
    "address": "茨城つくば市花畑3-4-5",
    "lat": 36.1250502,
    "lng": 140.0956822,
    "tel": "029-879-7626",
    "url": "hinata@.e-wagaya.com",
    "pref": "茨城県",
    "city": "つくば市",
    "category": "day_service",
    "serviceType": "通所介護",
    "capacity": 0,
    "openDays": [
      "平日",
      "土曜日",
      "祝日"
    ],
    "openDaysNote": ""
  },
  {
    "id": "872002225",
    "name": "デイサービスここいち谷田部",
    "kana": "デイサービスココイチヤタベ",
    "address": "茨城県つくば市台町2-5-2",
    "lat": 36.0387412399329,
    "lng": 140.082947668916,
    "tel": "029-869-9751",
    "url": "https://isshin.gr.jp/index.php",
    "pref": "茨城県",
    "city": "つくば市",
    "category": "day_service",
    "serviceType": "通所介護",
    "capacity": 0,
    "openDays": [
      "平日",
      "土曜日",
      "祝日"
    ],
    "openDaysNote": ""
  },
  {
    "id": "872002969",
    "name": "デイサービスセンター　アイリスコート",
    "kana": "デイサービスセンター　アイリスコート",
    "address": "茨城県つくば市上横場中台429-1",
    "lat": 36.0518442,
    "lng": 140.0877089,
    "tel": "029-839-3131",
    "url": "http：//www.iriscourt.jp",
    "pref": "茨城県",
    "city": "つくば市",
    "category": "day_service",
    "serviceType": "通所介護",
    "capacity": 50,
    "openDays": [
      "平日",
      "土曜日",
      "祝日"
    ],
    "openDaysNote": ""
  },
  {
    "id": "872000716",
    "name": "デイサービスセンター　くきの里",
    "kana": "デイサービスセンター　クキノサト",
    "address": "茨城県つくば市上岩崎1845-27",
    "lat": 35.9858872,
    "lng": 140.0959278,
    "tel": "029-840-1131",
    "url": "http://www.aishinkai.or.jp",
    "pref": "茨城県",
    "city": "つくば市",
    "category": "day_service",
    "serviceType": "通所介護",
    "capacity": 35,
    "openDays": [
      "平日",
      "土曜日",
      "祝日"
    ],
    "openDaysNote": "営業時間前後の利用も可能です。"
  },
  {
    "id": "872003116",
    "name": "デイサービスセンターオアシス",
    "kana": "デイサービスセンターオアシス",
    "address": "上ノ室11583-1",
    "lat": 36.0805274,
    "lng": 140.1395164,
    "tel": "029－896－3776",
    "url": "",
    "pref": "茨城県",
    "city": "つくば市",
    "category": "day_service",
    "serviceType": "通所介護",
    "capacity": 0,
    "openDays": [
      "平日"
    ],
    "openDaysNote": ""
  },
  {
    "id": "872002670",
    "name": "デイサービスセンターきらめき",
    "kana": "デイサービスセンターキラメキ",
    "address": "茨城県つくば市上郷1428-7",
    "lat": 36.1094218101385,
    "lng": 140.018610725812,
    "tel": "029-847-8480",
    "url": "http://kirameki-ds.com/index.html",
    "pref": "茨城県",
    "city": "つくば市",
    "category": "day_service",
    "serviceType": "通所介護",
    "capacity": 0,
    "openDays": [
      "平日",
      "土曜日",
      "祝日"
    ],
    "openDaysNote": "ただし、1月1日から1月3日、12月29日から12月31日までを除きます。"
  },
  {
    "id": "872002381",
    "name": "デイサービスセンターさとのこハウス学園中央",
    "kana": "デイサービスセンターサトノコハウスガクエンチュウオウ",
    "address": "茨城県つくば市東新井25-2",
    "lat": 36.0762091,
    "lng": 140.1154119,
    "tel": "029-850-3878",
    "url": "https://www.welcia-kaigo.co.jp/",
    "pref": "茨城県",
    "city": "つくば市",
    "category": "day_service",
    "serviceType": "通所介護",
    "capacity": 0,
    "openDays": [
      "平日",
      "土曜日",
      "祝日"
    ],
    "openDaysNote": ""
  },
  {
    "id": "872002589",
    "name": "デイサービスなごみ",
    "kana": "デイサービスナゴミ",
    "address": "茨城県つくば市今鹿島5011",
    "lat": 36.1291409505821,
    "lng": 140.036111348488,
    "tel": "029-886-8671",
    "url": "",
    "pref": "茨城県",
    "city": "つくば市",
    "category": "day_service",
    "serviceType": "通所介護",
    "capacity": 0,
    "openDays": [
      "平日",
      "土曜日",
      "祝日"
    ],
    "openDaysNote": ""
  },
  {
    "id": "872000476",
    "name": "デイサービス花室長寿館",
    "kana": "デイサービスハナムロチョウジュカン",
    "address": "茨城県つくば市大角豆1807-1",
    "lat": 36.0715013,
    "lng": 140.1355163,
    "tel": "029-854-8228",
    "url": "http://www.tyoujukan.jp/",
    "pref": "茨城県",
    "city": "つくば市",
    "category": "day_service",
    "serviceType": "通所介護",
    "capacity": 30,
    "openDays": [
      "平日",
      "祝日"
    ],
    "openDaysNote": ""
  },
  {
    "id": "872002878",
    "name": "デイサービス糸車",
    "kana": "デイサービスイトグルマ",
    "address": "茨城県つくば市館野363-2",
    "lat": 36.0457689,
    "lng": 140.114678825131,
    "tel": "029-845-3421",
    "url": "",
    "pref": "茨城県",
    "city": "つくば市",
    "category": "day_service",
    "serviceType": "通所介護",
    "capacity": 0,
    "openDays": [
      "平日"
    ],
    "openDaysNote": ""
  },
  {
    "id": "872002076",
    "name": "はっぴーデイサービスセンター",
    "kana": "ハッピーデイサービスセンター",
    "address": "茨城県つくば市谷田部4377-2",
    "lat": 36.0119952,
    "lng": 140.0855497,
    "tel": "029-837-1137",
    "url": "http://ushilu-genkikan.com",
    "pref": "茨城県",
    "city": "つくば市",
    "category": "day_service",
    "serviceType": "通所介護",
    "capacity": 50,
    "openDays": [
      "平日",
      "土曜日",
      "祝日"
    ],
    "openDaysNote": ""
  },
  {
    "id": "872002324",
    "name": "医療法人社団健康尚仁会　飯村医院",
    "kana": "イリョウホウジンシャダンケンコウドウジンカイ　イイムライイン",
    "address": "北条4408-3",
    "lat": 36.1743328182564,
    "lng": 140.093858640475,
    "tel": "029-867-6877",
    "url": "iimura-iin@serio.jp",
    "pref": "茨城県",
    "city": "つくば市",
    "category": "day_service",
    "serviceType": "通所介護",
    "capacity": 0,
    "openDays": [
      "平日",
      "土曜日",
      "祝日"
    ],
    "openDaysNote": "年末年始12/30～1/3"
  },
  {
    "id": "872001656",
    "name": "指定通所介護事業所　シニアガーデンアネックス",
    "kana": "シテイツウショカイゴジギョウショ　シニアガーデンアネックス",
    "address": "茨城県つくば市水守１１８９－５",
    "lat": 36.1671103,
    "lng": 140.0560037,
    "tel": "029-867-7800",
    "url": "http://www.f-kenseikai.or.jp",
    "pref": "茨城県",
    "city": "つくば市",
    "category": "day_service",
    "serviceType": "通所介護",
    "capacity": 0,
    "openDays": [
      "平日",
      "土曜日",
      "祝日"
    ],
    "openDaysNote": ""
  },
  {
    "id": "872002365",
    "name": "松代ケアセンターそよ風",
    "kana": "マツシロケアセンターソヨカゼ",
    "address": "茨城県つくば市松代4-8-2",
    "lat": 36.0671075,
    "lng": 140.1046822,
    "tel": "029-850-3715",
    "url": "",
    "pref": "茨城県",
    "city": "つくば市",
    "category": "day_service",
    "serviceType": "通所介護",
    "capacity": 25,
    "openDays": [
      "平日",
      "土曜日",
      "祝日"
    ],
    "openDaysNote": ""
  },
  {
    "id": "872000369",
    "name": "新つくばホームデイサービスセンター",
    "kana": "シンツクバホームデイサービスセンター",
    "address": "茨城県つくば市学園の森3丁目29番地2",
    "lat": 36.0939375,
    "lng": 140.09183,
    "tel": "029-856-4472",
    "url": "http://www.shin-tsukuba-jp",
    "pref": "茨城県",
    "city": "つくば市",
    "category": "day_service",
    "serviceType": "通所介護",
    "capacity": 30,
    "openDays": [
      "平日",
      "土曜日",
      "祝日"
    ],
    "openDaysNote": ""
  },
  {
    "id": "872001102",
    "name": "新つくばホームデイサービスセンター新館",
    "kana": "シンツクバホームデイサービスセンターシンカン",
    "address": "茨城県つくば市学園の森3丁目２９－２",
    "lat": 36.0939375,
    "lng": 140.09183,
    "tel": "029-856-4477",
    "url": "http://www.shin-tsukuba-jp",
    "pref": "茨城県",
    "city": "つくば市",
    "category": "day_service",
    "serviceType": "通所介護",
    "capacity": 0,
    "openDays": [
      "平日",
      "土曜日",
      "祝日"
    ],
    "openDaysNote": ""
  },
  {
    "id": "872003470",
    "name": "燈杜リハビリセンター",
    "kana": "トウトリハビリセンター",
    "address": "茨城県つくば市西平塚318－1",
    "lat": 36.1025057252485,
    "lng": 140.088371354631,
    "tel": "028-863-6886",
    "url": "https://toutoreha.jp/",
    "pref": "茨城県",
    "city": "つくば市",
    "category": "day_service",
    "serviceType": "通所介護",
    "capacity": 0,
    "openDays": [
      "平日",
      "土曜日",
      "祝日"
    ],
    "openDaysNote": ""
  },
  {
    "id": "872003207",
    "name": "流星台ケアセンターそよ風",
    "kana": "リュウセイダイケアセンターソヨカゼ",
    "address": "流星台3-7",
    "lat": 36.0990598,
    "lng": 140.1233394,
    "tel": "029-863-5020",
    "url": "",
    "pref": "茨城県",
    "city": "つくば市",
    "category": "day_service",
    "serviceType": "通所介護",
    "capacity": 0,
    "openDays": [
      "平日",
      "土曜日",
      "祝日"
    ],
    "openDaysNote": ""
  },
  {
    "id": "872102025",
    "name": "39ガーデンプレイス　デイサービス　ありが湯",
    "kana": "サンキュウガーデンプレイス　デイサービス　アリガトウ",
    "address": "茨城県ひたちなか市東石川3139-2",
    "lat": 36.4188226789063,
    "lng": 140.535147997484,
    "tel": "029-352-3937",
    "url": "https://arigatou-kaigo.com/day-service/",
    "pref": "茨城県",
    "city": "ひたちなか市",
    "category": "day_service",
    "serviceType": "通所介護",
    "capacity": 0,
    "openDays": [
      "平日",
      "土曜日",
      "祝日"
    ],
    "openDaysNote": "8月13日～8月15日及び12月31日～1月3日は定休日とする"
  },
  {
    "id": "872101944",
    "name": "ケアサポート　みなと",
    "kana": "ケアサポート　ミナト",
    "address": "ひたちなか市湊中央１－７－２３",
    "lat": 36.3420836,
    "lng": 140.5888388,
    "tel": "029-229-2107",
    "url": "http://trust-caresupport.com/index.html",
    "pref": "茨城県",
    "city": "ひたちなか市",
    "category": "day_service",
    "serviceType": "通所介護",
    "capacity": null,
    "openDays": [
      "平日"
    ],
    "openDaysNote": "上記営業日の他、不定期に休日の営業の予定あり"
  },
  {
    "id": "872102231",
    "name": "ご長寿くらぶ　笹野Ⅰデイサービスセンター",
    "kana": "ゴチョウジュクラブ　ササノⅠデイサービスセンター",
    "address": "茨城県ひたちなか市笹野町3丁目1-6ご長寿くらぶ　笹野Ⅰ ご長寿くらぶ　笹野Ⅰ",
    "lat": 36.3955714,
    "lng": 140.547166,
    "tel": "029-212-3770",
    "url": "http://gotyoujyuclub.com/hometype/817",
    "pref": "茨城県",
    "city": "ひたちなか市",
    "category": "day_service",
    "serviceType": "通所介護",
    "capacity": 0,
    "openDays": [
      "平日",
      "土曜日",
      "祝日"
    ],
    "openDaysNote": ""
  },
  {
    "id": "872100961",
    "name": "ツクイ　ひたちなか",
    "kana": "ツクイ　ヒタチナカ",
    "address": "茨城県ひたちなか市高場315-1",
    "lat": 36.4213915,
    "lng": 140.5407331,
    "tel": "029-270-3575",
    "url": "http://www.tsukui.het",
    "pref": "茨城県",
    "city": "ひたちなか市",
    "category": "day_service",
    "serviceType": "通所介護",
    "capacity": 33,
    "openDays": [
      "平日",
      "土曜日",
      "日曜日",
      "祝日"
    ],
    "openDaysNote": "３６５日対応、２４時間常時連絡可能"
  },
  {
    "id": "872101670",
    "name": "デイサービスSARA（さら）らいびーず",
    "kana": "デイサービスサラライビーズ",
    "address": "茨城県ひたちなか市高場2-18-7",
    "lat": 36.4233943,
    "lng": 140.5344733,
    "tel": "029-229-0124",
    "url": "https://www.live-core-support.com/",
    "pref": "茨城県",
    "city": "ひたちなか市",
    "category": "day_service",
    "serviceType": "通所介護",
    "capacity": null,
    "openDays": [
      "平日",
      "土曜日",
      "日曜日",
      "祝日"
    ],
    "openDaysNote": ""
  },
  {
    "id": "872102108",
    "name": "デイサービスくれあ",
    "kana": "デイサービスクレア",
    "address": "茨城県ひたちなか市高場1-24-11",
    "lat": 36.4278301,
    "lng": 140.5381731,
    "tel": "029-212-6212",
    "url": "https://www.live-core-support.com/",
    "pref": "茨城県",
    "city": "ひたちなか市",
    "category": "day_service",
    "serviceType": "通所介護",
    "capacity": 0,
    "openDays": [
      "平日",
      "土曜日",
      "日曜日",
      "祝日"
    ],
    "openDaysNote": ""
  },
  {
    "id": "872100763",
    "name": "デイサービスセンター　はまぎくの里",
    "kana": "デイサービスセンター　ハマギクノサト",
    "address": "茨城県ひたちなか市中根952-1",
    "lat": 36.3869834,
    "lng": 140.5620116,
    "tel": "029-273-4165",
    "url": "http://www.hamagiku4165.com",
    "pref": "茨城県",
    "city": "ひたちなか市",
    "category": "day_service",
    "serviceType": "通所介護",
    "capacity": 0,
    "openDays": [
      "平日",
      "土曜日",
      "祝日"
    ],
    "openDaysNote": ""
  },
  {
    "id": "872100441",
    "name": "デイサービスセンターたびこの湯",
    "kana": "デイサービスセンタータビコノユ",
    "address": "茨城県ひたちなか市田彦１３９０－７",
    "lat": 36.4130036,
    "lng": 140.5216857,
    "tel": "029-275-7311",
    "url": "http://www.ibc.or.jp/^tabikonoyu/",
    "pref": "茨城県",
    "city": "ひたちなか市",
    "category": "day_service",
    "serviceType": "通所介護",
    "capacity": null,
    "openDays": [
      "平日",
      "土曜日",
      "祝日"
    ],
    "openDaysNote": ""
  },
  {
    "id": "872100235",
    "name": "デイサービスセンター北勝園",
    "kana": "デイサービスセンターホクショウエン",
    "address": "茨城県ひたちなか市津田2093-1",
    "lat": 36.4050076,
    "lng": 140.4919829,
    "tel": "029-276-0650",
    "url": "http://www.hokusuikai.or.jp",
    "pref": "茨城県",
    "city": "ひたちなか市",
    "category": "day_service",
    "serviceType": "通所介護",
    "capacity": null,
    "openDays": [
      "平日",
      "土曜日",
      "日曜日",
      "祝日"
    ],
    "openDaysNote": "なし"
  },
  {
    "id": "872100953",
    "name": "ディサービスラベンダー",
    "kana": "ディサービスラベンダー",
    "address": "茨城県ひたちなか市馬渡2758-1",
    "lat": 36.3971948996707,
    "lng": 140.564990844959,
    "tel": "029-352-3339",
    "url": "",
    "pref": "茨城県",
    "city": "ひたちなか市",
    "category": "day_service",
    "serviceType": "通所介護",
    "capacity": 25,
    "openDays": [
      "平日",
      "土曜日",
      "祝日"
    ],
    "openDaysNote": ""
  },
  {
    "id": "872101118",
    "name": "デイサービス足崎",
    "kana": "デイサービスタラザキ",
    "address": "茨城県ひたちなか市足崎１４５７－１５９",
    "lat": 36.4116016257486,
    "lng": 140.55341257919,
    "tel": "029-354-6638",
    "url": "",
    "pref": "茨城県",
    "city": "ひたちなか市",
    "category": "day_service",
    "serviceType": "通所介護",
    "capacity": 0,
    "openDays": [
      "平日",
      "土曜日",
      "祝日"
    ],
    "openDaysNote": ""
  },
  {
    "id": "872100144",
    "name": "ニチイケアセンターひたちなか",
    "kana": "ニチイケアセンターヒタチナカ",
    "address": "茨城県ひたちなか市東石川2-6-10",
    "lat": 36.3956511,
    "lng": 140.5369731,
    "tel": "029-354-0841",
    "url": "http://www.nichiigakkan.co.jp",
    "pref": "茨城県",
    "city": "ひたちなか市",
    "category": "day_service",
    "serviceType": "通所介護",
    "capacity": 0,
    "openDays": [
      "平日",
      "土曜日",
      "日曜日",
      "祝日"
    ],
    "openDaysNote": ""
  },
  {
    "id": "872101548",
    "name": "フロイデ総合在宅サポートセンターひたちなか",
    "kana": "フロイデソウゴウザイタクサポートセンターヒタチナカ",
    "address": "大字足崎1474－7",
    "lat": 36.404453,
    "lng": 140.552771,
    "tel": "029－275－5050",
    "url": "",
    "pref": "茨城県",
    "city": "ひたちなか市",
    "category": "day_service",
    "serviceType": "通所介護",
    "capacity": 0,
    "openDays": [
      "平日",
      "土曜日",
      "日曜日",
      "祝日"
    ],
    "openDaysNote": "365日営業"
  },
  {
    "id": "872101621",
    "name": "プロスペクト　カーサたかば　デイサービス",
    "kana": "プロスペクト　カーサタカバ　デイサービス",
    "address": "茨城県ひたちなか市西光地３丁目１６番地１号",
    "lat": 36.4203054342835,
    "lng": 140.535205985693,
    "tel": "０２９－２２９－０７７１",
    "url": "http://www.morita-kinenkai.com/",
    "pref": "茨城県",
    "city": "ひたちなか市",
    "category": "day_service",
    "serviceType": "通所介護",
    "capacity": null,
    "openDays": [
      "平日",
      "土曜日",
      "日曜日",
      "祝日"
    ],
    "openDaysNote": ""
  },
  {
    "id": "872102462",
    "name": "リハビリデイなないろ",
    "kana": "リハビリデイナナイロ",
    "address": "茨城県ひたちなか市大字佐和字孫目東2242番地7",
    "lat": 36.4519225241251,
    "lng": 140.534929985814,
    "tel": "029-352-2084",
    "url": "",
    "pref": "茨城県",
    "city": "ひたちなか市",
    "category": "day_service",
    "serviceType": "通所介護",
    "capacity": 0,
    "openDays": [
      "平日"
    ],
    "openDaysNote": ""
  },
  {
    "id": "872100813",
    "name": "リハビリホーム勝田",
    "kana": "リハビリホームカツタ",
    "address": "茨城県ひたちなか市田彦1648-5",
    "lat": 36.4094665958644,
    "lng": 140.514900585457,
    "tel": "029-275-3319",
    "url": "",
    "pref": "茨城県",
    "city": "ひたちなか市",
    "category": "day_service",
    "serviceType": "通所介護",
    "capacity": 30,
    "openDays": [
      "平日",
      "土曜日",
      "祝日"
    ],
    "openDaysNote": "祝祭日は通常営業"
  },
  {
    "id": "872101662",
    "name": "ルアルデイサービス　ひたちなか",
    "kana": "ルアルデイサービス　ヒタチナカ",
    "address": "41-1",
    "lat": 35.7707719,
    "lng": 139.692638,
    "tel": "029-229-0277",
    "url": "http://rosalith-kaigo.com",
    "pref": "茨城県",
    "city": "ひたちなか市",
    "category": "day_service",
    "serviceType": "通所介護",
    "capacity": 0,
    "openDays": [
      "平日",
      "土曜日",
      "祝日"
    ],
    "openDaysNote": "年末年始（１２月３１日から１月３日まで）及び職員の研修等臨時の休業日を除く。"
  },
  {
    "id": "872102199",
    "name": "庵の家デイサービス",
    "kana": "アンノイエデイサービス",
    "address": "高場宮原1557-21",
    "lat": 36.4206889,
    "lng": 140.5427393,
    "tel": "029-229-2317",
    "url": "",
    "pref": "茨城県",
    "city": "ひたちなか市",
    "category": "day_service",
    "serviceType": "通所介護",
    "capacity": 2,
    "openDays": [
      "平日",
      "土曜日",
      "祝日"
    ],
    "openDaysNote": "年始休業１/１～１/３"
  },
  {
    "id": "872102348",
    "name": "茨城県ひたちなか市烏ヶ台11837",
    "kana": "イバラキケンヒタチナカシカラスガダイ",
    "address": "茨城県ひたちなか市烏ヶ台１１８３７恵苑３デイサービス事業所　青空館 恵苑３デイサービス事業所　青空館",
    "lat": 36.3672091171406,
    "lng": 140.600545649321,
    "tel": "029-262-5566",
    "url": "http：//www.katsujinkai-megumien.com",
    "pref": "茨城県",
    "city": "ひたちなか市",
    "category": "day_service",
    "serviceType": "通所介護",
    "capacity": 20,
    "openDays": [
      "平日",
      "土曜日"
    ],
    "openDaysNote": "午前9：15～12:15、午後13：15～16:16:15　入れ替え制"
  },
  {
    "id": "872100227",
    "name": "恵苑　デイサービス事業所",
    "kana": "メグミエン　デイサービスジギョウショ",
    "address": "茨城県ひたちなか市烏ヶ台11835-2",
    "lat": 36.3680583,
    "lng": 140.5998832,
    "tel": "029-262-5566",
    "url": "http://www.katsujinkai.or.jp/skin/home.php?PG=g_megumi",
    "pref": "茨城県",
    "city": "ひたちなか市",
    "category": "day_service",
    "serviceType": "通所介護",
    "capacity": 0,
    "openDays": [
      "平日",
      "土曜日",
      "日曜日",
      "祝日"
    ],
    "openDaysNote": ""
  },
  {
    "id": "872100888",
    "name": "恵苑2デイサービス事業所",
    "kana": "メグミエン2デイサービスジギョウショ",
    "address": "茨城県ひたちなか市烏ヶ台11836-1",
    "lat": 36.3677417,
    "lng": 140.6004442,
    "tel": "029-264-3800",
    "url": "http://www.katsujinkai.or.jp/skin/home.php?PG=g_megumi",
    "pref": "茨城県",
    "city": "ひたちなか市",
    "category": "day_service",
    "serviceType": "通所介護",
    "capacity": 0,
    "openDays": [
      "平日"
    ],
    "openDaysNote": ""
  },
  {
    "id": "872100805",
    "name": "勝田ケアセンターそよ風",
    "kana": "カツタケアセンターソヨカゼ",
    "address": "茨城県ひたちなか市中根２４４４－１",
    "lat": 36.389052,
    "lng": 140.5528187,
    "tel": "029-353-3115",
    "url": "",
    "pref": "茨城県",
    "city": "ひたちなか市",
    "category": "day_service",
    "serviceType": "通所介護",
    "capacity": 30,
    "openDays": [
      "平日",
      "土曜日",
      "祝日"
    ],
    "openDaysNote": "土曜日・祝祭日も営業"
  },
  {
    "id": "872101571",
    "name": "本郷の森　デイサービス　おひさま館",
    "kana": "ホンゴウノモリ　デイサービス　オヒサマカン",
    "address": "馬渡2758-1",
    "lat": 36.3971685,
    "lng": 140.5657745,
    "tel": "029-273-7755",
    "url": "https://www.ohisamakan.com/",
    "pref": "茨城県",
    "city": "ひたちなか市",
    "category": "day_service",
    "serviceType": "通所介護",
    "capacity": 0,
    "openDays": [
      "平日",
      "土曜日",
      "日曜日",
      "祝日"
    ],
    "openDaysNote": ""
  },
  {
    "id": "872100383",
    "name": "老人デイサービスセンター　いくり苑",
    "kana": "ロウジンデイサービスセンターイクリエン",
    "address": "ひたちなか市磯崎町4555-1",
    "lat": 36.3768224548718,
    "lng": 140.620099699475,
    "tel": "029-264-2880",
    "url": "http:/www16.plala.or.jp.ikurien/",
    "pref": "茨城県",
    "city": "ひたちなか市",
    "category": "day_service",
    "serviceType": "通所介護",
    "capacity": null,
    "openDays": [
      "平日",
      "土曜日",
      "祝日"
    ],
    "openDaysNote": "急な曜日変更等も相談に応じ可能"
  },
  {
    "id": "870700374",
    "name": "あずみ苑　結城",
    "kana": "アズミエン　ユウキ",
    "address": "茨城県結城市結城10638",
    "lat": 36.3027515,
    "lng": 139.8624014,
    "tel": "0296-21-3021",
    "url": "http://www.leopalace21.co.jp/silver.html",
    "pref": "茨城県",
    "city": "阿見町",
    "category": "day_service",
    "serviceType": "通所介護",
    "capacity": 0,
    "openDays": [
      "平日",
      "土曜日",
      "祝日"
    ],
    "openDaysNote": ""
  },
  {
    "id": "873801500",
    "name": "すずデイサービス",
    "kana": "スズデイサービス",
    "address": "茨城県稲敷郡阿見町小池1631-4",
    "lat": 35.9899475,
    "lng": 140.1975867,
    "tel": "029-886-8451",
    "url": "",
    "pref": "茨城県",
    "city": "阿見町",
    "category": "day_service",
    "serviceType": "通所介護",
    "capacity": 0,
    "openDays": [
      "平日",
      "土曜日",
      "日曜日",
      "祝日"
    ],
    "openDaysNote": ""
  },
  {
    "id": "871700233",
    "name": "デイ・アクティブホーム潤取手",
    "kana": "デイ・アクティブホームジュントリデ",
    "address": "茨城県駒場3丁目7－15",
    "lat": 35.9175132,
    "lng": 140.0532928,
    "tel": "0297-70-5135",
    "url": "",
    "pref": "茨城県",
    "city": "阿見町",
    "category": "day_service",
    "serviceType": "通所介護",
    "capacity": 0,
    "openDays": [
      "平日",
      "土曜日",
      "祝日"
    ],
    "openDaysNote": ""
  },
  {
    "id": "873801310",
    "name": "デイサービス　Do",
    "kana": "デイサービス　ドゥー",
    "address": "うずら野4-18-15",
    "lat": 36.0309789,
    "lng": 140.1793914,
    "tel": "298465338",
    "url": "",
    "pref": "茨城県",
    "city": "阿見町",
    "category": "day_service",
    "serviceType": "通所介護",
    "capacity": null,
    "openDays": [
      "平日",
      "土曜日",
      "祝日"
    ],
    "openDaysNote": ""
  },
  {
    "id": "873801245",
    "name": "デイサービス　ひだまり",
    "kana": "デイサービス　ヒダマリ",
    "address": "茨城県稲敷郡阿見町中郷2-3-4",
    "lat": 36.0409856,
    "lng": 140.2157356,
    "tel": "029-893-6588",
    "url": "https://kawachikoseikai.com/facility/hidamari/hidamari-top.html",
    "pref": "茨城県",
    "city": "阿見町",
    "category": "day_service",
    "serviceType": "通所介護",
    "capacity": 0,
    "openDays": [
      "平日",
      "土曜日",
      "祝日"
    ],
    "openDaysNote": ""
  },
  {
    "id": "873801021",
    "name": "デイサービスセンター　阿見こなん",
    "kana": "デイサービスセンター　アミコナン",
    "address": "茨城県稲敷郡阿見町南平台１－３３－１０",
    "lat": 36.0223307,
    "lng": 140.2553205,
    "tel": "029-879-8588",
    "url": "http://www.seisyuukai.com/",
    "pref": "茨城県",
    "city": "阿見町",
    "category": "day_service",
    "serviceType": "通所介護",
    "capacity": 0,
    "openDays": [
      "平日",
      "土曜日",
      "祝日"
    ],
    "openDaysNote": ""
  },
  {
    "id": "873801047",
    "name": "デイサービスセンターさとのこハウス荒川本郷",
    "kana": "デイサービスセンターサトノコハウスアラカワホンゴウ",
    "address": "茨城県稲敷郡阿見町本郷３丁目３番１号",
    "lat": 36.0066191,
    "lng": 140.1746288,
    "tel": "029-834-2238",
    "url": "https://www.welcia-kaigo.co.jp",
    "pref": "茨城県",
    "city": "阿見町",
    "category": "day_service",
    "serviceType": "通所介護",
    "capacity": 0,
    "openDays": [
      "平日",
      "土曜日",
      "祝日"
    ],
    "openDaysNote": ""
  },
  {
    "id": "873801070",
    "name": "デイサービス希望～きぼう～",
    "kana": "デイサービスキボウ",
    "address": "茨城県稲敷郡阿見町鈴木59-63",
    "lat": 36.0236151,
    "lng": 140.2029316,
    "tel": "029-887-9049",
    "url": "http://www.ocean-ami.net/",
    "pref": "茨城県",
    "city": "阿見町",
    "category": "day_service",
    "serviceType": "通所介護",
    "capacity": 20,
    "openDays": [
      "平日",
      "土曜日",
      "祝日"
    ],
    "openDaysNote": "年末年始　12月31日～1月3日(但し30日が日曜日の場合は31日営業）"
  },
  {
    "id": "873801195",
    "name": "デイサービス奏で阿見店",
    "kana": "デイサービスカナデアミテン",
    "address": "茨城県稲敷郡阿見町中央2-15-22",
    "lat": 36.0251293,
    "lng": 140.2195715,
    "tel": "029-846-3627",
    "url": "http://magokoro-kanade.com/",
    "pref": "茨城県",
    "city": "阿見町",
    "category": "day_service",
    "serviceType": "通所介護",
    "capacity": 19,
    "openDays": [
      "平日",
      "土曜日",
      "日曜日",
      "祝日"
    ],
    "openDaysNote": "利用者希望により、サービスの提供を行う場合がある。"
  },
  {
    "id": "873801187",
    "name": "リハビリ特化型デイサービス　リウォーク",
    "kana": "リハビリトッカガタデイサービス　リウォーク",
    "address": "茨城県稲敷郡阿見町吉原3628‐6",
    "lat": 35.9994461,
    "lng": 140.2136113,
    "tel": "029‐893-6503",
    "url": "http://www.rewalk.jp",
    "pref": "茨城県",
    "city": "阿見町",
    "category": "day_service",
    "serviceType": "通所介護",
    "capacity": 100,
    "openDays": [
      "平日",
      "祝日"
    ],
    "openDaysNote": ""
  },
  {
    "id": "873800486",
    "name": "阿見ケアコミュニティそよ風",
    "kana": "アミケアコミュニティソヨカゼ",
    "address": "稲敷郡阿見町うずら野4-24-5",
    "lat": 36.0283082,
    "lng": 140.1768391,
    "tel": "029-843-7130",
    "url": "",
    "pref": "茨城県",
    "city": "阿見町",
    "category": "day_service",
    "serviceType": "通所介護",
    "capacity": 0,
    "openDays": [
      "平日",
      "土曜日",
      "祝日"
    ],
    "openDaysNote": ""
  },
  {
    "id": "873800338",
    "name": "阿見翔裕園デイサービスセンター",
    "kana": "アミショウユウエンデイサービスセンター",
    "address": "茨城県稲敷郡阿見町阿見字阿見原5137番地",
    "lat": 36.0304651035389,
    "lng": 140.198767024268,
    "tel": "029-840-2881",
    "url": "https://www.genkimuragroup.jp/facilitylist/ami/",
    "pref": "茨城県",
    "city": "阿見町",
    "category": "day_service",
    "serviceType": "通所介護",
    "capacity": 0,
    "openDays": [
      "平日",
      "土曜日",
      "祝日"
    ],
    "openDaysNote": ""
  },
  {
    "id": "873801005",
    "name": "株式会社エステル",
    "kana": "カブシキガイシャエステル",
    "address": "鈴木2-154",
    "lat": null,
    "lng": null,
    "tel": "029-887-0625",
    "url": "https://esuteru.jimdofree.com/",
    "pref": "茨城県",
    "city": "阿見町",
    "category": "day_service",
    "serviceType": "通所介護",
    "capacity": 0,
    "openDays": [
      "平日",
      "土曜日",
      "祝日"
    ],
    "openDaysNote": ""
  },
  {
    "id": "872600176",
    "name": "指定通所介護事業所いくり苑那珂",
    "kana": "シテイツウショカイゴイクリエンナカ",
    "address": "茨城県那珂市菅谷3799－6",
    "lat": 36.4318777,
    "lng": 140.5020253,
    "tel": "029-352-0017",
    "url": "http://www.ikurien.com",
    "pref": "茨城県",
    "city": "阿見町",
    "category": "day_service",
    "serviceType": "通所介護",
    "capacity": null,
    "openDays": [
      "平日",
      "土曜日",
      "祝日"
    ],
    "openDaysNote": ""
  },
  {
    "id": "873801427",
    "name": "通所介護事業所　セントラル阿見",
    "kana": "ツウショカイゴジギョウショ　セントラルアミ",
    "address": "茨城県稲敷郡阿見町荒川本郷179-23",
    "lat": 36.0137045358694,
    "lng": 140.160450502345,
    "tel": "029-893-6868",
    "url": "http://www.wakatake-kai.or.jp",
    "pref": "茨城県",
    "city": "阿見町",
    "category": "day_service",
    "serviceType": "通所介護",
    "capacity": null,
    "openDays": [
      "平日",
      "土曜日",
      "祝日"
    ],
    "openDaysNote": ""
  },
  {
    "id": "870103074",
    "name": "通所介護事業所　桜川陽だまり館",
    "kana": "ツウショカイゴジギョウショ　サクラガワヒダマリカン",
    "address": "水戸市河和田町58",
    "lat": 36.3674018,
    "lng": 140.4273167,
    "tel": "029-257-7011",
    "url": "www.heart-pia.com",
    "pref": "茨城県",
    "city": "阿見町",
    "category": "day_service",
    "serviceType": "通所介護",
    "capacity": 30,
    "openDays": [
      "平日",
      "土曜日",
      "日曜日",
      "祝日"
    ],
    "openDaysNote": ""
  },
  {
    "id": "873800528",
    "name": "デイサービスセンター　すだちの里",
    "kana": "デイサービスセンター　スダチノサト",
    "address": "稲敷市蒲ヶ山77番地",
    "lat": 35.9694731,
    "lng": 140.2751759,
    "tel": "029-893-1515",
    "url": "http://www.sudachi.or.jp",
    "pref": "茨城県",
    "city": "稲敷市",
    "category": "day_service",
    "serviceType": "通所介護",
    "capacity": 0,
    "openDays": [
      "平日",
      "土曜日",
      "祝日"
    ],
    "openDaysNote": ""
  },
  {
    "id": "872900097",
    "name": "デイサービスセンターエビハラ",
    "kana": "デイサービスセンターエビハラ",
    "address": "茨城県稲敷市西代1368-1",
    "lat": 35.9222037,
    "lng": 140.4837852,
    "tel": "0299-78-4510",
    "url": "",
    "pref": "茨城県",
    "city": "稲敷市",
    "category": "day_service",
    "serviceType": "通所介護",
    "capacity": null,
    "openDays": [
      "平日",
      "土曜日",
      "日曜日",
      "祝日"
    ],
    "openDaysNote": ""
  },
  {
    "id": "872900378",
    "name": "デイサービスはあとりんく",
    "kana": "デイサービスハトリンク",
    "address": "茨城県稲敷市八筋川593",
    "lat": 35.9476376392299,
    "lng": 140.489685720937,
    "tel": "0299-95-8312",
    "url": "http://heart-link.co.jp/",
    "pref": "茨城県",
    "city": "稲敷市",
    "category": "day_service",
    "serviceType": "通所介護",
    "capacity": 0,
    "openDays": [
      "平日",
      "土曜日",
      "祝日"
    ],
    "openDaysNote": ""
  },
  {
    "id": "872900519",
    "name": "ヤックスデイサービス新利根",
    "kana": "ヤックスデイサービスシントネ",
    "address": "茨城県稲敷市角崎1672",
    "lat": 35.9058262,
    "lng": 140.2867089,
    "tel": "0297-86-7130",
    "url": "https://care-yacs.co.jp/",
    "pref": "茨城県",
    "city": "稲敷市",
    "category": "day_service",
    "serviceType": "通所介護",
    "capacity": 0,
    "openDays": [
      "平日",
      "土曜日",
      "祝日"
    ],
    "openDaysNote": ""
  },
  {
    "id": "873800346",
    "name": "指定通所介護事業所水郷荘",
    "kana": "シテイツウショカイゴジギョウショスイゴウソウ",
    "address": "茨城県稲敷市幸田1252",
    "lat": 35.9408101,
    "lng": 140.3869028,
    "tel": "0299-79-2319",
    "url": "http://suigosou.com/",
    "pref": "茨城県",
    "city": "稲敷市",
    "category": "day_service",
    "serviceType": "通所介護",
    "capacity": 0,
    "openDays": [
      "平日",
      "土曜日",
      "祝日"
    ],
    "openDaysNote": ""
  },
  {
    "id": "872900386",
    "name": "太陽と鳩たち",
    "kana": "タイヨウトハトタチ",
    "address": "茨城県稲敷市佐倉1032",
    "lat": 35.9867755,
    "lng": 140.325182,
    "tel": "029-834-5881",
    "url": "http://www.taiyo-tohato.or.jp",
    "pref": "茨城県",
    "city": "稲敷市",
    "category": "day_service",
    "serviceType": "通所介護",
    "capacity": 0,
    "openDays": [
      "平日",
      "土曜日",
      "祝日"
    ],
    "openDaysNote": "夏季3日　年末年始3日、月のうち5週ある第3土曜日、10月の2日を事業定休日で設ける"
  },
  {
    "id": "872900261",
    "name": "通所介護事業所こころの家",
    "kana": "ツウショカイゴジギョウショココロノイエ",
    "address": "稲敷市清久島１０３２",
    "lat": 35.9129673,
    "lng": 140.3816185,
    "tel": "0299-94-2600",
    "url": "",
    "pref": "茨城県",
    "city": "稲敷市",
    "category": "day_service",
    "serviceType": "通所介護",
    "capacity": 0,
    "openDays": [
      "平日",
      "土曜日",
      "祝日"
    ],
    "openDaysNote": "※12月29日が日曜日の場合は12月30日も営業します。"
  },
  {
    "id": "872900493",
    "name": "通所介護事業所トリアネイ",
    "kana": "ツウショカイゴジギョウショトリアネイ",
    "address": "茨城県稲敷市江戸崎甲1233-3",
    "lat": 35.9728853530154,
    "lng": 140.315311654305,
    "tel": "029-893-3015",
    "url": "https://trianaei.jp/",
    "pref": "茨城県",
    "city": "稲敷市",
    "category": "day_service",
    "serviceType": "通所介護",
    "capacity": null,
    "openDays": [
      "平日",
      "祝日"
    ],
    "openDaysNote": ""
  },
  {
    "id": "872900238",
    "name": "福祉サービスみどりあずま",
    "kana": "フクシサービスミドリアズマ",
    "address": "茨城県稲敷市東大沼626番地2",
    "lat": 35.9370432,
    "lng": 140.3650132,
    "tel": "0299-94-7016",
    "url": "http://fukushi-midori.com/",
    "pref": "茨城県",
    "city": "稲敷市",
    "category": "day_service",
    "serviceType": "通所介護",
    "capacity": 30,
    "openDays": [
      "平日",
      "土曜日",
      "祝日"
    ],
    "openDaysNote": "・上記の営業日、営業時間の他、電話等により24時間常時連絡が可能な体制です。"
  },
  {
    "id": "872900360",
    "name": "福祉サービスみどりしんとね",
    "kana": "フクシサービスミドリシントネ",
    "address": "茨城県稲敷市柴崎54番地2",
    "lat": 35.9035634,
    "lng": 140.3017515,
    "tel": "0297-87-3133",
    "url": "http://fukushi-midori.com/",
    "pref": "茨城県",
    "city": "稲敷市",
    "category": "day_service",
    "serviceType": "通所介護",
    "capacity": 35,
    "openDays": [
      "平日",
      "土曜日",
      "祝日"
    ],
    "openDaysNote": "・上記の営業日及び営業時間の他、電話等により24時間常時連絡が可能な体制です。"
  },
  {
    "id": "873101729",
    "name": "ケアサポート桜ヶ丘",
    "kana": "ケアサポートサクラガオカ",
    "address": "茨城県東茨城郡茨城町小堤349-1",
    "lat": 36.2801853892189,
    "lng": 140.418141687172,
    "tel": "029-219-0155",
    "url": "http://www.trust-caresupport.com",
    "pref": "茨城県",
    "city": "茨城町",
    "category": "day_service",
    "serviceType": "通所介護",
    "capacity": 0,
    "openDays": [
      "平日"
    ],
    "openDaysNote": "上記営業日の他、不定期に休日の営業の予定もあり"
  },
  {
    "id": "873101828",
    "name": "ケアステーションあさひ茨城町桜の郷",
    "kana": "ケアステーションアサヒイバラキマチサクラノサト",
    "address": "茨城県東茨城郡茨城町桜の郷620番19",
    "lat": 36.3256368,
    "lng": 140.4140222,
    "tel": "029-240-7191",
    "url": "http://www.vati.co.jp/",
    "pref": "茨城県",
    "city": "茨城町",
    "category": "day_service",
    "serviceType": "通所介護",
    "capacity": null,
    "openDays": [
      "平日",
      "土曜日",
      "日曜日",
      "祝日"
    ],
    "openDaysNote": ""
  },
  {
    "id": "873101109",
    "name": "デイサービス　桜の郷元気",
    "kana": "デイサービス　サクラノサトゲンキ",
    "address": "茨城県東茨城郡茨城町桜の郷２３１－７",
    "lat": 36.3230825,
    "lng": 140.4084197,
    "tel": "029-292-3900",
    "url": "https://www.taijinkai.or.jp/publics/index/85/",
    "pref": "茨城県",
    "city": "茨城町",
    "category": "day_service",
    "serviceType": "通所介護",
    "capacity": 35,
    "openDays": [
      "平日",
      "土曜日",
      "日曜日",
      "祝日"
    ],
    "openDaysNote": ""
  },
  {
    "id": "873101869",
    "name": "デイサービス　桜の郷元気　ひたちの長岡",
    "kana": "デイサービス　サクラノサトゲンキ　ヒタチノナガオカ",
    "address": "茨城県東茨城郡茨城町長岡3652-32",
    "lat": 36.3008071,
    "lng": 140.4504412,
    "tel": "029-353-6661",
    "url": "https://www.taijinkai.or.jp/",
    "pref": "茨城県",
    "city": "茨城町",
    "category": "day_service",
    "serviceType": "通所介護",
    "capacity": 20,
    "openDays": [
      "平日",
      "土曜日",
      "日曜日",
      "祝日"
    ],
    "openDaysNote": ""
  },
  {
    "id": "873101604",
    "name": "デイサービスセンター　ウィステリア倶楽部",
    "kana": "デイサービスセンター　ウィステリアクラブ",
    "address": "前田1707-349",
    "lat": 36.3201944,
    "lng": 140.443267,
    "tel": "029-240-7880",
    "url": "http://www.shinaikai.or.jp",
    "pref": "茨城県",
    "city": "茨城町",
    "category": "day_service",
    "serviceType": "通所介護",
    "capacity": 30,
    "openDays": [
      "平日",
      "土曜日",
      "祝日"
    ],
    "openDaysNote": ""
  },
  {
    "id": "873100416",
    "name": "デイサービスセンター　ときわ木園",
    "kana": "デイサービスセンター　トキワギエン",
    "address": "茨城県東茨城郡茨城町若宮393-6",
    "lat": 36.3089682,
    "lng": 140.495604,
    "tel": "029-293-6617",
    "url": "http://tokiwagien.jp/",
    "pref": "茨城県",
    "city": "茨城町",
    "category": "day_service",
    "serviceType": "通所介護",
    "capacity": 0,
    "openDays": [
      "平日",
      "土曜日",
      "祝日"
    ],
    "openDaysNote": ""
  },
  {
    "id": "873101901",
    "name": "デイサービスセンターみどりの杜",
    "kana": "デイサービスセンターミドリノモリ",
    "address": "茨城県東茨城郡茨城町小幡字北山２７６５番４",
    "lat": 36.2763348259967,
    "lng": 140.41423013268,
    "tel": "029-219-0310",
    "url": "https://tsutsumikai.com",
    "pref": "茨城県",
    "city": "茨城町",
    "category": "day_service",
    "serviceType": "通所介護",
    "capacity": null,
    "openDays": [
      "平日",
      "土曜日",
      "祝日"
    ],
    "openDaysNote": ""
  },
  {
    "id": "871000717",
    "name": "デイサービスセンター　ハート・ワン大宝",
    "kana": "デイサービスセンター　ハート・ワンダイホウ",
    "address": "茨城県下妻市横根140",
    "lat": 36.202167,
    "lng": 139.9850496,
    "tel": "0296-44-5939",
    "url": "http://www.heart-one-daihou.com",
    "pref": "茨城県",
    "city": "下妻市",
    "category": "day_service",
    "serviceType": "通所介護",
    "capacity": 0,
    "openDays": [
      "平日",
      "土曜日",
      "祝日"
    ],
    "openDaysNote": "定休日であっても緊急時は相談可能"
  },
  {
    "id": "871000956",
    "name": "デイサービスセンター　はなみずき",
    "kana": "デイサービスセンター　ハナミズキ",
    "address": "茨城県下妻市下栗１２２６番地１",
    "lat": 36.1632704316923,
    "lng": 139.959142747469,
    "tel": "0296-54-5550",
    "url": "https://hanamizukinomori.jp/day/",
    "pref": "茨城県",
    "city": "下妻市",
    "category": "day_service",
    "serviceType": "通所介護",
    "capacity": 30,
    "openDays": [
      "平日",
      "土曜日",
      "祝日"
    ],
    "openDaysNote": ""
  },
  {
    "id": "871001061",
    "name": "デイサービス藍藍",
    "kana": "デイサ-ビス　アイアイ",
    "address": "茨城県下妻市長塚乙11-1",
    "lat": 36.1877937057899,
    "lng": 139.945711218545,
    "tel": "0296-30-5008",
    "url": "https://www.hc-ishiyama.co.jp",
    "pref": "茨城県",
    "city": "下妻市",
    "category": "day_service",
    "serviceType": "通所介護",
    "capacity": null,
    "openDays": [
      "平日",
      "土曜日",
      "日曜日",
      "祝日"
    ],
    "openDaysNote": ""
  },
  {
    "id": "871000113",
    "name": "愛宕園　指定通所介護事業所",
    "kana": "アタゴエン　シテイツウショカイゴジギョウショ",
    "address": "下妻市下木戸５４４－１",
    "lat": 36.1929349,
    "lng": 139.9501077,
    "tel": "0296-44-5387",
    "url": "hyyp://atagoen.jp/",
    "pref": "茨城県",
    "city": "下妻市",
    "category": "day_service",
    "serviceType": "通所介護",
    "capacity": 25,
    "openDays": [
      "平日",
      "土曜日",
      "祝日"
    ],
    "openDaysNote": ""
  },
  {
    "id": "871000766",
    "name": "加養の里デイサービスセンター",
    "kana": "カヨウノサトデイサービスセンター",
    "address": "茨城県下妻市加養４９３番地",
    "lat": 36.178053,
    "lng": 139.986112,
    "tel": "0296-30-6191",
    "url": "http://kayounosato.jp/",
    "pref": "茨城県",
    "city": "下妻市",
    "category": "day_service",
    "serviceType": "通所介護",
    "capacity": 0,
    "openDays": [
      "平日",
      "土曜日",
      "祝日"
    ],
    "openDaysNote": ""
  },
  {
    "id": "873801369",
    "name": "デイサービスセンター　千の風・河内",
    "kana": "デイサービスセンター　千ノ風・河内",
    "address": "茨城県稲敷郡河内町生板4627",
    "lat": 35.8901272,
    "lng": 140.218709,
    "tel": "0297-60-4166",
    "url": "http://www.kenjin.or.jp/sennokaze/kawachi/",
    "pref": "茨城県",
    "city": "河内町",
    "category": "day_service",
    "serviceType": "通所介護",
    "capacity": 25,
    "openDays": [
      "平日",
      "土曜日",
      "祝日"
    ],
    "openDaysNote": "理美容日は20分程度延長"
  },
  {
    "id": "873800585",
    "name": "指定通所介護事業所あじさい苑",
    "kana": "シテイツウショカイゴジギョウショアジサイエン",
    "address": "茨城県稲敷郡河内町生板字横間8907番地",
    "lat": 35.8787873413815,
    "lng": 140.215853159571,
    "tel": "0297-84-0311",
    "url": "",
    "pref": "茨城県",
    "city": "河内町",
    "category": "day_service",
    "serviceType": "通所介護",
    "capacity": null,
    "openDays": [
      "平日",
      "祝日"
    ],
    "openDaysNote": ""
  },
  {
    "id": "871600599",
    "name": "ケアレジデンス　デイサービスセンター　かさま",
    "kana": "ケアレジデンス　デイサービスセンター　カサマ",
    "address": "茨城県笠間市笠間1428番地6",
    "lat": 36.3812442,
    "lng": 140.2546245,
    "tel": "0296－73－0026",
    "url": "day_kasama@careresi,jp",
    "pref": "茨城県",
    "city": "笠間市",
    "category": "day_service",
    "serviceType": "通所介護",
    "capacity": 0,
    "openDays": [
      "平日",
      "土曜日",
      "祝日"
    ],
    "openDaysNote": "元旦は笠間稲荷神社が近くにあり、初詣の渋滞で利用不可能。"
  },
  {
    "id": "873200513",
    "name": "ケアレジデンス水戸　デイサービスセンター　ともべ",
    "kana": "ケアレジデンスミト　デイサアビスセンタア　トモベ",
    "address": "茨城県　笠間市　旭町　105－3",
    "lat": 36.3233055,
    "lng": 140.3189116,
    "tel": "0296-70-5855",
    "url": "http://www.careresi.jp/",
    "pref": "茨城県",
    "city": "笠間市",
    "category": "day_service",
    "serviceType": "通所介護",
    "capacity": 0,
    "openDays": [
      "平日",
      "土曜日",
      "祝日"
    ],
    "openDaysNote": ""
  },
  {
    "id": "871600821",
    "name": "デイサービス　スマイル",
    "kana": "デイサービス　スマイル",
    "address": "茨城県笠間市美原1－2－21",
    "lat": 36.343231,
    "lng": 140.3110227,
    "tel": "0296-78-3016",
    "url": "https://www.nikoniko-chi.jp",
    "pref": "茨城県",
    "city": "笠間市",
    "category": "day_service",
    "serviceType": "通所介護",
    "capacity": null,
    "openDays": [
      "平日",
      "土曜日",
      "祝日"
    ],
    "openDaysNote": ""
  },
  {
    "id": "871600987",
    "name": "デイサービス　みどりの郷福原",
    "kana": "デイサービス　ミドリノサトフクハラ",
    "address": "茨城県笠間市福原字新谷59-1",
    "lat": 36.346547141442,
    "lng": 140.184482664528,
    "tel": "0296-73-6722",
    "url": "https://w-midorinosato.com/",
    "pref": "茨城県",
    "city": "笠間市",
    "category": "day_service",
    "serviceType": "通所介護",
    "capacity": 100,
    "openDays": [
      "平日",
      "祝日"
    ],
    "openDaysNote": ""
  },
  {
    "id": "871601068",
    "name": "デイサービスくつろぎ笠間",
    "kana": "デイサービスクツロギカサマ",
    "address": "茨城県笠間市鯉淵６２４１－２２",
    "lat": 36.33986,
    "lng": 140.3307495,
    "tel": "０２９６－７１ー７７１１",
    "url": "https://kutsurogi-kasama.jp",
    "pref": "茨城県",
    "city": "笠間市",
    "category": "day_service",
    "serviceType": "通所介護",
    "capacity": null,
    "openDays": [
      "平日",
      "土曜日",
      "祝日"
    ],
    "openDaysNote": ""
  },
  {
    "id": "871601050",
    "name": "デイサービスセンター春日和ともべ",
    "kana": "デイサービスセンターハルビヨリトモベ",
    "address": "茨城県笠間市旭町587-6",
    "lat": 36.3342188,
    "lng": 140.3196871,
    "tel": "296735015",
    "url": "",
    "pref": "茨城県",
    "city": "笠間市",
    "category": "day_service",
    "serviceType": "通所介護",
    "capacity": null,
    "openDays": [
      "平日",
      "土曜日",
      "祝日"
    ],
    "openDaysNote": ""
  },
  {
    "id": "871600938",
    "name": "デイサービスハートリビング笠間",
    "kana": "デイサービスハートリビングカサマ",
    "address": "茨城県笠間市鯉淵6266番地27",
    "lat": 36.3486192,
    "lng": 140.3271334,
    "tel": "0296-71-8851",
    "url": "https://isshin.gr.jp/index.php",
    "pref": "茨城県",
    "city": "笠間市",
    "category": "day_service",
    "serviceType": "通所介護",
    "capacity": 0,
    "openDays": [
      "平日",
      "土曜日",
      "祝日"
    ],
    "openDaysNote": ""
  },
  {
    "id": "871600615",
    "name": "フロイデ友部デイサービスセンター",
    "kana": "フロイデトモベデイサービスセンター",
    "address": "茨城県笠間市鯉淵６５２６－１９",
    "lat": 36.3492304907566,
    "lng": 140.322077762843,
    "tel": "０２９６－７３－５５７７",
    "url": "http://www.hakuyukai-sfg.com/",
    "pref": "茨城県",
    "city": "笠間市",
    "category": "day_service",
    "serviceType": "通所介護",
    "capacity": 40,
    "openDays": [
      "平日",
      "土曜日",
      "日曜日",
      "祝日"
    ],
    "openDaysNote": "３６５日営業しております"
  },
  {
    "id": "871600896",
    "name": "リハビリデイサービス一笑カフェ",
    "kana": "リハビリデイサービスイチエカフェ",
    "address": "茨城県笠間市鯉淵6227-9",
    "lat": 36.3377461,
    "lng": 140.3358566,
    "tel": "0296-71-7776",
    "url": "",
    "pref": "茨城県",
    "city": "笠間市",
    "category": "day_service",
    "serviceType": "通所介護",
    "capacity": null,
    "openDays": [
      "平日",
      "祝日"
    ],
    "openDaysNote": ""
  },
  {
    "id": "871600276",
    "name": "株式会社ケアレジデンス　デイサービスセンター　いわま",
    "kana": "カブシキカイシャケアレジデンス　デイサービスセンター　イワマ",
    "address": "茨城県笠間市下郷４１６６－７",
    "lat": 36.2937635,
    "lng": 140.2723158,
    "tel": "0299-37-8045",
    "url": "http://www.careresi.jp",
    "pref": "茨城県",
    "city": "笠間市",
    "category": "day_service",
    "serviceType": "通所介護",
    "capacity": 0,
    "openDays": [
      "平日",
      "土曜日",
      "祝日"
    ],
    "openDaysNote": ""
  },
  {
    "id": "873200208",
    "name": "指定通所介護事業所　すずらんの里",
    "kana": "シテイツウショカイゴジギョウショ　スズランノサト",
    "address": "茨城県笠間市土師１２８３－５",
    "lat": 36.2994245,
    "lng": 140.2969717,
    "tel": "0299-45-0555",
    "url": "https://kasama-suzuran.com/",
    "pref": "茨城県",
    "city": "笠間市",
    "category": "day_service",
    "serviceType": "通所介護",
    "capacity": null,
    "openDays": [
      "平日",
      "土曜日",
      "祝日"
    ],
    "openDaysNote": ""
  },
  {
    "id": "873200141",
    "name": "宍戸苑指定通所介護事業所",
    "kana": "シシドエンシテイツウショカイゴジギョウショ",
    "address": "茨城県笠間市橋爪462-1",
    "lat": 36.3393723,
    "lng": 140.2951845,
    "tel": "0296-78-2221",
    "url": "http://business2.plala.or.jp/sisidoen",
    "pref": "茨城県",
    "city": "笠間市",
    "category": "day_service",
    "serviceType": "通所介護",
    "capacity": 0,
    "openDays": [
      "平日",
      "土曜日",
      "祝日"
    ],
    "openDaysNote": "1月1日～3日は特別休業とする。"
  },
  {
    "id": "871600771",
    "name": "通所介護事業所　笠間陽だまり館",
    "kana": "ツウショカイゴジギョウショ　カサマヒダマリカン",
    "address": "南友部１９６６番地１３９",
    "lat": 36.3552454159227,
    "lng": 140.309893280795,
    "tel": "０２９６－７３－６１８１",
    "url": "http://www.heart-pia.com/",
    "pref": "茨城県",
    "city": "笠間市",
    "category": "day_service",
    "serviceType": "通所介護",
    "capacity": 30,
    "openDays": [
      "平日",
      "土曜日",
      "祝日"
    ],
    "openDaysNote": ""
  },
  {
    "id": "871600532",
    "name": "通所介護事業所やまびこ",
    "kana": "ツウショカイゴジギョウショ　ヤマビコ",
    "address": "笠間市八雲2-12-34",
    "lat": 36.3448567879799,
    "lng": 140.300459383328,
    "tel": "0296-78-5553",
    "url": "https://yamabiko-suzuran.com/day/",
    "pref": "茨城県",
    "city": "笠間市",
    "category": "day_service",
    "serviceType": "通所介護",
    "capacity": 0,
    "openDays": [
      "平日",
      "土曜日",
      "祝日"
    ],
    "openDaysNote": "年末年始12/31～1/03までお休みです。"
  },
  {
    "id": "871900841",
    "name": "あげひばり　リハビリデイサービス",
    "kana": "アゲヒバリ　リハビリデイサービス",
    "address": "茨城県牛久市ひたち野西４丁目３番３",
    "lat": 36.0084064184503,
    "lng": 140.148808739951,
    "tel": "029-878-2520",
    "url": "http://www.kouheikai.jp/agehibari/",
    "pref": "茨城県",
    "city": "牛久市",
    "category": "day_service",
    "serviceType": "通所介護",
    "capacity": 0,
    "openDays": [
      "平日",
      "祝日"
    ],
    "openDaysNote": ""
  },
  {
    "id": "871901344",
    "name": "お寺ジム（薬師寺店）",
    "kana": "オテラジム　ヤクシジテン",
    "address": "茨城県牛久市田宮町248",
    "lat": 35.9803931,
    "lng": 140.1377261,
    "tel": "029‐846-0894",
    "url": "https://otera-jimu.com/",
    "pref": "茨城県",
    "city": "牛久市",
    "category": "day_service",
    "serviceType": "通所介護",
    "capacity": null,
    "openDays": [
      "平日",
      "祝日"
    ],
    "openDaysNote": ""
  },
  {
    "id": "871901179",
    "name": "ケア処牛久　デイサービスセンター",
    "kana": "ケアドコロウシク　デイサービスセンター",
    "address": "茨城県牛久市牛久町3290-1",
    "lat": 35.9720537,
    "lng": 140.1386883,
    "tel": "029-875-3362",
    "url": "www.keadokoro.jp",
    "pref": "茨城県",
    "city": "牛久市",
    "category": "day_service",
    "serviceType": "通所介護",
    "capacity": 0,
    "openDays": [
      "平日"
    ],
    "openDaysNote": "利用者の家族の希望により、対応する場合がある。"
  },
  {
    "id": "871901195",
    "name": "ご長寿くらぶ牛久城中Ⅰデイサービスセンター",
    "kana": "ゴチョウジュクラブウシクジョウチュウイチデイサービスセンター",
    "address": "茨城県牛久市城中町1955-4",
    "lat": 35.9672942530184,
    "lng": 140.128814311114,
    "tel": "029-875-6655",
    "url": "https://gotyoujyuclub.com/hometype/ibaraki/ushiku/456",
    "pref": "茨城県",
    "city": "牛久市",
    "category": "day_service",
    "serviceType": "通所介護",
    "capacity": 0,
    "openDays": [
      "平日",
      "土曜日",
      "祝日"
    ],
    "openDaysNote": ""
  },
  {
    "id": "871901427",
    "name": "デイサービス　こころの里",
    "kana": "デイサービス　ココロノサト",
    "address": "茨城県牛久市久野町545",
    "lat": 35.9591184254715,
    "lng": 140.231535923013,
    "tel": "029-875-5206",
    "url": "https://cocorono-sato.com",
    "pref": "茨城県",
    "city": "牛久市",
    "category": "day_service",
    "serviceType": "通所介護",
    "capacity": null,
    "openDays": [
      "平日",
      "土曜日",
      "祝日"
    ],
    "openDaysNote": ""
  },
  {
    "id": "871900866",
    "name": "デイサービス　ひたち野",
    "kana": "デイサービス　ヒタチノ",
    "address": "ひたち野東四丁目８－４ひたち野レジデンス ひたち野レジデンス",
    "lat": 36.0047913,
    "lng": 140.169032,
    "tel": "029-875-6571",
    "url": "http://www.ushiku-hitachino.com/",
    "pref": "茨城県",
    "city": "牛久市",
    "category": "day_service",
    "serviceType": "通所介護",
    "capacity": null,
    "openDays": [
      "平日"
    ],
    "openDaysNote": ""
  },
  {
    "id": "871901328",
    "name": "デイサービスおにぎり",
    "kana": "デイサービスオニギリ",
    "address": "上柏田1-15-4",
    "lat": 35.9933708,
    "lng": 140.1559081,
    "tel": "029-846-5023",
    "url": "onigiri@s-15.com",
    "pref": "茨城県",
    "city": "牛久市",
    "category": "day_service",
    "serviceType": "通所介護",
    "capacity": 0,
    "openDays": [
      "平日",
      "土曜日",
      "祝日"
    ],
    "openDaysNote": ""
  },
  {
    "id": "871901203",
    "name": "デイサービスセンター　いつくしの杜　ひたち野うしく",
    "kana": "デイサービスセンター　イツクシノモリヒタチノウシク",
    "address": "茨城県牛久市ひたち野東2-24-3",
    "lat": 36.0039054,
    "lng": 140.172904,
    "tel": "029-828-4822",
    "url": "https://www.kotobuki-i.jp/",
    "pref": "茨城県",
    "city": "牛久市",
    "category": "day_service",
    "serviceType": "通所介護",
    "capacity": 0,
    "openDays": [
      "平日",
      "土曜日",
      "日曜日",
      "祝日"
    ],
    "openDaysNote": ""
  },
  {
    "id": "871901013",
    "name": "デイサービス七福",
    "kana": "デイサービス　シチフク",
    "address": "茨城県牛久市南7丁目51番地１３",
    "lat": 35.9617188,
    "lng": 140.1439776,
    "tel": "029-886-4029",
    "url": "www.shofuku.co.jp",
    "pref": "茨城県",
    "city": "牛久市",
    "category": "day_service",
    "serviceType": "通所介護",
    "capacity": 0,
    "openDays": [
      "平日",
      "土曜日",
      "祝日"
    ],
    "openDaysNote": "年末年始休日　12/31～1/3"
  },
  {
    "id": "871900676",
    "name": "ニチイケアセンター牛久南",
    "kana": "ニチイケアセンターウシクミナミ",
    "address": "茨城県牛久市南3-20-2",
    "lat": 35.9700793,
    "lng": 140.1500742,
    "tel": "029-878-5035",
    "url": "http://www.nichiigakkan.co.jp",
    "pref": "茨城県",
    "city": "牛久市",
    "category": "day_service",
    "serviceType": "通所介護",
    "capacity": 0,
    "openDays": [
      "平日",
      "土曜日",
      "日曜日",
      "祝日"
    ],
    "openDaysNote": "居宅サービス計画により、休業日であってもサービスの提供を行う場合がある。"
  },
  {
    "id": "871901450",
    "name": "リハプライドCOZY",
    "kana": "リハプライドコージー",
    "address": "茨城県牛久市中央5-26-12小栗ビル1F 小栗ビル1F",
    "lat": 35.9743249,
    "lng": 140.1413563,
    "tel": "029-828-7244",
    "url": "https://cozyce.com/",
    "pref": "茨城県",
    "city": "牛久市",
    "category": "day_service",
    "serviceType": "通所介護",
    "capacity": null,
    "openDays": [
      "平日",
      "祝日"
    ],
    "openDaysNote": "ゴールデン5/3～5/5（改行）年末年始12/29～1/3（改行）お休み"
  },
  {
    "id": "871901419",
    "name": "牛久ケアセンタ―そよ風",
    "kana": "ウシクケアセンターソヨカゼ",
    "address": "茨城県牛久市牛久町103",
    "lat": 35.9665935,
    "lng": 140.1359479,
    "tel": "029-878-0870",
    "url": "ushiku@sykz.co.jp",
    "pref": "茨城県",
    "city": "牛久市",
    "category": "day_service",
    "serviceType": "通所介護",
    "capacity": 0,
    "openDays": [
      "平日",
      "土曜日",
      "祝日"
    ],
    "openDaysNote": "土曜日・祝祭日も営業"
  },
  {
    "id": "871900213",
    "name": "牛久さくら園通所介護事業所",
    "kana": "ウシクサクラエンツウショカイゴジギョウショ",
    "address": "茨城県牛久市上柏田１－１８－４",
    "lat": 35.9938758,
    "lng": 140.1524143,
    "tel": "029-878-0711",
    "url": "http://www.wakatake-kai.or.jp/",
    "pref": "茨城県",
    "city": "牛久市",
    "category": "day_service",
    "serviceType": "通所介護",
    "capacity": 25,
    "openDays": [
      "平日",
      "土曜日",
      "祝日"
    ],
    "openDaysNote": ""
  },
  {
    "id": "871900320",
    "name": "牛久市社会福祉協議会指定通所介護事業所",
    "kana": "ウシクシシャカイフクシキョウギカイシテイツウショカイゴジギョウショ",
    "address": "茨城県牛久市女化町８５９番地の３",
    "lat": 35.958578,
    "lng": 140.184458,
    "tel": "029-871-0547",
    "url": "http://www.ushikushakyo.jp/",
    "pref": "茨城県",
    "city": "牛久市",
    "category": "day_service",
    "serviceType": "通所介護",
    "capacity": 0,
    "openDays": [
      "平日",
      "土曜日",
      "祝日"
    ],
    "openDaysNote": "設備点検等により祝日に臨時休業になる場合があります。"
  },
  {
    "id": "871900585",
    "name": "健康サポートセンターきらり",
    "kana": "ケンコウサポートセンターキラリ",
    "address": "茨城県牛久市さくら台３－３４－１７",
    "lat": 35.9608137,
    "lng": 140.1645338,
    "tel": "029-878-3910",
    "url": "http://ushiku-kirari.jp/",
    "pref": "茨城県",
    "city": "牛久市",
    "category": "day_service",
    "serviceType": "通所介護",
    "capacity": 0,
    "openDays": [
      "平日",
      "土曜日",
      "祝日"
    ],
    "openDaysNote": ""
  },
  {
    "id": "871900569",
    "name": "元気館デイサービスセンター",
    "kana": "ゲンキカンデイサービスセンター",
    "address": "茨城県牛久市城中町148-1",
    "lat": 35.9535683508527,
    "lng": 140.13229350426,
    "tel": "029-830-8686",
    "url": "http://ushiku-genkikan.com",
    "pref": "茨城県",
    "city": "牛久市",
    "category": "day_service",
    "serviceType": "通所介護",
    "capacity": 0,
    "openDays": [
      "平日",
      "土曜日",
      "祝日"
    ],
    "openDaysNote": ""
  },
  {
    "id": "871900122",
    "name": "指定通所介護事業所　博慈園",
    "kana": "シテイツウショカイゴジギョウショ　ハクジエン",
    "address": "茨城県牛久市女化町253-2",
    "lat": 35.9477318,
    "lng": 140.1731303,
    "tel": "029-874-4800",
    "url": "http://www.hakujien.or.jp",
    "pref": "茨城県",
    "city": "牛久市",
    "category": "day_service",
    "serviceType": "通所介護",
    "capacity": 0,
    "openDays": [
      "平日",
      "土曜日",
      "祝日"
    ],
    "openDaysNote": "・台風等による気象状況の極端な悪化や積雪による道路状況の極端な悪化が見られる場合には臨時にサービス提供時間短縮や休業を行う場合があります。（改行）　尚、この対応については御家族等への連絡を行い了解を得た上で行います。"
  },
  {
    "id": "871900437",
    "name": "通所介護事業所　たいせつの家",
    "kana": "ツウショカイゴジギョウショ　タイセツノイエ",
    "address": "茨城県牛久市上柏田1-17-20",
    "lat": 35.9940341,
    "lng": 140.1531142,
    "tel": "029-830-8633",
    "url": "http://www.central.or.jp",
    "pref": "茨城県",
    "city": "牛久市",
    "category": "day_service",
    "serviceType": "通所介護",
    "capacity": 0,
    "openDays": [
      "平日",
      "土曜日",
      "祝日"
    ],
    "openDaysNote": ""
  },
  {
    "id": "874300486",
    "name": "JA茨城むつみ　ディサービスセンターぬくもり",
    "kana": "ジェエイイバラキムツミ　ディサーヒスセンターヌクモリ",
    "address": "茨城県猿島郡境町西泉田1278-9",
    "lat": 36.1234725,
    "lng": 139.8052959,
    "tel": "0280-81-1575",
    "url": "nukumori",
    "pref": "茨城県",
    "city": "境町",
    "category": "day_service",
    "serviceType": "通所介護",
    "capacity": 0,
    "openDays": [
      "平日",
      "土曜日"
    ],
    "openDaysNote": ""
  },
  {
    "id": "874300239",
    "name": "ファミール境　通所介護事業所",
    "kana": "ファミールサカイ　ツウショカイゴジギョウショ",
    "address": "茨城県猿島郡境町塚崎４８６４",
    "lat": 36.1179163,
    "lng": 139.7799177,
    "tel": "0280-87-7111",
    "url": "http://w3.dreams.ne.jp/famille",
    "pref": "茨城県",
    "city": "境町",
    "category": "day_service",
    "serviceType": "通所介護",
    "capacity": 0,
    "openDays": [
      "平日",
      "土曜日",
      "祝日"
    ],
    "openDaysNote": ""
  },
  {
    "id": "874301187",
    "name": "光風貴楼株式会社",
    "kana": "コウフウキロウカブシキガイシャ",
    "address": "1452－15",
    "lat": 36.7384284,
    "lng": 137.0015246,
    "tel": "0280-87-0002",
    "url": "",
    "pref": "茨城県",
    "city": "境町",
    "category": "day_service",
    "serviceType": "通所介護",
    "capacity": 30,
    "openDays": [
      "平日",
      "祝日"
    ],
    "openDaysNote": "営業しない日　年末年始（12/29～翌1/3）"
  },
  {
    "id": "870700648",
    "name": "ケアサポートゆうき",
    "kana": "ケアサポートユウキ",
    "address": "茨城県結城市古宿新田33-2",
    "lat": 36.2379195,
    "lng": 139.8718601,
    "tel": "0296-45-8751",
    "url": "http://trust-caresupport.com/",
    "pref": "茨城県",
    "city": "結城市",
    "category": "day_service",
    "serviceType": "通所介護",
    "capacity": 0,
    "openDays": [
      "平日",
      "土曜日",
      "祝日"
    ],
    "openDaysNote": "年末年始：12月31日～1月3日は休業します"
  },
  {
    "id": "870700275",
    "name": "ツクイ結城",
    "kana": "ツクイユウキ",
    "address": "茨城県結城市結城7189-8",
    "lat": 36.2919262,
    "lng": 139.8775965,
    "tel": "0296-20-8577",
    "url": "http://www.tsukui.net",
    "pref": "茨城県",
    "city": "結城市",
    "category": "day_service",
    "serviceType": "通所介護",
    "capacity": 0,
    "openDays": [
      "平日",
      "土曜日",
      "日曜日",
      "祝日"
    ],
    "openDaysNote": "３６５日・２４時間連絡対応可能"
  },
  {
    "id": "870700333",
    "name": "デイサービスセンター　百寿の家",
    "kana": "デイサービスセンター　ヒャクジュノイエ",
    "address": "茨城県結城市大字武井1240番地8",
    "lat": 36.2325632,
    "lng": 139.8242177,
    "tel": "0296-20-9020",
    "url": "http://www.info@shimofusa.ne.jp",
    "pref": "茨城県",
    "city": "結城市",
    "category": "day_service",
    "serviceType": "通所介護",
    "capacity": 30,
    "openDays": [
      "平日",
      "土曜日",
      "祝日"
    ],
    "openDaysNote": ""
  },
  {
    "id": "870700762",
    "name": "デイサービスたけだ",
    "kana": "デイサービスタケダ",
    "address": "茨城県結城市大字結城字健田12744番地特別養護老人ホームたけだ 特別養護老人ホームたけだ",
    "lat": 36.2956119734788,
    "lng": 139.883455591887,
    "tel": "0296‐33‐8855",
    "url": "http://takeda-yuki.or.jp",
    "pref": "茨城県",
    "city": "結城市",
    "category": "day_service",
    "serviceType": "通所介護",
    "capacity": null,
    "openDays": [
      "平日",
      "祝日"
    ],
    "openDaysNote": ""
  },
  {
    "id": "870700671",
    "name": "デイサービス小春日和",
    "kana": "デイサービスコハルビヨリ",
    "address": "茨城県結城市結城12082-36",
    "lat": 36.3168014,
    "lng": 139.8728121,
    "tel": "0296-45-4710",
    "url": "",
    "pref": "茨城県",
    "city": "結城市",
    "category": "day_service",
    "serviceType": "通所介護",
    "capacity": 15,
    "openDays": [
      "平日",
      "祝日"
    ],
    "openDaysNote": "01/01～01/03は除く（改行）祝祭日が平日の際は通常営業"
  },
  {
    "id": "870700390",
    "name": "ふれんど結城デイサービスセンター",
    "kana": "フレンドユウキデイサービスセンター",
    "address": "茨城県結城市大字結城11766-3",
    "lat": 36.3092328,
    "lng": 139.866845,
    "tel": "0296-20-8232",
    "url": "http://www.f-pw.jp",
    "pref": "茨城県",
    "city": "結城市",
    "category": "day_service",
    "serviceType": "通所介護",
    "capacity": 0,
    "openDays": [
      "平日",
      "土曜日",
      "祝日"
    ],
    "openDaysNote": ""
  },
  {
    "id": "870700192",
    "name": "結城ケアセンターそよ風",
    "kana": "ユウキケアセンターソヨカゼ",
    "address": "茨城県結城市結城923-1",
    "lat": 36.3014103,
    "lng": 139.8816485,
    "tel": "0296-34-7451",
    "url": "",
    "pref": "茨城県",
    "city": "結城市",
    "category": "day_service",
    "serviceType": "通所介護",
    "capacity": 0,
    "openDays": [
      "平日",
      "土曜日",
      "祝日"
    ],
    "openDaysNote": "随時対応可"
  },
  {
    "id": "870700085",
    "name": "結城デイサービスセンター　ヒューマン・ハウス",
    "kana": "ユウキデイサービスセンター　ヒューマン・ハウス",
    "address": "茨城県結城市大字結城10767番地の24",
    "lat": 36.3055358,
    "lng": 139.8497409,
    "tel": "0296-32-1864",
    "url": "http://www.josai-hp.com.human",
    "pref": "茨城県",
    "city": "結城市",
    "category": "day_service",
    "serviceType": "通所介護",
    "capacity": 25,
    "openDays": [
      "平日",
      "土曜日",
      "祝日"
    ],
    "openDaysNote": ""
  },
  {
    "id": "870400561",
    "name": "あずみ苑　古河",
    "kana": "アズミエン　コガ",
    "address": "茨城県古河市諸川1393-2",
    "lat": 36.1960019,
    "lng": 139.8071931,
    "tel": "0280-75-1433",
    "url": "http://www.azumien.jp",
    "pref": "茨城県",
    "city": "古河市",
    "category": "day_service",
    "serviceType": "通所介護",
    "capacity": 33,
    "openDays": [
      "平日",
      "土曜日",
      "祝日"
    ],
    "openDaysNote": "なし"
  },
  {
    "id": "870401130",
    "name": "ケアステーションあさひ古河",
    "kana": "ケアステーションアサヒコガ",
    "address": "茨城県古河市茶屋新田410-1",
    "lat": 36.164131,
    "lng": 139.715452,
    "tel": "0280-47-1130",
    "url": "http://www.vati.co.jp/",
    "pref": "茨城県",
    "city": "古河市",
    "category": "day_service",
    "serviceType": "通所介護",
    "capacity": 0,
    "openDays": [
      "平日",
      "土曜日",
      "日曜日",
      "祝日"
    ],
    "openDaysNote": ""
  },
  {
    "id": "870401858",
    "name": "ケアステーションあさひ古河第弐",
    "kana": "ケアステーションアサヒコガダイニ",
    "address": "茨城県古河市鴻巣(字サラメキ)768番23",
    "lat": 36.1762486,
    "lng": 139.7077314,
    "tel": "0280-47-0502",
    "url": "",
    "pref": "茨城県",
    "city": "古河市",
    "category": "day_service",
    "serviceType": "通所介護",
    "capacity": 0,
    "openDays": [
      "平日",
      "土曜日",
      "日曜日",
      "祝日"
    ],
    "openDaysNote": "・重度の方でも受け入れ可能（改行）・特殊浴槽も完備している。"
  },
  {
    "id": "870401759",
    "name": "ご長寿くらぶ古河西町デイサービスセンター",
    "kana": "ゴチョウジュクラブコガニシマチデイサービスセンター",
    "address": "西町11-4",
    "lat": 36.1983616185904,
    "lng": 139.69769739259,
    "tel": "280336672",
    "url": "https://gotyoujyuclub.com/hometype/ibaraki/koga/2345",
    "pref": "茨城県",
    "city": "古河市",
    "category": "day_service",
    "serviceType": "通所介護",
    "capacity": 0,
    "openDays": [
      "平日",
      "土曜日",
      "祝日"
    ],
    "openDaysNote": ""
  },
  {
    "id": "870400355",
    "name": "ツクイ　古河",
    "kana": "ツクイ　コガ",
    "address": "古河市北町6-16",
    "lat": 36.203657,
    "lng": 139.7148013,
    "tel": "0280-30-8311",
    "url": "http://www.tsukui.net",
    "pref": "茨城県",
    "city": "古河市",
    "category": "day_service",
    "serviceType": "通所介護",
    "capacity": 0,
    "openDays": [
      "平日",
      "土曜日",
      "日曜日",
      "祝日"
    ],
    "openDaysNote": "24時間対応・年中無休"
  },
  {
    "id": "874300833",
    "name": "デイサービス　みやびの里",
    "kana": "デイサービスミヤビノサト",
    "address": "茨城県古河市駒羽根1420-1",
    "lat": 36.1582858,
    "lng": 139.7579074,
    "tel": "0280-91-1581",
    "url": "http://www.asahikeaservice-miyabinosato.com/",
    "pref": "茨城県",
    "city": "古河市",
    "category": "day_service",
    "serviceType": "通所介護",
    "capacity": 0,
    "openDays": [
      "平日",
      "土曜日",
      "祝日"
    ],
    "openDaysNote": ""
  },
  {
    "id": "870401890",
    "name": "デイサービス　菖蒲",
    "kana": "デイサービス　ショウブ",
    "address": "女沼1011-1菖蒲苑 菖蒲苑",
    "lat": 36.1799799882662,
    "lng": 139.735584799371,
    "tel": "0280-23-3416",
    "url": "",
    "pref": "茨城県",
    "city": "古河市",
    "category": "day_service",
    "serviceType": "通所介護",
    "capacity": 0,
    "openDays": [
      "平日",
      "土曜日",
      "日曜日",
      "祝日"
    ],
    "openDaysNote": ""
  },
  {
    "id": "870401288",
    "name": "デイサービス　福寿苑",
    "kana": "デイサービス　フクジュエン",
    "address": "茨城県古河市高野1420-1",
    "lat": 36.137199608236,
    "lng": 139.776095099998,
    "tel": "0280-91-1505",
    "url": "http//www.hidamari-mirai.com",
    "pref": "茨城県",
    "city": "古河市",
    "category": "day_service",
    "serviceType": "通所介護",
    "capacity": null,
    "openDays": [
      "平日",
      "土曜日",
      "祝日"
    ],
    "openDaysNote": ""
  },
  {
    "id": "870401775",
    "name": "デイサービスあやめの郷古河",
    "kana": "デイサービスアヤメノサトコガ",
    "address": "茨城県古河市女沼941-1",
    "lat": 36.1818941,
    "lng": 139.7361035,
    "tel": "0280-91-0881",
    "url": "",
    "pref": "茨城県",
    "city": "古河市",
    "category": "day_service",
    "serviceType": "通所介護",
    "capacity": 0,
    "openDays": [
      "平日",
      "土曜日",
      "日曜日",
      "祝日"
    ],
    "openDaysNote": ""
  },
  {
    "id": "870401536",
    "name": "デイサービスセンター　SLP古河",
    "kana": "デイサービスセンター　エスエルピーコガ",
    "address": "茨城県古河市女沼1645-3",
    "lat": 36.1806491,
    "lng": 139.734636,
    "tel": "0280-23-5371",
    "url": "",
    "pref": "茨城県",
    "city": "古河市",
    "category": "day_service",
    "serviceType": "通所介護",
    "capacity": 0,
    "openDays": [
      "平日"
    ],
    "openDaysNote": ""
  },
  {
    "id": "870400850",
    "name": "デイサービスセンター　ヒューマンサポート古河",
    "kana": "デイサービスセンター　ヒューマンサポートコガ",
    "address": "古河市本町１丁目3-30",
    "lat": 36.1960856,
    "lng": 139.7065239,
    "tel": "0280-30-1682",
    "url": "http://www.n-h-s.jp/koga",
    "pref": "茨城県",
    "city": "古河市",
    "category": "day_service",
    "serviceType": "通所介護",
    "capacity": 48,
    "openDays": [
      "平日",
      "土曜日",
      "日曜日",
      "祝日"
    ],
    "openDaysNote": ""
  },
  {
    "id": "870400876",
    "name": "デイサービスセンター　希望の森",
    "kana": "デイサービスセンター　キボウノモリ",
    "address": "茨城県古河市上大野１８８９－１",
    "lat": 36.2223539,
    "lng": 139.7842614,
    "tel": "0280-98-6200",
    "url": "http://www.ai-wa-kai.com/kibounomori",
    "pref": "茨城県",
    "city": "古河市",
    "category": "day_service",
    "serviceType": "通所介護",
    "capacity": 0,
    "openDays": [
      "平日",
      "土曜日",
      "祝日"
    ],
    "openDaysNote": ""
  },
  {
    "id": "870401254",
    "name": "デイサービスセンター　四季の郷",
    "kana": "デイサービスセンター　シキノサト",
    "address": "茨城県古河市東間中橋198",
    "lat": 36.1944533519448,
    "lng": 139.86366409472,
    "tel": "0280-33-3311",
    "url": "http://w3.dreams.ne.jp/fj5106/",
    "pref": "茨城県",
    "city": "古河市",
    "category": "day_service",
    "serviceType": "通所介護",
    "capacity": 0,
    "openDays": [
      "平日",
      "土曜日"
    ],
    "openDaysNote": ""
  },
  {
    "id": "874300221",
    "name": "デイサービスセンター　白英荘",
    "kana": "デイサービスセンター　ハクエイソウ",
    "address": "茨城県古河市小堤１７９６－２",
    "lat": 36.2022807,
    "lng": 139.7638361,
    "tel": "0280-98-6218",
    "url": "http://www.hakueisou.or.jp/index.html",
    "pref": "茨城県",
    "city": "古河市",
    "category": "day_service",
    "serviceType": "通所介護",
    "capacity": 20,
    "openDays": [
      "平日",
      "土曜日",
      "祝日"
    ],
    "openDaysNote": ""
  },
  {
    "id": "870401510",
    "name": "デイサービスセンターファミリー",
    "kana": "デイサービスセンターファミリー",
    "address": "茨城県古河市三杉町2-10-8",
    "lat": 36.2056457,
    "lng": 139.7193529,
    "tel": "0280-33-8092",
    "url": "",
    "pref": "茨城県",
    "city": "古河市",
    "category": "day_service",
    "serviceType": "通所介護",
    "capacity": 60,
    "openDays": [
      "平日",
      "土曜日",
      "祝日"
    ],
    "openDaysNote": ""
  },
  {
    "id": "874301013",
    "name": "デイサービスセンターみどりの丘",
    "kana": "デイサービスセンターミドリノオカ",
    "address": "茨城県古河市尾崎3373",
    "lat": 36.195718,
    "lng": 139.8404506,
    "tel": "0280-75-0550",
    "url": "https://www.s-3273.com",
    "pref": "茨城県",
    "city": "古河市",
    "category": "day_service",
    "serviceType": "通所介護",
    "capacity": 0,
    "openDays": [
      "平日",
      "土曜日",
      "祝日"
    ],
    "openDaysNote": ""
  },
  {
    "id": "870400074",
    "name": "デイサービスセンター愛光園",
    "kana": "デイサービスセンターアイコウエン",
    "address": "茨城県古河市新久田250-4",
    "lat": 36.1694411,
    "lng": 139.7019784,
    "tel": "0280-48-6976",
    "url": "http://aikouen.net/",
    "pref": "茨城県",
    "city": "古河市",
    "category": "day_service",
    "serviceType": "通所介護",
    "capacity": 0,
    "openDays": [
      "平日",
      "土曜日",
      "日曜日",
      "祝日"
    ],
    "openDaysNote": "なし"
  },
  {
    "id": "874300825",
    "name": "デイサービスセンター愛和苑",
    "kana": "デイサービスセンターアイワエン",
    "address": "茨城県古河市駒羽根320-1",
    "lat": 36.1730088,
    "lng": 139.7512213,
    "tel": "0280-93-0234",
    "url": "http://www.aiwaen.or.jp.",
    "pref": "茨城県",
    "city": "古河市",
    "category": "day_service",
    "serviceType": "通所介護",
    "capacity": null,
    "openDays": [
      "平日",
      "土曜日",
      "祝日"
    ],
    "openDaysNote": ""
  },
  {
    "id": "870401064",
    "name": "デイサービスつばさ",
    "kana": "デイサービスツバサ",
    "address": "茨城県古河市宮前町5番2号",
    "lat": 36.2005553520006,
    "lng": 139.698639566447,
    "tel": "0280-23-3764",
    "url": "",
    "pref": "茨城県",
    "city": "古河市",
    "category": "day_service",
    "serviceType": "通所介護",
    "capacity": 0,
    "openDays": [
      "平日",
      "土曜日",
      "日曜日",
      "祝日"
    ],
    "openDaysNote": ""
  },
  {
    "id": "870401650",
    "name": "デイサービスばんどう",
    "kana": "デイサービスバンドウ",
    "address": "茨城県古河市大堤112番地",
    "lat": 36.1867410524436,
    "lng": 139.715123884625,
    "tel": "0280-33-3322",
    "url": "https://www.smilebandou.com/",
    "pref": "茨城県",
    "city": "古河市",
    "category": "day_service",
    "serviceType": "通所介護",
    "capacity": null,
    "openDays": [
      "平日",
      "土曜日",
      "祝日"
    ],
    "openDaysNote": ""
  },
  {
    "id": "870400132",
    "name": "ニチイケアセンター古河",
    "kana": "ニチイケアセンターコガ",
    "address": "茨城県古河市古河643-1",
    "lat": 36.1900864,
    "lng": 139.7148622,
    "tel": "0280-30-5152",
    "url": "http://www.nichiigakkan.co.jp",
    "pref": "茨城県",
    "city": "古河市",
    "category": "day_service",
    "serviceType": "通所介護",
    "capacity": 25,
    "openDays": [
      "平日",
      "土曜日",
      "日曜日",
      "祝日"
    ],
    "openDaysNote": ""
  },
  {
    "id": "874300379",
    "name": "みどりの里指定通所介護事業所",
    "kana": "ミドリノサトシテイツウショカイゴジギョウショ",
    "address": "茨城県古河市東山田4796-2",
    "lat": 36.1597328,
    "lng": 139.8312056,
    "tel": "0280-78-1000",
    "url": "https://www.s-3273.com",
    "pref": "茨城県",
    "city": "古河市",
    "category": "day_service",
    "serviceType": "通所介護",
    "capacity": 0,
    "openDays": [
      "平日",
      "土曜日",
      "祝日"
    ],
    "openDaysNote": ""
  },
  {
    "id": "870401544",
    "name": "リハビリ強化型デイサービスセンターあおぞら",
    "kana": "リハビリキョウカガタデイサービスセンターアオゾラ",
    "address": "茨城県古河市下辺見927-2",
    "lat": 36.1711114,
    "lng": 139.7282588,
    "tel": "0280-23-6961",
    "url": "",
    "pref": "茨城県",
    "city": "古河市",
    "category": "day_service",
    "serviceType": "通所介護",
    "capacity": 0,
    "openDays": [
      "平日",
      "土曜日",
      "祝日"
    ],
    "openDaysNote": ""
  },
  {
    "id": "870401197",
    "name": "ろまんの家",
    "kana": "ロマンノイエ",
    "address": "茨城県古河市下辺見2845",
    "lat": 36.1746991471484,
    "lng": 139.731248598039,
    "tel": "0280-23-5665",
    "url": "http://roman-no-ie.com/",
    "pref": "茨城県",
    "city": "古河市",
    "category": "day_service",
    "serviceType": "通所介護",
    "capacity": 25,
    "openDays": [
      "平日",
      "土曜日",
      "日曜日",
      "祝日"
    ],
    "openDaysNote": ""
  },
  {
    "id": "870400165",
    "name": "わたらせデイサービスセンター",
    "kana": "ワタラセデイサービスセンター",
    "address": "茨城県古河市大山字西野507番5",
    "lat": 36.147116,
    "lng": 139.714984,
    "tel": "0280-47-0161",
    "url": "watarase@muse.ocn.ne.jp",
    "pref": "茨城県",
    "city": "古河市",
    "category": "day_service",
    "serviceType": "通所介護",
    "capacity": 0,
    "openDays": [
      "平日",
      "土曜日",
      "祝日"
    ],
    "openDaysNote": "なし"
  },
  {
    "id": "870401494",
    "name": "家族の家ひまわり古河　通所介護事業所",
    "kana": "カゾクノイエヒマワリコガ　ツウショカイゴジギョウショ",
    "address": "茨城県古河市西牛谷442",
    "lat": 36.2019048,
    "lng": 139.7345469,
    "tel": "280972002",
    "url": "",
    "pref": "茨城県",
    "city": "古河市",
    "category": "day_service",
    "serviceType": "通所介護",
    "capacity": null,
    "openDays": [
      "平日",
      "土曜日",
      "日曜日",
      "祝日"
    ],
    "openDaysNote": ""
  },
  {
    "id": "874300734",
    "name": "秋明館デイサービスセンター",
    "kana": "シュウメイカンデイサービスセンター",
    "address": "茨城県古河市諸川２５３０－４",
    "lat": 36.2046568,
    "lng": 139.8164649,
    "tel": "0280-77-3751",
    "url": "http://wahukai.or.jp",
    "pref": "茨城県",
    "city": "古河市",
    "category": "day_service",
    "serviceType": "通所介護",
    "capacity": 0,
    "openDays": [
      "平日",
      "土曜日",
      "日曜日",
      "祝日"
    ],
    "openDaysNote": ""
  },
  {
    "id": "870401379",
    "name": "白梅の里",
    "kana": "シラウメノサト",
    "address": "茨城県古河市大山785-2",
    "lat": 36.1450336,
    "lng": 139.7233218,
    "tel": "0280-48-5875",
    "url": "",
    "pref": "茨城県",
    "city": "古河市",
    "category": "day_service",
    "serviceType": "通所介護",
    "capacity": 20,
    "openDays": [
      "平日",
      "土曜日",
      "祝日"
    ],
    "openDaysNote": ""
  },
  {
    "id": "874301229",
    "name": "エムズライフ通所介護事業所",
    "kana": "エムズライフツウショカイゴジギョウショ",
    "address": "茨城県猿島郡五霞町大字元栗橋5395-2谷野ロジテム2階 谷野ロジテム2階",
    "lat": 36.0994985548529,
    "lng": 139.730626779756,
    "tel": "0280-23-6523",
    "url": "http://www.mslife.info/",
    "pref": "茨城県",
    "city": "五霞町",
    "category": "day_service",
    "serviceType": "通所介護",
    "capacity": 20,
    "openDays": [
      "平日"
    ],
    "openDaysNote": ""
  },
  {
    "id": "874301252",
    "name": "デイサービスセンターみらいぞ",
    "kana": "デイサービスセンターミライゾ",
    "address": "茨城県猿島郡五霞町大字元栗橋4639-8デイサービスセンターみらいぞ デイサービスセンターみらいぞ",
    "lat": 36.0887512,
    "lng": 139.7313938,
    "tel": "0280-33-3665",
    "url": "https://miraizo.co.jp/",
    "pref": "茨城県",
    "city": "五霞町",
    "category": "day_service",
    "serviceType": "通所介護",
    "capacity": 0,
    "openDays": [
      "平日",
      "土曜日",
      "祝日"
    ],
    "openDaysNote": ""
  },
  {
    "id": "874301153",
    "name": "デイサービスセンターわきあいあい",
    "kana": "デイサービスセンターワキアイアイ",
    "address": "茨城県猿島郡五霞町原宿台1-3-1",
    "lat": 36.1000699,
    "lng": 139.7374666,
    "tel": "0280-84-3836",
    "url": "http://keiwakai-grp.or.jp",
    "pref": "茨城県",
    "city": "五霞町",
    "category": "day_service",
    "serviceType": "通所介護",
    "capacity": null,
    "openDays": [
      "平日"
    ],
    "openDaysNote": ""
  },
  {
    "id": "874300791",
    "name": "通所介護デイサービスセンターきららの杜",
    "kana": "ツウショカイゴデイサービスセンターキララノモリ",
    "address": "茨城県猿島郡五霞町元栗橋7331-1",
    "lat": 36.1115239,
    "lng": 139.7286114,
    "tel": "0280-80-0888",
    "url": "http://www.kiraranomori.or.jp/",
    "pref": "茨城県",
    "city": "五霞町",
    "category": "day_service",
    "serviceType": "通所介護",
    "capacity": 0,
    "openDays": [
      "平日",
      "土曜日",
      "祝日"
    ],
    "openDaysNote": ""
  },
  {
    "id": "873700330",
    "name": "きたうらディサービスセンター",
    "kana": "キタウラディサービスセンター",
    "address": "茨城県行方市山田３３３９－６",
    "lat": 36.081449,
    "lng": 140.5175081,
    "tel": "0291-35-3080",
    "url": "http://www.doaikai.com",
    "pref": "茨城県",
    "city": "行方市",
    "category": "day_service",
    "serviceType": "通所介護",
    "capacity": null,
    "openDays": [
      "平日",
      "土曜日",
      "祝日"
    ],
    "openDaysNote": ""
  },
  {
    "id": "875300113",
    "name": "デイサービス　ぽっかぽか",
    "kana": "デイサービス　ポッカポカ",
    "address": "茨城県行方市繁昌642-1",
    "lat": 36.061228,
    "lng": 140.5213218,
    "tel": "0291-32-8151",
    "url": "https://www.homehelp-taiyou.co.jp/",
    "pref": "茨城県",
    "city": "行方市",
    "category": "day_service",
    "serviceType": "通所介護",
    "capacity": 0,
    "openDays": [
      "平日",
      "土曜日",
      "日曜日",
      "祝日"
    ],
    "openDaysNote": ""
  },
  {
    "id": "873700447",
    "name": "デイサービスセンター　ひまわり",
    "kana": "デイサービスセンターヒマワリ",
    "address": "茨城県行方市玉造甲422",
    "lat": 36.1037828,
    "lng": 140.4140732,
    "tel": "0299-35-6012",
    "url": "",
    "pref": "茨城県",
    "city": "行方市",
    "category": "day_service",
    "serviceType": "通所介護",
    "capacity": 20,
    "openDays": [
      "平日",
      "祝日"
    ],
    "openDaysNote": "休業日によってもご要望に応じ、対応可能"
  },
  {
    "id": "873700553",
    "name": "デイサービスセンターあそうの郷",
    "kana": "デイサービスセンターアソウノサト",
    "address": "行方市青沼９８１番地２",
    "lat": 36.0261425,
    "lng": 140.5132272,
    "tel": "0299-73-0311",
    "url": "http://www.ai-wa-kai.com",
    "pref": "茨城県",
    "city": "行方市",
    "category": "day_service",
    "serviceType": "通所介護",
    "capacity": 0,
    "openDays": [
      "平日",
      "土曜日",
      "祝日"
    ],
    "openDaysNote": ""
  },
  {
    "id": "875300303",
    "name": "共生型サービス事業所サポートセンターいきいき",
    "kana": "キョウセイガタサービスジギョウショサポートセンターイキイキ",
    "address": "麻生1085番地4",
    "lat": null,
    "lng": null,
    "tel": "0299-77-5900",
    "url": "http://www.ai-wa-kai.com",
    "pref": "茨城県",
    "city": "行方市",
    "category": "day_service",
    "serviceType": "通所介護",
    "capacity": null,
    "openDays": [
      "平日",
      "土曜日",
      "祝日"
    ],
    "openDaysNote": ""
  },
  {
    "id": "873700280",
    "name": "玉寿荘デイサービスセンター",
    "kana": "ギョクジュソウデイサービスセンター",
    "address": "茨城県行方市手賀1854-1",
    "lat": 36.0847135,
    "lng": 140.4335338,
    "tel": "0299-55-3636",
    "url": "care-net.biz/08/gyokujyusou/",
    "pref": "茨城県",
    "city": "行方市",
    "category": "day_service",
    "serviceType": "通所介護",
    "capacity": 0,
    "openDays": [
      "平日",
      "土曜日",
      "祝日"
    ],
    "openDaysNote": ""
  },
  {
    "id": "871400529",
    "name": "JA常陸　高萩デイサービスセンター　だいすき",
    "kana": "ジェイエーヒタチ　タカハギデイサービスセンター　ダイスキ",
    "address": "茨城県高萩市本町1-100-2",
    "lat": 36.7128929,
    "lng": 140.7088528,
    "tel": "0293-24-5015",
    "url": "",
    "pref": "茨城県",
    "city": "高萩市",
    "category": "day_service",
    "serviceType": "通所介護",
    "capacity": null,
    "openDays": [
      "平日",
      "土曜日",
      "祝日"
    ],
    "openDaysNote": "１２月３１日～１月３日は休暇"
  },
  {
    "id": "871400594",
    "name": "アロマの家・かな",
    "kana": "アロマノイエ・カナ",
    "address": "茨城県高萩市高浜町3-61-2",
    "lat": 36.7057869,
    "lng": 140.7174578,
    "tel": "0293-23-7618",
    "url": "",
    "pref": "茨城県",
    "city": "高萩市",
    "category": "day_service",
    "serviceType": "通所介護",
    "capacity": 0,
    "openDays": [
      "平日",
      "土曜日",
      "日曜日",
      "祝日"
    ],
    "openDaysNote": "状況による"
  },
  {
    "id": "871400388",
    "name": "デイサービス　山の湯",
    "kana": "デイサービス　ヤマノユ",
    "address": "茨城県高萩市上手綱3028番地",
    "lat": 36.7503756,
    "lng": 140.6818646,
    "tel": "0293-23-0126",
    "url": "",
    "pref": "茨城県",
    "city": "高萩市",
    "category": "day_service",
    "serviceType": "通所介護",
    "capacity": 25,
    "openDays": [
      "平日"
    ],
    "openDaysNote": ""
  },
  {
    "id": "871400305",
    "name": "デイサービスセンター　高萩聖孝園",
    "kana": "デイサービスセンター　タカハギセイコウエン",
    "address": "茨城県高萩市大字上手綱2番地",
    "lat": 36.7358113,
    "lng": 140.7030163,
    "tel": "0293-44-6222",
    "url": "http://www.aikohkai.or.jp/seikoen/index.html",
    "pref": "茨城県",
    "city": "高萩市",
    "category": "day_service",
    "serviceType": "通所介護",
    "capacity": 0,
    "openDays": [
      "平日",
      "土曜日",
      "祝日"
    ],
    "openDaysNote": ""
  },
  {
    "id": "871400578",
    "name": "でいとれ元気はつらつ館高萩店",
    "kana": "デイトレゲンキハツラツカンタカハギテン",
    "address": "茨城県高萩市高戸293-6",
    "lat": 36.7218508,
    "lng": 140.7193891,
    "tel": "0293-44-8771",
    "url": "http://www.helpercall.com",
    "pref": "茨城県",
    "city": "高萩市",
    "category": "day_service",
    "serviceType": "通所介護",
    "capacity": 0,
    "openDays": [
      "平日",
      "祝日"
    ],
    "openDaysNote": ""
  },
  {
    "id": "871400156",
    "name": "指定介護老人福祉施設松籟荘　指定通所介護事業所「湯っくり館」",
    "kana": "シテイカイゴロウジンフクシシセツショウライソウ　シテイツウショカイゴジギョウショ「ユックリカン」",
    "address": "茨城県高萩市下手綱１９５１－８",
    "lat": 36.7280924,
    "lng": 140.691017,
    "tel": "0293-22-2333",
    "url": "http://www.health-care.or.jp/shourai/index.php",
    "pref": "茨城県",
    "city": "高萩市",
    "category": "day_service",
    "serviceType": "通所介護",
    "capacity": 0,
    "openDays": [
      "平日",
      "祝日"
    ],
    "openDaysNote": "当該事項無し"
  },
  {
    "id": "871400404",
    "name": "聖孝園高萩東口　デイサービスセンター",
    "kana": "セイコウエンタカハギヒガシグチ　デイサービスセンター",
    "address": "茨城県高萩市東本町2-73-8",
    "lat": 36.715142,
    "lng": 140.7183599,
    "tel": "0293-44-3110",
    "url": "http://aikohkai.or.jp/",
    "pref": "茨城県",
    "city": "高萩市",
    "category": "day_service",
    "serviceType": "通所介護",
    "capacity": 20,
    "openDays": [
      "平日",
      "土曜日",
      "祝日"
    ],
    "openDaysNote": ""
  },
  {
    "id": "871400081",
    "name": "老人デイサービスセンターあすなろ",
    "kana": "ロウジンデイサービスセンターアスナロ",
    "address": "茨城県高萩市安良川字浜野２６９番地７０",
    "lat": 36.7087478116614,
    "lng": 140.714026369767,
    "tel": "0293-20-1512",
    "url": "http://peraichi.com/landing_pages/view/caretakahagi",
    "pref": "茨城県",
    "city": "高萩市",
    "category": "day_service",
    "serviceType": "通所介護",
    "capacity": 0,
    "openDays": [
      "平日",
      "祝日"
    ],
    "openDaysNote": ""
  },
  {
    "id": "872800164",
    "name": "あずみ苑岩井",
    "kana": "アズミエンイワイ",
    "address": "茨城県坂東市岩井1823-1",
    "lat": 36.0568454,
    "lng": 139.8893112,
    "tel": "0297-20-8115",
    "url": "https://www.azumien.jp/search/iwai/",
    "pref": "茨城県",
    "city": "坂東市",
    "category": "day_service",
    "serviceType": "通所介護",
    "capacity": 0,
    "openDays": [
      "平日",
      "土曜日",
      "祝日"
    ],
    "openDaysNote": ""
  },
  {
    "id": "872800446",
    "name": "あっとホーム　リハビリケア",
    "kana": "アットホーム　リハビリケア",
    "address": "茨城県坂東市神田山1278-1",
    "lat": 36.0362418,
    "lng": 139.9136264,
    "tel": "0297-34-1711",
    "url": "https://deisa-bisu-attoho-mu.jimdofree.com/",
    "pref": "茨城県",
    "city": "坂東市",
    "category": "day_service",
    "serviceType": "通所介護",
    "capacity": 0,
    "openDays": [
      "平日"
    ],
    "openDaysNote": ""
  },
  {
    "id": "872800404",
    "name": "アプローズ・坂東デイサービスセンター",
    "kana": "アプローズ・バンドウデイサービスセンター",
    "address": "茨城県坂東市岩井2938-1",
    "lat": 36.0521989,
    "lng": 139.8810903,
    "tel": "0297-38-4500",
    "url": "",
    "pref": "茨城県",
    "city": "坂東市",
    "category": "day_service",
    "serviceType": "通所介護",
    "capacity": 25,
    "openDays": [
      "平日",
      "土曜日",
      "祝日"
    ],
    "openDaysNote": ""
  },
  {
    "id": "872800529",
    "name": "こもれびの宿人と木",
    "kana": "コモレビノヤドヒトトキ",
    "address": "茨城県坂東市半谷688-1",
    "lat": 36.0999025376055,
    "lng": 139.878058228836,
    "tel": "0297-44-9711",
    "url": "",
    "pref": "茨城県",
    "city": "坂東市",
    "category": "day_service",
    "serviceType": "通所介護",
    "capacity": 30,
    "openDays": [
      "平日",
      "土曜日",
      "祝日"
    ],
    "openDaysNote": "延長のご利用も可能です。"
  },
  {
    "id": "871800157",
    "name": "デイサービスセンター　長寿の里",
    "kana": "デイサービスセンター　チョウジュノサト",
    "address": "茨城県坂東市中里１２１３番地",
    "lat": 36.0228079,
    "lng": 139.9008923,
    "tel": "0297-36-8080",
    "url": "hpp://ww.housikai.or.jp",
    "pref": "茨城県",
    "city": "坂東市",
    "category": "day_service",
    "serviceType": "通所介護",
    "capacity": 40,
    "openDays": [
      "平日",
      "祝日"
    ],
    "openDaysNote": "※電話連絡は、特養併設のため２４時間可能です。"
  },
  {
    "id": "872800198",
    "name": "デイサービスセンターひかりの畑",
    "kana": "デイサービスセンターヒカリノハタケ",
    "address": "茨城県坂東市駒跿940-3",
    "lat": 36.0818121,
    "lng": 139.8708229,
    "tel": "0297-34-3760",
    "url": "http://www.hikarinohatake.jp/",
    "pref": "茨城県",
    "city": "坂東市",
    "category": "day_service",
    "serviceType": "通所介護",
    "capacity": null,
    "openDays": [
      "平日",
      "土曜日",
      "祝日"
    ],
    "openDaysNote": ""
  },
  {
    "id": "872800420",
    "name": "デイサロン　リハ＆スパ",
    "kana": "デイサロン　リハアンドスパ",
    "address": "沓掛4347-1",
    "lat": 36.0951468,
    "lng": 139.8971963,
    "tel": "0297-21-3466",
    "url": "https://daysalon.jimdofree.com/",
    "pref": "茨城県",
    "city": "坂東市",
    "category": "day_service",
    "serviceType": "通所介護",
    "capacity": 5,
    "openDays": [
      "平日",
      "土曜日",
      "祝日"
    ],
    "openDaysNote": ""
  },
  {
    "id": "872800321",
    "name": "リハビリセンターここから",
    "kana": "リハビリセンターココカラ",
    "address": "茨城県坂東市辺田631-2",
    "lat": 36.0343994457511,
    "lng": 139.896085420902,
    "tel": "0297-44-5172",
    "url": "",
    "pref": "茨城県",
    "city": "坂東市",
    "category": "day_service",
    "serviceType": "通所介護",
    "capacity": 5,
    "openDays": [
      "平日",
      "土曜日"
    ],
    "openDaysNote": "平日及び土曜日の勤務についてはシフト制（改行）ご希望があれば延長利用が可能です。"
  },
  {
    "id": "872800271",
    "name": "延寿館デイサービスセンター",
    "kana": "エンジュカンデイサービスセンター",
    "address": "茨城県坂東市長須1188-2",
    "lat": 36.053309,
    "lng": 139.8499593,
    "tel": "0297-35-2650",
    "url": "http://www.enjyukan.or.jp",
    "pref": "茨城県",
    "city": "坂東市",
    "category": "day_service",
    "serviceType": "通所介護",
    "capacity": 0,
    "openDays": [
      "平日",
      "土曜日",
      "祝日"
    ],
    "openDaysNote": ""
  },
  {
    "id": "871800058",
    "name": "通所介護事業所　ハートフル広侖",
    "kana": "ツウショカイゴジギョウショ　ハートフルコウリン",
    "address": "茨城県坂東市小山２５８",
    "lat": 36.0160301,
    "lng": 139.8782338,
    "tel": "0297-38-1111",
    "url": "https://www.heartful-kourin.com/",
    "pref": "茨城県",
    "city": "坂東市",
    "category": "day_service",
    "serviceType": "通所介護",
    "capacity": 0,
    "openDays": [
      "平日",
      "土曜日",
      "祝日"
    ],
    "openDaysNote": ""
  },
  {
    "id": "875100299",
    "name": "Re笑サービス　レストーレ岩瀬",
    "kana": "リハサービス　レストーレイワセ",
    "address": "茨城県桜川市東桜川3-33",
    "lat": 36.3616017,
    "lng": 140.1165182,
    "tel": "0296-75-8070",
    "url": "http://www.jahos.jp/restaurer/",
    "pref": "茨城県",
    "city": "桜川市",
    "category": "day_service",
    "serviceType": "通所介護",
    "capacity": 0,
    "openDays": [
      "平日",
      "土曜日",
      "祝日"
    ],
    "openDaysNote": "日曜以外のお休みについては年度によって変更有"
  },
  {
    "id": "875100422",
    "name": "がじゅまるデイサービス",
    "kana": "ガジュマルデイサービス",
    "address": "茨城県桜川市真壁町桜井765番地2",
    "lat": 36.2779316,
    "lng": 140.1070085,
    "tel": "0296-48-9510",
    "url": "",
    "pref": "茨城県",
    "city": "桜川市",
    "category": "day_service",
    "serviceType": "通所介護",
    "capacity": 20,
    "openDays": [
      "平日",
      "祝日"
    ],
    "openDaysNote": "※感染症等、感染拡大が見込まれた場合は休業いたします（改行）※年末年始で1週間以上の長期休業の際は営業する場合があります。"
  },
  {
    "id": "874100407",
    "name": "スミハツサービス株式会社",
    "kana": "スミハツサービスカブシキガイシャ",
    "address": "茨城県桜川市阿部田323番地",
    "lat": 36.322776,
    "lng": 140.0956827,
    "tel": "0296-20-6330",
    "url": "http://hp.kaipoke.biz/x6v/index.html",
    "pref": "茨城県",
    "city": "桜川市",
    "category": "day_service",
    "serviceType": "通所介護",
    "capacity": 20,
    "openDays": [
      "平日",
      "祝日"
    ],
    "openDaysNote": "土日及び当社就業規則に定める休暇を除く月曜日から金曜日とする。（改行）※土日以外の休暇は、当社就業規則に定める、年末年始12月30日～1月3日、盆休み8月13日～8月16日とする。"
  },
  {
    "id": "875100372",
    "name": "デイサービスセンターひばり",
    "kana": "デイサービスセンターヒバリ",
    "address": "茨城県桜川市友部951-1",
    "lat": 36.3582788,
    "lng": 140.1431377,
    "tel": "0296-76-5021",
    "url": "https://www.kantoshigen.co.jp/hibari/",
    "pref": "茨城県",
    "city": "桜川市",
    "category": "day_service",
    "serviceType": "通所介護",
    "capacity": 0,
    "openDays": [
      "平日",
      "土曜日",
      "日曜日",
      "祝日"
    ],
    "openDaysNote": ""
  },
  {
    "id": "875100349",
    "name": "株式会社デイステーションにこにこ",
    "kana": "カブシキガイシャデイステーションニコニコ",
    "address": "茨城県桜川市明日香2-28",
    "lat": 36.3652103602631,
    "lng": 140.109452855308,
    "tel": "０２９６－７３－５２００",
    "url": "",
    "pref": "茨城県",
    "city": "桜川市",
    "category": "day_service",
    "serviceType": "通所介護",
    "capacity": 25,
    "openDays": [
      "平日",
      "土曜日",
      "祝日"
    ],
    "openDaysNote": ""
  },
  {
    "id": "873200356",
    "name": "岩瀬ケアセンターそよ風",
    "kana": "イワセケアセンターソヨカゼ",
    "address": "桜川市岩瀬30-2",
    "lat": 36.3605288,
    "lng": 140.1120774,
    "tel": "0296-70-8971",
    "url": "",
    "pref": "茨城県",
    "city": "桜川市",
    "category": "day_service",
    "serviceType": "通所介護",
    "capacity": 0,
    "openDays": [
      "平日",
      "土曜日",
      "祝日"
    ],
    "openDaysNote": ""
  },
  {
    "id": "875100083",
    "name": "桜川市社協岩瀬指定通所介護事業所",
    "kana": "サクラガワシシャキョウイワセシテイツウショカイゴジギョウショ",
    "address": "茨城県桜川市鍬田６１２番地岩瀬福祉センター内 岩瀬福祉センター内",
    "lat": 36.3617902,
    "lng": 140.0998702,
    "tel": "0296-76-1357",
    "url": "http://sakuragawa-syakyo.com/hoken.html",
    "pref": "茨城県",
    "city": "桜川市",
    "category": "day_service",
    "serviceType": "通所介護",
    "capacity": null,
    "openDays": [
      "平日",
      "祝日"
    ],
    "openDaysNote": ""
  },
  {
    "id": "872200175",
    "name": "サントピア鹿島デイサービスセンター",
    "kana": "サントピアカシマデイサービスセンター",
    "address": "茨城県鹿嶋市宮中５２００番地",
    "lat": 35.96337,
    "lng": 140.6299365,
    "tel": "0299-83-2311",
    "url": "http://www.suntopia.jp",
    "pref": "茨城県",
    "city": "鹿嶋市",
    "category": "day_service",
    "serviceType": "通所介護",
    "capacity": 0,
    "openDays": [
      "平日",
      "土曜日",
      "祝日"
    ],
    "openDaysNote": ""
  },
  {
    "id": "872200431",
    "name": "セ・シボンかしま　デイサービスセンター",
    "kana": "セ・シボンカシマ　デイサービスセンター",
    "address": "茨城県鹿嶋市須賀１３５０－１",
    "lat": 35.9782791,
    "lng": 140.6235367,
    "tel": "0299-84-1165",
    "url": "http://shifuku.or.jp/cestsibon",
    "pref": "茨城県",
    "city": "鹿嶋市",
    "category": "day_service",
    "serviceType": "通所介護",
    "capacity": 0,
    "openDays": [
      "平日",
      "土曜日",
      "祝日"
    ],
    "openDaysNote": ""
  },
  {
    "id": "872200613",
    "name": "デイサービスセンター大野の郷",
    "kana": "デイサービスセンターオオノノサト",
    "address": "茨城県鹿嶋市大字和字治８２５番５",
    "lat": 36.0397483,
    "lng": 140.611189,
    "tel": "0299-78-7881",
    "url": "https://kashimashi.net/oononosato/",
    "pref": "茨城県",
    "city": "鹿嶋市",
    "category": "day_service",
    "serviceType": "通所介護",
    "capacity": 0,
    "openDays": [
      "平日",
      "土曜日",
      "祝日"
    ],
    "openDaysNote": ""
  },