[
  {
    "id": "4272100498",
    "name": "お泊まりデイサービス憩",
    "kana": "オトマリデイサービス　ケイ",
    "address": "長崎県壱岐市芦辺町国分東触587番地",
    "lat": 33.7976685,
    "lng": 129.7215118,
    "tel": "0920-45-3311",
    "url": "https://otomari-kei.com/",
    "pref": "長崎県",
    "city": "壱岐市",
    "category": "day_service",
    "serviceType": "通所介護",
    "capacity": 0,
    "openDays": [
      "平日",
      "土曜日",
      "日曜日",
      "祝日"
    ],
    "openDaysNote": "ご希望に応じて延長利用も可能です"
  },
  {
    "id": "4272100472",
    "name": "デイサービスセンター　壱岐のこころ",
    "kana": "デイサービスセンター　イキノココロ",
    "address": "長崎県壱岐市勝本町布気触948番地1",
    "lat": 33.8065548980777,
    "lng": 129.690065470716,
    "tel": "0920-43-0107",
    "url": "https://www.kokoro.ac.jp/gr/ishinkai-iki/",
    "pref": "長崎県",
    "city": "壱岐市",
    "category": "day_service",
    "serviceType": "通所介護",
    "capacity": null,
    "openDays": [
      "平日",
      "土曜日",
      "祝日"
    ],
    "openDaysNote": "年始休業日：あり"
  },
  {
    "id": "4272100316",
    "name": "パワーリハビリテーションセンター光風",
    "kana": "パワーリハビリテーションセンターコウフウ",
    "address": "長崎県壱岐市郷ノ浦町東触1012番地１",
    "lat": 33.7533888,
    "lng": 129.7067113,
    "tel": "0920-47-5633",
    "url": "ｗｗｗ/ｇｅｎｓｈｕｋａｉ.ｏｒ.ｊｐ",
    "pref": "長崎県",
    "city": "壱岐市",
    "category": "day_service",
    "serviceType": "通所介護",
    "capacity": 0,
    "openDays": [
      "平日",
      "祝日"
    ],
    "openDaysNote": ""
  },
  {
    "id": "4272100076",
    "name": "壱岐市社協　勝本通所介護事業所",
    "kana": "イキシシャキョウ　カツモトツウショカイゴジギョウショ",
    "address": "長崎県壱岐市勝本町大久保触１７３６番地２",
    "lat": 33.8439195,
    "lng": 129.6918508,
    "tel": "0920-48-3222",
    "url": "https://ikicity-csw.jp/",
    "pref": "長崎県",
    "city": "壱岐市",
    "category": "day_service",
    "serviceType": "通所介護",
    "capacity": 0,
    "openDays": [
      "平日",
      "土曜日",
      "祝日"
    ],
    "openDaysNote": ""
  },
  {
    "id": "4272100118",
    "name": "壱岐市社協芦辺通所介護事業所",
    "kana": "イキシシャキョウアシベツウショカイゴジギョウショ",
    "address": "長崎県壱岐市芦辺町箱崎中山触２５４８番地",
    "lat": 33.8096575,
    "lng": 129.7472116,
    "tel": "0920-45-2378",
    "url": "https://ikicity-csw.jp/",
    "pref": "長崎県",
    "city": "壱岐市",
    "category": "day_service",
    "serviceType": "通所介護",
    "capacity": 45,
    "openDays": [
      "平日",
      "土曜日",
      "祝日"
    ],
    "openDaysNote": ""
  },
  {
    "id": "4272100035",
    "name": "壱岐市社協郷ノ浦通所介護事業所",
    "kana": "イキシシャキョウゴウノウラツウショカイゴジギョウショ",
    "address": "長崎県壱岐市郷ノ浦町坪触3099番地",
    "lat": 33.7321548,
    "lng": 129.6974549,
    "tel": "0920-47-0132",
    "url": "https://ikicity-csw.jp/",
    "pref": "長崎県",
    "city": "壱岐市",
    "category": "day_service",
    "serviceType": "通所介護",
    "capacity": 0,
    "openDays": [
      "平日",
      "土曜日",
      "祝日"
    ],
    "openDaysNote": ""
  },
  {
    "id": "4272100167",
    "name": "壱岐市社協石田通所介護事業所",
    "kana": "イキシシャキョウイシダツウショカイゴジギョウショ",
    "address": "長崎県壱岐市石田町石田西触1486-1",
    "lat": 33.7452157,
    "lng": 129.7531643,
    "tel": "0920-44-6150",
    "url": "https://ikicity-csw.jp/",
    "pref": "長崎県",
    "city": "壱岐市",
    "category": "day_service",
    "serviceType": "通所介護",
    "capacity": 0,
    "openDays": [
      "平日",
      "土曜日",
      "祝日"
    ],
    "openDaysNote": ""
  },
  {
    "id": "4272100365",
    "name": "社会医療法人　玄州会　デイサービスセンターリバティ",
    "kana": "シャカイイリョウホウジン　ゲンシュウカイ　デイサービスセンターリバティ",
    "address": "長崎県壱岐市郷ノ浦町永田触295番地4",
    "lat": 33.7520222,
    "lng": 129.6996426,
    "tel": "0920-47-3601",
    "url": "http://www.gensyukai.or.jp/",
    "pref": "長崎県",
    "city": "壱岐市",
    "category": "day_service",
    "serviceType": "通所介護",
    "capacity": 0,
    "openDays": [
      "平日",
      "土曜日",
      "祝日"
    ],
    "openDaysNote": ""
  },
  {
    "id": "4272100225",
    "name": "社会医療法人玄州会　デイサービスセンター光風",
    "kana": "シャカイイリョウホウジンゲンシュウカイ　デイサービスセンターコウフウ",
    "address": "長崎県壱岐市郷ノ浦町東触1005番地",
    "lat": 33.7526139,
    "lng": 129.7068641,
    "tel": "0920-47-2330",
    "url": "http://www.gensyukai.or.jp/",
    "pref": "長崎県",
    "city": "壱岐市",
    "category": "day_service",
    "serviceType": "通所介護",
    "capacity": 0,
    "openDays": [
      "平日",
      "土曜日",
      "祝日"
    ],
    "openDaysNote": "ご家族、利用者の必要に応じて時間延長をいたします。"
  },
  {
    "id": "4272400237",
    "name": "デイサービスセンター　　おおいし",
    "kana": "デイサービスセンター　オオイシ",
    "address": "長崎県雲仙市愛野町乙1162-1番地",
    "lat": 32.810329903268,
    "lng": 130.159535402516,
    "tel": "0957-36-0981",
    "url": "",
    "pref": "長崎県",
    "city": "雲仙市",
    "category": "day_service",
    "serviceType": "通所介護",
    "capacity": 0,
    "openDays": [
      "平日",
      "土曜日",
      "祝日"
    ],
    "openDaysNote": ""
  },
  {
    "id": "4271401616",
    "name": "デイサービスセンター「くにみの里」",
    "kana": "デイサービスセンター　クニミノサト",
    "address": "長崎県雲仙市国見町多比良戊１４４９番地４１５",
    "lat": 32.8310903,
    "lng": 130.2912054,
    "tel": "0975-78-5656",
    "url": "http://nissin-g.jp/",
    "pref": "長崎県",
    "city": "雲仙市",
    "category": "day_service",
    "serviceType": "通所介護",
    "capacity": 25,
    "openDays": [
      "平日",
      "土曜日",
      "祝日"
    ],
    "openDaysNote": "特になし"
  },
  {
    "id": "4272400542",
    "name": "デイサービスセンタークベレ",
    "kana": "デイサービスセンタークベレ",
    "address": "長崎県雲仙市千々石町戊182番地4",
    "lat": 32.7820743,
    "lng": 130.1942929,
    "tel": "0957-37-2140",
    "url": "http://www.quelle-gp.jp/",
    "pref": "長崎県",
    "city": "雲仙市",
    "category": "day_service",
    "serviceType": "通所介護",
    "capacity": 32,
    "openDays": [
      "平日",
      "土曜日",
      "祝日"
    ],
    "openDaysNote": "1月1日、2日は休み"
  },
  {
    "id": "4272400419",
    "name": "デイサービスセンターげんきはうす",
    "kana": "デイサービスセンターゲンキハウス",
    "address": "長崎県雲仙市千々石町甲4-4",
    "lat": 32.7834158,
    "lng": 130.194315,
    "tel": "0957-37-6251",
    "url": "",
    "pref": "長崎県",
    "city": "雲仙市",
    "category": "day_service",
    "serviceType": "通所介護",
    "capacity": 0,
    "openDays": [
      "平日",
      "土曜日",
      "祝日"
    ],
    "openDaysNote": ""
  },
  {
    "id": "4271401533",
    "name": "デイサービスセンター佃の里",
    "kana": "デイサービスセンター　ツクダノサト",
    "address": "長崎県雲仙市吾妻町永中名48－1",
    "lat": 32.8352945,
    "lng": 130.1810419,
    "tel": "0957-20-0103",
    "url": "http://fujita-kikaku.net",
    "pref": "長崎県",
    "city": "雲仙市",
    "category": "day_service",
    "serviceType": "通所介護",
    "capacity": 30,
    "openDays": [
      "平日",
      "土曜日",
      "祝日"
    ],
    "openDaysNote": ""
  },
  {
    "id": "4271400493",
    "name": "デイサービスセンター南串山荘",
    "kana": "デイサービスセンターミナミクシヤマソウ",
    "address": "長崎県雲仙市南串山町丙１０７２２番地",
    "lat": 32.6729283,
    "lng": 130.1498214,
    "tel": "0957-88-2922",
    "url": "http://www.keikokai.jp/ansin_minami/index.html",
    "pref": "長崎県",
    "city": "雲仙市",
    "category": "day_service",
    "serviceType": "通所介護",
    "capacity": 25,
    "openDays": [
      "平日",
      "土曜日",
      "祝日"
    ],
    "openDaysNote": ""
  },
  {
    "id": "4272400328",
    "name": "デイサービスなずな",
    "kana": "デイサービスナズナ",
    "address": "長崎県雲仙市千々石町庚1297-1",
    "lat": 32.7623080920554,
    "lng": 130.213583345894,
    "tel": "0957-74-5125",
    "url": "http://nanogroup.or.jp/",
    "pref": "長崎県",
    "city": "雲仙市",
    "category": "day_service",
    "serviceType": "通所介護",
    "capacity": 5,
    "openDays": [
      "平日",
      "祝日"
    ],
    "openDaysNote": ""
  },
  {
    "id": "4272400435",
    "name": "デイサービス友悠",
    "kana": "デイサービスユウユウ",
    "address": "長崎県雲仙市国見町土黒戊40番地",
    "lat": 32.866189,
    "lng": 130.2879187,
    "tel": "0957-78-1338",
    "url": "",
    "pref": "長崎県",
    "city": "雲仙市",
    "category": "day_service",
    "serviceType": "通所介護",
    "capacity": 0,
    "openDays": [
      "平日",
      "土曜日",
      "日曜日",
      "祝日"
    ],
    "openDaysNote": ""
  },
  {
    "id": "4271402325",
    "name": "デイセンター　やまぼうし",
    "kana": "デイセンター　ヤマボウシ",
    "address": "長崎県雲仙市小浜町雲仙314",
    "lat": 32.7425974,
    "lng": 130.2608851,
    "tel": "0957-76-6888",
    "url": "",
    "pref": "長崎県",
    "city": "雲仙市",
    "category": "day_service",
    "serviceType": "通所介護",
    "capacity": 30,
    "openDays": [
      "平日",
      "土曜日",
      "祝日"
    ],
    "openDaysNote": ""
  },
  {
    "id": "4272400385",
    "name": "介護予防事業所　吾妻デイサービスセンター",
    "kana": "カイゴヨボウジギョウショ　アヅマデイサービスセンター",
    "address": "長崎県雲仙市吾妻町馬場名403番地",
    "lat": 32.8302893,
    "lng": 130.189355,
    "tel": "0957-38-6886",
    "url": "http://aduma.or.jp/",
    "pref": "長崎県",
    "city": "雲仙市",
    "category": "day_service",
    "serviceType": "通所介護",
    "capacity": 0,
    "openDays": [
      "平日",
      "祝日"
    ],
    "openDaysNote": "土曜日は、自主事業における健康教室開催期間（年２回：1クール10回）の営業時間は、８時～１３時までとする。"
  },
  {
    "id": "4272400484",
    "name": "月光園　デイサービスセンター",
    "kana": "ゲッコウエン",
    "address": "長崎県雲仙市国見町土黒丙６８－１月光園デイサービス棟 月光園デイサービス棟",
    "lat": 32.8717385362291,
    "lng": 130.297031212898,
    "tel": "0957-61-7701",
    "url": "http://getuko/jp/",
    "pref": "長崎県",
    "city": "雲仙市",
    "category": "day_service",
    "serviceType": "通所介護",
    "capacity": 0,
    "openDays": [
      "平日",
      "土曜日",
      "祝日"
    ],
    "openDaysNote": "年末１２月３１日～１月２日休日"
  },
  {
    "id": "4272400088",
    "name": "国見デイサービスセンター",
    "kana": "クニミデイサービスセンター",
    "address": "長崎県雲仙市国見町土黒甲1063番地",
    "lat": 32.8732165,
    "lng": 130.3028949,
    "tel": "0957-78-5553",
    "url": "",
    "pref": "長崎県",
    "city": "雲仙市",
    "category": "day_service",
    "serviceType": "通所介護",
    "capacity": 25,
    "openDays": [
      "平日",
      "土曜日",
      "祝日"
    ],
    "openDaysNote": "特別な場合は、この限りではない"
  },
  {
    "id": "4271400881",
    "name": "社会福祉法人　朝日福祉会　桃源園",
    "kana": "シャカイフクシホウジン　アサヒフクシカイ　トウゲンエン",
    "address": "長崎県雲仙市国見町神代甲900-5",
    "lat": 32.8649103,
    "lng": 130.2744071,
    "tel": "0957-65-3100",
    "url": "",
    "pref": "長崎県",
    "city": "雲仙市",
    "category": "day_service",
    "serviceType": "通所介護",
    "capacity": 0,
    "openDays": [
      "平日",
      "土曜日",
      "日曜日",
      "祝日"
    ],
    "openDaysNote": ""
  },
  {
    "id": "4271400956",
    "name": "社会福祉法人八幡会　デイサービス宮",
    "kana": "シャカイフクシホウジンハチマンカイ　デイサービスミヤ",
    "address": "長崎県雲仙市南串山町丙９８０４番地１",
    "lat": 32.6810221,
    "lng": 130.1461098,
    "tel": "0957-88-2811",
    "url": "http://www.hachimankai.or.jp/day/index.php",
    "pref": "長崎県",
    "city": "雲仙市",
    "category": "day_service",
    "serviceType": "通所介護",
    "capacity": 6,
    "openDays": [
      "平日",
      "土曜日",
      "祝日"
    ],
    "openDaysNote": ""
  },
  {
    "id": "4271400857",
    "name": "湯遊ハウス",
    "kana": "ユウユウハウス",
    "address": "雲仙市小浜町北本町２１７番地",
    "lat": 32.7355201,
    "lng": 130.2094811,
    "tel": "0957-74-5150",
    "url": "http://www.obamakai.com/",
    "pref": "長崎県",
    "city": "雲仙市",
    "category": "day_service",
    "serviceType": "通所介護",
    "capacity": 45,
    "openDays": [
      "平日",
      "土曜日",
      "祝日"
    ],
    "openDaysNote": ""
  },
  {
    "id": "4272200595",
    "name": "かけはし福江通所介護",
    "kana": "カケハシフクエツウショカイゴ",
    "address": "長崎県五島市武家屋敷3丁目２番地6号",
    "lat": 32.6909466,
    "lng": 128.8432986,
    "tel": "080-7298-3193",
    "url": "nagomikai-kakehashi.or.jp",
    "pref": "長崎県",
    "city": "五島市",
    "category": "day_service",
    "serviceType": "通所介護",
    "capacity": 30,
    "openDays": [
      "平日",
      "土曜日",
      "祝日"
    ],
    "openDaysNote": ""
  },
  {
    "id": "4272200660",
    "name": "デイサービス　風の杜",
    "kana": "デイサービス　カゼノモリ",
    "address": "長崎県五島市上大津町2532",
    "lat": 32.6704421,
    "lng": 128.8449322,
    "tel": "0959-75-0208",
    "url": "http://goto.kazenomori.net",
    "pref": "長崎県",
    "city": "五島市",
    "category": "day_service",
    "serviceType": "通所介護",
    "capacity": 30,
    "openDays": [
      "平日",
      "土曜日",
      "祝日"
    ],
    "openDaysNote": ""
  },
  {
    "id": "4272200983",
    "name": "デイサービスのぼる",
    "kana": "デイサービスノボル",
    "address": "長崎県五島市大荒町1312デイサービスのぼる デイサービスのぼる",
    "lat": 32.7043341,
    "lng": 128.8231602,
    "tel": "0959-74-6358",
    "url": "",
    "pref": "長崎県",
    "city": "五島市",
    "category": "day_service",
    "serviceType": "通所介護",
    "capacity": 0,
    "openDays": [
      "平日",
      "祝日"
    ],
    "openDaysNote": ""
  },
  {
    "id": "4272200488",
    "name": "ディサービス天意",
    "kana": "ディサービスアイ",
    "address": "長崎県五島市大荒町1312番地",
    "lat": 32.6980601,
    "lng": 128.8381098,
    "tel": "0959-74-6358",
    "url": "",
    "pref": "長崎県",
    "city": "五島市",
    "category": "day_service",
    "serviceType": "通所介護",
    "capacity": 0,
    "openDays": [
      "平日",
      "土曜日",
      "祝日"
    ],
    "openDaysNote": ""
  },
  {
    "id": "4270604160",
    "name": "パワーリハビリディ　健康ランド",
    "kana": "パワーリハビリディ　ケンコウランド",
    "address": "長崎県五島市奥浦町１３２１番地６",
    "lat": 32.7383024,
    "lng": 128.8280954,
    "tel": "0959-75-4500",
    "url": "http://okuura.web.fc2.com/o/",
    "pref": "長崎県",
    "city": "五島市",
    "category": "day_service",
    "serviceType": "通所介護",
    "capacity": 0,
    "openDays": [
      "平日",
      "土曜日",
      "祝日"
    ],
    "openDaysNote": ""
  },
  {
    "id": "4272200389",
    "name": "株式会社　デイサ－ビスセンタ－やまうち",
    "kana": "カブシキカイシャ　デイサービスセンターヤマウチ",
    "address": "長崎県五島市岐宿町中嶽１４９３番地１",
    "lat": 32.6798621,
    "lng": 128.7379053,
    "tel": "0959-83-1520",
    "url": "http://day-yamauchi.com/",
    "pref": "長崎県",
    "city": "五島市",
    "category": "day_service",
    "serviceType": "通所介護",
    "capacity": 0,
    "openDays": [
      "平日",
      "土曜日",
      "祝日"
    ],
    "openDaysNote": ""
  },
  {
    "id": "4271600787",
    "name": "社会福祉法人　五島市社会福祉協議会　富江支所　通所介護事業所",
    "kana": "シャカイフクシホウジンゴトウシシャカイフクシキョウギカイトミエシショツウショカイゴジギョウショ",
    "address": "長崎県五島市富江町狩立４０２番地１",
    "lat": 32.6123645,
    "lng": 128.7634918,
    "tel": "0959-86-2150",
    "url": "http://www.goto-shakyo.or.jp",
    "pref": "長崎県",
    "city": "五島市",
    "category": "day_service",
    "serviceType": "通所介護",
    "capacity": 0,
    "openDays": [
      "平日",
      "土曜日",
      "祝日"
    ],
    "openDaysNote": "年末年始は状況により休み有"
  },
  {
    "id": "4271500045",
    "name": "佐々町社会福祉協議会　デイサービスセンター",
    "kana": "サザチョウシャカイフクシキョウギカイ　デイサービスセンター",
    "address": "長崎県北松浦郡佐々町市場免２３－１佐々町福祉センター１階 佐々町福祉センター１階",
    "lat": 33.2338087,
    "lng": 129.6474617,
    "tel": "0956-63-5900",
    "url": "http://www.sazafukushi.jp/",
    "pref": "長崎県",
    "city": "佐々町",
    "category": "day_service",
    "serviceType": "通所介護",
    "capacity": 25,
    "openDays": [
      "平日",
      "土曜日",
      "祝日"
    ],
    "openDaysNote": "上記、営業時間以外にも事前の連絡・調整にて利用が可能です。"
  },
  {
    "id": "4271500102",
    "name": "社会福祉法人佐々川福祉会　虹の里事業所",
    "kana": "シャカイフクシホウジンサザガワフクシカイ　ニジノサトジギョウショ",
    "address": "長崎県北松浦郡佐々町八口免805番地3",
    "lat": 33.2559605,
    "lng": 129.6823662,
    "tel": "0956-41-1211",
    "url": "http://www.sazagawa.com/ayame/nijinosato.html",
    "pref": "長崎県",
    "city": "佐々町",
    "category": "day_service",
    "serviceType": "通所介護",
    "capacity": 0,
    "openDays": [
      "平日",
      "土曜日",
      "祝日"
    ],
    "openDaysNote": ""
  },
  {
    "id": "4270205570",
    "name": "グッドリハブ",
    "kana": "グッドリハブ",
    "address": "長崎県佐世保市梅田町6番3号",
    "lat": 33.1918641133724,
    "lng": 129.718743060188,
    "tel": "0956-37-6796",
    "url": "",
    "pref": "長崎県",
    "city": "佐世保市",
    "category": "day_service",
    "serviceType": "通所介護",
    "capacity": null,
    "openDays": [
      "平日"
    ],
    "openDaysNote": ""
  },
  {
    "id": "4270205521",
    "name": "くにみ",
    "kana": "クニミ",
    "address": "長崎県佐世保市吉井町直谷246－3",
    "lat": 33.2822946,
    "lng": 129.704025,
    "tel": "0956-64-3741",
    "url": "http://www.ashitabakai.or.jp",
    "pref": "長崎県",
    "city": "佐世保市",
    "category": "day_service",
    "serviceType": "通所介護",
    "capacity": 0,
    "openDays": [
      "平日"
    ],
    "openDaysNote": "ただし、営業所が指定する土・日曜日は営業を行う。"
  },
  {
    "id": "4270205281",
    "name": "チームしおさい",
    "kana": "チームシオサイ",
    "address": "長崎県佐世保市大塔町2155番地",
    "lat": 33.1575244,
    "lng": 129.7773573,
    "tel": "0956-76-7790",
    "url": "http://miyakyoseikai.or.jp",
    "pref": "長崎県",
    "city": "佐世保市",
    "category": "day_service",
    "serviceType": "通所介護",
    "capacity": 0,
    "openDays": [
      "平日",
      "土曜日",
      "祝日"
    ],
    "openDaysNote": "法人内の職員研修などにより、閉所となる日があります。（改行）年末年始は閉所となります。"
  },
  {
    "id": "4270204219",
    "name": "デイサービス　きかぜ",
    "kana": "デイサービス　キカゼ",
    "address": "長崎県佐世保市木風町1281-1",
    "lat": 33.1669339,
    "lng": 129.7467217,
    "tel": "0956-34-3003",
    "url": "harakea.com",
    "pref": "長崎県",
    "city": "佐世保市",
    "category": "day_service",
    "serviceType": "通所介護",
    "capacity": 0,
    "openDays": [
      "平日",
      "土曜日",
      "祝日"
    ],
    "openDaysNote": ""
  },
  {
    "id": "4270202569",
    "name": "デイサービス　音羽の浜",
    "kana": "デイサービス　オトワノハマ",
    "address": "長崎県佐世保市東浜町１２３番地",
    "lat": 33.1358536,
    "lng": 129.7368867,
    "tel": "0956-33-0108",
    "url": "http://www.otowanohama.jp/",
    "pref": "長崎県",
    "city": "佐世保市",
    "category": "day_service",
    "serviceType": "通所介護",
    "capacity": 0,
    "openDays": [
      "平日",
      "土曜日",
      "祝日"
    ],
    "openDaysNote": "定休日に関しては1ヶ月前程にご連絡いたします"
  },
  {
    "id": "4270200282",
    "name": "デイサービスセンター　あいのうら",
    "kana": "デイサアビスセンタア　アイノウラ",
    "address": "長崎県佐世保市相浦町６０６番地１",
    "lat": 33.193994,
    "lng": 129.6633426,
    "tel": "0956-48-6001",
    "url": "https://syk.or.jp",
    "pref": "長崎県",
    "city": "佐世保市",
    "category": "day_service",
    "serviceType": "通所介護",
    "capacity": 0,
    "openDays": [
      "平日",
      "土曜日",
      "日曜日",
      "祝日"
    ],
    "openDaysNote": ""
  },
  {
    "id": "4270200498",
    "name": "デイサービスセンター　ガーデンハイツはいき",
    "kana": "デイサービスセンター　ガーデンハイツハイキ",
    "address": "長崎県佐世保市桑木場町１５９番地",
    "lat": 33.1450881,
    "lng": 129.8220152,
    "tel": "0956-30-8633",
    "url": "http://www5.ocn.ne.jp/~kensei/",
    "pref": "長崎県",
    "city": "佐世保市",
    "category": "day_service",
    "serviceType": "通所介護",
    "capacity": 0,
    "openDays": [
      "平日",
      "祝日"
    ],
    "openDaysNote": "祝祭日の12/31、1/1～1/3は休み"
  },
  {
    "id": "4270204250",
    "name": "デイサービスセンター　ナイスケア　みなとまち",
    "kana": "デイサービスセンター　ナイスケア　ミナトマチ",
    "address": "長崎県佐世保市湊町5-5",
    "lat": 33.172891,
    "lng": 129.7179626,
    "tel": "0956-23-2880",
    "url": "",
    "pref": "長崎県",
    "city": "佐世保市",
    "category": "day_service",
    "serviceType": "通所介護",
    "capacity": 0,
    "openDays": [
      "平日",
      "土曜日",
      "祝日"
    ],
    "openDaysNote": ""
  },
  {
    "id": "4270204383",
    "name": "デイサービスセンター　はなたか",
    "kana": "デイサービスセンター　ハナタカ",
    "address": "長崎県佐世保市花高２丁目１番３５号特別養護老人ホーム博仁荘 特別養護老人ホーム博仁荘",
    "lat": 33.1439433,
    "lng": 129.8080834,
    "tel": "0956-39-1230",
    "url": "http://sasebo-hakujinkai.or.jp/",
    "pref": "長崎県",
    "city": "佐世保市",
    "category": "day_service",
    "serviceType": "通所介護",
    "capacity": 0,
    "openDays": [
      "平日",
      "土曜日",
      "祝日"
    ],
    "openDaysNote": ""
  },
  {
    "id": "4270202965",
    "name": "デイサービスセンター　希望の家",
    "kana": "デイサービスセンター　キボウノイエ",
    "address": "長崎県佐世保市黒髪町33番23号",
    "lat": 33.1656015,
    "lng": 129.7730474,
    "tel": "0956-20-8239",
    "url": "http://www.e-kibounoie.com/",
    "pref": "長崎県",
    "city": "佐世保市",
    "category": "day_service",
    "serviceType": "通所介護",
    "capacity": 0,
    "openDays": [
      "平日",
      "祝日"
    ],
    "openDaysNote": ""
  },
  {
    "id": "4270201611",
    "name": "デイサービスセンター日野",
    "kana": "デイサービスセンターヒノ",
    "address": "長崎県佐世保市日野町８５６番地１０",
    "lat": 33.1713661,
    "lng": 129.6763088,
    "tel": "0956-28-3865",
    "url": "http://seiaikai-group.or.jp",
    "pref": "長崎県",
    "city": "佐世保市",
    "category": "day_service",
    "serviceType": "通所介護",
    "capacity": 25,
    "openDays": [
      "平日",
      "土曜日",
      "祝日"
    ],
    "openDaysNote": ""
  },
  {
    "id": "4270204425",
    "name": "デイサービスふくしあ",
    "kana": "デイサービス　フクシア",
    "address": "長崎県佐世保市卸本町286番地2サービス付き高齢者向け住宅ふくしあ サービス付き高齢者向け住宅ふくしあ",
    "lat": 33.1475374399068,
    "lng": 129.771840781645,
    "tel": "0956-34-2948",
    "url": "http://www.fukushia-sasebo.jp/",
    "pref": "長崎県",
    "city": "佐世保市",
    "category": "day_service",
    "serviceType": "通所介護",
    "capacity": 0,
    "openDays": [
      "平日",
      "土曜日",
      "祝日"
    ],
    "openDaysNote": "その年の暦によっては、日にちに変動があります。"
  },
  {
    "id": "4270201306",
    "name": "デイサービスみのりの里",
    "kana": "デイサービスミノリノサト",
    "address": "長崎県佐世保市長畑町４５０番1",
    "lat": 33.0837042,
    "lng": 129.8050211,
    "tel": "0956-20-4622",
    "url": "",
    "pref": "長崎県",
    "city": "佐世保市",
    "category": "day_service",
    "serviceType": "通所介護",
    "capacity": 10,
    "openDays": [
      "平日",
      "土曜日",
      "祝日"
    ],
    "openDaysNote": ""
  },
  {
    "id": "4270203914",
    "name": "ドリームケア　大和",
    "kana": "ドリームケア　ヤマト",
    "address": "長崎県佐世保市大和町850-4オートパル佐世保2階 オートパル佐世保2階",
    "lat": 33.1595513,
    "lng": 129.7484161,
    "tel": "0956-27-8113",
    "url": "http://hakujyujikai.or.jp/dream/",
    "pref": "長崎県",
    "city": "佐世保市",
    "category": "day_service",
    "serviceType": "通所介護",
    "capacity": 0,
    "openDays": [
      "平日",
      "土曜日"
    ],
    "openDaysNote": ""
  },
  {
    "id": "4270201553",
    "name": "ナイスケア　デイサービスセンター白岳",
    "kana": "ナイスケア　デイサービスセンターシラタケ",
    "address": "長崎県佐世保市白岳町604番地",
    "lat": 33.1531576,
    "lng": 129.7540324,
    "tel": "0956-33-0013",
    "url": "",
    "pref": "長崎県",
    "city": "佐世保市",
    "category": "day_service",
    "serviceType": "通所介護",
    "capacity": 30,
    "openDays": [
      "平日",
      "土曜日",
      "祝日"
    ],
    "openDaysNote": "年末年始は毎年変更有り。"
  },
  {
    "id": "4270205257",
    "name": "ゆい乃荘",
    "kana": "ユイノショウ",
    "address": "長崎県佐世保市烏帽子町15番地",
    "lat": 33.1819026,
    "lng": 129.7742292,
    "tel": "0956-76-8560",
    "url": "",
    "pref": "長崎県",
    "city": "佐世保市",
    "category": "day_service",
    "serviceType": "通所介護",
    "capacity": 0,
    "openDays": [
      "平日"
    ],
    "openDaysNote": ""
  },
  {
    "id": "4270204946",
    "name": "リハビリ型デイサービス　ラシク",
    "kana": "リハビリガタデイサービス　ラシク",
    "address": "長崎県佐世保市大塔町8-30",
    "lat": 33.1450924,
    "lng": 129.7802556,
    "tel": "0956-59-6706",
    "url": "lachic_chum_works@yahoo.co.jp",
    "pref": "長崎県",
    "city": "佐世保市",
    "category": "day_service",
    "serviceType": "通所介護",
    "capacity": 35,
    "openDays": [
      "平日",
      "祝日"
    ],
    "openDaysNote": "月～金曜日の祝祭日は営業しています。"
  },
  {
    "id": "4270203740",
    "name": "医療法人わかば会わかばテラスデイサービス風祭り",
    "kana": "イリョウホウジンワカバカイワカバテラスデイサービスカゼマツリ",
    "address": "長崎県佐世保市踊石町198番地1有料老人ホームわかばテラス 有料老人ホームわかばテラス",
    "lat": 33.2188411670378,
    "lng": 129.695417634349,
    "tel": "0956-76-8780",
    "url": "http://www.wakaba-terrace.jp",
    "pref": "長崎県",
    "city": "佐世保市",
    "category": "day_service",
    "serviceType": "通所介護",
    "capacity": 0,
    "openDays": [
      "平日",
      "土曜日",
      "日曜日",
      "祝日"
    ],
    "openDaysNote": ""
  },
  {
    "id": "4270202908",
    "name": "医療法人社団創平会　デイサービスさしかた",
    "kana": "イリョウホウジンシャダンソウヘイカイ　デイサービスサシカタ",
    "address": "長崎県佐世保市指方町2216番地１",
    "lat": 33.105935,
    "lng": 129.7852139,
    "tel": "0956-27-1021",
    "url": "www.kuriya-naika.com",
    "pref": "長崎県",
    "city": "佐世保市",
    "category": "day_service",
    "serviceType": "通所介護",
    "capacity": 30,
    "openDays": [
      "平日",
      "土曜日"
    ],
    "openDaysNote": ""
  },
  {
    "id": "4270201884",
    "name": "医療法人真友会　デイサービスことひら",
    "kana": "イリョウホウジンシンユウカイ　デイサービスコトヒラ",
    "address": "長崎県佐世保市御船町４１１－３",
    "lat": 33.1708955367009,
    "lng": 129.701884312936,
    "tel": "0956-37-0555",
    "url": "",
    "pref": "長崎県",
    "city": "佐世保市",
    "category": "day_service",
    "serviceType": "通所介護",
    "capacity": 0,
    "openDays": [
      "平日",
      "祝日"
    ],
    "openDaysNote": "特になし"
  },
  {
    "id": "4270205380",
    "name": "共生型通所介護事業所　デイサービス　ウイロー",
    "kana": "キョウセイガタ　ツウショカイゴ　ジギョウショ　デイサービス　ウィロー",
    "address": "長崎県佐世保市柚木町1540番地",
    "lat": 33.2103168000001,
    "lng": 129.7602441,
    "tel": "0956-88-7517",
    "url": "",
    "pref": "長崎県",
    "city": "佐世保市",
    "category": "day_service",
    "serviceType": "通所介護",
    "capacity": 20,
    "openDays": [
      "平日",
      "祝日"
    ],
    "openDaysNote": "お盆（8/13～8/15）、年末年始（12/29～1/3）閉所"
  },
  {
    "id": "4270205463",
    "name": "共生型通所介護事業所おおきな木",
    "kana": "キョウセイガタツウショカイゴジギョウショオオキナキ",
    "address": "長崎県佐世保市木宮町４番１２号",
    "lat": 33.1952742,
    "lng": 129.6669551,
    "tel": "0956-59-8822",
    "url": "http://kinomiyakai.or.jp",
    "pref": "長崎県",
    "city": "佐世保市",
    "category": "day_service",
    "serviceType": "通所介護",
    "capacity": 20,
    "openDays": [
      "平日"
    ],
    "openDaysNote": ""
  },
  {
    "id": "4270200399",
    "name": "光の子デイサービスセンター",
    "kana": "ヒカリノコデイサービスセンター",
    "address": "長崎県佐世保市上749－1",
    "lat": 33.1590046,
    "lng": 129.7514419,
    "tel": "0956-39-3230",
    "url": "http://www.hikarinoko-fukushikai.or.jp/care/sisetu/dayservice/index.html",
    "pref": "長崎県",
    "city": "佐世保市",
    "category": "day_service",
    "serviceType": "通所介護",
    "capacity": null,
    "openDays": [
      "平日"
    ],
    "openDaysNote": ""
  },
  {
    "id": "4270202643",
    "name": "佐世保市社協　吉井通所介護事業所",
    "kana": "サセボシシャキョウ　ヨシイツウショカイゴジギョウショ",
    "address": "長崎県佐世保市吉井町橋川内570-4",
    "lat": 33.2691027451271,
    "lng": 129.717887415391,
    "tel": "0956-64-311８",
    "url": "http://www.sasebo-shakyo.or.jp",
    "pref": "長崎県",
    "city": "佐世保市",
    "category": "day_service",
    "serviceType": "通所介護",
    "capacity": 0,
    "openDays": [
      "平日",
      "土曜日",
      "祝日"
    ],
    "openDaysNote": "特別の需要がある場合にはこの限りではありません"
  },
  {
    "id": "4270203831",
    "name": "佐世保市社協　江迎・鹿町通所介護事業所",
    "kana": "サセボシシャキョウ　エムカエシカマチツウショカイゴジギョウショ",
    "address": "長崎県佐世保市鹿町町深江潟96-1佐世保市社会福祉協議会　江迎・鹿町介護事業所 佐世保市社会福祉協議会　江迎・鹿町介護事業所",
    "lat": 33.306936,
    "lng": 129.624836,
    "tel": "0956-66-3355",
    "url": "http://www.sasebo-shakyo.or.jp/",
    "pref": "長崎県",
    "city": "佐世保市",
    "category": "day_service",
    "serviceType": "通所介護",
    "capacity": 0,
    "openDays": [
      "平日",
      "土曜日",
      "祝日"
    ],
    "openDaysNote": ""
  },
  {
    "id": "4271501258",
    "name": "佐世保市社協　小佐々通所介護事業所",
    "kana": "サセボシシャキョウ　コサザツウショカイゴジギョウショ",
    "address": "長崎県佐世保市小佐々町楠泊1530番地3",
    "lat": 33.2193101,
    "lng": 129.5848913,
    "tel": "0956-41-5050",
    "url": "http://www.sasebo-shakyo.or.jp/kosazakaigo/",
    "pref": "長崎県",
    "city": "佐世保市",
    "category": "day_service",
    "serviceType": "通所介護",
    "capacity": 50,
    "openDays": [
      "平日",
      "土曜日",
      "祝日"
    ],
    "openDaysNote": ""
  },
  {
    "id": "4270202676",
    "name": "佐世保市社協　世知原通所介護事業所",
    "kana": "サセボシシャキョウ　セチバルツウショカイゴジギョウショ",
    "address": "長崎県佐世保市世知原町栗迎83番地5",
    "lat": 33.2553172,
    "lng": 129.7498418,
    "tel": "0956-76-2279",
    "url": "http://www.sasebo-shakyo.or.jp/sechibarukaigo/",
    "pref": "長崎県",
    "city": "佐世保市",
    "category": "day_service",
    "serviceType": "通所介護",
    "capacity": 0,
    "openDays": [
      "平日",
      "土曜日",
      "祝日"
    ],
    "openDaysNote": "電話により24時間連絡が可能な体制とする"
  },
  {
    "id": "4271501266",
    "name": "佐世保市社協宇久通所介護事業所",
    "kana": "サセボシシャキョウウクツウショカイゴジギョウショ",
    "address": "長崎県佐世保市宇久町平1904番地1",
    "lat": 33.2654641,
    "lng": 129.1276792,
    "tel": "0959-57-3688",
    "url": "",
    "pref": "長崎県",
    "city": "佐世保市",
    "category": "day_service",
    "serviceType": "通所介護",
    "capacity": 0,
    "openDays": [
      "平日",
      "土曜日",
      "祝日"
    ],
    "openDaysNote": ""
  },
  {
    "id": "4270203492",
    "name": "社会医療法人財団　白十字会　ドリームケアハウステンボス町",
    "kana": "シャカイイリョウホウジンザイダン　ハクジュウジカイ　ドリームケア　ハウステンボスチョウ",
    "address": "長崎県佐世保市ハウステンボス町4-52ブルーメンダールマンションB棟106・107号 ブルーメンダールマンションB棟106・107号",
    "lat": 33.09126397123,
    "lng": 129.788780575014,
    "tel": "0956-37-8131",
    "url": "http://www.hakujyujikai.or.jp",
    "pref": "長崎県",
    "city": "佐世保市",
    "category": "day_service",
    "serviceType": "通所介護",
    "capacity": 0,
    "openDays": [
      "平日",
      "土曜日"
    ],
    "openDaysNote": ""
  },
  {
    "id": "4270203070",
    "name": "社会医療法人財団　白十字会　ドリームケア矢峰",
    "kana": "シャカイイリョウホウジンザイダン　ハクジュウジカイ　ドリームケア　ヤミネ",
    "address": "長崎県佐世保市矢峰町153番地",
    "lat": 33.2118252,
    "lng": 129.743675,
    "tel": "0956-42-8760",
    "url": "http://www.hakujyujikai.or.jp/dream/",
    "pref": "長崎県",
    "city": "佐世保市",
    "category": "day_service",
    "serviceType": "通所介護",
    "capacity": 0,
    "openDays": [
      "平日",
      "土曜日",
      "祝日"
    ],
    "openDaysNote": ""
  },
  {
    "id": "4270200472",
    "name": "社会福祉法人　幼老育成会　デイサービスセンター和楽園",
    "kana": "シャカイフクシホウジン　ヨウロウイクセイカイ　デイサービスセンターワラクエン",
    "address": "長崎県佐世保市花園町２０５番３３",
    "lat": 33.1821401,
    "lng": 129.7222287,
    "tel": "デイサービス直通0956-",
    "url": "",
    "pref": "長崎県",
    "city": "佐世保市",
    "category": "day_service",
    "serviceType": "通所介護",
    "capacity": 20,
    "openDays": [
      "平日",
      "土曜日",
      "祝日"
    ],
    "openDaysNote": "天候不良（大雨、雪等）により送迎ができない、又は危険を伴う場合は営業を中止する場合がある。"
  },
  {
    "id": "4270200225",
    "name": "社会福祉法人アソカ仁寿会　あそかのもり",
    "kana": "シャカイフクシホウジンアソカジンジュカイ　アソカノモリ",
    "address": "長崎県佐世保市松瀬町1150番地",
    "lat": 33.2197703406363,
    "lng": 129.731240928836,
    "tel": "0956-49-6336",
    "url": "https://www.asoka-sasebo.com/",
    "pref": "長崎県",
    "city": "佐世保市",
    "category": "day_service",
    "serviceType": "通所介護",
    "capacity": 35,
    "openDays": [
      "平日",
      "土曜日",
      "祝日"
    ],
    "openDaysNote": ""
  },
  {
    "id": "4270204003",
    "name": "早稲田イーライフ相浦",
    "kana": "ワセダイーライフアイノウラ",
    "address": "長崎県佐世保市椎木町436番地１",
    "lat": 33.1784514,
    "lng": 129.667801,
    "tel": "0956-76-9415",
    "url": "ｓe-life-ainoura.com",
    "pref": "長崎県",
    "city": "佐世保市",
    "category": "day_service",
    "serviceType": "通所介護",
    "capacity": 35,
    "openDays": [
      "平日"
    ],
    "openDaysNote": "月曜日、午後は、介護サービスは休止、施設、会議、研修、訓練、勉強会の実施、また地域住民の方への介護予防教室の実施"
  },
  {
    "id": "4270200829",
    "name": "通所介護事業所　サンホーム江上",
    "kana": "ツウショカイゴジギョウショ　サンホームエガミ",
    "address": "長崎県佐世保市江上町4847-6",
    "lat": 33.069829454101,
    "lng": 129.783967262429,
    "tel": "0956-58-7815",
    "url": "http://koujukai.or.jp/",
    "pref": "長崎県",
    "city": "佐世保市",
    "category": "day_service",
    "serviceType": "通所介護",
    "capacity": 0,
    "openDays": [
      "平日",
      "土曜日",
      "祝日"
    ],
    "openDaysNote": "天候・災害の状況でサービスを中止する場合があります。"
  },
  {
    "id": "4270202015",
    "name": "通所介護事業所　チューリップ",
    "kana": "ツウショカイゴジギョウショ　チューリップ",
    "address": "佐世保市黒髪町３７２９番地2",
    "lat": 33.173423,
    "lng": 129.7747415,
    "tel": "0956-20-8800",
    "url": "http://www.tulip.or.jp",
    "pref": "長崎県",
    "city": "佐世保市",
    "category": "day_service",
    "serviceType": "通所介護",
    "capacity": 32,
    "openDays": [
      "平日",
      "土曜日",
      "祝日"
    ],
    "openDaysNote": ""
  },
  {
    "id": "4270204797",
    "name": "通所介護事業所　やまずみ荘",
    "kana": "ツウショカイゴジギョウショ　ヤマズミソウ",
    "address": "山祇町３８８番地",
    "lat": 33.1687472,
    "lng": 129.7327448,
    "tel": "0956-34-8000",
    "url": "http://www.yamazumiso.or.jp",
    "pref": "長崎県",
    "city": "佐世保市",
    "category": "day_service",
    "serviceType": "通所介護",
    "capacity": 0,
    "openDays": [
      "平日",
      "土曜日",
      "日曜日",
      "祝日"
    ],
    "openDaysNote": "なし。"
  },
  {
    "id": "4270205190",
    "name": "通所介護事業所ハート・らんど",
    "kana": "ツウショカイゴジギョウショハート・ランド",
    "address": "長崎県佐世保市大潟町５０番地１障害者支援施設にじいろ 障害者支援施設にじいろ",
    "lat": 33.185522773104,
    "lng": 129.662152314156,
    "tel": "0956-59-5552",
    "url": "info@niji-iro.or.jp",
    "pref": "長崎県",
    "city": "佐世保市",
    "category": "day_service",
    "serviceType": "通所介護",
    "capacity": null,
    "openDays": [
      "平日",
      "祝日"
    ],
    "openDaysNote": "年末年始（12/29～1/3）の休みは利用者の入浴等を加味し多少の変更有。"
  },
  {
    "id": "4270200548",
    "name": "白寿荘　通所介護事業所",
    "kana": "ハクジュソウ　ツウショカイゴジギョウショ",
    "address": "長崎県佐世保市鹿子前町904-1",
    "lat": 33.1618836,
    "lng": 129.6847803,
    "tel": "0956-28-6722",
    "url": "http://www.hakuzyusou.or.jp",
    "pref": "長崎県",
    "city": "佐世保市",
    "category": "day_service",
    "serviceType": "通所介護",
    "capacity": 35,
    "openDays": [
      "平日",
      "土曜日",
      "祝日"
    ],
    "openDaysNote": "天候不良または交通事情等により臨時休業する場合がございます。"
  },
  {
    "id": "4270202288",
    "name": "有限会社　金崎介護保険事業所　デイサービスさきわい",
    "kana": "ユウゲンガイシャ　カナサキカイゴホケンジギョウショ　デイサービスサキワイ",
    "address": "長崎県佐世保市小佐々町平原７４－１４",
    "lat": 33.2368897,
    "lng": 129.6157277,
    "tel": "0956-68-3450",
    "url": "",
    "pref": "長崎県",
    "city": "佐世保市",
    "category": "day_service",
    "serviceType": "通所介護",
    "capacity": 0,
    "openDays": [
      "平日",
      "土曜日",
      "祝日"
    ],
    "openDaysNote": "緊急時は対応する。"
  },
  {
    "id": "4271103386",
    "name": "デイサービスいろどり",
    "kana": "デイサービスイロドリ",
    "address": "長崎県西彼杵郡時津町浜田郷196-5マルイチビル１階 マルイチビル１階",
    "lat": 32.8318717,
    "lng": 129.8560432,
    "tel": "095-881-3900",
    "url": "http://hp.kaipoke.biz/8s0/",
    "pref": "長崎県",
    "city": "時津町",
    "category": "day_service",
    "serviceType": "通所介護",
    "capacity": null,
    "openDays": [
      "平日",
      "土曜日",
      "祝日"
    ],
    "openDaysNote": ""
  },
  {
    "id": "4271102644",
    "name": "デイサービスセンターひなみ",
    "kana": "デイサービスセンターヒナミ",
    "address": "長崎県西彼杵郡時津町日並郷1915番地3",
    "lat": 32.8452199,
    "lng": 129.8226509,
    "tel": "095-882-6780",
    "url": "",
    "pref": "長崎県",
    "city": "時津町",
    "category": "day_service",
    "serviceType": "通所介護",
    "capacity": 0,
    "openDays": [
      "平日",
      "土曜日",
      "祝日"
    ],
    "openDaysNote": ""
  },
  {
    "id": "4271102545",
    "name": "デイサービスセンター井手園",
    "kana": "デイサービスセンターイデゾノ",
    "address": "長崎県西彼杵郡時津町元村郷８９７",
    "lat": 32.8194673816417,
    "lng": 129.846559857672,
    "tel": "095-814-2777",
    "url": "http://keiseikai.biz/index.php",
    "pref": "長崎県",
    "city": "時津町",
    "category": "day_service",
    "serviceType": "通所介護",
    "capacity": 30,
    "openDays": [
      "平日"
    ],
    "openDaysNote": ""
  },
  {
    "id": "4271102727",
    "name": "デイサービスとぎつ千年堂",
    "kana": "デイサービストギツセンネンドウ",
    "address": "長崎県西彼杵郡時津町浜田郷143-4",
    "lat": 32.8310045,
    "lng": 129.8530381,
    "tel": "095-801-7447",
    "url": "www.justmystage.com/home/snowman",
    "pref": "長崎県",
    "city": "時津町",
    "category": "day_service",
    "serviceType": "通所介護",
    "capacity": 15,
    "openDays": [
      "平日",
      "土曜日",
      "祝日"
    ],
    "openDaysNote": ""
  },
  {
    "id": "4271101539",
    "name": "鍬先医院デイサービス",
    "kana": "クワサキイインデイサービス",
    "address": "長崎県西彼杵郡時津町日並郷1764-7",
    "lat": 32.8451336,
    "lng": 129.8176957,
    "tel": "095-882-7511",
    "url": "http://www.kuwasaki-clinic.com/",
    "pref": "長崎県",
    "city": "時津町",
    "category": "day_service",
    "serviceType": "通所介護",
    "capacity": 0,
    "openDays": [
      "平日",
      "土曜日",
      "祝日"
    ],
    "openDaysNote": ""
  },
  {
    "id": "4271100309",
    "name": "時津荘デイサービスセンター",
    "kana": "トギツソウデイサービスセンター",
    "address": "長崎県西彼杵郡時津町西時津郷1235番地",
    "lat": 32.8458757,
    "lng": 129.8560347,
    "tel": "095-882-0123",
    "url": "http://www.togitsukai.jp",
    "pref": "長崎県",
    "city": "時津町",
    "category": "day_service",
    "serviceType": "通所介護",
    "capacity": 25,
    "openDays": [
      "平日",
      "土曜日",
      "祝日"
    ],
    "openDaysNote": ""
  },
  {
    "id": "4271100242",
    "name": "社会福祉法人　時津町社会福祉協議会　通所介護事業所",
    "kana": "シャカイフクシホウジン　トギツチョウシャカイフクシキョウギカイ　ツウショカイゴジギョウショ",
    "address": "長崎県西彼杵郡時津町左底郷３６７番地時津町総合福祉センター1階 時津町総合福祉センター1階",
    "lat": 32.8304575,
    "lng": 129.8361276,
    "tel": "095-881-7599",
    "url": "http://www.togitsu-shakyo.org/",
    "pref": "長崎県",
    "city": "時津町",
    "category": "day_service",
    "serviceType": "通所介護",
    "capacity": 0,
    "openDays": [
      "平日",
      "土曜日"
    ],
    "openDaysNote": ""
  },
  {
    "id": "4271103352",
    "name": "千楽ステーション",
    "kana": "チラクステーション",
    "address": "長崎県西彼杵郡時津町子々川郷８８７番地１",
    "lat": 32.8602549,
    "lng": 129.8034934,
    "tel": "095-807-5113",
    "url": "",
    "pref": "長崎県",
    "city": "時津町",
    "category": "day_service",
    "serviceType": "通所介護",
    "capacity": 0,
    "openDays": [
      "平日",
      "祝日"
    ],
    "openDaysNote": ""
  },
  {
    "id": "4271500243",
    "name": "小値賀町社会福祉協議会",
    "kana": "オヂカチョウシャカイフクシキョウギカイ",
    "address": "長崎県北松浦郡小値賀町笛吹郷２３６７番地小値賀町地域福祉センター 小値賀町地域福祉センター",
    "lat": 33.1912166,
    "lng": 129.0580577,
    "tel": "0959-56-4193",
    "url": "ojika-syakyo.jp",
    "pref": "長崎県",
    "city": "小値賀町",
    "category": "day_service",
    "serviceType": "通所介護",
    "capacity": 30,
    "openDays": [
      "平日",
      "土曜日",
      "祝日"
    ],
    "openDaysNote": "台風及び降雪等の天候不良の場合、送迎が困難になる為休業する時があります。"
  },
  {
    "id": "4270800099",
    "name": "指定通所介護事業所　愛光園",
    "kana": "シテイツウショカイゴジギョウショ　アイコウエン",
    "address": "長崎県松浦市志佐町浦免270番地",
    "lat": 33.3453427,
    "lng": 129.7174798,
    "tel": "0956-72-0863",
    "url": "",
    "pref": "長崎県",
    "city": "松浦市",
    "category": "day_service",
    "serviceType": "通所介護",
    "capacity": 0,
    "openDays": [
      "平日",
      "土曜日",
      "祝日"
    ],
    "openDaysNote": ""
  },
  {
    "id": "4271500367",
    "name": "社会福祉法人福島福祉会　いろは島荘デイサービス事業所",
    "kana": "シャカイフクシホウジンフクシマフクシカイ　イロハジマソウデイサービスジギョウショ",
    "address": "長崎県松浦市福島町塩浜免3002番地",
    "lat": 33.3657634,
    "lng": 129.8236325,
    "tel": "0955-47-4611",
    "url": "http://www.irohajimasou.com",
    "pref": "長崎県",
    "city": "松浦市",
    "category": "day_service",
    "serviceType": "通所介護",
    "capacity": 0,
    "openDays": [
      "平日",
      "祝日"
    ],
    "openDaysNote": "通常月曜日から金曜日まで。ただし、12月31日から1月3日は除く。"
  },
  {
    "id": "4270800495",
    "name": "松浦市社協松浦支所通所介護事業所",
    "kana": "マツウラシシャキョウマツウラシショツウショカイゴジギョウショ",
    "address": "長崎県松浦市志佐町里免３４７番地４松浦市市民福祉総合プラザ・２階 松浦市市民福祉総合プラザ・２階",
    "lat": 33.34136545962,
    "lng": 129.708946422754,
    "tel": "0956-72-0788",
    "url": "http://www.matsuura-shakyo.com",
    "pref": "長崎県",
    "city": "松浦市",
    "category": "day_service",
    "serviceType": "通所介護",
    "capacity": 0,
    "openDays": [
      "平日"
    ],
    "openDaysNote": "なし"
  },
  {
    "id": "4271501183",
    "name": "松浦市社協鷹島支所通所介護事業所",
    "kana": "マツウラシシャキョウタカシマシショツウショカイゴジギョウショ",
    "address": "長崎県松浦市鷹島町神崎免137番地1松浦市高齢者生活福祉センター 松浦市高齢者生活福祉センター",
    "lat": 33.436196,
    "lng": 129.7610739,
    "tel": "0955-48-3505",
    "url": "https://www.matsuura-shakyo.com/",
    "pref": "長崎県",
    "city": "松浦市",
    "category": "day_service",
    "serviceType": "通所介護",
    "capacity": 0,
    "openDays": [
      "平日"
    ],
    "openDaysNote": ""
  },
  {
    "id": "4271601405",
    "name": "デイサービスセンターたかのしの杜",
    "kana": "デイサービスセンタータカノシノ杜",
    "address": "長崎県南松浦郡新上五島町奈摩郷379-1",
    "lat": 33.017485,
    "lng": 129.0669435,
    "tel": "0959-42-5133",
    "url": "https://www.sinkamigoto.net/",
    "pref": "長崎県",
    "city": "新上五島町",
    "category": "day_service",
    "serviceType": "通所介護",
    "capacity": 0,
    "openDays": [
      "平日",
      "土曜日",
      "日曜日",
      "祝日"
    ],
    "openDaysNote": "365日開設を実施"
  },
  {
    "id": "4271601090",
    "name": "デイサービスセンター上五島",
    "kana": "デイサービスセンターカミゴトウ",
    "address": "長崎県南松浦郡新上五島町青方郷1379番地1",
    "lat": 32.9850695,
    "lng": 129.0685549,
    "tel": "0959-52-2593",
    "url": "",
    "pref": "長崎県",
    "city": "新上五島町",
    "category": "day_service",
    "serviceType": "通所介護",
    "capacity": 0,
    "openDays": [
      "平日",
      "祝日"
    ],
    "openDaysNote": ""
  },
  {
    "id": "4271601488",
    "name": "新上五島デイサービスセンター",
    "kana": "シンカミゴトウデイサービスセンター",
    "address": "長崎県南松浦郡新上五島町奈摩郷910番地10",
    "lat": 33.0178371,
    "lng": 129.0733502,
    "tel": "0959-43-1188",
    "url": "https://www.sinkamigoto.net/",
    "pref": "長崎県",
    "city": "新上五島町",
    "category": "day_service",
    "serviceType": "通所介護",
    "capacity": null,
    "openDays": [
      "平日",
      "土曜日",
      "日曜日",
      "祝日"
    ],
    "openDaysNote": "365日開設"
  },
  {
    "id": "4271600217",
    "name": "通所介護事業所　つつじが丘",
    "kana": "ツウショカイゴジギョウショ　ツツジガオカ",
    "address": "長崎県南松浦郡新上五島町有川郷２３６９-１",
    "lat": 32.9800434,
    "lng": 129.1099692,
    "tel": "0959-42-0705",
    "url": "http//syuhoukai.jp/",
    "pref": "長崎県",
    "city": "新上五島町",
    "category": "day_service",
    "serviceType": "通所介護",
    "capacity": 0,
    "openDays": [
      "平日",
      "土曜日",
      "祝日"
    ],
    "openDaysNote": ""
  },
  {
    "id": "4271600936",
    "name": "奈良尾デイサービスセンターしおさい",
    "kana": "ナラオデイサービスセンターシオサイ",
    "address": "長崎県南松浦郡新上五島町奈良尾郷字新港1０６９番地１",
    "lat": 32.8485226,
    "lng": 129.0558325,
    "tel": "0959-44-1015",
    "url": "",
    "pref": "長崎県",
    "city": "新上五島町",
    "category": "day_service",
    "serviceType": "通所介護",
    "capacity": 0,
    "openDays": [
      "平日",
      "祝日"
    ],
    "openDaysNote": ""
  },
  {
    "id": "4271600175",
    "name": "芳寿荘",
    "kana": "ホウジュソウ",
    "address": "長崎県南松浦郡新上五島町今里郷６１０番地",
    "lat": 32.9474339,
    "lng": 129.0363866,
    "tel": "0959-52-2501",
    "url": "http://www.houjusou.net/index.html",
    "pref": "長崎県",
    "city": "新上五島町",
    "category": "day_service",
    "serviceType": "通所介護",
    "capacity": 0,
    "openDays": [
      "平日",
      "祝日"
    ],
    "openDaysNote": ""
  },
  {
    "id": "4272300163",
    "name": "西海市社協おおさきデイサービスセンター",
    "kana": "サイカイシシャキョウオオサキデイサービスセンター",
    "address": "長崎県西海市崎戸町蛎浦郷2060番地7",
    "lat": 33.0207556,
    "lng": 129.5645317,
    "tel": "0959-35-2828",
    "url": "https://www.shakyo-saikai.jp/",
    "pref": "長崎県",
    "city": "西海市",
    "category": "day_service",
    "serviceType": "通所介護",
    "capacity": 0,
    "openDays": [
      "平日",
      "土曜日",
      "祝日"
    ],
    "openDaysNote": ""
  },
  {
    "id": "4272300031",
    "name": "西海市社協おおせとデイサービスセンター",
    "kana": "サイカイシシャキョウオオセトデイサービスセンター",
    "address": "長崎県西海市大瀬戸町多以良内郷４３４番地２大瀬戸社会福祉センター 大瀬戸社会福祉センター",
    "lat": 32.9587901215037,
    "lng": 129.644969903819,
    "tel": "0959-37-0543",
    "url": "https://www.shakyo-saikai.jp/",
    "pref": "長崎県",
    "city": "西海市",
    "category": "day_service",
    "serviceType": "通所介護",
    "capacity": 33,
    "openDays": [
      "平日",
      "土曜日",
      "祝日"
    ],
    "openDaysNote": "特になし"
  },
  {
    "id": "4272300106",
    "name": "西海市社協さいかいデイサービスセンター",
    "kana": "サイカイシシャキョウサイカイデイサービスセンター",
    "address": "長崎県西海市西海町1477番地１",
    "lat": 33.0620271063017,
    "lng": 129.677751854115,
    "tel": "0959-32-1922",
    "url": "https://www.shakyo-saikai.jp/",
    "pref": "長崎県",
    "city": "西海市",
    "category": "day_service",
    "serviceType": "通所介護",
    "capacity": 50,
    "openDays": [
      "平日",
      "土曜日",
      "祝日"
    ],
    "openDaysNote": ""
  },
  {
    "id": "4272300064",
    "name": "西海市社協せいひデイサービスセンター",
    "kana": "サイカイシシャキョウセイヒデイサービスセンター",
    "address": "長崎県西海市西彼町鳥加郷２２１８番地",
    "lat": 32.9901209474402,
    "lng": 129.74820728214,
    "tel": "0959-29-7102",
    "url": "https://www.shakyo-saikai.jp/",
    "pref": "長崎県",
    "city": "西海市",
    "category": "day_service",
    "serviceType": "通所介護",
    "capacity": 40,
    "openDays": [
      "平日",
      "土曜日",
      "祝日"
    ],
    "openDaysNote": ""
  },
  {
    "id": "4271201016",
    "name": "コンパスウォーク川棚",
    "kana": "コンパスウォ-クカワタナ",
    "address": "長崎県東彼杵郡川棚町栄町37番地1",
    "lat": 33.069993,
    "lng": 129.8624676,
    "tel": "0956-37-8182",
    "url": "keigo-group-kyushu.co.jp",
    "pref": "長崎県",
    "city": "川棚町",
    "category": "day_service",
    "serviceType": "通所介護",
    "capacity": 0,
    "openDays": [
      "平日",
      "祝日"
    ],
    "openDaysNote": ""
  },
  {
    "id": "4271200877",
    "name": "ハッピーガーデン川棚　デイサービスセンター",
    "kana": "ハッピーガーデンカワタナ　デイサービスセンター",
    "address": "長崎県東彼杵郡川棚町城山町122番地1",
    "lat": 33.0703927,
    "lng": 129.8696045,
    "tel": "0956-82-5850",
    "url": "http://hg-kawatana.com/",
    "pref": "長崎県",
    "city": "川棚町",
    "category": "day_service",
    "serviceType": "通所介護",
    "capacity": 30,
    "openDays": [
      "平日",
      "土曜日",
      "祝日"
    ],
    "openDaysNote": ""
  },
  {
    "id": "4271200968",
    "name": "一般社団法人正和会　デイサービスセンターだんらん",
    "kana": "イッパンシャダンホウジンセイワカイ　デイサービスセンターダンラン",
    "address": "長崎県東彼杵郡川棚町下組郷397番地",
    "lat": 33.0698214,
    "lng": 129.8582174,
    "tel": "0956-20-6825",
    "url": "http://seiwasmile.com",
    "pref": "長崎県",
    "city": "川棚町",
    "category": "day_service",
    "serviceType": "通所介護",
    "capacity": 0,
    "openDays": [
      "平日",
      "土曜日",
      "祝日"
    ],
    "openDaysNote": ""
  },
  {
    "id": "4271200976",
    "name": "一般社団法人正和会　デイサービスセンター和家",
    "kana": "イッパンシャダンホウジンセイワカイ　デイサービスセンターワカ",
    "address": "長崎県東彼杵郡川棚町中組郷1292番地1",
    "lat": 33.0726705,
    "lng": 129.8650975,
    "tel": "0956-27-7878",
    "url": "http://seiwasmile.com",
    "pref": "長崎県",
    "city": "川棚町",
    "category": "day_service",
    "serviceType": "通所介護",
    "capacity": 0,
    "openDays": [
      "平日",
      "土曜日",
      "祝日"
    ],
    "openDaysNote": ""
  },
  {
    "id": "4271200091",
    "name": "川棚町社会福祉協議会通所介護事業所",
    "kana": "カワタナチョウシャカイフクシキョウギカイツウショカイゴジギョウショ",
    "address": "長崎県東彼杵郡川棚町下組郷338番地57",
    "lat": 33.0641879,
    "lng": 129.858965,
    "tel": "0956-82-2121",
    "url": "",
    "pref": "長崎県",
    "city": "川棚町",
    "category": "day_service",
    "serviceType": "通所介護",
    "capacity": 0,
    "openDays": [
      "平日",
      "土曜日",
      "祝日"
    ],
    "openDaysNote": ""
  },
  {
    "id": "4271800114",
    "name": "デイサービスセンター　しらたけ",
    "kana": "デイサービスセンター　シラタケ",
    "address": "長崎県対馬市美津島町鶏知乙1168-1",
    "lat": 34.2850022,
    "lng": 129.3184084,
    "tel": "0920-54-9620",
    "url": "http://asuka-fukushi.or.jp",
    "pref": "長崎県",
    "city": "対馬市",
    "category": "day_service",
    "serviceType": "通所介護",
    "capacity": 0,
    "openDays": [
      "平日",
      "祝日"
    ],
    "openDaysNote": ""
  },
  {
    "id": "4271800130",
    "name": "デイサービスセンター　つばき園",
    "kana": "デイサービスセンター　ツバキエン",
    "address": "長崎県対馬市厳原町豆酘６３１－９",
    "lat": 34.1199228344692,
    "lng": 129.185702741139,
    "tel": "0920-57-1005",
    "url": "http://asuka-fukushi.or.jp",
    "pref": "長崎県",
    "city": "対馬市",
    "category": "day_service",
    "serviceType": "通所介護",
    "capacity": 30,
    "openDays": [
      "平日",
      "祝日"
    ],
    "openDaysNote": ""
  },
  {
    "id": "4271800122",
    "name": "デイサービスセンターあすか園",
    "kana": "デイサービスセンターアスカエン",
    "address": "長崎県対馬市厳原町下原434番地5",
    "lat": 34.2284091,
    "lng": 129.2225091,
    "tel": "0920-56-0722",
    "url": "http://asuka-fukushi.or.jp/",
    "pref": "長崎県",
    "city": "対馬市",
    "category": "day_service",
    "serviceType": "通所介護",
    "capacity": 0,
    "openDays": [
      "平日",
      "祝日"
    ],
    "openDaysNote": ""
  },
  {
    "id": "4271800304",
    "name": "デイサービスセンターおふなえ",
    "kana": "デイサービスセンターオフナエ",
    "address": "長崎県対馬市厳原町久田737-21総合福祉センターお船江の里 総合福祉センターお船江の里",
    "lat": 34.1876109,
    "lng": 129.2852684,
    "tel": "0920-52-9070",
    "url": "http://asuka-fukushi.or.jp/",
    "pref": "長崎県",
    "city": "対馬市",
    "category": "day_service",
    "serviceType": "通所介護",
    "capacity": 40,
    "openDays": [
      "平日",
      "土曜日",
      "祝日"
    ],
    "openDaysNote": "台風などの悪天候の場合、利用者の安全を第一としておりますので、休業させていただく場合がございます。"
  },
  {
    "id": "4271900062",
    "name": "社会福祉法人幸生会老人デイサービスセンター峰幸園通所介護事業所",
    "kana": "シャカイフクシホウジンコウセイカイロウジンデイサービスセンターホウコウエンツウショカイゴジギョウショ",
    "address": "長崎県対馬市峰町三根６５番地",
    "lat": 34.4693409169567,
    "lng": 129.312645605557,
    "tel": "0920-83-0476",
    "url": "http://www.koseikai.or.jp/",
    "pref": "長崎県",
    "city": "対馬市",
    "category": "day_service",
    "serviceType": "通所介護",
    "capacity": 25,
    "openDays": [
      "平日",
      "土曜日",
      "祝日"
    ],
    "openDaysNote": ""
  },
  {
    "id": "4272000573",
    "name": "長崎県対馬市厳原町内山59番地28",
    "kana": "ナガサキケンツシマシイヅハラマチウチヤマ",
    "address": "長崎県対馬市厳原町内山59番地28",
    "lat": 34.1586913,
    "lng": 129.2234511,
    "tel": "0920-57-1200",
    "url": "",
    "pref": "長崎県",
    "city": "対馬市",
    "category": "day_service",
    "serviceType": "通所介護",
    "capacity": 0,
    "openDays": [
      "平日",
      "祝日"
    ],
    "openDaysNote": ""
  },
  {
    "id": "4272000623",
    "name": "通所介護サービス事業所　なるたき園",
    "kana": "ツウショカイゴサービスジギョウショ　ナルタキエン",
    "address": "長崎県対馬市上対馬町玖須647番地",
    "lat": 34.630732,
    "lng": 129.443073,
    "tel": "0920-86-2700",
    "url": "http://www.sun.tcctv.ne.jp/keichoukai/",
    "pref": "長崎県",
    "city": "対馬市",
    "category": "day_service",
    "serviceType": "通所介護",
    "capacity": 0,
    "openDays": [
      "平日",
      "祝日"
    ],
    "openDaysNote": ""
  },
  {
    "id": "4271800205",
    "name": "豊生園通所介護事業所",
    "kana": "ホウセイエンツウショカイゴジギョウショ",
    "address": "長崎県対馬市豊玉町仁位91番地3",
    "lat": 34.3880885,
    "lng": 129.3135741,
    "tel": "0920-58-1770",
    "url": "http://www.koseikai.or.jp",
    "pref": "長崎県",
    "city": "対馬市",
    "category": "day_service",
    "serviceType": "通所介護",
    "capacity": 10,
    "openDays": [
      "平日",
      "土曜日",
      "祝日"
    ],
    "openDaysNote": ""
  },
  {
    "id": "4270501242",
    "name": "ツクイ大村",
    "kana": "ツクイオオムラ",
    "address": "長崎県大村市協和町704-3",
    "lat": 32.9194353,
    "lng": 129.9449307,
    "tel": "0957-48-7575",
    "url": "http://www.tsukui.net/",
    "pref": "長崎県",
    "city": "大村市",
    "category": "day_service",
    "serviceType": "通所介護",
    "capacity": 33,
    "openDays": [
      "平日",
      "土曜日",
      "日曜日",
      "祝日"
    ],
    "openDaysNote": "GW、お盆、正月も休まず運営しています。"
  },
  {
    "id": "4270500749",
    "name": "デイサービス　レインボー",
    "kana": "デイサービス　レインボー",
    "address": "長崎県大村市黒丸町1653番地1",
    "lat": 32.9512573,
    "lng": 129.9401136,
    "tel": "0957-55-6711",
    "url": "",
    "pref": "長崎県",
    "city": "大村市",
    "category": "day_service",
    "serviceType": "通所介護",
    "capacity": 20,
    "openDays": [
      "平日",
      "祝日"
    ],
    "openDaysNote": "営業時間　月～金　　土日休み（改行）月～金の祝日は営業"
  },
  {
    "id": "4270502125",
    "name": "デイサービスきらり",
    "kana": "デイサービス　キラリ",
    "address": "長崎県大村市上諏訪町1259番地15",
    "lat": 32.9235159,
    "lng": 129.9708356,
    "tel": "0957-42-8001",
    "url": "https://virie-lcc.com/",
    "pref": "長崎県",
    "city": "大村市",
    "category": "day_service",
    "serviceType": "通所介護",
    "capacity": 20,
    "openDays": [
      "平日",
      "土曜日",
      "祝日"
    ],
    "openDaysNote": ""
  },
  {
    "id": "4270501739",
    "name": "デイサービスすわの杜樂苑",
    "kana": "デイサービススワノモリガクエン",
    "address": "長崎県大村市諏訪1丁目605番地",
    "lat": 32.9263197080112,
    "lng": 129.963621314585,
    "tel": "0957-52-5230",
    "url": "https://jijibaba-net.com",
    "pref": "長崎県",
    "city": "大村市",
    "category": "day_service",
    "serviceType": "通所介護",
    "capacity": 0,
    "openDays": [
      "平日",
      "土曜日",
      "祝日"
    ],
    "openDaysNote": ""
  },
  {
    "id": "4270500160",
    "name": "デイサービスセンター　めぐみ荘",
    "kana": "デイサービスセンター　メグミソウ",
    "address": "長崎県大村市中里町180-1",
    "lat": 32.8890804,
    "lng": 130.0014609,
    "tel": "0957-53-2008",
    "url": "",
    "pref": "長崎県",
    "city": "大村市",
    "category": "day_service",
    "serviceType": "通所介護",
    "capacity": 0,
    "openDays": [
      "平日",
      "土曜日"
    ],
    "openDaysNote": ""
  },
  {
    "id": "4270501283",
    "name": "デイサービスセンター　らく元",
    "kana": "デイサービスセンター　ラクゲン",
    "address": "長崎県大村市東大村２丁目1616番地２",
    "lat": 32.9268735467645,
    "lng": 129.996880211639,
    "tel": "0957-20-7120",
    "url": "http://keikokai.jp/",
    "pref": "長崎県",
    "city": "大村市",
    "category": "day_service",
    "serviceType": "通所介護",
    "capacity": 6,
    "openDays": [
      "平日",
      "土曜日",
      "祝日"
    ],
    "openDaysNote": ""
  },
  {
    "id": "4270500269",
    "name": "デイサービスセンターキャロット広場",
    "kana": "デイサービスセンターキャロットヒロバ",
    "address": "長崎県大村市富の原2丁目4番地4",
    "lat": 32.9494407,
    "lng": 129.94172,
    "tel": "0957-55-5031",
    "url": "http://www.keikokai.jp/",
    "pref": "長崎県",
    "city": "大村市",
    "category": "day_service",
    "serviceType": "通所介護",
    "capacity": 25,
    "openDays": [
      "平日",
      "土曜日",
      "祝日"
    ],
    "openDaysNote": ""
  },
  {
    "id": "4270500558",
    "name": "デイサービスセンター秋櫻",
    "kana": "デイサービスセンターコスモス",
    "address": "長崎県大村市西大村本町755-1",
    "lat": 32.929442479274,
    "lng": 129.952476996295,
    "tel": "0957-20-7700",
    "url": "http://www.midori-group.com/",
    "pref": "長崎県",
    "city": "大村市",
    "category": "day_service",
    "serviceType": "通所介護",
    "capacity": 30,
    "openDays": [
      "平日",
      "土曜日",
      "祝日"
    ],
    "openDaysNote": "元日は休業"
  },
  {
    "id": "4270501929",
    "name": "デイサービスみかん",
    "kana": "デイサービスミカン",
    "address": "長崎県大村市鬼橋町225-1デイサービスみかん デイサービスみかん",
    "lat": 32.9451674467234,
    "lng": 129.952134163441,
    "tel": "0957-46-3555",
    "url": "ｋ．ｄａｙｍｉｋａｎ＠ｇａｌａｘｙ．ｎｅ．ｊｐ",
    "pref": "長崎県",
    "city": "大村市",
    "category": "day_service",
    "serviceType": "通所介護",
    "capacity": 0,
    "openDays": [
      "平日"
    ],
    "openDaysNote": ""
  },
  {
    "id": "4270501853",
    "name": "デイサービスゆ～かり",
    "kana": "デイサービスユーカリ",
    "address": "長崎県大村市東三城町２９番地１の１",
    "lat": 32.9118503,
    "lng": 129.9603105,
    "tel": "0957-47-8606",
    "url": "https://www.minamino-hosp.jp/",
    "pref": "長崎県",
    "city": "大村市",
    "category": "day_service",
    "serviceType": "通所介護",
    "capacity": 0,
    "openDays": [
      "平日",
      "祝日"
    ],
    "openDaysNote": "平日の営業は、月・水・金です。（改行）上記営業時間以外でも相談に応じる体制を取ります。"
  },
  {
    "id": "4270501879",
    "name": "デイサービス葵",
    "kana": "デイサービスアオイ",
    "address": "長崎県大村市富の原1丁目1276-1デイサービス葵 デイサービス葵",
    "lat": 32.9408804,
    "lng": 129.9391916,
    "tel": "0957-47-5852",
    "url": "",
    "pref": "長崎県",
    "city": "大村市",
    "category": "day_service",
    "serviceType": "通所介護",
    "capacity": 25,
    "openDays": [
      "平日",
      "土曜日"
    ],
    "openDaysNote": ""
  },
  {
    "id": "4270502224",
    "name": "デイサービス琴音",
    "kana": "デイサービスコトネ",
    "address": "長崎県大村市森園町1625番地１",
    "lat": 32.9222386,
    "lng": 129.9431058,
    "tel": "0957-46-5963",
    "url": "https://kotonoumi.com/",
    "pref": "長崎県",
    "city": "大村市",
    "category": "day_service",
    "serviceType": "通所介護",
    "capacity": 20,
    "openDays": [
      "平日",
      "祝日"
    ],
    "openDaysNote": "8月13日～8月15日・12月31日～1月3日は休み"
  },
  {
    "id": "4270501432",
    "name": "デイサービス光",
    "kana": "デイサービス　ヒカリ",
    "address": "長崎県大村市木場１丁目９９４－１ケアホーム光内1Ｆ ケアホーム光内1Ｆ",
    "lat": 32.9013234,
    "lng": 129.9776843,
    "tel": "0957-53-8600",
    "url": "http://www.noahikari.com",
    "pref": "長崎県",
    "city": "大村市",
    "category": "day_service",
    "serviceType": "通所介護",
    "capacity": 30,
    "openDays": [
      "平日",
      "土曜日"
    ],
    "openDaysNote": ""
  },
  {
    "id": "4270500970",
    "name": "デイサービス悠久ひろば",
    "kana": "デイサービスユウキュウヒロバ",
    "address": "長崎県大村市東野岳町1699-4",
    "lat": 32.9771808,
    "lng": 129.9762133,
    "tel": "0957-27-4017",
    "url": "http://www.arumu.info/",
    "pref": "長崎県",
    "city": "大村市",
    "category": "day_service",
    "serviceType": "通所介護",
    "capacity": 0,
    "openDays": [
      "平日",
      "土曜日",
      "日曜日",
      "祝日"
    ],
    "openDaysNote": "お盆　　　　　８月１４．１５．１６日　（改行）年末年始　　１２月３０．３１日　１月１．２．３日　　は休みとなります。"
  },
  {
    "id": "4270502257",
    "name": "レッツ倶楽部大村",
    "kana": "レッツクラブオオムラ",
    "address": "長崎県大村市杭出津2丁目54-1",
    "lat": 32.9162717,
    "lng": 129.9546203,
    "tel": "0957-47-5146",
    "url": "https://www.lets-club.jp/shop/omura/about.html",
    "pref": "長崎県",
    "city": "大村市",
    "category": "day_service",
    "serviceType": "通所介護",
    "capacity": 0,
    "openDays": [
      "平日",
      "土曜日",
      "祝日"
    ],
    "openDaysNote": ""
  },
  {
    "id": "4270401237",
    "name": "伊和咲デイサービスセンター",
    "kana": "イワサキデイサービスセンター",
    "address": "長崎県大村市岩松町939‐5",
    "lat": 32.8904672995109,
    "lng": 129.983359476417,
    "tel": "0957-53-7121",
    "url": "",
    "pref": "長崎県",
    "city": "大村市",
    "category": "day_service",
    "serviceType": "通所介護",
    "capacity": 20,
    "openDays": [
      "平日",
      "土曜日",
      "祝日"
    ],
    "openDaysNote": ""
  },
  {
    "id": "4270500533",
    "name": "株式会社　コモテックス　デイサービスほのぼのハウス",
    "kana": "カブシキカイシャコモテックスデイサービスホノボノハウス",
    "address": "長崎県大村市松山町４６０－２",
    "lat": 32.9128915,
    "lng": 129.9468364,
    "tel": "0957-20-8885",
    "url": "http://www.komori-group.net/honobono/",
    "pref": "長崎県",
    "city": "大村市",
    "category": "day_service",
    "serviceType": "通所介護",
    "capacity": 18,
    "openDays": [
      "平日",
      "祝日"
    ],
    "openDaysNote": ""
  },
  {
    "id": "4270500087",
    "name": "社会福祉法人樹陽会デイサービスセンター湧泉荘",
    "kana": "シャカイフクシホウジンジュヨウカイデイサービスセンターユウセンソウ",
    "address": "長崎県大村市諏訪１丁目６７０番地６",
    "lat": 32.9241659,
    "lng": 129.9620516,
    "tel": "0957-54-6636",
    "url": "http://juyoukai.com/",
    "pref": "長崎県",
    "city": "大村市",
    "category": "day_service",
    "serviceType": "通所介護",
    "capacity": 0,
    "openDays": [
      "平日",
      "土曜日"
    ],
    "openDaysNote": ""
  },
  {
    "id": "4270500129",
    "name": "社会福祉法人隆明会　デイサービスセンターふる里",
    "kana": "シャカイフクシホウジンリュウメイカイ　デイサービスセンターフルサト",
    "address": "長崎県大村市鬼橋町１４１６番地",
    "lat": 32.9459861,
    "lng": 129.9586652,
    "tel": "0957-27-4500",
    "url": "https://ryumei-kai.or.jp/",
    "pref": "長崎県",
    "city": "大村市",
    "category": "day_service",
    "serviceType": "通所介護",
    "capacity": 35,
    "openDays": [
      "平日",
      "土曜日",
      "祝日"
    ],
    "openDaysNote": ""
  },
  {
    "id": "4270502091",
    "name": "泉の里アーケード館デイサービスセンター",
    "kana": "イズミノサトアーケードカンデイサービスセンター",
    "address": "長崎県大村市本町387番地1",
    "lat": 32.9068867,
    "lng": 129.9590936,
    "tel": "0957-54-2105",
    "url": "http://www.izuminosato.jp",
    "pref": "長崎県",
    "city": "大村市",
    "category": "day_service",
    "serviceType": "通所介護",
    "capacity": null,
    "openDays": [
      "平日",
      "土曜日",
      "日曜日",
      "祝日"
    ],
    "openDaysNote": ""
  },
  {
    "id": "4270500152",
    "name": "泉の里デイサービスセンター",
    "kana": "イズミノサトデイサービスセンター",
    "address": "長崎県大村市東本町583",
    "lat": 32.9000257,
    "lng": 129.9578634,
    "tel": "0957-54-2107",
    "url": "http://www.izuminosato.jp",
    "pref": "長崎県",
    "city": "大村市",
    "category": "day_service",
    "serviceType": "通所介護",
    "capacity": 0,
    "openDays": [
      "平日",
      "土曜日",
      "祝日"
    ],
    "openDaysNote": ""
  },
  {
    "id": "4270501309",
    "name": "泉の里デイセンターとくせん（一般型）",
    "kana": "イズミノサト　デイセンタートクセン（イッパンガタ）",
    "address": "長崎県大村市徳泉川内町829",
    "lat": 32.9117421,
    "lng": 129.9825585,
    "tel": "0957-54-2107",
    "url": "http://www.izuminosato.jp",
    "pref": "長崎県",
    "city": "大村市",
    "category": "day_service",
    "serviceType": "通所介護",
    "capacity": 90,
    "openDays": [
      "平日",
      "土曜日",
      "日曜日",
      "祝日"
    ],
    "openDaysNote": ""
  },
  {
    "id": "4270502059",
    "name": "蒼デイサービス",
    "kana": "アオイデイサービス",
    "address": "長崎県大村市今津町417-1",
    "lat": 32.9263414,
    "lng": 129.9337338,
    "tel": "0957-56-9311",
    "url": "",
    "pref": "長崎県",
    "city": "大村市",
    "category": "day_service",
    "serviceType": "通所介護",
    "capacity": 20,
    "openDays": [
      "平日",
      "土曜日"
    ],
    "openDaysNote": ""
  },
  {
    "id": "4270500954",
    "name": "優心苑デイサービス",
    "kana": "ユウシンエンデイサービス",
    "address": "長崎県大村市野田町56番地",
    "lat": 32.9545772,
    "lng": 129.9646062,
    "tel": "0957-55-4524",
    "url": "http://www.yushinen.com",
    "pref": "長崎県",
    "city": "大村市",
    "category": "day_service",
    "serviceType": "通所介護",
    "capacity": 0,
    "openDays": [
      "平日",
      "土曜日",
      "日曜日",
      "祝日"
    ],
    "openDaysNote": ""
  },
  {
    "id": "4270501564",
    "name": "有限会社アルム　デイサービス　ひこばゆ",
    "kana": "ユウゲンガイシャアルム　デイサービス　ヒコバユ",
    "address": "長崎県大村市松原２丁目219番地1",
    "lat": 32.982585,
    "lng": 129.9472291,
    "tel": "0957-47-5126",
    "url": "http//:www.arumu.info",
    "pref": "長崎県",
    "city": "大村市",
    "category": "day_service",
    "serviceType": "通所介護",
    "capacity": 30,
    "openDays": [
      "平日",
      "土曜日",
      "日曜日",
      "祝日"
    ],
    "openDaysNote": "年末年始　12/31.1/1　は休みとなります。"
  },
  {
    "id": "4270500285",
    "name": "老人デイサービスセンター松原のさと",
    "kana": "ロウジンデイサービスセンターマツバラノサト",
    "address": "長崎県大村市松原本町274番地",
    "lat": 32.9762162,
    "lng": 129.9449933,
    "tel": "0957-56-2378",
    "url": "http://matsubara-wa.jp/matsubara/ds/",
    "pref": "長崎県",
    "city": "大村市",
    "category": "day_service",
    "serviceType": "通所介護",
    "capacity": 35,
    "openDays": [
      "平日",
      "土曜日",
      "祝日"
    ],
    "openDaysNote": "天候・自然災害等で、通常の運営が不可能と管理者が判断した場合は必要に応じて、利用者に連絡する。また、研修等で休業する場合は事前に連絡対応するものとする。"
  },
  {
    "id": "4270108253",
    "name": "OneDayRE･楽",
    "kana": "ワンデイリラク",
    "address": "長崎県長崎市下西山町2番3号柴田ビル2階 柴田ビル2階",
    "lat": 32.7541383,
    "lng": 129.8840637,
    "tel": "095-829-5552",
    "url": "http://qualitycare9.wix.com/re-raku",
    "pref": "長崎県",
    "city": "長崎市",
    "category": "day_service",
    "serviceType": "通所介護",
    "capacity": 0,
    "openDays": [
      "平日",
      "土曜日",
      "祝日"
    ],
    "openDaysNote": "8/13～8/15（お盆休み）（改行）12/30～1/3（年末年始）"
  },
  {
    "id": "4270135660",
    "name": "エフ・ステージ白木せいかつのデイ",
    "kana": "エフ・ステージシロキセイカツノデイ",
    "address": "長崎市白木町4-3",
    "lat": 32.7393672,
    "lng": 129.8943057,
    "tel": "095-893-8220",
    "url": "entowa.co.jp",
    "pref": "長崎県",
    "city": "長崎市",
    "category": "day_service",
    "serviceType": "通所介護",
    "capacity": 0,
    "openDays": [
      "平日",
      "土曜日",
      "祝日"
    ],
    "openDaysNote": "祝日は営業。緊急時の電話連絡については年中無休24時間対応"
  },
  {
    "id": "4270109780",
    "name": "かいごの花みずき　デイサービス　＋C",
    "kana": "カイゴノハナミズキ　デイサービス　プラスシー",
    "address": "長崎県長崎市平和町5-29",
    "lat": 32.7760185994666,
    "lng": 129.865786698148,
    "tel": "095-800-8701",
    "url": "http://www.kaigo-8732.com/",
    "pref": "長崎県",
    "city": "長崎市",
    "category": "day_service",
    "serviceType": "通所介護",
    "capacity": 0,
    "openDays": [
      "平日",
      "土曜日",
      "祝日"
    ],
    "openDaysNote": ""
  },
  {
    "id": "4270110259",
    "name": "こころねデイサービス",
    "kana": "ココロネデイサービス",
    "address": "長崎県長崎市文教町5番23号田崎ビル1階 田崎ビル1階",
    "lat": 32.7886759,
    "lng": 129.8705858,
    "tel": "095-842-7272",
    "url": "http://www.tolerance.co.jp",
    "pref": "長崎県",
    "city": "長崎市",
    "category": "day_service",
    "serviceType": "通所介護",
    "capacity": 0,
    "openDays": [
      "平日",
      "土曜日",
      "祝日"
    ],
    "openDaysNote": ""
  },
  {
    "id": "4270109004",
    "name": "スマートデイサービスセンター",
    "kana": "スマートデイサービスセンター",
    "address": "長崎県長崎市女の都3丁目7番27号",
    "lat": 32.8071512,
    "lng": 129.8809894,
    "tel": "095-845-2002",
    "url": "",
    "pref": "長崎県",
    "city": "長崎市",
    "category": "day_service",
    "serviceType": "通所介護",
    "capacity": 30,
    "openDays": [
      "平日",
      "祝日"
    ],
    "openDaysNote": "祝日、お盆は休まず営業。"
  },
  {
    "id": "4270111810",
    "name": "たおやかに・デイサービスセンター",
    "kana": "タオヤカニ・デイサービスセンター",
    "address": "上黒崎777番地",
    "lat": 32.8441738185598,
    "lng": 129.718407023719,
    "tel": "0959-37-6352",
    "url": "http://www.taoyakani.net/about.php",
    "pref": "長崎県",
    "city": "長崎市",
    "category": "day_service",
    "serviceType": "通所介護",
    "capacity": 25,
    "openDays": [
      "平日",
      "土曜日",
      "祝日"
    ],
    "openDaysNote": ""
  },
  {
    "id": "4270106976",
    "name": "ツクイ東長崎",
    "kana": "ツクイヒガシナガサキ",
    "address": "長崎県長崎市平間町694‐17",
    "lat": 32.7847337,
    "lng": 129.9488605,
    "tel": "095-813-9220",
    "url": "http://www.tsukui.net/",
    "pref": "長崎県",
    "city": "長崎市",
    "category": "day_service",
    "serviceType": "通所介護",
    "capacity": 31,
    "openDays": [
      "平日",
      "土曜日",
      "日曜日",
      "祝日"
    ],
    "openDaysNote": "GW、お盆、正月も休まず運営しています。"
  },
  {
    "id": "4270111364",
    "name": "デイサービス　mycafe花丘",
    "kana": "デイサービスマイカフェハナオカ",
    "address": "長崎県長崎市花丘町20番3号",
    "lat": 32.7912672,
    "lng": 129.8655328,
    "tel": "095-865-8781",
    "url": "https://www.facebook.com/hanaoka2017/",
    "pref": "長崎県",
    "city": "長崎市",
    "category": "day_service",
    "serviceType": "通所介護",
    "capacity": 0,
    "openDays": [
      "平日"
    ],
    "openDaysNote": "通所介護（介護予防相当サービス）は現在，月・水・金曜日の午前中のみの営業となっています．"
  },
  {
    "id": "4270108394",
    "name": "デイサービス　エルフ山の手",
    "kana": "デイサービス　エルフヤマノテ",
    "address": "長崎県長崎市戸町１丁目５番４号エルフ山の手 エルフ山の手",
    "lat": 32.7249255668573,
    "lng": 129.860404193254,
    "tel": "095-826--5657",
    "url": "http://elf-yamanote.jimdo.com/",
    "pref": "長崎県",
    "city": "長崎市",
    "category": "day_service",
    "serviceType": "通所介護",
    "capacity": 0,
    "openDays": [
      "平日",
      "土曜日",
      "祝日"
    ],
    "openDaysNote": ""
  },
  {
    "id": "4270109764",
    "name": "デイサービス　さくら並木",
    "kana": "デイサービス　サクラナミキ",
    "address": "長崎県長崎市布巻町184番地11",
    "lat": 32.658212,
    "lng": 129.8355138,
    "tel": "095-892-8822",
    "url": "",
    "pref": "長崎県",
    "city": "長崎市",
    "category": "day_service",
    "serviceType": "通所介護",
    "capacity": 0,
    "openDays": [
      "平日",
      "土曜日",
      "日曜日",
      "祝日"
    ],
    "openDaysNote": ""
  },
  {
    "id": "4270111968",
    "name": "デイサービス　フルリール",
    "kana": "デイサービス　フルリール",
    "address": "長崎県長崎市小ヶ倉町2丁目327番地1",
    "lat": 32.7042759932726,
    "lng": 129.853769770955,
    "tel": "095-832-5225",
    "url": "http://h-well.co.jp",
    "pref": "長崎県",
    "city": "長崎市",
    "category": "day_service",
    "serviceType": "通所介護",
    "capacity": 30,
    "openDays": [
      "平日",
      "土曜日"
    ],
    "openDaysNote": ""
  },
  {
    "id": "4270108600",
    "name": "デイサービス・山の木",
    "kana": "デイサービス・ヤマノキ",
    "address": "長崎県長崎市横尾５丁目９番１８号",
    "lat": 32.8146504,
    "lng": 129.826693,
    "tel": "095-840-4431",
    "url": "http://www.keiaikai-nagasaki.or.jp/",
    "pref": "長崎県",
    "city": "長崎市",
    "category": "day_service",
    "serviceType": "通所介護",
    "capacity": 30,
    "openDays": [
      "平日",
      "土曜日",
      "祝日"
    ],
    "openDaysNote": "定休日についてはご利用者の要望等により変更することがあります。"
  },
  {
    "id": "4270136288",
    "name": "デイサービスあすなろ",
    "kana": "デイサービスアスナロ",
    "address": "長崎県長崎市西山4丁目474番6アラシン7 アラシン7",
    "lat": 32.7787443,
    "lng": 129.8889468,
    "tel": "095‐804‐9037",
    "url": "https://www.truness-nagasaki.com/pages/2/",
    "pref": "長崎県",
    "city": "長崎市",
    "category": "day_service",
    "serviceType": "通所介護",
    "capacity": 25,
    "openDays": [
      "平日",
      "土曜日",
      "祝日"
    ],
    "openDaysNote": ""
  },
  {
    "id": "4270109640",
    "name": "デイサービスうぇるずらいふ大手",
    "kana": "デイサービスウェルズライフオオテ",
    "address": "長崎県長崎市大手1丁目28番15号",
    "lat": 32.7892279102685,
    "lng": 129.875275160843,
    "tel": "095-844-2525",
    "url": "https://wellslife.jp/",
    "pref": "長崎県",
    "city": "長崎市",
    "category": "day_service",
    "serviceType": "通所介護",
    "capacity": 25,
    "openDays": [
      "平日",
      "土曜日",
      "祝日"
    ],
    "openDaysNote": ""
  },
  {
    "id": "4270110150",
    "name": "デイサービスさくらの里花かごplus+",
    "kana": "デイサービスサクラノサトハナカゴプラス",
    "address": "長崎県長崎市京泊2丁目5番6号",
    "lat": 32.821846,
    "lng": 129.7725859,
    "tel": "095-894-4330",
    "url": "http://www.sakuranosato.or.jp/web/",
    "pref": "長崎県",
    "city": "長崎市",
    "category": "day_service",
    "serviceType": "通所介護",
    "capacity": 0,
    "openDays": [
      "平日",
      "土曜日",
      "祝日"
    ],
    "openDaysNote": "※年末年始の休みについては、変更もあり得る。"
  },
  {
    "id": "4270111414",
    "name": "デイサービスしらはま　けやき台",
    "kana": "デイサービスシラハマ　ケヤキダイ",
    "address": "長崎県長崎市けやき台町1-12",
    "lat": 32.7952032,
    "lng": 129.8807515,
    "tel": "095-848-1986",
    "url": "",
    "pref": "長崎県",
    "city": "長崎市",
    "category": "day_service",
    "serviceType": "通所介護",
    "capacity": 0,
    "openDays": [
      "平日",
      "土曜日"
    ],
    "openDaysNote": "木・土の利用可能時間帯は9:00-13:30"
  },
  {
    "id": "4270111992",
    "name": "デイサービスセンター　＊KiRaKu＊",
    "kana": "デイサービスセンター　キラク",
    "address": "長崎県長崎市末石町154番地1有料老人ホーム金木犀　建物内 有料老人ホーム金木犀　建物内",
    "lat": 32.6797089,
    "lng": 129.8413394,
    "tel": "095-801-0002",
    "url": "http:/www.kirakuen-nagasaki.jp/",
    "pref": "長崎県",
    "city": "長崎市",
    "category": "day_service",
    "serviceType": "通所介護",
    "capacity": 5,
    "openDays": [
      "平日",
      "土曜日",
      "日曜日",
      "祝日"
    ],
    "openDaysNote": ""
  },
  {
    "id": "4270107214",
    "name": "デイサービスセンター　ＲＥ・楽",
    "kana": "デイサービスセンター　リラク",
    "address": "長崎県長崎市西山2丁目6-7リビエール長崎１Ｆ リビエール長崎１Ｆ",
    "lat": 32.7613905,
    "lng": 129.8884492,
    "tel": "095-822-3212",
    "url": "http://qualitycare9.wix.com/re-raku",
    "pref": "長崎県",
    "city": "長崎市",
    "category": "day_service",
    "serviceType": "通所介護",
    "capacity": 20,
    "openDays": [
      "平日",
      "土曜日"
    ],
    "openDaysNote": ""
  },
  {
    "id": "4270112198",
    "name": "デイサービスセンター　いこいの園",
    "kana": "デイサービスセンター　イコイノソノ",
    "address": "長崎市牧野2168番地5",
    "lat": 32.7963978,
    "lng": 129.7993941,
    "tel": "095-840-4000",
    "url": "https://kagurakai.or.jp",
    "pref": "長崎県",
    "city": "長崎市",
    "category": "day_service",
    "serviceType": "通所介護",
    "capacity": 0,
    "openDays": [
      "平日",
      "土曜日",
      "祝日"
    ],
    "openDaysNote": ""
  },
  {
    "id": "4270135892",
    "name": "デイサービスセンター　元気の里　東長崎館",
    "kana": "デイサービスセンター　ゲンキノサト　ヒガシナガサキカン",
    "address": "長崎県長崎市松原町2679番地1エターナルフォレスト1号館 エターナルフォレスト1号館",
    "lat": 32.7951601,
    "lng": 129.9549763,
    "tel": "095-833-0111",
    "url": "http://www.sun3.jp/genki-nagasaki",
    "pref": "長崎県",
    "city": "長崎市",
    "category": "day_service",
    "serviceType": "通所介護",
    "capacity": 0,
    "openDays": [
      "平日",
      "土曜日",
      "祝日"
    ],
    "openDaysNote": "年末年始休みあり（改行）２部構成になっております（改行）午前の部　９時００分～１２時００分（改行）午後の部　１３時３０分～１６時３０分"
  },
  {
    "id": "4271100721",
    "name": "デイサービスセンター　椿ヶ丘荘",
    "kana": "デイサービスセンター　ツバキガオカソウ",
    "address": "長崎県長崎市神浦町1553番地",
    "lat": 32.8812952,
    "lng": 129.6881079,
    "tel": "0959-24-0130",
    "url": "http://www.tsubakigaoka.jp/",
    "pref": "長崎県",
    "city": "長崎市",
    "category": "day_service",
    "serviceType": "通所介護",
    "capacity": 0,
    "openDays": [
      "平日",
      "土曜日",
      "日曜日",
      "祝日"
    ],
    "openDaysNote": "特別な理由がある際には上記以外の時間でも対応する"
  },
  {
    "id": "4270135066",
    "name": "デイサービスセンターアスカ",
    "kana": "デイサービスセンターアスカ",
    "address": "長崎県長崎市みなと坂１丁目６番３５号",
    "lat": 32.7289948,
    "lng": 129.8385504,
    "tel": "095-834-4141",
    "url": "https://asukafukushikai.jp/",
    "pref": "長崎県",
    "city": "長崎市",
    "category": "day_service",
    "serviceType": "通所介護",
    "capacity": 40,
    "openDays": [
      "平日",
      "土曜日",
      "日曜日",
      "祝日"
    ],
    "openDaysNote": ""
  },
  {
    "id": "4270105978",
    "name": "デイサービスセンターさくらの里",
    "kana": "デイサービスセンターサクラノサト",
    "address": "長崎県長崎市三京町１５３９番地１",
    "lat": 32.8345698,
    "lng": 129.77213,
    "tel": "095-814-1050",
    "url": "http://www.sakuranosato.or.jp/web/",
    "pref": "長崎県",
    "city": "長崎市",
    "category": "day_service",
    "serviceType": "通所介護",
    "capacity": 0,
    "openDays": [
      "平日",
      "土曜日",
      "祝日"
    ],
    "openDaysNote": ""
  },
  {
    "id": "4270100789",
    "name": "デイサービスセンターサンハイツ",
    "kana": "デイサービスセンターサンハイツ",
    "address": "長崎県長崎市油木町65-14",
    "lat": 32.7803067,
    "lng": 129.8441103,
    "tel": "095-843-1138",
    "url": "http://www.sanhaitsu.jp/",
    "pref": "長崎県",
    "city": "長崎市",
    "category": "day_service",
    "serviceType": "通所介護",
    "capacity": 75,
    "openDays": [
      "平日",
      "土曜日",
      "祝日"
    ],
    "openDaysNote": ""
  },
  {
    "id": "4270110341",
    "name": "デイサービスセンターサンハイツ城栄",
    "kana": "デイサービスセンターサンハイツジョウエイ",
    "address": "長崎県長崎市富士見町23-13",
    "lat": 32.7606092,
    "lng": 129.8597266,
    "tel": "095-862-3812",
    "url": "http://www.sanhaitsu.jp/",
    "pref": "長崎県",
    "city": "長崎市",
    "category": "day_service",
    "serviceType": "通所介護",
    "capacity": 35,
    "openDays": [
      "平日",
      "土曜日",
      "祝日"
    ],
    "openDaysNote": ""
  },
  {
    "id": "4270103312",
    "name": "デイサービスセンターサンハイツ青山",
    "kana": "デイサービスセンターサンハイツアオヤマ",
    "address": "長崎県長崎市青山町2-36",
    "lat": 32.7783071,
    "lng": 129.851685,
    "tel": "095-841-9396",
    "url": "http://www.sanhaitsu.jp/",
    "pref": "長崎県",
    "city": "長崎市",
    "category": "day_service",
    "serviceType": "通所介護",
    "capacity": 0,
    "openDays": [
      "平日",
      "土曜日",
      "祝日"
    ],
    "openDaysNote": ""
  },
  {
    "id": "4270101613",
    "name": "デイサービスセンターサンハイツ青山ニュータウン",
    "kana": "デイサービスセンターサンハイツアオヤマニュータウン",
    "address": "長崎県長崎市油木町92－1",
    "lat": 32.7820768965514,
    "lng": 129.845242116472,
    "tel": "095-894-1380",
    "url": "http://www.sanhaitsu.jp/",
    "pref": "長崎県",
    "city": "長崎市",
    "category": "day_service",
    "serviceType": "通所介護",
    "capacity": 30,
    "openDays": [
      "平日",
      "土曜日",
      "祝日"
    ],
    "openDaysNote": ""
  },
  {
    "id": "4270106331",
    "name": "デイサービスセンターサンハイツ富士見",
    "kana": "デイサービスセンターサンハイツフジミ",
    "address": "長崎県長崎市富士見町6番1号",
    "lat": 32.7719913,
    "lng": 129.8539769,
    "tel": "095-862-2770",
    "url": "http://www.sanhaitsu.jp/",
    "pref": "長崎県",
    "city": "長崎市",
    "category": "day_service",
    "serviceType": "通所介護",
    "capacity": 0,
    "openDays": [
      "平日",
      "土曜日",
      "祝日"
    ],
    "openDaysNote": ""
  },
  {
    "id": "4270136338",
    "name": "デイサービスセンターサンハイツ淵町",
    "kana": "デイサービスセンターサンハイツフチマチ",
    "address": "長崎県長崎市淵町2番30号",
    "lat": 32.7606004,
    "lng": 129.8598672,
    "tel": "095－818－1700",
    "url": "http://www.sanhaitsu.jp/",
    "pref": "長崎県",
    "city": "長崎市",
    "category": "day_service",
    "serviceType": "通所介護",
    "capacity": null,
    "openDays": [
      "平日",
      "土曜日",
      "祝日"
    ],
    "openDaysNote": ""
  },
  {
    "id": "4270111034",
    "name": "デイサービスセンターたいじゅ",
    "kana": "デイサービスセンタータイジュ",
    "address": "長崎市京泊3丁目35番1号医療法人太寿会こうの医院3階 医療法人太寿会こうの医院3階",
    "lat": 32.8245861051774,
    "lng": 129.773584079762,
    "tel": "095‐801‐6615",
    "url": "http://www.taijukai.info/",
    "pref": "長崎県",
    "city": "長崎市",
    "category": "day_service",
    "serviceType": "通所介護",
    "capacity": 25,
    "openDays": [
      "平日",
      "祝日"
    ],
    "openDaysNote": ""
  },
  {
    "id": "4270107149",
    "name": "デイサービスセンターぴーすけあ・滑石",
    "kana": "デイサービスセンターピースケア・ナメシ",
    "address": "長崎県長崎市滑石5丁目1番22号　バリューセンター2Fバリューセンター2Ｆ バリューセンター2Ｆ",
    "lat": 32.8068678,
    "lng": 129.836351,
    "tel": "095-855-2556",
    "url": "http://alive-care.com",
    "pref": "長崎県",
    "city": "長崎市",
    "category": "day_service",
    "serviceType": "通所介護",
    "capacity": 0,
    "openDays": [
      "平日",
      "土曜日",
      "祝日"
    ],
    "openDaysNote": "年4回程　滑石ショッピングセンターの定休日に合わせて休みあり。"
  },
  {
    "id": "4270135967",
    "name": "デイサービスセンターひまわり",
    "kana": "デイサービスセンターヒマワリ",
    "address": "長崎県長崎市木鉢町1丁目4番地6",
    "lat": 32.7256101,
    "lng": 129.8409112,
    "tel": "095-865-7552",
    "url": "https://syahuku-himawari.com/",
    "pref": "長崎県",
    "city": "長崎市",
    "category": "day_service",
    "serviceType": "通所介護",
    "capacity": 0,
    "openDays": [
      "平日",
      "土曜日",
      "祝日"
    ],
    "openDaysNote": ""
  },
  {
    "id": "4270107404",
    "name": "デイサービスセンターほっと　2号館",
    "kana": "デイサービスセンターホット　ニゴウカン",
    "address": "長崎県長崎市滑石5丁目5番23号",
    "lat": 32.8056596,
    "lng": 129.8341039,
    "tel": "095-865-7004",
    "url": "https://hothouse-nameshi.jp/",
    "pref": "長崎県",
    "city": "長崎市",
    "category": "day_service",
    "serviceType": "通所介護",
    "capacity": 30,
    "openDays": [
      "平日",
      "土曜日",
      "祝日"
    ],
    "openDaysNote": "１／１～１／３まで休業"
  },
  {
    "id": "4270110325",
    "name": "デイサービスセンターモン・サン琴海村松",
    "kana": "デイサービスセンターモン・サンキンカイムラマツ",
    "address": "長崎県長崎市琴海村松町399",
    "lat": 32.8784243,
    "lng": 129.7900748,
    "tel": "095-840-3010",
    "url": "http://keiseikai.biz/",
    "pref": "長崎県",
    "city": "長崎市",
    "category": "day_service",
    "serviceType": "通所介護",
    "capacity": 0,
    "openDays": [
      "平日"
    ],
    "openDaysNote": ""
  },
  {
    "id": "4270104914",
    "name": "デイサービスセンター橘の丘",
    "kana": "デイサービスセンタータチバナノオカ",
    "address": "長崎市春日町２８４－２",
    "lat": 32.7418423639412,
    "lng": 129.953221551764,
    "tel": "095-813-3348",
    "url": "http://tachibananooka.jp./",
    "pref": "長崎県",
    "city": "長崎市",
    "category": "day_service",
    "serviceType": "通所介護",
    "capacity": 55,
    "openDays": [
      "平日",
      "土曜日",
      "祝日"
    ],
    "openDaysNote": ""
  },
  {
    "id": "4270110879",
    "name": "デイサービスセンター三原の花",
    "kana": "デイサービスセンターミハラノハナ",
    "address": "長崎県長崎市三原1丁目7番40号",
    "lat": 32.7816324,
    "lng": 129.8768023,
    "tel": "095-844-8710",
    "url": "http://www.miharadai.or.jp/",
    "pref": "長崎県",
    "city": "長崎市",
    "category": "day_service",
    "serviceType": "通所介護",
    "capacity": 0,
    "openDays": [
      "平日",
      "土曜日"
    ],
    "openDaysNote": ""
  },
  {
    "id": "4270106505",
    "name": "デイサービスセンター本河内",
    "kana": "デイサービスセンターホンゴウチ",
    "address": "長崎県長崎市本河内2丁目２１－１１",
    "lat": 32.7526469,
    "lng": 129.9049897,
    "tel": "095-801-9608",
    "url": "",
    "pref": "長崎県",
    "city": "長崎市",
    "category": "day_service",
    "serviceType": "通所介護",
    "capacity": 32,
    "openDays": [
      "平日",
      "土曜日",
      "祝日"
    ],
    "openDaysNote": ""
  },
  {
    "id": "4270107289",
    "name": "デイサービスセンター鳴見ヶ丘",
    "kana": "デイサービスセンターナルミガオカ",
    "address": "長崎県長崎市鳴見町368",
    "lat": 32.8161332,
    "lng": 129.8092666,
    "tel": "095-840-1888",
    "url": "http://www.kouseilife-nagasaki.net/",
    "pref": "長崎県",
    "city": "長崎市",
    "category": "day_service",
    "serviceType": "通所介護",
    "capacity": 34,
    "openDays": [
      "平日",
      "土曜日",
      "祝日"
    ],
    "openDaysNote": ""
  },
  {
    "id": "4270102892",
    "name": "デイサービスセンター和仁会",
    "kana": "デイサービスセンターワジンカイ",
    "address": "長崎県長崎市中里町９６",
    "lat": 32.7979466,
    "lng": 129.9620843,
    "tel": "095-839-2051",
    "url": "http://wajinkai.jp/",
    "pref": "長崎県",
    "city": "長崎市",
    "category": "day_service",
    "serviceType": "通所介護",
    "capacity": 30,
    "openDays": [
      "平日"
    ],
    "openDaysNote": ""
  },
  {
    "id": "4270111190",
    "name": "デイサービスならの木",
    "kana": "デイサービスナラノキ",
    "address": "長崎県長崎市南山手町12番43号ならの木　南山手 ならの木　南山手",
    "lat": 32.7326758,
    "lng": 129.8666375,
    "tel": "095-895-5080",
    "url": "http://www.naranoki.org",
    "pref": "長崎県",
    "city": "長崎市",
    "category": "day_service",
    "serviceType": "通所介護",
    "capacity": 0,
    "openDays": [
      "平日",
      "祝日"
    ],
    "openDaysNote": ""
  },
  {
    "id": "4270108121",
    "name": "デイサービスふじの丘",
    "kana": "デイサービスフジノオカ",
    "address": "長崎県長崎市古賀町１６番地２デイサービスふじの丘 デイサービスふじの丘",
    "lat": 32.7924414,
    "lng": 129.9513185,
    "tel": "095-838-8801",
    "url": "http://www.fujioka.co.jp/",
    "pref": "長崎県",
    "city": "長崎市",
    "category": "day_service",
    "serviceType": "通所介護",
    "capacity": 0,
    "openDays": [
      "平日",
      "土曜日",
      "祝日"
    ],
    "openDaysNote": "営業時間外の対応要相談"
  },
  {
    "id": "4270136148",
    "name": "デイサービス花",
    "kana": "デイサービスハナ",
    "address": "長崎県長崎市西海町3261-2",
    "lat": 32.8534105,
    "lng": 129.7830637,
    "tel": "095-840-3400",
    "url": "",
    "pref": "長崎県",
    "city": "長崎市",
    "category": "day_service",
    "serviceType": "通所介護",
    "capacity": null,
    "openDays": [
      "平日",
      "土曜日",
      "日曜日",
      "祝日"
    ],
    "openDaysNote": "お正月・お盆も営業しています。"
  },
  {
    "id": "4270136130",
    "name": "デイサービス花・花",
    "kana": "デイサービスハナ・ハナ",
    "address": "長崎県長崎市西海町3293-1　右",
    "lat": 32.8533627,
    "lng": 129.7837252,
    "tel": "095-840-3333",
    "url": "",
    "pref": "長崎県",
    "city": "長崎市",
    "category": "day_service",
    "serviceType": "通所介護",
    "capacity": null,
    "openDays": [
      "平日",
      "土曜日",
      "日曜日",
      "祝日"
    ],
    "openDaysNote": "年中無休"
  },
  {
    "id": "4270112040",
    "name": "デイサービス花椿矢の平",
    "kana": "デイサービスハナツバキヤノヒラ",
    "address": "矢の平４丁目9-22",
    "lat": 32.741379,
    "lng": 129.8948106,
    "tel": "095-893-8282",
    "url": "https://smilecs.jp/news/",
    "pref": "長崎県",
    "city": "長崎市",
    "category": "day_service",
    "serviceType": "通所介護",
    "capacity": 0,
    "openDays": [
      "平日",
      "土曜日",
      "祝日"
    ],
    "openDaysNote": ""
  },
  {
    "id": "4270135991",
    "name": "デイサービス大宮",
    "kana": "デイサービス　オオミヤ",
    "address": "長崎県長崎市平山台1丁目1-12",
    "lat": 32.6621877,
    "lng": 129.8343362,
    "tel": "095-879-2222",
    "url": "",
    "pref": "長崎県",
    "city": "長崎市",
    "category": "day_service",
    "serviceType": "通所介護",
    "capacity": 20,
    "openDays": [
      "平日",
      "土曜日"
    ],
    "openDaysNote": "木曜日・土曜日は午後休所"
  },
  {
    "id": "4270107107",
    "name": "はーとふる長崎",
    "kana": "ハートフルナガサキ",
    "address": "長崎県長崎市福田本町185番2",
    "lat": 32.7466288,
    "lng": 129.8188819,
    "tel": "095-865-2503",
    "url": "http://www.ufinitia.com/",
    "pref": "長崎県",
    "city": "長崎市",
    "category": "day_service",
    "serviceType": "通所介護",
    "capacity": 0,
    "openDays": [
      "平日",
      "土曜日",
      "祝日"
    ],
    "openDaysNote": ""
  },
  {
    "id": "4270111950",
    "name": "ブリッジライフ長崎新地",
    "kana": "ブリッジライフナガサキシンチ",
    "address": "新地町８番１６号ミナトパークビル３階 ミナトパークビル３階",
    "lat": 32.7412403476761,
    "lng": 129.874538202709,
    "tel": "095-801-0626",
    "url": "",
    "pref": "長崎県",
    "city": "長崎市",
    "category": "day_service",
    "serviceType": "通所介護",
    "capacity": null,
    "openDays": [
      "平日",
      "土曜日",
      "祝日"
    ],
    "openDaysNote": ""
  },
  {
    "id": "4270108576",
    "name": "ホテル長崎　立山湯ったりクラブ　デイサービスセンター",
    "kana": "ホテルナガサキ　タテヤマユッタリクラブ　デイサービスセンター",
    "address": "長崎県長崎市立山2丁目16番1号ホテル長崎 ホテル長崎",
    "lat": 32.7550604571454,
    "lng": 129.875874152779,
    "tel": "095-818-5050",
    "url": "",
    "pref": "長崎県",
    "city": "長崎市",
    "category": "day_service",
    "serviceType": "通所介護",
    "capacity": 35,
    "openDays": [
      "平日",
      "祝日"
    ],
    "openDaysNote": ""
  },
  {
    "id": "4270111943",
    "name": "ラッキーグループ短時間型デイ　リハビット光町",
    "kana": "ラッキーグループタンジカンガタデイ　リハビットヒカリマチ",
    "address": "長崎県長崎市光町5番20号重松ビル3階 重松ビル3階",
    "lat": 32.7543941,
    "lng": 129.8643199,
    "tel": "095-801-2785",
    "url": "http://fukushi.luckygroup.co.jp/service/rehabbit_hikari/",
    "pref": "長崎県",
    "city": "長崎市",
    "category": "day_service",
    "serviceType": "通所介護",
    "capacity": 180,
    "openDays": [
      "平日",
      "土曜日"
    ],
    "openDaysNote": ""
  },
  {
    "id": "4270107263",
    "name": "医療法人有葵会のぼる内科　デイサービス",
    "kana": "イリョウホウジンユウキカイノボルナイカ　デイサービス",
    "address": "長崎県長崎市中園町10-5",
    "lat": 32.7917835,
    "lng": 129.8591754,
    "tel": "095-842-5240",
    "url": "http://noborunaika.jp/",
    "pref": "長崎県",
    "city": "長崎市",
    "category": "day_service",
    "serviceType": "通所介護",
    "capacity": 0,
    "openDays": [
      "平日",
      "祝日"
    ],
    "openDaysNote": ""
  },
  {
    "id": "4270104625",
    "name": "浦上駅前デイサービスセンター",
    "kana": "ウラカミエキマエデイサービスセンター",
    "address": "長崎県長崎市岩川町2番3号",
    "lat": 32.7661977,
    "lng": 129.8644734,
    "tel": "095-844-0335",
    "url": "http://dejimafukushi.or.jp/",
    "pref": "長崎県",
    "city": "長崎市",
    "category": "day_service",
    "serviceType": "通所介護",
    "capacity": 30,
    "openDays": [
      "平日",
      "土曜日",
      "祝日"
    ],
    "openDaysNote": ""
  },
  {
    "id": "4270135363",
    "name": "介護支援センターながさき　デイサービス・ステーション　中島川",
    "kana": "カイゴシエンセンターナガサキ　デイサービスステーション　ナカシマガワ",
    "address": "長崎県長崎市魚の町6番20号の７",
    "lat": 32.748247,
    "lng": 129.8804168,
    "tel": "095-811-7600",
    "url": "https://www.human-nw.com/",
    "pref": "長崎県",
    "city": "長崎市",
    "category": "day_service",
    "serviceType": "通所介護",
    "capacity": 45,
    "openDays": [
      "平日",
      "土曜日",
      "祝日"
    ],
    "openDaysNote": "特別な需要がある場合には、この限りではない。"
  },
  {
    "id": "4270135843",
    "name": "介護支援センターながさき　デイサービス・ステーションうつつ川",
    "kana": "カイゴシエンセンターナガサキ　デイサービスステーションウツツカワ",
    "address": "長崎県長崎市現川町342-1",
    "lat": 32.7927769,
    "lng": 129.930563,
    "tel": "095-801-4477",
    "url": "https://www.human-nw.com",
    "pref": "長崎県",
    "city": "長崎市",
    "category": "day_service",
    "serviceType": "通所介護",
    "capacity": 0,
    "openDays": [
      "平日",
      "土曜日",
      "祝日"
    ],
    "openDaysNote": ""
  },
  {
    "id": "4270103783",
    "name": "介護支援センターながさき　デイサービス・ステーションやよい",
    "kana": "カイゴシエンセンターナガサキ　デイサービスステーションヤヨイ",
    "address": "長崎県長崎市弥生町３番３３号",
    "lat": 32.7309016,
    "lng": 129.892897,
    "tel": "095-893-6222",
    "url": "https://www.human-nw.com/",
    "pref": "長崎県",
    "city": "長崎市",
    "category": "day_service",
    "serviceType": "通所介護",
    "capacity": 100,
    "openDays": [
      "平日",
      "土曜日",
      "祝日"
    ],
    "openDaysNote": "特別な需要がある場合にはこの限りではない。"
  },
  {
    "id": "4270135256",
    "name": "介護支援センターながさき　デイサービス・ステーション伊勢の杜",
    "kana": "カイゴシエンセンターナガサキ　デイサービス　ステーションイセノモリ",
    "address": "長崎県長崎市伊勢町2番14号",
    "lat": 32.7517473988538,
    "lng": 129.884508015344,
    "tel": "095-811-7200",
    "url": "https://www.human-nw.com/",
    "pref": "長崎県",
    "city": "長崎市",
    "category": "day_service",
    "serviceType": "通所介護",
    "capacity": 45,
    "openDays": [
      "平日",
      "土曜日",
      "祝日"
    ],
    "openDaysNote": "特別な需要がある場合には、この限りではない。"
  },
  {
    "id": "4270103106",
    "name": "介護支援センターながさき　デイリハ・ステーション福田",
    "kana": "カイゴシエンセンターナガサキ　デイリハステーションフクダ",
    "address": "長崎県長崎市小浦町4番地6",
    "lat": 32.745440664254,
    "lng": 129.831930959386,
    "tel": "095-832-9888",
    "url": "https://www.human-nw.com/",
    "pref": "長崎県",
    "city": "長崎市",
    "category": "day_service",
    "serviceType": "通所介護",
    "capacity": 0,
    "openDays": [
      "平日",
      "土曜日",
      "祝日"
    ],
    "openDaysNote": "特別な需要がある場合には、この限りではない。"
  },
  {
    "id": "4270110184",
    "name": "介護支援センターながさき　リハステーションあたご",
    "kana": "カイゴシエンセンターナガサキ　リハステーションアタゴ",
    "address": "長崎県長崎市愛宕4丁目18番20号ララプレイス愛宕 ララプレイス愛宕",
    "lat": 32.7323294795912,
    "lng": 129.891715961377,
    "tel": "095-893-8826",
    "url": "https://www.human-nw.com/",
    "pref": "長崎県",
    "city": "長崎市",
    "category": "day_service",
    "serviceType": "通所介護",
    "capacity": 300,
    "openDays": [
      "平日",
      "土曜日",
      "祝日"
    ],
    "openDaysNote": "特別な需要がある場合には、この限りではない。"
  },
  {
    "id": "4270106927",
    "name": "介護支援センターながさき　介護予防ステーション中島川",
    "kana": "カイゴシエンセンターナガサキ　カイゴヨボウステーションナカシマカワ",
    "address": "長崎県長崎市魚の町６番２０号の７",
    "lat": 32.748247,
    "lng": 129.8804168,
    "tel": "095-811-7600",
    "url": "hpps://www.human-nw.com",
    "pref": "長崎県",
    "city": "長崎市",
    "category": "day_service",
    "serviceType": "通所介護",
    "capacity": 300,
    "openDays": [
      "平日",
      "土曜日",
      "祝日"
    ],
    "openDaysNote": ""
  },
  {
    "id": "4270108402",
    "name": "介護予防センターサンハイツ青山中央",
    "kana": "カイゴヨボウセンターサンハイツアオヤマチュウオウ",
    "address": "長崎県長崎市青山町14番1号",
    "lat": 32.7761851,
    "lng": 129.8513351,
    "tel": "095-860-0007",
    "url": "http://www.sanhaitsu.jp/chienkai/day_aoyamanew/",
    "pref": "長崎県",
    "city": "長崎市",
    "category": "day_service",
    "serviceType": "通所介護",
    "capacity": 70,
    "openDays": [
      "平日",
      "土曜日",
      "祝日"
    ],
    "openDaysNote": ""
  },
  {
    "id": "4270107750",
    "name": "介護予防デイサービス　クローバー・ガーデン畝刈",
    "kana": "カイゴヨボウデイサービス　クローバー・ガーデンアゼカリ",
    "address": "長崎県長崎市畝刈町1613番274号",
    "lat": 32.8268261,
    "lng": 129.7810436,
    "tel": "095-860-1118",
    "url": "http://www.fujimoto-group.jp/",
    "pref": "長崎県",
    "city": "長崎市",
    "category": "day_service",
    "serviceType": "通所介護",
    "capacity": 0,
    "openDays": [
      "平日",
      "土曜日"
    ],
    "openDaysNote": ""
  },
  {
    "id": "4270135652",
    "name": "株式会社　ENTOWA　エフ・ステージ中央　予防のデイ・ことばのデイ",
    "kana": "カブシキガイシャ　エントワ　エフ・ステージチュウオウ　ヨボウノデイ・コトバノデイ",
    "address": "長崎県長崎市桜馬場１丁目12-18婦人会館3階 婦人会館3階",
    "lat": 32.753631,
    "lng": 129.8892696,
    "tel": "095-832-2223",
    "url": "entowa.co.jp",
    "pref": "長崎県",
    "city": "長崎市",
    "category": "day_service",
    "serviceType": "通所介護",
    "capacity": 6,
    "openDays": [
      "平日",
      "土曜日",
      "祝日"
    ],
    "openDaysNote": ""
  },
  {
    "id": "4270101019",
    "name": "恵珠苑　指定通所介護事業所",
    "kana": "ケイジュエン　シテイツウショカイゴジギョウショ",
    "address": "長崎県長崎市田上2丁目15番12号特別養護老人ホーム恵珠苑　本館　１階 特別養護老人ホーム恵珠苑　本館　１階",
    "lat": 32.726513,
    "lng": 129.8865781,
    "tel": "095-828-1332",
    "url": "http://yuukikai.jp/",
    "pref": "長崎県",
    "city": "長崎市",
    "category": "day_service",
    "serviceType": "通所介護",
    "capacity": 0,
    "openDays": [
      "平日",
      "土曜日",
      "祝日"
    ],
    "openDaysNote": "利用者等からの電話による相談については、24時間常時連絡が可能な体制をとっています。（改行）但し、対応している時間外の時間帯や、日曜日の連絡につきましては、次の日及び月曜日の午前8時30分以降の対応となります。（改行）また、緊急やむ得ない場合以外に、利用前日夜9時までに申し出がなく、利用を中止した場合にはキャンセル料金（650円）をいただきます。"
  },
  {
    "id": "4270102975",
    "name": "戸町ふくし村　デイサービスセンター",
    "kana": "トマチフクシムラ　デイサービスセンター",
    "address": "長崎県長崎市戸町４丁目７番２０号",
    "lat": 32.7202101,
    "lng": 129.861166,
    "tel": "095-898-5020",
    "url": "http://www.kenyukai.or.jp/fukushimura/",
    "pref": "長崎県",
    "city": "長崎市",
    "category": "day_service",
    "serviceType": "通所介護",
    "capacity": 0,
    "openDays": [
      "平日",
      "土曜日",
      "祝日"
    ],
    "openDaysNote": ""
  },
  {
    "id": "4270101332",
    "name": "指定通所介護事業所　かたふち村",
    "kana": "シテイツウショカイゴジギョウショ　カタフチムラ",
    "address": "長崎県長崎市片淵3丁目500番地2",
    "lat": 32.7661346,
    "lng": 129.8942069,
    "tel": "095-828-5680",
    "url": "http://www.katafuchimura.or.jp/",
    "pref": "長崎県",
    "city": "長崎市",
    "category": "day_service",
    "serviceType": "通所介護",
    "capacity": 0,
    "openDays": [
      "平日",
      "土曜日",
      "祝日"
    ],
    "openDaysNote": ""
  },
  {
    "id": "4270108808",
    "name": "指定通所介護事業所　コスモ",
    "kana": "シテイツウショカイゴジギョウショ　コスモ",
    "address": "長崎県長崎市かき道６丁目１－１東長崎コスモマンション 東長崎コスモマンション",
    "lat": 32.7653718,
    "lng": 129.9599327,
    "tel": "095-839-9911",
    "url": "http://www.kaigomansion.org/",
    "pref": "長崎県",
    "city": "長崎市",
    "category": "day_service",
    "serviceType": "通所介護",
    "capacity": 0,
    "openDays": [
      "平日",
      "土曜日",
      "日曜日",
      "祝日"
    ],
    "openDaysNote": "年末年始休業あり"
  },
  {
    "id": "4270100946",
    "name": "社会福祉法人　実寿穂会　デイサービスセンターみずほ",
    "kana": "シャカイフクシホウジン　ミズホカイ　デイサービスセンターミズホ",
    "address": "長崎県長崎市岩屋町４５番１号ケアハウス４階 ケアハウス４階",
    "lat": 32.7998018,
    "lng": 129.8485255,
    "tel": "095-855-1411",
    "url": "http://www.mizuhokai.jp/",
    "pref": "長崎県",
    "city": "長崎市",
    "category": "day_service",
    "serviceType": "通所介護",
    "capacity": 40,
    "openDays": [
      "平日",
      "土曜日",
      "祝日"
    ],
    "openDaysNote": ""
  },
  {
    "id": "4270105440",
    "name": "社会福祉法人実寿穂会　滑石地区デイサービスセンター",
    "kana": "シャカイフクシホウジンミズホカイ　ナメシチクデイサービスセンター",
    "address": "長崎県長崎市葉山２丁目２８番１０号",
    "lat": 32.806466881697,
    "lng": 129.844693934848,
    "tel": "095-856-0500",
    "url": "http://www.mizuhokai.jp",
    "pref": "長崎県",
    "city": "長崎市",
    "category": "day_service",
    "serviceType": "通所介護",
    "capacity": 30,
    "openDays": [
      "平日",
      "土曜日",
      "祝日"
    ],
    "openDaysNote": "年末年始お休みさせて頂く場合もあります。"
  },
  {
    "id": "4270100938",
    "name": "社会福祉法人朋永会　指定通所介護事業所びわの園",
    "kana": "シャカイフクシホウジンホウエイカイ　シテイツウショカイゴジギョウショビワノソノ",
    "address": "長崎県長崎市茂木町２２２２番地",
    "lat": 32.6995432,
    "lng": 129.9127107,
    "tel": "095-836-2800",
    "url": "http://biwanosono.com",
    "pref": "長崎県",
    "city": "長崎市",
    "category": "day_service",
    "serviceType": "通所介護",
    "capacity": 0,
    "openDays": [
      "平日",
      "土曜日",
      "祝日"
    ],
    "openDaysNote": ""
  },
  {
    "id": "4270106307",
    "name": "松山町パークデイリハビリセンター",
    "kana": "マツヤママチパークデイリハビリセンター",
    "address": "長崎県長崎市松山町4-36松山町リハビリセンター　2Ｆ 松山町リハビリセンター　2Ｆ",
    "lat": 32.7683586,
    "lng": 129.8638595,
    "tel": "095-865-7111",
    "url": "http://kiyohararyu-naika.com",
    "pref": "長崎県",
    "city": "長崎市",
    "category": "day_service",
    "serviceType": "通所介護",
    "capacity": 0,
    "openDays": [
      "平日",
      "土曜日",
      "祝日"
    ],
    "openDaysNote": ""
  },
  {
    "id": "4270106315",
    "name": "清原龍内科松山町リハビリセンター",
    "kana": "キヨハラリュウナイカマツヤママチリハビリセンター",
    "address": "長崎県長崎市松山町４番３６号松山町リハビリセンター　3Ｆ 松山町リハビリセンター　3Ｆ",
    "lat": 32.7728275,
    "lng": 129.86249,
    "tel": "095-865-7111",
    "url": "http://kiyohararyu-naika.com",
    "pref": "長崎県",
    "city": "長崎市",
    "category": "day_service",
    "serviceType": "通所介護",
    "capacity": 0,
    "openDays": [
      "平日",
      "土曜日",
      "祝日"
    ],
    "openDaysNote": ""
  },
  {
    "id": "4270107388",
    "name": "西山十三番館",
    "kana": "ニシヤマジュウサンバンカン",
    "address": "長崎県長崎市西山4丁目474番6",
    "lat": 32.7787582,
    "lng": 129.8889237,
    "tel": "095-828-1013",
    "url": "http://www.ooura13.com",
    "pref": "長崎県",
    "city": "長崎市",
    "category": "day_service",
    "serviceType": "通所介護",
    "capacity": 0,
    "openDays": [
      "平日",
      "土曜日",
      "日曜日",
      "祝日"
    ],
    "openDaysNote": "利用時間についてはご相談下さい。"
  },
  {
    "id": "4270105697",
    "name": "大浦十三番館デイサービス",
    "kana": "オオウラジュウサンバンカンデイサービス",
    "address": "長崎県長崎市大浦町３番２１号",
    "lat": 32.7367061,
    "lng": 129.8713899,
    "tel": "095-818-8018",
    "url": "http://www.syunjyu-kai.or.jp/",
    "pref": "長崎県",
    "city": "長崎市",
    "category": "day_service",
    "serviceType": "通所介護",
    "capacity": 0,
    "openDays": [
      "平日",
      "土曜日",
      "祝日"
    ],
    "openDaysNote": "特に無し"
  },
  {
    "id": "4270105952",
    "name": "中嶋クリニック　デイサービス",
    "kana": "ナカジマクリニック　デイサービス",
    "address": "長崎県長崎市三原２丁目１１番５０号",
    "lat": 32.7840211,
    "lng": 129.8793853,
    "tel": "095-843-4546",
    "url": "http://nakajimaclinic.jimdo.com/",
    "pref": "長崎県",
    "city": "長崎市",
    "category": "day_service",
    "serviceType": "通所介護",
    "capacity": 0,
    "openDays": [
      "平日",
      "土曜日"
    ],
    "openDaysNote": ""
  },
  {
    "id": "4270104526",
    "name": "長崎スカイホテル　稲佐山　湯ったりクラブ　デイサービスセンター",
    "kana": "ナガサキスカイホテル　イナサヤマ　ユッタリクラブ　デイサービスセンター",
    "address": "長崎県長崎市江の浦町１８－１長崎スカイホテル 長崎スカイホテル",
    "lat": 32.7535291,
    "lng": 129.8537854,
    "tel": "095-834-1313",
    "url": "",
    "pref": "長崎県",
    "city": "長崎市",
    "category": "day_service",
    "serviceType": "通所介護",
    "capacity": 0,
    "openDays": [
      "平日",
      "祝日"
    ],
    "openDaysNote": "定休日以外の祝日は通常通り営業しております。"
  },
  {
    "id": "4270100235",
    "name": "長崎市医師会保健福祉センター",
    "kana": "ナガサキシイシカイホケンフクシセンター",
    "address": "長崎県長崎市栄町2番22号",
    "lat": 32.7481081,
    "lng": 129.8777198,
    "tel": "095-818-6686",
    "url": "http://www.nagasaki.med.or.jp/n-city/",
    "pref": "長崎県",
    "city": "長崎市",
    "category": "day_service",
    "serviceType": "通所介護",
    "capacity": 0,
    "openDays": [
      "平日",
      "祝日"
    ],
    "openDaysNote": ""
  },
  {
    "id": "4270111174",
    "name": "長崎市社会福祉協議会琴海ゆうゆう号デイサービスセンター",
    "kana": "ナガサキシシャカイフクシキョウギカイキンカイユウユウゴウデイサービスセンター",
    "address": "長崎県長崎市長浦町3777番地10",
    "lat": 32.9059939,
    "lng": 129.7841662,
    "tel": "095-885-2141",
    "url": "",
    "pref": "長崎県",
    "city": "長崎市",
    "category": "day_service",
    "serviceType": "通所介護",
    "capacity": 28,
    "openDays": [
      "平日",
      "土曜日",
      "日曜日",
      "祝日"
    ],
    "openDaysNote": ""
  },
  {
    "id": "4270105713",
    "name": "長寿会　デイサービス・平和パーク",
    "kana": "チョウジュカイ　デイサービス・ヘイワパーク",
    "address": "長崎県長崎市橋口町12-2",
    "lat": 32.7781325,
    "lng": 129.8656617,
    "tel": "095-847-6660",
    "url": "http://kiyohararyu-naika.com",
    "pref": "長崎県",
    "city": "長崎市",
    "category": "day_service",
    "serviceType": "通所介護",
    "capacity": 0,
    "openDays": [
      "平日",
      "土曜日",
      "祝日"
    ],
    "openDaysNote": ""
  },
  {
    "id": "4270135520",
    "name": "通所介護　しらはま",
    "kana": "ツウショカイゴ　シラハマ",
    "address": "長崎県長崎市大橋町10-30",
    "lat": 32.7841987905432,
    "lng": 129.862159540475,
    "tel": "095-848-1986",
    "url": "https://www.shirahama-seikeigeka.com/",
    "pref": "長崎県",
    "city": "長崎市",
    "category": "day_service",
    "serviceType": "通所介護",
    "capacity": 0,
    "openDays": [
      "平日",
      "土曜日"
    ],
    "openDaysNote": ""
  },
  {
    "id": "4270100672",
    "name": "通所介護・プライエム横尾",
    "kana": "ツウショカイゴ・プライエムヨコオ",
    "address": "長崎県長崎市横尾3丁目26番1号",
    "lat": 32.8166475,
    "lng": 129.8385728,
    "tel": "095-856-6511",
    "url": "http://www.heisei-kai.or.jp",
    "pref": "長崎県",
    "city": "長崎市",
    "category": "day_service",
    "serviceType": "通所介護",
    "capacity": 0,
    "openDays": [
      "平日",
      "土曜日",
      "日曜日",
      "祝日"
    ],
    "openDaysNote": "台風や雪等の悪天候で送迎が安全にできない場合は、休業する事もあります。"
  },
  {
    "id": "4270105523",
    "name": "通所介護滑石",
    "kana": "ツウショカイゴナメシ",
    "address": "長崎県長崎市滑石６丁目４番３号",
    "lat": 32.8035847,
    "lng": 129.8344262,
    "tel": "095-856-2940",
    "url": "http://www.heisei-kai.or.jp/",
    "pref": "長崎県",
    "city": "長崎市",
    "category": "day_service",
    "serviceType": "通所介護",
    "capacity": 35,
    "openDays": [
      "平日",
      "土曜日",
      "祝日"
    ],
    "openDaysNote": ""
  },
  {
    "id": "4270110739",
    "name": "通所介護施設　シーサイド",
    "kana": "ツウショカイゴ　シーサイド",
    "address": "長崎県長崎市野母町2283-7",
    "lat": 32.5796389,
    "lng": 129.7535489,
    "tel": "095-893-1153",
    "url": "http://www.kouyokai.jp",
    "pref": "長崎県",
    "city": "長崎市",
    "category": "day_service",
    "serviceType": "通所介護",
    "capacity": 40,
    "openDays": [
      "平日",
      "土曜日",
      "祝日"
    ],
    "openDaysNote": ""
  },
  {
    "id": "4270135355",
    "name": "通所介護事業所　こえばる",
    "kana": "ツウショカイゴジギョウショ　コエバル",
    "address": "長崎県長崎市小江原4丁目1番３０号",
    "lat": 32.7836367,
    "lng": 129.8322886,
    "tel": "095-814-8225",
    "url": "http://syuhoukai.jp/",
    "pref": "長崎県",
    "city": "長崎市",
    "category": "day_service",
    "serviceType": "通所介護",
    "capacity": 0,
    "openDays": [
      "平日",
      "土曜日",
      "祝日"
    ],
    "openDaysNote": ""
  },
  {
    "id": "4270100433",
    "name": "通所介護事業所　古賀山荘",
    "kana": "ツウショカイゴジギョウショ　コガサンソウ",
    "address": "長崎県長崎市古賀町806番7通所介護事業所　古賀山荘 通所介護事業所　古賀山荘",
    "lat": 32.7969217,
    "lng": 129.9618344,
    "tel": "095-838-4380",
    "url": "http://www.koganosato.jp/",
    "pref": "長崎県",
    "city": "長崎市",
    "category": "day_service",
    "serviceType": "通所介護",
    "capacity": 35,
    "openDays": [
      "平日",
      "土曜日",
      "祝日"
    ],
    "openDaysNote": ""
  },
  {
    "id": "4271100846",
    "name": "通所介護事業所（三和荘）",
    "kana": "ツウショカイゴジギョウショサンワソウ",
    "address": "長崎県長崎市布巻町792番",
    "lat": 32.659559,
    "lng": 129.8290642,
    "tel": "095-892-1001",
    "url": "http://www.minorikai.or.jp/deisanwasou/",
    "pref": "長崎県",
    "city": "長崎市",
    "category": "day_service",
    "serviceType": "通所介護",
    "capacity": 0,
    "openDays": [
      "平日",
      "土曜日",
      "祝日"
    ],
    "openDaysNote": ""
  },