[
  {
    "id": "4272100498",
    "name": "お泊まりデイサービス憩",
    "kana": "オトマリデイサービス　ケイ",
    "address": "長崎県壱岐市芦辺町国分東触587番地",
    "lat": 33.7976685,
    "lng": 129.7215118,
    "tel": "0920-45-3311",
    "url": "https://otomari-kei.com/",
    "pref": "長崎県",
    "city": "壱岐市",
    "category": "day_service",
    "serviceType": "通所介護",
    "capacity": 0,
    "openDays": [
      "平日",
      "土曜日",
      "日曜日",
      "祝日"
    ],
    "openDaysNote": "ご希望に応じて延長利用も可能です"
  },
  {
    "id": "4272100472",
    "name": "デイサービスセンター　壱岐のこころ",
    "kana": "デイサービスセンター　イキノココロ",
    "address": "長崎県壱岐市勝本町布気触948番地1",
    "lat": 33.8065548980777,
    "lng": 129.690065470716,
    "tel": "0920-43-0107",
    "url": "https://www.kokoro.ac.jp/gr/ishinkai-iki/",
    "pref": "長崎県",
    "city": "壱岐市",
    "category": "day_service",
    "serviceType": "通所介護",
    "capacity": null,
    "openDays": [
      "平日",
      "土曜日",
      "祝日"
    ],
    "openDaysNote": "年始休業日：あり"
  },
  {
    "id": "4272100316",
    "name": "パワーリハビリテーションセンター光風",
    "kana": "パワーリハビリテーションセンターコウフウ",
    "address": "長崎県壱岐市郷ノ浦町東触1012番地１",
    "lat": 33.7533888,
    "lng": 129.7067113,
    "tel": "0920-47-5633",
    "url": "ｗｗｗ/ｇｅｎｓｈｕｋａｉ.ｏｒ.ｊｐ",
    "pref": "長崎県",
    "city": "壱岐市",
    "category": "day_service",
    "serviceType": "通所介護",
    "capacity": 0,
    "openDays": [
      "平日",
      "祝日"
    ],
    "openDaysNote": ""
  },
  {
    "id": "4272100076",
    "name": "壱岐市社協　勝本通所介護事業所",
    "kana": "イキシシャキョウ　カツモトツウショカイゴジギョウショ",
    "address": "長崎県壱岐市勝本町大久保触１７３６番地２",
    "lat": 33.8439195,
    "lng": 129.6918508,
    "tel": "0920-48-3222",
    "url": "https://ikicity-csw.jp/",
    "pref": "長崎県",
    "city": "壱岐市",
    "category": "day_service",
    "serviceType": "通所介護",
    "capacity": 0,
    "openDays": [
      "平日",
      "土曜日",
      "祝日"
    ],
    "openDaysNote": ""
  },
  {
    "id": "4272100118",
    "name": "壱岐市社協芦辺通所介護事業所",
    "kana": "イキシシャキョウアシベツウショカイゴジギョウショ",
    "address": "長崎県壱岐市芦辺町箱崎中山触２５４８番地",
    "lat": 33.8096575,
    "lng": 129.7472116,
    "tel": "0920-45-2378",
    "url": "https://ikicity-csw.jp/",
    "pref": "長崎県",
    "city": "壱岐市",
    "category": "day_service",
    "serviceType": "通所介護",
    "capacity": 45,
    "openDays": [
      "平日",
      "土曜日",
      "祝日"
    ],
    "openDaysNote": ""
  },
  {
    "id": "4272100035",
    "name": "壱岐市社協郷ノ浦通所介護事業所",
    "kana": "イキシシャキョウゴウノウラツウショカイゴジギョウショ",
    "address": "長崎県壱岐市郷ノ浦町坪触3099番地",
    "lat": 33.7321548,
    "lng": 129.6974549,
    "tel": "0920-47-0132",
    "url": "https://ikicity-csw.jp/",
    "pref": "長崎県",
    "city": "壱岐市",
    "category": "day_service",
    "serviceType": "通所介護",
    "capacity": 0,
    "openDays": [
      "平日",
      "土曜日",
      "祝日"
    ],
    "openDaysNote": ""
  },
  {
    "id": "4272100167",
    "name": "壱岐市社協石田通所介護事業所",
    "kana": "イキシシャキョウイシダツウショカイゴジギョウショ",
    "address": "長崎県壱岐市石田町石田西触1486-1",
    "lat": 33.7452157,
    "lng": 129.7531643,
    "tel": "0920-44-6150",
    "url": "https://ikicity-csw.jp/",
    "pref": "長崎県",
    "city": "壱岐市",
    "category": "day_service",
    "serviceType": "通所介護",
    "capacity": 0,
    "openDays": [
      "平日",
      "土曜日",
      "祝日"
    ],
    "openDaysNote": ""
  },
  {
    "id": "4272100365",
    "name": "社会医療法人　玄州会　デイサービスセンターリバティ",
    "kana": "シャカイイリョウホウジン　ゲンシュウカイ　デイサービスセンターリバティ",
    "address": "長崎県壱岐市郷ノ浦町永田触295番地4",
    "lat": 33.7520222,
    "lng": 129.6996426,
    "tel": "0920-47-3601",
    "url": "http://www.gensyukai.or.jp/",
    "pref": "長崎県",
    "city": "壱岐市",
    "category": "day_service",
    "serviceType": "通所介護",
    "capacity": 0,
    "openDays": [
      "平日",
      "土曜日",
      "祝日"
    ],
    "openDaysNote": ""
  },
  {
    "id": "4272100225",
    "name": "社会医療法人玄州会　デイサービスセンター光風",
    "kana": "シャカイイリョウホウジンゲンシュウカイ　デイサービスセンターコウフウ",
    "address": "長崎県壱岐市郷ノ浦町東触1005番地",
    "lat": 33.7526139,
    "lng": 129.7068641,
    "tel": "0920-47-2330",
    "url": "http://www.gensyukai.or.jp/",
    "pref": "長崎県",
    "city": "壱岐市",
    "category": "day_service",
    "serviceType": "通所介護",
    "capacity": 0,
    "openDays": [
      "平日",
      "土曜日",
      "祝日"
    ],
    "openDaysNote": "ご家族、利用者の必要に応じて時間延長をいたします。"
  },
  {
    "id": "4272400237",
    "name": "デイサービスセンター　　おおいし",
    "kana": "デイサービスセンター　オオイシ",
    "address": "長崎県雲仙市愛野町乙1162-1番地",
    "lat": 32.810329903268,
    "lng": 130.159535402516,
    "tel": "0957-36-0981",
    "url": "",
    "pref": "長崎県",
    "city": "雲仙市",
    "category": "day_service",
    "serviceType": "通所介護",
    "capacity": 0,
    "openDays": [
      "平日",
      "土曜日",
      "祝日"
    ],
    "openDaysNote": ""
  },
  {
    "id": "4271401616",
    "name": "デイサービスセンター「くにみの里」",
    "kana": "デイサービスセンター　クニミノサト",
    "address": "長崎県雲仙市国見町多比良戊１４４９番地４１５",
    "lat": 32.8310903,
    "lng": 130.2912054,
    "tel": "0975-78-5656",
    "url": "http://nissin-g.jp/",
    "pref": "長崎県",
    "city": "雲仙市",
    "category": "day_service",
    "serviceType": "通所介護",
    "capacity": 25,
    "openDays": [
      "平日",
      "土曜日",
      "祝日"
    ],
    "openDaysNote": "特になし"
  },
  {
    "id": "4272400542",
    "name": "デイサービスセンタークベレ",
    "kana": "デイサービスセンタークベレ",
    "address": "長崎県雲仙市千々石町戊182番地4",
    "lat": 32.7820743,
    "lng": 130.1942929,
    "tel": "0957-37-2140",
    "url": "http://www.quelle-gp.jp/",
    "pref": "長崎県",
    "city": "雲仙市",
    "category": "day_service",
    "serviceType": "通所介護",
    "capacity": 32,
    "openDays": [
      "平日",
      "土曜日",
      "祝日"
    ],
    "openDaysNote": "1月1日、2日は休み"
  },
  {
    "id": "4272400419",
    "name": "デイサービスセンターげんきはうす",
    "kana": "デイサービスセンターゲンキハウス",
    "address": "長崎県雲仙市千々石町甲4-4",
    "lat": 32.7834158,
    "lng": 130.194315,
    "tel": "0957-37-6251",
    "url": "",
    "pref": "長崎県",
    "city": "雲仙市",
    "category": "day_service",
    "serviceType": "通所介護",
    "capacity": 0,
    "openDays": [
      "平日",
      "土曜日",
      "祝日"
    ],
    "openDaysNote": ""
  },
  {
    "id": "4271401533",
    "name": "デイサービスセンター佃の里",
    "kana": "デイサービスセンター　ツクダノサト",
    "address": "長崎県雲仙市吾妻町永中名48－1",
    "lat": 32.8352945,
    "lng": 130.1810419,
    "tel": "0957-20-0103",
    "url": "http://fujita-kikaku.net",
    "pref": "長崎県",
    "city": "雲仙市",
    "category": "day_service",
    "serviceType": "通所介護",
    "capacity": 30,
    "openDays": [
      "平日",
      "土曜日",
      "祝日"
    ],
    "openDaysNote": ""
  },
  {
    "id": "4271400493",
    "name": "デイサービスセンター南串山荘",
    "kana": "デイサービスセンターミナミクシヤマソウ",
    "address": "長崎県雲仙市南串山町丙１０７２２番地",
    "lat": 32.6729283,
    "lng": 130.1498214,
    "tel": "0957-88-2922",
    "url": "http://www.keikokai.jp/ansin_minami/index.html",
    "pref": "長崎県",
    "city": "雲仙市",
    "category": "day_service",
    "serviceType": "通所介護",
    "capacity": 25,
    "openDays": [
      "平日",
      "土曜日",
      "祝日"
    ],
    "openDaysNote": ""
  },
  {
    "id": "4272400328",
    "name": "デイサービスなずな",
    "kana": "デイサービスナズナ",
    "address": "長崎県雲仙市千々石町庚1297-1",
    "lat": 32.7623080920554,
    "lng": 130.213583345894,
    "tel": "0957-74-5125",
    "url": "http://nanogroup.or.jp/",
    "pref": "長崎県",
    "city": "雲仙市",
    "category": "day_service",
    "serviceType": "通所介護",
    "capacity": 5,
    "openDays": [
      "平日",
      "祝日"
    ],
    "openDaysNote": ""
  },
  {
    "id": "4272400435",
    "name": "デイサービス友悠",
    "kana": "デイサービスユウユウ",
    "address": "長崎県雲仙市国見町土黒戊40番地",
    "lat": 32.866189,
    "lng": 130.2879187,
    "tel": "0957-78-1338",
    "url": "",
    "pref": "長崎県",
    "city": "雲仙市",
    "category": "day_service",
    "serviceType": "通所介護",
    "capacity": 0,
    "openDays": [
      "平日",
      "土曜日",
      "日曜日",
      "祝日"
    ],
    "openDaysNote": ""
  },
  {
    "id": "4271402325",
    "name": "デイセンター　やまぼうし",
    "kana": "デイセンター　ヤマボウシ",
    "address": "長崎県雲仙市小浜町雲仙314",
    "lat": 32.7425974,
    "lng": 130.2608851,
    "tel": "0957-76-6888",
    "url": "",
    "pref": "長崎県",
    "city": "雲仙市",
    "category": "day_service",
    "serviceType": "通所介護",
    "capacity": 30,
    "openDays": [
      "平日",
      "土曜日",
      "祝日"
    ],
    "openDaysNote": ""
  },
  {
    "id": "4272400385",
    "name": "介護予防事業所　吾妻デイサービスセンター",
    "kana": "カイゴヨボウジギョウショ　アヅマデイサービスセンター",
    "address": "長崎県雲仙市吾妻町馬場名403番地",
    "lat": 32.8302893,
    "lng": 130.189355,
    "tel": "0957-38-6886",
    "url": "http://aduma.or.jp/",
    "pref": "長崎県",
    "city": "雲仙市",
    "category": "day_service",
    "serviceType": "通所介護",
    "capacity": 0,
    "openDays": [
      "平日",
      "祝日"
    ],
    "openDaysNote": "土曜日は、自主事業における健康教室開催期間（年２回：1クール10回）の営業時間は、８時～１３時までとする。"
  },
  {
    "id": "4272400484",
    "name": "月光園　デイサービスセンター",
    "kana": "ゲッコウエン",
    "address": "長崎県雲仙市国見町土黒丙６８－１月光園デイサービス棟 月光園デイサービス棟",
    "lat": 32.8717385362291,
    "lng": 130.297031212898,
    "tel": "0957-61-7701",
    "url": "http://getuko/jp/",
    "pref": "長崎県",
    "city": "雲仙市",
    "category": "day_service",
    "serviceType": "通所介護",
    "capacity": 0,
    "openDays": [
      "平日",
      "土曜日",
      "祝日"
    ],
    "openDaysNote": "年末１２月３１日～１月２日休日"
  },
  {
    "id": "4272400088",
    "name": "国見デイサービスセンター",
    "kana": "クニミデイサービスセンター",
    "address": "長崎県雲仙市国見町土黒甲1063番地",
    "lat": 32.8732165,
    "lng": 130.3028949,
    "tel": "0957-78-5553",
    "url": "",
    "pref": "長崎県",
    "city": "雲仙市",
    "category": "day_service",
    "serviceType": "通所介護",
    "capacity": 25,
    "openDays": [
      "平日",
      "土曜日",
      "祝日"
    ],
    "openDaysNote": "特別な場合は、この限りではない"
  },
  {
    "id": "4271400881",
    "name": "社会福祉法人　朝日福祉会　桃源園",
    "kana": "シャカイフクシホウジン　アサヒフクシカイ　トウゲンエン",
    "address": "長崎県雲仙市国見町神代甲900-5",
    "lat": 32.8649103,
    "lng": 130.2744071,
    "tel": "0957-65-3100",
    "url": "",
    "pref": "長崎県",
    "city": "雲仙市",
    "category": "day_service",
    "serviceType": "通所介護",
    "capacity": 0,
    "openDays": [
      "平日",
      "土曜日",
      "日曜日",
      "祝日"
    ],
    "openDaysNote": ""
  },
  {
    "id": "4271400956",
    "name": "社会福祉法人八幡会　デイサービス宮",
    "kana": "シャカイフクシホウジンハチマンカイ　デイサービスミヤ",
    "address": "長崎県雲仙市南串山町丙９８０４番地１",
    "lat": 32.6810221,
    "lng": 130.1461098,
    "tel": "0957-88-2811",
    "url": "http://www.hachimankai.or.jp/day/index.php",
    "pref": "長崎県",
    "city": "雲仙市",
    "category": "day_service",
    "serviceType": "通所介護",
    "capacity": 6,
    "openDays": [
      "平日",
      "土曜日",
      "祝日"
    ],
    "openDaysNote": ""
  },
  {
    "id": "4271400857",
    "name": "湯遊ハウス",
    "kana": "ユウユウハウス",
    "address": "雲仙市小浜町北本町２１７番地",
    "lat": 32.7355201,
    "lng": 130.2094811,
    "tel": "0957-74-5150",
    "url": "http://www.obamakai.com/",
    "pref": "長崎県",
    "city": "雲仙市",
    "category": "day_service",
    "serviceType": "通所介護",
    "capacity": 45,
    "openDays": [
      "平日",
      "土曜日",
      "祝日"
    ],
    "openDaysNote": ""
  },
  {
    "id": "4272200595",
    "name": "かけはし福江通所介護",
    "kana": "カケハシフクエツウショカイゴ",
    "address": "長崎県五島市武家屋敷3丁目２番地6号",
    "lat": 32.6909466,
    "lng": 128.8432986,
    "tel": "080-7298-3193",
    "url": "nagomikai-kakehashi.or.jp",
    "pref": "長崎県",
    "city": "五島市",
    "category": "day_service",
    "serviceType": "通所介護",
    "capacity": 30,
    "openDays": [
      "平日",
      "土曜日",
      "祝日"
    ],
    "openDaysNote": ""
  },
  {
    "id": "4272200660",
    "name": "デイサービス　風の杜",
    "kana": "デイサービス　カゼノモリ",
    "address": "長崎県五島市上大津町2532",
    "lat": 32.6704421,
    "lng": 128.8449322,
    "tel": "0959-75-0208",
    "url": "http://goto.kazenomori.net",
    "pref": "長崎県",
    "city": "五島市",
    "category": "day_service",
    "serviceType": "通所介護",
    "capacity": 30,
    "openDays": [
      "平日",
      "土曜日",
      "祝日"
    ],
    "openDaysNote": ""
  },
  {
    "id": "4272200983",
    "name": "デイサービスのぼる",
    "kana": "デイサービスノボル",
    "address": "長崎県五島市大荒町1312デイサービスのぼる デイサービスのぼる",
    "lat": 32.7043341,
    "lng": 128.8231602,
    "tel": "0959-74-6358",
    "url": "",
    "pref": "長崎県",
    "city": "五島市",
    "category": "day_service",
    "serviceType": "通所介護",
    "capacity": 0,
    "openDays": [
      "平日",
      "祝日"
    ],
    "openDaysNote": ""
  },
  {
    "id": "4272200488",
    "name": "ディサービス天意",
    "kana": "ディサービスアイ",
    "address": "長崎県五島市大荒町1312番地",
    "lat": 32.6980601,
    "lng": 128.8381098,
    "tel": "0959-74-6358",
    "url": "",
    "pref": "長崎県",
    "city": "五島市",
    "category": "day_service",
    "serviceType": "通所介護",
    "capacity": 0,
    "openDays": [
      "平日",
      "土曜日",
      "祝日"
    ],
    "openDaysNote": ""
  },
  {
    "id": "4270604160",
    "name": "パワーリハビリディ　健康ランド",
    "kana": "パワーリハビリディ　ケンコウランド",
    "address": "長崎県五島市奥浦町１３２１番地６",
    "lat": 32.7383024,
    "lng": 128.8280954,
    "tel": "0959-75-4500",
    "url": "http://okuura.web.fc2.com/o/",
    "pref": "長崎県",
    "city": "五島市",
    "category": "day_service",
    "serviceType": "通所介護",
    "capacity": 0,
    "openDays": [
      "平日",
      "土曜日",
      "祝日"
    ],
    "openDaysNote": ""
  },
  {
    "id": "4272200389",
    "name": "株式会社　デイサ－ビスセンタ－やまうち",
    "kana": "カブシキカイシャ　デイサービスセンターヤマウチ",
    "address": "長崎県五島市岐宿町中嶽１４９３番地１",
    "lat": 32.6798621,
    "lng": 128.7379053,
    "tel": "0959-83-1520",
    "url": "http://day-yamauchi.com/",
    "pref": "長崎県",
    "city": "五島市",
    "category": "day_service",
    "serviceType": "通所介護",
    "capacity": 0,
    "openDays": [
      "平日",
      "土曜日",
      "祝日"
    ],
    "openDaysNote": ""
  },
  {
    "id": "4271600787",
    "name": "社会福祉法人　五島市社会福祉協議会　富江支所　通所介護事業所",
    "kana": "シャカイフクシホウジンゴトウシシャカイフクシキョウギカイトミエシショツウショカイゴジギョウショ",
    "address": "長崎県五島市富江町狩立４０２番地１",
    "lat": 32.6123645,
    "lng": 128.7634918,
    "tel": "0959-86-2150",
    "url": "http://www.goto-shakyo.or.jp",
    "pref": "長崎県",
    "city": "五島市",
    "category": "day_service",
    "serviceType": "通所介護",
    "capacity": 0,
    "openDays": [
      "平日",
      "土曜日",
      "祝日"
    ],
    "openDaysNote": "年末年始は状況により休み有"
  },
  {
    "id": "4271500045",
    "name": "佐々町社会福祉協議会　デイサービスセンター",
    "kana": "サザチョウシャカイフクシキョウギカイ　デイサービスセンター",
    "address": "長崎県北松浦郡佐々町市場免２３－１佐々町福祉センター１階 佐々町福祉センター１階",
    "lat": 33.2338087,
    "lng": 129.6474617,
    "tel": "0956-63-5900",
    "url": "http://www.sazafukushi.jp/",
    "pref": "長崎県",
    "city": "佐々町",
    "category": "day_service",
    "serviceType": "通所介護",
    "capacity": 25,
    "openDays": [
      "平日",
      "土曜日",
      "祝日"
    ],
    "openDaysNote": "上記、営業時間以外にも事前の連絡・調整にて利用が可能です。"
  },
  {
    "id": "4271500102",
    "name": "社会福祉法人佐々川福祉会　虹の里事業所",
    "kana": "シャカイフクシホウジンサザガワフクシカイ　ニジノサトジギョウショ",
    "address": "長崎県北松浦郡佐々町八口免805番地3",
    "lat": 33.2559605,
    "lng": 129.6823662,
    "tel": "0956-41-1211",
    "url": "http://www.sazagawa.com/ayame/nijinosato.html",
    "pref": "長崎県",
    "city": "佐々町",
    "category": "day_service",
    "serviceType": "通所介護",
    "capacity": 0,
    "openDays": [
      "平日",
      "土曜日",
      "祝日"
    ],
    "openDaysNote": ""
  },
  {
    "id": "4270205570",
    "name": "グッドリハブ",
    "kana": "グッドリハブ",
    "address": "長崎県佐世保市梅田町6番3号",
    "lat": 33.1918641133724,
    "lng": 129.718743060188,
    "tel": "0956-37-6796",
    "url": "",
    "pref": "長崎県",
    "city": "佐世保市",
    "category": "day_service",
    "serviceType": "通所介護",
    "capacity": null,
    "openDays": [
      "平日"
    ],
    "openDaysNote": ""
  },
  {
    "id": "4270205521",
    "name": "くにみ",
    "kana": "クニミ",
    "address": "長崎県佐世保市吉井町直谷246－3",
    "lat": 33.2822946,
    "lng": 129.704025,
    "tel": "0956-64-3741",
    "url": "http://www.ashitabakai.or.jp",
    "pref": "長崎県",
    "city": "佐世保市",
    "category": "day_service",
    "serviceType": "通所介護",
    "capacity": 0,
    "openDays": [
      "平日"
    ],
    "openDaysNote": "ただし、営業所が指定する土・日曜日は営業を行う。"
  },
  {
    "id": "4270205281",
    "name": "チームしおさい",
    "kana": "チームシオサイ",
    "address": "長崎県佐世保市大塔町2155番地",
    "lat": 33.1575244,
    "lng": 129.7773573,
    "tel": "0956-76-7790",
    "url": "http://miyakyoseikai.or.jp",
    "pref": "長崎県",
    "city": "佐世保市",
    "category": "day_service",
    "serviceType": "通所介護",
    "capacity": 0,
    "openDays": [
      "平日",
      "土曜日",
      "祝日"
    ],
    "openDaysNote": "法人内の職員研修などにより、閉所となる日があります。（改行）年末年始は閉所となります。"
  },
  {
    "id": "4270204219",
    "name": "デイサービス　きかぜ",
    "kana": "デイサービス　キカゼ",
    "address": "長崎県佐世保市木風町1281-1",
    "lat": 33.1669339,
    "lng": 129.7467217,
    "tel": "0956-34-3003",
    "url": "harakea.com",
    "pref": "長崎県",
    "city": "佐世保市",
    "category": "day_service",
    "serviceType": "通所介護",
    "capacity": 0,
    "openDays": [
      "平日",
      "土曜日",
      "祝日"
    ],
    "openDaysNote": ""
  },
  {
    "id": "4270202569",
    "name": "デイサービス　音羽の浜",
    "kana": "デイサービス　オトワノハマ",
    "address": "長崎県佐世保市東浜町１２３番地",
    "lat": 33.1358536,
    "lng": 129.7368867,
    "tel": "0956-33-0108",
    "url": "http://www.otowanohama.jp/",
    "pref": "長崎県",
    "city": "佐世保市",
    "category": "day_service",
    "serviceType": "通所介護",
    "capacity": 0,
    "openDays": [
      "平日",
      "土曜日",
      "祝日"
    ],
    "openDaysNote": "定休日に関しては1ヶ月前程にご連絡いたします"
  },
  {
    "id": "4270200282",
    "name": "デイサービスセンター　あいのうら",
    "kana": "デイサアビスセンタア　アイノウラ",
    "address": "長崎県佐世保市相浦町６０６番地１",
    "lat": 33.193994,
    "lng": 129.6633426,
    "tel": "0956-48-6001",
    "url": "https://syk.or.jp",
    "pref": "長崎県",
    "city": "佐世保市",
    "category": "day_service",
    "serviceType": "通所介護",
    "capacity": 0,
    "openDays": [
      "平日",
      "土曜日",
      "日曜日",
      "祝日"
    ],
    "openDaysNote": ""
  },
  {
    "id": "4270200498",
    "name": "デイサービスセンター　ガーデンハイツはいき",
    "kana": "デイサービスセンター　ガーデンハイツハイキ",
    "address": "長崎県佐世保市桑木場町１５９番地",
    "lat": 33.1450881,
    "lng": 129.8220152,
    "tel": "0956-30-8633",
    "url": "http://www5.ocn.ne.jp/~kensei/",
    "pref": "長崎県",
    "city": "佐世保市",
    "category": "day_service",
    "serviceType": "通所介護",
    "capacity": 0,
    "openDays": [
      "平日",
      "祝日"
    ],
    "openDaysNote": "祝祭日の12/31、1/1～1/3は休み"
  },
  {
    "id": "4270204250",
    "name": "デイサービスセンター　ナイスケア　みなとまち",
    "kana": "デイサービスセンター　ナイスケア　ミナトマチ",
    "address": "長崎県佐世保市湊町5-5",
    "lat": 33.172891,
    "lng": 129.7179626,
    "tel": "0956-23-2880",
    "url": "",
    "pref": "長崎県",
    "city": "佐世保市",
    "category": "day_service",
    "serviceType": "通所介護",
    "capacity": 0,
    "openDays": [
      "平日",
      "土曜日",
      "祝日"
    ],
    "openDaysNote": ""
  },
  {
    "id": "4270204383",
    "name": "デイサービスセンター　はなたか",
    "kana": "デイサービスセンター　ハナタカ",
    "address": "長崎県佐世保市花高２丁目１番３５号特別養護老人ホーム博仁荘 特別養護老人ホーム博仁荘",
    "lat": 33.1439433,
    "lng": 129.8080834,
    "tel": "0956-39-1230",
    "url": "http://sasebo-hakujinkai.or.jp/",
    "pref": "長崎県",
    "city": "佐世保市",
    "category": "day_service",
    "serviceType": "通所介護",
    "capacity": 0,
    "openDays": [
      "平日",
      "土曜日",
      "祝日"
    ],
    "openDaysNote": ""
  },
  {
    "id": "4270202965",
    "name": "デイサービスセンター　希望の家",
    "kana": "デイサービスセンター　キボウノイエ",
    "address": "長崎県佐世保市黒髪町33番23号",
    "lat": 33.1656015,
    "lng": 129.7730474,
    "tel": "0956-20-8239",
    "url": "http://www.e-kibounoie.com/",
    "pref": "長崎県",
    "city": "佐世保市",
    "category": "day_service",
    "serviceType": "通所介護",
    "capacity": 0,
    "openDays": [
      "平日",
      "祝日"
    ],
    "openDaysNote": ""
  },
  {
    "id": "4270201611",
    "name": "デイサービスセンター日野",
    "kana": "デイサービスセンターヒノ",
    "address": "長崎県佐世保市日野町８５６番地１０",
    "lat": 33.1713661,
    "lng": 129.6763088,
    "tel": "0956-28-3865",
    "url": "http://seiaikai-group.or.jp",
    "pref": "長崎県",
    "city": "佐世保市",
    "category": "day_service",
    "serviceType": "通所介護",
    "capacity": 25,
    "openDays": [
      "平日",
      "土曜日",
      "祝日"
    ],
    "openDaysNote": ""
  },
  {
    "id": "4270204425",
    "name": "デイサービスふくしあ",
    "kana": "デイサービス　フクシア",
    "address": "長崎県佐世保市卸本町286番地2サービス付き高齢者向け住宅ふくしあ サービス付き高齢者向け住宅ふくしあ",
    "lat": 33.1475374399068,
    "lng": 129.771840781645,
    "tel": "0956-34-2948",
    "url": "http://www.fukushia-sasebo.jp/",
    "pref": "長崎県",
    "city": "佐世保市",
    "category": "day_service",
    "serviceType": "通所介護",
    "capacity": 0,
    "openDays": [
      "平日",
      "土曜日",
      "祝日"
    ],
    "openDaysNote": "その年の暦によっては、日にちに変動があります。"
  },
  {
    "id": "4270201306",
    "name": "デイサービスみのりの里",
    "kana": "デイサービスミノリノサト",
    "address": "長崎県佐世保市長畑町４５０番1",
    "lat": 33.0837042,
    "lng": 129.8050211,
    "tel": "0956-20-4622",
    "url": "",
    "pref": "長崎県",
    "city": "佐世保市",
    "category": "day_service",
    "serviceType": "通所介護",
    "capacity": 10,
    "openDays": [
      "平日",
      "土曜日",
      "祝日"
    ],
    "openDaysNote": ""
  },
  {
    "id": "4270203914",
    "name": "ドリームケア　大和",
    "kana": "ドリームケア　ヤマト",
    "address": "長崎県佐世保市大和町850-4オートパル佐世保2階 オートパル佐世保2階",
    "lat": 33.1595513,
    "lng": 129.7484161,
    "tel": "0956-27-8113",
    "url": "http://hakujyujikai.or.jp/dream/",
    "pref": "長崎県",
    "city": "佐世保市",
    "category": "day_service",
    "serviceType": "通所介護",
    "capacity": 0,
    "openDays": [
      "平日",
      "土曜日"
    ],
    "openDaysNote": ""
  },
  {
    "id": "4270201553",
    "name": "ナイスケア　デイサービスセンター白岳",
    "kana": "ナイスケア　デイサービスセンターシラタケ",
    "address": "長崎県佐世保市白岳町604番地",
    "lat": 33.1531576,
    "lng": 129.7540324,
    "tel": "0956-33-0013",
    "url": "",
    "pref": "長崎県",
    "city": "佐世保市",
    "category": "day_service",
    "serviceType": "通所介護",
    "capacity": 30,
    "openDays": [
      "平日",
      "土曜日",
      "祝日"
    ],
    "openDaysNote": "年末年始は毎年変更有り。"
  },
  {
    "id": "4270205257",
    "name": "ゆい乃荘",
    "kana": "ユイノショウ",
    "address": "長崎県佐世保市烏帽子町15番地",
    "lat": 33.1819026,
    "lng": 129.7742292,
    "tel": "0956-76-8560",
    "url": "",
    "pref": "長崎県",
    "city": "佐世保市",
    "category": "day_service",
    "serviceType": "通所介護",
    "capacity": 0,
    "openDays": [
      "平日"
    ],
    "openDaysNote": ""
  },
  {
    "id": "4270204946",
    "name": "リハビリ型デイサービス　ラシク",
    "kana": "リハビリガタデイサービス　ラシク",
    "address": "長崎県佐世保市大塔町8-30",
    "lat": 33.1450924,
    "lng": 129.7802556,
    "tel": "0956-59-6706",
    "url": "lachic_chum_works@yahoo.co.jp",
    "pref": "長崎県",
    "city": "佐世保市",
    "category": "day_service",
    "serviceType": "通所介護",
    "capacity": 35,
    "openDays": [
      "平日",
      "祝日"
    ],
    "openDaysNote": "月～金曜日の祝祭日は営業しています。"
  },
  {
    "id": "4270203740",
    "name": "医療法人わかば会わかばテラスデイサービス風祭り",
    "kana": "イリョウホウジンワカバカイワカバテラスデイサービスカゼマツリ",
    "address": "長崎県佐世保市踊石町198番地1有料老人ホームわかばテラス 有料老人ホームわかばテラス",
    "lat": 33.2188411670378,
    "lng": 129.695417634349,
    "tel": "0956-76-8780",
    "url": "http://www.wakaba-terrace.jp",
    "pref": "長崎県",
    "city": "佐世保市",
    "category": "day_service",
    "serviceType": "通所介護",
    "capacity": 0,
    "openDays": [
      "平日",
      "土曜日",
      "日曜日",
      "祝日"
    ],
    "openDaysNote": ""
  },
  {
    "id": "4270202908",
    "name": "医療法人社団創平会　デイサービスさしかた",
    "kana": "イリョウホウジンシャダンソウヘイカイ　デイサービスサシカタ",
    "address": "長崎県佐世保市指方町2216番地１",
    "lat": 33.105935,
    "lng": 129.7852139,
    "tel": "0956-27-1021",
    "url": "www.kuriya-naika.com",
    "pref": "長崎県",
    "city": "佐世保市",
    "category": "day_service",
    "serviceType": "通所介護",
    "capacity": 30,
    "openDays": [
      "平日",
      "土曜日"
    ],
    "openDaysNote": ""
  },
  {
    "id": "4270201884",
    "name": "医療法人真友会　デイサービスことひら",
    "kana": "イリョウホウジンシンユウカイ　デイサービスコトヒラ",
    "address": "長崎県佐世保市御船町４１１－３",
    "lat": 33.1708955367009,
    "lng": 129.701884312936,
    "tel": "0956-37-0555",
    "url": "",
    "pref": "長崎県",
    "city": "佐世保市",
    "category": "day_service",
    "serviceType": "通所介護",
    "capacity": 0,
    "openDays": [
      "平日",
      "祝日"
    ],
    "openDaysNote": "特になし"
  },
  {
    "id": "4270205380",
    "name": "共生型通所介護事業所　デイサービス　ウイロー",
    "kana": "キョウセイガタ　ツウショカイゴ　ジギョウショ　デイサービス　ウィロー",
    "address": "長崎県佐世保市柚木町1540番地",
    "lat": 33.2103168000001,
    "lng": 129.7602441,
    "tel": "0956-88-7517",
    "url": "",
    "pref": "長崎県",
    "city": "佐世保市",
    "category": "day_service",
    "serviceType": "通所介護",
    "capacity": 20,
    "openDays": [
      "平日",
      "祝日"
    ],
    "openDaysNote": "お盆（8/13～8/15）、年末年始（12/29～1/3）閉所"
  },
  {
    "id": "4270205463",
    "name": "共生型通所介護事業所おおきな木",
    "kana": "キョウセイガタツウショカイゴジギョウショオオキナキ",
    "address": "長崎県佐世保市木宮町４番１２号",
    "lat": 33.1952742,
    "lng": 129.6669551,
    "tel": "0956-59-8822",
    "url": "http://kinomiyakai.or.jp",
    "pref": "長崎県",
    "city": "佐世保市",
    "category": "day_service",
    "serviceType": "通所介護",
    "capacity": 20,
    "openDays": [
      "平日"
    ],
    "openDaysNote": ""
  },
  {
    "id": "4270200399",
    "name": "光の子デイサービスセンター",
    "kana": "ヒカリノコデイサービスセンター",
    "address": "長崎県佐世保市上749－1",
    "lat": 33.1590046,
    "lng": 129.7514419,
    "tel": "0956-39-3230",
    "url": "http://www.hikarinoko-fukushikai.or.jp/care/sisetu/dayservice/index.html",
    "pref": "長崎県",
    "city": "佐世保市",
    "category": "day_service",
    "serviceType": "通所介護",
    "capacity": null,
    "openDays": [
      "平日"
    ],
    "openDaysNote": ""
  },
  {
    "id": "4270202643",
    "name": "佐世保市社協　吉井通所介護事業所",
    "kana": "サセボシシャキョウ　ヨシイツウショカイゴジギョウショ",
    "address": "長崎県佐世保市吉井町橋川内570-4",
    "lat": 33.2691027451271,
    "lng": 129.717887415391,
    "tel": "0956-64-311８",
    "url": "http://www.sasebo-shakyo.or.jp",
    "pref": "長崎県",
    "city": "佐世保市",
    "category": "day_service",
    "serviceType": "通所介護",
    "capacity": 0,
    "openDays": [
      "平日",
      "土曜日",
      "祝日"
    ],
    "openDaysNote": "特別の需要がある場合にはこの限りではありません"
  },
  {
    "id": "4270203831",
    "name": "佐世保市社協　江迎・鹿町通所介護事業所",
    "kana": "サセボシシャキョウ　エムカエシカマチツウショカイゴジギョウショ",
    "address": "長崎県佐世保市鹿町町深江潟96-1佐世保市社会福祉協議会　江迎・鹿町介護事業所 佐世保市社会福祉協議会　江迎・鹿町介護事業所",
    "lat": 33.306936,
    "lng": 129.624836,
    "tel": "0956-66-3355",
    "url": "http://www.sasebo-shakyo.or.jp/",
    "pref": "長崎県",
    "city": "佐世保市",
    "category": "day_service",
    "serviceType": "通所介護",
    "capacity": 0,
    "openDays": [
      "平日",
      "土曜日",
      "祝日"
    ],
    "openDaysNote": ""
  },
  {
    "id": "4271501258",
    "name": "佐世保市社協　小佐々通所介護事業所",
    "kana": "サセボシシャキョウ　コサザツウショカイゴジギョウショ",
    "address": "長崎県佐世保市小佐々町楠泊1530番地3",
    "lat": 33.2193101,
    "lng": 129.5848913,
    "tel": "0956-41-5050",
    "url": "http://www.sasebo-shakyo.or.jp/kosazakaigo/",
    "pref": "長崎県",
    "city": "佐世保市",
    "category": "day_service",
    "serviceType": "通所介護",
    "capacity": 50,
    "openDays": [
      "平日",
      "土曜日",
      "祝日"
    ],
    "openDaysNote": ""
  },
  {
    "id": "4270202676",
    "name": "佐世保市社協　世知原通所介護事業所",
    "kana": "サセボシシャキョウ　セチバルツウショカイゴジギョウショ",
    "address": "長崎県佐世保市世知原町栗迎83番地5",
    "lat": 33.2553172,
    "lng": 129.7498418,
    "tel": "0956-76-2279",
    "url": "http://www.sasebo-shakyo.or.jp/sechibarukaigo/",
    "pref": "長崎県",
    "city": "佐世保市",
    "category": "day_service",
    "serviceType": "通所介護",
    "capacity": 0,
    "openDays": [
      "平日",
      "土曜日",
      "祝日"
    ],
    "openDaysNote": "電話により24時間連絡が可能な体制とする"
  },
  {
    "id": "4271501266",
    "name": "佐世保市社協宇久通所介護事業所",
    "kana": "サセボシシャキョウウクツウショカイゴジギョウショ",
    "address": "長崎県佐世保市宇久町平1904番地1",
    "lat": 33.2654641,
    "lng": 129.1276792,
    "tel": "0959-57-3688",
    "url": "",
    "pref": "長崎県",
    "city": "佐世保市",
    "category": "day_service",
    "serviceType": "通所介護",
    "capacity": 0,
    "openDays": [
      "平日",
      "土曜日",
      "祝日"
    ],
    "openDaysNote": ""
  },
  {
    "id": "4270203492",
    "name": "社会医療法人財団　白十字会　ドリームケアハウステンボス町",
    "kana": "シャカイイリョウホウジンザイダン　ハクジュウジカイ　ドリームケア　ハウステンボスチョウ",
    "address": "長崎県佐世保市ハウステンボス町4-52ブルーメンダールマンションB棟106・107号 ブルーメンダールマンションB棟106・107号",
    "lat": 33.09126397123,
    "lng": 129.788780575014,
    "tel": "0956-37-8131",
    "url": "http://www.hakujyujikai.or.jp",
    "pref": "長崎県",
    "city": "佐世保市",
    "category": "day_service",
    "serviceType": "通所介護",
    "capacity": 0,
    "openDays": [
      "平日",
      "土曜日"
    ],
    "openDaysNote": ""
  },
  {
    "id": "4270203070",
    "name": "社会医療法人財団　白十字会　ドリームケア矢峰",
    "kana": "シャカイイリョウホウジンザイダン　ハクジュウジカイ　ドリームケア　ヤミネ",
    "address": "長崎県佐世保市矢峰町153番地",
    "lat": 33.2118252,
    "lng": 129.743675,
    "tel": "0956-42-8760",
    "url": "http://www.hakujyujikai.or.jp/dream/",
    "pref": "長崎県",
    "city": "佐世保市",
    "category": "day_service",
    "serviceType": "通所介護",
    "capacity": 0,
    "openDays": [
      "平日",
      "土曜日",
      "祝日"
    ],
    "openDaysNote": ""
  },
  {
    "id": "4270200472",
    "name": "社会福祉法人　幼老育成会　デイサービスセンター和楽園",
    "kana": "シャカイフクシホウジン　ヨウロウイクセイカイ　デイサービスセンターワラクエン",
    "address": "長崎県佐世保市花園町２０５番３３",
    "lat": 33.1821401,
    "lng": 129.7222287,
    "tel": "デイサービス直通0956-",
    "url": "",
    "pref": "長崎県",
    "city": "佐世保市",
    "category": "day_service",
    "serviceType": "通所介護",
    "capacity": 20,
    "openDays": [
      "平日",
      "土曜日",
      "祝日"
    ],
    "openDaysNote": "天候不良（大雨、雪等）により送迎ができない、又は危険を伴う場合は営業を中止する場合がある。"
  },
  {
    "id": "4270200225",
    "name": "社会福祉法人アソカ仁寿会　あそかのもり",
    "kana": "シャカイフクシホウジンアソカジンジュカイ　アソカノモリ",
    "address": "長崎県佐世保市松瀬町1150番地",
    "lat": 33.2197703406363,
    "lng": 129.731240928836,
    "tel": "0956-49-6336",
    "url": "https://www.asoka-sasebo.com/",
    "pref": "長崎県",
    "city": "佐世保市",
    "category": "day_service",
    "serviceType": "通所介護",
    "capacity": 35,
    "openDays": [
      "平日",
      "土曜日",
      "祝日"
    ],
    "openDaysNote": ""
  },
  {
    "id": "4270204003",
    "name": "早稲田イーライフ相浦",
    "kana": "ワセダイーライフアイノウラ",
    "address": "長崎県佐世保市椎木町436番地１",
    "lat": 33.1784514,
    "lng": 129.667801,
    "tel": "0956-76-9415",
    "url": "ｓe-life-ainoura.com",
    "pref": "長崎県",
    "city": "佐世保市",
    "category": "day_service",
    "serviceType": "通所介護",
    "capacity": 35,
    "openDays": [
      "平日"
    ],
    "openDaysNote": "月曜日、午後は、介護サービスは休止、施設、会議、研修、訓練、勉強会の実施、また地域住民の方への介護予防教室の実施"
  },
  {
    "id": "4270200829",
    "name": "通所介護事業所　サンホーム江上",
    "kana": "ツウショカイゴジギョウショ　サンホームエガミ",
    "address": "長崎県佐世保市江上町4847-6",
    "lat": 33.069829454101,
    "lng": 129.783967262429,
    "tel": "0956-58-7815",
    "url": "http://koujukai.or.jp/",
    "pref": "長崎県",
    "city": "佐世保市",
    "category": "day_service",
    "serviceType": "通所介護",
    "capacity": 0,
    "openDays": [
      "平日",
      "土曜日",
      "祝日"
    ],
    "openDaysNote": "天候・災害の状況でサービスを中止する場合があります。"
  },
  {
    "id": "4270202015",
    "name": "通所介護事業所　チューリップ",
    "kana": "ツウショカイゴジギョウショ　チューリップ",
    "address": "佐世保市黒髪町３７２９番地2",
    "lat": 33.173423,
    "lng": 129.7747415,
    "tel": "0956-20-8800",
    "url": "http://www.tulip.or.jp",
    "pref": "長崎県",
    "city": "佐世保市",
    "category": "day_service",
    "serviceType": "通所介護",
    "capacity": 32,
    "openDays": [
      "平日",
      "土曜日",
      "祝日"
    ],
    "openDaysNote": ""
  },
  {
    "id": "4270204797",
    "name": "通所介護事業所　やまずみ荘",
    "kana": "ツウショカイゴジギョウショ　ヤマズミソウ",
    "address": "山祇町３８８番地",
    "lat": 33.1687472,
    "lng": 129.7327448,
    "tel": "0956-34-8000",
    "url": "http://www.yamazumiso.or.jp",
    "pref": "長崎県",
    "city": "佐世保市",
    "category": "day_service",
    "serviceType": "通所介護",
    "capacity": 0,
    "openDays": [
      "平日",
      "土曜日",
      "日曜日",
      "祝日"
    ],
    "openDaysNote": "なし。"
  },
  {
    "id": "4270205190",
    "name": "通所介護事業所ハート・らんど",
    "kana": "ツウショカイゴジギョウショハート・ランド",
    "address": "長崎県佐世保市大潟町５０番地１障害者支援施設にじいろ 障害者支援施設にじいろ",
    "lat": 33.185522773104,
    "lng": 129.662152314156,
    "tel": "0956-59-5552",
    "url": "info@niji-iro.or.jp",
    "pref": "長崎県",
    "city": "佐世保市",
    "category": "day_service",
    "serviceType": "通所介護",
    "capacity": null,
    "openDays": [
      "平日",
      "祝日"
    ],
    "openDaysNote": "年末年始（12/29～1/3）の休みは利用者の入浴等を加味し多少の変更有。"
  },
  {
    "id": "4270200548",
    "name": "白寿荘　通所介護事業所",
    "kana": "ハクジュソウ　ツウショカイゴジギョウショ",
    "address": "長崎県佐世保市鹿子前町904-1",
    "lat": 33.1618836,
    "lng": 129.6847803,
    "tel": "0956-28-6722",
    "url": "http://www.hakuzyusou.or.jp",
    "pref": "長崎県",
    "city": "佐世保市",
    "category": "day_service",
    "serviceType": "通所介護",
    "capacity": 35,
    "openDays": [
      "平日",
      "土曜日",
      "祝日"
    ],
    "openDaysNote": "天候不良または交通事情等により臨時休業する場合がございます。"
  },
  {
    "id": "4270202288",
    "name": "有限会社　金崎介護保険事業所　デイサービスさきわい",
    "kana": "ユウゲンガイシャ　カナサキカイゴホケンジギョウショ　デイサービスサキワイ",
    "address": "長崎県佐世保市小佐々町平原７４－１４",
    "lat": 33.2368897,
    "lng": 129.6157277,
    "tel": "0956-68-3450",
    "url": "",
    "pref": "長崎県",
    "city": "佐世保市",
    "category": "day_service",
    "serviceType": "通所介護",
    "capacity": 0,
    "openDays": [
      "平日",
      "土曜日",
      "祝日"
    ],
    "openDaysNote": "緊急時は対応する。"
  },
  {
    "id": "4271103386",
    "name": "デイサービスいろどり",
    "kana": "デイサービスイロドリ",
    "address": "長崎県西彼杵郡時津町浜田郷196-5マルイチビル１階 マルイチビル１階",
    "lat": 32.8318717,
    "lng": 129.8560432,
    "tel": "095-881-3900",
    "url": "http://hp.kaipoke.biz/8s0/",
    "pref": "長崎県",
    "city": "時津町",
    "category": "day_service",
    "serviceType": "通所介護",
    "capacity": null,
    "openDays": [
      "平日",
      "土曜日",
      "祝日"
    ],
    "openDaysNote": ""
  },
  {
    "id": "4271102644",
    "name": "デイサービスセンターひなみ",
    "kana": "デイサービスセンターヒナミ",
    "address": "長崎県西彼杵郡時津町日並郷1915番地3",
    "lat": 32.8452199,
    "lng": 129.8226509,
    "tel": "095-882-6780",
    "url": "",
    "pref": "長崎県",
    "city": "時津町",
    "category": "day_service",
    "serviceType": "通所介護",
    "capacity": 0,
    "openDays": [
      "平日",
      "土曜日",
      "祝日"
    ],
    "openDaysNote": ""
  },
  {
    "id": "4271102545",
    "name": "デイサービスセンター井手園",
    "kana": "デイサービスセンターイデゾノ",
    "address": "長崎県西彼杵郡時津町元村郷８９７",
    "lat": 32.8194673816417,
    "lng": 129.846559857672,
    "tel": "095-814-2777",
    "url": "http://keiseikai.biz/index.php",
    "pref": "長崎県",
    "city": "時津町",
    "category": "day_service",
    "serviceType": "通所介護",
    "capacity": 30,
    "openDays": [
      "平日"
    ],
    "openDaysNote": ""
  },
  {
    "id": "4271102727",
    "name": "デイサービスとぎつ千年堂",
    "kana": "デイサービストギツセンネンドウ",
    "address": "長崎県西彼杵郡時津町浜田郷143-4",
    "lat": 32.8310045,
    "lng": 129.8530381,
    "tel": "095-801-7447",
    "url": "www.justmystage.com/home/snowman",
    "pref": "長崎県",
    "city": "時津町",
    "category": "day_service",
    "serviceType": "通所介護",
    "capacity": 15,
    "openDays": [
      "平日",
      "土曜日",
      "祝日"
    ],
    "openDaysNote": ""
  },
  {
    "id": "4271101539",
    "name": "鍬先医院デイサービス",
    "kana": "クワサキイインデイサービス",
    "address": "長崎県西彼杵郡時津町日並郷1764-7",
    "lat": 32.8451336,
    "lng": 129.8176957,
    "tel": "095-882-7511",
    "url": "http://www.kuwasaki-clinic.com/",
    "pref": "長崎県",
    "city": "時津町",
    "category": "day_service",
    "serviceType": "通所介護",
    "capacity": 0,
    "openDays": [
      "平日",
      "土曜日",
      "祝日"
    ],
    "openDaysNote": ""
  },
  {
    "id": "4271100309",
    "name": "時津荘デイサービスセンター",
    "kana": "トギツソウデイサービスセンター",
    "address": "長崎県西彼杵郡時津町西時津郷1235番地",
    "lat": 32.8458757,
    "lng": 129.8560347,
    "tel": "095-882-0123",
    "url": "http://www.togitsukai.jp",
    "pref": "長崎県",
    "city": "時津町",
    "category": "day_service",
    "serviceType": "通所介護",
    "capacity": 25,
    "openDays": [
      "平日",
      "土曜日",
      "祝日"
    ],
    "openDaysNote": ""
  },
  {
    "id": "4271100242",
    "name": "社会福祉法人　時津町社会福祉協議会　通所介護事業所",
    "kana": "シャカイフクシホウジン　トギツチョウシャカイフクシキョウギカイ　ツウショカイゴジギョウショ",
    "address": "長崎県西彼杵郡時津町左底郷３６７番地時津町総合福祉センター1階 時津町総合福祉センター1階",
    "lat": 32.8304575,
    "lng": 129.8361276,
    "tel": "095-881-7599",
    "url": "http://www.togitsu-shakyo.org/",
    "pref": "長崎県",
    "city": "時津町",
    "category": "day_service",
    "serviceType": "通所介護",
    "capacity": 0,
    "openDays": [
      "平日",
      "土曜日"
    ],
    "openDaysNote": ""
  },
  {
    "id": "4271103352",
    "name": "千楽ステーション",
    "kana": "チラクステーション",
    "address": "長崎県西彼杵郡時津町子々川郷８８７番地１",
    "lat": 32.8602549,
    "lng": 129.8034934,
    "tel": "095-807-5113",
    "url": "",
    "pref": "長崎県",
    "city": "時津町",
    "category": "day_service",
    "serviceType": "通所介護",
    "capacity": 0,
    "openDays": [
      "平日",
      "祝日"
    ],
    "openDaysNote": ""
  },
  {
    "id": "4271500243",
    "name": "小値賀町社会福祉協議会",
    "kana": "オヂカチョウシャカイフクシキョウギカイ",
    "address": "長崎県北松浦郡小値賀町笛吹郷２３６７番地小値賀町地域福祉センター 小値賀町地域福祉センター",
    "lat": 33.1912166,
    "lng": 129.0580577,
    "tel": "0959-56-4193",
    "url": "ojika-syakyo.jp",
    "pref": "長崎県",
    "city": "小値賀町",
    "category": "day_service",
    "serviceType": "通所介護",
    "capacity": 30,
    "openDays": [
      "平日",
      "土曜日",
      "祝日"
    ],
    "openDaysNote": "台風及び降雪等の天候不良の場合、送迎が困難になる為休業する時があります。"
  },
  {
    "id": "4270800099",
    "name": "指定通所介護事業所　愛光園",
    "kana": "シテイツウショカイゴジギョウショ　アイコウエン",
    "address": "長崎県松浦市志佐町浦免270番地",
    "lat": 33.3453427,
    "lng": 129.7174798,
    "tel": "0956-72-0863",
    "url": "",
    "pref": "長崎県",
    "city": "松浦市",
    "category": "day_service",
    "serviceType": "通所介護",
    "capacity": 0,
    "openDays": [
      "平日",
      "土曜日",
      "祝日"
    ],
    "openDaysNote": ""
  },
  {
    "id": "4271500367",
    "name": "社会福祉法人福島福祉会　いろは島荘デイサービス事業所",
    "kana": "シャカイフクシホウジンフクシマフクシカイ　イロハジマソウデイサービスジギョウショ",
    "address": "長崎県松浦市福島町塩浜免3002番地",
    "lat": 33.3657634,
    "lng": 129.8236325,
    "tel": "0955-47-4611",
    "url": "http://www.irohajimasou.com",
    "pref": "長崎県",
    "city": "松浦市",
    "category": "day_service",
    "serviceType": "通所介護",
    "capacity": 0,
    "openDays": [
      "平日",
      "祝日"
    ],
    "openDaysNote": "通常月曜日から金曜日まで。ただし、12月31日から1月3日は除く。"
  },
  {
    "id": "4270800495",
    "name": "松浦市社協松浦支所通所介護事業所",
    "kana": "マツウラシシャキョウマツウラシショツウショカイゴジギョウショ",
    "address": "長崎県松浦市志佐町里免３４７番地４松浦市市民福祉総合プラザ・２階 松浦市市民福祉総合プラザ・２階",
    "lat": 33.34136545962,
    "lng": 129.708946422754,
    "tel": "0956-72-0788",
    "url": "http://www.matsuura-shakyo.com",
    "pref": "長崎県",
    "city": "松浦市",
    "category": "day_service",
    "serviceType": "通所介護",
    "capacity": 0,
    "openDays": [
      "平日"
    ],
    "openDaysNote": "なし"
  },
  {
    "id": "4271501183",
    "name": "松浦市社協鷹島支所通所介護事業所",
    "kana": "マツウラシシャキョウタカシマシショツウショカイゴジギョウショ",
    "address": "長崎県松浦市鷹島町神崎免137番地1松浦市高齢者生活福祉センター 松浦市高齢者生活福祉センター",
    "lat": 33.436196,
    "lng": 129.7610739,
    "tel": "0955-48-3505",
    "url": "https://www.matsuura-shakyo.com/",
    "pref": "長崎県",
    "city": "松浦市",
    "category": "day_service",
    "serviceType": "通所介護",
    "capacity": 0,
    "openDays": [
      "平日"
    ],
    "openDaysNote": ""
  },
  {
    "id": "4271601405",
    "name": "デイサービスセンターたかのしの杜",
    "kana": "デイサービスセンタータカノシノ杜",
    "address": "長崎県南松浦郡新上五島町奈摩郷379-1",
    "lat": 33.017485,
    "lng": 129.0669435,
    "tel": "0959-42-5133",
    "url": "https://www.sinkamigoto.net/",
    "pref": "長崎県",
    "city": "新上五島町",
    "category": "day_service",
    "serviceType": "通所介護",
    "capacity": 0,
    "openDays": [
      "平日",
      "土曜日",
      "日曜日",
      "祝日"
    ],
    "openDaysNote": "365日開設を実施"
  },
  {
    "id": "4271601090",
    "name": "デイサービスセンター上五島",
    "kana": "デイサービスセンターカミゴトウ",
    "address": "長崎県南松浦郡新上五島町青方郷1379番地1",
    "lat": 32.9850695,
    "lng": 129.0685549,
    "tel": "0959-52-2593",
    "url": "",
    "pref": "長崎県",
    "city": "新上五島町",
    "category": "day_service",
    "serviceType": "通所介護",
    "capacity": 0,
    "openDays": [
      "平日",
      "祝日"
    ],
    "openDaysNote": ""
  },
  {
    "id": "4271601488",
    "name": "新上五島デイサービスセンター",
    "kana": "シンカミゴトウデイサービスセンター",
    "address": "長崎県南松浦郡新上五島町奈摩郷910番地10",
    "lat": 33.0178371,
    "lng": 129.0733502,
    "tel": "0959-43-1188",
    "url": "https://www.sinkamigoto.net/",
    "pref": "長崎県",
    "city": "新上五島町",
    "category": "day_service",
    "serviceType": "通所介護",
    "capacity": null,
    "openDays": [
      "平日",
      "土曜日",
      "日曜日",
      "祝日"
    ],
    "openDaysNote": "365日開設"
  },
  {
    "id": "4271600217",
    "name": "通所介護事業所　つつじが丘",
    "kana": "ツウショカイゴジギョウショ　ツツジガオカ",
    "address": "長崎県南松浦郡新上五島町有川郷２３６９-１",
    "lat": 32.9800434,
    "lng": 129.1099692,
    "tel": "0959-42-0705",
    "url": "http//syuhoukai.jp/",
    "pref": "長崎県",
    "city": "新上五島町",
    "category": "day_service",
    "serviceType": "通所介護",
    "capacity": 0,
    "openDays": [
      "平日",
      "土曜日",
      "祝日"
    ],
    "openDaysNote": ""
  },
  {
    "id": "4271600936",
    "name": "奈良尾デイサービスセンターしおさい",
    "kana": "ナラオデイサービスセンターシオサイ",
    "address": "長崎県南松浦郡新上五島町奈良尾郷字新港1０６９番地１",
    "lat": 32.8485226,
    "lng": 129.0558325,
    "tel": "0959-44-1015",
    "url": "",
    "pref": "長崎県",
    "city": "新上五島町",
    "category": "day_service",
    "serviceType": "通所介護",
    "capacity": 0,
    "openDays": [
      "平日",
      "祝日"
    ],
    "openDaysNote": ""
  },
  {
    "id": "4271600175",
    "name": "芳寿荘",
    "kana": "ホウジュソウ",
    "address": "長崎県南松浦郡新上五島町今里郷６１０番地",
    "lat": 32.9474339,
    "lng": 129.0363866,
    "tel": "0959-52-2501",
    "url": "http://www.houjusou.net/index.html",
    "pref": "長崎県",
    "city": "新上五島町",
    "category": "day_service",
    "serviceType": "通所介護",
    "capacity": 0,
    "openDays": [
      "平日",
      "祝日"
    ],
    "openDaysNote": ""
  },
  {
    "id": "4272300163",
    "name": "西海市社協おおさきデイサービスセンター",
    "kana": "サイカイシシャキョウオオサキデイサービスセンター",
    "address": "長崎県西海市崎戸町蛎浦郷2060番地7",
    "lat": 33.0207556,
    "lng": 129.5645317,
    "tel": "0959-35-2828",
    "url": "https://www.shakyo-saikai.jp/",
    "pref": "長崎県",
    "city": "西海市",
    "category": "day_service",
    "serviceType": "通所介護",
    "capacity": 0,
    "openDays": [
      "平日",
      "土曜日",
      "祝日"
    ],
    "openDaysNote": ""
  },
  {
    "id": "4272300031",
    "name": "西海市社協おおせとデイサービスセンター",
    "kana": "サイカイシシャキョウオオセトデイサービスセンター",
    "address": "長崎県西海市大瀬戸町多以良内郷４３４番地２大瀬戸社会福祉センター 大瀬戸社会福祉センター",
    "lat": 32.9587901215037,
    "lng": 129.644969903819,
    "tel": "0959-37-0543",
    "url": "https://www.shakyo-saikai.jp/",
    "pref": "長崎県",
    "city": "西海市",
    "category": "day_service",
    "serviceType": "通所介護",
    "capacity": 33,
    "openDays": [
      "平日",
      "土曜日",
      "祝日"
    ],
    "openDaysNote": "特になし"
  },
  {
    "id": "4272300106",
    "name": "西海市社協さいかいデイサービスセンター",
    "kana": "サイカイシシャキョウサイカイデイサービスセンター",
    "address": "長崎県西海市西海町1477番地１",
    "lat": 33.0620271063017,
    "lng": 129.677751854115,
    "tel": "0959-32-1922",
    "url": "https://www.shakyo-saikai.jp/",
    "pref": "長崎県",
    "city": "西海市",
    "category": "day_service",
    "serviceType": "通所介護",
    "capacity": 50,
    "openDays": [
      "平日",
      "土曜日",
      "祝日"
    ],
    "openDaysNote": ""
  },
  {
    "id": "4272300064",
    "name": "西海市社協せいひデイサービスセンター",
    "kana": "サイカイシシャキョウセイヒデイサービスセンター",
    "address": "長崎県西海市西彼町鳥加郷２２１８番地",
    "lat": 32.9901209474402,
    "lng": 129.74820728214,
    "tel": "0959-29-7102",
    "url": "https://www.shakyo-saikai.jp/",
    "pref": "長崎県",
    "city": "西海市",
    "category": "day_service",
    "serviceType": "通所介護",
    "capacity": 40,
    "openDays": [
      "平日",
      "土曜日",
      "祝日"
    ],
    "openDaysNote": ""
  },
  {
    "id": "4271201016",
    "name": "コンパスウォーク川棚",
    "kana": "コンパスウォ-クカワタナ",
    "address": "長崎県東彼杵郡川棚町栄町37番地1",
    "lat": 33.069993,
    "lng": 129.8624676,
    "tel": "0956-37-8182",
    "url": "keigo-group-kyushu.co.jp",
    "pref": "長崎県",
    "city": "川棚町",
    "category": "day_service",
    "serviceType": "通所介護",
    "capacity": 0,
    "openDays": [
      "平日",
      "祝日"
    ],
    "openDaysNote": ""
  },
  {
    "id": "4271200877",
    "name": "ハッピーガーデン川棚　デイサービスセンター",
    "kana": "ハッピーガーデンカワタナ　デイサービスセンター",
    "address": "長崎県東彼杵郡川棚町城山町122番地1",
    "lat": 33.0703927,
    "lng": 129.8696045,
    "tel": "0956-82-5850",
    "url": "http://hg-kawatana.com/",
    "pref": "長崎県",
    "city": "川棚町",
    "category": "day_service",
    "serviceType": "通所介護",
    "capacity": 30,
    "openDays": [
      "平日",
      "土曜日",
      "祝日"
    ],
    "openDaysNote": ""
  },
  {
    "id": "4271200968",
    "name": "一般社団法人正和会　デイサービスセンターだんらん",
    "kana": "イッパンシャダンホウジンセイワカイ　デイサービスセンターダンラン",
    "address": "長崎県東彼杵郡川棚町下組郷397番地",
    "lat": 33.0698214,
    "lng": 129.8582174,
    "tel": "0956-20-6825",
    "url": "http://seiwasmile.com",
    "pref": "長崎県",
    "city": "川棚町",
    "category": "day_service",
    "serviceType": "通所介護",
    "capacity": 0,
    "openDays": [
      "平日",
      "土曜日",
      "祝日"
    ],
    "openDaysNote": ""
  },
  {
    "id": "4271200976",
    "name": "一般社団法人正和会　デイサービスセンター和家",
    "kana": "イッパンシャダンホウジンセイワカイ　デイサービスセンターワカ",
    "address": "長崎県東彼杵郡川棚町中組郷1292番地1",
    "lat": 33.0726705,
    "lng": 129.8650975,
    "tel": "0956-27-7878",
    "url": "http://seiwasmile.com",
    "pref": "長崎県",
    "city": "川棚町",
    "category": "day_service",
    "serviceType": "通所介護",
    "capacity": 0,
    "openDays": [
      "平日",
      "土曜日",
      "祝日"
    ],
    "openDaysNote": ""
  },
  {
    "id": "4271200091",
    "name": "川棚町社会福祉協議会通所介護事業所",
    "kana": "カワタナチョウシャカイフクシキョウギカイツウショカイゴジギョウショ",
    "address": "長崎県東彼杵郡川棚町下組郷338番地57",
    "lat": 33.0641879,
    "lng": 129.858965,
    "tel": "0956-82-2121",
    "url": "",
    "pref": "長崎県",
    "city": "川棚町",
    "category": "day_service",
    "serviceType": "通所介護",
    "capacity": 0,
    "openDays": [
      "平日",
      "土曜日",
      "祝日"
    ],
    "openDaysNote": ""
  },
  {
    "id": "4271800114",
    "name": "デイサービスセンター　しらたけ",
    "kana": "デイサービスセンター　シラタケ",
    "address": "長崎県対馬市美津島町鶏知乙1168-1",
    "lat": 34.2850022,
    "lng": 129.3184084,
    "tel": "0920-54-9620",
    "url": "http://asuka-fukushi.or.jp",
    "pref": "長崎県",
    "city": "対馬市",
    "category": "day_service",
    "serviceType": "通所介護",
    "capacity": 0,
    "openDays": [
      "平日",
      "祝日"
    ],
    "openDaysNote": ""
  },
  {
    "id": "4271800130",
    "name": "デイサービスセンター　つばき園",
    "kana": "デイサービスセンター　ツバキエン",
    "address": "長崎県対馬市厳原町豆酘６３１－９",
    "lat": 34.1199228344692,
    "lng": 129.185702741139,
    "tel": "0920-57-1005",
    "url": "http://asuka-fukushi.or.jp",
    "pref": "長崎県",
    "city": "対馬市",
    "category": "day_service",
    "serviceType": "通所介護",
    "capacity": 30,
    "openDays": [
      "平日",
      "祝日"
    ],
    "openDaysNote": ""
  },
  {
    "id": "4271800122",
    "name": "デイサービスセンターあすか園",
    "kana": "デイサービスセンターアスカエン",
    "address": "長崎県対馬市厳原町下原434番地5",
    "lat": 34.2284091,
    "lng": 129.2225091,
    "tel": "0920-56-0722",
    "url": "http://asuka-fukushi.or.jp/",
    "pref": "長崎県",
    "city": "対馬市",
    "category": "day_service",
    "serviceType": "通所介護",
    "capacity": 0,
    "openDays": [
      "平日",
      "祝日"
    ],
    "openDaysNote": ""
  },
  {
    "id": "4271800304",
    "name": "デイサービスセンターおふなえ",
    "kana": "デイサービスセンターオフナエ",
    "address": "長崎県対馬市厳原町久田737-21総合福祉センターお船江の里 総合福祉センターお船江の里",
    "lat": 34.1876109,
    "lng": 129.2852684,
    "tel": "0920-52-9070",
    "url": "http://asuka-fukushi.or.jp/",
    "pref": "長崎県",
    "city": "対馬市",
    "category": "day_service",
    "serviceType": "通所介護",
    "capacity": 40,
    "openDays": [
      "平日",
      "土曜日",
      "祝日"
    ],
    "openDaysNote": "台風などの悪天候の場合、利用者の安全を第一としておりますので、休業させていただく場合がございます。"
  },
  {
    "id": "4271900062",
    "name": "社会福祉法人幸生会老人デイサービスセンター峰幸園通所介護事業所",
    "kana": "シャカイフクシホウジンコウセイカイロウジンデイサービスセンターホウコウエンツウショカイゴジギョウショ",
    "address": "長崎県対馬市峰町三根６５番地",
    "lat": 34.4693409169567,
    "lng": 129.312645605557,
    "tel": "0920-83-0476",
    "url": "http://www.koseikai.or.jp/",
    "pref": "長崎県",
    "city": "対馬市",
    "category": "day_service",
    "serviceType": "通所介護",
    "capacity": 25,
    "openDays": [
      "平日",
      "土曜日",
      "祝日"
    ],
    "openDaysNote": ""
  },
  {
    "id": "4272000573",
    "name": "長崎県対馬市厳原町内山59番地28",
    "kana": "ナガサキケンツシマシイヅハラマチウチヤマ",
    "address": "長崎県対馬市厳原町内山59番地28",
    "lat": 34.1586913,
    "lng": 129.2234511,
    "tel": "0920-57-1200",
    "url": "",
    "pref": "長崎県",
    "city": "対馬市",
    "category": "day_service",
    "serviceType": "通所介護",
    "capacity": 0,
    "openDays": [
      "平日",
      "祝日"
    ],
    "openDaysNote": ""
  },
  {
    "id": "4272000623",
    "name": "通所介護サービス事業所　なるたき園",
    "kana": "ツウショカイゴサービスジギョウショ　ナルタキエン",
    "address": "長崎県対馬市上対馬町玖須647番地",
    "lat": 34.630732,
    "lng": 129.443073,
    "tel": "0920-86-2700",
    "url": "http://www.sun.tcctv.ne.jp/keichoukai/",
    "pref": "長崎県",
    "city": "対馬市",
    "category": "day_service",
    "serviceType": "通所介護",
    "capacity": 0,
    "openDays": [
      "平日",
      "祝日"
    ],
    "openDaysNote": ""
  },
  {
    "id": "4271800205",
    "name": "豊生園通所介護事業所",
    "kana": "ホウセイエンツウショカイゴジギョウショ",
    "address": "長崎県対馬市豊玉町仁位91番地3",
    "lat": 34.3880885,
    "lng": 129.3135741,
    "tel": "0920-58-1770",
    "url": "http://www.koseikai.or.jp",
    "pref": "長崎県",
    "city": "対馬市",
    "category": "day_service",
    "serviceType": "通所介護",
    "capacity": 10,
    "openDays": [
      "平日",
      "土曜日",
      "祝日"
    ],
    "openDaysNote": ""
  },
  {
    "id": "4270501242",
    "name": "ツクイ大村",
    "kana": "ツクイオオムラ",
    "address": "長崎県大村市協和町704-3",
    "lat": 32.9194353,
    "lng": 129.9449307,
    "tel": "0957-48-7575",
    "url": "http://www.tsukui.net/",
    "pref": "長崎県",
    "city": "大村市",
    "category": "day_service",
    "serviceType": "通所介護",
    "capacity": 33,
    "openDays": [
      "平日",
      "土曜日",
      "日曜日",
      "祝日"
    ],
    "openDaysNote": "GW、お盆、正月も休まず運営しています。"
  },
  {
    "id": "4270500749",
    "name": "デイサービス　レインボー",
    "kana": "デイサービス　レインボー",
    "address": "長崎県大村市黒丸町1653番地1",
    "lat": 32.9512573,
    "lng": 129.9401136,
    "tel": "0957-55-6711",
    "url": "",
    "pref": "長崎県",
    "city": "大村市",
    "category": "day_service",
    "serviceType": "通所介護",
    "capacity": 20,
    "openDays": [
      "平日",
      "祝日"
    ],
    "openDaysNote": "営業時間　月～金　　土日休み（改行）月～金の祝日は営業"
  },
  {
    "id": "4270502125",
    "name": "デイサービスきらり",
    "kana": "デイサービス　キラリ",
    "address": "長崎県大村市上諏訪町1259番地15",
    "lat": 32.9235159,
    "lng": 129.9708356,
    "tel": "0957-42-8001",
    "url": "https://virie-lcc.com/",
    "pref": "長崎県",
    "city": "大村市",
    "category": "day_service",
    "serviceType": "通所介護",
    "capacity": 20,
    "openDays": [
      "平日",
      "土曜日",
      "祝日"
    ],
    "openDaysNote": ""
  },
  {
    "id": "4270501739",
    "name": "デイサービスすわの杜樂苑",
    "kana": "デイサービススワノモリガクエン",
    "address": "長崎県大村市諏訪1丁目605番地",
    "lat": 32.9263197080112,
    "lng": 129.963621314585,
    "tel": "0957-52-5230",
    "url": "https://jijibaba-net.com",
    "pref": "長崎県",
    "city": "大村市",
    "category": "day_service",
    "serviceType": "通所介護",
    "capacity": 0,
    "openDays": [
      "平日",
      "土曜日",
      "祝日"
    ],
    "openDaysNote": ""
  },
  {
    "id": "4270500160",
    "name": "デイサービスセンター　めぐみ荘",
    "kana": "デイサービスセンター　メグミソウ",
    "address": "長崎県大村市中里町180-1",
    "lat": 32.8890804,
    "lng": 130.0014609,
    "tel": "0957-53-2008",
    "url": "",
    "pref": "長崎県",
    "city": "大村市",
    "category": "day_service",
    "serviceType": "通所介護",
    "capacity": 0,
    "openDays": [
      "平日",
      "土曜日"
    ],
    "openDaysNote": ""
  },
  {
    "id": "4270501283",
    "name": "デイサービスセンター　らく元",
    "kana": "デイサービスセンター　ラクゲン",
    "address": "長崎県大村市東大村２丁目1616番地２",
    "lat": 32.9268735467645,
    "lng": 129.996880211639,
    "tel": "0957-20-7120",
    "url": "http://keikokai.jp/",
    "pref": "長崎県",
    "city": "大村市",
    "category": "day_service",
    "serviceType": "通所介護",
    "capacity": 6,
    "openDays": [
      "平日",
      "土曜日",
      "祝日"
    ],
    "openDaysNote": ""
  },
  {
    "id": "4270500269",
    "name": "デイサービスセンターキャロット広場",
    "kana": "デイサービスセンターキャロットヒロバ",
    "address": "長崎県大村市富の原2丁目4番地4",
    "lat": 32.9494407,
    "lng": 129.94172,
    "tel": "0957-55-5031",
    "url": "http://www.keikokai.jp/",
    "pref": "長崎県",
    "city": "大村市",
    "category": "day_service",
    "serviceType": "通所介護",
    "capacity": 25,
    "openDays": [
      "平日",
      "土曜日",
      "祝日"
    ],
    "openDaysNote": ""
  },
  {
    "id": "4270500558",
    "name": "デイサービスセンター秋櫻",
    "kana": "デイサービスセンターコスモス",
    "address": "長崎県大村市西大村本町755-1",
    "lat": 32.929442479274,
    "lng": 129.952476996295,
    "tel": "0957-20-7700",
    "url": "http://www.midori-group.com/",
    "pref": "長崎県",
    "city": "大村市",
    "category": "day_service",
    "serviceType": "通所介護",
    "capacity": 30,
    "openDays": [
      "平日",
      "土曜日",
      "祝日"
    ],
    "openDaysNote": "元日は休業"
  },
  {
    "id": "4270501929",
    "name": "デイサービスみかん",
    "kana": "デイサービスミカン",
    "address": "長崎県大村市鬼橋町225-1デイサービスみかん デイサービスみかん",
    "lat": 32.9451674467234,
    "lng": 129.952134163441,
    "tel": "0957-46-3555",
    "url": "ｋ．ｄａｙｍｉｋａｎ＠ｇａｌａｘｙ．ｎｅ．ｊｐ",
    "pref": "長崎県",
    "city": "大村市",
    "category": "day_service",
    "serviceType": "通所介護",
    "capacity": 0,
    "openDays": [
      "平日"
    ],
    "openDaysNote": ""
  },
  {
    "id": "4270501853",
    "name": "デイサービスゆ～かり",
    "kana": "デイサービスユーカリ",
    "address": "長崎県大村市東三城町２９番地１の１",
    "lat": 32.9118503,
    "lng": 129.9603105,
    "tel": "0957-47-8606",
    "url": "https://www.minamino-hosp.jp/",
    "pref": "長崎県",
    "city": "大村市",
    "category": "day_service",
    "serviceType": "通所介護",
    "capacity": 0,
    "openDays": [
      "平日",
      "祝日"
    ],
    "openDaysNote": "平日の営業は、月・水・金です。（改行）上記営業時間以外でも相談に応じる体制を取ります。"
  },
  {
    "id": "4270501879",
    "name": "デイサービス葵",
    "kana": "デイサービスアオイ",
    "address": "長崎県大村市富の原1丁目1276-1デイサービス葵 デイサービス葵",
    "lat": 32.9408804,
    "lng": 129.9391916,
    "tel": "0957-47-5852",
    "url": "",
    "pref": "長崎県",
    "city": "大村市",
    "category": "day_service",
    "serviceType": "通所介護",
    "capacity": 25,
    "openDays": [
      "平日",
      "土曜日"
    ],
    "openDaysNote": ""
  },
  {
    "id": "4270502224",
    "name": "デイサービス琴音",
    "kana": "デイサービスコトネ",
    "address": "長崎県大村市森園町1625番地１",
    "lat": 32.9222386,
    "lng": 129.9431058,
    "tel": "0957-46-5963",
    "url": "https://kotonoumi.com/",
    "pref": "長崎県",
    "city": "大村市",
    "category": "day_service",
    "serviceType": "通所介護",
    "capacity": 20,
    "openDays": [
      "平日",
      "祝日"
    ],
    "openDaysNote": "8月13日～8月15日・12月31日～1月3日は休み"
  },
  {
    "id": "4270501432",
    "name": "デイサービス光",
    "kana": "デイサービス　ヒカリ",
    "address": "長崎県大村市木場１丁目９９４－１ケアホーム光内1Ｆ ケアホーム光内1Ｆ",
    "lat": 32.9013234,
    "lng": 129.9776843,
    "tel": "0957-53-8600",
    "url": "http://www.noahikari.com",
    "pref": "長崎県",
    "city": "大村市",
    "category": "day_service",
    "serviceType": "通所介護",
    "capacity": 30,
    "openDays": [
      "平日",
      "土曜日"
    ],
    "openDaysNote": ""
  },
  {
    "id": "4270500970",
    "name": "デイサービス悠久ひろば",
    "kana": "デイサービスユウキュウヒロバ",
    "address": "長崎県大村市東野岳町1699-4",
    "lat": 32.9771808,
    "lng": 129.9762133,
    "tel": "0957-27-4017",
    "url": "http://www.arumu.info/",
    "pref": "長崎県",
    "city": "大村市",
    "category": "day_service",
    "serviceType": "通所介護",
    "capacity": 0,
    "openDays": [
      "平日",
      "土曜日",
      "日曜日",
      "祝日"
    ],
    "openDaysNote": "お盆　　　　　８月１４．１５．１６日　（改行）年末年始　　１２月３０．３１日　１月１．２．３日　　は休みとなります。"
  },
  {
    "id": "4270502257",
    "name": "レッツ倶楽部大村",
    "kana": "レッツクラブオオムラ",
    "address": "長崎県大村市杭出津2丁目54-1",
    "lat": 32.9162717,
    "lng": 129.9546203,
    "tel": "0957-47-5146",
    "url": "https://www.lets-club.jp/shop/omura/about.html",
    "pref": "長崎県",
    "city": "大村市",
    "category": "day_service",
    "serviceType": "通所介護",
    "capacity": 0,
    "openDays": [
      "平日",
      "土曜日",
      "祝日"
    ],
    "openDaysNote": ""
  },
  {
    "id": "4270401237",
    "name": "伊和咲デイサービスセンター",
    "kana": "イワサキデイサービスセンター",
    "address": "長崎県大村市岩松町939‐5",
    "lat": 32.8904672995109,
    "lng": 129.983359476417,
    "tel": "0957-53-7121",
    "url": "",
    "pref": "長崎県",
    "city": "大村市",
    "category": "day_service",
    "serviceType": "通所介護",
    "capacity": 20,
    "openDays": [
      "平日",
      "土曜日",
      "祝日"
    ],
    "openDaysNote": ""
  },
  {
    "id": "4270500533",
    "name": "株式会社　コモテックス　デイサービスほのぼのハウス",
    "kana": "カブシキカイシャコモテックスデイサービスホノボノハウス",
    "address": "長崎県大村市松山町４６０－２",
    "lat": 32.9128915,
    "lng": 129.9468364,
    "tel": "0957-20-8885",
    "url": "http://www.komori-group.net/honobono/",
    "pref": "長崎県",
    "city": "大村市",
    "category": "day_service",
    "serviceType": "通所介護",
    "capacity": 18,
    "openDays": [
      "平日",
      "祝日"
    ],
    "openDaysNote": ""
  },
  {
    "id": "4270500087",
    "name": "社会福祉法人樹陽会デイサービスセンター湧泉荘",
    "kana": "シャカイフクシホウジンジュヨウカイデイサービスセンターユウセンソウ",
    "address": "長崎県大村市諏訪１丁目６７０番地６",
    "lat": 32.9241659,
    "lng": 129.9620516,
    "tel": "0957-54-6636",
    "url": "http://juyoukai.com/",
    "pref": "長崎県",
    "city": "大村市",
    "category": "day_service",
    "serviceType": "通所介護",
    "capacity": 0,
    "openDays": [
      "平日",
      "土曜日"
    ],
    "openDaysNote": ""
  },
  {
    "id": "4270500129",
    "name": "社会福祉法人隆明会　デイサービスセンターふる里",
    "kana": "シャカイフクシホウジンリュウメイカイ　デイサービスセンターフルサト",
    "address": "長崎県大村市鬼橋町１４１６番地",
    "lat": 32.9459861,
    "lng": 129.9586652,
    "tel": "0957-27-4500",
    "url": "https://ryumei-kai.or.jp/",
    "pref": "長崎県",
    "city": "大村市",
    "category": "day_service",
    "serviceType": "通所介護",
    "capacity": 35,
    "openDays": [
      "平日",
      "土曜日",
      "祝日"
    ],
    "openDaysNote": ""
  },
  {
    "id": "4270502091",
    "name": "泉の里アーケード館デイサービスセンター",
    "kana": "イズミノサトアーケードカンデイサービスセンター",
    "address": "長崎県大村市本町387番地1",
    "lat": 32.9068867,
    "lng": 129.9590936,
    "tel": "0957-54-2105",
    "url": "http://www.izuminosato.jp",
    "pref": "長崎県",
    "city": "大村市",
    "category": "day_service",
    "serviceType": "通所介護",
    "capacity": null,
    "openDays": [
      "平日",
      "土曜日",
      "日曜日",
      "祝日"
    ],
    "openDaysNote": ""
  },
  {
    "id": "4270500152",
    "name": "泉の里デイサービスセンター",
    "kana": "イズミノサトデイサービスセンター",
    "address": "長崎県大村市東本町583",
    "lat": 32.9000257,
    "lng": 129.9578634,
    "tel": "0957-54-2107",
    "url": "http://www.izuminosato.jp",
    "pref": "長崎県",
    "city": "大村市",
    "category": "day_service",
    "serviceType": "通所介護",
    "capacity": 0,
    "openDays": [
      "平日",
      "土曜日",
      "祝日"
    ],
    "openDaysNote": ""
  },
  {
    "id": "4270501309",
    "name": "泉の里デイセンターとくせん（一般型）",
    "kana": "イズミノサト　デイセンタートクセン（イッパンガタ）",
    "address": "長崎県大村市徳泉川内町829",
    "lat": 32.9117421,
    "lng": 129.9825585,
    "tel": "0957-54-2107",
    "url": "http://www.izuminosato.jp",
    "pref": "長崎県",
    "city": "大村市",
    "category": "day_service",
    "serviceType": "通所介護",
    "capacity": 90,
    "openDays": [
      "平日",
      "土曜日",
      "日曜日",
      "祝日"
    ],
    "openDaysNote": ""
  },
  {
    "id": "4270502059",
    "name": "蒼デイサービス",
    "kana": "アオイデイサービス",
    "address": "長崎県大村市今津町417-1",
    "lat": 32.9263414,
    "lng": 129.9337338,
    "tel": "0957-56-9311",
    "url": "",
    "pref": "長崎県",
    "city": "大村市",
    "category": "day_service",
    "serviceType": "通所介護",
    "capacity": 20,
    "openDays": [
      "平日",
      "土曜日"
    ],
    "openDaysNote": ""
  },
  {
    "id": "4270500954",
    "name": "優心苑デイサービス",
    "kana": "ユウシンエンデイサービス",
    "address": "長崎県大村市野田町56番地",
    "lat": 32.9545772,
    "lng": 129.9646062,
    "tel": "0957-55-4524",
    "url": "http://www.yushinen.com",
    "pref": "長崎県",
    "city": "大村市",
    "category": "day_service",
    "serviceType": "通所介護",
    "capacity": 0,
    "openDays": [
      "平日",
      "土曜日",
      "日曜日",
      "祝日"
    ],
    "openDaysNote": ""
  },
  {
    "id": "4270501564",
    "name": "有限会社アルム　デイサービス　ひこばゆ",
    "kana": "ユウゲンガイシャアルム　デイサービス　ヒコバユ",
    "address": "長崎県大村市松原２丁目219番地1",
    "lat": 32.982585,
    "lng": 129.9472291,
    "tel": "0957-47-5126",
    "url": "http//:www.arumu.info",
    "pref": "長崎県",
    "city": "大村市",
    "category": "day_service",
    "serviceType": "通所介護",
    "capacity": 30,
    "openDays": [
      "平日",
      "土曜日",
      "日曜日",
      "祝日"
    ],
    "openDaysNote": "年末年始　12/31.1/1　は休みとなります。"
  },
  {
    "id": "4270500285",
    "name": "老人デイサービスセンター松原のさと",
    "kana": "ロウジンデイサービスセンターマツバラノサト",
    "address": "長崎県大村市松原本町274番地",
    "lat": 32.9762162,
    "lng": 129.9449933,
    "tel": "0957-56-2378",
    "url": "http://matsubara-wa.jp/matsubara/ds/",
    "pref": "長崎県",
    "city": "大村市",
    "category": "day_service",
    "serviceType": "通所介護",
    "capacity": 35,
    "openDays": [
      "平日",
      "土曜日",
      "祝日"
    ],
    "openDaysNote": "天候・自然災害等で、通常の運営が不可能と管理者が判断した場合は必要に応じて、利用者に連絡する。また、研修等で休業する場合は事前に連絡対応するものとする。"
  },
  {
    "id": "4270108253",
    "name": "OneDayRE･楽",
    "kana": "ワンデイリラク",
    "address": "長崎県長崎市下西山町2番3号柴田ビル2階 柴田ビル2階",
    "lat": 32.7541383,
    "lng": 129.8840637,
    "tel": "095-829-5552",
    "url": "http://qualitycare9.wix.com/re-raku",
    "pref": "長崎県",
    "city": "長崎市",
    "category": "day_service",
    "serviceType": "通所介護",
    "capacity": 0,
    "openDays": [
      "平日",
      "土曜日",
      "祝日"
    ],
    "openDaysNote": "8/13～8/15（お盆休み）（改行）12/30～1/3（年末年始）"
  },
  {
    "id": "4270135660",
    "name": "エフ・ステージ白木せいかつのデイ",
    "kana": "エフ・ステージシロキセイカツノデイ",
    "address": "長崎市白木町4-3",
    "lat": 32.7393672,
    "lng": 129.8943057,
    "tel": "095-893-8220",
    "url": "entowa.co.jp",
    "pref": "長崎県",
    "city": "長崎市",
    "category": "day_service",
    "serviceType": "通所介護",
    "capacity": 0,
    "openDays": [
      "平日",
      "土曜日",
      "祝日"
    ],
    "openDaysNote": "祝日は営業。緊急時の電話連絡については年中無休24時間対応"
  },
  {
    "id": "4270109780",
    "name": "かいごの花みずき　デイサービス　＋C",
    "kana": "カイゴノハナミズキ　デイサービス　プラスシー",
    "address": "長崎県長崎市平和町5-29",
    "lat": 32.7760185994666,
    "lng": 129.865786698148,
    "tel": "095-800-8701",
    "url": "http://www.kaigo-8732.com/",
    "pref": "長崎県",
    "city": "長崎市",
    "category": "day_service",
    "serviceType": "通所介護",
    "capacity": 0,
    "openDays": [
      "平日",
      "土曜日",
      "祝日"
    ],
    "openDaysNote": ""
  },
  {
    "id": "4270110259",
    "name": "こころねデイサービス",
    "kana": "ココロネデイサービス",
    "address": "長崎県長崎市文教町5番23号田崎ビル1階 田崎ビル1階",
    "lat": 32.7886759,
    "lng": 129.8705858,
    "tel": "095-842-7272",
    "url": "http://www.tolerance.co.jp",
    "pref": "長崎県",
    "city": "長崎市",
    "category": "day_service",
    "serviceType": "通所介護",
    "capacity": 0,
    "openDays": [
      "平日",
      "土曜日",
      "祝日"
    ],
    "openDaysNote": ""
  },
  {
    "id": "4270109004",
    "name": "スマートデイサービスセンター",
    "kana": "スマートデイサービスセンター",
    "address": "長崎県長崎市女の都3丁目7番27号",
    "lat": 32.8071512,
    "lng": 129.8809894,
    "tel": "095-845-2002",
    "url": "",
    "pref": "長崎県",
    "city": "長崎市",
    "category": "day_service",
    "serviceType": "通所介護",
    "capacity": 30,
    "openDays": [
      "平日",
      "祝日"
    ],
    "openDaysNote": "祝日、お盆は休まず営業。"
  },
  {
    "id": "4270111810",
    "name": "たおやかに・デイサービスセンター",
    "kana": "タオヤカニ・デイサービスセンター",
    "address": "上黒崎777番地",
    "lat": 32.8441738185598,
    "lng": 129.718407023719,
    "tel": "0959-37-6352",
    "url": "http://www.taoyakani.net/about.php",
    "pref": "長崎県",
    "city": "長崎市",
    "category": "day_service",
    "serviceType": "通所介護",
    "capacity": 25,
    "openDays": [
      "平日",
      "土曜日",
      "祝日"
    ],
    "openDaysNote": ""
  },
  {
    "id": "4270106976",
    "name": "ツクイ東長崎",
    "kana": "ツクイヒガシナガサキ",
    "address": "長崎県長崎市平間町694‐17",
    "lat": 32.7847337,
    "lng": 129.9488605,
    "tel": "095-813-9220",
    "url": "http://www.tsukui.net/",
    "pref": "長崎県",
    "city": "長崎市",
    "category": "day_service",
    "serviceType": "通所介護",
    "capacity": 31,
    "openDays": [
      "平日",
      "土曜日",
      "日曜日",
      "祝日"
    ],
    "openDaysNote": "GW、お盆、正月も休まず運営しています。"
  },
  {
    "id": "4270111364",
    "name": "デイサービス　mycafe花丘",
    "kana": "デイサービスマイカフェハナオカ",
    "address": "長崎県長崎市花丘町20番3号",
    "lat": 32.7912672,
    "lng": 129.8655328,
    "tel": "095-865-8781",
    "url": "https://www.facebook.com/hanaoka2017/",
    "pref": "長崎県",
    "city": "長崎市",
    "category": "day_service",
    "serviceType": "通所介護",
    "capacity": 0,
    "openDays": [
      "平日"
    ],
    "openDaysNote": "通所介護（介護予防相当サービス）は現在，月・水・金曜日の午前中のみの営業となっています．"
  },
  {
    "id": "4270108394",
    "name": "デイサービス　エルフ山の手",
    "kana": "デイサービス　エルフヤマノテ",
    "address": "長崎県長崎市戸町１丁目５番４号エルフ山の手 エルフ山の手",
    "lat": 32.7249255668573,
    "lng": 129.860404193254,
    "tel": "095-826--5657",
    "url": "http://elf-yamanote.jimdo.com/",
    "pref": "長崎県",
    "city": "長崎市",
    "category": "day_service",
    "serviceType": "通所介護",
    "capacity": 0,
    "openDays": [
      "平日",
      "土曜日",
      "祝日"
    ],
    "openDaysNote": ""
  },
  {
    "id": "4270109764",
    "name": "デイサービス　さくら並木",
    "kana": "デイサービス　サクラナミキ",
    "address": "長崎県長崎市布巻町184番地11",
    "lat": 32.658212,
    "lng": 129.8355138,
    "tel": "095-892-8822",
    "url": "",
    "pref": "長崎県",
    "city": "長崎市",
    "category": "day_service",
    "serviceType": "通所介護",
    "capacity": 0,
    "openDays": [
      "平日",
      "土曜日",
      "日曜日",
      "祝日"
    ],
    "openDaysNote": ""
  },
  {
    "id": "4270111968",
    "name": "デイサービス　フルリール",
    "kana": "デイサービス　フルリール",
    "address": "長崎県長崎市小ヶ倉町2丁目327番地1",
    "lat": 32.7042759932726,
    "lng": 129.853769770955,
    "tel": "095-832-5225",
    "url": "http://h-well.co.jp",
    "pref": "長崎県",
    "city": "長崎市",
    "category": "day_service",
    "serviceType": "通所介護",
    "capacity": 30,
    "openDays": [
      "平日",
      "土曜日"
    ],
    "openDaysNote": ""
  },
  {
    "id": "4270108600",
    "name": "デイサービス・山の木",
    "kana": "デイサービス・ヤマノキ",
    "address": "長崎県長崎市横尾５丁目９番１８号",
    "lat": 32.8146504,
    "lng": 129.826693,
    "tel": "095-840-4431",
    "url": "http://www.keiaikai-nagasaki.or.jp/",
    "pref": "長崎県",
    "city": "長崎市",
    "category": "day_service",
    "serviceType": "通所介護",
    "capacity": 30,
    "openDays": [
      "平日",
      "土曜日",
      "祝日"
    ],
    "openDaysNote": "定休日についてはご利用者の要望等により変更することがあります。"
  },
  {
    "id": "4270136288",
    "name": "デイサービスあすなろ",
    "kana": "デイサービスアスナロ",
    "address": "長崎県長崎市西山4丁目474番6アラシン7 アラシン7",
    "lat": 32.7787443,
    "lng": 129.8889468,
    "tel": "095‐804‐9037",
    "url": "https://www.truness-nagasaki.com/pages/2/",
    "pref": "長崎県",
    "city": "長崎市",
    "category": "day_service",
    "serviceType": "通所介護",
    "capacity": 25,
    "openDays": [
      "平日",
      "土曜日",
      "祝日"
    ],
    "openDaysNote": ""
  },
  {
    "id": "4270109640",
    "name": "デイサービスうぇるずらいふ大手",
    "kana": "デイサービスウェルズライフオオテ",
    "address": "長崎県長崎市大手1丁目28番15号",
    "lat": 32.7892279102685,
    "lng": 129.875275160843,
    "tel": "095-844-2525",
    "url": "https://wellslife.jp/",
    "pref": "長崎県",
    "city": "長崎市",
    "category": "day_service",
    "serviceType": "通所介護",
    "capacity": 25,
    "openDays": [
      "平日",
      "土曜日",
      "祝日"
    ],
    "openDaysNote": ""
  },
  {
    "id": "4270110150",
    "name": "デイサービスさくらの里花かごplus+",
    "kana": "デイサービスサクラノサトハナカゴプラス",
    "address": "長崎県長崎市京泊2丁目5番6号",
    "lat": 32.821846,
    "lng": 129.7725859,
    "tel": "095-894-4330",
    "url": "http://www.sakuranosato.or.jp/web/",
    "pref": "長崎県",
    "city": "長崎市",
    "category": "day_service",
    "serviceType": "通所介護",
    "capacity": 0,
    "openDays": [
      "平日",
      "土曜日",
      "祝日"
    ],
    "openDaysNote": "※年末年始の休みについては、変更もあり得る。"
  },
  {
    "id": "4270111414",
    "name": "デイサービスしらはま　けやき台",
    "kana": "デイサービスシラハマ　ケヤキダイ",
    "address": "長崎県長崎市けやき台町1-12",
    "lat": 32.7952032,
    "lng": 129.8807515,
    "tel": "095-848-1986",
    "url": "",
    "pref": "長崎県",
    "city": "長崎市",
    "category": "day_service",
    "serviceType": "通所介護",
    "capacity": 0,
    "openDays": [
      "平日",
      "土曜日"
    ],
    "openDaysNote": "木・土の利用可能時間帯は9:00-13:30"
  },
  {
    "id": "4270111992",
    "name": "デイサービスセンター　＊KiRaKu＊",
    "kana": "デイサービスセンター　キラク",
    "address": "長崎県長崎市末石町154番地1有料老人ホーム金木犀　建物内 有料老人ホーム金木犀　建物内",
    "lat": 32.6797089,
    "lng": 129.8413394,
    "tel": "095-801-0002",
    "url": "http:/www.kirakuen-nagasaki.jp/",
    "pref": "長崎県",
    "city": "長崎市",
    "category": "day_service",
    "serviceType": "通所介護",
    "capacity": 5,
    "openDays": [
      "平日",
      "土曜日",
      "日曜日",
      "祝日"
    ],
    "openDaysNote": ""
  },
  {
    "id": "4270107214",
    "name": "デイサービスセンター　ＲＥ・楽",
    "kana": "デイサービスセンター　リラク",
    "address": "長崎県長崎市西山2丁目6-7リビエール長崎１Ｆ リビエール長崎１Ｆ",
    "lat": 32.7613905,
    "lng": 129.8884492,
    "tel": "095-822-3212",
    "url": "http://qualitycare9.wix.com/re-raku",
    "pref": "長崎県",
    "city": "長崎市",
    "category": "day_service",
    "serviceType": "通所介護",
    "capacity": 20,
    "openDays": [
      "平日",
      "土曜日"
    ],
    "openDaysNote": ""
  },
  {
    "id": "4270112198",
    "name": "デイサービスセンター　いこいの園",
    "kana": "デイサービスセンター　イコイノソノ",
    "address": "長崎市牧野2168番地5",
    "lat": 32.7963978,
    "lng": 129.7993941,
    "tel": "095-840-4000",
    "url": "https://kagurakai.or.jp",
    "pref": "長崎県",
    "city": "長崎市",
    "category": "day_service",
    "serviceType": "通所介護",
    "capacity": 0,
    "openDays": [
      "平日",
      "土曜日",
      "祝日"
    ],
    "openDaysNote": ""
  },
  {
    "id": "4270135892",
    "name": "デイサービスセンター　元気の里　東長崎館",
    "kana": "デイサービスセンター　ゲンキノサト　ヒガシナガサキカン",
    "address": "長崎県長崎市松原町2679番地1エターナルフォレスト1号館 エターナルフォレスト1号館",
    "lat": 32.7951601,
    "lng": 129.9549763,
    "tel": "095-833-0111",
    "url": "http://www.sun3.jp/genki-nagasaki",
    "pref": "長崎県",
    "city": "長崎市",
    "category": "day_service",
    "serviceType": "通所介護",
    "capacity": 0,
    "openDays": [
      "平日",
      "土曜日",
      "祝日"
    ],
    "openDaysNote": "年末年始休みあり（改行）２部構成になっております（改行）午前の部　９時００分～１２時００分（改行）午後の部　１３時３０分～１６時３０分"
  },
  {
    "id": "4271100721",
    "name": "デイサービスセンター　椿ヶ丘荘",
    "kana": "デイサービスセンター　ツバキガオカソウ",
    "address": "長崎県長崎市神浦町1553番地",
    "lat": 32.8812952,
    "lng": 129.6881079,
    "tel": "0959-24-0130",
    "url": "http://www.tsubakigaoka.jp/",
    "pref": "長崎県",
    "city": "長崎市",
    "category": "day_service",
    "serviceType": "通所介護",
    "capacity": 0,
    "openDays": [
      "平日",
      "土曜日",
      "日曜日",
      "祝日"
    ],
    "openDaysNote": "特別な理由がある際には上記以外の時間でも対応する"
  },
  {
    "id": "4270135066",
    "name": "デイサービスセンターアスカ",
    "kana": "デイサービスセンターアスカ",
    "address": "長崎県長崎市みなと坂１丁目６番３５号",
    "lat": 32.7289948,
    "lng": 129.8385504,
    "tel": "095-834-4141",
    "url": "https://asukafukushikai.jp/",
    "pref": "長崎県",
    "city": "長崎市",
    "category": "day_service",
    "serviceType": "通所介護",
    "capacity": 40,
    "openDays": [
      "平日",
      "土曜日",
      "日曜日",
      "祝日"
    ],
    "openDaysNote": ""
  },
  {
    "id": "4270105978",
    "name": "デイサービスセンターさくらの里",
    "kana": "デイサービスセンターサクラノサト",
    "address": "長崎県長崎市三京町１５３９番地１",
    "lat": 32.8345698,
    "lng": 129.77213,
    "tel": "095-814-1050",
    "url": "http://www.sakuranosato.or.jp/web/",
    "pref": "長崎県",
    "city": "長崎市",
    "category": "day_service",
    "serviceType": "通所介護",
    "capacity": 0,
    "openDays": [
      "平日",
      "土曜日",
      "祝日"
    ],
    "openDaysNote": ""
  },
  {
    "id": "4270100789",
    "name": "デイサービスセンターサンハイツ",
    "kana": "デイサービスセンターサンハイツ",
    "address": "長崎県長崎市油木町65-14",
    "lat": 32.7803067,
    "lng": 129.8441103,
    "tel": "095-843-1138",
    "url": "http://www.sanhaitsu.jp/",
    "pref": "長崎県",
    "city": "長崎市",
    "category": "day_service",
    "serviceType": "通所介護",
    "capacity": 75,
    "openDays": [
      "平日",
      "土曜日",
      "祝日"
    ],
    "openDaysNote": ""
  },
  {
    "id": "4270110341",
    "name": "デイサービスセンターサンハイツ城栄",
    "kana": "デイサービスセンターサンハイツジョウエイ",
    "address": "長崎県長崎市富士見町23-13",
    "lat": 32.7606092,
    "lng": 129.8597266,
    "tel": "095-862-3812",
    "url": "http://www.sanhaitsu.jp/",
    "pref": "長崎県",
    "city": "長崎市",
    "category": "day_service",
    "serviceType": "通所介護",
    "capacity": 35,
    "openDays": [
      "平日",
      "土曜日",
      "祝日"
    ],
    "openDaysNote": ""
  },
  {
    "id": "4270103312",
    "name": "デイサービスセンターサンハイツ青山",
    "kana": "デイサービスセンターサンハイツアオヤマ",
    "address": "長崎県長崎市青山町2-36",
    "lat": 32.7783071,
    "lng": 129.851685,
    "tel": "095-841-9396",
    "url": "http://www.sanhaitsu.jp/",
    "pref": "長崎県",
    "city": "長崎市",
    "category": "day_service",
    "serviceType": "通所介護",
    "capacity": 0,
    "openDays": [
      "平日",
      "土曜日",
      "祝日"
    ],
    "openDaysNote": ""
  },
  {
    "id": "4270101613",
    "name": "デイサービスセンターサンハイツ青山ニュータウン",
    "kana": "デイサービスセンターサンハイツアオヤマニュータウン",
    "address": "長崎県長崎市油木町92－1",
    "lat": 32.7820768965514,
    "lng": 129.845242116472,
    "tel": "095-894-1380",
    "url": "http://www.sanhaitsu.jp/",
    "pref": "長崎県",
    "city": "長崎市",
    "category": "day_service",
    "serviceType": "通所介護",
    "capacity": 30,
    "openDays": [
      "平日",
      "土曜日",
      "祝日"
    ],
    "openDaysNote": ""
  },
  {
    "id": "4270106331",
    "name": "デイサービスセンターサンハイツ富士見",
    "kana": "デイサービスセンターサンハイツフジミ",
    "address": "長崎県長崎市富士見町6番1号",
    "lat": 32.7719913,
    "lng": 129.8539769,
    "tel": "095-862-2770",
    "url": "http://www.sanhaitsu.jp/",
    "pref": "長崎県",
    "city": "長崎市",
    "category": "day_service",
    "serviceType": "通所介護",
    "capacity": 0,
    "openDays": [
      "平日",
      "土曜日",
      "祝日"
    ],
    "openDaysNote": ""
  },
  {
    "id": "4270136338",
    "name": "デイサービスセンターサンハイツ淵町",
    "kana": "デイサービスセンターサンハイツフチマチ",
    "address": "長崎県長崎市淵町2番30号",
    "lat": 32.7606004,
    "lng": 129.8598672,
    "tel": "095－818－1700",
    "url": "http://www.sanhaitsu.jp/",
    "pref": "長崎県",
    "city": "長崎市",
    "category": "day_service",
    "serviceType": "通所介護",
    "capacity": null,
    "openDays": [
      "平日",
      "土曜日",
      "祝日"
    ],
    "openDaysNote": ""
  },
  {
    "id": "4270111034",
    "name": "デイサービスセンターたいじゅ",
    "kana": "デイサービスセンタータイジュ",
    "address": "長崎市京泊3丁目35番1号医療法人太寿会こうの医院3階 医療法人太寿会こうの医院3階",
    "lat": 32.8245861051774,
    "lng": 129.773584079762,
    "tel": "095‐801‐6615",
    "url": "http://www.taijukai.info/",
    "pref": "長崎県",
    "city": "長崎市",
    "category": "day_service",
    "serviceType": "通所介護",
    "capacity": 25,
    "openDays": [
      "平日",
      "祝日"
    ],
    "openDaysNote": ""
  },
  {
    "id": "4270107149",
    "name": "デイサービスセンターぴーすけあ・滑石",
    "kana": "デイサービスセンターピースケア・ナメシ",
    "address": "長崎県長崎市滑石5丁目1番22号　バリューセンター2Fバリューセンター2Ｆ バリューセンター2Ｆ",
    "lat": 32.8068678,
    "lng": 129.836351,
    "tel": "095-855-2556",
    "url": "http://alive-care.com",
    "pref": "長崎県",
    "city": "長崎市",
    "category": "day_service",
    "serviceType": "通所介護",
    "capacity": 0,
    "openDays": [
      "平日",
      "土曜日",
      "祝日"
    ],
    "openDaysNote": "年4回程　滑石ショッピングセンターの定休日に合わせて休みあり。"
  },
  {
    "id": "4270135967",
    "name": "デイサービスセンターひまわり",
    "kana": "デイサービスセンターヒマワリ",
    "address": "長崎県長崎市木鉢町1丁目4番地6",
    "lat": 32.7256101,
    "lng": 129.8409112,
    "tel": "095-865-7552",
    "url": "https://syahuku-himawari.com/",
    "pref": "長崎県",
    "city": "長崎市",
    "category": "day_service",
    "serviceType": "通所介護",
    "capacity": 0,
    "openDays": [
      "平日",
      "土曜日",
      "祝日"
    ],
    "openDaysNote": ""
  },
  {
    "id": "4270107404",
    "name": "デイサービスセンターほっと　2号館",
    "kana": "デイサービスセンターホット　ニゴウカン",
    "address": "長崎県長崎市滑石5丁目5番23号",
    "lat": 32.8056596,
    "lng": 129.8341039,
    "tel": "095-865-7004",
    "url": "https://hothouse-nameshi.jp/",
    "pref": "長崎県",
    "city": "長崎市",
    "category": "day_service",
    "serviceType": "通所介護",
    "capacity": 30,
    "openDays": [
      "平日",
      "土曜日",
      "祝日"
    ],
    "openDaysNote": "１／１～１／３まで休業"
  },
  {
    "id": "4270110325",
    "name": "デイサービスセンターモン・サン琴海村松",
    "kana": "デイサービスセンターモン・サンキンカイムラマツ",
    "address": "長崎県長崎市琴海村松町399",
    "lat": 32.8784243,
    "lng": 129.7900748,
    "tel": "095-840-3010",
    "url": "http://keiseikai.biz/",
    "pref": "長崎県",
    "city": "長崎市",
    "category": "day_service",
    "serviceType": "通所介護",
    "capacity": 0,
    "openDays": [
      "平日"
    ],
    "openDaysNote": ""
  },
  {
    "id": "4270104914",
    "name": "デイサービスセンター橘の丘",
    "kana": "デイサービスセンタータチバナノオカ",
    "address": "長崎市春日町２８４－２",
    "lat": 32.7418423639412,
    "lng": 129.953221551764,
    "tel": "095-813-3348",
    "url": "http://tachibananooka.jp./",
    "pref": "長崎県",
    "city": "長崎市",
    "category": "day_service",
    "serviceType": "通所介護",
    "capacity": 55,
    "openDays": [
      "平日",
      "土曜日",
      "祝日"
    ],
    "openDaysNote": ""
  },
  {
    "id": "4270110879",
    "name": "デイサービスセンター三原の花",
    "kana": "デイサービスセンターミハラノハナ",
    "address": "長崎県長崎市三原1丁目7番40号",
    "lat": 32.7816324,
    "lng": 129.8768023,
    "tel": "095-844-8710",
    "url": "http://www.miharadai.or.jp/",
    "pref": "長崎県",
    "city": "長崎市",
    "category": "day_service",
    "serviceType": "通所介護",
    "capacity": 0,
    "openDays": [
      "平日",
      "土曜日"
    ],
    "openDaysNote": ""
  },
  {
    "id": "4270106505",
    "name": "デイサービスセンター本河内",
    "kana": "デイサービスセンターホンゴウチ",
    "address": "長崎県長崎市本河内2丁目２１－１１",
    "lat": 32.7526469,
    "lng": 129.9049897,
    "tel": "095-801-9608",
    "url": "",
    "pref": "長崎県",
    "city": "長崎市",
    "category": "day_service",
    "serviceType": "通所介護",
    "capacity": 32,
    "openDays": [
      "平日",
      "土曜日",
      "祝日"
    ],
    "openDaysNote": ""
  },
  {
    "id": "4270107289",
    "name": "デイサービスセンター鳴見ヶ丘",
    "kana": "デイサービスセンターナルミガオカ",
    "address": "長崎県長崎市鳴見町368",
    "lat": 32.8161332,
    "lng": 129.8092666,
    "tel": "095-840-1888",
    "url": "http://www.kouseilife-nagasaki.net/",
    "pref": "長崎県",
    "city": "長崎市",
    "category": "day_service",
    "serviceType": "通所介護",
    "capacity": 34,
    "openDays": [
      "平日",
      "土曜日",
      "祝日"
    ],
    "openDaysNote": ""
  },
  {
    "id": "4270102892",
    "name": "デイサービスセンター和仁会",
    "kana": "デイサービスセンターワジンカイ",
    "address": "長崎県長崎市中里町９６",
    "lat": 32.7979466,
    "lng": 129.9620843,
    "tel": "095-839-2051",
    "url": "http://wajinkai.jp/",
    "pref": "長崎県",
    "city": "長崎市",
    "category": "day_service",
    "serviceType": "通所介護",
    "capacity": 30,
    "openDays": [
      "平日"
    ],
    "openDaysNote": ""
  },
  {
    "id": "4270111190",
    "name": "デイサービスならの木",
    "kana": "デイサービスナラノキ",
    "address": "長崎県長崎市南山手町12番43号ならの木　南山手 ならの木　南山手",
    "lat": 32.7326758,
    "lng": 129.8666375,
    "tel": "095-895-5080",
    "url": "http://www.naranoki.org",
    "pref": "長崎県",
    "city": "長崎市",
    "category": "day_service",
    "serviceType": "通所介護",
    "capacity": 0,
    "openDays": [
      "平日",
      "祝日"
    ],
    "openDaysNote": ""
  },
  {
    "id": "4270108121",
    "name": "デイサービスふじの丘",
    "kana": "デイサービスフジノオカ",
    "address": "長崎県長崎市古賀町１６番地２デイサービスふじの丘 デイサービスふじの丘",
    "lat": 32.7924414,
    "lng": 129.9513185,
    "tel": "095-838-8801",
    "url": "http://www.fujioka.co.jp/",
    "pref": "長崎県",
    "city": "長崎市",
    "category": "day_service",
    "serviceType": "通所介護",
    "capacity": 0,
    "openDays": [
      "平日",
      "土曜日",
      "祝日"
    ],
    "openDaysNote": "営業時間外の対応要相談"
  },
  {
    "id": "4270136148",
    "name": "デイサービス花",
    "kana": "デイサービスハナ",
    "address": "長崎県長崎市西海町3261-2",
    "lat": 32.8534105,
    "lng": 129.7830637,
    "tel": "095-840-3400",
    "url": "",
    "pref": "長崎県",
    "city": "長崎市",
    "category": "day_service",
    "serviceType": "通所介護",
    "capacity": null,
    "openDays": [
      "平日",
      "土曜日",
      "日曜日",
      "祝日"
    ],
    "openDaysNote": "お正月・お盆も営業しています。"
  },
  {
    "id": "4270136130",
    "name": "デイサービス花・花",
    "kana": "デイサービスハナ・ハナ",
    "address": "長崎県長崎市西海町3293-1　右",
    "lat": 32.8533627,
    "lng": 129.7837252,
    "tel": "095-840-3333",
    "url": "",
    "pref": "長崎県",
    "city": "長崎市",
    "category": "day_service",
    "serviceType": "通所介護",
    "capacity": null,
    "openDays": [
      "平日",
      "土曜日",
      "日曜日",
      "祝日"
    ],
    "openDaysNote": "年中無休"
  },
  {
    "id": "4270112040",
    "name": "デイサービス花椿矢の平",
    "kana": "デイサービスハナツバキヤノヒラ",
    "address": "矢の平４丁目9-22",
    "lat": 32.741379,
    "lng": 129.8948106,
    "tel": "095-893-8282",
    "url": "https://smilecs.jp/news/",
    "pref": "長崎県",
    "city": "長崎市",
    "category": "day_service",
    "serviceType": "通所介護",
    "capacity": 0,
    "openDays": [
      "平日",
      "土曜日",
      "祝日"
    ],
    "openDaysNote": ""
  },
  {
    "id": "4270135991",
    "name": "デイサービス大宮",
    "kana": "デイサービス　オオミヤ",
    "address": "長崎県長崎市平山台1丁目1-12",
    "lat": 32.6621877,
    "lng": 129.8343362,
    "tel": "095-879-2222",
    "url": "",
    "pref": "長崎県",
    "city": "長崎市",
    "category": "day_service",
    "serviceType": "通所介護",
    "capacity": 20,
    "openDays": [
      "平日",
      "土曜日"
    ],
    "openDaysNote": "木曜日・土曜日は午後休所"
  },
  {
    "id": "4270107107",
    "name": "はーとふる長崎",
    "kana": "ハートフルナガサキ",
    "address": "長崎県長崎市福田本町185番2",
    "lat": 32.7466288,
    "lng": 129.8188819,
    "tel": "095-865-2503",
    "url": "http://www.ufinitia.com/",
    "pref": "長崎県",
    "city": "長崎市",
    "category": "day_service",
    "serviceType": "通所介護",
    "capacity": 0,
    "openDays": [
      "平日",
      "土曜日",
      "祝日"
    ],
    "openDaysNote": ""
  },
  {
    "id": "4270111950",
    "name": "ブリッジライフ長崎新地",
    "kana": "ブリッジライフナガサキシンチ",
    "address": "新地町８番１６号ミナトパークビル３階 ミナトパークビル３階",
    "lat": 32.7412403476761,
    "lng": 129.874538202709,
    "tel": "095-801-0626",
    "url": "",
    "pref": "長崎県",
    "city": "長崎市",
    "category": "day_service",
    "serviceType": "通所介護",
    "capacity": null,
    "openDays": [
      "平日",
      "土曜日",
      "祝日"
    ],
    "openDaysNote": ""
  },
  {
    "id": "4270108576",
    "name": "ホテル長崎　立山湯ったりクラブ　デイサービスセンター",
    "kana": "ホテルナガサキ　タテヤマユッタリクラブ　デイサービスセンター",
    "address": "長崎県長崎市立山2丁目16番1号ホテル長崎 ホテル長崎",
    "lat": 32.7550604571454,
    "lng": 129.875874152779,
    "tel": "095-818-5050",
    "url": "",
    "pref": "長崎県",
    "city": "長崎市",
    "category": "day_service",
    "serviceType": "通所介護",
    "capacity": 35,
    "openDays": [
      "平日",
      "祝日"
    ],
    "openDaysNote": ""
  },
  {
    "id": "4270111943",
    "name": "ラッキーグループ短時間型デイ　リハビット光町",
    "kana": "ラッキーグループタンジカンガタデイ　リハビットヒカリマチ",
    "address": "長崎県長崎市光町5番20号重松ビル3階 重松ビル3階",
    "lat": 32.7543941,
    "lng": 129.8643199,
    "tel": "095-801-2785",
    "url": "http://fukushi.luckygroup.co.jp/service/rehabbit_hikari/",
    "pref": "長崎県",
    "city": "長崎市",
    "category": "day_service",
    "serviceType": "通所介護",
    "capacity": 180,
    "openDays": [
      "平日",
      "土曜日"
    ],
    "openDaysNote": ""
  },
  {
    "id": "4270107263",
    "name": "医療法人有葵会のぼる内科　デイサービス",
    "kana": "イリョウホウジンユウキカイノボルナイカ　デイサービス",
    "address": "長崎県長崎市中園町10-5",
    "lat": 32.7917835,
    "lng": 129.8591754,
    "tel": "095-842-5240",
    "url": "http://noborunaika.jp/",
    "pref": "長崎県",
    "city": "長崎市",
    "category": "day_service",
    "serviceType": "通所介護",
    "capacity": 0,
    "openDays": [
      "平日",
      "祝日"
    ],
    "openDaysNote": ""
  },
  {
    "id": "4270104625",
    "name": "浦上駅前デイサービスセンター",
    "kana": "ウラカミエキマエデイサービスセンター",
    "address": "長崎県長崎市岩川町2番3号",
    "lat": 32.7661977,
    "lng": 129.8644734,
    "tel": "095-844-0335",
    "url": "http://dejimafukushi.or.jp/",
    "pref": "長崎県",
    "city": "長崎市",
    "category": "day_service",
    "serviceType": "通所介護",
    "capacity": 30,
    "openDays": [
      "平日",
      "土曜日",
      "祝日"
    ],
    "openDaysNote": ""
  },
  {
    "id": "4270135363",
    "name": "介護支援センターながさき　デイサービス・ステーション　中島川",
    "kana": "カイゴシエンセンターナガサキ　デイサービスステーション　ナカシマガワ",
    "address": "長崎県長崎市魚の町6番20号の７",
    "lat": 32.748247,
    "lng": 129.8804168,
    "tel": "095-811-7600",
    "url": "https://www.human-nw.com/",
    "pref": "長崎県",
    "city": "長崎市",
    "category": "day_service",
    "serviceType": "通所介護",
    "capacity": 45,
    "openDays": [
      "平日",
      "土曜日",
      "祝日"
    ],
    "openDaysNote": "特別な需要がある場合には、この限りではない。"
  },
  {
    "id": "4270135843",
    "name": "介護支援センターながさき　デイサービス・ステーションうつつ川",
    "kana": "カイゴシエンセンターナガサキ　デイサービスステーションウツツカワ",
    "address": "長崎県長崎市現川町342-1",
    "lat": 32.7927769,
    "lng": 129.930563,
    "tel": "095-801-4477",
    "url": "https://www.human-nw.com",
    "pref": "長崎県",
    "city": "長崎市",
    "category": "day_service",
    "serviceType": "通所介護",
    "capacity": 0,
    "openDays": [
      "平日",
      "土曜日",
      "祝日"
    ],
    "openDaysNote": ""
  },
  {
    "id": "4270103783",
    "name": "介護支援センターながさき　デイサービス・ステーションやよい",
    "kana": "カイゴシエンセンターナガサキ　デイサービスステーションヤヨイ",
    "address": "長崎県長崎市弥生町３番３３号",
    "lat": 32.7309016,
    "lng": 129.892897,
    "tel": "095-893-6222",
    "url": "https://www.human-nw.com/",
    "pref": "長崎県",
    "city": "長崎市",
    "category": "day_service",
    "serviceType": "通所介護",
    "capacity": 100,
    "openDays": [
      "平日",
      "土曜日",
      "祝日"
    ],
    "openDaysNote": "特別な需要がある場合にはこの限りではない。"
  },
  {
    "id": "4270135256",
    "name": "介護支援センターながさき　デイサービス・ステーション伊勢の杜",
    "kana": "カイゴシエンセンターナガサキ　デイサービス　ステーションイセノモリ",
    "address": "長崎県長崎市伊勢町2番14号",
    "lat": 32.7517473988538,
    "lng": 129.884508015344,
    "tel": "095-811-7200",
    "url": "https://www.human-nw.com/",
    "pref": "長崎県",
    "city": "長崎市",
    "category": "day_service",
    "serviceType": "通所介護",
    "capacity": 45,
    "openDays": [
      "平日",
      "土曜日",
      "祝日"
    ],
    "openDaysNote": "特別な需要がある場合には、この限りではない。"
  },
  {
    "id": "4270103106",
    "name": "介護支援センターながさき　デイリハ・ステーション福田",
    "kana": "カイゴシエンセンターナガサキ　デイリハステーションフクダ",
    "address": "長崎県長崎市小浦町4番地6",
    "lat": 32.745440664254,
    "lng": 129.831930959386,
    "tel": "095-832-9888",
    "url": "https://www.human-nw.com/",
    "pref": "長崎県",
    "city": "長崎市",
    "category": "day_service",
    "serviceType": "通所介護",
    "capacity": 0,
    "openDays": [
      "平日",
      "土曜日",
      "祝日"
    ],
    "openDaysNote": "特別な需要がある場合には、この限りではない。"
  },
  {
    "id": "4270110184",
    "name": "介護支援センターながさき　リハステーションあたご",
    "kana": "カイゴシエンセンターナガサキ　リハステーションアタゴ",
    "address": "長崎県長崎市愛宕4丁目18番20号ララプレイス愛宕 ララプレイス愛宕",
    "lat": 32.7323294795912,
    "lng": 129.891715961377,
    "tel": "095-893-8826",
    "url": "https://www.human-nw.com/",
    "pref": "長崎県",
    "city": "長崎市",
    "category": "day_service",
    "serviceType": "通所介護",
    "capacity": 300,
    "openDays": [
      "平日",
      "土曜日",
      "祝日"
    ],
    "openDaysNote": "特別な需要がある場合には、この限りではない。"
  },
  {
    "id": "4270106927",
    "name": "介護支援センターながさき　介護予防ステーション中島川",
    "kana": "カイゴシエンセンターナガサキ　カイゴヨボウステーションナカシマカワ",
    "address": "長崎県長崎市魚の町６番２０号の７",
    "lat": 32.748247,
    "lng": 129.8804168,
    "tel": "095-811-7600",
    "url": "hpps://www.human-nw.com",
    "pref": "長崎県",
    "city": "長崎市",
    "category": "day_service",
    "serviceType": "通所介護",
    "capacity": 300,
    "openDays": [
      "平日",
      "土曜日",
      "祝日"
    ],
    "openDaysNote": ""
  },
  {
    "id": "4270108402",
    "name": "介護予防センターサンハイツ青山中央",
    "kana": "カイゴヨボウセンターサンハイツアオヤマチュウオウ",
    "address": "長崎県長崎市青山町14番1号",
    "lat": 32.7761851,
    "lng": 129.8513351,
    "tel": "095-860-0007",
    "url": "http://www.sanhaitsu.jp/chienkai/day_aoyamanew/",
    "pref": "長崎県",
    "city": "長崎市",
    "category": "day_service",
    "serviceType": "通所介護",
    "capacity": 70,
    "openDays": [
      "平日",
      "土曜日",
      "祝日"
    ],
    "openDaysNote": ""
  },
  {
    "id": "4270107750",
    "name": "介護予防デイサービス　クローバー・ガーデン畝刈",
    "kana": "カイゴヨボウデイサービス　クローバー・ガーデンアゼカリ",
    "address": "長崎県長崎市畝刈町1613番274号",
    "lat": 32.8268261,
    "lng": 129.7810436,
    "tel": "095-860-1118",
    "url": "http://www.fujimoto-group.jp/",
    "pref": "長崎県",
    "city": "長崎市",
    "category": "day_service",
    "serviceType": "通所介護",
    "capacity": 0,
    "openDays": [
      "平日",
      "土曜日"
    ],
    "openDaysNote": ""
  },
  {
    "id": "4270135652",
    "name": "株式会社　ENTOWA　エフ・ステージ中央　予防のデイ・ことばのデイ",
    "kana": "カブシキガイシャ　エントワ　エフ・ステージチュウオウ　ヨボウノデイ・コトバノデイ",
    "address": "長崎県長崎市桜馬場１丁目12-18婦人会館3階 婦人会館3階",
    "lat": 32.753631,
    "lng": 129.8892696,
    "tel": "095-832-2223",
    "url": "entowa.co.jp",
    "pref": "長崎県",
    "city": "長崎市",
    "category": "day_service",
    "serviceType": "通所介護",
    "capacity": 6,
    "openDays": [
      "平日",
      "土曜日",
      "祝日"
    ],
    "openDaysNote": ""
  },
  {
    "id": "4270101019",
    "name": "恵珠苑　指定通所介護事業所",
    "kana": "ケイジュエン　シテイツウショカイゴジギョウショ",
    "address": "長崎県長崎市田上2丁目15番12号特別養護老人ホーム恵珠苑　本館　１階 特別養護老人ホーム恵珠苑　本館　１階",
    "lat": 32.726513,
    "lng": 129.8865781,
    "tel": "095-828-1332",
    "url": "http://yuukikai.jp/",
    "pref": "長崎県",
    "city": "長崎市",
    "category": "day_service",
    "serviceType": "通所介護",
    "capacity": 0,
    "openDays": [
      "平日",
      "土曜日",
      "祝日"
    ],
    "openDaysNote": "利用者等からの電話による相談については、24時間常時連絡が可能な体制をとっています。（改行）但し、対応している時間外の時間帯や、日曜日の連絡につきましては、次の日及び月曜日の午前8時30分以降の対応となります。（改行）また、緊急やむ得ない場合以外に、利用前日夜9時までに申し出がなく、利用を中止した場合にはキャンセル料金（650円）をいただきます。"
  },
  {
    "id": "4270102975",
    "name": "戸町ふくし村　デイサービスセンター",
    "kana": "トマチフクシムラ　デイサービスセンター",
    "address": "長崎県長崎市戸町４丁目７番２０号",
    "lat": 32.7202101,
    "lng": 129.861166,
    "tel": "095-898-5020",
    "url": "http://www.kenyukai.or.jp/fukushimura/",
    "pref": "長崎県",
    "city": "長崎市",
    "category": "day_service",
    "serviceType": "通所介護",
    "capacity": 0,
    "openDays": [
      "平日",
      "土曜日",
      "祝日"
    ],
    "openDaysNote": ""
  },
  {
    "id": "4270101332",
    "name": "指定通所介護事業所　かたふち村",
    "kana": "シテイツウショカイゴジギョウショ　カタフチムラ",
    "address": "長崎県長崎市片淵3丁目500番地2",
    "lat": 32.7661346,
    "lng": 129.8942069,
    "tel": "095-828-5680",
    "url": "http://www.katafuchimura.or.jp/",
    "pref": "長崎県",
    "city": "長崎市",
    "category": "day_service",
    "serviceType": "通所介護",
    "capacity": 0,
    "openDays": [
      "平日",
      "土曜日",
      "祝日"
    ],
    "openDaysNote": ""
  },
  {
    "id": "4270108808",
    "name": "指定通所介護事業所　コスモ",
    "kana": "シテイツウショカイゴジギョウショ　コスモ",
    "address": "長崎県長崎市かき道６丁目１－１東長崎コスモマンション 東長崎コスモマンション",
    "lat": 32.7653718,
    "lng": 129.9599327,
    "tel": "095-839-9911",
    "url": "http://www.kaigomansion.org/",
    "pref": "長崎県",
    "city": "長崎市",
    "category": "day_service",
    "serviceType": "通所介護",
    "capacity": 0,
    "openDays": [
      "平日",
      "土曜日",
      "日曜日",
      "祝日"
    ],
    "openDaysNote": "年末年始休業あり"
  },
  {
    "id": "4270100946",
    "name": "社会福祉法人　実寿穂会　デイサービスセンターみずほ",
    "kana": "シャカイフクシホウジン　ミズホカイ　デイサービスセンターミズホ",
    "address": "長崎県長崎市岩屋町４５番１号ケアハウス４階 ケアハウス４階",
    "lat": 32.7998018,
    "lng": 129.8485255,
    "tel": "095-855-1411",
    "url": "http://www.mizuhokai.jp/",
    "pref": "長崎県",
    "city": "長崎市",
    "category": "day_service",
    "serviceType": "通所介護",
    "capacity": 40,
    "openDays": [
      "平日",
      "土曜日",
      "祝日"
    ],
    "openDaysNote": ""
  },
  {
    "id": "4270105440",
    "name": "社会福祉法人実寿穂会　滑石地区デイサービスセンター",
    "kana": "シャカイフクシホウジンミズホカイ　ナメシチクデイサービスセンター",
    "address": "長崎県長崎市葉山２丁目２８番１０号",
    "lat": 32.806466881697,
    "lng": 129.844693934848,
    "tel": "095-856-0500",
    "url": "http://www.mizuhokai.jp",
    "pref": "長崎県",
    "city": "長崎市",
    "category": "day_service",
    "serviceType": "通所介護",
    "capacity": 30,
    "openDays": [
      "平日",
      "土曜日",
      "祝日"
    ],
    "openDaysNote": "年末年始お休みさせて頂く場合もあります。"
  },
  {
    "id": "4270100938",
    "name": "社会福祉法人朋永会　指定通所介護事業所びわの園",
    "kana": "シャカイフクシホウジンホウエイカイ　シテイツウショカイゴジギョウショビワノソノ",
    "address": "長崎県長崎市茂木町２２２２番地",
    "lat": 32.6995432,
    "lng": 129.9127107,
    "tel": "095-836-2800",
    "url": "http://biwanosono.com",
    "pref": "長崎県",
    "city": "長崎市",
    "category": "day_service",
    "serviceType": "通所介護",
    "capacity": 0,
    "openDays": [
      "平日",
      "土曜日",
      "祝日"
    ],
    "openDaysNote": ""
  },
  {
    "id": "4270106307",
    "name": "松山町パークデイリハビリセンター",
    "kana": "マツヤママチパークデイリハビリセンター",
    "address": "長崎県長崎市松山町4-36松山町リハビリセンター　2Ｆ 松山町リハビリセンター　2Ｆ",
    "lat": 32.7683586,
    "lng": 129.8638595,
    "tel": "095-865-7111",
    "url": "http://kiyohararyu-naika.com",
    "pref": "長崎県",
    "city": "長崎市",
    "category": "day_service",
    "serviceType": "通所介護",
    "capacity": 0,
    "openDays": [
      "平日",
      "土曜日",
      "祝日"
    ],
    "openDaysNote": ""
  },
  {
    "id": "4270106315",
    "name": "清原龍内科松山町リハビリセンター",
    "kana": "キヨハラリュウナイカマツヤママチリハビリセンター",
    "address": "長崎県長崎市松山町４番３６号松山町リハビリセンター　3Ｆ 松山町リハビリセンター　3Ｆ",
    "lat": 32.7728275,
    "lng": 129.86249,
    "tel": "095-865-7111",
    "url": "http://kiyohararyu-naika.com",
    "pref": "長崎県",
    "city": "長崎市",
    "category": "day_service",
    "serviceType": "通所介護",
    "capacity": 0,
    "openDays": [
      "平日",
      "土曜日",
      "祝日"
    ],
    "openDaysNote": ""
  },
  {
    "id": "4270107388",
    "name": "西山十三番館",
    "kana": "ニシヤマジュウサンバンカン",
    "address": "長崎県長崎市西山4丁目474番6",
    "lat": 32.7787582,
    "lng": 129.8889237,
    "tel": "095-828-1013",
    "url": "http://www.ooura13.com",
    "pref": "長崎県",
    "city": "長崎市",
    "category": "day_service",
    "serviceType": "通所介護",
    "capacity": 0,
    "openDays": [
      "平日",
      "土曜日",
      "日曜日",
      "祝日"
    ],
    "openDaysNote": "利用時間についてはご相談下さい。"
  },
  {
    "id": "4270105697",
    "name": "大浦十三番館デイサービス",
    "kana": "オオウラジュウサンバンカンデイサービス",
    "address": "長崎県長崎市大浦町３番２１号",
    "lat": 32.7367061,
    "lng": 129.8713899,
    "tel": "095-818-8018",
    "url": "http://www.syunjyu-kai.or.jp/",
    "pref": "長崎県",
    "city": "長崎市",
    "category": "day_service",
    "serviceType": "通所介護",
    "capacity": 0,
    "openDays": [
      "平日",
      "土曜日",
      "祝日"
    ],
    "openDaysNote": "特に無し"
  },
  {
    "id": "4270105952",
    "name": "中嶋クリニック　デイサービス",
    "kana": "ナカジマクリニック　デイサービス",
    "address": "長崎県長崎市三原２丁目１１番５０号",
    "lat": 32.7840211,
    "lng": 129.8793853,
    "tel": "095-843-4546",
    "url": "http://nakajimaclinic.jimdo.com/",
    "pref": "長崎県",
    "city": "長崎市",
    "category": "day_service",
    "serviceType": "通所介護",
    "capacity": 0,
    "openDays": [
      "平日",
      "土曜日"
    ],
    "openDaysNote": ""
  },
  {
    "id": "4270104526",
    "name": "長崎スカイホテル　稲佐山　湯ったりクラブ　デイサービスセンター",
    "kana": "ナガサキスカイホテル　イナサヤマ　ユッタリクラブ　デイサービスセンター",
    "address": "長崎県長崎市江の浦町１８－１長崎スカイホテル 長崎スカイホテル",
    "lat": 32.7535291,
    "lng": 129.8537854,
    "tel": "095-834-1313",
    "url": "",
    "pref": "長崎県",
    "city": "長崎市",
    "category": "day_service",
    "serviceType": "通所介護",
    "capacity": 0,
    "openDays": [
      "平日",
      "祝日"
    ],
    "openDaysNote": "定休日以外の祝日は通常通り営業しております。"
  },
  {
    "id": "4270100235",
    "name": "長崎市医師会保健福祉センター",
    "kana": "ナガサキシイシカイホケンフクシセンター",
    "address": "長崎県長崎市栄町2番22号",
    "lat": 32.7481081,
    "lng": 129.8777198,
    "tel": "095-818-6686",
    "url": "http://www.nagasaki.med.or.jp/n-city/",
    "pref": "長崎県",
    "city": "長崎市",
    "category": "day_service",
    "serviceType": "通所介護",
    "capacity": 0,
    "openDays": [
      "平日",
      "祝日"
    ],
    "openDaysNote": ""
  },
  {
    "id": "4270111174",
    "name": "長崎市社会福祉協議会琴海ゆうゆう号デイサービスセンター",
    "kana": "ナガサキシシャカイフクシキョウギカイキンカイユウユウゴウデイサービスセンター",
    "address": "長崎県長崎市長浦町3777番地10",
    "lat": 32.9059939,
    "lng": 129.7841662,
    "tel": "095-885-2141",
    "url": "",
    "pref": "長崎県",
    "city": "長崎市",
    "category": "day_service",
    "serviceType": "通所介護",
    "capacity": 28,
    "openDays": [
      "平日",
      "土曜日",
      "日曜日",
      "祝日"
    ],
    "openDaysNote": ""
  },
  {
    "id": "4270105713",
    "name": "長寿会　デイサービス・平和パーク",
    "kana": "チョウジュカイ　デイサービス・ヘイワパーク",
    "address": "長崎県長崎市橋口町12-2",
    "lat": 32.7781325,
    "lng": 129.8656617,
    "tel": "095-847-6660",
    "url": "http://kiyohararyu-naika.com",
    "pref": "長崎県",
    "city": "長崎市",
    "category": "day_service",
    "serviceType": "通所介護",
    "capacity": 0,
    "openDays": [
      "平日",
      "土曜日",
      "祝日"
    ],
    "openDaysNote": ""
  },
  {
    "id": "4270135520",
    "name": "通所介護　しらはま",
    "kana": "ツウショカイゴ　シラハマ",
    "address": "長崎県長崎市大橋町10-30",
    "lat": 32.7841987905432,
    "lng": 129.862159540475,
    "tel": "095-848-1986",
    "url": "https://www.shirahama-seikeigeka.com/",
    "pref": "長崎県",
    "city": "長崎市",
    "category": "day_service",
    "serviceType": "通所介護",
    "capacity": 0,
    "openDays": [
      "平日",
      "土曜日"
    ],
    "openDaysNote": ""
  },
  {
    "id": "4270100672",
    "name": "通所介護・プライエム横尾",
    "kana": "ツウショカイゴ・プライエムヨコオ",
    "address": "長崎県長崎市横尾3丁目26番1号",
    "lat": 32.8166475,
    "lng": 129.8385728,
    "tel": "095-856-6511",
    "url": "http://www.heisei-kai.or.jp",
    "pref": "長崎県",
    "city": "長崎市",
    "category": "day_service",
    "serviceType": "通所介護",
    "capacity": 0,
    "openDays": [
      "平日",
      "土曜日",
      "日曜日",
      "祝日"
    ],
    "openDaysNote": "台風や雪等の悪天候で送迎が安全にできない場合は、休業する事もあります。"
  },
  {
    "id": "4270105523",
    "name": "通所介護滑石",
    "kana": "ツウショカイゴナメシ",
    "address": "長崎県長崎市滑石６丁目４番３号",
    "lat": 32.8035847,
    "lng": 129.8344262,
    "tel": "095-856-2940",
    "url": "http://www.heisei-kai.or.jp/",
    "pref": "長崎県",
    "city": "長崎市",
    "category": "day_service",
    "serviceType": "通所介護",
    "capacity": 35,
    "openDays": [
      "平日",
      "土曜日",
      "祝日"
    ],
    "openDaysNote": ""
  },
  {
    "id": "4270110739",
    "name": "通所介護施設　シーサイド",
    "kana": "ツウショカイゴ　シーサイド",
    "address": "長崎県長崎市野母町2283-7",
    "lat": 32.5796389,
    "lng": 129.7535489,
    "tel": "095-893-1153",
    "url": "http://www.kouyokai.jp",
    "pref": "長崎県",
    "city": "長崎市",
    "category": "day_service",
    "serviceType": "通所介護",
    "capacity": 40,
    "openDays": [
      "平日",
      "土曜日",
      "祝日"
    ],
    "openDaysNote": ""
  },
  {
    "id": "4270135355",
    "name": "通所介護事業所　こえばる",
    "kana": "ツウショカイゴジギョウショ　コエバル",
    "address": "長崎県長崎市小江原4丁目1番３０号",
    "lat": 32.7836367,
    "lng": 129.8322886,
    "tel": "095-814-8225",
    "url": "http://syuhoukai.jp/",
    "pref": "長崎県",
    "city": "長崎市",
    "category": "day_service",
    "serviceType": "通所介護",
    "capacity": 0,
    "openDays": [
      "平日",
      "土曜日",
      "祝日"
    ],
    "openDaysNote": ""
  },
  {
    "id": "4270100433",
    "name": "通所介護事業所　古賀山荘",
    "kana": "ツウショカイゴジギョウショ　コガサンソウ",
    "address": "長崎県長崎市古賀町806番7通所介護事業所　古賀山荘 通所介護事業所　古賀山荘",
    "lat": 32.7969217,
    "lng": 129.9618344,
    "tel": "095-838-4380",
    "url": "http://www.koganosato.jp/",
    "pref": "長崎県",
    "city": "長崎市",
    "category": "day_service",
    "serviceType": "通所介護",
    "capacity": 35,
    "openDays": [
      "平日",
      "土曜日",
      "祝日"
    ],
    "openDaysNote": ""
  },
  {
    "id": "4271100846",
    "name": "通所介護事業所（三和荘）",
    "kana": "ツウショカイゴジギョウショサンワソウ",
    "address": "長崎県長崎市布巻町792番",
    "lat": 32.659559,
    "lng": 129.8290642,
    "tel": "095-892-1001",
    "url": "http://www.minorikai.or.jp/deisanwasou/",
    "pref": "長崎県",
    "city": "長崎市",
    "category": "day_service",
    "serviceType": "通所介護",
    "capacity": 0,
    "openDays": [
      "平日",
      "土曜日",
      "祝日"
    ],
    "openDaysNote": ""
  },
  {
    "id": "4270111786",
    "name": "二丁目の夕陽が丘",
    "kana": "ニチョウメノユウヒガオカ",
    "address": "長崎県長崎市西山台2丁目12番1号第二東栄ビル 第二東栄ビル",
    "lat": 32.7809885,
    "lng": 129.8923427,
    "tel": "095-894-5562",
    "url": "kagurakai.or.jp",
    "pref": "長崎県",
    "city": "長崎市",
    "category": "day_service",
    "serviceType": "通所介護",
    "capacity": 8,
    "openDays": [
      "平日",
      "土曜日",
      "祝日"
    ],
    "openDaysNote": "積雪・台風等、自然災害による危険が危惧される場合には臨時休業となります。（改行）8月15日は精霊流しによる交通規制のため15:00までのサービス提供となります。"
  },
  {
    "id": "4270101779",
    "name": "二本松荘",
    "kana": "ニホンマツソウ",
    "address": "長崎県長崎市戸町２丁目１７７－２８",
    "lat": 32.7274041,
    "lng": 129.869218,
    "tel": "095-811-1616",
    "url": "http://www.syunjyu-kai.or.jp/kaigo/dayservice.html",
    "pref": "長崎県",
    "city": "長崎市",
    "category": "day_service",
    "serviceType": "通所介護",
    "capacity": 29,
    "openDays": [
      "平日",
      "土曜日",
      "祝日"
    ],
    "openDaysNote": ""
  },
  {
    "id": "4271103337",
    "name": "エフステージ通所介護Ⅰ",
    "kana": "エフステージツウショカイゴイチ",
    "address": "長崎県西彼杵郡長与町高田郷47番地",
    "lat": 32.8028714,
    "lng": 129.8546367,
    "tel": "095-857-1110",
    "url": "entowa.co.jp",
    "pref": "長崎県",
    "city": "長与町",
    "category": "day_service",
    "serviceType": "通所介護",
    "capacity": 40,
    "openDays": [
      "平日",
      "土曜日",
      "祝日"
    ],
    "openDaysNote": "17:30以降退社時に電話を転送しているため急ぎの連絡等可対応できるよう可能な限り努めています。"
  },
  {
    "id": "4271102024",
    "name": "お達者倶楽部",
    "kana": "オタッシャクラブ",
    "address": "長崎県西彼杵郡長与町本川内郷６５５番地１コレクティブハウス琴の尾　１F コレクティブハウス琴の尾　１F",
    "lat": 32.8310364,
    "lng": 129.9001294,
    "tel": "095-814-5255",
    "url": "",
    "pref": "長崎県",
    "city": "長与町",
    "category": "day_service",
    "serviceType": "通所介護",
    "capacity": 0,
    "openDays": [
      "平日",
      "土曜日",
      "日曜日",
      "祝日"
    ],
    "openDaysNote": "特になし"
  },
  {
    "id": "4271102925",
    "name": "デイサービス　遊",
    "kana": "デイサービス　ユウ",
    "address": "長崎県西彼杵郡長与町岡郷986番地1コレクティブハウス　喜の岬　1Ｆ コレクティブハウス　喜の岬　1Ｆ",
    "lat": 32.8575994,
    "lng": 129.881054,
    "tel": "095-814-5090",
    "url": "",
    "pref": "長崎県",
    "city": "長与町",
    "category": "day_service",
    "serviceType": "通所介護",
    "capacity": 0,
    "openDays": [
      "平日",
      "土曜日",
      "日曜日",
      "祝日"
    ],
    "openDaysNote": ""
  },
  {
    "id": "4271103279",
    "name": "デイサービスおもやい",
    "kana": "デイサービスオモヤイ",
    "address": "長崎県西彼杵郡長与町高田郷1006-189",
    "lat": 32.8144077,
    "lng": 129.8716134,
    "tel": "095-865-7802",
    "url": "",
    "pref": "長崎県",
    "city": "長与町",
    "category": "day_service",
    "serviceType": "通所介護",
    "capacity": 25,
    "openDays": [
      "平日",
      "土曜日",
      "祝日"
    ],
    "openDaysNote": "土曜、祝日も営業しております。（改行）台風や豪雪の際、危険と判断した場合は前日までに周知してお休みすることがあります。（改行）時間延長も対応しておりますので、お気軽にご相談下さい。（家族の仕事終わりの１９時までお願いしたい、など）"
  },
  {
    "id": "4271102537",
    "name": "ニチイケアセンターまなび野",
    "kana": "ニチイケアセンターマナビノ",
    "address": "長崎県西彼杵郡長与町まなび野３－３５－５",
    "lat": 32.8133929,
    "lng": 129.8780455,
    "tel": "095-813-5771",
    "url": "http://www.nichiigakkan.co.jp",
    "pref": "長崎県",
    "city": "長与町",
    "category": "day_service",
    "serviceType": "通所介護",
    "capacity": 0,
    "openDays": [
      "平日",
      "土曜日",
      "日曜日",
      "祝日"
    ],
    "openDaysNote": ""
  },
  {
    "id": "4271100655",
    "name": "のぞみの杜　通所介護事業所",
    "kana": "ノゾミノモリ　ツウショカイゴジギョウショ",
    "address": "長崎県西彼杵郡長与町吉無田郷１５７８番地",
    "lat": 32.8163345,
    "lng": 129.8863616,
    "tel": "095-887-3333",
    "url": "http://www.nozominomori.or.jp",
    "pref": "長崎県",
    "city": "長与町",
    "category": "day_service",
    "serviceType": "通所介護",
    "capacity": 70,
    "openDays": [
      "平日",
      "土曜日",
      "祝日"
    ],
    "openDaysNote": ""
  },
  {
    "id": "4271101158",
    "name": "医療法人　常葉会　長与病院　通所介護",
    "kana": "イリョウホウジン　トコハカイ　ナガヨビョウイン　ツウショカイゴ",
    "address": "長崎県西彼杵郡長与町吉無田郷647",
    "lat": 32.8187423,
    "lng": 129.8763343,
    "tel": "095-813-5603",
    "url": "http://tokohakai.com/index.html",
    "pref": "長崎県",
    "city": "長与町",
    "category": "day_service",
    "serviceType": "通所介護",
    "capacity": 40,
    "openDays": [
      "平日",
      "土曜日"
    ],
    "openDaysNote": ""
  },
  {
    "id": "4271103188",
    "name": "元気の湧　のぞみの杜",
    "kana": "ゲンキノイズミ　ノゾミノモリ",
    "address": "長崎県西彼杵郡長与町吉無田郷1578番地",
    "lat": 32.8163345,
    "lng": 129.8863616,
    "tel": "095-887-3333",
    "url": "nozomi@nozominomori.or.jp",
    "pref": "長崎県",
    "city": "長与町",
    "category": "day_service",
    "serviceType": "通所介護",
    "capacity": 70,
    "openDays": [
      "平日",
      "祝日"
    ],
    "openDaysNote": ""
  },
  {
    "id": "4271102222",
    "name": "指定通所介護事業所デイサービスあかね雲",
    "kana": "シテイツウショカイゴジギョウショデイサービスアカネグモ",
    "address": "長崎県西彼杵郡長与町岡郷2124-1",
    "lat": 32.8605249,
    "lng": 129.8735749,
    "tel": "095-814-5224",
    "url": "",
    "pref": "長崎県",
    "city": "長与町",
    "category": "day_service",
    "serviceType": "通所介護",
    "capacity": 35,
    "openDays": [
      "平日",
      "土曜日",
      "祝日"
    ],
    "openDaysNote": "希望があれば夕食までの対応可能。（人数制限あり）"
  },
  {
    "id": "4271100259",
    "name": "社会福祉法人　長与町社会福祉協議会",
    "kana": "シャカイフクシホウジン　ナガヨチョウシャカイフクシキョウギカイ",
    "address": "長崎県西彼杵郡長与町丸田郷157番地2丸田荘1Ｆ 丸田荘1Ｆ",
    "lat": 32.8309125788092,
    "lng": 129.879552976305,
    "tel": "095-883-7791",
    "url": "http://nagayoswc.org/",
    "pref": "長崎県",
    "city": "長与町",
    "category": "day_service",
    "serviceType": "通所介護",
    "capacity": 20,
    "openDays": [
      "平日",
      "土曜日",
      "祝日"
    ],
    "openDaysNote": ""
  },
  {
    "id": "4270301387",
    "name": "デイサークル　アミスヴィラ森岳",
    "kana": "デイサークル　アミスゔィラモリタケ",
    "address": "長崎県島原市城内１丁目1836-1",
    "lat": 32.7885393,
    "lng": 130.3653344,
    "tel": "0957-63-3333",
    "url": "https://shunkokai.jp",
    "pref": "長崎県",
    "city": "島原市",
    "category": "day_service",
    "serviceType": "通所介護",
    "capacity": null,
    "openDays": [
      "平日",
      "土曜日",
      "祝日"
    ],
    "openDaysNote": "日曜日及び年末年始（1月1日）について、担当者は不在ですが事務所担当者が電話受付し後日担当者より返答致します。"
  },
  {
    "id": "4270301205",
    "name": "デイサービスあっぷる",
    "kana": "デイサービスアップル",
    "address": "有明町大三東471番地1",
    "lat": 32.8492416,
    "lng": 130.3371149,
    "tel": "0957-68-2316",
    "url": "https://apple-ariake.com/",
    "pref": "長崎県",
    "city": "島原市",
    "category": "day_service",
    "serviceType": "通所介護",
    "capacity": 0,
    "openDays": [
      "平日",
      "土曜日",
      "日曜日",
      "祝日"
    ],
    "openDaysNote": ""
  },
  {
    "id": "4270301379",
    "name": "デイサービスカフー",
    "kana": "デイサービスカフー",
    "address": "長崎県島原市秩父が浦町丁3531-4",
    "lat": 32.7583956,
    "lng": 130.3723035,
    "tel": "957604833",
    "url": "https://www.apygcafu.com/",
    "pref": "長崎県",
    "city": "島原市",
    "category": "day_service",
    "serviceType": "通所介護",
    "capacity": 0,
    "openDays": [
      "平日"
    ],
    "openDaysNote": ""
  },
  {
    "id": "4270301213",
    "name": "デイサービスしおさい",
    "kana": "デイサービスシオサイ",
    "address": "長崎県島原市中安徳町丁1769-1",
    "lat": 32.7456293,
    "lng": 130.3609353,
    "tel": "0957-65-5147",
    "url": "",
    "pref": "長崎県",
    "city": "島原市",
    "category": "day_service",
    "serviceType": "通所介護",
    "capacity": 0,
    "openDays": [
      "平日",
      "土曜日",
      "祝日"
    ],
    "openDaysNote": ""
  },
  {
    "id": "4270300306",
    "name": "デイサービスセンター　宝生園",
    "kana": "デイサービスセンター　ホウショウエン",
    "address": "長崎県島原市杉山町甲673番地1",
    "lat": 32.7953379,
    "lng": 130.3509338,
    "tel": "0957-64-5608",
    "url": "http://houshouen.iiyudana.net/",
    "pref": "長崎県",
    "city": "島原市",
    "category": "day_service",
    "serviceType": "通所介護",
    "capacity": 35,
    "openDays": [
      "平日",
      "土曜日",
      "祝日"
    ],
    "openDaysNote": ""
  },
  {
    "id": "4270300694",
    "name": "デイサービスセンター・あんしんハウス",
    "kana": "デイサービスセンター・アンシンハウス",
    "address": "長崎県島原市上新丁1丁目4158-1",
    "lat": 32.7886886,
    "lng": 130.3595864,
    "tel": "0957-64-8256",
    "url": "",
    "pref": "長崎県",
    "city": "島原市",
    "category": "day_service",
    "serviceType": "通所介護",
    "capacity": 0,
    "openDays": [
      "平日",
      "土曜日",
      "祝日"
    ],
    "openDaysNote": "8月15日（夏期休業）、12月30日～1月3日（冬期休業）"
  },
  {
    "id": "4270300488",
    "name": "デイサービスセンターしまばら",
    "kana": "デイサービスセンターシマバラ",
    "address": "長崎県島原市江里町乙2353-1",
    "lat": 32.8005041,
    "lng": 130.3338906,
    "tel": "0957-65-5118",
    "url": "http://www.shimabara.jp/npo-shimabara/",
    "pref": "長崎県",
    "city": "島原市",
    "category": "day_service",
    "serviceType": "通所介護",
    "capacity": 35,
    "openDays": [
      "平日",
      "土曜日",
      "日曜日",
      "祝日"
    ],
    "openDaysNote": ""
  },
  {
    "id": "4270300611",
    "name": "デイサービスセンター上の湯",
    "kana": "デイサービスセンターウエノユ",
    "address": "長崎県島原市新山4丁目8826",
    "lat": 32.7703263,
    "lng": 130.3602985,
    "tel": "0957-63-2290",
    "url": "",
    "pref": "長崎県",
    "city": "島原市",
    "category": "day_service",
    "serviceType": "通所介護",
    "capacity": 0,
    "openDays": [
      "平日"
    ],
    "openDaysNote": ""
  },
  {
    "id": "4271400915",
    "name": "デイサービスセンター百華苑",
    "kana": "デイサービスセンター　ヒャッカエン",
    "address": "長崎県島原市有明町大三東戊７８３－１",
    "lat": 32.8538162,
    "lng": 130.3344734,
    "tel": "0957-68-3777",
    "url": "http://www.shokow-by.or.jp",
    "pref": "長崎県",
    "city": "島原市",
    "category": "day_service",
    "serviceType": "通所介護",
    "capacity": 30,
    "openDays": [
      "平日",
      "土曜日",
      "日曜日",
      "祝日"
    ],
    "openDaysNote": ""
  },
  {
    "id": "4270300793",
    "name": "デイサービスセンター宝生園中堀町",
    "kana": "デイサービスセンター　ホウショウエン　ナカホリマチ",
    "address": "長崎県島原市中堀町153番地1",
    "lat": 32.7832531,
    "lng": 130.3699556,
    "tel": "0957-62-1919",
    "url": "https://rurikoukaishimabara.web.fc2.com/index.html",
    "pref": "長崎県",
    "city": "島原市",
    "category": "day_service",
    "serviceType": "通所介護",
    "capacity": 0,
    "openDays": [
      "平日",
      "土曜日",
      "祝日"
    ],
    "openDaysNote": "特に無し"
  },
  {
    "id": "4270300868",
    "name": "デイサービス暖",
    "kana": "デイサービスダン",
    "address": "長崎県島原市有明町大三東戊1214番地1",
    "lat": 32.8519635,
    "lng": 130.3309737,
    "tel": "0957-68-3526",
    "url": "http://www.gh-dan.jp/",
    "pref": "長崎県",
    "city": "島原市",
    "category": "day_service",
    "serviceType": "通所介護",
    "capacity": 0,
    "openDays": [
      "平日",
      "土曜日",
      "祝日"
    ],
    "openDaysNote": "盆は原則営業しておりますが、天候・利用状況により休みとする場合もあります。"
  },
  {
    "id": "4270300983",
    "name": "デイセンター「城下」",
    "kana": "デイセンター「ジョウカ」",
    "address": "長崎県島原市新湊二丁目丙1743番地",
    "lat": 32.7614968,
    "lng": 130.3609015,
    "tel": "0957-65-5040",
    "url": "http://johka.jp",
    "pref": "長崎県",
    "city": "島原市",
    "category": "day_service",
    "serviceType": "通所介護",
    "capacity": 0,
    "openDays": [
      "平日",
      "土曜日",
      "日曜日",
      "祝日"
    ],
    "openDaysNote": ""
  },
  {
    "id": "4270300751",
    "name": "医療法人社団東洋会　リハサポート",
    "kana": "イリョウホウジンシャダントウヨウカイ　リハサポート",
    "address": "長崎県島原市下川尻町７９０５番地",
    "lat": 32.769743,
    "lng": 130.370184,
    "tel": "0957-62-1212",
    "url": "http://www.ikeda-hp.or.jp/",
    "pref": "長崎県",
    "city": "島原市",
    "category": "day_service",
    "serviceType": "通所介護",
    "capacity": 0,
    "openDays": [
      "平日",
      "土曜日",
      "祝日"
    ],
    "openDaysNote": ""
  },
  {
    "id": "4270301023",
    "name": "株式会社　ホープブライト　　デイサービス咲楽",
    "kana": "カブシキガイシャ　ホープブライト　　デイサービスサクラ",
    "address": "長崎県島原市有明町大三東戊795-1",
    "lat": 32.8545633,
    "lng": 130.3332096,
    "tel": "0957-68-5572",
    "url": "",
    "pref": "長崎県",
    "city": "島原市",
    "category": "day_service",
    "serviceType": "通所介護",
    "capacity": 35,
    "openDays": [
      "平日",
      "土曜日",
      "祝日"
    ],
    "openDaysNote": "緊急時の場合はこの限りではない。"
  },
  {
    "id": "4270301155",
    "name": "九十九会シニアクラブ",
    "kana": "ツクモカイシニアクラブ",
    "address": "長崎県島原市秩父が浦町丁3552番地53東洋九十九ベイホテル潮騒館4階 東洋九十九ベイホテル潮騒館4階",
    "lat": 32.7614588912762,
    "lng": 130.370414297623,
    "tel": "0957-62-4339",
    "url": "",
    "pref": "長崎県",
    "city": "島原市",
    "category": "day_service",
    "serviceType": "通所介護",
    "capacity": 15,
    "openDays": [
      "平日",
      "土曜日",
      "祝日"
    ],
    "openDaysNote": ""
  },
  {
    "id": "4270300199",
    "name": "社会福祉法人秩父会　デイサービスセンター湧水園",
    "kana": "シャカイフクシホウジンチチブカイ　デイサービスセンターユウスイエン",
    "address": "長崎県島原市秩父が浦町丁3552番地",
    "lat": 32.7616968,
    "lng": 130.3692288,
    "tel": "0957-62-7038",
    "url": "http://www.chichibukai.or.jp/",
    "pref": "長崎県",
    "city": "島原市",
    "category": "day_service",
    "serviceType": "通所介護",
    "capacity": 0,
    "openDays": [
      "平日",
      "土曜日",
      "祝日"
    ],
    "openDaysNote": ""
  },
  {
    "id": "4270301338",
    "name": "清華学園",
    "kana": "セイカガクエン",
    "address": "有明町大三東甲2150番地",
    "lat": 32.8338203,
    "lng": 130.3431825,
    "tel": "957681161",
    "url": "http://www.seika.or.jp",
    "pref": "長崎県",
    "city": "島原市",
    "category": "day_service",
    "serviceType": "通所介護",
    "capacity": 125,
    "openDays": [
      "平日",
      "土曜日"
    ],
    "openDaysNote": ""
  },
  {
    "id": "4271402408",
    "name": "島原市社協　デイサービスセンター真心",
    "kana": "シマバラシシャキョウ　デイサービスセンター　マゴコロ",
    "address": "長崎県島原市有明町大三東戊１３５２番地１",
    "lat": 32.8490999,
    "lng": 130.3375177,
    "tel": "0957-65-9091",
    "url": "",
    "pref": "長崎県",
    "city": "島原市",
    "category": "day_service",
    "serviceType": "通所介護",
    "capacity": 0,
    "openDays": [
      "平日",
      "日曜日",
      "祝日"
    ],
    "openDaysNote": ""
  },
  {
    "id": "4271402168",
    "name": "特定非営利活動法人遊々",
    "kana": "トクテイヒエイリカツドウホウジンユウユウ",
    "address": "長崎県島原市有明町湯江丁１７８8",
    "lat": 32.8585111186015,
    "lng": 130.31165239259,
    "tel": "0957-68-1680",
    "url": "https://npoyuyu.net",
    "pref": "長崎県",
    "city": "島原市",
    "category": "day_service",
    "serviceType": "通所介護",
    "capacity": 20,
    "openDays": [
      "平日",
      "土曜日",
      "祝日"
    ],
    "openDaysNote": "祝日も営業しております。"
  },
  {
    "id": "4270300777",
    "name": "老人デイサービスセンター淡淡荘Ⅱ",
    "kana": "ロウジンデイサービスセンタータンタンソウツー",
    "address": "長崎県島原市萩が丘2丁目6122番地",
    "lat": 32.7796866,
    "lng": 130.3570398,
    "tel": "0957-62-3322",
    "url": "http://rakuzankai.com/",
    "pref": "長崎県",
    "city": "島原市",
    "category": "day_service",
    "serviceType": "通所介護",
    "capacity": 0,
    "openDays": [
      "平日",
      "土曜日",
      "日曜日",
      "祝日"
    ],
    "openDaysNote": ""
  },
  {
    "id": "4271200943",
    "name": "デイサービスのんの",
    "kana": "デイサービスノンノ",
    "address": "長崎県東彼杵郡東彼杵町蔵本郷1232番地1",
    "lat": 33.0422024,
    "lng": 129.9166741,
    "tel": "0597-46-0078",
    "url": "http://www.nonno-group.com/wp/wp-admin/",
    "pref": "長崎県",
    "city": "東彼杵町",
    "category": "day_service",
    "serviceType": "通所介護",
    "capacity": 0,
    "openDays": [
      "平日",
      "土曜日",
      "日曜日",
      "祝日"
    ],
    "openDaysNote": "※サービス提供時間は９時００分～１６時３０分（改行）※個別での提供時間を基本としています。"
  },
  {
    "id": "4271200133",
    "name": "東彼杵町通所介護事業所",
    "kana": "ヒガシソノギチョウツウショカイゴジギョウショ",
    "address": "長崎県東彼杵郡東彼杵町彼杵宿郷７０６番地４",
    "lat": 33.0366091,
    "lng": 129.9199714,
    "tel": "0957-47-1076",
    "url": "",
    "pref": "長崎県",
    "city": "東彼杵町",
    "category": "day_service",
    "serviceType": "通所介護",
    "capacity": 0,
    "openDays": [
      "平日",
      "土曜日",
      "祝日"
    ],
    "openDaysNote": ""
  },
  {
    "id": "4271200240",
    "name": "老人デイサービスセンターもみの木荘",
    "kana": "ロウジンデイサービスセンターモミノキソウ",
    "address": "長崎県東彼杵郡東彼杵町里郷2435",
    "lat": 33.0029757463202,
    "lng": 129.955421617197,
    "tel": "0957-47-1592",
    "url": "http://www.mominoki-kai.com/",
    "pref": "長崎県",
    "city": "東彼杵町",
    "category": "day_service",
    "serviceType": "通所介護",
    "capacity": 30,
    "openDays": [
      "平日",
      "土曜日",
      "祝日"
    ],
    "openDaysNote": "土曜日の利用定員は２５名です。（改行）お盆は８月１５日　お正月１月１日から３日まで休業します。"
  },
  {
    "id": "4271402333",
    "name": "デイサービスセンター　かなめ木",
    "kana": "デイサービスセンター　カナメギ",
    "address": "長崎県南島原市南有馬町乙1220-1",
    "lat": 32.631054,
    "lng": 130.2451528,
    "tel": "0957-85-2006",
    "url": "",
    "pref": "長崎県",
    "city": "南島原市",
    "category": "day_service",
    "serviceType": "通所介護",
    "capacity": 0,
    "openDays": [
      "平日",
      "土曜日",
      "祝日"
    ],
    "openDaysNote": ""
  },
  {
    "id": "4271402366",
    "name": "デイサービスセンター　こすもす",
    "kana": "デイサービスセンター　コスモス",
    "address": "長崎県南島原市布津町乙369番地1",
    "lat": 32.6965585,
    "lng": 130.346713,
    "tel": "0957-72-7703",
    "url": "",
    "pref": "長崎県",
    "city": "南島原市",
    "category": "day_service",
    "serviceType": "通所介護",
    "capacity": 0,
    "openDays": [
      "平日",
      "土曜日",
      "祝日"
    ],
    "openDaysNote": "サービス提供時間午前９時～午後４時まで。"
  },
  {
    "id": "4271400519",
    "name": "デイサービスセンター　玉成園",
    "kana": "デイサービスセンター　ギョクセイエン",
    "address": "長崎県南島原市口之津町甲1190番地1",
    "lat": 32.6053298,
    "lng": 130.1880827,
    "tel": "0957-86-2145",
    "url": "https://www.gyokuseien.com",
    "pref": "長崎県",
    "city": "南島原市",
    "category": "day_service",
    "serviceType": "通所介護",
    "capacity": 0,
    "openDays": [
      "平日",
      "土曜日",
      "祝日"
    ],
    "openDaysNote": ""
  },
  {
    "id": "4271400816",
    "name": "デイサービスセンターあけぼの",
    "kana": "デイサービスセンターアケボノ",
    "address": "長崎県南島原市布津町乙１８６２番地２",
    "lat": 32.6941255,
    "lng": 130.3530319,
    "tel": "0957-72-5521",
    "url": "http://k-akebono.com/",
    "pref": "長崎県",
    "city": "南島原市",
    "category": "day_service",
    "serviceType": "通所介護",
    "capacity": 0,
    "openDays": [
      "平日",
      "土曜日",
      "祝日"
    ],
    "openDaysNote": ""
  },
  {
    "id": "4271400584",
    "name": "デイサービスセンター加津佐荘",
    "kana": "デイサービスセンターカヅサソウ",
    "address": "長崎県南島原市加津佐町乙618番地",
    "lat": 32.6324514,
    "lng": 130.1572059,
    "tel": "0957-87-2099",
    "url": "",
    "pref": "長崎県",
    "city": "南島原市",
    "category": "day_service",
    "serviceType": "通所介護",
    "capacity": 25,
    "openDays": [
      "平日",
      "土曜日",
      "祝日"
    ],
    "openDaysNote": ""
  },
  {
    "id": "4271400097",
    "name": "デイサービスセンター眉山荘",
    "kana": "デイサービスセンタービザンソウ",
    "address": "長崎県南島原市深江町乙８５７",
    "lat": 32.7244617,
    "lng": 130.3318218,
    "tel": "0957-72-2000",
    "url": "",
    "pref": "長崎県",
    "city": "南島原市",
    "category": "day_service",
    "serviceType": "通所介護",
    "capacity": 10,
    "openDays": [
      "平日",
      "祝日"
    ],
    "openDaysNote": ""
  },
  {
    "id": "4271400691",
    "name": "デイサービスセンター望海",
    "kana": "デイサービスセンターノゾミ",
    "address": "長崎県南島原市南有馬町甲１２７０",
    "lat": 32.6110047,
    "lng": 130.2270044,
    "tel": "0957-85-4721",
    "url": "",
    "pref": "長崎県",
    "city": "南島原市",
    "category": "day_service",
    "serviceType": "通所介護",
    "capacity": 0,
    "openDays": [
      "平日",
      "土曜日",
      "日曜日",
      "祝日"
    ],
    "openDaysNote": ""
  },
  {
    "id": "4271400675",
    "name": "デイサービスセンター有馬荘",
    "kana": "デイサービスセンターアリマソウ",
    "address": "長崎県南島原市北有馬町甲3181番地8",
    "lat": 32.6731009,
    "lng": 130.1952466,
    "tel": "0957-84-2680",
    "url": "http://www.heiwa-kai.com",
    "pref": "長崎県",
    "city": "南島原市",
    "category": "day_service",
    "serviceType": "通所介護",
    "capacity": 0,
    "openDays": [
      "平日",
      "土曜日",
      "祝日"
    ],
    "openDaysNote": "特になし"
  },
  {
    "id": "4272500804",
    "name": "デイサービスなないろ",
    "kana": "デイサービスナナイロ",
    "address": "長崎県南島原市加津佐町己３２５９番地１",
    "lat": 32.630408,
    "lng": 130.1671259,
    "tel": "0957-73-6112",
    "url": "",
    "pref": "長崎県",
    "city": "南島原市",
    "category": "day_service",
    "serviceType": "通所介護",
    "capacity": 0,
    "openDays": [
      "平日",
      "土曜日",
      "祝日"
    ],
    "openDaysNote": ""
  },
  {
    "id": "4272500689",
    "name": "ブリッジライフ南島原",
    "kana": "ブリッジライフミナミシマバラ",
    "address": "長崎県南島原市西有家町須川３２０７番地１７",
    "lat": 32.6531537,
    "lng": 130.2879211,
    "tel": "0957-82-7575",
    "url": "http//www.bridge-ｌife.jp/shop/minamishimabara.html",
    "pref": "長崎県",
    "city": "南島原市",
    "category": "day_service",
    "serviceType": "通所介護",
    "capacity": null,
    "openDays": [
      "平日",
      "土曜日",
      "祝日"
    ],
    "openDaysNote": "祝日は営業、年始休暇は１月１日及び２日"
  },
  {
    "id": "4272500671",
    "name": "医療法人　薫風会　石川内科医院　通所介護",
    "kana": "イリョウホウジン　クンプウカイ　イシカワナイカイイン　ツウショカイゴ",
    "address": "長崎県南島原市西有家町里坊25-1",
    "lat": 32.6607296,
    "lng": 130.2996387,
    "tel": "0957-82-8822",
    "url": "URL　http://www.kunpukai.or.jp/",
    "pref": "長崎県",
    "city": "南島原市",
    "category": "day_service",
    "serviceType": "通所介護",
    "capacity": 0,
    "openDays": [
      "平日",
      "土曜日",
      "祝日"
    ],
    "openDaysNote": ""
  },
  {
    "id": "4271400626",
    "name": "池田循環器科内科デイサービス",
    "kana": "イケダジュンカンキカナイカデイサービス",
    "address": "長崎県南島原市有家町山川347-1",
    "lat": 32.6629216,
    "lng": 130.3135596,
    "tel": "0957-82-6133",
    "url": "",
    "pref": "長崎県",
    "city": "南島原市",
    "category": "day_service",
    "serviceType": "通所介護",
    "capacity": 30,
    "openDays": [
      "平日",
      "土曜日"
    ],
    "openDaysNote": ""
  },
  {
    "id": "4272500119",
    "name": "南島原市社協　デイサービスセンター口之津",
    "kana": "ミナミシマバラシシャキョウ　デイサービスセンター　クチノツ",
    "address": "長崎県南島原市口之津町丙2131番地",
    "lat": 32.6143928,
    "lng": 130.1873241,
    "tel": "0957-86-2225",
    "url": "http://www.minashimashakyo.or.jp",
    "pref": "長崎県",
    "city": "南島原市",
    "category": "day_service",
    "serviceType": "通所介護",
    "capacity": 25,
    "openDays": [
      "平日",
      "土曜日",
      "祝日"
    ],
    "openDaysNote": ""
  },
  {
    "id": "4272500184",
    "name": "南島原市社協　デイサービスセンター布津",
    "kana": "ミナミシマバラシシャキョウ　デイサービスセンターフツ",
    "address": "長崎県南島原市布津町乙470番地",
    "lat": 32.6982584,
    "lng": 130.3466685,
    "tel": "0957-72-7117",
    "url": "http://www.minashimashakyo.or.jp/",
    "pref": "長崎県",
    "city": "南島原市",
    "category": "day_service",
    "serviceType": "通所介護",
    "capacity": 12,
    "openDays": [
      "平日",
      "土曜日",
      "祝日"
    ],
    "openDaysNote": ""
  },
  {
    "id": "4272500168",
    "name": "南島原市社協　デイサービスセンター有家",
    "kana": "ミナミシマバラシシャキョウ　デイサービスセンターアリエ",
    "address": "長崎県南島原市有家町石田5番地１",
    "lat": 32.6684966,
    "lng": 130.331152,
    "tel": "0957-82-1641",
    "url": "http://www.minashimashakyo.or.jp",
    "pref": "長崎県",
    "city": "南島原市",
    "category": "day_service",
    "serviceType": "通所介護",
    "capacity": 25,
    "openDays": [
      "平日",
      "土曜日"
    ],
    "openDaysNote": ""
  },
  {
    "id": "4272500259",
    "name": "有限会社新生堂　デイサービスセンターきらら",
    "kana": "ユウゲンカイシャシンセイドウ　デイサービスセンターキララ",
    "address": "長崎県南島原市西有家町見岳６０７",
    "lat": 32.6852553,
    "lng": 130.2927437,
    "tel": "0957-82-3001",
    "url": "http://www",
    "pref": "長崎県",
    "city": "南島原市",
    "category": "day_service",
    "serviceType": "通所介護",
    "capacity": 10,
    "openDays": [
      "平日",
      "土曜日",
      "祝日"
    ],
    "openDaysNote": "利用者は通所介護の提供を受ける際には、医師の診断や日常生活上の留意事項、（改行）利用当日の健康状態等を職員に連絡し、心身の状況に応じたサービスの提供を（改行）受けるよう留意する。"
  },
  {
    "id": "4271400352",
    "name": "老人デイサ－ビスセンタ－いこい園",
    "kana": "ロウジンデイサ-ビスセンタ-イコイエン",
    "address": "長崎県南島原市西有家町須川2823番地",
    "lat": 32.6664456,
    "lng": 130.2869674,
    "tel": "0957-82-2300",
    "url": "",
    "pref": "長崎県",
    "city": "南島原市",
    "category": "day_service",
    "serviceType": "通所介護",
    "capacity": 0,
    "openDays": [
      "平日",
      "土曜日",
      "祝日"
    ],
    "openDaysNote": "自然災害等により休園する場合は、事前に利用者に連絡する。"
  },
  {
    "id": "4271200992",
    "name": "コンパスウォーク波佐見",
    "kana": "コンパスウォークハサミ",
    "address": "長崎県東彼杵郡波佐見町折敷瀬郷1742－12",
    "lat": 33.1417127,
    "lng": 129.9020591,
    "tel": "0956-27-6517",
    "url": "http://keigo-group-kyushu.co.jp/",
    "pref": "長崎県",
    "city": "波佐見町",
    "category": "day_service",
    "serviceType": "通所介護",
    "capacity": 0,
    "openDays": [
      "平日",
      "祝日"
    ],
    "openDaysNote": ""
  },
  {
    "id": "4271200810",
    "name": "デイサービスセンター　銀のらくだ",
    "kana": "デイサービスセンター　ギンノラクダ",
    "address": "長崎県東彼杵郡波佐見町湯無田郷128-5",
    "lat": 33.1441704,
    "lng": 129.9102497,
    "tel": "0956-20-7505",
    "url": "https://kohno-iin.jp/ginnorakuda/",
    "pref": "長崎県",
    "city": "波佐見町",
    "category": "day_service",
    "serviceType": "通所介護",
    "capacity": 15,
    "openDays": [
      "平日",
      "土曜日",
      "祝日"
    ],
    "openDaysNote": "盆休　８月１４.１５日（場合によって変更あり）、年末年始１２月３０日～１月３日とする。"
  },
  {
    "id": "4271200372",
    "name": "デイサービスセンターいきいき",
    "kana": "デイサービスセンターイキイキ",
    "address": "長崎県東彼杵郡波佐見町長野郷516番地11",
    "lat": 33.1161294298017,
    "lng": 129.87014918427,
    "tel": "0956-26-7388",
    "url": "",
    "pref": "長崎県",
    "city": "波佐見町",
    "category": "day_service",
    "serviceType": "通所介護",
    "capacity": 30,
    "openDays": [
      "平日",
      "土曜日",
      "祝日"
    ],
    "openDaysNote": "台風・大雪等により営業が困難と判断した場合は臨時休業とします。"
  },
  {
    "id": "4271201032",
    "name": "デイサービスセンターはさみ園",
    "kana": "デイサービスセンターハサミエン",
    "address": "長崎県東彼杵郡波佐見町稗木場郷796-3",
    "lat": 33.1266153,
    "lng": 129.8725776,
    "tel": "0956-85-4707",
    "url": "https://airinkai-hasami.com",
    "pref": "長崎県",
    "city": "波佐見町",
    "category": "day_service",
    "serviceType": "通所介護",
    "capacity": 25,
    "openDays": [
      "平日",
      "土曜日",
      "日曜日",
      "祝日"
    ],
    "openDaysNote": "自然災害発生時、及び感染症蔓延時にはこの限りではなく、一時休止や時間短縮営業など状況に応じて（改行）対応致します。"
  },
  {
    "id": "4271201008",
    "name": "生活支援センターそら",
    "kana": "セイカツシエンセンターソラ",
    "address": "長崎県東彼杵郡波佐見町稗木場郷1143番地4",
    "lat": 33.129502,
    "lng": 129.8783626,
    "tel": "956596379",
    "url": "",
    "pref": "長崎県",
    "city": "波佐見町",
    "category": "day_service",
    "serviceType": "通所介護",
    "capacity": 0,
    "openDays": [
      "平日",
      "土曜日",
      "日曜日",
      "祝日"
    ],
    "openDaysNote": ""
  },
  {
    "id": "4270700760",
    "name": "さるく温泉デイサービスセンター",
    "kana": "サルクオンセンデイサービスセンター",
    "address": "長崎県平戸市田平町小手田免1020番地2",
    "lat": 33.353572,
    "lng": 129.5792645,
    "tel": "0950-57-3766",
    "url": "",
    "pref": "長崎県",
    "city": "平戸市",
    "category": "day_service",
    "serviceType": "通所介護",
    "capacity": 10,
    "openDays": [
      "平日",
      "土曜日",
      "祝日"
    ],
    "openDaysNote": "天候不良、積雪時は休業（改行）施設内感染症流行時は、状況に応じて閉所あり"
  },
  {
    "id": "4270700570",
    "name": "デイサービスセンター　光の園",
    "kana": "デイサービスセンター　ヒカリノソノ",
    "address": "長崎県平戸市大久保町325番地",
    "lat": 33.3933558,
    "lng": 129.5453935,
    "tel": "0950-26-0761",
    "url": "http://www.ans.co.jp/u/hikarinosono",
    "pref": "長崎県",
    "city": "平戸市",
    "category": "day_service",
    "serviceType": "通所介護",
    "capacity": 30,
    "openDays": [
      "平日",
      "土曜日",
      "祝日"
    ],
    "openDaysNote": "・利用者家族の希望により年末、年始対応。通所サービスの提供時間は16:30までです。"
  },
  {
    "id": "4270700745",
    "name": "デイサービスセンターさるく",
    "kana": "デイサービスセンターサルク",
    "address": "長崎県平戸市戸石川町491番6ケアホームあんじん ケアホームあんじん",
    "lat": 33.3631365289929,
    "lng": 129.549371865607,
    "tel": "950238812",
    "url": "",
    "pref": "長崎県",
    "city": "平戸市",
    "category": "day_service",
    "serviceType": "通所介護",
    "capacity": 0,
    "openDays": [
      "平日",
      "土曜日",
      "祝日"
    ],
    "openDaysNote": ""
  },
  {
    "id": "4271500011",
    "name": "なごみ",
    "kana": "ナゴミ",
    "address": "長崎県平戸市生月町山田免1889",
    "lat": 33.3755245,
    "lng": 129.4237605,
    "tel": "0950-53-2883",
    "url": "",
    "pref": "長崎県",
    "city": "平戸市",
    "category": "day_service",
    "serviceType": "通所介護",
    "capacity": 0,
    "openDays": [
      "平日",
      "土曜日",
      "日曜日",
      "祝日"
    ],
    "openDaysNote": ""
  },
  {
    "id": "4271500664",
    "name": "ひらどせとディサービス",
    "kana": "ヒラドセトディサービス",
    "address": "長崎県平戸市田平町山内免613-18",
    "lat": 33.3647512,
    "lng": 129.5749728,
    "tel": "0950-57-2222",
    "url": "https://hs.seisyukai.jp/",
    "pref": "長崎県",
    "city": "平戸市",
    "category": "day_service",
    "serviceType": "通所介護",
    "capacity": 0,
    "openDays": [
      "平日",
      "土曜日",
      "祝日"
    ],
    "openDaysNote": ""
  },
  {
    "id": "4270700083",
    "name": "わだつみの里デイサービス事業所",
    "kana": "ワダツミノサトデイサービスジギョウショ",
    "address": "長崎県平戸市辻町１７８番地",
    "lat": 33.2170798,
    "lng": 129.4260978,
    "tel": "0950-27-2300",
    "url": "",
    "pref": "長崎県",
    "city": "平戸市",
    "category": "day_service",
    "serviceType": "通所介護",
    "capacity": 0,
    "openDays": [
      "平日",
      "祝日"
    ],
    "openDaysNote": ""
  },
  {
    "id": "4270700687",
    "name": "平戸みどりが丘デイサービスセンター",
    "kana": "ヒラドミドリガオカデイサービスセンター",
    "address": "長崎県平戸市岩の上町825番地1",
    "lat": 33.356741,
    "lng": 129.5650403,
    "tel": "0950-22-5703",
    "url": "http://www.hakujukai.com",
    "pref": "長崎県",
    "city": "平戸市",
    "category": "day_service",
    "serviceType": "通所介護",
    "capacity": 30,
    "openDays": [
      "平日",
      "土曜日",
      "祝日"
    ],
    "openDaysNote": "感染症感染者が発生した場合は、休業･営業時間短縮･利用可能数縮小を実施"
  },
  {
    "id": "4270700406",
    "name": "平戸市社協通所介護生月事業所",
    "kana": "ヒラドシシャキョウツウショカイゴイキツキジギョウショ",
    "address": "長崎県平戸市生月町山田免3011番地",
    "lat": 33.3803405,
    "lng": 129.424652,
    "tel": "0950-53-2615",
    "url": "http://www.sha-kyo.net",
    "pref": "長崎県",
    "city": "平戸市",
    "category": "day_service",
    "serviceType": "通所介護",
    "capacity": 0,
    "openDays": [
      "平日",
      "土曜日",
      "祝日"
    ],
    "openDaysNote": ""
  },
  {
    "id": "4270700380",
    "name": "平戸市社協通所介護田平事業所",
    "kana": "ヒラドシシャキョウツウショカイゴタビラジギョウショ",
    "address": "長崎県平戸市田平町里免９０番地",
    "lat": 33.3598795,
    "lng": 129.5891971,
    "tel": "0950-57-2223",
    "url": "http://www.sha-kyo.net",
    "pref": "長崎県",
    "city": "平戸市",
    "category": "day_service",
    "serviceType": "通所介護",
    "capacity": 30,
    "openDays": [
      "平日",
      "土曜日",
      "祝日"
    ],
    "openDaysNote": ""
  },
  {
    "id": "4270700430",
    "name": "平戸市社協通所介護平戸事業所",
    "kana": "ヒラドシシャキョウツウショカイゴヒラドジギョウショ",
    "address": "長崎県平戸市岩の上町１４６６番地平戸市社会福祉センター 平戸市社会福祉センター",
    "lat": 33.3692951,
    "lng": 129.5566043,
    "tel": "0950-22-2180",
    "url": "http://www.sha-kyo.net/",
    "pref": "長崎県",
    "city": "平戸市",
    "category": "day_service",
    "serviceType": "通所介護",
    "capacity": 30,
    "openDays": [
      "平日",
      "日曜日",
      "祝日"
    ],
    "openDaysNote": "特になし"
  },
  {
    "id": "4270700067",
    "name": "平戸荘デイサービスセンター",
    "kana": "ヒラドソウデイサービスセンター",
    "address": "長崎県平戸市紐差町４５０番地",
    "lat": 33.2846101485375,
    "lng": 129.475816834393,
    "tel": "0950-28-0701",
    "url": "http://hakujukai.com",
    "pref": "長崎県",
    "city": "平戸市",
    "category": "day_service",
    "serviceType": "通所介護",
    "capacity": 30,
    "openDays": [
      "平日",
      "土曜日",
      "祝日"
    ],
    "openDaysNote": "非常災害（台風、降雪、洪水等）時に臨時休業することがあります。"
  },
  {
    "id": "4270403597",
    "name": "（株）ワームス　ハーモニー・きずな",
    "kana": "（カブ）ワームス　ハーモニー・キズナ",
    "address": "長崎県諫早市栗面町176番地2KIZUNAビル KIZUNAビル",
    "lat": 32.8344272,
    "lng": 130.0414797,
    "tel": "0957-47-9850",
    "url": "https://harmony-kizuna.jp",
    "pref": "長崎県",
    "city": "諫早市",
    "category": "day_service",
    "serviceType": "通所介護",
    "capacity": 0,
    "openDays": [
      "平日",
      "土曜日",
      "祝日"
    ],
    "openDaysNote": ""
  },
  {
    "id": "4270403704",
    "name": "コンパスウォーク　高来店",
    "kana": "コンパスウォーク　タカキテン",
    "address": "長崎県諫早市高来町峰468-80",
    "lat": 32.8884932,
    "lng": 130.1124095,
    "tel": "0957-51-7682",
    "url": "",
    "pref": "長崎県",
    "city": "諫早市",
    "category": "day_service",
    "serviceType": "通所介護",
    "capacity": null,
    "openDays": [
      "平日",
      "祝日"
    ],
    "openDaysNote": "１２月３１日から１月３日までは定休日となる"
  },
  {
    "id": "4270403522",
    "name": "コンパスウォーク栄町",
    "kana": "コンパスウォークサカエマチ",
    "address": "栄町2-11102 102",
    "lat": 35.2567345,
    "lng": 139.1592791,
    "tel": "0957-46-3938",
    "url": "https://kinoukaifuku.com/shop/shop_info/kyusyu/nagasaki/420004/420004_018/420004_018.html",
    "pref": "長崎県",
    "city": "諫早市",
    "category": "day_service",
    "serviceType": "通所介護",
    "capacity": 130,
    "openDays": [
      "平日",
      "祝日"
    ],
    "openDaysNote": ""
  },
  {
    "id": "4270401815",
    "name": "たらみデイサービスセンター",
    "kana": "タラミデイサービスセンター",
    "address": "長崎県諫早市多良見町木床1558番地",
    "lat": 32.8357402,
    "lng": 129.9822535,
    "tel": "0957-28-5335",
    "url": "",
    "pref": "長崎県",
    "city": "諫早市",
    "category": "day_service",
    "serviceType": "通所介護",
    "capacity": 0,
    "openDays": [
      "平日",
      "祝日"
    ],
    "openDaysNote": ""
  },
  {
    "id": "4270403753",
    "name": "デイサービス　スマイル",
    "kana": "デイサービス　スマイル",
    "address": "宗方町695-1",
    "lat": 32.8247315,
    "lng": 130.0856891,
    "tel": "0957-56-9673",
    "url": "smart-smile2525.com",
    "pref": "長崎県",
    "city": "諫早市",
    "category": "day_service",
    "serviceType": "通所介護",
    "capacity": 0,
    "openDays": [
      "平日",
      "土曜日",
      "祝日"
    ],
    "openDaysNote": ""
  },
  {
    "id": "4270403050",
    "name": "ディサービス　春の小路",
    "kana": "ディサービス　ハルノコミチ",
    "address": "長崎県諫早市西小路町６９１番地８",
    "lat": 32.8408631,
    "lng": 130.0534674,
    "tel": "0957-47-8539",
    "url": "",
    "pref": "長崎県",
    "city": "諫早市",
    "category": "day_service",
    "serviceType": "通所介護",
    "capacity": 20,
    "openDays": [
      "平日",
      "土曜日",
      "祝日"
    ],
    "openDaysNote": ""
  },
  {
    "id": "4270402730",
    "name": "デイサービスあじさい",
    "kana": "デイサービスアジサイ",
    "address": "長崎県諫早市飯盛町後田1648-2",
    "lat": 32.7694764530118,
    "lng": 130.027312961377,
    "tel": "0957-48-2811",
    "url": "",
    "pref": "長崎県",
    "city": "諫早市",
    "category": "day_service",
    "serviceType": "通所介護",
    "capacity": 30,
    "openDays": [
      "平日",
      "祝日"
    ],
    "openDaysNote": ""
  },
  {
    "id": "4270401542",
    "name": "デイサービスからこ",
    "kana": "デイサービスカラコ",
    "address": "長崎県諫早市森山町唐比西1125番地3",
    "lat": 32.7968644,
    "lng": 130.1239983,
    "tel": "0957-36-1964",
    "url": "http://karako-hp.jp/",
    "pref": "長崎県",
    "city": "諫早市",
    "category": "day_service",
    "serviceType": "通所介護",
    "capacity": 0,
    "openDays": [
      "平日",
      "土曜日",
      "日曜日",
      "祝日"
    ],
    "openDaysNote": "なし"
  },
  {
    "id": "4270400916",
    "name": "デイサービスセンター　オアシス",
    "kana": "デイサービスセンター　オアシス",
    "address": "長崎県諫早市福田町２番２２号",
    "lat": 32.8500735,
    "lng": 130.0567422,
    "tel": "0957-35-5180",
    "url": "caregarden-oasis.jimdofree.com",
    "pref": "長崎県",
    "city": "諫早市",
    "category": "day_service",
    "serviceType": "通所介護",
    "capacity": 25,
    "openDays": [
      "平日",
      "土曜日",
      "祝日"
    ],
    "openDaysNote": "利用者家族のお役に立てることを目標にかかげ、祭日等も安心して利用していただくようにと思っている。"
  },
  {
    "id": "4270401179",
    "name": "デイサービスセンター　轟の里",
    "kana": "デイサービスセンター　トドロキノサト",
    "address": "長崎県諫早市高来町三部壱257-1",
    "lat": 32.9053305,
    "lng": 130.1413643,
    "tel": "0957-27-7222",
    "url": "http://www.fujita-kikaku.net/",
    "pref": "長崎県",
    "city": "諫早市",
    "category": "day_service",
    "serviceType": "通所介護",
    "capacity": 35,
    "openDays": [
      "平日",
      "土曜日",
      "祝日"
    ],
    "openDaysNote": ""
  },
  {
    "id": "4270402177",
    "name": "デイサービスセンター　彩音",
    "kana": "デイサービスセンター　アヤネ",
    "address": "長崎県諫早市原口町667－7",
    "lat": 32.839891,
    "lng": 130.0534813,
    "tel": "0957-35-5588",
    "url": "https://www.ayane-isahaya.jp/",
    "pref": "長崎県",
    "city": "諫早市",
    "category": "day_service",
    "serviceType": "通所介護",
    "capacity": 25,
    "openDays": [
      "平日",
      "土曜日",
      "祝日"
    ],
    "openDaysNote": "正月は1月1日、2日、3日をお休みとさせて頂きます。"
  },
  {
    "id": "4270402599",
    "name": "デイサービスセンター　第二彩音",
    "kana": "デイサービスセンター　ダイニアヤネ",
    "address": "長崎県諫早市西郷町９２６番地",
    "lat": 32.8337308,
    "lng": 130.0591503,
    "tel": "0957-47-8401",
    "url": "https://www.ayane-isahaya.jp/",
    "pref": "長崎県",
    "city": "諫早市",
    "category": "day_service",
    "serviceType": "通所介護",
    "capacity": 25,
    "openDays": [
      "平日",
      "土曜日",
      "祝日"
    ],
    "openDaysNote": "正月は1月1日2日3日をお休みとさせて頂きます。"
  },
  {
    "id": "4270400189",
    "name": "デイサービスセンター　和心園",
    "kana": "デイサービスセンター　ワシンエン",
    "address": "長崎県諫早市有喜町537-5",
    "lat": 32.7924617,
    "lng": 130.0788485,
    "tel": "0957-28-0505",
    "url": "http://uki-fukushimura.jp/tenkeiso/",
    "pref": "長崎県",
    "city": "諫早市",
    "category": "day_service",
    "serviceType": "通所介護",
    "capacity": 0,
    "openDays": [
      "平日",
      "土曜日",
      "祝日"
    ],
    "openDaysNote": "元日は営業しておりません。但し、年末・年始でご利用者のお休みが極端に多い場合は、臨時休業の可能性があります。"
  },
  {
    "id": "4270403803",
    "name": "デイサービスセンターオアシス",
    "kana": "デイサービスセンターオアシス",
    "address": "長崎県諫早市福田町2-22",
    "lat": 32.8500506,
    "lng": 130.0566416,
    "tel": "0957-35-5180",
    "url": "https://matsuyamafukushikai.jp/",
    "pref": "長崎県",
    "city": "諫早市",
    "category": "day_service",
    "serviceType": "通所介護",
    "capacity": 0,
    "openDays": [
      "平日",
      "土曜日",
      "祝日"
    ],
    "openDaysNote": ""
  },
  {
    "id": "4270401971",
    "name": "デイサービスセンターきらら",
    "kana": "デイサービスセンターキララ",
    "address": "長崎県諫早市栄田町25-24",
    "lat": 32.860239,
    "lng": 130.0375013,
    "tel": "0957-46-5711",
    "url": "",
    "pref": "長崎県",
    "city": "諫早市",
    "category": "day_service",
    "serviceType": "通所介護",
    "capacity": 2,
    "openDays": [
      "平日",
      "土曜日",
      "祝日"
    ],
    "openDaysNote": ""
  },
  {
    "id": "4270403589",
    "name": "デイサービスセンターじゅげむ",
    "kana": "デイサービスセンタージュゲム",
    "address": "長崎県諫早市多良見町市布1272番地3",
    "lat": 32.8125726,
    "lng": 129.9630932,
    "tel": "0957-43-3534",
    "url": "",
    "pref": "長崎県",
    "city": "諫早市",
    "category": "day_service",
    "serviceType": "通所介護",
    "capacity": null,
    "openDays": [
      "平日",
      "土曜日",
      "祝日"
    ],
    "openDaysNote": "12月31日～1月2日休業"
  },
  {
    "id": "4270401351",
    "name": "デイサービスセンターしろみ",
    "kana": "デイサービスセンターシロミ",
    "address": "長崎県諫早市城見町43番1号",
    "lat": 32.855234,
    "lng": 130.049187,
    "tel": "0957-21-6263",
    "url": "http://shiromi.jp/",
    "pref": "長崎県",
    "city": "諫早市",
    "category": "day_service",
    "serviceType": "通所介護",
    "capacity": 0,
    "openDays": [
      "平日",
      "土曜日",
      "祝日"
    ],
    "openDaysNote": ""
  },
  {
    "id": "4270403746",
    "name": "デイサービスセンターひばり",
    "kana": "デイサービスセンターヒバリ",
    "address": "長崎県諫早市船越町612番地3",
    "lat": 32.837697,
    "lng": 130.062289,
    "tel": "0957-22-2200",
    "url": "https://meichikai.com/",
    "pref": "長崎県",
    "city": "諫早市",
    "category": "day_service",
    "serviceType": "通所介護",
    "capacity": null,
    "openDays": [
      "平日",
      "土曜日",
      "日曜日",
      "祝日"
    ],
    "openDaysNote": ""
  },
  {
    "id": "4270401831",
    "name": "デイサービスセンターふれあい",
    "kana": "デイサービスセンターフレアイ",
    "address": "長崎県諫早市高来町黒崎325番地高来ふれあい会館内 高来ふれあい会館内",
    "lat": 32.8991202,
    "lng": 130.1279466,
    "tel": "0957-27-7181",
    "url": "",
    "pref": "長崎県",
    "city": "諫早市",
    "category": "day_service",
    "serviceType": "通所介護",
    "capacity": 30,
    "openDays": [
      "平日",
      "土曜日",
      "祝日"
    ],
    "openDaysNote": ""
  },
  {
    "id": "4270403787",
    "name": "デイサービスセンター結華",
    "kana": "デイサービスセンターユイカ",
    "address": "長崎県諫早市城見町6番6号",
    "lat": 32.851019,
    "lng": 130.0491913,
    "tel": "0957-56-8602",
    "url": "https://yuika315com",
    "pref": "長崎県",
    "city": "諫早市",
    "category": "day_service",
    "serviceType": "通所介護",
    "capacity": 3,
    "openDays": [
      "平日",
      "土曜日",
      "祝日"
    ],
    "openDaysNote": ""
  },
  {
    "id": "4271300156",
    "name": "デイサービスセンター小長井希望園",
    "kana": "デイサービスセンターコナガイキボウエン",
    "address": "長崎県諌早市小長井町井崎1406",
    "lat": 32.9389016,
    "lng": 130.1830082,
    "tel": "0957-27-6100",
    "url": "www.zenyuukai.com",
    "pref": "長崎県",
    "city": "諫早市",
    "category": "day_service",
    "serviceType": "通所介護",
    "capacity": 0,
    "openDays": [
      "平日",
      "土曜日",
      "日曜日",
      "祝日"
    ],
    "openDaysNote": ""
  },
  {
    "id": "4270402060",
    "name": "デイサービスセンター和",
    "kana": "デイサービスセンターナゴミ",
    "address": "長崎県諫早市平山町８３６番地１",
    "lat": 32.8206288,
    "lng": 130.032094,
    "tel": "0957-36-5060",
    "url": "http://nagomi-f.jp",
    "pref": "長崎県",
    "city": "諫早市",
    "category": "day_service",
    "serviceType": "通所介護",
    "capacity": 10,
    "openDays": [
      "平日",
      "土曜日",
      "祝日"
    ],
    "openDaysNote": ""
  },
  {
    "id": "4270402508",
    "name": "デイサービスまりん",
    "kana": "デイサービスマリン",
    "address": "長崎県諫早市多良見町元釜5番地１５マリンビュー・６階 マリンビュー・６階",
    "lat": 32.857768,
    "lng": 129.932037,
    "tel": "0957-44-1371",
    "url": "http://www.aiplease.com/",
    "pref": "長崎県",
    "city": "諫早市",
    "category": "day_service",
    "serviceType": "通所介護",
    "capacity": 0,
    "openDays": [
      "平日",
      "土曜日",
      "祝日"
    ],
    "openDaysNote": ""
  },
  {
    "id": "4270402409",
    "name": "デイサービス小川",
    "kana": "デイサービスオガワ",
    "address": "長崎県諌早市小川町595-35",
    "lat": 32.8272237,
    "lng": 130.0634665,
    "tel": "0957-21-1810",
    "url": "https://porarisu-grp.net/",
    "pref": "長崎県",
    "city": "諫早市",
    "category": "day_service",
    "serviceType": "通所介護",
    "capacity": 0,
    "openDays": [
      "平日",
      "祝日"
    ],
    "openDaysNote": "サービス提供時間　月～金　8時45分～16時30分"
  },
  {
    "id": "4270402052",
    "name": "デイサービス美南の丘",
    "kana": "デイサービスミナミノオカ",
    "address": "長崎県諫早市小川町453番地1",
    "lat": 32.8273237,
    "lng": 130.0644442,
    "tel": "0957-23-1810",
    "url": "http://www.porarisu-grp.net",
    "pref": "長崎県",
    "city": "諫早市",
    "category": "day_service",
    "serviceType": "通所介護",
    "capacity": 0,
    "openDays": [
      "平日",
      "祝日"
    ],
    "openDaysNote": "特別な事情の場合延長可（ｻｰﾋﾞｽ提供時間　8:45～16:30）"
  },
  {
    "id": "4270403605",
    "name": "デイサービス夢咲",
    "kana": "デイサービスユメサキ",
    "address": "長崎県諫早市本明町447-5",
    "lat": 32.8721523902215,
    "lng": 130.028959541448,
    "tel": "0957-46-3552",
    "url": "",
    "pref": "長崎県",
    "city": "諫早市",
    "category": "day_service",
    "serviceType": "通所介護",
    "capacity": 25,
    "openDays": [
      "平日",
      "土曜日",
      "日曜日",
      "祝日"
    ],
    "openDaysNote": ""
  },
  {
    "id": "4270401286",
    "name": "ふれあい船越　デイサービスセンター",
    "kana": "フレアイフナコシ　デイサービスセンター",
    "address": "長崎県諫早市船越町658番地2",
    "lat": 32.8364447,
    "lng": 130.0649247,
    "tel": "0957-22-2910",
    "url": "meichikai.com",
    "pref": "長崎県",
    "city": "諫早市",
    "category": "day_service",
    "serviceType": "通所介護",
    "capacity": 0,
    "openDays": [
      "平日",
      "土曜日",
      "日曜日",
      "祝日"
    ],
    "openDaysNote": ""
  },
  {
    "id": "4270403274",
    "name": "リハビリテーション　あいのわ　デイサービス２nd",
    "kana": "リハビリテーション　アイノワ　デイサービス　セカンド",
    "address": "長崎県諫早市幸町52-7",
    "lat": 32.8390638452947,
    "lng": 130.068273878698,
    "tel": "0957-47-6869",
    "url": "http://www.reha-ainowa.co.jp",
    "pref": "長崎県",
    "city": "諫早市",
    "category": "day_service",
    "serviceType": "通所介護",
    "capacity": 30,
    "openDays": [
      "平日",
      "土曜日",
      "祝日"
    ],
    "openDaysNote": "12月31日～1月3日までは年末年始休み"
  },
  {
    "id": "4270403506",
    "name": "リハビリテーションあいのわ３ｒｄデイサービス",
    "kana": "リハビリテーションアイノワサードデイサービス",
    "address": "長崎県諫早市黒崎町106-1",
    "lat": 32.8375352,
    "lng": 130.100918,
    "tel": "0957-46-3307",
    "url": "https://www.reha-ainowa.co.jp/ainowa_3rd/concept_3rd/",
    "pref": "長崎県",
    "city": "諫早市",
    "category": "day_service",
    "serviceType": "通所介護",
    "capacity": 35,
    "openDays": [
      "平日",
      "土曜日",
      "祝日"
    ],
    "openDaysNote": ""
  },
  {
    "id": "4270403316",
    "name": "医療法人祥仁会　デイサービスセンター西諫早",
    "kana": "イリョウホウジンショウジンカイ　デイサービスセンターニシイサハヤ",
    "address": "長崎県諫早市貝津町２８８４－１医療法人祥仁会　サービス付き高齢者向け住宅西諫早 医療法人祥仁会　サービス付き高齢者向け住宅西諫早",
    "lat": 32.8358200143811,
    "lng": 130.019478867351,
    "tel": "0957-25-0100",
    "url": "",
    "pref": "長崎県",
    "city": "諫早市",
    "category": "day_service",
    "serviceType": "通所介護",
    "capacity": 0,
    "openDays": [
      "平日",
      "土曜日",
      "祝日"
    ],
    "openDaysNote": ""
  },
  {
    "id": "4270402839",
    "name": "株式会社　愛幸苑",
    "kana": "カブシキカイシャ　アイコウエン",
    "address": "小長井町小川原浦1136",
    "lat": 32.9178285,
    "lng": 130.1832692,
    "tel": "0957-34-2941",
    "url": "",
    "pref": "長崎県",
    "city": "諫早市",
    "category": "day_service",
    "serviceType": "通所介護",
    "capacity": 19,
    "openDays": [
      "平日",
      "土曜日",
      "祝日"
    ],
    "openDaysNote": ""
  },
  {
    "id": "4270403084",
    "name": "株式会社クオリティ・オブ・ライフ",
    "kana": "カブシキカイシャ　クオリティ　オブ　ライフ",
    "address": "長崎県諫早市長野町1413-3",
    "lat": 32.8313279415972,
    "lng": 130.07807849577,
    "tel": "0957-35-4848",
    "url": "",
    "pref": "長崎県",
    "city": "諫早市",
    "category": "day_service",
    "serviceType": "通所介護",
    "capacity": 30,
    "openDays": [
      "平日",
      "土曜日",
      "祝日"
    ],
    "openDaysNote": "お盆・正月は休み"
  },
  {
    "id": "4270403837",
    "name": "居宅生活支援センターケイ.コム",
    "kana": "キョタクセイカツシエンセンターケイ.コム",
    "address": "長崎県諫早市貝津町1206-5",
    "lat": 32.8410535,
    "lng": 130.0079976,
    "tel": "0957-28-9960",
    "url": "",
    "pref": "長崎県",
    "city": "諫早市",
    "category": "day_service",
    "serviceType": "通所介護",
    "capacity": 0,
    "openDays": [
      "平日",
      "土曜日",
      "祝日"
    ],
    "openDaysNote": ""
  },
  {
    "id": "4270401435",
    "name": "共生型サービス　暖家Withキッズ",
    "kana": "キョウセイガタサービス　ダンケウィズキッズ",
    "address": "長崎県諌早市幸町64-15",
    "lat": 32.8378291296329,
    "lng": 130.071399161299,
    "tel": "0957-22-7581",
    "url": "https://danke-day.site/",
    "pref": "長崎県",
    "city": "諫早市",
    "category": "day_service",
    "serviceType": "通所介護",
    "capacity": 40,
    "openDays": [
      "平日",
      "土曜日",
      "祝日"
    ],
    "openDaysNote": "12月31日、1月1日、1月2日は、正月休みとする。"
  },
  {
    "id": "4271300198",
    "name": "社会福祉法人　祥仁会　特別養護老人ホーム　特養いいもり",
    "kana": "シャカイフクホウジン　ショウジンカイ　トクベツヨウゴロウジンホーム　トクヨウイイモリ",
    "address": "諫早市飯盛町開４８番地",
    "lat": 32.7716982,
    "lng": 130.0242609,
    "tel": "0957-48-2270",
    "url": "http://tokuyou-iimori.jp/",
    "pref": "長崎県",
    "city": "諫早市",
    "category": "day_service",
    "serviceType": "通所介護",
    "capacity": 0,
    "openDays": [
      "平日",
      "土曜日",
      "祝日"
    ],
    "openDaysNote": ""
  },
  {
    "id": "4271300081",
    "name": "社会福祉法人　森の里福祉会　デイサービスセンター森の里",
    "kana": "シャカイフクシホウジン　モリノサトフクシカイ　デイサービスセンターモリノサト",
    "address": "長崎県諫早市森山町杉谷2899番地2",
    "lat": 32.8176849,
    "lng": 130.141507,
    "tel": "0957-36-3434",
    "url": "",
    "pref": "長崎県",
    "city": "諫早市",
    "category": "day_service",
    "serviceType": "通所介護",
    "capacity": 0,
    "openDays": [
      "平日",
      "土曜日",
      "日曜日",
      "祝日"
    ],
    "openDaysNote": ""
  },
  {
    "id": "4270400320",
    "name": "社会福祉法人　真津山福祉会　デイサービスセンター高望荘",
    "kana": "シャカイフクシホウジン　マツヤマフクシカイ",
    "address": "長崎県諫早市貝津町２６６１－１",
    "lat": 32.8343489,
    "lng": 130.0204389,
    "tel": "0957-25-5670",
    "url": "https://matsuyamafukushikai.jp/",
    "pref": "長崎県",
    "city": "諫早市",
    "category": "day_service",
    "serviceType": "通所介護",
    "capacity": 10,
    "openDays": [
      "平日",
      "土曜日",
      "祝日"
    ],
    "openDaysNote": ""
  },
  {
    "id": "4270402540",
    "name": "社会福祉法人清和福祉会　秀峰荘通所介護事業所",
    "kana": "シャカイフクシホウジンセイワフクシカイ　シュウホウソウツウショカイゴジギョウショ",
    "address": "長崎県諫早市森山町唐比西124番地5",
    "lat": 32.7910482,
    "lng": 130.1345531,
    "tel": "0957-36-1777",
    "url": "http://seiwafukushi.jp/carenet/",
    "pref": "長崎県",
    "city": "諫早市",
    "category": "day_service",
    "serviceType": "通所介護",
    "capacity": 23,
    "openDays": [
      "平日",
      "土曜日",
      "日曜日",
      "祝日"
    ],
    "openDaysNote": ""
  },
  {
    "id": "4270400312",
    "name": "社会福祉法人清和福祉会ゆたか荘通所介護事業所",
    "kana": "シャカイフクシホウジンセイワフクシカイユタカソウツウショカイゴジギョウショ",
    "address": "長崎県諌早市長田町2826番地1",
    "lat": 32.8652978,
    "lng": 130.0760321,
    "tel": "0957-23-9680",
    "url": "http://seiwafukushi.jp/carenet/",
    "pref": "長崎県",
    "city": "諫早市",
    "category": "day_service",
    "serviceType": "通所介護",
    "capacity": 0,
    "openDays": [
      "平日",
      "土曜日",
      "日曜日",
      "祝日"
    ],
    "openDaysNote": "特になし"
  },
  {
    "id": "4270400114",
    "name": "社会福祉法人龍美会指定通所介護事業所",
    "kana": "シャカイフクシホウジンリュウビカイシテイツウショカイゴジギョウショ",
    "address": "長崎県諫早市福田町2366番地1-2",
    "lat": 32.8626279,
    "lng": 130.0560561,
    "tel": "0957-23-3021",
    "url": "https://ryubikai.jp",
    "pref": "長崎県",
    "city": "諫早市",
    "category": "day_service",
    "serviceType": "通所介護",
    "capacity": 13,
    "openDays": [
      "平日",
      "土曜日",
      "祝日"
    ],
    "openDaysNote": ""
  },
  {
    "id": "4270401849",
    "name": "上山デイサービスセンター",
    "kana": "ジョウヤマデイサービスセンター",
    "address": "長崎県諫早市野中町657番1合同会社　心の恵上山 合同会社　心の恵上山",
    "lat": 32.8351804,
    "lng": 130.0550895,
    "tel": "0957-46-5627",
    "url": "",
    "pref": "長崎県",
    "city": "諫早市",
    "category": "day_service",
    "serviceType": "通所介護",
    "capacity": 35,
    "openDays": [
      "平日",
      "土曜日",
      "祝日"
    ],
    "openDaysNote": ""
  },
  {
    "id": "4270401799",
    "name": "宅老デイサービスあじさい",
    "kana": "タクロウデイサービスアジサイ",
    "address": "長崎県諫早市高来町東平原１９２－１",
    "lat": 32.910366,
    "lng": 130.1389146,
    "tel": "0957-32-3111",
    "url": "",
    "pref": "長崎県",
    "city": "諫早市",
    "category": "day_service",
    "serviceType": "通所介護",
    "capacity": 0,
    "openDays": [
      "平日",
      "土曜日",
      "日曜日",
      "祝日"
    ],
    "openDaysNote": ""
  },
  {
    "id": "4270403449",
    "name": "通所介護みらい",
    "kana": "ツウショカイゴミライ",
    "address": "長崎県諫早市長田町2781番地1",
    "lat": 32.8656337180842,
    "lng": 130.075503419574,
    "tel": "0957-23-9680",
    "url": "http://seiwafukushi.jp/carenet/",
    "pref": "長崎県",
    "city": "諫早市",
    "category": "day_service",
    "serviceType": "通所介護",
    "capacity": 0,
    "openDays": [
      "平日",
      "土曜日",
      "日曜日",
      "祝日"
    ],
    "openDaysNote": ""
  },
  {
    "id": "4271300099",
    "name": "豊寿園通所介護事業所",
    "kana": "ホウジュエンツウショカイゴジギョウショ",
    "address": "長崎県諫早市高来町西尾229番地１",
    "lat": 32.9051663,
    "lng": 130.111521,
    "tel": "0957-32-2500",
    "url": "http://www.houjuen.com/",
    "pref": "長崎県",
    "city": "諫早市",
    "category": "day_service",
    "serviceType": "通所介護",
    "capacity": 0,
    "openDays": [
      "平日",
      "土曜日",
      "祝日"
    ],
    "openDaysNote": ""
  },
  {
    "id": "4270402565",
    "name": "遊湯シニアランド",
    "kana": "ユウユウシニアランド",
    "address": "長崎県諫早市幸町294番地1",
    "lat": 32.8402691,
    "lng": 130.0623083,
    "tel": "0957-21-1126",
    "url": "http://yuyu-seniorland.justincare.jp/",
    "pref": "長崎県",
    "city": "諫早市",
    "category": "day_service",
    "serviceType": "通所介護",
    "capacity": 0,
    "openDays": [
      "平日",
      "土曜日",
      "祝日"
    ],
    "openDaysNote": ""
  },
  {
    "id": "4270400593",
    "name": "老人デイサービスセンター花の里",
    "kana": "ロウジンデイサービスセンターハナノサト",
    "address": "長崎県諌早市福田町3316-3",
    "lat": 32.8583867,
    "lng": 130.0585503,
    "tel": "0957-21-7778",
    "url": "http://www.fukusuikai.com/",
    "pref": "長崎県",
    "city": "諫早市",
    "category": "day_service",
    "serviceType": "通所介護",
    "capacity": 0,
    "openDays": [
      "平日",
      "土曜日",
      "祝日"
    ],
    "openDaysNote": ""
  },
  {
    "id": "4270403415",
    "name": "諫早記念病院通所介護事業所ひまわり",
    "kana": "イサハヤキネンビョウインツウショカイゴジギョウショヒマワリ",
    "address": "長崎県諫早市天満町2-26",
    "lat": 32.8502288,
    "lng": 130.0450316,
    "tel": "0957-21-7900",
    "url": "kohzenkai.or.jp",
    "pref": "長崎県",
    "city": "諫早市",
    "category": "day_service",
    "serviceType": "通所介護",
    "capacity": 0,
    "openDays": [
      "平日",
      "土曜日",
      "祝日"
    ],
    "openDaysNote": ""
  }
]