[
  {
    "id": "2072500446",
    "name": "阿智村社協デイサービスセンターえんばな",
    "kana": "アチムラシャキョウデイサービスセンターエンバナ",
    "address": "長野県下伊那郡阿智村浪合１３３５番地",
    "lat": 35.3741177700877,
    "lng": 137.690795515939,
    "tel": "0265-47-2070",
    "url": "http://www.achi.-syakyo.or.jp/",
    "pref": "長野県",
    "city": "阿智村",
    "category": "day_service",
    "serviceType": "通所介護",
    "capacity": 0,
    "openDays": [
      "平日",
      "土曜日",
      "祝日"
    ],
    "openDaysNote": ""
  },
  {
    "id": "2072501147",
    "name": "阿智村社協デイサービスセンター第二幸寿苑",
    "kana": "アチムラシャキョウデイサービスセンターダイニコウジュエン",
    "address": "長野県下伊那郡阿智村春日３２９１番地４",
    "lat": 35.4490679,
    "lng": 137.7515765,
    "tel": "0265-45-2111",
    "url": "http://www.achi-syakyo.or.jp/",
    "pref": "長野県",
    "city": "阿智村",
    "category": "day_service",
    "serviceType": "通所介護",
    "capacity": 0,
    "openDays": [
      "平日",
      "土曜日",
      "祝日"
    ],
    "openDaysNote": "特になし"
  },
  {
    "id": "2072500354",
    "name": "阿南町社会福祉協議会介護保険事業所",
    "kana": "アナンチョウシャカイフクシキョウギカイカイゴホケンジギョウショ",
    "address": "長野県下伊那郡阿南町西條709番地",
    "lat": 35.3288924,
    "lng": 137.8110668,
    "tel": "0260-22-3151",
    "url": "http://www.anansyakyo.or.jp/",
    "pref": "長野県",
    "city": "阿南町",
    "category": "day_service",
    "serviceType": "通所介護",
    "capacity": 0,
    "openDays": [
      "平日",
      "土曜日",
      "祝日"
    ],
    "openDaysNote": "年末年始を除き年中無休とするが、行事・修繕または天候・災害等の状況により、臨時的に休業となることもある。"
  },
  {
    "id": "2074000528",
    "name": "ＪＡあづみ　あんしんの里「南穂高」",
    "kana": "ジェイエイアヅミ　アンシンノサト「ミナミホタカ」",
    "address": "長野県安曇野市豊科南穂高2728番地5",
    "lat": 36.3091622967883,
    "lng": 137.91148805159,
    "tel": "0263-73-0550",
    "url": "https://www.ja-azm.iijan.or.jp/index.php",
    "pref": "長野県",
    "city": "安曇野市",
    "category": "day_service",
    "serviceType": "通所介護",
    "capacity": 19,
    "openDays": [
      "平日",
      "土曜日",
      "日曜日",
      "祝日"
    ],
    "openDaysNote": ""
  },
  {
    "id": "2072800515",
    "name": "ツクイ安曇野",
    "kana": "ツクイアズミノ",
    "address": "長野県安曇野市豊科４９４１－１",
    "lat": 36.3055006,
    "lng": 137.9001514,
    "tel": "0263-71-6101",
    "url": "http://www.tsukui.net/support/dayservice.html",
    "pref": "長野県",
    "city": "安曇野市",
    "category": "day_service",
    "serviceType": "通所介護",
    "capacity": 35,
    "openDays": [
      "平日",
      "土曜日",
      "日曜日",
      "祝日"
    ],
    "openDaysNote": ""
  },
  {
    "id": "2074001377",
    "name": "デイサービス　オリオリゾート安曇野",
    "kana": "デイサービスオリオリゾートアズミノ",
    "address": "長野県安曇野市豊科3966-41",
    "lat": 36.2963821,
    "lng": 137.9127616,
    "tel": "0263-73-1331",
    "url": "https://www.kyowa-hd.co.jp/",
    "pref": "長野県",
    "city": "安曇野市",
    "category": "day_service",
    "serviceType": "通所介護",
    "capacity": null,
    "openDays": [
      "平日",
      "土曜日",
      "祝日"
    ],
    "openDaysNote": ""
  },
  {
    "id": "2074001310",
    "name": "デイサービスいいせ瓦や",
    "kana": "デイサービスイイセカワラヤ",
    "address": "長野県安曇野市三郷温489-2",
    "lat": 36.2451011466784,
    "lng": 137.877993472982,
    "tel": "0263-88-3290",
    "url": "",
    "pref": "長野県",
    "city": "安曇野市",
    "category": "day_service",
    "serviceType": "通所介護",
    "capacity": null,
    "openDays": [
      "平日",
      "土曜日",
      "日曜日",
      "祝日"
    ],
    "openDaysNote": ""
  },
  {
    "id": "2072800770",
    "name": "デイサービスセンターいこいの家たきべ野",
    "kana": "デイサービスセンターイコイノイエタキベノ",
    "address": "長野県安曇野市豊科高家5090番地1",
    "lat": 36.2575448,
    "lng": 137.9189351,
    "tel": "0263-71-4135",
    "url": "http://takibeno.or.jp/",
    "pref": "長野県",
    "city": "安曇野市",
    "category": "day_service",
    "serviceType": "通所介護",
    "capacity": 0,
    "openDays": [
      "平日",
      "土曜日",
      "祝日"
    ],
    "openDaysNote": ""
  },
  {
    "id": "2074000908",
    "name": "デイサービスセンター山吹",
    "kana": "デイサービスセンターヤマブキ",
    "address": "長野県安曇野市三郷明盛1491",
    "lat": 36.2745342,
    "lng": 137.9043469,
    "tel": "0263-76-5010",
    "url": "http://nanatsunokane.or.jp",
    "pref": "長野県",
    "city": "安曇野市",
    "category": "day_service",
    "serviceType": "通所介護",
    "capacity": 0,
    "openDays": [
      "平日",
      "祝日"
    ],
    "openDaysNote": ""
  },
  {
    "id": "2074001336",
    "name": "デイサービス安曇野サファイアテラス",
    "kana": "デイサービスアヅミノサファイアテラス",
    "address": "長野県安曇野市三郷明盛６７２－1",
    "lat": 36.250766248486,
    "lng": 137.913210301852,
    "tel": "0263-87-3210",
    "url": "https://sterrace.co.jp/",
    "pref": "長野県",
    "city": "安曇野市",
    "category": "day_service",
    "serviceType": "通所介護",
    "capacity": 0,
    "openDays": [
      "平日",
      "土曜日"
    ],
    "openDaysNote": ""
  },
  {
    "id": "2074000544",
    "name": "ニチイケアセンター安曇野光",
    "kana": "ニチイケアセンターアズミノヒカル",
    "address": "長野県安曇野市豊科田沢4599-1",
    "lat": 36.3107649,
    "lng": 137.9346848,
    "tel": "0263-71-2517",
    "url": "http://www.nichiigakkan.co.jp/service/care/home/day.html",
    "pref": "長野県",
    "city": "安曇野市",
    "category": "day_service",
    "serviceType": "通所介護",
    "capacity": 0,
    "openDays": [
      "平日",
      "土曜日",
      "日曜日",
      "祝日"
    ],
    "openDaysNote": ""
  },
  {
    "id": "2072800192",
    "name": "安曇野市社協デイサービスセンター三郷",
    "kana": "アヅミノシシャキョウデイサービスセンターミサト",
    "address": "長野県安曇野市三郷明盛2198-1",
    "lat": 36.2659153,
    "lng": 137.8929566,
    "tel": "0263-77-9099",
    "url": "http://azuminoshakyo.jp/index.php?id=85",
    "pref": "長野県",
    "city": "安曇野市",
    "category": "day_service",
    "serviceType": "通所介護",
    "capacity": 40,
    "openDays": [
      "平日",
      "土曜日",
      "日曜日",
      "祝日"
    ],
    "openDaysNote": ""
  },
  {
    "id": "2072800309",
    "name": "安曇野市社協デイサービスセンター穂高",
    "kana": "アヅミノシシャキョウデイサービスセンターホタカ",
    "address": "長野県安曇野市穂高5808-1",
    "lat": 36.3379931,
    "lng": 137.870917,
    "tel": "0263-82-0330",
    "url": "http://azuminoshakyo.jp/index.php?id=85",
    "pref": "長野県",
    "city": "安曇野市",
    "category": "day_service",
    "serviceType": "通所介護",
    "capacity": 0,
    "openDays": [
      "平日",
      "土曜日",
      "日曜日",
      "祝日"
    ],
    "openDaysNote": ""
  },
  {
    "id": "2072800283",
    "name": "安曇野市社協デイサービスセンター豊科",
    "kana": "アヅミノシシャキョウデイサービスセンタートヨシナ",
    "address": "長野県安曇野市豊科４１６０番地１",
    "lat": 36.2992739,
    "lng": 137.9152895,
    "tel": "0263-72-6464",
    "url": "http://azuminoshakyo.jp/index.php?id=85",
    "pref": "長野県",
    "city": "安曇野市",
    "category": "day_service",
    "serviceType": "通所介護",
    "capacity": 40,
    "openDays": [
      "平日",
      "土曜日",
      "日曜日",
      "祝日"
    ],
    "openDaysNote": "個別対応での延長利用の対応あり"
  },
  {
    "id": "2072800358",
    "name": "安曇野市社協デイサービスセンター堀金",
    "kana": "アヅミノシシャキョウデイサービスセンターホリガネ",
    "address": "長野県安曇野市堀金烏川2132番地4",
    "lat": 36.2996394,
    "lng": 137.8759669,
    "tel": "0263-72-0032",
    "url": "http://azuminoshakyo.jp/index.php?id=85",
    "pref": "長野県",
    "city": "安曇野市",
    "category": "day_service",
    "serviceType": "通所介護",
    "capacity": 0,
    "openDays": [
      "平日",
      "土曜日",
      "日曜日",
      "祝日"
    ],
    "openDaysNote": ""
  },
  {
    "id": "2072700509",
    "name": "安曇野市社協デイサービスセンター明科",
    "kana": "アヅミノシシャキョウデイサービスセンターアカシナ",
    "address": "長野県安曇野市明科東川手606-2",
    "lat": 36.3598006,
    "lng": 137.9329974,
    "tel": "0263-81-2281",
    "url": "http://azuminoshakyo.jp/index.php?id=85",
    "pref": "長野県",
    "city": "安曇野市",
    "category": "day_service",
    "serviceType": "通所介護",
    "capacity": 40,
    "openDays": [
      "平日",
      "土曜日",
      "祝日"
    ],
    "openDaysNote": ""
  },
  {
    "id": "2072800200",
    "name": "小倉デイサービスセンター",
    "kana": "オグラデイサービスセンター",
    "address": "長野県安曇野市三郷小倉6079-1",
    "lat": 36.2533634,
    "lng": 137.858012,
    "tel": "0263-87-7702",
    "url": "http://park17.wakwak.com/~nanatunokane/",
    "pref": "長野県",
    "city": "安曇野市",
    "category": "day_service",
    "serviceType": "通所介護",
    "capacity": 26,
    "openDays": [
      "平日",
      "土曜日",
      "祝日"
    ],
    "openDaysNote": "特になし"
  },
  {
    "id": "2072800572",
    "name": "宅老所ひまわり",
    "kana": "タクロウジョヒマワリ",
    "address": "長野県安曇野市穂高北穂高１７１６－１",
    "lat": 36.3704282,
    "lng": 137.8756245,
    "tel": "0263-81-0611",
    "url": "http://www.hima-sun.com/",
    "pref": "長野県",
    "city": "安曇野市",
    "category": "day_service",
    "serviceType": "通所介護",
    "capacity": 28,
    "openDays": [
      "平日",
      "土曜日",
      "祝日"
    ],
    "openDaysNote": "なし"
  },
  {
    "id": "2070900366",
    "name": "ツクイ伊那中央",
    "kana": "ツクイイナチュウオウ",
    "address": "長野県伊那市中央４９２０",
    "lat": 35.8411516,
    "lng": 137.9664758,
    "tel": "0265-77-0731",
    "url": "http://www.tsukui.net/search/2340/detail.html",
    "pref": "長野県",
    "city": "伊那市",
    "category": "day_service",
    "serviceType": "通所介護",
    "capacity": 30,
    "openDays": [
      "平日",
      "土曜日",
      "日曜日",
      "祝日"
    ],
    "openDaysNote": ""
  },
  {
    "id": "2070900895",
    "name": "デイサービス　こころ",
    "kana": "デイサービス　ココロ",
    "address": "長野県伊那市野底7998-6デイサービスこころ デイサービスこころ",
    "lat": 35.8618848,
    "lng": 137.9929589,
    "tel": "0265-95-1912",
    "url": "https://www.kokoro-no-kaigo.jp",
    "pref": "長野県",
    "city": "伊那市",
    "category": "day_service",
    "serviceType": "通所介護",
    "capacity": 0,
    "openDays": [
      "平日",
      "土曜日",
      "祝日"
    ],
    "openDaysNote": "サービス延長あり"
  },
  {
    "id": "2070900457",
    "name": "デイサービスあおば",
    "kana": "デイサービスアオバ",
    "address": "長野県伊那市狐島３８９５番地",
    "lat": 35.836601103385,
    "lng": 137.962249875919,
    "tel": "0265-77-2225",
    "url": "http://www.kamiina-mcoop.com/",
    "pref": "長野県",
    "city": "伊那市",
    "category": "day_service",
    "serviceType": "通所介護",
    "capacity": 0,
    "openDays": [
      "平日",
      "土曜日",
      "祝日"
    ],
    "openDaysNote": ""
  },
  {
    "id": "2070900796",
    "name": "デイサービスセンターぬくもり",
    "kana": "デイサービスセンターヌクモリ",
    "address": "長野県伊那市手良野口1983番1デイサービスセンターぬくもり デイサービスセンターぬくもり",
    "lat": 35.8587421069026,
    "lng": 138.012751768101,
    "tel": "0265-76-5022",
    "url": "",
    "pref": "長野県",
    "city": "伊那市",
    "category": "day_service",
    "serviceType": "通所介護",
    "capacity": 0,
    "openDays": [
      "平日",
      "祝日"
    ],
    "openDaysNote": "12/30～1/3まで年末年始休業"
  },
  {
    "id": "2070900127",
    "name": "ニチイケアセンター伊那",
    "kana": "ニチイケアセンターイナ",
    "address": "長野県伊那市上新田２７６７－１",
    "lat": 35.8268423,
    "lng": 137.9587159,
    "tel": "0265-77-3411",
    "url": "http://www.nichiigakkan.co.jp/service/care/home/day.html",
    "pref": "長野県",
    "city": "伊那市",
    "category": "day_service",
    "serviceType": "通所介護",
    "capacity": 0,
    "openDays": [
      "平日",
      "土曜日",
      "祝日"
    ],
    "openDaysNote": "居宅サービス計画により営業時間以外であってもサービス提供を行う場合があります。"
  },
  {
    "id": "2070900101",
    "name": "伊那市デイサービスセンター春富ふくじゅ園",
    "kana": "イナシデイサービスセンターハルトミフクジュエン",
    "address": "長野県伊那市西春近７１７１番地１",
    "lat": 35.8028975,
    "lng": 137.9431069,
    "tel": "0265-74-6630",
    "url": "",
    "pref": "長野県",
    "city": "伊那市",
    "category": "day_service",
    "serviceType": "通所介護",
    "capacity": 30,
    "openDays": [
      "平日",
      "祝日"
    ],
    "openDaysNote": "特になし"
  },
  {
    "id": "2073500155",
    "name": "栄村高齢者総合福祉センター",
    "kana": "サカエムラコウレイシャソウゴウフクシセンター",
    "address": "長野県下水内郡栄村大字北信３６０１番地５",
    "lat": 36.9885695,
    "lng": 138.5762692,
    "tel": "0269-87-3410",
    "url": "http://sakae-syakyo.jp/",
    "pref": "長野県",
    "city": "栄村",
    "category": "day_service",
    "serviceType": "通所介護",
    "capacity": 0,
    "openDays": [
      "平日",
      "土曜日",
      "祝日"
    ],
    "openDaysNote": ""
  },
  {
    "id": "2071500959",
    "name": "ツクイ　塩尻広丘",
    "kana": "ツクイ　シオジリヒロオカ",
    "address": "長野県塩尻市広丘堅石2146-65",
    "lat": 36.1330895,
    "lng": 137.9515925,
    "tel": "0263-54-8050",
    "url": "http://www.tsukui.net",
    "pref": "長野県",
    "city": "塩尻市",
    "category": "day_service",
    "serviceType": "通所介護",
    "capacity": 0,
    "openDays": [
      "平日",
      "土曜日",
      "日曜日",
      "祝日"
    ],
    "openDaysNote": ""
  },
  {
    "id": "2071500678",
    "name": "ツクイ塩尻",
    "kana": "ツクイシオジリ",
    "address": "長野県塩尻市広丘吉田１０７１－６",
    "lat": 36.1627221,
    "lng": 137.9530163,
    "tel": "0263-85-7807",
    "url": "https://www.tsukui.net/home-care/2439/",
    "pref": "長野県",
    "city": "塩尻市",
    "category": "day_service",
    "serviceType": "通所介護",
    "capacity": 45,
    "openDays": [
      "平日",
      "土曜日",
      "日曜日",
      "祝日"
    ],
    "openDaysNote": ""
  },
  {
    "id": "2071500942",
    "name": "デイサービスセンター　グレイスフル塩尻",
    "kana": "デイサービスセンター　グレイスフルシオジリ",
    "address": "長野県塩尻市大門八番町9-10グレイスフル塩尻 グレイスフル塩尻",
    "lat": 36.1132631,
    "lng": 137.9486482,
    "tel": "0263-51-6212",
    "url": "https://sun-vision.or.jp/",
    "pref": "長野県",
    "city": "塩尻市",
    "category": "day_service",
    "serviceType": "通所介護",
    "capacity": 50,
    "openDays": [
      "平日",
      "土曜日",
      "祝日"
    ],
    "openDaysNote": "事業所が指定する日を休日とすることがある。"
  },
  {
    "id": "2071500512",
    "name": "デイサービスセンターこまくさ野村",
    "kana": "デイサービスセンターコマクサノムラ",
    "address": "長野県塩尻市広丘野村2146",
    "lat": 36.1485155,
    "lng": 137.9554083,
    "tel": "0263-51-1128",
    "url": "http://www.komakusa-nomura.jp/",
    "pref": "長野県",
    "city": "塩尻市",
    "category": "day_service",
    "serviceType": "通所介護",
    "capacity": 0,
    "openDays": [
      "平日",
      "土曜日",
      "祝日"
    ],
    "openDaysNote": "営業時間外の時間延長サービスを実施しています"
  },
  {
    "id": "2071500835",
    "name": "デイサービスセンターはなみずき",
    "kana": "デイサービスセンターハナミズキ",
    "address": "長野県塩尻市桟敷417－2",
    "lat": 36.1142006,
    "lng": 137.9679227,
    "tel": "0263-53-7127",
    "url": "http://www18.ocn.ne.jp/~azumino1/kyouritsufukushikai/",
    "pref": "長野県",
    "city": "塩尻市",
    "category": "day_service",
    "serviceType": "通所介護",
    "capacity": 0,
    "openDays": [
      "平日",
      "土曜日",
      "祝日"
    ],
    "openDaysNote": "積雪等で安全な送迎が出来ないと判断した場合は臨時に休業する場合がある"
  },
  {
    "id": "2071500462",
    "name": "デイハウスハピネス",
    "kana": "デイハウスハピネス",
    "address": "長野県市片丘10379",
    "lat": 36.1270658,
    "lng": 137.9692968,
    "tel": "0263-51-0920",
    "url": "http://dayhouse-happiness.co.jp/top.html",
    "pref": "長野県",
    "city": "塩尻市",
    "category": "day_service",
    "serviceType": "通所介護",
    "capacity": 0,
    "openDays": [
      "平日",
      "土曜日",
      "日曜日",
      "祝日"
    ],
    "openDaysNote": ""
  },
  {
    "id": "2071500124",
    "name": "ニチイケアセンター塩尻ききょう",
    "kana": "ニチイケアセンターシオジリキキョウ",
    "address": "長野県塩尻市大字大門65－11",
    "lat": 36.1170081,
    "lng": 137.9435664,
    "tel": "0263-51-0520",
    "url": "http://www.nichiigakkan.co.jp/service/care/home/day.html",
    "pref": "長野県",
    "city": "塩尻市",
    "category": "day_service",
    "serviceType": "通所介護",
    "capacity": 0,
    "openDays": [
      "平日",
      "土曜日",
      "祝日"
    ],
    "openDaysNote": ""
  },
  {
    "id": "2071500157",
    "name": "塩尻市デイサービスセンターすがのの郷",
    "kana": "シオジリシデイサービスセンタースガノノサト",
    "address": "長野県塩尻市宗賀１２９８番地５１４",
    "lat": 36.1116892,
    "lng": 137.9310901,
    "tel": "0263-54-5350",
    "url": "http://www.shiojirishakyo.or.jp/publics/index/48/",
    "pref": "長野県",
    "city": "塩尻市",
    "category": "day_service",
    "serviceType": "通所介護",
    "capacity": 0,
    "openDays": [
      "平日",
      "土曜日",
      "日曜日",
      "祝日"
    ],
    "openDaysNote": ""
  },
  {
    "id": "2071500389",
    "name": "塩尻市デイサービスセンターみどりの郷",
    "kana": "シオジリシデイサービスセンターミドリノサト",
    "address": "長野県塩尻市広丘郷原1683-1",
    "lat": 36.12688934307,
    "lng": 137.944025151949,
    "tel": "0263-53-5811",
    "url": "http://www.shiojirishakyo.or.jp/publics/index/92/",
    "pref": "長野県",
    "city": "塩尻市",
    "category": "day_service",
    "serviceType": "通所介護",
    "capacity": 0,
    "openDays": [
      "平日",
      "土曜日",
      "日曜日",
      "祝日"
    ],
    "openDaysNote": "特になし"
  },
  {
    "id": "2071500140",
    "name": "塩尻市デイサービスセンター田川の郷",
    "kana": "シオジリシデイサービスセンタータガワノサト",
    "address": "長野県塩尻市広丘吉田２２１９番地１",
    "lat": 36.1591228,
    "lng": 137.9632184,
    "tel": "0263-85-5300",
    "url": "http://www.shiojirishakyo.or.jp/publics/index/50/",
    "pref": "長野県",
    "city": "塩尻市",
    "category": "day_service",
    "serviceType": "通所介護",
    "capacity": 25,
    "openDays": [
      "平日",
      "土曜日",
      "日曜日",
      "祝日"
    ],
    "openDaysNote": "全館清掃のため、年間１日間の休業日あり"
  },
  {
    "id": "2071501031",
    "name": "生活介護事業所すみれの丘",
    "kana": "セイカツカイゴジギョウショスミレノオカ",
    "address": "長野県塩尻市広丘野村1877-364",
    "lat": 36.146847,
    "lng": 137.9564594,
    "tel": "0263-54-2947",
    "url": "https://www.shiojirishakyo.or.jp/",
    "pref": "長野県",
    "city": "塩尻市",
    "category": "day_service",
    "serviceType": "通所介護",
    "capacity": null,
    "openDays": [
      "平日"
    ],
    "openDaysNote": ""
  },
  {
    "id": "2071500470",
    "name": "通所介護事業所無暦日庵",
    "kana": "ツウショカイゴジギョウショムレキジツアン",
    "address": "長野県塩尻市片丘道下１１１４６",
    "lat": 36.1210472464329,
    "lng": 137.966995412412,
    "tel": "0263-51-6800",
    "url": "http://www.heisei-kai.jp/",
    "pref": "長野県",
    "city": "塩尻市",
    "category": "day_service",
    "serviceType": "通所介護",
    "capacity": 0,
    "openDays": [
      "平日",
      "祝日"
    ],
    "openDaysNote": ""
  },
  {
    "id": "2070400110",
    "name": "ウェルハートおかや指定通所介護事業所",
    "kana": "ウェルハートオカヤシテイツウショカイゴジギョウショ",
    "address": "長野県岡谷市長地片間町１－１１－１",
    "lat": 36.0766301,
    "lng": 138.0595576,
    "tel": "0266-28-1000",
    "url": "https://www.wellheart-okaya.com/",
    "pref": "長野県",
    "city": "岡谷市",
    "category": "day_service",
    "serviceType": "通所介護",
    "capacity": null,
    "openDays": [
      "平日",
      "土曜日",
      "祝日"
    ],
    "openDaysNote": "1月1日～3日は年始休業とさせていただきます。"
  },
  {
    "id": "2070400938",
    "name": "さわやか絹の郷信州おかや",
    "kana": "サワヤカキヌノサトシンシュウオカヤ",
    "address": "長野県岡谷市郷田2丁目1番24号",
    "lat": 36.0731576,
    "lng": 138.0492366,
    "tel": "0266-24-8822",
    "url": "www.kinu-sato.jp",
    "pref": "長野県",
    "city": "岡谷市",
    "category": "day_service",
    "serviceType": "通所介護",
    "capacity": 25,
    "openDays": [
      "平日",
      "土曜日",
      "祝日"
    ],
    "openDaysNote": ""
  },
  {
    "id": "2070400516",
    "name": "ツクイ岡谷",
    "kana": "ツクイオカヤ",
    "address": "長野県岡谷市本町1丁目7-21",
    "lat": 36.0577181,
    "lng": 138.0434263,
    "tel": "0266-21-1320",
    "url": "http://www.tsukui.net/search/detail.php?officeid=527",
    "pref": "長野県",
    "city": "岡谷市",
    "category": "day_service",
    "serviceType": "通所介護",
    "capacity": 50,
    "openDays": [
      "平日",
      "土曜日",
      "日曜日",
      "祝日"
    ],
    "openDaysNote": "365日運営しています。"
  },
  {
    "id": "2070400185",
    "name": "デイサービスセンターグレイスフル岡谷",
    "kana": "デイサービスセンターグレイスフルオカヤ",
    "address": "長野県岡谷市湖畔２－６－２",
    "lat": 36.057785,
    "lng": 138.0554891,
    "tel": "0266-21-7321",
    "url": "http://www.sun-vision.or.jp",
    "pref": "長野県",
    "city": "岡谷市",
    "category": "day_service",
    "serviceType": "通所介護",
    "capacity": 35,
    "openDays": [
      "平日",
      "祝日"
    ],
    "openDaysNote": "ただし、事業所が指定する日を休日とすることがある。"
  },
  {
    "id": "2070400250",
    "name": "デイサービスセンターさわらび",
    "kana": "デイサービスセンターサワラビ",
    "address": "長野県岡谷市西山１７２３－１０１",
    "lat": 36.0779865,
    "lng": 138.0375387,
    "tel": "0266-21-1180",
    "url": "http://www.heisei-kai.jp/sisetu/sawarabi.htm",
    "pref": "長野県",
    "city": "岡谷市",
    "category": "day_service",
    "serviceType": "通所介護",
    "capacity": 0,
    "openDays": [
      "平日",
      "祝日"
    ],
    "openDaysNote": "年末年始、盆休日あり"
  },
  {
    "id": "2070400334",
    "name": "ニチイケアセンターおかや",
    "kana": "ニチイケアセンターオカヤ",
    "address": "長野県岡谷市長地権現町1-7-26",
    "lat": 36.0667816,
    "lng": 138.0698792,
    "tel": "0266-26-2912",
    "url": "http://www.nichiigakkan.co.jp/service/care/home/day.html",
    "pref": "長野県",
    "city": "岡谷市",
    "category": "day_service",
    "serviceType": "通所介護",
    "capacity": 0,
    "openDays": [
      "平日",
      "土曜日",
      "祝日"
    ],
    "openDaysNote": "居宅サービス計画により休業日・営業時間外であってもサービス提供を行う場合があります。"
  },
  {
    "id": "2070400391",
    "name": "温泉デイサービス湯けむり",
    "kana": "オンセンデイサービスユケムリ",
    "address": "長野県岡谷市南宮３－３－８",
    "lat": 36.0584852,
    "lng": 138.0659243,
    "tel": "0266-24-2006",
    "url": "http://heisei-kai.jp/",
    "pref": "長野県",
    "city": "岡谷市",
    "category": "day_service",
    "serviceType": "通所介護",
    "capacity": 0,
    "openDays": [
      "平日",
      "祝日"
    ],
    "openDaysNote": ""
  },
  {
    "id": "2072300227",
    "name": "デイサービスセンターグレイスフル下諏訪",
    "kana": "デイサービスセンターグレイスフルシモスワ",
    "address": "諏訪郡下諏訪町高木9375番地１",
    "lat": 36.0672207,
    "lng": 138.1067947,
    "tel": "0266-26-8872",
    "url": "http://www.e-sunlife.or.jp/service/nagano01/index.html",
    "pref": "長野県",
    "city": "下諏訪町",
    "category": "day_service",
    "serviceType": "通所介護",
    "capacity": 0,
    "openDays": [
      "平日",
      "土曜日",
      "日曜日",
      "祝日"
    ],
    "openDaysNote": ""
  },
  {
    "id": "2072300334",
    "name": "デイサービス増沢ケアマッサージ",
    "kana": "デイサービスマスザワケアマッサージ",
    "address": "諏訪郡下諏訪町２１９－４５",
    "lat": 36.0695895,
    "lng": 138.0800041,
    "tel": "0266-27-1510",
    "url": "",
    "pref": "長野県",
    "city": "下諏訪町",
    "category": "day_service",
    "serviceType": "通所介護",
    "capacity": null,
    "openDays": [
      "平日",
      "土曜日",
      "祝日"
    ],
    "openDaysNote": "12月29日から1月3日まで年末年始休業"
  },
  {
    "id": "2072300870",
    "name": "憩いの家パセオ",
    "kana": "イコイノイエパセオ",
    "address": "長野県諏訪郡下諏訪町矢木町26",
    "lat": 36.0758450221604,
    "lng": 138.079975104565,
    "tel": "0266-27-0106",
    "url": "",
    "pref": "長野県",
    "city": "下諏訪町",
    "category": "day_service",
    "serviceType": "通所介護",
    "capacity": null,
    "openDays": [
      "平日",
      "土曜日",
      "祝日"
    ],
    "openDaysNote": ""
  },
  {
    "id": "2072300888",
    "name": "湖浜温泉デイサービス",
    "kana": "コハマオンセンデイサービス",
    "address": "長野県諏訪郡下諏訪町6174-1",
    "lat": 36.0791604,
    "lng": 138.0757212,
    "tel": "0266-26-2121",
    "url": "",
    "pref": "長野県",
    "city": "下諏訪町",
    "category": "day_service",
    "serviceType": "通所介護",
    "capacity": 32,
    "openDays": [
      "平日",
      "土曜日",
      "祝日"
    ],
    "openDaysNote": "年末年始のお休み（12/31～1/3）"
  },
  {
    "id": "2072300375",
    "name": "有限会社　穂乃家",
    "kana": "ユウゲンカイシャ　ホノカ",
    "address": "長野県諏訪郡下諏訪町社6534-4",
    "lat": 36.0808243,
    "lng": 138.0747311,
    "tel": "0266-26-4530",
    "url": "",
    "pref": "長野県",
    "city": "下諏訪町",
    "category": "day_service",
    "serviceType": "通所介護",
    "capacity": 19,
    "openDays": [
      "平日"
    ],
    "openDaysNote": ""
  },
  {
    "id": "2071400622",
    "name": "ツクイ茅野",
    "kana": "ツクイチノ",
    "address": "長野県茅野市仲町15-6",
    "lat": 35.9934597,
    "lng": 138.1579793,
    "tel": "0266-82-7801",
    "url": "http://www.tsukui.net/search/detail.php?officeid=481",
    "pref": "長野県",
    "city": "茅野市",
    "category": "day_service",
    "serviceType": "通所介護",
    "capacity": 50,
    "openDays": [
      "平日",
      "土曜日",
      "日曜日",
      "祝日"
    ],
    "openDaysNote": "18時00分まで延長対応可です。（16：45～18：00自費）"
  },
  {
    "id": "2071400630",
    "name": "デイサービスセンターりんどう苑",
    "kana": "デイサービスセンターリンドウエン",
    "address": "長野県茅野市豊平1907番地1デイサービスセンターりんどう苑 デイサービスセンターりんどう苑",
    "lat": 36.0181688274434,
    "lng": 138.197671798148,
    "tel": "0266-82-5882",
    "url": "http://taishikai.or.jp",
    "pref": "長野県",
    "city": "茅野市",
    "category": "day_service",
    "serviceType": "通所介護",
    "capacity": 30,
    "openDays": [
      "平日",
      "祝日"
    ],
    "openDaysNote": ""
  },
  {
    "id": "2071400242",
    "name": "茅野市西部デイサービスセンター",
    "kana": "チノシセイブデイサービスセンター",
    "address": "長野県茅野市宮川3975番地茅野市西部保健福祉サービスセンター内 茅野市西部保健福祉サービスセンター内",
    "lat": 35.9902848,
    "lng": 138.1507163,
    "tel": "0266-82-6161",
    "url": "http://sharara.or.jp/html/jigyo/kaigohoken.html#kaigohoken",
    "pref": "長野県",
    "city": "茅野市",
    "category": "day_service",
    "serviceType": "通所介護",
    "capacity": 0,
    "openDays": [
      "平日",
      "祝日"
    ],
    "openDaysNote": ""
  },
  {
    "id": "2071400523",
    "name": "桜ハウス宮川通所介護事業所",
    "kana": "サクラハウスミヤガワツウショカイゴジギョウショ",
    "address": "長野県茅野市宮川４９００－４",
    "lat": 35.9897075,
    "lng": 138.1614348,
    "tel": "0266-75-5720",
    "url": "http://www.takaneh-support.co.jp",
    "pref": "長野県",
    "city": "茅野市",
    "category": "day_service",
    "serviceType": "通所介護",
    "capacity": 35,
    "openDays": [
      "平日",
      "土曜日",
      "祝日"
    ],
    "openDaysNote": ""
  },
  {
    "id": "2071400663",
    "name": "桜ハウス玉川通所介護事業所",
    "kana": "サクラハウスタマガワツウショカイゴジギョウショ",
    "address": "長野県茅野市玉川３０４６－１",
    "lat": 35.9925717,
    "lng": 138.1848381,
    "tel": "０２６６－８２－７６８５",
    "url": "http://www.takaneh-support.co.jp",
    "pref": "長野県",
    "city": "茅野市",
    "category": "day_service",
    "serviceType": "通所介護",
    "capacity": 35,
    "openDays": [
      "平日",
      "土曜日",
      "祝日"
    ],
    "openDaysNote": ""
  },
  {
    "id": "2071400747",
    "name": "諏訪中央病院組合老人福祉施設ふれあいの里デイサービス",
    "kana": "スワチュウオウビョウインクミアイロウジンフクシシセツフレアイノサトデイサービス",
    "address": "長野県茅野市玉川４３００番地9",
    "lat": 35.9904606,
    "lng": 138.1776527,
    "tel": "0266-73-8880",
    "url": "",
    "pref": "長野県",
    "city": "茅野市",
    "category": "day_service",
    "serviceType": "通所介護",
    "capacity": 0,
    "openDays": [
      "平日",
      "土曜日",
      "祝日"
    ],
    "openDaysNote": ""
  },
  {
    "id": "2071401075",
    "name": "富士見高原医療福祉センター　デイサービスけいすい",
    "kana": "フジミコウゲンイリョウフクシセンター　デイサービスケイスイ",
    "address": "長野県茅野市北山4801-1",
    "lat": 36.0339205822422,
    "lng": 138.224686018818,
    "tel": "0266-78-2322",
    "url": "http://fujimihp.com/?page_id=2645",
    "pref": "長野県",
    "city": "茅野市",
    "category": "day_service",
    "serviceType": "通所介護",
    "capacity": 8,
    "openDays": [
      "平日",
      "土曜日",
      "祝日"
    ],
    "openDaysNote": "12月31日～１月３日は、年末年始休業（改行）５月連休中の２日間、お盆期間中の２日間を休み（日曜日を除く）"
  },
  {
    "id": "2072400324",
    "name": "宮田村デイサービスセンター梅の里",
    "kana": "ミヤダムラデイサービスセンターウメノサト",
    "address": "長野県上伊那郡宮田村６８３８番地１",
    "lat": 35.7641974,
    "lng": 137.9480682,
    "tel": "0265-85-5010",
    "url": "https://www.vill.miyada.nagano.jp/health/pages/root/10480-006",
    "pref": "長野県",
    "city": "宮田村",
    "category": "day_service",
    "serviceType": "通所介護",
    "capacity": 35,
    "openDays": [
      "平日",
      "祝日"
    ],
    "openDaysNote": "特になし"
  },
  {
    "id": "2072500974",
    "name": "デイサービスぽけっと",
    "kana": "デイサービスポケット",
    "address": "長野県下伊那郡喬木村15816－2",
    "lat": 35.5065857171523,
    "lng": 137.865690247021,
    "tel": "0265-33-7077",
    "url": "https://kaigo-pocket.jimdofree.com/",
    "pref": "長野県",
    "city": "喬木村",
    "category": "day_service",
    "serviceType": "通所介護",
    "capacity": 25,
    "openDays": [
      "平日",
      "土曜日",
      "祝日"
    ],
    "openDaysNote": "祝祭日営業しております。"
  },
  {
    "id": "2072500685",
    "name": "喬木村デイサービスセンターふれ愛",
    "kana": "タカギムラデイサービスセンターフレアイ",
    "address": "長野県下伊那郡喬木村６６７０番地１",
    "lat": 35.5133116,
    "lng": 137.8733403,
    "tel": "0265-33-1631",
    "url": "takagi-syakyo.com",
    "pref": "長野県",
    "city": "喬木村",
    "category": "day_service",
    "serviceType": "通所介護",
    "capacity": 30,
    "openDays": [
      "平日",
      "土曜日",
      "祝日"
    ],
    "openDaysNote": "無し"
  },
  {
    "id": "2071000299",
    "name": "あい介護　祥風",
    "kana": "アイカイゴ　ショウフウ",
    "address": "長野県駒ヶ根市赤穂1131-1",
    "lat": 35.744942,
    "lng": 137.9212411,
    "tel": "0265-81-1414",
    "url": "http://ai-iikaigo.com",
    "pref": "長野県",
    "city": "駒ヶ根市",
    "category": "day_service",
    "serviceType": "通所介護",
    "capacity": 0,
    "openDays": [
      "平日",
      "土曜日",
      "祝日"
    ],
    "openDaysNote": ""
  },
  {
    "id": "2071000117",
    "name": "エーデルこまがねデイサービスセンター",
    "kana": "エーデルコマガネデイサービスセンター",
    "address": "長野県駒ヶ根市赤穂14424番地3",
    "lat": 35.717808,
    "lng": 137.9511892,
    "tel": "0265-81-6111",
    "url": "http://care-net.biz/20/edel-komagane",
    "pref": "長野県",
    "city": "駒ヶ根市",
    "category": "day_service",
    "serviceType": "通所介護",
    "capacity": 0,
    "openDays": [
      "平日",
      "祝日"
    ],
    "openDaysNote": ""
  },
  {
    "id": "2071000109",
    "name": "駒ヶ根市デイサービスセンター竜東やまびこ園",
    "kana": "コマガネシデイサービスセンターリュウトウヤマビコエン",
    "address": "長野県駒ヶ根市中沢12076-1",
    "lat": 35.7333979,
    "lng": 137.9845201,
    "tel": "0265-83-5060",
    "url": "www.kmshakyo.org/",
    "pref": "長野県",
    "city": "駒ヶ根市",
    "category": "day_service",
    "serviceType": "通所介護",
    "capacity": 39,
    "openDays": [
      "平日",
      "祝日"
    ],
    "openDaysNote": "利用者さま、介護者さまのニーズにそった追加、変更、振り替え、時短、延長利用等ご相談によりできる限り対応致します。（改行）積極的に「駒ヶ根市日常生活支援総合事業対象者」の受け入れいたします。（改行）事業所の見学、お試し利用等随時対応いたします。"
  },
  {
    "id": "2072100346",
    "name": "かるいざわ敬老園デイサービスセンター",
    "kana": "カルイザワケイロウエンデイサービスセンター",
    "address": "長野県北佐久郡軽井沢町追分１４３６番地",
    "lat": 36.3432949,
    "lng": 138.550457,
    "tel": "0267-44-1165",
    "url": "http://www.keiroen.or.jp",
    "pref": "長野県",
    "city": "軽井沢町",
    "category": "day_service",
    "serviceType": "通所介護",
    "capacity": 0,
    "openDays": [
      "平日",
      "土曜日",
      "祝日"
    ],
    "openDaysNote": "特になし"
  },
  {
    "id": "2072100932",
    "name": "ふれあい軽井沢デイサービスセンター",
    "kana": "フレアイカルイザワデイサービスセンター",
    "address": "長野県北佐久郡軽井沢町追分1355-1",
    "lat": 36.3400841,
    "lng": 138.5301275,
    "tel": "0267-46-8969",
    "url": "https://hanawa878.co.jp/home/detail_81.html",
    "pref": "長野県",
    "city": "軽井沢町",
    "category": "day_service",
    "serviceType": "通所介護",
    "capacity": 0,
    "openDays": [
      "平日",
      "祝日"
    ],
    "openDaysNote": ""
  },
  {
    "id": "2072100916",
    "name": "ほっちのロッヂ",
    "kana": "ホッチノロッヂ",
    "address": "長野県北佐久郡軽井沢町発地1274-113ほっちのロッヂ ほっちのロッヂ",
    "lat": 36.319544031144,
    "lng": 138.601160690684,
    "tel": "0267-31-5519",
    "url": "http://hotch-l.com/index.html",
    "pref": "長野県",
    "city": "軽井沢町",
    "category": "day_service",
    "serviceType": "通所介護",
    "capacity": 0,
    "openDays": [
      "平日"
    ],
    "openDaysNote": ""
  },
  {
    "id": "2072100759",
    "name": "みなみかるいざわ敬老園デイサービスセンター",
    "kana": "ミナミカルイザワケイロウエンデイサービスセンター",
    "address": "長野県北佐久郡軽井沢町大字発地字二子塚190-3",
    "lat": 36.3061307748141,
    "lng": 138.624222336845,
    "tel": "0267-44-6515",
    "url": "minamikaruizawa@keiroen.or.jp",
    "pref": "長野県",
    "city": "軽井沢町",
    "category": "day_service",
    "serviceType": "通所介護",
    "capacity": 25,
    "openDays": [
      "平日",
      "土曜日",
      "日曜日",
      "祝日"
    ],
    "openDaysNote": "特に無し"
  },
  {
    "id": "2072100015",
    "name": "社会福祉法人軽井沢町社会福祉協議会",
    "kana": "カルイザワマチシャカイフクシキョウギカイ",
    "address": "長野県北佐久郡軽井沢町大字長倉字水名畑４８４４－１「木もれ陽の里」 「木もれ陽の里」",
    "lat": 36.3347677,
    "lng": 138.5622976,
    "tel": "0267-45-8547",
    "url": "http://www.karuizawashakyo.com/kaigo/tsusho/",
    "pref": "長野県",
    "city": "軽井沢町",
    "category": "day_service",
    "serviceType": "通所介護",
    "capacity": 0,
    "openDays": [
      "平日",
      "土曜日",
      "日曜日",
      "祝日"
    ],
    "openDaysNote": "令和6年10月～日曜日休業中"
  },
  {
    "id": "2072300391",
    "name": "デイサービスセンターあいりす",
    "kana": "デイサービスセンターアイリス",
    "address": "長野県諏訪郡原村10377番地2",
    "lat": 35.9587321757462,
    "lng": 138.188568859747,
    "tel": "0266-72-8300",
    "url": "http://www.iriss.or.jp",
    "pref": "長野県",
    "city": "原村",
    "category": "day_service",
    "serviceType": "通所介護",
    "capacity": 25,
    "openDays": [
      "平日",
      "土曜日",
      "祝日"
    ],
    "openDaysNote": ""
  },
  {
    "id": "2072300193",
    "name": "原村デイサービスセンター",
    "kana": "ハラムラデイサービスセンター",
    "address": "長野県諏訪郡原村6649番地3",
    "lat": 35.962874,
    "lng": 138.2158384,
    "tel": "0266-79-7228",
    "url": "http://www.haramura-syakyou.or.jp/p-4.htm",
    "pref": "長野県",
    "city": "原村",
    "category": "day_service",
    "serviceType": "通所介護",
    "capacity": 0,
    "openDays": [
      "平日",
      "土曜日",
      "祝日"
    ],
    "openDaysNote": ""
  },
  {
    "id": "2072100676",
    "name": "ニチイケアセンターみよた",
    "kana": "ニチイケアセンターミヨタ",
    "address": "長野県北佐久郡御代田町大字馬瀬口1712-1",
    "lat": 36.3260519,
    "lng": 138.5106727,
    "tel": "0267-31-4054",
    "url": "http://www.nichiigakkan.co.jp/service/care/home/day.html",
    "pref": "長野県",
    "city": "御代田町",
    "category": "day_service",
    "serviceType": "通所介護",
    "capacity": 0,
    "openDays": [
      "平日",
      "土曜日",
      "祝日"
    ],
    "openDaysNote": "サービス計画により、営業時間外であってもサービスを提供する場合がございます。"
  },
  {
    "id": "2072100023",
    "name": "社会福祉法人御代田町社会福祉協議会ハートピアみよた",
    "kana": "ミヨタマチシャカイフクシキョウギカイハートピアミヨタ",
    "address": "長野県北佐久郡御代田町大字御代田１７７２番地１御代田町地域福祉センター 御代田町地域福祉センター",
    "lat": 36.3089873,
    "lng": 138.4979109,
    "tel": "0267-32-1101",
    "url": "http://miyota-shakyo.sakura.ne.jp",
    "pref": "長野県",
    "city": "御代田町",
    "category": "day_service",
    "serviceType": "通所介護",
    "capacity": 0,
    "openDays": [
      "平日",
      "土曜日",
      "祝日"
    ],
    "openDaysNote": "事業所の営業日及び営業時間　平日・土曜日　８：１５～１７：００"
  },
  {
    "id": "2072100429",
    "name": "宅老所のぞみが丘",
    "kana": "タクロウショノゾミガオカ",
    "address": "北佐久郡御代田町大字御代田４１０８－９８",
    "lat": 36.3260911,
    "lng": 138.528318,
    "tel": "0267-32-1110",
    "url": "https://www.mapion.co.jp/smp/phonebook/M09030/2032",
    "pref": "長野県",
    "city": "御代田町",
    "category": "day_service",
    "serviceType": "通所介護",
    "capacity": 10,
    "openDays": [
      "平日",
      "土曜日",
      "日曜日",
      "祝日"
    ],
    "openDaysNote": ""
  },
  {
    "id": "2073200087",
    "name": "高山村社会福祉協議会通所介護事業所",
    "kana": "タカヤマムラシャカイフクシキョウギカイツウショカイゴジギョウショ",
    "address": "長野県上高井郡高山村大字牧６番地１",
    "lat": 36.6777846,
    "lng": 138.3765515,
    "tel": "026-242-1221",
    "url": "//shykyo-takayama.jp/",
    "pref": "長野県",
    "city": "高山村",
    "category": "day_service",
    "serviceType": "通所介護",
    "capacity": 35,
    "openDays": [
      "平日",
      "土曜日",
      "祝日"
    ],
    "openDaysNote": ""
  },
  {
    "id": "2072500800",
    "name": "あさぎりの郷デイサービスセンター",
    "kana": "アサギリノサトデイサービスセンター",
    "address": "長野県下伊那郡高森町吉田481-1",
    "lat": 35.5517637,
    "lng": 137.8876976,
    "tel": "0265-34-3630",
    "url": "",
    "pref": "長野県",
    "city": "高森町",
    "category": "day_service",
    "serviceType": "通所介護",
    "capacity": 30,
    "openDays": [
      "平日",
      "土曜日",
      "祝日"
    ],
    "openDaysNote": "なし"
  },
  {
    "id": "2072500511",
    "name": "高森町社会福祉協議会通所介護事業所",
    "kana": "タカモリマチシャカイフクシキョウギカイツウショカイゴジギョウショ",
    "address": "長野県下伊那郡高森町山吹3618やすらぎ荘 やすらぎ荘",
    "lat": 35.5776568008343,
    "lng": 137.888169246627,
    "tel": "0265-35-3009",
    "url": "http://www.takamori-shakyo.com/",
    "pref": "長野県",
    "city": "高森町",
    "category": "day_service",
    "serviceType": "通所介護",
    "capacity": 37,
    "openDays": [
      "平日",
      "土曜日",
      "祝日"
    ],
    "openDaysNote": "利用者の希望により時間変更要相談。"
  },
  {
    "id": "2071701250",
    "name": "ケイジン通所介護機能訓練センター望月",
    "kana": "ケイジンツウショカイゴキノウクンレンセンターモチヅキ",
    "address": "長野県佐久市協和１２６番地３",
    "lat": 36.2626687633706,
    "lng": 138.356882792065,
    "tel": "０２６７-７７-７０２２",
    "url": "http://www.keijinnet.or.jp/",
    "pref": "長野県",
    "city": "佐久市",
    "category": "day_service",
    "serviceType": "通所介護",
    "capacity": 0,
    "openDays": [
      "平日",
      "土曜日",
      "祝日"
    ],
    "openDaysNote": ""
  },
  {
    "id": "2071700906",
    "name": "さくだいら敬老園デイサービスセンター",
    "kana": "サクダイラケイロウエンデイサービスセンター",
    "address": "長野県佐久市佐久平駅北16-7",
    "lat": 36.2813424,
    "lng": 138.4617285,
    "tel": "0267-66-6545",
    "url": "http://www.keiroen.or.jp/keiroen/html/shisetu/sakudaira_dayservice.htm",
    "pref": "長野県",
    "city": "佐久市",
    "category": "day_service",
    "serviceType": "通所介護",
    "capacity": 27,
    "openDays": [
      "平日",
      "土曜日",
      "日曜日",
      "祝日"
    ],
    "openDaysNote": ""
  },
  {
    "id": "2071701912",
    "name": "スマイル・ハウス佐久平",
    "kana": "スマイルハウスサクダイラ",
    "address": "長野県佐久市長土呂125-1",
    "lat": 36.2873453323985,
    "lng": 138.477597415344,
    "tel": "0267-88-7926",
    "url": "https://smilehouse.hp.peraichi.com/sakudaira",
    "pref": "長野県",
    "city": "佐久市",
    "category": "day_service",
    "serviceType": "通所介護",
    "capacity": 30,
    "openDays": [
      "平日"
    ],
    "openDaysNote": ""
  },
  {
    "id": "2071701748",
    "name": "デイサービス　なごみ",
    "kana": "デイサービス　ナゴミ",
    "address": "長野県佐久市甲1185番地3",
    "lat": 36.2664872,
    "lng": 138.4050205,
    "tel": "0267-88-8126",
    "url": "",
    "pref": "長野県",
    "city": "佐久市",
    "category": "day_service",
    "serviceType": "通所介護",
    "capacity": 0,
    "openDays": [
      "平日",
      "土曜日",
      "祝日"
    ],
    "openDaysNote": ""
  },
  {
    "id": "2071701821",
    "name": "デイサービスセンターここわ",
    "kana": "デイサービスセンターココワ",
    "address": "長野県佐久市長土呂795-38",
    "lat": 36.291346,
    "lng": 138.4728303,
    "tel": "0267-66-0006",
    "url": "https://welfuture.co.jp/",
    "pref": "長野県",
    "city": "佐久市",
    "category": "day_service",
    "serviceType": "通所介護",
    "capacity": 0,
    "openDays": [
      "平日",
      "土曜日",
      "祝日"
    ],
    "openDaysNote": ""
  },
  {
    "id": "2071701037",
    "name": "デイサービスセンターのぞみサンピア",
    "kana": "デイサービスセンターノゾミサンピア",
    "address": "長野県佐久市根岸3203-2のぞみサンピア佐久 のぞみサンピア佐久",
    "lat": 36.240407,
    "lng": 138.4164836,
    "tel": "0267-63-7870",
    "url": "https://nozomi-g.co.jp",
    "pref": "長野県",
    "city": "佐久市",
    "category": "day_service",
    "serviceType": "通所介護",
    "capacity": 35,
    "openDays": [
      "平日",
      "土曜日",
      "祝日"
    ],
    "openDaysNote": "12/31(13:00～）1/1.2.3"
  },
  {
    "id": "2071701839",
    "name": "デイサービスセンターばんり",
    "kana": "デイサービスセンターバンリ",
    "address": "長野県佐久市長土呂793-12",
    "lat": 36.2918814,
    "lng": 138.4731816,
    "tel": "0267-65-8080",
    "url": "https://welfuture.co.jp/",
    "pref": "長野県",
    "city": "佐久市",
    "category": "day_service",
    "serviceType": "通所介護",
    "capacity": 35,
    "openDays": [
      "平日",
      "土曜日",
      "祝日"
    ],
    "openDaysNote": ""
  },
  {
    "id": "2071701631",
    "name": "デイサービスセンターひだまり",
    "kana": "デイサービスセンターヒダマリ",
    "address": "長野県佐久市桜井671番地1",
    "lat": 36.2380505,
    "lng": 138.4485078,
    "tel": "0267-64-5621",
    "url": "http://www.ja-naganokai.or.jp",
    "pref": "長野県",
    "city": "佐久市",
    "category": "day_service",
    "serviceType": "通所介護",
    "capacity": 5,
    "openDays": [
      "平日",
      "土曜日",
      "祝日"
    ],
    "openDaysNote": ""
  },
  {
    "id": "2071701144",
    "name": "デイサービスセンター佐久平愛の郷",
    "kana": "デイサービスセンターサクダイラメグミノサト",
    "address": "長野県佐久市平賀741番地",
    "lat": 36.2259624,
    "lng": 138.4923993,
    "tel": "0267-64-5331",
    "url": "http://skdf.jp/",
    "pref": "長野県",
    "city": "佐久市",
    "category": "day_service",
    "serviceType": "通所介護",
    "capacity": 0,
    "openDays": [
      "平日",
      "土曜日",
      "祝日"
    ],
    "openDaysNote": "ただし、年末年始を除く"
  },
  {
    "id": "2071701334",
    "name": "デイサービスセンター佐久平高原",
    "kana": "デイサービスセンターサクダイラコウゲン",
    "address": "長野県佐久市下平尾303-3",
    "lat": 36.2727803,
    "lng": 138.5047801,
    "tel": "0267-68-8831",
    "url": "http://www.sakudairakougen.com/",
    "pref": "長野県",
    "city": "佐久市",
    "category": "day_service",
    "serviceType": "通所介護",
    "capacity": 24,
    "openDays": [
      "平日",
      "土曜日",
      "日曜日",
      "祝日"
    ],
    "openDaysNote": ""
  },
  {
    "id": "2071701664",
    "name": "デイサービスセンター星の里",
    "kana": "デイサービスセンターホシノサト",
    "address": "長野県佐久市臼田785-6",
    "lat": 36.2082612,
    "lng": 138.4790843,
    "tel": "0267-81-5677",
    "url": "http://www.ja-naganokai.or.jp/",
    "pref": "長野県",
    "city": "佐久市",
    "category": "day_service",
    "serviceType": "通所介護",
    "capacity": 20,
    "openDays": [
      "平日",
      "土曜日",
      "祝日"
    ],
    "openDaysNote": ""
  },
  {
    "id": "2071701508",
    "name": "デイサービスセンター布施屋",
    "kana": "デイサービスセンター　フセヤ",
    "address": "長野県佐久市布施769番地1あたり前の暮らしサポートセンター あたり前の暮らしサポートセンター",
    "lat": 36.257756659879,
    "lng": 138.373870896295,
    "tel": "0267-78-5166",
    "url": "http://www.yuugen-fukushikai.com",
    "pref": "長野県",
    "city": "佐久市",
    "category": "day_service",
    "serviceType": "通所介護",
    "capacity": 0,
    "openDays": [
      "平日",
      "土曜日",
      "日曜日",
      "祝日"
    ],
    "openDaysNote": ""
  },
  {
    "id": "2071700401",
    "name": "ニチイケアセンターなかごみ",
    "kana": "ニチイケアセンターナカゴミ",
    "address": "長野県佐久市中込字中原３６３９-３５",
    "lat": 36.2287091,
    "lng": 138.4762618,
    "tel": "0267-64-6190",
    "url": "http://www.nichiigakkan.co.jp/service/care/home/day.html",
    "pref": "長野県",
    "city": "佐久市",
    "category": "day_service",
    "serviceType": "通所介護",
    "capacity": 0,
    "openDays": [
      "平日",
      "土曜日",
      "日曜日",
      "祝日"
    ],
    "openDaysNote": ""
  },
  {
    "id": "2071700252",
    "name": "ニチイケアセンター佐久",
    "kana": "ニチイケアセンターサク",
    "address": "長野県佐久市岩村田5010-1",
    "lat": 36.2758211,
    "lng": 138.4732664,
    "tel": "0267-66-3821",
    "url": "http://www.nichiigakkan.co.jp/service/care/home/day.html",
    "pref": "長野県",
    "city": "佐久市",
    "category": "day_service",
    "serviceType": "通所介護",
    "capacity": 0,
    "openDays": [
      "平日",
      "土曜日",
      "祝日"
    ],
    "openDaysNote": ""
  },
  {
    "id": "2071701888",
    "name": "らいおんハートリハビリ温泉デイサービス佐久",
    "kana": "ライオンハートリハビリオンセンデイサービスサク",
    "address": "長野県佐久市前山321-3",
    "lat": 36.2150091,
    "lng": 138.4525526,
    "tel": "0267-63-5369",
    "url": "https://lion-heart.co/shops/day_service_saku/",
    "pref": "長野県",
    "city": "佐久市",
    "category": "day_service",
    "serviceType": "通所介護",
    "capacity": null,
    "openDays": [
      "平日"
    ],
    "openDaysNote": ""
  },
  {
    "id": "2072100403",
    "name": "寄合所文ちゃん家",
    "kana": "ヨリアイジョブンチャンチ",
    "address": "佐久市布施４８９番地",
    "lat": 36.2622726,
    "lng": 138.3743265,
    "tel": "0267-51-1038",
    "url": "",
    "pref": "長野県",
    "city": "佐久市",
    "category": "day_service",
    "serviceType": "通所介護",
    "capacity": 12,
    "openDays": [
      "平日",
      "土曜日",
      "祝日"
    ],
    "openDaysNote": "利用者の希望により、利用時間・休日の利用も可能"
  },
  {
    "id": "2071700393",
    "name": "佐久だいらデイサービスセンター",
    "kana": "サクダイラデイサービスセンター",
    "address": "長野県佐久市常田字東池下77-1",
    "lat": 36.2814800521241,
    "lng": 138.449335674374,
    "tel": "0267-66-1513",
    "url": "http://www.carehouse-sakudaira.com/",
    "pref": "長野県",
    "city": "佐久市",
    "category": "day_service",
    "serviceType": "通所介護",
    "capacity": 35,
    "openDays": [
      "平日",
      "土曜日",
      "日曜日",
      "祝日"
    ],
    "openDaysNote": "但し、法人・事業所が指定した日にちは除く"
  },
  {
    "id": "2072000199",
    "name": "佐久市あいとぴあ臼田デイサービスセンター",
    "kana": "サクシアイトピアウスダデイサービスセンター",
    "address": "長野県佐久市下越１６-５佐久市臼田総合福祉センターあいとぴあ臼田 佐久市臼田総合福祉センターあいとぴあ臼田",
    "lat": 36.1982568,
    "lng": 138.48722,
    "tel": "0267-82-6730",
    "url": "https://www.sakusi-shakyo.or.jp/pages/11/",
    "pref": "長野県",
    "city": "佐久市",
    "category": "day_service",
    "serviceType": "通所介護",
    "capacity": 0,
    "openDays": [
      "平日",
      "土曜日",
      "日曜日",
      "祝日"
    ],
    "openDaysNote": ""
  },
  {
    "id": "2071700146",
    "name": "佐久市岩村田デイサービスセンター",
    "kana": "サクシイワムラダデイサービスセンター",
    "address": "長野県佐久市岩村田４２１３番地",
    "lat": 36.273919,
    "lng": 138.4866846,
    "tel": "0267-68-6453",
    "url": "http://www.janis.or.jp/users/fukujuen/index.htm",
    "pref": "長野県",
    "city": "佐久市",
    "category": "day_service",
    "serviceType": "通所介護",
    "capacity": 0,
    "openDays": [
      "平日",
      "土曜日",
      "日曜日",
      "祝日"
    ],
    "openDaysNote": ""
  },
  {
    "id": "2071700526",
    "name": "宅幼老所ながとろ",
    "kana": "タクヨウロウショナガトロ",
    "address": "長野県佐久市長土呂２０３番地１",
    "lat": 36.2855173,
    "lng": 138.4753967,
    "tel": "0267-54-8165",
    "url": "http://www.keijinnet.or.jp/03_02_04_takuyoro.html",
    "pref": "長野県",
    "city": "佐久市",
    "category": "day_service",
    "serviceType": "通所介護",
    "capacity": 20,
    "openDays": [
      "平日",
      "土曜日",
      "日曜日",
      "祝日"
    ],
    "openDaysNote": "特になし"
  },
  {
    "id": "2071700500",
    "name": "宅幼老所のざわ",
    "kana": "タクヨウロウショノザワ",
    "address": "長野県佐久市野沢２１９番地１７",
    "lat": 36.2236955,
    "lng": 138.4664434,
    "tel": "0267-63-3503",
    "url": "http://www.keijinnet.or.jp",
    "pref": "長野県",
    "city": "佐久市",
    "category": "day_service",
    "serviceType": "通所介護",
    "capacity": 25,
    "openDays": [
      "平日",
      "土曜日",
      "日曜日",
      "祝日"
    ],
    "openDaysNote": "2023年8月～日曜日の営業を当面の間休止中。（改行）利用希望者が増えてくれば再開予定です。"
  },
  {
    "id": "2071700963",
    "name": "宅幼老所のんびり",
    "kana": "タクヨウロウショノンビリ",
    "address": "長野県佐久市上平尾１０４５",
    "lat": 36.2831875,
    "lng": 138.5010831,
    "tel": "0267-78-3191",
    "url": "http://www.npo-nonbiri.net",
    "pref": "長野県",
    "city": "佐久市",
    "category": "day_service",
    "serviceType": "通所介護",
    "capacity": 24,
    "openDays": [
      "平日",
      "土曜日",
      "祝日"
    ],
    "openDaysNote": ""
  },
  {
    "id": "2071700179",
    "name": "中込デイサービスセンター",
    "kana": "ナカゴミデイサービスセンター",
    "address": "長野県佐久市中込3丁目15番地6",
    "lat": 36.2274163544855,
    "lng": 138.478071547746,
    "tel": "0267-64-1732",
    "url": "http://www.keijinnet.or.jp",
    "pref": "長野県",
    "city": "佐久市",
    "category": "day_service",
    "serviceType": "通所介護",
    "capacity": 0,
    "openDays": [
      "平日",
      "土曜日",
      "祝日"
    ],
    "openDaysNote": "特になし"
  },
  {
    "id": "2072100478",
    "name": "望月デイサービスセンター駒",
    "kana": "モチヅキデイサービスセンターコマ",
    "address": "長野県佐久市望月317-2佐久市望月総合支援センター　１階 佐久市望月総合支援センター　１階",
    "lat": 36.2652412,
    "lng": 138.3587806,
    "tel": "0267-51-1525",
    "url": "http://www.yuugen-fukushikai.com",
    "pref": "長野県",
    "city": "佐久市",
    "category": "day_service",
    "serviceType": "通所介護",
    "capacity": 30,
    "openDays": [
      "平日",
      "土曜日",
      "祝日"
    ],
    "openDaysNote": "但し、通常のサービス提供時間は、9時から16時30分とします。"
  },
  {
    "id": "2072000587",
    "name": "佐久穂町社会福祉協議会指定通所介護事業所高野町デイサービスセンター「ふれあい」",
    "kana": "サクホマチシャカイフクシキョウギカイシテイツウショカイゴジギョウショタカノマチデイサービスセンターフレアイ",
    "address": "長野県南佐久郡佐久穂町大字高野町351番地",
    "lat": 36.162792,
    "lng": 138.4783274,
    "tel": "0267-86-4273",
    "url": "",
    "pref": "長野県",
    "city": "佐久穂町",
    "category": "day_service",
    "serviceType": "通所介護",
    "capacity": 0,
    "openDays": [
      "平日",
      "土曜日",
      "日曜日",
      "祝日"
    ],
    "openDaysNote": "特になし"
  },
  {
    "id": "2072000595",
    "name": "社会福祉法人佐久穂町社会福祉協議会指定通所介護事業所八千穂デイサービスセンターこまどり",
    "kana": "シテイツウショカイゴジギョウショヤチホデイサービスセンターコマドリ",
    "address": "長野県南佐久郡佐久穂町大字畑６６０番地",
    "lat": 36.143355,
    "lng": 138.4711592,
    "tel": "0267-88-3545",
    "url": "",
    "pref": "長野県",
    "city": "佐久穂町",
    "category": "day_service",
    "serviceType": "通所介護",
    "capacity": 0,
    "openDays": [
      "平日",
      "土曜日",
      "祝日"
    ],
    "openDaysNote": "特になし"
  },
  {
    "id": "2073100196",
    "name": "さかき美里園デイサービスセンター",
    "kana": "サカキミサトエンデイサービスセンター",
    "address": "長野県埴科郡坂城町大字坂城9086-1",
    "lat": 36.4531351,
    "lng": 138.1911198,
    "tel": "0268-82-0294",
    "url": "http://www.sakakifukushikai.or.jp",
    "pref": "長野県",
    "city": "坂城町",
    "category": "day_service",
    "serviceType": "通所介護",
    "capacity": 0,
    "openDays": [
      "平日",
      "土曜日",
      "祝日"
    ],
    "openDaysNote": ""
  },
  {
    "id": "2073100311",
    "name": "宅老所　憩いの家",
    "kana": "タクロウジョ　イコイノイエ",
    "address": "長野県埴科郡坂城町大字中之条1308-1",
    "lat": 36.443878,
    "lng": 138.1948699,
    "tel": "0268-82-8188",
    "url": "",
    "pref": "長野県",
    "city": "坂城町",
    "category": "day_service",
    "serviceType": "通所介護",
    "capacity": 0,
    "openDays": [
      "平日",
      "祝日"
    ],
    "openDaysNote": "12/30～1/3は休日"
  },
  {
    "id": "2073300382",
    "name": "つつみデイサービスセンター",
    "kana": "ツツミデイサービスセンター",
    "address": "長野県下高井郡山ノ内町大字平穏３２５２－５",
    "lat": 36.7439755,
    "lng": 138.4123546,
    "tel": "0269-33-2810",
    "url": "",
    "pref": "長野県",
    "city": "山ノ内町",
    "category": "day_service",
    "serviceType": "通所介護",
    "capacity": 0,
    "openDays": [
      "平日",
      "土曜日",
      "祝日"
    ],
    "openDaysNote": "祝日営業"
  },
  {
    "id": "2073300390",
    "name": "デイサービスちとせ",
    "kana": "デイサービスチトセ",
    "address": "長野県下高井郡山ノ内町大字夜間瀬2481-1",
    "lat": 36.7620536,
    "lng": 138.4035326,
    "tel": "0269-38-0871",
    "url": "",
    "pref": "長野県",
    "city": "山ノ内町",
    "category": "day_service",
    "serviceType": "通所介護",
    "capacity": 15,
    "openDays": [
      "平日",
      "土曜日",
      "日曜日",
      "祝日"
    ],
    "openDaysNote": "12/30は午前中（入浴のみ）のみ営業"
  },
  {
    "id": "2073300341",
    "name": "山ノ内宅幼老所にこにこの湯",
    "kana": "ヤマノウチタクヨウロウショニコニコノユ",
    "address": "長野県下高井郡山ノ内町大字平穏2926-33",
    "lat": 36.7380208,
    "lng": 138.4178237,
    "tel": "0269-31-1251",
    "url": "",
    "pref": "長野県",
    "city": "山ノ内町",
    "category": "day_service",
    "serviceType": "通所介護",
    "capacity": 0,
    "openDays": [
      "平日",
      "土曜日",
      "日曜日",
      "祝日"
    ],
    "openDaysNote": ""
  },
  {
    "id": "2073300127",
    "name": "社会福祉法人　山ノ内町社会福祉協議会指定通所介護事業所",
    "kana": "ヤマノウチマチシャカイフクシキョウギカイシテイツウショカイゴジギョウショ",
    "address": "長野県下高井郡山ノ内町大字平穏３３７１－２地域福祉センタ－内 地域福祉センタ－内",
    "lat": 36.7437672,
    "lng": 138.4136739,
    "tel": "0269-33-1105",
    "url": "http://www.honobono-shakyo.or.jp",
    "pref": "長野県",
    "city": "山ノ内町",
    "category": "day_service",
    "serviceType": "通所介護",
    "capacity": 0,
    "openDays": [
      "平日",
      "土曜日",
      "祝日"
    ],
    "openDaysNote": "祝日は通常営業"
  },
  {
    "id": "2072700871",
    "name": "デイサービスセンター　サファイア",
    "kana": "デイサービスセンター　サファイア",
    "address": "長野県東筑摩郡山形村字野際1261-1",
    "lat": 36.157869426326,
    "lng": 137.878011337855,
    "tel": "0263-98-5345",
    "url": "",
    "pref": "長野県",
    "city": "山形村",
    "category": "day_service",
    "serviceType": "通所介護",
    "capacity": 10,
    "openDays": [
      "平日",
      "土曜日",
      "日曜日",
      "祝日"
    ],
    "openDaysNote": "記録的な大雪や災害級の大雨など、利用者やスタッフの安全が確保できない場合や、職員研修など事業所が必要と認めた場合に臨時休業とする場合があります。"
  },
  {
    "id": "2072700459",
    "name": "デイサービスセンターいちいの里",
    "kana": "デイサ－ビスセンタ－イチイノサト",
    "address": "長野県東筑摩郡山形村４５２０番地１",
    "lat": 36.1738254787498,
    "lng": 137.882171978235,
    "tel": "0263-97-2102",
    "url": "http://poponet-yamagata.or.jp/",
    "pref": "長野県",
    "city": "山形村",
    "category": "day_service",
    "serviceType": "通所介護",
    "capacity": 0,
    "openDays": [
      "平日",
      "土曜日",
      "祝日"
    ],
    "openDaysNote": ""
  },
  {
    "id": "2072000637",
    "name": "小海町宅老所「なごみ」",
    "kana": "コウミマチタクロウショ「ナゴミ」",
    "address": "南佐久郡小海町小海４４７９番地１",
    "lat": 36.0863396,
    "lng": 138.4852838,
    "tel": "0267-92-0753",
    "url": "",
    "pref": "長野県",
    "city": "小海町",
    "category": "day_service",
    "serviceType": "通所介護",
    "capacity": 0,
    "openDays": [
      "平日",
      "土曜日",
      "祝日"
    ],
    "openDaysNote": ""
  },
  {
    "id": "2070800558",
    "name": "あすか小諸",
    "kana": "アスカコモロ",
    "address": "長野県小諸市相生町１－３－３",
    "lat": 36.3270079,
    "lng": 138.4227748,
    "tel": "0267-22-6370",
    "url": "http://www.tbcss.co.jp/",
    "pref": "長野県",
    "city": "小諸市",
    "category": "day_service",
    "serviceType": "通所介護",
    "capacity": 0,
    "openDays": [
      "平日",
      "土曜日",
      "祝日"
    ],
    "openDaysNote": ""
  },
  {
    "id": "2070800764",
    "name": "デイサービスセンターあさま",
    "kana": "デイサービスセンターアサマ",
    "address": "長野県小諸市耳取948番地1",
    "lat": 36.2909006523195,
    "lng": 138.43798957791,
    "tel": "0267-26-2288",
    "url": "",
    "pref": "長野県",
    "city": "小諸市",
    "category": "day_service",
    "serviceType": "通所介護",
    "capacity": 0,
    "openDays": [
      "平日",
      "土曜日",
      "祝日"
    ],
    "openDaysNote": ""
  },
  {
    "id": "2070800384",
    "name": "デイサービスセンターのぞみ",
    "kana": "デイサービスセンターノゾミ",
    "address": "長野県小諸市東雲6-2-3",
    "lat": 36.3310467,
    "lng": 138.435285,
    "tel": "0267-25-0766",
    "url": "https://nozomi-g.co.jp",
    "pref": "長野県",
    "city": "小諸市",
    "category": "day_service",
    "serviceType": "通所介護",
    "capacity": 30,
    "openDays": [
      "平日",
      "土曜日",
      "祝日"
    ],
    "openDaysNote": "営業時間を超えるものについては長時間のサービスとして対応可能です。職員配置はご利用者様の安全が確保できる人数で対応いたします。"
  },
  {
    "id": "2070800095",
    "name": "デイサービスセンターやまびこ",
    "kana": "デイサービスセンターヤマビコ",
    "address": "長野県小諸市大字柏木１３２６-１",
    "lat": 36.3375021,
    "lng": 138.4539559,
    "tel": "0267-26-2727",
    "url": "http://www.yamabiko.or.jp",
    "pref": "長野県",
    "city": "小諸市",
    "category": "day_service",
    "serviceType": "通所介護",
    "capacity": 0,
    "openDays": [
      "平日",
      "土曜日",
      "祝日"
    ],
    "openDaysNote": "祝・祭日は営業"
  },
  {
    "id": "2070800806",
    "name": "みんなの家タブノキ",
    "kana": "ミンナノイエタブノキ",
    "address": "長野県小諸市大字市97番地",
    "lat": 36.2863596,
    "lng": 138.4375287,
    "tel": "0267-31-5605",
    "url": "tabunoki.space",
    "pref": "長野県",
    "city": "小諸市",
    "category": "day_service",
    "serviceType": "通所介護",
    "capacity": null,
    "openDays": [
      "平日",
      "土曜日",
      "日曜日",
      "祝日"
    ],
    "openDaysNote": ""
  },
  {
    "id": "2070800699",
    "name": "ワールドステイ　グラン・池の前",
    "kana": "ワールドステイ　グラン・イケノマエ",
    "address": "長野県小諸市御影新田2190-3",
    "lat": 36.3019220443069,
    "lng": 138.462975034393,
    "tel": "0267-31-6541",
    "url": "http://www.ws-grand.com/",
    "pref": "長野県",
    "city": "小諸市",
    "category": "day_service",
    "serviceType": "通所介護",
    "capacity": 0,
    "openDays": [
      "平日",
      "土曜日",
      "日曜日",
      "祝日"
    ],
    "openDaysNote": ""
  },
  {
    "id": "2070800285",
    "name": "寿園介護ステーションデイサービス",
    "kana": "コトブキエンカイゴステーションデイサービス",
    "address": "長野県小諸市御影新田字池ノ上2090-1ことぶきの家小諸 ことぶきの家小諸",
    "lat": 36.3038106587312,
    "lng": 138.468341826845,
    "tel": "0267-22-7711",
    "url": "http://kotobuki-group.jp/care-station/day-service",
    "pref": "長野県",
    "city": "小諸市",
    "category": "day_service",
    "serviceType": "通所介護",
    "capacity": 0,
    "openDays": [
      "平日",
      "土曜日",
      "祝日"
    ],
    "openDaysNote": "日曜日を除く祝日は営業日とする"
  },
  {
    "id": "2070800798",
    "name": "宅幼老所サポートすみれ",
    "kana": "タクヨウロウジョサポートスミレ",
    "address": "長野県小諸市大字加増982－2",
    "lat": 36.3361805,
    "lng": 138.4511373,
    "tel": "0267－25－2535",
    "url": "",
    "pref": "長野県",
    "city": "小諸市",
    "category": "day_service",
    "serviceType": "通所介護",
    "capacity": null,
    "openDays": [
      "平日",
      "土曜日",
      "祝日"
    ],
    "openDaysNote": ""
  },
  {
    "id": "2073400331",
    "name": "社会福祉法人小川村社会福祉協議会　指定通所介護事業所",
    "kana": "オガワムラシャカイフクシキョウギカイ　シテイツウショカイゴジギョウショ",
    "address": "長野県上水内郡小川村大字高府８５５３小川村在宅福祉支援センター 小川村在宅福祉支援センター",
    "lat": 36.6188765,
    "lng": 137.9801044,
    "tel": "026-269-2255",
    "url": "htpp://ogawashakyo.jp/",
    "pref": "長野県",
    "city": "小川村",
    "category": "day_service",
    "serviceType": "通所介護",
    "capacity": 0,
    "openDays": [
      "平日",
      "祝日"
    ],
    "openDaysNote": ""
  },
  {
    "id": "2072900174",
    "name": "小谷村デイサービスセンター",
    "kana": "オタリムラデイサービスセンター",
    "address": "長野県北安曇郡小谷村大字中小谷丙2544-3福祉センターせせらぎ 福祉センターせせらぎ",
    "lat": 36.7958925,
    "lng": 137.910893,
    "tel": "0261-82-2430",
    "url": "http://otari-syakyo.or.jp/",
    "pref": "長野県",
    "city": "小谷村",
    "category": "day_service",
    "serviceType": "通所介護",
    "capacity": 0,
    "openDays": [
      "平日",
      "祝日"
    ],
    "openDaysNote": "祝日は休業の場合あり。"
  },
  {
    "id": "2073200343",
    "name": "小布施デイサービスセンター花の里",
    "kana": "オブセデイサービスセンターハナノサト",
    "address": "長野県上高井郡小布施町大字小布施1379‐1小布施デイサービスセンター花の里 小布施デイサービスセンター花の里",
    "lat": 36.7005195,
    "lng": 138.3147452,
    "tel": "026‐247‐1122",
    "url": "http:/obuse-shakyo.org",
    "pref": "長野県",
    "city": "小布施町",
    "category": "day_service",
    "serviceType": "通所介護",
    "capacity": 0,
    "openDays": [
      "平日",
      "土曜日",
      "日曜日",
      "祝日"
    ],
    "openDaysNote": "12月30日～1月3日は休業"
  },
  {
    "id": "2073200079",
    "name": "小布施町社協指定通所介護事業所",
    "kana": "オブセマチシャキョウシテイツウショカイゴジギョウショ",
    "address": "長野県上高井郡小布施町大字小布施857-6",
    "lat": 36.6898513,
    "lng": 138.3172816,
    "tel": "026-247-5671",
    "url": "http://obuse-shakyo.org/",
    "pref": "長野県",
    "city": "小布施町",
    "category": "day_service",
    "serviceType": "通所介護",
    "capacity": 35,
    "openDays": [
      "平日",
      "土曜日",
      "日曜日",
      "祝日"
    ],
    "openDaysNote": ""
  },
  {
    "id": "2072900695",
    "name": "リーベまつかわ",
    "kana": "リーベマツカワ",
    "address": "長野県北安曇郡松川村5689番地77",
    "lat": 36.412014267831,
    "lng": 137.86130768745,
    "tel": "0261-85-2037",
    "url": "http://kita-alps.org/",
    "pref": "長野県",
    "city": "松川村",
    "category": "day_service",
    "serviceType": "通所介護",
    "capacity": 0,
    "openDays": [
      "平日",
      "土曜日",
      "祝日"
    ],
    "openDaysNote": ""
  },
  {
    "id": "2072900265",
    "name": "松川村社協指定通所介護事業所",
    "kana": "マツカワムラシャキョウシテイツウショカイゴジギョウショ",
    "address": "長野県北安曇郡松川村5650-19　福祉プラザゆうあい館内",
    "lat": 36.403264,
    "lng": 137.8665836,
    "tel": "0261-62-9000",
    "url": "http://www18.ocn.ne.jp/~msyakyo/index.html",
    "pref": "長野県",
    "city": "松川村",
    "category": "day_service",
    "serviceType": "通所介護",
    "capacity": 0,
    "openDays": [
      "平日",
      "日曜日",
      "祝日"
    ],
    "openDaysNote": "12月30日入浴のみ支援"
  },
  {
    "id": "2072500867",
    "name": "コスモス松川デイサービスセンター",
    "kana": "コスモスマツカワデイサービスセンター",
    "address": "長野県下伊那郡松川町元大島１６５５",
    "lat": 35.5962726,
    "lng": 137.9182883,
    "tel": "0265-36-7017",
    "url": "http://cosmosnet.or.jp/file/matsukawa_day.html",
    "pref": "長野県",
    "city": "松川町",
    "category": "day_service",
    "serviceType": "通所介護",
    "capacity": 30,
    "openDays": [
      "平日",
      "土曜日",
      "日曜日",
      "祝日"
    ],
    "openDaysNote": ""
  },
  {
    "id": "2072500875",
    "name": "デイサービスセンターさくら",
    "kana": "デイサービスセンターサクラ",
    "address": "下伊那郡松川町上片桐２２８４",
    "lat": 35.6159500068997,
    "lng": 137.901619120068,
    "tel": "0265-37-1152",
    "url": "http://www.caretec.jp",
    "pref": "長野県",
    "city": "松川町",
    "category": "day_service",
    "serviceType": "通所介護",
    "capacity": 0,
    "openDays": [
      "平日",
      "土曜日",
      "祝日"
    ],
    "openDaysNote": ""
  },
  {
    "id": "2072501154",
    "name": "介護センターななすぎ",
    "kana": "カイゴセンターナナスギ",
    "address": "長野県下伊那郡松川町元大島2002番地2",
    "lat": 35.5975554035467,
    "lng": 137.921540340953,
    "tel": "0265-36-7732",
    "url": "http://www.ch-you.ne.jp/users/kaigo-nanasugi/",
    "pref": "長野県",
    "city": "松川町",
    "category": "day_service",
    "serviceType": "通所介護",
    "capacity": 0,
    "openDays": [
      "平日",
      "土曜日",
      "日曜日",
      "祝日"
    ],
    "openDaysNote": "特になし"
  },
  {
    "id": "2072500644",
    "name": "社会福祉法人松川町社会福祉協議会",
    "kana": "マツカワマチシャカイフクシキョウギカイ",
    "address": "長野県下伊那郡松川町元大島２９３０－１２",
    "lat": 35.60323,
    "lng": 137.9137248,
    "tel": "0265-36-2600",
    "url": "http://www.matsukawa-shakyo.net/",
    "pref": "長野県",
    "city": "松川町",
    "category": "day_service",
    "serviceType": "通所介護",
    "capacity": 50,
    "openDays": [
      "平日",
      "土曜日",
      "祝日"
    ],
    "openDaysNote": "延長サービス行っています。"
  },
  {
    "id": "2070201864",
    "name": "うつくしがはら温泉敬老園デイサービスセンター",
    "kana": "ウツクシガハラオンセンケイロウエンデイサービスセンター",
    "address": "長野県松本市里山辺67-1",
    "lat": 36.2473519,
    "lng": 137.997328,
    "tel": "0263-37-1179",
    "url": "http://www.keiroen.or.jp/keiroen/html/shisetu/utsukusigahara-onsen.htm",
    "pref": "長野県",
    "city": "松本市",
    "category": "day_service",
    "serviceType": "通所介護",
    "capacity": 0,
    "openDays": [
      "平日",
      "土曜日",
      "日曜日",
      "祝日"
    ],
    "openDaysNote": "なし"
  },
  {
    "id": "2070200288",
    "name": "うつくしの里デイサービスセンター",
    "kana": "ウツクシノサトデイサービスセンター",
    "address": "長野県松本市大字里山辺９１０－１",
    "lat": 36.2434805,
    "lng": 138.004144,
    "tel": "0263-39-2266",
    "url": "http://www.ja-naganokai.or.jp/facilities/index.php",
    "pref": "長野県",
    "city": "松本市",
    "category": "day_service",
    "serviceType": "通所介護",
    "capacity": 35,
    "openDays": [
      "平日",
      "土曜日",
      "祝日"
    ],
    "openDaysNote": "12月30日、1月3日が日曜日の場合4日間の休みとなります。"
  },
  {
    "id": "2070204249",
    "name": "オーチャード開智",
    "kana": "オーチャードカイチ",
    "address": "長野県松本市開智2-3-50",
    "lat": 36.241899,
    "lng": 137.9705202,
    "tel": "0263-33-8221",
    "url": "https://kaichi.orchard-care.co.jp/",
    "pref": "長野県",
    "city": "松本市",
    "category": "day_service",
    "serviceType": "通所介護",
    "capacity": null,
    "openDays": [
      "平日",
      "土曜日"
    ],
    "openDaysNote": ""
  },
  {
    "id": "2070203290",
    "name": "かがやきデイサービスあがたの森",
    "kana": "カガヤキデイサービスアガタノモリ",
    "address": "長野県松本市里山辺12087-1",
    "lat": 36.2322565,
    "lng": 137.9882269,
    "tel": "0263-35-6701",
    "url": "http://www.nagoyakaclub.jp/agatanomori/",
    "pref": "長野県",
    "city": "松本市",
    "category": "day_service",
    "serviceType": "通所介護",
    "capacity": 0,
    "openDays": [
      "平日",
      "土曜日",
      "日曜日",
      "祝日"
    ],
    "openDaysNote": "1/1のみデイサービスお休み。"
  },
  {
    "id": "2070203837",
    "name": "くわの実荘並柳デイサービスセンター",
    "kana": "クワノミソウナミヤナギデイサービスセンター",
    "address": "長野県松本市並柳1丁目4-24",
    "lat": 36.2130656678951,
    "lng": 137.978045855736,
    "tel": "0263-88-3690",
    "url": "http://www.kuwanomi.net",
    "pref": "長野県",
    "city": "松本市",
    "category": "day_service",
    "serviceType": "通所介護",
    "capacity": 0,
    "openDays": [
      "平日",
      "祝日"
    ],
    "openDaysNote": "土日が祝日の場合は定休日になります"
  },
  {
    "id": "2070204074",
    "name": "しあわせの家　寿",
    "kana": "シアワセノイエ　コトブキ",
    "address": "長野県松本市寿豊丘235-1",
    "lat": 36.1889468,
    "lng": 137.9755813,
    "tel": "0263-31-6161",
    "url": "",
    "pref": "長野県",
    "city": "松本市",
    "category": "day_service",
    "serviceType": "通所介護",
    "capacity": null,
    "openDays": [
      "平日",
      "土曜日",
      "祝日"
    ],
    "openDaysNote": ""
  },
  {
    "id": "2070203308",
    "name": "シニアリゾートふれあい征矢野",
    "kana": "シニアリゾートフレアイソヤノ",
    "address": "長野県松本市征矢野2-12-47",
    "lat": 36.2134769,
    "lng": 137.9550647,
    "tel": "0263-87-2282",
    "url": "タカサワ通商株式会社",
    "pref": "長野県",
    "city": "松本市",
    "category": "day_service",
    "serviceType": "通所介護",
    "capacity": 0,
    "openDays": [
      "平日",
      "祝日"
    ],
    "openDaysNote": ""
  },
  {
    "id": "2070201740",
    "name": "セントラル・ビオス",
    "kana": "セントラル・ビオス",
    "address": "長野県松本市大手２丁目－９－２３",
    "lat": 36.2366185,
    "lng": 137.9663876,
    "tel": "0263-39-5888",
    "url": "http://www.central-bios.jp",
    "pref": "長野県",
    "city": "松本市",
    "category": "day_service",
    "serviceType": "通所介護",
    "capacity": 0,
    "openDays": [
      "平日",
      "土曜日",
      "祝日"
    ],
    "openDaysNote": "年末年始休業は、１２月３０日～１月２日です。"
  },
  {
    "id": "2070200197",
    "name": "ツクイ松本",
    "kana": "ツクイマツモト",
    "address": "長野県松本市井川城3-4-43",
    "lat": 36.2186404,
    "lng": 137.9641969,
    "tel": "0263-29-6635",
    "url": "http://corp.tsukui.net",
    "pref": "長野県",
    "city": "松本市",
    "category": "day_service",
    "serviceType": "通所介護",
    "capacity": 50,
    "openDays": [
      "平日",
      "土曜日",
      "日曜日",
      "祝日"
    ],
    "openDaysNote": ""
  },
  {
    "id": "2070204306",
    "name": "ツクイ松本岡田",
    "kana": "ツクイマツモトオカダ",
    "address": "長野県松本市岡田下岡田677-1",
    "lat": 36.2631654,
    "lng": 137.9596945,
    "tel": "0263-37-5007",
    "url": "http:/www.tsukui.net.jp",
    "pref": "長野県",
    "city": "松本市",
    "category": "day_service",
    "serviceType": "通所介護",
    "capacity": null,
    "openDays": [
      "平日",
      "土曜日",
      "祝日"
    ],
    "openDaysNote": ""
  },
  {
    "id": "2070201161",
    "name": "ツクイ松本北深志",
    "kana": "ツクイマツモトキタフカシ",
    "address": "長野県松本市北深志3-5-17",
    "lat": 36.2470953,
    "lng": 137.9741974,
    "tel": "0263-38-0805",
    "url": "http://www.tsukui.net/search/detail.php?officeid=258",
    "pref": "長野県",
    "city": "松本市",
    "category": "day_service",
    "serviceType": "通所介護",
    "capacity": 31,
    "openDays": [
      "平日",
      "土曜日",
      "日曜日",
      "祝日"
    ],
    "openDaysNote": ""
  },
  {
    "id": "2070203019",
    "name": "デイサービスきたえる～む松本",
    "kana": "デイサービスキタエルームマツモト",
    "address": "長野県松本市大字島内4367-2",
    "lat": 36.2444694,
    "lng": 137.9440031,
    "tel": "0263-88-7670",
    "url": "http://kitaeroom.com/info/matsumoto/",
    "pref": "長野県",
    "city": "松本市",
    "category": "day_service",
    "serviceType": "通所介護",
    "capacity": 25,
    "openDays": [
      "平日",
      "土曜日"
    ],
    "openDaysNote": "年末年始・お盆等長期休みあり"
  },
  {
    "id": "2070204488",
    "name": "デイサービスきたえる～む松本今井",
    "kana": "デイサービスキタエルームマツモトイマイ",
    "address": "長野県松本市今井4820-1",
    "lat": 36.1787675,
    "lng": 137.9111162,
    "tel": "0263-88-4202",
    "url": "",
    "pref": "長野県",
    "city": "松本市",
    "category": "day_service",
    "serviceType": "通所介護",
    "capacity": 0,
    "openDays": [
      "平日",
      "土曜日"
    ],
    "openDaysNote": "平日　１単位目9：00～12：05　２単位目13：30～16：35"
  },
  {
    "id": "2070201203",
    "name": "デイサービスセンターき・ら・ら",
    "kana": "デイサービスセンターキ・ラ・ラ",
    "address": "長野県松本市大字今井7111-10",
    "lat": 36.1711287,
    "lng": 137.928187,
    "tel": "0263-85-7880",
    "url": "",
    "pref": "長野県",
    "city": "松本市",
    "category": "day_service",
    "serviceType": "通所介護",
    "capacity": 40,
    "openDays": [
      "平日",
      "土曜日",
      "日曜日",
      "祝日"
    ],
    "openDaysNote": "基本、24時間介護"
  },
  {
    "id": "2070201500",
    "name": "デイサービスセンターたのしや",
    "kana": "デイサービスセンタータノシヤ",
    "address": "長野県松本市大字里山辺１８３２番地１",
    "lat": 36.240142,
    "lng": 138.003047,
    "tel": "0263-39-3993",
    "url": "http://tanoshiya.co.jp/matsumoto.html",
    "pref": "長野県",
    "city": "松本市",
    "category": "day_service",
    "serviceType": "通所介護",
    "capacity": 22,
    "openDays": [
      "平日",
      "土曜日",
      "祝日"
    ],
    "openDaysNote": ""
  },
  {
    "id": "2070201393",
    "name": "デイサービスセンターなごやか松本",
    "kana": "デイサービスセンターナゴヤカマツモト",
    "address": "長野県松本市野溝東１－１４－１１",
    "lat": 36.1975264,
    "lng": 137.9591704,
    "tel": "0263-25-7116",
    "url": "https://kanaya-group.jp/",
    "pref": "長野県",
    "city": "松本市",
    "category": "day_service",
    "serviceType": "通所介護",
    "capacity": 33,
    "openDays": [
      "平日",
      "土曜日",
      "祝日"
    ],
    "openDaysNote": ""
  },
  {
    "id": "2070203050",
    "name": "デイサービスセンターまごのて",
    "kana": "デイサービスセンターマゴノテ",
    "address": "長野県松本市里山辺94-1",
    "lat": 36.2467146124679,
    "lng": 137.998563155762,
    "tel": "0263‐88‐6788",
    "url": "https://magonote-dh.jp/",
    "pref": "長野県",
    "city": "松本市",
    "category": "day_service",
    "serviceType": "通所介護",
    "capacity": 25,
    "openDays": [
      "平日",
      "土曜日",
      "日曜日",
      "祝日"
    ],
    "openDaysNote": ""
  },
  {
    "id": "2070201237",
    "name": "デイサービスセンター竹の湯",
    "kana": "デイサービスセンタータケノユ",
    "address": "長野県松本市浅間温泉３－１１－２",
    "lat": 36.2628967,
    "lng": 137.9923365,
    "tel": "0263-45-1081",
    "url": "",
    "pref": "長野県",
    "city": "松本市",
    "category": "day_service",
    "serviceType": "通所介護",
    "capacity": 0,
    "openDays": [
      "平日",
      "土曜日",
      "日曜日",
      "祝日"
    ],
    "openDaysNote": "利用者様の都合により、時間が多少変わる時にはその時間に応じています"
  },
  {
    "id": "2070203902",
    "name": "デイサービス美事",
    "kana": "デイサービスミゴト",
    "address": "長野県松本市庄内３－４－４１生活アシストセンター松本１F 生活アシストセンター松本１F",
    "lat": 36.2208488,
    "lng": 137.9729015,
    "tel": "0263-31-6677",
    "url": "http://azusanosato-salvia.jp/",
    "pref": "長野県",
    "city": "松本市",
    "category": "day_service",
    "serviceType": "通所介護",
    "capacity": 38,
    "openDays": [
      "平日",
      "土曜日",
      "祝日"
    ],
    "openDaysNote": "12月30日～1月3日は休業。"
  },
  {
    "id": "2070201575",
    "name": "ニチイケアセンター寿中",
    "kana": "ニチイケアセンターコトブキナカ",
    "address": "長野県松本市寿中1-5-33",
    "lat": 36.1879085,
    "lng": 137.9710085,
    "tel": "0263-85-0688",
    "url": "http://www.nichiigakkan.co.jp/service/care/home/day.html",
    "pref": "長野県",
    "city": "松本市",
    "category": "day_service",
    "serviceType": "通所介護",
    "capacity": 0,
    "openDays": [
      "平日",
      "土曜日",
      "祝日"
    ],
    "openDaysNote": ""
  },
  {
    "id": "2070200593",
    "name": "ニチイケアセンター松本笹賀",
    "kana": "ニチイケアセンターマツモトササガ",
    "address": "長野県松本市笹賀３９６７－３",
    "lat": 36.1802694,
    "lng": 137.9342558,
    "tel": "0263-59-6031",
    "url": "http://www.nichiigakkan.co.jp/service/care/home/day.html",
    "pref": "長野県",
    "city": "松本市",
    "category": "day_service",
    "serviceType": "通所介護",
    "capacity": 34,
    "openDays": [
      "平日",
      "土曜日",
      "祝日"
    ],
    "openDaysNote": ""
  },
  {
    "id": "2070200742",
    "name": "ニチイケアセンター松本中央",
    "kana": "ニチイケアセンターマツモトチュウオウ",
    "address": "長野県松本市筑摩2-33-15",
    "lat": 36.2225213,
    "lng": 137.9842085,
    "tel": "0263-24-2801",
    "url": "http://www.nichiigakkan.co.jp/service/care/home/day.html",
    "pref": "長野県",
    "city": "松本市",
    "category": "day_service",
    "serviceType": "通所介護",
    "capacity": 0,
    "openDays": [
      "平日",
      "土曜日",
      "日曜日",
      "祝日"
    ],
    "openDaysNote": ""
  },
  {
    "id": "2070202961",
    "name": "ニチイケアセンター松本波田",
    "kana": "ニチイケアセンターマツモトハタ",
    "address": "長野県松本市波田1527番地8",
    "lat": 36.2039694,
    "lng": 137.8750739,
    "tel": "0263-91-2005",
    "url": "http://www.nichiigakkan.co.jp/service/care/home/day.html",
    "pref": "長野県",
    "city": "松本市",
    "category": "day_service",
    "serviceType": "通所介護",
    "capacity": 35,
    "openDays": [
      "平日",
      "土曜日",
      "祝日"
    ],
    "openDaysNote": "年末年始はカレンダーにより変わります。"
  },
  {
    "id": "2072700673",
    "name": "はた敬老園デイサービスセンター",
    "kana": "ハタケイロウエンデイサービスセンター",
    "address": "長野県松本市波田３０２３",
    "lat": 36.1907309,
    "lng": 137.822342,
    "tel": "0263-92-7165",
    "url": "http://www.keiroen.or.jp/keiroen/html/shisetu/hata.htm",
    "pref": "長野県",
    "city": "松本市",
    "category": "day_service",
    "serviceType": "通所介護",
    "capacity": 30,
    "openDays": [
      "平日",
      "土曜日",
      "日曜日",
      "祝日"
    ],
    "openDaysNote": ""
  },
  {
    "id": "2070200767",
    "name": "ゆめの里和田デイサービスセンター",
    "kana": "ユメノサトワダデイサービスセンター",
    "address": "長野県松本市大字和田２２４０－３３",
    "lat": 36.2038908,
    "lng": 137.9158036,
    "tel": "0263-40-3527",
    "url": "https://www.yumenosato.info",
    "pref": "長野県",
    "city": "松本市",
    "category": "day_service",
    "serviceType": "通所介護",
    "capacity": 32,
    "openDays": [
      "平日",
      "土曜日",
      "祝日"
    ],
    "openDaysNote": ""
  },
  {
    "id": "2070203951",
    "name": "ラポール宅老所",
    "kana": "ラポールタクロウショ",
    "address": "長野県松本市城東1-3-10",
    "lat": 36.23753,
    "lng": 137.9748588,
    "tel": "0263-33-2391",
    "url": "http://rapport.nagano.jp/",
    "pref": "長野県",
    "city": "松本市",
    "category": "day_service",
    "serviceType": "通所介護",
    "capacity": null,
    "openDays": [
      "平日",
      "土曜日",
      "日曜日",
      "祝日"
    ],
    "openDaysNote": ""
  },
  {
    "id": "2070203779",
    "name": "梓川デイサービスセンター笑トレ",
    "kana": "アズサガワデイサービスセンターワラトレ",
    "address": "長野県松本市梓川倭574-2百瀬テナントビル１階 百瀬テナントビル１階",
    "lat": 36.2333775,
    "lng": 137.891741,
    "tel": "0263-50-6522",
    "url": "http://waratore.com/index.html",
    "pref": "長野県",
    "city": "松本市",
    "category": "day_service",
    "serviceType": "通所介護",
    "capacity": 19,
    "openDays": [
      "平日",
      "土曜日"
    ],
    "openDaysNote": "木曜日の営業時間は午前8時半から午後１時までとする。"
  },
  {
    "id": "2010217335",
    "name": "医療法人心泉会上條記念病院",
    "kana": "シンセンカイカミジョウキネンビョウイン",
    "address": "長野県松本市村井町西2-16-1",
    "lat": 36.1724485,
    "lng": 137.947433,
    "tel": "0263-57-3800",
    "url": "http://www.kamijyomhp.or.jp/kaigo/kaigo.html",
    "pref": "長野県",
    "city": "松本市",
    "category": "day_service",
    "serviceType": "通所介護",
    "capacity": 40,
    "openDays": [
      "平日",
      "土曜日",
      "祝日"
    ],
    "openDaysNote": ""
  },
  {
    "id": "2070201328",
    "name": "秋櫻",
    "kana": "コスモス",
    "address": "長野県松本市島内３３２",
    "lat": 36.2346448,
    "lng": 137.9189163,
    "tel": "0263-47-0121",
    "url": "https://nanatsunokane.or.jp",
    "pref": "長野県",
    "city": "松本市",
    "category": "day_service",
    "serviceType": "通所介護",
    "capacity": 0,
    "openDays": [
      "平日",
      "祝日"
    ],
    "openDaysNote": "特になし"
  },
  {
    "id": "2070204322",
    "name": "松本ケアセンターそよ風",
    "kana": "マツモトケアセンターソヨカゼ",
    "address": "長野県松本市大字笹賀8134‐1",
    "lat": 36.200727443493,
    "lng": 137.940169603758,
    "tel": "0263-24-2806",
    "url": "https://www.sykz.co.jp/shisetsu-zaitaku/204411",
    "pref": "長野県",
    "city": "松本市",
    "category": "day_service",
    "serviceType": "通所介護",
    "capacity": 0,
    "openDays": [
      "平日",
      "土曜日",
      "日曜日",
      "祝日"
    ],
    "openDaysNote": ""
  },
  {
    "id": "2072800259",
    "name": "松本市梓川デイサービスセンターなごみ荘",
    "kana": "マツモトシアズサガワデイサービスセンターナゴミソウ",
    "address": "長野県松本市梓川上野３７９－１",
    "lat": 36.201913,
    "lng": 137.8369297,
    "tel": "0263-78-5511",
    "url": "",
    "pref": "長野県",
    "city": "松本市",
    "category": "day_service",
    "serviceType": "通所介護",
    "capacity": 0,
    "openDays": [
      "平日",
      "土曜日",
      "祝日"
    ],
    "openDaysNote": ""
  },
  {
    "id": "2070200403",
    "name": "松本市蟻ヶ崎デイサービスセンター",
    "kana": "マツモトシアリガサキデイサービスセンター",
    "address": "長野県松本市蟻ヶ崎3丁目4番1号",
    "lat": 36.2464256,
    "lng": 137.9665205,
    "tel": "0263-39-3232",
    "url": "http://www.janis.or.jp/kenren/kouseiren/ja-naganokai/index.html",
    "pref": "長野県",
    "city": "松本市",
    "category": "day_service",
    "serviceType": "通所介護",
    "capacity": 30,
    "openDays": [
      "平日",
      "土曜日",
      "祝日"
    ],
    "openDaysNote": ""
  },
  {
    "id": "2072700236",
    "name": "松本市四賀デイサービスセンターぷくぷくの郷",
    "kana": "マツモトシシガデイサービスセンタープクプクノサト",
    "address": "長野県松本市会田１098",
    "lat": 36.3495563,
    "lng": 137.9896815,
    "tel": "0263-64-4321",
    "url": "http://www.syakyo-matsumoto.or.jp/outline/facilities/dayservice/shiga_pkpk.php",
    "pref": "長野県",
    "city": "松本市",
    "category": "day_service",
    "serviceType": "通所介護",
    "capacity": 0,
    "openDays": [
      "平日",
      "土曜日",
      "日曜日",
      "祝日"
    ],
    "openDaysNote": "特になし"
  },
  {
    "id": "2070201922",
    "name": "松本市城山デイサービスセンター",
    "kana": "マツモトシジョウヤマデイサービスセンター",
    "address": "長野県松本市蟻ヶ崎2132番地",
    "lat": 36.2426622,
    "lng": 137.9660013,
    "tel": "0263-39-3133",
    "url": "http://www.keiroen.or.jp/keiroen/html/shisetu/jyoyama-dayservice.htm",
    "pref": "長野県",
    "city": "松本市",
    "category": "day_service",
    "serviceType": "通所介護",
    "capacity": 40,
    "openDays": [
      "平日",
      "土曜日",
      "日曜日",
      "祝日"
    ],
    "openDaysNote": "必要に応じて、７時～９時または１８時～２１時の延長ｻｰﾋﾞｽを実施いたします。"
  },
  {
    "id": "2070201963",
    "name": "松本市田川デイサービスセンター",
    "kana": "マツモトシタガワデイサービスセンター",
    "address": "長野県松本市渚１－１－９",
    "lat": 36.2331352,
    "lng": 137.9584276,
    "tel": "0263-28-1522",
    "url": "http://www.keiroen.or.jp/keiroen/html/shisetu/tagawa-dayservice.htm",
    "pref": "長野県",
    "city": "松本市",
    "category": "day_service",
    "serviceType": "通所介護",
    "capacity": 30,
    "openDays": [
      "平日",
      "土曜日",
      "日曜日",
      "祝日"
    ],
    "openDaysNote": "必要に応じ、営業時間外の3時間分の延長あり。"
  },
  {
    "id": "2070201872",
    "name": "松本市島内デイサービスセンター",
    "kana": "マツモトシシマウチデイサービスセンター",
    "address": "長野県松本市島内4970-1",
    "lat": 36.2515462,
    "lng": 137.9423057,
    "tel": "0263-48-4668",
    "url": "http://www.keiroen.or.jp/keiroen/html/shisetu/shimauti-dayservice.htm",
    "pref": "長野県",
    "city": "松本市",
    "category": "day_service",
    "serviceType": "通所介護",
    "capacity": 27,
    "openDays": [
      "平日",
      "土曜日",
      "日曜日",
      "祝日"
    ],
    "openDaysNote": ""
  },
  {
    "id": "2070201880",
    "name": "松本市島立デイサービスセンター",
    "kana": "マツモトシシマダチデイサービスセンター",
    "address": "松本市島立3427-1",
    "lat": 36.2236861,
    "lng": 137.9426179,
    "tel": "0263-48-1311",
    "url": "http://www.keiroen.or.jp/keiroen/html/shisetu/shimadate-dayservice.htm",
    "pref": "長野県",
    "city": "松本市",
    "category": "day_service",
    "serviceType": "通所介護",
    "capacity": 90,
    "openDays": [
      "平日",
      "土曜日",
      "日曜日",
      "祝日"
    ],
    "openDaysNote": ""
  },
  {
    "id": "2070201948",
    "name": "松本市東部デイサービスセンター",
    "kana": "マツモトシトウブデイサービスセンター",
    "address": "長野県松本市女鳥羽2-1-25",
    "lat": 36.2396022,
    "lng": 137.9782861,
    "tel": "0263-32-7102",
    "url": "http://www.syakyo-matsumoto.or.jp/",
    "pref": "長野県",
    "city": "松本市",
    "category": "day_service",
    "serviceType": "通所介護",
    "capacity": 30,
    "openDays": [
      "平日",
      "土曜日",
      "日曜日",
      "祝日"
    ],
    "openDaysNote": ""
  },
  {
    "id": "2070202490",
    "name": "松本市波田デイサービスセンターふれあい",
    "kana": "マツモトシハタデイサービスセンターフレアイ",
    "address": "長野県松本市波田6908番地1（松本市波田保健福祉センター内） （松本市波田保健福祉センター内）",
    "lat": 36.2002964653076,
    "lng": 137.865971833205,
    "tel": "0263-92-8003",
    "url": "http://www.syakyo-matsumoto.or.jp/outline/facilities/dayservice/post_31.php",
    "pref": "長野県",
    "city": "松本市",
    "category": "day_service",
    "serviceType": "通所介護",
    "capacity": 0,
    "openDays": [
      "平日",
      "土曜日",
      "祝日"
    ],
    "openDaysNote": "年末年始の営業に関しては施設にお問い合わせください。"
  },
  {
    "id": "2070201914",
    "name": "松本市芳川デイサービスセンター",
    "kana": "マツモトシヨシカワデイサービスセンター",
    "address": "長野県松本市芳川野溝2丁目10番1号",
    "lat": 36.1891662,
    "lng": 137.9547599,
    "tel": "0263-85-0606",
    "url": "http://www.keiroen.or.jp/keiroen/html/shisetu/yoshikawa-dayservice.htm",
    "pref": "長野県",
    "city": "松本市",
    "category": "day_service",
    "serviceType": "通所介護",
    "capacity": 30,
    "openDays": [
      "平日",
      "土曜日",
      "日曜日",
      "祝日"
    ],
    "openDaysNote": "特になし"
  },
  {
    "id": "2070201955",
    "name": "松本市北部デイサービスセンター",
    "kana": "マツモトシホクブデイサービスセンター",
    "address": "長野県松本市元町３－７－１",
    "lat": 36.2505148,
    "lng": 137.9837295,
    "tel": "0263-38-7676",
    "url": "",
    "pref": "長野県",
    "city": "松本市",
    "category": "day_service",
    "serviceType": "通所介護",
    "capacity": 0,
    "openDays": [
      "平日",
      "土曜日",
      "日曜日",
      "祝日"
    ],
    "openDaysNote": ""
  },
  {
    "id": "2070203811",
    "name": "特定非営利活動法人　宅老所　遊々",
    "kana": "トクテイヒエイリカツドウホウジンタクロウショユウユウ",
    "address": "長野県松本市寿北5丁目１４－１５",
    "lat": 36.2016295,
    "lng": 137.9833653,
    "tel": "0263-58-5855",
    "url": "",
    "pref": "長野県",
    "city": "松本市",
    "category": "day_service",
    "serviceType": "通所介護",
    "capacity": 20,
    "openDays": [
      "平日",
      "土曜日",
      "日曜日",
      "祝日"
    ],
    "openDaysNote": ""
  },
  {
    "id": "2070200262",
    "name": "特別養護老人ホーム真寿園松本市寿デイサービスセンター",
    "kana": "トクベツヨウゴロウジンホームシンジュエンマツモトシコトブキデイサービスセンター",
    "address": "長野県松本市寿中2丁目20番1号",
    "lat": 36.1788929,
    "lng": 137.9686756,
    "tel": "0263-86-6857",
    "url": "http://www.shinjyuen.net/",
    "pref": "長野県",
    "city": "松本市",
    "category": "day_service",
    "serviceType": "通所介護",
    "capacity": 0,
    "openDays": [
      "平日",
      "土曜日",
      "日曜日",
      "祝日"
    ],
    "openDaysNote": "営業時間外受け入れ可能時間（改行）午前７時～午前８時３０分/午後５時３０分～午後６時００分"
  },
  {
    "id": "2070200171",
    "name": "特別養護老人ホーム真寿園真寿園デイサービスセンター",
    "kana": "トクベツヨウゴロウジンホームシンジュエンシンジュエンデイサービスセンター",
    "address": "長野県松本市寿中２丁目２０番１号",
    "lat": 36.1788929,
    "lng": 137.9686756,
    "tel": "0263-86-6857",
    "url": "http://www.shinjyuen.net/",
    "pref": "長野県",
    "city": "松本市",
    "category": "day_service",
    "serviceType": "通所介護",
    "capacity": 0,
    "openDays": [
      "平日",
      "土曜日",
      "祝日"
    ],
    "openDaysNote": "12/29～1/3は定休日になります"
  },
  {
    "id": "2070200890",
    "name": "富士ライフ筑摩あんしん館",
    "kana": "フジライフツカマアンシンカン",
    "address": "長野県松本市筑摩4丁目３番６号",
    "lat": 36.225821,
    "lng": 137.9850527,
    "tel": "0263-24-2825",
    "url": "http://www.fujilife.co.jp/ansin/a1.asp",
    "pref": "長野県",
    "city": "松本市",
    "category": "day_service",
    "serviceType": "通所介護",
    "capacity": 0,
    "openDays": [
      "平日",
      "土曜日",
      "祝日"
    ],
    "openDaysNote": "特になし"
  },
  {
    "id": "2072600485",
    "name": "あい愛ケアセンター",
    "kana": "アイアイケアセンター",
    "address": "長野県木曽郡上松町大字小川２０５０－５",
    "lat": 35.7756522,
    "lng": 137.697902,
    "tel": "0264-52-1235",
    "url": "aiaicare.jp",
    "pref": "長野県",
    "city": "上松町",
    "category": "day_service",
    "serviceType": "通所介護",
    "capacity": 30,
    "openDays": [
      "平日",
      "土曜日",
      "祝日"
    ],
    "openDaysNote": "特になし"
  },
  {
    "id": "2070301623",
    "name": "あおぞらの里　上田原デイサービスセンター",
    "kana": "アオゾラノサト　ウエダハラデイサービスセンター",
    "address": "長野県上田市神畑217-7",
    "lat": 36.3764721,
    "lng": 138.2175041,
    "tel": "0268-29-6152",
    "url": "http://www.aozoranosato.jp/lib/center/index.php?id=65",
    "pref": "長野県",
    "city": "上田市",
    "category": "day_service",
    "serviceType": "通所介護",
    "capacity": 40,
    "openDays": [
      "平日",
      "土曜日",
      "祝日"
    ],
    "openDaysNote": ""
  },
  {
    "id": "2070300575",
    "name": "うえだ敬老園デイサービスセンター",
    "kana": "ウエダケイロウエンデイサービスセンター",
    "address": "長野県上田市中央３－１４－５",
    "lat": 36.4019782,
    "lng": 138.2549801,
    "tel": "0268-28-1165",
    "url": "http://www.keiroen.or.jp/keiroen/html/shisetu/ueda.htm",
    "pref": "長野県",
    "city": "上田市",
    "category": "day_service",
    "serviceType": "通所介護",
    "capacity": 0,
    "openDays": [
      "平日",
      "土曜日",
      "日曜日",
      "祝日"
    ],
    "openDaysNote": "特になし"
  },
  {
    "id": "2072200278",
    "name": "しおがわ敬老園デイサービスセンター",
    "kana": "シオガワケイロウエンデイサービスセンター",
    "address": "長野県上田市塩川１００１番地",
    "lat": 36.3530189,
    "lng": 138.3098717,
    "tel": "0268-34-6511",
    "url": "http://www.keiroen.or.jp/keiroen/html/shisetu/shiogawa.htm",
    "pref": "長野県",
    "city": "上田市",
    "category": "day_service",
    "serviceType": "通所介護",
    "capacity": 0,
    "openDays": [
      "平日",
      "土曜日",
      "日曜日",
      "祝日"
    ],
    "openDaysNote": ""
  },
  {
    "id": "2070301060",
    "name": "ツクイ上田原",
    "kana": "ツクイウエダハラ",
    "address": "長野県上田市上田原１２２２－１４",
    "lat": 36.3863407,
    "lng": 138.2230306,
    "tel": "0268-71-3385",
    "url": "http://www.tsukui.net/search/detail.php?officeid=348",
    "pref": "長野県",
    "city": "上田市",
    "category": "day_service",
    "serviceType": "通所介護",
    "capacity": 30,
    "openDays": [
      "平日",
      "土曜日",
      "日曜日",
      "祝日"
    ],
    "openDaysNote": "なし"
  },
  {
    "id": "2070302019",
    "name": "ツクイ上田秋和",
    "kana": "ツクイウエダアキワ",
    "address": "長野県上田市秋和541-1",
    "lat": 36.4113553949619,
    "lng": 138.235382925628,
    "tel": "0268-71-3530",
    "url": "http://www.tsukui.net/search/2635/detail.html",
    "pref": "長野県",
    "city": "上田市",
    "category": "day_service",
    "serviceType": "通所介護",
    "capacity": 50,
    "openDays": [
      "平日",
      "土曜日",
      "日曜日",
      "祝日"
    ],
    "openDaysNote": ""
  },
  {
    "id": "2070302399",
    "name": "デイサービス　オリオリゾート上田",
    "kana": "デイサービス　オリオリゾートウエダ",
    "address": "長野県上田市住吉587-6",
    "lat": 36.4070731315311,
    "lng": 138.276766641104,
    "tel": "0268-71-6720",
    "url": "kyowa-hd/co.jp/olioresort/",
    "pref": "長野県",
    "city": "上田市",
    "category": "day_service",
    "serviceType": "通所介護",
    "capacity": null,
    "openDays": [
      "平日",
      "土曜日"
    ],
    "openDaysNote": ""
  },
  {
    "id": "2070301722",
    "name": "デイサービスあすか",
    "kana": "デイサービスアスカ",
    "address": "長野県上田市上塩尻192-5",
    "lat": 36.4172419,
    "lng": 138.2201534,
    "tel": "0268-75-8376",
    "url": "asuka2013@lime.ocn.ne.jp",
    "pref": "長野県",
    "city": "上田市",
    "category": "day_service",
    "serviceType": "通所介護",
    "capacity": 20,
    "openDays": [
      "平日",
      "土曜日",
      "祝日"
    ],
    "openDaysNote": "年末年始、ゴールデンウィーク、お盆休み有り"
  },
  {
    "id": "2072200393",
    "name": "デイサービスセンターアザレアン",
    "kana": "デイサービスセンターアザレアン",
    "address": "長野県上田市真田町長７１４１－１",
    "lat": 36.4433461,
    "lng": 138.3057677,
    "tel": "0268-72-4701",
    "url": "http://www.azarean.jp/Group1/Contents/service/1600_dayservice.aspx",
    "pref": "長野県",
    "city": "上田市",
    "category": "day_service",
    "serviceType": "通所介護",
    "capacity": 40,
    "openDays": [
      "平日",
      "土曜日",
      "祝日"
    ],
    "openDaysNote": "その他、上記以外の時間延長サービスも希望に沿って対応します。"
  },
  {
    "id": "2070300740",
    "name": "デイサービスセンターリハビリ処大屋",
    "kana": "デイサービスセンターリハビリドコロオオヤ",
    "address": "長野県上田市大屋２１３",
    "lat": 36.3708992,
    "lng": 138.2977584,
    "tel": "0268-35-0814",
    "url": "http://www.sumariha.jp",
    "pref": "長野県",
    "city": "上田市",
    "category": "day_service",
    "serviceType": "通所介護",
    "capacity": 0,
    "openDays": [
      "平日",
      "祝日"
    ],
    "openDaysNote": "ケアプランに沿って平日の通所サービスを利用されている方が、緊急に土日や夜間の利用をご希望される場合は、在宅生活継続を支援する観点から、受け入れる用意があります。"
  },
  {
    "id": "2070300815",
    "name": "デイサービスリハビリ健康道場",
    "kana": "デイサービスリハビリケンコウドウジョウ",
    "address": "長野県上田市福田50－3",
    "lat": 36.3874959,
    "lng": 138.2019074,
    "tel": "0268-27-2217",
    "url": "http://hohoemikaigo.com/",
    "pref": "長野県",
    "city": "上田市",
    "category": "day_service",
    "serviceType": "通所介護",
    "capacity": 0,
    "openDays": [
      "平日",
      "土曜日",
      "祝日"
    ],
    "openDaysNote": ""
  },
  {
    "id": "2070300351",
    "name": "ニチイケアセンターかわべ",
    "kana": "ニチイケアセンターカワベ",
    "address": "長野県上田市上田原847-4",
    "lat": 36.3937623,
    "lng": 138.2244826,
    "tel": "0268-29-4825",
    "url": "http://www.nichiigakkan.co.jp/service/care/home/day.html",
    "pref": "長野県",
    "city": "上田市",
    "category": "day_service",
    "serviceType": "通所介護",
    "capacity": 0,
    "openDays": [
      "平日",
      "土曜日",
      "祝日"
    ],
    "openDaysNote": "お盆・年末年始も営業しています。"
  },
  {
    "id": "2070300757",
    "name": "ニチイケアセンターこさと",
    "kana": "ニチイケアセンターコサト",
    "address": "長野県上田市上野60-7",
    "lat": 36.4036975,
    "lng": 138.2896824,
    "tel": "0268-29-5056",
    "url": "http://www.nichiigakkan.co.jp/service/care/home/day.html",
    "pref": "長野県",
    "city": "上田市",
    "category": "day_service",
    "serviceType": "通所介護",
    "capacity": 43,
    "openDays": [
      "平日",
      "土曜日",
      "祝日"
    ],
    "openDaysNote": ""
  },
  {
    "id": "2070300286",
    "name": "ニチイケアセンターときわぎ",
    "kana": "ニチイケアセンタートキワギ",
    "address": "長野県上田市常磐城654-4",
    "lat": 36.4163737,
    "lng": 138.2425857,
    "tel": "0268-28-7201",
    "url": "http://www.nichiigakkan.co.jp/service/care/home/day.html",
    "pref": "長野県",
    "city": "上田市",
    "category": "day_service",
    "serviceType": "通所介護",
    "capacity": 0,
    "openDays": [
      "平日",
      "土曜日",
      "祝日"
    ],
    "openDaysNote": ""
  },
  {
    "id": "2070301292",
    "name": "ベルポートまるこデイサービスセンター",
    "kana": "ベルポートマルコデイサービスセンター",
    "address": "長野県上田市中丸子１８９７番地１",
    "lat": 36.3368559,
    "lng": 138.2691845,
    "tel": "0268-43-1700",
    "url": "http://daijukai.or.jp/",
    "pref": "長野県",
    "city": "上田市",
    "category": "day_service",
    "serviceType": "通所介護",
    "capacity": 0,
    "openDays": [
      "平日",
      "土曜日",
      "祝日"
    ],
    "openDaysNote": ""
  },
  {
    "id": "2070301375",
    "name": "リハビリ道場常田",
    "kana": "リハビリドウジョウトキダ",
    "address": "長野県上田市常田３－１５－７７",
    "lat": 36.3900655,
    "lng": 138.2659326,
    "tel": "0268-71-5508",
    "url": "http://hohoemikaigo.com/",
    "pref": "長野県",
    "city": "上田市",
    "category": "day_service",
    "serviceType": "通所介護",
    "capacity": 0,
    "openDays": [
      "平日",
      "土曜日",
      "祝日"
    ],
    "openDaysNote": "なし"
  },
  {
    "id": "2070300500",
    "name": "ローマンうえだデイサービスセンター",
    "kana": "ローマンウエダデイサービスセンター",
    "address": "長野県上田市殿城２５０－１",
    "lat": 36.4027841,
    "lng": 138.3006592,
    "tel": "0268-26-8872",
    "url": "http://roman-ueda.jp/",
    "pref": "長野県",
    "city": "上田市",
    "category": "day_service",
    "serviceType": "通所介護",
    "capacity": 0,
    "openDays": [
      "平日",
      "土曜日",
      "祝日"
    ],
    "openDaysNote": "第２日曜日は営業（希望者ある場合）"
  },
  {
    "id": "2072200229",
    "name": "丸子デイサービスセンター",
    "kana": "マルコデイサービスセンター",
    "address": "長野県上田市上丸子1600-1",
    "lat": 36.3239879,
    "lng": 138.2691934,
    "tel": "0268-42-6491",
    "url": "http://www.keiroen.or.jp/keiroen/html/shisetu/maruko-dayservice.htm",
    "pref": "長野県",
    "city": "上田市",
    "category": "day_service",
    "serviceType": "通所介護",
    "capacity": 40,
    "openDays": [
      "平日",
      "土曜日",
      "日曜日",
      "祝日"
    ],
    "openDaysNote": "ただし必要に応じて延長あり"
  },
  {
    "id": "2070301326",
    "name": "健康道場たんぽぽ",
    "kana": "ケンコウドウジョウタンポポ",
    "address": "長野県上田市五加920-5",
    "lat": 36.3683136522697,
    "lng": 138.20924790426,
    "tel": "0268-75-5518",
    "url": "http://www.dertraum-care.net/",
    "pref": "長野県",
    "city": "上田市",
    "category": "day_service",
    "serviceType": "通所介護",
    "capacity": 20,
    "openDays": [
      "平日",
      "土曜日",
      "祝日"
    ],
    "openDaysNote": ""
  },
  {
    "id": "2070300203",
    "name": "室賀デイサービスセンター",
    "kana": "ムロガデイサービスセンター",
    "address": "長野県上田市上室賀19番地",
    "lat": 36.4032725976924,
    "lng": 138.159207388886,
    "tel": "0268-31-0005",
    "url": "https:/shiinomikai.com/",
    "pref": "長野県",
    "city": "上田市",
    "category": "day_service",
    "serviceType": "通所介護",
    "capacity": 0,
    "openDays": [
      "平日",
      "土曜日",
      "祝日"
    ],
    "openDaysNote": "利用者の希望により、延長あり。（7:00～9：00、16：00～19：00）"
  },
  {
    "id": "2070302373",
    "name": "上田市塩田デイサービスセンター",
    "kana": "ウエシシオダデイサービスセンター",
    "address": "長野県上田市中野339-2",
    "lat": 36.3637541,
    "lng": 138.1964903,
    "tel": "0268-39-1090",
    "url": "",
    "pref": "長野県",
    "city": "上田市",
    "category": "day_service",
    "serviceType": "通所介護",
    "capacity": 0,
    "openDays": [
      "平日",
      "土曜日",
      "祝日"
    ],
    "openDaysNote": ""
  },
  {
    "id": "2070301094",
    "name": "上田市神川デイサービスセンター",
    "kana": "ウエダシカンガワデイサービスセンター",
    "address": "長野県上田市国分５３３－２０神川地区複合福祉センター 神川地区複合福祉センター",
    "lat": 36.3785336,
    "lng": 138.2776072,
    "tel": "0268-21-1155",
    "url": "http://www.ueda-shakyo.com/",
    "pref": "長野県",
    "city": "上田市",
    "category": "day_service",
    "serviceType": "通所介護",
    "capacity": 25,
    "openDays": [
      "平日",
      "土曜日",
      "祝日"
    ],
    "openDaysNote": "上田市内"
  },
  {
    "id": "2070301086",
    "name": "上田市中央デイサービスセンター",
    "kana": "ウエダシチュウオウデイサービスセンター",
    "address": "長野県上田市常磐城３－３－１８",
    "lat": 36.4025532,
    "lng": 138.2351618,
    "tel": "0268-22-4126",
    "url": "",
    "pref": "長野県",
    "city": "上田市",
    "category": "day_service",
    "serviceType": "通所介護",
    "capacity": 0,
    "openDays": [
      "平日",
      "土曜日",
      "祝日"
    ],
    "openDaysNote": "利用者の希望により時間延長の受入れもあり"
  },
  {
    "id": "2070300427",
    "name": "通所介護センターなごやか",
    "kana": "ツウショカイゴセンターナゴヤカ",
    "address": "長野県上田市別所温泉１８２８番地の２",
    "lat": 36.3529822,
    "lng": 138.158899,
    "tel": "0268-38-3624",
    "url": "http://care-net.biz/20/choujuen/",
    "pref": "長野県",
    "city": "上田市",
    "category": "day_service",
    "serviceType": "通所介護",
    "capacity": 30,
    "openDays": [
      "平日",
      "土曜日",
      "日曜日",
      "祝日"
    ],
    "openDaysNote": "なし"
  },
  {
    "id": "2070601006",
    "name": "デイサービスきたえるーむ諏訪",
    "kana": "デイサービスキタエルームスワ",
    "address": "長野県諏訪市大字四賀赤沼1982-2",
    "lat": 36.0162968,
    "lng": 138.1251614,
    "tel": "0266-78-8767",
    "url": "",
    "pref": "長野県",
    "city": "諏訪市",
    "category": "day_service",
    "serviceType": "通所介護",
    "capacity": 25,
    "openDays": [
      "平日",
      "土曜日"
    ],
    "openDaysNote": ""
  },
  {
    "id": "2070600867",
    "name": "デイサービスセンター　すばらしき仲間たち",
    "kana": "デイサービスセンター　スバラシキナカマタチ",
    "address": "長野県諏訪市湖南4894-1",
    "lat": 36.0060254877118,
    "lng": 138.099595366934,
    "tel": "0266-57-3108",
    "url": "https://www.seibonokai.com",
    "pref": "長野県",
    "city": "諏訪市",
    "category": "day_service",
    "serviceType": "通所介護",
    "capacity": 60,
    "openDays": [
      "平日",
      "土曜日",
      "祝日"
    ],
    "openDaysNote": "通常のサービス提供時間は上記の時間ですが、特段の理由がある場合は営業時間の前後2時間はご利用いただけます。（要相談）"
  },
  {
    "id": "2070600149",
    "name": "デイサービスセンター聖母憩の家",
    "kana": "デイサービスセンターセイボイコイノイエ",
    "address": "長野県諏訪市大和一丁目５番７号",
    "lat": 36.0600942,
    "lng": 138.1115812,
    "tel": "0266-52-1594",
    "url": "http://www.seibonokai.com/daisabis.html",
    "pref": "長野県",
    "city": "諏訪市",
    "category": "day_service",
    "serviceType": "通所介護",
    "capacity": 0,
    "openDays": [
      "平日",
      "土曜日",
      "祝日"
    ],
    "openDaysNote": "特になし"
  },
  {
    "id": "2070600057",
    "name": "デイサービスセンター湯の里",
    "kana": "デイサービスセンター湯ノ里",
    "address": "長野県諏訪市四賀2213-1",
    "lat": 36.0162616,
    "lng": 138.1268423,
    "tel": "0266-57-1800",
    "url": "http://suwacity-shakyo.com/yunosato.html",
    "pref": "長野県",
    "city": "諏訪市",
    "category": "day_service",
    "serviceType": "通所介護",
    "capacity": 45,
    "openDays": [
      "平日",
      "土曜日",
      "祝日"
    ],
    "openDaysNote": ""
  },
  {
    "id": "2070600909",
    "name": "デイサービス湖岸通り",
    "kana": "デイサービス　コガンドオリ",
    "address": "長野県諏訪市湖岸通り2-305-1",
    "lat": 36.0530397,
    "lng": 138.1140479,
    "tel": "0266-54-5100",
    "url": "",
    "pref": "長野県",
    "city": "諏訪市",
    "category": "day_service",
    "serviceType": "通所介護",
    "capacity": 0,
    "openDays": [
      "平日",
      "土曜日",
      "祝日"
    ],
    "openDaysNote": ""
  },
  {
    "id": "2070600198",
    "name": "諏訪市社会福祉協議会指定通所介護事業所諏訪市デイサービスセンター西山の里",
    "kana": "スワシシャカイフクシキョウギカイシテイツウショカイゴジギョウショスワシデイサービスセンターニシヤマノサト",
    "address": "長野県諏訪市湖南４０１６－１",
    "lat": 36.0101587,
    "lng": 138.1010786,
    "tel": "0266-56-1700",
    "url": "http://www.suwacity-shakyo.com/nishiyama.html",
    "pref": "長野県",
    "city": "諏訪市",
    "category": "day_service",
    "serviceType": "通所介護",
    "capacity": 0,
    "openDays": [
      "平日",
      "土曜日",
      "祝日"
    ],
    "openDaysNote": ""
  },
  {
    "id": "2070700196",
    "name": "グリーンデイサービスセンター",
    "kana": "グリーンデイサービスセンター",
    "address": "長野県須坂市大字仁礼７番地１０",
    "lat": 36.6137439,
    "lng": 138.3386647,
    "tel": "026-215-2662",
    "url": "http://www.greenarum.jp",
    "pref": "長野県",
    "city": "須坂市",
    "category": "day_service",
    "serviceType": "通所介護",
    "capacity": 0,
    "openDays": [
      "平日",
      "土曜日",
      "祝日"
    ],
    "openDaysNote": ""
  },
  {
    "id": "2070700709",
    "name": "コンパスウォーク信州須坂",
    "kana": "コンパスウォークシンシュウスザカ",
    "address": "長野県須坂市米持302-1",
    "lat": 36.6433749,
    "lng": 138.2895056,
    "tel": "026-285-0970",
    "url": "https://cwsuzaka.com/",
    "pref": "長野県",
    "city": "須坂市",
    "category": "day_service",
    "serviceType": "通所介護",
    "capacity": 0,
    "openDays": [
      "平日",
      "祝日"
    ],
    "openDaysNote": ""
  },
  {
    "id": "2070700170",
    "name": "株式会社ケアネットデイサービスセンター長野第一",
    "kana": "ケアネットデイサービスセンターナガノダイイチ",
    "address": "長野県須坂市大字小山字蒔田2518-1",
    "lat": 36.6563534620688,
    "lng": 138.288488715949,
    "tel": "026-251-2801",
    "url": "",
    "pref": "長野県",
    "city": "須坂市",
    "category": "day_service",
    "serviceType": "通所介護",
    "capacity": 0,
    "openDays": [
      "平日",
      "土曜日",
      "日曜日",
      "祝日"
    ],
    "openDaysNote": ""
  },
  {
    "id": "2070700055",
    "name": "高齢者総合福祉施設須坂やすらぎの園",
    "kana": "コウレイシャソウゴウフクシシセツスザカヤスラギノソノ",
    "address": "長野県須坂市大字日滝字寺窪2887-1",
    "lat": 36.6510973,
    "lng": 138.3071917,
    "tel": "026-246-4600",
    "url": "http://suzaka-yasuraginosono.com/index/",
    "pref": "長野県",
    "city": "須坂市",
    "category": "day_service",
    "serviceType": "通所介護",
    "capacity": 0,
    "openDays": [
      "平日",
      "土曜日",
      "祝日"
    ],
    "openDaysNote": ""
  },
  {
    "id": "2070700782",
    "name": "参加型デイサービス　ぽかぽか食堂",
    "kana": "サンカガタデイサービス　ポカポカショクドウ",
    "address": "長野県須坂市亀倉187-3",
    "lat": 36.6197499,
    "lng": 138.337465,
    "tel": "026-214-6313",
    "url": "https://one-life-ikiruba.co.jp/",
    "pref": "長野県",
    "city": "須坂市",
    "category": "day_service",
    "serviceType": "通所介護",
    "capacity": 23,
    "openDays": [
      "平日",
      "土曜日",
      "日曜日",
      "祝日"
    ],
    "openDaysNote": "３部制（改行）・１部　09：00～14：00（改行）・２部　14：00～19：00（改行）・３部　09：00～19：00（終了時刻17：00応相談、要介護者のみ）"
  },
  {
    "id": "2070700626",
    "name": "社会福祉法人ジェイエー長野会　デイサービスセンターがりゅうの里",
    "kana": "シャカイフクシホウジンジェイエーナガノカイ　デイサービスセンターガリュウノサト",
    "address": "長野県須坂市大字野辺560-1",
    "lat": 36.6383978288667,
    "lng": 138.309250826912,
    "tel": "026-242-7171",
    "url": "",
    "pref": "長野県",
    "city": "須坂市",
    "category": "day_service",
    "serviceType": "通所介護",
    "capacity": 5,
    "openDays": [
      "平日",
      "土曜日",
      "祝日"
    ],
    "openDaysNote": "※異常気象及び地震、感染症等の発生時、管理者が認めた場合は休業となります。"
  },
  {
    "id": "2070700139",
    "name": "須坂市社協デイサービスセンターすえひろ",
    "kana": "スザカシシャキョウデイサービスセンタースエヒロ",
    "address": "長野県須坂市大字須坂１２４３－１",
    "lat": 36.6568245,
    "lng": 138.3084194,
    "tel": "026-246-6191",
    "url": "http://www.suzaka-shakyo.jp",
    "pref": "長野県",
    "city": "須坂市",
    "category": "day_service",
    "serviceType": "通所介護",
    "capacity": 40,
    "openDays": [
      "平日",
      "土曜日",
      "日曜日",
      "祝日"
    ],
    "openDaysNote": "１２月３０日・１２月３１日は年末のため、時間短縮での営業　１４：００～送迎開始"
  },
  {
    "id": "2070700154",
    "name": "須坂市社協デイサービスセンターぬくもり園",
    "kana": "スザカシシャキョウデイサービスセンターヌクモリエン",
    "address": "長野県須坂市大字野辺１３４１－２",
    "lat": 36.635794,
    "lng": 138.3204763,
    "tel": "026-246-8462",
    "url": "http://www.suzaka-shakyo.jp",
    "pref": "長野県",
    "city": "須坂市",
    "category": "day_service",
    "serviceType": "通所介護",
    "capacity": 40,
    "openDays": [
      "平日",
      "土曜日",
      "日曜日",
      "祝日"
    ],
    "openDaysNote": "延長利用の場合は午前７時～午後７時"
  },
  {
    "id": "2072700434",
    "name": "生坂村社協デイサービスセンター",
    "kana": "イクサカムラシャキョウデイサービスセンター",
    "address": "長野県東筑摩郡生坂村６２７１－１",
    "lat": 36.4263988262811,
    "lng": 137.925555450819,
    "tel": "0263-69-3000",
    "url": "http://www.ikusaka-shakyo.or.jp/",
    "pref": "長野県",
    "city": "生坂村",
    "category": "day_service",
    "serviceType": "通所介護",
    "capacity": 0,
    "openDays": [
      "平日",
      "土曜日",
      "祝日"
    ],
    "openDaysNote": "ご家族の急病、急な外出など特別な事情がある場合ご相談に応じます。"
  },
  {
    "id": "2072200088",
    "name": "社会福祉法人大樹会ラポートあおき",
    "kana": "シャカイフクシホウジンダイジュカイラポートアオキ",
    "address": "長野県小県郡青木村大字田沢３４０２番地１",
    "lat": 36.3691903,
    "lng": 138.1211764,
    "tel": "0268-49-1111",
    "url": "https://www.daijukai.or.jp/",
    "pref": "長野県",
    "city": "青木村",
    "category": "day_service",
    "serviceType": "通所介護",
    "capacity": 35,
    "openDays": [
      "平日",
      "土曜日",
      "祝日"
    ],
    "openDaysNote": ""
  },
  {
    "id": "2071800722",
    "name": "サクラポート力石",
    "kana": "サクラポートチカライシ",
    "address": "長野県千曲市力石485-4",
    "lat": 36.4565116,
    "lng": 138.164769,
    "tel": "0268-82-5300",
    "url": "http://www.sakura-care.co.jp/",
    "pref": "長野県",
    "city": "千曲市",
    "category": "day_service",
    "serviceType": "通所介護",
    "capacity": 20,
    "openDays": [
      "平日",
      "土曜日",
      "祝日"
    ],
    "openDaysNote": "但し、上記営業時間外をご希望の方はご希望の方は要相談。"
  },
  {
    "id": "2071800995",
    "name": "ツクイ千曲",
    "kana": "ツクイチクマ",
    "address": "長野県千曲市鋳物師屋518-1",
    "lat": 36.520151,
    "lng": 138.1223215,
    "tel": "026-273-6010",
    "url": "https://www.tsukui.net/search/2672/detail.htm",
    "pref": "長野県",
    "city": "千曲市",
    "category": "day_service",
    "serviceType": "通所介護",
    "capacity": 0,
    "openDays": [
      "平日",
      "土曜日",
      "日曜日",
      "祝日"
    ],
    "openDaysNote": ""
  },
  {
    "id": "2071800862",
    "name": "デイサービスセンターながでんハートネット千曲",
    "kana": "デイサービスセンターナガデンハートネットチクマ",
    "address": "長野県千曲市大字杭瀬下3丁目144",
    "lat": 36.5318022,
    "lng": 138.1167942,
    "tel": "026-214-6821",
    "url": "https;//nagaden-wellness.co.jp",
    "pref": "長野県",
    "city": "千曲市",
    "category": "day_service",
    "serviceType": "通所介護",
    "capacity": null,
    "openDays": [
      "平日",
      "土曜日",
      "祝日"
    ],
    "openDaysNote": ""
  },
  {
    "id": "2071800672",
    "name": "デイサービスセンターリハビリ処屋代",
    "kana": "デイサービスセンターリハビリドコロヤシロ",
    "address": "長野県千曲市屋代1099-1",
    "lat": 36.5439744330226,
    "lng": 138.130377356128,
    "tel": "026-214-5200",
    "url": "https://www.rihadoko-yashiro.jp",
    "pref": "長野県",
    "city": "千曲市",
    "category": "day_service",
    "serviceType": "通所介護",
    "capacity": 0,
    "openDays": [
      "平日",
      "土曜日",
      "祝日"
    ],
    "openDaysNote": ""
  },
  {
    "id": "2071800789",
    "name": "デイサービスセンター上山田",
    "kana": "デイサービスセンターカミヤマダ",
    "address": "長野県千曲市上山田温泉４－１－１８",
    "lat": 36.4750400995635,
    "lng": 138.146587131877,
    "tel": "０２６－２１４－２０２３",
    "url": "http://naganojukoukai.com/pg264.html",
    "pref": "長野県",
    "city": "千曲市",
    "category": "day_service",
    "serviceType": "通所介護",
    "capacity": 50,
    "openDays": [
      "平日",
      "土曜日",
      "祝日"
    ],
    "openDaysNote": ""
  },
  {
    "id": "2071800565",
    "name": "ニチイケアセンター戸上",
    "kana": "ニチイケアセンタートガミ",
    "address": "長野県千曲市大字力石1-1",
    "lat": 36.4633496,
    "lng": 138.1594997,
    "tel": "0268-81-2033",
    "url": "http://www.nichiigakkan.co.jp/service/care/home/day.html",
    "pref": "長野県",
    "city": "千曲市",
    "category": "day_service",
    "serviceType": "通所介護",
    "capacity": 35,
    "openDays": [
      "平日",
      "土曜日",
      "祝日"
    ],
    "openDaysNote": "ただし、居宅サービス計画により、休業日であってもサービスの提供を行う場合がある。"
  },
  {
    "id": "2071600189",
    "name": "ニチイケアセンター聖",
    "kana": "ニチイケアセンターヒジリ",
    "address": "長野県千曲市八幡３５３８－１",
    "lat": 36.5146839,
    "lng": 138.100879,
    "tel": "026-261-3230",
    "url": "http://www.nichiigakkan.co.jp/service/care/home/day.html",
    "pref": "長野県",
    "city": "千曲市",
    "category": "day_service",
    "serviceType": "通所介護",
    "capacity": 40,
    "openDays": [
      "平日",
      "土曜日",
      "祝日"
    ],
    "openDaysNote": ""
  },
  {
    "id": "2071801043",
    "name": "フランセーズ悠こうしょくデイサービスセンター",
    "kana": "フランセーズユウコウショクデイサービスセンター",
    "address": "長野県千曲市大字粟佐1177",
    "lat": 36.5393386,
    "lng": 138.1193609,
    "tel": "026-273-3076",
    "url": "https://haku-yu.co.jp/",
    "pref": "長野県",
    "city": "千曲市",
    "category": "day_service",
    "serviceType": "通所介護",
    "capacity": null,
    "openDays": [
      "平日",
      "土曜日",
      "祝日"
    ],
    "openDaysNote": "年末12/31（改行）年始1/2・1/2（改行）上記３日間はお休み"
  },
  {
    "id": "2071801050",
    "name": "フランセーズ悠とぐらデイサービスセンター",
    "kana": "フランセーズユウトグラデイサービスセンター",
    "address": "長野県千曲市大字上徳間337-1",
    "lat": 36.4957582,
    "lng": 138.1441193,
    "tel": "026-276-0033",
    "url": "https://haku-yu.co.jp/",
    "pref": "長野県",
    "city": "千曲市",
    "category": "day_service",
    "serviceType": "通所介護",
    "capacity": 0,
    "openDays": [
      "平日",
      "土曜日",
      "祝日"
    ],
    "openDaysNote": ""
  },
  {
    "id": "2071800110",
    "name": "戸上デイサービスセンター",
    "kana": "トガミデイサービスセンター",
    "address": "長野県千曲市大字磯部１１１０番地１科野の宿　戸倉地域福祉センター 科野の宿　戸倉地域福祉センター",
    "lat": 36.4813669,
    "lng": 138.1495787,
    "tel": "026-275-3655",
    "url": "http://www.chikuma-shakyo.jp/",
    "pref": "長野県",
    "city": "千曲市",
    "category": "day_service",
    "serviceType": "通所介護",
    "capacity": 40,
    "openDays": [
      "平日",
      "土曜日",
      "祝日"
    ],
    "openDaysNote": ""
  },
  {
    "id": "2071800128",
    "name": "更埴デイサービスセンター",
    "kana": "コウショクデイサービスセンター",
    "address": "長野県千曲市杭瀬下870番地",
    "lat": 36.529197,
    "lng": 138.11715,
    "tel": "026-247-8595",
    "url": "http:/www.chikuma-shakyo.jp/",
    "pref": "長野県",
    "city": "千曲市",
    "category": "day_service",
    "serviceType": "通所介護",
    "capacity": null,
    "openDays": [
      "平日",
      "土曜日",
      "祝日"
    ],
    "openDaysNote": ""
  },
  {
    "id": "2071600064",
    "name": "森の里デイサービスセンター",
    "kana": "モリノサトデイサービスセンター",
    "address": "長野県千曲市森字青田1024番地3",
    "lat": 36.5269151810818,
    "lng": 138.148817036324,
    "tel": "026-272-7700",
    "url": "http://taishikai.or.jp/kaigo/sub04.html",
    "pref": "長野県",
    "city": "千曲市",
    "category": "day_service",
    "serviceType": "通所介護",
    "capacity": 45,
    "openDays": [
      "平日",
      "土曜日",
      "祝日"
    ],
    "openDaysNote": ""
  },
  {
    "id": "2071800599",
    "name": "千曲デイサービスセンター",
    "kana": "チクマデイサービスセンター",
    "address": "長野県千曲市桑原80",
    "lat": 36.5256572,
    "lng": 138.0862691,
    "tel": "026-214-8792",
    "url": "http://www.carehouse-sakudaira.com/",
    "pref": "長野県",
    "city": "千曲市",
    "category": "day_service",
    "serviceType": "通所介護",
    "capacity": 25,
    "openDays": [
      "平日",
      "土曜日",
      "祝日"
    ],
    "openDaysNote": "営業時間は８：３０～１７：３０（改行）サービス提供時間は９：００～１６：３０までの間で対応いたします。ご家族による送迎でご利用の場合等。ご相談ください。"
  },
  {
    "id": "2071800557",
    "name": "悠悠いきいき倶楽部千曲",
    "kana": "ユウユウイキイキクラブチクマ",
    "address": "長野県千曲市稲荷山2227-1",
    "lat": 36.5387398,
    "lng": 138.1025982,
    "tel": "026-214-1230",
    "url": "www.francebed.co.jp/medical/service/yuuyuu/",
    "pref": "長野県",
    "city": "千曲市",
    "category": "day_service",
    "serviceType": "通所介護",
    "capacity": 15,
    "openDays": [
      "平日"
    ],
    "openDaysNote": ""
  },
  {
    "id": "2072000124",
    "name": "川上村デイサービスセンター",
    "kana": "カワカミムラデイサービスセンター",
    "address": "長野県南佐久郡川上村大字原３１２番地",
    "lat": 35.9685684,
    "lng": 138.5477548,
    "tel": "0267-97-3056",
    "url": "",
    "pref": "長野県",
    "city": "川上村",
    "category": "day_service",
    "serviceType": "通所介護",
    "capacity": 0,
    "openDays": [
      "平日",
      "土曜日",
      "祝日"
    ],
    "openDaysNote": ""
  },
  {
    "id": "2072600691",
    "name": "サンシャインあてら",
    "kana": "サンシャインアテラ",
    "address": "長野県木曽郡大桑村野尻931-1",
    "lat": 35.6630152,
    "lng": 137.6216791,
    "tel": "0264-55-1105",
    "url": "http://www.sunshinelife.co.jp",
    "pref": "長野県",
    "city": "大桑村",
    "category": "day_service",
    "serviceType": "通所介護",
    "capacity": 0,
    "openDays": [
      "平日",
      "土曜日",
      "日曜日",
      "祝日"
    ],
    "openDaysNote": ""
  },
  {
    "id": "2072600279",
    "name": "大桑村デイサービスセンター",
    "kana": "オオクワムラデイサービスセンター",
    "address": "長野県木曽郡大桑村大字殿981番地1",
    "lat": 35.7010256,
    "lng": 137.6940332,
    "tel": "0264-55-2700",
    "url": "http://www.ookuwa.jp/",
    "pref": "長野県",
    "city": "大桑村",
    "category": "day_service",
    "serviceType": "通所介護",
    "capacity": 0,
    "openDays": [
      "平日",
      "土曜日",
      "祝日"
    ],
    "openDaysNote": "なし"
  },
  {
    "id": "2072500503",
    "name": "大鹿村デイサービスセンター",
    "kana": "オオシカムラディサービスセンター",
    "address": "長野県下伊那郡大鹿村大河原４７６－８",
    "lat": 35.558345,
    "lng": 138.039231,
    "tel": "0265-39-2115",
    "url": "",
    "pref": "長野県",
    "city": "大鹿村",
    "category": "day_service",
    "serviceType": "通所介護",
    "capacity": 0,
    "openDays": [
      "平日",
      "祝日"
    ],
    "openDaysNote": "祭日は営業"
  },
  {
    "id": "2071200436",
    "name": "アムール大町デイサービスセンター",
    "kana": "アムールオオマチデイサービスセンター",
    "address": "長野県大町市大町4603-1",
    "lat": 36.5029569,
    "lng": 137.8604962,
    "tel": "0261-85-0071",
    "url": "http://www.hi-danke.com/omachi/ds.html",
    "pref": "長野県",
    "city": "大町市",
    "category": "day_service",
    "serviceType": "通所介護",
    "capacity": 0,
    "openDays": [
      "平日",
      "土曜日",
      "祝日"
    ],
    "openDaysNote": ""
  },
  {
    "id": "2071200055",
    "name": "カトレヤデイサービスセンター",
    "kana": "カトレヤデイサービスセンター",
    "address": "長野県市平1955番地971",
    "lat": 36.5206969,
    "lng": 137.8039201,
    "tel": "0261-23-7012",
    "url": "http://www.syuukoukai.jp",
    "pref": "長野県",
    "city": "大町市",
    "category": "day_service",
    "serviceType": "通所介護",
    "capacity": 0,
    "openDays": [
      "平日",
      "土曜日",
      "日曜日",
      "祝日"
    ],
    "openDaysNote": ""
  },
  {
    "id": "2071200568",
    "name": "デイサービスセンターすまいる",
    "kana": "デイサービスセンタースマイル",
    "address": "長野県大町市大町4188番地20",
    "lat": 36.5029458,
    "lng": 137.8605018,
    "tel": "0261-22-0200",
    "url": "http://smilenagano.com/",
    "pref": "長野県",
    "city": "大町市",
    "category": "day_service",
    "serviceType": "通所介護",
    "capacity": 0,
    "openDays": [
      "平日",
      "土曜日",
      "祝日"
    ],
    "openDaysNote": ""
  },
  {
    "id": "2071200170",
    "name": "デイサービスセンター銀松苑　壱番館",
    "kana": "デイサービスセンターギンショウエン　イチバンカン",
    "address": "長野県大町市常盤6850-24",
    "lat": 36.476624,
    "lng": 137.8574055,
    "tel": "0261-26-3388",
    "url": "",
    "pref": "長野県",
    "city": "大町市",
    "category": "day_service",
    "serviceType": "通所介護",
    "capacity": 0,
    "openDays": [
      "平日",
      "土曜日",
      "祝日"
    ],
    "openDaysNote": ""
  },
  {
    "id": "2071200402",
    "name": "デイサービスセンター銀松苑弐番館",
    "kana": "デイサービスセンターギンショウエンニバンカン",
    "address": "長野県大町市常盤6850-24",
    "lat": 36.476624,
    "lng": 137.8574055,
    "tel": "0261-26-3366",
    "url": "",
    "pref": "長野県",
    "city": "大町市",
    "category": "day_service",
    "serviceType": "通所介護",
    "capacity": 25,
    "openDays": [
      "平日",
      "土曜日",
      "祝日"
    ],
    "openDaysNote": ""
  },
  {
    "id": "2071200196",
    "name": "ほっとハウスかたつむりの家",
    "kana": "ホットハウスカタツムリノイエ",
    "address": "長野県大町市大町２７９１番地１",
    "lat": 36.501296,
    "lng": 137.8650654,
    "tel": "0261-26-3411",
    "url": "http://www.kita-alps.org",
    "pref": "長野県",
    "city": "大町市",
    "category": "day_service",
    "serviceType": "通所介護",
    "capacity": 0,
    "openDays": [
      "平日",
      "土曜日",
      "祝日"
    ],
    "openDaysNote": ""
  },
  {
    "id": "2071200386",
    "name": "ほっとハウスときわの家",
    "kana": "ホットハウストキワノイエ",
    "address": "長野県大町市常盤2364番地５",
    "lat": 36.4429704,
    "lng": 137.8532143,
    "tel": "0261-22-8119",
    "url": "http://www.kita-alps.org",
    "pref": "長野県",
    "city": "大町市",
    "category": "day_service",
    "serviceType": "通所介護",
    "capacity": 0,
    "openDays": [
      "平日",
      "土曜日",
      "祝日"
    ],
    "openDaysNote": ""
  },
  {
    "id": "2071200535",
    "name": "まい・はーとデイサービスセンター",
    "kana": "マイ・ハートデイサービスセンター",
    "address": "長野県大町市常盤３４８６－５６",
    "lat": 36.4776207,
    "lng": 137.8428842,
    "tel": "０２６１－２３－５５７１",
    "url": "",
    "pref": "長野県",
    "city": "大町市",
    "category": "day_service",
    "serviceType": "通所介護",
    "capacity": null,
    "openDays": [
      "平日",
      "土曜日",
      "日曜日",
      "祝日"
    ],
    "openDaysNote": ""
  },
  {
    "id": "2071200188",
    "name": "大町市デイサービスセンターこすもす",
    "kana": "オオマチシデイサービスセンターコスモス",
    "address": "長野県大町市大町１１２９大町市総合福祉センター　内 大町市総合福祉センター　内",
    "lat": 36.5060342,
    "lng": 137.8618239,
    "tel": "0261-22-1485",
    "url": "http://www.omachishakyo.org",
    "pref": "長野県",
    "city": "大町市",
    "category": "day_service",
    "serviceType": "通所介護",
    "capacity": 0,
    "openDays": [
      "平日",
      "土曜日",
      "祝日"
    ],
    "openDaysNote": ""
  },
  {
    "id": "2072900216",
    "name": "大町市デイサービスセンターみあさ",
    "kana": "オオマチシデイサービスセンターミアサ",
    "address": "長野県大町市美麻１１８１０番地イ号",
    "lat": 36.5823098152723,
    "lng": 137.889362237959,
    "tel": "0261-29-1080",
    "url": "http://www.omachishakyo.org/kaigo/daycenter/15-dsmiasa.html",
    "pref": "長野県",
    "city": "大町市",
    "category": "day_service",
    "serviceType": "通所介護",
    "capacity": 25,
    "openDays": [
      "平日",
      "祝日"
    ],
    "openDaysNote": "なし"
  },
  {
    "id": "2072400555",
    "name": "デイサービスセンターグレイスフル辰野",
    "kana": "デイサービスセンターグレイスフルタツノ",
    "address": "長野県上伊那郡辰野町宮所８０７",
    "lat": 35.9876816284805,
    "lng": 137.979727835054,
    "tel": "0266-41-5651",
    "url": "http://www.sun-vision.or.jp",
    "pref": "長野県",
    "city": "辰野町",
    "category": "day_service",
    "serviceType": "通所介護",
    "capacity": 40,
    "openDays": [
      "平日",
      "土曜日",
      "日曜日",
      "祝日"
    ],
    "openDaysNote": "ただし事業所が指定する日を休日とする場合があります。"
  },
  {
    "id": "2072900273",
    "name": "いけだデイサービスセンター高姫",
    "kana": "イケダデイサービスセンタータカヒメ",
    "address": "長野県北安曇郡池田町大字池田２００５番地１池田町総合福祉センターやすらぎの郷 池田町総合福祉センターやすらぎの郷",
    "lat": 36.4227682,
    "lng": 137.8792044,
    "tel": "0261-61-5200",
    "url": "http://www.ikedashakyo.or.jp",
    "pref": "長野県",
    "city": "池田町",
    "category": "day_service",
    "serviceType": "通所介護",
    "capacity": null,
    "openDays": [
      "平日",
      "土曜日",
      "日曜日",
      "祝日"
    ],
    "openDaysNote": ""
  },
  {
    "id": "2072900737",
    "name": "デイサービスセンター　花しょうぶ",
    "kana": "デイサービスセンター　ハナショウブ",
    "address": "長野県北安曇郡池田町大字会染1498‐1",
    "lat": 36.4175416,
    "lng": 137.8944977,
    "tel": "0261‐61‐1820",
    "url": "http://koushu-nagano.jp",
    "pref": "長野県",
    "city": "池田町",
    "category": "day_service",
    "serviceType": "通所介護",
    "capacity": 0,
    "openDays": [
      "平日",
      "土曜日",
      "祝日"
    ],
    "openDaysNote": ""
  },
  {
    "id": "2072900307",
    "name": "ニチイケアセンターあづみ野",
    "kana": "ニチイケアセンターアヅミノ",
    "address": "長野県北安曇郡池田町大字会染12107-2",
    "lat": 36.3767357,
    "lng": 137.8791186,
    "tel": "0261-61-1781",
    "url": "",
    "pref": "長野県",
    "city": "池田町",
    "category": "day_service",
    "serviceType": "通所介護",
    "capacity": 37,
    "openDays": [
      "平日",
      "土曜日",
      "日曜日",
      "祝日"
    ],
    "openDaysNote": ""
  },
  {
    "id": "2072700475",
    "name": "デイサービスあずまや",
    "kana": "デイサービスアズマヤ",
    "address": "長野県東筑摩郡筑北村坂北２１９４番地１",
    "lat": 36.4260666,
    "lng": 138.015726,
    "tel": "0263-66-4377",
    "url": "http://chikuhoku-shakyo.or.jp",
    "pref": "長野県",
    "city": "筑北村",
    "category": "day_service",
    "serviceType": "通所介護",
    "capacity": 0,
    "openDays": [
      "平日",
      "土曜日",
      "日曜日",
      "祝日"
    ],
    "openDaysNote": ""
  },
  {
    "id": "2072700343",
    "name": "デイサービスほかほか",
    "kana": "デイサービスホカホカ",
    "address": "長野県東筑摩郡筑北村西条３５０７番地きささげ荘 きささげ荘",
    "lat": 36.4120072,
    "lng": 138.0091245,
    "tel": "0263-66-2506",
    "url": "http://chikuhoku-shakyo.or.jp/",
    "pref": "長野県",
    "city": "筑北村",
    "category": "day_service",
    "serviceType": "通所介護",
    "capacity": 0,
    "openDays": [
      "平日",
      "土曜日",
      "祝日"
    ],
    "openDaysNote": "時間延長を希望される場合に関しては、応相談によります。"
  },
  {
    "id": "2072400332",
    "name": "高齢者デイサービスセンターいわゆり荘",
    "kana": "コウレイシャデイサービスセンターイワユリソウ",
    "address": "長野県上伊那郡中川村大草4038-1",
    "lat": 35.6342784,
    "lng": 137.9449107,
    "tel": "0265-88-3552",
    "url": "http://www.nakagawas.jp",
    "pref": "長野県",
    "city": "中川村",
    "category": "day_service",
    "serviceType": "通所介護",
    "capacity": 40,
    "openDays": [
      "平日",
      "土曜日",
      "日曜日",
      "祝日"
    ],
    "openDaysNote": "時間外サービスあり（利用時間延長サービス）　※要相談、実費"
  },
  {
    "id": "2071100784",
    "name": "あんげんじ敬老園デイサービスセンター",
    "kana": "アンゲンジケイロウエンデイサービスセンター",
    "address": "長野県中野市大字安源寺665-3",
    "lat": 36.7409915,
    "lng": 138.3326,
    "tel": "0269-23-1177",
    "url": "e-mail:angenzi@keiroen.or.jp",
    "pref": "長野県",
    "city": "中野市",
    "category": "day_service",
    "serviceType": "通所介護",
    "capacity": 0,
    "openDays": [
      "平日",
      "土曜日",
      "日曜日",
      "祝日"
    ],
    "openDaysNote": "日曜日休日あり"
  },
  {
    "id": "2071100644",
    "name": "こうしゃ敬老園デイサービスセンター",
    "kana": "コウシャケイロウエンデイサービスセンター",
    "address": "長野県中野市大字竹原字中島１１３５－１こうしゃ敬老園デイサービスセンター こうしゃ敬老園デイサービスセンター",
    "lat": 36.7593744256013,
    "lng": 138.390392987988,
    "tel": "０２６９－２４－５０４８",
    "url": "ｋｏｓｙａ＠ｋｅｉｒｏｅｎ．ｏｒ．ｊｐ",
    "pref": "長野県",
    "city": "中野市",
    "category": "day_service",
    "serviceType": "通所介護",
    "capacity": 45,
    "openDays": [
      "平日",
      "土曜日",
      "日曜日",
      "祝日"
    ],
    "openDaysNote": "３６５日営業"
  },
  {
    "id": "2071100479",
    "name": "ツクイ中野新井",
    "kana": "ツクイナカノアライ",
    "address": "長野県中野市新井427-2",
    "lat": 36.7568535,
    "lng": 138.3674587,
    "tel": "0269-24-0350",
    "url": "http://www.tsukui.net/search/detail.php?officeid=487",
    "pref": "長野県",
    "city": "中野市",
    "category": "day_service",
    "serviceType": "通所介護",
    "capacity": 0,
    "openDays": [
      "平日",
      "土曜日",
      "日曜日",
      "祝日"
    ],
    "openDaysNote": ""
  },
  {
    "id": "2071100883",
    "name": "デイサービスあぐり",
    "kana": "デイサービスアグリ",
    "address": "長野県中野市中央1-11-3",
    "lat": 36.7465875434509,
    "lng": 138.368103911639,
    "tel": "0269-38-6231",
    "url": "https://www.aguri-care.com/",
    "pref": "長野県",
    "city": "中野市",
    "category": "day_service",
    "serviceType": "通所介護",
    "capacity": 0,
    "openDays": [
      "平日",
      "土曜日",
      "祝日"
    ],
    "openDaysNote": ""
  },
  {
    "id": "2071100354",
    "name": "デイサービスセンターながでんハートネット中野",
    "kana": "デイサービスセンターナガデンハートネットナカノ",
    "address": "長野県中野市西１丁目６－２",
    "lat": 36.7455851,
    "lng": 138.3645063,
    "tel": "0269-26-5858",
    "url": "http;//nagaden-wellness.co.jp",
    "pref": "長野県",
    "city": "中野市",
    "category": "day_service",
    "serviceType": "通所介護",
    "capacity": 0,
    "openDays": [
      "平日",
      "土曜日",
      "日曜日",
      "祝日"
    ],
    "openDaysNote": ""
  },
  {
    "id": "2071100610",
    "name": "デイサービスセンターながでんハートネット中野江部",
    "kana": "デイサービスセンターナガデンハートネットナカノエベ",
    "address": "長野県中野市大字江部450-1",
    "lat": 36.7280891,
    "lng": 138.3392815,
    "tel": "0269-38-0345",
    "url": "https;//nagaden-wellness.co.jp",
    "pref": "長野県",
    "city": "中野市",
    "category": "day_service",
    "serviceType": "通所介護",
    "capacity": 0,
    "openDays": [
      "平日",
      "土曜日",
      "日曜日",
      "祝日"
    ],
    "openDaysNote": ""
  },
  {
    "id": "2071100461",
    "name": "デイサービスセンターながでんハートネット中野別館",
    "kana": "デイサービスセンターナガデンハートネットナカノベッカン",
    "address": "長野県中野市西１丁目６－１",
    "lat": 36.7452935,
    "lng": 138.3648118,
    "tel": "0269-38-0081",
    "url": "nagaden-wellness.co.jp",
    "pref": "長野県",
    "city": "中野市",
    "category": "day_service",
    "serviceType": "通所介護",
    "capacity": 0,
    "openDays": [
      "平日",
      "土曜日",
      "祝日"
    ],
    "openDaysNote": ""
  },
  {
    "id": "2071100768",
    "name": "デイサービスセンター湯処ながみね",
    "kana": "デイサービスセンターユドコロナガミネ",
    "address": "長野県中野市大字田麦341-3",
    "lat": 36.7722072,
    "lng": 138.3483244,
    "tel": "0269-38-1022",
    "url": "http://hp.kaipoke.biz/tb9/",
    "pref": "長野県",
    "city": "中野市",
    "category": "day_service",
    "serviceType": "通所介護",
    "capacity": 0,
    "openDays": [
      "平日",
      "土曜日",
      "祝日"
    ],
    "openDaysNote": ""
  },
  {
    "id": "2071100867",
    "name": "デイサービスセンター遊湯",
    "kana": "デイサービスセンターユウユ",
    "address": "長野県中野市大字新野字溜池下803－3",
    "lat": 36.7237826,
    "lng": 138.3701304,
    "tel": "0269ー24－6021",
    "url": "http://www.nagano-kouseiren.jp/",
    "pref": "長野県",
    "city": "中野市",
    "category": "day_service",
    "serviceType": "通所介護",
    "capacity": null,
    "openDays": [
      "平日",
      "土曜日",
      "祝日"
    ],
    "openDaysNote": ""
  },
  {
    "id": "2071100586",
    "name": "ニチイケアセンター中野若宮",
    "kana": "ニチイケアセンターナカノワカミヤ",
    "address": "長野県中野市大字新井356番地5",
    "lat": 36.7611892,
    "lng": 138.3666865,
    "tel": "0269-24-7077",
    "url": "http://www.nichiigakkan.co.jp/service/care/home/day.html",
    "pref": "長野県",
    "city": "中野市",
    "category": "day_service",
    "serviceType": "通所介護",
    "capacity": 0,
    "openDays": [
      "平日",
      "土曜日",
      "祝日"
    ],
    "openDaysNote": ""
  },
  {
    "id": "2071100560",
    "name": "運動型半日デイサービスセンターながでんハートネットアクア中野",
    "kana": "ウンドウガタハンニチデイサービスセンターナガデンハートネットアクアナカノ",
    "address": "長野県中野市西１丁目６－２",
    "lat": 36.7455851,
    "lng": 138.3645063,
    "tel": "0269-38-0102",
    "url": "HTTP;//nagaden-wellness.co.jp",
    "pref": "長野県",
    "city": "中野市",
    "category": "day_service",
    "serviceType": "通所介護",
    "capacity": null,
    "openDays": [
      "平日",
      "土曜日",
      "祝日"
    ],
    "openDaysNote": ""
  },
  {
    "id": "2073500080",
    "name": "中野市デイサービスセンターさくら",
    "kana": "ナカノシデイサービスセンターサクラ",
    "address": "長野県中野市大字豊津３０７６番地",
    "lat": 36.7765171,
    "lng": 138.3293539,
    "tel": "0269-38-3866",
    "url": "hhtp://www.nkn.janis.or.jp/~n.ikiiki/",
    "pref": "長野県",
    "city": "中野市",
    "category": "day_service",
    "serviceType": "通所介護",
    "capacity": 0,
    "openDays": [
      "平日",
      "土曜日",
      "日曜日",
      "祝日"
    ],
    "openDaysNote": "臨時休館あり"
  },
  {
    "id": "2072700368",
    "name": "デイサービスセンターかたくりの里",
    "kana": "デイサービスセンターカタクリノサト",
    "address": "長野県東筑摩郡朝日村大字古見７７３番地",
    "lat": 36.125172,
    "lng": 137.859864,
    "tel": "0263-99-2340",
    "url": "https://www.asahimura.syakyojp",
    "pref": "長野県",
    "city": "朝日村",
    "category": "day_service",
    "serviceType": "通所介護",
    "capacity": 0,
    "openDays": [
      "平日",
      "土曜日",
      "祝日"
    ],
    "openDaysNote": "但し　12月29日または12月30日または１月3日は特別営業日とする場合もある。"
  },
  {
    "id": "2072700954",
    "name": "ゆめの里朝日宅老所",
    "kana": "ユメノサトアサヒタクロウジョ",
    "address": "長野県東筑摩郡朝日村大字古見２４２２番３",
    "lat": 36.143748,
    "lng": 137.8803314,
    "tel": "０２６３－９９－５０６９",
    "url": "https://www.yumenosato.info",
    "pref": "長野県",
    "city": "朝日村",
    "category": "day_service",
    "serviceType": "通所介護",
    "capacity": 0,
    "openDays": [
      "平日",
      "土曜日",
      "祝日"
    ],
    "openDaysNote": ""
  },
  {
    "id": "2070107236",
    "name": "smileセンターフランセーズ悠よしだ",
    "kana": "スマイルセンターフランセーズユウヨシダ",
    "address": "長野県長野市吉田4丁目19-3",
    "lat": 36.6677556,
    "lng": 138.231081,
    "tel": "026-258-7056",
    "url": "http://www.hakuyukai.com",
    "pref": "長野県",
    "city": "長野市",
    "category": "day_service",
    "serviceType": "通所介護",
    "capacity": null,
    "openDays": [
      "平日",
      "土曜日",
      "祝日"
    ],
    "openDaysNote": ""
  },
  {
    "id": "2070105362",
    "name": "アイム高田デイサービスセンター",
    "kana": "アイムタカダデイサービスセンター",
    "address": "長野県長野市高田１０７８番地１",
    "lat": 36.6412236,
    "lng": 138.2062167,
    "tel": "026-268-0320",
    "url": "htpp://www.aim-nagano.com",
    "pref": "長野県",
    "city": "長野市",
    "category": "day_service",
    "serviceType": "通所介護",
    "capacity": 0,
    "openDays": [
      "平日",
      "土曜日",
      "祝日"
    ],
    "openDaysNote": "１２／３０　～　１／３　年末年始休業"
  },
  {
    "id": "2070102070",
    "name": "あっぷるけあ",
    "kana": "アップルケア",
    "address": "長野県長野市松代町西寺尾字上高相1047-1",
    "lat": 36.5760193,
    "lng": 138.1959307,
    "tel": "026-278-3690",
    "url": "http://apple-care.jp/minaminagano/contents/dayservice/",
    "pref": "長野県",
    "city": "長野市",
    "category": "day_service",
    "serviceType": "通所介護",
    "capacity": 0,
    "openDays": [
      "平日",
      "土曜日",
      "祝日"
    ],
    "openDaysNote": ""
  },
  {
    "id": "2070105222",
    "name": "あっぷるけあ　みなみながの",
    "kana": "アップルケア　ミナミナガノ",
    "address": "長野県長野市篠ノ井東福寺字上庭1405-1",
    "lat": 36.5831399155691,
    "lng": 138.178791715483,
    "tel": "026-214-6622",
    "url": "http://apple-care.jp/matsushiro/contents/dayservice/index.html",
    "pref": "長野県",
    "city": "長野市",
    "category": "day_service",
    "serviceType": "通所介護",
    "capacity": 0,
    "openDays": [
      "平日",
      "土曜日",
      "祝日"
    ],
    "openDaysNote": "年末年始12月30日から1月3日まで休業"
  },
  {
    "id": "2070105206",
    "name": "アムール芹田　デイサービスセンター",
    "kana": "アムールセリタ",
    "address": "長野市大字栗田82番地1",
    "lat": 36.6347710733951,
    "lng": 138.198367158861,
    "tel": "026-217-8030",
    "url": "http://hi-danke.com/",
    "pref": "長野県",
    "city": "長野市",
    "category": "day_service",
    "serviceType": "通所介護",
    "capacity": 10,
    "openDays": [
      "平日",
      "土曜日",
      "祝日"
    ],
    "openDaysNote": "日曜、祝日も営業しております。"
  },
  {
    "id": "2070104829",
    "name": "アムール七瀬デイサービスセンター",
    "kana": "アムールナナセデイサービスセンター",
    "address": "長野県長野市大字鶴賀34-1",
    "lat": 36.6450813547972,
    "lng": 138.201469459525,
    "tel": "026-217-5128",
    "url": "http://www.hi-danke.com/",
    "pref": "長野県",
    "city": "長野市",
    "category": "day_service",
    "serviceType": "通所介護",
    "capacity": 0,
    "openDays": [
      "平日",
      "土曜日",
      "祝日"
    ],
    "openDaysNote": ""
  },
  {
    "id": "2070103326",
    "name": "アムール尾張部デイサービスセンター",
    "kana": "アムールオワリベデイサービスセンター",
    "address": "長野県長野市北尾張部７０７－３",
    "lat": 36.6538475,
    "lng": 138.2341967,
    "tel": "026-219-5157",
    "url": "http://www.hi-danke.com/",
    "pref": "長野県",
    "city": "長野市",
    "category": "day_service",
    "serviceType": "通所介護",
    "capacity": 0,
    "openDays": [
      "平日",
      "土曜日",
      "祝日"
    ],
    "openDaysNote": ""
  },
  {
    "id": "2070102138",
    "name": "アムール縣デイサービスセンター",
    "kana": "アムールアガタデイサービスセンター",
    "address": "長野県長野市大字南長野字幅下６３９番地１",
    "lat": 36.6513431,
    "lng": 138.1808501,
    "tel": "026-231-5575",
    "url": "http://www.hi-danke.com",
    "pref": "長野県",
    "city": "長野市",
    "category": "day_service",
    "serviceType": "通所介護",
    "capacity": 0,
    "openDays": [
      "平日",
      "土曜日",
      "祝日"
    ],
    "openDaysNote": "特になし"
  },
  {
    "id": "2070104910",
    "name": "ウエルフェアコスモスあもりデイサービスセンター",
    "kana": "ウエルフェアコスモスアモリデイサービスセンター",
    "address": "長野県長野市差出南三丁目７番１号",
    "lat": 36.6280107745787,
    "lng": 138.17722387791,
    "tel": "026-228-1500",
    "url": "http://cosmosnet.or.jp/index.php",
    "pref": "長野県",
    "city": "長野市",
    "category": "day_service",
    "serviceType": "通所介護",
    "capacity": 30,
    "openDays": [
      "平日",
      "土曜日",
      "祝日"
    ],
    "openDaysNote": ""
  },
  {
    "id": "2070100280",
    "name": "グリーンヒル",
    "kana": "グリーンヒル",
    "address": "長野県長野市篠ノ井布施五明１９７３番地",
    "lat": 36.574075,
    "lng": 138.1170013,
    "tel": "026-293-6033",
    "url": "",
    "pref": "長野県",
    "city": "長野市",
    "category": "day_service",
    "serviceType": "通所介護",
    "capacity": null,
    "openDays": [
      "平日",
      "土曜日",
      "日曜日",
      "祝日"
    ],
    "openDaysNote": ""
  },
  {
    "id": "2070100595",
    "name": "こうほくデイサービスセンター",
    "kana": "コウホクデイサービスセンター",
    "address": "長野県長野市稲里町下氷鉋６８２",
    "lat": 36.6076708,
    "lng": 138.1757987,
    "tel": "026-286-5800",
    "url": "http://www.asahi-kouhoku.com/",
    "pref": "長野県",
    "city": "長野市",
    "category": "day_service",
    "serviceType": "通所介護",
    "capacity": 30,
    "openDays": [
      "平日",
      "土曜日",
      "祝日"
    ],
    "openDaysNote": ""
  },
  {
    "id": "2070106873",
    "name": "コープながの福祉センターこーぷの家まゆみだ",
    "kana": "コープナガノフクシセンターコープノイエマユミダ",
    "address": "長野県長野市檀田２－６－２２",
    "lat": 36.6787678,
    "lng": 138.2086135,
    "tel": "026-217-9082",
    "url": "",
    "pref": "長野県",
    "city": "長野市",
    "category": "day_service",
    "serviceType": "通所介護",
    "capacity": 0,
    "openDays": [
      "平日",
      "祝日"
    ],
    "openDaysNote": ""
  },
  {
    "id": "2070104886",
    "name": "コスモスさいなみデイサービスセンター",
    "kana": "コスモスサイナミデイサービスセンター",
    "address": "長野県長野市小島田町449番地",
    "lat": 36.5954212826647,
    "lng": 138.180721741664,
    "tel": "026-283-2021",
    "url": "http://www.cosmosnet.or.jp/file/ro_sainamo_top.html",
    "pref": "長野県",
    "city": "長野市",
    "category": "day_service",
    "serviceType": "通所介護",
    "capacity": 0,
    "openDays": [
      "平日",
      "土曜日",
      "祝日"
    ],
    "openDaysNote": ""
  },
  {
    "id": "2070106725",
    "name": "コスモスプラネットあもりデイサービスセンター",
    "kana": "コスモスプラネットアモリデイサービスセンター",
    "address": "長野県長野市宮沖3497-3",
    "lat": 36.6281873,
    "lng": 138.1588162,
    "tel": "026-262-1137",
    "url": "http://cosmosnet.or.jp/",
    "pref": "長野県",
    "city": "長野市",
    "category": "day_service",
    "serviceType": "通所介護",
    "capacity": 25,
    "openDays": [
      "平日",
      "土曜日",
      "祝日"
    ],
    "openDaysNote": ""
  },
  {
    "id": "2070107152",
    "name": "コスモスプラネット稲里デイサービスセンター",
    "kana": "コスモスプラネットイナサトデイサービスセンター",
    "address": "長野県長野市稲里町中央1丁目15‐1",
    "lat": 36.6056613,
    "lng": 138.1719655,
    "tel": "026－214－3010",
    "url": "http://cosmosnet.or.jp/index.php",
    "pref": "長野県",
    "city": "長野市",
    "category": "day_service",
    "serviceType": "通所介護",
    "capacity": 0,
    "openDays": [
      "平日",
      "祝日"
    ],
    "openDaysNote": "事業所の都合により休日を設ける場合は予め通知いたします。"
  },
  {
    "id": "2070107442",
    "name": "コスモスプラネット篠ノ井デイサービスセンター",
    "kana": "コスモスプラネットシノノイデイサービスセンター",
    "address": "長野県長野市篠ノ井会614-1",
    "lat": 36.5703343,
    "lng": 138.1508634,
    "tel": "026-214-3163",
    "url": "http://cosmosnet.or.jp/index.php",
    "pref": "長野県",
    "city": "長野市",
    "category": "day_service",
    "serviceType": "通所介護",
    "capacity": 0,
    "openDays": [
      "平日",
      "土曜日",
      "祝日"
    ],
    "openDaysNote": ""
  },
  {
    "id": "2070107814",
    "name": "コスモスポールスター青木島デイサービスセンター",
    "kana": "コスモスポールスターアオキジマデイサービスセンター",
    "address": "長野県長野市青木島3丁目3-13サービス付き高齢者向け住宅コスモスポールスター青木島 サービス付き高齢者向け住宅コスモスポールスター青木島",
    "lat": 36.6165224,
    "lng": 138.179371,
    "tel": "026-214-9896",
    "url": "",
    "pref": "長野県",
    "city": "長野市",
    "category": "day_service",
    "serviceType": "通所介護",
    "capacity": null,
    "openDays": [
      "平日",
      "土曜日",
      "日曜日",
      "祝日"
    ],
    "openDaysNote": "12/311/11/2年末年始休み"
  },
  {
    "id": "2070107699",
    "name": "コスモスポールスター川中島デイサービスセンター",
    "kana": "コスモスポールスターカワナカジマデイサービスセンター",
    "address": "長野県長野市川中島町御厨1131-1",
    "lat": 36.5926679,
    "lng": 138.159206,
    "tel": "026-214-6865",
    "url": "",
    "pref": "長野県",
    "city": "長野市",
    "category": "day_service",
    "serviceType": "通所介護",
    "capacity": 0,
    "openDays": [
      "平日",
      "土曜日",
      "日曜日",
      "祝日"
    ],
    "openDaysNote": ""
  },
  {
    "id": "2070103524",
    "name": "コスモス長野デイサービスセンター",
    "kana": "コスモスナガノデイサービスセンター",
    "address": "長野県長野市小島田町380番地",
    "lat": 36.597411,
    "lng": 138.1812513,
    "tel": "026-283-8578",
    "url": "http://www.cosmosnet.or.jp/file/ro_nagano_top.html",
    "pref": "長野県",
    "city": "長野市",
    "category": "day_service",
    "serviceType": "通所介護",
    "capacity": 0,
    "openDays": [
      "平日",
      "土曜日",
      "祝日"
    ],
    "openDaysNote": ""
  },
  {
    "id": "2070103292",
    "name": "ソワン南俣デイサービスセンター",
    "kana": "ソワンミナミマタデイサービスセンター",
    "address": "長野県長野市大字稲葉２４６６番地８",
    "lat": 36.638585,
    "lng": 138.2046975,
    "tel": "026-269-8920",
    "url": "http://sowan.jp/",
    "pref": "長野県",
    "city": "長野市",
    "category": "day_service",
    "serviceType": "通所介護",
    "capacity": 10,
    "openDays": [
      "平日",
      "土曜日",
      "祝日"
    ],
    "openDaysNote": "定休日（日曜日、１２/３１～１/３）のご利用を希望される方に関しては、応相談可"
  },
  {
    "id": "2070100835",
    "name": "ツクイ長野",
    "kana": "ツクイナガノ",
    "address": "長野県長野市風間字巾下１７５６-１",
    "lat": 36.6364993874115,
    "lng": 138.228071488036,
    "tel": "026-267-0256",
    "url": "http://www.tsukui.net",
    "pref": "長野県",
    "city": "長野市",
    "category": "day_service",
    "serviceType": "通所介護",
    "capacity": 20,
    "openDays": [
      "平日",
      "土曜日",
      "日曜日",
      "祝日"
    ],
    "openDaysNote": "電話等により２４時間連絡可能な体制とします。"
  },
  {
    "id": "2070106170",
    "name": "ツクイ長野稲田",
    "kana": "ツクイナガノイナダ",
    "address": "長野県長野市稲田1丁目5-11",
    "lat": 36.6748379,
    "lng": 138.2148461,
    "tel": "026-256-9733",
    "url": "http://www.tsukui.net",
    "pref": "長野県",
    "city": "長野市",
    "category": "day_service",
    "serviceType": "通所介護",
    "capacity": 0,
    "openDays": [
      "平日",
      "土曜日",
      "日曜日",
      "祝日"
    ],
    "openDaysNote": ""
  },
  {
    "id": "2070102450",
    "name": "ツクイ長野稲里中央",
    "kana": "ツクイナガノイナサトチュウオウ",
    "address": "長野県長野市稲里町中央4-15-9",
    "lat": 36.6064485,
    "lng": 138.1671606,
    "tel": "026-286-6050",
    "url": "http://www.tsukui.net",
    "pref": "長野県",
    "city": "長野市",
    "category": "day_service",
    "serviceType": "通所介護",
    "capacity": 30,
    "openDays": [
      "平日",
      "土曜日",
      "日曜日",
      "祝日"
    ],
    "openDaysNote": ""
  },
  {
    "id": "2070102724",
    "name": "ツクイ長野西尾張部",
    "kana": "ツクイナガノニシオワリベ",
    "address": "長野県長野市西尾張部１０８９－７",
    "lat": 36.649837,
    "lng": 138.2294028,
    "tel": "026-239-7252",
    "url": "http://www.tsukui.net/search/detail.php?officeid=240",
    "pref": "長野県",
    "city": "長野市",
    "category": "day_service",
    "serviceType": "通所介護",
    "capacity": 30,
    "openDays": [
      "平日",
      "土曜日",
      "日曜日",
      "祝日"
    ],
    "openDaysNote": ""
  },
  {
    "id": "2070104977",
    "name": "つるがリハビリセンター",
    "kana": "ツルガリハビリセンター",
    "address": "長野県長野市東鶴賀町1906長野中央介護センターつるが 長野中央介護センターつるが",
    "lat": 36.6523120604641,
    "lng": 138.197860341664,
    "tel": "026-234-3512",
    "url": "",
    "pref": "長野県",
    "city": "長野市",
    "category": "day_service",
    "serviceType": "通所介護",
    "capacity": 55,
    "openDays": [
      "平日"
    ],
    "openDaysNote": ""
  },
  {
    "id": "2070106667",
    "name": "デイサービス　笑和",
    "kana": "デイサービス　エミワ",
    "address": "長野県長野市大字高田1030-5",
    "lat": 36.6418094,
    "lng": 138.2026005,
    "tel": "026-217-5297",
    "url": "",
    "pref": "長野県",
    "city": "長野市",
    "category": "day_service",
    "serviceType": "通所介護",
    "capacity": 0,
    "openDays": [
      "平日",
      "土曜日",
      "祝日"
    ],
    "openDaysNote": ""
  },
  {
    "id": "2070103169",
    "name": "デイサービスＭＩＲＩＥ若槻",
    "kana": "デイサービス　ミリエ　ワカツキ",
    "address": "長野県長野市若槻東条１１７４番地２",
    "lat": 36.6861868653062,
    "lng": 138.218856397484,
    "tel": "026-262-1969",
    "url": "http://www.mirie-park.jp/",
    "pref": "長野県",
    "city": "長野市",
    "category": "day_service",
    "serviceType": "通所介護",
    "capacity": 25,
    "openDays": [
      "平日",
      "土曜日",
      "祝日"
    ],
    "openDaysNote": ""
  },
  {
    "id": "2070106121",
    "name": "デイサービスグランドMIRIE公園通り",
    "kana": "デイサービスグランドミリエコウエンドオリ",
    "address": "長野県長野市浅川押田１９７－１",
    "lat": 36.6857809,
    "lng": 138.2083301,
    "tel": "026-266-0103",
    "url": "http://www.mirie-park.jp/",
    "pref": "長野県",
    "city": "長野市",
    "category": "day_service",
    "serviceType": "通所介護",
    "capacity": 25,
    "openDays": [
      "平日",
      "土曜日",
      "祝日"
    ],
    "openDaysNote": "延長も可能です。"
  },
  {
    "id": "2070105198",
    "name": "デイサービスセンター　広徳ひまわりの家",
    "kana": "デイサービスセンター　コウトクヒマワリノイエ",
    "address": "長野県長野市広田２２１番地１",
    "lat": 36.5891089,
    "lng": 138.1790851,
    "tel": "026-286-7577",
    "url": "",
    "pref": "長野県",
    "city": "長野市",
    "category": "day_service",
    "serviceType": "通所介護",
    "capacity": 0,
    "openDays": [
      "平日",
      "土曜日",
      "祝日"
    ],
    "openDaysNote": "12/30～1/3年末年始休業"
  },
  {
    "id": "2070101254",
    "name": "デイサービスセンターサンビラかわなかじま",
    "kana": "デイサービスセンターサンビラカワナカジマ",
    "address": "長野県長野市川中島町今里　６１０",
    "lat": 36.6104752,
    "lng": 138.1477096,
    "tel": "026-286-1620",
    "url": "http://sunvilla.or.jp/",
    "pref": "長野県",
    "city": "長野市",
    "category": "day_service",
    "serviceType": "通所介護",
    "capacity": 0,
    "openDays": [
      "平日",
      "土曜日",
      "祝日"
    ],
    "openDaysNote": "敬老の日および新年会日は休業させていただき、希望のご利用者様をご招待いたします。"
  },
  {
    "id": "2070102146",
    "name": "デイサービスセンターながでんハートネット桜枝町",
    "kana": "デイサービスセンターナガデンハートネットサクラエチョウ",
    "address": "長野県長野市桜枝町823番地１",
    "lat": 36.6588782,
    "lng": 138.1848637,
    "tel": "026-238-1000",
    "url": "nagaden-wellness.co.jp",
    "pref": "長野県",
    "city": "長野市",
    "category": "day_service",
    "serviceType": "通所介護",
    "capacity": 0,
    "openDays": [
      "平日",
      "土曜日",
      "日曜日",
      "祝日"
    ],
    "openDaysNote": ""
  },
  {
    "id": "2070104225",
    "name": "デイサービスセンターながでんハートネット東鶴賀",
    "kana": "デイサービスセンターナガデンハートネットヒガシツルガ",
    "address": "長野県長野市東鶴賀町78番地",
    "lat": 36.6513022,
    "lng": 138.2000758,
    "tel": "026-225-9528",
    "url": "https;//nagaden-wellness.co.jp",
    "pref": "長野県",
    "city": "長野市",
    "category": "day_service",
    "serviceType": "通所介護",
    "capacity": 0,
    "openDays": [
      "平日",
      "土曜日",
      "祝日"
    ],
    "openDaysNote": ""
  },
  {
    "id": "2070104878",
    "name": "デイサービスセンターながでんハートネット柳原",
    "kana": "デイサービスセンターナガデンハートネットナヤギハラ",
    "address": "長野県長野市大字柳原2123-1",
    "lat": 36.6633661,
    "lng": 138.2583334,
    "tel": "026-217-6080",
    "url": "https;//nagaden-wellness.co.jp",
    "pref": "長野県",
    "city": "長野市",
    "category": "day_service",
    "serviceType": "通所介護",
    "capacity": 0,
    "openDays": [
      "平日",
      "土曜日",
      "日曜日",
      "祝日"
    ],
    "openDaysNote": ""
  },
  {
    "id": "2070101643",
    "name": "デイサービスセンターリハビリケア",
    "kana": "デイサービスセンターリハビリケア",
    "address": "長野県長野市松代町小島田字荒屋沖3262-5",
    "lat": 36.5909326,
    "lng": 138.2087533,
    "tel": "026-278-0125",
    "url": "",
    "pref": "長野県",
    "city": "長野市",
    "category": "day_service",
    "serviceType": "通所介護",
    "capacity": 0,
    "openDays": [
      "平日",
      "土曜日",
      "祝日"
    ],
    "openDaysNote": ""
  },
  {
    "id": "2070105974",
    "name": "デイサービスセンターレインボー",
    "kana": "デイサービスセンターレインボー",
    "address": "長野県長野市大字吉１８２７番地",
    "lat": 36.705633,
    "lng": 138.2437674,
    "tel": "026-295-8025",
    "url": "http://harmony-rainbow.main.jp/",
    "pref": "長野県",
    "city": "長野市",
    "category": "day_service",
    "serviceType": "通所介護",
    "capacity": 0,
    "openDays": [
      "平日",
      "祝日"
    ],
    "openDaysNote": ""
  },
  {
    "id": "2070107582",
    "name": "デイサービスセンターレインボーとよの",
    "kana": "デイサービスセンターレインボートヨノ",
    "address": "長野県長野市豊野町石749番地3",
    "lat": 36.709689,
    "lng": 138.2661834,
    "tel": "026-219-2116",
    "url": "http://harmony-rainbow.main.jp/index.html",
    "pref": "長野県",
    "city": "長野市",
    "category": "day_service",
    "serviceType": "通所介護",
    "capacity": 0,
    "openDays": [
      "平日",
      "祝日"
    ],
    "openDaysNote": ""
  },
  {
    "id": "2070104332",
    "name": "デイサービスセンター青木島ふれあいの家",
    "kana": "デイサービスセンターアオキジマフレアイノイエ",
    "address": "長野県長野市青木島大塚９０１－２",
    "lat": 36.6096376,
    "lng": 138.1870448,
    "tel": "026-286-1202",
    "url": "",
    "pref": "長野県",
    "city": "長野市",
    "category": "day_service",
    "serviceType": "通所介護",
    "capacity": 0,
    "openDays": [
      "平日",
      "土曜日",
      "祝日"
    ],
    "openDaysNote": "12月30日～1月3日は、年末年始休日"
  },
  {
    "id": "2070107731",
    "name": "デイサポートこまち徳間",
    "kana": "デイサポートコマチトクマ",
    "address": "長野県長野市徳間3143",
    "lat": 36.6751364,
    "lng": 138.2302309,
    "tel": "026‐217‐2833",
    "url": "",
    "pref": "長野県",
    "city": "長野市",
    "category": "day_service",
    "serviceType": "通所介護",
    "capacity": 0,
    "openDays": [
      "平日",
      "祝日"
    ],
    "openDaysNote": "午前の部　　９時　　　から１２時００分（改行）午後の部　１３時３０分から１６時３０分（改行）の１日２単位制"
  },
  {
    "id": "2070107467",
    "name": "デイトレセンターリヴァール長野",
    "kana": "デイトレセンターリゔァールナガノ",
    "address": "長野県長野市桐原1丁目28-3",
    "lat": 36.6640488,
    "lng": 138.2139149,
    "tel": "026-217-2414",
    "url": "https://nagaden-wellness.co.jp/",
    "pref": "長野県",
    "city": "長野市",
    "category": "day_service",
    "serviceType": "通所介護",
    "capacity": null,
    "openDays": [
      "平日",
      "土曜日",
      "祝日"
    ],
    "openDaysNote": ""
  },
  {
    "id": "2070101775",
    "name": "ニチイケアセンターまめじま",
    "kana": "ニチイケアセンターマメジマ",
    "address": "長野県長野市大豆島５１９０番地",
    "lat": 36.6280407,
    "lng": 138.2371653,
    "tel": "026-266-6075",
    "url": "http://www.nichiigakkan.co.jp/service/care/home/day.html",
    "pref": "長野県",
    "city": "長野市",
    "category": "day_service",
    "serviceType": "通所介護",
    "capacity": 40,
    "openDays": [
      "平日",
      "土曜日",
      "祝日"
    ],
    "openDaysNote": ""
  },
  {
    "id": "2070101148",
    "name": "ニチイケアセンター稲里",
    "kana": "ニチイケアセンターイナサト",
    "address": "長野県長野市稲里町中央1-6-7",
    "lat": 36.6041629422647,
    "lng": 138.173727408598,
    "tel": "026-286-1161",
    "url": "http://www.nichiigakkan.co.jp/service/care/home/day.html",
    "pref": "長野県",
    "city": "長野市",
    "category": "day_service",
    "serviceType": "通所介護",
    "capacity": 35,
    "openDays": [
      "平日",
      "土曜日",
      "祝日"
    ],
    "openDaysNote": ""
  },
  {
    "id": "2070101049",
    "name": "ニチイケアセンター高田",
    "kana": "ニチイケアセンタータカダ",
    "address": "長野県長野市高田1031-1",
    "lat": 36.6416733,
    "lng": 138.2028838,
    "tel": "026-229-8862",
    "url": "http://www.nichiigakkan.co.jp/service/care/home/day.html",
    "pref": "長野県",
    "city": "長野市",
    "category": "day_service",
    "serviceType": "通所介護",
    "capacity": 10,
    "openDays": [
      "平日",
      "土曜日",
      "祝日"
    ],
    "openDaysNote": ""
  },
  {
    "id": "2070100926",
    "name": "ニチイケアセンター篠ノ井",
    "kana": "ニチイケアセンターシノノイ",
    "address": "長野県長野市篠ノ井御幣川１２３２-１",
    "lat": 36.5756062,
    "lng": 138.1414039,
    "tel": "026-290-7715",
    "url": "http://www.nichiigakkan.co.jp/service/care/home/day.html",
    "pref": "長野県",
    "city": "長野市",
    "category": "day_service",
    "serviceType": "通所介護",
    "capacity": 0,
    "openDays": [
      "平日",
      "土曜日",
      "祝日"
    ],
    "openDaysNote": ""
  },
  {
    "id": "2070104175",
    "name": "ニチイケアセンター中越",
    "kana": "ニチイケアセンターナカゴエ",
    "address": "長野県長野市中越１－６－２７",
    "lat": 36.6587935,
    "lng": 138.2229314,
    "tel": "０２６－２３９－７７６８",
    "url": "http://www.nichiigakkan.co.jp",
    "pref": "長野県",
    "city": "長野市",
    "category": "day_service",
    "serviceType": "通所介護",
    "capacity": 35,
    "openDays": [
      "平日",
      "土曜日",
      "祝日"
    ],
    "openDaysNote": ""
  },
  {
    "id": "2070100892",
    "name": "ニチイケアセンター長野",
    "kana": "ニチイケアセンターナガノ",
    "address": "長野県長野市檀田2-5-6",
    "lat": 36.6781205,
    "lng": 138.2079895,
    "tel": "026-239-6353",
    "url": "",
    "pref": "長野県",
    "city": "長野市",
    "category": "day_service",
    "serviceType": "通所介護",
    "capacity": 0,
    "openDays": [
      "平日",
      "土曜日",
      "祝日"
    ],
    "openDaysNote": ""
  },
  {
    "id": "2070103797",
    "name": "ニチイケアセンター長野南",
    "kana": "ニチイケアセンターナガノミナミ",
    "address": "長野県長野市篠ノ井御幣川３０５－１",
    "lat": 36.5760033,
    "lng": 138.1385682,
    "tel": "026-293-7861",
    "url": "http://www.nichiigakkan.co.jp/service/care/home/day.html",
    "pref": "長野県",
    "city": "長野市",
    "category": "day_service",
    "serviceType": "通所介護",
    "capacity": 0,
    "openDays": [
      "平日",
      "土曜日",
      "祝日"
    ],
    "openDaysNote": ""
  },
  {
    "id": "2070107012",
    "name": "フィットネスライフ南長野",
    "kana": "フィットネスライフミナミナガノ",
    "address": "長野県長野市篠ノ井杵淵字碇1623番地",
    "lat": 36.5814493797288,
    "lng": 138.185234652295,
    "tel": "026-214-9920",
    "url": "info@hohoemikaigo.com",
    "pref": "長野県",
    "city": "長野市",
    "category": "day_service",
    "serviceType": "通所介護",
    "capacity": 200,
    "openDays": [
      "平日",
      "祝日"
    ],
    "openDaysNote": ""
  },
  {
    "id": "2070106659",
    "name": "フランスベッド　長野デイサービスセンター",
    "kana": "フランスベッド　ナガノデイサービスセンター",
    "address": "長野県長野市稲里町下氷鉋492-2",
    "lat": 36.6028438,
    "lng": 138.1798096,
    "tel": "026-284-3336",
    "url": "http://www.mistralservice.co.jp",
    "pref": "長野県",
    "city": "長野市",
    "category": "day_service",
    "serviceType": "通所介護",
    "capacity": 0,
    "openDays": [
      "平日",
      "土曜日",
      "祝日"
    ],
    "openDaysNote": ""
  },
  {
    "id": "2070104621",
    "name": "フランスベッド株式会社悠悠いきいき倶楽部長野",
    "kana": "フランスベッドカブシキガイシャユウユウイキイキクラブナガノ",
    "address": "長野市稲里町下氷鉋492-2",
    "lat": 36.6028771,
    "lng": 138.1798929,
    "tel": "026-284-8124",
    "url": "http://www.francebed.co.jp",
    "pref": "長野県",
    "city": "長野市",
    "category": "day_service",
    "serviceType": "通所介護",
    "capacity": 0,
    "openDays": [
      "平日"
    ],
    "openDaysNote": ""
  },
  {
    "id": "2070100454",
    "name": "フランセーズ悠デイサービスセンター",
    "kana": "フランセーズユウデイサービスセンター",
    "address": "長野県長野市大字大豆島３６０－３",
    "lat": 36.6313647,
    "lng": 138.2203984,
    "tel": "026-251-1655",
    "url": "http://www.hakuyukai.com",
    "pref": "長野県",
    "city": "長野市",
    "category": "day_service",
    "serviceType": "通所介護",
    "capacity": 0,
    "openDays": [
      "平日",
      "土曜日",
      "祝日"
    ],
    "openDaysNote": ""
  },
  {
    "id": "2070107483",
    "name": "フランセーズ悠とみたけデイサービスセンター",
    "kana": "フランセーズユウトミタケデイサービスセンター",
    "address": "長野県長野市富竹118-1",
    "lat": 36.6709446,
    "lng": 138.2358414,
    "tel": "026-217-7560",
    "url": "",
    "pref": "長野県",
    "city": "長野市",
    "category": "day_service",
    "serviceType": "通所介護",
    "capacity": null,
    "openDays": [
      "平日",
      "土曜日",
      "祝日"
    ],
    "openDaysNote": ""
  },
  {
    "id": "2070101098",
    "name": "やすらぎの園デイ・ショートセンター",
    "kana": "ヤスラギノソノデイ・ショートセンター",
    "address": "長野県長野市篠ノ井杵淵字新田前213番地4",
    "lat": 36.5836567,
    "lng": 138.1829655,
    "tel": "026-293-2601",
    "url": "https://m-yasuragi.com",
    "pref": "長野県",
    "city": "長野市",
    "category": "day_service",
    "serviceType": "通所介護",
    "capacity": 0,
    "openDays": [
      "平日",
      "土曜日",
      "祝日"
    ],
    "openDaysNote": "特になし"
  },
  {
    "id": "2070106618",
    "name": "ユーコーケア長野",
    "kana": "ユーコーケアナガノ",
    "address": "長野県長野市稲葉２６０５番地１滝澤ビル１Ｆ 滝澤ビル１Ｆ",
    "lat": 36.6368983,
    "lng": 138.2090165,
    "tel": "０２６－２１７－１５５８",
    "url": "http://yandy32.wixsite.com/yuco",
    "pref": "長野県",
    "city": "長野市",
    "category": "day_service",
    "serviceType": "通所介護",
    "capacity": 38,
    "openDays": [
      "平日",
      "祝日"
    ],
    "openDaysNote": "祝日は通常営業"
  },
  {
    "id": "2070107962",
    "name": "リハビリ＆フィットネス　リサーラ松岡",
    "kana": "リハビリアンドフィットネス　リサーラマツオカ",
    "address": "長野県長野市松岡2-21-7",
    "lat": 36.623170244813,
    "lng": 138.217579998148,
    "tel": "026-400-7001",
    "url": "",
    "pref": "長野県",
    "city": "長野市",
    "category": "day_service",
    "serviceType": "通所介護",
    "capacity": 0,
    "openDays": [
      "平日"
    ],
    "openDaysNote": "年末年始休業　12月30日～1月3日"
  },
  {
    "id": "2070107715",
    "name": "リハライフ安茂里　あんずのさと",
    "kana": "リハライフアモリ　アンズノサト",
    "address": "長野県長野市安茂里3599-1",
    "lat": 36.6306912,
    "lng": 138.1602112,
    "tel": "026-223-2255",
    "url": "",
    "pref": "長野県",
    "city": "長野市",
    "category": "day_service",
    "serviceType": "通所介護",
    "capacity": 0,
    "openDays": [
      "平日",
      "祝日"
    ],
    "openDaysNote": ""
  },
  {
    "id": "2070101783",
    "name": "わかほデイサービスセンター",
    "kana": "ワカホデイサービスセンター",
    "address": "長野県長野市若穂綿内６４３４",
    "lat": 36.6270247,
    "lng": 138.2600513,
    "tel": "026-282-3524",
    "url": "http://www.zenkouji-df.com/cp-gai-day.html",
    "pref": "長野県",
    "city": "長野市",
    "category": "day_service",
    "serviceType": "通所介護",
    "capacity": 40,
    "openDays": [
      "平日",
      "土曜日",
      "祝日"
    ],
    "openDaysNote": "特になし"
  },
  {
    "id": "2070100652",
    "name": "安茂里介護サービスセンター通所介護事業所",
    "kana": "アモリカイゴサービスセンターツウショカイゴジギョウショ",
    "address": "長野県長野市安茂里1775番地",
    "lat": 36.6372227,
    "lng": 138.1721231,
    "tel": "026-225-8501",
    "url": "http://www.csw-naganocity.or.jp/kaigo/day%5Eamori.htm",
    "pref": "長野県",
    "city": "長野市",
    "category": "day_service",
    "serviceType": "通所介護",
    "capacity": 0,
    "openDays": [
      "平日",
      "土曜日",
      "祝日"
    ],
    "openDaysNote": ""
  },
  {
    "id": "2070102880",
    "name": "医療法人宮沢医院グリーンバード",
    "kana": "ミヤザワイイングリーンバード",
    "address": "長野県長野市徳間５５４-１",
    "lat": 36.6771019,
    "lng": 138.2255282,
    "tel": "026-243-6898",
    "url": "http://bird.miyazawaiin.com/",
    "pref": "長野県",
    "city": "長野市",
    "category": "day_service",
    "serviceType": "通所介護",
    "capacity": 40,
    "openDays": [
      "平日",
      "土曜日"
    ],
    "openDaysNote": ""
  },
  {
    "id": "2070101213",
    "name": "株式会社ケアネットデイサービスセンター長野第二",
    "kana": "カブシキカイシャケアネットデイサービスセンターナガノダイニ",
    "address": "長野県長野市大字北長池１２４２－１",
    "lat": 36.6567446,
    "lng": 138.2461677,
    "tel": "026-263-2852",
    "url": "http://www.fjkenpo.or.jp/care/carenet/index.html",
    "pref": "長野県",
    "city": "長野市",
    "category": "day_service",
    "serviceType": "通所介護",
    "capacity": 44,
    "openDays": [
      "平日",
      "土曜日",
      "日曜日",
      "祝日"
    ],
    "openDaysNote": "特になし"
  },
  {
    "id": "2070100660",
    "name": "吉田介護サービスセンター通所介護事業所",
    "kana": "ヨシダカイゴサービスセンターツウショカイゴジギョウショ",
    "address": "長野県長野市吉田3丁目22-41",
    "lat": 36.6674225,
    "lng": 138.2219954,
    "tel": "026-263-1775",
    "url": "http://www.csw-naganocity.or.jp/kaigo/day%5Eyoshida.htm",
    "pref": "長野県",
    "city": "長野市",
    "category": "day_service",
    "serviceType": "通所介護",
    "capacity": 0,
    "openDays": [
      "平日",
      "土曜日",
      "祝日"
    ],
    "openDaysNote": ""
  },
  {
    "id": "2070107822",
    "name": "戸隠中央デイサービスセンター",
    "kana": "トガクシチュウオウデイサービスセンター",
    "address": "長野県長野市戸隠豊岡1384番地",
    "lat": 36.7070645,
    "lng": 138.0894699,
    "tel": "026-254-2775",
    "url": "http://tokuyou.kowa-fukushi.or.jp/",
    "pref": "長野県",
    "city": "長野市",
    "category": "day_service",
    "serviceType": "通所介護",
    "capacity": null,
    "openDays": [
      "平日",
      "土曜日",
      "祝日"
    ],
    "openDaysNote": ""
  },
  {
    "id": "2070104522",
    "name": "三本柳デイサービス　ミント",
    "kana": "サンボンヤナギデイサービス　ミント",
    "address": "長野県長野市丹波島1-800",
    "lat": 36.6171992574736,
    "lng": 138.167150127578,
    "tel": "026-254-6116",
    "url": "http://www.healthcoop-nagano.or.jp",
    "pref": "長野県",
    "city": "長野市",
    "category": "day_service",
    "serviceType": "通所介護",
    "capacity": 30,
    "openDays": [
      "平日"
    ],
    "openDaysNote": "祝日などに営業する場合もあります。"
  },
  {
    "id": "2070107798",
    "name": "三陽介護サービスセンター通所介護事業所",
    "kana": "サンヨウカイゴサービスセンターツウショカイゴジギョウショ",
    "address": "長野県長野市大字西尾張部1124-6",
    "lat": 36.6468942,
    "lng": 138.2305322,
    "tel": "026-259-2366",
    "url": "https://www.csw-naganocity.or.jp/page-ggc/service/long-term-care-service/day-service/sanyo-dayservice-center",
    "pref": "長野県",
    "city": "長野市",
    "category": "day_service",
    "serviceType": "通所介護",
    "capacity": null,
    "openDays": [
      "平日",
      "土曜日",
      "祝日"
    ],
    "openDaysNote": ""
  },
  {
    "id": "2070100629",
    "name": "篠ノ井介護サービスセンター通所介護事業所",
    "kana": "シノノイカイゴサービスセンターツウショカイゴジギョウショ",
    "address": "長野県長野市篠ノ井小森587-1",
    "lat": 36.5754289,
    "lng": 138.1586825,
    "tel": "026-293-2001",
    "url": "http://www.csw-naganocity.or.jp/kaigo/day%5Eshinonoi.htm",
    "pref": "長野県",
    "city": "長野市",
    "category": "day_service",
    "serviceType": "通所介護",
    "capacity": 0,
    "openDays": [
      "平日",
      "土曜日",
      "祝日"
    ],
    "openDaysNote": ""
  },
  {
    "id": "2070103888",
    "name": "社会福祉法人暖家アムール若里デイサービスセンター",
    "kana": "アムールワカサト",
    "address": "長野県長野市若里２-１０-１",
    "lat": 36.6335934,
    "lng": 138.1928018,
    "tel": "026-229-6718",
    "url": "http://www.hi-danke.com",
    "pref": "長野県",
    "city": "長野市",
    "category": "day_service",
    "serviceType": "通所介護",
    "capacity": 0,
    "openDays": [
      "平日",
      "土曜日",
      "祝日"
    ],
    "openDaysNote": ""
  },
  {
    "id": "2070101403",
    "name": "若槻ホームデイサービスセンター",
    "kana": "ワカツキホームデイサービスセンター",
    "address": "長野県長野市田中1464-1",
    "lat": 36.6923586,
    "lng": 138.2272915,
    "tel": "026-251-3505",
    "url": "http://care-net.biz/20/wakatsuki/",
    "pref": "長野県",
    "city": "長野市",
    "category": "day_service",
    "serviceType": "通所介護",
    "capacity": 30,
    "openDays": [
      "平日",
      "土曜日",
      "祝日"
    ],
    "openDaysNote": ""
  },
  {
    "id": "2070107707",
    "name": "信州新町デイサービスセンター",
    "kana": "シンシュウシンマチデイサービスセンター",
    "address": "長野県長野市信州新町日原東2186番地1",
    "lat": 36.5588013,
    "lng": 137.9899513,
    "tel": "026-262-5090",
    "url": "",
    "pref": "長野県",
    "city": "長野市",
    "category": "day_service",
    "serviceType": "通所介護",
    "capacity": 0,
    "openDays": [
      "平日",
      "土曜日",
      "祝日"
    ],
    "openDaysNote": ""
  },
  {
    "id": "2070104399",
    "name": "中条介護サービスセンター通所介護事業所",
    "kana": "ナカジョウカイゴサービスセンターツウショカイゴジギョウショ",
    "address": "長野県長野市中条日高3964番地2",
    "lat": 36.6120576,
    "lng": 138.0407311,
    "tel": "026-267-3222",
    "url": "https://www.csw-naganocity.or.jp/page-ggc/service/long-term-care-service/day-service/nakajo-dayservice-center",
    "pref": "長野県",
    "city": "長野市",
    "category": "day_service",
    "serviceType": "通所介護",
    "capacity": 0,
    "openDays": [
      "平日",
      "祝日"
    ],
    "openDaysNote": ""
  },
  {
    "id": "2070100447",
    "name": "長野市朝日ホームデイサービスセンター",
    "kana": "ナガノシアサヒホームデイサービスセンター",
    "address": "長野県長野市南堀３-１",
    "lat": 36.6627156,
    "lng": 138.2416656,
    "tel": "026-241-8000",
    "url": "http://highness-life.com/",
    "pref": "長野県",
    "city": "長野市",
    "category": "day_service",
    "serviceType": "通所介護",
    "capacity": 25,
    "openDays": [
      "平日",
      "土曜日",
      "祝日"
    ],
    "openDaysNote": ""
  },
  {
    "id": "2070102757",
    "name": "通所介護事業所夢想園",
    "kana": "ツウショカイゴジギョウショムソウエン",
    "address": "長野県長野市大字上ケ屋２６８２番地１２５",
    "lat": 36.6897557,
    "lng": 138.1267684,
    "tel": "026-236-6070",
    "url": "musoen@ngn.janis.or.jp",
    "pref": "長野県",
    "city": "長野市",
    "category": "day_service",
    "serviceType": "通所介護",
    "capacity": 19,
    "openDays": [
      "平日",
      "土曜日",
      "祝日"
    ],
    "openDaysNote": ""
  },
  {
    "id": "2070101015",
    "name": "博愛の園デイサービスセンター",
    "kana": "ハクアイノソノデイサービスセンター",
    "address": "長野県長野市浅川東条２９５番地５",
    "lat": 36.6804952,
    "lng": 138.2026587,
    "tel": "026-256-6520",
    "url": "",
    "pref": "長野県",
    "city": "長野市",
    "category": "day_service",
    "serviceType": "通所介護",
    "capacity": 0,
    "openDays": [
      "平日"
    ],
    "openDaysNote": "なし"
  },
  {
    "id": "2070100272",
    "name": "博仁会桜荘社会福祉総合施設",
    "kana": "ハクジンカイサクラソウシャカイフクシソウゴウシセツ",
    "address": "長野県長野市篠ノ井二ツ柳字大当1535-1",
    "lat": 36.5693341,
    "lng": 138.1290336,
    "tel": "026-293-0088",
    "url": "https://hakujinkai-nagano.or.jp/",
    "pref": "長野県",
    "city": "長野市",
    "category": "day_service",
    "serviceType": "通所介護",
    "capacity": 0,
    "openDays": [
      "平日",
      "土曜日",
      "日曜日",
      "祝日"
    ],
    "openDaysNote": "なし"
  },
  {
    "id": "2070104738",
    "name": "博仁会川中島桜荘デイサービスセンター",
    "kana": "ハクジンカイカワナカジマサクラソウデイサービスセンター",
    "address": "長野県長野市川中島町今里字石原1034-1",
    "lat": 36.6023576879099,
    "lng": 138.14276554941,
    "tel": "026-254-6606",
    "url": "https://hakujinkai-nagano.or.jp/",
    "pref": "長野県",
    "city": "長野市",
    "category": "day_service",
    "serviceType": "通所介護",
    "capacity": 20,
    "openDays": [
      "平日",
      "土曜日",
      "祝日"
    ],
    "openDaysNote": ""
  },
  {
    "id": "2070100637",
    "name": "氷鉋介護サービスセンター通所介護事業所",
    "kana": "ヒガノカイゴサービスセンターツウショカイゴジギョウショ",
    "address": "長野県長野市稲里町中氷鉋４０５",
    "lat": 36.6072649,
    "lng": 138.1630137,
    "tel": "026-286-7768",
    "url": "https://www.csw-naganocity.or.jp/page-ggc/service/long-term-care-service/day-service/higano-dayservice-center",
    "pref": "長野県",
    "city": "長野市",
    "category": "day_service",
    "serviceType": "通所介護",
    "capacity": 30,
    "openDays": [
      "平日",
      "土曜日",
      "祝日"
    ],
    "openDaysNote": ""
  },
  {
    "id": "2070100744",
    "name": "富竹の里デイサービスセンター",
    "kana": "トミタケノサトデイサービスセンター",
    "address": "長野県長野市富竹１６３２番地１",
    "lat": 36.6731446806772,
    "lng": 138.257418924606,
    "tel": "026-296-2867",
    "url": "http://tomitake-carenet.com/sisetsu/dayservice.html",
    "pref": "長野県",
    "city": "長野市",
    "category": "day_service",
    "serviceType": "通所介護",
    "capacity": 0,
    "openDays": [
      "平日",
      "土曜日",
      "祝日"
    ],
    "openDaysNote": ""
  },
  {
    "id": "2074000437",
    "name": "穂高苑デイサービスセンター",
    "kana": "ホタカエンデイサービスセンター",
    "address": "長野県安曇野市穂高有明３０７４－４",
    "lat": 36.3596226,
    "lng": 137.8362475,
    "tel": "0263-31-0837",
    "url": "",
    "pref": "長野県",
    "city": "長野市",
    "category": "day_service",
    "serviceType": "通所介護",
    "capacity": 0,
    "openDays": [
      "平日",
      "祝日"
    ],
    "openDaysNote": ""
  },
  {
    "id": "2070107418",
    "name": "豊野デイサービスセンター",
    "kana": "トヨノデイサービスセンター",
    "address": "長野県長野市豊野町豊野２２９８番地２",
    "lat": 36.72309,
    "lng": 138.2852376,
    "tel": "026-257-5180",
    "url": "https://nagano-swc.com/izumidaira/",
    "pref": "長野県",
    "city": "長野市",
    "category": "day_service",
    "serviceType": "通所介護",
    "capacity": 25,
    "openDays": [
      "平日",
      "土曜日",
      "祝日"
    ],
    "openDaysNote": ""
  },
  {
    "id": "2073400463",
    "name": "豊野中央デイサービスセンター",
    "kana": "トヨノチュウオウデイサービスセンター",
    "address": "長野県長野市豊野町豊野６５５－５",
    "lat": 36.7113977,
    "lng": 138.2832436,
    "tel": "026-219-1530",
    "url": "http://www.san-ikukai.or.jp",
    "pref": "長野県",
    "city": "長野市",
    "category": "day_service",
    "serviceType": "通所介護",
    "capacity": 35,
    "openDays": [
      "平日",
      "土曜日",
      "祝日"
    ],
    "openDaysNote": ""
  },
  {
    "id": "2070100645",
    "name": "柳町介護サービスセンター通所介護事業所",
    "kana": "ヤナギマチカイゴサービスセンターツウショカイゴジギョウショ",
    "address": "長野県長野市三輪5丁目3番10号柳町団地３号棟１Ｆ 柳町団地３号棟１Ｆ",
    "lat": 36.6557209906345,
    "lng": 138.200362732263,
    "tel": "026-235-4001",
    "url": "http://www.csw-naganocity.or.jp/kaigo/day%5Eyanagi.htm",
    "pref": "長野県",
    "city": "長野市",
    "category": "day_service",
    "serviceType": "通所介護",
    "capacity": 0,
    "openDays": [
      "平日",
      "土曜日",
      "祝日"
    ],
    "openDaysNote": "ただし、利用者が希望される場合は、午前７時から午前８時半まで、又は午後４時３０分から午後７時までの間サービスを提供します。（午前８時半以前及び午後４時３０分以後は別途料金となります。）"
  },
  {
    "id": "2070106642",
    "name": "悠悠いきいき倶楽部長野",
    "kana": "ユウユウイキイキクラブナガノ",
    "address": "長野県長野市稲里町下氷鉋492-2",
    "lat": 36.6028438,
    "lng": 138.1798096,
    "tel": "026-284-8124",
    "url": "http://mistralservice.co.jp/",
    "pref": "長野県",
    "city": "長野市",
    "category": "day_service",
    "serviceType": "通所介護",
    "capacity": 15,
    "openDays": [
      "平日"
    ],
    "openDaysNote": ""
  },
  {
    "id": "2070104266",
    "name": "陽だまり栗田",
    "kana": "ヒダマリクリタ",
    "address": "長野県長野市大字栗田字舎利田715番地9",
    "lat": 36.6375636128147,
    "lng": 138.201652223418,
    "tel": "026-219-1047",
    "url": "",
    "pref": "長野県",
    "city": "長野市",
    "category": "day_service",
    "serviceType": "通所介護",
    "capacity": 0,
    "openDays": [
      "平日",
      "土曜日",
      "祝日"
    ],
    "openDaysNote": ""
  },
  {
    "id": "2072200476",
    "name": "デイサービスセンター「和田」",
    "kana": "デイサービスセンター「ワダ」",
    "address": "長野県小県郡長和町和田１４９２番地",
    "lat": 36.208181,
    "lng": 138.2163441,
    "tel": "0268-88-0077",
    "url": "http://www.yodakubofukushikai.jp/component/content/article/15#02",
    "pref": "長野県",
    "city": "長和町",
    "category": "day_service",
    "serviceType": "通所介護",
    "capacity": 0,
    "openDays": [
      "平日",
      "土曜日",
      "祝日"
    ],
    "openDaysNote": ""
  },
  {
    "id": "2072200286",
    "name": "デイサービスセンター長門",
    "kana": "デイサービスセンターナガト",
    "address": "長野県小県郡長和町古町3365番地7",
    "lat": 36.2726188,
    "lng": 138.2667015,
    "tel": "0268-68-0226",
    "url": "http://www.yodakubofukushikai.jp/component/content/article/15",
    "pref": "長野県",
    "city": "長和町",
    "category": "day_service",
    "serviceType": "通所介護",
    "capacity": 35,
    "openDays": [
      "平日",
      "土曜日",
      "祝日"
    ],
    "openDaysNote": "日曜日休業"
  },
  {
    "id": "2072100155",
    "name": "デイサービスセンターきたみまき",
    "kana": "デイサービスセンターキタミマキ",
    "address": "長野県東御市布下３７",
    "lat": 36.3358955618329,
    "lng": 138.360114793254,
    "tel": "0268-61-6022",
    "url": "http://www.cpmimaki.or.jp/care_tkaigo.php",
    "pref": "長野県",
    "city": "東御市",
    "category": "day_service",
    "serviceType": "通所介護",
    "capacity": 40,
    "openDays": [
      "平日",
      "土曜日",
      "祝日"
    ],
    "openDaysNote": "１月２日～１月３日の営業時間は８時３０分～１５時３０分"
  },
  {
    "id": "2072200344",
    "name": "デイサービスセンターこころ",
    "kana": "デイサービスセンターココロ",
    "address": "長野県東御市祢津1098-1",
    "lat": 36.367799,
    "lng": 138.3488818,
    "tel": "0268-64-0556",
    "url": "http://www.chiisagata.jp",
    "pref": "長野県",
    "city": "東御市",
    "category": "day_service",
    "serviceType": "通所介護",
    "capacity": 0,
    "openDays": [
      "平日",
      "土曜日",
      "日曜日",
      "祝日"
    ],
    "openDaysNote": ""
  },
  {
    "id": "2072200609",
    "name": "ニチイケアセンターとうみ",
    "kana": "ニチイケアセンタートウミ",
    "address": "長野県東御市加沢1174-2",
    "lat": 36.3542395,
    "lng": 138.3481101,
    "tel": "0268-61-0180",
    "url": "",
    "pref": "長野県",
    "city": "東御市",
    "category": "day_service",
    "serviceType": "通所介護",
    "capacity": 0,
    "openDays": [
      "平日",
      "土曜日",
      "祝日"
    ],
    "openDaysNote": "居宅サービス計画に基づきサービス実施"
  },
  {
    "id": "2072200468",
    "name": "フォーレストデイサービスセンター",
    "kana": "フォーレストデイサービスセンター",
    "address": "長野県東御市常田２番地１",
    "lat": 36.3592001,
    "lng": 138.3483821,
    "tel": "0268-64-7200",
    "url": "http://www.chiisagata.jp/forest/day.html",
    "pref": "長野県",
    "city": "東御市",
    "category": "day_service",
    "serviceType": "通所介護",
    "capacity": 0,
    "openDays": [
      "平日",
      "土曜日",
      "日曜日",
      "祝日"
    ],
    "openDaysNote": ""
  },
  {
    "id": "2072000751",
    "name": "デイサービス鳥のさえずり",
    "kana": "デイサービストリノサエズリ",
    "address": "長野県南佐久郡南牧村野辺山108-5",
    "lat": 35.9559255479923,
    "lng": 138.469375373637,
    "tel": "0267-77-7303",
    "url": "",
    "pref": "長野県",
    "city": "南牧村",
    "category": "day_service",
    "serviceType": "通所介護",
    "capacity": 0,
    "openDays": [
      "平日"
    ],
    "openDaysNote": ""
  },
  {
    "id": "2072400407",
    "name": "デイサービスセンター松寿荘",
    "kana": "デイサービスセンターショウジュソウ",
    "address": "長野県上伊那郡南箕輪村２３８０－１２１２",
    "lat": 35.8771400696246,
    "lng": 137.955080071303,
    "tel": "0265-76-8786",
    "url": "http://www.mmshyakyo.com/",
    "pref": "長野県",
    "city": "南箕輪村",
    "category": "day_service",
    "serviceType": "通所介護",
    "capacity": 0,
    "openDays": [
      "平日",
      "土曜日",
      "祝日"
    ],
    "openDaysNote": ""
  },
  {
    "id": "2072600378",
    "name": "南木曽デイサービスセンター",
    "kana": "ナギソデイサービスセンター",
    "address": "長野県木曽郡南木曽町田立１４３－１",
    "lat": 35.5887092,
    "lng": 137.5607517,
    "tel": "0573-75-5006",
    "url": "dayseavis@nagisosyakyo.or.jp",
    "pref": "長野県",
    "city": "南木曽町",
    "category": "day_service",
    "serviceType": "通所介護",
    "capacity": 0,
    "openDays": [
      "平日",
      "土曜日",
      "祝日"
    ],
    "openDaysNote": "自然災害など交通事情の悪化により営業時間の短縮や臨時休業もあります。"
  },
  {
    "id": "2072500370",
    "name": "売木村デイサービスセンター",
    "kana": "ウルギムラデイサービスセンター",
    "address": "長野県下伊那郡売木村６８８番地１",
    "lat": 35.271088,
    "lng": 137.7111217,
    "tel": "0260-28-2004",
    "url": "",
    "pref": "長野県",
    "city": "売木村",
    "category": "day_service",
    "serviceType": "通所介護",
    "capacity": 0,
    "openDays": [
      "平日"
    ],
    "openDaysNote": ""
  },
  {
    "id": "2073400695",
    "name": "むれデイサービスセンター",
    "kana": "ムレデイサービスセンター",
    "address": "長野県上水内郡飯綱町大字牟礼２２４３－１",
    "lat": 36.748003,
    "lng": 138.2343725,
    "tel": "026-253-7527",
    "url": "http://www.ii-shakyo.or.jp/",
    "pref": "長野県",
    "city": "飯綱町",
    "category": "day_service",
    "serviceType": "通所介護",
    "capacity": 45,
    "openDays": [
      "平日",
      "土曜日",
      "日曜日",
      "祝日"
    ],
    "openDaysNote": ""
  },
  {
    "id": "2073400430",
    "name": "飯綱町デイサービスセンター　ふれあいの園",
    "kana": "イイヅナマチデイサービスセンター　フレアイノソノ",
    "address": "長野県上水内郡飯綱町大字芋川１８１番地",
    "lat": 36.763224,
    "lng": 138.2557035,
    "tel": "026-253-8510",
    "url": "http://www.ii-shakyo.or.jp/",
    "pref": "長野県",
    "city": "飯綱町",
    "category": "day_service",
    "serviceType": "通所介護",
    "capacity": 0,
    "openDays": [
      "平日",
      "土曜日",
      "日曜日",
      "祝日"
    ],
    "openDaysNote": ""
  },
  {
    "id": "2071300053",
    "name": "飯山市社協デイサービスセンターゆきつばき",
    "kana": "イイヤマシシャキョウデイサービスセンターユキツバキ",
    "address": "長野県飯山市大字飯山７３５５－4",
    "lat": 36.8669175,
    "lng": 138.3595038,
    "tel": "0269-62-2915",
    "url": "httpｓ://iiyama-syakyo.or.jp",
    "pref": "長野県",
    "city": "飯山市",
    "category": "day_service",
    "serviceType": "通所介護",
    "capacity": 0,
    "openDays": [
      "平日",
      "土曜日",
      "日曜日",
      "祝日"
    ],
    "openDaysNote": "特になし"
  },
  {
    "id": "2071300319",
    "name": "飯山市社協デイサービスセンター瑞穂",
    "kana": "イイヤマシシャキョウデイサービスセンターミズホ",
    "address": "長野県飯山市大字瑞穂６３８５番地",
    "lat": 36.8962457,
    "lng": 138.4096811,
    "tel": "0269-65-5007",
    "url": "https://www.iiyama-shakyo.or.jp",
    "pref": "長野県",
    "city": "飯山市",
    "category": "day_service",
    "serviceType": "通所介護",
    "capacity": 30,
    "openDays": [
      "平日",
      "土曜日",
      "日曜日",
      "祝日"
    ],
    "openDaysNote": "なし"
  },
  {
    "id": "2070501206",
    "name": "かわじデイサービスセンター",
    "kana": "カワジデイサービスセンター",
    "address": "長野県飯田市川路3467－2",
    "lat": 35.448316,
    "lng": 137.8079071,
    "tel": "0265-27-5022",
    "url": "yuinosato-nagano.or.jp",
    "pref": "長野県",
    "city": "飯田市",
    "category": "day_service",
    "serviceType": "通所介護",
    "capacity": 35,
    "openDays": [
      "平日",
      "土曜日",
      "日曜日",
      "祝日"
    ],
    "openDaysNote": ""
  },
  {
    "id": "2070500281",
    "name": "ツクイ飯田",
    "kana": "ツクイイイダ",
    "address": "長野県飯田市上郷別府３３２７－１１",
    "lat": 35.5084985,
    "lng": 137.8428089,
    "tel": "0265-22-8194",
    "url": "http://www.tsukui.net/search/detail.php?officeid=251",
    "pref": "長野県",
    "city": "飯田市",
    "category": "day_service",
    "serviceType": "通所介護",
    "capacity": 35,
    "openDays": [
      "平日",
      "土曜日",
      "日曜日",
      "祝日"
    ],
    "openDaysNote": "元日の営業については、検討している。"
  },
  {
    "id": "2070501834",
    "name": "ツクイ飯田白山",
    "kana": "ツクイイイダハクサン",
    "address": "長野県飯田市白山町三丁目東12-9ツクイ飯田白山営業所 ツクイ飯田白山営業所",
    "lat": 35.520977,
    "lng": 137.812189,
    "tel": "0265-59-8510",
    "url": "http://www.tsukui.net/search/detail.php?officeid=582",
    "pref": "長野県",
    "city": "飯田市",
    "category": "day_service",
    "serviceType": "通所介護",
    "capacity": 40,
    "openDays": [
      "平日",
      "土曜日",
      "日曜日",
      "祝日"
    ],
    "openDaysNote": "３６５日通常営業"
  },
  {
    "id": "2070500752",
    "name": "デイサービスセンターたまゆら",
    "kana": "デイサービスセンタータマユラ",
    "address": "長野県飯田市北方２６８８－２",
    "lat": 35.5066065,
    "lng": 137.7930505,
    "tel": "0265-28-1331",
    "url": "http://www.tamayura.ne.jp/dayservice",
    "pref": "長野県",
    "city": "飯田市",
    "category": "day_service",
    "serviceType": "通所介護",
    "capacity": 0,
    "openDays": [
      "平日",
      "土曜日",
      "日曜日",
      "祝日"
    ],
    "openDaysNote": "特に無し"
  },
  {
    "id": "2070501495",
    "name": "デイサービスセンターたまゆらの丘",
    "kana": "デイサービスセンタータマユラノオカ",
    "address": "長野県飯田市北方３４０６－１",
    "lat": 35.5049983,
    "lng": 137.7907731,
    "tel": "0265-48-0121",
    "url": "http://www.tamayura.ne.jp/dayservice2",
    "pref": "長野県",
    "city": "飯田市",
    "category": "day_service",
    "serviceType": "通所介護",
    "capacity": 65,
    "openDays": [
      "平日",
      "土曜日",
      "日曜日",
      "祝日"
    ],
    "openDaysNote": "1月1日以外営業いたします。"
  },
  {
    "id": "2070502162",
    "name": "デイサービスセンター杜のおんがっかい",
    "kana": "デイサービスセンタアモリノオンガッカイ",
    "address": "長野県飯田市下瀬242-5下瀬しあわせ村 下瀬しあわせ村",
    "lat": 35.4263737,
    "lng": 137.8033282,
    "tel": "0265-27-5105",
    "url": "http://nagano-tamayura.com/",
    "pref": "長野県",
    "city": "飯田市",
    "category": "day_service",
    "serviceType": "通所介護",
    "capacity": 45,
    "openDays": [
      "平日",
      "土曜日",
      "日曜日",
      "祝日"
    ],
    "openDaysNote": "管理者の判断により変更もあり得ます。"
  },
  {
    "id": "2070501586",
    "name": "デイサービスみつばさ",
    "kana": "ミンデイサービスミツバサ",
    "address": "長野県飯田市鼎上山3800-5",
    "lat": 35.5065954,
    "lng": 137.8093513,
    "tel": "0265-56-9288",
    "url": "",
    "pref": "長野県",
    "city": "飯田市",
    "category": "day_service",
    "serviceType": "通所介護",
    "capacity": 25,
    "openDays": [
      "平日",
      "土曜日",
      "祝日"
    ],
    "openDaysNote": ""
  },
  {
    "id": "2070500406",
    "name": "ニチイケアセンター飯田",
    "kana": "ニチイケアセンターイイダ",
    "address": "長野県飯田市大瀬木298-1",
    "lat": 35.4965577,
    "lng": 137.7964979,
    "tel": "0265-28-1537",
    "url": "https://www.nichii-kaigo.jp/base/",
    "pref": "長野県",
    "city": "飯田市",
    "category": "day_service",
    "serviceType": "通所介護",
    "capacity": 0,
    "openDays": [
      "平日",
      "土曜日",
      "祝日"
    ],
    "openDaysNote": "居宅サービス計画により、営業時間外であってもサービス提供行う場合があります。"
  },
  {
    "id": "2070500711",
    "name": "健和会デイサービスセンター",
    "kana": "ケンワカイデイサービスセンター",
    "address": "長野県飯田市鼎上山１５５２－１健和会医療介護総合センター 健和会医療介護総合センター",
    "lat": 35.5036554795791,
    "lng": 137.826770271875,
    "tel": "0265-56-4643",
    "url": "http://www.kenwakai.or.jp/",
    "pref": "長野県",
    "city": "飯田市",
    "category": "day_service",
    "serviceType": "通所介護",
    "capacity": 0,
    "openDays": [
      "平日",
      "土曜日",
      "祝日"
    ],
    "openDaysNote": ""
  },
  {
    "id": "2070500323",
    "name": "飯田市いいだデイサービスセンター",
    "kana": "イイダシイイダデイサービスセンター",
    "address": "長野県飯田市東栄町３１７１番地１特別養護老人ホーム第二飯田荘 特別養護老人ホーム第二飯田荘",
    "lat": 35.512064664891,
    "lng": 137.837262608598,
    "tel": "0265-53-7571",
    "url": "http://www.iidashakyo.or.jp",
    "pref": "長野県",
    "city": "飯田市",
    "category": "day_service",
    "serviceType": "通所介護",
    "capacity": 0,
    "openDays": [
      "平日",
      "祝日"
    ],
    "openDaysNote": "特になし"
  },
  {
    "id": "2070500356",
    "name": "飯田市上郷デイサービスセンター",
    "kana": "イイダシカミサトデイサービスセンター",
    "address": "長野県飯田市上郷飯沼2212-1",
    "lat": 35.5160145,
    "lng": 137.8479941,
    "tel": "0265-53-4811",
    "url": "",
    "pref": "長野県",
    "city": "飯田市",
    "category": "day_service",
    "serviceType": "通所介護",
    "capacity": 0,
    "openDays": [
      "平日",
      "土曜日",
      "祝日"
    ],
    "openDaysNote": "なし"
  },
  {
    "id": "2070501958",
    "name": "飯田市上村デイサービスセンター",
    "kana": "イイダシカミムラデイサービスセンター",
    "address": "長野県飯田市上村844番地1上村デイサービスセンター 上村デイサービスセンター",
    "lat": 35.3824403534951,
    "lng": 137.968502004928,
    "tel": "0260－36－2835",
    "url": "",
    "pref": "長野県",
    "city": "飯田市",
    "category": "day_service",
    "serviceType": "通所介護",
    "capacity": 10,
    "openDays": [
      "平日",
      "土曜日",
      "日曜日",
      "祝日"
    ],
    "openDaysNote": "早朝、延長の提供有り。"
  },
  {
    "id": "2070500422",
    "name": "飯田市西部デイサービスセンター",
    "kana": "イイダセイブデイサービスセンター",
    "address": "長野県飯田市三日市場２０９９－２",
    "lat": 35.4858034,
    "lng": 137.7961291,
    "tel": "0265-28-2610",
    "url": "http://www.wn-sekizenkai.or.jp",
    "pref": "長野県",
    "city": "飯田市",
    "category": "day_service",
    "serviceType": "通所介護",
    "capacity": 0,
    "openDays": [
      "平日",
      "祝日"
    ],
    "openDaysNote": ""
  },
  {
    "id": "2070502287",
    "name": "飯田市中部ディサービスセンター",
    "kana": "イイダシチュウブデイサービスセンター",
    "address": "長野県飯田市駄科９０４－１",
    "lat": 35.4769189,
    "lng": 137.8399128,
    "tel": "0265-26-8820",
    "url": "",
    "pref": "長野県",
    "city": "飯田市",
    "category": "day_service",
    "serviceType": "通所介護",
    "capacity": null,
    "openDays": [
      "平日",
      "祝日"
    ],
    "openDaysNote": ""
  },
  {
    "id": "2070500331",
    "name": "飯田市北部デイサービスセンター",
    "kana": "イイダシホクブデイサービスセンター",
    "address": "長野県飯田市上郷黒田２１１２番地１",
    "lat": 35.5298987,
    "lng": 137.8405384,
    "tel": "0265-53-8155",
    "url": "http://www.iidashakyo.or.jp",
    "pref": "長野県",
    "city": "飯田市",
    "category": "day_service",
    "serviceType": "通所介護",
    "capacity": 0,
    "openDays": [
      "平日",
      "祝日"
    ],
    "openDaysNote": ""
  },
  {
    "id": "2070500349",
    "name": "飯田市竜東デイサービスセンター",
    "kana": "イイダシリュウトウデイサービスセンター",
    "address": "長野県飯田市下久堅知久平123",
    "lat": 35.4756694,
    "lng": 137.8513122,
    "tel": "0265-29-8189",
    "url": "",
    "pref": "長野県",
    "city": "飯田市",
    "category": "day_service",
    "serviceType": "通所介護",
    "capacity": 0,
    "openDays": [
      "平日",
      "祝日"
    ],
    "openDaysNote": "なし"
  },
  {
    "id": "2070500737",
    "name": "北方デイサービスセンター",
    "kana": "キタガタデイサービスセンター",
    "address": "長野県飯田市北方２２０９－１",
    "lat": 35.5084201,
    "lng": 137.7964138,
    "tel": "0265-25-7953",
    "url": "http://ichiyokai-iida.jp",
    "pref": "長野県",
    "city": "飯田市",
    "category": "day_service",
    "serviceType": "通所介護",
    "capacity": 0,
    "openDays": [
      "平日",
      "土曜日",
      "日曜日",
      "祝日"
    ],
    "openDaysNote": "ご本人、ご家族の事情によっては上記の時間に限りません。"
  },
  {
    "id": "2070501297",
    "name": "北方の風",
    "kana": "キタガタノカゼ",
    "address": "飯田市北方２２０９-５",
    "lat": 35.508409,
    "lng": 137.7964,
    "tel": "0265-25-8424",
    "url": "",
    "pref": "長野県",
    "city": "飯田市",
    "category": "day_service",
    "serviceType": "通所介護",
    "capacity": null,
    "openDays": [
      "平日",
      "土曜日",
      "祝日"
    ],
    "openDaysNote": "ご本人、ご家族の事情によっては上記の時間に限りません。"
  },
  {
    "id": "2072401223",
    "name": "デイサービスセンターいいじまいちご",
    "kana": "デイサービスセンターイイジマイチゴ",
    "address": "長野県上伊那郡飯島町飯島2317-1",
    "lat": 35.6794424,
    "lng": 137.9250351,
    "tel": "0265-86-7715",
    "url": "http://www.ichigoe.jp",
    "pref": "長野県",
    "city": "飯島町",
    "category": "day_service",
    "serviceType": "通所介護",
    "capacity": 25,
    "openDays": [
      "平日",
      "土曜日",
      "祝日"
    ],
    "openDaysNote": "12月31日午後から1月2日まで年末年始休業"
  },
  {
    "id": "2072401108",
    "name": "介護ステーションまんてん",
    "kana": "カイゴステーションマンテン",
    "address": "長野県上伊那郡飯島町飯島755-1",
    "lat": 35.6745612,
    "lng": 137.9295891,
    "tel": "0265-86-8660",
    "url": "http://manten-npo.com/",
    "pref": "長野県",
    "city": "飯島町",
    "category": "day_service",
    "serviceType": "通所介護",
    "capacity": null,
    "openDays": [
      "平日",
      "土曜日",
      "日曜日",
      "祝日"
    ],
    "openDaysNote": ""
  },
  {
    "id": "2072401470",
    "name": "富士見高原医療福祉センターデイサービスなごみの家",
    "kana": "フジミコウゲンイリョウフクシセンターデイサービスナゴミノイエ",
    "address": "長野県上伊那郡飯島町七久保1493番地",
    "lat": 35.6580755,
    "lng": 137.9065332,
    "tel": "0265-86-7020",
    "url": "http://fujimihp.com/",
    "pref": "長野県",
    "city": "飯島町",
    "category": "day_service",
    "serviceType": "通所介護",
    "capacity": null,
    "openDays": [
      "平日",
      "土曜日",
      "祝日"
    ],
    "openDaysNote": ""
  },
  {
    "id": "2072300383",
    "name": "紅林荘デイサービスセンター",
    "kana": "コウリンソウデイサービスセンター",
    "address": "長野県諏訪郡富士見町富士見3107番地2",
    "lat": 35.9096107,
    "lng": 138.2284218,
    "tel": "0266-61-2085",
    "url": "http://www.ja-naganokai.or.jp/facilities/kourin/",
    "pref": "長野県",
    "city": "富士見町",
    "category": "day_service",
    "serviceType": "通所介護",
    "capacity": 25,
    "openDays": [
      "平日",
      "祝日"
    ],
    "openDaysNote": ""
  },
  {
    "id": "2072300730",
    "name": "富士見町社会福祉協議会デイサービスセンターかがやき",
    "kana": "フジミマチシャカイフクシキョウギカイデイサービスセンターカガヤキ",
    "address": "長野県諏訪郡富士見町境7276複合福祉施設清泉荘 複合福祉施設清泉荘",
    "lat": 35.8823495,
    "lng": 138.2783655,
    "tel": "0266-64-2820",
    "url": "http://fujimi-syakyo.jp/index.html",
    "pref": "長野県",
    "city": "富士見町",
    "category": "day_service",
    "serviceType": "通所介護",
    "capacity": 30,
    "openDays": [
      "平日",
      "土曜日",
      "祝日"
    ],
    "openDaysNote": ""
  },
  {
    "id": "2072300128",
    "name": "富士見町社会福祉協議会ふれあい通所介護事業所",
    "kana": "フジミマチシャカイフクシキョウギカイフレアイツウショカイゴジギョウショ",
    "address": "長野県諏訪郡富士見町富士見8988番地１",
    "lat": 35.9136793,
    "lng": 138.2150951,
    "tel": "0266-62-6762",
    "url": "http://fujimi-shakyo.jp/",
    "pref": "長野県",
    "city": "富士見町",
    "category": "day_service",
    "serviceType": "通所介護",
    "capacity": 0,
    "openDays": [
      "平日",
      "土曜日",
      "日曜日",
      "祝日"
    ],
    "openDaysNote": "延長時間午前６時から午後９時（通常の営業時間を除く）"
  },
  {
    "id": "2072300425",
    "name": "富士見町社会福祉協議会清泉荘通所介護事業所",
    "kana": "フジミマチシャカイフクシキョウギカイセイセンソウツウショカイゴジギョウショ",
    "address": "長野県諏訪郡富士見町境７２７６",
    "lat": 35.8823495,
    "lng": 138.2783655,
    "tel": "0266-61-8210",
    "url": "http://fujimi-shakyo.jp/",
    "pref": "長野県",
    "city": "富士見町",
    "category": "day_service",
    "serviceType": "通所介護",
    "capacity": 0,
    "openDays": [
      "平日",
      "土曜日",
      "日曜日",
      "祝日"
    ],
    "openDaysNote": "特になし"
  },
  {
    "id": "2072500727",
    "name": "社会福祉法人豊丘村社会福祉協議会指定通所介護事業所",
    "kana": "トヨオカムラシャカイフクシキョウギカイシテイツウショカイゴジギョウショ",
    "address": "長野県下伊那郡豊丘村神稲３０３９－１デイサービスセンターほほえみ デイサービスセンターほほえみ",
    "lat": 35.5507362,
    "lng": 137.895033,
    "tel": "0265-35-1122",
    "url": "toyo-sha.jp/",
    "pref": "長野県",
    "city": "豊丘村",
    "category": "day_service",
    "serviceType": "通所介護",
    "capacity": 0,
    "openDays": [
      "平日",
      "土曜日",
      "祝日"
    ],
    "openDaysNote": "その他、年間計画に定められた休日"
  },
  {
    "id": "2072700947",
    "name": "麻績村デイサービスセンターひじり",
    "kana": "オミムラデイサービスセンターヒジリ",
    "address": "長野県東筑摩郡麻績村麻2117番地1麻績村デイサービスセンターひじり 麻績村デイサービスセンターひじり",
    "lat": 36.4481747844961,
    "lng": 138.031153970639,
    "tel": "0263-87-2157",
    "url": "https://omi-shakyo.or.jp/",
    "pref": "長野県",
    "city": "麻績村",
    "category": "day_service",
    "serviceType": "通所介護",
    "capacity": null,
    "openDays": [
      "平日",
      "土曜日",
      "日曜日",
      "祝日"
    ],
    "openDaysNote": ""
  },
  {
    "id": "2072700426",
    "name": "麻績村デイサービスセンターみづき",
    "kana": "オミムラデイサービスセンターミヅキ",
    "address": "長野県東筑摩郡麻績村麻2787番地麻績村デイサービスセンターみづき 麻績村デイサービスセンターみづき",
    "lat": 36.4488668356423,
    "lng": 138.030571808598,
    "tel": "0263-67-3099",
    "url": "https://omi-shakyo.or.jp/",
    "pref": "長野県",
    "city": "麻績村",
    "category": "day_service",
    "serviceType": "通所介護",
    "capacity": 30,
    "openDays": [
      "平日",
      "土曜日",
      "祝日"
    ],
    "openDaysNote": "日曜日にあたらない祝日は営業日とする"
  },
  {
    "id": "2072401017",
    "name": "ケアセンターふれあいの里",
    "kana": "ケアセンターフレアイノサト",
    "address": "長野県上伊那郡箕輪町大字中箕輪１４４３２－１",
    "lat": 35.9151342,
    "lng": 137.9819444,
    "tel": "0265-71-1121",
    "url": "http://carecenter-hureainosato.com/etc/service-day.html",
    "pref": "長野県",
    "city": "箕輪町",
    "category": "day_service",
    "serviceType": "通所介護",
    "capacity": 0,
    "openDays": [
      "平日",
      "土曜日",
      "日曜日",
      "祝日"
    ],
    "openDaysNote": "12/31　サービス提供時間　9：30～14：35"
  },
  {
    "id": "2072400613",
    "name": "デイサービスセンターグレイスフル箕輪",
    "kana": "デイサービスセンターグレイスフルミノワ",
    "address": "長野県上伊那郡箕輪町大字中箕輪６０６５",
    "lat": 35.9200012922967,
    "lng": 137.9501007972,
    "tel": "0265-71-3721",
    "url": "http://www.sun-vision.or.jp/",
    "pref": "長野県",
    "city": "箕輪町",
    "category": "day_service",
    "serviceType": "通所介護",
    "capacity": 40,
    "openDays": [
      "平日",
      "土曜日",
      "祝日"
    ],
    "openDaysNote": "事業所が定めた日を休日とすることがある。"
  },
  {
    "id": "2072400647",
    "name": "宅老所しばみや",
    "kana": "タクロウジョシバミヤ",
    "address": "上伊那郡箕輪町大字中箕輪９３４４",
    "lat": 35.9080769,
    "lng": 137.9869136,
    "tel": "0265-71-3380",
    "url": "",
    "pref": "長野県",
    "city": "箕輪町",
    "category": "day_service",
    "serviceType": "通所介護",
    "capacity": 0,
    "openDays": [
      "平日",
      "土曜日",
      "祝日"
    ],
    "openDaysNote": "なし"
  },
  {
    "id": "2072400449",
    "name": "箕輪町デイサービスセンターゆとり荘",
    "kana": "ミノワマチデイサービスセンターユトリソウ",
    "address": "長野県上伊那郡箕輪町大字三日町1372-1",
    "lat": 35.8966757,
    "lng": 137.9938996,
    "tel": "0265-79-1461",
    "url": "http://www.minowa-shakyo.or.jp/",
    "pref": "長野県",
    "city": "箕輪町",
    "category": "day_service",
    "serviceType": "通所介護",
    "capacity": 0,
    "openDays": [
      "平日",
      "祝日"
    ],
    "openDaysNote": "サービス提供時間は8時30分～16時30分"
  },
  {
    "id": "2072600428",
    "name": "木曽福島デイサービスセンター",
    "kana": "キソフクシマデイサービスセンター",
    "address": "長野県木曽郡木曽町福島6305番地",
    "lat": 35.8399253,
    "lng": 137.686039,
    "tel": "0264-23-3065",
    "url": "",
    "pref": "長野県",
    "city": "木曽町",
    "category": "day_service",
    "serviceType": "通所介護",
    "capacity": 30,
    "openDays": [
      "平日",
      "土曜日",
      "日曜日",
      "祝日"
    ],
    "openDaysNote": ""
  },
  {
    "id": "2073300101",
    "name": "木島平村社協指定通所介護事業所",
    "kana": "キジマダイラムラシャキョウシテイツウショカイゴジギョウショ",
    "address": "長野県下高井郡木島平村大字往郷９０８-３",
    "lat": 36.8568978,
    "lng": 138.4065295,
    "tel": "0269-82-4888",
    "url": "http://www4.atword.jp/kijimasyakyo/",
    "pref": "長野県",
    "city": "木島平村",
    "category": "day_service",
    "serviceType": "通所介護",
    "capacity": 0,
    "openDays": [
      "平日",
      "土曜日",
      "日曜日",
      "祝日"
    ],
    "openDaysNote": ""
  },
  {
    "id": "2073300143",
    "name": "野沢温泉村老人福祉センター",
    "kana": "ノザワオンセンムラロウジンフクシセンター",
    "address": "長野県下高井郡野沢温泉村大字豊郷９１００-２",
    "lat": 36.9235464,
    "lng": 138.4405967,
    "tel": "0269-85-4348",
    "url": "",
    "pref": "長野県",
    "city": "野沢温泉村",
    "category": "day_service",
    "serviceType": "通所介護",
    "capacity": 0,
    "openDays": [
      "平日",
      "土曜日",
      "日曜日",
      "祝日"
    ],
    "openDaysNote": "特に無し"
  },
  {
    "id": "2072100767",
    "name": "デイサービスセンターほほえみ",
    "kana": "デイサービスセンターホホエミ",
    "address": "長野県北佐久郡立科町大字芦田720-1",
    "lat": 36.2743582155306,
    "lng": 138.323525204321,
    "tel": "0267-56-3115",
    "url": "http://www.hc-tateshina.jp",
    "pref": "長野県",
    "city": "立科町",
    "category": "day_service",
    "serviceType": "通所介護",
    "capacity": 0,
    "openDays": [
      "平日",
      "祝日"
    ],
    "openDaysNote": "早朝７：３０～　延長１９：００まで対応します"
  },
  {
    "id": "2072100775",
    "name": "デイサービスセンターやすらぎ",
    "kana": "デイサービスセンターヤスラギ",
    "address": "長野県北佐久郡立科町大字芦田3724番地5",
    "lat": 36.2734723,
    "lng": 138.3150693,
    "tel": "0267-56-2622",
    "url": "http://www.hc-tateshina.jp",
    "pref": "長野県",
    "city": "立科町",
    "category": "day_service",
    "serviceType": "通所介護",
    "capacity": 0,
    "openDays": [
      "平日",
      "土曜日",
      "祝日"
    ],
    "openDaysNote": "年末年始休業　12月31日から1月3日"
  }
]