[
  {
    "id": "272502071",
    "name": "デイサービスセンター　ガーデンプレイスおいらせ",
    "kana": "デイサービスセンター　ガーデンプレイスオイラセ",
    "address": "青森県上北郡おいらせ町鶉久保3-42",
    "lat": 40.6572641,
    "lng": 141.3772073,
    "tel": "0176-58-0706",
    "url": "http:///www.momoishiso.or.jp",
    "pref": "青森県",
    "city": "おいらせ町",
    "category": "day_service",
    "serviceType": "通所介護",
    "capacity": null,
    "openDays": [
      "平日",
      "祝日"
    ],
    "openDaysNote": ""
  },
  {
    "id": "272500216",
    "name": "デイサービスセンター　たんぽぽ",
    "kana": "デイサービスセンター　タンポポ",
    "address": "青森県上北郡おいらせ町沼端370番地1",
    "lat": 40.6121647,
    "lng": 141.4460398,
    "tel": "0178-50-1055",
    "url": "http://www.momoishiso.or.jp",
    "pref": "青森県",
    "city": "おいらせ町",
    "category": "day_service",
    "serviceType": "通所介護",
    "capacity": 48,
    "openDays": [
      "平日",
      "土曜日",
      "日曜日",
      "祝日"
    ],
    "openDaysNote": "特になし"
  },
  {
    "id": "272501222",
    "name": "デイサービスセンターいこいの森",
    "kana": "デイサービスセンターイコイノモリ",
    "address": "青森県上北郡おいらせ町緑ヶ丘一丁目50-2077デイサービスセンターいこいの森 デイサービスセンターいこいの森",
    "lat": 40.6661695098696,
    "lng": 141.366102030688,
    "tel": "0176-50-2238",
    "url": "http://kizakinosou.jp/",
    "pref": "青森県",
    "city": "おいらせ町",
    "category": "day_service",
    "serviceType": "通所介護",
    "capacity": 20,
    "openDays": [
      "平日",
      "祝日"
    ],
    "openDaysNote": "利用者様の施設利用状況に応じて、正月やお盆などでの臨時休業日があります。"
  },
  {
    "id": "272501826",
    "name": "デイサービスセンター阿光坊の郷",
    "kana": "デイサービスセンターアコウボウノサト",
    "address": "上北郡おいらせ町阿光坊１０５-１１０",
    "lat": 40.6073777,
    "lng": 141.3742456,
    "tel": "0178-32-7661",
    "url": "http://www.momoishiso.or.jp",
    "pref": "青森県",
    "city": "おいらせ町",
    "category": "day_service",
    "serviceType": "通所介護",
    "capacity": 0,
    "openDays": [
      "平日",
      "土曜日",
      "祝日"
    ],
    "openDaysNote": ""
  },
  {
    "id": "272500547",
    "name": "デイサービスセンター木崎野",
    "kana": "デイサービスセンターキザキノ",
    "address": "おいらせ町向山東二丁目２－１２６２",
    "lat": 40.6321002,
    "lng": 141.3920519,
    "tel": "0178-56-4126",
    "url": "http://kizakinosou.jp",
    "pref": "青森県",
    "city": "おいらせ町",
    "category": "day_service",
    "serviceType": "通所介護",
    "capacity": 0,
    "openDays": [
      "平日",
      "土曜日",
      "祝日"
    ],
    "openDaysNote": "特になし"
  },
  {
    "id": "272502006",
    "name": "デイサービスセンター和花",
    "kana": "デイサービスセンター　ノドカ",
    "address": "青森県上北郡おいらせ町下明堂56番地1",
    "lat": 40.5944885,
    "lng": 141.4312941,
    "tel": "0178-51-8886",
    "url": "http://www.momoishiso.or.jp",
    "pref": "青森県",
    "city": "おいらせ町",
    "category": "day_service",
    "serviceType": "通所介護",
    "capacity": 30,
    "openDays": [
      "平日",
      "祝日"
    ],
    "openDaysNote": ""
  },
  {
    "id": "272501685",
    "name": "れいろう倶楽部",
    "kana": "レイロウクラブ",
    "address": "中野平40番地１イオンモール下田内 イオンモール下田内",
    "lat": 40.6020537,
    "lng": 141.4181727,
    "tel": "0178-50-3107",
    "url": "",
    "pref": "青森県",
    "city": "おいらせ町",
    "category": "day_service",
    "serviceType": "通所介護",
    "capacity": 0,
    "openDays": [
      "平日",
      "土曜日",
      "日曜日",
      "祝日"
    ],
    "openDaysNote": ""
  },
  {
    "id": "272502352",
    "name": "米寿温泉",
    "kana": "ベイジュオンセン",
    "address": "青森県上北郡おいらせ町立蛇15-4",
    "lat": 40.5993242,
    "lng": 141.3910433,
    "tel": "0178-38-1528",
    "url": "https://beijyuonsen.termedi.com/",
    "pref": "青森県",
    "city": "おいらせ町",
    "category": "day_service",
    "serviceType": "通所介護",
    "capacity": 30,
    "openDays": [
      "平日"
    ],
    "openDaysNote": "お盆(8/13～8/15予定)、年末年始(12/30～1/3)も休みとなります"
  },
  {
    "id": "272100793",
    "name": "つがる市社会福祉協議会　デイサービスセンターあーすとぴあ",
    "kana": "ツガルシシャカイフクシキョウギカイ　デイサービスセンターアーストピア",
    "address": "青森県つがる市森田町森田月見野２７７番地３",
    "lat": 40.7767835,
    "lng": 140.3468097,
    "tel": "0173-49-7037",
    "url": "http://tsugarushi-shakyo.net/",
    "pref": "青森県",
    "city": "つがる市",
    "category": "day_service",
    "serviceType": "通所介護",
    "capacity": 0,
    "openDays": [
      "平日",
      "土曜日",
      "祝日"
    ],
    "openDaysNote": "特になし"
  },
  {
    "id": "270900012",
    "name": "つがる市社会福祉協議会　デイサービスセンターしゃりき",
    "kana": "ツガルシシャカイフクシキョウギカイ　デイサービスセンターシャリキ",
    "address": "青森県つがる市車力町花林48番地",
    "lat": 40.9482387,
    "lng": 140.3588112,
    "tel": "0173-56-3051",
    "url": "",
    "pref": "青森県",
    "city": "つがる市",
    "category": "day_service",
    "serviceType": "通所介護",
    "capacity": 0,
    "openDays": [
      "平日",
      "祝日"
    ],
    "openDaysNote": "特になし"
  },
  {
    "id": "272100413",
    "name": "つがる市社会福祉協議会デイサービスセンターいながき",
    "kana": "ツガルシシャカイフクシキョウギカイデイサービスセンターイナガキ",
    "address": "青森県つがる市稲垣町豊川宮川42番地3",
    "lat": 40.88172,
    "lng": 140.3958913,
    "tel": "0173-46-2305",
    "url": "http://tsugarushi-shakyo.net/",
    "pref": "青森県",
    "city": "つがる市",
    "category": "day_service",
    "serviceType": "通所介護",
    "capacity": 40,
    "openDays": [
      "平日",
      "祝日"
    ],
    "openDaysNote": ""
  },
  {
    "id": "272100223",
    "name": "つがる市社会福祉協議会デイサービスセンターかっこうの館",
    "kana": "ツガルシシャカイフクシキョウギカイデイサービスセンターカッコウノヤカタ",
    "address": "青森県つがる市木造若緑５２番地",
    "lat": 40.8074559,
    "lng": 140.380887,
    "tel": "0173-42-4660",
    "url": "http://tsugarushi-shaky.net/",
    "pref": "青森県",
    "city": "つがる市",
    "category": "day_service",
    "serviceType": "通所介護",
    "capacity": 0,
    "openDays": [
      "平日",
      "土曜日",
      "祝日"
    ],
    "openDaysNote": "１２月３１日から１月３日までは年末年始休暇の為休み"
  },
  {
    "id": "272100579",
    "name": "デイサービスセンター　かしわ",
    "kana": "デイサービスセンター　カシワ",
    "address": "青森県つがる市柏桑野木田若宮２５８番地１",
    "lat": 40.7795767758267,
    "lng": 140.405395532471,
    "tel": "0173-25-2464",
    "url": "https://www.hakuyuukai.com",
    "pref": "青森県",
    "city": "つがる市",
    "category": "day_service",
    "serviceType": "通所介護",
    "capacity": 0,
    "openDays": [
      "平日",
      "土曜日",
      "祝日"
    ],
    "openDaysNote": ""
  },
  {
    "id": "272100827",
    "name": "デイサービスセンター柏風園",
    "kana": "デイサービスセンターハクフウエン",
    "address": "青森県つがる市木造筒木坂鳥谷沢１８－９",
    "lat": 40.9141031,
    "lng": 140.3463304,
    "tel": "0173-49-5012",
    "url": "https://hakufuen.com/",
    "pref": "青森県",
    "city": "つがる市",
    "category": "day_service",
    "serviceType": "通所介護",
    "capacity": 20,
    "openDays": [
      "平日",
      "土曜日",
      "祝日"
    ],
    "openDaysNote": ""
  },
  {
    "id": "270900129",
    "name": "デイサービスセンター武田の湯",
    "kana": "デイサービスセンタータケダノユ",
    "address": "青森県つがる市稲垣町繁田袋井１０９－１９デイサービスセンター武田の湯 デイサービスセンター武田の湯",
    "lat": 40.9375877,
    "lng": 140.4133541,
    "tel": "0173-69-1919",
    "url": "",
    "pref": "青森県",
    "city": "つがる市",
    "category": "day_service",
    "serviceType": "通所介護",
    "capacity": 0,
    "openDays": [
      "平日",
      "土曜日",
      "祝日"
    ],
    "openDaysNote": ""
  },
  {
    "id": "272100892",
    "name": "デイサービスセンター和み",
    "kana": "デイサービスセンターナゴミ",
    "address": "青森県つがる市木造藤田44-5",
    "lat": 40.8167521,
    "lng": 140.3846475,
    "tel": "0173-49-2250",
    "url": "http://www.takushinkai.or.jp/",
    "pref": "青森県",
    "city": "つがる市",
    "category": "day_service",
    "serviceType": "通所介護",
    "capacity": 8,
    "openDays": [
      "平日",
      "土曜日",
      "祝日"
    ],
    "openDaysNote": ""
  },
  {
    "id": "270800402",
    "name": "いりえデイサービスセンター",
    "kana": "イリエデイサービスセンター",
    "address": "青森県むつ市大字田名部字宮ノ後198-1",
    "lat": 41.3263411,
    "lng": 141.2052385,
    "tel": "0175-33-8220",
    "url": "",
    "pref": "青森県",
    "city": "むつ市",
    "category": "day_service",
    "serviceType": "通所介護",
    "capacity": 0,
    "openDays": [
      "平日",
      "土曜日",
      "祝日"
    ],
    "openDaysNote": "特になし"
  },
  {
    "id": "272600370",
    "name": "せせらぎデイサービスセンター",
    "kana": "セセラギデイサービスセンター",
    "address": "青森県むつ市川内町獅子畑128番地4",
    "lat": 41.2569248,
    "lng": 140.9855035,
    "tel": "0175-42-3103",
    "url": "www.yachiyo-kai.com",
    "pref": "青森県",
    "city": "むつ市",
    "category": "day_service",
    "serviceType": "通所介護",
    "capacity": 0,
    "openDays": [
      "平日",
      "土曜日",
      "日曜日",
      "祝日"
    ],
    "openDaysNote": ""
  },
  {
    "id": "270800782",
    "name": "デイサービスアイランド",
    "kana": "デイサービスアイランド",
    "address": "青森県むつ市大湊新町9番43号サービス付き高齢者向け住宅アイランド サービス付き高齢者向け住宅アイランド",
    "lat": 41.279555,
    "lng": 141.1618555,
    "tel": "0175-31-0890",
    "url": "https://chitsukaoshima0106.wixsite.com/mysite-1",
    "pref": "青森県",
    "city": "むつ市",
    "category": "day_service",
    "serviceType": "通所介護",
    "capacity": 0,
    "openDays": [
      "平日",
      "土曜日",
      "祝日"
    ],
    "openDaysNote": ""
  },
  {
    "id": "270800097",
    "name": "デイセンター桜木",
    "kana": "デイセンターサクラギ",
    "address": "青森県むつ市中央二丁目23-1",
    "lat": 41.2905918626258,
    "lng": 141.184890727896,
    "tel": "0175-29-1225",
    "url": "http://www.sakuragikai.or.jp/",
    "pref": "青森県",
    "city": "むつ市",
    "category": "day_service",
    "serviceType": "通所介護",
    "capacity": 0,
    "openDays": [
      "平日",
      "土曜日",
      "祝日"
    ],
    "openDaysNote": ""
  },
  {
    "id": "270800261",
    "name": "にこにこハウス大曲　にこにこデイサービス",
    "kana": "ニコニコハウスオオマガリ　ニコニコデイサービス",
    "address": "青森県むつ市大曲３丁目３－１０",
    "lat": 41.2566058,
    "lng": 141.227369,
    "tel": "0175-33-3360",
    "url": "http://www.muranaka.or.jp/aisatu.html",
    "pref": "青森県",
    "city": "むつ市",
    "category": "day_service",
    "serviceType": "通所介護",
    "capacity": 0,
    "openDays": [
      "平日",
      "土曜日",
      "祝日"
    ],
    "openDaysNote": "１２月３１日～１月３日を除く"
  },
  {
    "id": "270800113",
    "name": "ニチイケアセンターむつ",
    "kana": "ニチイケアセンタームツ",
    "address": "青森県むつ市関根字北関根205-4",
    "lat": 41.3596038,
    "lng": 141.2057511,
    "tel": "0175-45-1531",
    "url": "http://nichiigakkan.co.jp",
    "pref": "青森県",
    "city": "むつ市",
    "category": "day_service",
    "serviceType": "通所介護",
    "capacity": 27,
    "openDays": [
      "平日",
      "土曜日",
      "日曜日",
      "祝日"
    ],
    "openDaysNote": ""
  },
  {
    "id": "272600149",
    "name": "ふれあいかんデイサービスセンター",
    "kana": "フレアイカンデイサービスセンター",
    "address": "青森県むつ市大畑町観音堂25-1むつ市総合福祉センターふれあいかん むつ市総合福祉センターふれあいかん",
    "lat": 41.399487,
    "lng": 141.1573197,
    "tel": "0175-34-4477",
    "url": "http://sankeikai-aomori.com/",
    "pref": "青森県",
    "city": "むつ市",
    "category": "day_service",
    "serviceType": "通所介護",
    "capacity": null,
    "openDays": [
      "平日",
      "土曜日",
      "祝日"
    ],
    "openDaysNote": ""
  },
  {
    "id": "270800329",
    "name": "むらなかデイサービス",
    "kana": "ムラナカデイサービス",
    "address": "青森県むつ市新町１０－４６",
    "lat": 41.2907631,
    "lng": 141.205727,
    "tel": "0175-23-5595",
    "url": "http://www.muranaka.or.jp/aisatu.html",
    "pref": "青森県",
    "city": "むつ市",
    "category": "day_service",
    "serviceType": "通所介護",
    "capacity": 0,
    "openDays": [
      "平日",
      "土曜日",
      "祝日"
    ],
    "openDaysNote": "１２月３１日～１月３日を除く"
  },
  {
    "id": "270800055",
    "name": "恵光園デイサービスセンター",
    "kana": "ケイコウエンデイサービスセンター",
    "address": "青森県むつ市大字奥内字11番3号",
    "lat": 41.1930587,
    "lng": 141.2800569,
    "tel": "0175-26-3227",
    "url": "",
    "pref": "青森県",
    "city": "むつ市",
    "category": "day_service",
    "serviceType": "通所介護",
    "capacity": 0,
    "openDays": [
      "平日",
      "祝日"
    ],
    "openDaysNote": ""
  },
  {
    "id": "270800501",
    "name": "夢・プラザデイサービスセンター",
    "kana": "ユメ・プラザデイサービスセンター",
    "address": "大畑町中島60-1",
    "lat": 41.4066089,
    "lng": 141.1654689,
    "tel": "0175-34-6251",
    "url": "yumeplaza@bloom.ocn.ne.jp",
    "pref": "青森県",
    "city": "むつ市",
    "category": "day_service",
    "serviceType": "通所介護",
    "capacity": 180,
    "openDays": [
      "平日",
      "土曜日",
      "祝日"
    ],
    "openDaysNote": ""
  },
  {
    "id": "272500422",
    "name": "デイサービスセンターなのはな苑",
    "kana": "デイサービスセンターナノハナエン",
    "address": "青森県上北郡横浜町字三保野５４番地",
    "lat": 41.081033,
    "lng": 141.2522348,
    "tel": "0175-78-3407",
    "url": "http://kiboukai.com/",
    "pref": "青森県",
    "city": "横浜町",
    "category": "day_service",
    "serviceType": "通所介護",
    "capacity": 0,
    "openDays": [
      "平日",
      "土曜日",
      "祝日"
    ],
    "openDaysNote": "行事開催時は、日曜営業の時もあり。"
  },
  {
    "id": "272701673",
    "name": "デイサービスセンター　かっこうの森",
    "kana": "デイサービスセンター　カッコウノモリ",
    "address": "蒼前西3丁目9-153",
    "lat": 40.4766012,
    "lng": 141.5749521,
    "tel": "0178-80-1515",
    "url": "e-mail:kakkou@mist.ocn.ne.jp",
    "pref": "青森県",
    "city": "階上町",
    "category": "day_service",
    "serviceType": "通所介護",
    "capacity": 0,
    "openDays": [
      "平日",
      "土曜日",
      "祝日"
    ],
    "openDaysNote": "営業日12月31日から1月3日までを除く"
  },
  {
    "id": "272701400",
    "name": "デイサービスセンターありがとう",
    "kana": "デイサービスセンターアリガトウ",
    "address": "青森県三戸郡階上町大字赤保内字柳沢１５番地３４３",
    "lat": 40.4479616,
    "lng": 141.6094915,
    "tel": "0178-38-0088",
    "url": "http://www.arigato-hasikami.com/",
    "pref": "青森県",
    "city": "階上町",
    "category": "day_service",
    "serviceType": "通所介護",
    "capacity": 22,
    "openDays": [
      "平日",
      "土曜日",
      "祝日"
    ],
    "openDaysNote": ""
  },
  {
    "id": "272701061",
    "name": "デイサービスセンター臥牛苑",
    "kana": "デイサービスセンターガギュウエン",
    "address": "三戸郡階上町大字角柄折字餅粟久保4-1",
    "lat": 40.4392704,
    "lng": 141.5744536,
    "tel": "0178-88-1461",
    "url": "http://sousyou.jimdo.com",
    "pref": "青森県",
    "city": "階上町",
    "category": "day_service",
    "serviceType": "通所介護",
    "capacity": 0,
    "openDays": [
      "平日",
      "土曜日",
      "祝日"
    ],
    "openDaysNote": "上記の定休日以外はお盆やお彼岸等も営業しております。"
  },
  {
    "id": "272700311",
    "name": "見心園居宅サービスセンター（デイサービス）",
    "kana": "ケンシンエンキョタクサービスセンター",
    "address": "青森県三戸郡階上町大字赤保内字道仏道添21-12",
    "lat": 40.4463621,
    "lng": 141.623057,
    "tel": "0178-88-3355",
    "url": "https://www.kenshinen.jp",
    "pref": "青森県",
    "city": "階上町",
    "category": "day_service",
    "serviceType": "通所介護",
    "capacity": 0,
    "openDays": [
      "平日",
      "日曜日",
      "祝日"
    ],
    "openDaysNote": "なし"
  },
  {
    "id": "272000316",
    "name": "外ヶ浜町三厩高齢者生活福祉センター寿楽園",
    "kana": "ソトガハママチミンマヤコウレイシャセイカツフクシセンタージュラクエン",
    "address": "青森県東津軽郡外ヶ浜町字三厩新町７番地",
    "lat": 41.1948023,
    "lng": 140.4353132,
    "tel": "0174-37-2280",
    "url": "http://www.ajisaikai.or.jp",
    "pref": "青森県",
    "city": "外ヶ浜町",
    "category": "day_service",
    "serviceType": "通所介護",
    "capacity": 0,
    "openDays": [
      "平日",
      "祝日"
    ],
    "openDaysNote": "特になし"
  },
  {
    "id": "272000399",
    "name": "外ヶ浜町社協蟹田通所介護事業所",
    "kana": "ソトガハママチシャキョウカニタツウショカイゴジギョウショ",
    "address": "青森県東津軽郡外ヶ浜町字下蟹田43-2外ヶ浜町総合福祉センター「などわーる」 外ヶ浜町総合福祉センター「などわーる」",
    "lat": 41.0428707,
    "lng": 140.6395146,
    "tel": "0174-31-1082",
    "url": "http://www.s-syakyo.jp",
    "pref": "青森県",
    "city": "外ヶ浜町",
    "category": "day_service",
    "serviceType": "通所介護",
    "capacity": 0,
    "openDays": [
      "平日",
      "土曜日",
      "祝日"
    ],
    "openDaysNote": ""
  },
  {
    "id": "272701152",
    "name": "さくら荘デイサービスセンター",
    "kana": "サクラソウデイサービスセンター",
    "address": "青森県三戸郡五戸町大字倉石中市字新山平６４-１",
    "lat": 40.5112313,
    "lng": 141.2617199,
    "tel": "0178-77-2160",
    "url": "https://www.sakuraso.or.jp",
    "pref": "青森県",
    "city": "五戸町",
    "category": "day_service",
    "serviceType": "通所介護",
    "capacity": 0,
    "openDays": [
      "平日",
      "土曜日",
      "祝日"
    ],
    "openDaysNote": "居宅サービス計画書にその必要性が明記されている場合や突発的な事情のある時は、上記時間帯前後の利用にも対応いたします。"
  },
  {
    "id": "272700436",
    "name": "デイサービスセンター　コスモス",
    "kana": "デイサービスセンター　コスモス",
    "address": "五戸町上市川字中坪37",
    "lat": 40.5517791,
    "lng": 141.3824579,
    "tel": "0178-61-5000",
    "url": "http://www.family-wf.jp",
    "pref": "青森県",
    "city": "五戸町",
    "category": "day_service",
    "serviceType": "通所介護",
    "capacity": 0,
    "openDays": [
      "平日",
      "祝日"
    ],
    "openDaysNote": ""
  },
  {
    "id": "272700428",
    "name": "デイサービスセンター　ハピネス五戸",
    "kana": "デイサービスセンターハピネスゴノヘ",
    "address": "青森県三戸郡五戸町字姥堤34番地1",
    "lat": 40.5314937,
    "lng": 141.2945721,
    "tel": "0178-62-6760",
    "url": "http://familly-wf.jp/",
    "pref": "青森県",
    "city": "五戸町",
    "category": "day_service",
    "serviceType": "通所介護",
    "capacity": 0,
    "openDays": [
      "平日",
      "土曜日",
      "祝日"
    ],
    "openDaysNote": ""
  },
  {
    "id": "272701160",
    "name": "デイサービスセンターにこにこプラザ五戸",
    "kana": "デイサービスセンターニコニコプラザゴノヘ",
    "address": "青森県三戸郡五戸町字川原町西裏5-80",
    "lat": 40.5238724,
    "lng": 141.2936946,
    "tel": "0178-61-1060",
    "url": "https://www.sg-gonohe.com/",
    "pref": "青森県",
    "city": "五戸町",
    "category": "day_service",
    "serviceType": "通所介護",
    "capacity": 35,
    "openDays": [
      "平日",
      "土曜日",
      "日曜日",
      "祝日"
    ],
    "openDaysNote": ""
  },
  {
    "id": "272700444",
    "name": "デイサービスセンタールピナス",
    "kana": "デイサービスセンタールピナス",
    "address": "青森県三戸郡五戸町大字浅水字下平35番2",
    "lat": 40.4786059,
    "lng": 141.3050116,
    "tel": "0178-61-8311",
    "url": "lupinus@family-wf.jp",
    "pref": "青森県",
    "city": "五戸町",
    "category": "day_service",
    "serviceType": "通所介護",
    "capacity": 0,
    "openDays": [
      "平日",
      "祝日"
    ],
    "openDaysNote": "水曜日・木曜日は総合事業(緩和型)の為介護保険の営業は、月・火・金となります。"
  },
  {
    "id": "270501232",
    "name": "ESCORTデイ　ここあす",
    "kana": "エスコートデイ　ココアス",
    "address": "青森県五所川原市栄町26番地",
    "lat": 40.7992032,
    "lng": 140.4456288,
    "tel": "0173-23-0784",
    "url": "",
    "pref": "青森県",
    "city": "五所川原市",
    "category": "day_service",
    "serviceType": "通所介護",
    "capacity": 0,
    "openDays": [
      "平日",
      "土曜日",
      "祝日"
    ],
    "openDaysNote": ""
  },
  {
    "id": "270500200",
    "name": "あかねデイサービスセンター",
    "kana": "アカネデイサービスセンター",
    "address": "五所川原市大字前田野目字長峰112-2",
    "lat": 40.7598739,
    "lng": 140.5564803,
    "tel": "0173-29-3532",
    "url": "wakanakai.com",
    "pref": "青森県",
    "city": "五所川原市",
    "category": "day_service",
    "serviceType": "通所介護",
    "capacity": 0,
    "openDays": [
      "平日",
      "祝日"
    ],
    "openDaysNote": ""
  },
  {
    "id": "270500374",
    "name": "あけぼのデイサービスセンター",
    "kana": "アケボノデイサービスセンター",
    "address": "青森県五所川原市長橋字橋元75-1",
    "lat": 40.8172824278037,
    "lng": 140.446621193202,
    "tel": "0173-26-7108",
    "url": "",
    "pref": "青森県",
    "city": "五所川原市",
    "category": "day_service",
    "serviceType": "通所介護",
    "capacity": 0,
    "openDays": [
      "平日",
      "土曜日",
      "祝日"
    ],
    "openDaysNote": ""
  },
  {
    "id": "270500325",
    "name": "うめたデイサービスセンター",
    "kana": "ウメタデイサービスセンター",
    "address": "青森県五所川原市大字梅田字福浦４０５－２",
    "lat": 40.7753565,
    "lng": 140.4722029,
    "tel": "0173-27-1122",
    "url": "http://www4.plala.or.jp/umeta/index.html",
    "pref": "青森県",
    "city": "五所川原市",
    "category": "day_service",
    "serviceType": "通所介護",
    "capacity": 0,
    "openDays": [
      "平日",
      "土曜日",
      "祝日"
    ],
    "openDaysNote": ""
  },
  {
    "id": "270500168",
    "name": "さかえデイサービスセンター",
    "kana": "サカエデイサービスセンター",
    "address": "五所川原市大字水野尾字懸樋222-3",
    "lat": 40.790294,
    "lng": 140.481571,
    "tel": "0173-38-3000",
    "url": "",
    "pref": "青森県",
    "city": "五所川原市",
    "category": "day_service",
    "serviceType": "通所介護",
    "capacity": 0,
    "openDays": [
      "平日",
      "土曜日",
      "祝日"
    ],
    "openDaysNote": "延長サービス可"
  },
  {
    "id": "270500788",
    "name": "さかもとデイサービスセンター",
    "kana": "サカモトデイサービスセンター",
    "address": "青森県五所川原市字鎌谷町519番地5",
    "lat": 40.807858,
    "lng": 140.4539999,
    "tel": "0173-23-3266",
    "url": "http://www.sakamoto-sekkotu-in.com/",
    "pref": "青森県",
    "city": "五所川原市",
    "category": "day_service",
    "serviceType": "通所介護",
    "capacity": 0,
    "openDays": [
      "平日",
      "土曜日",
      "祝日"
    ],
    "openDaysNote": ""
  },
  {
    "id": "270500937",
    "name": "デイサービス　ライラック",
    "kana": "デイサービス　ライラック",
    "address": "青森県五所川原市福山実吉72-3",
    "lat": 40.7786898,
    "lng": 140.4973395,
    "tel": "0173-29-2015",
    "url": "http://lilac-group.jp",
    "pref": "青森県",
    "city": "五所川原市",
    "category": "day_service",
    "serviceType": "通所介護",
    "capacity": 14,
    "openDays": [
      "平日",
      "土曜日",
      "日曜日",
      "祝日"
    ],
    "openDaysNote": ""
  },
  {
    "id": "270501398",
    "name": "デイサービス　浅井",
    "kana": "デイサービス　アサイ",
    "address": "浅井字色吉163番地1",
    "lat": 40.7786543,
    "lng": 140.488905,
    "tel": "0173-23-5481",
    "url": "asaidey@takushinkai.or.jp",
    "pref": "青森県",
    "city": "五所川原市",
    "category": "day_service",
    "serviceType": "通所介護",
    "capacity": null,
    "openDays": [
      "平日",
      "土曜日"
    ],
    "openDaysNote": ""
  },
  {
    "id": "270501075",
    "name": "デイサービスセンター　ラポール",
    "kana": "デイサービスセンター　ラポール",
    "address": "青森県五所川原市大字水野尾字懸樋218番地1",
    "lat": 40.7907980671682,
    "lng": 140.482710678574,
    "tel": "0173-26-7231",
    "url": "rapport@takushinkai.or.jp",
    "pref": "青森県",
    "city": "五所川原市",
    "category": "day_service",
    "serviceType": "通所介護",
    "capacity": null,
    "openDays": [
      "平日",
      "土曜日",
      "祝日"
    ],
    "openDaysNote": ""
  },
  {
    "id": "270500754",
    "name": "デイサービスセンターあしの園",
    "kana": "デイサービスセンターアシノエン",
    "address": "青森県五所川原市金木町川倉七夕野84-442",
    "lat": 40.9214493476084,
    "lng": 140.456754480426,
    "tel": "0713-54-1003",
    "url": "http：//asino-kai.com",
    "pref": "青森県",
    "city": "五所川原市",
    "category": "day_service",
    "serviceType": "通所介護",
    "capacity": 35,
    "openDays": [
      "平日",
      "土曜日",
      "祝日"
    ],
    "openDaysNote": "特になし"
  },
  {
    "id": "270500747",
    "name": "デイサービスセンターひかり",
    "kana": "デイサービスセンターヒカリ",
    "address": "青森県五所川原市大字姥萢字桜木255",
    "lat": 40.790044976496,
    "lng": 140.441504913422,
    "tel": "0173-38-4567",
    "url": "",
    "pref": "青森県",
    "city": "五所川原市",
    "category": "day_service",
    "serviceType": "通所介護",
    "capacity": 25,
    "openDays": [
      "平日",
      "土曜日",
      "祝日"
    ],
    "openDaysNote": ""
  },
  {
    "id": "270500911",
    "name": "デイサービスセンターまごころ",
    "kana": "デイサービスセンターマゴコロ",
    "address": "青森県五所川原市大字唐笠柳字藤巻478－17",
    "lat": 40.7938793,
    "lng": 140.4627972,
    "tel": "0173-34-6682",
    "url": "",
    "pref": "青森県",
    "city": "五所川原市",
    "category": "day_service",
    "serviceType": "通所介護",
    "capacity": 30,
    "openDays": [
      "平日",
      "土曜日",
      "祝日"
    ],
    "openDaysNote": "他に事業所の都合にて休業する場合があります。（改行）他に事業所の都合にて営業する場合があります。"
  },
  {
    "id": "270501299",
    "name": "デイサービスセンターラサンブレ御所",
    "kana": "デイサービスセンターラサンブレゴショ",
    "address": "青森県五所川原市栄町７０番地４",
    "lat": 40.7997349955133,
    "lng": 140.446721706741,
    "tel": "0173-23-0215",
    "url": "www.seizanso.or.jp/",
    "pref": "青森県",
    "city": "五所川原市",
    "category": "day_service",
    "serviceType": "通所介護",
    "capacity": null,
    "openDays": [
      "平日",
      "土曜日",
      "祝日"
    ],
    "openDaysNote": ""
  },
  {
    "id": "270501034",
    "name": "デイサービスのざと",
    "kana": "デイサービスノザト",
    "address": "青森県五所川原市大字神山字牧原56-1",
    "lat": 40.7847451,
    "lng": 140.5164126,
    "tel": "0173-26-6303",
    "url": "http://www.masuda-hp.net",
    "pref": "青森県",
    "city": "五所川原市",
    "category": "day_service",
    "serviceType": "通所介護",
    "capacity": 40,
    "openDays": [
      "平日",
      "祝日"
    ],
    "openDaysNote": "・サービス利用に当たっての留意事項（改行）・送迎時間変更の連絡（改行）・体調不良等によるサービスの中止　・変更　（改行）・食事のキャンセル"
  },
  {
    "id": "270501281",
    "name": "五所川原リハビリ倶楽部",
    "kana": "ゴショガワラリハビリクラブ",
    "address": "青森県五所川原市大字水野尾字懸樋222-1",
    "lat": 40.7895035,
    "lng": 140.4822045,
    "tel": "0173-38-3521",
    "url": "http://www.takushinkai.or.jp",
    "pref": "青森県",
    "city": "五所川原市",
    "category": "day_service",
    "serviceType": "通所介護",
    "capacity": 0,
    "openDays": [
      "平日",
      "土曜日",
      "祝日"
    ],
    "openDaysNote": ""
  },
  {
    "id": "272400052",
    "name": "五所川原市社会福祉協議会金木支所",
    "kana": "ゴショガワラシシャカイフクシキョウギカイカナギシショ",
    "address": "五所川原市金木町川倉七夕野426番地11",
    "lat": 40.918457,
    "lng": 140.4629727,
    "tel": "0173-54-1051",
    "url": "",
    "pref": "青森県",
    "city": "五所川原市",
    "category": "day_service",
    "serviceType": "通所介護",
    "capacity": 18,
    "openDays": [
      "平日",
      "土曜日",
      "祝日"
    ],
    "openDaysNote": ""
  },
  {
    "id": "270500226",
    "name": "五所川原市地域福祉センター",
    "kana": "ゴショガワラシチイキフクシセンター",
    "address": "青森県五所川原市字幾世森２４番地３８",
    "lat": 40.8204396,
    "lng": 140.4473583,
    "tel": "0173-33-0702",
    "url": "http://gccsw.net/sisetu/sisetuindex.html",
    "pref": "青森県",
    "city": "五所川原市",
    "category": "day_service",
    "serviceType": "通所介護",
    "capacity": 40,
    "openDays": [
      "平日",
      "土曜日",
      "祝日"
    ],
    "openDaysNote": "日曜日はサービスを提供していません。祝日は提供しています。"
  },
  {
    "id": "270500697",
    "name": "市浦生活支援ハウス",
    "kana": "シウラセイカツシエンハウス",
    "address": "青森県五所川原市相内３２１番地",
    "lat": 41.0545529,
    "lng": 140.346835,
    "tel": "0173-62-3285",
    "url": "http://gccsw.net/",
    "pref": "青森県",
    "city": "五所川原市",
    "category": "day_service",
    "serviceType": "通所介護",
    "capacity": 0,
    "openDays": [
      "平日",
      "祝日"
    ],
    "openDaysNote": "特にございません"
  },
  {
    "id": "270500655",
    "name": "社会福祉法人　白生会　デイサービス　けやき",
    "kana": "シャカイフクシホウジン　ハクセイカイ　デイサービス　ケヤキ",
    "address": "青森県五所川原市字敷島町１番地３",
    "lat": 40.8121683,
    "lng": 140.4455005,
    "tel": "0173-38-3380",
    "url": "http://welfare.hakuseikai.com/",
    "pref": "青森県",
    "city": "五所川原市",
    "category": "day_service",
    "serviceType": "通所介護",
    "capacity": 35,
    "openDays": [
      "平日",
      "土曜日",
      "祝日"
    ],
    "openDaysNote": "特になし"
  },
  {
    "id": "270500101",
    "name": "祥光苑デイサービスセンター",
    "kana": "ショウコウエンデイサービスセンター",
    "address": "青森県五所川原市大字沖飯詰字帯刀３５７番地１",
    "lat": 40.8357852,
    "lng": 140.4525741,
    "tel": "0173-36-3300",
    "url": "//www.shokoen.or.jp",
    "pref": "青森県",
    "city": "五所川原市",
    "category": "day_service",
    "serviceType": "通所介護",
    "capacity": 0,
    "openDays": [
      "平日",
      "土曜日",
      "祝日"
    ],
    "openDaysNote": "なし"
  },
  {
    "id": "270500127",
    "name": "青山荘デイサービスセンター",
    "kana": "セイザンソウデイサービスセンター",
    "address": "青森県五所川原市大字金山字盛山４２－８",
    "lat": 40.8090506,
    "lng": 140.4992244,
    "tel": "0173-35-5225",
    "url": "http://www.seizanso.or.jp/",
    "pref": "青森県",
    "city": "五所川原市",
    "category": "day_service",
    "serviceType": "通所介護",
    "capacity": 0,
    "openDays": [
      "平日",
      "土曜日",
      "日曜日",
      "祝日"
    ],
    "openDaysNote": "延長利用に関しましては、要相談。"
  },
  {
    "id": "270501018",
    "name": "通所介護事業所　さかもと広場",
    "kana": "ツウショカイゴジギョウショ　サカモトヒロバ",
    "address": "青森県五所川原市大字広田字榊森51-7",
    "lat": 40.7844641433361,
    "lng": 140.467304246558,
    "tel": "0173-34-0168",
    "url": "http://sakamoto-sekkotu-in.com/",
    "pref": "青森県",
    "city": "五所川原市",
    "category": "day_service",
    "serviceType": "通所介護",
    "capacity": 30,
    "openDays": [
      "平日",
      "土曜日",
      "祝日"
    ],
    "openDaysNote": ""
  },
  {
    "id": "272400557",
    "name": "有限会社　ケアサービスたんぽぽ",
    "kana": "ユウゲンガイシャ　ケアサービスタンポポ",
    "address": "青森県五所川原市金木町芦野２００－２６７",
    "lat": 40.9116827,
    "lng": 140.4560179,
    "tel": "0173-54-2770",
    "url": "",
    "pref": "青森県",
    "city": "五所川原市",
    "category": "day_service",
    "serviceType": "通所介護",
    "capacity": 0,
    "openDays": [
      "平日",
      "祝日"
    ],
    "openDaysNote": ""
  },
  {
    "id": "270204142",
    "name": "SAKURAS　REHACARESERVICE",
    "kana": "サクラス　リハケアサービス",
    "address": "青森県弘前市大字大町一丁目３番地１",
    "lat": 40.5973992,
    "lng": 140.4830576,
    "tel": "0172-88-5764",
    "url": "https://rehacare.try-sakuras.com/",
    "pref": "青森県",
    "city": "弘前市",
    "category": "day_service",
    "serviceType": "通所介護",
    "capacity": 10,
    "openDays": [
      "平日",
      "土曜日",
      "祝日"
    ],
    "openDaysNote": ""
  },
  {
    "id": "270203862",
    "name": "アスモ",
    "kana": "アスモ",
    "address": "青森県弘前市大字中野３丁目２番地１２",
    "lat": 40.5775356,
    "lng": 140.4760231,
    "tel": "0172-55-6828",
    "url": "",
    "pref": "青森県",
    "city": "弘前市",
    "category": "day_service",
    "serviceType": "通所介護",
    "capacity": 0,
    "openDays": [
      "平日",
      "土曜日",
      "祝日"
    ],
    "openDaysNote": ""
  },
  {
    "id": "270200546",
    "name": "おうよう園デイサービスセンター",
    "kana": "オウヨウエンデイサービスセンター",
    "address": "青森県弘前市城南5丁目13-15",
    "lat": 40.5786687,
    "lng": 140.461085,
    "tel": "0172-38-0400",
    "url": "http://www.oyoen.com",
    "pref": "青森県",
    "city": "弘前市",
    "category": "day_service",
    "serviceType": "通所介護",
    "capacity": 34,
    "openDays": [
      "平日",
      "土曜日",
      "日曜日",
      "祝日"
    ],
    "openDaysNote": "なし"
  },
  {
    "id": "270202211",
    "name": "ケアパートナー弘前",
    "kana": "ケアパートナーヒロサキ",
    "address": "弘前市向外瀬三丁目2番地4",
    "lat": 40.6217502,
    "lng": 140.4756177,
    "tel": "0172-31-3393",
    "url": "http://www.care-partner",
    "pref": "青森県",
    "city": "弘前市",
    "category": "day_service",
    "serviceType": "通所介護",
    "capacity": 65,
    "openDays": [
      "平日",
      "土曜日",
      "祝日"
    ],
    "openDaysNote": "１２月３０日～１月３日（年末年始休暇）"
  },
  {
    "id": "270202971",
    "name": "ことぶき荘温泉デイサービスセンター",
    "kana": "コトブキソウオンセンデイサービスセンター",
    "address": "青森県弘前市大字福村字早稲田27番地1介護予防拠点センター「100才館」 介護予防拠点センター「100才館」",
    "lat": 40.6067449,
    "lng": 140.5153175,
    "tel": "0172-27-0330",
    "url": "http://www.ichiyoukai.jp/",
    "pref": "青森県",
    "city": "弘前市",
    "category": "day_service",
    "serviceType": "通所介護",
    "capacity": 30,
    "openDays": [
      "平日",
      "土曜日",
      "祝日"
    ],
    "openDaysNote": "定休日、営業時間外においても施設関連事業所は営業している為、電話対応できる体制を整えております。"
  },
  {
    "id": "270200504",
    "name": "サンアップルホームデイサービスセンター",
    "kana": "サンアップルホームデイサービスセンター",
    "address": "青森県弘前市大字高杉字尾上山３５０番地",
    "lat": 40.6724358,
    "lng": 140.3815809,
    "tel": "0172-97-2131",
    "url": "http://www.sunapplehome.jp/454.html",
    "pref": "青森県",
    "city": "弘前市",
    "category": "day_service",
    "serviceType": "通所介護",
    "capacity": 49,
    "openDays": [
      "平日",
      "土曜日",
      "日曜日",
      "祝日"
    ],
    "openDaysNote": "なし"
  },
  {
    "id": "270203219",
    "name": "ツクイ弘前大町",
    "kana": "ツクイヒロサキオオマチ",
    "address": "大字大町1丁目17-20",
    "lat": 40.5950009081737,
    "lng": 140.483305206766,
    "tel": "0172-31-2150",
    "url": "https://www/tsukui.net/",
    "pref": "青森県",
    "city": "弘前市",
    "category": "day_service",
    "serviceType": "通所介護",
    "capacity": 60,
    "openDays": [
      "平日",
      "土曜日",
      "日曜日",
      "祝日"
    ],
    "openDaysNote": ""
  },
  {
    "id": "270201007",
    "name": "デイサービスセンター　サン・フラワー",
    "kana": "デイサービスセンター　サンフラワー",
    "address": "青森県弘前市大字向外瀬字豊田３２０番１",
    "lat": 40.6307521,
    "lng": 140.481664,
    "tel": "0172-34-3434",
    "url": "http://www5.ocn.ne.jp/~kouyukai/index.htm",
    "pref": "青森県",
    "city": "弘前市",
    "category": "day_service",
    "serviceType": "通所介護",
    "capacity": 0,
    "openDays": [
      "平日",
      "土曜日",
      "祝日"
    ],
    "openDaysNote": "なし"
  },
  {
    "id": "270204126",
    "name": "デイサービスセンター　サンタハウス弘前公園",
    "kana": "デイサービスセンター　サンタハウスヒロサキコウエン",
    "address": "青森県弘前市大字元大工町26番地1",
    "lat": 40.6024033,
    "lng": 140.4667004,
    "tel": "0172-88-7707",
    "url": "https://www.houtokukai.org/",
    "pref": "青森県",
    "city": "弘前市",
    "category": "day_service",
    "serviceType": "通所介護",
    "capacity": 40,
    "openDays": [
      "平日",
      "祝日"
    ],
    "openDaysNote": ""
  },
  {
    "id": "270201304",
    "name": "デイサービスセンター　ふれあい温泉",
    "kana": "デイサービスセンター　フレアイオンセン",
    "address": "弘前市旭ヶ丘2-6-4",
    "lat": 40.5800157,
    "lng": 140.458674,
    "tel": "0172-31-8008",
    "url": "http://www.kouaikai.com",
    "pref": "青森県",
    "city": "弘前市",
    "category": "day_service",
    "serviceType": "通所介護",
    "capacity": 120,
    "openDays": [
      "平日",
      "土曜日",
      "日曜日",
      "祝日"
    ],
    "openDaysNote": ""
  },
  {
    "id": "270203524",
    "name": "デイサービスセンター　まるめろ",
    "kana": "デイサービスセンター　マルメロ",
    "address": "青森県弘前市大字東長町38番地3",
    "lat": 40.6064331051988,
    "lng": 140.472605237434,
    "tel": "0172-39-6202",
    "url": "https://senchikai.jp/",
    "pref": "青森県",
    "city": "弘前市",
    "category": "day_service",
    "serviceType": "通所介護",
    "capacity": 30,
    "openDays": [
      "平日",
      "土曜日",
      "祝日"
    ],
    "openDaysNote": ""
  },
  {
    "id": "270200710",
    "name": "デイサービスセンター　三和園",
    "kana": "デイサービスセンター　サンワエン",
    "address": "青森県弘前市大字三和字上恋塚19番地",
    "lat": 40.7256951,
    "lng": 140.4047713,
    "tel": "0172-93-3960",
    "url": "http://www.sanwakai.info/",
    "pref": "青森県",
    "city": "弘前市",
    "category": "day_service",
    "serviceType": "通所介護",
    "capacity": 0,
    "openDays": [
      "平日",
      "土曜日",
      "祝日"
    ],
    "openDaysNote": "定休日でも営業時間内であれば、電話対応できる体制をとっております。"
  },
  {
    "id": "270202005",
    "name": "デイサービスセンターわかば",
    "kana": "デイサービスセンターワカバ",
    "address": "青森県弘前市大字若葉二丁目15番地",
    "lat": 40.5838595,
    "lng": 140.4500021,
    "tel": "0172-37-1165",
    "url": "http://www.sunapplehome.jp/",
    "pref": "青森県",
    "city": "弘前市",
    "category": "day_service",
    "serviceType": "通所介護",
    "capacity": 25,
    "openDays": [
      "平日",
      "土曜日",
      "日曜日",
      "祝日"
    ],
    "openDaysNote": "なし"
  },
  {
    "id": "270204050",
    "name": "デイサービスセンター岩木",
    "kana": "デイサービスセンターイワキ",
    "address": "青森県弘前市大字駒越字村元123番地1",
    "lat": 40.6093035,
    "lng": 140.4439509,
    "tel": "0172‐34‐6720",
    "url": "",
    "pref": "青森県",
    "city": "弘前市",
    "category": "day_service",
    "serviceType": "通所介護",
    "capacity": 0,
    "openDays": [
      "平日",
      "土曜日",
      "祝日"
    ],
    "openDaysNote": ""
  },
  {
    "id": "270203821",
    "name": "デイサービスセンター倶楽部フレディ",
    "kana": "デイサービスセンタークラブフレディ",
    "address": "青森県弘前市大字百石町47-1フレディ弘前 フレディ弘前",
    "lat": 40.6051632,
    "lng": 140.4734855,
    "tel": "0172-31-3132",
    "url": "fredy2015.com/index.html",
    "pref": "青森県",
    "city": "弘前市",
    "category": "day_service",
    "serviceType": "通所介護",
    "capacity": 40,
    "openDays": [
      "平日",
      "土曜日",
      "祝日"
    ],
    "openDaysNote": ""
  },
  {
    "id": "270202336",
    "name": "デイサービスセンター高舘山温泉",
    "kana": "デイサービスセンタータカダテヤマオンセン",
    "address": "青森県弘前市大字五大字従弟沢1030-50",
    "lat": 40.6073956,
    "lng": 140.3807034,
    "tel": "0172-83-2100",
    "url": "http://zenseikai.com/",
    "pref": "青森県",
    "city": "弘前市",
    "category": "day_service",
    "serviceType": "通所介護",
    "capacity": 0,
    "openDays": [
      "平日",
      "土曜日",
      "祝日"
    ],
    "openDaysNote": ""
  },
  {
    "id": "270201908",
    "name": "デイサービスセンター城西",
    "kana": "デイサービスセンター　ジョウセイ",
    "address": "青森県弘前市大字茜町２丁目１－１８",
    "lat": 40.6005269,
    "lng": 140.4461735,
    "tel": "0172-31-4544",
    "url": "http://sanwakai.info/",
    "pref": "青森県",
    "city": "弘前市",
    "category": "day_service",
    "serviceType": "通所介護",
    "capacity": 0,
    "openDays": [
      "平日",
      "土曜日",
      "日曜日",
      "祝日"
    ],
    "openDaysNote": ""
  },
  {
    "id": "270200322",
    "name": "デイサービスセンター白寿園",
    "kana": "デイサービスセンターハクジュエン",
    "address": "青森県弘前市大字大沢字稲元1番地13",
    "lat": 40.5581117,
    "lng": 140.5163201,
    "tel": "0172-55-9511",
    "url": "http://www.hakujuen-t.or.jp/",
    "pref": "青森県",
    "city": "弘前市",
    "category": "day_service",
    "serviceType": "通所介護",
    "capacity": 0,
    "openDays": [
      "平日",
      "祝日"
    ],
    "openDaysNote": "特になし"
  },
  {
    "id": "270203391",
    "name": "デイサービスファミリー",
    "kana": "デイサービスファミリー",
    "address": "青森県弘前市大字撫牛子二丁目8番地4",
    "lat": 40.6226303510336,
    "lng": 140.494671283079,
    "tel": "0172-55-9783",
    "url": "",
    "pref": "青森県",
    "city": "弘前市",
    "category": "day_service",
    "serviceType": "通所介護",
    "capacity": 0,
    "openDays": [
      "平日",
      "祝日"
    ],
    "openDaysNote": ""
  },
  {
    "id": "270203052",
    "name": "ビーンズリハビリセンターひろさき",
    "kana": "ビーンズリハビリセンターヒロサキ",
    "address": "青森県弘前市高田三丁目1-10",
    "lat": 40.597404,
    "lng": 140.5072383,
    "tel": "0172-29-3545",
    "url": "http://hirosaki.rehabilitation.pro/",
    "pref": "青森県",
    "city": "弘前市",
    "category": "day_service",
    "serviceType": "通所介護",
    "capacity": 25,
    "openDays": [
      "平日",
      "土曜日",
      "祝日"
    ],
    "openDaysNote": ""
  },
  {
    "id": "270202302",
    "name": "ひなた",
    "kana": "ヒナタ",
    "address": "青森県弘前市神田一丁目6番地3デイサービスセンターひなた デイサービスセンターひなた",
    "lat": 40.6181399,
    "lng": 140.4877339,
    "tel": "0172-39-1061",
    "url": "http://www.jhd.ne.jp/",
    "pref": "青森県",
    "city": "弘前市",
    "category": "day_service",
    "serviceType": "通所介護",
    "capacity": 0,
    "openDays": [
      "平日",
      "土曜日",
      "日曜日",
      "祝日"
    ],
    "openDaysNote": ""
  },
  {
    "id": "270203680",
    "name": "ひなたスマイルパーク",
    "kana": "ヒナタスマイルパーク",
    "address": "青森県弘前市青山２丁目１－２",
    "lat": 40.6215393,
    "lng": 140.4811646,
    "tel": "0172-88-6502",
    "url": "https://hinata.everyday.jp/sisetsu/spark/",
    "pref": "青森県",
    "city": "弘前市",
    "category": "day_service",
    "serviceType": "通所介護",
    "capacity": 0,
    "openDays": [
      "平日",
      "土曜日",
      "日曜日",
      "祝日"
    ],
    "openDaysNote": ""
  },
  {
    "id": "270201346",
    "name": "ほりこし介護福祉センター　ほりこしデイサービスセンター",
    "kana": "ホリコシカイゴフクシセンター　ホリコシデイサービスセンター",
    "address": "青森県弘前市大字堀越字柳田1-16",
    "lat": 40.5699523,
    "lng": 140.5235186,
    "tel": "0172-29-5220",
    "url": "ＵＲＬ：ｈｔｔｐ：//ｒｙｏｋｕｆｕ．ｏｒ．ｊｐ/",
    "pref": "青森県",
    "city": "弘前市",
    "category": "day_service",
    "serviceType": "通所介護",
    "capacity": 5,
    "openDays": [
      "平日",
      "祝日"
    ],
    "openDaysNote": ""
  },
  {
    "id": "270200637",
    "name": "弘前静光園デイサービスセンター",
    "kana": "ヒロサキセイコウエンデイサービスセンター",
    "address": "青森県弘前市大字豊原一丁目１番地２",
    "lat": 40.5843961620116,
    "lng": 140.476164775533,
    "tel": "0172-37-8500",
    "url": "https://dayseikouen.wixsite.com/seikouenday",
    "pref": "青森県",
    "city": "弘前市",
    "category": "day_service",
    "serviceType": "通所介護",
    "capacity": 32,
    "openDays": [
      "平日",
      "土曜日",
      "祝日"
    ],
    "openDaysNote": "特になし"
  },
  {
    "id": "270200058",
    "name": "弘前特別養護老人ホーム介護保険サービス事業センター",
    "kana": "ヒロサキトクベツヨウゴロウジンホームカイゴホケンサービスジギョウセンター",
    "address": "青森県弘前市自由ヶ丘５－５－３",
    "lat": 40.5822121,
    "lng": 140.4367335,
    "tel": "0172-88-1432",
    "url": "http://tsugarufujimikai.com",
    "pref": "青森県",
    "city": "弘前市",
    "category": "day_service",
    "serviceType": "通所介護",
    "capacity": 20,
    "openDays": [
      "平日",
      "土曜日",
      "祝日"
    ],
    "openDaysNote": "上記以外の時間帯及び日曜日は電話受付（２４時間対応）となります。その場合は、弘前特別養護老人ホーム（８８－１４３１）へご連絡ください。"
  },
  {
    "id": "270201619",
    "name": "指定通所介護事業所　ウエルパーク",
    "kana": "シテイツウショカイゴジギョウショ　ウエルパーク",
    "address": "青森県弘前市福田字巻屋4-1",
    "lat": 40.5941437558533,
    "lng": 140.511739772422,
    "tel": "0172-29-4141",
    "url": "",
    "pref": "青森県",
    "city": "弘前市",
    "category": "day_service",
    "serviceType": "通所介護",
    "capacity": 30,
    "openDays": [
      "平日",
      "土曜日",
      "祝日"
    ],
    "openDaysNote": ""
  },
  {
    "id": "270200363",
    "name": "城東デイサービスセンター",
    "kana": "ジョウトウデイサービスセンター",
    "address": "弘前市大字城東中央四丁目１番地４",
    "lat": 40.6002561,
    "lng": 140.4957173,
    "tel": "0172-28-0054",
    "url": "",
    "pref": "青森県",
    "city": "弘前市",
    "category": "day_service",
    "serviceType": "通所介護",
    "capacity": 0,
    "openDays": [
      "平日",
      "土曜日"
    ],
    "openDaysNote": ""
  },
  {
    "id": "270200454",
    "name": "草薙ディサービスセンター",
    "kana": "クサナギディサービスセンター",
    "address": "弘前市大字大森字勝山278番18",
    "lat": 40.7160728,
    "lng": 140.3658216,
    "tel": "0172-93-2222",
    "url": "http://www.geocities.jp/toukoukai_hirosaki/index.html",
    "pref": "青森県",
    "city": "弘前市",
    "category": "day_service",
    "serviceType": "通所介護",
    "capacity": 0,
    "openDays": [
      "平日",
      "土曜日",
      "祝日"
    ],
    "openDaysNote": ""
  },
  {
    "id": "272200148",
    "name": "長慶苑デイサービスセンター",
    "kana": "チョウケイエンデイサービスセンター",
    "address": "青森県弘前市大字坂市字亀田53番地3",
    "lat": 40.5737391,
    "lng": 140.3799227,
    "tel": "0172-84-1010",
    "url": "http://www.choukeien.or.jp",
    "pref": "青森県",
    "city": "弘前市",
    "category": "day_service",
    "serviceType": "通所介護",
    "capacity": null,
    "openDays": [
      "平日",
      "土曜日",
      "祝日"
    ],
    "openDaysNote": "長慶苑夏まつり通常営業は休み（改行）台風等で災害が予想される時は、臨時休業する場合あり（事前連絡する）"
  },
  {
    "id": "272200338",
    "name": "通所介護事業　ピノカーサ岩木",
    "kana": "ツウショカイゴジギョウ　ピノカーサイワキ",
    "address": "青森県弘前市大字五代字田屋敷240-1",
    "lat": 40.6111831,
    "lng": 140.420155,
    "tel": "0172-82-1515",
    "url": "https://www.gakuyokai.jp/",
    "pref": "青森県",
    "city": "弘前市",
    "category": "day_service",
    "serviceType": "通所介護",
    "capacity": 0,
    "openDays": [
      "平日",
      "土曜日",
      "日曜日",
      "祝日"
    ],
    "openDaysNote": "1月1日を除く毎日営業"
  },
  {
    "id": "272200098",
    "name": "通所介護事業　松山荘ケアステーション",
    "kana": "ツウショカイゴジギョウ　ショウザンソウケアステーション",
    "address": "青森県弘前市大字賀田二丁目4番地2",
    "lat": 40.6152391522965,
    "lng": 140.419181069952,
    "tel": "0172-82-3330",
    "url": "https://gakuyokai.jp/",
    "pref": "青森県",
    "city": "弘前市",
    "category": "day_service",
    "serviceType": "通所介護",
    "capacity": 35,
    "openDays": [
      "平日",
      "土曜日",
      "日曜日",
      "祝日"
    ],
    "openDaysNote": ""
  },
  {
    "id": "270200298",
    "name": "通所介護事業パインハウス弘前",
    "kana": "ツウショカイゴジギョウパインハウスヒロサキ",
    "address": "青森県弘前市大字国吉字坂本138-10",
    "lat": 40.5954108,
    "lng": 140.3539814,
    "tel": "0172-86-3800",
    "url": "http://www.gakuyokai.jp",
    "pref": "青森県",
    "city": "弘前市",
    "category": "day_service",
    "serviceType": "通所介護",
    "capacity": 35,
    "openDays": [
      "平日",
      "土曜日",
      "日曜日",
      "祝日"
    ],
    "openDaysNote": ""
  },
  {
    "id": "270201486",
    "name": "通所介護事業パインハウス城南",
    "kana": "ツウショカイゴジギョウパインハウスジョウナン",
    "address": "青森県弘前市大字原ヶ平字山元118番地1",
    "lat": 40.5704558,
    "lng": 140.4711127,
    "tel": "0172-88-1764",
    "url": "http://www.gakuyokai.jp",
    "pref": "青森県",
    "city": "弘前市",
    "category": "day_service",
    "serviceType": "通所介護",
    "capacity": null,
    "openDays": [
      "平日",
      "土曜日",
      "日曜日",
      "祝日"
    ],
    "openDaysNote": "1月1日を除く毎日営業"
  },
  {
    "id": "270200934",
    "name": "特別養護老人ホーム弘前園通所介護事業所",
    "kana": "トクベツヨウゴロウジンホームヒロサキエンツウショカイゴジギョウショ",
    "address": "青森県弘前市大字鬼沢字山ノ越249番地",
    "lat": 40.6967034,
    "lng": 140.4048475,
    "tel": "0172-99-5050",
    "url": "",
    "pref": "青森県",
    "city": "弘前市",
    "category": "day_service",
    "serviceType": "通所介護",
    "capacity": null,
    "openDays": [
      "平日",
      "土曜日",
      "祝日"
    ],
    "openDaysNote": "上記以外の時間及び、日曜日は電話にて２４時間対応させて頂きます。その際は、特別養護老人ホーム弘前園（０１７２－９９－５０５０）迄ご連絡下さい。"
  },
  {
    "id": "270201080",
    "name": "富田町デイサービスセンター",
    "kana": "トミタマチデイサービスセンター",
    "address": "弘前市大字冨田163番地",
    "lat": 40.5859875,
    "lng": 140.4765698,
    "tel": "0172-32-1165",
    "url": "http://www2.ocn.ne.jp/~care.s/",
    "pref": "青森県",
    "city": "弘前市",
    "category": "day_service",
    "serviceType": "通所介護",
    "capacity": 600,
    "openDays": [
      "平日",
      "土曜日",
      "日曜日",
      "祝日"
    ],
    "openDaysNote": ""
  },
  {
    "id": "270400104",
    "name": "すみれデイサービスセンター",
    "kana": "スミレデイサービスセンター",
    "address": "黒石市馬場尻南61-2",
    "lat": 40.6748472,
    "lng": 140.5867922,
    "tel": "0172-53-4837",
    "url": "http://sumire-kai.jp/",
    "pref": "青森県",
    "city": "黒石市",
    "category": "day_service",
    "serviceType": "通所介護",
    "capacity": null,
    "openDays": [
      "平日",
      "土曜日",
      "祝日"
    ],
    "openDaysNote": ""
  },
  {
    "id": "270400120",
    "name": "すみれデイサービスセンター花巻",
    "kana": "スミレデイサービスセンターハナマキ",
    "address": "青森県黒石市大字花巻字村北13-3",
    "lat": 40.6231191,
    "lng": 140.6453264,
    "tel": "0172-59-5100",
    "url": "http://社会福祉法人すみれ会.com/",
    "pref": "青森県",
    "city": "黒石市",
    "category": "day_service",
    "serviceType": "通所介護",
    "capacity": 0,
    "openDays": [
      "平日",
      "土曜日",
      "祝日"
    ],
    "openDaysNote": ""
  },
  {
    "id": "270401037",
    "name": "デイサービス「ゆうじょう」",
    "kana": "デイサービス「ユウジョウ」",
    "address": "青森県黒石市大字東野添字長坂道北152番地7",
    "lat": 40.646479,
    "lng": 140.614797,
    "tel": "0172-59-2771",
    "url": "",
    "pref": "青森県",
    "city": "黒石市",
    "category": "day_service",
    "serviceType": "通所介護",
    "capacity": 0,
    "openDays": [
      "平日",
      "土曜日",
      "祝日"
    ],
    "openDaysNote": ""
  },
  {
    "id": "270400427",
    "name": "デイサービスセンターあさがお",
    "kana": "デイサービスセンターアサガオ",
    "address": "青森県黒石市緑町4丁目１８０－２",
    "lat": 40.6534443,
    "lng": 140.5900092,
    "tel": "0172-53-8451",
    "url": "http://www.miyukikai.jpindexphp?id=3",
    "pref": "青森県",
    "city": "黒石市",
    "category": "day_service",
    "serviceType": "通所介護",
    "capacity": 0,
    "openDays": [
      "平日",
      "土曜日",
      "祝日"
    ],
    "openDaysNote": "8月13日、12月31日は午前営業"
  },
  {
    "id": "270400096",
    "name": "黒石デイサービスセンター",
    "kana": "クロイシデイサービスセンター",
    "address": "青森県黒石市大字赤坂字池田136番地",
    "lat": 40.6660795,
    "lng": 140.6100237,
    "tel": "0172-53-4477",
    "url": "http://www.roujinhome-kuroishi.or.jp",
    "pref": "青森県",
    "city": "黒石市",
    "category": "day_service",
    "serviceType": "通所介護",
    "capacity": 0,
    "openDays": [
      "平日",
      "土曜日",
      "祝日"
    ],
    "openDaysNote": ""
  },
  {
    "id": "272701418",
    "name": "デイサービスセンター桜",
    "kana": "デイサービスセンターサクラ",
    "address": "青森県三戸郡三戸町川守田字大明地１８－４",
    "lat": 40.3838503,
    "lng": 141.2603782,
    "tel": "0179-23-5132",
    "url": "",
    "pref": "青森県",
    "city": "三戸町",
    "category": "day_service",
    "serviceType": "通所介護",
    "capacity": null,
    "openDays": [
      "平日",
      "土曜日",
      "日曜日",
      "祝日"
    ],
    "openDaysNote": ""
  },
  {
    "id": "272700329",
    "name": "デイサービスセンター鶴亀",
    "kana": "デイサービスセンターツルカメ",
    "address": "青森県三戸郡三戸町大字斗内字和田60-1",
    "lat": 40.3625767,
    "lng": 141.2204878,
    "tel": "0179-23-4113",
    "url": "http://www.keishinkai.com/tsurukamesou",
    "pref": "青森県",
    "city": "三戸町",
    "category": "day_service",
    "serviceType": "通所介護",
    "capacity": 0,
    "openDays": [
      "平日",
      "土曜日",
      "祝日"
    ],
    "openDaysNote": ""
  },
  {
    "id": "270700214",
    "name": "デイサービスセンターにこにこプラザみさわ",
    "kana": "デイサービスセンターニコニコプラザミサワ",
    "address": "青森県三沢市松園町3丁目2番1号",
    "lat": 40.6764592,
    "lng": 141.3656046,
    "tel": "0176-51-8844",
    "url": "https://www.jinsenkai.com/",
    "pref": "青森県",
    "city": "三沢市",
    "category": "day_service",
    "serviceType": "通所介護",
    "capacity": 50,
    "openDays": [
      "平日",
      "土曜日",
      "日曜日",
      "祝日"
    ],
    "openDaysNote": ""
  },
  {
    "id": "270700081",
    "name": "ニチイケアセンター三沢",
    "kana": "ニチイケアセンターミサワ",
    "address": "青森県三沢市大町2丁目8-3",
    "lat": 40.6780284,
    "lng": 141.3624853,
    "tel": "0176-50-1715",
    "url": "http:/www.nichiigakkan.co.jp",
    "pref": "青森県",
    "city": "三沢市",
    "category": "day_service",
    "serviceType": "通所介護",
    "capacity": 0,
    "openDays": [
      "平日",
      "土曜日",
      "日曜日",
      "祝日"
    ],
    "openDaysNote": ""
  },
  {
    "id": "270700115",
    "name": "ひばり苑デイサービスセンター",
    "kana": "ヒバリエンデイサービスセンター",
    "address": "青森県三沢市六川目六丁目２８番地６号",
    "lat": 40.7723223,
    "lng": 141.4020749,
    "tel": "0176-59-3601",
    "url": "Joukoukai@joukoukai.or.jp",
    "pref": "青森県",
    "city": "三沢市",
    "category": "day_service",
    "serviceType": "通所介護",
    "capacity": 40,
    "openDays": [
      "平日",
      "土曜日",
      "日曜日",
      "祝日"
    ],
    "openDaysNote": ""
  },
  {
    "id": "270700628",
    "name": "ほっと荘デイサービス",
    "kana": "ホットソウデイサービス",
    "address": "青森県三沢市緑町１丁目２－１０",
    "lat": 40.6866776962093,
    "lng": 141.372210526984,
    "tel": "176574747",
    "url": "",
    "pref": "青森県",
    "city": "三沢市",
    "category": "day_service",
    "serviceType": "通所介護",
    "capacity": 30,
    "openDays": [
      "平日",
      "土曜日"
    ],
    "openDaysNote": ""
  },
  {
    "id": "270700727",
    "name": "合同会社All-gooo　歩行・リハビリ特化型デイサービス　アルクGYM",
    "kana": "ゴウドウガイシャ　アルグー　ホコウ・リハビリトッカガタ　アルクジム",
    "address": "松園町2丁目19-9",
    "lat": 40.6757311,
    "lng": 141.3687836,
    "tel": "0176-66-7638",
    "url": "",
    "pref": "青森県",
    "city": "三沢市",
    "category": "day_service",
    "serviceType": "通所介護",
    "capacity": null,
    "openDays": [
      "平日",
      "土曜日",
      "祝日"
    ],
    "openDaysNote": ""
  },
  {
    "id": "272501024",
    "name": "城南デイサービスセンター",
    "kana": "ジョウナンデイサービスセンター",
    "address": "青森県上北郡七戸町字太田野19番地4城南福祉プラザ 城南福祉プラザ",
    "lat": 40.6911975,
    "lng": 141.1627731,
    "tel": "0176-62-5268",
    "url": "",
    "pref": "青森県",
    "city": "七戸町",
    "category": "day_service",
    "serviceType": "通所介護",
    "capacity": 0,
    "openDays": [
      "平日",
      "土曜日",
      "日曜日",
      "祝日"
    ],
    "openDaysNote": "なし"
  },
  {
    "id": "272500281",
    "name": "天寿園デイサービスセンター",
    "kana": "テンジュエンデイサービスセンター",
    "address": "青森県上北郡七戸町字舟場向川久保308番地",
    "lat": 40.7579735,
    "lng": 141.1794073,
    "tel": "0176-68-4888",
    "url": "https://tenjuen.net/",
    "pref": "青森県",
    "city": "七戸町",
    "category": "day_service",
    "serviceType": "通所介護",
    "capacity": 0,
    "openDays": [
      "平日",
      "土曜日",
      "日曜日",
      "祝日"
    ],
    "openDaysNote": "特になし"
  },
  {
    "id": "272500372",
    "name": "美土里荘デイサービスセンター梓",
    "kana": "ミドリソウデイサービスセンターアズサ",
    "address": "青森県上北郡七戸町字寒水70-17",
    "lat": 40.7169923,
    "lng": 141.1748461,
    "tel": "0176-62-2766",
    "url": "http://midorikai-gr.or.jp",
    "pref": "青森県",
    "city": "七戸町",
    "category": "day_service",
    "serviceType": "通所介護",
    "capacity": 0,
    "openDays": [
      "平日",
      "土曜日",
      "日曜日",
      "祝日"
    ],
    "openDaysNote": "電話等により、２４時間連絡が可能な体制とする。（時間外は併設の特別養護老人ホーム職員が対応）"
  },
  {
    "id": "270600760",
    "name": "ＪＡ十和田おいらせデイサービスセンター「きずな」",
    "kana": "ジェイエイトワダオイラセデイサービスセンター「キズナ」",
    "address": "十和田市東一番町6-5",
    "lat": 40.6202859,
    "lng": 141.2145897,
    "tel": "0176-21-5335",
    "url": "http://care-net.biz/02/kizuna/",
    "pref": "青森県",
    "city": "十和田市",
    "category": "day_service",
    "serviceType": "通所介護",
    "capacity": 35,
    "openDays": [
      "平日",
      "土曜日",
      "祝日"
    ],
    "openDaysNote": "サテライト事業所は土曜日休業になります。"
  },
  {
    "id": "270601354",
    "name": "コンパスウォーク十和田中央",
    "kana": "コンパスウォークトワダチュウオウ",
    "address": "青森県十和田市稲生町17-11",
    "lat": 40.6131268,
    "lng": 141.2145343,
    "tel": "0176-58-7174",
    "url": "",
    "pref": "青森県",
    "city": "十和田市",
    "category": "day_service",
    "serviceType": "通所介護",
    "capacity": 20,
    "openDays": [
      "平日",
      "祝日"
    ],
    "openDaysNote": "年末年始（12/31～1/3）お盆（8/13～8/15）はお休み（改行）祝日は営業"
  },
  {
    "id": "270601305",
    "name": "デイサービスセンター　まちなか",
    "kana": "デイサービスセンター　マチナカ",
    "address": "青森県十和田市東三番町1-6生きがいプラザ　1階 生きがいプラザ　1階",
    "lat": 40.6159867,
    "lng": 141.2149972,
    "tel": "0176-51-0144",
    "url": "http://ikigai.towada.net",
    "pref": "青森県",
    "city": "十和田市",
    "category": "day_service",
    "serviceType": "通所介護",
    "capacity": 40,
    "openDays": [
      "平日",
      "土曜日"
    ],
    "openDaysNote": ""
  },
  {
    "id": "272501057",
    "name": "デイサービスセンターおいらせ",
    "kana": "デイサービスセンターオイラセ",
    "address": "青森県十和田市大字奥瀬字中平155",
    "lat": 40.5853188,
    "lng": 141.107279,
    "tel": "0176-72-2400",
    "url": "http://www.sg-kumiai.or.jp/oirase/index.htm",
    "pref": "青森県",
    "city": "十和田市",
    "category": "day_service",
    "serviceType": "通所介護",
    "capacity": 10,
    "openDays": [
      "平日",
      "土曜日",
      "日曜日",
      "祝日"
    ],
    "openDaysNote": "３６５日、年中無休で営業しております。ご相談により時間外対応も受付けしております。"
  },
  {
    "id": "270600463",
    "name": "デイサービスセンターきゃんぱす",
    "kana": "デイサービスセンターキャンパス",
    "address": "十和田市大字相坂字小林76-5",
    "lat": 40.5986967,
    "lng": 141.2307304,
    "tel": "0176-20-1855",
    "url": "http：//www.towadakokai.jp",
    "pref": "青森県",
    "city": "十和田市",
    "category": "day_service",
    "serviceType": "通所介護",
    "capacity": 30,
    "openDays": [
      "平日",
      "土曜日",
      "祝日"
    ],
    "openDaysNote": ""
  },
  {
    "id": "270600042",
    "name": "デイサービスセンターなかよし荘",
    "kana": "デイサービスセンターナカヨシソウ",
    "address": "青森県十和田市大字深持字南平３１２－４",
    "lat": 40.6145301,
    "lng": 141.1729109,
    "tel": "0176-20-1622",
    "url": "http://www.nakayoshi-sou.or.jp",
    "pref": "青森県",
    "city": "十和田市",
    "category": "day_service",
    "serviceType": "通所介護",
    "capacity": 0,
    "openDays": [
      "平日",
      "土曜日",
      "祝日"
    ],
    "openDaysNote": "特になし"
  },
  {
    "id": "270601115",
    "name": "デイサービスセンターよつ葉",
    "kana": "デイサービスセンターヨツバ",
    "address": "青森県十和田市東十一番町２３番３５号",
    "lat": 40.6246843540589,
    "lng": 141.222920441139,
    "tel": "0176-58-5757",
    "url": "http://www.yotuba4968.com",
    "pref": "青森県",
    "city": "十和田市",
    "category": "day_service",
    "serviceType": "通所介護",
    "capacity": 20,
    "openDays": [
      "平日",
      "土曜日",
      "祝日"
    ],
    "openDaysNote": "年末年始の休業日については別途に取り決め告知いたします。"
  },
  {
    "id": "270600984",
    "name": "デイサービスセンター八甲荘",
    "kana": "デイサービスセンターハッコウソウ",
    "address": "大字相坂字高清水７８－２３２",
    "lat": 40.6331999,
    "lng": 141.2611377,
    "tel": "0176-58-5560",
    "url": "http://hakkoudakai.jp",
    "pref": "青森県",
    "city": "十和田市",
    "category": "day_service",
    "serviceType": "通所介護",
    "capacity": 0,
    "openDays": [
      "平日",
      "土曜日",
      "祝日"
    ],
    "openDaysNote": ""
  },
  {
    "id": "270601032",
    "name": "トコスデイサービス",
    "kana": "トコスデイサービス",
    "address": "青森県十和田市一本木沢１丁目１１－２２",
    "lat": 40.632096132885,
    "lng": 141.228876600664,
    "tel": "0176-51-3778",
    "url": "http://tocos.main.jp/",
    "pref": "青森県",
    "city": "十和田市",
    "category": "day_service",
    "serviceType": "通所介護",
    "capacity": 0,
    "openDays": [
      "平日",
      "土曜日",
      "祝日"
    ],
    "openDaysNote": ""
  },
  {
    "id": "270600109",
    "name": "十和田デイサービスセンター",
    "kana": "トワダデイサービスセンター",
    "address": "青森県十和田市西二十三番町30-36",
    "lat": 40.6076282,
    "lng": 141.1979226,
    "tel": "0176-21-1122",
    "url": "http://www.fukushinosato.com",
    "pref": "青森県",
    "city": "十和田市",
    "category": "day_service",
    "serviceType": "通所介護",
    "capacity": 0,
    "openDays": [
      "平日",
      "土曜日",
      "日曜日",
      "祝日"
    ],
    "openDaysNote": "年中無休で営業しております。"
  },
  {
    "id": "270600877",
    "name": "青い森ケアうるおい",
    "kana": "アオイモリケアウルオイ",
    "address": "青森県十和田市大字三本木字西小稲206-2",
    "lat": 40.5959299,
    "lng": 141.2103687,
    "tel": "0176-25-7788",
    "url": "http://aoimori-care.com/",
    "pref": "青森県",
    "city": "十和田市",
    "category": "day_service",
    "serviceType": "通所介護",
    "capacity": 20,
    "openDays": [
      "平日",
      "祝日"
    ],
    "openDaysNote": ""
  },
  {
    "id": "272701103",
    "name": "医療法人仁泉会　デイサービスセンターしんごう",
    "kana": "イリョウホウジンジンセンカイ　デイサービスセンターシンゴウ",
    "address": "青森県三戸郡新郷村大字戸来字金ヶ沢坂ノ下17-1",
    "lat": 40.4681339,
    "lng": 141.1762606,
    "tel": "0178-61-7570",
    "url": "",
    "pref": "青森県",
    "city": "新郷村",
    "category": "day_service",
    "serviceType": "通所介護",
    "capacity": 40,
    "openDays": [
      "平日",
      "祝日"
    ],
    "openDaysNote": ""
  },
  {
    "id": "270104037",
    "name": "アースサポート新青森",
    "kana": "アースサポートシンアオモリ",
    "address": "青森県青森市大字三内字沢部258番13号",
    "lat": 40.8166186,
    "lng": 140.6973766,
    "tel": "017-766-8411",
    "url": "http://www.earthsupport.co.jp",
    "pref": "青森県",
    "city": "青森市",
    "category": "day_service",
    "serviceType": "通所介護",
    "capacity": 0,
    "openDays": [
      "平日",
      "土曜日",
      "祝日"
    ],
    "openDaysNote": "12月30日～1月3日を除く"
  },
  {
    "id": "270105604",
    "name": "アースサポート青森",
    "kana": "アースサポートアオモリ",
    "address": "青森県青森市松森1丁目10番地1号",
    "lat": 40.8206198,
    "lng": 140.7701685,
    "tel": "017-742-4900",
    "url": "http://www.earthsupport.co.jp",
    "pref": "青森県",
    "city": "青森市",
    "category": "day_service",
    "serviceType": "通所介護",
    "capacity": 0,
    "openDays": [
      "平日",
      "土曜日",
      "祝日"
    ],
    "openDaysNote": "12月30日～1月3日を除く"
  },
  {
    "id": "270105117",
    "name": "いきいきクラブ勝田",
    "kana": "イキイキクラブカッタ",
    "address": "青森市勝田１丁目２０‐１ハッピータウン２F ハッピータウン２F",
    "lat": 40.8188446290732,
    "lng": 140.754435002963,
    "tel": "017-763-5685",
    "url": "https://iki-iki.co.jp/",
    "pref": "青森県",
    "city": "青森市",
    "category": "day_service",
    "serviceType": "通所介護",
    "capacity": 0,
    "openDays": [
      "平日",
      "祝日"
    ],
    "openDaysNote": "祝日は営業しております。"
  },
  {
    "id": "270106552",
    "name": "ヴィアスデイサービスセンター",
    "kana": "ヴィアス　デイサービスセンター",
    "address": "青森県青森市西大野1丁目3-7",
    "lat": 40.8038315,
    "lng": 140.7260376,
    "tel": "017-762-7832",
    "url": "",
    "pref": "青森県",
    "city": "青森市",
    "category": "day_service",
    "serviceType": "通所介護",
    "capacity": 30,
    "openDays": [
      "平日",
      "土曜日",
      "祝日"
    ],
    "openDaysNote": "年末年始12/30～1/3のうち、3日間休業あり。"
  },
  {
    "id": "270104573",
    "name": "ツクイ青森金沢",
    "kana": "ツクイアオモリカナザワ",
    "address": "青森県青森市金沢三丁目１２－２７",
    "lat": 36.5560589,
    "lng": 136.6375232,
    "tel": "017-721-5808",
    "url": "http://www.tsukui.net",
    "pref": "青森県",
    "city": "青森市",
    "category": "day_service",
    "serviceType": "通所介護",
    "capacity": 0,
    "openDays": [
      "平日",
      "土曜日",
      "日曜日",
      "祝日"
    ],
    "openDaysNote": ""
  },
  {
    "id": "270105125",
    "name": "ツクイ青森石江",
    "kana": "ツクイ　アオモリイシエ",
    "address": "大字石江４丁目９番地９",
    "lat": 40.8313330356837,
    "lng": 140.6903847,
    "tel": "017-763-3744",
    "url": "http:/www.tsukui.net",
    "pref": "青森県",
    "city": "青森市",
    "category": "day_service",
    "serviceType": "通所介護",
    "capacity": 60,
    "openDays": [
      "平日",
      "土曜日",
      "日曜日",
      "祝日"
    ],
    "openDaysNote": "365日年中無休"
  },
  {
    "id": "270102031",
    "name": "ツクイ青森浜館",
    "kana": "ツクイアオモリハマダテ",
    "address": "青森市浜館2丁目13-7",
    "lat": 40.8078521,
    "lng": 140.7857841,
    "tel": "017-765-3880",
    "url": "http://www.tsukui.net/",
    "pref": "青森県",
    "city": "青森市",
    "category": "day_service",
    "serviceType": "通所介護",
    "capacity": 0,
    "openDays": [
      "平日",
      "土曜日",
      "日曜日",
      "祝日"
    ],
    "openDaysNote": ""
  },
  {
    "id": "270105547",
    "name": "デイサービスきたえる～む青森松原",
    "kana": "デイサービスキタエル～ムアオモリマツバラ",
    "address": "青森県青森市松原2丁目11-13１F １F",
    "lat": 40.8187558,
    "lng": 140.7639207,
    "tel": "017-757-8531",
    "url": "",
    "pref": "青森県",
    "city": "青森市",
    "category": "day_service",
    "serviceType": "通所介護",
    "capacity": 220,
    "openDays": [
      "平日",
      "土曜日"
    ],
    "openDaysNote": ""
  },
  {
    "id": "270103435",
    "name": "デイサービスこころ",
    "kana": "デイサービスココロ",
    "address": "青森県青森市中央１丁目２７番地５号",
    "lat": 40.8219332,
    "lng": 140.7490591,
    "tel": "017-735-1502",
    "url": "http://www.heartcare-service.com/index.html",
    "pref": "青森県",
    "city": "青森市",
    "category": "day_service",
    "serviceType": "通所介護",
    "capacity": 0,
    "openDays": [
      "平日",
      "土曜日"
    ],
    "openDaysNote": ""
  },
  {
    "id": "270103872",
    "name": "デイサービスセンタ―やながわ",
    "kana": "デイサービスセンタ―ヤナガワ",
    "address": "青森県青森市柳川二丁目4番14号",
    "lat": 40.8303652,
    "lng": 140.7287573,
    "tel": "017-752-9585",
    "url": "",
    "pref": "青森県",
    "city": "青森市",
    "category": "day_service",
    "serviceType": "通所介護",
    "capacity": 0,
    "openDays": [
      "平日",
      "祝日"
    ],
    "openDaysNote": ""
  },
  {
    "id": "270100662",
    "name": "デイサービスセンター　あかしや",
    "kana": "デイサービスセンター　アカシヤ",
    "address": "青森市緑1丁目19-10",
    "lat": 40.8092592,
    "lng": 140.7448375,
    "tel": "017-718-3898",
    "url": "https://heigenkai.jp/",
    "pref": "青森県",
    "city": "青森市",
    "category": "day_service",
    "serviceType": "通所介護",
    "capacity": 30,
    "openDays": [
      "平日",
      "土曜日",
      "祝日"
    ],
    "openDaysNote": ""
  },
  {
    "id": "270101439",
    "name": "デイサービスセンター　ポピー",
    "kana": "デイサービスセンター　ポピー",
    "address": "青森県青森市大野片岡12-16",
    "lat": 40.8089666260402,
    "lng": 140.738617102763,
    "tel": "017-718-0404",
    "url": "http://heigenkai.jp/",
    "pref": "青森県",
    "city": "青森市",
    "category": "day_service",
    "serviceType": "通所介護",
    "capacity": 40,
    "openDays": [
      "平日",
      "土曜日",
      "日曜日",
      "祝日"
    ],
    "openDaysNote": ""
  },
  {
    "id": "270100415",
    "name": "デイサービスセンター　寿永",
    "kana": "デイサービスセンター　ジュエイ",
    "address": "青森市大字高田字川瀬１８６－１",
    "lat": 40.768016,
    "lng": 140.7236104,
    "tel": "017-762-4841",
    "url": "http://www17.ocn.ne.jp/~heigen1/",
    "pref": "青森県",
    "city": "青森市",
    "category": "day_service",
    "serviceType": "通所介護",
    "capacity": 40,
    "openDays": [
      "平日",
      "祝日"
    ],
    "openDaysNote": ""
  },
  {
    "id": "270104029",
    "name": "デイサービスセンター　陽だまりの里",
    "kana": "デイサービスセンター　ヒダマリノサト",
    "address": "千刈1-20-15",
    "lat": 40.8255599,
    "lng": 140.7251021,
    "tel": "017-766-7882",
    "url": "http://hidamari-no-sato.com",
    "pref": "青森県",
    "city": "青森市",
    "category": "day_service",
    "serviceType": "通所介護",
    "capacity": 0,
    "openDays": [
      "平日",
      "土曜日",
      "祝日"
    ],
    "openDaysNote": "12/31　1/1休み。"
  },
  {
    "id": "270101124",
    "name": "デイサービスセンター　里見ヶ丘ホーム",
    "kana": "デイサービスセンター　サトミガオカホーム",
    "address": "青森市幸畑五丁目８番３８号",
    "lat": 40.7781576,
    "lng": 140.7815243,
    "tel": "017-728-6877",
    "url": "http://www.satomigaoka.com/",
    "pref": "青森県",
    "city": "青森市",
    "category": "day_service",
    "serviceType": "通所介護",
    "capacity": 30,
    "openDays": [
      "平日",
      "祝日"
    ],
    "openDaysNote": ""
  },
  {
    "id": "270100746",
    "name": "デイサービスセンターおきだて",
    "kana": "デイサービスセンターオキダテ",
    "address": "青森県青森市富田５丁目１９番４５号",
    "lat": 40.8346199,
    "lng": 140.7149774,
    "tel": "017-761-4567",
    "url": "",
    "pref": "青森県",
    "city": "青森市",
    "category": "day_service",
    "serviceType": "通所介護",
    "capacity": 45,
    "openDays": [
      "平日",
      "土曜日",
      "祝日"
    ],
    "openDaysNote": ""
  },
  {
    "id": "270100506",
    "name": "デイサービスセンターきさらぎ",
    "kana": "デイサービスセンターキサラギ",
    "address": "青森県青森市大字安田字稲森１７７－７",
    "lat": 40.8050283,
    "lng": 140.7150035,
    "tel": "017-782-8633",
    "url": "http://www.megumikai.net",
    "pref": "青森県",
    "city": "青森市",
    "category": "day_service",
    "serviceType": "通所介護",
    "capacity": 30,
    "openDays": [
      "平日",
      "土曜日",
      "祝日"
    ],
    "openDaysNote": "平成27年4月1日より、祝日営業を開始しております。（改行）入浴設備（給湯器等）、給食設備等の定期点検、修繕の事由により臨時休業を実施する場合があります。"
  },
  {
    "id": "270106255",
    "name": "デイサービスセンターきずなランド",
    "kana": "デイサービスセンターキズナランド",
    "address": "青森県青森市大野字若宮５７",
    "lat": 40.8043251144105,
    "lng": 140.733247894443,
    "tel": "017-764-0188",
    "url": "https://www.supportcareland.com/",
    "pref": "青森県",
    "city": "青森市",
    "category": "day_service",
    "serviceType": "通所介護",
    "capacity": 0,
    "openDays": [
      "平日",
      "土曜日",
      "祝日"
    ],
    "openDaysNote": ""
  },
  {
    "id": "270100563",
    "name": "デイサービスセンターせんじゅ園",
    "kana": "デイサービスセンターセンジュエン",
    "address": "青森県青森市大字新城字福田７９－２",
    "lat": 40.834894,
    "lng": 140.6826962,
    "tel": "017-787-2411",
    "url": "http://care-net.biz/02/senjyu/",
    "pref": "青森県",
    "city": "青森市",
    "category": "day_service",
    "serviceType": "通所介護",
    "capacity": 0,
    "openDays": [
      "平日",
      "土曜日",
      "祝日"
    ],
    "openDaysNote": "当事業所の通常のサービス提供時間帯は9時30分から15時00分までです。"
  },
  {
    "id": "270100514",
    "name": "デイサービスセンターはづき",
    "kana": "デイサービスセンターハヅキ",
    "address": "青森県青森市大字荒川字藤戸224",
    "lat": 40.7919579,
    "lng": 140.7371748,
    "tel": "017-729-4211",
    "url": "http://www.megumikai.net/hazuki/",
    "pref": "青森県",
    "city": "青森市",
    "category": "day_service",
    "serviceType": "通所介護",
    "capacity": 0,
    "openDays": [
      "平日",
      "土曜日"
    ],
    "openDaysNote": ""
  },
  {
    "id": "270100282",
    "name": "デイサービスセンターふれあい",
    "kana": "デイサービスセンターフレアイ",
    "address": "青森県青森市小柳一丁目１７番１８号",
    "lat": 40.8212730392612,
    "lng": 140.791136427665,
    "tel": "017-765-1533",
    "url": "http://www.meikeikai.or.jp",
    "pref": "青森県",
    "city": "青森市",
    "category": "day_service",
    "serviceType": "通所介護",
    "capacity": 45,
    "openDays": [
      "平日",
      "祝日"
    ],
    "openDaysNote": ""
  },
  {
    "id": "270106503",
    "name": "デイサービスセンターみなみ",
    "kana": "デイサービスセンターミナミ",
    "address": "岡造道一丁目17番8号",
    "lat": 40.8251996,
    "lng": 140.7869799,
    "tel": "017-741-1611",
    "url": "",
    "pref": "青森県",
    "city": "青森市",
    "category": "day_service",
    "serviceType": "通所介護",
    "capacity": 0,
    "openDays": [
      "平日",
      "土曜日",
      "祝日"
    ],
    "openDaysNote": ""
  },
  {
    "id": "270100522",
    "name": "デイサービスセンターやすかた",
    "kana": "デイサービスセンターヤスカタ",
    "address": "青森県青森市安方1丁目11番6号ヘルスサポートやすかた（旧安方クリニック）　3階 ヘルスサポートやすかた（旧安方クリニック）　3階",
    "lat": 40.827688,
    "lng": 140.7397539,
    "tel": "017-732-3915",
    "url": "http://www.aomori-h-coop.com",
    "pref": "青森県",
    "city": "青森市",
    "category": "day_service",
    "serviceType": "通所介護",
    "capacity": 35,
    "openDays": [
      "平日",
      "土曜日",
      "祝日"
    ],
    "openDaysNote": "特になし"
  },
  {
    "id": "270106461",
    "name": "デイサービスセンター雅de華美",
    "kana": "デイサービスセンターミヤビデハナビ",
    "address": "青森県青森市大字原別字下海原３５番地１",
    "lat": 40.8348321,
    "lng": 140.8132091,
    "tel": "017-762-7616",
    "url": "",
    "pref": "青森県",
    "city": "青森市",
    "category": "day_service",
    "serviceType": "通所介護",
    "capacity": 0,
    "openDays": [
      "平日",
      "土曜日",
      "祝日"
    ],
    "openDaysNote": "施設改修、職員研修等にて臨時的に休業する場合有り"
  },
  {
    "id": "270100886",
    "name": "デイサービスセンター外ヶ浜",
    "kana": "デイサービスセンターソトガハマ",
    "address": "青森県青森市大字奥内字宮田568-2",
    "lat": 40.8896115181141,
    "lng": 140.672455513492,
    "tel": "017-754-4060",
    "url": "www.seiyu-kai.lp",
    "pref": "青森県",
    "city": "青森市",
    "category": "day_service",
    "serviceType": "通所介護",
    "capacity": 0,
    "openDays": [
      "平日",
      "祝日"
    ],
    "openDaysNote": "特になし"
  },
  {
    "id": "270100308",
    "name": "デイサービスセンター鶴ヶ丘",
    "kana": "デイサービスセンターツルガオカ",
    "address": "青森県青森市大字新城字平岡746番地",
    "lat": 40.8022334,
    "lng": 140.6650942,
    "tel": "017-788-5897",
    "url": "http://www.keizinkai-ao.jp/day/",
    "pref": "青森県",
    "city": "青森市",
    "category": "day_service",
    "serviceType": "通所介護",
    "capacity": 30,
    "openDays": [
      "平日",
      "土曜日",
      "祝日"
    ],
    "openDaysNote": ""
  },
  {
    "id": "270100621",
    "name": "デイサービスセンター和幸",
    "kana": "デイサービスセンターワコウ",
    "address": "青森県青森市大字矢田字下野尻48-3",
    "lat": 40.8469938,
    "lng": 140.8483237,
    "tel": "017-737-3358",
    "url": "http://www.wakouen.or.jp",
    "pref": "青森県",
    "city": "青森市",
    "category": "day_service",
    "serviceType": "通所介護",
    "capacity": 0,
    "openDays": [
      "平日",
      "土曜日",
      "祝日"
    ],
    "openDaysNote": "特になし"
  },
  {
    "id": "270106545",
    "name": "デイサービス中部",
    "kana": "デイサービスチュウブ",
    "address": "青森県青森市中央3丁目10番2号中部クリニック　2階 中部クリニック　2階",
    "lat": 40.8180149,
    "lng": 140.7461249,
    "tel": "017-722-6526",
    "url": "",
    "pref": "青森県",
    "city": "青森市",
    "category": "day_service",
    "serviceType": "通所介護",
    "capacity": null,
    "openDays": [
      "平日",
      "土曜日",
      "祝日"
    ],
    "openDaysNote": ""
  },
  {
    "id": "270103476",
    "name": "デイサービス虹のひろば",
    "kana": "デイサービスニジノヒロバ",
    "address": "東大野２丁目３－１３",
    "lat": 40.7980324,
    "lng": 140.7417936,
    "tel": "017-762-3008",
    "url": "https://nijiweb.net/",
    "pref": "青森県",
    "city": "青森市",
    "category": "day_service",
    "serviceType": "通所介護",
    "capacity": 45,
    "openDays": [
      "平日",
      "土曜日",
      "祝日"
    ],
    "openDaysNote": ""
  },
  {
    "id": "270100449",
    "name": "ニチイケアセンター青森",
    "kana": "ニチイケアセンターアオモリ",
    "address": "青森県青森市西滝3丁目1-15",
    "lat": 40.8243654,
    "lng": 140.7156694,
    "tel": "017-761-6560",
    "url": "http://www.nichiigakkan.co.jp",
    "pref": "青森県",
    "city": "青森市",
    "category": "day_service",
    "serviceType": "通所介護",
    "capacity": 0,
    "openDays": [
      "平日",
      "土曜日",
      "日曜日",
      "祝日"
    ],
    "openDaysNote": ""
  },
  {
    "id": "270106693",
    "name": "リハビリ特化型短時間デイサービススマイル新城",
    "kana": "リハビリトッカガタタンジカンデイサービススマイルシンジョウ",
    "address": "青森県青森市大字新城平岡258-565",
    "lat": 40.8232274,
    "lng": 140.6824547,
    "tel": "017-751-2006",
    "url": "https://smilegroup.info/dayservice_about",
    "pref": "青森県",
    "city": "青森市",
    "category": "day_service",
    "serviceType": "通所介護",
    "capacity": 0,
    "openDays": [
      "平日",
      "祝日"
    ],
    "openDaysNote": "8/13～8/15、12/31～1/3はお休みとなっております。"
  },
  {
    "id": "270103799",
    "name": "リハビリ特化型短時間デイサービススマイル青柳",
    "kana": "リハビリトッカガタタンジカンデイサービススマイルアオヤギ",
    "address": "青森県青森市青柳1-16-4",
    "lat": 40.8309441151262,
    "lng": 140.759034993288,
    "tel": "017-735-7878",
    "url": "http://caresmile.net/",
    "pref": "青森県",
    "city": "青森市",
    "category": "day_service",
    "serviceType": "通所介護",
    "capacity": 0,
    "openDays": [
      "平日",
      "祝日"
    ],
    "openDaysNote": ""
  },
  {
    "id": "270103443",
    "name": "リハビリ特化型短時間デイサービススマイル問屋町",
    "kana": "リハビリトッカガタタンジカンデイサービススマイルトンヤマチ",
    "address": "青森県青森市問屋町２丁目14-6",
    "lat": 40.788062483459,
    "lng": 140.7581511,
    "tel": "017-762-7171",
    "url": "http://osahima.web.fc2.com/smile_day/index.html",
    "pref": "青森県",
    "city": "青森市",
    "category": "day_service",
    "serviceType": "通所介護",
    "capacity": 0,
    "openDays": [
      "平日",
      "祝日"
    ],
    "openDaysNote": ""
  },
  {
    "id": "270105513",
    "name": "ワイズ・パーク青森センター店",
    "kana": "ワイズ・パークアオモリセンターテン",
    "address": "青森県青森市妙見２丁目1-14",
    "lat": 40.7909947,
    "lng": 140.7614007,
    "tel": "017-752-0778",
    "url": "https://ak-company.jp/",
    "pref": "青森県",
    "city": "青森市",
    "category": "day_service",
    "serviceType": "通所介護",
    "capacity": 29,
    "openDays": [
      "平日",
      "土曜日",
      "祝日"
    ],
    "openDaysNote": "お盆や年末年始など別途会社が定めた日を店休日とする場合があります。（改行）その際は、利用者様と担当ケアマネージャーに対して１ヶ月前に告知いたします"
  },
  {
    "id": "270106214",
    "name": "ワイズ・パーク青森西店",
    "kana": "ワイズ・パークアオモリニシテン",
    "address": "青森県青森市浪館前田１丁目12-28山口ビル1F 山口ビル1F",
    "lat": 40.8143878,
    "lng": 140.72265,
    "tel": "017-718-1545",
    "url": "https://ak-company.jp/",
    "pref": "青森県",
    "city": "青森市",
    "category": "day_service",
    "serviceType": "通所介護",
    "capacity": 25,
    "openDays": [
      "平日",
      "土曜日",
      "祝日"
    ],
    "openDaysNote": "お盆や年末年始など別途会社が定めた日を店休日とする場合があります。（改行）その際は、利用者様と担当ケアマネージャーに対して１ヶ月前に告知いたします"
  },
  {
    "id": "272300187",
    "name": "在宅老人デイサービスセンター悠悠",
    "kana": "ザイタクロウジンデイサービスセンターユウユウ",
    "address": "青森県青森市浪岡大字樽沢字村元３３０番地７",
    "lat": 40.7127337,
    "lng": 140.5583066,
    "tel": "0172-62-8101",
    "url": "http://care-net.biz/02/yuyusou/",
    "pref": "青森県",
    "city": "青森市",
    "category": "day_service",
    "serviceType": "通所介護",
    "capacity": 0,
    "openDays": [
      "平日",
      "土曜日",
      "祝日"
    ],
    "openDaysNote": "特になし"
  },
  {
    "id": "270106164",
    "name": "社会福祉法人　青森市社会福祉協議会　青森市中央浪岡支部",
    "kana": "シャカイフクシホウジン　アオモリシシャカイフクシキョウギカイ　アオモリシチュウオウナミオカシブ",
    "address": "青森県青森市浪岡大字浪岡字稲村274番地",
    "lat": 40.7091393,
    "lng": 140.5969831,
    "tel": "0172-69-1118",
    "url": "https://www.aomoricity-shakyo.or.jp/",
    "pref": "青森県",
    "city": "青森市",
    "category": "day_service",
    "serviceType": "通所介護",
    "capacity": 0,
    "openDays": [
      "平日",
      "土曜日",
      "祝日"
    ],
    "openDaysNote": ""
  },
  {
    "id": "270106156",
    "name": "社会福祉法人　青森市社会福祉協議会青森市中央",
    "kana": "シャカイフクシホウジン　アオモリシシャカイフクシキョウギカイアオモリシチュウオウ",
    "address": "青森県青森市本町四丁目1番3号",
    "lat": 40.8293343,
    "lng": 140.7514032,
    "tel": "017-774-2683",
    "url": "http://www.aomoricity-shakyo.or.jp/",
    "pref": "青森県",
    "city": "青森市",
    "category": "day_service",
    "serviceType": "通所介護",
    "capacity": null,
    "openDays": [
      "平日",
      "土曜日",
      "祝日"
    ],
    "openDaysNote": "特になし"
  },
  {
    "id": "270103856",
    "name": "社会福祉法人　緑鴎会　かもめデイサービスセンター",
    "kana": "シャカイフクシホウジン　リョクオウカイ　カモメデイサービスセンター",
    "address": "青森市大字油川字大浜147-1",
    "lat": 40.8548305,
    "lng": 140.6948119,
    "tel": "017-763-1151",
    "url": "kamome2012@crux.ocn.ne.jp",
    "pref": "青森県",
    "city": "青森市",
    "category": "day_service",
    "serviceType": "通所介護",
    "capacity": 0,
    "openDays": [
      "平日",
      "土曜日",
      "祝日"
    ],
    "openDaysNote": ""
  },
  {
    "id": "270105034",
    "name": "朝光苑デイサービスセンターはなおもい",
    "kana": "チョウコウエンデイサービスセンターハナオモイ",
    "address": "青森県青森市大字横内字亀井２４６番地１",
    "lat": 40.7721181460415,
    "lng": 140.766114124467,
    "tel": "017-738-8701",
    "url": "",
    "pref": "青森県",
    "city": "青森市",
    "category": "day_service",
    "serviceType": "通所介護",
    "capacity": 0,
    "openDays": [
      "平日",
      "土曜日",
      "祝日"
    ],
    "openDaysNote": "8/13、12/31～1/3"
  },
  {
    "id": "270105588",
    "name": "通所介護事業所　屋形船",
    "kana": "ツウショカイゴジギョウショ　ヤカタブネ",
    "address": "青森県青森市西大野5丁目24番地4",
    "lat": 40.7981903,
    "lng": 140.7272084,
    "tel": "017-757-8847",
    "url": "www.kaienkai.com",
    "pref": "青森県",
    "city": "青森市",
    "category": "day_service",
    "serviceType": "通所介護",
    "capacity": 9,
    "openDays": [
      "平日",
      "祝日"
    ],
    "openDaysNote": ""
  },
  {
    "id": "270103641",
    "name": "桃源",
    "kana": "トウゲン",
    "address": "青森県青森市造道三丁目14番18号",
    "lat": 40.8292746,
    "lng": 140.790222,
    "tel": "017-752-1950",
    "url": "http://www17.plala.or.jp/tougen/ds-tougen.html",
    "pref": "青森県",
    "city": "青森市",
    "category": "day_service",
    "serviceType": "通所介護",
    "capacity": 35,
    "openDays": [
      "平日",
      "土曜日",
      "祝日"
    ],
    "openDaysNote": ""
  },
  {
    "id": "272600263",
    "name": "デイサービスセンターくろまつ",
    "kana": "デイサービスセンタークロマツ",
    "address": "青森県下北郡大間町大字大間字大間平20－78",
    "lat": 41.5267124,
    "lng": 140.927498,
    "tel": "0175-37-5111",
    "url": "",
    "pref": "青森県",
    "city": "大間町",
    "category": "day_service",
    "serviceType": "通所介護",
    "capacity": 0,
    "openDays": [
      "平日",
      "土曜日",
      "日曜日",
      "祝日"
    ],
    "openDaysNote": ""
  },
  {
    "id": "272300658",
    "name": "あずみ野デイセンター",
    "kana": "アズミノデイセンター",
    "address": "青森県南津軽郡大鰐町大字鯖石字浅瀬渕３５番地５",
    "lat": 40.5323822178205,
    "lng": 140.556096759525,
    "tel": "0172-47-6556",
    "url": "http://www.owani.com/",
    "pref": "青森県",
    "city": "大鰐町",
    "category": "day_service",
    "serviceType": "通所介護",
    "capacity": 0,
    "openDays": [
      "平日",
      "祝日"
    ],
    "openDaysNote": ""
  },
  {
    "id": "272300963",
    "name": "おおわにデイサービスセンター　ゆけむり荘",
    "kana": "オオワニデイサービスセンター　ユケムリソウ",
    "address": "青森県南津軽郡大鰐町大字大鰐字湯野川原92-88",
    "lat": 40.5192209,
    "lng": 140.5749886,
    "tel": "0172-48-5711",
    "url": "",
    "pref": "青森県",
    "city": "大鰐町",
    "category": "day_service",
    "serviceType": "通所介護",
    "capacity": 24,
    "openDays": [
      "平日",
      "土曜日",
      "祝日"
    ],
    "openDaysNote": "ゴールデンウイーク中、及びお盆中の任意の2日間、12月30日から1月3日、毎月１回任意の日が休みになります。"
  },
  {
    "id": "272400367",
    "name": "デイサービスセンター宝森",
    "kana": "デイサービスセンタータカラモリ",
    "address": "青森県北津軽郡中泊町大字中里字宝森291番地1",
    "lat": 40.9688278,
    "lng": 140.4294344,
    "tel": "0173-69-1193",
    "url": "",
    "pref": "青森県",
    "city": "中泊町",
    "category": "day_service",
    "serviceType": "通所介護",
    "capacity": 30,
    "openDays": [
      "平日",
      "土曜日",
      "日曜日",
      "祝日"
    ],
    "openDaysNote": "利用者の希望によっては、日曜日も営業する"
  },
  {
    "id": "272401340",
    "name": "ワイズ・パーク青森中泊店",
    "kana": "ワイズ・パークアオモリナカドマリテン",
    "address": "青森県北津軽郡中泊町中里亀山170-1中泊町総合福祉健康センター湯らぱ〜く 中泊町総合福祉健康センター湯らぱ〜く",
    "lat": 40.9675135,
    "lng": 140.4380425,
    "tel": "0173-26-0848",
    "url": "https://ak-company.jp/",
    "pref": "青森県",
    "city": "中泊町",
    "category": "day_service",
    "serviceType": "通所介護",
    "capacity": null,
    "openDays": [
      "平日",
      "祝日"
    ],
    "openDaysNote": "お盆や年末年始など別途会社が定めた日を店休日とする場合があります。（改行）その際は、利用者様と担当ケアマネージャーに対して１ヶ月前に告知いたします"
  },
  {
    "id": "272400938",
    "name": "花まるデイサービスセンター",
    "kana": "ハナマル",
    "address": "北津軽郡中泊町大字大沢内字海原148-196",
    "lat": 40.9459283,
    "lng": 140.4454121,
    "tel": "0173-69-1877",
    "url": "",
    "pref": "青森県",
    "city": "中泊町",
    "category": "day_service",
    "serviceType": "通所介護",
    "capacity": 0,
    "openDays": [
      "平日",
      "土曜日",
      "祝日"
    ],
    "openDaysNote": "朝と夕の送迎時間は、一人一人の要望に応じて時間を決めさせて頂いております。"
  },
  {
    "id": "272400227",
    "name": "社会福祉法人中泊町社会福祉協議会通所介護事業所",
    "kana": "シャカイフクシホウジンナカドマリマチシャカイフクシキョウギカイツウショカイゴジギョウショ",
    "address": "青森県北津軽郡中泊町大字小泊字朝間25",
    "lat": 41.1275647,
    "lng": 140.3098366,
    "tel": "0173-64-2905",
    "url": "",
    "pref": "青森県",
    "city": "中泊町",
    "category": "day_service",
    "serviceType": "通所介護",
    "capacity": 0,
    "openDays": [
      "平日",
      "土曜日",
      "祝日"
    ],
    "openDaysNote": ""
  },
  {
    "id": "272400698",
    "name": "竹山荘デイサービスセンター",
    "kana": "チクザンソウデイサービスセンター",
    "address": "青森県北津軽郡中泊町大字今泉字神山１４１",
    "lat": 41.033932,
    "lng": 140.4233597,
    "tel": "0173-58-3116",
    "url": "izuminosato@vanilla.ocn.ne.jp",
    "pref": "青森県",
    "city": "中泊町",
    "category": "day_service",
    "serviceType": "通所介護",
    "capacity": 30,
    "openDays": [
      "平日",
      "土曜日",
      "祝日"
    ],
    "openDaysNote": ""
  },
  {
    "id": "272400268",
    "name": "内潟療護園デイサービスセンター",
    "kana": "ウチガタリョウゴエンデイサービスセンター",
    "address": "青森県北津軽郡中泊町大字田茂木字若宮1933番地",
    "lat": 41.0032515,
    "lng": 140.4095127,
    "tel": "0173-58-3001",
    "url": "http://uchigata.or.jp/",
    "pref": "青森県",
    "city": "中泊町",
    "category": "day_service",
    "serviceType": "通所介護",
    "capacity": 35,
    "openDays": [
      "平日",
      "土曜日",
      "祝日"
    ],
    "openDaysNote": ""
  },
  {
    "id": "272400946",
    "name": "アップル鶴の里",
    "kana": "アップルツルノサト",
    "address": "青森県北津軽郡鶴田町大字横萢字矢留崎97",
    "lat": 40.7528062,
    "lng": 140.4831115,
    "tel": "0173-27-1234",
    "url": "",
    "pref": "青森県",
    "city": "鶴田町",
    "category": "day_service",
    "serviceType": "通所介護",
    "capacity": 0,
    "openDays": [
      "平日",
      "土曜日",
      "祝日"
    ],
    "openDaysNote": "ただし、12月31日～1月3日までを除く。"
  },
  {
    "id": "272400888",
    "name": "湖水荘デイサービスセンターみずもと",
    "kana": "コスイソウデイサービスセンターミズモト",
    "address": "青森県北津軽郡鶴田町大字廻堰字下桂井２６－２",
    "lat": 40.7600615,
    "lng": 140.3966038,
    "tel": "0173-22-6750",
    "url": "",
    "pref": "青森県",
    "city": "鶴田町",
    "category": "day_service",
    "serviceType": "通所介護",
    "capacity": 0,
    "openDays": [
      "平日",
      "土曜日",
      "祝日"
    ],
    "openDaysNote": ""
  },
  {
    "id": "272400151",
    "name": "鶴松園デイサービスセンター",
    "kana": "カクショウエンデイサービスセンター",
    "address": "青森県北津軽郡鶴田町大字廻堰字上野尻142",
    "lat": 40.7659556,
    "lng": 140.3976701,
    "tel": "0173-22-2292",
    "url": "http://kakusyou.sakura.ne.jp/",
    "pref": "青森県",
    "city": "鶴田町",
    "category": "day_service",
    "serviceType": "通所介護",
    "capacity": null,
    "openDays": [
      "平日",
      "土曜日",
      "祝日"
    ],
    "openDaysNote": "特になし"
  },
  {
    "id": "272400201",
    "name": "鶴田町社会福祉協議会",
    "kana": "ツルタマチシャカイフクシキョウギカイ",
    "address": "青森県北津軽郡鶴田町大字鶴田字沖津193番地",
    "lat": 40.7489665,
    "lng": 140.4277854,
    "tel": "0173-22-3394",
    "url": "http://tsuruta-syakyo.or.jp/",
    "pref": "青森県",
    "city": "鶴田町",
    "category": "day_service",
    "serviceType": "通所介護",
    "capacity": 0,
    "openDays": [
      "平日",
      "土曜日",
      "日曜日",
      "祝日"
    ],
    "openDaysNote": ""
  },
  {
    "id": "272700816",
    "name": "デイサービスセンターみろく苑",
    "kana": "デイサービスセンターミロクエン",
    "address": "青森県三戸郡田子町大字田子字七日市上ノ平60番地",
    "lat": 40.3351456,
    "lng": 141.1517835,
    "tel": "0179-32-3699",
    "url": "http://mirokuen.com/",
    "pref": "青森県",
    "city": "田子町",
    "category": "day_service",
    "serviceType": "通所介護",
    "capacity": 0,
    "openDays": [
      "平日",
      "土曜日",
      "日曜日",
      "祝日"
    ],
    "openDaysNote": "営業時間外での送迎等の実施については、その都度ご相談に応じます。"
  },
  {
    "id": "272700535",
    "name": "田子町老人デイサービスセンター",
    "kana": "タッコマチロウジンデイサービスセンター",
    "address": "青森県三戸郡田子町大字田子字前田2番地1号",
    "lat": 40.3410614,
    "lng": 141.1538247,
    "tel": "0179-20-7103",
    "url": "https://takko-shakyo.jp/",
    "pref": "青森県",
    "city": "田子町",
    "category": "day_service",
    "serviceType": "通所介護",
    "capacity": 0,
    "openDays": [
      "平日",
      "土曜日",
      "祝日"
    ],
    "openDaysNote": ""
  },
  {
    "id": "272301334",
    "name": "デイサービスいぶし銀",
    "kana": "デイサービスイブシギン",
    "address": "青森県南津軽田舎館村大字川部字中西田９９番地１",
    "lat": 40.6480888452408,
    "lng": 140.523720419327,
    "tel": "0172-88-6256",
    "url": "",
    "pref": "青森県",
    "city": "田舎館村",
    "category": "day_service",
    "serviceType": "通所介護",
    "capacity": null,
    "openDays": [
      "平日",
      "土曜日",
      "日曜日",
      "祝日"
    ],
    "openDaysNote": ""
  },
  {
    "id": "272300302",
    "name": "田舎館村老人デイサービス事業所",
    "kana": "イナカダテムラロウジンデイサービスジギョウショ",
    "address": "青森県南津軽郡田舎館村大字八反田字古舘206-1",
    "lat": 40.6379762,
    "lng": 140.5487772,
    "tel": "0172-43-8112",
    "url": "http://inakadateshakyo.or.jp/",
    "pref": "青森県",
    "city": "田舎館村",
    "category": "day_service",
    "serviceType": "通所介護",
    "capacity": 0,
    "openDays": [
      "平日",
      "土曜日",
      "祝日"
    ],
    "openDaysNote": ""
  },
  {
    "id": "272600016",
    "name": "公益社団法人地域医療振興協会東通村保健福祉センター通所介護事業所",
    "kana": "コウエキシャダンホウジンチイキイリョウシンコウキョウカイヒガシドオリムラホケンフクシセンターツウショカイゴジギョウショ",
    "address": "青森県下北郡東通村大字砂子又字里１７－２",
    "lat": 41.2766568,
    "lng": 141.3374774,
    "tel": "0175-28-5600",
    "url": "https://higashidori.jadecom.or.jp",
    "pref": "青森県",
    "city": "東通村",
    "category": "day_service",
    "serviceType": "通所介護",
    "capacity": 0,
    "openDays": [
      "平日",
      "土曜日",
      "祝日"
    ],
    "openDaysNote": ""
  },
  {
    "id": "272501495",
    "name": "ちびきデイサービスセンター",
    "kana": "チビキデイサービスセンター",
    "address": "青森県上北郡東北町字大平１番地１１４",
    "lat": 40.8124804,
    "lng": 141.133,
    "tel": "0175-64-7777",
    "url": "prime-line.jp",
    "pref": "青森県",
    "city": "東北町",
    "category": "day_service",
    "serviceType": "通所介護",
    "capacity": 0,
    "openDays": [
      "平日",
      "土曜日",
      "祝日"
    ],
    "openDaysNote": ""
  },
  {
    "id": "272500471",
    "name": "デイサービスセンター　ヴィラ中央",
    "kana": "デイサービスセンター　ウ゛ィラチュウオウ",
    "address": "青森県上北郡東北町上北北2丁目３３－５５",
    "lat": 40.7332508,
    "lng": 141.2550103,
    "tel": "0176-58-1110",
    "url": "http://washinkai.or.jp",
    "pref": "青森県",
    "city": "東北町",
    "category": "day_service",
    "serviceType": "通所介護",
    "capacity": 0,
    "openDays": [
      "平日",
      "土曜日",
      "祝日"
    ],
    "openDaysNote": ""
  },
  {
    "id": "272500976",
    "name": "デイサービスセンター　ぽぷら",
    "kana": "デイサービスセンター　ポプラ",
    "address": "青森県上北郡東北町字往来の下３３番地３",
    "lat": 40.7750522,
    "lng": 141.2814289,
    "tel": "0175-62-3005",
    "url": "http://care-net.biz/02/akamatsu/",
    "pref": "青森県",
    "city": "東北町",
    "category": "day_service",
    "serviceType": "通所介護",
    "capacity": 0,
    "openDays": [
      "平日",
      "土曜日",
      "祝日"
    ],
    "openDaysNote": ""
  },
  {
    "id": "272500455",
    "name": "デイサービスセンターサンポエム",
    "kana": "デイサービスセンターサンポエム",
    "address": "青森県上北郡東北町大字大浦字境ノ沢１２７",
    "lat": 40.7124687,
    "lng": 141.2352488,
    "tel": "0176-56-2111",
    "url": "https://akibakai.com",
    "pref": "青森県",
    "city": "東北町",
    "category": "day_service",
    "serviceType": "通所介護",
    "capacity": 0,
    "openDays": [
      "平日",
      "土曜日",
      "日曜日",
      "祝日"
    ],
    "openDaysNote": ""
  },
  {
    "id": "272501941",
    "name": "デイサービスセンター松風荘",
    "kana": "デイサービスセンターショウフウソウ",
    "address": "青森県上北郡東北町字乙供123番地",
    "lat": 40.7666102704571,
    "lng": 141.194882252477,
    "tel": "0175-63-4318",
    "url": "http://keitokukai-1992.com//",
    "pref": "青森県",
    "city": "東北町",
    "category": "day_service",
    "serviceType": "通所介護",
    "capacity": 0,
    "openDays": [
      "平日",
      "土曜日",
      "祝日"
    ],
    "openDaysNote": ""
  },
  {
    "id": "272501727",
    "name": "デイサービスみらい",
    "kana": "デイサービスミライ",
    "address": "青森県上北郡東北町大字大浦字唐虫沢４４－１７９",
    "lat": 40.7015524325831,
    "lng": 141.293970487697,
    "tel": "0176-56-3711",
    "url": "http://yuukikai.net/",
    "pref": "青森県",
    "city": "東北町",
    "category": "day_service",
    "serviceType": "通所介護",
    "capacity": 52,
    "openDays": [
      "平日",
      "土曜日",
      "祝日"
    ],
    "openDaysNote": ""
  },
  {
    "id": "272502154",
    "name": "リハビリデイサービスすみれ",
    "kana": "リハビリデイサービススミレ",
    "address": "青森県上北郡東北町上北北1丁目34-103",
    "lat": 40.7342371460748,
    "lng": 141.260932506746,
    "tel": "0176-58-2290",
    "url": "",
    "pref": "青森県",
    "city": "東北町",
    "category": "day_service",
    "serviceType": "通所介護",
    "capacity": 0,
    "openDays": [
      "平日",
      "土曜日",
      "祝日"
    ],
    "openDaysNote": "利用者の選定によるサービス提供を拒まないが、重篤な精神障害や感染症等により、他の利用者に著しく傷害や不利益を与える時には、サービスの提供を中止する場合がある。"
  },
  {
    "id": "272300633",
    "name": "デイサービスセンター　えびす",
    "kana": "デイサービスセンター　エビス",
    "address": "青森県南津軽郡藤崎町大字藤崎字西浅田60",
    "lat": 40.646124097642,
    "lng": 140.502624962566,
    "tel": "0172-89-7722",
    "url": "https://ebisu-2002-7-22.amebaownd.com/",
    "pref": "青森県",
    "city": "藤崎町",
    "category": "day_service",
    "serviceType": "通所介護",
    "capacity": 40,
    "openDays": [
      "平日",
      "土曜日",
      "祝日"
    ],
    "openDaysNote": "1月1日のみ休業。"
  },
  {
    "id": "272301045",
    "name": "デイサービスセンター　メープルの里ふじさき",
    "kana": "デイサービスセンター　メープルノサトフジサキ",
    "address": "青森県南津軽郡藤崎町大字藤崎字東村井１４",
    "lat": 40.6514085,
    "lng": 140.5018723,
    "tel": "0172-75-2600",
    "url": "http://www.maple-sato.com",
    "pref": "青森県",
    "city": "藤崎町",
    "category": "day_service",
    "serviceType": "通所介護",
    "capacity": 30,
    "openDays": [
      "平日",
      "土曜日",
      "祝日"
    ],
    "openDaysNote": ""
  },
  {
    "id": "272300195",
    "name": "デイサービスセンターさんふじ",
    "kana": "デイサービスセンターサンフジ",
    "address": "青森県南津軽郡藤崎町大字柏木堰字南亀田1番地１",
    "lat": 40.6903766,
    "lng": 140.5130196,
    "tel": "0172-75-3511",
    "url": "",
    "pref": "青森県",
    "city": "藤崎町",
    "category": "day_service",
    "serviceType": "通所介護",
    "capacity": 0,
    "openDays": [
      "平日",
      "土曜日",
      "祝日"
    ],
    "openDaysNote": ""
  },
  {
    "id": "272300260",
    "name": "デイサービスセンターみずき",
    "kana": "デイサービスセンターミズキ",
    "address": "青森県南津軽郡藤崎町大字水木字浅田９５",
    "lat": 40.6780925,
    "lng": 140.5367431,
    "tel": "0172-65-4110",
    "url": "http://care-net.biz/02toueikai/",
    "pref": "青森県",
    "city": "藤崎町",
    "category": "day_service",
    "serviceType": "通所介護",
    "capacity": 30,
    "openDays": [
      "平日",
      "土曜日",
      "日曜日",
      "祝日"
    ],
    "openDaysNote": ""
  },
  {
    "id": "272300385",
    "name": "藤崎町社協デイサービスセンター",
    "kana": "フジサキマチシャキョウデイサービスセンター",
    "address": "青森県南津軽郡藤崎町大字常盤字富田67-1",
    "lat": 40.6704632,
    "lng": 140.54804,
    "tel": "0172-65-4071",
    "url": "http://www.@fujisakishakyo.or.jp/",
    "pref": "青森県",
    "city": "藤崎町",
    "category": "day_service",
    "serviceType": "通所介護",
    "capacity": null,
    "openDays": [
      "平日",
      "土曜日",
      "日曜日",
      "祝日"
    ],
    "openDaysNote": ""
  },
  {
    "id": "272700568",
    "name": "あいたすデイサービスセンター",
    "kana": "アイタスデイサービスセンター",
    "address": "青森県三戸郡南部町大字福田字あかね１２－１",
    "lat": 40.4590027403624,
    "lng": 141.381715611192,
    "tel": "0178-60-1515",
    "url": "http://chorokai.or.jp/",
    "pref": "青森県",
    "city": "南部町",
    "category": "day_service",
    "serviceType": "通所介護",
    "capacity": 30,
    "openDays": [
      "平日",
      "土曜日",
      "祝日"
    ],
    "openDaysNote": "特になし"
  },
  {
    "id": "272701640",
    "name": "デイサービスセンター　スマイル",
    "kana": "デイサービスセンター　スマイル",
    "address": "青森県三戸郡南部町大字埖渡字下外窪12－67",
    "lat": 40.4602273,
    "lng": 141.4026418,
    "tel": "0178－60－1788",
    "url": "http://fukuseikai-smile.jimdo.com/",
    "pref": "青森県",
    "city": "南部町",
    "category": "day_service",
    "serviceType": "通所介護",
    "capacity": 29,
    "openDays": [
      "平日",
      "土曜日",
      "祝日"
    ],
    "openDaysNote": ""
  },
  {
    "id": "272701863",
    "name": "デイサービスセンター・リスパ",
    "kana": "デイサービスセンター・リスパ",
    "address": "青森県三戸郡南部町大字福田字赤坂脇10-72",
    "lat": 40.4372332329834,
    "lng": 141.391644616533,
    "tel": "0178-38-0973",
    "url": "",
    "pref": "青森県",
    "city": "南部町",
    "category": "day_service",
    "serviceType": "通所介護",
    "capacity": 0,
    "openDays": [
      "平日"
    ],
    "openDaysNote": ""
  },
  {
    "id": "272700501",
    "name": "デイサービスセンターあじさい",
    "kana": "デイサービスセンターアジサイ",
    "address": "青森県三戸郡南部町大字下名久井字剣吉前川原1-20",
    "lat": 40.4407977,
    "lng": 141.3408948,
    "tel": "0178-60-5500",
    "url": "",
    "pref": "青森県",
    "city": "南部町",
    "category": "day_service",
    "serviceType": "通所介護",
    "capacity": 0,
    "openDays": [
      "平日",
      "土曜日",
      "祝日"
    ],
    "openDaysNote": ""
  },
  {
    "id": "272701723",
    "name": "社会福祉法人　恵生会　三老デイサービスセンター八幡のゆ",
    "kana": "シャカイフクシホウジン　ケイセイカイ　サンロウデイサービスセンターハチマンノユ",
    "address": "青森県三戸郡南部町大字小向字八幡19-1三老デイサービスセンター八幡のゆ 三老デイサービスセンター八幡のゆ",
    "lat": 40.408317,
    "lng": 141.2697451,
    "tel": "0179-23-3680",
    "url": "https//www.sanrou-hatiman.com",
    "pref": "青森県",
    "city": "南部町",
    "category": "day_service",
    "serviceType": "通所介護",
    "capacity": 45,
    "openDays": [
      "平日",
      "土曜日",
      "祝日"
    ],
    "openDaysNote": ""
  },
  {
    "id": "270301526",
    "name": "あんずの里白銀デイサービスセンター",
    "kana": "アンズノサトシロガネデイサービスセンター",
    "address": "八戸市白銀二丁目1番20",
    "lat": 40.5231336,
    "lng": 141.5443006,
    "tel": "0178-35-3332",
    "url": "https://www.zuikoen.or.jp",
    "pref": "青森県",
    "city": "八戸市",
    "category": "day_service",
    "serviceType": "通所介護",
    "capacity": 20,
    "openDays": [
      "平日"
    ],
    "openDaysNote": ""
  },
  {
    "id": "270300221",
    "name": "いこい苑デイサービスセンター",
    "kana": "イコイエンデイサービスセンター",
    "address": "青森県八戸市大字豊崎町字渋民4-1",
    "lat": 40.517159,
    "lng": 141.3913109,
    "tel": "0178-23-5300",
    "url": "http://douyuukai.or.jp/",
    "pref": "青森県",
    "city": "八戸市",
    "category": "day_service",
    "serviceType": "通所介護",
    "capacity": 35,
    "openDays": [
      "平日",
      "土曜日",
      "祝日"
    ],
    "openDaysNote": ""
  },
  {
    "id": "270301831",
    "name": "ケア・ステーション淨信館",
    "kana": "ケア・ステーション　ジョウシンカン",
    "address": "青森県八戸市一番町２丁目３-１２",
    "lat": 40.5092996,
    "lng": 141.4351067,
    "tel": "0178-27-7450",
    "url": "http://joshinkan.com/index.html",
    "pref": "青森県",
    "city": "八戸市",
    "category": "day_service",
    "serviceType": "通所介護",
    "capacity": 749,
    "openDays": [
      "平日",
      "土曜日",
      "祝日"
    ],
    "openDaysNote": "12月31日は14時30分までの営業です。"
  },
  {
    "id": "270304397",
    "name": "コンパスウォーク八戸下長",
    "kana": "コンパスウォークハチノヘシモナガ",
    "address": "青森県八戸市下長1丁目19-20",
    "lat": 40.5296862,
    "lng": 141.4726332,
    "tel": "0178-38-1348",
    "url": "https://keigo-group.co.jp/",
    "pref": "青森県",
    "city": "八戸市",
    "category": "day_service",
    "serviceType": "通所介護",
    "capacity": 0,
    "openDays": [
      "平日"
    ],
    "openDaysNote": "平日であれば祝日も営業　お盆期間営業"
  },
  {
    "id": "270304140",
    "name": "コンパスウォーク八戸柏崎",
    "kana": "コンパスウォークハチノヘカシワザキ",
    "address": "青森県八戸市柏崎1-10-44ロイヤルマンション柏崎1F103号室 ロイヤルマンション柏崎1F103号室",
    "lat": 40.5125179,
    "lng": 141.497159,
    "tel": "0178-20-8321",
    "url": "https://kinoukaifuku.com",
    "pref": "青森県",
    "city": "八戸市",
    "category": "day_service",
    "serviceType": "通所介護",
    "capacity": 0,
    "openDays": [
      "平日",
      "祝日"
    ],
    "openDaysNote": "年末年始（12/31～1/3）はお休み（改行）祝日は営業"
  },
  {
    "id": "270303928",
    "name": "しろがね軟水泉",
    "kana": "シロガネナンスイセン",
    "address": "青森県八戸市白銀三丁目5-5",
    "lat": 40.5210339,
    "lng": 141.5467699,
    "tel": "0178-34-2626",
    "url": "https://info36277.wixsite.com/shiroganeonsen",
    "pref": "青森県",
    "city": "八戸市",
    "category": "day_service",
    "serviceType": "通所介護",
    "capacity": 0,
    "openDays": [
      "平日"
    ],
    "openDaysNote": ""
  },
  {
    "id": "270303480",
    "name": "ツクイ八戸江陽",
    "kana": "ツクイハチノヘコウヨウ",
    "address": "青森県八戸市江陽1丁目20-14",
    "lat": 40.5208555927582,
    "lng": 141.504930342992,
    "tel": "0178-73-5133",
    "url": "http://www.tsukui.net",
    "pref": "青森県",
    "city": "八戸市",
    "category": "day_service",
    "serviceType": "通所介護",
    "capacity": 61,
    "openDays": [
      "平日",
      "土曜日",
      "日曜日",
      "祝日"
    ],
    "openDaysNote": ""
  },
  {
    "id": "270304322",
    "name": "デイサ－ビスセンタ－岩泉町",
    "kana": "デイサ-ビスセンタ-イワイズミチョウ",
    "address": "青森県八戸市岩泉町7番地",
    "lat": 40.5088940754667,
    "lng": 141.494111316533,
    "tel": "0178-47-7757",
    "url": "",
    "pref": "青森県",
    "city": "八戸市",
    "category": "day_service",
    "serviceType": "通所介護",
    "capacity": null,
    "openDays": [
      "平日",
      "土曜日",
      "祝日"
    ],
    "openDaysNote": "建物設備の保守、点検のための休業は1ケ月前より利用者に通知する。"
  },
  {
    "id": "270303134",
    "name": "デイサービス　ささえ愛",
    "kana": "デイサービス　ササエアイ",
    "address": "青森県八戸市柏崎一丁目10－10すこやかホームゆうゆう　1階 すこやかホームゆうゆう　1階",
    "lat": 40.5131699,
    "lng": 141.4976447,
    "tel": "0178-72-3226",
    "url": "https://jouhoku-hp.jp/related-facility/sasae-ai.php",
    "pref": "青森県",
    "city": "八戸市",
    "category": "day_service",
    "serviceType": "通所介護",
    "capacity": 0,
    "openDays": [
      "平日",
      "土曜日",
      "祝日"
    ],
    "openDaysNote": ""
  },
  {
    "id": "270303233",
    "name": "デイサービスあおmimi",
    "kana": "デイサービスアオミミ",
    "address": "青森県八戸市青葉三丁目１６－１５",
    "lat": 40.5088567,
    "lng": 141.5109516,
    "tel": "0178-72-5633",
    "url": "",
    "pref": "青森県",
    "city": "八戸市",
    "category": "day_service",
    "serviceType": "通所介護",
    "capacity": 20,
    "openDays": [
      "平日",
      "土曜日",
      "祝日"
    ],
    "openDaysNote": "特になし"
  },
  {
    "id": "270301021",
    "name": "デイサービスあんず",
    "kana": "デイサービスアンズ",
    "address": "青森県八戸市大字新井田字外久保3-11",
    "lat": 40.4945201,
    "lng": 141.5314389,
    "tel": "0178-25-1620",
    "url": "www.mihono.jp/service/tsuushokaigo/anzu",
    "pref": "青森県",
    "city": "八戸市",
    "category": "day_service",
    "serviceType": "通所介護",
    "capacity": 0,
    "openDays": [
      "平日",
      "土曜日",
      "祝日"
    ],
    "openDaysNote": "なし"
  },
  {
    "id": "270301690",
    "name": "デイサービスセンター　さざなみ",
    "kana": "デイサービスセンター　サザナミ",
    "address": "青森県八戸市小中野8丁目9番20号",
    "lat": 40.5230884,
    "lng": 141.5183947,
    "tel": "0178-71-3373",
    "url": "http://www.fukujuso.or.jp/",
    "pref": "青森県",
    "city": "八戸市",
    "category": "day_service",
    "serviceType": "通所介護",
    "capacity": 0,
    "openDays": [
      "平日",
      "土曜日",
      "日曜日",
      "祝日"
    ],
    "openDaysNote": "特になし"
  },
  {
    "id": "270300692",
    "name": "デイサービスセンター　ちょうじゃの森",
    "kana": "デイサービスセンター　チョウジャノモリ",
    "address": "青森県八戸市糠塚字下道7-32",
    "lat": 40.5059809704881,
    "lng": 141.489206297217,
    "tel": "0178-72-5525",
    "url": "http://www.choujanomori-naika.com/",
    "pref": "青森県",
    "city": "八戸市",
    "category": "day_service",
    "serviceType": "通所介護",
    "capacity": 0,
    "openDays": [
      "平日",
      "土曜日",
      "祝日"
    ],
    "openDaysNote": "なし"
  },
  {
    "id": "270303506",
    "name": "デイサービスセンター　ハピネスやくら",
    "kana": "デイサービスセンター　ハピネスヤクラ",
    "address": "青森県八戸市大字八幡字下樋田1番地1",
    "lat": 40.4951708,
    "lng": 141.4363099,
    "tel": "0178-70-5363",
    "url": "http://family-wf.jp/happiness_yakura/",
    "pref": "青森県",
    "city": "八戸市",
    "category": "day_service",
    "serviceType": "通所介護",
    "capacity": 0,
    "openDays": [
      "平日",
      "祝日"
    ],
    "openDaysNote": ""
  },
  {
    "id": "270302235",
    "name": "デイサービスセンター　ほっとハウス",
    "kana": "デイサービスセンター　ホットハウス",
    "address": "青森県八戸市大字尻内町字熊ノ沢35番2特別養護老人ホーム　ほっとハウス 特別養護老人ホーム　ほっとハウス",
    "lat": 40.5217913542082,
    "lng": 141.426432644844,
    "tel": "0178-70-1818",
    "url": "http://tomonokai.jp/",
    "pref": "青森県",
    "city": "八戸市",
    "category": "day_service",
    "serviceType": "通所介護",
    "capacity": 35,
    "openDays": [
      "平日",
      "土曜日",
      "祝日"
    ],
    "openDaysNote": "・台風や雪などによる悪天候時には、利用者様の安全確保の為、送迎時間及び利用日の変更、またはサービス（改行）の提供を中止する場合もあります。"
  },
  {
    "id": "270301997",
    "name": "デイサービスセンターなごむ",
    "kana": "デイサービスセンターナゴム",
    "address": "青森県八戸市南郷大字島守字阿庄内15番地6",
    "lat": 40.4068140209564,
    "lng": 141.456874435617,
    "tel": "0178-82-3888",
    "url": "http://www.nanrokukai.com/",
    "pref": "青森県",
    "city": "八戸市",
    "category": "day_service",
    "serviceType": "通所介護",
    "capacity": 0,
    "openDays": [
      "平日",
      "土曜日",
      "祝日"
    ],
    "openDaysNote": "なし"
  },
  {
    "id": "270303100",
    "name": "デイサービスセンターハッピースマイル",
    "kana": "デイサービスセンターハッピースマイル",
    "address": "青森県八戸市売市２丁目３－１２カームライフ　サンスマイル内 カームライフ　サンスマイル内",
    "lat": 40.5083268195776,
    "lng": 141.474680090131,
    "tel": "０１７８－４３－７８８１",
    "url": "",
    "pref": "青森県",
    "city": "八戸市",
    "category": "day_service",
    "serviceType": "通所介護",
    "capacity": 20,
    "openDays": [
      "平日",
      "土曜日",
      "祝日"
    ],
    "openDaysNote": ""
  },
  {
    "id": "270301724",
    "name": "デイサービスセンターばんちょう",
    "kana": "デイサービスセンターバンチョウ",
    "address": "青森県八戸市大字番町７番１",
    "lat": 40.5108202,
    "lng": 141.4894958,
    "tel": "0178-72-1070",
    "url": "http://www.sg-miyagikai.jp/",
    "pref": "青森県",
    "city": "八戸市",
    "category": "day_service",
    "serviceType": "通所介護",
    "capacity": 0,
    "openDays": [
      "平日",
      "土曜日",
      "日曜日",
      "祝日"
    ],
    "openDaysNote": "12月31日及び、1月1日は休業"
  },
  {
    "id": "270300247",
    "name": "デイサービスセンターひまわり苑",
    "kana": "デイサービスセンターヒマワリエン",
    "address": "青森県八戸市糠塚字下屋敷6-1",
    "lat": 40.5069706,
    "lng": 141.4815635,
    "tel": "0178-44-4546",
    "url": "himawarien@proof.ocn.ne.jp",
    "pref": "青森県",
    "city": "八戸市",
    "category": "day_service",
    "serviceType": "通所介護",
    "capacity": 35,
    "openDays": [
      "平日",
      "土曜日",
      "祝日"
    ],
    "openDaysNote": "建物に保守点検が必要な場合は、一ヶ月前より各居宅介護支援事業者及び利用者に通知。"
  },
  {
    "id": "270300585",
    "name": "デイサービスセンターふれあい",
    "kana": "デイサービスセンターフレアイ",
    "address": "青森県八戸市吹上６丁目１０－３２",
    "lat": 40.4944419,
    "lng": 141.493521,
    "tel": "0178-71-2577",
    "url": "",
    "pref": "青森県",
    "city": "八戸市",
    "category": "day_service",
    "serviceType": "通所介護",
    "capacity": 25,
    "openDays": [
      "平日",
      "土曜日"
    ],
    "openDaysNote": "特になし"
  },
  {
    "id": "270303860",
    "name": "デイサービスセンターほおずき",
    "kana": "デイサービスセンターホオズキ",
    "address": "青森県八戸市大字糠塚字大杉平８－６",
    "lat": 40.4962607,
    "lng": 141.4812264,
    "tel": "0178-51-6042",
    "url": "http://www.medicalfrontier.or.jp",
    "pref": "青森県",
    "city": "八戸市",
    "category": "day_service",
    "serviceType": "通所介護",
    "capacity": 25,
    "openDays": [
      "平日",
      "祝日"
    ],
    "openDaysNote": "年末年始休業（12/29～1/3）"
  },
  {
    "id": "270300577",
    "name": "デイサービスセンターみやぎ",
    "kana": "デイサービスセンターミヤギ",
    "address": "八戸市大字売市字観音下3番2",
    "lat": 40.5147779,
    "lng": 141.4861711,
    "tel": "0178-71-2270",
    "url": "http://www.sg-miyagikai.jp/",
    "pref": "青森県",
    "city": "八戸市",
    "category": "day_service",
    "serviceType": "通所介護",
    "capacity": 0,
    "openDays": [
      "平日",
      "土曜日",
      "日曜日",
      "祝日"
    ],
    "openDaysNote": "１２月３１日及び１月１日は休業"
  },
  {
    "id": "270301906",
    "name": "デイサービスセンターやわた",
    "kana": "デイサービスセンターヤワタ",
    "address": "青森県八戸市大字八幡字林崎２７－２",
    "lat": 40.4887744,
    "lng": 141.4382877,
    "tel": "0178-70-1255",
    "url": "http://www.base-kaigo.com",
    "pref": "青森県",
    "city": "八戸市",
    "category": "day_service",
    "serviceType": "通所介護",
    "capacity": 40,
    "openDays": [
      "平日",
      "土曜日",
      "祝日"
    ],
    "openDaysNote": ""
  },
  {
    "id": "270304454",
    "name": "デイサービスセンターリハコートみなと",
    "kana": "デイサービスセンターリハコートミナト",
    "address": "湊町字本町１－２",
    "lat": 40.5227884,
    "lng": 141.523995,
    "tel": "0178-32-7432",
    "url": "",
    "pref": "青森県",
    "city": "八戸市",
    "category": "day_service",
    "serviceType": "通所介護",
    "capacity": 40,
    "openDays": [
      "平日",
      "祝日"
    ],
    "openDaysNote": "年末年始の休業日は変更となる場合があります"
  },
  {
    "id": "270300726",
    "name": "デイサービスセンター寿楽荘苺一会",
    "kana": "デイサービスセンタージュラクソウイチゴイチエ",
    "address": "青森県八戸市市川町字赤畑５６－１６",
    "lat": 40.5782543158331,
    "lng": 141.446268934359,
    "tel": "0178-52-4747",
    "url": "https://jurakuso.sakura.ne.jp/aisatu.html",
    "pref": "青森県",
    "city": "八戸市",
    "category": "day_service",
    "serviceType": "通所介護",
    "capacity": null,
    "openDays": [
      "平日",
      "土曜日",
      "祝日"
    ],
    "openDaysNote": ""
  },
  {
    "id": "270303001",
    "name": "デイサービスセンター真ごころ",
    "kana": "デイサービスセンターマゴコロ",
    "address": "柏崎４丁目１６番２９号",
    "lat": 40.5154197,
    "lng": 141.5022108,
    "tel": "０１７８－３８－７８４４",
    "url": "",
    "pref": "青森県",
    "city": "八戸市",
    "category": "day_service",
    "serviceType": "通所介護",
    "capacity": 25,
    "openDays": [
      "平日",
      "土曜日",
      "祝日"
    ],
    "openDaysNote": "年末年始のお休みは１２／３１～１／１・２・３"
  },
  {
    "id": "270301229",
    "name": "デイサービスみほの",
    "kana": "デイサービス　ミホノ",
    "address": "青森県八戸市大字大久保字大山31-2",
    "lat": 40.4885915,
    "lng": 141.5777376,
    "tel": "0178-25-1803",
    "url": "http://www.mihono.jp",
    "pref": "青森県",
    "city": "八戸市",
    "category": "day_service",
    "serviceType": "通所介護",
    "capacity": 30,
    "openDays": [
      "平日",
      "土曜日",
      "祝日"
    ],
    "openDaysNote": ""
  },
  {
    "id": "270304173",
    "name": "なかざわデイサービスセンター",
    "kana": "ナカザワデイサービスセンター",
    "address": "青森県八戸市湊高台2丁目12-2",
    "lat": 40.505291,
    "lng": 141.5366305,
    "tel": "0178-35-2915",
    "url": "",
    "pref": "青森県",
    "city": "八戸市",
    "category": "day_service",
    "serviceType": "通所介護",
    "capacity": 0,
    "openDays": [
      "平日",
      "土曜日"
    ],
    "openDaysNote": ""
  },
  {
    "id": "270300502",
    "name": "ニチイケアセンター八戸",
    "kana": "ニチイケアセンターハチノヘ",
    "address": "八戸市根城3丁目4-17",
    "lat": 40.5025234886005,
    "lng": 141.47568609259,
    "tel": "0178-73-2775",
    "url": "http://www.nichiigakkan.co.jp",
    "pref": "青森県",
    "city": "八戸市",
    "category": "day_service",
    "serviceType": "通所介護",
    "capacity": 0,
    "openDays": [
      "平日",
      "土曜日",
      "日曜日",
      "祝日"
    ],
    "openDaysNote": ""
  },
  {
    "id": "270301765",
    "name": "ニチイケアセンター湊高台",
    "kana": "ニチイケアセンターミナトタカダイ",
    "address": "湊高台3丁目12-5",
    "lat": 40.5049218,
    "lng": 141.5423986,
    "tel": "0178-32-1468",
    "url": "hstk75@nichiigakkann.co.jp",
    "pref": "青森県",
    "city": "八戸市",
    "category": "day_service",
    "serviceType": "通所介護",
    "capacity": 0,
    "openDays": [
      "平日",
      "土曜日",
      "日曜日",
      "祝日"
    ],
    "openDaysNote": ""
  },
  {
    "id": "270300791",
    "name": "リハビリパ-クアイリスデイサ-ビスセンタ-",
    "kana": "リハビリパークアイリスデイサービスセンター",
    "address": "八戸市小中野八丁目14-25",
    "lat": 40.5228718,
    "lng": 141.5220693,
    "tel": "0178-43-3333",
    "url": "iris@rehabili-park.com",
    "pref": "青森県",
    "city": "八戸市",
    "category": "day_service",
    "serviceType": "通所介護",
    "capacity": 0,
    "openDays": [
      "平日",
      "土曜日",
      "日曜日",
      "祝日"
    ],
    "openDaysNote": "特になし"
  },
  {
    "id": "270300882",
    "name": "リハビリパークえんぶり物語デイサービスセンター",
    "kana": "リハビリパークエンブリモノガタリデイサービスセンター",
    "address": "青森県八戸市大字河原木字見立山６－２０９",
    "lat": 40.5415073,
    "lng": 141.4501299,
    "tel": "0178-21-2000",
    "url": "http://www.rehabili-park.com",
    "pref": "青森県",
    "city": "八戸市",
    "category": "day_service",
    "serviceType": "通所介護",
    "capacity": 30,
    "openDays": [
      "平日",
      "土曜日",
      "日曜日",
      "祝日"
    ],
    "openDaysNote": ""
  },
  {
    "id": "270303902",
    "name": "レッツ倶楽部八戸田向",
    "kana": "レッツクラブハチノヘタムカイ",
    "address": "青森県八戸市田向2-4-4",
    "lat": 40.49612,
    "lng": 141.5038445,
    "tel": "0178-51-8668",
    "url": "https://www.lets-club.jp/shop/hachinohetamukai/",
    "pref": "青森県",
    "city": "八戸市",
    "category": "day_service",
    "serviceType": "通所介護",
    "capacity": 0,
    "openDays": [
      "平日",
      "祝日"
    ],
    "openDaysNote": "8/13～16、12/31～1/3は定休日"
  },
  {
    "id": "270303993",
    "name": "医療法人ゆずりは　デイサービスセンターおくでら",
    "kana": "イリョウホウジンユズリハ　デイサービスセンターオクデラ",
    "address": "青森県八戸市尻内町八百刈　10-3",
    "lat": 40.5093021,
    "lng": 141.4388331,
    "tel": "0178-32-0404",
    "url": "",
    "pref": "青森県",
    "city": "八戸市",
    "category": "day_service",
    "serviceType": "通所介護",
    "capacity": 20,
    "openDays": [
      "平日",
      "土曜日",
      "祝日"
    ],
    "openDaysNote": "サービス提供日・月曜～土曜、日曜以外の祝日は営業しています。（改行）8/13～8/16及び12/31～1/3までを除きます（お盆休み、年末年始休みをいただいています）"
  },
  {
    "id": "270302110",
    "name": "光葉園デイサービスセンター　にこにこクラブ",
    "kana": "コウヨウエンデイサービスセンター　ニコニコクラブ",
    "address": "青森県八戸市大字鮫町字金屎35-90",
    "lat": 40.5140551,
    "lng": 141.5776368,
    "tel": "0178-32-1769",
    "url": "http://www.mirokukai.or.jp/koyoen/",
    "pref": "青森県",
    "city": "八戸市",
    "category": "day_service",
    "serviceType": "通所介護",
    "capacity": 0,
    "openDays": [
      "平日",
      "土曜日"
    ],
    "openDaysNote": ""
  },
  {
    "id": "272700378",
    "name": "社会福祉法人八戸市社会福祉協議会通所介護事業所",
    "kana": "シャカイフクシホウジンハチノヘシシャカイフクシキョウギカイツウショカイゴジギョウショ",
    "address": "青森県八戸市南郷大字島守字阿庄内15-2",
    "lat": 40.4066153,
    "lng": 141.4538337,
    "tel": "0178-82-3000",
    "url": "https://www.hachinohe-shakyo.or.jp",
    "pref": "青森県",
    "city": "八戸市",
    "category": "day_service",
    "serviceType": "通所介護",
    "capacity": 25,
    "openDays": [
      "平日",
      "土曜日",
      "日曜日",
      "祝日"
    ],
    "openDaysNote": ""
  },
  {
    "id": "270300544",
    "name": "修光園デイサービスセンター",
    "kana": "シュウコウエン",
    "address": "青森県八戸市大字十日市字黒坂３５番地",
    "lat": 40.4828772,
    "lng": 141.5209296,
    "tel": "0178-96-6506",
    "url": "shukouen.or.jp",
    "pref": "青森県",
    "city": "八戸市",
    "category": "day_service",
    "serviceType": "通所介護",
    "capacity": 0,
    "openDays": [
      "平日",
      "土曜日",
      "祝日"
    ],
    "openDaysNote": ""
  },
  {
    "id": "270300296",
    "name": "瑞光園デイサービスセンター",
    "kana": "ズイコウエンデイサービスセンター",
    "address": "八戸市大字大久保字大山32番1",
    "lat": 40.4891035526946,
    "lng": 141.578454811115,
    "tel": "0178-25-7557",
    "url": "http://zuikoen.or.jp/",
    "pref": "青森県",
    "city": "八戸市",
    "category": "day_service",
    "serviceType": "通所介護",
    "capacity": 40,
    "openDays": [
      "平日",
      "土曜日",
      "祝日"
    ],
    "openDaysNote": "特になし"
  },
  {
    "id": "270303431",
    "name": "生協デイサービスはんdon",
    "kana": "セイキョウデイサービスハンドン",
    "address": "青森県八戸市田向4丁目13-8",
    "lat": 40.4883696662311,
    "lng": 141.507156673541,
    "tel": "0178-51-6471",
    "url": "http://www.hachinohe-iryou.jp/",
    "pref": "青森県",
    "city": "八戸市",
    "category": "day_service",
    "serviceType": "通所介護",
    "capacity": 0,
    "openDays": [
      "平日",
      "土曜日",
      "祝日"
    ],
    "openDaysNote": ""
  },
  {
    "id": "270301484",
    "name": "石堂さくら通りルエ",
    "kana": "イシドウサクラドオリルエ",
    "address": "青森県八戸市石堂二丁目29-7",
    "lat": 40.5292396,
    "lng": 141.4730278,
    "tel": "0178-51-2252",
    "url": "https://jurakuso.sakura.ne.jp",
    "pref": "青森県",
    "city": "八戸市",
    "category": "day_service",
    "serviceType": "通所介護",
    "capacity": 0,
    "openDays": [
      "平日",
      "土曜日",
      "祝日"
    ],
    "openDaysNote": ""
  },
  {
    "id": "270303936",
    "name": "特定非営利活動法人　来夢の里",
    "kana": "トクテイヒエイリカツドウホウジン　ライムノサト",
    "address": "青森県八戸市大字新井田字常光田25-1",
    "lat": 40.495195,
    "lng": 141.5246613,
    "tel": "0178-20-8641",
    "url": "",
    "pref": "青森県",
    "city": "八戸市",
    "category": "day_service",
    "serviceType": "通所介護",
    "capacity": 2,
    "openDays": [
      "平日",
      "土曜日"
    ],
    "openDaysNote": "当事業所開所日表に沿って、月の日数から８日を引いた日数。（改行）12/30～1/3休み。"
  },
  {
    "id": "270303910",
    "name": "特定非営利活動法人ポッケル",
    "kana": "トクテイヒエイリカツドウホウジンポッケル",
    "address": "青森県八戸市西白山台5丁目11番12号",
    "lat": 40.4730325,
    "lng": 141.4597756,
    "tel": "0178-20-8151",
    "url": "",
    "pref": "青森県",
    "city": "八戸市",
    "category": "day_service",
    "serviceType": "通所介護",
    "capacity": 30,
    "openDays": [
      "平日",
      "土曜日",
      "祝日"
    ],
    "openDaysNote": ""
  },
  {
    "id": "270301419",
    "name": "特別養護老人ホーム　サンシャイン",
    "kana": "トクベツヨウゴロウジンホーム　サンシャイン",
    "address": "青森県八戸市東白山台二丁目２番１",
    "lat": 40.4893639044759,
    "lng": 141.47137827126,
    "tel": "0178-23-5050",
    "url": "https://s-tokokai.or.jp/facility/tokubetuyogo/",
    "pref": "青森県",
    "city": "八戸市",
    "category": "day_service",
    "serviceType": "通所介護",
    "capacity": null,
    "openDays": [
      "平日",
      "土曜日",
      "祝日"
    ],
    "openDaysNote": ""
  },
  {
    "id": "270300403",
    "name": "八戸グリーンハイツデイサービスセンター",
    "kana": "ハチノヘグリーンハイツデイサービスセンター",
    "address": "青森県八戸市大字白銀町字沢向15-2",
    "lat": 40.5191508,
    "lng": 141.5465561,
    "tel": "0178-31-0511",
    "url": "",
    "pref": "青森県",
    "city": "八戸市",
    "category": "day_service",
    "serviceType": "通所介護",
    "capacity": 0,
    "openDays": [
      "平日",
      "土曜日",
      "日曜日",
      "祝日"
    ],
    "openDaysNote": "特になし"
  },
  {
    "id": "270300478",
    "name": "福寿草デイサービスセンター",
    "kana": "フクジュソウデイサービスセンター",
    "address": "青森県八戸市大字妙字西平６番地２７",
    "lat": 40.4891572,
    "lng": 141.5440824,
    "tel": "0178-25-8181",
    "url": "http://www.fukujuso.or.jp/",
    "pref": "青森県",
    "city": "八戸市",
    "category": "day_service",
    "serviceType": "通所介護",
    "capacity": 0,
    "openDays": [
      "平日",
      "土曜日",
      "日曜日",
      "祝日"
    ],
    "openDaysNote": ""
  },
  {
    "id": "270302391",
    "name": "妙水苑デイサービスセンター",
    "kana": "ミョウスイエンデイサービスセンター",
    "address": "青森県八戸市大字妙字分枝３９－１",
    "lat": 40.4854409,
    "lng": 141.5344946,
    "tel": "0178-30-1556",
    "url": "http://sg-kumiai.or.jp/kumiai/",
    "pref": "青森県",
    "city": "八戸市",
    "category": "day_service",
    "serviceType": "通所介護",
    "capacity": 50,
    "openDays": [
      "平日",
      "土曜日",
      "日曜日",
      "祝日"
    ],
    "openDaysNote": ""
  },
  {
    "id": "272400599",
    "name": "デイサービスセンター　ひばの里",
    "kana": "デイサービスセンター　ヒバノサト",
    "address": "青森県北津軽郡板柳町大字掛落林字前田140-1",
    "lat": 40.7185276,
    "lng": 140.4402665,
    "tel": "0172-73-2651",
    "url": "hibanosato@iaa.itkeeper.ne.jp",
    "pref": "青森県",
    "city": "板柳町",
    "category": "day_service",
    "serviceType": "通所介護",
    "capacity": 10,
    "openDays": [
      "平日",
      "日曜日",
      "祝日"
    ],
    "openDaysNote": "なし"
  },
  {
    "id": "272400466",
    "name": "デイサービスセンターいたや荘",
    "kana": "デイサービスセンターイタヤソウ",
    "address": "青森県北津軽郡板柳町大字辻字岸田６６番地いたや荘 いたや荘",
    "lat": 40.6908448,
    "lng": 140.4702593,
    "tel": "0172-79-2100",
    "url": "http://www.tsugaru-sanwakai.or.jp",
    "pref": "青森県",
    "city": "板柳町",
    "category": "day_service",
    "serviceType": "通所介護",
    "capacity": 35,
    "openDays": [
      "平日",
      "土曜日",
      "祝日"
    ],
    "openDaysNote": "定休日であっても何がございましたら、上記の電話番号にご連絡いただければ職員が対応する体制をとっておりますので、いつでもご相談ください。"
  },
  {
    "id": "272400292",
    "name": "デイサービスセンター鶴住",
    "kana": "デイサービスセンターツルズミ",
    "address": "青森県北津軽郡板柳町大字野中字鶴住１０２－２",
    "lat": 40.7220886,
    "lng": 140.4508185,
    "tel": "0172-73-3194",
    "url": "http://turuzumikai.jp/",
    "pref": "青森県",
    "city": "板柳町",
    "category": "day_service",
    "serviceType": "通所介護",
    "capacity": 0,
    "openDays": [
      "平日",
      "土曜日",
      "祝日"
    ],
    "openDaysNote": "なし"
  },
  {
    "id": "272400177",
    "name": "みどりデイサービスセンター",
    "kana": "ミドリデイサービスセンター",
    "address": "北津軽郡板柳町大字福野田字実田５４番地3",
    "lat": 40.6972519,
    "lng": 140.459799,
    "tel": "0172-73-3660",
    "url": "http://ryokuoukai.net/",
    "pref": "青森県",
    "city": "板柳町",
    "category": "day_service",
    "serviceType": "通所介護",
    "capacity": null,
    "openDays": [
      "平日",
      "土曜日",
      "日曜日",
      "祝日"
    ],
    "openDaysNote": ""
  },
  {
    "id": "272401043",
    "name": "ライフケア高増デイサービスセンター",
    "kana": "ライフケアタカマス　デイサービスセンター",
    "address": "青森県北津軽郡板柳町大字大俵字和田４２３番地６津軽の里　高増 津軽の里　高増",
    "lat": 40.7173461,
    "lng": 140.4893986,
    "tel": "0172-77-4170",
    "url": "http://tsugarunosato.com/takamasu/",
    "pref": "青森県",
    "city": "板柳町",
    "category": "day_service",
    "serviceType": "通所介護",
    "capacity": 30,
    "openDays": [
      "平日",
      "土曜日",
      "祝日"
    ],
    "openDaysNote": "営業日は、営業時間内において、利用者様が希望する時間に利用できます。"
  },
  {
    "id": "272300690",
    "name": "デイサービスあすかの湯",
    "kana": "デイサービスアスカノユ",
    "address": "青森県平川市町居西田111番地1",
    "lat": 40.5867469,
    "lng": 140.5791437,
    "tel": "0172-43-1165",
    "url": "http://www.kaigo-support.co.jp/",
    "pref": "青森県",
    "city": "平川市",
    "category": "day_service",
    "serviceType": "通所介護",
    "capacity": 40,
    "openDays": [
      "平日",
      "土曜日",
      "日曜日",
      "祝日"
    ],
    "openDaysNote": "年中無休で営業しています。（改行）ご希望のかたは保険外での早朝・延長サービスも行っています。"
  },
  {
    "id": "272301011",
    "name": "デイサービスセンター　おのえ",
    "kana": "デイサービスセンターオノエ",
    "address": "青森県平川市中佐渡上石田３６－１",
    "lat": 40.6079555,
    "lng": 140.5642804,
    "tel": "0172-43-5225",
    "url": "http://www.tsugaru-sanwakai.or.jp/",
    "pref": "青森県",
    "city": "平川市",
    "category": "day_service",
    "serviceType": "通所介護",
    "capacity": 50,
    "openDays": [
      "平日",
      "土曜日",
      "祝日"
    ],
    "openDaysNote": ""
  },
  {
    "id": "272300138",
    "name": "デイサービスセンター　三笠",
    "kana": "デイサービスセンター　ミカサ",
    "address": "青森県平川市館田西和田200",
    "lat": 40.5871593,
    "lng": 140.5394193,
    "tel": "0172-44-8833",
    "url": "http://www.mikasaen.or.jp/",
    "pref": "青森県",
    "city": "平川市",
    "category": "day_service",
    "serviceType": "通所介護",
    "capacity": 0,
    "openDays": [
      "平日",
      "土曜日",
      "日曜日",
      "祝日"
    ],
    "openDaysNote": "12月31日、1月1日は年末年始休暇とする。"
  },
  {
    "id": "272300567",
    "name": "ディサービスセンターさわやか園",
    "kana": "ディサービスセンターサワヤカエン",
    "address": "青森県平川市日沼樋田８５",
    "lat": 40.6203461,
    "lng": 140.5165641,
    "tel": "0172-43-5432",
    "url": "http://www.sawayakaen.net/",
    "pref": "青森県",
    "city": "平川市",
    "category": "day_service",
    "serviceType": "通所介護",
    "capacity": 30,
    "openDays": [
      "平日",
      "土曜日",
      "祝日"
    ],
    "openDaysNote": "なし"
  },
  {
    "id": "272300823",
    "name": "デイサービスセンターなごみ",
    "kana": "デイサービスセンターナゴミ",
    "address": "青森県平川市柏木町藤山30-35",
    "lat": 40.5843661,
    "lng": 140.5637035,
    "tel": "0172-43-0505",
    "url": "",
    "pref": "青森県",
    "city": "平川市",
    "category": "day_service",
    "serviceType": "通所介護",
    "capacity": 20,
    "openDays": [
      "平日",
      "土曜日",
      "祝日"
    ],
    "openDaysNote": ""
  },
  {
    "id": "272300609",
    "name": "社会福祉法人　平川市社会福祉協議会　尾上通所介護事業所",
    "kana": "シャカイフクシホウジンヒラカワシシャカイフクシキョウギカイオノエツウショカイゴジギョウショ",
    "address": "青森県平川市猿賀南田９６番地３平川市尾上地域福祉センター 平川市尾上地域福祉センター",
    "lat": 40.6143965,
    "lng": 140.5728736,
    "tel": "0172-57-5311",
    "url": "http://www.hirasyakyo.org/",
    "pref": "青森県",
    "city": "平川市",
    "category": "day_service",
    "serviceType": "通所介護",
    "capacity": 0,
    "openDays": [
      "平日",
      "土曜日",
      "祝日"
    ],
    "openDaysNote": "特になし"
  },
  {
    "id": "272300450",
    "name": "緑青園デイサービスセンター",
    "kana": "リョクショウエンデイサービスセンター",
    "address": "青森県平川市沖舘和田８４番地",
    "lat": 40.5748561,
    "lng": 140.5709031,
    "tel": "0172-44-7400",
    "url": "http://ryokufu.or.jp/",
    "pref": "青森県",
    "city": "平川市",
    "category": "day_service",
    "serviceType": "通所介護",
    "capacity": 0,
    "openDays": [
      "平日",
      "土曜日",
      "祝日"
    ],
    "openDaysNote": ""
  },
  {
    "id": "272000472",
    "name": "デイサービスセンター夜越山",
    "kana": "デイサービスセンター　ヨゴシヤマ",
    "address": "青森県東津軽郡平内町大字浜子字堀替７７－３",
    "lat": 40.92646,
    "lng": 140.9910336,
    "tel": "017-755-6600",
    "url": "http://www.s-care.jp/",
    "pref": "青森県",
    "city": "平内町",
    "category": "day_service",
    "serviceType": "通所介護",
    "capacity": 40,
    "openDays": [
      "平日",
      "祝日"
    ],
    "openDaysNote": "特になし"
  },
  {
    "id": "272000050",
    "name": "社会福祉法人徳寿福祉会　デイサービスセンターひまわり",
    "kana": "シャカイフクシホウジントクジュフクシカイ　デイサービスセンターヒマワリ",
    "address": "青森県東津軽郡平内町清水川字権十郎新田８",
    "lat": 40.9272415,
    "lng": 141.0111095,
    "tel": "017-758-1030",
    "url": "https://sites.google.com/view/hiranaitown-dsc-himawari/%E3%83%87%E3%82%A4%E3%82%B5%E3%83%BC%E3%83%93%E3%82%B9%E3%82%BB%E3%83%B3%E3%82%BF%E3%83%BC",
    "pref": "青森県",
    "city": "平内町",
    "category": "day_service",
    "serviceType": "通所介護",
    "capacity": 0,
    "openDays": [
      "平日",
      "土曜日"
    ],
    "openDaysNote": "特になし"
  },
  {
    "id": "272000225",
    "name": "よもぎケアセンター",
    "kana": "ヨモギケアセンター",
    "address": "青森県東津軽郡蓬田村大字郷沢字浜田397",
    "lat": 40.9900592,
    "lng": 140.6477158,
    "tel": "0174-27-3445",
    "url": "http://www/watona-ru.com/houseien",
    "pref": "青森県",
    "city": "蓬田村",
    "category": "day_service",
    "serviceType": "通所介護",
    "capacity": 20,
    "openDays": [
      "平日",
      "土曜日",
      "日曜日",
      "祝日"
    ],
    "openDaysNote": ""
  },
  {
    "id": "272501628",
    "name": "デイサービス　ふる里",
    "kana": "デイサービス　フルサト",
    "address": "青森県上北郡野辺地町字大月平34-23",
    "lat": 40.8757994,
    "lng": 141.1418114,
    "tel": "0175-72-8525",
    "url": "",
    "pref": "青森県",
    "city": "野辺地町",
    "category": "day_service",
    "serviceType": "通所介護",
    "capacity": 30,
    "openDays": [
      "平日",
      "土曜日",
      "祝日"
    ],
    "openDaysNote": ""
  },
  {
    "id": "272500984",
    "name": "デイサービスセンターはまなす",
    "kana": "デイサービスセンターハマナス",
    "address": "青森県上北郡野辺地町字餅粟川原3-2",
    "lat": 40.8533453,
    "lng": 141.1282188,
    "tel": "0175-65-2227",
    "url": "http://www.fukushinosato.com",
    "pref": "青森県",
    "city": "野辺地町",
    "category": "day_service",
    "serviceType": "通所介護",
    "capacity": 0,
    "openDays": [
      "平日",
      "土曜日",
      "日曜日",
      "祝日"
    ],
    "openDaysNote": "年中無休で営業しております。"
  },
  {
    "id": "272501164",
    "name": "たもぎデイサービスセンター",
    "kana": "タモギデイサービスセンター",
    "address": "青森県上北郡六ヶ所村大字平沼字二階坂92-7",
    "lat": 40.872601,
    "lng": 141.3590483,
    "tel": "0175-71-3311",
    "url": "",
    "pref": "青森県",
    "city": "六ヶ所村",
    "category": "day_service",
    "serviceType": "通所介護",
    "capacity": 0,
    "openDays": [
      "平日",
      "祝日"
    ],
    "openDaysNote": ""
  },
  {
    "id": "272500604",
    "name": "ぼんてん荘デイサ－ビスセンタ－",
    "kana": "ボンテンソウデイサ－ビスセンタ－",
    "address": "青森県上北郡六ヶ所村大字出戸字棚沢１３０番１６",
    "lat": 41.0061387,
    "lng": 141.3690015,
    "tel": "0175-72-3886",
    "url": "http://syouryokufukusikai.com/",
    "pref": "青森県",
    "city": "六ヶ所村",
    "category": "day_service",
    "serviceType": "通所介護",
    "capacity": 0,
    "openDays": [
      "平日",
      "祝日"
    ],
    "openDaysNote": ""
  },
  {
    "id": "272501032",
    "name": "エスノス六戸福祉センター　デイサービスセンター",
    "kana": "エスノスロクノヘフクシセンター　デイサービスセンター",
    "address": "青森県上北郡六戸町大字犬落瀬字前谷地98番地",
    "lat": 40.6078148003749,
    "lng": 141.322608811639,
    "tel": "0176-55-5601",
    "url": "https://www.esnos.jp",
    "pref": "青森県",
    "city": "六戸町",
    "category": "day_service",
    "serviceType": "通所介護",
    "capacity": 30,
    "openDays": [
      "平日",
      "日曜日",
      "祝日"
    ],
    "openDaysNote": ""
  },
  {
    "id": "272502014",
    "name": "デイサービスセンター　ほのぼの",
    "kana": "デイサービスセンター　ホノボノ",
    "address": "青森県上北郡六戸町小松ヶ丘4丁目77-787",
    "lat": 40.6616349,
    "lng": 141.3417431,
    "tel": "0176-58-5888",
    "url": "http://shafuku-nozomi.com/",
    "pref": "青森県",
    "city": "六戸町",
    "category": "day_service",
    "serviceType": "通所介護",
    "capacity": 30,
    "openDays": [
      "平日",
      "土曜日",
      "祝日"
    ],
    "openDaysNote": ""
  },
  {
    "id": "272500463",
    "name": "デイサービスセンターにこにこプラザ六戸",
    "kana": "デイサービスセンターニコニコプラザロクノヘ",
    "address": "青森県上北郡六戸町大字犬落瀬字権現沢54-767",
    "lat": 40.6472275,
    "lng": 141.3037496,
    "tel": "0176-70-1100",
    "url": "http://www.sg-momijikai.com/",
    "pref": "青森県",
    "city": "六戸町",
    "category": "day_service",
    "serviceType": "通所介護",
    "capacity": 40,
    "openDays": [
      "平日",
      "土曜日",
      "祝日"
    ],
    "openDaysNote": ""
  },
  {
    "id": "272500554",
    "name": "デイサービスセンターメープル",
    "kana": "デイサービスセンターメープル",
    "address": "青森県上北郡六戸町大字上吉田字長谷８５番地１１",
    "lat": 40.5931894,
    "lng": 141.3394791,
    "tel": "0176-55-5355",
    "url": "http://meipuru.or.jp/",
    "pref": "青森県",
    "city": "六戸町",
    "category": "day_service",
    "serviceType": "通所介護",
    "capacity": 0,
    "openDays": [
      "平日",
      "土曜日",
      "祝日"
    ],
    "openDaysNote": ""
  },
  {
    "id": "272500778",
    "name": "はるが丘デイサービスセンター",
    "kana": "ハルガオカデイサービスセンター",
    "address": "青森県上北郡六戸町大字犬落瀬字堀切沢５９－５４",
    "lat": 40.6591551084349,
    "lng": 141.346326064418,
    "tel": "0176-50-2122",
    "url": "http://www.rakuseikai.or.jp/",
    "pref": "青森県",
    "city": "六戸町",
    "category": "day_service",
    "serviceType": "通所介護",
    "capacity": 25,
    "openDays": [
      "平日",
      "土曜日",
      "祝日"
    ],
    "openDaysNote": ""
  },
  {
    "id": "272101031",
    "name": "あいデイサービス",
    "kana": "アイデイサービス",
    "address": "青森県西津軽郡鯵ヶ沢町大字舞戸町字北禿142-1",
    "lat": 40.7744248,
    "lng": 140.2233724,
    "tel": "0173-72-5123",
    "url": "",
    "pref": "青森県",
    "city": "鰺ヶ沢町",
    "category": "day_service",
    "serviceType": "通所介護",
    "capacity": 0,
    "openDays": [
      "平日",
      "土曜日",
      "祝日"
    ],
    "openDaysNote": "土曜営業は利用受入数に制限があります。"
  },
  {
    "id": "272100298",
    "name": "つくし荘デイサービスセンター",
    "kana": "ツクシソウデイサービスセンター",
    "address": "青森県西津軽郡鯵ヶ沢町大字北浮田町字今須87-1",
    "lat": 40.790002,
    "lng": 140.2535674,
    "tel": "0173-72-7111",
    "url": "http://aomoritsukushikai.com/",
    "pref": "青森県",
    "city": "鰺ヶ沢町",
    "category": "day_service",
    "serviceType": "通所介護",
    "capacity": 0,
    "openDays": [
      "平日",
      "土曜日",
      "祝日"
    ],
    "openDaysNote": "なし"
  }
]