[
  {
    "id": "3771100256",
    "name": "さざんか荘老人デイサービスセンター",
    "kana": "サザンカソウロウジンデイサービスセンター",
    "address": "香川県さぬき市大川町田面360番地",
    "lat": 34.2532461,
    "lng": 134.2559539,
    "tel": "0879-43-0333",
    "url": "sazanka-sou@rapid.ocn.ne.jp",
    "pref": "香川県",
    "city": "さぬき市",
    "category": "day_service",
    "serviceType": "通所介護",
    "capacity": 0,
    "openDays": [
      "平日",
      "祝日"
    ],
    "openDaysNote": "-"
  },
  {
    "id": "3770600058",
    "name": "さぬき市社会福祉協議会福祉の里通所介護事業所",
    "kana": "サヌキシシャカイフクシキョウギカイフクシノサトツウショカイゴジギョウショ",
    "address": "さぬき市昭和１０５０－１",
    "lat": 34.2474632,
    "lng": 134.1669153,
    "tel": "0879-23-6202",
    "url": "http://sanuki-syakyo.jp",
    "pref": "香川県",
    "city": "さぬき市",
    "category": "day_service",
    "serviceType": "通所介護",
    "capacity": 30,
    "openDays": [
      "平日",
      "祝日"
    ],
    "openDaysNote": ""
  },
  {
    "id": "3771100199",
    "name": "さわやか荘デイサービスセンター",
    "kana": "サワヤカソウデイサービスセンター",
    "address": "香川県さぬき市津田町津田２２０７番地",
    "lat": 34.2944693,
    "lng": 134.2389743,
    "tel": "0879-42-1150",
    "url": "https://sawayakakaigo.or.jp/",
    "pref": "香川県",
    "city": "さぬき市",
    "category": "day_service",
    "serviceType": "通所介護",
    "capacity": 40,
    "openDays": [
      "平日",
      "土曜日",
      "祝日"
    ],
    "openDaysNote": "-"
  },
  {
    "id": "3770600579",
    "name": "デイサービス　ぷちとまと",
    "kana": "デイサービス　プチトマト",
    "address": "香川県さぬき市造田是弘４１２番地１ケアセンターぷちとまと ケアセンターぷちとまと",
    "lat": 34.2785730259271,
    "lng": 134.181951659124,
    "tel": "０８７９－５２－４８７６",
    "url": "http://puchi-tomato.net",
    "pref": "香川県",
    "city": "さぬき市",
    "category": "day_service",
    "serviceType": "通所介護",
    "capacity": 30,
    "openDays": [
      "平日",
      "土曜日",
      "日曜日",
      "祝日"
    ],
    "openDaysNote": "１月１日のみ休み。"
  },
  {
    "id": "3770600744",
    "name": "デイサービスあいりす",
    "kana": "デイサービスアイリス",
    "address": "香川県さぬき市造田是弘619-7",
    "lat": 34.2809511,
    "lng": 134.179905,
    "tel": "0879－52－4663",
    "url": "https://kourakuen-iris.co.jp",
    "pref": "香川県",
    "city": "さぬき市",
    "category": "day_service",
    "serviceType": "通所介護",
    "capacity": 19,
    "openDays": [
      "平日",
      "祝日"
    ],
    "openDaysNote": "12月31日～1月3日　年末年始お休み"
  },
  {
    "id": "3770600298",
    "name": "デイサービスセンター　ゆたか",
    "kana": "デイサービスセンターユタカ",
    "address": "香川県さぬき市昭和560－2",
    "lat": 34.2462551,
    "lng": 134.1676264,
    "tel": "0879-23-6515",
    "url": "http://care-net.biz/37/nagaofukushikai/",
    "pref": "香川県",
    "city": "さぬき市",
    "category": "day_service",
    "serviceType": "通所介護",
    "capacity": 0,
    "openDays": [
      "平日",
      "土曜日",
      "祝日"
    ],
    "openDaysNote": ""
  },
  {
    "id": "3770600538",
    "name": "デイサービスセンター憩",
    "kana": "デイサービスセンターイコイ",
    "address": "香川県さぬき市長尾西204番地5",
    "lat": 34.2759788,
    "lng": 134.1756387,
    "tel": "0879-23-6320",
    "url": "http://sanuki-hyunet.com/service/index.html",
    "pref": "香川県",
    "city": "さぬき市",
    "category": "day_service",
    "serviceType": "通所介護",
    "capacity": 20,
    "openDays": [
      "平日",
      "土曜日",
      "日曜日",
      "祝日"
    ],
    "openDaysNote": "水曜日　19人定員（改行）月曜日、火曜日木曜日、金曜日、土曜日　15人定員（改行）日曜日　10人定員"
  },
  {
    "id": "3770601197",
    "name": "デイサービスセンター志度玉浦園",
    "kana": "デイサービスセンターシドタマウラエン",
    "address": "香川県さぬき市志度1610番地1",
    "lat": 34.3192994,
    "lng": 134.1943422,
    "tel": "087-894-5868",
    "url": "http://www.tamauraen.or.jp/",
    "pref": "香川県",
    "city": "さぬき市",
    "category": "day_service",
    "serviceType": "通所介護",
    "capacity": 0,
    "openDays": [
      "平日",
      "土曜日"
    ],
    "openDaysNote": "長期休みの場合にはサービスを提供する場合あり"
  },
  {
    "id": "3770600868",
    "name": "デイサービスゆかり",
    "kana": "デイサービスユカリ",
    "address": "長尾東1029-3",
    "lat": 34.2614263497503,
    "lng": 134.180714336801,
    "tel": "0879-24-9077",
    "url": "http://yukari214.jimdo.com/",
    "pref": "香川県",
    "city": "さぬき市",
    "category": "day_service",
    "serviceType": "通所介護",
    "capacity": 20,
    "openDays": [
      "平日",
      "土曜日",
      "日曜日",
      "祝日"
    ],
    "openDaysNote": ""
  },
  {
    "id": "3770601221",
    "name": "デイサービス杏（あん）",
    "kana": "デイサービスアン",
    "address": "香川県さぬき市寒川町石田西2280-5",
    "lat": 34.2589244,
    "lng": 134.192693,
    "tel": "0879-43-3639",
    "url": "http://sun-care.sub.jp/index.html",
    "pref": "香川県",
    "city": "さぬき市",
    "category": "day_service",
    "serviceType": "通所介護",
    "capacity": 10,
    "openDays": [
      "平日",
      "土曜日"
    ],
    "openDaysNote": "デイサービス杏（あん）は、月曜日から土曜日まで営業しています。（年末30日～1月3日まで休み）（改行）24時間電話対応していますのでいつでも電話可能です。"
  },
  {
    "id": "3770601205",
    "name": "デイサービス志度の丘",
    "kana": "デイサービスシドノオカ",
    "address": "香川県さぬき市志度4626-8",
    "lat": 34.3112212,
    "lng": 134.1878355,
    "tel": "087-894-7112",
    "url": "http://www.tomohiro-sk.jp/aozora.html",
    "pref": "香川県",
    "city": "さぬき市",
    "category": "day_service",
    "serviceType": "通所介護",
    "capacity": null,
    "openDays": [
      "平日",
      "土曜日",
      "祝日"
    ],
    "openDaysNote": "12月31日～1月3日はお休み"
  },
  {
    "id": "3770600827",
    "name": "ハーティヴィラ亀鶴デイサービスセンター",
    "kana": "ハーティヴィラキカクデイサービスセンター",
    "address": "香川県さぬき市長尾西1602-1ハーティヴィラ亀鶴 ハーティヴィラ亀鶴",
    "lat": 34.2546429,
    "lng": 134.1737784,
    "tel": "0879-23-6134",
    "url": "http://care-net.biz/37/nagaofukushikai/",
    "pref": "香川県",
    "city": "さぬき市",
    "category": "day_service",
    "serviceType": "通所介護",
    "capacity": 0,
    "openDays": [
      "平日",
      "土曜日",
      "祝日"
    ],
    "openDaysNote": ""
  },
  {
    "id": "3770600751",
    "name": "鴨部の家",
    "kana": "カベノイエ",
    "address": "香川県さぬき市鴨部4781-1",
    "lat": 34.3133643,
    "lng": 134.2259807,
    "tel": "087-895-3105",
    "url": "",
    "pref": "香川県",
    "city": "さぬき市",
    "category": "day_service",
    "serviceType": "通所介護",
    "capacity": 30,
    "openDays": [
      "平日",
      "土曜日",
      "日曜日",
      "祝日"
    ],
    "openDaysNote": ""
  },
  {
    "id": "3770601189",
    "name": "機能訓練型デイサービス鴨部の家",
    "kana": "キノウクンレンガタデイービスカベノイエ",
    "address": "香川県さぬき市鴨部４７８０番地１",
    "lat": 34.31355812137,
    "lng": 134.225940472445,
    "tel": "087-895-3105",
    "url": "",
    "pref": "香川県",
    "city": "さぬき市",
    "category": "day_service",
    "serviceType": "通所介護",
    "capacity": 20,
    "openDays": [
      "平日"
    ],
    "openDaysNote": ""
  },
  {
    "id": "3771100355",
    "name": "香東園デイサービスセンター",
    "kana": "コウトウエンデイサービスセンター",
    "address": "香川県さぬき市寒川町石田西680番地1",
    "lat": 34.2759076375489,
    "lng": 134.195257852115,
    "tel": "0879-43-2557",
    "url": "http://www.koutouen.com/",
    "pref": "香川県",
    "city": "さぬき市",
    "category": "day_service",
    "serviceType": "通所介護",
    "capacity": 35,
    "openDays": [
      "平日",
      "土曜日",
      "祝日"
    ],
    "openDaysNote": ""
  },
  {
    "id": "3770600926",
    "name": "讃鶴",
    "kana": "サンカク",
    "address": "香川県さぬき市津田町鶴羽2193番地1",
    "lat": 34.2777291946617,
    "lng": 134.278455195862,
    "tel": "0879-49-6780",
    "url": "http://www.okawaso.com",
    "pref": "香川県",
    "city": "さぬき市",
    "category": "day_service",
    "serviceType": "通所介護",
    "capacity": 10,
    "openDays": [
      "平日",
      "土曜日",
      "日曜日",
      "祝日"
    ],
    "openDaysNote": ""
  },
  {
    "id": "3770601098",
    "name": "通所介護ライムライト",
    "kana": "ツウショカイゴライムライト",
    "address": "志度2325-1",
    "lat": 34.316091,
    "lng": 134.174463,
    "tel": "087-894-8341",
    "url": "http://www.zuishou.net/",
    "pref": "香川県",
    "city": "さぬき市",
    "category": "day_service",
    "serviceType": "通所介護",
    "capacity": 25,
    "openDays": [
      "平日",
      "祝日"
    ],
    "openDaysNote": ""
  },
  {
    "id": "3770601213",
    "name": "富華",
    "kana": "フウカ",
    "address": "香川県さぬき市大川町富田中3161番地1",
    "lat": 34.2608941935342,
    "lng": 134.238390040723,
    "tel": "0879-43-6780",
    "url": "http://www.okawaso.com/",
    "pref": "香川県",
    "city": "さぬき市",
    "category": "day_service",
    "serviceType": "通所介護",
    "capacity": 0,
    "openDays": [
      "平日",
      "土曜日",
      "日曜日",
      "祝日"
    ],
    "openDaysNote": "電話等により24時間連絡可能な体制をとっています。"
  },
  {
    "id": "3771600925",
    "name": "デイサービスセンターだん路",
    "kana": "デイサービスセンターダンロ",
    "address": "香川県仲多度郡まんのう町四條１７９番地",
    "lat": 34.1859765041842,
    "lng": 133.838298411657,
    "tel": "0877-58-8311",
    "url": "http://wwwa.pikara.ne.jp/danro/",
    "pref": "香川県",
    "city": "まんのう町",
    "category": "day_service",
    "serviceType": "通所介護",
    "capacity": 19,
    "openDays": [
      "平日",
      "土曜日",
      "祝日"
    ],
    "openDaysNote": ""
  },
  {
    "id": "3771600743",
    "name": "やすらぎ荘老人デイサービスセンター",
    "kana": "ヤスラギソウロウジンデイサービスセンター",
    "address": "香川県仲多度郡まんのう町川東１５１２",
    "lat": 34.112069,
    "lng": 133.9771856,
    "tel": "0877-84-2210",
    "url": "http://www.seiyuukai.jp",
    "pref": "香川県",
    "city": "まんのう町",
    "category": "day_service",
    "serviceType": "通所介護",
    "capacity": 0,
    "openDays": [
      "平日",
      "祝日"
    ],
    "openDaysNote": "-"
  },
  {
    "id": "3771600156",
    "name": "医療法人　圭良会　通所介護　いこいの家",
    "kana": "イリョウホウジン　ケイリョウカイ　ツウショカイゴ　イコイノイエ",
    "address": "香川県仲多度郡まんのう町買田221-3",
    "lat": 34.1722555,
    "lng": 133.8274669,
    "tel": "0877-73-3718",
    "url": "http://www.eisei-hp.or.jp/",
    "pref": "香川県",
    "city": "まんのう町",
    "category": "day_service",
    "serviceType": "通所介護",
    "capacity": 25,
    "openDays": [
      "平日",
      "土曜日",
      "祝日"
    ],
    "openDaysNote": "-"
  },
  {
    "id": "3771600883",
    "name": "医療法人　圭良会　通所介護げんきの郷",
    "kana": "イリョウホウジン　ケイリョウカイ　ツウショカイゴゲンキノサト",
    "address": "香川県仲多度郡まんのう町買田102-1",
    "lat": 34.177241,
    "lng": 133.8264113,
    "tel": "0877-58-8811",
    "url": "http://www.eisei-hp.or.jp",
    "pref": "香川県",
    "city": "まんのう町",
    "category": "day_service",
    "serviceType": "通所介護",
    "capacity": 0,
    "openDays": [
      "平日",
      "土曜日",
      "祝日"
    ],
    "openDaysNote": "-"
  },
  {
    "id": "3771600354",
    "name": "仲南荘老人デイサービスセンター",
    "kana": "チュウナンソウロウジンデイサービスセンター",
    "address": "香川県仲多度郡まんのう町帆山505",
    "lat": 34.1543836,
    "lng": 133.8442856,
    "tel": "0877-77-2323",
    "url": "https://www.seiyuukai.jp/",
    "pref": "香川県",
    "city": "まんのう町",
    "category": "day_service",
    "serviceType": "通所介護",
    "capacity": 0,
    "openDays": [
      "平日",
      "土曜日",
      "日曜日",
      "祝日"
    ],
    "openDaysNote": "-"
  },
  {
    "id": "3771600347",
    "name": "満濃荘老人デイサービスセンター",
    "kana": "マンノウソウロウジンデイサービスセンター",
    "address": "香川県仲多度郡まんのう町長尾1102番地",
    "lat": 34.1950398,
    "lng": 133.8555007,
    "tel": "0877-79-3011",
    "url": "http://www.seiyuukai.jp/",
    "pref": "香川県",
    "city": "まんのう町",
    "category": "day_service",
    "serviceType": "通所介護",
    "capacity": 0,
    "openDays": [
      "平日",
      "土曜日",
      "日曜日",
      "祝日"
    ],
    "openDaysNote": "ー"
  },
  {
    "id": "3771501131",
    "name": "デイサービスセンター綾川",
    "kana": "デイサービスセンターアヤガワ",
    "address": "香川県綾歌郡綾川町陶２６９１番地１デイサービスセンター綾川 デイサービスセンター綾川",
    "lat": 34.2561519,
    "lng": 133.9582545,
    "tel": "087-876-6200",
    "url": "",
    "pref": "香川県",
    "city": "綾川町",
    "category": "day_service",
    "serviceType": "通所介護",
    "capacity": 0,
    "openDays": [
      "平日",
      "土曜日",
      "祝日"
    ],
    "openDaysNote": "（但しお盆８月１３日～１５日・年末年始１２月３０日～１月３日を除く）"
  },
  {
    "id": "3770300485",
    "name": "ひな菊ディサービス",
    "kana": "ヒナキクデイサービス",
    "address": "綾歌郡綾川町小野甲２４７－５",
    "lat": 34.2446584,
    "lng": 133.9074255,
    "tel": "087-876-3327",
    "url": "http//www.itecservice.co.jp./tnthp/hina/",
    "pref": "香川県",
    "city": "綾川町",
    "category": "day_service",
    "serviceType": "通所介護",
    "capacity": 0,
    "openDays": [
      "平日",
      "土曜日",
      "日曜日",
      "祝日"
    ],
    "openDaysNote": "１２月３１日から１月２日までの年末年始はお休みすることがある。"
  },
  {
    "id": "3771500943",
    "name": "綾川町社会福祉協議会通所介護事業所",
    "kana": "アヤガワチョウシャカイフクシキョウギカイツウウショカイゴジギョウショ",
    "address": "香川県綾歌郡綾川町滝宮276番地",
    "lat": 34.2499604,
    "lng": 133.9210243,
    "tel": "087-876-4221",
    "url": "http://www.ayagawa-shakyo.or.jp/",
    "pref": "香川県",
    "city": "綾川町",
    "category": "day_service",
    "serviceType": "通所介護",
    "capacity": 0,
    "openDays": [
      "平日"
    ],
    "openDaysNote": "-"
  },
  {
    "id": "3771501289",
    "name": "倶楽部　一合一笑　ことわ",
    "kana": "クラブ　イチゴイチエ　コトワ",
    "address": "香川県綾歌郡綾川町滝宮1564",
    "lat": 34.2486323,
    "lng": 133.9163825,
    "tel": "087-802-2212",
    "url": "",
    "pref": "香川県",
    "city": "綾川町",
    "category": "day_service",
    "serviceType": "通所介護",
    "capacity": null,
    "openDays": [
      "平日",
      "土曜日",
      "祝日"
    ],
    "openDaysNote": ""
  },
  {
    "id": "3771500364",
    "name": "松林荘デイサービスセンター",
    "kana": "ショウリンソウデイサービスセンター",
    "address": "香川県綾歌郡綾川町山田下山王424番地",
    "lat": 34.2298595888996,
    "lng": 133.959859395584,
    "tel": "087-878-2188",
    "url": "https://syourinsou.com",
    "pref": "香川県",
    "city": "綾川町",
    "category": "day_service",
    "serviceType": "通所介護",
    "capacity": 40,
    "openDays": [
      "平日",
      "祝日"
    ],
    "openDaysNote": "-"
  },
  {
    "id": "3771501149",
    "name": "すまいるケアセンター",
    "kana": "スマイルケアセンター",
    "address": "香川県綾歌郡宇多津町浜六番丁86-4",
    "lat": 34.3075901,
    "lng": 133.8163056,
    "tel": "0877-41-9671",
    "url": "",
    "pref": "香川県",
    "city": "宇多津町",
    "category": "day_service",
    "serviceType": "通所介護",
    "capacity": 19,
    "openDays": [
      "平日",
      "土曜日"
    ],
    "openDaysNote": "尚、利用者の要望がある場合は、この限りではなく介護計画に基づき営業する。（改行）日・祝等、連続して２回以上ある場合は、月１回以上、祝日営業する。"
  },
  {
    "id": "3771501032",
    "name": "デイサービスセンター歩・いっぽ",
    "kana": "デイサービスセンターホ・イッポ",
    "address": "香川県綾歌郡宇多津町浜五番丁66番地3",
    "lat": 34.3039711,
    "lng": 133.8113202,
    "tel": "0877-49-2770",
    "url": "vice-utz.com/hoippo/",
    "pref": "香川県",
    "city": "宇多津町",
    "category": "day_service",
    "serviceType": "通所介護",
    "capacity": 30,
    "openDays": [
      "平日",
      "土曜日"
    ],
    "openDaysNote": "利用者の要望がある場合にはこの限りではなく介護計画に基づき営業する。"
  },
  {
    "id": "3770500712",
    "name": "デイサービス　おおとよ",
    "kana": "デイサービス　オオトヨ",
    "address": "香川県観音寺市大野原町大野原7010番地",
    "lat": 34.0735167869682,
    "lng": 133.665288425934,
    "tel": "0875-24-9550",
    "url": "http://www.ootoyo.jp/",
    "pref": "香川県",
    "city": "観音寺市",
    "category": "day_service",
    "serviceType": "通所介護",
    "capacity": 40,
    "openDays": [
      "平日",
      "土曜日",
      "祝日"
    ],
    "openDaysNote": "なし"
  },
  {
    "id": "3771700451",
    "name": "デイサービスセンターとよはま荘",
    "kana": "デイサービスセンタートヨハマソウ",
    "address": "観音寺市豊浜町和田浜1575-1",
    "lat": 34.0711231,
    "lng": 133.6367176,
    "tel": "0875-52-3488",
    "url": "",
    "pref": "香川県",
    "city": "観音寺市",
    "category": "day_service",
    "serviceType": "通所介護",
    "capacity": 0,
    "openDays": [
      "平日",
      "土曜日",
      "祝日"
    ],
    "openDaysNote": "該当なし"
  },
  {
    "id": "3770500886",
    "name": "デイサービスセンターはあとおん・かがやき",
    "kana": "デイサービスセンターハアトオンカガヤキ",
    "address": "香川県観音寺市植田町１４６３番地",
    "lat": 34.1241489035012,
    "lng": 133.671402016425,
    "tel": "0875-24-8580",
    "url": "http://mig-hearton.com/",
    "pref": "香川県",
    "city": "観音寺市",
    "category": "day_service",
    "serviceType": "通所介護",
    "capacity": 0,
    "openDays": [
      "平日",
      "土曜日",
      "祝日"
    ],
    "openDaysNote": ""
  },
  {
    "id": "3770500795",
    "name": "デイサービスセンター結・大興和",
    "kana": "デイサービスセンターユイ・ダイコウワ",
    "address": "香川県観音寺市植田町1010番地",
    "lat": 34.118909,
    "lng": 133.6796937,
    "tel": "0875-25-3500",
    "url": "http:/www.cl-ikeda/com/07stuff/index.html",
    "pref": "香川県",
    "city": "観音寺市",
    "category": "day_service",
    "serviceType": "通所介護",
    "capacity": 0,
    "openDays": [
      "平日",
      "土曜日",
      "祝日"
    ],
    "openDaysNote": "-"
  },
  {
    "id": "3770500829",
    "name": "デイサービスセンター笑歩会豊浜",
    "kana": "デイサービスセンターショウホカイトヨハマ",
    "address": "香川県観音寺市豊浜町姫浜101-2",
    "lat": 34.0845479256365,
    "lng": 133.639229451393,
    "tel": "0875-52-1080",
    "url": "http://shouhokai.jp/",
    "pref": "香川県",
    "city": "観音寺市",
    "category": "day_service",
    "serviceType": "通所介護",
    "capacity": 0,
    "openDays": [
      "平日",
      "祝日"
    ],
    "openDaysNote": ""
  },
  {
    "id": "3770500514",
    "name": "デイサービスセンター大興和",
    "kana": "デイサービスセンターダイコウワ",
    "address": "香川県観音寺市植田町1930番地",
    "lat": 34.1256471,
    "lng": 133.6684194,
    "tel": "0875-23-2000",
    "url": "http:/www.cl-ikeda/com/07stuff/index.html",
    "pref": "香川県",
    "city": "観音寺市",
    "category": "day_service",
    "serviceType": "通所介護",
    "capacity": 0,
    "openDays": [
      "平日",
      "土曜日",
      "祝日"
    ],
    "openDaysNote": "-"
  },
  {
    "id": "3770500639",
    "name": "ネムの木デイサービス豊浜",
    "kana": "ネムノキデイサービストヨハマ",
    "address": "豊浜町姫浜41番地１",
    "lat": 34.0880405,
    "lng": 133.6381586,
    "tel": "0875-52-1808",
    "url": "www.koushi-f.or.jp",
    "pref": "香川県",
    "city": "観音寺市",
    "category": "day_service",
    "serviceType": "通所介護",
    "capacity": 30,
    "openDays": [
      "平日",
      "土曜日",
      "祝日"
    ],
    "openDaysNote": ""
  },
  {
    "id": "3770500076",
    "name": "はがみ苑　デイサービスセンター",
    "kana": "ハガミエン　デイサービスセンター",
    "address": "香川県観音寺市原町1273番地３",
    "lat": 34.1063827,
    "lng": 133.692743,
    "tel": "0875-27-6207",
    "url": "http://care-net.biz/37/hagami",
    "pref": "香川県",
    "city": "観音寺市",
    "category": "day_service",
    "serviceType": "通所介護",
    "capacity": 0,
    "openDays": [
      "平日",
      "土曜日",
      "祝日"
    ],
    "openDaysNote": ""
  },
  {
    "id": "3770500910",
    "name": "ほねつぎデイサービス観音寺",
    "kana": "ホネツギデイサービスカンオンジ",
    "address": "香川県観音寺市栄町三丁目3番10101号 101号",
    "lat": 34.1245781,
    "lng": 133.6542111,
    "tel": "0875-24-8206",
    "url": "ー",
    "pref": "香川県",
    "city": "観音寺市",
    "category": "day_service",
    "serviceType": "通所介護",
    "capacity": 19,
    "openDays": [
      "平日",
      "祝日"
    ],
    "openDaysNote": "※年末年始　お盆　ＧＷ　定休日あり"
  },
  {
    "id": "3770500837",
    "name": "リハビリステーション晃誠",
    "kana": "リハビリステーション　コウセイ",
    "address": "香川県観音寺市池之尻町1017番地1",
    "lat": 34.1113571,
    "lng": 133.691368,
    "tel": "0875-23-6388",
    "url": "http://activevision.co.jp/",
    "pref": "香川県",
    "city": "観音寺市",
    "category": "day_service",
    "serviceType": "通所介護",
    "capacity": 0,
    "openDays": [
      "平日",
      "土曜日"
    ],
    "openDaysNote": "成人の日は営業"
  },
  {
    "id": "3770500217",
    "name": "楽陽荘デイサービスセンター",
    "kana": "ラクヨウソウデイサービスセンター",
    "address": "香川県観音寺市柞田町甲１９３６番地",
    "lat": 34.1136735,
    "lng": 133.675133,
    "tel": "0875-25-8720",
    "url": "http://www.rakuyousou.com",
    "pref": "香川県",
    "city": "観音寺市",
    "category": "day_service",
    "serviceType": "通所介護",
    "capacity": 0,
    "openDays": [
      "平日",
      "土曜日",
      "祝日"
    ],
    "openDaysNote": "-"
  },
  {
    "id": "3770500407",
    "name": "冨士クリニックデイサービスセンター",
    "kana": "フジクリニックデイサービスセンター",
    "address": "香川県観音寺市観音寺町甲2899-3",
    "lat": 34.1276968,
    "lng": 133.6498014,
    "tel": "0875-57-6031",
    "url": "",
    "pref": "香川県",
    "city": "観音寺市",
    "category": "day_service",
    "serviceType": "通所介護",
    "capacity": null,
    "openDays": [
      "平日",
      "土曜日"
    ],
    "openDaysNote": "-"
  },
  {
    "id": "3770201253",
    "name": "インクルージョンホーム丸亀通所介護事業所",
    "kana": "インクルージョンホームマルガメツウショカイゴジギョウショ",
    "address": "丸亀市中津町1467-1",
    "lat": 34.2809239,
    "lng": 133.7741153,
    "tel": "0877-23-3808",
    "url": "",
    "pref": "香川県",
    "city": "丸亀市",
    "category": "day_service",
    "serviceType": "通所介護",
    "capacity": null,
    "openDays": [
      "平日",
      "土曜日"
    ],
    "openDaysNote": ""
  },
  {
    "id": "3770202061",
    "name": "セントケア丸亀デイサービス",
    "kana": "セントケアマルガメデイサービス",
    "address": "香川県丸亀市今津町342番地1",
    "lat": 34.2846596,
    "lng": 133.8065949,
    "tel": "0877-22-1100",
    "url": "https://www.care-net.biz/37/saintcare-shikoku/",
    "pref": "香川県",
    "city": "丸亀市",
    "category": "day_service",
    "serviceType": "通所介護",
    "capacity": 0,
    "openDays": [
      "平日",
      "土曜日"
    ],
    "openDaysNote": ""
  },
  {
    "id": "3770200073",
    "name": "たるみ荘デイサービスセンター",
    "kana": "タルミソウ　デイサービスセンター",
    "address": "香川県丸亀市垂水町１３５３番地",
    "lat": 34.2339017,
    "lng": 133.8293733,
    "tel": "0877-28-9002",
    "url": "http://www.tarumisou.com/",
    "pref": "香川県",
    "city": "丸亀市",
    "category": "day_service",
    "serviceType": "通所介護",
    "capacity": 0,
    "openDays": [
      "平日",
      "土曜日"
    ],
    "openDaysNote": "-"
  },
  {
    "id": "3770201881",
    "name": "ツクイ丸亀",
    "kana": "ツクイマルガメ",
    "address": "香川県丸亀市土器町東7-432-1",
    "lat": 34.2966256,
    "lng": 133.8103307,
    "tel": "0877-58-2375",
    "url": "https://www.tsukui.net",
    "pref": "香川県",
    "city": "丸亀市",
    "category": "day_service",
    "serviceType": "通所介護",
    "capacity": 15,
    "openDays": [
      "平日",
      "土曜日",
      "日曜日",
      "祝日"
    ],
    "openDaysNote": ""
  },
  {
    "id": "3770202020",
    "name": "デイサービス　といろ",
    "kana": "デイサービス　トイロ",
    "address": "香川県丸亀市飯山町東坂元2788番地1",
    "lat": 34.2698348763815,
    "lng": 133.8714438698,
    "tel": "0877-98-1080",
    "url": "https://sites.google.com/view/toiro-dayservice/",
    "pref": "香川県",
    "city": "丸亀市",
    "category": "day_service",
    "serviceType": "通所介護",
    "capacity": 20,
    "openDays": [
      "平日",
      "祝日"
    ],
    "openDaysNote": ""
  },
  {
    "id": "3770201212",
    "name": "デイサービス　らく楽丸亀市役所前",
    "kana": "デイサービス　ラクラクマルガメシヤクショマエ",
    "address": "香川県丸亀市通町91番地2",
    "lat": 34.2905616,
    "lng": 133.7979583,
    "tel": "0877-64-6603",
    "url": "http://www.rakuraku-group.jp",
    "pref": "香川県",
    "city": "丸亀市",
    "category": "day_service",
    "serviceType": "通所介護",
    "capacity": 0,
    "openDays": [
      "平日",
      "土曜日",
      "日曜日",
      "祝日"
    ],
    "openDaysNote": ""
  },
  {
    "id": "3770201543",
    "name": "デイサービスセンター　ネムの木",
    "kana": "デイサービスセンター　ネムノキ",
    "address": "香川県丸亀市川西町南258-1",
    "lat": 34.2552686,
    "lng": 133.8333974,
    "tel": "0877-35-7774",
    "url": "http://www.koushi-f.or.jp",
    "pref": "香川県",
    "city": "丸亀市",
    "category": "day_service",
    "serviceType": "通所介護",
    "capacity": 0,
    "openDays": [
      "平日",
      "土曜日",
      "祝日"
    ],
    "openDaysNote": "月～土曜日は定員65名"
  },
  {
    "id": "3770201428",
    "name": "デイサービスセンターきらめき郡家",
    "kana": "デイサービスセンターキラメキグンゲ",
    "address": "丸亀市郡家町字大林下3648-1",
    "lat": 34.2650675,
    "lng": 133.8129989,
    "tel": "0877-58-1133",
    "url": "http://junshinkai.com/",
    "pref": "香川県",
    "city": "丸亀市",
    "category": "day_service",
    "serviceType": "通所介護",
    "capacity": 35,
    "openDays": [
      "平日",
      "土曜日",
      "祝日"
    ],
    "openDaysNote": ""
  },
  {
    "id": "3770201816",
    "name": "デイサービスセンターだん垂水",
    "kana": "デイサービスセンターダンタルミ",
    "address": "香川県丸亀市垂水町2897-1",
    "lat": 34.2416118601187,
    "lng": 133.831222957772,
    "tel": "0877-35-8801",
    "url": "https://www.hide-dan.com/",
    "pref": "香川県",
    "city": "丸亀市",
    "category": "day_service",
    "serviceType": "通所介護",
    "capacity": 25,
    "openDays": [
      "平日",
      "祝日"
    ],
    "openDaysNote": ""
  },
  {
    "id": "3770202053",
    "name": "デイサービスセンターよもぎ",
    "kana": "デイサービスセンターヨモギ",
    "address": "香川県丸亀市飯山町下法軍寺536番地1",
    "lat": 34.250803,
    "lng": 133.8541863,
    "tel": "0877-85-7167",
    "url": "https://yomogiweb.jimdofree.com/",
    "pref": "香川県",
    "city": "丸亀市",
    "category": "day_service",
    "serviceType": "通所介護",
    "capacity": null,
    "openDays": [
      "平日",
      "土曜日",
      "祝日"
    ],
    "openDaysNote": ""
  },
  {
    "id": "3770200198",
    "name": "デイサービスセンター丸亀",
    "kana": "デイサービスセンターマルガメ",
    "address": "香川県丸亀市今津町219-2",
    "lat": 34.2757105,
    "lng": 133.7837936,
    "tel": "0877-21-5200",
    "url": "http://www.utazuhukushikai.or.jp",
    "pref": "香川県",
    "city": "丸亀市",
    "category": "day_service",
    "serviceType": "通所介護",
    "capacity": 5,
    "openDays": [
      "平日",
      "土曜日",
      "祝日"
    ],
    "openDaysNote": "-"
  },
  {
    "id": "3770201188",
    "name": "デイサービスどき二号館",
    "kana": "デイサービス　ドキ２ゴウカン",
    "address": "丸亀市土器町西4丁目251番地",
    "lat": 34.2830514,
    "lng": 133.8149759,
    "tel": "0877-85-6285",
    "url": "http://kaigostation.co.jp",
    "pref": "香川県",
    "city": "丸亀市",
    "category": "day_service",
    "serviceType": "通所介護",
    "capacity": 28,
    "openDays": [
      "平日",
      "土曜日",
      "日曜日",
      "祝日"
    ],
    "openDaysNote": "-"
  },
  {
    "id": "3770201345",
    "name": "デイサービス桃の花",
    "kana": "デイサービスモモノハナ",
    "address": "丸亀市飯山町川原185-1",
    "lat": 34.2628288,
    "lng": 133.8520683,
    "tel": "0877-59-7184",
    "url": "koufukukai.or.jp",
    "pref": "香川県",
    "city": "丸亀市",
    "category": "day_service",
    "serviceType": "通所介護",
    "capacity": null,
    "openDays": [
      "平日",
      "土曜日",
      "祝日"
    ],
    "openDaysNote": ""
  },
  {
    "id": "3770200586",
    "name": "どきデイサービスセンター",
    "kana": "ドキデイサービスセンター",
    "address": "香川県丸亀市土器町西4丁目244番地どき介護ステーション2Ｆ どき介護ステーション2Ｆ",
    "lat": 34.2826265,
    "lng": 133.8152315,
    "tel": "0877-85-6281",
    "url": "http://kaigostation.co.jp",
    "pref": "香川県",
    "city": "丸亀市",
    "category": "day_service",
    "serviceType": "通所介護",
    "capacity": 59,
    "openDays": [
      "平日",
      "土曜日",
      "日曜日",
      "祝日"
    ],
    "openDaysNote": "-"
  },
  {
    "id": "3770200230",
    "name": "ニチイケアセンター　丸亀",
    "kana": "ニチイケアセンター　マルガメ",
    "address": "香川県丸亀市中津町７５－１",
    "lat": 34.2838482,
    "lng": 133.7676448,
    "tel": "0877-58-0077",
    "url": "",
    "pref": "香川県",
    "city": "丸亀市",
    "category": "day_service",
    "serviceType": "通所介護",
    "capacity": 25,
    "openDays": [
      "平日",
      "土曜日",
      "日曜日",
      "祝日"
    ],
    "openDaysNote": "特になし"
  },
  {
    "id": "3770201410",
    "name": "ニチイケアセンター飯山",
    "kana": "ニチイケアセンターハンザン",
    "address": "丸亀市飯山町上法軍寺922-1",
    "lat": 34.2479973,
    "lng": 133.8593154,
    "tel": "0877-56-8570",
    "url": "なし",
    "pref": "香川県",
    "city": "丸亀市",
    "category": "day_service",
    "serviceType": "通所介護",
    "capacity": 0,
    "openDays": [
      "平日",
      "土曜日",
      "祝日"
    ],
    "openDaysNote": "特になし"
  },
  {
    "id": "3771500679",
    "name": "綾歌老人デイサービスセンター",
    "kana": "アヤウタロウジンデイサービスセンター",
    "address": "香川県丸亀市綾歌町岡田下５０３番地１",
    "lat": 34.2237474,
    "lng": 133.8608605,
    "tel": "0877-86-1800",
    "url": "www.carehouse-ayauta.jp/",
    "pref": "香川県",
    "city": "丸亀市",
    "category": "day_service",
    "serviceType": "通所介護",
    "capacity": 20,
    "openDays": [
      "平日"
    ],
    "openDaysNote": "特になし"
  },
  {
    "id": "3771500141",
    "name": "紅山ケアセンター",
    "kana": "ベニヤマケアセンター",
    "address": "香川県丸亀市飯山町上法軍寺2600番地",
    "lat": 34.2386595,
    "lng": 133.8666512,
    "tel": "0877-98-3939",
    "url": "http://www.beniyama.jp/",
    "pref": "香川県",
    "city": "丸亀市",
    "category": "day_service",
    "serviceType": "通所介護",
    "capacity": 0,
    "openDays": [
      "平日",
      "土曜日",
      "祝日"
    ],
    "openDaysNote": "送迎の時間帯には職員がいない場合がありますが、法人内で電話等を受けることは可能です。"
  },
  {
    "id": "3770200123",
    "name": "珠光園デイサービスセンター",
    "kana": "ジュコウエンデイサービスセンター",
    "address": "香川県丸亀市飯野町東二甲911番地1",
    "lat": 34.2698923702098,
    "lng": 133.83446482842,
    "tel": "0877-23-2775",
    "url": "http://www.jukoen.jp",
    "pref": "香川県",
    "city": "丸亀市",
    "category": "day_service",
    "serviceType": "通所介護",
    "capacity": 0,
    "openDays": [
      "平日",
      "土曜日"
    ],
    "openDaysNote": ""
  },
  {
    "id": "3770201865",
    "name": "水の恵マリアデイセンター",
    "kana": "ミズノメグミマリアデイセンター",
    "address": "香川県丸亀市垂水町19-2",
    "lat": 34.2239377,
    "lng": 133.8355434,
    "tel": "0877-28-1320",
    "url": "",
    "pref": "香川県",
    "city": "丸亀市",
    "category": "day_service",
    "serviceType": "通所介護",
    "capacity": null,
    "openDays": [
      "平日",
      "土曜日",
      "祝日"
    ],
    "openDaysNote": ""
  },
  {
    "id": "3770200172",
    "name": "青の山荘デイサービスセンター",
    "kana": "アオノヤマソウデイサービスセンター",
    "address": "香川県丸亀市土器町東四丁目７７番地",
    "lat": 34.2925419,
    "lng": 133.8203861,
    "tel": "0877-25-1200",
    "url": "https://houjyuen.web.fc2.com/index.html",
    "pref": "香川県",
    "city": "丸亀市",
    "category": "day_service",
    "serviceType": "通所介護",
    "capacity": 0,
    "openDays": [
      "平日",
      "祝日"
    ],
    "openDaysNote": "天災により、市長の指示及び管理者の判断により危険と思われる時は、利用日であっても中止するときもある。"
  },
  {
    "id": "3770201063",
    "name": "特別養護老人ホーム　華デイサービス",
    "kana": "トクベツヨウゴロウジンホーム　ハナデイサービス",
    "address": "香川県丸亀市綾歌町栗熊西224番地2",
    "lat": 34.2206311,
    "lng": 133.8830562,
    "tel": "0877-57-1510",
    "url": "http://www.tokuyou-hana.org/",
    "pref": "香川県",
    "city": "丸亀市",
    "category": "day_service",
    "serviceType": "通所介護",
    "capacity": 25,
    "openDays": [
      "平日",
      "土曜日"
    ],
    "openDaysNote": "-"
  },
  {
    "id": "3771600545",
    "name": "クレールみどりデイサービスセンター",
    "kana": "クレールミドリデイサービスセンター",
    "address": "香川県仲多度郡琴平町苗田字中森４０２番地１",
    "lat": 34.2007408,
    "lng": 133.8140338,
    "tel": "0877-75-5577",
    "url": "http://www.keishoukai.jp/",
    "pref": "香川県",
    "city": "琴平町",
    "category": "day_service",
    "serviceType": "通所介護",
    "capacity": 20,
    "openDays": [
      "平日",
      "祝日"
    ],
    "openDaysNote": "-"
  },
  {
    "id": "3771600834",
    "name": "デイサービス　なごみの家",
    "kana": "デイサービス　ナゴミノイエ",
    "address": "香川県仲多度郡琴平町榎井780番地1",
    "lat": 34.1906532,
    "lng": 133.824386,
    "tel": "0877-73-2800",
    "url": "http://www.iwasa.or.jp/nagomi.html",
    "pref": "香川県",
    "city": "琴平町",
    "category": "day_service",
    "serviceType": "通所介護",
    "capacity": 0,
    "openDays": [
      "平日",
      "土曜日",
      "祝日"
    ],
    "openDaysNote": "サービス提供時間　9:00～17：00"
  },
  {
    "id": "3771601170",
    "name": "デイサービスいけだ",
    "kana": "デイサービスイケダ",
    "address": "香川県仲多度郡琴平町736-1",
    "lat": 34.1866423046827,
    "lng": 133.820580298117,
    "tel": "0877-73--5537",
    "url": "",
    "pref": "香川県",
    "city": "琴平町",
    "category": "day_service",
    "serviceType": "通所介護",
    "capacity": 20,
    "openDays": [
      "平日"
    ],
    "openDaysNote": "自然災害、利用者様の状態によっては変更があります。"
  },
  {
    "id": "3770109910",
    "name": "IMCデイサービス太田上町",
    "kana": "アイ・エム・シーデイサービスオオタカミマチ",
    "address": "香川県高松市太田上町14番地アイ・エム・シー太田上町 アイ・エム・シー太田上町",
    "lat": 34.2901319,
    "lng": 134.0398656,
    "tel": "087-813-5127",
    "url": "",
    "pref": "香川県",
    "city": "高松市",
    "category": "day_service",
    "serviceType": "通所介護",
    "capacity": 0,
    "openDays": [
      "平日",
      "土曜日",
      "祝日"
    ],
    "openDaysNote": "全体の営業時間としては8：30～17：30"
  },
  {
    "id": "3770102394",
    "name": "ＮＰデイサービス　せと",
    "kana": "エヌピデイサービス　セト",
    "address": "高松市木太町3222番地",
    "lat": 34.333444854615,
    "lng": 134.076731862146,
    "tel": "087-834-2700",
    "url": "http://www.np-medical.com",
    "pref": "香川県",
    "city": "高松市",
    "category": "day_service",
    "serviceType": "通所介護",
    "capacity": 180,
    "openDays": [
      "平日",
      "土曜日",
      "祝日"
    ],
    "openDaysNote": "宿泊、延長サービスは行っておりません。"
  },
  {
    "id": "3770112070",
    "name": "ＮＰデイサービスせと",
    "kana": "エヌピデイサービスセト",
    "address": "高松市木太町3222番地",
    "lat": 34.3333384,
    "lng": 134.0767202,
    "tel": "087-834-2700",
    "url": "",
    "pref": "香川県",
    "city": "高松市",
    "category": "day_service",
    "serviceType": "通所介護",
    "capacity": null,
    "openDays": [
      "平日",
      "土曜日",
      "祝日"
    ],
    "openDaysNote": "災害、感染対策にて臨時休業有"
  },
  {
    "id": "3771300286",
    "name": "あじの里デイサービスセンター",
    "kana": "アジノサトデイサービスセンター",
    "address": "香川県高松市庵治町４１５１番地７",
    "lat": 34.3795414,
    "lng": 134.1438573,
    "tel": "087-870-3500",
    "url": "https://yoyokai.or.jp/",
    "pref": "香川県",
    "city": "高松市",
    "category": "day_service",
    "serviceType": "通所介護",
    "capacity": 0,
    "openDays": [
      "平日",
      "土曜日",
      "祝日"
    ],
    "openDaysNote": "-"
  },
  {
    "id": "3770107112",
    "name": "アルファデイサービスセンター伏石",
    "kana": "アルファデイサービスセンターフセイシ",
    "address": "高松市伏石町2111番2アルファリビング高松伏石サンフラワー通り アルファリビング高松伏石サンフラワー通り",
    "lat": 34.3107846,
    "lng": 134.0537139,
    "tel": "087-815-0185",
    "url": "http://www.a-living.jp/fuseishi/",
    "pref": "香川県",
    "city": "高松市",
    "category": "day_service",
    "serviceType": "通所介護",
    "capacity": 200,
    "openDays": [
      "平日",
      "祝日"
    ],
    "openDaysNote": "月曜日から金曜日まで営業。（祝日問わず）"
  },
  {
    "id": "3770111445",
    "name": "あろはデイサービス香南",
    "kana": "アロハデイサービスコウナン",
    "address": "香南町西庄1671-2あろは虹の丘1F あろは虹の丘1F",
    "lat": 34.2358967,
    "lng": 133.9942807,
    "tel": "087-802-6051",
    "url": "",
    "pref": "香川県",
    "city": "高松市",
    "category": "day_service",
    "serviceType": "通所介護",
    "capacity": 0,
    "openDays": [
      "平日",
      "土曜日",
      "祝日"
    ],
    "openDaysNote": ""
  },
  {
    "id": "3770110538",
    "name": "あん樹苑デイサービスセンター",
    "kana": "アンジュエンデイサービスセンター",
    "address": "香川県高松市香川町浅野1414番地",
    "lat": 34.2529677,
    "lng": 134.0373573,
    "tel": "087－879－3344",
    "url": "https://hatsukikai.or.jp",
    "pref": "香川県",
    "city": "高松市",
    "category": "day_service",
    "serviceType": "通所介護",
    "capacity": 0,
    "openDays": [
      "平日",
      "土曜日",
      "日曜日",
      "祝日"
    ],
    "openDaysNote": ""
  },
  {
    "id": "3770101172",
    "name": "エデンの丘デイサービスセンターえんがわ",
    "kana": "エデンノオカデイサービスセンターエンガワ",
    "address": "香川県高松市鶴市町1770-4",
    "lat": 34.3372237,
    "lng": 134.0162727,
    "tel": "087-812-3455",
    "url": "http://www.bokuyoukai.or.jp/qhm/",
    "pref": "香川県",
    "city": "高松市",
    "category": "day_service",
    "serviceType": "通所介護",
    "capacity": 0,
    "openDays": [
      "平日",
      "土曜日",
      "祝日"
    ],
    "openDaysNote": "天候等による安全な送迎、サービスの提供ができないと判断した場合は、営業を中止する。"
  },
  {
    "id": "3770101529",
    "name": "おりいぶ荘デイサービスセンター",
    "kana": "オリイブソウデイサービスセンター",
    "address": "香川県高松市太田下町2020番地1",
    "lat": 34.3043471,
    "lng": 134.0389735,
    "tel": "087-815-1888",
    "url": "https://hatsukikai.or.jp/",
    "pref": "香川県",
    "city": "高松市",
    "category": "day_service",
    "serviceType": "通所介護",
    "capacity": 0,
    "openDays": [
      "平日",
      "土曜日",
      "日曜日",
      "祝日"
    ],
    "openDaysNote": "利用希望者多数の場合は営業の可能性あり"
  },
  {
    "id": "3770110389",
    "name": "きたまち苑デイサービスセンター",
    "kana": "キタマチエンデイサービスセンター",
    "address": "香川県高松市木太町5113-15",
    "lat": 34.3085301,
    "lng": 134.0672884,
    "tel": "087-802-8100",
    "url": "https://hatsukikai.or.jp",
    "pref": "香川県",
    "city": "高松市",
    "category": "day_service",
    "serviceType": "通所介護",
    "capacity": 30,
    "openDays": [
      "平日",
      "土曜日",
      "祝日"
    ],
    "openDaysNote": ""
  },
  {
    "id": "3770108581",
    "name": "クレール藤　デイサービスセンター",
    "kana": "クレールフジ　デイサービスセンター",
    "address": "上林町688",
    "lat": 34.291382,
    "lng": 134.0610641,
    "tel": "087-888-7718",
    "url": "http://www.keishoukai.jp/institution/fuji/",
    "pref": "香川県",
    "city": "高松市",
    "category": "day_service",
    "serviceType": "通所介護",
    "capacity": 40,
    "openDays": [
      "平日",
      "土曜日",
      "祝日"
    ],
    "openDaysNote": ""
  },
  {
    "id": "3770110306",
    "name": "ケアサービス優悠",
    "kana": "ケアサービスユウユウ",
    "address": "香川県高松市三谷町4874番地優悠サービス付き高齢者向け住宅 優悠サービス付き高齢者向け住宅",
    "lat": 34.2830969865926,
    "lng": 134.075406178393,
    "tel": "087-802-7711",
    "url": "https://yu-yu.site",
    "pref": "香川県",
    "city": "高松市",
    "category": "day_service",
    "serviceType": "通所介護",
    "capacity": 20,
    "openDays": [
      "平日",
      "土曜日",
      "祝日"
    ],
    "openDaysNote": ""
  },
  {
    "id": "3770108136",
    "name": "ケアスタジオココロココ",
    "kana": "ケアスタジオココロココ",
    "address": "香川県高松市太田下町3032-2　メゾンブランシュ太田1階メゾンブランシュ太田1階 メゾンブランシュ太田1階",
    "lat": 34.3034299370863,
    "lng": 134.053779535022,
    "tel": "087-814-7602",
    "url": "https://cocolococo.co.jp/",
    "pref": "香川県",
    "city": "高松市",
    "category": "day_service",
    "serviceType": "通所介護",
    "capacity": 15,
    "openDays": [
      "平日",
      "土曜日"
    ],
    "openDaysNote": ""
  },
  {
    "id": "3770105140",
    "name": "ケアパートナー高松",
    "kana": "ケアパートナータカマツ",
    "address": "香川県高松市上天神町793-1",
    "lat": 34.3095216,
    "lng": 134.0381094,
    "tel": "087-815-1790",
    "url": "http://www.care-partner.com",
    "pref": "香川県",
    "city": "高松市",
    "category": "day_service",
    "serviceType": "通所介護",
    "capacity": 40,
    "openDays": [
      "平日",
      "土曜日",
      "祝日"
    ],
    "openDaysNote": "日曜日：第３日曜日のみ営業"
  },
  {
    "id": "3770104069",
    "name": "ココロン　デイサービス",
    "kana": "ココロン　デイサービス",
    "address": "香川県高松市出作町422番地1",
    "lat": 34.2869629,
    "lng": 134.0479569,
    "tel": "087-840-1840",
    "url": "http://www.kaigosuru5560.co.jp",
    "pref": "香川県",
    "city": "高松市",
    "category": "day_service",
    "serviceType": "通所介護",
    "capacity": 60,
    "openDays": [
      "平日",
      "土曜日",
      "日曜日",
      "祝日"
    ],
    "openDaysNote": ""
  },
  {
    "id": "3770107807",
    "name": "ザグスタ松縄",
    "kana": "ザグスタマツナワ",
    "address": "松縄町1087－3",
    "lat": 34.3166543,
    "lng": 134.0651213,
    "tel": "087-869-8766",
    "url": "http://www.zagzag.co.jp/zagsut/",
    "pref": "香川県",
    "city": "高松市",
    "category": "day_service",
    "serviceType": "通所介護",
    "capacity": 0,
    "openDays": [
      "平日",
      "土曜日",
      "祝日"
    ],
    "openDaysNote": ""
  },
  {
    "id": "3770100323",
    "name": "さくら荘デイサ－ビスセンタ－",
    "kana": "サクラソウデイサ-ビスセンタ-",
    "address": "高松市林町76番地14",
    "lat": 34.2942428,
    "lng": 134.0662774,
    "tel": "087-868-0700",
    "url": "https://hatsukikai.or.jp",
    "pref": "香川県",
    "city": "高松市",
    "category": "day_service",
    "serviceType": "通所介護",
    "capacity": 0,
    "openDays": [
      "平日",
      "土曜日",
      "日曜日",
      "祝日"
    ],
    "openDaysNote": "夕食対応有"
  },
  {
    "id": "3770111049",
    "name": "サマリヤ勅使デイサービス",
    "kana": "サマリヤチョクシデイサービス",
    "address": "勅使町字大隅1379番地",
    "lat": 34.3082908748968,
    "lng": 134.02270994543,
    "tel": "087-867-2531",
    "url": "https://www.samariya.or.jp",
    "pref": "香川県",
    "city": "高松市",
    "category": "day_service",
    "serviceType": "通所介護",
    "capacity": 0,
    "openDays": [
      "平日"
    ],
    "openDaysNote": ""
  },
  {
    "id": "3771400151",
    "name": "さんさん荘老人デイサービスセンター",
    "kana": "サンサンソウロウジンデイサービスセンター",
    "address": "香川県高松市香川町川内原1003番地1",
    "lat": 34.2317736,
    "lng": 134.0504075,
    "tel": "087-879-0123",
    "url": "https://www.sansan-kai.com/",
    "pref": "香川県",
    "city": "高松市",
    "category": "day_service",
    "serviceType": "通所介護",
    "capacity": 0,
    "openDays": [
      "平日",
      "土曜日",
      "祝日"
    ],
    "openDaysNote": "-"
  },
  {
    "id": "3770100794",
    "name": "シオンの丘デイサービスセンター",
    "kana": "シオンノオカデイサービスセンター",
    "address": "高松市香西西町358番地1",
    "lat": 34.3509498,
    "lng": 133.988259,
    "tel": "087-881-4554",
    "url": "http://www.bokuyoukai.or.jp/qhm/",
    "pref": "香川県",
    "city": "高松市",
    "category": "day_service",
    "serviceType": "通所介護",
    "capacity": 0,
    "openDays": [
      "平日",
      "土曜日",
      "祝日"
    ],
    "openDaysNote": "-"
  },
  {
    "id": "3770100265",
    "name": "すみれ荘デイサービスセンター",
    "kana": "スミレソウデイサービスセンター",
    "address": "高松市十川西町1234番地1",
    "lat": 34.2599762,
    "lng": 134.0997289,
    "tel": "087-848-0964",
    "url": "https://hatsukikai.or.jp/",
    "pref": "香川県",
    "city": "高松市",
    "category": "day_service",
    "serviceType": "通所介護",
    "capacity": 0,
    "openDays": [
      "平日",
      "土曜日",
      "日曜日",
      "祝日"
    ],
    "openDaysNote": "利用希望者多数の場合、営業する可能性あり"
  },
  {
    "id": "3770110835",
    "name": "ツクイ高松西",
    "kana": "ツクイタカマツニシ",
    "address": "香川県高松市田村町490番地",
    "lat": 34.309669572333,
    "lng": 134.028042504894,
    "tel": "087-814-9701",
    "url": "takamatsu-nishi@tsukui.net",
    "pref": "香川県",
    "city": "高松市",
    "category": "day_service",
    "serviceType": "通所介護",
    "capacity": 15,
    "openDays": [
      "平日",
      "土曜日",
      "日曜日",
      "祝日"
    ],
    "openDaysNote": "祝祭日、お盆、お正月お休み無。365日営業"
  },
  {
    "id": "3770110827",
    "name": "ツクイ高松林町",
    "kana": "ツクイタカマツハヤシチョウ",
    "address": "香川県高松市林町256番地11",
    "lat": 34.3010831,
    "lng": 134.0698799,
    "tel": "878697477",
    "url": "https://www.tsukui.net/",
    "pref": "香川県",
    "city": "高松市",
    "category": "day_service",
    "serviceType": "通所介護",
    "capacity": null,
    "openDays": [
      "平日",
      "土曜日",
      "日曜日",
      "祝日"
    ],
    "openDaysNote": ""
  },
  {
    "id": "3770110587",
    "name": "デイサービス　La　mer",
    "kana": "デイサービス　ラ　メール",
    "address": "香川県高松市茜町28-31",
    "lat": 34.3507461317466,
    "lng": 134.023891127396,
    "tel": "087-802-0031",
    "url": "http://akanecho-bellevie.com/",
    "pref": "香川県",
    "city": "高松市",
    "category": "day_service",
    "serviceType": "通所介護",
    "capacity": 0,
    "openDays": [
      "平日",
      "祝日"
    ],
    "openDaysNote": ""
  },
  {
    "id": "3770106460",
    "name": "デイサービス　あざみ",
    "kana": "デイサービス　アザミ",
    "address": "香川県高松市屋島西町2302番地12",
    "lat": 34.3549873932977,
    "lng": 134.090971924459,
    "tel": "087-818-1077",
    "url": "",
    "pref": "香川県",
    "city": "高松市",
    "category": "day_service",
    "serviceType": "通所介護",
    "capacity": 30,
    "openDays": [
      "平日",
      "土曜日",
      "祝日"
    ],
    "openDaysNote": ""
  },
  {
    "id": "3770101974",
    "name": "デイサービス　うちんく",
    "kana": "デイサービス　ウチンク",
    "address": "香川県高松市川島本町切戸276-1",
    "lat": 34.2795783954262,
    "lng": 134.086016702516,
    "tel": "087-848-9270",
    "url": "",
    "pref": "香川県",
    "city": "高松市",
    "category": "day_service",
    "serviceType": "通所介護",
    "capacity": 20,
    "openDays": [
      "平日",
      "祝日"
    ],
    "openDaysNote": ""
  },
  {
    "id": "3770107252",
    "name": "デイサービス　きたえるーむ　高松中央",
    "kana": "デイサービス　キタエルーム　タカマツチュウオウ",
    "address": "香川県高松市楠上町1-7-20パルクピア101 パルクピア101",
    "lat": 34.3304337,
    "lng": 134.0581185,
    "tel": "087-887-0771",
    "url": "",
    "pref": "香川県",
    "city": "高松市",
    "category": "day_service",
    "serviceType": "通所介護",
    "capacity": 0,
    "openDays": [
      "平日",
      "土曜日"
    ],
    "openDaysNote": ""
  },
  {
    "id": "3770111189",
    "name": "デイサービス　グレイス",
    "kana": "デイサービス　グレイス",
    "address": "香川県高松市上林町７５５番地",
    "lat": 34.2877031,
    "lng": 134.0630611,
    "tel": "087-880-0350",
    "url": "https://rainbow-megumi.jp",
    "pref": "香川県",
    "city": "高松市",
    "category": "day_service",
    "serviceType": "通所介護",
    "capacity": null,
    "openDays": [
      "平日",
      "土曜日",
      "祝日"
    ],
    "openDaysNote": ""
  },
  {
    "id": "3770108573",
    "name": "デイサービス　てと手",
    "kana": "デイサービス　テトテ",
    "address": "高松市東山崎町971番地2",
    "lat": 34.3160226734393,
    "lng": 134.092849510451,
    "tel": "087-847-0885",
    "url": "",
    "pref": "香川県",
    "city": "高松市",
    "category": "day_service",
    "serviceType": "通所介護",
    "capacity": 0,
    "openDays": [
      "平日",
      "土曜日",
      "祝日"
    ],
    "openDaysNote": "12/31～1/2は休日とする。"
  },
  {
    "id": "3770104556",
    "name": "デイサービス　ほっと",
    "kana": "デイサービス　ホット",
    "address": "高松市西山崎町４４４－１",
    "lat": 34.2811525,
    "lng": 133.9976929,
    "tel": "087-870-4188",
    "url": "",
    "pref": "香川県",
    "city": "高松市",
    "category": "day_service",
    "serviceType": "通所介護",
    "capacity": 0,
    "openDays": [
      "平日",
      "土曜日",
      "祝日"
    ],
    "openDaysNote": "通常の祝日、祭日は営業しております。"
  },
  {
    "id": "3770108953",
    "name": "デイサービス　ライフサポートこくぶ",
    "kana": "デイサービス　ライフサポートコクブ",
    "address": "香川県高松市国分寺町国分７３２番地１デイサービス　ライフサポートこくぶ デイサービス　ライフサポートこくぶ",
    "lat": 34.2971527,
    "lng": 133.9454536,
    "tel": "087-814-4573",
    "url": "",
    "pref": "香川県",
    "city": "高松市",
    "category": "day_service",
    "serviceType": "通所介護",
    "capacity": null,
    "openDays": [
      "平日",
      "土曜日"
    ],
    "openDaysNote": ""
  },
  {
    "id": "3770109993",
    "name": "デイサービス　星のテラス",
    "kana": "デイサービスホシノテラス",
    "address": "香川県高松市由良町１１５１－１",
    "lat": 34.2828752,
    "lng": 134.0836864,
    "tel": "０８７－８４８－１２５３",
    "url": "",
    "pref": "香川県",
    "city": "高松市",
    "category": "day_service",
    "serviceType": "通所介護",
    "capacity": 0,
    "openDays": [
      "平日",
      "土曜日",
      "祝日"
    ],
    "openDaysNote": "サービス提供時間　９：００～１６：１５（改行）年末年始・お盆休み"
  },
  {
    "id": "3770103640",
    "name": "デイサービス　木太",
    "kana": "デイサービス　キタ",
    "address": "香川県高松市木太町３７４９番地３ケアセンター木太 ケアセンター木太",
    "lat": 34.3236009,
    "lng": 134.0788167,
    "tel": "087-863-5111",
    "url": "",
    "pref": "香川県",
    "city": "高松市",
    "category": "day_service",
    "serviceType": "通所介護",
    "capacity": 0,
    "openDays": [
      "平日",
      "土曜日",
      "祝日"
    ],
    "openDaysNote": ""
  },
  {
    "id": "3771400425",
    "name": "デイサービス　悠悠　すりーる",
    "kana": "デイサービス　ユウユウ　スリール",
    "address": "香川県高松市香南町西庄692番地1",
    "lat": 34.2446449,
    "lng": 133.9897028,
    "tel": "087-815-8602",
    "url": "http:/yuyu.client.jp/",
    "pref": "香川県",
    "city": "高松市",
    "category": "day_service",
    "serviceType": "通所介護",
    "capacity": 20,
    "openDays": [
      "平日",
      "土曜日",
      "祝日"
    ],
    "openDaysNote": ""
  },
  {
    "id": "3770105074",
    "name": "デイサービス　悠悠元気風呂",
    "kana": "デイサービス　ユウユウ　ゲンキブロ",
    "address": "香川県高松市香南町西庄398番地1",
    "lat": 34.245606,
    "lng": 133.9904332,
    "tel": "087-815-8532",
    "url": "http:/yuyu.client.jp/",
    "pref": "香川県",
    "city": "高松市",
    "category": "day_service",
    "serviceType": "通所介護",
    "capacity": 0,
    "openDays": [
      "平日",
      "土曜日",
      "日曜日",
      "祝日"
    ],
    "openDaysNote": "-"
  },
  {
    "id": "3770103186",
    "name": "デイサービス　夕凪",
    "kana": "デイサービス　ユウナギ",
    "address": "香川県高松市林町1986番地7",
    "lat": 34.307189,
    "lng": 134.0711803,
    "tel": "087-866-7626",
    "url": "",
    "pref": "香川県",
    "city": "高松市",
    "category": "day_service",
    "serviceType": "通所介護",
    "capacity": null,
    "openDays": [
      "平日",
      "土曜日"
    ],
    "openDaysNote": "-"
  },
  {
    "id": "3770106445",
    "name": "デイサービスあいか",
    "kana": "デイサービスアイカ",
    "address": "川部町１３０３番地",
    "lat": 34.2605629,
    "lng": 134.0147246,
    "tel": "087-815-7233",
    "url": "",
    "pref": "香川県",
    "city": "高松市",
    "category": "day_service",
    "serviceType": "通所介護",
    "capacity": 23,
    "openDays": [
      "平日",
      "祝日"
    ],
    "openDaysNote": "12/31～1/3は休業日（改行）体験利用あり"
  },
  {
    "id": "3770107732",
    "name": "デイサービスあおい",
    "kana": "デイサービスアオイ",
    "address": "香川県高松市飯田町1005番地",
    "lat": 34.3174313971801,
    "lng": 134.00631538234,
    "tel": "087-813-1030",
    "url": "",
    "pref": "香川県",
    "city": "高松市",
    "category": "day_service",
    "serviceType": "通所介護",
    "capacity": 25,
    "openDays": [
      "平日",
      "土曜日",
      "祝日"
    ],
    "openDaysNote": ""
  },
  {
    "id": "3770104515",
    "name": "デイサービスあじわい",
    "kana": "デイサービスアジワイ",
    "address": "高松市花園町１丁目６番２号",
    "lat": 34.3354693,
    "lng": 134.0559267,
    "tel": "087-861-2120",
    "url": "http://www.yamamoto-a.co.jp",
    "pref": "香川県",
    "city": "高松市",
    "category": "day_service",
    "serviceType": "通所介護",
    "capacity": 23,
    "openDays": [
      "平日",
      "土曜日",
      "日曜日",
      "祝日"
    ],
    "openDaysNote": "-"
  },
  {
    "id": "3770103319",
    "name": "デイサービスさくらんぼ",
    "kana": "デイサービスサクランボ",
    "address": "香川県高松市伏石町２００８番地5",
    "lat": 34.3208234,
    "lng": 134.054311,
    "tel": "087-868-8851",
    "url": "https://maedaseikei.net/",
    "pref": "香川県",
    "city": "高松市",
    "category": "day_service",
    "serviceType": "通所介護",
    "capacity": 5,
    "openDays": [
      "平日",
      "土曜日",
      "祝日"
    ],
    "openDaysNote": "なし"
  },
  {
    "id": "3770108888",
    "name": "デイサービスセンター　アイムの杜",
    "kana": "デイサービスセンターアイムノモリ",
    "address": "香川県高松市国分寺町新居1339-3",
    "lat": 34.2983801,
    "lng": 133.9599439,
    "tel": "087-864-9031",
    "url": "http://www.hiiragikai.com",
    "pref": "香川県",
    "city": "高松市",
    "category": "day_service",
    "serviceType": "通所介護",
    "capacity": 0,
    "openDays": [
      "平日",
      "土曜日",
      "祝日"
    ],
    "openDaysNote": "-"
  },
  {
    "id": "3770104861",
    "name": "デイサービスセンター　あかね",
    "kana": "デイサービスセンター　アカネ",
    "address": "香川県高松市西町4番1号",
    "lat": 34.3466316,
    "lng": 134.0278886,
    "tel": "087-834-1166",
    "url": "http://www.sw-akane.jp",
    "pref": "香川県",
    "city": "高松市",
    "category": "day_service",
    "serviceType": "通所介護",
    "capacity": 0,
    "openDays": [
      "平日",
      "祝日"
    ],
    "openDaysNote": "なし"
  },
  {
    "id": "3770111056",
    "name": "デイサービスセンター　うたい鳥",
    "kana": "デイサービスセンター　ウタイドリ",
    "address": "香川県高松市六条町511番地",
    "lat": 34.2909531,
    "lng": 134.0781903,
    "tel": "087-813-7007",
    "url": "https://www.junshinkai.com/facility/kagawa_takamatsu/entry-166.html",
    "pref": "香川県",
    "city": "高松市",
    "category": "day_service",
    "serviceType": "通所介護",
    "capacity": 0,
    "openDays": [
      "平日",
      "土曜日",
      "祝日"
    ],
    "openDaysNote": "緊急時はその都度対応いたします。"
  },
  {
    "id": "3770111619",
    "name": "デイサービスセンター　オアシス香西",
    "kana": "デイサービスセンター　オアシスコウザイ",
    "address": "香川県高松市檀紙町1452番地1",
    "lat": 34.307307173829,
    "lng": 133.999565128836,
    "tel": "087-815-6511",
    "url": "",
    "pref": "香川県",
    "city": "高松市",
    "category": "day_service",
    "serviceType": "通所介護",
    "capacity": 0,
    "openDays": [
      "平日",
      "土曜日",
      "祝日"
    ],
    "openDaysNote": ""
  },
  {
    "id": "3770105918",
    "name": "デイサービスセンター　サン・ウィング",
    "kana": "デイサービスセンター　サン・ウィング",
    "address": "香川県高松市国分寺町高松市国分寺町福家甲２８２番地１",
    "lat": 34.2679706388423,
    "lng": 133.980500463127,
    "tel": "087-813-8125",
    "url": "http://www.sunwing-k.com",
    "pref": "香川県",
    "city": "高松市",
    "category": "day_service",
    "serviceType": "通所介護",
    "capacity": 0,
    "openDays": [
      "平日",
      "祝日"
    ],
    "openDaysNote": "-"
  },
  {
    "id": "3770110082",
    "name": "デイサービスセンター　ゆうの季節",
    "kana": "デイサービスセンター　ユウノトキ",
    "address": "香川県高松市上林町705-1",
    "lat": 34.2905609,
    "lng": 134.0618905,
    "tel": "087-802-7185",
    "url": "https://yuyusya.co.jp/",
    "pref": "香川県",
    "city": "高松市",
    "category": "day_service",
    "serviceType": "通所介護",
    "capacity": 0,
    "openDays": [
      "平日",
      "土曜日",
      "祝日"
    ],
    "openDaysNote": ""
  },
  {
    "id": "3770108870",
    "name": "デイサービスセンター　わかば",
    "kana": "デイサービスセンター　ワカバ",
    "address": "香川県高松市牟礼町牟礼2120番地1",
    "lat": 34.343163233923,
    "lng": 134.126957964418,
    "tel": "087-814-6710",
    "url": "http://care-net.biz/37/wakaba",
    "pref": "香川県",
    "city": "高松市",
    "category": "day_service",
    "serviceType": "通所介護",
    "capacity": 10,
    "openDays": [
      "平日",
      "祝日"
    ],
    "openDaysNote": ""
  },
  {
    "id": "3770107104",
    "name": "デイサービスセンター　恵",
    "kana": "デイサービスセンター　メグミ",
    "address": "香川県高松市多肥上町１４１１番地１",
    "lat": 34.2944927,
    "lng": 134.0589477,
    "tel": "087-814-5115",
    "url": "",
    "pref": "香川県",
    "city": "高松市",
    "category": "day_service",
    "serviceType": "通所介護",
    "capacity": 0,
    "openDays": [
      "平日",
      "土曜日",
      "祝日"
    ],
    "openDaysNote": ""
  },
  {
    "id": "3770103053",
    "name": "デイサービスセンター　春いちばん",
    "kana": "デイサービスセンターハルイチバン",
    "address": "香川県高松市円座町1300-2",
    "lat": 34.2843349,
    "lng": 134.014537,
    "tel": "087-815-7100",
    "url": "http://www.happylifeai.co.jp/",
    "pref": "香川県",
    "city": "高松市",
    "category": "day_service",
    "serviceType": "通所介護",
    "capacity": 0,
    "openDays": [
      "平日",
      "土曜日"
    ],
    "openDaysNote": "-"
  },
  {
    "id": "3770100489",
    "name": "デイサービスセンター　竜雲舜虹苑",
    "kana": "デイサービスセンター　リュウウンシュンコウエン",
    "address": "香川県高松市仏生山町甲3100番地2",
    "lat": 34.2650823,
    "lng": 134.04741,
    "tel": "087-888-5800",
    "url": "http://www.ryuungakuen.or.jp",
    "pref": "香川県",
    "city": "高松市",
    "category": "day_service",
    "serviceType": "通所介護",
    "capacity": 0,
    "openDays": [
      "平日",
      "土曜日",
      "祝日"
    ],
    "openDaysNote": ""
  },
  {
    "id": "3770102527",
    "name": "デイサービスセンターこすもす",
    "kana": "デイサービスセンターコスモス",
    "address": "香川県高松市太田下町1868-2",
    "lat": 34.3070857,
    "lng": 134.0435455,
    "tel": "087-864-5552",
    "url": "",
    "pref": "香川県",
    "city": "高松市",
    "category": "day_service",
    "serviceType": "通所介護",
    "capacity": 85,
    "openDays": [
      "平日",
      "土曜日",
      "日曜日",
      "祝日"
    ],
    "openDaysNote": "地震・水害・火災或いは修繕工事により営業が困難であれば、休業する場合がある。"
  },
  {
    "id": "3770111833",
    "name": "デイサービスセンターこすもす",
    "kana": "デイサービスセンターコスモス",
    "address": "香川県高松市太田下町1868番地2",
    "lat": 34.3070314,
    "lng": 134.0435285,
    "tel": "087-864-5552",
    "url": "https://kaigo-cosmos.com/",
    "pref": "香川県",
    "city": "高松市",
    "category": "day_service",
    "serviceType": "通所介護",
    "capacity": 0,
    "openDays": [
      "平日",
      "土曜日",
      "日曜日",
      "祝日"
    ],
    "openDaysNote": "地震・水害・火災或いは修繕工事により営業が困難であれば、休業する場合がある。"
  },
  {
    "id": "3770100935",
    "name": "デイサービスセンターさぬき",
    "kana": "デイサービスセンターサヌキ",
    "address": "高松市中野町26-29",
    "lat": 34.3335184288629,
    "lng": 134.044505771828,
    "tel": "087-831-4462",
    "url": "http://www.sanuki-sha.or.jp",
    "pref": "香川県",
    "city": "高松市",
    "category": "day_service",
    "serviceType": "通所介護",
    "capacity": 40,
    "openDays": [
      "平日",
      "土曜日",
      "祝日"
    ],
    "openDaysNote": "特になし"
  },
  {
    "id": "3770106494",
    "name": "デイサービスセンターだんし",
    "kana": "デイサービスセンターダンシ",
    "address": "高松市檀紙町66番地1",
    "lat": 34.2971999,
    "lng": 133.9965546,
    "tel": "087-815-7550",
    "url": "kaigodanshi.com/",
    "pref": "香川県",
    "city": "高松市",
    "category": "day_service",
    "serviceType": "通所介護",
    "capacity": 0,
    "openDays": [
      "平日",
      "土曜日",
      "祝日"
    ],
    "openDaysNote": "特になし"
  },
  {
    "id": "3770105439",
    "name": "デイサービスセンターヌーベル木太",
    "kana": "デイサービスセンターヌーベルキタ",
    "address": "香川県高松市木太町２９２４番地７",
    "lat": 34.3288782,
    "lng": 134.0849798,
    "tel": "087-813-0845",
    "url": "http://www.yu-sho.or.jp",
    "pref": "香川県",
    "city": "高松市",
    "category": "day_service",
    "serviceType": "通所介護",
    "capacity": 0,
    "openDays": [
      "平日",
      "土曜日",
      "祝日"
    ],
    "openDaysNote": "‐"
  },
  {
    "id": "3770110199",
    "name": "デイサービスセンターローズマリー",
    "kana": "デイサービスセンターローズマリー",
    "address": "香川県高松市新田町甲478番地",
    "lat": 34.3277507,
    "lng": 134.1054274,
    "tel": "087-841-7771",
    "url": "http//:www.herbs-kaigo.jp",
    "pref": "香川県",
    "city": "高松市",
    "category": "day_service",
    "serviceType": "通所介護",
    "capacity": null,
    "openDays": [
      "平日",
      "土曜日",
      "祝日"
    ],
    "openDaysNote": "祭日、年末年始ご利用いただけます。"
  },
  {
    "id": "3770111734",
    "name": "デイサービスセンターローズマリー",
    "kana": "デイサービスセンターローズマリー",
    "address": "香川県高松市新田町甲478番地",
    "lat": 34.3197981,
    "lng": 134.1079134,
    "tel": "087-841-7771",
    "url": "http://www.herbs-kaigo.jp",
    "pref": "香川県",
    "city": "高松市",
    "category": "day_service",
    "serviceType": "通所介護",
    "capacity": 0,
    "openDays": [
      "平日",
      "土曜日",
      "祝日"
    ],
    "openDaysNote": ""
  },
  {
    "id": "3770102444",
    "name": "デイサービスセンター吉祥",
    "kana": "デイサービスセンターキッショウ",
    "address": "高松市高松町897番地9",
    "lat": 34.3221459,
    "lng": 134.1184674,
    "tel": "087-841-8100",
    "url": "http//kisshoh.jp/",
    "pref": "香川県",
    "city": "高松市",
    "category": "day_service",
    "serviceType": "通所介護",
    "capacity": 30,
    "openDays": [
      "平日",
      "土曜日",
      "祝日"
    ],
    "openDaysNote": "-"
  },
  {
    "id": "3770104101",
    "name": "デイサービスセンター玉藻荘",
    "kana": "デイサービスセンタータマモソウ",
    "address": "高松市北浜町7番10号",
    "lat": 34.3502513,
    "lng": 134.0560901,
    "tel": "087-811-4553",
    "url": "http://www.sanuki-sha.or.jp/",
    "pref": "香川県",
    "city": "高松市",
    "category": "day_service",
    "serviceType": "通所介護",
    "capacity": 0,
    "openDays": [
      "平日",
      "土曜日",
      "祝日"
    ],
    "openDaysNote": "-"
  },
  {
    "id": "3770109001",
    "name": "デイサービスセンター栗林公園",
    "kana": "デイサービスセンターリツリンコウエン",
    "address": "香川県高松市藤塚町1-11-27かがやきの季節 かがやきの季節",
    "lat": 34.3332960304088,
    "lng": 134.046768935582,
    "tel": "087-813-5664",
    "url": "http://kaigostation.co.jp/",
    "pref": "香川県",
    "city": "高松市",
    "category": "day_service",
    "serviceType": "通所介護",
    "capacity": 30,
    "openDays": [
      "平日",
      "土曜日",
      "日曜日",
      "祝日"
    ],
    "openDaysNote": ""
  },
  {
    "id": "3770109571",
    "name": "デイサービスセンター泰寿",
    "kana": "デイサービスセンタータイジュ",
    "address": "香川県高松市林町２４３番地２",
    "lat": 34.2978266884012,
    "lng": 134.071721840419,
    "tel": "087-880-3773",
    "url": "https://www.day-taiju.com/",
    "pref": "香川県",
    "city": "高松市",
    "category": "day_service",
    "serviceType": "通所介護",
    "capacity": 20,
    "openDays": [
      "平日",
      "祝日"
    ],
    "openDaysNote": ""
  },
  {
    "id": "3770111262",
    "name": "デイサービスたんぽぽのわたげ",
    "kana": "デイサービスタンポポノワタゲ",
    "address": "香川県高松市東山崎町960番地1",
    "lat": 34.3038171,
    "lng": 134.0936543,
    "tel": "087-847-3101",
    "url": "https://tanpopo-w.com/",
    "pref": "香川県",
    "city": "高松市",
    "category": "day_service",
    "serviceType": "通所介護",
    "capacity": 0,
    "openDays": [
      "平日",
      "土曜日",
      "祝日"
    ],
    "openDaysNote": "12月31日～1月3日まで休み"
  },
  {
    "id": "3770103855",
    "name": "デイサービスなでしこ香川",
    "kana": "デイサービスナデシコカガワ",
    "address": "高松市多肥上町1423-1",
    "lat": 34.2945788,
    "lng": 134.0581228,
    "tel": "087-815-2000",
    "url": "http//www.saiseikai.or.jp",
    "pref": "香川県",
    "city": "高松市",
    "category": "day_service",
    "serviceType": "通所介護",
    "capacity": 0,
    "openDays": [
      "平日",
      "祝日"
    ],
    "openDaysNote": "-"
  },
  {
    "id": "3770103517",
    "name": "デイサービスにぎわい",
    "kana": "デイサービスニギワイ",
    "address": "高松市西の丸町12-10",
    "lat": 34.3492623,
    "lng": 134.0462572,
    "tel": "087-811-5333",
    "url": "http://www.yamamoto-a.co.jp",
    "pref": "香川県",
    "city": "高松市",
    "category": "day_service",
    "serviceType": "通所介護",
    "capacity": 32,
    "openDays": [
      "平日",
      "土曜日",
      "日曜日",
      "祝日"
    ],
    "openDaysNote": "-"
  },
  {
    "id": "3770110561",
    "name": "デイサービスみつわ",
    "kana": "デイサービスミツワ",
    "address": "香川県高松市十川東町510-1",
    "lat": 34.2615116,
    "lng": 134.1079134,
    "tel": "087-848-1137",
    "url": "www.mitsuwa@juno.ocn.ne.jp",
    "pref": "香川県",
    "city": "高松市",
    "category": "day_service",
    "serviceType": "通所介護",
    "capacity": 33,
    "openDays": [
      "平日",
      "土曜日",
      "日曜日",
      "祝日"
    ],
    "openDaysNote": ""
  },
  {
    "id": "3770108227",
    "name": "デイサービスらく楽花園",
    "kana": "デイサービスラクラクハナゾノ",
    "address": "香川県高松市花園町一丁目1番5号",
    "lat": 34.3356498,
    "lng": 134.0551462,
    "tel": "087-832-0112",
    "url": "http://www.rakuraku-group.jp/",
    "pref": "香川県",
    "city": "高松市",
    "category": "day_service",
    "serviceType": "通所介護",
    "capacity": 0,
    "openDays": [
      "平日",
      "土曜日",
      "日曜日",
      "祝日"
    ],
    "openDaysNote": "-"
  },
  {
    "id": "3770105397",
    "name": "デイサービスらく楽国分寺",
    "kana": "デイサービスラクラクコクブンジ",
    "address": "高松市国分寺町柏原1059-2",
    "lat": 34.2931226,
    "lng": 133.9482952,
    "tel": "087-870-6101",
    "url": "",
    "pref": "香川県",
    "city": "高松市",
    "category": "day_service",
    "serviceType": "通所介護",
    "capacity": 0,
    "openDays": [
      "平日",
      "土曜日",
      "日曜日",
      "祝日"
    ],
    "openDaysNote": "―"
  },
  {
    "id": "3770104499",
    "name": "デイサービスらく楽多肥",
    "kana": "デイサービスラクラクタヒ",
    "address": "香川県高松市多肥上町1713番地",
    "lat": 34.2880658,
    "lng": 134.0597476,
    "tel": "087-840-1181",
    "url": "http://www.rakuraku-group.jp",
    "pref": "香川県",
    "city": "高松市",
    "category": "day_service",
    "serviceType": "通所介護",
    "capacity": 0,
    "openDays": [
      "平日",
      "土曜日",
      "日曜日",
      "祝日"
    ],
    "openDaysNote": "-"
  },
  {
    "id": "3770107179",
    "name": "デイサービス屋島西",
    "kana": "デイサービスヤシマニシ",
    "address": "香川県高松市屋島西町２４７２番地１",
    "lat": 34.3518219728078,
    "lng": 134.0926517,
    "tel": "087-844-2111",
    "url": "",
    "pref": "香川県",
    "city": "高松市",
    "category": "day_service",
    "serviceType": "通所介護",
    "capacity": 0,
    "openDays": [
      "平日",
      "土曜日",
      "祝日"
    ],
    "openDaysNote": "皆様が充実した生活がお送り頂けるよう、スタッフ一同、笑いの絶えないデイサービスを目指しています。"
  },
  {
    "id": "3770103590",
    "name": "デイサービス結",
    "kana": "デイサービスユイ",
    "address": "香川県高松市木太町２７６８番地３",
    "lat": 34.3369164,
    "lng": 134.082177,
    "tel": "087-836-9432",
    "url": "https://care-net.biz/37/care-yui/",
    "pref": "香川県",
    "city": "高松市",
    "category": "day_service",
    "serviceType": "通所介護",
    "capacity": 80,
    "openDays": [
      "平日",
      "祝日"
    ],
    "openDaysNote": "-"
  },
  {
    "id": "3770111577",
    "name": "デイサービス高松",
    "kana": "デイサービスタカマツ",
    "address": "高松市高松町2183番地20ケアセンター高松 ケアセンター高松",
    "lat": 34.3439754,
    "lng": 134.120702,
    "tel": "087-814-6531",
    "url": "http://m-koujyukai.or.jp/publics/index/20/",
    "pref": "香川県",
    "city": "高松市",
    "category": "day_service",
    "serviceType": "通所介護",
    "capacity": 0,
    "openDays": [
      "平日",
      "土曜日",
      "祝日"
    ],
    "openDaysNote": ""
  },
  {
    "id": "3770110868",
    "name": "デイサービス青空",
    "kana": "デイサービスソラ",
    "address": "香川県高松市伏石町2171-7",
    "lat": 34.3068465,
    "lng": 134.0580997,
    "tel": "087-814-3551",
    "url": "https://www.sora-takamatsu.jp/",
    "pref": "香川県",
    "city": "高松市",
    "category": "day_service",
    "serviceType": "通所介護",
    "capacity": 19,
    "openDays": [
      "平日",
      "土曜日",
      "祝日"
    ],
    "openDaysNote": "年末年始12月30日～1月3日は休業（祝日は営業）"
  },
  {
    "id": "3770106056",
    "name": "デイサービス紬",
    "kana": "デイサービスツムギ",
    "address": "香川県高松市十川西町686-12",
    "lat": 34.2697611,
    "lng": 134.1080885,
    "tel": "087-848-9430",
    "url": "",
    "pref": "香川県",
    "city": "高松市",
    "category": "day_service",
    "serviceType": "通所介護",
    "capacity": 20,
    "openDays": [
      "平日",
      "土曜日",
      "祝日"
    ],
    "openDaysNote": "-"
  },
  {
    "id": "3770106916",
    "name": "デイサービス木かげ",
    "kana": "デイサービスコカゲ",
    "address": "香川県高松市屋島西町１９２９－２",
    "lat": 34.3393594821664,
    "lng": 134.104326220238,
    "tel": "087-843-1215",
    "url": "centrapis.web.fc2.com",
    "pref": "香川県",
    "city": "高松市",
    "category": "day_service",
    "serviceType": "通所介護",
    "capacity": 0,
    "openDays": [
      "平日",
      "土曜日"
    ],
    "openDaysNote": "台風等での警報が出た場合　お休みとなります。"
  },
  {
    "id": "3770103806",
    "name": "ニチイケアセンター　福岡町",
    "kana": "ニチイケアセンター　フクオカチョウ",
    "address": "香川県高松市福岡町2-14-16",
    "lat": 34.3448295,
    "lng": 134.0679114,
    "tel": "087-811-0626",
    "url": "ｈｔｔｐ//www.nichiigakkan.co.jp",
    "pref": "香川県",
    "city": "高松市",
    "category": "day_service",
    "serviceType": "通所介護",
    "capacity": 40,
    "openDays": [
      "平日",
      "土曜日",
      "日曜日",
      "祝日"
    ],
    "openDaysNote": "なし"
  },
  {
    "id": "3770109985",
    "name": "ネムの木　デイサービス　円座",
    "kana": "ネムノキ　デイサービス　エンザ",
    "address": "円座町西村94-1",
    "lat": 34.2886196297065,
    "lng": 134.003732718246,
    "tel": "087-815-7717",
    "url": "http://www.koushi-f.or.jp/",
    "pref": "香川県",
    "city": "高松市",
    "category": "day_service",
    "serviceType": "通所介護",
    "capacity": 42,
    "openDays": [
      "平日",
      "土曜日",
      "祝日"
    ],
    "openDaysNote": "祝祭日も営業しています。"
  },
  {
    "id": "3770100679",
    "name": "はなぞの園老人デイサービスセンター",
    "kana": "ハナゾノエンロウジンデイサービスセンター",
    "address": "香川県高松市上福岡町2004番地1",
    "lat": 34.3309392,
    "lng": 134.0607765,
    "tel": "087-837-0006",
    "url": "http://www.hanazono.or.jp",
    "pref": "香川県",
    "city": "高松市",
    "category": "day_service",
    "serviceType": "通所介護",
    "capacity": 20,
    "openDays": [
      "平日",
      "土曜日",
      "祝日"
    ],
    "openDaysNote": "-"
  },
  {
    "id": "3770105702",
    "name": "ベストケア・デイサービスセンター春日",
    "kana": "ベストケア・デイサービスセンターカスガ",
    "address": "香川県高松市春日町１６４６番地１",
    "lat": 34.3357332,
    "lng": 134.0899486,
    "tel": "087-841-1134",
    "url": "",
    "pref": "香川県",
    "city": "高松市",
    "category": "day_service",
    "serviceType": "通所介護",
    "capacity": 45,
    "openDays": [
      "平日",
      "土曜日",
      "祝日"
    ],
    "openDaysNote": ""
  },
  {
    "id": "3770110546",
    "name": "ミルキーウェイ",
    "kana": "ミルキーウェイ",
    "address": "香川県高松市三谷町3518-16",
    "lat": 34.2551872,
    "lng": 134.0653999,
    "tel": "087-840-1600",
    "url": "https://www.ginganokai.jp",
    "pref": "香川県",
    "city": "高松市",
    "category": "day_service",
    "serviceType": "通所介護",
    "capacity": 0,
    "openDays": [
      "平日",
      "土曜日"
    ],
    "openDaysNote": "土曜日は月によって営業する月もある。"
  },
  {
    "id": "3770108425",
    "name": "ヨハネの里デイサービスセンター",
    "kana": "ヨハネノサトデイサービスセンター",
    "address": "高松市鶴市町241番地",
    "lat": 34.328015397571,
    "lng": 134.007596859286,
    "tel": "087-802-3123",
    "url": "http://www.bokuyoukai.or.jp/qhm/",
    "pref": "香川県",
    "city": "高松市",
    "category": "day_service",
    "serviceType": "通所介護",
    "capacity": 0,
    "openDays": [
      "平日",
      "土曜日",
      "祝日"
    ],
    "openDaysNote": ""
  },
  {
    "id": "3770112062",
    "name": "よんでんライフケア昭和町デイサービスセンター",
    "kana": "ヨンデンライフケアショウワチョウデイサービスセンター",
    "address": "香川県高松市昭和町一丁目7番23号",
    "lat": 34.342901,
    "lng": 134.0348787,
    "tel": "087-837-8241",
    "url": "https://yondenls.jp/",
    "pref": "香川県",
    "city": "高松市",
    "category": "day_service",
    "serviceType": "通所介護",
    "capacity": null,
    "openDays": [
      "平日",
      "土曜日",
      "祝日"
    ],
    "openDaysNote": ""
  },
  {
    "id": "3770110249",
    "name": "よんでんライフサポート昭和町デイサービスセンター",
    "kana": "ヨンデンライフサポートショウワチョウデイサービスセンター",
    "address": "香川県高松市昭和町一丁目７番２３号",
    "lat": 34.3428988483779,
    "lng": 134.034873859361,
    "tel": "087-837-8241",
    "url": "https://yondenls.jp/",
    "pref": "香川県",
    "city": "高松市",
    "category": "day_service",
    "serviceType": "通所介護",
    "capacity": 0,
    "openDays": [
      "平日",
      "土曜日",
      "祝日"
    ],
    "openDaysNote": ""
  },
  {
    "id": "3770109696",
    "name": "リハサービスかえる",
    "kana": "リハサービスカエル",
    "address": "香川県高松市牟礼町原609番地7",
    "lat": 34.3314877796668,
    "lng": 134.158894036983,
    "tel": "087-887-5065",
    "url": "",
    "pref": "香川県",
    "city": "高松市",
    "category": "day_service",
    "serviceType": "通所介護",
    "capacity": 0,
    "openDays": [
      "平日",
      "祝日"
    ],
    "openDaysNote": ""
  },
  {
    "id": "3770103442",
    "name": "ロイヤルケア高松デイサービスセンターテルメ",
    "kana": "ロイヤルケアタカマツデイサービスセンターテルメ",
    "address": "香川県高松市松島町二丁目7番6号",
    "lat": 34.3393090074312,
    "lng": 134.067304476582,
    "tel": "087-873-2285",
    "url": "http://www.royalcare.jp",
    "pref": "香川県",
    "city": "高松市",
    "category": "day_service",
    "serviceType": "通所介護",
    "capacity": 105,
    "openDays": [
      "平日",
      "土曜日",
      "祝日"
    ],
    "openDaysNote": "台風・地震・感染症等で営業を中止する場合があります。（改行）災害・感染症等で営業時間を短縮又は受け入れ人数を制限する場合があります。"
  },
  {
    "id": "3770109514",
    "name": "愛コンシェルココロン",
    "kana": "アイコンシェルココロン",
    "address": "小村町２５８－１",
    "lat": 34.2844368953064,
    "lng": 134.098367648271,
    "tel": "０８７－８４８－５５４１",
    "url": "https://www.cocolon5560.co.jp",
    "pref": "香川県",
    "city": "高松市",
    "category": "day_service",
    "serviceType": "通所介護",
    "capacity": 40,
    "openDays": [
      "平日",
      "土曜日",
      "祝日"
    ],
    "openDaysNote": "特になし"
  },
  {
    "id": "3770102949",
    "name": "一宮の里デイサービスセンター",
    "kana": "イチノミヤノサトデイサービスセンター",
    "address": "香川県高松市一宮町８７５番地",
    "lat": 34.2915428,
    "lng": 134.0293772,
    "tel": "087-886-8168、",
    "url": "http://www.kishokai.com/",
    "pref": "香川県",
    "city": "高松市",
    "category": "day_service",
    "serviceType": "通所介護",
    "capacity": 0,
    "openDays": [
      "平日",
      "土曜日",
      "祝日"
    ],
    "openDaysNote": "特になし"
  },
  {
    "id": "3770100828",
    "name": "岡本荘デイサービスセンター",
    "kana": "オカモトソウデイサービスセンター",
    "address": "香川県高松市岡本町527番地１",
    "lat": 34.266109,
    "lng": 133.9949149,
    "tel": "087-885-2828",
    "url": "http://www.koutouen.com/okamotosou/",
    "pref": "香川県",
    "city": "高松市",
    "category": "day_service",
    "serviceType": "通所介護",
    "capacity": 0,
    "openDays": [
      "平日",
      "土曜日",
      "祝日"
    ],
    "openDaysNote": "令和3年度より日曜日の営業を中止しています。"
  },
  {
    "id": "3770101404",
    "name": "屋島デイサービスセンター",
    "kana": "ヤシマデイサービスセンター",
    "address": "香川県高松市屋島西町２２７７番地１",
    "lat": 34.3586332,
    "lng": 134.088798,
    "tel": "087-844-8231",
    "url": "http://www.lucksay.com",
    "pref": "香川県",
    "city": "高松市",
    "category": "day_service",
    "serviceType": "通所介護",
    "capacity": 0,
    "openDays": [
      "平日",
      "土曜日",
      "祝日"
    ],
    "openDaysNote": "日曜日以外は変動あり"
  },
  {
    "id": "3770107617",
    "name": "学び舎こくぶんじ",
    "kana": "マナビヤコクブンジ",
    "address": "香川県高松市国分寺町新居956-8",
    "lat": 34.2975997,
    "lng": 133.9663461,
    "tel": "087-875-0808",
    "url": "http://i-groups.co.jp/",
    "pref": "香川県",
    "city": "高松市",
    "category": "day_service",
    "serviceType": "通所介護",
    "capacity": 30,
    "openDays": [
      "平日",
      "土曜日",
      "祝日"
    ],
    "openDaysNote": "自然災害（台風や積雪など）、感染症のまん延等による行政からの指導等により、運営上の安全確保に問題がある場合には、状況判断により休止する場合がある。"
  },
  {
    "id": "3770110314",
    "name": "銀星の家",
    "kana": "ギンセイノイエ",
    "address": "香川県高松市屋島西町2366-11",
    "lat": 34.3451648,
    "lng": 134.0866291,
    "tel": "087-843-4188",
    "url": "https://www.ginseinoie.com/",
    "pref": "香川県",
    "city": "高松市",
    "category": "day_service",
    "serviceType": "通所介護",
    "capacity": 0,
    "openDays": [
      "平日"
    ],
    "openDaysNote": "台風などで警報が発令された場合は、閉所します。"
  },
  {
    "id": "3771400201",
    "name": "健祥会デイサービスセンター塩江",
    "kana": "ケンショウカイデイサービスセンターシオノエ",
    "address": "香川県高松市塩江町安原上東１１８番地１",
    "lat": 34.1713382,
    "lng": 134.0793513,
    "tel": "087-893-1125",
    "url": "https://www.kenshokai.group/",
    "pref": "香川県",
    "city": "高松市",
    "category": "day_service",
    "serviceType": "通所介護",
    "capacity": 0,
    "openDays": [
      "平日",
      "土曜日",
      "祝日"
    ],
    "openDaysNote": "１月１日から１月３日まで、および台風・積雪等の天候状況の極めて悪いときは、休業する場合がある。"
  },
  {
    "id": "3770101586",
    "name": "光華デイサービスセンター",
    "kana": "コウカデイサービスセンター",
    "address": "香川県高松市伏石町2103-21ＫＯＨＫＡビル",
    "lat": 34.3098879940556,
    "lng": 134.059831803488,
    "tel": "087-815-0111",
    "url": "http://www.s-kohka.jp",
    "pref": "香川県",
    "city": "高松市",
    "category": "day_service",
    "serviceType": "通所介護",
    "capacity": 65,
    "openDays": [
      "平日",
      "土曜日"
    ],
    "openDaysNote": "祝日の半分以上は営業を実施している。"
  },
  {
    "id": "3770100844",
    "name": "弘恩苑デイサービスセンター",
    "kana": "コウオンエンデイサービスセンター",
    "address": "高松市前田西町６８３番地７",
    "lat": 34.3069363,
    "lng": 134.1087772,
    "tel": "087-847-9555",
    "url": "https://www.kouzenkai.jp/",
    "pref": "香川県",
    "city": "高松市",
    "category": "day_service",
    "serviceType": "通所介護",
    "capacity": 0,
    "openDays": [
      "平日",
      "土曜日",
      "祝日"
    ],
    "openDaysNote": "-"
  },
  {
    "id": "3770100851",
    "name": "香色苑デイサービスセンター",
    "kana": "コウシキエン　デイサービスセンター",
    "address": "高松市高松町1350番地22",
    "lat": 34.3326058,
    "lng": 134.1200172,
    "tel": "087-844-9090",
    "url": "https://www.kouzenkai.jp/",
    "pref": "香川県",
    "city": "高松市",
    "category": "day_service",
    "serviceType": "通所介護",
    "capacity": 0,
    "openDays": [
      "平日",
      "土曜日"
    ],
    "openDaysNote": "-"
  },
  {
    "id": "3770104812",
    "name": "高松ケアセンターそよ風",
    "kana": "タカマツケアセンターソヨカゼ",
    "address": "香川県高松市屋島西町2289-1",
    "lat": 34.3565444,
    "lng": 134.0890528,
    "tel": "087-844-0022",
    "url": "http://www.medcajapan.co.jp",
    "pref": "香川県",
    "city": "高松市",
    "category": "day_service",
    "serviceType": "通所介護",
    "capacity": 0,
    "openDays": [
      "平日",
      "土曜日",
      "祝日"
    ],
    "openDaysNote": ""
  },
  {
    "id": "3770103152",
    "name": "高松さんさん荘老人デイサービスセンター",
    "kana": "タカマツサンサンソウロウジンデイサービスセンター",
    "address": "高松市西植田町４２１２－１",
    "lat": 34.2316879,
    "lng": 134.070722,
    "tel": "087-849-1333",
    "url": "http://www.sansan-kai.com",
    "pref": "香川県",
    "city": "高松市",
    "category": "day_service",
    "serviceType": "通所介護",
    "capacity": null,
    "openDays": [
      "平日",
      "土曜日",
      "祝日"
    ],
    "openDaysNote": "-"
  },
  {
    "id": "3770110694",
    "name": "高松木太ケアセンターそよ風",
    "kana": "タカマツキタケアセンターソヨカゼ",
    "address": "香川県高松市木太町4150番4",
    "lat": 34.3153656,
    "lng": 134.0799058,
    "tel": "087-814-8188",
    "url": "https://www.sykz.co.jp/shisetsu-zaitaku/374121",
    "pref": "香川県",
    "city": "高松市",
    "category": "day_service",
    "serviceType": "通所介護",
    "capacity": 0,
    "openDays": [
      "平日",
      "土曜日",
      "祝日"
    ],
    "openDaysNote": ""
  },
  {
    "id": "3770107724",
    "name": "桜町デイサービスセンター",
    "kana": "サクラマチデイサービスセンター",
    "address": "香川県高松市桜町1丁目10番7号",
    "lat": 34.3306252,
    "lng": 134.0528327,
    "tel": "087-861-2666",
    "url": "http://kaigostation.co.jp",
    "pref": "香川県",
    "city": "高松市",
    "category": "day_service",
    "serviceType": "通所介護",
    "capacity": 25,
    "openDays": [
      "平日",
      "土曜日",
      "日曜日",
      "祝日"
    ],
    "openDaysNote": ""
  },
  {
    "id": "3770110041",
    "name": "社会福祉法人　高松市社会福祉協議会",
    "kana": "シャカイフクシホウジン　タカマツシシャカイフクシキョウギカイ",
    "address": "香川県高松市社会福祉協議会福祉コミュニティセンター・高松東館 福祉コミュニティセンター・高松東館",
    "lat": 34.344377,
    "lng": 134.064245,
    "tel": "087-806-0505",
    "url": "https://takamatsushi-shakyo.or.jp/",
    "pref": "香川県",
    "city": "高松市",
    "category": "day_service",
    "serviceType": "通所介護",
    "capacity": 0,
    "openDays": [
      "平日",
      "土曜日",
      "祝日"
    ],
    "openDaysNote": ""
  },
  {
    "id": "3770104010",
    "name": "社会福祉法人　高松市社会福祉協議会香川",
    "kana": "シャカイフクシホウジン　タカマツシシャカイフクシキョウギカイカガワ",
    "address": "香川県高松市香川町大野450番地香川社会福祉センター 香川社会福祉センター",
    "lat": 34.2561056,
    "lng": 134.0291456,
    "tel": "087-840-5322",
    "url": "",
    "pref": "香川県",
    "city": "高松市",
    "category": "day_service",
    "serviceType": "通所介護",
    "capacity": 0,
    "openDays": [
      "平日",
      "土曜日",
      "祝日"
    ],
    "openDaysNote": "天災その他やむを得ず業務を遂行できない日は除く。"
  },
  {
    "id": "3770103988",
    "name": "社会福祉法人　高松市社会福祉協議会香南",
    "kana": "シャカイフクシホウジン　タカマツシシャカイフクシキョウギカイコウナン",
    "address": "香川県高松市香南町横井1028番地",
    "lat": 34.238898592121,
    "lng": 134.0077287295,
    "tel": "087-879-2700",
    "url": "http://www.takamatsushi-shakyo.or.jp/",
    "pref": "香川県",
    "city": "高松市",
    "category": "day_service",
    "serviceType": "通所介護",
    "capacity": 3,
    "openDays": [
      "平日",
      "土曜日",
      "祝日"
    ],
    "openDaysNote": "営業日は、天災その他やむを得ず業務を遂行できない日を除く。"
  },
  {
    "id": "3770109118",
    "name": "社会福祉法人　高松市社会福祉協議会国分寺",
    "kana": "シャカイフクシホウジン　タカマツシシャカイフクシキョウギカイコクブンジ",
    "address": "香川県高松市国分寺町新居1150番地1国分寺社会福祉センター 国分寺社会福祉センター",
    "lat": 34.297733,
    "lng": 133.9653157,
    "tel": "087-806-0020",
    "url": "http://www.takamatsushi-shakyo.or.jp/",
    "pref": "香川県",
    "city": "高松市",
    "category": "day_service",
    "serviceType": "通所介護",
    "capacity": null,
    "openDays": [
      "平日",
      "土曜日",
      "祝日"
    ],
    "openDaysNote": "営業日は、天災その他やむを得ず業務を遂行できない日を除く。"
  },
  {
    "id": "3770111650",
    "name": "障害者支援施設サン未来",
    "kana": "ショウガイシャシエンシセツサンミライ",
    "address": "新田町甲2717番地1",
    "lat": 34.3197981,
    "lng": 134.1079134,
    "tel": "087-818-1080",
    "url": "http://www.zuishou.net",
    "pref": "香川県",
    "city": "高松市",
    "category": "day_service",
    "serviceType": "通所介護",
    "capacity": 0,
    "openDays": [
      "平日",
      "祝日"
    ],
    "openDaysNote": "サービス提供時間は朝9時～夕方17時まで。（改行）月曜日から金曜日の間での祝日は営業しております。"
  },
  {
    "id": "3770102584",
    "name": "真珠の湯デイサービスセンター",
    "kana": "シンジュノユデイサービスセンター",
    "address": "香川県高松市新田町甲２７１２－１",
    "lat": 34.3282339,
    "lng": 134.0999281,
    "tel": "087-818-1050",
    "url": "",
    "pref": "香川県",
    "city": "高松市",
    "category": "day_service",
    "serviceType": "通所介護",
    "capacity": 25,
    "openDays": [
      "平日",
      "祝日"
    ],
    "openDaysNote": ""
  },
  {
    "id": "3770101081",
    "name": "西春日デイサービス",
    "kana": "ニシカスガデイサービス",
    "address": "高松市西春日町1510-1",
    "lat": 34.3155429,
    "lng": 134.0201958,
    "tel": "087-869-1165",
    "url": "",
    "pref": "香川県",
    "city": "高松市",
    "category": "day_service",
    "serviceType": "通所介護",
    "capacity": 0,
    "openDays": [
      "平日",
      "土曜日",
      "祝日"
    ],
    "openDaysNote": "-送迎について、高松市以外からお越しの場合、高松市の境界から１㎞あたり２０円の送迎が必要です。"
  },
  {
    "id": "3770107757",
    "name": "創心会リハビリ倶楽部髙松中央",
    "kana": "ソウシンカイリハビリクラブタカマツチュウオウ",
    "address": "香川県高松市六条町168-3",
    "lat": 34.2992073969503,
    "lng": 134.089245339074,
    "tel": "087-840-7735",
    "url": "http://www.soushinkai.com/",
    "pref": "香川県",
    "city": "高松市",
    "category": "day_service",
    "serviceType": "通所介護",
    "capacity": 0,
    "openDays": [
      "平日",
      "土曜日",
      "祝日"
    ],
    "openDaysNote": ""
  },
  {
    "id": "3770107872",
    "name": "太田下町デイサービスセンター",
    "kana": "オオタシモマチデイサービスセンター",
    "address": "香川県高松市太田下町2645-1ケアステーション太田下町 ケアステーション太田下町",
    "lat": 34.3085503030384,
    "lng": 134.049989655078,
    "tel": "087-899-7621",
    "url": "http://kaigostation.co.jp",
    "pref": "香川県",
    "city": "高松市",
    "category": "day_service",
    "serviceType": "通所介護",
    "capacity": 40,
    "openDays": [
      "平日",
      "土曜日",
      "日曜日",
      "祝日"
    ],
    "openDaysNote": ""
  },
  {
    "id": "3770110454",
    "name": "体感型デイ春の風",
    "kana": "タイカンガタデイハルノカゼ",
    "address": "香川県高松市円座町1300-2",
    "lat": 34.2843274,
    "lng": 134.0145215,
    "tel": "087-815-7300",
    "url": "ｈｔｔｐ//www.happylifeai.co.jp/",
    "pref": "香川県",
    "city": "高松市",
    "category": "day_service",
    "serviceType": "通所介護",
    "capacity": 0,
    "openDays": [
      "平日",
      "土曜日",
      "祝日"
    ],
    "openDaysNote": ""
  },
  {
    "id": "3770100836",
    "name": "大寿苑デイサービスセンター",
    "kana": "ダイジュエンデイサービスセンター",
    "address": "高松市鬼無町鬼無882番地2",
    "lat": 34.319142,
    "lng": 133.9916426,
    "tel": "087-881-6565",
    "url": "http://www.daijyuan.com/",
    "pref": "香川県",
    "city": "高松市",
    "category": "day_service",
    "serviceType": "通所介護",
    "capacity": 0,
    "openDays": [
      "平日",
      "土曜日",
      "日曜日",
      "祝日"
    ],
    "openDaysNote": "なし"
  },
  {
    "id": "3770105157",
    "name": "峰山デイホームサービス　灯り",
    "kana": "ミネヤマデイホームサービス　アカリ",
    "address": "高松市松並町８８０番地１",
    "lat": 34.3193704,
    "lng": 134.0278813,
    "tel": "087-869-1188",
    "url": "",
    "pref": "香川県",
    "city": "高松市",
    "category": "day_service",
    "serviceType": "通所介護",
    "capacity": 0,
    "openDays": [
      "平日",
      "土曜日",
      "日曜日",
      "祝日"
    ],
    "openDaysNote": "-"
  },
  {
    "id": "3770103632",
    "name": "法寿苑デイサービスセンター",
    "kana": "ホウジュエンデイサービスセンター",
    "address": "香川県高松市木太町3308番地",
    "lat": 34.3278117,
    "lng": 134.0752447,
    "tel": "087-832-5680",
    "url": "https://www.kouzenkai.jp/",
    "pref": "香川県",
    "city": "高松市",
    "category": "day_service",
    "serviceType": "通所介護",
    "capacity": 0,
    "openDays": [
      "平日",
      "土曜日",
      "祝日"
    ],
    "openDaysNote": "年末年始の曜日により定休日がずれる場合があります。"
  },
  {
    "id": "3770111361",
    "name": "有限会社PTコーポレーション　デイサービスよしの",
    "kana": "ユウゲンガイシャピーティーコーポレーション　デイサービスヨシノ",
    "address": "香川町大野463-3さくらガーデン喜楽1階 さくらガーデン喜楽1階",
    "lat": 34.256767,
    "lng": 134.027607,
    "tel": "087-887-8400",
    "url": "https://www.akiyama-clinic.com",
    "pref": "香川県",
    "city": "高松市",
    "category": "day_service",
    "serviceType": "通所介護",
    "capacity": 0,
    "openDays": [
      "平日",
      "土曜日",
      "祝日"
    ],
    "openDaysNote": "通常の祝日、祭日も営業しております。"
  },
  {
    "id": "3770109233",
    "name": "両備ヘルシーケア高松デイサービス",
    "kana": "リョウビヘルシーケアタカマツデイサービス",
    "address": "香川県高松市浜ノ町53番38号",
    "lat": 34.3525869288938,
    "lng": 134.037665456345,
    "tel": "087-813-2293",
    "url": "http://ryobi-hc.jp",
    "pref": "香川県",
    "city": "高松市",
    "category": "day_service",
    "serviceType": "通所介護",
    "capacity": 35,
    "openDays": [
      "平日",
      "祝日"
    ],
    "openDaysNote": "※定休日以外の曜日（祝日を含む）は営業。"
  },
  {
    "id": "3770300683",
    "name": "NPデイサービスつくし",
    "kana": "エヌピーデイサービスツクシ",
    "address": "香川県坂出市駒止町１－３－５ライフスクエア坂出1F ライフスクエア坂出1F",
    "lat": 34.3113478,
    "lng": 133.8564163,
    "tel": "0877-59-0500",
    "url": "",
    "pref": "香川県",
    "city": "坂出市",
    "category": "day_service",
    "serviceType": "通所介護",
    "capacity": 0,
    "openDays": [
      "平日",
      "土曜日",
      "祝日"
    ],
    "openDaysNote": ""
  },
  {
    "id": "3770301152",
    "name": "デイサービス　府中の郷　雅",
    "kana": "ヘルパーステーション　フチュウノサト　ミヤビ",
    "address": "香川県坂出市府中町147番地６",
    "lat": 36.204824,
    "lng": 138.252924,
    "tel": "0877-43-7701",
    "url": "",
    "pref": "香川県",
    "city": "坂出市",
    "category": "day_service",
    "serviceType": "通所介護",
    "capacity": 0,
    "openDays": [
      "平日",
      "土曜日"
    ],
    "openDaysNote": "年末年始（12/31～１/3）は休み"
  },
  {
    "id": "3770300717",
    "name": "デイサービスカーネーション",
    "kana": "デイサービスカーネーション",
    "address": "香川県坂出市京町6番56号",
    "lat": 34.3173631,
    "lng": 133.8579557,
    "tel": "0877-59-0502",
    "url": "http://www.maedaseikei.net/kyou/",
    "pref": "香川県",
    "city": "坂出市",
    "category": "day_service",
    "serviceType": "通所介護",
    "capacity": null,
    "openDays": [
      "平日",
      "土曜日",
      "祝日"
    ],
    "openDaysNote": "お盆（8月13日から15日）、年末年始（12月31日から1月3日）"
  },
  {
    "id": "3770300402",
    "name": "デイサービスセンター　コスモス",
    "kana": "デイサービスセンター　コスモス",
    "address": "香川県坂出市寿町一丁目3番1号さくらの花会館　1階南 さくらの花会館　1階南",
    "lat": 34.313819322895,
    "lng": 133.850288140723,
    "tel": "0877-59-2850",
    "url": "https://nagai-group.com/",
    "pref": "香川県",
    "city": "坂出市",
    "category": "day_service",
    "serviceType": "通所介護",
    "capacity": 0,
    "openDays": [
      "平日",
      "土曜日",
      "祝日"
    ],
    "openDaysNote": "特に無し"
  },
  {
    "id": "3770301061",
    "name": "デイセンター緑生",
    "kana": "デイセンター　リョクセイ",
    "address": "香川県坂出市江尻町836番地5",
    "lat": 34.31937591692,
    "lng": 133.88124065159,
    "tel": "0877-45-2805",
    "url": "http://ryokusei.ｂｙoinnavi.jp/prepc/index.html",
    "pref": "香川県",
    "city": "坂出市",
    "category": "day_service",
    "serviceType": "通所介護",
    "capacity": 40,
    "openDays": [
      "平日",
      "土曜日",
      "祝日"
    ],
    "openDaysNote": ""
  },
  {
    "id": "3770301194",
    "name": "フィットネスデイサービス　ファンデイズ",
    "kana": "フィットネスデイサービス　ファンデイズ",
    "address": "香川県坂出市西大浜北一丁目１番５号",
    "lat": 34.3218962,
    "lng": 133.8469942,
    "tel": "０８７７－３５－８８１５",
    "url": "fundays358@ark.ocn.ne.jp",
    "pref": "香川県",
    "city": "坂出市",
    "category": "day_service",
    "serviceType": "通所介護",
    "capacity": 0,
    "openDays": [
      "平日"
    ],
    "openDaysNote": ""
  },
  {
    "id": "3770301251",
    "name": "ほねつぎデイサービス坂出",
    "kana": "ホネツギデイサービスサカイデ",
    "address": "香川県坂出市久米町1丁目15-2ヴェール・クレール久米町 ヴェール・クレール久米町",
    "lat": 34.3193512545212,
    "lng": 133.859329130689,
    "tel": "0877-85-5813",
    "url": "https://www.honetsugi-kaigo.com/service/",
    "pref": "香川県",
    "city": "坂出市",
    "category": "day_service",
    "serviceType": "通所介護",
    "capacity": 25,
    "openDays": [
      "平日",
      "祝日"
    ],
    "openDaysNote": "ただし、夏季（８月１３日から８月１５日）、年末年始（１２月３１日から１月３日）は休業とする"
  },
  {
    "id": "3770300139",
    "name": "愛生苑通所介護事業所",
    "kana": "アイセイエンツウショカイゴジギョウショ",
    "address": "香川県坂出市西庄町79番地1",
    "lat": 34.3200524,
    "lng": 133.8809921,
    "tel": "0877-45-8880",
    "url": "http://ryokusei.byoinnavi.jp",
    "pref": "香川県",
    "city": "坂出市",
    "category": "day_service",
    "serviceType": "通所介護",
    "capacity": 45,
    "openDays": [
      "平日",
      "土曜日",
      "祝日"
    ],
    "openDaysNote": "-"
  },
  {
    "id": "3770301285",
    "name": "機能訓練型デイサービス　ことりの",
    "kana": "キノウクンレンガタデイサービス　コトリノ",
    "address": "香川県坂出市元町1丁目9番7号",
    "lat": 34.3144474,
    "lng": 133.8550353,
    "tel": "0877-85-3338",
    "url": "http://kotorino.life",
    "pref": "香川県",
    "city": "坂出市",
    "category": "day_service",
    "serviceType": "通所介護",
    "capacity": 0,
    "openDays": [
      "平日",
      "祝日"
    ],
    "openDaysNote": ""
  },
  {
    "id": "3770300154",
    "name": "松ヶ浦荘デイサービスセンター",
    "kana": "マツガウラソウデイサービスセンター",
    "address": "香川県坂出市大屋冨町３１００番地１３",
    "lat": 34.3556199,
    "lng": 133.8940615,
    "tel": "0877-47-3105",
    "url": "https://shouju.or.jp/",
    "pref": "香川県",
    "city": "坂出市",
    "category": "day_service",
    "serviceType": "通所介護",
    "capacity": 40,
    "openDays": [
      "平日",
      "土曜日",
      "祝日"
    ],
    "openDaysNote": "-"
  },
  {
    "id": "3770300121",
    "name": "城山デイサービスセンター",
    "kana": "キヤマデイサービスセンター",
    "address": "香川県坂出市川津町１９８６番地２２",
    "lat": 34.2930363,
    "lng": 133.8703078,
    "tel": "0877-45-1771",
    "url": "http://www.kbn.ne.jp/home/kym0007",
    "pref": "香川県",
    "city": "坂出市",
    "category": "day_service",
    "serviceType": "通所介護",
    "capacity": 0,
    "openDays": [
      "平日",
      "土曜日",
      "日曜日",
      "祝日"
    ],
    "openDaysNote": "台風等、災害の危険がある場合は休業します"
  },
  {
    "id": "3770300048",
    "name": "特別養護老人ホーム　聖マルチンの園　指定通所介護事業所",
    "kana": "トクベツヨウゴロウジンホーム　セイマルチンノソノ　シテイツウショカイゴジギョウショ",
    "address": "香川県坂出市沖の浜1番５号",
    "lat": 34.3253294753134,
    "lng": 133.843536069975,
    "tel": "0877-46-7031",
    "url": "",
    "pref": "香川県",
    "city": "坂出市",
    "category": "day_service",
    "serviceType": "通所介護",
    "capacity": 0,
    "openDays": [
      "平日",
      "祝日"
    ],
    "openDaysNote": "-"
  },
  {
    "id": "3770800419",
    "name": "ヴィラしのはら",
    "kana": "ビィラシノハラ",
    "address": "三豊市山本町財田西272",
    "lat": 34.1203699,
    "lng": 133.7244314,
    "tel": "0875-63-1666",
    "url": "shino.to@forest.ocn.ne.jp",
    "pref": "香川県",
    "city": "三豊市",
    "category": "day_service",
    "serviceType": "通所介護",
    "capacity": 25,
    "openDays": [
      "平日",
      "土曜日"
    ],
    "openDaysNote": ""
  },
  {
    "id": "3770800328",
    "name": "クレール高瀬　デイサービスセンター",
    "kana": "クレールタカセ　デイサービスセンター",
    "address": "香川県三豊市高瀬町新名2035番地",
    "lat": 34.1991976,
    "lng": 133.7262621,
    "tel": "0875-72-3340",
    "url": "http://keishoukai-group.net/",
    "pref": "香川県",
    "city": "三豊市",
    "category": "day_service",
    "serviceType": "通所介護",
    "capacity": 35,
    "openDays": [
      "平日",
      "土曜日",
      "祝日"
    ],
    "openDaysNote": "12/31～1/2を休日とする。"
  },
  {
    "id": "3770800120",
    "name": "せとうち福祉サービス　デイサービス三豊",
    "kana": "セトウチフクシサービス　デイサービスミトヨ",
    "address": "三豊市三野町吉津甲605-2",
    "lat": 34.2000175,
    "lng": 133.6975064,
    "tel": "0875-72-3991",
    "url": "http//setouchi-fukusi.com",
    "pref": "香川県",
    "city": "三豊市",
    "category": "day_service",
    "serviceType": "通所介護",
    "capacity": 0,
    "openDays": [
      "平日",
      "土曜日",
      "祝日"
    ],
    "openDaysNote": ""
  },
  {
    "id": "3770800385",
    "name": "デイサービス　オレンジホーム",
    "kana": "デイサービス　オレンジホーム",
    "address": "香川県三豊市豊中町下高野1091",
    "lat": 34.1533738,
    "lng": 133.685034,
    "tel": "0875-62-1870",
    "url": "http://healthy-aging.co.jp/",
    "pref": "香川県",
    "city": "三豊市",
    "category": "day_service",
    "serviceType": "通所介護",
    "capacity": 35,
    "openDays": [
      "平日",
      "土曜日",
      "祝日"
    ],
    "openDaysNote": ""
  },
  {
    "id": "3770800799",
    "name": "デイサービス　禅進",
    "kana": "デイサービス　ゼンシン",
    "address": "香川県三豊市山本町大野88－1",
    "lat": 34.1214585,
    "lng": 133.7333078,
    "tel": "0875-24-9333",
    "url": "",
    "pref": "香川県",
    "city": "三豊市",
    "category": "day_service",
    "serviceType": "通所介護",
    "capacity": 0,
    "openDays": [
      "平日",
      "土曜日",
      "祝日"
    ],
    "openDaysNote": ""
  },
  {
    "id": "3770800245",
    "name": "デイサービスセンター　くにち",
    "kana": "デイサービスセンター　クニチ",
    "address": "香川県三豊市高瀬町下勝間2015番地2",
    "lat": 34.1745768,
    "lng": 133.7133313,
    "tel": "0875-72-0272",
    "url": "",
    "pref": "香川県",
    "city": "三豊市",
    "category": "day_service",
    "serviceType": "通所介護",
    "capacity": 18,
    "openDays": [
      "平日",
      "土曜日",
      "祝日"
    ],
    "openDaysNote": ""
  },
  {
    "id": "3770800690",
    "name": "デイサービスセンター　フクシア",
    "kana": "デイサービスセンター　フクシア",
    "address": "香川県三豊市仁尾町仁尾辛39-1サービス高齢者向け住宅フクシア内 サービス高齢者向け住宅フクシア内",
    "lat": 34.194652,
    "lng": 133.6468038,
    "tel": "0875-82-3351",
    "url": "https://www.24.u.jp/0886998377/",
    "pref": "香川県",
    "city": "三豊市",
    "category": "day_service",
    "serviceType": "通所介護",
    "capacity": 0,
    "openDays": [
      "平日",
      "祝日"
    ],
    "openDaysNote": ""
  },
  {
    "id": "3770800088",
    "name": "デイサービスセンターしのはら",
    "kana": "デイサービスセンターシノハラ",
    "address": "三豊市山本町財田西276番地",
    "lat": 34.1203672,
    "lng": 133.7239814,
    "tel": "0875-63-1550",
    "url": "shino.@forest.ocn.ne.jp",
    "pref": "香川県",
    "city": "三豊市",
    "category": "day_service",
    "serviceType": "通所介護",
    "capacity": 0,
    "openDays": [
      "平日",
      "土曜日"
    ],
    "openDaysNote": "ー"
  },
  {
    "id": "3771700535",
    "name": "デイサービスセンターみの",
    "kana": "デイサービスセンターミノ",
    "address": "香川県三豊市三野町大見乙91-12",
    "lat": 34.2266288,
    "lng": 133.7206251,
    "tel": "0875-72-1431",
    "url": "http://minofukushikai.sun-age.or.jp",
    "pref": "香川県",
    "city": "三豊市",
    "category": "day_service",
    "serviceType": "通所介護",
    "capacity": 0,
    "openDays": [
      "平日",
      "土曜日",
      "祝日"
    ],
    "openDaysNote": "-"
  },
  {
    "id": "3770800427",
    "name": "デイサービスセンター湯ったり",
    "kana": "デイサービスセンターユッタリ",
    "address": "高瀬町上高瀬字原４２９－５",
    "lat": 34.1948812,
    "lng": 133.7204897,
    "tel": "0875-74-3366",
    "url": "http://junshinkai.com/",
    "pref": "香川県",
    "city": "三豊市",
    "category": "day_service",
    "serviceType": "通所介護",
    "capacity": 35,
    "openDays": [
      "平日",
      "土曜日",
      "祝日"
    ],
    "openDaysNote": ""
  },
  {
    "id": "3771700592",
    "name": "とよなか荘老人デイサービスセンター",
    "kana": "トヨナカソウロウジンデイサービスセンター",
    "address": "香川県三豊市豊中町笠田竹田697番地1",
    "lat": 34.1554374,
    "lng": 133.6955468,
    "tel": "0875-56-6300",
    "url": "http://www.toyonakasou.jp/",
    "pref": "香川県",
    "city": "三豊市",
    "category": "day_service",
    "serviceType": "通所介護",
    "capacity": 0,
    "openDays": [
      "平日",
      "土曜日",
      "祝日"
    ],
    "openDaysNote": "-"
  },
  {
    "id": "3771700378",
    "name": "ふたな荘デイサービスセンター",
    "kana": "フタナソウデイサービスセンター",
    "address": "香川県三豊市山本町辻2210特別養護老人ホームふたな荘 特別養護老人ホームふたな荘",
    "lat": 34.1078992,
    "lng": 133.7234152,
    "tel": "0875-63-3690",
    "url": "http://www.keishoukai.jp/",
    "pref": "香川県",
    "city": "三豊市",
    "category": "day_service",
    "serviceType": "通所介護",
    "capacity": 20,
    "openDays": [
      "平日",
      "祝日"
    ],
    "openDaysNote": "なし"
  },
  {
    "id": "3770800021",
    "name": "三豊市財田町デイサービスセンター",
    "kana": "ミトヨシサイタチョウデイサービスセンター",
    "address": "香川県三豊市財田町財田上２１４１番地",
    "lat": 34.1189541,
    "lng": 133.7781988,
    "tel": "0875-67-0120",
    "url": "https://www.mitoyoshakyo.or.jp",
    "pref": "香川県",
    "city": "三豊市",
    "category": "day_service",
    "serviceType": "通所介護",
    "capacity": 0,
    "openDays": [
      "平日"
    ],
    "openDaysNote": ""
  },
  {
    "id": "3771700238",
    "name": "指定通所介護事業所　たくま荘デイサービスセンター",
    "kana": "シテイツウショカイゴジギョウショ　タクマソウデイサービスセンター",
    "address": "香川県三豊市詫間町詫間7732番地60",
    "lat": 34.214499773142,
    "lng": 133.669557576785,
    "tel": "0875-83-6261",
    "url": "http://takumaso.com",
    "pref": "香川県",
    "city": "三豊市",
    "category": "day_service",
    "serviceType": "通所介護",
    "capacity": 0,
    "openDays": [
      "平日",
      "土曜日",
      "祝日"
    ],
    "openDaysNote": "特になし"
  },
  {
    "id": "3771700972",
    "name": "老人デイサービスセンターにお荘",
    "kana": "ロウジンデイサービスセンターニオソウ",
    "address": "香川県三豊市仁尾町仁尾辛42番地19",
    "lat": 34.1932687,
    "lng": 133.6444479,
    "tel": "0875-23-6080",
    "url": "http://care-net.biz/37/niosou/",
    "pref": "香川県",
    "city": "三豊市",
    "category": "day_service",
    "serviceType": "通所介護",
    "capacity": 0,
    "openDays": [
      "平日",
      "土曜日",
      "祝日"
    ],
    "openDaysNote": ""
  },
  {
    "id": "3771300914",
    "name": "デイサービスこぶしの花",
    "kana": "デイサービスコブシノハナ",
    "address": "香川県木田郡三木町鹿伏205番地3",
    "lat": 34.2706932,
    "lng": 134.1377916,
    "tel": "087-813-5231",
    "url": "",
    "pref": "香川県",
    "city": "三木町",
    "category": "day_service",
    "serviceType": "通所介護",
    "capacity": 0,
    "openDays": [
      "平日",
      "土曜日",
      "祝日"
    ],
    "openDaysNote": "年末年始休業（12月31日～翌年1月3日）"
  },
  {
    "id": "3771300518",
    "name": "デイサービスセンター　くすの木",
    "kana": "デイサービスセンター　クスノキ",
    "address": "香川県木田郡三木町池戸2362番地",
    "lat": 34.2763773,
    "lng": 134.1232084,
    "tel": "087-840-2227",
    "url": "",
    "pref": "香川県",
    "city": "三木町",
    "category": "day_service",
    "serviceType": "通所介護",
    "capacity": 0,
    "openDays": [
      "平日",
      "土曜日",
      "祝日"
    ],
    "openDaysNote": "-"
  },
  {
    "id": "3771300831",
    "name": "デイラウンジくすの木",
    "kana": "デイラウンジクスノキ",
    "address": "香川県木田郡三木町池戸2058番地7複合施設くすの木 複合施設くすの木",
    "lat": 34.2772993,
    "lng": 134.1214614,
    "tel": "087-898-3861",
    "url": "",
    "pref": "香川県",
    "city": "三木町",
    "category": "day_service",
    "serviceType": "通所介護",
    "capacity": 0,
    "openDays": [
      "平日",
      "土曜日",
      "祝日"
    ],
    "openDaysNote": ""
  },
  {
    "id": "3771300690",
    "name": "学園通りデイトレセンター",
    "kana": "ガクエンドオリ　デイトレセンター",
    "address": "木田郡三木町大字鹿伏３２７番地１",
    "lat": 34.2702896,
    "lng": 134.1345487,
    "tel": "087-813-7128",
    "url": "",
    "pref": "香川県",
    "city": "三木町",
    "category": "day_service",
    "serviceType": "通所介護",
    "capacity": 24,
    "openDays": [
      "平日",
      "土曜日"
    ],
    "openDaysNote": "警報発令時など危険が予測される日及び感染症等による対策による臨時休業があります。"
  },
  {
    "id": "3771300062",
    "name": "三木指定通所介護事業所",
    "kana": "ミキシテイツウショカイゴジギョウショ",
    "address": "香川県木田郡三木町大字井上1966番地5三木町老人福祉会館　あけぼの荘 三木町老人福祉会館　あけぼの荘",
    "lat": 34.2923281,
    "lng": 134.1382816,
    "tel": "087-898-7650",
    "url": "http://ww8.tiki.ne.jp/~mikishakyo/",
    "pref": "香川県",
    "city": "三木町",
    "category": "day_service",
    "serviceType": "通所介護",
    "capacity": 20,
    "openDays": [
      "平日",
      "土曜日"
    ],
    "openDaysNote": "三木町から指定された避難所であり、警報等が発令され三木町が避難所開設を判断した場合、休館となります。"
  },
  {
    "id": "3771300203",
    "name": "白山デイサービスセンター",
    "kana": "ハクザンデイサービスセンター",
    "address": "香川県木田郡三木町大字下高岡２８８２番地１",
    "lat": 34.27387,
    "lng": 134.1446253,
    "tel": "087-898-3123",
    "url": "http://www.kitafuku.jp/",
    "pref": "香川県",
    "city": "三木町",
    "category": "day_service",
    "serviceType": "通所介護",
    "capacity": 0,
    "openDays": [
      "平日",
      "土曜日",
      "祝日"
    ],
    "openDaysNote": "ー"
  },
  {
    "id": "3771300773",
    "name": "老人デイサービスセンターヌーベル三木",
    "kana": "ロウジンデイサービスセンターヌーベルミキ",
    "address": "香川県木田郡三木町大字上高岡1033番地１",
    "lat": 34.2529838,
    "lng": 134.1403541,
    "tel": "087-898-1101",
    "url": "http://www.yu-sho.or.jp",
    "pref": "香川県",
    "city": "三木町",
    "category": "day_service",
    "serviceType": "通所介護",
    "capacity": 30,
    "openDays": [
      "平日",
      "土曜日",
      "祝日"
    ],
    "openDaysNote": ""
  },
  {
    "id": "3771200056",
    "name": "デイサービスセンターサンシャイン",
    "kana": "デイサービスセンターサンシャイン",
    "address": "香川県小豆郡小豆島町蒲生甲350",
    "lat": 34.4771321769193,
    "lng": 134.216368554631,
    "tel": "0879-75-2662",
    "url": "http://www.sunshine-kai.com",
    "pref": "香川県",
    "city": "小豆島町",
    "category": "day_service",
    "serviceType": "通所介護",
    "capacity": 0,
    "openDays": [
      "平日",
      "土曜日",
      "祝日"
    ],
    "openDaysNote": "-"
  },
  {
    "id": "3771200361",
    "name": "デイサービスセンターサンライズ西村",
    "kana": "デイサービスセンターサンライズニシムラ",
    "address": "香川県小豆郡小豆島町西村甲１１０１－１",
    "lat": 34.4684512,
    "lng": 134.2678369,
    "tel": "0879-82-3180",
    "url": "http://www.sunshine-kai.com",
    "pref": "香川県",
    "city": "小豆島町",
    "category": "day_service",
    "serviceType": "通所介護",
    "capacity": 0,
    "openDays": [
      "平日",
      "土曜日",
      "祝日"
    ],
    "openDaysNote": "-"
  },
  {
    "id": "3771200551",
    "name": "デイサービスはまひるがお内海",
    "kana": "デイサービスハマヒルガオウチノミ",
    "address": "香川県小豆郡小豆島町安田乙158-2",
    "lat": 34.4814096,
    "lng": 134.3340923,
    "tel": "0879-62-8338",
    "url": "hamahirugao.jp",
    "pref": "香川県",
    "city": "小豆島町",
    "category": "day_service",
    "serviceType": "通所介護",
    "capacity": 0,
    "openDays": [
      "平日",
      "土曜日",
      "日曜日",
      "祝日"
    ],
    "openDaysNote": ""
  },
  {
    "id": "3771200411",
    "name": "デイサービス青空",
    "kana": "デイサービスアオゾラ",
    "address": "小豆郡小豆島町西村甲2122-1",
    "lat": 34.4696123,
    "lng": 134.2703506,
    "tel": "0879-82-7116",
    "url": "http://www.ogenki-aozora.jp/",
    "pref": "香川県",
    "city": "小豆島町",
    "category": "day_service",
    "serviceType": "通所介護",
    "capacity": 25,
    "openDays": [
      "平日",
      "土曜日",
      "日曜日",
      "祝日"
    ],
    "openDaysNote": ""
  },
  {
    "id": "3771200031",
    "name": "特別養護老人ホーム　マリアの園",
    "kana": "トクベツヨウゴロウジンホウム　マリアノソノ",
    "address": "香川県小豆郡小豆島町草壁本町字上蔵田1-13",
    "lat": 34.4866005841354,
    "lng": 134.306816588715,
    "tel": "0879-82-3578",
    "url": "",
    "pref": "香川県",
    "city": "小豆島町",
    "category": "day_service",
    "serviceType": "通所介護",
    "capacity": 25,
    "openDays": [
      "平日",
      "土曜日",
      "日曜日",
      "祝日"
    ],
    "openDaysNote": "-"
  },
  {
    "id": "3770400699",
    "name": "あか門デイサービスセンター",
    "kana": "アカモンデイサービスセンター",
    "address": "香川県善通寺市文京町4丁目8番25号ケアステーション善通寺 ケアステーション善通寺",
    "lat": 34.2256994,
    "lng": 133.7794612,
    "tel": "0877-85-6666",
    "url": "http://kaigostation.co.jp/index.html",
    "pref": "香川県",
    "city": "善通寺市",
    "category": "day_service",
    "serviceType": "通所介護",
    "capacity": 20,
    "openDays": [
      "平日",
      "土曜日",
      "日曜日",
      "祝日"
    ],
    "openDaysNote": "365日年中無休で営業してます。"
  },
  {
    "id": "3770400541",
    "name": "デイサービス　ほほえみ",
    "kana": "デイサービス　ホホエミ",
    "address": "香川県善通寺市中村町２０８２－４",
    "lat": 34.2479492,
    "lng": 133.7611847,
    "tel": "0877-43-5080",
    "url": "http://ogata.co.jp/hohoemi/",
    "pref": "香川県",
    "city": "善通寺市",
    "category": "day_service",
    "serviceType": "通所介護",
    "capacity": 0,
    "openDays": [
      "平日",
      "土曜日",
      "祝日"
    ],
    "openDaysNote": ""
  },
  {
    "id": "3770400533",
    "name": "デイサービス　まおの里",
    "kana": "デイサービス　マオノサト",
    "address": "香川県善通寺市大麻町2080番地1",
    "lat": 34.2154672,
    "lng": 133.800043,
    "tel": "0877-43-6063",
    "url": "",
    "pref": "香川県",
    "city": "善通寺市",
    "category": "day_service",
    "serviceType": "通所介護",
    "capacity": 25,
    "openDays": [
      "平日",
      "土曜日",
      "祝日"
    ],
    "openDaysNote": "8/15と12/31～1/3休み"
  },
  {
    "id": "3770400426",
    "name": "デイサービスセンター　かがや木",
    "kana": "デイサービスセンター　カガヤキ",
    "address": "香川県善通寺市中村町４８５－１",
    "lat": 34.2456608,
    "lng": 133.765926,
    "tel": "0877-62-3003",
    "url": "http://www.junshinkai.com/facilitie/kagayaki.htm",
    "pref": "香川県",
    "city": "善通寺市",
    "category": "day_service",
    "serviceType": "通所介護",
    "capacity": 0,
    "openDays": [
      "平日",
      "土曜日",
      "祝日"
    ],
    "openDaysNote": "緊急時は、その都度対応する。"
  },
  {
    "id": "3770110496",
    "name": "デイサービスセンターやしまⅡ",
    "kana": "デイサービスセンターヤシマニ",
    "address": "高松市屋島西町1347番地1",
    "lat": 34.3456757,
    "lng": 134.0943972,
    "tel": "087-818-1081",
    "url": "http://kaigostation.co.jp",
    "pref": "香川県",
    "city": "善通寺市",
    "category": "day_service",
    "serviceType": "通所介護",
    "capacity": 0,
    "openDays": [
      "平日",
      "土曜日",
      "日曜日",
      "祝日"
    ],
    "openDaysNote": "1単位目：月～日　午前9時30分～午後4時45分（改行）2単位目：月～土　午前8時55分～午後0時05分（改行）3単位目：月～土　午後1時30分～午後4時40分"
  },
  {
    "id": "3770400350",
    "name": "医療法人高樹会ふじた医院　デイサービスセンター",
    "kana": "イリョウホウジンコウジュカイ　フジタイイン　デイサービスセンター",
    "address": "香川県善通寺市上吉田町４丁目５番１号",
    "lat": 34.228688,
    "lng": 133.7809248,
    "tel": "0877-62-0556",
    "url": "https://dayservice.fujitaiin.or.jp/",
    "pref": "香川県",
    "city": "善通寺市",
    "category": "day_service",
    "serviceType": "通所介護",
    "capacity": 0,
    "openDays": [
      "平日",
      "土曜日"
    ],
    "openDaysNote": "年末年始(１２月３０日から１月３日)"
  },
  {
    "id": "3770400509",
    "name": "指定通所介護ひまわりさん",
    "kana": "シテイ　ツウショカイゴヒマワリサン",
    "address": "香川県善通寺市弘田町９０６番地1",
    "lat": 34.240089,
    "lng": 133.7584683,
    "tel": "0877-62-5402",
    "url": "",
    "pref": "香川県",
    "city": "善通寺市",
    "category": "day_service",
    "serviceType": "通所介護",
    "capacity": 20,
    "openDays": [
      "平日",
      "土曜日",
      "祝日"
    ],
    "openDaysNote": "全職員対象研修日（日曜日・不定期）"
  },
  {
    "id": "3770400418",
    "name": "仙遊荘デイサービスセンター",
    "kana": "センユウソウ　デイサービスセンター",
    "address": "香川県善通寺市仙遊町２丁目３番４３号",
    "lat": 34.2279322,
    "lng": 133.7702008,
    "tel": "0877-62-7211",
    "url": "http://zen-fukushikai.jp/",
    "pref": "香川県",
    "city": "善通寺市",
    "category": "day_service",
    "serviceType": "通所介護",
    "capacity": 0,
    "openDays": [
      "平日",
      "土曜日",
      "祝日"
    ],
    "openDaysNote": ""
  },
  {
    "id": "3771600982",
    "name": "デイサービスセンターかざみ鳥",
    "kana": "デイサービスセンターカザミトリ",
    "address": "香川県仲多度郡多度津町北鴨二丁目１１０番地１",
    "lat": 34.2778599,
    "lng": 133.7665951,
    "tel": "0877-56-6300",
    "url": "",
    "pref": "香川県",
    "city": "多度津町",
    "category": "day_service",
    "serviceType": "通所介護",
    "capacity": 30,
    "openDays": [
      "平日",
      "土曜日",
      "祝日"
    ],
    "openDaysNote": "緊急時はその都度対応します。"
  },
  {
    "id": "3771601196",
    "name": "デイサービスセンターかりん",
    "kana": "デイサービスセンターカリン",
    "address": "香川県仲多度郡多度津町大字青木123番地1",
    "lat": 34.2533549933982,
    "lng": 133.752563998039,
    "tel": "0877-35-7885",
    "url": "",
    "pref": "香川県",
    "city": "多度津町",
    "category": "day_service",
    "serviceType": "通所介護",
    "capacity": 29,
    "openDays": [
      "平日"
    ],
    "openDaysNote": ""
  },
  {
    "id": "3771601105",
    "name": "デイサービスセンター途中迎舎",
    "kana": "デイサービスセンタートチュウゲシャ",
    "address": "仲多度郡多度津町西白方443番地1ギャラリー白方敷地内 ギャラリー白方敷地内",
    "lat": 34.2565099068234,
    "lng": 133.729903909647,
    "tel": "0877-85-8512",
    "url": "",
    "pref": "香川県",
    "city": "多度津町",
    "category": "day_service",
    "serviceType": "通所介護",
    "capacity": 10,
    "openDays": [
      "平日",
      "土曜日",
      "祝日"
    ],
    "openDaysNote": "災害発生時等はこの限りではございません。"
  },
  {
    "id": "3771600040",
    "name": "多度津デイサービスセンター",
    "kana": "タドツデイサービスセンター",
    "address": "香川県仲多度郡多度津町西港町127番地1",
    "lat": 34.2652861010027,
    "lng": 133.737697121426,
    "tel": "0877-32-8502",
    "url": "http://toryoen.jp/",
    "pref": "香川県",
    "city": "多度津町",
    "category": "day_service",
    "serviceType": "通所介護",
    "capacity": 0,
    "openDays": [
      "平日",
      "土曜日",
      "日曜日",
      "祝日"
    ],
    "openDaysNote": "－"
  },
  {
    "id": "3771601097",
    "name": "髙木産業　デイサービス未来",
    "kana": "タカギサンギョウ　デイサービスミライ",
    "address": "香川県仲多度郡多度津町大字葛原1716デイサービス未来 デイサービス未来",
    "lat": 34.2577646,
    "lng": 133.7688038,
    "tel": "（0877）56-6510",
    "url": "",
    "pref": "香川県",
    "city": "多度津町",
    "category": "day_service",
    "serviceType": "通所介護",
    "capacity": 55,
    "openDays": [
      "平日",
      "祝日"
    ],
    "openDaysNote": "リハビリ実施は1単位8：50～12：00　2単位13：30～16：40（改行）3単位9：50～15：00となります。3単位は食事の提供がありますが（改行）入浴提供はありません"
  },
  {
    "id": "3771200288",
    "name": "デイサービスセンター北のおひさま",
    "kana": "デイサービスセンターキタノオヒサマ",
    "address": "香川県小豆群土庄町屋形崎甲９６９",
    "lat": 34.5254159,
    "lng": 134.223127,
    "tel": "0879-65-2288",
    "url": "http./www.sunshine-kai.com/",
    "pref": "香川県",
    "city": "土庄町",
    "category": "day_service",
    "serviceType": "通所介護",
    "capacity": 0,
    "openDays": [
      "平日",
      "土曜日",
      "祝日"
    ],
    "openDaysNote": "-"
  },
  {
    "id": "3771200544",
    "name": "デイサービスはまひるがお",
    "kana": "デイサービスハマヒルガオ",
    "address": "香川県小豆郡土庄町甲1354-1",
    "lat": 34.4789800466916,
    "lng": 134.180188100633,
    "tel": "０８７９－６２－９１７２",
    "url": "https://hamahirugao.jp",
    "pref": "香川県",
    "city": "土庄町",
    "category": "day_service",
    "serviceType": "通所介護",
    "capacity": 30,
    "openDays": [
      "平日",
      "土曜日",
      "日曜日",
      "祝日"
    ],
    "openDaysNote": "年中無休（365日営業）"
  },
  {
    "id": "3771200163",
    "name": "小豆島老人ホームデイサービスセンターふれあいとのしょう",
    "kana": "ショウドシマロウジンホームデイサービスセンターフレアイトノショウ",
    "address": "香川県小豆郡土庄町渕崎甲518番地",
    "lat": 34.4900074,
    "lng": 134.1787159,
    "tel": "0879-62-3666",
    "url": "",
    "pref": "香川県",
    "city": "土庄町",
    "category": "day_service",
    "serviceType": "通所介護",
    "capacity": 0,
    "openDays": [
      "平日"
    ],
    "openDaysNote": "-"
  },
  {
    "id": "3771200312",
    "name": "老人デイサービスセンター　あづき",
    "kana": "ロウジンデイサービスセンターアヅキ",
    "address": "香川県小豆郡土庄町字半の池甲１３６０番地１４３",
    "lat": 34.4860217,
    "lng": 134.1858069,
    "tel": "0879-62-7707",
    "url": "",
    "pref": "香川県",
    "city": "土庄町",
    "category": "day_service",
    "serviceType": "通所介護",
    "capacity": null,
    "openDays": [
      "平日",
      "祝日"
    ],
    "openDaysNote": "-"
  },
  {
    "id": "3771100470",
    "name": "サンパール白鳥デイサービスセンター",
    "kana": "サンパールシロトリデイサービスセンター",
    "address": "香川県東かがわ市白鳥４３６－１",
    "lat": 34.2398117,
    "lng": 134.3520572,
    "tel": "0879-23-1400",
    "url": "http://www.zuishou.net/",
    "pref": "香川県",
    "city": "東かがわ市",
    "category": "day_service",
    "serviceType": "通所介護",
    "capacity": 0,
    "openDays": [
      "平日",
      "土曜日",
      "日曜日",
      "祝日"
    ],
    "openDaysNote": "特になし"
  },
  {
    "id": "3770700452",
    "name": "デイサービス　はまち",
    "kana": "デイサービス　ハマチ",
    "address": "東かがわ市引田４２６８-１",
    "lat": 34.223867,
    "lng": 134.4061579,
    "tel": "0879-33-7252",
    "url": "http://www.adoike.net",
    "pref": "香川県",
    "city": "東かがわ市",
    "category": "day_service",
    "serviceType": "通所介護",
    "capacity": 22,
    "openDays": [
      "平日",
      "土曜日",
      "祝日"
    ],
    "openDaysNote": ""
  },
  {
    "id": "3770700387",
    "name": "デイサービス　ふれあいの里",
    "kana": "デイサービス　フレアイノサト",
    "address": "三本松１２０４番地",
    "lat": 34.2490934,
    "lng": 134.3331283,
    "tel": "0879-25-3252",
    "url": "https://idm-hcg.co.jp",
    "pref": "香川県",
    "city": "東かがわ市",
    "category": "day_service",
    "serviceType": "通所介護",
    "capacity": 0,
    "openDays": [
      "平日",
      "土曜日",
      "祝日"
    ],
    "openDaysNote": "－"
  },
  {
    "id": "3770700551",
    "name": "デイサービス　愛華の里",
    "kana": "デイサービス　アイカノサト",
    "address": "香川県東かがわ市落合100-1",
    "lat": 34.2524171932325,
    "lng": 134.30990148833,
    "tel": "0879-25-7755",
    "url": "www.aikano-sato.com",
    "pref": "香川県",
    "city": "東かがわ市",
    "category": "day_service",
    "serviceType": "通所介護",
    "capacity": 0,
    "openDays": [
      "平日",
      "土曜日",
      "祝日"
    ],
    "openDaysNote": ""
  },
  {
    "id": "3770700262",
    "name": "デイサービスセンターたんぽぽの家",
    "kana": "デイサービスセンタータンポポノイエ",
    "address": "香川県東かがわ市湊263-1",
    "lat": 34.2500605,
    "lng": 134.350721,
    "tel": "0879-26-3385",
    "url": "https://www.tanpoponoie.jp",
    "pref": "香川県",
    "city": "東かがわ市",
    "category": "day_service",
    "serviceType": "通所介護",
    "capacity": null,
    "openDays": [
      "平日",
      "土曜日",
      "祝日"
    ],
    "openDaysNote": "-"
  },
  {
    "id": "3770700155",
    "name": "デイサービスみなみ",
    "kana": "デイサービスミナミ",
    "address": "香川県東かがわ市横内304-8",
    "lat": 34.2586448,
    "lng": 134.3262123,
    "tel": "0879-26-3450",
    "url": "",
    "pref": "香川県",
    "city": "東かがわ市",
    "category": "day_service",
    "serviceType": "通所介護",
    "capacity": 25,
    "openDays": [
      "平日",
      "土曜日",
      "祝日"
    ],
    "openDaysNote": ""
  },
  {
    "id": "3770700247",
    "name": "みさごデイサービスセンター",
    "kana": "ミサゴデイサービスセンター",
    "address": "香川県東かがわ市引田２０３番地１みさごデイサービスセンター みさごデイサービスセンター",
    "lat": 34.2196148,
    "lng": 134.406208,
    "tel": "0879-23-8022",
    "url": "",
    "pref": "香川県",
    "city": "東かがわ市",
    "category": "day_service",
    "serviceType": "通所介護",
    "capacity": 30,
    "openDays": [
      "平日",
      "土曜日"
    ],
    "openDaysNote": ""
  },
  {
    "id": "3771100504",
    "name": "引田荘デイサービスセンター",
    "kana": "ヒケタソウデイサービスセンター",
    "address": "香川県東かがわ市引田922番地18",
    "lat": 34.2143374,
    "lng": 134.3977647,
    "tel": "0879-33-7001",
    "url": "http://www.shikoku.ne.jp/zuishou/",
    "pref": "香川県",
    "city": "東かがわ市",
    "category": "day_service",
    "serviceType": "通所介護",
    "capacity": 0,
    "openDays": [
      "平日",
      "土曜日",
      "祝日"
    ],
    "openDaysNote": "なし"
  },
  {
    "id": "3771100363",
    "name": "絹島荘デイサービスセンター",
    "kana": "キヌジマソウデイサービスセンター",
    "address": "香川県東かがわ市馬篠1227番地20",
    "lat": 34.2739173,
    "lng": 134.2993787,
    "tel": "0879-25-6511",
    "url": "http://www.koutouen.com/",
    "pref": "香川県",
    "city": "東かがわ市",
    "category": "day_service",
    "serviceType": "通所介護",
    "capacity": 35,
    "openDays": [
      "平日",
      "土曜日",
      "祝日"
    ],
    "openDaysNote": "━"
  },
  {
    "id": "3770700510",
    "name": "湊荘デイサービスセンター",
    "kana": "ミナトソウデイサービスセンター",
    "address": "東かがわ市湊1183-5",
    "lat": 34.241643503955,
    "lng": 134.343119633382,
    "tel": "0879-25-0674",
    "url": "http://www.zuishou.net/",
    "pref": "香川県",
    "city": "東かがわ市",
    "category": "day_service",
    "serviceType": "通所介護",
    "capacity": 0,
    "openDays": [
      "平日",
      "祝日"
    ],
    "openDaysNote": "なし"
  }
]