[
  {
    "id": "3972400257",
    "name": "デイサービス　ゆとりあ",
    "kana": "デイサービス　ユトリア",
    "address": "吾川郡いの町天王南１－６－３",
    "lat": 33.5279184,
    "lng": 133.4407299,
    "tel": "088-891-6565",
    "url": "http://www.machidaseikei.com/yutoria.html",
    "pref": "高知県",
    "city": "いの町",
    "category": "day_service",
    "serviceType": "通所介護",
    "capacity": 0,
    "openDays": [
      "平日",
      "土曜日",
      "祝日"
    ],
    "openDaysNote": ""
  },
  {
    "id": "3972400927",
    "name": "デイサービスかわうち",
    "kana": "デイサービスカワウチ",
    "address": "高知県吾川郡いの町波川664－1",
    "lat": 33.5469388,
    "lng": 133.4127679,
    "tel": "088－893－2160",
    "url": "",
    "pref": "高知県",
    "city": "いの町",
    "category": "day_service",
    "serviceType": "通所介護",
    "capacity": null,
    "openDays": [
      "平日",
      "土曜日",
      "日曜日",
      "祝日"
    ],
    "openDaysNote": ""
  },
  {
    "id": "3972400869",
    "name": "デイサービスセンター　壽幸園",
    "kana": "デイサービスセンター　ジュコウエン",
    "address": "高知県吾川郡いの町天王南五丁目2-14",
    "lat": 33.5315015,
    "lng": 133.4496319,
    "tel": "088-850-1622",
    "url": "https://www.inofukushikai.com/",
    "pref": "高知県",
    "city": "いの町",
    "category": "day_service",
    "serviceType": "通所介護",
    "capacity": 25,
    "openDays": [
      "平日",
      "土曜日",
      "祝日"
    ],
    "openDaysNote": ""
  },
  {
    "id": "3972400141",
    "name": "デイサービスセンター「あいの」",
    "kana": "デイサービスセンター「アイノ」",
    "address": "高知県吾川郡いの町１４００「すこやかセンター伊野」内",
    "lat": 33.5464787373736,
    "lng": 133.431710382834,
    "tel": "088-893-3877",
    "url": "",
    "pref": "高知県",
    "city": "いの町",
    "category": "day_service",
    "serviceType": "通所介護",
    "capacity": 30,
    "openDays": [
      "平日",
      "土曜日",
      "祝日"
    ],
    "openDaysNote": ""
  },
  {
    "id": "3970300095",
    "name": "デイサービスセンター　はまちどり",
    "kana": "デイサービスセンターハマチドリ",
    "address": "安芸市寿町２－３",
    "lat": 33.4988467,
    "lng": 133.9041275,
    "tel": "0887-35-8188",
    "url": "http://www.aki-wel.or.jp/businessplace/dayservice/dayservice.html",
    "pref": "高知県",
    "city": "安芸市",
    "category": "day_service",
    "serviceType": "通所介護",
    "capacity": 0,
    "openDays": [
      "平日",
      "土曜日"
    ],
    "openDaysNote": ""
  },
  {
    "id": "3970300103",
    "name": "デイサービスセンターあったか",
    "kana": "デイサービスセンターアッタカ",
    "address": "安芸市庄之芝町3-3鯨ビル 鯨ビル",
    "lat": 33.501774,
    "lng": 133.9022028,
    "tel": "0887-34-8720",
    "url": "",
    "pref": "高知県",
    "city": "安芸市",
    "category": "day_service",
    "serviceType": "通所介護",
    "capacity": 25,
    "openDays": [
      "平日",
      "土曜日",
      "日曜日",
      "祝日"
    ],
    "openDaysNote": ""
  },
  {
    "id": "3970300145",
    "name": "デイサービスセンター安芸",
    "kana": "デイサービスセンターアキ",
    "address": "安芸市川北甲1812－15",
    "lat": 33.498,
    "lng": 133.9152956,
    "tel": "0887-35-8002",
    "url": "http://f-shizenmura.or.jp",
    "pref": "高知県",
    "city": "安芸市",
    "category": "day_service",
    "serviceType": "通所介護",
    "capacity": 0,
    "openDays": [
      "平日",
      "土曜日",
      "祝日"
    ],
    "openDaysNote": ""
  },
  {
    "id": "3970300327",
    "name": "通所介護みずぐるま",
    "kana": "ツウショカイゴミズグルマ",
    "address": "高知県安芸市井ノ口甲２１２２－３",
    "lat": 33.5273875,
    "lng": 133.8988965,
    "tel": "0887-34-3960",
    "url": "https://mizuguruma.net",
    "pref": "高知県",
    "city": "安芸市",
    "category": "day_service",
    "serviceType": "通所介護",
    "capacity": 50,
    "openDays": [
      "平日",
      "土曜日",
      "祝日"
    ],
    "openDaysNote": ""
  },
  {
    "id": "3970300087",
    "name": "老人デイサービスセンター　「いのくち」",
    "kana": "ロウジンデイサービスセンター　「イノクチ」",
    "address": "高知県安芸市川北乙１７３５番地",
    "lat": 33.5276018,
    "lng": 133.9135978,
    "tel": "0887-32-0131",
    "url": "http://tsutsujinooka.jp/",
    "pref": "高知県",
    "city": "安芸市",
    "category": "day_service",
    "serviceType": "通所介護",
    "capacity": null,
    "openDays": [
      "平日",
      "土曜日",
      "祝日"
    ],
    "openDaysNote": "特になし"
  },
  {
    "id": "3972000362",
    "name": "デイサービスセンターたいよう",
    "kana": "デイサービスセンタータイヨウ",
    "address": "高知県安芸郡安田町西島７２－１",
    "lat": 33.443053,
    "lng": 133.9850958,
    "tel": "0887-38-5546",
    "url": "",
    "pref": "高知県",
    "city": "安田町",
    "category": "day_service",
    "serviceType": "通所介護",
    "capacity": 0,
    "openDays": [
      "平日",
      "祝日"
    ],
    "openDaysNote": "特になし"
  },
  {
    "id": "3972501054",
    "name": "デイサービス　なごみ",
    "kana": "デイサービス　ナゴミ",
    "address": "高知県高岡郡越知町越知甲１５８０－１",
    "lat": 33.5292618,
    "lng": 133.2541212,
    "tel": "0889-26-2550",
    "url": "",
    "pref": "高知県",
    "city": "越知町",
    "category": "day_service",
    "serviceType": "通所介護",
    "capacity": 0,
    "openDays": [
      "平日",
      "土曜日",
      "祝日"
    ],
    "openDaysNote": "特になし"
  },
  {
    "id": "3972000297",
    "name": "デイサービスセンター洋寿",
    "kana": "デイサービスセンターヨウジュ",
    "address": "高知県安芸郡芸西村西分乙２９７番地",
    "lat": 33.5157927,
    "lng": 133.7720794,
    "tel": "0887-32-2200",
    "url": "http://www.welplaza.or.jp/",
    "pref": "高知県",
    "city": "芸西村",
    "category": "day_service",
    "serviceType": "通所介護",
    "capacity": 0,
    "openDays": [
      "平日",
      "土曜日",
      "祝日"
    ],
    "openDaysNote": "台風等の気象条件や自然災害発生時、お休みする場合があります。"
  },
  {
    "id": "3971100312",
    "name": "でいさーびすうちんくのどか　のいち",
    "kana": "デイサービスウチンクノドカ　ノイチ",
    "address": "高知県香南市野市町西野2558番地1",
    "lat": 33.5671072,
    "lng": 133.6926839,
    "tel": "0887-52-8220",
    "url": "",
    "pref": "高知県",
    "city": "香南市",
    "category": "day_service",
    "serviceType": "通所介護",
    "capacity": 0,
    "openDays": [
      "平日",
      "土曜日",
      "日曜日",
      "祝日"
    ],
    "openDaysNote": ""
  },
  {
    "id": "3971100064",
    "name": "デイサービスセンター　あぐり",
    "kana": "デイサービスセンター　アグリ",
    "address": "高知県香南市野市町東野３５４－１８",
    "lat": 33.5616124,
    "lng": 133.7176646,
    "tel": "0887-55-0015",
    "url": "",
    "pref": "高知県",
    "city": "香南市",
    "category": "day_service",
    "serviceType": "通所介護",
    "capacity": 25,
    "openDays": [
      "平日",
      "土曜日"
    ],
    "openDaysNote": ""
  },
  {
    "id": "3971100387",
    "name": "デイサービスセンターふじかわ",
    "kana": "デイサービスセンターフジカワ",
    "address": "高知県香南市野市町西野1888番地4",
    "lat": 33.5593943,
    "lng": 133.6935451,
    "tel": "0887-56-5501",
    "url": "",
    "pref": "高知県",
    "city": "香南市",
    "category": "day_service",
    "serviceType": "通所介護",
    "capacity": 0,
    "openDays": [
      "平日",
      "土曜日",
      "祝日"
    ],
    "openDaysNote": "特になし"
  },
  {
    "id": "3971100171",
    "name": "デイサービスセンター白岩",
    "kana": "デイサービスセンターシライワ",
    "address": "香南市野市町東佐古727-2",
    "lat": 33.5846844,
    "lng": 133.711026,
    "tel": "0887-57-8085",
    "url": "http://www.nishida-ph.net/dayservice/index.html#shiroiwa",
    "pref": "高知県",
    "city": "香南市",
    "category": "day_service",
    "serviceType": "通所介護",
    "capacity": 28,
    "openDays": [
      "平日",
      "土曜日",
      "日曜日",
      "祝日"
    ],
    "openDaysNote": ""
  },
  {
    "id": "3971100031",
    "name": "通所介護事業所　みかんの里",
    "kana": "ツウショカイゴジギョウショ　ミカンノサト",
    "address": "高知県香南市香我美町下分２６４５－１",
    "lat": 33.5720617,
    "lng": 133.7410038,
    "tel": "0887-54-2233",
    "url": "http://konanshi-shakyo.or.jp/",
    "pref": "高知県",
    "city": "香南市",
    "category": "day_service",
    "serviceType": "通所介護",
    "capacity": 25,
    "openDays": [
      "平日",
      "祝日"
    ],
    "openDaysNote": ""
  },
  {
    "id": "3971200211",
    "name": "かみ介護サービス（株）デイサービス太陽",
    "kana": "カミカイゴサービス（カブ）デイサービスタイヨウ",
    "address": "高知県香美市土佐山田町旭町4－2－30かみ介護サービス（株）サービス付き高齢者向け住宅あさひ かみ介護サービス（株）サービス付き高齢者向け住宅あさひ",
    "lat": 33.6059293,
    "lng": 133.6910584,
    "tel": "0887－53－0601",
    "url": "",
    "pref": "高知県",
    "city": "香美市",
    "category": "day_service",
    "serviceType": "通所介護",
    "capacity": 0,
    "openDays": [
      "平日",
      "土曜日",
      "祝日"
    ],
    "openDaysNote": ""
  },
  {
    "id": "3971200096",
    "name": "デイサービスセンター　あさひ",
    "kana": "デイサービスセンター　アサヒ",
    "address": "高知県香美市土佐山田町旭町4丁目２－６",
    "lat": 33.6059987,
    "lng": 133.6905973,
    "tel": "0887-57-6077",
    "url": "",
    "pref": "高知県",
    "city": "香美市",
    "category": "day_service",
    "serviceType": "通所介護",
    "capacity": 35,
    "openDays": [
      "平日",
      "土曜日",
      "日曜日",
      "祝日"
    ],
    "openDaysNote": ""
  },
  {
    "id": "3972100097",
    "name": "デイサービスセンターやまだ通所介護事業所",
    "kana": "デイサービスセンターヤマダ　ツウショカイゴジギョウショ",
    "address": "高知県香美市土佐山田町550番2",
    "lat": 33.6090039,
    "lng": 133.6754625,
    "tel": "0887-52-5655",
    "url": "",
    "pref": "高知県",
    "city": "香美市",
    "category": "day_service",
    "serviceType": "通所介護",
    "capacity": 0,
    "openDays": [
      "平日",
      "土曜日",
      "祝日"
    ],
    "openDaysNote": "特になし"
  },
  {
    "id": "3971200021",
    "name": "香美市社協デイサービスセンター　八王子",
    "kana": "カミシシャキョウデイサービスセンターハチオウジ",
    "address": "高知県香美市土佐山田町262番地１",
    "lat": 33.6106788,
    "lng": 133.6876281,
    "tel": "0887-53-5477（",
    "url": "http://kami-shakyo.or.jp/",
    "pref": "高知県",
    "city": "香美市",
    "category": "day_service",
    "serviceType": "通所介護",
    "capacity": 30,
    "openDays": [
      "平日",
      "祝日"
    ],
    "openDaysNote": "祝日の営業は、月～金の祝日のみ"
  },
  {
    "id": "3970104802",
    "name": "アシストジャパンデイサービスセンター7号館",
    "kana": "アシストジャパンデイサービスセンター　ナナゴウカン",
    "address": "高知県高知市北新田町18-30",
    "lat": 33.5514606,
    "lng": 133.5534046,
    "tel": "088-837-8907",
    "url": "http://www.assistjapan.com/division/day7.htm",
    "pref": "高知県",
    "city": "高知市",
    "category": "day_service",
    "serviceType": "通所介護",
    "capacity": 20,
    "openDays": [
      "平日",
      "土曜日",
      "祝日"
    ],
    "openDaysNote": ""
  },
  {
    "id": "3970107714",
    "name": "アルコ潮見台",
    "kana": "アルコシオミダイ",
    "address": "高知県高知市潮見台１丁目2603",
    "lat": 33.5623629,
    "lng": 133.6209961,
    "tel": "088-856-8603",
    "url": "http://houjin.fuku-no-tane.com/",
    "pref": "高知県",
    "city": "高知市",
    "category": "day_service",
    "serviceType": "通所介護",
    "capacity": 0,
    "openDays": [
      "平日",
      "祝日"
    ],
    "openDaysNote": "月～金の中に祝日がある場合は営業を行う"
  },
  {
    "id": "3970107573",
    "name": "ウィークリハビリテーションデイセンター高知",
    "kana": "ウィークリハビリテーションデイセンターコウチ",
    "address": "高知県高知市南はりまや町二丁目7番8号ウィークスビル ウィークスビル",
    "lat": 33.5572653,
    "lng": 133.5454086,
    "tel": "088-856-8026",
    "url": "https://kochi-weeks.co.jp",
    "pref": "高知県",
    "city": "高知市",
    "category": "day_service",
    "serviceType": "通所介護",
    "capacity": null,
    "openDays": [
      "平日",
      "土曜日",
      "祝日"
    ],
    "openDaysNote": "・年末年始および災害や感染症に伴う臨時休業の場合あり"
  },
  {
    "id": "3970104455",
    "name": "ウエルデイしなね通所介護事業所",
    "kana": "ウエルデイシナネツウショカイゴジギョウショ",
    "address": "高知県高知市一宮しなね２丁目１５番１９号",
    "lat": 33.5938527,
    "lng": 133.5775325,
    "tel": "088-855-8818",
    "url": "http://www.welplaza.or.jp/index.php",
    "pref": "高知県",
    "city": "高知市",
    "category": "day_service",
    "serviceType": "通所介護",
    "capacity": 28,
    "openDays": [
      "平日",
      "土曜日",
      "祝日"
    ],
    "openDaysNote": ""
  },
  {
    "id": "3970105585",
    "name": "サバティ高知河ノ瀬店",
    "kana": "サバティ　コウチゴウノセテン",
    "address": "高知県高知市南河ノ瀬町１－２",
    "lat": 33.5493711,
    "lng": 133.523313,
    "tel": "088－837－1081",
    "url": "http://www.cavaty.jp",
    "pref": "高知県",
    "city": "高知市",
    "category": "day_service",
    "serviceType": "通所介護",
    "capacity": 0,
    "openDays": [
      "平日",
      "祝日"
    ],
    "openDaysNote": ""
  },
  {
    "id": "3970107722",
    "name": "ジョイリハSPA土佐道路",
    "kana": "ジョイリハ　スパ　トサドウロ",
    "address": "高知県高知市鴨部3-24-26",
    "lat": 33.5452917,
    "lng": 133.5010261,
    "tel": "088-828-8050",
    "url": "https://joyreha.co.jp/",
    "pref": "高知県",
    "city": "高知市",
    "category": "day_service",
    "serviceType": "通所介護",
    "capacity": 0,
    "openDays": [
      "平日",
      "土曜日",
      "祝日"
    ],
    "openDaysNote": ""
  },
  {
    "id": "3970107532",
    "name": "ジョイリハ高須",
    "kana": "ジョイリハタカス",
    "address": "高知県高知市高須新町３丁目1-20パルグランディ1F パルグランディ1F",
    "lat": 33.5564393,
    "lng": 133.5773427,
    "tel": "088-880-5711",
    "url": "",
    "pref": "高知県",
    "city": "高知市",
    "category": "day_service",
    "serviceType": "通所介護",
    "capacity": 0,
    "openDays": [
      "平日",
      "土曜日",
      "祝日"
    ],
    "openDaysNote": "年末年始12月30日から年始１月3日までお休みになります"
  },
  {
    "id": "3970107326",
    "name": "ツクイ高知神田",
    "kana": "ツクイコウチコウダ",
    "address": "高知県高知市神田1404-1",
    "lat": 33.5410963,
    "lng": 133.5177983,
    "tel": "088-805-1015",
    "url": "",
    "pref": "高知県",
    "city": "高知市",
    "category": "day_service",
    "serviceType": "通所介護",
    "capacity": 0,
    "openDays": [
      "平日",
      "土曜日",
      "日曜日",
      "祝日"
    ],
    "openDaysNote": ""
  },
  {
    "id": "3970107334",
    "name": "ツクイ高知東雲",
    "kana": "ツクイコウチシノノメ",
    "address": "高知県高知市東雲町8-43",
    "lat": 33.5586224,
    "lng": 133.5645556,
    "tel": "088-880-5726",
    "url": "",
    "pref": "高知県",
    "city": "高知市",
    "category": "day_service",
    "serviceType": "通所介護",
    "capacity": 32,
    "openDays": [
      "平日",
      "土曜日",
      "日曜日",
      "祝日"
    ],
    "openDaysNote": "365日営業"
  },
  {
    "id": "3910113483",
    "name": "デイ・サービス　リーズ",
    "kana": "デイ・サービス　リーズ",
    "address": "高知市大津乙７１９",
    "lat": 33.5678569,
    "lng": 133.5972361,
    "tel": "088-802-7660",
    "url": "http://www.kochijoto.or.jp/",
    "pref": "高知県",
    "city": "高知市",
    "category": "day_service",
    "serviceType": "通所介護",
    "capacity": 0,
    "openDays": [
      "平日",
      "土曜日"
    ],
    "openDaysNote": ""
  },
  {
    "id": "3970106419",
    "name": "デイサービス　あさひの里",
    "kana": "デイサービス　アサヒノサト",
    "address": "高知県高知市南元町８５番住宅型有料老人ホームあさひの里 住宅型有料老人ホームあさひの里",
    "lat": 33.5571891,
    "lng": 133.507576,
    "tel": "088-803-8088",
    "url": "",
    "pref": "高知県",
    "city": "高知市",
    "category": "day_service",
    "serviceType": "通所介護",
    "capacity": 0,
    "openDays": [
      "平日",
      "土曜日",
      "日曜日",
      "祝日"
    ],
    "openDaysNote": ""
  },
  {
    "id": "3970102772",
    "name": "デイサービス　いろは",
    "kana": "デイサービス　イロハ",
    "address": "高知市一宮西町１丁目５番１７号",
    "lat": 33.5834845,
    "lng": 133.5663335,
    "tel": "088-846-1681",
    "url": "http://www.sanai-hospital.jp/top/facility/iroha.html",
    "pref": "高知県",
    "city": "高知市",
    "category": "day_service",
    "serviceType": "通所介護",
    "capacity": 0,
    "openDays": [
      "平日",
      "土曜日",
      "祝日"
    ],
    "openDaysNote": "なし"
  },
  {
    "id": "3970106492",
    "name": "デイサービス　おとも",
    "kana": "デイサービス　オトモ",
    "address": "高知県高知市秦南町1丁目7-17",
    "lat": 33.5738992,
    "lng": 133.5444216,
    "tel": "088-881-3292",
    "url": "",
    "pref": "高知県",
    "city": "高知市",
    "category": "day_service",
    "serviceType": "通所介護",
    "capacity": 25,
    "openDays": [
      "平日",
      "土曜日",
      "祝日"
    ],
    "openDaysNote": "12/31～1/3休み"
  },
  {
    "id": "3970104422",
    "name": "デイサービス　スタイル高須",
    "kana": "デイサービス　スタイルタカス",
    "address": "高知県高知市高須2丁目13-1",
    "lat": 33.5610743,
    "lng": 133.5846876,
    "tel": "088-856-8640",
    "url": "s-kyotaku@style-carewave.jp",
    "pref": "高知県",
    "city": "高知市",
    "category": "day_service",
    "serviceType": "通所介護",
    "capacity": 5,
    "openDays": [
      "平日",
      "土曜日",
      "祝日"
    ],
    "openDaysNote": ""
  },
  {
    "id": "3970107185",
    "name": "デイサービス　むすび葉ｐｌｕｓ",
    "kana": "デイササービス　ムスビバプラス",
    "address": "高知県高知市中水道8－6",
    "lat": 33.5686884,
    "lng": 133.5356067,
    "tel": "088－881－6358",
    "url": "",
    "pref": "高知県",
    "city": "高知市",
    "category": "day_service",
    "serviceType": "通所介護",
    "capacity": 0,
    "openDays": [
      "平日",
      "土曜日",
      "祝日"
    ],
    "openDaysNote": "よさこい祭り時　8/10・11・12は定休日の可能性があります。※昨年は新型コロナウィルス感染症拡大の為、よさこい祭り中止であった為、実績なし。"
  },
  {
    "id": "3970106716",
    "name": "デイサービス　やわらぎ",
    "kana": "デイサービス　ヤワラギ",
    "address": "高知県高知市朝倉西町2丁目5番2号",
    "lat": 33.5403292,
    "lng": 133.4804126,
    "tel": "088-802-5761",
    "url": "",
    "pref": "高知県",
    "city": "高知市",
    "category": "day_service",
    "serviceType": "通所介護",
    "capacity": 25,
    "openDays": [
      "平日"
    ],
    "openDaysNote": ""
  },
  {
    "id": "3970105726",
    "name": "デイサービス・アートケア仁井田",
    "kana": "デイサービスアートケアニイダ",
    "address": "仁井田4639-1",
    "lat": 33.5100713,
    "lng": 133.5674054,
    "tel": "088-855-8665",
    "url": "",
    "pref": "高知県",
    "city": "高知市",
    "category": "day_service",
    "serviceType": "通所介護",
    "capacity": 20,
    "openDays": [
      "平日",
      "土曜日",
      "日曜日",
      "祝日"
    ],
    "openDaysNote": ""
  },
  {
    "id": "3970106161",
    "name": "デイサービスからふる",
    "kana": "デイサービスカラフル",
    "address": "高知県高知市一ツ橋町二丁目１２７番地－１階",
    "lat": 33.5742252086059,
    "lng": 133.528694678575,
    "tel": "０８８－８５６－９３１６",
    "url": "",
    "pref": "高知県",
    "city": "高知市",
    "category": "day_service",
    "serviceType": "通所介護",
    "capacity": 19,
    "openDays": [
      "平日",
      "土曜日",
      "日曜日",
      "祝日"
    ],
    "openDaysNote": "毎週水曜日・年始（１/１～１/２）・よさこい本祭(８/１０～８/１１）は休み。"
  },
  {
    "id": "3970104265",
    "name": "デイサービスせいきょうぬくぬく",
    "kana": "デイサービスセイキョウヌクヌク",
    "address": "高知県高知市口細山２０６－９",
    "lat": 33.5669753126166,
    "lng": 133.490054950262,
    "tel": "088-828-8328",
    "url": "http://www.kochi-hco-op.or.jp/3kaigo/kaigo-day.html",
    "pref": "高知県",
    "city": "高知市",
    "category": "day_service",
    "serviceType": "通所介護",
    "capacity": 25,
    "openDays": [
      "平日",
      "土曜日",
      "祝日"
    ],
    "openDaysNote": ""
  },
  {
    "id": "3970104042",
    "name": "デイサービスセンター　あっとホーム",
    "kana": "デイサービスセンター　アットホーム",
    "address": "高知市神田1068-1",
    "lat": 33.5432298,
    "lng": 133.5135144,
    "tel": "088-805-1004",
    "url": "http://f-shizenmura.or.jp",
    "pref": "高知県",
    "city": "高知市",
    "category": "day_service",
    "serviceType": "通所介護",
    "capacity": 0,
    "openDays": [
      "平日",
      "土曜日",
      "祝日"
    ],
    "openDaysNote": ""
  },
  {
    "id": "3970104729",
    "name": "デイサービスセンター　おらんくの縁側",
    "kana": "デイサービスセンター　オランクノエンガワ",
    "address": "東秦泉寺75-1",
    "lat": 33.5778642,
    "lng": 133.5460115,
    "tel": "088-822-2270",
    "url": "https://www.fukudacl.or.jp",
    "pref": "高知県",
    "city": "高知市",
    "category": "day_service",
    "serviceType": "通所介護",
    "capacity": 20,
    "openDays": [
      "平日",
      "祝日"
    ],
    "openDaysNote": "特になし"
  },
  {
    "id": "3970103473",
    "name": "デイサービスセンター　くつろぎの家",
    "kana": "デイサービスセンター　クツロギノイエ",
    "address": "高知市若草南町２２－２５",
    "lat": 33.540035,
    "lng": 133.4873426,
    "tel": "088-843-1468",
    "url": "http://www.nagaisakanokai.com/wakakusa/kutsurogi.html",
    "pref": "高知県",
    "city": "高知市",
    "category": "day_service",
    "serviceType": "通所介護",
    "capacity": 0,
    "openDays": [
      "平日",
      "土曜日",
      "祝日"
    ],
    "openDaysNote": "ありません。"
  },
  {
    "id": "3970105817",
    "name": "デイサービスセンター　サイタ",
    "kana": "デイサービスセンター　サイタ",
    "address": "高知県高知市朝倉甲２５－１在宅介護支援事業所　サイタ 在宅介護支援事業所　サイタ",
    "lat": 33.5441728121871,
    "lng": 133.501386018663,
    "tel": "088-856-5761",
    "url": "http://www.thc.or.jp/",
    "pref": "高知県",
    "city": "高知市",
    "category": "day_service",
    "serviceType": "通所介護",
    "capacity": 0,
    "openDays": [
      "平日",
      "土曜日",
      "祝日"
    ],
    "openDaysNote": ""
  },
  {
    "id": "3970100107",
    "name": "デイサービスセンター　サムフォット",
    "kana": "デイサービスセンター　サムフォット",
    "address": "高知市朝倉甲６４－１",
    "lat": 33.5430629,
    "lng": 133.5024824,
    "tel": "088-840-7222",
    "url": "http://www.thc.or.jp",
    "pref": "高知県",
    "city": "高知市",
    "category": "day_service",
    "serviceType": "通所介護",
    "capacity": 0,
    "openDays": [
      "平日",
      "土曜日",
      "祝日"
    ],
    "openDaysNote": ""
  },
  {
    "id": "3970102152",
    "name": "デイサービスセンター　トマトの樹",
    "kana": "デイサービスセンター　トマトノキ",
    "address": "高知県高知市介良乙８８３番地２",
    "lat": 33.5643129,
    "lng": 133.5980722,
    "tel": "088-878-7588",
    "url": "http://www.netfamily.jp",
    "pref": "高知県",
    "city": "高知市",
    "category": "day_service",
    "serviceType": "通所介護",
    "capacity": 40,
    "openDays": [
      "平日",
      "土曜日",
      "祝日"
    ],
    "openDaysNote": "年末年始は業務用携帯で連絡対応します。"
  },
  {
    "id": "3970103028",
    "name": "デイサービスセンター　はるかぜ",
    "kana": "デイサービスセンター　ハルカゼ",
    "address": "高知県高知市春野町西分４６６０番地",
    "lat": 33.500537279538,
    "lng": 133.500449371886,
    "tel": "088-894-4112",
    "url": "http://www.nagaisakanokai.com/about.html",
    "pref": "高知県",
    "city": "高知市",
    "category": "day_service",
    "serviceType": "通所介護",
    "capacity": 0,
    "openDays": [
      "平日",
      "土曜日",
      "祝日"
    ],
    "openDaysNote": "-"
  },
  {
    "id": "3970100149",
    "name": "デイサービスセンター　ゆづき",
    "kana": "デイサービスセンター　ユヅキ",
    "address": "高知市円行寺５２－１０",
    "lat": 33.5838861,
    "lng": 133.5137,
    "tel": "088-823-3030",
    "url": "http://www.sanjyukai.com/",
    "pref": "高知県",
    "city": "高知市",
    "category": "day_service",
    "serviceType": "通所介護",
    "capacity": 0,
    "openDays": [
      "平日",
      "土曜日",
      "祝日"
    ],
    "openDaysNote": ""
  },
  {
    "id": "3970104778",
    "name": "デイサービスセンター　よこはま",
    "kana": "デイサービスセンター　ヨコハマ",
    "address": "高知県高知市横浜東町10番2号",
    "lat": 33.5202586,
    "lng": 133.5487314,
    "tel": "088-841-3232",
    "url": "http://www.rp-yokohama.com/",
    "pref": "高知県",
    "city": "高知市",
    "category": "day_service",
    "serviceType": "通所介護",
    "capacity": 0,
    "openDays": [
      "平日",
      "土曜日",
      "祝日"
    ],
    "openDaysNote": "その他、天候悪化の場合や施設の改修等にて臨時休業する場合は、速やかにお伝え（改行）いたします。"
  },
  {
    "id": "3970104992",
    "name": "デイサービスセンター　リハライフ",
    "kana": "デイサービスセンター　リハライフ",
    "address": "高知県高知市仲田町７－１１",
    "lat": 33.5487733363308,
    "lng": 133.553192612092,
    "tel": "088-879-6568",
    "url": "www.rehalife-kochi.com",
    "pref": "高知県",
    "city": "高知市",
    "category": "day_service",
    "serviceType": "通所介護",
    "capacity": 0,
    "openDays": [
      "平日",
      "土曜日",
      "祝日"
    ],
    "openDaysNote": ""
  },
  {
    "id": "3970106237",
    "name": "デイサービスセンター　リハライフプラス",
    "kana": "デイサービスセンター　リハライフプラス",
    "address": "高知県高知市仲田町6-24",
    "lat": 33.5495275,
    "lng": 133.5530242,
    "tel": "088-856-5531",
    "url": "www.rehalife-kochi.com",
    "pref": "高知県",
    "city": "高知市",
    "category": "day_service",
    "serviceType": "通所介護",
    "capacity": 0,
    "openDays": [
      "平日",
      "土曜日",
      "祝日"
    ],
    "openDaysNote": "月曜～土曜の祝祭日は営業致します。"
  },
  {
    "id": "3970106799",
    "name": "デイサービスセンター　リハライフ高須",
    "kana": "デイサービスセンター　リハライフタカス",
    "address": "高知県高知市高須新町2丁目1-40",
    "lat": 33.5570837,
    "lng": 133.5796336,
    "tel": "088-856-6760",
    "url": "www.rehalife-kochi.com",
    "pref": "高知県",
    "city": "高知市",
    "category": "day_service",
    "serviceType": "通所介護",
    "capacity": 0,
    "openDays": [
      "平日",
      "土曜日",
      "祝日"
    ],
    "openDaysNote": ""
  },
  {
    "id": "3970106922",
    "name": "デイサービスセンター　リハライフ新屋敷",
    "kana": "デイサービスセンター　リハライフシンヤシキ",
    "address": "高知県高知市新屋敷1丁目7-7",
    "lat": 33.5644766459551,
    "lng": 133.522320032545,
    "tel": "088-821-6285",
    "url": "www.rehalife-kochi.com",
    "pref": "高知県",
    "city": "高知市",
    "category": "day_service",
    "serviceType": "通所介護",
    "capacity": 0,
    "openDays": [
      "平日",
      "土曜日",
      "祝日"
    ],
    "openDaysNote": "祝日は営業いたします。（日曜、12/30～1/3を除く）"
  },
  {
    "id": "3970100057",
    "name": "デイサービスセンター　樹蔭",
    "kana": "デイサービスセンター　コヌレ",
    "address": "高知県高知市五台山3780-1",
    "lat": 33.5485148,
    "lng": 133.5882544,
    "tel": "088-885-0828",
    "url": "http://www.sawarabikai.net/konure.html",
    "pref": "高知県",
    "city": "高知市",
    "category": "day_service",
    "serviceType": "通所介護",
    "capacity": null,
    "openDays": [
      "平日",
      "土曜日",
      "祝日"
    ],
    "openDaysNote": "-"
  },
  {
    "id": "3910117294",
    "name": "デイサービスセンター　梅一輪",
    "kana": "デイサービスセンターウメイチリン",
    "address": "高知市梅ノ辻8-7梅ノ辻クリニック内3階 梅ノ辻クリニック内3階",
    "lat": 33.5536656,
    "lng": 133.5434471,
    "tel": "088-833-4588",
    "url": "http://www.umenotsuji-cl.jp/attach/dayservice.html",
    "pref": "高知県",
    "city": "高知市",
    "category": "day_service",
    "serviceType": "通所介護",
    "capacity": 13,
    "openDays": [
      "平日",
      "土曜日",
      "祝日"
    ],
    "openDaysNote": ""
  },
  {
    "id": "3970100883",
    "name": "デイサービスセンターあおぞら",
    "kana": "デイサービスセンターアオゾラ",
    "address": "高知市本町3丁目6-19",
    "lat": 33.556897844481,
    "lng": 133.535421079762,
    "tel": "088-802-2727",
    "url": "http://www.excel-m.co.jp",
    "pref": "高知県",
    "city": "高知市",
    "category": "day_service",
    "serviceType": "通所介護",
    "capacity": 0,
    "openDays": [
      "平日",
      "土曜日",
      "祝日"
    ],
    "openDaysNote": ""
  },
  {
    "id": "3950180061",
    "name": "デイサービスセンターあったかケアみずき",
    "kana": "デイサービスセンターアッタカケアミズキ",
    "address": "高知県高知市一宮中町2丁目９－４",
    "lat": 33.5820905,
    "lng": 133.5727496,
    "tel": "088－846－6800",
    "url": "http://www.attakacaremizuki.jp",
    "pref": "高知県",
    "city": "高知市",
    "category": "day_service",
    "serviceType": "通所介護",
    "capacity": 0,
    "openDays": [
      "平日",
      "土曜日",
      "祝日"
    ],
    "openDaysNote": ""
  },
  {
    "id": "3970107011",
    "name": "デイサービスセンターイロアイ",
    "kana": "デイサービスセンターイロアイ",
    "address": "高知市朝倉甲273デイサービスセンターイロアイ デイサービスセンターイロアイ",
    "lat": 33.5384961,
    "lng": 133.4995954,
    "tel": "088-881-4387",
    "url": "http://iroai-kochi.com",
    "pref": "高知県",
    "city": "高知市",
    "category": "day_service",
    "serviceType": "通所介護",
    "capacity": 0,
    "openDays": [
      "平日",
      "土曜日",
      "祝日"
    ],
    "openDaysNote": ""
  },
  {
    "id": "3970105593",
    "name": "デイサービスセンターしのはら神田",
    "kana": "デイサービスセンターシノハラコウダ",
    "address": "高知県高知市神田1071-1",
    "lat": 33.5436404332709,
    "lng": 133.513715134097,
    "tel": "088-831-1121",
    "url": "",
    "pref": "高知県",
    "city": "高知市",
    "category": "day_service",
    "serviceType": "通所介護",
    "capacity": 25,
    "openDays": [
      "平日",
      "土曜日",
      "祝日"
    ],
    "openDaysNote": ""
  },
  {
    "id": "3970107433",
    "name": "デイサービスセンターはる鴨部",
    "kana": "デイサービスセンターハルカモベ",
    "address": "高知県高知市鴨部1丁目10-29",
    "lat": 33.5520618,
    "lng": 133.5040785,
    "tel": "088-802-6882",
    "url": "https://www.haru-care.net/",
    "pref": "高知県",
    "city": "高知市",
    "category": "day_service",
    "serviceType": "通所介護",
    "capacity": null,
    "openDays": [
      "平日",
      "土曜日"
    ],
    "openDaysNote": ""
  },
  {
    "id": "3970105767",
    "name": "デイサービスセンターライラック",
    "kana": "デイサービスセンターライラック",
    "address": "高知県高知市本町3丁目6-27サウスヴィラ本町2階 サウスヴィラ本町2階",
    "lat": 33.5571098889252,
    "lng": 133.535178499336,
    "tel": "088-802-2727",
    "url": "http://excel-m.co.jp/",
    "pref": "高知県",
    "city": "高知市",
    "category": "day_service",
    "serviceType": "通所介護",
    "capacity": 0,
    "openDays": [
      "平日",
      "土曜日",
      "祝日"
    ],
    "openDaysNote": ""
  },
  {
    "id": "3970107268",
    "name": "デイサービスセンターリハライフ卸団地",
    "kana": "デイサービスセンターリハライフオロシダンチ",
    "address": "高知県高知市南久保14-17",
    "lat": 33.5677109,
    "lng": 133.5654629,
    "tel": "088-802-5256",
    "url": "www.rehalife-kochi.com",
    "pref": "高知県",
    "city": "高知市",
    "category": "day_service",
    "serviceType": "通所介護",
    "capacity": null,
    "openDays": [
      "平日",
      "土曜日",
      "祝日"
    ],
    "openDaysNote": ""
  },
  {
    "id": "3970102392",
    "name": "デイサービスセンター介良・なの花",
    "kana": "デイサービスセンターケラ・ナノハナ",
    "address": "高知県高知市介良乙3137番地5",
    "lat": 33.5582471,
    "lng": 133.5986584,
    "tel": "088-878-4165",
    "url": "http://www.nanohanaplan.co.jp",
    "pref": "高知県",
    "city": "高知市",
    "category": "day_service",
    "serviceType": "通所介護",
    "capacity": 0,
    "openDays": [
      "平日",
      "土曜日",
      "祝日"
    ],
    "openDaysNote": ""
  },
  {
    "id": "3970100123",
    "name": "デイサービスセンター森の里",
    "kana": "デイサービスセンターモリノサト",
    "address": "高知市横浜20番1",
    "lat": 33.5285411,
    "lng": 133.5536805,
    "tel": "088-848-1051",
    "url": "http://furusatokai.or.jp",
    "pref": "高知県",
    "city": "高知市",
    "category": "day_service",
    "serviceType": "通所介護",
    "capacity": 40,
    "openDays": [
      "平日",
      "土曜日",
      "日曜日",
      "祝日"
    ],
    "openDaysNote": "特になし"
  },
  {
    "id": "3970102616",
    "name": "デイサービス伊勢崎町",
    "kana": "デイサービスイセザキチョウ",
    "address": "高知県高知市伊勢崎町１５－２２",
    "lat": 33.570952,
    "lng": 133.5315561,
    "tel": "088-871-3133",
    "url": "http://care-net.biz/39/care-isezaki/",
    "pref": "高知県",
    "city": "高知市",
    "category": "day_service",
    "serviceType": "通所介護",
    "capacity": 25,
    "openDays": [
      "平日",
      "土曜日",
      "祝日"
    ],
    "openDaysNote": "特になし"
  },
  {
    "id": "3970103580",
    "name": "デイサービス長瀬",
    "kana": "デイサービス　ナガセ",
    "address": "高知市中万々167番地1",
    "lat": 33.5686685,
    "lng": 133.5149497,
    "tel": "088-873-5015",
    "url": "",
    "pref": "高知県",
    "city": "高知市",
    "category": "day_service",
    "serviceType": "通所介護",
    "capacity": 0,
    "openDays": [
      "平日",
      "土曜日",
      "祝日"
    ],
    "openDaysNote": ""
  },
  {
    "id": "3970103598",
    "name": "デイサービス虹の夢桟橋",
    "kana": "デイサービスニジノユメサンバシ",
    "address": "高知県高知市桟橋通1丁目12-17",
    "lat": 33.5509132,
    "lng": 133.5449999,
    "tel": "088-837-7902",
    "url": "",
    "pref": "高知県",
    "city": "高知市",
    "category": "day_service",
    "serviceType": "通所介護",
    "capacity": 0,
    "openDays": [
      "平日",
      "土曜日",
      "祝日"
    ],
    "openDaysNote": "なし"
  },
  {
    "id": "3970105528",
    "name": "デイサービス絆・わかくさ",
    "kana": "デイサービス　キズナ・ワカクサ",
    "address": "若草町1-24サービス付き高齢者向け住宅　絆・わかくさ サービス付き高齢者向け住宅　絆・わかくさ",
    "lat": 33.5439994050493,
    "lng": 133.489840549348,
    "tel": "088-849-3334",
    "url": "http://www.unvs.co.jp",
    "pref": "高知県",
    "city": "高知市",
    "category": "day_service",
    "serviceType": "通所介護",
    "capacity": 0,
    "openDays": [
      "平日",
      "土曜日",
      "日曜日",
      "祝日"
    ],
    "openDaysNote": ""
  },
  {
    "id": "3970107284",
    "name": "デイステーション　りんくす　せかんど",
    "kana": "デイステーション　リンクス　セカンド",
    "address": "大津乙892-1",
    "lat": 33.5707198,
    "lng": 133.5960452,
    "tel": "０８８－８６６－０１３５",
    "url": "https://ambition-links.co.jp/",
    "pref": "高知県",
    "city": "高知市",
    "category": "day_service",
    "serviceType": "通所介護",
    "capacity": 0,
    "openDays": [
      "平日",
      "土曜日",
      "祝日"
    ],
    "openDaysNote": ""
  },
  {
    "id": "3970100362",
    "name": "ニチイケアセンター愛宕",
    "kana": "ニチイケアセンターアタゴ",
    "address": "高知県高知市愛宕町４丁目17-7",
    "lat": 33.5748628,
    "lng": 133.5369362,
    "tel": "088-802-2913",
    "url": "http://www.nichiigakkan.co.jp",
    "pref": "高知県",
    "city": "高知市",
    "category": "day_service",
    "serviceType": "通所介護",
    "capacity": 0,
    "openDays": [
      "平日",
      "土曜日",
      "祝日"
    ],
    "openDaysNote": ""
  },
  {
    "id": "3970100677",
    "name": "ニチイケアセンター高知",
    "kana": "ニチイケアセンターコウチ",
    "address": "高知市杉井流１－２",
    "lat": 33.5677365,
    "lng": 133.5547318,
    "tel": "088-878-1271",
    "url": "http:/www.nichiigakkann.co.jp",
    "pref": "高知県",
    "city": "高知市",
    "category": "day_service",
    "serviceType": "通所介護",
    "capacity": 30,
    "openDays": [
      "平日",
      "土曜日",
      "日曜日",
      "祝日"
    ],
    "openDaysNote": "なし"
  },
  {
    "id": "3970105734",
    "name": "リハデイ　ソレイユ",
    "kana": "リハデイ　ソレイユ",
    "address": "高知県高知市東城山町163-1",
    "lat": 33.5472037091569,
    "lng": 133.517151687697,
    "tel": "088-856-5558",
    "url": "http://www.okabayashi-hp.jp/soleil-rihadei.html",
    "pref": "高知県",
    "city": "高知市",
    "category": "day_service",
    "serviceType": "通所介護",
    "capacity": 35,
    "openDays": [
      "平日",
      "土曜日"
    ],
    "openDaysNote": ""
  },
  {
    "id": "3970107441",
    "name": "リハビリデイサービスポラリス",
    "kana": "リハビリデイサービスポラリス",
    "address": "高知県高知市若草町15-38",
    "lat": 33.54281,
    "lng": 133.4861259,
    "tel": "088-844-0177",
    "url": "https://rihabiripolaris.wixsite.com/polaris",
    "pref": "高知県",
    "city": "高知市",
    "category": "day_service",
    "serviceType": "通所介護",
    "capacity": 0,
    "openDays": [
      "平日",
      "土曜日",
      "祝日"
    ],
    "openDaysNote": "12/31～1/3お正月休み"
  },
  {
    "id": "3970104810",
    "name": "リハビリ型デイサービス「めりふる」",
    "kana": "リハビリガタデイサービス「メリフル」",
    "address": "高知県高知市梅ノ辻2-6",
    "lat": 33.5556281,
    "lng": 133.5441442,
    "tel": "088-879-9825",
    "url": "https://murumu.net/merihuru/",
    "pref": "高知県",
    "city": "高知市",
    "category": "day_service",
    "serviceType": "通所介護",
    "capacity": 0,
    "openDays": [
      "平日",
      "土曜日",
      "祝日"
    ],
    "openDaysNote": ""
  },
  {
    "id": "3970107144",
    "name": "楽リハデイサービスセンター高知杉井流",
    "kana": "ラクリハデイサービスセンターコウチスギイル",
    "address": "高知県高知市杉井流16-15",
    "lat": 33.5695588057599,
    "lng": 133.556719775533,
    "tel": "088-856-5305",
    "url": "http://www.greenlife-inc.co.jp/",
    "pref": "高知県",
    "city": "高知市",
    "category": "day_service",
    "serviceType": "通所介護",
    "capacity": 0,
    "openDays": [
      "平日",
      "土曜日",
      "祝日"
    ],
    "openDaysNote": ""
  },
  {
    "id": "3970107466",
    "name": "高知ケアセンターそよ風",
    "kana": "コウチケアセンターソヨカゼ",
    "address": "高知県高知市福井町805番地4",
    "lat": 33.5661922950043,
    "lng": 133.511204745369,
    "tel": "088-826-6205",
    "url": "https://www.sykz.co.jp/map/search?pref_name=%E9%AB%98%E7%9F%A5%E7%9C%8C",
    "pref": "高知県",
    "city": "高知市",
    "category": "day_service",
    "serviceType": "通所介護",
    "capacity": 0,
    "openDays": [
      "平日",
      "土曜日",
      "日曜日",
      "祝日"
    ],
    "openDaysNote": ""
  },
  {
    "id": "3970103069",
    "name": "社会福祉法人高知市社会福祉協議会　介護センターあじさい会館指定通所介護事業所",
    "kana": "シャカイフクシホウジンコウチシシャカイフクシキョウギカイ　カイゴセンターアジサイカイカンシテイツウショカイゴジギョウショ",
    "address": "高知県高知市春野町西分1番地1",
    "lat": 33.4978337,
    "lng": 133.4878417,
    "tel": "088-894-3572",
    "url": "http://www.kochi-csw.or.jp/document/?group=a1040",
    "pref": "高知県",
    "city": "高知市",
    "category": "day_service",
    "serviceType": "通所介護",
    "capacity": 0,
    "openDays": [
      "平日",
      "土曜日",
      "祝日"
    ],
    "openDaysNote": "特になし"
  },
  {
    "id": "3970105130",
    "name": "通所介護　あゆみ道場",
    "kana": "ツウショカイゴ　アユミドウジョウ",
    "address": "高知県高知市鳥越1-1",
    "lat": 33.5615263411824,
    "lng": 133.492613476305,
    "tel": "088-840-1355",
    "url": "http://www3.ocn.ne.jp/~josenkai/uchida/ayumi.html",
    "pref": "高知県",
    "city": "高知市",
    "category": "day_service",
    "serviceType": "通所介護",
    "capacity": 0,
    "openDays": [
      "平日",
      "土曜日",
      "祝日"
    ],
    "openDaysNote": ""
  },
  {
    "id": "3910115306",
    "name": "通所介護　いとう",
    "kana": "ツウショカイゴ　イトウ",
    "address": "高知県高知市介良乙1049高知東メディカルスクエア1F 高知東メディカルスクエア1F",
    "lat": 33.5617938,
    "lng": 133.5963003,
    "tel": "088-860-3700",
    "url": "http://www.itoseikei.net",
    "pref": "高知県",
    "city": "高知市",
    "category": "day_service",
    "serviceType": "通所介護",
    "capacity": 30,
    "openDays": [
      "平日",
      "土曜日"
    ],
    "openDaysNote": "休日：日祝日　年末年始（12/30～1/3）"
  },
  {
    "id": "3970100131",
    "name": "通所介護事業所　グランボヌール",
    "kana": "ツウショカイゴジギョウショ　グランボヌール",
    "address": "高知市布師田字宮ノ辺1362",
    "lat": 33.5839213,
    "lng": 133.5926533,
    "tel": "088-845-5533",
    "url": "https://www.nankai-f.jp/",
    "pref": "高知県",
    "city": "高知市",
    "category": "day_service",
    "serviceType": "通所介護",
    "capacity": 0,
    "openDays": [
      "平日",
      "土曜日",
      "祝日"
    ],
    "openDaysNote": "なし"
  },
  {
    "id": "3970100115",
    "name": "通所介護事業所　なぎさ",
    "kana": "ツウショカイゴジギョウショ　ナギサ",
    "address": "高知市仁井田１６１８番地１８",
    "lat": 33.5131904,
    "lng": 133.572027,
    "tel": "088-847-7878",
    "url": "http://uminosato.or.jp/",
    "pref": "高知県",
    "city": "高知市",
    "category": "day_service",
    "serviceType": "通所介護",
    "capacity": 40,
    "openDays": [
      "平日",
      "土曜日",
      "祝日"
    ],
    "openDaysNote": "特になし"
  },
  {
    "id": "3970105452",
    "name": "通所介護事業所　ポットラック",
    "kana": "ツウショカイゴジギョウショ　ポットラック",
    "address": "高知県高知市福井町８２４番地５",
    "lat": 33.5665575,
    "lng": 133.5100338,
    "tel": "088-856-6700",
    "url": "",
    "pref": "高知県",
    "city": "高知市",
    "category": "day_service",
    "serviceType": "通所介護",
    "capacity": 0,
    "openDays": [
      "平日",
      "祝日"
    ],
    "openDaysNote": ""
  },
  {
    "id": "3970103648",
    "name": "通所介護事業所　桂浜",
    "kana": "ツウショカイゴジギョウショ　カツラハマ",
    "address": "高知県高知市長浜４４４４番地１",
    "lat": 33.4887755,
    "lng": 133.5462579,
    "tel": "088-841-5749",
    "url": "http://www.fuku-cij.jp/other/index.html",
    "pref": "高知県",
    "city": "高知市",
    "category": "day_service",
    "serviceType": "通所介護",
    "capacity": 0,
    "openDays": [
      "平日",
      "土曜日",
      "日曜日",
      "祝日"
    ],
    "openDaysNote": "※台風・雪等で警報が出され送迎に支障をきたす場合は休業となった事がある。"
  },
  {
    "id": "3970107151",
    "name": "南部障害者福祉センター　指定共生型通所介護事業所",
    "kana": "ナンブショウガイシャフクシセンターシテイキョウセイガタツウショカイゴジギョウショ",
    "address": "高知県高知市百石町3丁目1-30高知県高知市南部健康福祉センター 高知県高知市南部健康福祉センター",
    "lat": 33.5450419,
    "lng": 133.5481623,
    "tel": "088-878-9070",
    "url": "https://www.kochi-csw.or.jp/",
    "pref": "高知県",
    "city": "高知市",
    "category": "day_service",
    "serviceType": "通所介護",
    "capacity": null,
    "openDays": [
      "平日",
      "土曜日",
      "祝日"
    ],
    "openDaysNote": ""
  },
  {
    "id": "3970103101",
    "name": "老人デイサービスセンターもろぎ",
    "kana": "ロウジンデイサービスセンターモロギ",
    "address": "高知県高知市春野町東諸木3058番地1",
    "lat": 33.4878122890163,
    "lng": 133.515539657008,
    "tel": "088-842-5510",
    "url": "http://takaharufukushikai.com",
    "pref": "高知県",
    "city": "高知市",
    "category": "day_service",
    "serviceType": "通所介護",
    "capacity": 35,
    "openDays": [
      "平日",
      "土曜日",
      "祝日"
    ],
    "openDaysNote": "-"
  },
  {
    "id": "3972600021",
    "name": "通所介護事業所しおかぜ",
    "kana": "ツウショカイゴジギョウショシオカゼ",
    "address": "高知県幡多郡黒潮町有井川１２番地１",
    "lat": 33.0375107,
    "lng": 133.0608616,
    "tel": "0880-44-1966",
    "url": "www.kuroshiofukushikai.com/doc/office.html",
    "pref": "高知県",
    "city": "黒潮町",
    "category": "day_service",
    "serviceType": "通所介護",
    "capacity": 0,
    "openDays": [
      "平日",
      "土曜日",
      "祝日"
    ],
    "openDaysNote": ""
  },
  {
    "id": "3972501203",
    "name": "デイサービスセンター　やまもも",
    "kana": "デイサービスセンター　ヤマモモ",
    "address": "高岡郡佐川町丙３６２０－１",
    "lat": 33.5089039,
    "lng": 133.2790917,
    "tel": "0889-20-0150",
    "url": "http://www.ikoi-kochi.jp/",
    "pref": "高知県",
    "city": "佐川町",
    "category": "day_service",
    "serviceType": "通所介護",
    "capacity": 0,
    "openDays": [
      "平日",
      "土曜日",
      "祝日"
    ],
    "openDaysNote": "特になし"
  },
  {
    "id": "3972500999",
    "name": "佐川町デイサービスセンター　斗賀野荘",
    "kana": "サカワチョウデイサービスセンター　トカノソウ",
    "address": "高知県高岡郡佐川町中組５０－１",
    "lat": 33.4752506,
    "lng": 133.2847608,
    "tel": "0889-22-1822",
    "url": "",
    "pref": "高知県",
    "city": "佐川町",
    "category": "day_service",
    "serviceType": "通所介護",
    "capacity": 0,
    "openDays": [
      "平日",
      "土曜日",
      "祝日"
    ],
    "openDaysNote": ""
  },
  {
    "id": "3972600047",
    "name": "デイサービスセンター　にしとさ",
    "kana": "デイサービスセンター　ニシトサ",
    "address": "四万十市西土佐用井１１１０番地１",
    "lat": 33.1724967,
    "lng": 132.7950202,
    "tel": "0880-52-2314",
    "url": "https://nishitosa-kawasemi.jp/",
    "pref": "高知県",
    "city": "四万十市",
    "category": "day_service",
    "serviceType": "通所介護",
    "capacity": 30,
    "openDays": [
      "平日",
      "祝日"
    ],
    "openDaysNote": ""
  },
  {
    "id": "3971000256",
    "name": "デイサービスセンターライフケア光",
    "kana": "デイサービスセンターライフケアヒカリ",
    "address": "高知県四万十市西土佐西ヶ方603-1",
    "lat": 33.1874002,
    "lng": 132.7668864,
    "tel": "0880-31-6050",
    "url": "",
    "pref": "高知県",
    "city": "四万十市",
    "category": "day_service",
    "serviceType": "通所介護",
    "capacity": 20,
    "openDays": [
      "平日",
      "土曜日",
      "日曜日",
      "祝日"
    ],
    "openDaysNote": ""
  },
  {
    "id": "3971000280",
    "name": "共生型デイサービス介援隊",
    "kana": "キョウセイガタデイサービスカイエンタイ",
    "address": "高知県四万十市具同字六反田3239番地29",
    "lat": 32.9832228,
    "lng": 132.9100612,
    "tel": "0880-34-9180",
    "url": "",
    "pref": "高知県",
    "city": "四万十市",
    "category": "day_service",
    "serviceType": "通所介護",
    "capacity": null,
    "openDays": [
      "平日",
      "土曜日",
      "祝日"
    ],
    "openDaysNote": ""
  },
  {
    "id": "3970700039",
    "name": "通所介護事業所　四万十の郷",
    "kana": "ツウショカイゴジギョウショシマントノサト",
    "address": "四万十市安並字東丸5803",
    "lat": 33.002197,
    "lng": 132.9354045,
    "tel": "0880-34-7755",
    "url": "https://www.nankai-f.jp",
    "pref": "高知県",
    "city": "四万十市",
    "category": "day_service",
    "serviceType": "通所介護",
    "capacity": 0,
    "openDays": [
      "平日",
      "土曜日",
      "祝日"
    ],
    "openDaysNote": "特になし"
  },
  {
    "id": "3972500783",
    "name": "デイサービスセンター　百年荘",
    "kana": "デイサービスセンター　ヒャクネンソウ",
    "address": "高知県高岡郡四万十町大正３２番地１",
    "lat": 33.1836554,
    "lng": 132.9723935,
    "tel": "0880-27-1177",
    "url": "http://shimanto-shakyo.jp/",
    "pref": "高知県",
    "city": "四万十町",
    "category": "day_service",
    "serviceType": "通所介護",
    "capacity": 35,
    "openDays": [
      "平日",
      "土曜日",
      "祝日"
    ],
    "openDaysNote": ""
  },
  {
    "id": "3972500387",
    "name": "デイサービスセンター緑林荘",
    "kana": "デイサービスセンターリョクリンソウ",
    "address": "高岡郡四万十町仕出原４９６番地１",
    "lat": 33.2224263,
    "lng": 133.1252111,
    "tel": "0880-22-2181",
    "url": "http://www11.ocn.ne.jp/~oikonia/",
    "pref": "高知県",
    "city": "四万十町",
    "category": "day_service",
    "serviceType": "通所介護",
    "capacity": 0,
    "openDays": [
      "平日",
      "土曜日",
      "祝日"
    ],
    "openDaysNote": "特になし"
  },
  {
    "id": "3972501286",
    "name": "デイサービスひなた",
    "kana": "デイサービスヒナタ",
    "address": "高知県高岡郡四万十町古市町４番３０号",
    "lat": 33.2087423,
    "lng": 133.1400736,
    "tel": "0880-22-1206",
    "url": "http://www.oonishi-hp.or.jp/",
    "pref": "高知県",
    "city": "四万十町",
    "category": "day_service",
    "serviceType": "通所介護",
    "capacity": 20,
    "openDays": [
      "平日",
      "祝日"
    ],
    "openDaysNote": "やむを得ない事情（台風・記念行事等）により営業できない場合は、休日等となる場合があります。"
  },
  {
    "id": "3972501070",
    "name": "リハデイサービス　フィット",
    "kana": "リハデイサービス　フィット",
    "address": "高知県高岡郡四万十町琴平町3番8号",
    "lat": 33.210957849324,
    "lng": 133.136099596851,
    "tel": "0880-29-6112",
    "url": "https://actone-kochi.com/",
    "pref": "高知県",
    "city": "四万十町",
    "category": "day_service",
    "serviceType": "通所介護",
    "capacity": 35,
    "openDays": [
      "平日",
      "土曜日",
      "祝日"
    ],
    "openDaysNote": "祝祭日も営業"
  },
  {
    "id": "3970200279",
    "name": "デイサービスあすなろ",
    "kana": "デイサービスアスナロ",
    "address": "高知県室戸市吉良川町乙2004番地1",
    "lat": 33.3362241,
    "lng": 134.0942085,
    "tel": "0887-25-3395",
    "url": "",
    "pref": "高知県",
    "city": "室戸市",
    "category": "day_service",
    "serviceType": "通所介護",
    "capacity": 0,
    "openDays": [
      "平日",
      "土曜日",
      "祝日"
    ],
    "openDaysNote": "１２月３１日～１月３日（年末年始休業）"
  },
  {
    "id": "3970200287",
    "name": "デイサービスセンター　ひまわり",
    "kana": "デイサービスセンター　ヒマワリ",
    "address": "高知県室戸市室津１７７５－８",
    "lat": 33.2931646,
    "lng": 134.1591946,
    "tel": "０８８７－２２－６４３０",
    "url": "",
    "pref": "高知県",
    "city": "室戸市",
    "category": "day_service",
    "serviceType": "通所介護",
    "capacity": 25,
    "openDays": [
      "平日",
      "土曜日",
      "祝日"
    ],
    "openDaysNote": "台風等の災害時"
  },
  {
    "id": "3970200204",
    "name": "室戸市デイサービスセンター",
    "kana": "ムロトシデイサービスセンター",
    "address": "高知県室戸市領家８７番地",
    "lat": 33.2908422466625,
    "lng": 134.1572375883,
    "tel": "0887-23-2301",
    "url": "https://murosya.or.jp/",
    "pref": "高知県",
    "city": "室戸市",
    "category": "day_service",
    "serviceType": "通所介護",
    "capacity": 165,
    "openDays": [
      "平日",
      "祝日"
    ],
    "openDaysNote": "土曜・日曜は休業。ただし、平日(月～金）にかかる祝日は営業。"
  },
  {
    "id": "3970900308",
    "name": "デイサービス　さくらんぼ",
    "kana": "デイサービス　サクランボ",
    "address": "高知県宿毛市片島５番２０号",
    "lat": 32.9205783731904,
    "lng": 132.701578435057,
    "tel": "0880-65-8566",
    "url": "sakuranho@wankara.jp",
    "pref": "高知県",
    "city": "宿毛市",
    "category": "day_service",
    "serviceType": "通所介護",
    "capacity": 25,
    "openDays": [
      "平日",
      "土曜日",
      "祝日"
    ],
    "openDaysNote": "災害時（台風、積雪時等）休む事あり"
  },
  {
    "id": "3970900191",
    "name": "デイサービスセンター　たんぽぽ",
    "kana": "デイサービスセンター　タンポポ",
    "address": "高知県宿毛市橋上町平野２２８",
    "lat": 32.9684532,
    "lng": 132.7598991,
    "tel": "0880-64-0755",
    "url": "",
    "pref": "高知県",
    "city": "宿毛市",
    "category": "day_service",
    "serviceType": "通所介護",
    "capacity": 30,
    "openDays": [
      "平日",
      "祝日"
    ],
    "openDaysNote": ""
  },
  {
    "id": "3970900035",
    "name": "デイサービスセンター　つどいの家",
    "kana": "デイサービスセンター　ツドイノイエ",
    "address": "高知県宿毛市平田町戸内１８１３番地１",
    "lat": 32.9593056,
    "lng": 132.7983871,
    "tel": "0880-66-1188",
    "url": "",
    "pref": "高知県",
    "city": "宿毛市",
    "category": "day_service",
    "serviceType": "通所介護",
    "capacity": 40,
    "openDays": [
      "平日",
      "祝日"
    ],
    "openDaysNote": ""
  },
  {
    "id": "3970900027",
    "name": "宿毛中央　デイサービスセンター",
    "kana": "スクモチュウオウ　デイサービスセンター",
    "address": "高知県宿毛市中央７丁目５番４４号",
    "lat": 32.9358977,
    "lng": 132.7249135,
    "tel": "0880-63-1103",
    "url": "http://sukumofukushikai.net/",
    "pref": "高知県",
    "city": "宿毛市",
    "category": "day_service",
    "serviceType": "通所介護",
    "capacity": 0,
    "openDays": [
      "平日",
      "土曜日",
      "祝日"
    ],
    "openDaysNote": "特になし"
  },
  {
    "id": "3972400661",
    "name": "デイサービスセンター　せいらん荘",
    "kana": "デイサービスセンターセイランソウ",
    "address": "高知県吾川郡仁淀川町長者乙２４３５",
    "lat": 33.5001683,
    "lng": 133.1349384,
    "tel": "0889-32-2233",
    "url": "",
    "pref": "高知県",
    "city": "仁淀川町",
    "category": "day_service",
    "serviceType": "通所介護",
    "capacity": 40,
    "openDays": [
      "平日",
      "祝日"
    ],
    "openDaysNote": "祝日が月曜～金曜の場合平日通り営業（改行）１２月３０日から１月３日については、管理者が必要と認めた日は営業ができる"
  },
  {
    "id": "3972400687",
    "name": "デイサービスセンター　池川",
    "kana": "デイサービスセンター　イケガワ",
    "address": "高知県吾川郡仁淀川町土居甲921-1",
    "lat": 33.6082666,
    "lng": 133.1702375,
    "tel": "0889-34-2069",
    "url": "",
    "pref": "高知県",
    "city": "仁淀川町",
    "category": "day_service",
    "serviceType": "通所介護",
    "capacity": 40,
    "openDays": [
      "平日",
      "祝日"
    ],
    "openDaysNote": "年末年始に休日が続く時は、別に営業日を設置する場合有り。（改行）悪天候等で臨時休業する場合有り。"
  },
  {
    "id": "3972400679",
    "name": "デイサービスセンター「とちの木園」",
    "kana": "デイサービスセンター　「トチノキエン」",
    "address": "高知県吾川郡に淀川町大崎264-8",
    "lat": 33.575097142714,
    "lng": 133.172607278851,
    "tel": "0889-35-0255",
    "url": "",
    "pref": "高知県",
    "city": "仁淀川町",
    "category": "day_service",
    "serviceType": "通所介護",
    "capacity": 0,
    "openDays": [
      "平日",
      "土曜日",
      "祝日"
    ],
    "openDaysNote": "年末年始に休日が続く場合に、別に営業日を追加する場合があります。"
  },
  {
    "id": "3970600403",
    "name": "オリーブホーム　デイサービスセンター",
    "kana": "オリーブホーム　デイサービスセンター",
    "address": "高知県須崎市桐間南33番地",
    "lat": 33.4072704335347,
    "lng": 133.294310985458,
    "tel": "0889-42-0002",
    "url": "olivehome.net",
    "pref": "高知県",
    "city": "須崎市",
    "category": "day_service",
    "serviceType": "通所介護",
    "capacity": 40,
    "openDays": [
      "平日",
      "土曜日",
      "祝日"
    ],
    "openDaysNote": ""
  },
  {
    "id": "3970600478",
    "name": "デイサービス　しいの実",
    "kana": "デイサービス　シイノミ",
    "address": "高知県須崎市大間本町16-30",
    "lat": 33.4068539,
    "lng": 133.2852169,
    "tel": "0889-43-9355",
    "url": "",
    "pref": "高知県",
    "city": "須崎市",
    "category": "day_service",
    "serviceType": "通所介護",
    "capacity": 24,
    "openDays": [
      "平日",
      "土曜日",
      "祝日"
    ],
    "openDaysNote": "定休日以外の曜日が祝日の場合、通常営業しています。（改行）（改行）年末年始の連休（12/29～1/3）"
  },
  {
    "id": "3970600486",
    "name": "デイサービスくりの木",
    "kana": "デイサービスクリノキ",
    "address": "高知県須崎市安和1201番地54",
    "lat": 33.3581256983734,
    "lng": 133.262998343551,
    "tel": "0889-40-0551",
    "url": "",
    "pref": "高知県",
    "city": "須崎市",
    "category": "day_service",
    "serviceType": "通所介護",
    "capacity": 40,
    "openDays": [
      "平日",
      "土曜日",
      "祝日"
    ],
    "openDaysNote": ""
  },
  {
    "id": "3970600320",
    "name": "デイサービスどんぐりの里２",
    "kana": "デイサービスドングリノサトツー",
    "address": "須崎市吾井郷乙1909番地３",
    "lat": 33.4184286573454,
    "lng": 133.293027879762,
    "tel": "0889-42-8818",
    "url": "",
    "pref": "高知県",
    "city": "須崎市",
    "category": "day_service",
    "serviceType": "通所介護",
    "capacity": 40,
    "openDays": [
      "平日",
      "土曜日",
      "日曜日",
      "祝日"
    ],
    "openDaysNote": ""
  },
  {
    "id": "3970600494",
    "name": "デイサービスハレ",
    "kana": "デイサービスハレ",
    "address": "高知県須崎市大間本町7-10",
    "lat": 33.4051442237693,
    "lng": 133.285346349074,
    "tel": "889591672",
    "url": "https://isana.life/",
    "pref": "高知県",
    "city": "須崎市",
    "category": "day_service",
    "serviceType": "通所介護",
    "capacity": 20,
    "openDays": [
      "平日",
      "土曜日",
      "祝日"
    ],
    "openDaysNote": ""
  },
  {
    "id": "3970600296",
    "name": "ベテルホームすさき　デイサービスセンター",
    "kana": "ベテルホームスサキ　デイサービスセンター",
    "address": "高知県須崎市桐間南15番地",
    "lat": 33.4072177206651,
    "lng": 133.293594044792,
    "tel": "0889-42-2100",
    "url": "",
    "pref": "高知県",
    "city": "須崎市",
    "category": "day_service",
    "serviceType": "通所介護",
    "capacity": 91,
    "openDays": [
      "平日",
      "土曜日",
      "祝日"
    ],
    "openDaysNote": ""
  },
  {
    "id": "3970600072",
    "name": "須崎市老人デイサービスセンター　ばんだ湯の香荘",
    "kana": "スサキシロウジンデイサービスセンター　バンダユノカソウ",
    "address": "高知県須崎市桑田山１１７３番地1",
    "lat": 33.4283229,
    "lng": 133.2852247,
    "tel": "0889-40-1605",
    "url": "",
    "pref": "高知県",
    "city": "須崎市",
    "category": "day_service",
    "serviceType": "通所介護",
    "capacity": 0,
    "openDays": [
      "平日",
      "土曜日"
    ],
    "openDaysNote": ""
  },
  {
    "id": "3970600304",
    "name": "老人デイサービスセンターしろやま",
    "kana": "ロウジンデイサービスセンターシロヤマ",
    "address": "高知県須崎市鍛冶町２番１０号",
    "lat": 33.3915054983975,
    "lng": 133.288682198456,
    "tel": "0889-40-0468",
    "url": "http://www.ca.pikara.ne.jp/seiryuso/",
    "pref": "高知県",
    "city": "須崎市",
    "category": "day_service",
    "serviceType": "通所介護",
    "capacity": 30,
    "openDays": [
      "平日",
      "土曜日",
      "祝日"
    ],
    "openDaysNote": ""
  },
  {
    "id": "3970600114",
    "name": "老人デイサービスセンターよこなみ",
    "kana": "ロウジンデイサービスセンターヨコナミ",
    "address": "高知県須崎市浦ノ内東分１６８番地１９４",
    "lat": 33.4273908,
    "lng": 133.3635854,
    "tel": "0889-49-0564",
    "url": "http://mb.scatv.ne.jp/~seiryuso/deisa-bisu.htm",
    "pref": "高知県",
    "city": "須崎市",
    "category": "day_service",
    "serviceType": "通所介護",
    "capacity": 0,
    "openDays": [
      "平日",
      "土曜日"
    ],
    "openDaysNote": "ハッピーマンデーは営業"
  },
  {
    "id": "3972600153",
    "name": "大月町指定通所介護事業所「さんご」",
    "kana": "オオツキチョウシテイツウショカイゴジギョウショ「サンゴ」",
    "address": "高知県幡多郡大月町鉾土604-5",
    "lat": 32.8203896,
    "lng": 132.7084268,
    "tel": "0880-73-1270",
    "url": "http://www.otsukicho-shakyo.jp/",
    "pref": "高知県",
    "city": "大月町",
    "category": "day_service",
    "serviceType": "通所介護",
    "capacity": 0,
    "openDays": [
      "平日",
      "土曜日",
      "祝日"
    ],
    "openDaysNote": "-"
  },
  {
    "id": "3972501153",
    "name": "デイサービスセンター上ノ加江",
    "kana": "デイサービスセンターカミノカエ",
    "address": "高知県高岡郡中土佐町上ノ加江277番地10",
    "lat": 33.2742034,
    "lng": 133.2463096,
    "tel": "0889-40-2200",
    "url": "http://kadofukushikai.com/",
    "pref": "高知県",
    "city": "中土佐町",
    "category": "day_service",
    "serviceType": "通所介護",
    "capacity": null,
    "openDays": [
      "平日",
      "祝日"
    ],
    "openDaysNote": ""
  },
  {
    "id": "3972000412",
    "name": "デイサービスたの",
    "kana": "デイサービスタノ",
    "address": "高知県安芸郡田野町636-1在宅ケアセンター 在宅ケアセンター",
    "lat": 33.4285946502527,
    "lng": 134.015261079021,
    "tel": "0887-37-9898",
    "url": "usui-kai.com",
    "pref": "高知県",
    "city": "田野町",
    "category": "day_service",
    "serviceType": "通所介護",
    "capacity": 0,
    "openDays": [
      "平日",
      "土曜日",
      "祝日"
    ],
    "openDaysNote": "キャンセル料が発生する場合があります。（改行）・ご利用の前日午後5時15分までに連絡をいただいた場合は無料（改行）・連絡いただけなかった場合及び迎えに行くも利用されなかった場合、通所介護利用料の１０％及び食事提供・おやつ代750円（改行）（改行）＊豪雨、降雪等による交通規制をやむ得ない理由で送迎困難な場合、利用の中止又は休業ｌのお願いをさせていただく場合がございます。その場合には、当然何らの料金負担はございません。"
  },
  {
    "id": "3970500314",
    "name": "いこいの里「さくら貝」デイサービスセンター　はまゆう",
    "kana": "イコイノサト「サクラガイ」デイサービスセンター　ハマユウ",
    "address": "土佐市宇佐町宇佐2841",
    "lat": 33.4381046,
    "lng": 133.4346955,
    "tel": "088-828-6668",
    "url": "http://www.ikoi-kochi.jp/",
    "pref": "高知県",
    "city": "土佐市",
    "category": "day_service",
    "serviceType": "通所介護",
    "capacity": 0,
    "openDays": [
      "平日",
      "土曜日",
      "祝日"
    ],
    "openDaysNote": "-特になし"
  },
  {
    "id": "3970500470",
    "name": "デイサービス　なごみ館",
    "kana": "デイサービス　ナゴミカン",
    "address": "高知県土佐市高岡町甲２１９０－７",
    "lat": 33.4957552,
    "lng": 133.4206979,
    "tel": "088-850-2626",
    "url": "",
    "pref": "高知県",
    "city": "土佐市",
    "category": "day_service",
    "serviceType": "通所介護",
    "capacity": 0,
    "openDays": [
      "平日",
      "土曜日",
      "祝日"
    ],
    "openDaysNote": ""
  },
  {
    "id": "3970500629",
    "name": "デイサービス高岡",
    "kana": "デイサービスタカオカ",
    "address": "高知県土佐市高岡町乙3234-1",
    "lat": 33.5048764482358,
    "lng": 133.427017985319,
    "tel": "088-856-5005",
    "url": "",
    "pref": "高知県",
    "city": "土佐市",
    "category": "day_service",
    "serviceType": "通所介護",
    "capacity": 0,
    "openDays": [
      "平日",
      "土曜日",
      "日曜日",
      "祝日"
    ],
    "openDaysNote": "なし"
  },
  {
    "id": "3970500595",
    "name": "土佐市デイサービスセンター陽だまり",
    "kana": "トサシデイサイビスセンターヒダマリ",
    "address": "土佐市高岡町甲１７９２－２",
    "lat": 33.4919975,
    "lng": 133.4231755,
    "tel": "088-852-6915",
    "url": "http://tsjig.com/jigyodantoha.html#tusyo",
    "pref": "高知県",
    "city": "土佐市",
    "category": "day_service",
    "serviceType": "通所介護",
    "capacity": 42,
    "openDays": [
      "平日",
      "土曜日",
      "祝日"
    ],
    "openDaysNote": "災害発生時は休業"
  },
  {
    "id": "3970500439",
    "name": "土佐市宇佐デイサービスセンター龍宮",
    "kana": "トサシウサデイサービスセンターリュウグウ",
    "address": "高知県土佐市宇佐町宇佐８５８－２",
    "lat": 33.4490422,
    "lng": 133.4365283,
    "tel": "088-828-6425",
    "url": "",
    "pref": "高知県",
    "city": "土佐市",
    "category": "day_service",
    "serviceType": "通所介護",
    "capacity": 12,
    "openDays": [
      "平日",
      "土曜日",
      "祝日"
    ],
    "openDaysNote": ""
  },
  {
    "id": "3970500199",
    "name": "有限会社四国総合介護システム　戸波デイサービスセンター",
    "kana": "ユウゲンガイシャシコクソウゴウカイゴシステム　ヘワデイサービスセンター",
    "address": "高知県土佐市家俊１０８１－１",
    "lat": 33.4631865,
    "lng": 133.3480275,
    "tel": "088-855-1381",
    "url": "",
    "pref": "高知県",
    "city": "土佐市",
    "category": "day_service",
    "serviceType": "通所介護",
    "capacity": 40,
    "openDays": [
      "平日",
      "土曜日",
      "日曜日",
      "祝日"
    ],
    "openDaysNote": "なし"
  },
  {
    "id": "3970800219",
    "name": "デイサービスセンターあんきな家清水ヶ丘",
    "kana": "デイサービスセンターアンキナイエシミズガオカ",
    "address": "高知県土佐清水市清水ヶ丘30番2号デイサービスセンターあんきな家清水ヶ丘 デイサービスセンターあんきな家清水ヶ丘",
    "lat": 32.786888,
    "lng": 132.957002,
    "tel": "0880-82-3335",
    "url": "http://www.fuku-seiwakai.com/",
    "pref": "高知県",
    "city": "土佐清水市",
    "category": "day_service",
    "serviceType": "通所介護",
    "capacity": 0,
    "openDays": [
      "平日",
      "祝日"
    ],
    "openDaysNote": ""
  },
  {
    "id": "3912310277",
    "name": "デイサービスたい",
    "kana": "デイサービスタイ",
    "address": "土佐郡土佐町田井１４５６－１",
    "lat": 33.7486744837253,
    "lng": 133.555342148775,
    "tel": "0887-82-0825",
    "url": "",
    "pref": "高知県",
    "city": "土佐町",
    "category": "day_service",
    "serviceType": "通所介護",
    "capacity": 0,
    "openDays": [
      "平日",
      "土曜日",
      "祝日"
    ],
    "openDaysNote": "なし"
  },
  {
    "id": "3972501369",
    "name": "デイサービスゆるり",
    "kana": "デイサービスユルリ",
    "address": "高知県高岡郡梼原町梼原1212番地2",
    "lat": 33.3943076220519,
    "lng": 132.928105269353,
    "tel": "0889-65-1800",
    "url": "http://www.town.yusuhara.kochi.jp/yururi-yusuhara/",
    "pref": "高知県",
    "city": "梼原町",
    "category": "day_service",
    "serviceType": "通所介護",
    "capacity": null,
    "openDays": [
      "平日",
      "土曜日",
      "祝日"
    ],
    "openDaysNote": ""
  },
  {
    "id": "3972000388",
    "name": "デイサービスセンターなはり",
    "kana": "デイサービスセンターナハリ",
    "address": "高知県安芸郡奈半利町乙４５９７番１",
    "lat": 33.4163347280022,
    "lng": 134.028856959911,
    "tel": "0887-38-8015",
    "url": "http://www.chisio-group.or.jp/",
    "pref": "高知県",
    "city": "奈半利町",
    "category": "day_service",
    "serviceType": "通所介護",
    "capacity": 0,
    "openDays": [
      "平日",
      "土曜日",
      "日曜日",
      "祝日"
    ],
    "openDaysNote": "１月１日休業"
  },
  {
    "id": "3970400804",
    "name": "でいさーびす　ファミリー",
    "kana": "デイサービスファミリー",
    "address": "高知県南国市浜改田1277番地1",
    "lat": 33.575688,
    "lng": 133.6414203,
    "tel": "088-880-7030",
    "url": "",
    "pref": "高知県",
    "city": "南国市",
    "category": "day_service",
    "serviceType": "通所介護",
    "capacity": 0,
    "openDays": [
      "平日",
      "土曜日",
      "日曜日",
      "祝日"
    ],
    "openDaysNote": "土曜日・日曜日・祝日は営業しています。"
  },
  {
    "id": "3970400713",
    "name": "でいさーびすうちんく和なんごく",
    "kana": "デイサービスウチンクノドカナンゴク",
    "address": "高知県南国市篠原706番地1",
    "lat": 33.5744009,
    "lng": 133.6284911,
    "tel": "088-802-5818",
    "url": "",
    "pref": "高知県",
    "city": "南国市",
    "category": "day_service",
    "serviceType": "通所介護",
    "capacity": 0,
    "openDays": [
      "平日",
      "土曜日",
      "日曜日",
      "祝日"
    ],
    "openDaysNote": ""
  },
  {
    "id": "3970400747",
    "name": "デイサービスきさらぎ",
    "kana": "デイサービスキサラギ",
    "address": "高知県南国市大埇甲1716番地1",
    "lat": 33.5736759,
    "lng": 133.6463874,
    "tel": "088-802-8241",
    "url": "",
    "pref": "高知県",
    "city": "南国市",
    "category": "day_service",
    "serviceType": "通所介護",
    "capacity": 25,
    "openDays": [
      "平日",
      "土曜日",
      "日曜日",
      "祝日"
    ],
    "openDaysNote": "台風などの自然災害等により行政機関より避難等の指示が出た場合や運営上危険と判断した際は臨時休業を行います。"
  },
  {
    "id": "3970400044",
    "name": "デイサービスセンターせいふう",
    "kana": "デイサービスセンターセイフウ",
    "address": "高知県南国市岡豊町小篭３５９番地１",
    "lat": 33.5782671,
    "lng": 133.6256525,
    "tel": "088-863-3858",
    "url": "https://tosaseifukai.com/",
    "pref": "高知県",
    "city": "南国市",
    "category": "day_service",
    "serviceType": "通所介護",
    "capacity": 25,
    "openDays": [
      "平日",
      "土曜日",
      "祝日"
    ],
    "openDaysNote": "震災・台風・風水害等で送迎が実施できない場合は休み。"
  },
  {
    "id": "3970400689",
    "name": "デイサービスセンターたくさん",
    "kana": "デイサービスセンタータクサン",
    "address": "高知県南国市明見883－5デイサービスセンターたくさん デイサービスセンターたくさん",
    "lat": 33.5676517,
    "lng": 133.6301159,
    "tel": "088－802－7555",
    "url": "www.tosakibi.jp",
    "pref": "高知県",
    "city": "南国市",
    "category": "day_service",
    "serviceType": "通所介護",
    "capacity": 30,
    "openDays": [
      "平日",
      "土曜日",
      "祝日"
    ],
    "openDaysNote": ""
  },
  {
    "id": "3970400143",
    "name": "デイサービスセンターぬくもり",
    "kana": "デイサービスセンターヌクモリ",
    "address": "南国市岡豊町中島1535番地",
    "lat": 33.5904046,
    "lng": 133.6155621,
    "tel": "088-866-0288",
    "url": "http://f-shizenmura.or.jp",
    "pref": "高知県",
    "city": "南国市",
    "category": "day_service",
    "serviceType": "通所介護",
    "capacity": 0,
    "openDays": [
      "平日",
      "土曜日",
      "祝日"
    ],
    "openDaysNote": ""
  },
  {
    "id": "3970400648",
    "name": "デイサービスセンター野いちごみつばち",
    "kana": "デイサービスセンターノイチゴミツバチ",
    "address": "南国市小籠941-20",
    "lat": 33.5788145,
    "lng": 133.6316493,
    "tel": "088-821-8600",
    "url": "http://noichigo-odani.com/",
    "pref": "高知県",
    "city": "南国市",
    "category": "day_service",
    "serviceType": "通所介護",
    "capacity": 170,
    "openDays": [
      "平日",
      "土曜日",
      "日曜日",
      "祝日"
    ],
    "openDaysNote": ""
  },
  {
    "id": "3970400457",
    "name": "デイサービスセンター野いちご南国",
    "kana": "デイサービスセンターノイチゴナンゴク",
    "address": "高知県南国市篠原1954-1",
    "lat": 33.5790452,
    "lng": 133.6375406,
    "tel": "088-863-1800",
    "url": "http://noichigo-odani.com/",
    "pref": "高知県",
    "city": "南国市",
    "category": "day_service",
    "serviceType": "通所介護",
    "capacity": 135,
    "openDays": [
      "平日",
      "土曜日",
      "日曜日",
      "祝日"
    ],
    "openDaysNote": ""
  },
  {
    "id": "3970400291",
    "name": "西田順天堂　デイサービスセンター",
    "kana": "ニシダジュンテンドウ　デイサービスセンター",
    "address": "南国市大そね乙１２４９－４",
    "lat": 33.5658186097251,
    "lng": 133.646727113492,
    "tel": "088-880-6477",
    "url": "www.nishida-ph.net",
    "pref": "高知県",
    "city": "南国市",
    "category": "day_service",
    "serviceType": "通所介護",
    "capacity": 40,
    "openDays": [
      "平日",
      "土曜日",
      "日曜日",
      "祝日"
    ],
    "openDaysNote": "台風の接近など、危険があると判断される場合には、ご利用者様の安全のために臨時休業となることがあります。"
  },
  {
    "id": "3972500189",
    "name": "デイサービスセンター　ひだか",
    "kana": "デイサービスセンター　ヒダカ",
    "address": "高知県高岡郡日高村沖名１番地",
    "lat": 33.5316137,
    "lng": 133.3736723,
    "tel": "0889-20-1617",
    "url": "http://syuoukai.jp/syuoukai",
    "pref": "高知県",
    "city": "日高村",
    "category": "day_service",
    "serviceType": "通所介護",
    "capacity": 45,
    "openDays": [
      "平日",
      "土曜日",
      "祝日"
    ],
    "openDaysNote": ""
  },
  {
    "id": "3972500254",
    "name": "デイサービスセンター能津喜楽園",
    "kana": "デイサービスセンターノウヅキラクエン",
    "address": "高知県高岡郡日高村本村５－５",
    "lat": 33.5590434,
    "lng": 133.3357611,
    "tel": "0889-24-7411",
    "url": "http://tosa7411.com/b03_dayservice.html",
    "pref": "高知県",
    "city": "日高村",
    "category": "day_service",
    "serviceType": "通所介護",
    "capacity": 0,
    "openDays": [
      "平日",
      "土曜日",
      "祝日"
    ],
    "openDaysNote": "特になし"
  },
  {
    "id": "3972000396",
    "name": "デイサービスセンター　柚子の郷",
    "kana": "デイサービスセンター　ユズノサト",
    "address": "高知県安芸郡北川村野友甲７１０－２",
    "lat": 33.4466252,
    "lng": 134.0371007,
    "tel": "0887-32-1231",
    "url": "",
    "pref": "高知県",
    "city": "北川村",
    "category": "day_service",
    "serviceType": "通所介護",
    "capacity": 30,
    "openDays": [
      "平日",
      "祝日"
    ],
    "openDaysNote": "台風等による警報発令時、営業に支障をきたす場合には、休業になる場合があります。"
  },
  {
    "id": "3972200160",
    "name": "デイサービスセンターこまどり",
    "kana": "デイサービスセンターコマドリ",
    "address": "高知県長岡郡本山町本山978番地2",
    "lat": 33.7566734,
    "lng": 133.59104,
    "tel": "0887-72-9510",
    "url": "http://www.kounankai.jp/",
    "pref": "高知県",
    "city": "本山町",
    "category": "day_service",
    "serviceType": "通所介護",
    "capacity": null,
    "openDays": [
      "平日",
      "祝日"
    ],
    "openDaysNote": ""
  }
]