[
  {
    "id": "3171100146",
    "name": "デイサービスセンターわかばの家大岩",
    "kana": "デイサービスセンターワカバノイエオオイワ",
    "address": "鳥取県岩美郡岩美町大谷３１２番地１",
    "lat": 35.5765558,
    "lng": 134.3033644,
    "tel": "0857-72-8333",
    "url": "http://www.jainaba.com/kaigo/wakaba.htm",
    "pref": "鳥取県",
    "city": "岩美町",
    "category": "day_service",
    "serviceType": "通所介護",
    "capacity": 25,
    "openDays": [
      "平日",
      "土曜日",
      "祝日"
    ],
    "openDaysNote": "月曜日から土曜日の間は、祝祭日も営業。"
  },
  {
    "id": "3171100179",
    "name": "レコードブック岩美大谷",
    "kana": "レコードブックイワミオオタニ",
    "address": "鳥取県岩美郡岩美町1648-27",
    "lat": 35.5759498,
    "lng": 134.3321448,
    "tel": "0857-35-0721",
    "url": "",
    "pref": "鳥取県",
    "city": "岩美町",
    "category": "day_service",
    "serviceType": "通所介護",
    "capacity": 0,
    "openDays": [
      "平日",
      "祝日"
    ],
    "openDaysNote": ""
  },
  {
    "id": "3171100070",
    "name": "岩井あすなろデイサービスセンター",
    "kana": "イワイアスナロデイサービスセンター",
    "address": "鳥取県岩美郡岩美町宇治1034",
    "lat": 35.5577122,
    "lng": 134.3611367,
    "tel": "0857-72-3571",
    "url": "https://t-asunaro.jp/",
    "pref": "鳥取県",
    "city": "岩美町",
    "category": "day_service",
    "serviceType": "通所介護",
    "capacity": 35,
    "openDays": [
      "平日",
      "土曜日",
      "日曜日",
      "祝日"
    ],
    "openDaysNote": "早朝利用又は延長利用については、事前に担当ケアマネジャー又は当事業所にご相談下さい。"
  },
  {
    "id": "3171100096",
    "name": "幸風デイサービスセンター",
    "kana": "コウフウデイサービスセンター",
    "address": "鳥取県岩美郡岩美町浦富４３４－２５",
    "lat": 35.5810643,
    "lng": 134.3256871,
    "tel": "0857-37-5226",
    "url": "www.kouhuu.co.jp",
    "pref": "鳥取県",
    "city": "岩美町",
    "category": "day_service",
    "serviceType": "通所介護",
    "capacity": 0,
    "openDays": [
      "平日",
      "土曜日",
      "日曜日",
      "祝日"
    ],
    "openDaysNote": "１月と２月を除く31日の月は月２回、30日の月は月１回の休みあり"
  },
  {
    "id": "3170400018",
    "name": "デイサービスセンター　さかい幸朋苑",
    "kana": "デイサービスセンター　サカイコウホウエン",
    "address": "鳥取県境港市誠道町2083番地",
    "lat": 35.5185576,
    "lng": 133.2353198,
    "tel": "0859-45-2299",
    "url": "http://www.kohoen.jp",
    "pref": "鳥取県",
    "city": "境港市",
    "category": "day_service",
    "serviceType": "通所介護",
    "capacity": 0,
    "openDays": [
      "平日",
      "土曜日",
      "日曜日",
      "祝日"
    ],
    "openDaysNote": "特になし"
  },
  {
    "id": "3170400281",
    "name": "デイサービスセンター　新さかい幸朋苑",
    "kana": "デイサービスセンター　シンサカイコウホウエン",
    "address": "鳥取県境港市上道町２０５３－１",
    "lat": 35.5425775,
    "lng": 133.2396995,
    "tel": "0859-47-6514",
    "url": "http://www.kohoen.jp",
    "pref": "鳥取県",
    "city": "境港市",
    "category": "day_service",
    "serviceType": "通所介護",
    "capacity": 32,
    "openDays": [
      "平日",
      "土曜日",
      "日曜日",
      "祝日"
    ],
    "openDaysNote": "特になし"
  },
  {
    "id": "3170400406",
    "name": "デイサービスセンター健康塾　境港校",
    "kana": "デイサービスセンターケンコウジュク",
    "address": "鳥取県境港市上明治町83",
    "lat": 35.4457374,
    "lng": 133.3550178,
    "tel": "0859-46-0370",
    "url": "http://hp.kaipoke.biz/b58/",
    "pref": "鳥取県",
    "city": "境港市",
    "category": "day_service",
    "serviceType": "通所介護",
    "capacity": 0,
    "openDays": [
      "平日",
      "祝日"
    ],
    "openDaysNote": "祝日は通常通りサービス提供しております。（改行）8月14日～8月16日、12月30日～1月3日間でのご利用日の振り替え利用は随時対応致しております。"
  },
  {
    "id": "3170400208",
    "name": "中浜ケアパートナーズ　通所介護事業所",
    "kana": "ナカハマケアパートナーズ　ツウショカイゴジギョウショ",
    "address": "鳥取県境港市財ノ木町字川尻562番地",
    "lat": 35.5048205,
    "lng": 133.2498937,
    "tel": "0859-45-4661",
    "url": "",
    "pref": "鳥取県",
    "city": "境港市",
    "category": "day_service",
    "serviceType": "通所介護",
    "capacity": 0,
    "openDays": [
      "平日",
      "土曜日",
      "祝日"
    ],
    "openDaysNote": "なし"
  },
  {
    "id": "3171400884",
    "name": "デイサービスセンターまほろば",
    "kana": "デイサービスセンターマホロバ",
    "address": "鳥取県東伯郡琴浦町赤碕1840-7",
    "lat": 35.511029,
    "lng": 133.6348605,
    "tel": "0858-55-7551",
    "url": "https://www.kotoura-mahoroba.life",
    "pref": "鳥取県",
    "city": "琴浦町",
    "category": "day_service",
    "serviceType": "通所介護",
    "capacity": 25,
    "openDays": [
      "平日",
      "土曜日",
      "祝日"
    ],
    "openDaysNote": ""
  },
  {
    "id": "3171400330",
    "name": "デイサービス鈴ヶ野",
    "kana": "デイサービススズガノ",
    "address": "鳥取県東伯郡琴浦町大字逢束1213番地1",
    "lat": 35.5000837,
    "lng": 133.6971472,
    "tel": "0858-53-2870",
    "url": "https://www.morimoto-med1977.jp",
    "pref": "鳥取県",
    "city": "琴浦町",
    "category": "day_service",
    "serviceType": "通所介護",
    "capacity": 50,
    "openDays": [
      "平日",
      "土曜日",
      "祝日"
    ],
    "openDaysNote": ""
  },
  {
    "id": "3171400033",
    "name": "みどり園通所介護事業所",
    "kana": "ミドリエンツウショカイゴジギョウショ",
    "address": "鳥取県東伯郡琴浦町八橋1937番地",
    "lat": 35.5029342,
    "lng": 133.665303,
    "tel": "0858-53-2820",
    "url": "http://hp1.tcbnet.ne.jp/~midori/",
    "pref": "鳥取県",
    "city": "琴浦町",
    "category": "day_service",
    "serviceType": "通所介護",
    "capacity": 40,
    "openDays": [
      "平日",
      "土曜日",
      "祝日"
    ],
    "openDaysNote": "特になし"
  },
  {
    "id": "3171400512",
    "name": "社会福祉法人　琴浦町社会福祉協議会　通所介護事業所",
    "kana": "シャカイフクシホウジン　コトウラチョウシャカイフクシキョウギカイ　ツウショカイゴジギョウショ",
    "address": "鳥取県東伯郡琴浦町大字浦安１２３番地１琴浦町社会福祉センター 琴浦町社会福祉センター",
    "lat": 35.4943731,
    "lng": 133.6938534,
    "tel": "0858-52-3600",
    "url": "http://www.kotoura-shakyo.jp",
    "pref": "鳥取県",
    "city": "琴浦町",
    "category": "day_service",
    "serviceType": "通所介護",
    "capacity": 30,
    "openDays": [
      "平日",
      "土曜日",
      "祝日"
    ],
    "openDaysNote": "営業日以外でも状況により実施する場合もある。"
  },
  {
    "id": "3171400819",
    "name": "百寿苑きらりデイサービスセンター",
    "kana": "ヒャクジュエンキラリデイサービスセンター",
    "address": "鳥取県東伯郡琴浦町赤碕２５４０番地５",
    "lat": 35.504535,
    "lng": 133.6350356,
    "tel": "0858-55-7022",
    "url": "http://www.hyakujyuen.jp/service_4_2.html#1",
    "pref": "鳥取県",
    "city": "琴浦町",
    "category": "day_service",
    "serviceType": "通所介護",
    "capacity": 35,
    "openDays": [
      "平日",
      "土曜日",
      "祝日"
    ],
    "openDaysNote": ""
  },
  {
    "id": "3171400041",
    "name": "百寿苑デイサービスセンター",
    "kana": "ヒャクジュエンデイサービスセンター",
    "address": "鳥取県東伯郡琴浦町赤碕１０６１－３",
    "lat": 35.5174898,
    "lng": 133.6320078,
    "tel": "0858-55-2051",
    "url": "http://www.hyakujyuen.jp",
    "pref": "鳥取県",
    "city": "琴浦町",
    "category": "day_service",
    "serviceType": "通所介護",
    "capacity": 40,
    "openDays": [
      "平日",
      "土曜日",
      "祝日"
    ],
    "openDaysNote": ""
  },
  {
    "id": "3171400421",
    "name": "陽だまりの家　デイサービスセンター",
    "kana": "ヒダマリノイエ　デイサービスセンター",
    "address": "鳥取県東伯郡琴浦町徳万70-1",
    "lat": 35.5018558,
    "lng": 133.6960973,
    "tel": "0858-53-0695",
    "url": "http://www.solhem.jp/",
    "pref": "鳥取県",
    "city": "琴浦町",
    "category": "day_service",
    "serviceType": "通所介護",
    "capacity": 0,
    "openDays": [
      "平日",
      "土曜日",
      "日曜日",
      "祝日"
    ],
    "openDaysNote": ""
  },
  {
    "id": "3171400868",
    "name": "陽だまりの家ことうらデイサービスセンター",
    "kana": "ヒダマリノイエ　コトウラ　デイサービスセンター",
    "address": "鳥取県東伯郡琴浦町逢束126",
    "lat": 35.5038501,
    "lng": 133.7082069,
    "tel": "0858-52-1231",
    "url": "http://www.solhem.jp/",
    "pref": "鳥取県",
    "city": "琴浦町",
    "category": "day_service",
    "serviceType": "通所介護",
    "capacity": 35,
    "openDays": [
      "平日",
      "土曜日",
      "日曜日",
      "祝日"
    ],
    "openDaysNote": ""
  },
  {
    "id": "3171600426",
    "name": "デイサービスセンター江美の郷",
    "kana": "デイサービスセンターエミノサト",
    "address": "鳥取県日野郡江府町久連7番地",
    "lat": 35.2818538,
    "lng": 133.483059,
    "tel": "0859-75-3626",
    "url": "http://www.syoujin.or.jp/",
    "pref": "鳥取県",
    "city": "江府町",
    "category": "day_service",
    "serviceType": "通所介護",
    "capacity": 30,
    "openDays": [
      "平日",
      "土曜日",
      "祝日"
    ],
    "openDaysNote": ""
  },
  {
    "id": "3171400462",
    "name": "デイサービスセンター三朝みのり",
    "kana": "デイサービスセンターミササミノリ",
    "address": "鳥取県東伯郡三朝町山田653-1",
    "lat": 35.4135712,
    "lng": 133.8860847,
    "tel": "0858-43-5108",
    "url": "https://minorifukusikai.com",
    "pref": "鳥取県",
    "city": "三朝町",
    "category": "day_service",
    "serviceType": "通所介護",
    "capacity": 28,
    "openDays": [
      "平日",
      "土曜日",
      "日曜日",
      "祝日"
    ],
    "openDaysNote": ""
  },
  {
    "id": "3171400025",
    "name": "三朝温泉　三喜苑　通所介護事業所",
    "kana": "ミササオンセン　サンキエン　ツウショカイゴジギョウショ",
    "address": "鳥取県　東伯郡　三朝町　横手３９６　（山田１０８番地５）",
    "lat": 35.4105854,
    "lng": 133.8808935,
    "tel": "0858-43-3330",
    "url": "https://www.sankien.jp",
    "pref": "鳥取県",
    "city": "三朝町",
    "category": "day_service",
    "serviceType": "通所介護",
    "capacity": 0,
    "openDays": [
      "平日",
      "土曜日",
      "祝日"
    ],
    "openDaysNote": "営業時間外あり。"
  },
  {
    "id": "3171400082",
    "name": "社会福祉法人　三朝町社会福祉協議会　指定通所介護事業所",
    "kana": "シャカイフクシホウジン　ミササチョウシャカイフクシキョウギカイ　シテイツウショカイゴジギョウショ",
    "address": "鳥取県東伯郡三朝町大字横手５０番地の４",
    "lat": 35.4116464,
    "lng": 133.8824489,
    "tel": "0858-43-3388",
    "url": "http://www.misasa-syakyo.or.jp/",
    "pref": "鳥取県",
    "city": "三朝町",
    "category": "day_service",
    "serviceType": "通所介護",
    "capacity": null,
    "openDays": [
      "平日",
      "土曜日",
      "祝日"
    ],
    "openDaysNote": ""
  },
  {
    "id": "3171200052",
    "name": "社会福祉法人　若桜町社会福祉協議会",
    "kana": "シャカイフクシホウジン　ワカサチョウシャカイフクシキョウギカイ",
    "address": "鳥取県八頭郡若桜町若桜1247-1",
    "lat": 35.3481049921239,
    "lng": 134.392959423079,
    "tel": "0858-82-0254",
    "url": "http://wakasa-syako.wix.com/home",
    "pref": "鳥取県",
    "city": "若桜町",
    "category": "day_service",
    "serviceType": "通所介護",
    "capacity": 35,
    "openDays": [
      "平日",
      "土曜日",
      "祝日"
    ],
    "openDaysNote": ""
  },
  {
    "id": "3170300929",
    "name": "アクアサロン福守",
    "kana": "アクアサロンフクモリ",
    "address": "鳥取県倉吉市福守町406-6",
    "lat": 35.4378363,
    "lng": 133.8081628,
    "tel": "0858-48-2278",
    "url": "",
    "pref": "鳥取県",
    "city": "倉吉市",
    "category": "day_service",
    "serviceType": "通所介護",
    "capacity": 0,
    "openDays": [
      "平日",
      "土曜日",
      "日曜日",
      "祝日"
    ],
    "openDaysNote": ""
  },
  {
    "id": "3170300499",
    "name": "デイサービスセンターあずま園",
    "kana": "デイサービスセンター　アズマエン",
    "address": "鳥取県倉吉市東巌城町４７２番地",
    "lat": 35.4332621,
    "lng": 133.818395,
    "tel": "0858-22-6801",
    "url": "//azumaen.net",
    "pref": "鳥取県",
    "city": "倉吉市",
    "category": "day_service",
    "serviceType": "通所介護",
    "capacity": 31,
    "openDays": [
      "平日",
      "土曜日",
      "祝日"
    ],
    "openDaysNote": ""
  },
  {
    "id": "3170300986",
    "name": "デイサービスセンターウエハラ",
    "kana": "デイサービスセンターウエハラ",
    "address": "鳥取県倉吉市堺町２丁目９６２－２",
    "lat": 35.4334651,
    "lng": 133.8263803,
    "tel": "0858-22-3060",
    "url": "",
    "pref": "鳥取県",
    "city": "倉吉市",
    "category": "day_service",
    "serviceType": "通所介護",
    "capacity": 0,
    "openDays": [
      "平日",
      "土曜日",
      "日曜日",
      "祝日"
    ],
    "openDaysNote": ""
  },
  {
    "id": "3170300812",
    "name": "デイサービスセンターほほえみ",
    "kana": "デイサービスセンターホホエミ",
    "address": "鳥取県倉吉市大原634-3",
    "lat": 35.4244365,
    "lng": 133.8556696,
    "tel": "0858-24-6125",
    "url": "http:www.nagomikikaku.net",
    "pref": "鳥取県",
    "city": "倉吉市",
    "category": "day_service",
    "serviceType": "通所介護",
    "capacity": 0,
    "openDays": [
      "平日",
      "土曜日",
      "祝日"
    ],
    "openDaysNote": ""
  },
  {
    "id": "3170300101",
    "name": "デイサービスセンターマグノリア",
    "kana": "デイサービスセンターマグノリア",
    "address": "鳥取県倉吉市上井町１丁目２番１",
    "lat": 35.4524498,
    "lng": 133.8525445,
    "tel": "0858-26-3922",
    "url": "https://www.med-wel.jp/",
    "pref": "鳥取県",
    "city": "倉吉市",
    "category": "day_service",
    "serviceType": "通所介護",
    "capacity": 45,
    "openDays": [
      "平日",
      "土曜日",
      "祝日"
    ],
    "openDaysNote": "年始（1月1日～1月3日）の休みあり。"
  },
  {
    "id": "3170300358",
    "name": "デイサービスセンター和",
    "kana": "デイサービスセンターナゴミ",
    "address": "鳥取県倉吉市下余戸161-1",
    "lat": 35.4364023801149,
    "lng": 133.84950407791,
    "tel": "0858-27-0301",
    "url": "http://www.nagomikikaku.net",
    "pref": "鳥取県",
    "city": "倉吉市",
    "category": "day_service",
    "serviceType": "通所介護",
    "capacity": 65,
    "openDays": [
      "平日",
      "土曜日",
      "祝日"
    ],
    "openDaysNote": ""
  },
  {
    "id": "3170301018",
    "name": "デイサービスそらいろ",
    "kana": "デイサービスソライロ",
    "address": "鳥取県倉吉市幸町532番地1",
    "lat": 35.4361475269911,
    "lng": 133.836467120238,
    "tel": "0858-27-0820",
    "url": "http://lightup-ltd.com",
    "pref": "鳥取県",
    "city": "倉吉市",
    "category": "day_service",
    "serviceType": "通所介護",
    "capacity": 0,
    "openDays": [
      "平日",
      "土曜日",
      "祝日"
    ],
    "openDaysNote": ""
  },
  {
    "id": "3170301067",
    "name": "デイサービスだいふく",
    "kana": "デイサービスダイフク",
    "address": "鳥取県倉吉市清谷町1丁目163-3",
    "lat": 35.4739081,
    "lng": 133.8488115,
    "tel": "0858-27-1088",
    "url": "",
    "pref": "鳥取県",
    "city": "倉吉市",
    "category": "day_service",
    "serviceType": "通所介護",
    "capacity": 0,
    "openDays": [
      "平日",
      "土曜日",
      "祝日"
    ],
    "openDaysNote": ""
  },
  {
    "id": "3170301059",
    "name": "デイサービスはるかぜ",
    "kana": "デイサービスハルカゼ",
    "address": "鳥取県倉吉市福庭町１丁目225番地",
    "lat": 35.4686204,
    "lng": 133.8490727,
    "tel": "0858-24-6960",
    "url": "",
    "pref": "鳥取県",
    "city": "倉吉市",
    "category": "day_service",
    "serviceType": "通所介護",
    "capacity": 0,
    "openDays": [
      "平日",
      "土曜日",
      "祝日"
    ],
    "openDaysNote": ""
  },
  {
    "id": "3170301042",
    "name": "デイサービスひまわり",
    "kana": "デイサービスヒマワリ",
    "address": "東昭和町165ケアハウスひまわり昭和町１階 ケアハウスひまわり昭和町１階",
    "lat": 35.4369417,
    "lng": 133.8398148,
    "tel": "0858-47-0002",
    "url": "http://www.siseikai.com/",
    "pref": "鳥取県",
    "city": "倉吉市",
    "category": "day_service",
    "serviceType": "通所介護",
    "capacity": 0,
    "openDays": [
      "平日",
      "土曜日",
      "祝日"
    ],
    "openDaysNote": ""
  },
  {
    "id": "3170300705",
    "name": "関金ラジュームデイサービスセンター",
    "kana": "セキガネラジュームデイサービスセンター",
    "address": "鳥取県倉吉市関金町関金宿259-1",
    "lat": 35.3671673,
    "lng": 133.7596234,
    "tel": "0858-45-1168",
    "url": "https://www.minorifukusikai.com/",
    "pref": "鳥取県",
    "city": "倉吉市",
    "category": "day_service",
    "serviceType": "通所介護",
    "capacity": 25,
    "openDays": [
      "平日",
      "土曜日",
      "日曜日",
      "祝日"
    ],
    "openDaysNote": ""
  },
  {
    "id": "3170300994",
    "name": "三喜苑西郷通所介護事業所",
    "kana": "サンキエンサイゴウツウショカイゴジギョウショ",
    "address": "鳥取県倉吉市伊木265-3",
    "lat": 35.4467532,
    "lng": 133.8507447,
    "tel": "0858-27-6070",
    "url": "http://www.sankien.jp",
    "pref": "鳥取県",
    "city": "倉吉市",
    "category": "day_service",
    "serviceType": "通所介護",
    "capacity": 0,
    "openDays": [
      "平日",
      "祝日"
    ],
    "openDaysNote": "営業時間外あり"
  },
  {
    "id": "3170300424",
    "name": "社会福祉法人　倉吉市社会福祉協議会通所介護事業所",
    "kana": "シャカイフクシホウジンクラヨシシシャカイフクシキョウギカイツウショカイゴジギョウショ",
    "address": "鳥取県倉吉市関金町関金宿１１１５－２倉吉市高齢者生活福祉センター内 倉吉市高齢者生活福祉センター内",
    "lat": 35.3644398,
    "lng": 133.7589235,
    "tel": "0858-45-3800",
    "url": "https://kurayoshishakyo.com",
    "pref": "鳥取県",
    "city": "倉吉市",
    "category": "day_service",
    "serviceType": "通所介護",
    "capacity": 0,
    "openDays": [
      "平日",
      "祝日"
    ],
    "openDaysNote": ""
  },
  {
    "id": "3170300077",
    "name": "倉吉スターガーデン",
    "kana": "クラヨシスターガーデン",
    "address": "鳥取県倉吉市福守町491",
    "lat": 35.4350782,
    "lng": 133.8055965,
    "tel": "0858-28-5801",
    "url": "https://minorifukusikai.com/",
    "pref": "鳥取県",
    "city": "倉吉市",
    "category": "day_service",
    "serviceType": "通所介護",
    "capacity": 30,
    "openDays": [
      "平日",
      "土曜日",
      "日曜日",
      "祝日"
    ],
    "openDaysNote": ""
  },
  {
    "id": "3170300549",
    "name": "倉吉デイサービスつばき",
    "kana": "クラヨシデイサービスツバキ",
    "address": "鳥取県倉吉市余戸谷町３０５１番地１",
    "lat": 35.4279653,
    "lng": 133.8113431,
    "tel": "0858-23-0051",
    "url": "http://www.nissyoukai.com/",
    "pref": "鳥取県",
    "city": "倉吉市",
    "category": "day_service",
    "serviceType": "通所介護",
    "capacity": 30,
    "openDays": [
      "平日",
      "土曜日",
      "祝日"
    ],
    "openDaysNote": "特になし"
  },
  {
    "id": "3171500527",
    "name": "デイサービス　大山やすらぎの里",
    "kana": "デイサービス　ダイセンヤスラギノサト",
    "address": "鳥取県西伯郡大山町唐王２０８",
    "lat": 35.4807484,
    "lng": 133.454268,
    "tel": "0859-39-5555",
    "url": "https://keiaikai-daisen.com/",
    "pref": "鳥取県",
    "city": "大山町",
    "category": "day_service",
    "serviceType": "通所介護",
    "capacity": 45,
    "openDays": [
      "平日",
      "祝日"
    ],
    "openDaysNote": ""
  },
  {
    "id": "3171500261",
    "name": "ディサービスセンタール・ソラリオン名和",
    "kana": "デイサービスセンタール・ソラリオンナワ",
    "address": "鳥取県西伯郡大山町西坪５２０番地１",
    "lat": 35.5143925,
    "lng": 133.5010836,
    "tel": "0859-54-6500",
    "url": "http://www.med-wel.jp",
    "pref": "鳥取県",
    "city": "大山町",
    "category": "day_service",
    "serviceType": "通所介護",
    "capacity": 35,
    "openDays": [
      "平日",
      "土曜日",
      "祝日"
    ],
    "openDaysNote": "年末年始（12月31日～1月3日）の休みあり。"
  },
  {
    "id": "3171500691",
    "name": "大山町社会福祉協議会通所介護だいせん",
    "kana": "ダイセンチョウシャカイフクシキョウギカイツウショカイゴダイセン",
    "address": "鳥取県西伯郡大山町末長５０３番地保健福祉センターだいせん 保健福祉センターだいせん",
    "lat": 35.4810624,
    "lng": 133.4593343,
    "tel": "0859-39-5040",
    "url": "http://daisensyakyo.org",
    "pref": "鳥取県",
    "city": "大山町",
    "category": "day_service",
    "serviceType": "通所介護",
    "capacity": 35,
    "openDays": [
      "平日",
      "祝日"
    ],
    "openDaysNote": ""
  },
  {
    "id": "3171200391",
    "name": "智頭デイサービスセンター",
    "kana": "チヅデイサービスセンター",
    "address": "鳥取県八頭郡智頭町大字智頭1875",
    "lat": 35.2635283,
    "lng": 134.2241569,
    "tel": "0858-75-2786",
    "url": "http://chizushakyo.jp",
    "pref": "鳥取県",
    "city": "智頭町",
    "category": "day_service",
    "serviceType": "通所介護",
    "capacity": 0,
    "openDays": [
      "平日",
      "土曜日",
      "祝日"
    ],
    "openDaysNote": "特になし"
  },
  {
    "id": "3170103406",
    "name": "アクティブ津ノ井",
    "kana": "アクティブツノイ",
    "address": "鳥取県鳥取市津ノ井246-1",
    "lat": 35.4610743228805,
    "lng": 134.252152669199,
    "tel": "0857-30-5432",
    "url": "http://www.tottorifukushikai.jp",
    "pref": "鳥取県",
    "city": "鳥取市",
    "category": "day_service",
    "serviceType": "通所介護",
    "capacity": 0,
    "openDays": [
      "平日"
    ],
    "openDaysNote": ""
  },
  {
    "id": "3170100550",
    "name": "いきいきデイはまなす",
    "kana": "イキイキデイハマナス",
    "address": "鳥取県鳥取市浜坂222-1",
    "lat": 35.524602,
    "lng": 134.226897,
    "tel": "0857-39-8665",
    "url": "http://www.kohoen.jp",
    "pref": "鳥取県",
    "city": "鳥取市",
    "category": "day_service",
    "serviceType": "通所介護",
    "capacity": 0,
    "openDays": [
      "平日",
      "土曜日",
      "祝日"
    ],
    "openDaysNote": ""
  },
  {
    "id": "3170104099",
    "name": "ツクイ鳥取湖山",
    "kana": "ツクイトットリコヤマ",
    "address": "鳥取県鳥取市湖山町東4丁目88番",
    "lat": 35.5166826,
    "lng": 134.1872089,
    "tel": "0857-32-2126",
    "url": "https://www.tsukui.net/",
    "pref": "鳥取県",
    "city": "鳥取市",
    "category": "day_service",
    "serviceType": "通所介護",
    "capacity": null,
    "openDays": [
      "平日",
      "土曜日",
      "日曜日",
      "祝日"
    ],
    "openDaysNote": ""
  },
  {
    "id": "3170103927",
    "name": "デイサービス　ウルーズ",
    "kana": "デイサービス　ウルーズ",
    "address": "鳥取県鳥取市緑ヶ丘１丁目１１－８",
    "lat": 35.5026763,
    "lng": 134.2122575,
    "tel": "0857-21-3388",
    "url": "",
    "pref": "鳥取県",
    "city": "鳥取市",
    "category": "day_service",
    "serviceType": "通所介護",
    "capacity": 20,
    "openDays": [
      "平日",
      "土曜日",
      "祝日"
    ],
    "openDaysNote": ""
  },
  {
    "id": "3170103091",
    "name": "デイサービス　ドンドロ家",
    "kana": "デイサービス　ドンドロケ",
    "address": "鳥取県鳥取市行徳1丁目316番地3",
    "lat": 35.4982509980077,
    "lng": 134.219045963806,
    "tel": "0857-50-1300",
    "url": "jinpukai.jp",
    "pref": "鳥取県",
    "city": "鳥取市",
    "category": "day_service",
    "serviceType": "通所介護",
    "capacity": 23,
    "openDays": [
      "平日",
      "土曜日",
      "日曜日",
      "祝日"
    ],
    "openDaysNote": "事務所でのお問い合わせ等に関する電話受付については土日祝日は行っていません。"
  },
  {
    "id": "3170100873",
    "name": "デイサービス　風紋館",
    "kana": "デイサービス　フウモンカン",
    "address": "鳥取県鳥取市立川町5丁目312-1",
    "lat": 35.4902505,
    "lng": 134.2416273,
    "tel": "0857-36-8016",
    "url": "http://huumonkan.jp/",
    "pref": "鳥取県",
    "city": "鳥取市",
    "category": "day_service",
    "serviceType": "通所介護",
    "capacity": 0,
    "openDays": [
      "平日",
      "土曜日",
      "祝日"
    ],
    "openDaysNote": ""
  },
  {
    "id": "3170102564",
    "name": "デイサービスあらいぶ",
    "kana": "デイサービスアライブ",
    "address": "鳥取県鳥取市若葉台北６丁目１番９号",
    "lat": 35.4479339660271,
    "lng": 134.256988447499,
    "tel": "0857-38-6888",
    "url": "http://advan-wakaba.com",
    "pref": "鳥取県",
    "city": "鳥取市",
    "category": "day_service",
    "serviceType": "通所介護",
    "capacity": 30,
    "openDays": [
      "平日",
      "祝日"
    ],
    "openDaysNote": ""
  },
  {
    "id": "3170103968",
    "name": "デイサービスこくふ",
    "kana": "デイサービスコクフ",
    "address": "鳥取県鳥取市国府町新通り2丁目202",
    "lat": 35.4816701,
    "lng": 134.2532371,
    "tel": "0857-30-5777",
    "url": "http://kensuikai.net/dayservice_info.html",
    "pref": "鳥取県",
    "city": "鳥取市",
    "category": "day_service",
    "serviceType": "通所介護",
    "capacity": 30,
    "openDays": [
      "平日",
      "土曜日",
      "祝日"
    ],
    "openDaysNote": ""
  },
  {
    "id": "3170104081",
    "name": "デイサービスしゃぼんだま",
    "kana": "デイサービスシャボンダマ",
    "address": "鳥取県鳥取市湖山町西１丁目７３８番地",
    "lat": 35.5223728,
    "lng": 134.168467,
    "tel": "0857 -30-5152",
    "url": "https://shabon-dama.com",
    "pref": "鳥取県",
    "city": "鳥取市",
    "category": "day_service",
    "serviceType": "通所介護",
    "capacity": 0,
    "openDays": [
      "平日",
      "祝日"
    ],
    "openDaysNote": "祝日は、平日のみ営業"
  },
  {
    "id": "3170103943",
    "name": "デイサービスセンター　やまぶき",
    "kana": "デイサービスセンター　ヤマブキ",
    "address": "鳥取県鳥取市商栄町271-5シェアグレイス商栄 シェアグレイス商栄",
    "lat": 35.5152554,
    "lng": 134.2064021,
    "tel": "0857-32-5151",
    "url": "",
    "pref": "鳥取県",
    "city": "鳥取市",
    "category": "day_service",
    "serviceType": "通所介護",
    "capacity": null,
    "openDays": [
      "平日",
      "祝日"
    ],
    "openDaysNote": ""
  },
  {
    "id": "3170103703",
    "name": "デイサービスセンターing",
    "kana": "デイサービスセンターイング",
    "address": "鳥取県鳥取市相生町二丁目452-1デイサービスセンターing デイサービスセンターing",
    "lat": 35.5074292,
    "lng": 134.2267035,
    "tel": "0857-25-5600",
    "url": "http://www.ing-tottori.com",
    "pref": "鳥取県",
    "city": "鳥取市",
    "category": "day_service",
    "serviceType": "通所介護",
    "capacity": 20,
    "openDays": [
      "平日",
      "土曜日",
      "日曜日",
      "祝日"
    ],
    "openDaysNote": ""
  },
  {
    "id": "3170103166",
    "name": "デイサービスセンターきゅうだい",
    "kana": "デイサービスセンターキュウダイ",
    "address": "鳥取県鳥取市古海693番地1",
    "lat": 35.5001628,
    "lng": 134.2076694,
    "tel": "0857-30-4316",
    "url": "http://www.kyudai.co.jp/",
    "pref": "鳥取県",
    "city": "鳥取市",
    "category": "day_service",
    "serviceType": "通所介護",
    "capacity": 25,
    "openDays": [
      "平日",
      "土曜日",
      "日曜日",
      "祝日"
    ],
    "openDaysNote": ""
  },
  {
    "id": "3170102432",
    "name": "デイサービスセンターきゅうだいすずの里",
    "kana": "デイサービスセンターキュウダイスズノサト",
    "address": "鳥取県鳥取市数津202-1",
    "lat": 35.4674305670798,
    "lng": 134.2242518,
    "tel": "0857-30-5231",
    "url": "http://www.kyudai.co.jp/lifecare/index.html",
    "pref": "鳥取県",
    "city": "鳥取市",
    "category": "day_service",
    "serviceType": "通所介護",
    "capacity": 20,
    "openDays": [
      "平日",
      "土曜日",
      "日曜日",
      "祝日"
    ],
    "openDaysNote": ""
  },
  {
    "id": "3170103554",
    "name": "デイサービスセンター天然温泉ほんわ館",
    "kana": "デイサービスセンターテンネンオンセンホンワカン",
    "address": "鳥取県鳥取市吉岡温泉町168－1",
    "lat": 35.4847154,
    "lng": 134.1298431,
    "tel": "０８５７－５４－００２３",
    "url": "",
    "pref": "鳥取県",
    "city": "鳥取市",
    "category": "day_service",
    "serviceType": "通所介護",
    "capacity": 16,
    "openDays": [
      "平日",
      "土曜日",
      "祝日"
    ],
    "openDaysNote": ""
  },
  {
    "id": "3170103844",
    "name": "デイサービスセンター美咲園",
    "kana": "デイサービスセンターミサキエン",
    "address": "生山123番地9",
    "lat": 35.45736,
    "lng": 134.2559992,
    "tel": "0857-53-7833",
    "url": "",
    "pref": "鳥取県",
    "city": "鳥取市",
    "category": "day_service",
    "serviceType": "通所介護",
    "capacity": 0,
    "openDays": [
      "平日",
      "土曜日",
      "日曜日",
      "祝日"
    ],
    "openDaysNote": ""
  },
  {
    "id": "3170102739",
    "name": "デイサービスつむぎ",
    "kana": "デイサービスツムギ",
    "address": "鳥取県鳥取市行徳一丁目312番地",
    "lat": 35.4978829,
    "lng": 134.2195847,
    "tel": "0857-30-6978",
    "url": "https://www.o-tsumugi.com",
    "pref": "鳥取県",
    "city": "鳥取市",
    "category": "day_service",
    "serviceType": "通所介護",
    "capacity": 33,
    "openDays": [
      "平日",
      "土曜日",
      "祝日"
    ],
    "openDaysNote": ""
  },
  {
    "id": "3170102812",
    "name": "デイサービスはまむら",
    "kana": "デイサービスハマムラ",
    "address": "鳥取県鳥取市気高町新町二丁目１１番地ガーデンハウス　はまむら ガーデンハウス　はまむら",
    "lat": 35.5106134,
    "lng": 134.0468526,
    "tel": "０８５７－８２－６５００",
    "url": "https://www.med-wel.jp/gardenhama/",
    "pref": "鳥取県",
    "city": "鳥取市",
    "category": "day_service",
    "serviceType": "通所介護",
    "capacity": 30,
    "openDays": [
      "平日",
      "祝日"
    ],
    "openDaysNote": "盆、年末年始の休業については別に定める。"
  },
  {
    "id": "3170101194",
    "name": "デイサービスひまわり鳥取",
    "kana": "デイサービスヒマワリトットリ",
    "address": "鳥取県鳥取市桂木784番地",
    "lat": 35.458046,
    "lng": 134.2525884,
    "tel": "0857-53-7890",
    "url": "http://www.siseikai.com/",
    "pref": "鳥取県",
    "city": "鳥取市",
    "category": "day_service",
    "serviceType": "通所介護",
    "capacity": 30,
    "openDays": [
      "平日",
      "土曜日",
      "日曜日",
      "祝日"
    ],
    "openDaysNote": "行事等により日曜日に営業する場合がある"
  },
  {
    "id": "3170101988",
    "name": "デイサービスほのか",
    "kana": "デイサービスホノカ",
    "address": "鳥取県鳥取市上原923-20",
    "lat": 35.4571049,
    "lng": 134.1440375,
    "tel": "0857-56-0255",
    "url": "http:/www.honoka-day.jp/",
    "pref": "鳥取県",
    "city": "鳥取市",
    "category": "day_service",
    "serviceType": "通所介護",
    "capacity": 20,
    "openDays": [
      "平日",
      "土曜日",
      "日曜日",
      "祝日"
    ],
    "openDaysNote": ""
  },
  {
    "id": "3170104065",
    "name": "デイサービスリゾートアロハ鳥取",
    "kana": "デイサービスリゾートアロハトットリ",
    "address": "鳥取県鳥取市岩吉２０６番地",
    "lat": 35.5137417,
    "lng": 134.1937414,
    "tel": "0857-30-5026",
    "url": "http://hp.kaipoke.biz/v3p/",
    "pref": "鳥取県",
    "city": "鳥取市",
    "category": "day_service",
    "serviceType": "通所介護",
    "capacity": 0,
    "openDays": [
      "平日",
      "土曜日",
      "祝日"
    ],
    "openDaysNote": ""
  },
  {
    "id": "3170101939",
    "name": "デイサービスわかば",
    "kana": "デイサービスワカバ",
    "address": "鳥取県鳥取市若葉台北6丁目3番27号",
    "lat": 35.4498248,
    "lng": 134.2582132,
    "tel": "0857-38-6277",
    "url": "http://advan-wakaba.com",
    "pref": "鳥取県",
    "city": "鳥取市",
    "category": "day_service",
    "serviceType": "通所介護",
    "capacity": 25,
    "openDays": [
      "平日",
      "祝日"
    ],
    "openDaysNote": ""
  },
  {
    "id": "3170102283",
    "name": "デイサービス縁",
    "kana": "デイサービスエニシ",
    "address": "鳥取県鳥取市西品治86番地2",
    "lat": 35.5035683,
    "lng": 134.2209482,
    "tel": "0857-36-8686",
    "url": "http://enishi-day.jp/",
    "pref": "鳥取県",
    "city": "鳥取市",
    "category": "day_service",
    "serviceType": "通所介護",
    "capacity": 50,
    "openDays": [
      "平日",
      "土曜日",
      "祝日"
    ],
    "openDaysNote": ""
  },
  {
    "id": "3170102820",
    "name": "デイサービス陽だまりの家かわはら福らく",
    "kana": "デイサービスヒダマリノイエカワハラフクラク",
    "address": "鳥取県鳥取市河原町河原16-3番地",
    "lat": 35.4060507,
    "lng": 134.2011702,
    "tel": "0858-71-0300",
    "url": "",
    "pref": "鳥取県",
    "city": "鳥取市",
    "category": "day_service",
    "serviceType": "通所介護",
    "capacity": 25,
    "openDays": [
      "平日",
      "土曜日",
      "日曜日",
      "祝日"
    ],
    "openDaysNote": "年中無休"
  },
  {
    "id": "3170102226",
    "name": "デイサービス梨の郷",
    "kana": "デイサービスナシノサト",
    "address": "鳥取県鳥取市行徳　1-162",
    "lat": 35.4984037797771,
    "lng": 134.221084902482,
    "tel": "0857－50－1068",
    "url": "",
    "pref": "鳥取県",
    "city": "鳥取市",
    "category": "day_service",
    "serviceType": "通所介護",
    "capacity": 27,
    "openDays": [
      "平日",
      "土曜日",
      "祝日"
    ],
    "openDaysNote": "＃"
  },
  {
    "id": "3170103547",
    "name": "デイハウス　さくら",
    "kana": "デイハウス　サクラ",
    "address": "鳥取県鳥取市西品治635-1",
    "lat": 35.5095306987596,
    "lng": 134.220842060713,
    "tel": "0857-50-0444",
    "url": "",
    "pref": "鳥取県",
    "city": "鳥取市",
    "category": "day_service",
    "serviceType": "通所介護",
    "capacity": 0,
    "openDays": [
      "平日",
      "土曜日",
      "日曜日",
      "祝日"
    ],
    "openDaysNote": ""
  },
  {
    "id": "3170100147",
    "name": "デイライフいきいき",
    "kana": "デイライフイキイキ",
    "address": "鳥取県鳥取市秋里１１８１番地",
    "lat": 35.5189441,
    "lng": 134.2141207,
    "tel": "0857-20-2616",
    "url": "http://www.kohoen.jp",
    "pref": "鳥取県",
    "city": "鳥取市",
    "category": "day_service",
    "serviceType": "通所介護",
    "capacity": 40,
    "openDays": [
      "平日",
      "祝日"
    ],
    "openDaysNote": "利用者・家族からの要望があれば利用時間の延長も可能(送迎時間に関しては相談いただければ対応）"
  },
  {
    "id": "3150180135",
    "name": "デイライフゆうゆう",
    "kana": "デイライフユウユウ",
    "address": "鳥取県鳥取市浜坂228番地1",
    "lat": 35.5241687,
    "lng": 134.2276109,
    "tel": "0857-23-6011",
    "url": "http://www.kohoen.jp",
    "pref": "鳥取県",
    "city": "鳥取市",
    "category": "day_service",
    "serviceType": "通所介護",
    "capacity": 0,
    "openDays": [
      "平日",
      "土曜日",
      "日曜日",
      "祝日"
    ],
    "openDaysNote": ""
  },
  {
    "id": "3170103752",
    "name": "ともいきの郷　浜坂",
    "kana": "トモイキノサト　ハマサカ",
    "address": "鳥取県鳥取市浜坂2丁目1-17ともいきの郷　浜坂 ともいきの郷　浜坂",
    "lat": 35.5284568,
    "lng": 134.2140287,
    "tel": "0857-30-6658",
    "url": "tomoiki-hamasaka@sage.ocn.ne.jp",
    "pref": "鳥取県",
    "city": "鳥取市",
    "category": "day_service",
    "serviceType": "通所介護",
    "capacity": 30,
    "openDays": [
      "平日",
      "土曜日",
      "祝日"
    ],
    "openDaysNote": "年末年始12/31～1/3"
  },
  {
    "id": "3170103950",
    "name": "トリフィスタ",
    "kana": "トリフィスタ",
    "address": "鳥取県鳥取市津ノ井248-11",
    "lat": 35.4615357,
    "lng": 134.2503592,
    "tel": "0857-51-0818",
    "url": "",
    "pref": "鳥取県",
    "city": "鳥取市",
    "category": "day_service",
    "serviceType": "通所介護",
    "capacity": null,
    "openDays": [
      "平日",
      "祝日"
    ],
    "openDaysNote": "土・日曜日以外の祝日も営業しています。（改行）（改行）ただし、夏期休暇および正月休みあり。"
  },
  {
    "id": "3170102101",
    "name": "ニチイケアセンターふせ",
    "kana": "ニチイケアセンターフセ",
    "address": "鳥取県鳥取市布勢422-3",
    "lat": 35.5055114415363,
    "lng": 134.180613504264,
    "tel": "0857-32-2008",
    "url": "http://www.nichiigakkan.co.jp",
    "pref": "鳥取県",
    "city": "鳥取市",
    "category": "day_service",
    "serviceType": "通所介護",
    "capacity": 20,
    "openDays": [
      "平日",
      "土曜日",
      "祝日"
    ],
    "openDaysNote": ""
  },
  {
    "id": "3170102044",
    "name": "ハピネデイサービスセンター湖山",
    "kana": "ハピネデイサービスセンターコヤマ",
    "address": "鳥取県鳥取市湖山町東2丁目１５９－２",
    "lat": 35.5171184,
    "lng": 134.1860265,
    "tel": "0857-28-5880",
    "url": "http://www.hapine.com",
    "pref": "鳥取県",
    "city": "鳥取市",
    "category": "day_service",
    "serviceType": "通所介護",
    "capacity": 30,
    "openDays": [
      "平日",
      "土曜日",
      "祝日"
    ],
    "openDaysNote": "利用者様へのサービス提供時間は8時30分～16時30分です。"
  },
  {
    "id": "3170101830",
    "name": "ハピネデイサービスセンター立川",
    "kana": "ハピネデイサービスセンタータチカワ",
    "address": "鳥取県鳥取市立川町6-250-3",
    "lat": 35.4860605037558,
    "lng": 134.247202271164,
    "tel": "0857-22-4361",
    "url": "",
    "pref": "鳥取県",
    "city": "鳥取市",
    "category": "day_service",
    "serviceType": "通所介護",
    "capacity": 150,
    "openDays": [
      "平日",
      "土曜日",
      "祝日"
    ],
    "openDaysNote": ""
  },
  {
    "id": "3170101236",
    "name": "はまゆうデイサービスセンター",
    "kana": "ハマユウデイサービスセンター",
    "address": "鳥取県鳥取市服部204番地1",
    "lat": 35.4748852,
    "lng": 134.2052843,
    "tel": "0857-51-7838",
    "url": "http://www.hamayu.or.jp/",
    "pref": "鳥取県",
    "city": "鳥取市",
    "category": "day_service",
    "serviceType": "通所介護",
    "capacity": 0,
    "openDays": [
      "平日",
      "土曜日",
      "日曜日",
      "祝日"
    ],
    "openDaysNote": ""
  },
  {
    "id": "3170103737",
    "name": "フィットネスデイ湖山",
    "kana": "フィットネスデイコヤマ",
    "address": "鳥取県鳥取市湖山町東四丁目６１番地",
    "lat": 35.5159659,
    "lng": 134.1893457,
    "tel": "0857-30-7573",
    "url": "https://www.el3tottori.co.jp/",
    "pref": "鳥取県",
    "city": "鳥取市",
    "category": "day_service",
    "serviceType": "通所介護",
    "capacity": 80,
    "openDays": [
      "平日",
      "祝日"
    ],
    "openDaysNote": ""
  },
  {
    "id": "3170102150",
    "name": "モアスマイル富安",
    "kana": "モアスマイルトミヤス",
    "address": "鳥取県鳥取市富安２丁目16-4",
    "lat": 35.4923798602003,
    "lng": 134.229661555492,
    "tel": "0857-30-5062",
    "url": "",
    "pref": "鳥取県",
    "city": "鳥取市",
    "category": "day_service",
    "serviceType": "通所介護",
    "capacity": 0,
    "openDays": [
      "平日",
      "土曜日",
      "日曜日",
      "祝日"
    ],
    "openDaysNote": ""
  },
  {
    "id": "3170102143",
    "name": "リハビリcafe",
    "kana": "リハビリカフェ",
    "address": "鳥取県鳥取市千代水4-45",
    "lat": 35.5159911,
    "lng": 134.1951173,
    "tel": "0857-50-0361",
    "url": "",
    "pref": "鳥取県",
    "city": "鳥取市",
    "category": "day_service",
    "serviceType": "通所介護",
    "capacity": 20,
    "openDays": [
      "平日",
      "土曜日"
    ],
    "openDaysNote": "祝日、年末年始休業：１２月３０日～１月３日は休業"
  },
  {
    "id": "3170103869",
    "name": "リハビリ特化型デイサービス　　Reウォーク",
    "kana": "リハビリ　トッカガタ　デイサービス　リウォーク",
    "address": "鳥取県鳥取市正連寺51番地1",
    "lat": 35.4707200196356,
    "lng": 134.245441334393,
    "tel": "0857-51-0160",
    "url": "http://kizuna123.co.jp/sp/",
    "pref": "鳥取県",
    "city": "鳥取市",
    "category": "day_service",
    "serviceType": "通所介護",
    "capacity": 40,
    "openDays": [
      "平日",
      "祝日"
    ],
    "openDaysNote": "12月30日～1月3日　　5月3日～5月5日　8月13日～8月15日は休業致します。"
  },
  {
    "id": "3170102390",
    "name": "奥谷デイサービスセンターふたば",
    "kana": "オクダニデイサービスセンターフタバ",
    "address": "鳥取県鳥取市国府町奥谷３丁目３３１",
    "lat": 35.4831431,
    "lng": 134.2621009,
    "tel": "０８５７－２３－１８３８",
    "url": "",
    "pref": "鳥取県",
    "city": "鳥取市",
    "category": "day_service",
    "serviceType": "通所介護",
    "capacity": 20,
    "openDays": [
      "平日",
      "土曜日",
      "日曜日",
      "祝日"
    ],
    "openDaysNote": ""
  },
  {
    "id": "3171200110",
    "name": "河原あすなろデイサービスセンター",
    "kana": "カワハラアスナロデイサービスセンター",
    "address": "鳥取県鳥取市河原町今在家842",
    "lat": 35.4013310994048,
    "lng": 134.217002913492,
    "tel": "0858-85-1568",
    "url": "http://www.t-asunaro.jp/",
    "pref": "鳥取県",
    "city": "鳥取市",
    "category": "day_service",
    "serviceType": "通所介護",
    "capacity": 40,
    "openDays": [
      "平日",
      "土曜日",
      "祝日"
    ],
    "openDaysNote": "祝祭日、お盆も営業しています。"
  },
  {
    "id": "3170101905",
    "name": "株式会社メディコープとっとり　デイサービスかがやき",
    "kana": "カブシキガイシャメディコープトットリ　デイサービスカガヤキ",
    "address": "鳥取県鳥取市末広温泉町２０３番地レインボーセンター5階 レインボーセンター5階",
    "lat": 35.496011,
    "lng": 134.2302976,
    "tel": "0857-24-6165",
    "url": "http://mcp.mcoop-tottori.jp/services/kagayaki.html",
    "pref": "鳥取県",
    "city": "鳥取市",
    "category": "day_service",
    "serviceType": "通所介護",
    "capacity": 35,
    "openDays": [
      "平日",
      "祝日"
    ],
    "openDaysNote": "なし"
  },
  {
    "id": "3170100881",
    "name": "吉岡温泉デイサービスセンターふたば",
    "kana": "ヨシオカオンセンデイサービスセンターフタバ",
    "address": "鳥取県鳥取市吉岡温泉町３２９番地",
    "lat": 35.4818546,
    "lng": 134.1299265,
    "tel": "0857-54-5880",
    "url": "",
    "pref": "鳥取県",
    "city": "鳥取市",
    "category": "day_service",
    "serviceType": "通所介護",
    "capacity": 30,
    "openDays": [
      "平日",
      "祝日"
    ],
    "openDaysNote": ""
  },
  {
    "id": "3170103901",
    "name": "共生型デイサービスNiCORi",
    "kana": "キョウセイガタデイサービスニコリ",
    "address": "千代水４丁目６８番地",
    "lat": 35.5175834956142,
    "lng": 134.1928564,
    "tel": "0857-30-4531",
    "url": "https://www.welmate.net",
    "pref": "鳥取県",
    "city": "鳥取市",
    "category": "day_service",
    "serviceType": "通所介護",
    "capacity": null,
    "openDays": [
      "平日",
      "土曜日"
    ],
    "openDaysNote": ""
  },
  {
    "id": "3170102556",
    "name": "幸風デイサービスセンター鳥取",
    "kana": "コウフウデイサービスセンタートットリ",
    "address": "鳥取県鳥取市商栄町115-4",
    "lat": 35.51425,
    "lng": 134.2093297,
    "tel": "0857-50-1765",
    "url": "",
    "pref": "鳥取県",
    "city": "鳥取市",
    "category": "day_service",
    "serviceType": "通所介護",
    "capacity": 0,
    "openDays": [
      "平日",
      "土曜日",
      "日曜日",
      "祝日"
    ],
    "openDaysNote": ""
  },
  {
    "id": "3170103083",
    "name": "幸風デイサービスセンター福部",
    "kana": "コウフウデイサービスセンターフクベ",
    "address": "鳥取県鳥取市福部町湯山４００－１",
    "lat": 35.5439332,
    "lng": 134.2483834,
    "tel": "０８５７－７４－３７６１",
    "url": "qqud6rm9k＠air.ocn.ne.jp",
    "pref": "鳥取県",
    "city": "鳥取市",
    "category": "day_service",
    "serviceType": "通所介護",
    "capacity": 20,
    "openDays": [
      "平日",
      "土曜日",
      "日曜日",
      "祝日"
    ],
    "openDaysNote": ""
  },
  {
    "id": "3170100311",
    "name": "高草あすなろデイサービスセンター",
    "kana": "タカクサアスナロデイサービスセンター",
    "address": "鳥取県鳥取市大桷330",
    "lat": 35.4909798,
    "lng": 134.1814835,
    "tel": "0857-30-5613",
    "url": "http://www.t-asunaro.jp",
    "pref": "鳥取県",
    "city": "鳥取市",
    "category": "day_service",
    "serviceType": "通所介護",
    "capacity": 28,
    "openDays": [
      "平日",
      "祝日"
    ],
    "openDaysNote": "特になし"
  },
  {
    "id": "3170101376",
    "name": "在宅支援はうす　和みの郷",
    "kana": "ザイタクシエンハウス　ナゴミノサト",
    "address": "鳥取県鳥取市国府町宮下　1040番地",
    "lat": 35.4795825,
    "lng": 134.2694755,
    "tel": "0857-21-0933",
    "url": "",
    "pref": "鳥取県",
    "city": "鳥取市",
    "category": "day_service",
    "serviceType": "通所介護",
    "capacity": 35,
    "openDays": [
      "平日",
      "土曜日",
      "祝日"
    ],
    "openDaysNote": "１月1日、2日は休業。"
  },
  {
    "id": "3170102192",
    "name": "地域生活援助はうす　のどか",
    "kana": "チイキセイカツエンジョハウス　ノドカ",
    "address": "鳥取県鳥取市気高町勝見８４３－１７２",
    "lat": 35.5110913,
    "lng": 134.0503773,
    "tel": "0857-82-3277",
    "url": "",
    "pref": "鳥取県",
    "city": "鳥取市",
    "category": "day_service",
    "serviceType": "通所介護",
    "capacity": 14,
    "openDays": [
      "平日",
      "土曜日",
      "日曜日",
      "祝日"
    ],
    "openDaysNote": ""
  },
  {
    "id": "3170100329",
    "name": "鳥取市桜ヶ丘デイサービスセンター通所介護事業所",
    "kana": "トットリシサクラガオカデイサービスセンターツウショカイゴジギョウショ",
    "address": "鳥取県鳥取市津ノ井２５６－２",
    "lat": 35.4621011,
    "lng": 134.2510884,
    "tel": "0857-51-8991",
    "url": "http://www.tottorifukushikai.jp",
    "pref": "鳥取県",
    "city": "鳥取市",
    "category": "day_service",
    "serviceType": "通所介護",
    "capacity": 80,
    "openDays": [
      "平日",
      "土曜日",
      "日曜日"
    ],
    "openDaysNote": ""
  },
  {
    "id": "3170101129",
    "name": "鳥取市社会福祉協議会　気高事業所",
    "kana": "トットリシシャカイフクシキョウギカイ　ケタカジギョウショ",
    "address": "鳥取県鳥取市気高町浜村8－8",
    "lat": 35.5101555,
    "lng": 134.0556851,
    "tel": "0857-82-2727",
    "url": "https://www.tottoricity-syakyo.or.jp",
    "pref": "鳥取県",
    "city": "鳥取市",
    "category": "day_service",
    "serviceType": "通所介護",
    "capacity": 35,
    "openDays": [
      "平日",
      "土曜日",
      "祝日"
    ],
    "openDaysNote": ""
  },
  {
    "id": "3170101020",
    "name": "鳥取市社会福祉協議会　国府事業所",
    "kana": "トットリシシャカイフクシキョウギカイ　コクフジギョウショ",
    "address": "鳥取県鳥取市国府町糸谷15-1",
    "lat": 35.4644566,
    "lng": 134.2959905,
    "tel": "0857-26-5180",
    "url": "http://www.tottoricity-syakyo.or.jp",
    "pref": "鳥取県",
    "city": "鳥取市",
    "category": "day_service",
    "serviceType": "通所介護",
    "capacity": 32,
    "openDays": [
      "平日",
      "土曜日",
      "祝日"
    ],
    "openDaysNote": "２時間以上３時間未満でご利用の場合、退院直後もしくは医師の指示など特別な理由があることを原則とする（２３号告示第９号）"
  },
  {
    "id": "3170101145",
    "name": "鳥取市社会福祉協議会　鹿野事業所",
    "kana": "トットリシシャカイフクシキョウギカイ　シカノジギョウショ",
    "address": "鳥取県鳥取市鹿野町今市651-1",
    "lat": 35.4663133,
    "lng": 134.0559947,
    "tel": "0857-84-3113",
    "url": "https://www.tottoricity-syakyo.or.jp",
    "pref": "鳥取県",
    "city": "鳥取市",
    "category": "day_service",
    "serviceType": "通所介護",
    "capacity": 35,
    "openDays": [
      "平日",
      "土曜日",
      "祝日"
    ],
    "openDaysNote": ""
  },
  {
    "id": "3170101160",
    "name": "鳥取市社会福祉協議会　青谷事業所",
    "kana": "トットリシシャカイフクシキョウギカイ　アオヤジギョウショ",
    "address": "鳥取県鳥取市青谷町善田31-1",
    "lat": 35.5108314,
    "lng": 133.9976376,
    "tel": "0857-85-0220",
    "url": "http://www.tottoricity-syakyo.or.jp",
    "pref": "鳥取県",
    "city": "鳥取市",
    "category": "day_service",
    "serviceType": "通所介護",
    "capacity": 35,
    "openDays": [
      "平日",
      "土曜日",
      "祝日"
    ],
    "openDaysNote": ""
  },
  {
    "id": "3170101046",
    "name": "鳥取市社会福祉協議会　福部事業所",
    "kana": "トットリシシャカイフクシキョウギカイ　フクベジギョウショ",
    "address": "鳥取県鳥取市福部町海士1013－1",
    "lat": 35.5563683,
    "lng": 134.2667373,
    "tel": "0857-75-2337",
    "url": "https://www.tottoricity-syakyo.or.jp",
    "pref": "鳥取県",
    "city": "鳥取市",
    "category": "day_service",
    "serviceType": "通所介護",
    "capacity": 27,
    "openDays": [
      "平日",
      "土曜日",
      "祝日"
    ],
    "openDaysNote": ""
  },
  {
    "id": "3170101103",
    "name": "鳥取市社会福祉協議会佐治事業所",
    "kana": "トットリシシャカイフクシキョウギカイサジジギョウショ",
    "address": "鳥取県鳥取市佐治町加瀬木２１７１－２",
    "lat": 35.330608,
    "lng": 134.1183924,
    "tel": "0858-89-1022",
    "url": "http://www.tottoricity-syakyo.or.jp/",
    "pref": "鳥取県",
    "city": "鳥取市",
    "category": "day_service",
    "serviceType": "通所介護",
    "capacity": 35,
    "openDays": [
      "平日",
      "土曜日",
      "祝日"
    ],
    "openDaysNote": "特に無し"
  },
  {
    "id": "3170101087",
    "name": "鳥取市社会福祉協議会用瀬事業所",
    "kana": "トットリシシャカイフクシキョウギカイモチガセジギョウショ",
    "address": "鳥取県鳥取市用瀬町別府９６－２",
    "lat": 35.3412176,
    "lng": 134.1987051,
    "tel": "0858-87-3189",
    "url": "https://www.tottoricity-syakyo.or.jp/",
    "pref": "鳥取県",
    "city": "鳥取市",
    "category": "day_service",
    "serviceType": "通所介護",
    "capacity": 0,
    "openDays": [
      "平日",
      "土曜日",
      "祝日"
    ],
    "openDaysNote": ""
  },
  {
    "id": "3170100345",
    "name": "鳥取市東デイサービスセンター通所介護事業所",
    "kana": "トットリシヒガシデイサービスセンターツウショカイゴジギョウショ",
    "address": "鳥取県鳥取市滝山374－1",
    "lat": 35.4960222,
    "lng": 134.2625005,
    "tel": "0857-29-6292",
    "url": "http://www.tottorifukushikai.jp",
    "pref": "鳥取県",
    "city": "鳥取市",
    "category": "day_service",
    "serviceType": "通所介護",
    "capacity": 0,
    "openDays": [
      "平日",
      "土曜日",
      "日曜日"
    ],
    "openDaysNote": "利用日が定休日と重なった場合、ご希望を頂きましたら別日に振り替え利用が可能ですので、お気軽にご相談下さい"
  },
  {
    "id": "3170100360",
    "name": "鳥取市南デイサービスセンター通所介護事業所",
    "kana": "トットリシミナミデイサービスセンターツウショカイゴジギョウショ",
    "address": "鳥取県鳥取市的場2-1",
    "lat": 35.4754995,
    "lng": 134.2321619,
    "tel": "0857-53-6553",
    "url": "http://www.tottorifukushikai.jp/",
    "pref": "鳥取県",
    "city": "鳥取市",
    "category": "day_service",
    "serviceType": "通所介護",
    "capacity": 445,
    "openDays": [
      "平日",
      "土曜日",
      "祝日"
    ],
    "openDaysNote": "特になし"
  },
  {
    "id": "3170104024",
    "name": "鳥取松並ケアセンターそよ風",
    "kana": "トットリマツナミケアセンターソヨカゼ",
    "address": "鳥取県鳥取市松並町2丁目134",
    "lat": 35.5165277989948,
    "lng": 134.220045617413,
    "tel": "0857-25-6300",
    "url": "",
    "pref": "鳥取県",
    "city": "鳥取市",
    "category": "day_service",
    "serviceType": "通所介護",
    "capacity": 0,
    "openDays": [
      "平日",
      "土曜日",
      "祝日"
    ],
    "openDaysNote": ""
  },
  {
    "id": "3170100279",
    "name": "鳥取西デイサービスセンター",
    "kana": "トットリニシデイサービスセンター",
    "address": "鳥取県鳥取市西品治２８０－１",
    "lat": 35.5068956,
    "lng": 134.217793,
    "tel": "0857-37-2121",
    "url": "http://t-asunaro.or.jp",
    "pref": "鳥取県",
    "city": "鳥取市",
    "category": "day_service",
    "serviceType": "通所介護",
    "capacity": 28,
    "openDays": [
      "平日",
      "土曜日",
      "祝日"
    ],
    "openDaysNote": ""
  },
  {
    "id": "3170103646",
    "name": "通所介護事業所　エルスリークラブ鳥取",
    "kana": "ツウショカイゴジギョウショ　エルスリークラブトットリ",
    "address": "鳥取県鳥取市卯垣5丁目8番地",
    "lat": 35.492803,
    "lng": 134.2569509,
    "tel": "0857-21-1314",
    "url": "https://www.el3tottori.co.jp/",
    "pref": "鳥取県",
    "city": "鳥取市",
    "category": "day_service",
    "serviceType": "通所介護",
    "capacity": 35,
    "openDays": [
      "平日",
      "祝日"
    ],
    "openDaysNote": ""
  },
  {
    "id": "3170103299",
    "name": "通所介護事業所　かりゆし",
    "kana": "ツウショカイゴジギョウショ　カリユシ",
    "address": "鳥取県鳥取市湖山町南５丁目177-1",
    "lat": 35.5189943654867,
    "lng": 134.170886597028,
    "tel": "0857-31-0110",
    "url": "",
    "pref": "鳥取県",
    "city": "鳥取市",
    "category": "day_service",
    "serviceType": "通所介護",
    "capacity": 0,
    "openDays": [
      "平日",
      "土曜日",
      "祝日"
    ],
    "openDaysNote": "年始休みあり"
  },
  {
    "id": "3171400835",
    "name": "アロハデイサービスセンターあずま園",
    "kana": "アロハデイサービスセンターアズマエン",
    "address": "鳥取県東伯郡湯梨浜町水下１６６番地１",
    "lat": 35.4878874,
    "lng": 133.8661452,
    "tel": "0858-47-5010",
    "url": "http://azumaen.net/",
    "pref": "鳥取県",
    "city": "湯梨浜町",
    "category": "day_service",
    "serviceType": "通所介護",
    "capacity": 43,
    "openDays": [
      "平日",
      "土曜日",
      "日曜日",
      "祝日"
    ],
    "openDaysNote": "年末年始は休業日あり"
  },
  {
    "id": "3171400181",
    "name": "デイサービスセンターハワイ信生荘",
    "kana": "デイサービスセンターハワイシンセイソウ",
    "address": "鳥取県東伯郡湯梨浜町はわい温泉５８番５",
    "lat": 35.4758925,
    "lng": 133.880298,
    "tel": "0858-35-5215",
    "url": "http://sinseiso.hp.gogo.jp",
    "pref": "鳥取県",
    "city": "湯梨浜町",
    "category": "day_service",
    "serviceType": "通所介護",
    "capacity": 30,
    "openDays": [
      "平日",
      "土曜日",
      "祝日"
    ],
    "openDaysNote": ""
  },
  {
    "id": "3171401080",
    "name": "デイサービスセンター悠",
    "kana": "デイサービスセンターチカシ",
    "address": "東伯郡湯梨浜町はわい温泉31‐2",
    "lat": 35.4786605,
    "lng": 133.8828232,
    "tel": "0858‐41‐2001",
    "url": "you-chikashi-3.webnode.jp",
    "pref": "鳥取県",
    "city": "湯梨浜町",
    "category": "day_service",
    "serviceType": "通所介護",
    "capacity": 0,
    "openDays": [
      "平日"
    ],
    "openDaysNote": ""
  },
  {
    "id": "3171400926",
    "name": "はわいデイサービスセンターあずま園",
    "kana": "ハワイデイサービスセンターアズマエン",
    "address": "鳥取県東伯郡湯梨浜町光吉107－35",
    "lat": 35.4918953,
    "lng": 133.8786574,
    "tel": "0858－48－5666",
    "url": "http://azumaen.net/",
    "pref": "鳥取県",
    "city": "湯梨浜町",
    "category": "day_service",
    "serviceType": "通所介護",
    "capacity": 25,
    "openDays": [
      "平日",
      "土曜日",
      "祝日"
    ],
    "openDaysNote": ""
  },
  {
    "id": "3171400991",
    "name": "リハビリテーション強化型デイサービスEsola",
    "kana": "リハビリテーションキョウカガタデイサービスエソラ",
    "address": "鳥取県東伯郡湯梨浜町はわい長瀬字三ツ江804番地1",
    "lat": 35.485294,
    "lng": 133.857756,
    "tel": "0858-48-5178",
    "url": "https://esola.business.site",
    "pref": "鳥取県",
    "city": "湯梨浜町",
    "category": "day_service",
    "serviceType": "通所介護",
    "capacity": 45,
    "openDays": [
      "平日",
      "土曜日",
      "祝日"
    ],
    "openDaysNote": "夏季休暇　8月14日～8月15日（改行）秋季休暇（10月（2日間））（改行）年末年始休暇　12月31日～翌年1月3日"
  },
  {
    "id": "3171401064",
    "name": "共生型デイサービスGottcha",
    "kana": "キョウセイガタデイサービスゴッチャ",
    "address": "鳥取県東伯郡湯梨浜町大字長江字東蓼尾310番76多機能共生型施設Esola⁺ 多機能共生型施設Esola⁺",
    "lat": 35.4748783734709,
    "lng": 133.876506497006,
    "tel": "0858-48-6001",
    "url": "https://esola-nursing-agency.business.site",
    "pref": "鳥取県",
    "city": "湯梨浜町",
    "category": "day_service",
    "serviceType": "通所介護",
    "capacity": 0,
    "openDays": [
      "平日",
      "祝日"
    ],
    "openDaysNote": "夏季休暇　8月14日～8月15日（改行）秋季休暇（10月（2日間））（改行）年末年始休暇　12月31日～翌年1月3日"
  },
  {
    "id": "3171400579",
    "name": "社会福祉法人湯梨浜町社会福祉協議会東郷指定通所介護事業所",
    "kana": "シャカイフクシホウジンユリハマチョウシャカイフクシキョウギカイトウゴウシテイツウショカイゴジギョウショ",
    "address": "鳥取県東伯郡湯梨浜町旭８６番地",
    "lat": 35.4680024682532,
    "lng": 133.899586971164,
    "tel": "0858-32-2520",
    "url": "http://www.yurihama-shakyo.jp",
    "pref": "鳥取県",
    "city": "湯梨浜町",
    "category": "day_service",
    "serviceType": "通所介護",
    "capacity": 35,
    "openDays": [
      "平日",
      "土曜日",
      "祝日"
    ],
    "openDaysNote": "特になし"
  },
  {
    "id": "3171400843",
    "name": "湯梨浜みのりデイサービスセンター",
    "kana": "ユリハマミノリデイサービスセンター",
    "address": "鳥取県東伯郡湯梨浜町門田196-2",
    "lat": 35.4709816,
    "lng": 133.8766194,
    "tel": "0858-48-6188",
    "url": "https://minorifukusikai.com/",
    "pref": "鳥取県",
    "city": "湯梨浜町",
    "category": "day_service",
    "serviceType": "通所介護",
    "capacity": 25,
    "openDays": [
      "平日",
      "土曜日",
      "日曜日",
      "祝日"
    ],
    "openDaysNote": ""
  },
  {
    "id": "3171500436",
    "name": "会見デイサービスセンター　いこい荘",
    "kana": "アイミデイサービスセンター　イコイソウ",
    "address": "鳥取県西伯郡南部町浅井９３８",
    "lat": 35.3619237,
    "lng": 133.3702159,
    "tel": "0859-64-3512",
    "url": "http://yuraku-houki.net/",
    "pref": "鳥取県",
    "city": "南部町",
    "category": "day_service",
    "serviceType": "通所介護",
    "capacity": 0,
    "openDays": [
      "平日",
      "土曜日",
      "祝日"
    ],
    "openDaysNote": "通常の営業日及び営業時間帯を超えてサービスを提供する場合がある。"
  },
  {
    "id": "3171500410",
    "name": "西伯デイサービスセンター　しあわせ",
    "kana": "サイハクデイサービスセンター　シアワセ",
    "address": "鳥取県西伯郡南部町法勝寺３３１－１",
    "lat": 35.3422246,
    "lng": 133.3264628,
    "tel": "0859-66-3400",
    "url": "http://yuraku-houki.net/",
    "pref": "鳥取県",
    "city": "南部町",
    "category": "day_service",
    "serviceType": "通所介護",
    "capacity": 25,
    "openDays": [
      "平日",
      "土曜日",
      "祝日"
    ],
    "openDaysNote": "台風や大雪等で警報が出た場合は臨時休業する場合がある。"
  },
  {
    "id": "3171500899",
    "name": "法勝寺ケアプラザデイサービス",
    "kana": "ホツシヨウジケアプラザデイサービス",
    "address": "鳥取県西伯郡南部町法勝寺２８６－１",
    "lat": 35.343019,
    "lng": 133.3259795,
    "tel": "0859-66-5857",
    "url": "https://www.wakoukaigo.co.jp/",
    "pref": "鳥取県",
    "city": "南部町",
    "category": "day_service",
    "serviceType": "通所介護",
    "capacity": 0,
    "openDays": [
      "平日",
      "土曜日",
      "祝日"
    ],
    "openDaysNote": ""
  },
  {
    "id": "3171500014",
    "name": "社会福祉法人日吉津村社会福祉協議会　日吉津村デイサービスセンター",
    "kana": "シャカイフクシホウジンヒエヅソンシャカイフクシキョウギカイヒエヅソンデイサービスセンター",
    "address": "鳥取県西伯郡日吉津村日吉津973番地の9",
    "lat": 35.4414461,
    "lng": 133.3800329,
    "tel": "0859-27-5351",
    "url": "http://www.hiezunet@orange.ocn.ne.jp",
    "pref": "鳥取県",
    "city": "日吉津村",
    "category": "day_service",
    "serviceType": "通所介護",
    "capacity": 35,
    "openDays": [
      "平日",
      "土曜日",
      "祝日"
    ],
    "openDaysNote": ""
  },
  {
    "id": "3171600277",
    "name": "デイサービスセンターあかねの郷",
    "kana": "デイサービスセンターアカネノサト",
    "address": "鳥取県日野郡日南町下石見２３１５番地",
    "lat": 35.1521569,
    "lng": 133.3302399,
    "tel": "0859-83-0843",
    "url": "http://www.n-akane.jp/office02.html",
    "pref": "鳥取県",
    "city": "日南町",
    "category": "day_service",
    "serviceType": "通所介護",
    "capacity": 0,
    "openDays": [
      "平日",
      "土曜日",
      "祝日"
    ],
    "openDaysNote": ""
  },
  {
    "id": "3171600350",
    "name": "デイサービス　かじか荘",
    "kana": "デイサービス　カジカソウ",
    "address": "鳥取県日野郡日野町根雨899-1",
    "lat": 35.234317,
    "lng": 133.4401033,
    "tel": "0859-72-1294",
    "url": "http://www.nissyoukai.net/",
    "pref": "鳥取県",
    "city": "日野町",
    "category": "day_service",
    "serviceType": "通所介護",
    "capacity": 0,
    "openDays": [
      "平日",
      "土曜日",
      "祝日"
    ],
    "openDaysNote": "-１月１日～３日のみ休み"
  },
  {
    "id": "3171500857",
    "name": "デイサービスあゆみ",
    "kana": "デイサービスアユミ",
    "address": "鳥取県西伯郡伯耆町大殿1089-8",
    "lat": 35.3919765,
    "lng": 133.3886967,
    "tel": "0859-68-6060",
    "url": "http://www.akari-net.sakura.ne.jp",
    "pref": "鳥取県",
    "city": "伯耆町",
    "category": "day_service",
    "serviceType": "通所介護",
    "capacity": 0,
    "openDays": [
      "平日",
      "土曜日",
      "日曜日",
      "祝日"
    ],
    "openDaysNote": ""
  },
  {
    "id": "3171500584",
    "name": "伯耆町社会福祉協議会　岸本通所介護事業所",
    "kana": "ホウキチョウシャカイフクシキョウギカイ　キシモトツウショカイゴジギョウショ",
    "address": "鳥取県西伯郡伯耆町大殿1032－1岸本デイサービスセンター 岸本デイサービスセンター",
    "lat": 35.386210333363,
    "lng": 133.396386593246,
    "tel": "0859-68-3781",
    "url": "http://www.houki-shakyo.jp/",
    "pref": "鳥取県",
    "city": "伯耆町",
    "category": "day_service",
    "serviceType": "通所介護",
    "capacity": 40,
    "openDays": [
      "平日",
      "土曜日",
      "祝日"
    ],
    "openDaysNote": ""
  },
  {
    "id": "3171500626",
    "name": "伯耆町社会福祉協議会　溝口通所介護事業所",
    "kana": "ホウキチョウシャカイフクシキョウギカイ　ミゾクチツウショカイゴジギョウショ",
    "address": "鳥取県西伯郡伯耆町溝口２８１－２",
    "lat": 35.3446543,
    "lng": 133.4349327,
    "tel": "0859-63-0666",
    "url": "http://www.houki-shakyo.jp",
    "pref": "鳥取県",
    "city": "伯耆町",
    "category": "day_service",
    "serviceType": "通所介護",
    "capacity": 30,
    "openDays": [
      "平日",
      "土曜日",
      "祝日"
    ],
    "openDaysNote": ""
  },
  {
    "id": "3171200607",
    "name": "サンサンデイサ－ビス",
    "kana": "サンサンデイサ-ビス",
    "address": "鳥取県八頭郡八頭町万代寺8",
    "lat": 35.3954008,
    "lng": 134.2587092,
    "tel": "0858-71-1438",
    "url": "",
    "pref": "鳥取県",
    "city": "八頭町",
    "category": "day_service",
    "serviceType": "通所介護",
    "capacity": 0,
    "openDays": [
      "平日",
      "土曜日",
      "日曜日",
      "祝日"
    ],
    "openDaysNote": ""
  },
  {
    "id": "3171200524",
    "name": "デイサービス　元輝",
    "kana": "デイサービスゲンキ",
    "address": "鳥取県八頭郡八頭町池田４３２－２",
    "lat": 35.4090098,
    "lng": 134.2383634,
    "tel": "0858-73-0161",
    "url": "https://en-gage.net/genki1/",
    "pref": "鳥取県",
    "city": "八頭町",
    "category": "day_service",
    "serviceType": "通所介護",
    "capacity": 22,
    "openDays": [
      "平日",
      "土曜日",
      "祝日"
    ],
    "openDaysNote": ""
  },
  {
    "id": "3171200359",
    "name": "社会福祉法人　　八頭町社会福祉協議会　　船岡支所",
    "kana": "シャカイフクシホウジン　ヤズチョウシャカイフクシキョウギカイ　フナオカシショ",
    "address": "鳥取県八頭郡八頭町船岡殿１５９番地",
    "lat": 35.3821217,
    "lng": 134.2494771,
    "tel": "0858-73-0672",
    "url": "yazu@yazusyakyo.or.jp",
    "pref": "鳥取県",
    "city": "八頭町",
    "category": "day_service",
    "serviceType": "通所介護",
    "capacity": 0,
    "openDays": [
      "平日",
      "祝日"
    ],
    "openDaysNote": ""
  },
  {
    "id": "3171200375",
    "name": "社会福祉法人　　八頭町社会福祉協議会　　八東支所",
    "kana": "シャカイフクシホウジン　ヤズチョウシャカイフクシキョウギカイ　ハットウシシヨ",
    "address": "鳥取県八頭郡八頭町東５９３－１",
    "lat": 35.3590507,
    "lng": 134.3277142,
    "tel": "0858-84-2210",
    "url": "",
    "pref": "鳥取県",
    "city": "八頭町",
    "category": "day_service",
    "serviceType": "通所介護",
    "capacity": 0,
    "openDays": [
      "平日",
      "土曜日",
      "祝日"
    ],
    "openDaysNote": ""
  },
  {
    "id": "3171200334",
    "name": "社会福祉法人　　八頭町社会福祉協議会　　本所",
    "kana": "シャカイフクシホウジン　ヤズチョウシャカイフクシキョウギカイ　ホンショ",
    "address": "鳥取県八頭郡八頭町宮谷２５４番地１",
    "lat": 35.4182842,
    "lng": 134.2553116,
    "tel": "0858-71-1332",
    "url": "http//yazu-syakyo.or.jp/",
    "pref": "鳥取県",
    "city": "八頭町",
    "category": "day_service",
    "serviceType": "通所介護",
    "capacity": 0,
    "openDays": [
      "平日",
      "土曜日",
      "祝日"
    ],
    "openDaysNote": ""
  },
  {
    "id": "3151280215",
    "name": "通所介護事業所すこやか",
    "kana": "ツウショカイゴジギョウショスコヤカ",
    "address": "鳥取県八頭郡八頭町宮谷１２３番地",
    "lat": 35.4138208,
    "lng": 134.258492,
    "tel": "0858-76-7600",
    "url": "https://swc-yazu.studio.site/",
    "pref": "鳥取県",
    "city": "八頭町",
    "category": "day_service",
    "serviceType": "通所介護",
    "capacity": 0,
    "openDays": [
      "平日",
      "土曜日",
      "祝日"
    ],
    "openDaysNote": ""
  },
  {
    "id": "3170202109",
    "name": "アイル米子",
    "kana": "アイルヨナゴ",
    "address": "鳥取県米子市東福原３丁目９番１３号",
    "lat": 35.4430568,
    "lng": 133.3470405,
    "tel": "0859-21-5851",
    "url": "www.airusanin.jp",
    "pref": "鳥取県",
    "city": "米子市",
    "category": "day_service",
    "serviceType": "通所介護",
    "capacity": 32,
    "openDays": [
      "平日",
      "土曜日",
      "祝日"
    ],
    "openDaysNote": "悪天候の場合は臨時休業有り。"
  },
  {
    "id": "3170201457",
    "name": "アルクつつじ",
    "kana": "アルクツツジ",
    "address": "鳥取県米子市米原6丁目9番23号米子ヘルスケアつつじ 米子ヘルスケアつつじ",
    "lat": 35.4446396,
    "lng": 133.3347105,
    "tel": "0859-37-5220",
    "url": "http://www.nissyoukai.com/",
    "pref": "鳥取県",
    "city": "米子市",
    "category": "day_service",
    "serviceType": "通所介護",
    "capacity": 50,
    "openDays": [
      "平日",
      "土曜日",
      "祝日"
    ],
    "openDaysNote": ""
  },
  {
    "id": "3171500279",
    "name": "いずみの苑",
    "kana": "イズミノソノ",
    "address": "鳥取県米子市淀江町淀江１０７５番地",
    "lat": 35.4573423,
    "lng": 133.4336321,
    "tel": "0859-56-6888",
    "url": "https://www.izuminosono.or.jp",
    "pref": "鳥取県",
    "city": "米子市",
    "category": "day_service",
    "serviceType": "通所介護",
    "capacity": 35,
    "openDays": [
      "平日",
      "土曜日",
      "祝日"
    ],
    "openDaysNote": ""
  },
  {
    "id": "3170202356",
    "name": "キャンパスライフ　エルル両三柳",
    "kana": "キャンパスライフ　エルルリョウミツヤナギ",
    "address": "鳥取県米子市両三柳206-2",
    "lat": 35.4488779,
    "lng": 133.3268525,
    "tel": "0859-21-0031",
    "url": "http://elfith.com/",
    "pref": "鳥取県",
    "city": "米子市",
    "category": "day_service",
    "serviceType": "通所介護",
    "capacity": 25,
    "openDays": [
      "平日",
      "土曜日",
      "祝日"
    ],
    "openDaysNote": ""
  },
  {
    "id": "3170203164",
    "name": "ツクイ米子旗ヶ崎",
    "kana": "ツクイヨナゴハタガサキ",
    "address": "鳥取県米子市旗ヶ崎2-9-8",
    "lat": 35.4361548,
    "lng": 133.3174311,
    "tel": "0859-37-3155",
    "url": "",
    "pref": "鳥取県",
    "city": "米子市",
    "category": "day_service",
    "serviceType": "通所介護",
    "capacity": null,
    "openDays": [
      "平日",
      "土曜日",
      "日曜日",
      "祝日"
    ],
    "openDaysNote": "年中無休"
  },
  {
    "id": "3170201499",
    "name": "でいさーびす　　ほうき",
    "kana": "デイサービス　ホウキ",
    "address": "鳥取県米子市西福原5丁目８－１８",
    "lat": 35.4466674,
    "lng": 133.3414074,
    "tel": "0859-37-2080",
    "url": "https://day-service-houki.localinfo.jp/",
    "pref": "鳥取県",
    "city": "米子市",
    "category": "day_service",
    "serviceType": "通所介護",
    "capacity": 25,
    "openDays": [
      "平日",
      "土曜日"
    ],
    "openDaysNote": "8月13～15日　　12月31日～1月3日休み"
  },
  {
    "id": "3170201887",
    "name": "デイサービス　笑和",
    "kana": "デイサービス　ショウワ",
    "address": "鳥取県米子市富益町１６２１",
    "lat": 35.4712785,
    "lng": 133.2884579,
    "tel": "0859-28-6628",
    "url": "",
    "pref": "鳥取県",
    "city": "米子市",
    "category": "day_service",
    "serviceType": "通所介護",
    "capacity": 0,
    "openDays": [
      "平日",
      "祝日"
    ],
    "openDaysNote": "-"
  },
  {
    "id": "3170202703",
    "name": "デイサービスおおたか",
    "kana": "デイサービスオオタカ",
    "address": "鳥取県米子市尾高1812メディケアコートにじの里おおたか メディケアコートにじの里おおたか",
    "lat": 35.4241956811898,
    "lng": 133.406607951386,
    "tel": "0859-21-0025",
    "url": "http://www.ymc-net.or.jp/",
    "pref": "鳥取県",
    "city": "米子市",
    "category": "day_service",
    "serviceType": "通所介護",
    "capacity": 0,
    "openDays": [
      "平日",
      "土曜日",
      "祝日"
    ],
    "openDaysNote": "特になし"
  },
  {
    "id": "3170200152",
    "name": "デイサービスセンター　かわさき",
    "kana": "デイサービスセンター　カワサキ",
    "address": "鳥取県米子市両三柳4543-30",
    "lat": 35.4645375,
    "lng": 133.314453,
    "tel": "0859-48-0611",
    "url": "http://www.kohoen.jp",
    "pref": "鳥取県",
    "city": "米子市",
    "category": "day_service",
    "serviceType": "通所介護",
    "capacity": 24,
    "openDays": [
      "平日",
      "土曜日",
      "日曜日",
      "祝日"
    ],
    "openDaysNote": "なし"
  },
  {
    "id": "3170201333",
    "name": "デイサービスセンター・アザレアコート",
    "kana": "デイサービスセンター　アザレアコート",
    "address": "鳥取県米子市両三柳1400",
    "lat": 35.4498055,
    "lng": 133.3162144,
    "tel": "0859-24-3117",
    "url": "http://www.kohoen.jp",
    "pref": "鳥取県",
    "city": "米子市",
    "category": "day_service",
    "serviceType": "通所介護",
    "capacity": 40,
    "openDays": [
      "平日",
      "土曜日",
      "日曜日",
      "祝日"
    ],
    "openDaysNote": "特になし"
  },
  {
    "id": "3170201408",
    "name": "デイサービスセンターおおしのづ",
    "kana": "デイサービスセンターオオシノヅ",
    "address": "鳥取県米子市大篠津町506‐1",
    "lat": 35.4928528,
    "lng": 133.2599488,
    "tel": "0859-28-6920",
    "url": "http://carehome475.com",
    "pref": "鳥取県",
    "city": "米子市",
    "category": "day_service",
    "serviceType": "通所介護",
    "capacity": 35,
    "openDays": [
      "平日",
      "土曜日",
      "祝日"
    ],
    "openDaysNote": "元旦は休業"
  },
  {
    "id": "3170200830",
    "name": "デイサービスセンターさわやか",
    "kana": "デイサービスセンターサワヤカ",
    "address": "鳥取県米子市皆生温泉１丁目１６番１０号",
    "lat": 35.4558115,
    "lng": 133.3601063,
    "tel": "0859-38-5288",
    "url": "",
    "pref": "鳥取県",
    "city": "米子市",
    "category": "day_service",
    "serviceType": "通所介護",
    "capacity": 30,
    "openDays": [
      "平日",
      "土曜日",
      "祝日"
    ],
    "openDaysNote": ""
  },
  {
    "id": "3150280174",
    "name": "デイサービスセンターなんぶ幸朋苑",
    "kana": "デイサービスセンターナンブコウホウエン",
    "address": "鳥取県米子市石井1238",
    "lat": 35.4022552,
    "lng": 133.3514525,
    "tel": "0859-26-5566",
    "url": "https://www.kohoen.jp",
    "pref": "鳥取県",
    "city": "米子市",
    "category": "day_service",
    "serviceType": "通所介護",
    "capacity": 0,
    "openDays": [
      "平日",
      "土曜日",
      "日曜日",
      "祝日"
    ],
    "openDaysNote": "特になし"
  },
  {
    "id": "3170202828",
    "name": "デイサービスセンターよなご幸朋苑",
    "kana": "デイサービスセンターヨナゴコウホウエン",
    "address": "鳥取県米子市上後藤　３丁目３番３号",
    "lat": 35.4470529,
    "lng": 133.3182004,
    "tel": "0859-24-3330",
    "url": "http//www.kohoen.jp",
    "pref": "鳥取県",
    "city": "米子市",
    "category": "day_service",
    "serviceType": "通所介護",
    "capacity": 0,
    "openDays": [
      "平日",
      "土曜日",
      "日曜日",
      "祝日"
    ],
    "openDaysNote": ""
  },
  {
    "id": "3170203008",
    "name": "デイサービスセンター仁風荘",
    "kana": "デイサービスセンタージンプウソウ",
    "address": "鳥取県米子市上後藤３－５－１",
    "lat": 35.4481429,
    "lng": 133.318563,
    "tel": "0859-24-0007",
    "url": "http://www.yowakai.com",
    "pref": "鳥取県",
    "city": "米子市",
    "category": "day_service",
    "serviceType": "通所介護",
    "capacity": 0,
    "openDays": [
      "平日",
      "土曜日",
      "祝日"
    ],
    "openDaysNote": "必要に応じ随時対応"
  },
  {
    "id": "3170200418",
    "name": "デイサービスセンター博愛苑",
    "kana": "デイサービスセンターハクアイエン",
    "address": "鳥取県米子市一部555番地",
    "lat": 35.4068362,
    "lng": 133.3969067,
    "tel": "0859-37-1101",
    "url": "http://www.hakuaikai-smile.jp/",
    "pref": "鳥取県",
    "city": "米子市",
    "category": "day_service",
    "serviceType": "通所介護",
    "capacity": 50,
    "openDays": [
      "平日",
      "土曜日",
      "祝日"
    ],
    "openDaysNote": ""
  },
  {
    "id": "3170202778",
    "name": "デイサービスよつば",
    "kana": "デイサービス　ヨツバ",
    "address": "鳥取県米子市上福原5丁目1－16",
    "lat": 35.447551,
    "lng": 133.3512486,
    "tel": "0859-21-4281",
    "url": "",
    "pref": "鳥取県",
    "city": "米子市",
    "category": "day_service",
    "serviceType": "通所介護",
    "capacity": null,
    "openDays": [
      "平日",
      "土曜日",
      "祝日"
    ],
    "openDaysNote": ""
  },
  {
    "id": "3170201879",
    "name": "デイサービス孫の手",
    "kana": "デイサービスマゴノテ",
    "address": "鳥取県米子市両三柳825あらかると孫の手 あらかると孫の手",
    "lat": 35.4521664,
    "lng": 133.3164754,
    "tel": "0859-30-0777",
    "url": "http://www.t-a-d.jp/",
    "pref": "鳥取県",
    "city": "米子市",
    "category": "day_service",
    "serviceType": "通所介護",
    "capacity": 0,
    "openDays": [
      "平日",
      "土曜日",
      "祝日"
    ],
    "openDaysNote": "夜間、早朝は留守番電話対応"
  },
  {
    "id": "3170201309",
    "name": "デイサービス孫の手別館ふれあい広場",
    "kana": "デイサービスマゴノテベッカンフレアイヒロバ",
    "address": "鳥取県米子市石井693-2",
    "lat": 35.4043911,
    "lng": 133.3442475,
    "tel": "0859-21-7391",
    "url": "http://www.t-a-d.jp/service_03.html",
    "pref": "鳥取県",
    "city": "米子市",
    "category": "day_service",
    "serviceType": "通所介護",
    "capacity": 0,
    "openDays": [
      "平日",
      "土曜日",
      "祝日"
    ],
    "openDaysNote": "夜間等は留守番電話応対で対応します。"
  },
  {
    "id": "3170202497",
    "name": "デイサービス如月",
    "kana": "デイサービスキサラギ",
    "address": "鳥取県米子市淀江町佐陀2087",
    "lat": 35.4486859760044,
    "lng": 133.397920797376,
    "tel": "0859-56-5500",
    "url": "https://noblelife.co.jp/",
    "pref": "鳥取県",
    "city": "米子市",
    "category": "day_service",
    "serviceType": "通所介護",
    "capacity": 35,
    "openDays": [
      "平日",
      "土曜日",
      "日曜日",
      "祝日"
    ],
    "openDaysNote": ""
  },
  {
    "id": "3170202240",
    "name": "デイサービス睦月",
    "kana": "デイサービスムツキ",
    "address": "鳥取県米子市淀江町佐陀1282-1",
    "lat": 35.4503290959543,
    "lng": 133.399126514256,
    "tel": "0859-56-5488",
    "url": "https://noblelife.co.jp/",
    "pref": "鳥取県",
    "city": "米子市",
    "category": "day_service",
    "serviceType": "通所介護",
    "capacity": 35,
    "openDays": [
      "平日",
      "土曜日",
      "日曜日",
      "祝日"
    ],
    "openDaysNote": ""
  },
  {
    "id": "3170200137",
    "name": "ハピネデイサービスセンター",
    "kana": "ハピネデイサービスセンター",
    "address": "鳥取県米子市久米町２００",
    "lat": 35.4252414,
    "lng": 133.3264646,
    "tel": "0859-31-8810",
    "url": "http://www.hapine.com",
    "pref": "鳥取県",
    "city": "米子市",
    "category": "day_service",
    "serviceType": "通所介護",
    "capacity": 0,
    "openDays": [
      "平日",
      "土曜日",
      "祝日"
    ],
    "openDaysNote": "なし"
  },
  {
    "id": "3170201853",
    "name": "ハピネデイサービスセンターはくほう",
    "kana": "ハピネデイサービスセンターハクホウ",
    "address": "鳥取県米子市皆生温泉3丁目１5番50号",
    "lat": 35.4563842808561,
    "lng": 133.364629372214,
    "tel": "0859-38-1113",
    "url": "http://www.hapine.com",
    "pref": "鳥取県",
    "city": "米子市",
    "category": "day_service",
    "serviceType": "通所介護",
    "capacity": 30,
    "openDays": [
      "平日",
      "土曜日",
      "祝日"
    ],
    "openDaysNote": "FAXにて毎日２４時間受付　　FAX番号０８５９－２２－２１８０"
  },
  {
    "id": "3170201234",
    "name": "ハピネデイサービスセンター両三柳",
    "kana": "ハピネデイサービスセンターリョウミツヤナギ",
    "address": "鳥取県米子市両三柳2066-1",
    "lat": 35.4517278,
    "lng": 133.332155,
    "tel": "0859-23-2455",
    "url": "http://www.hapine.com/",
    "pref": "鳥取県",
    "city": "米子市",
    "category": "day_service",
    "serviceType": "通所介護",
    "capacity": 30,
    "openDays": [
      "平日",
      "土曜日",
      "祝日"
    ],
    "openDaysNote": ""
  },
  {
    "id": "3170203198",
    "name": "みんなの処",
    "kana": "ミンナノトコロ",
    "address": "鳥取県米子市西倉吉町８８番地２",
    "lat": 35.4307403833295,
    "lng": 133.329705328697,
    "tel": "0859-21-4212",
    "url": "",
    "pref": "鳥取県",
    "city": "米子市",
    "category": "day_service",
    "serviceType": "通所介護",
    "capacity": 0,
    "openDays": [
      "平日"
    ],
    "openDaysNote": "月に一度の職員会議実施日は９時３０分～１２時３０分の営業時間となります。"
  },
  {
    "id": "3170202869",
    "name": "リハビリサポートデイサービスユーアイ",
    "kana": "リハビリサポートデイサービスユーアイ",
    "address": "鳥取県米子市米原5丁目5-1",
    "lat": 35.4442145,
    "lng": 133.3292497,
    "tel": "0859-21-0246",
    "url": "",
    "pref": "鳥取県",
    "city": "米子市",
    "category": "day_service",
    "serviceType": "通所介護",
    "capacity": 60,
    "openDays": [
      "平日",
      "土曜日",
      "祝日"
    ],
    "openDaysNote": ""
  },
  {
    "id": "3170202182",
    "name": "真誠会セントラルローズガーデン",
    "kana": "シンセイカイセントラルローズガーデン",
    "address": "鳥取県米子市西福原8丁目16-66",
    "lat": 35.4533585,
    "lng": 133.3430489,
    "tel": "0859-30-3330",
    "url": "http://www.hospitown.or.jp/",
    "pref": "鳥取県",
    "city": "米子市",
    "category": "day_service",
    "serviceType": "通所介護",
    "capacity": 0,
    "openDays": [
      "平日",
      "土曜日",
      "日曜日",
      "祝日"
    ],
    "openDaysNote": ""
  },
  {
    "id": "3170202885",
    "name": "通所介護　皆生ローズガーデン",
    "kana": "ツウショカイゴ　カイケローズガーデン",
    "address": "鳥取県米子市新開3-3-10",
    "lat": 35.4581356008515,
    "lng": 133.351305650262,
    "tel": "0859-36-8190",
    "url": "http://www.hospitown.or.jp/",
    "pref": "鳥取県",
    "city": "米子市",
    "category": "day_service",
    "serviceType": "通所介護",
    "capacity": 0,
    "openDays": [
      "平日",
      "土曜日",
      "祝日"
    ],
    "openDaysNote": ""
  },
  {
    "id": "3170200442",
    "name": "通所介護　弓浜ゆうとぴあ",
    "kana": "ツウショカイゴ　キュウヒンユウトピア",
    "address": "鳥取県米子市大崎1511番地1",
    "lat": 35.4736494,
    "lng": 133.2530832,
    "tel": "0859-48-2337",
    "url": "http://www.hospitown.or.jp/",
    "pref": "鳥取県",
    "city": "米子市",
    "category": "day_service",
    "serviceType": "通所介護",
    "capacity": 0,
    "openDays": [
      "平日",
      "土曜日",
      "日曜日",
      "祝日"
    ],
    "openDaysNote": "日曜のご利用者は無し。"
  },
  {
    "id": "3170202000",
    "name": "通所介護　真誠会ローズガーデン",
    "kana": "ツウショカイゴ　シンセイカイローズガーデン",
    "address": "鳥取県米子市冨士見町6番地6",
    "lat": 35.4334491,
    "lng": 133.3367552,
    "tel": "0859-30-2288",
    "url": "http://www.hospitown.or.jp/",
    "pref": "鳥取県",
    "city": "米子市",
    "category": "day_service",
    "serviceType": "通所介護",
    "capacity": 0,
    "openDays": [
      "平日",
      "土曜日",
      "祝日"
    ],
    "openDaysNote": ""
  },
  {
    "id": "3170201937",
    "name": "伯仙デイサービスセンターまごころ",
    "kana": "ハクセンデイサービスセンターマゴコロ",
    "address": "鳥取県米子市河岡110番地1伯仙デイサービスセンターまごころ 伯仙デイサービスセンターまごころ",
    "lat": 35.4037314079741,
    "lng": 133.40764975267,
    "tel": "0859-27-5762",
    "url": "",
    "pref": "鳥取県",
    "city": "米子市",
    "category": "day_service",
    "serviceType": "通所介護",
    "capacity": 30,
    "openDays": [
      "平日",
      "土曜日",
      "祝日"
    ],
    "openDaysNote": "祝祭日でも通常通りのサービス提供をしています。（改行）（改行）一人ひとりにあった対応を心がけ皆様のご要望にお応えいたします。"
  },
  {
    "id": "3170200749",
    "name": "富益しあわせデイサービス",
    "kana": "トミマスシアワセデイサービス",
    "address": "鳥取県米子市富益町235番地8",
    "lat": 35.4827545,
    "lng": 133.2779865,
    "tel": "0859-25-6811",
    "url": "http://www.hospitown.or.jp/",
    "pref": "鳥取県",
    "city": "米子市",
    "category": "day_service",
    "serviceType": "通所介護",
    "capacity": 0,
    "openDays": [
      "平日",
      "土曜日",
      "日曜日",
      "祝日"
    ],
    "openDaysNote": ""
  },
  {
    "id": "3171400983",
    "name": "デイサービスセンターくるみの木",
    "kana": "デイサービスセンタークルミノキ",
    "address": "鳥取県東伯郡北栄町松神145－1",
    "lat": 35.4852391,
    "lng": 133.7967963,
    "tel": "0858-36-1303",
    "url": "https://kurumi.hp.peraichi.com/",
    "pref": "鳥取県",
    "city": "北栄町",
    "category": "day_service",
    "serviceType": "通所介護",
    "capacity": 0,
    "openDays": [
      "平日",
      "土曜日",
      "祝日"
    ],
    "openDaysNote": "年末年始休みあり（12月31日～1月3日）"
  },
  {
    "id": "3171400801",
    "name": "べるびゅー大栄　デイサービス楽園",
    "kana": "ベルビューダイエイ　デイサービスラクエン",
    "address": "鳥取県東伯郡北栄町六尾2005",
    "lat": 35.4809809,
    "lng": 133.760808,
    "tel": "0858-37-6655",
    "url": "",
    "pref": "鳥取県",
    "city": "北栄町",
    "category": "day_service",
    "serviceType": "通所介護",
    "capacity": 0,
    "openDays": [
      "平日",
      "土曜日",
      "祝日"
    ],
    "openDaysNote": ""
  },
  {
    "id": "3171400686",
    "name": "社会福祉法人　北栄町社会福祉協議会　北条デイサービスセンター",
    "kana": "シャカイフクシホウジン　ホクエイチョウシャカイフクシキョウギカイ　ホウジョウデイサービスセンター",
    "address": "鳥取県東伯郡北栄町土下118番地5",
    "lat": 35.4782349,
    "lng": 133.8208082,
    "tel": "0858-36-4738",
    "url": "hokuei-syakyo.or.jp",
    "pref": "鳥取県",
    "city": "北栄町",
    "category": "day_service",
    "serviceType": "通所介護",
    "capacity": 0,
    "openDays": [
      "平日",
      "土曜日",
      "祝日"
    ],
    "openDaysNote": ""
  },
  {
    "id": "3171400652",
    "name": "社会福祉法人北栄町社会福祉協議会　デイサービスセンターほくえい",
    "kana": "シャカイフクシホウジンホクエイチョウシャカイフクシキョウギカイデイサービスセンターホクエイ",
    "address": "鳥取県東伯郡北栄町瀬戸２９番地９",
    "lat": 35.4814142,
    "lng": 133.775565,
    "tel": "0858-37-4522",
    "url": "http://hokuei-sykyo.or.jp/",
    "pref": "鳥取県",
    "city": "北栄町",
    "category": "day_service",
    "serviceType": "通所介護",
    "capacity": 0,
    "openDays": [
      "平日",
      "土曜日",
      "祝日"
    ],
    "openDaysNote": ""
  },
  {
    "id": "3171401007",
    "name": "宿泊付デイサービス　れいんぼぅびれっじ",
    "kana": "シュクハクツキデイサービス　レインボゥビレッジ",
    "address": "鳥取県東伯郡北栄町亀谷1461番地１",
    "lat": 35.4698152,
    "lng": 133.755156,
    "tel": "0858-49-6225",
    "url": "",
    "pref": "鳥取県",
    "city": "北栄町",
    "category": "day_service",
    "serviceType": "通所介護",
    "capacity": null,
    "openDays": [
      "平日",
      "土曜日",
      "日曜日",
      "祝日"
    ],
    "openDaysNote": "全日９：００～17：００の営業時間です。"
  },
  {
    "id": "3171400793",
    "name": "北栄デイサービスセンターあずま園",
    "kana": "ホクエイデイサービスセンターアズマエン",
    "address": "鳥取県東伯郡北栄町東園３２９番地",
    "lat": 35.4874608,
    "lng": 133.783178,
    "tel": "0858-37-4804",
    "url": "http://azumaen.net/index.php",
    "pref": "鳥取県",
    "city": "北栄町",
    "category": "day_service",
    "serviceType": "通所介護",
    "capacity": 25,
    "openDays": [
      "平日",
      "土曜日",
      "祝日"
    ],
    "openDaysNote": "その他１２月３１日から１月２日は休み（改行）日曜日（上記正月休み期間も同じく）は宿泊者のみ同法人アロハデイサービスで対応している。"
  },
  {
    "id": "3171400702",
    "name": "北栄みのりデイサービスセンター",
    "kana": "ホクエイミノリデイサービスセンター",
    "address": "鳥取県東伯郡北栄町東園218-1",
    "lat": 35.4866331,
    "lng": 133.7889692,
    "tel": "0858-37-6078",
    "url": "https://minorifukusikai.com/",
    "pref": "鳥取県",
    "city": "北栄町",
    "category": "day_service",
    "serviceType": "通所介護",
    "capacity": 27,
    "openDays": [
      "平日",
      "土曜日",
      "日曜日",
      "祝日"
    ],
    "openDaysNote": ""
  }
]