[
  {
    "id": "4670500190",
    "name": "いちき串木野市社協指定通所介護事業所",
    "kana": "イチキクシキノシシャキョウシテイツウショカイゴジギョウショ",
    "address": "鹿児島県いちき串木野市新生町183番地",
    "lat": 31.7102197,
    "lng": 130.2651626,
    "tel": "0996-33-3180",
    "url": "http://www.shakyo.or.jp/hp/1743/",
    "pref": "鹿児島県",
    "city": "いちき串木野市",
    "category": "day_service",
    "serviceType": "通所介護",
    "capacity": 35,
    "openDays": [
      "平日",
      "土曜日",
      "祝日"
    ],
    "openDaysNote": "祝日は年に数回営業あり。"
  },
  {
    "id": "4670500414",
    "name": "デイサービスHOMEBASE",
    "kana": "デイサービスホームベース",
    "address": "鹿児島県いちき串木野市旭町６１番",
    "lat": 31.7183365,
    "lng": 130.267717,
    "tel": "0996-26-1456",
    "url": "",
    "pref": "鹿児島県",
    "city": "いちき串木野市",
    "category": "day_service",
    "serviceType": "通所介護",
    "capacity": 20,
    "openDays": [
      "平日",
      "祝日"
    ],
    "openDaysNote": ""
  },
  {
    "id": "4670500273",
    "name": "市来デイサービスセンター",
    "kana": "イチキデイサービスセンタ",
    "address": "鹿児島県いちき串木野市湊町１丁目１００番地",
    "lat": 31.6940693,
    "lng": 130.2884224,
    "tel": "0996-21-5033",
    "url": "",
    "pref": "鹿児島県",
    "city": "いちき串木野市",
    "category": "day_service",
    "serviceType": "通所介護",
    "capacity": null,
    "openDays": [
      "平日",
      "土曜日",
      "祝日"
    ],
    "openDaysNote": ""
  },
  {
    "id": "4670500075",
    "name": "潮風園デイサービスセンター",
    "kana": "チョウフウエンデイサービスセンター",
    "address": "別府３５６０－１１",
    "lat": 31.6957493734325,
    "lng": 130.284911118308,
    "tel": "0996-32-5851",
    "url": "https://chofuen.terushima.com",
    "pref": "鹿児島県",
    "city": "いちき串木野市",
    "category": "day_service",
    "serviceType": "通所介護",
    "capacity": 0,
    "openDays": [
      "平日",
      "祝日"
    ],
    "openDaysNote": ""
  },
  {
    "id": "4674000072",
    "name": "アルテンハイム鶴宮園デイサービスセンター",
    "kana": "アルテンハイムツルミヤエンデイサービスセンター",
    "address": "鹿児島県薩摩郡さつま町紫尾4077-1",
    "lat": 31.9508818,
    "lng": 130.4349254,
    "tel": "0996-59-8051",
    "url": "http://tsurumiyaen.jp/",
    "pref": "鹿児島県",
    "city": "さつま町",
    "category": "day_service",
    "serviceType": "通所介護",
    "capacity": 0,
    "openDays": [
      "平日",
      "土曜日",
      "祝日"
    ],
    "openDaysNote": "台風・大雪等天候によっては休業することがあります。"
  },
  {
    "id": "4674100062",
    "name": "さつま園デイサービスセンター",
    "kana": "サツマエンデイサービスセンター",
    "address": "鹿児島県薩摩郡さつま町求名13341番地1特別養護老人ホームさつま園 特別養護老人ホームさつま園",
    "lat": 31.9176492,
    "lng": 130.5366062,
    "tel": "0996-57-1991",
    "url": "http://satsumaen.jp/",
    "pref": "鹿児島県",
    "city": "さつま町",
    "category": "day_service",
    "serviceType": "通所介護",
    "capacity": 40,
    "openDays": [
      "平日",
      "土曜日",
      "祝日"
    ],
    "openDaysNote": "８／１３～８／１５　　１２／２９　　１２／３１～１／３"
  },
  {
    "id": "4673900074",
    "name": "デイサービスセンタークオラｉマモリエ",
    "kana": "デイサービスセンタークオラアイマモリエ",
    "address": "薩摩郡さつま町船木2315-1",
    "lat": 31.8739155,
    "lng": 130.4403263,
    "tel": "0996-52-1193",
    "url": "http://www.qoler.jp",
    "pref": "鹿児島県",
    "city": "さつま町",
    "category": "day_service",
    "serviceType": "通所介護",
    "capacity": 43,
    "openDays": [
      "平日",
      "土曜日",
      "祝日"
    ],
    "openDaysNote": "台風や大雪などの場合、休むことがあります。"
  },
  {
    "id": "4670600370",
    "name": "デイサービスセンター翠香苑",
    "kana": "デイサービスセンタースイコウエン",
    "address": "鹿児島県阿久根市赤瀬川2730番地",
    "lat": 32.0365405,
    "lng": 130.2144936,
    "tel": "0996-72-7180",
    "url": "https://www.ohjin-kai.com",
    "pref": "鹿児島県",
    "city": "阿久根市",
    "category": "day_service",
    "serviceType": "通所介護",
    "capacity": null,
    "openDays": [
      "平日",
      "土曜日",
      "祝日"
    ],
    "openDaysNote": ""
  },
  {
    "id": "4675200283",
    "name": "さくらデイサービス",
    "kana": "サクラデイサービス",
    "address": "鹿児島県姶良市加治木町木田９０９番地1さくら静寿会 さくら静寿会",
    "lat": 31.7347244,
    "lng": 130.6492226,
    "tel": "0995-62-6221",
    "url": "http:/www.sakuraseijyukai.com/",
    "pref": "鹿児島県",
    "city": "姶良市",
    "category": "day_service",
    "serviceType": "通所介護",
    "capacity": 40,
    "openDays": [
      "平日",
      "土曜日",
      "日曜日",
      "祝日"
    ],
    "openDaysNote": ""
  },
  {
    "id": "4674500808",
    "name": "デイサービスかわせみ",
    "kana": "デイサービスカワセミ",
    "address": "鹿児島県姶良市三拾町１９１６番地",
    "lat": 31.7516853661701,
    "lng": 130.618553923179,
    "tel": "0995-55-1500",
    "url": "https://greenleaf-life.com",
    "pref": "鹿児島県",
    "city": "姶良市",
    "category": "day_service",
    "serviceType": "通所介護",
    "capacity": 0,
    "openDays": [
      "平日",
      "土曜日",
      "日曜日",
      "祝日"
    ],
    "openDaysNote": ""
  },
  {
    "id": "4674500691",
    "name": "デイサービスすずらん",
    "kana": "デイサービススズラン",
    "address": "鹿児島県姶良市大山300-1有料老人ホームフローラ 有料老人ホームフローラ",
    "lat": 31.7659501,
    "lng": 130.624862,
    "tel": "0995-55⁻8885",
    "url": "https://careline-group.jp",
    "pref": "鹿児島県",
    "city": "姶良市",
    "category": "day_service",
    "serviceType": "通所介護",
    "capacity": 0,
    "openDays": [
      "平日",
      "土曜日",
      "日曜日",
      "祝日"
    ],
    "openDaysNote": ""
  },
  {
    "id": "4674500758",
    "name": "デイサービスセンターあいら",
    "kana": "デイサービスセンターアイラ",
    "address": "鹿児島県姶良市西餅田1330-3",
    "lat": 31.7380844,
    "lng": 130.6255969,
    "tel": "995568401",
    "url": "http://eiwakai.jp",
    "pref": "鹿児島県",
    "city": "姶良市",
    "category": "day_service",
    "serviceType": "通所介護",
    "capacity": 0,
    "openDays": [
      "平日",
      "土曜日",
      "祝日"
    ],
    "openDaysNote": "1/1は休業となります。"
  },
  {
    "id": "4674500899",
    "name": "デイサービスセンターマナ",
    "kana": "デイサービスセンターマナ",
    "address": "平松１２５１番地",
    "lat": null,
    "lng": null,
    "tel": "0995-66-9157",
    "url": "http://www.sws-santo.jp",
    "pref": "鹿児島県",
    "city": "姶良市",
    "category": "day_service",
    "serviceType": "通所介護",
    "capacity": null,
    "openDays": [
      "平日",
      "土曜日"
    ],
    "openDaysNote": ""
  },
  {
    "id": "4674500840",
    "name": "デイサービスセンターやすらぎの里",
    "kana": "デイサービスセンターヤスラギノサト",
    "address": "姶良市下名2992鹿児島県姶良市下名2992番地 鹿児島県姶良市下名2992番地",
    "lat": 31.7676758,
    "lng": 130.6190958,
    "tel": "0995-66-5353",
    "url": "https://www.aira-yasuragi.com/service/day-care-service/",
    "pref": "鹿児島県",
    "city": "姶良市",
    "category": "day_service",
    "serviceType": "通所介護",
    "capacity": null,
    "openDays": [
      "平日",
      "土曜日",
      "祝日"
    ],
    "openDaysNote": ""
  },
  {
    "id": "4674500634",
    "name": "デイサービス陽！いっど！！",
    "kana": "デイサービスティダ！イッド！！",
    "address": "鹿児島県姶良市西餅田３３０６－１デイサービス陽！いっど！！ デイサービス陽！いっど！！",
    "lat": 31.7191196528654,
    "lng": 130.621965213492,
    "tel": "0995-55-8824",
    "url": "http://taiyounokaze.jp",
    "pref": "鹿児島県",
    "city": "姶良市",
    "category": "day_service",
    "serviceType": "通所介護",
    "capacity": 30,
    "openDays": [
      "平日",
      "土曜日",
      "祝日"
    ],
    "openDaysNote": "ただし、年末年始（12月30日～1月3日）は休業とする。"
  },
  {
    "id": "4674501004",
    "name": "ナルホイヤ在宅生活研究所",
    "kana": "ナルホイヤザイタクセイカツケンキュウジョ",
    "address": "鹿児島県姶良市蒲生町上久徳2396",
    "lat": 31.7615075,
    "lng": 130.5698603,
    "tel": "0995-70-0333",
    "url": "",
    "pref": "鹿児島県",
    "city": "姶良市",
    "category": "day_service",
    "serviceType": "通所介護",
    "capacity": null,
    "openDays": [
      "平日"
    ],
    "openDaysNote": ""
  },
  {
    "id": "4674500667",
    "name": "まほろあいらデイサービスセンター",
    "kana": "マホロアイラデイサービスセンター",
    "address": "鹿児島県姶良市平松3415番地1",
    "lat": 31.7193340100256,
    "lng": 130.597391370703,
    "tel": "0995-73-7812",
    "url": "http://mahoro-aira.jp",
    "pref": "鹿児島県",
    "city": "姶良市",
    "category": "day_service",
    "serviceType": "通所介護",
    "capacity": 0,
    "openDays": [
      "平日",
      "土曜日",
      "祝日"
    ],
    "openDaysNote": ""
  },
  {
    "id": "4674500451",
    "name": "みやまデイサービス",
    "kana": "ミヤマデイサービス",
    "address": "深水25-4",
    "lat": 31.7594864798005,
    "lng": 130.619346593538,
    "tel": "0995-73-3788",
    "url": "https://greenleaf-life.com",
    "pref": "鹿児島県",
    "city": "姶良市",
    "category": "day_service",
    "serviceType": "通所介護",
    "capacity": 0,
    "openDays": [
      "平日",
      "土曜日",
      "日曜日",
      "祝日"
    ],
    "openDaysNote": ""
  },
  {
    "id": "4674500295",
    "name": "リハケアウイングあいら",
    "kana": "リハケアウイングアイラ",
    "address": "鹿児島県姶良市東餅田1442-1",
    "lat": 31.7301501,
    "lng": 130.6376041,
    "tel": "0995-65-7200",
    "url": "http://wing-smile.com",
    "pref": "鹿児島県",
    "city": "姶良市",
    "category": "day_service",
    "serviceType": "通所介護",
    "capacity": 34,
    "openDays": [
      "平日",
      "土曜日",
      "祝日"
    ],
    "openDaysNote": ""
  },
  {
    "id": "4674500246",
    "name": "リハケアガーデン加治木",
    "kana": "リハケアガーデンカジキ",
    "address": "加治木町本町１４８",
    "lat": 31.7372798,
    "lng": 130.6669718,
    "tel": "0995-70-0401",
    "url": "http://unity-g.com",
    "pref": "鹿児島県",
    "city": "姶良市",
    "category": "day_service",
    "serviceType": "通所介護",
    "capacity": 40,
    "openDays": [
      "平日",
      "土曜日",
      "祝日"
    ],
    "openDaysNote": "年末年始（12/30～1/3）は休業"
  },
  {
    "id": "4675300075",
    "name": "在宅ケアセンターさざんか園",
    "kana": "ザイタクケアセンターサザンカエン",
    "address": "姶良市東餅田3352番地1",
    "lat": 31.7253668,
    "lng": 130.6333168,
    "tel": "0995-67-0887",
    "url": "http://kenshofukushikai.com",
    "pref": "鹿児島県",
    "city": "姶良市",
    "category": "day_service",
    "serviceType": "通所介護",
    "capacity": 0,
    "openDays": [
      "平日",
      "土曜日",
      "祝日"
    ],
    "openDaysNote": "上記記載の時間以外でも２４時間３６５日電話対応可能です。"
  },
  {
    "id": "4674500188",
    "name": "通所介護・こっこの家",
    "kana": "ツウショカイゴ・コッコノイエ",
    "address": "鹿児島県姶良市東餅田567番地10",
    "lat": 31.7334107017024,
    "lng": 130.634658504894,
    "tel": "0995-65-0651",
    "url": "https://www.kokkonoie.com/",
    "pref": "鹿児島県",
    "city": "姶良市",
    "category": "day_service",
    "serviceType": "通所介護",
    "capacity": 32,
    "openDays": [
      "平日",
      "土曜日",
      "日曜日",
      "祝日"
    ],
    "openDaysNote": ""
  },
  {
    "id": "4674400223",
    "name": "星空の里共生型通所介護事業所",
    "kana": "ホシゾラノサトキョウセイガタツウショカイゴジギョウショ",
    "address": "鹿児島県伊佐市大口宮人463-33",
    "lat": 32.0260705,
    "lng": 130.5748332,
    "tel": "0995-24-2511",
    "url": "http://www.daiichikai.or.jp",
    "pref": "鹿児島県",
    "city": "伊佐市",
    "category": "day_service",
    "serviceType": "通所介護",
    "capacity": 0,
    "openDays": [
      "平日",
      "土曜日",
      "祝日"
    ],
    "openDaysNote": ""
  },
  {
    "id": "4679300063",
    "name": "にこにこ指定通所介護事業所",
    "kana": "ニコニコシテイツウショカイゴジギョウショ",
    "address": "鹿児島県大島郡伊仙町伊仙2124-2",
    "lat": 27.6764918689578,
    "lng": 128.938971291016,
    "tel": "0997-86-3344",
    "url": "tokunosima_fukusikai@image.ocn,ne.jp",
    "pref": "鹿児島県",
    "city": "伊仙町",
    "category": "day_service",
    "serviceType": "通所介護",
    "capacity": 0,
    "openDays": [
      "平日",
      "土曜日",
      "祝日"
    ],
    "openDaysNote": "・感染症対策や台風など災害による営業時間の変更または休むこともあります。"
  },
  {
    "id": "4670701046",
    "name": "デイサービスあさに",
    "kana": "デイサービスアサニ",
    "address": "名瀬朝仁新町11-37",
    "lat": 28.39734,
    "lng": 129.4836023,
    "tel": "0997-55-0250",
    "url": "http://tokushukai-amami-area.com/pg51.html",
    "pref": "鹿児島県",
    "city": "奄美市",
    "category": "day_service",
    "serviceType": "通所介護",
    "capacity": 30,
    "openDays": [
      "平日",
      "土曜日",
      "祝日"
    ],
    "openDaysNote": "12月30日は14：30まで"
  },
  {
    "id": "4678700016",
    "name": "デイサービスセンター住用の園",
    "kana": "デイサービスセンタースミヨウノソノ",
    "address": "鹿児島県奄美市住用町大字摺勝字俊勝袋451番3",
    "lat": 28.2947955780349,
    "lng": 129.441827798781,
    "tel": "０９９７－５６－２１０２",
    "url": "http:/sumiyounosono.jp/",
    "pref": "鹿児島県",
    "city": "奄美市",
    "category": "day_service",
    "serviceType": "通所介護",
    "capacity": 25,
    "openDays": [
      "平日",
      "土曜日",
      "祝日"
    ],
    "openDaysNote": "旧盆の7月13日～15日及び12月29日～1月3日は定休日"
  },
  {
    "id": "4670700113",
    "name": "めぐみの園デイサービスセンター",
    "kana": "メグミノソノデイサービスセンター",
    "address": "鹿児島県奄美市名瀬大字西仲勝965番地",
    "lat": 28.3245035,
    "lng": 129.5095244,
    "tel": "0997-54-9211",
    "url": "http://megumino.kobira07.info/",
    "pref": "鹿児島県",
    "city": "奄美市",
    "category": "day_service",
    "serviceType": "通所介護",
    "capacity": 0,
    "openDays": [
      "平日",
      "土曜日",
      "祝日"
    ],
    "openDaysNote": "特になし"
  },
  {
    "id": "4670701350",
    "name": "リハプライド奄美",
    "kana": "リハプライドアマミ",
    "address": "鹿児島県奄美市名瀬有屋町19-6",
    "lat": 28.3930584,
    "lng": 129.5297105,
    "tel": "0997-69-3603",
    "url": "https://www.rehapride.co.jp/amami/",
    "pref": "鹿児島県",
    "city": "奄美市",
    "category": "day_service",
    "serviceType": "通所介護",
    "capacity": 20,
    "openDays": [
      "平日",
      "祝日"
    ],
    "openDaysNote": ""
  },
  {
    "id": "4670700089",
    "name": "芦穂の里デイサービスセンター",
    "kana": "アシホノサトデイサービスセンター",
    "address": "名瀬大字芦花部字不津1470番地",
    "lat": 28.445751,
    "lng": 129.539118,
    "tel": "０９９７－５４－６００２",
    "url": "",
    "pref": "鹿児島県",
    "city": "奄美市",
    "category": "day_service",
    "serviceType": "通所介護",
    "capacity": 0,
    "openDays": [
      "平日",
      "土曜日",
      "祝日"
    ],
    "openDaysNote": "年末年始休み"
  },
  {
    "id": "4670700782",
    "name": "通所介護事業所　ハピネス浦上",
    "kana": "ツウショカイゴジギョウショ　ハピネスウラガミ",
    "address": "鹿児島県奄美市名瀬浦上字緑1105ハピネス浦上 ハピネス浦上",
    "lat": 28.3945277,
    "lng": 129.5334779,
    "tel": "0997-57-7555",
    "url": "http://happiness-uragami.net/",
    "pref": "鹿児島県",
    "city": "奄美市",
    "category": "day_service",
    "serviceType": "通所介護",
    "capacity": 20,
    "openDays": [
      "平日",
      "土曜日",
      "祝日"
    ],
    "openDaysNote": ""
  },
  {
    "id": "4670701202",
    "name": "名瀬徳洲会介護センター",
    "kana": "ナゼトクシュウカイカイゴセンター",
    "address": "鹿児島県奄美市名瀬朝日町14-10",
    "lat": 28.3979383,
    "lng": 129.5254838,
    "tel": "0997-54-2296",
    "url": "",
    "pref": "鹿児島県",
    "city": "奄美市",
    "category": "day_service",
    "serviceType": "通所介護",
    "capacity": 0,
    "openDays": [
      "平日",
      "土曜日",
      "祝日"
    ],
    "openDaysNote": ""
  },
  {
    "id": "4678200264",
    "name": "デイサービス安房の丘",
    "kana": "デイサービスアンボウノオカ",
    "address": "安房向江野2354-14デイサービス安房の丘 デイサービス安房の丘",
    "lat": 30.3144375,
    "lng": 130.65552,
    "tel": "0997-49-7222",
    "url": "",
    "pref": "鹿児島県",
    "city": "屋久島町",
    "category": "day_service",
    "serviceType": "通所介護",
    "capacity": 25,
    "openDays": [
      "平日",
      "土曜日",
      "祝日"
    ],
    "openDaysNote": "年末31日~1月3日はお休みさせて頂きます"
  },
  {
    "id": "4678200181",
    "name": "屋久島町社協　通所介護事業所　こまどり館",
    "kana": "ヤクシマチョウシャキョウ　ツウショカイゴジギョウショ　コマドリカン",
    "address": "鹿児島県熊毛郡屋久島町尾之間459-1",
    "lat": 30.2365361,
    "lng": 130.5573893,
    "tel": "0997-47-3232",
    "url": "yakushima-syakyo.jp",
    "pref": "鹿児島県",
    "city": "屋久島町",
    "category": "day_service",
    "serviceType": "通所介護",
    "capacity": 0,
    "openDays": [
      "平日",
      "土曜日",
      "祝日"
    ],
    "openDaysNote": "特になし"
  },
  {
    "id": "4678200173",
    "name": "屋久島町社協デイサービスセンター縄文の苑",
    "kana": "ヤクシマチョウシャキョウデイサービスセンタージョウモンノソノ",
    "address": "鹿児島県熊毛郡屋久島町宮之浦２４６７番地１９屋久島町福祉センター縄文の苑 屋久島町福祉センター縄文の苑",
    "lat": 30.417941,
    "lng": 130.5878887,
    "tel": "0997-42-2711",
    "url": "",
    "pref": "鹿児島県",
    "city": "屋久島町",
    "category": "day_service",
    "serviceType": "通所介護",
    "capacity": 0,
    "openDays": [
      "平日",
      "土曜日",
      "祝日"
    ],
    "openDaysNote": ""
  },
  {
    "id": "4677300164",
    "name": "デイサービスあい",
    "kana": "デイサービスアイ",
    "address": "鹿児島県肝属郡肝付町新富６６７４－４",
    "lat": 42.7169104,
    "lng": -81.1922191,
    "tel": "０９９４－６５－２４６８",
    "url": "https://www.big-advance.site/s/189/1525",
    "pref": "鹿児島県",
    "city": "肝付町",
    "category": "day_service",
    "serviceType": "通所介護",
    "capacity": 30,
    "openDays": [
      "平日",
      "土曜日",
      "祝日"
    ],
    "openDaysNote": "年末年始は休まず営業いたします"
  },
  {
    "id": "4677300313",
    "name": "デイサービスセンター　星乃花",
    "kana": "デイサービスセンター　ホノカ",
    "address": "鹿児島県肝属郡肝付町後田2620番地",
    "lat": 31.3421693319121,
    "lng": 130.92296015454,
    "tel": "0994-36-8181",
    "url": "",
    "pref": "鹿児島県",
    "city": "肝付町",
    "category": "day_service",
    "serviceType": "通所介護",
    "capacity": 25,
    "openDays": [
      "平日",
      "土曜日",
      "日曜日",
      "祝日"
    ],
    "openDaysNote": "・サービス延長の依頼があった場合、19時00分まで営業（改行）・休業日：やむおえない理由がある場合のみ"
  },
  {
    "id": "4677400048",
    "name": "花神荘デイサービスセンター",
    "kana": "カシンソウデイサービスセンター",
    "address": "肝属郡肝付町後田5375番地",
    "lat": 31.3327513,
    "lng": 130.92187,
    "tel": "0994-65-4744",
    "url": "",
    "pref": "鹿児島県",
    "city": "肝付町",
    "category": "day_service",
    "serviceType": "通所介護",
    "capacity": 0,
    "openDays": [
      "平日",
      "土曜日",
      "祝日"
    ],
    "openDaysNote": ""
  },
  {
    "id": "4677300057",
    "name": "銀河の里デイサービスセンター",
    "kana": "ギンガノサトデイサービスセンター",
    "address": "鹿児島県肝属郡肝付町北方588番地",
    "lat": 31.2791437,
    "lng": 131.0551279,
    "tel": "0994-67-3313",
    "url": "https://utinourakai.com/",
    "pref": "鹿児島県",
    "city": "肝付町",
    "category": "day_service",
    "serviceType": "通所介護",
    "capacity": 0,
    "openDays": [
      "平日",
      "土曜日",
      "祝日"
    ],
    "openDaysNote": ""
  },
  {
    "id": "4679000192",
    "name": "デイサービスオアシスケア喜界",
    "kana": "デイサービスオアシスケアキカイ",
    "address": "鹿児島県大島郡喜界町大字赤連65番地",
    "lat": 28.3188665,
    "lng": 129.9424958,
    "tel": "0997-65-2991",
    "url": "http://johsei.org/",
    "pref": "鹿児島県",
    "city": "喜界町",
    "category": "day_service",
    "serviceType": "通所介護",
    "capacity": 30,
    "openDays": [
      "平日",
      "祝日"
    ],
    "openDaysNote": ""
  },
  {
    "id": "4677600035",
    "name": "デイサービスセンターまつさき",
    "kana": "デイサービスセンターマツサキ",
    "address": "馬場１１３４‐１",
    "lat": 31.2382212,
    "lng": 130.7739926,
    "tel": "0994-22-1126",
    "url": "http://www.k-seizanso.jp/index.htm",
    "pref": "鹿児島県",
    "city": "錦江町",
    "category": "day_service",
    "serviceType": "通所介護",
    "capacity": 30,
    "openDays": [
      "平日",
      "土曜日",
      "祝日"
    ],
    "openDaysNote": "特になし"
  },
  {
    "id": "4677800049",
    "name": "デイサービスセンター南松園",
    "kana": "デイサービスセンターナンショウエン",
    "address": "鹿児島県肝属郡錦江町田代川原369番地",
    "lat": 31.1905602,
    "lng": 130.8358487,
    "tel": "0994-25-2771",
    "url": "http://nansyouen.jp/",
    "pref": "鹿児島県",
    "city": "錦江町",
    "category": "day_service",
    "serviceType": "通所介護",
    "capacity": 0,
    "openDays": [
      "平日",
      "土曜日",
      "祝日"
    ],
    "openDaysNote": ""
  },
  {
    "id": "4671500595",
    "name": "グレースガーデンデイサービス",
    "kana": "グレースガーデンデイサービス",
    "address": "鹿児島県薩摩川内市平佐町2850",
    "lat": 31.816833623533,
    "lng": 130.314341299861,
    "tel": "0996-20-2200",
    "url": "",
    "pref": "鹿児島県",
    "city": "薩摩川内市",
    "category": "day_service",
    "serviceType": "通所介護",
    "capacity": 0,
    "openDays": [
      "平日",
      "土曜日",
      "祝日"
    ],
    "openDaysNote": ""
  },
  {
    "id": "4671500421",
    "name": "ケアネット徳洲会鹿児島川内デイサービスセンター",
    "kana": "ケアネットトクシュウカイカゴシマセンダイデイサービスセンター",
    "address": "薩摩川内市宮内町2026-2",
    "lat": 31.8247434,
    "lng": 130.2882817,
    "tel": "0996-22-2002",
    "url": "http://www.carenet-tk.com/",
    "pref": "鹿児島県",
    "city": "薩摩川内市",
    "category": "day_service",
    "serviceType": "通所介護",
    "capacity": 30,
    "openDays": [
      "平日",
      "土曜日",
      "祝日"
    ],
    "openDaysNote": "年末年始（１２月３１日～１月３日）は休みます。（改行）電話での対応は出来ます。"
  },
  {
    "id": "4671500454",
    "name": "さくらリハ　デイサービス",
    "kana": "サクラリハ　デイサービス",
    "address": "宮崎町1885-6",
    "lat": 31.8048252157138,
    "lng": 130.320079666795,
    "tel": "0996-29-4356",
    "url": "",
    "pref": "鹿児島県",
    "city": "薩摩川内市",
    "category": "day_service",
    "serviceType": "通所介護",
    "capacity": 0,
    "openDays": [
      "平日",
      "土曜日",
      "祝日"
    ],
    "openDaysNote": ""
  },
  {
    "id": "4671500769",
    "name": "ﾃﾞｲｻｰﾋﾞｽｾﾝﾀｰあした天気になぁれ",
    "kana": "デイサービスセンターアシタテンキニナァレ",
    "address": "鹿児島県薩摩川内市水引町3415番地3",
    "lat": 31.8558029,
    "lng": 130.2333968,
    "tel": "0996-26-3220",
    "url": "",
    "pref": "鹿児島県",
    "city": "薩摩川内市",
    "category": "day_service",
    "serviceType": "通所介護",
    "capacity": 19,
    "openDays": [
      "平日",
      "土曜日",
      "祝日"
    ],
    "openDaysNote": ""
  },
  {
    "id": "4670200296",
    "name": "デイサービイスセンター　幸せの里",
    "kana": "デイサービスセンター　シアワセノサト",
    "address": "永利町　4311番地5",
    "lat": 31.8017112,
    "lng": 130.3527052,
    "tel": "0996-27-0533",
    "url": "http://shiawase-aiwakai.com",
    "pref": "鹿児島県",
    "city": "薩摩川内市",
    "category": "day_service",
    "serviceType": "通所介護",
    "capacity": 34,
    "openDays": [
      "平日",
      "土曜日"
    ],
    "openDaysNote": "特になし"
  },
  {
    "id": "4671500652",
    "name": "デイサービス　蔵の家",
    "kana": "デイサービス　クラノイエ",
    "address": "西開聞町１２番２号",
    "lat": 31.8148363,
    "lng": 130.2993004,
    "tel": "0996-29-5802",
    "url": "http://will-way-estate.co.jp/",
    "pref": "鹿児島県",
    "city": "薩摩川内市",
    "category": "day_service",
    "serviceType": "通所介護",
    "capacity": 0,
    "openDays": [
      "平日",
      "土曜日",
      "祝日"
    ],
    "openDaysNote": ""
  },
  {
    "id": "4670201278",
    "name": "デイサービスセンター　　かがやき",
    "kana": "デイサービスセンター　カガヤキ",
    "address": "鹿児島県薩摩川内市祁答院町上手500番地7",
    "lat": 31.8668962,
    "lng": 130.5138594,
    "tel": "0996-55-0077",
    "url": "ｈｔｔｐ：//ｗｗｗ.mikurakai.or.jp",
    "pref": "鹿児島県",
    "city": "薩摩川内市",
    "category": "day_service",
    "serviceType": "通所介護",
    "capacity": 0,
    "openDays": [
      "平日",
      "土曜日",
      "祝日"
    ],
    "openDaysNote": ""
  },
  {
    "id": "4671500884",
    "name": "デイサービスセンター　ラベンダー",
    "kana": "デイサービスセンター　ラベンダー",
    "address": "上川内町3293-1",
    "lat": 31.8331500358178,
    "lng": 130.286987991402,
    "tel": "0996-22-1123",
    "url": "sanjyukai.com",
    "pref": "鹿児島県",
    "city": "薩摩川内市",
    "category": "day_service",
    "serviceType": "通所介護",
    "capacity": 24,
    "openDays": [
      "平日",
      "祝日"
    ],
    "openDaysNote": "・年末年始休業あり（基本31日～1月2日）※暦の関係で変更されることあり"
  },
  {
    "id": "4670200288",
    "name": "デイサービスセンターはまかぜ園",
    "kana": "デイサービスセンターハマカゼエン",
    "address": "鹿児島県薩摩川内市西方町3111番地",
    "lat": 31.9155673,
    "lng": 130.2345548,
    "tel": "0996-28-1033",
    "url": "http://www.hamakazeen.com/",
    "pref": "鹿児島県",
    "city": "薩摩川内市",
    "category": "day_service",
    "serviceType": "通所介護",
    "capacity": 0,
    "openDays": [
      "平日",
      "土曜日",
      "祝日"
    ],
    "openDaysNote": "12月29日～1月3日休み"
  },
  {
    "id": "4671500520",
    "name": "デイサービスセンターリハシップあい隈之城",
    "kana": "デイサービスセンターリハシップアイクマノジョウ",
    "address": "鹿児島県薩摩川内市山之口町4747-1",
    "lat": 31.7816842,
    "lng": 130.3145612,
    "tel": "0996-29-5670",
    "url": "rehashipai.kumanojyo@gmail.com",
    "pref": "鹿児島県",
    "city": "薩摩川内市",
    "category": "day_service",
    "serviceType": "通所介護",
    "capacity": 25,
    "openDays": [
      "平日",
      "土曜日",
      "祝日"
    ],
    "openDaysNote": "年末年始のお休み12月29日～1月3日"
  },
  {
    "id": "4671500819",
    "name": "デイサービスセンターリハシップあい川内",
    "kana": "デイサービスセンターリハシップアイセンダイ",
    "address": "鹿児島県薩摩川内市原田町25番25号",
    "lat": 31.828600866755,
    "lng": 130.310096066134,
    "tel": "0996-22-7282",
    "url": "http://rehaship-ai.com/",
    "pref": "鹿児島県",
    "city": "薩摩川内市",
    "category": "day_service",
    "serviceType": "通所介護",
    "capacity": 30,
    "openDays": [
      "平日",
      "土曜日",
      "祝日"
    ],
    "openDaysNote": ""
  },
  {
    "id": "4670200130",
    "name": "デイサービスセンターわかまつ園",
    "kana": "デイサービスセンターワカマツエン",
    "address": "薩摩川内市高江町1653番地1",
    "lat": 31.8271838,
    "lng": 130.246516,
    "tel": "0996-25-2368",
    "url": "http://wakamatuen.jp/",
    "pref": "鹿児島県",
    "city": "薩摩川内市",
    "category": "day_service",
    "serviceType": "通所介護",
    "capacity": 38,
    "openDays": [
      "平日",
      "土曜日",
      "祝日"
    ],
    "openDaysNote": ""
  },
  {
    "id": "4671500835",
    "name": "デイサービス五代",
    "kana": "デイサービスゴダイ",
    "address": "鹿児島県薩摩川内市五代町１２４９番地5",
    "lat": 31.8336121002029,
    "lng": 130.274695412013,
    "tel": "0996-26ー0265",
    "url": "http://argoline.co.jp/",
    "pref": "鹿児島県",
    "city": "薩摩川内市",
    "category": "day_service",
    "serviceType": "通所介護",
    "capacity": 0,
    "openDays": [
      "平日",
      "土曜日",
      "日曜日",
      "祝日"
    ],
    "openDaysNote": ""
  },
  {
    "id": "4673800043",
    "name": "とうごう苑　デイサービスセンター",
    "kana": "トウゴウエン　デイサービスセンター",
    "address": "東郷町斧渕２５０１番地",
    "lat": 31.857005,
    "lng": 130.3629741,
    "tel": "０９９６－４２－２１１１",
    "url": "http://tougouen.jp",
    "pref": "鹿児島県",
    "city": "薩摩川内市",
    "category": "day_service",
    "serviceType": "通所介護",
    "capacity": 0,
    "openDays": [
      "平日",
      "土曜日",
      "祝日"
    ],
    "openDaysNote": ""
  },
  {
    "id": "4674200045",
    "name": "のぞみ園デイサービスセンター",
    "kana": "ノゾミエンデイサービスセンター",
    "address": "祁答院町藺牟田2153番地1",
    "lat": 31.8097809139154,
    "lng": 130.485193790877,
    "tel": "0996-56-0228",
    "url": "www.tokuyou-nozomien-1974.jp/pg56.html",
    "pref": "鹿児島県",
    "city": "薩摩川内市",
    "category": "day_service",
    "serviceType": "通所介護",
    "capacity": 0,
    "openDays": [
      "平日",
      "土曜日",
      "祝日"
    ],
    "openDaysNote": ""
  },
  {
    "id": "4670200213",
    "name": "社会福祉法人　白寿会　　白寿園デイサービスセンター",
    "kana": "シャカイフクシホウジン　ハクジュカイ　ハクジュエンデイサービスセンター",
    "address": "鹿児島県薩摩川内市中福良町２９１１－１",
    "lat": 31.787683,
    "lng": 130.2956405,
    "tel": "0996-23-0121",
    "url": "https://hakujyuen.info",
    "pref": "鹿児島県",
    "city": "薩摩川内市",
    "category": "day_service",
    "serviceType": "通所介護",
    "capacity": 25,
    "openDays": [
      "平日",
      "土曜日",
      "祝日"
    ],
    "openDaysNote": ""
  },
  {
    "id": "4671501429",
    "name": "仁合院デイサービスセンター",
    "kana": "ニゴウインデイサービスセンター",
    "address": "鹿児島県薩摩川内市田崎町630-3特別養護老人ホーム　仁合院 特別養護老人ホーム　仁合院",
    "lat": 31.8193117,
    "lng": 130.3290477,
    "tel": "0996-21-1515",
    "url": "ichihuku.jp",
    "pref": "鹿児島県",
    "city": "薩摩川内市",
    "category": "day_service",
    "serviceType": "通所介護",
    "capacity": 30,
    "openDays": [
      "平日",
      "土曜日",
      "祝日"
    ],
    "openDaysNote": "・利用者の希望等により、事業所がやむを得ないと判断した場合は、上記の営業日に関わらず変更できる　ものとする。（改行）・サービスを受けようとする利用者は、サービスの利用の際に、体調の異常や異変があれば、その旨を申　し出ること。（改行）・サービスの提供を受けようとする利用者は、機能訓練の器具を取り扱う際は、従業者の指示に従うこ　　と。"
  },
  {
    "id": "4673600039",
    "name": "翠泉苑デイサービスセンター",
    "kana": "スイセンエンデイサービスセンター",
    "address": "鹿児島県薩摩川内市樋脇町市比野3200番地118",
    "lat": 31.7870184,
    "lng": 130.3949719,
    "tel": "0996-38-1515",
    "url": "http://ichihuku.jp/index.html",
    "pref": "鹿児島県",
    "city": "薩摩川内市",
    "category": "day_service",
    "serviceType": "通所介護",
    "capacity": 0,
    "openDays": [
      "平日",
      "土曜日",
      "祝日"
    ],
    "openDaysNote": "１２月３１日～１月３日は休み"
  },
  {
    "id": "4671500983",
    "name": "通所介護　大海",
    "kana": "ツウショカイゴ　タイカイ",
    "address": "鹿児島県薩摩川内市宮崎町2996番地1",
    "lat": 31.7980101851007,
    "lng": 130.321274239797,
    "tel": "0996-29-3511",
    "url": "http://m.taikaiclinic.or.jp",
    "pref": "鹿児島県",
    "city": "薩摩川内市",
    "category": "day_service",
    "serviceType": "通所介護",
    "capacity": 30,
    "openDays": [
      "平日",
      "土曜日"
    ],
    "openDaysNote": "GW、お盆休み等、連休が続く場合は、検討のうえ利用者、担当ケアマネジャーへ事前にお知らせいたします。"
  },
  {
    "id": "4673700052",
    "name": "博愛園デイサービスセンター指定通所介護事業所",
    "kana": "ハクアイエンデイサービスセンターシテイツウショカイゴジギョウショ",
    "address": "入来町浦之名６７３番地",
    "lat": 31.8011682,
    "lng": 130.4303104,
    "tel": "0996-44-5193",
    "url": "",
    "pref": "鹿児島県",
    "city": "薩摩川内市",
    "category": "day_service",
    "serviceType": "通所介護",
    "capacity": 30,
    "openDays": [
      "平日",
      "土曜日",
      "祝日"
    ],
    "openDaysNote": ""
  },
  {
    "id": "4670200270",
    "name": "福和園デイサービスセンター",
    "kana": "フクワエンデイサービスセンター",
    "address": "鹿児島県薩摩川内市御陵下町２９番５０号",
    "lat": 31.8351287,
    "lng": 130.2919005,
    "tel": "0996-20-1002",
    "url": "",
    "pref": "鹿児島県",
    "city": "薩摩川内市",
    "category": "day_service",
    "serviceType": "通所介護",
    "capacity": 0,
    "openDays": [
      "平日",
      "土曜日",
      "祝日"
    ],
    "openDaysNote": ""
  },
  {
    "id": "4676700042",
    "name": "ﾃﾞｲｻｰﾋﾞｽｾﾝﾀｰやっちく",
    "kana": "デイサービスセンターヤッチク",
    "address": "鹿児島県志布志市松山町泰野字松ヶ迫1111番地",
    "lat": 31.5745965495765,
    "lng": 131.081519071997,
    "tel": "099-487-8188",
    "url": "https://yattikukai.or.jp/",
    "pref": "鹿児島県",
    "city": "志布志市",
    "category": "day_service",
    "serviceType": "通所介護",
    "capacity": null,
    "openDays": [
      "平日",
      "土曜日",
      "祝日"
    ],
    "openDaysNote": ""
  },
  {
    "id": "4671700336",
    "name": "デイサービス　みんなの樹",
    "kana": "デイサービス　ミンナノキ",
    "address": "志布志町安楽２３２３番地",
    "lat": 31.4819898293559,
    "lng": 131.078101240167,
    "tel": "099-479-3232",
    "url": "https://minnanoki.co.jp",
    "pref": "鹿児島県",
    "city": "志布志市",
    "category": "day_service",
    "serviceType": "通所介護",
    "capacity": 0,
    "openDays": [
      "平日",
      "土曜日",
      "祝日"
    ],
    "openDaysNote": ""
  },
  {
    "id": "4671700278",
    "name": "活動重視型デイサービス　Ｒｅ・らいふ",
    "kana": "カツドウジュウシガタデーサービス　リ　ライフ",
    "address": "志布志町志布志981-2",
    "lat": 31.4910589759855,
    "lng": 131.089570261363,
    "tel": "099-473-1771",
    "url": "",
    "pref": "鹿児島県",
    "city": "志布志市",
    "category": "day_service",
    "serviceType": "通所介護",
    "capacity": 30,
    "openDays": [
      "平日",
      "土曜日",
      "祝日"
    ],
    "openDaysNote": ""
  },
  {
    "id": "4676800073",
    "name": "志布志デイサービスセンター賀寿園",
    "kana": "シブシデイサービスセンターガジュエン",
    "address": "鹿児島県志布志市志布志町安楽2903番地1",
    "lat": 31.5013806,
    "lng": 131.0874091,
    "tel": "099-472-5560",
    "url": "http://www.ryuai.jp",
    "pref": "鹿児島県",
    "city": "志布志市",
    "category": "day_service",
    "serviceType": "通所介護",
    "capacity": 0,
    "openDays": [
      "平日",
      "土曜日",
      "祝日"
    ],
    "openDaysNote": ""
  },
  {
    "id": "4671000737",
    "name": "よもぎホロホロ",
    "kana": "ヨモギホロホロ",
    "address": "鹿児島県指宿市開聞十町2495-1",
    "lat": 31.2051994135511,
    "lng": 130.533731251169,
    "tel": "0993-32-5656",
    "url": "",
    "pref": "鹿児島県",
    "city": "指宿市",
    "category": "day_service",
    "serviceType": "通所介護",
    "capacity": null,
    "openDays": [
      "平日",
      "土曜日",
      "日曜日",
      "祝日"
    ],
    "openDaysNote": ""
  },
  {
    "id": "4671000935",
    "name": "リハビリデイサービスゆとり",
    "kana": "リハビリデイサービスユトリ",
    "address": "鹿児島県指宿市東方1778番地",
    "lat": 31.2569814,
    "lng": 130.6110929,
    "tel": "0993-25-5711",
    "url": "https://imamiya-yutori.jp/care/rehabili/day-yutori",
    "pref": "鹿児島県",
    "city": "指宿市",
    "category": "day_service",
    "serviceType": "通所介護",
    "capacity": null,
    "openDays": [
      "平日",
      "土曜日",
      "日曜日",
      "祝日"
    ],
    "openDaysNote": "年中無休"
  },
  {
    "id": "4671000158",
    "name": "社会福祉法人　錦江会　湯之里園デイサービスセンター",
    "kana": "シャカイフクシホウジンキンコウカイユノサトエンデイサービスセンター",
    "address": "鹿児島県指宿市東方828番地ロ",
    "lat": 31.2499247889814,
    "lng": 130.620976596959,
    "tel": "0993-22-4149",
    "url": "http://www.kinkoukai.jp/",
    "pref": "鹿児島県",
    "city": "指宿市",
    "category": "day_service",
    "serviceType": "通所介護",
    "capacity": 0,
    "openDays": [
      "平日",
      "土曜日",
      "祝日"
    ],
    "openDaysNote": "12月31日～1月2日正月休み"
  },
  {
    "id": "4671000489",
    "name": "千寿園デイサービスセンター",
    "kana": "センジュエンデイサービスセンター",
    "address": "東方357-2",
    "lat": 35.5198736,
    "lng": 139.5868739,
    "tel": "0993-22-2480",
    "url": "http://senjuen.net",
    "pref": "鹿児島県",
    "city": "指宿市",
    "category": "day_service",
    "serviceType": "通所介護",
    "capacity": 25,
    "openDays": [
      "平日",
      "土曜日",
      "祝日"
    ],
    "openDaysNote": ""
  },
  {
    "id": "4671000836",
    "name": "通所介護事業所　かえでの葉",
    "kana": "ツウショカイゴジギョウショ　カエデノハ",
    "address": "鹿児島県指宿市開聞十町4842番地1",
    "lat": 31.2021691,
    "lng": 130.518825,
    "tel": "0993-23-1355",
    "url": "https://yoshuku-kaedenoha.com",
    "pref": "鹿児島県",
    "city": "指宿市",
    "category": "day_service",
    "serviceType": "通所介護",
    "capacity": null,
    "openDays": [
      "平日",
      "土曜日",
      "祝日"
    ],
    "openDaysNote": "延長利用可能（7：00～9：00、16：00～22：00）"
  },
  {
    "id": "4672000033",
    "name": "徳光苑デイサービスセンター",
    "kana": "トッコウエンデイサービスセンター",
    "address": "鹿児島県指宿市山川岡児ｹ水1211番地",
    "lat": 31.1735428,
    "lng": 130.5760487,
    "tel": "0993-35-0027",
    "url": "ｈｔｔｐ：//ｗｗｗ.ｔｏｋｋｏｅｎ.ｏｒ.ｊｐ/",
    "pref": "鹿児島県",
    "city": "指宿市",
    "category": "day_service",
    "serviceType": "通所介護",
    "capacity": 0,
    "openDays": [
      "平日",
      "土曜日",
      "祝日"
    ],
    "openDaysNote": ""
  },
  {
    "id": "4611010556",
    "name": "福元医院",
    "kana": "フクモトイイン",
    "address": "大牟礼一丁目３２番２４号",
    "lat": 31.2429547,
    "lng": 130.6431919,
    "tel": "0993-22-3053",
    "url": "",
    "pref": "鹿児島県",
    "city": "指宿市",
    "category": "day_service",
    "serviceType": "通所介護",
    "capacity": 0,
    "openDays": [
      "平日",
      "土曜日",
      "祝日"
    ],
    "openDaysNote": ""
  },
  {
    "id": "4670302852",
    "name": "コンパスウォーク鹿屋高校前",
    "kana": "コンパスウォークカノヤコウコウマエ",
    "address": "鹿児島県鹿屋市白崎町３－６",
    "lat": 31.3779385,
    "lng": 130.8575233,
    "tel": "0994-37-0044",
    "url": "https://k-nine.kagoshima.jp/",
    "pref": "鹿児島県",
    "city": "鹿屋市",
    "category": "day_service",
    "serviceType": "通所介護",
    "capacity": 0,
    "openDays": [
      "平日",
      "祝日"
    ],
    "openDaysNote": ""
  },
  {
    "id": "4670301326",
    "name": "ﾃﾞｨｻｰﾋﾞｽｾﾝﾀｰうえの",
    "kana": "ディサービスセンターウエノ",
    "address": "上野町5201-1",
    "lat": 31.3847623569352,
    "lng": 130.811387356483,
    "tel": "0994-36-0067",
    "url": "",
    "pref": "鹿児島県",
    "city": "鹿屋市",
    "category": "day_service",
    "serviceType": "通所介護",
    "capacity": 0,
    "openDays": [
      "平日",
      "土曜日",
      "祝日"
    ],
    "openDaysNote": ""
  },
  {
    "id": "4670302548",
    "name": "デイサービス　いち・に・さん",
    "kana": "デイサービス　イチ・ニ・サン",
    "address": "鹿児島県田崎町2837番地7",
    "lat": 31.3639737833626,
    "lng": 130.84952067791,
    "tel": "0994-45-5050",
    "url": "https://www.takakura-123.com",
    "pref": "鹿児島県",
    "city": "鹿屋市",
    "category": "day_service",
    "serviceType": "通所介護",
    "capacity": 23,
    "openDays": [
      "平日",
      "土曜日",
      "日曜日",
      "祝日"
    ],
    "openDaysNote": ""
  },
  {
    "id": "4670302100",
    "name": "デイサービス　だんだんⅡ",
    "kana": "デイサービスダンダンツー",
    "address": "鹿児島県鹿屋市新川町５４５３番地１",
    "lat": 31.3755374,
    "lng": 130.869976,
    "tel": "０９９４－４５－４１９２",
    "url": "http://confiance-kaigo.com/wordpress/",
    "pref": "鹿児島県",
    "city": "鹿屋市",
    "category": "day_service",
    "serviceType": "通所介護",
    "capacity": 0,
    "openDays": [
      "平日",
      "土曜日",
      "祝日"
    ],
    "openDaysNote": ""
  },
  {
    "id": "4670302431",
    "name": "デイサービス　ゑびすさん",
    "kana": "デイサービス　エビスサン",
    "address": "旭原町2611-6",
    "lat": 31.41004,
    "lng": 130.881199,
    "tel": "0994-45-6700",
    "url": "",
    "pref": "鹿児島県",
    "city": "鹿屋市",
    "category": "day_service",
    "serviceType": "通所介護",
    "capacity": 25,
    "openDays": [
      "平日",
      "土曜日"
    ],
    "openDaysNote": "年末年始（12/30～1/2）"
  },
  {
    "id": "4670301698",
    "name": "デイサービスあじさい",
    "kana": "デイサービスアジサイ",
    "address": "鹿屋市寿四丁目3034-25",
    "lat": 31.3924924580234,
    "lng": 130.87959829449,
    "tel": "0994-40-3888",
    "url": "touei@po.synapse.ne.jp",
    "pref": "鹿児島県",
    "city": "鹿屋市",
    "category": "day_service",
    "serviceType": "通所介護",
    "capacity": 0,
    "openDays": [
      "平日",
      "土曜日",
      "日曜日",
      "祝日"
    ],
    "openDaysNote": "年末年始（12月31日から1月1日）は休業"
  },
  {
    "id": "4670301649",
    "name": "デイサービスいきいき館",
    "kana": "デイサービスイキイキカン",
    "address": "鹿児島県鹿屋市笠之原町３５７９番地１デイサービス・ショートステイいきいき館 デイサービス・ショートステイいきいき館",
    "lat": 31.3958302,
    "lng": 130.878008,
    "tel": "0994-45-4317",
    "url": "",
    "pref": "鹿児島県",
    "city": "鹿屋市",
    "category": "day_service",
    "serviceType": "通所介護",
    "capacity": 25,
    "openDays": [
      "平日",
      "土曜日",
      "日曜日",
      "祝日"
    ],
    "openDaysNote": "休日（１月１日～１月２日）（改行）ただし、災害その他やむを得ない事情で休業する場合もある。"
  },
  {
    "id": "4670301987",
    "name": "デイサービスセンター　アザレア",
    "kana": "デイサービスセンター　アザレア",
    "address": "鹿児島県鹿屋市本町3番3号",
    "lat": 31.3872689633931,
    "lng": 130.851565092729,
    "tel": "0994-45‐6337",
    "url": "http://ｆlora-kanoya.com/",
    "pref": "鹿児島県",
    "city": "鹿屋市",
    "category": "day_service",
    "serviceType": "通所介護",
    "capacity": 25,
    "openDays": [
      "平日",
      "土曜日",
      "祝日"
    ],
    "openDaysNote": ""
  },
  {
    "id": "4676400072",
    "name": "デイサービスセンターグリーンバード",
    "kana": "デイサービスセンターグリーンバード",
    "address": "輝北町市成2121番地3",
    "lat": 31.5865150905235,
    "lng": 130.86162782632,
    "tel": "099-485-1880",
    "url": "https://shuhokai.info/",
    "pref": "鹿児島県",
    "city": "鹿屋市",
    "category": "day_service",
    "serviceType": "通所介護",
    "capacity": 0,
    "openDays": [
      "平日",
      "土曜日",
      "祝日"
    ],
    "openDaysNote": "月曜日～土曜日"
  },
  {
    "id": "4670302829",
    "name": "デイサービスセンターグリーンライフ",
    "kana": "デイサービスセンターグリーンライフ",
    "address": "鹿児島県鹿屋市串良町岡崎2793-1",
    "lat": 31.3916495,
    "lng": 130.947958,
    "tel": "0994-45-5390",
    "url": "",
    "pref": "鹿児島県",
    "city": "鹿屋市",
    "category": "day_service",
    "serviceType": "通所介護",
    "capacity": null,
    "openDays": [
      "平日",
      "土曜日",
      "日曜日",
      "祝日"
    ],
    "openDaysNote": ""
  },
  {
    "id": "4670301565",
    "name": "デイサービスセンターたくみ",
    "kana": "デイサービスセンタータクミ",
    "address": "鹿児島県鹿屋市串良町有里3099-3",
    "lat": 31.4055649,
    "lng": 130.9536398,
    "tel": "0994-31-4433",
    "url": "",
    "pref": "鹿児島県",
    "city": "鹿屋市",
    "category": "day_service",
    "serviceType": "通所介護",
    "capacity": 0,
    "openDays": [
      "平日",
      "土曜日",
      "祝日"
    ],
    "openDaysNote": ""
  },
  {
    "id": "4670302449",
    "name": "デイサービスセンターとも",
    "kana": "デイサービスセンタートモ",
    "address": "田崎町1307-3",
    "lat": 31.3649798,
    "lng": 130.8575025,
    "tel": "0994-42-6862",
    "url": "",
    "pref": "鹿児島県",
    "city": "鹿屋市",
    "category": "day_service",
    "serviceType": "通所介護",
    "capacity": 25,
    "openDays": [
      "平日",
      "土曜日",
      "祝日"
    ],
    "openDaysNote": "特になし"
  },
  {
    "id": "4670302647",
    "name": "デイサービスセンターナーシングリハ",
    "kana": "デイサービスセンターナーシングリハ",
    "address": "鹿児島県鹿屋市川西町4668-2",
    "lat": 31.364230322042,
    "lng": 130.870376673709,
    "tel": "994454642",
    "url": "",
    "pref": "鹿児島県",
    "city": "鹿屋市",
    "category": "day_service",
    "serviceType": "通所介護",
    "capacity": null,
    "openDays": [
      "平日",
      "土曜日",
      "祝日"
    ],
    "openDaysNote": ""
  },
  {
    "id": "4670302472",
    "name": "デイサービスセンターひなたぼっこ",
    "kana": "デイサービスセンターヒナタボッコ",
    "address": "王子町３９８３－１",
    "lat": 31.4028708,
    "lng": 130.8634452,
    "tel": "0994－45－4665",
    "url": "",
    "pref": "鹿児島県",
    "city": "鹿屋市",
    "category": "day_service",
    "serviceType": "通所介護",
    "capacity": 0,
    "openDays": [
      "平日",
      "土曜日",
      "祝日"
    ],
    "openDaysNote": ""
  },
  {
    "id": "4670301409",
    "name": "デイサービスセンター愛乃家",
    "kana": "デイサービスセンターアイノイエ",
    "address": "下高隈町5030-2",
    "lat": 31.4425698,
    "lng": 130.8838839,
    "tel": "0994-43-6666",
    "url": "",
    "pref": "鹿児島県",
    "city": "鹿屋市",
    "category": "day_service",
    "serviceType": "通所介護",
    "capacity": 0,
    "openDays": [
      "平日",
      "土曜日",
      "日曜日",
      "祝日"
    ],
    "openDaysNote": "年中無休"
  },
  {
    "id": "4670302068",
    "name": "デイサービスセンター木楽",
    "kana": "デイサービスセンターキラク",
    "address": "寿３丁目１２－２６,１２－１１",
    "lat": 31.3873808,
    "lng": 130.8722088,
    "tel": "0994-45-6973",
    "url": "",
    "pref": "鹿児島県",
    "city": "鹿屋市",
    "category": "day_service",
    "serviceType": "通所介護",
    "capacity": 30,
    "openDays": [
      "平日",
      "土曜日",
      "祝日"
    ],
    "openDaysNote": "特になし"
  },
  {
    "id": "4670300625",
    "name": "デイサービスセンター悠々",
    "kana": "デイサービスセンターユウユウ",
    "address": "鹿児島県鹿屋市大浦町14028番6",
    "lat": 31.4039701,
    "lng": 130.8427828,
    "tel": "0994-40-7120",
    "url": "http://www.fk-yuyu.net",
    "pref": "鹿児島県",
    "city": "鹿屋市",
    "category": "day_service",
    "serviceType": "通所介護",
    "capacity": 0,
    "openDays": [
      "平日",
      "土曜日",
      "祝日"
    ],
    "openDaysNote": ""
  },
  {
    "id": "4670301490",
    "name": "デイサービスセンター緑ヶ丘",
    "kana": "デイサービスセンターミドリガオカ",
    "address": "鹿児島県鹿屋市串良町岡崎2793-1",
    "lat": 31.3915519,
    "lng": 130.9479296,
    "tel": "0994-63-3663",
    "url": "",
    "pref": "鹿児島県",
    "city": "鹿屋市",
    "category": "day_service",
    "serviceType": "通所介護",
    "capacity": null,
    "openDays": [
      "平日",
      "土曜日",
      "日曜日",
      "祝日"
    ],
    "openDaysNote": ""
  },
  {
    "id": "4670302639",
    "name": "デイサービスまちのひろば",
    "kana": "デイサービスマチノヒロバ",
    "address": "鹿児島県鹿屋市田崎町2242-44",
    "lat": 31.3592942,
    "lng": 130.8539787,
    "tel": "994351068",
    "url": "",
    "pref": "鹿児島県",
    "city": "鹿屋市",
    "category": "day_service",
    "serviceType": "通所介護",
    "capacity": null,
    "openDays": [
      "平日",
      "土曜日",
      "日曜日",
      "祝日"
    ],
    "openDaysNote": ""
  },
  {
    "id": "4670302837",
    "name": "デイサービス花岡の里",
    "kana": "デイサービスハナオカノサト",
    "address": "鹿児島県鹿屋市花岡町3979番地1",
    "lat": 31.4093485,
    "lng": 130.7813296,
    "tel": "0994-46-5052",
    "url": "https://www.hanaokanosato.com",
    "pref": "鹿児島県",
    "city": "鹿屋市",
    "category": "day_service",
    "serviceType": "通所介護",
    "capacity": 0,
    "openDays": [
      "平日",
      "土曜日",
      "祝日"
    ],
    "openDaysNote": ""
  },
  {
    "id": "4670302365",
    "name": "ばらデイサービス通所介護事業所",
    "kana": "バラデイサービスツウショカイゴジギョウショ",
    "address": "鹿児島県鹿屋市田崎町2222番地5",
    "lat": 31.3603189,
    "lng": 130.849917,
    "tel": "0994-40-7676",
    "url": "",
    "pref": "鹿児島県",
    "city": "鹿屋市",
    "category": "day_service",
    "serviceType": "通所介護",
    "capacity": 20,
    "openDays": [
      "平日",
      "土曜日",
      "祝日"
    ],
    "openDaysNote": ""
  },
  {
    "id": "4670300518",
    "name": "よりあいデイサ－ビスセンタ－",
    "kana": "ヨリアイデイサ－ビスセンタ－",
    "address": "鹿屋市東原町２８３７－１",
    "lat": 31.4176921,
    "lng": 130.8885592,
    "tel": "０９９４－４５－６２３０",
    "url": "",
    "pref": "鹿児島県",
    "city": "鹿屋市",
    "category": "day_service",
    "serviceType": "通所介護",
    "capacity": 0,
    "openDays": [
      "平日",
      "土曜日",
      "祝日"
    ],
    "openDaysNote": "特になし"
  },
  {
    "id": "4670302704",
    "name": "リハビリサポートセンター",
    "kana": "リハビリサポートセンター",
    "address": "鹿児島県鹿屋市寿7丁目5番3号中尾ビル１階 中尾ビル１階",
    "lat": 31.3867814,
    "lng": 130.8686357,
    "tel": "0994-45-5847",
    "url": "https://www.rihasapo-post.com/",
    "pref": "鹿児島県",
    "city": "鹿屋市",
    "category": "day_service",
    "serviceType": "通所介護",
    "capacity": 0,
    "openDays": [
      "平日"
    ],
    "openDaysNote": "台風接近や感染症の蔓延により臨時休業する場合があります。"
  },
  {
    "id": "4670302670",
    "name": "共生型サービスるりちゃん家",
    "kana": "キョウセイガタサービス　ルリチャンチ",
    "address": "笠之原町４５番―１号",
    "lat": 31.3821289329939,
    "lng": 130.890565836842,
    "tel": "0994-44-1645",
    "url": "info@kanoya-choujuen.jp",
    "pref": "鹿児島県",
    "city": "鹿屋市",
    "category": "day_service",
    "serviceType": "通所介護",
    "capacity": 28,
    "openDays": [
      "平日",
      "土曜日",
      "祝日"
    ],
    "openDaysNote": "管理者が必要と認められる場合は、管理者の判断により変更する場合があります。"
  },
  {
    "id": "4670302688",
    "name": "共生型ピアハウス",
    "kana": "キョウセイガタ　ピアハウス",
    "address": "笠之原町７４０1番地５",
    "lat": 31.3818494218733,
    "lng": 130.886843026459,
    "tel": "0994-41-0771",
    "url": "https://www.rinnokai.org/",
    "pref": "鹿児島県",
    "city": "鹿屋市",
    "category": "day_service",
    "serviceType": "通所介護",
    "capacity": 0,
    "openDays": [
      "平日",
      "土曜日",
      "祝日"
    ],
    "openDaysNote": ""
  },
  {
    "id": "4670300245",
    "name": "在宅老人デイサービスセンター鹿屋長寿園",
    "kana": "ザイタクロウジンデイサービスセンターカノヤチョウジュエン",
    "address": "鹿屋市下祓川町1822番地",
    "lat": 31.412464,
    "lng": 130.8506237,
    "tel": "０９９４－４４－７１６１",
    "url": "choujyuendey@po5.synapse.ne.jp",
    "pref": "鹿児島県",
    "city": "鹿屋市",
    "category": "day_service",
    "serviceType": "通所介護",
    "capacity": 50,
    "openDays": [
      "平日",
      "土曜日",
      "祝日"
    ],
    "openDaysNote": "災害やその他やむを得ない事情により休業する場合もある"
  },
  {
    "id": "4677100127",
    "name": "指定通所介護事業所さくら通",
    "kana": "シテイツウショカイゴジギョウショ　サクラドオリ",
    "address": "鹿児島県鹿屋市串良町下小原3103－2デイサービスセンターさくら通 デイサービスセンターさくら通",
    "lat": 31.3962484000003,
    "lng": 130.931930157672,
    "tel": "0994-62-8880",
    "url": "http://www.iwakikai.org",
    "pref": "鹿児島県",
    "city": "鹿屋市",
    "category": "day_service",
    "serviceType": "通所介護",
    "capacity": 40,
    "openDays": [
      "平日",
      "土曜日",
      "祝日"
    ],
    "openDaysNote": "特になし"
  },
  {
    "id": "4670300161",
    "name": "慈恵園デイサービスセンター",
    "kana": "ジケイエンデイサービスセンター",
    "address": "鹿屋市大姶良町２４７番地",
    "lat": 31.3325489,
    "lng": 130.83373,
    "tel": "0994-48-2646",
    "url": "http://zikeien.org",
    "pref": "鹿児島県",
    "city": "鹿屋市",
    "category": "day_service",
    "serviceType": "通所介護",
    "capacity": 0,
    "openDays": [
      "平日",
      "土曜日",
      "祝日"
    ],
    "openDaysNote": "特になし。"
  },
  {
    "id": "4670302662",
    "name": "自立支援型デイサービス　かなで",
    "kana": "ジリツシエンガタデイサービスカナデ",
    "address": "鹿屋市寿3丁目6-6サンロード寿B棟101号",
    "lat": 31.3894131,
    "lng": 130.8684369,
    "tel": "994405580",
    "url": "https://kanade-kagoshima.com/",
    "pref": "鹿児島県",
    "city": "鹿屋市",
    "category": "day_service",
    "serviceType": "通所介護",
    "capacity": 0,
    "openDays": [
      "平日",
      "土曜日",
      "祝日"
    ],
    "openDaysNote": ""
  },
  {
    "id": "4677100036",
    "name": "社会福祉法人以和貴会　以和貴苑指定通所介護事業所",
    "kana": "シャカイフクシホウジンイワキカイ　イワキエンシテイツウショカイゴジギョウショ",
    "address": "鹿児島県鹿屋市串良町細山田5902番地3",
    "lat": 31.4498859,
    "lng": 130.890633,
    "tel": "0994-62-4082",
    "url": "http://iwakikai.org",
    "pref": "鹿児島県",
    "city": "鹿屋市",
    "category": "day_service",
    "serviceType": "通所介護",
    "capacity": 45,
    "openDays": [
      "平日",
      "土曜日",
      "祝日"
    ],
    "openDaysNote": "特になし。"
  },
  {
    "id": "4670301755",
    "name": "社会福祉法人円鏡福祉会デイサービスきずな",
    "kana": "シャカイフクシホウジンエンキョウフクシカイ",
    "address": "鹿児島県鹿屋市上谷町９－５番５号",
    "lat": 31.394397020924,
    "lng": 130.845628986508,
    "tel": "0994-45-5001",
    "url": "",
    "pref": "鹿児島県",
    "city": "鹿屋市",
    "category": "day_service",
    "serviceType": "通所介護",
    "capacity": 28,
    "openDays": [
      "平日",
      "土曜日",
      "祝日"
    ],
    "openDaysNote": "年末年始の12/31～1/1は当介護保険事業所は休日となる"
  },
  {
    "id": "4670302563",
    "name": "総合サポートセンターラン",
    "kana": "ソウゴウサポートセンターラン",
    "address": "鹿児島県鹿屋市飯隈町３３６８番地１",
    "lat": 31.3446586,
    "lng": 130.8796359,
    "tel": "０９９４－４９－３６３５",
    "url": "http://www.aikohkai.com/",
    "pref": "鹿児島県",
    "city": "鹿屋市",
    "category": "day_service",
    "serviceType": "通所介護",
    "capacity": null,
    "openDays": [
      "平日"
    ],
    "openDaysNote": ""
  },
  {
    "id": "4670302373",
    "name": "通所介護事業所　デイサービスかけはし",
    "kana": "ツウショカイゴジギョウショ　デイサービスカケハシ",
    "address": "鹿児島県鹿屋市花岡町３９７９番地１",
    "lat": 31.4093751,
    "lng": 130.7806955,
    "tel": "0994-46-5052",
    "url": "http://hanaokanosato.jp/index.php",
    "pref": "鹿児島県",
    "city": "鹿屋市",
    "category": "day_service",
    "serviceType": "通所介護",
    "capacity": 40,
    "openDays": [
      "平日",
      "土曜日",
      "祝日"
    ],
    "openDaysNote": "年末は12月30日まで営業、年始は1月4日から営業します。"
  },
  {
    "id": "4670300187",
    "name": "通所介護事業所　朋愛園",
    "kana": "ツウショカイゴジギョウショ　ホウアイエン",
    "address": "寿2丁目2番1号",
    "lat": 31.3870722,
    "lng": 130.8601793,
    "tel": "0994-41-2430",
    "url": "http://houaien.jp/",
    "pref": "鹿児島県",
    "city": "鹿屋市",
    "category": "day_service",
    "serviceType": "通所介護",
    "capacity": 10,
    "openDays": [
      "平日",
      "土曜日",
      "祝日"
    ],
    "openDaysNote": ""
  },
  {
    "id": "4670302787",
    "name": "二葉・シニアあんしんデイサービス",
    "kana": "フタバ・シニアアンシンデイサービス",
    "address": "鹿児島県鹿屋市上谷町11513-2",
    "lat": 31.3965244841105,
    "lng": 130.844179507969,
    "tel": "0994-45-7588",
    "url": "https://futaba-wakwak-2525.p-kit.com/",
    "pref": "鹿児島県",
    "city": "鹿屋市",
    "category": "day_service",
    "serviceType": "通所介護",
    "capacity": 0,
    "openDays": [
      "平日",
      "土曜日",
      "祝日"
    ],
    "openDaysNote": ""
  },
  {
    "id": "4677500037",
    "name": "陵幸園デイサービスセンター",
    "kana": "リョウコウエンデイサービスセンター",
    "address": "鹿屋市吾平町麓3805番地",
    "lat": 31.3220883,
    "lng": 130.8929566,
    "tel": "0994-58-6255",
    "url": "https:ryoukoukai1987.com",
    "pref": "鹿児島県",
    "city": "鹿屋市",
    "category": "day_service",
    "serviceType": "通所介護",
    "capacity": null,
    "openDays": [
      "平日",
      "土曜日",
      "祝日"
    ],
    "openDaysNote": ""
  },
  {
    "id": "4670112806",
    "name": "あおぞらデイサービスセンター下荒田",
    "kana": "アオゾラデイサービスセンターシモアラタ",
    "address": "鹿児島市下荒田2丁目39-21",
    "lat": 31.5732392,
    "lng": 130.5590215,
    "tel": "099-204-7010",
    "url": "http://www.aozora-gp.com/",
    "pref": "鹿児島県",
    "city": "鹿児島市",
    "category": "day_service",
    "serviceType": "通所介護",
    "capacity": 25,
    "openDays": [
      "平日",
      "土曜日",
      "日曜日",
      "祝日"
    ],
    "openDaysNote": "電話等により24時間連絡が可能な体制とする"
  },
  {
    "id": "4670113754",
    "name": "あおぞらデイサービスセンター東千石",
    "kana": "アオゾラデイサービスセンターヒガシセンゴク",
    "address": "鹿児島県鹿児島市東千石町3-19",
    "lat": 31.591031,
    "lng": 130.552597,
    "tel": "099-219-1100",
    "url": "https://www.aozora-cg.com/",
    "pref": "鹿児島県",
    "city": "鹿児島市",
    "category": "day_service",
    "serviceType": "通所介護",
    "capacity": 0,
    "openDays": [
      "平日",
      "土曜日",
      "日曜日",
      "祝日"
    ],
    "openDaysNote": ""
  },
  {
    "id": "4670113358",
    "name": "あおぞらデイサービスセンター南栄",
    "kana": "アオゾラデイサービスセンターナンエイ",
    "address": "鹿児島市南栄5丁目10-25",
    "lat": 31.5094951,
    "lng": 130.5180869,
    "tel": "099-268-6640",
    "url": "https://www.aozora-cg.com/",
    "pref": "鹿児島県",
    "city": "鹿児島市",
    "category": "day_service",
    "serviceType": "通所介護",
    "capacity": 25,
    "openDays": [
      "平日",
      "土曜日",
      "日曜日",
      "祝日"
    ],
    "openDaysNote": "電話等により24時間連絡が可能な体制とする"
  },
  {
    "id": "4670108432",
    "name": "いきいきリハサービス",
    "kana": "イキイキリハサービス",
    "address": "光山２丁目１－６１",
    "lat": 31.4924298,
    "lng": 130.5060704,
    "tel": "099-262-0663",
    "url": "",
    "pref": "鹿児島県",
    "city": "鹿児島市",
    "category": "day_service",
    "serviceType": "通所介護",
    "capacity": 38,
    "openDays": [
      "平日",
      "土曜日",
      "祝日"
    ],
    "openDaysNote": ""
  },
  {
    "id": "4670107327",
    "name": "オアシス吉野　デイサービスセンター",
    "kana": "オアシスヨシノ　デイサービスセンター",
    "address": "鹿児島市吉野町8638番地",
    "lat": 31.6336154580663,
    "lng": 130.581272379762,
    "tel": "099-248-7205",
    "url": "http://www1a.biglobe.ne.jp/oasis-yoshino/",
    "pref": "鹿児島県",
    "city": "鹿児島市",
    "category": "day_service",
    "serviceType": "通所介護",
    "capacity": 40,
    "openDays": [
      "平日",
      "土曜日",
      "日曜日",
      "祝日"
    ],
    "openDaysNote": ""
  },
  {
    "id": "4670100710",
    "name": "くすの木デイサービスセンター",
    "kana": "クスノキデイサービスセンター",
    "address": "鹿児島市犬迫町7771番地",
    "lat": 31.6263971,
    "lng": 130.4832345,
    "tel": "099-245-4321",
    "url": "http://www.kusunokikai.jp",
    "pref": "鹿児島県",
    "city": "鹿児島市",
    "category": "day_service",
    "serviceType": "通所介護",
    "capacity": 35,
    "openDays": [
      "平日",
      "土曜日",
      "祝日"
    ],
    "openDaysNote": "特になし"
  },
  {
    "id": "4670101502",
    "name": "ケアガーデンてらやまデイサービスセンター",
    "kana": "ケアガーデンテラヤマデイサービスセンター",
    "address": "鹿児島市吉野町１０８７７番地１８",
    "lat": 31.6559372099586,
    "lng": 130.603039842386,
    "tel": "099-295-5005",
    "url": "http://www.care-garden.or.jp",
    "pref": "鹿児島県",
    "city": "鹿児島市",
    "category": "day_service",
    "serviceType": "通所介護",
    "capacity": 20,
    "openDays": [
      "平日",
      "土曜日",
      "祝日"
    ],
    "openDaysNote": ""
  },
  {
    "id": "4670101452",
    "name": "ケアガーデン西田　トレーニングデイ・悠",
    "kana": "ケアガーデンニシダ　トレーニングデイ・ユウ",
    "address": "鹿児島市西田３丁目１番地１１",
    "lat": 31.5888844,
    "lng": 130.5382449,
    "tel": "０９９－２５０－２５４５",
    "url": "http//www.jikeikai.net",
    "pref": "鹿児島県",
    "city": "鹿児島市",
    "category": "day_service",
    "serviceType": "通所介護",
    "capacity": 0,
    "openDays": [
      "平日",
      "土曜日",
      "祝日"
    ],
    "openDaysNote": ""
  },
  {
    "id": "4670108655",
    "name": "ケアライフ南鹿児島デイサービスセンター",
    "kana": "ケアライフミナミカゴシマデイサービスセンター",
    "address": "鹿児島県鹿児島市東開町１３－２９ケアライフ南鹿児島 ケアライフ南鹿児島",
    "lat": 31.5273423700755,
    "lng": 130.540342876146,
    "tel": "０９９－２１０－１１６５",
    "url": "http://www.bestlife1165.com/",
    "pref": "鹿児島県",
    "city": "鹿児島市",
    "category": "day_service",
    "serviceType": "通所介護",
    "capacity": 70,
    "openDays": [
      "平日",
      "土曜日",
      "日曜日",
      "祝日"
    ],
    "openDaysNote": ""
  },
  {
    "id": "4670107723",
    "name": "しあわせの杜・ケアレジデンス風の街",
    "kana": "シアワセノモリ・ケアレジデンスカゼノマチ",
    "address": "鹿児島市堀江町6番3号",
    "lat": 31.5898703760387,
    "lng": 130.560128368717,
    "tel": "099-248-8112",
    "url": "http://www.gyokushoukai.com/",
    "pref": "鹿児島県",
    "city": "鹿児島市",
    "category": "day_service",
    "serviceType": "通所介護",
    "capacity": 0,
    "openDays": [
      "平日",
      "土曜日",
      "祝日"
    ],
    "openDaysNote": ""
  },
  {
    "id": "4670112954",
    "name": "ツクイ鹿児島宇宿",
    "kana": "ツクイカゴシマウスキ",
    "address": "鹿児島県鹿児島市宇宿八丁目13-22",
    "lat": 31.5569256,
    "lng": 130.5231152,
    "tel": "099-275-9787",
    "url": "https://www.tsukui.net./home-care/2283/",
    "pref": "鹿児島県",
    "city": "鹿児島市",
    "category": "day_service",
    "serviceType": "通所介護",
    "capacity": 0,
    "openDays": [
      "平日",
      "土曜日",
      "日曜日",
      "祝日"
    ],
    "openDaysNote": ""
  },
  {
    "id": "4670112962",
    "name": "ツクイ鹿児島吉野",
    "kana": "ツクイカゴシマヨシノ",
    "address": "鹿児島県鹿児島市吉野一丁目23-8",
    "lat": 31.6498191,
    "lng": 130.5676286,
    "tel": "099-295-7160",
    "url": "http://www.tsukui.net",
    "pref": "鹿児島県",
    "city": "鹿児島市",
    "category": "day_service",
    "serviceType": "通所介護",
    "capacity": 45,
    "openDays": [
      "平日",
      "土曜日",
      "日曜日",
      "祝日"
    ],
    "openDaysNote": ""
  },
  {
    "id": "4670105594",
    "name": "デイサービス　エデンの丘",
    "kana": "デイサービス　エデンノオカ",
    "address": "鹿児島県鹿児島市坂元町161-4",
    "lat": 31.6215041854846,
    "lng": 130.55168244418,
    "tel": "０９９－２４７－８５００",
    "url": "http://www.hakuyukai-group.jp/1-group-new/day-edennooka.html",
    "pref": "鹿児島県",
    "city": "鹿児島市",
    "category": "day_service",
    "serviceType": "通所介護",
    "capacity": 5,
    "openDays": [
      "平日",
      "日曜日",
      "祝日"
    ],
    "openDaysNote": ""
  },
  {
    "id": "4670107624",
    "name": "デイサービス　にじの街",
    "kana": "デイサービス　ニジノマチ",
    "address": "鹿児島県鹿児島市池之上町９－１４",
    "lat": 31.6088302,
    "lng": 130.5641702,
    "tel": "099-248-5375",
    "url": "http://nanpho.com",
    "pref": "鹿児島県",
    "city": "鹿児島市",
    "category": "day_service",
    "serviceType": "通所介護",
    "capacity": 0,
    "openDays": [
      "平日",
      "土曜日",
      "日曜日",
      "祝日"
    ],
    "openDaysNote": ""
  },
  {
    "id": "4670110925",
    "name": "デイサービス　に歩",
    "kana": "デイサービス　ニホ",
    "address": "鹿児島県鹿児島市吉野町3365",
    "lat": 31.6458497656853,
    "lng": 130.577231627245,
    "tel": "099-210-7366",
    "url": "ｈｔｔｐ：//ｉｐｐｏ-ｈｏｍｅ．ｊｐ",
    "pref": "鹿児島県",
    "city": "鹿児島市",
    "category": "day_service",
    "serviceType": "通所介護",
    "capacity": 0,
    "openDays": [
      "平日",
      "土曜日",
      "祝日"
    ],
    "openDaysNote": ""
  },
  {
    "id": "4671900050",
    "name": "デイサービス　リハビリセンター瀬々串",
    "kana": "デイサービス　リハビリセンターセセクシ",
    "address": "喜入瀬々串町１番地",
    "lat": 31.4241087961913,
    "lng": 130.523880789249,
    "tel": "099-343-8887",
    "url": "kiire.jp",
    "pref": "鹿児島県",
    "city": "鹿児島市",
    "category": "day_service",
    "serviceType": "通所介護",
    "capacity": 0,
    "openDays": [
      "平日",
      "土曜日",
      "祝日"
    ],
    "openDaysNote": ""
  },
  {
    "id": "4670109513",
    "name": "デイサービス　福ちゃん",
    "kana": "デイサービス　フクチャン",
    "address": "鹿児島県鹿児島市東千石町２－３",
    "lat": 31.590418,
    "lng": 130.5519524,
    "tel": "099-219-3615",
    "url": "",
    "pref": "鹿児島県",
    "city": "鹿児島市",
    "category": "day_service",
    "serviceType": "通所介護",
    "capacity": 18,
    "openDays": [
      "平日",
      "土曜日",
      "日曜日",
      "祝日"
    ],
    "openDaysNote": ""
  },
  {
    "id": "4670106311",
    "name": "デイサービス・愛",
    "kana": "デイサービス・アイ",
    "address": "鹿児島市谷山中央１丁目4250番地",
    "lat": 31.5247662,
    "lng": 130.5161523,
    "tel": "099-801-3682",
    "url": "http://www.kawashima-hp.com/",
    "pref": "鹿児島県",
    "city": "鹿児島市",
    "category": "day_service",
    "serviceType": "通所介護",
    "capacity": 20,
    "openDays": [
      "平日",
      "土曜日",
      "祝日"
    ],
    "openDaysNote": ""
  },
  {
    "id": "4670108135",
    "name": "デイサービスきずなの里一倉",
    "kana": "デイサービス　キズナノサト　ヒトクラ",
    "address": "鹿児島市喜入一倉町5243番地有料老人ホーム　きずなの里一倉 有料老人ホーム　きずなの里一倉",
    "lat": 31.3506593,
    "lng": 130.5261629,
    "tel": "099-343-5505",
    "url": "",
    "pref": "鹿児島県",
    "city": "鹿児島市",
    "category": "day_service",
    "serviceType": "通所介護",
    "capacity": 33,
    "openDays": [
      "平日",
      "土曜日",
      "祝日"
    ],
    "openDaysNote": ""
  },
  {
    "id": "4670108820",
    "name": "デイサービスクロス",
    "kana": "デイサービスクロス",
    "address": "鹿児島市柳町6-2プレジデント柳町1F プレジデント柳町1F",
    "lat": 31.603772061122,
    "lng": 130.562490989614,
    "tel": "099-201-8282",
    "url": "https://arwrk.net/recruit/nanphoshouji",
    "pref": "鹿児島県",
    "city": "鹿児島市",
    "category": "day_service",
    "serviceType": "通所介護",
    "capacity": 24,
    "openDays": [
      "平日",
      "土曜日",
      "日曜日",
      "祝日"
    ],
    "openDaysNote": ""
  },
  {
    "id": "4670113291",
    "name": "デイサービスサンガーデン鹿児島",
    "kana": "デイサービスサンガーデンカゴシマ",
    "address": "上荒田町23-8リファレンス鹿児島　2階 リファレンス鹿児島　2階",
    "lat": 31.5764664,
    "lng": 130.5418409,
    "tel": "099-250-3593",
    "url": "",
    "pref": "鹿児島県",
    "city": "鹿児島市",
    "category": "day_service",
    "serviceType": "通所介護",
    "capacity": null,
    "openDays": [
      "平日"
    ],
    "openDaysNote": ""
  },
  {
    "id": "4670109349",
    "name": "デイサービスせせらぎの里鹿児島南",
    "kana": "デイサービスセセラギノサトカゴシマミナミ",
    "address": "東谷山2丁目5-8",
    "lat": 31.5310852,
    "lng": 130.5241346,
    "tel": "099-210-0753",
    "url": "http://www.seseragi-minami.jp",
    "pref": "鹿児島県",
    "city": "鹿児島市",
    "category": "day_service",
    "serviceType": "通所介護",
    "capacity": 25,
    "openDays": [
      "平日",
      "土曜日",
      "祝日"
    ],
    "openDaysNote": ""
  },
  {
    "id": "4670107129",
    "name": "デイサービスセンター　あいせ",
    "kana": "デイサービスセンター　アイセ",
    "address": "鹿児島県鹿児島市下伊敷１－３－１３",
    "lat": 31.6107681,
    "lng": 130.5331529,
    "tel": "099-208-4800",
    "url": "dayservice-aise.com",
    "pref": "鹿児島県",
    "city": "鹿児島市",
    "category": "day_service",
    "serviceType": "通所介護",
    "capacity": 35,
    "openDays": [
      "平日",
      "土曜日",
      "祝日"
    ],
    "openDaysNote": ""
  },
  {
    "id": "4670110982",
    "name": "デイサービスセンター　とき",
    "kana": "デイサービスセンター　トキ",
    "address": "鹿児島県鹿児島市西佐多町164-1",
    "lat": 31.7374232725208,
    "lng": 130.569854531075,
    "tel": "099-295-1511",
    "url": "",
    "pref": "鹿児島県",
    "city": "鹿児島市",
    "category": "day_service",
    "serviceType": "通所介護",
    "capacity": null,
    "openDays": [
      "平日",
      "土曜日",
      "祝日"
    ],
    "openDaysNote": ""
  },
  {
    "id": "4670100686",
    "name": "デイサービスセンター　ひまわり園",
    "kana": "デイサービスセンター　ヒマワリエン",
    "address": "犬迫町５４０７番地２",
    "lat": 31.6334048,
    "lng": 130.4968775,
    "tel": "099-238-5741",
    "url": "https://www.himawarien.jp",
    "pref": "鹿児島県",
    "city": "鹿児島市",
    "category": "day_service",
    "serviceType": "通所介護",
    "capacity": 0,
    "openDays": [
      "平日",
      "土曜日",
      "日曜日",
      "祝日"
    ],
    "openDaysNote": "年末年始12/31-1/2休む場合あり"
  },
  {
    "id": "4670103235",
    "name": "デイサービスセンター　森",
    "kana": "デイサービスセンター　モリ",
    "address": "鹿児島市下田町1763",
    "lat": 31.6463487,
    "lng": 130.5456254,
    "tel": "099-295-8672",
    "url": "http://www.kanyoukai.or.jp/",
    "pref": "鹿児島県",
    "city": "鹿児島市",
    "category": "day_service",
    "serviceType": "通所介護",
    "capacity": 35,
    "openDays": [
      "平日",
      "祝日"
    ],
    "openDaysNote": "年末年始や盆期間など利用者の利用希望が少ない場合には休業とする。"
  },
  {
    "id": "4670110438",
    "name": "デイサービスセンター☆まえむ本館",
    "kana": "デイサービスセンターホシマエムホンカン",
    "address": "鹿児島県鹿児島市吉野町8740-2☆まえむビル本館 ☆まえむビル本館",
    "lat": 31.6308299749163,
    "lng": 130.57734029577,
    "tel": "099-246-3170",
    "url": "https://maemugp.wixsite.com/maemu",
    "pref": "鹿児島県",
    "city": "鹿児島市",
    "category": "day_service",
    "serviceType": "通所介護",
    "capacity": 0,
    "openDays": [
      "平日",
      "土曜日",
      "日曜日",
      "祝日"
    ],
    "openDaysNote": ""
  },
  {
    "id": "4670102336",
    "name": "デイサービスセンターさかもと園",
    "kana": "デイサービスセンター　サカモトエン",
    "address": "鹿児島県鹿児島市坂元町502番地",
    "lat": 31.6180986149399,
    "lng": 130.557183149441,
    "tel": "099-248-5101",
    "url": "www.sakamotoen.jp",
    "pref": "鹿児島県",
    "city": "鹿児島市",
    "category": "day_service",
    "serviceType": "通所介護",
    "capacity": 0,
    "openDays": [
      "平日",
      "土曜日",
      "祝日"
    ],
    "openDaysNote": ""
  },
  {
    "id": "4670113424",
    "name": "デイサービスセンターたにやま",
    "kana": "デイサービスセンタータニヤマ",
    "address": "鹿児島県鹿児島市魚見町103-12階",
    "lat": 31.5400881,
    "lng": 130.5247956,
    "tel": "099-297-5277",
    "url": "https://eiwakai.jp",
    "pref": "鹿児島県",
    "city": "鹿児島市",
    "category": "day_service",
    "serviceType": "通所介護",
    "capacity": 0,
    "openDays": [
      "平日",
      "土曜日",
      "祝日"
    ],
    "openDaysNote": ""
  },
  {
    "id": "4670102856",
    "name": "デイサービスセンターたんぽぽ",
    "kana": "デイサービスセンタータンポポ",
    "address": "下田町３５３番地",
    "lat": 31.6399521,
    "lng": 130.550739,
    "tel": "099-294-0234",
    "url": "http://www.shimodaen.jp",
    "pref": "鹿児島県",
    "city": "鹿児島市",
    "category": "day_service",
    "serviceType": "通所介護",
    "capacity": 0,
    "openDays": [
      "平日",
      "土曜日",
      "日曜日",
      "祝日"
    ],
    "openDaysNote": "年中無休"
  },
  {
    "id": "4670101346",
    "name": "デイサービスセンターにじの郷たにやま",
    "kana": "デイサービスセンターニジノサトタニヤマ",
    "address": "鹿児島市中山町5028-80",
    "lat": 31.5397843,
    "lng": 130.5031257,
    "tel": "099-267-3977",
    "url": "http://nizinosato.com/",
    "pref": "鹿児島県",
    "city": "鹿児島市",
    "category": "day_service",
    "serviceType": "通所介護",
    "capacity": 0,
    "openDays": [
      "平日",
      "土曜日",
      "祝日"
    ],
    "openDaysNote": ""
  },
  {
    "id": "4670107111",
    "name": "デイサービスセンターみなと",
    "kana": "デイサービスセンターミナト",
    "address": "鹿児島市南郡元町25-6オーズガーデン南郡元1F オーズガーデン南郡元1F",
    "lat": 31.5529569239343,
    "lng": 130.544038530936,
    "tel": "099-208-3810",
    "url": "http://jyouseikai.jp/dsc-minato.html",
    "pref": "鹿児島県",
    "city": "鹿児島市",
    "category": "day_service",
    "serviceType": "通所介護",
    "capacity": 25,
    "openDays": [
      "平日",
      "土曜日",
      "祝日"
    ],
    "openDaysNote": ""
  },
  {
    "id": "4670112921",
    "name": "デイサービスセンターりんどう",
    "kana": "デイサービスセンターリンドウ",
    "address": "鹿児島県鹿児島市西谷山二丁目１９番８号",
    "lat": 31.5185431,
    "lng": 130.506911,
    "tel": "099-210-5890",
    "url": "",
    "pref": "鹿児島県",
    "city": "鹿児島市",
    "category": "day_service",
    "serviceType": "通所介護",
    "capacity": 0,
    "openDays": [
      "平日"
    ],
    "openDaysNote": ""
  },
  {
    "id": "4670101882",
    "name": "デイサービスセンター旭ヶ丘園",
    "kana": "デイサービスセンター　アサヒガオカエン",
    "address": "鹿児島市平川町1382番地",
    "lat": 31.46621,
    "lng": 130.5037873,
    "tel": "099-262-2222",
    "url": "https://kyokuseikai.com/",
    "pref": "鹿児島県",
    "city": "鹿児島市",
    "category": "day_service",
    "serviceType": "通所介護",
    "capacity": 40,
    "openDays": [
      "平日",
      "土曜日",
      "祝日"
    ],
    "openDaysNote": "12月29日～1月3日正月休み"
  },
  {
    "id": "4670108580",
    "name": "デイサービスセンター花野光ヶ丘",
    "kana": "デイサービスセンターケノヒカリガオカ",
    "address": "鹿児島市皆与志町６０７",
    "lat": 31.6711984,
    "lng": 130.5234378,
    "tel": "099-800-1370",
    "url": "",
    "pref": "鹿児島県",
    "city": "鹿児島市",
    "category": "day_service",
    "serviceType": "通所介護",
    "capacity": 45,
    "openDays": [
      "平日",
      "土曜日",
      "祝日"
    ],
    "openDaysNote": ""
  },
  {
    "id": "4670110313",
    "name": "デイサービスセンター暁",
    "kana": "デイサービスセンターアカツキ",
    "address": "鹿児島県鹿児島市紫原3丁目30番23号サービス付き高齢者向け住宅かいせい1階 サービス付き高齢者向け住宅かいせい1階",
    "lat": 31.55163202619,
    "lng": 130.537256825795,
    "tel": "099-230-7155",
    "url": "",
    "pref": "鹿児島県",
    "city": "鹿児島市",
    "category": "day_service",
    "serviceType": "通所介護",
    "capacity": 30,
    "openDays": [
      "平日",
      "土曜日",
      "祝日"
    ],
    "openDaysNote": ""
  },
  {
    "id": "4671500181",
    "name": "デイサービスセンター元気の里　いっど鹿児島館",
    "kana": "デイサービスセンターゲンキノサト　イッドカゴシマカン",
    "address": "石谷町１２７９番地４",
    "lat": 31.6115989,
    "lng": 130.4630366,
    "tel": "099-248-8720",
    "url": "http://www.sun3.jp/genki-iddo/",
    "pref": "鹿児島県",
    "city": "鹿児島市",
    "category": "day_service",
    "serviceType": "通所介護",
    "capacity": 0,
    "openDays": [
      "平日",
      "土曜日",
      "祝日"
    ],
    "openDaysNote": ""
  },
  {
    "id": "4670101544",
    "name": "デイサービスセンター松恵園",
    "kana": "デイサービスセンターショウケイエン",
    "address": "鹿児島市西別府町1920",
    "lat": 31.5993447,
    "lng": 130.4856777,
    "tel": "099-284-8243",
    "url": "https://mirai-kagoshima.jp",
    "pref": "鹿児島県",
    "city": "鹿児島市",
    "category": "day_service",
    "serviceType": "通所介護",
    "capacity": 30,
    "openDays": [
      "平日",
      "土曜日",
      "日曜日",
      "祝日"
    ],
    "openDaysNote": "現在、日曜日はお休みです。"
  },
  {
    "id": "4670109679",
    "name": "デイサービスセンター湯の里",
    "kana": "デイサービスセンターユノサト",
    "address": "鹿児島市坂元町１０８７-１下田温泉の郷 下田温泉の郷",
    "lat": 31.6379218,
    "lng": 130.5538444,
    "tel": "099-210-7435",
    "url": "http://www.shimodaen.jp",
    "pref": "鹿児島県",
    "city": "鹿児島市",
    "category": "day_service",
    "serviceType": "通所介護",
    "capacity": 25,
    "openDays": [
      "平日",
      "土曜日",
      "祝日"
    ],
    "openDaysNote": ""
  },
  {
    "id": "4670112970",
    "name": "デイサービスセンター道しるべ　西千石",
    "kana": "デイサービスセンターミチシルベ　ニシセンゴク",
    "address": "鹿児島県鹿児島市平之町9番３３号牧野ビル6階 牧野ビル6階",
    "lat": 31.5899902,
    "lng": 130.5475607,
    "tel": "099‐813‐7777",
    "url": "https://www.matthews-japan.com",
    "pref": "鹿児島県",
    "city": "鹿児島市",
    "category": "day_service",
    "serviceType": "通所介護",
    "capacity": 0,
    "openDays": [
      "平日",
      "土曜日",
      "祝日"
    ],
    "openDaysNote": ""
  },
  {
    "id": "4670108036",
    "name": "デイサービスセンター白銀",
    "kana": "デイサービスセンターシロガネ",
    "address": "鹿児島市清水町14番20号",
    "lat": 31.6085747,
    "lng": 130.5678422,
    "tel": "099-247-5002",
    "url": "",
    "pref": "鹿児島県",
    "city": "鹿児島市",
    "category": "day_service",
    "serviceType": "通所介護",
    "capacity": 24,
    "openDays": [
      "平日",
      "土曜日",
      "日曜日",
      "祝日"
    ],
    "openDaysNote": ""
  },
  {
    "id": "4670109927",
    "name": "デイサービスセンター白銀の里",
    "kana": "デイサービスセンターシロガネノサト",
    "address": "鹿児島県鹿児島市春日町14-5-3F",
    "lat": 31.6061111,
    "lng": 130.5672757,
    "tel": "099-295-6120",
    "url": "",
    "pref": "鹿児島県",
    "city": "鹿児島市",
    "category": "day_service",
    "serviceType": "通所介護",
    "capacity": 20,
    "openDays": [
      "平日",
      "土曜日"
    ],
    "openDaysNote": ""
  },
  {
    "id": "4670111600",
    "name": "デイサービスセンター美顔",
    "kana": "デイサービスセンタービガン",
    "address": "鹿児島県鹿児島市中山２丁目１５番３１号",
    "lat": 31.5463782754796,
    "lng": 130.50733650423,
    "tel": "０９９－８１４－７２２０",
    "url": "home@bigan.co.jp",
    "pref": "鹿児島県",
    "city": "鹿児島市",
    "category": "day_service",
    "serviceType": "通所介護",
    "capacity": 0,
    "openDays": [
      "平日",
      "土曜日",
      "日曜日",
      "祝日"
    ],
    "openDaysNote": ""
  },
  {
    "id": "4670113119",
    "name": "デイサービスセンター美顔清和",
    "kana": "デイサービスセンタービガンセイワ",
    "address": "清和3丁目15-1デイサービスセンター美顔清和 デイサービスセンター美顔清和",
    "lat": 31.5371000928385,
    "lng": 130.507927815344,
    "tel": "099-814-7678",
    "url": "",
    "pref": "鹿児島県",
    "city": "鹿児島市",
    "category": "day_service",
    "serviceType": "通所介護",
    "capacity": 25,
    "openDays": [
      "平日",
      "土曜日",
      "日曜日",
      "祝日"
    ],
    "openDaysNote": ""
  },
  {
    "id": "4670110537",
    "name": "デイサービスセンター本名の郷",
    "kana": "デイサービスセンターホンミョウノサト",
    "address": "鹿児島県鹿児島市本名町1083-2",
    "lat": 31.6840721733739,
    "lng": 130.553489251451,
    "tel": "099-294-3434",
    "url": "nikonikohouse@po5.synapse.ne.jp",
    "pref": "鹿児島県",
    "city": "鹿児島市",
    "category": "day_service",
    "serviceType": "通所介護",
    "capacity": 25,
    "openDays": [
      "平日",
      "土曜日",
      "日曜日",
      "祝日"
    ],
    "openDaysNote": ""
  },
  {
    "id": "4670105677",
    "name": "デイサービスセンター夢楽",
    "kana": "デイサービスセンタームラク",
    "address": "鹿児島市宮之浦町1614-2",
    "lat": 31.6866563,
    "lng": 130.5678809,
    "tel": "099-293-7632",
    "url": "sppn2m39@aria.ocn.ne.jp",
    "pref": "鹿児島県",
    "city": "鹿児島市",
    "category": "day_service",
    "serviceType": "通所介護",
    "capacity": 30,
    "openDays": [
      "平日",
      "土曜日",
      "祝日"
    ],
    "openDaysNote": "１２月３１日、１月１日、２日、３日は原則定休日とする。"
  },
  {
    "id": "4670108671",
    "name": "デイサービスセンター陽光花",
    "kana": "デイサービスセンターヨウコウカ",
    "address": "鹿児島県鹿児島市石谷町1155番地1",
    "lat": 31.6205736054393,
    "lng": 130.462162854631,
    "tel": "099-210-7683",
    "url": "http://www.youkouka.co.jp",
    "pref": "鹿児島県",
    "city": "鹿児島市",
    "category": "day_service",
    "serviceType": "通所介護",
    "capacity": 22,
    "openDays": [
      "平日",
      "土曜日",
      "祝日"
    ],
    "openDaysNote": ""
  },
  {
    "id": "4670113408",
    "name": "デイサービスとも花",
    "kana": "デイサービストモカ",
    "address": "鹿児島県鹿児島市6番8号",
    "lat": 31.5626325,
    "lng": 130.5337756,
    "tel": "099-218-5455",
    "url": "",
    "pref": "鹿児島県",
    "city": "鹿児島市",
    "category": "day_service",
    "serviceType": "通所介護",
    "capacity": 0,
    "openDays": [
      "平日",
      "土曜日",
      "日曜日",
      "祝日"
    ],
    "openDaysNote": ""
  },
  {
    "id": "4670112657",
    "name": "デイサービスなごみ園",
    "kana": "デイサービスナゴミエン",
    "address": "皇徳寺台4-31-14",
    "lat": 31.5630908,
    "lng": 130.4847265,
    "tel": "099-210-5029",
    "url": "koutokuji-nagomien.net/",
    "pref": "鹿児島県",
    "city": "鹿児島市",
    "category": "day_service",
    "serviceType": "通所介護",
    "capacity": 0,
    "openDays": [
      "平日",
      "土曜日",
      "祝日"
    ],
    "openDaysNote": ""
  },
  {
    "id": "4670107616",
    "name": "デイサービスひなたの家",
    "kana": "デイサービスヒナタノイエ",
    "address": "若葉町5-1ひなたビル ひなたビル",
    "lat": 31.6255784117123,
    "lng": 130.550022313033,
    "tel": "099-295-3031",
    "url": "www.hinatakaigo.com",
    "pref": "鹿児島県",
    "city": "鹿児島市",
    "category": "day_service",
    "serviceType": "通所介護",
    "capacity": 0,
    "openDays": [
      "平日",
      "土曜日",
      "日曜日",
      "祝日"
    ],
    "openDaysNote": ""
  },
  {
    "id": "4670112053",
    "name": "デイサービスひなたの家　田上",
    "kana": "デイサービスヒナタノイエタガミ",
    "address": "田上4丁目9-8",
    "lat": 31.5748174697036,
    "lng": 130.526075959525,
    "tel": "099-250-9240",
    "url": "www.hinata-scs.com",
    "pref": "鹿児島県",
    "city": "鹿児島市",
    "category": "day_service",
    "serviceType": "通所介護",
    "capacity": 0,
    "openDays": [
      "平日",
      "土曜日",
      "日曜日",
      "祝日"
    ],
    "openDaysNote": ""
  },
  {
    "id": "4670113184",
    "name": "デイサービスミニ花",
    "kana": "デイサービスミニハナ",
    "address": "鹿児島県鹿児島市緑ヶ丘町14番3号",
    "lat": 31.6564745,
    "lng": 130.5471138,
    "tel": "099-244-9333",
    "url": "http:www.midorigaoka-g.com",
    "pref": "鹿児島県",
    "city": "鹿児島市",
    "category": "day_service",
    "serviceType": "通所介護",
    "capacity": 0,
    "openDays": [
      "平日",
      "土曜日",
      "日曜日",
      "祝日"
    ],
    "openDaysNote": ""
  },
  {
    "id": "4670112210",
    "name": "デイサービスゆあ",
    "kana": "デイサービスユア",
    "address": "鹿児島県鹿児島市清水町17号10番住宅型有料老人ホームゆあ 住宅型有料老人ホームゆあ",
    "lat": 31.6072915,
    "lng": 130.5684727,
    "tel": "２４８-５７１２",
    "url": "",
    "pref": "鹿児島県",
    "city": "鹿児島市",
    "category": "day_service",
    "serviceType": "通所介護",
    "capacity": 0,
    "openDays": [
      "平日",
      "土曜日",
      "日曜日",
      "祝日"
    ],
    "openDaysNote": "12/31～1/3迄は休み"
  },
  {
    "id": "4670112244",
    "name": "デイサービスよかなぁ七福神",
    "kana": "デイサービスヨカナァシチフクジン",
    "address": "鹿児島県鹿児島市小野2-8-15",
    "lat": 31.6152844,
    "lng": 130.5264476,
    "tel": "099-228-2729",
    "url": "729729.ｊｐ",
    "pref": "鹿児島県",
    "city": "鹿児島市",
    "category": "day_service",
    "serviceType": "通所介護",
    "capacity": 42,
    "openDays": [
      "平日",
      "土曜日",
      "祝日"
    ],
    "openDaysNote": ""
  },
  {
    "id": "4670113226",
    "name": "デイサービスリハビリテーション花花",
    "kana": "デイサービスリハビリテーションハナハナ",
    "address": "鹿児島県鹿児島市緑ヶ丘町5番12号",
    "lat": 31.6565746611597,
    "lng": 130.546690163229,
    "tel": "099－248－8220",
    "url": "https://midorigaoka-group@midorigaoka-g.jp",
    "pref": "鹿児島県",
    "city": "鹿児島市",
    "category": "day_service",
    "serviceType": "通所介護",
    "capacity": 0,
    "openDays": [
      "平日",
      "土曜日",
      "日曜日",
      "祝日"
    ],
    "openDaysNote": ""
  },
  {
    "id": "4670112640",
    "name": "デイサービス花の香",
    "kana": "デイサービスハナノカ",
    "address": "鹿児島市坂之上4丁目4-35",
    "lat": 31.5012927,
    "lng": 130.5058775,
    "tel": "099-800-2072",
    "url": "",
    "pref": "鹿児島県",
    "city": "鹿児島市",
    "category": "day_service",
    "serviceType": "通所介護",
    "capacity": null,
    "openDays": [
      "平日",
      "土曜日",
      "日曜日",
      "祝日"
    ],
    "openDaysNote": ""
  },
  {
    "id": "4670108259",
    "name": "デイサービス花水木",
    "kana": "デイサービスハナミズキ",
    "address": "郡元三丁目4番15号",
    "lat": 31.5603463,
    "lng": 130.5489174,
    "tel": "099-255-5200",
    "url": "http://www.hana-sanaikai.or.jp",
    "pref": "鹿児島県",
    "city": "鹿児島市",
    "category": "day_service",
    "serviceType": "通所介護",
    "capacity": 35,
    "openDays": [
      "平日",
      "土曜日",
      "祝日"
    ],
    "openDaysNote": ""
  },
  {
    "id": "4670113937",
    "name": "デイサービス吉田さくらの里",
    "kana": "デイサービスヨシダサクラノサト",
    "address": "鹿児島県鹿児島市東佐多町2260番地1",
    "lat": 31.7339133,
    "lng": 130.5778705,
    "tel": "099-295-2422",
    "url": "https://www.y-sakuranosato.com",
    "pref": "鹿児島県",
    "city": "鹿児島市",
    "category": "day_service",
    "serviceType": "通所介護",
    "capacity": 0,
    "openDays": [
      "平日",
      "土曜日",
      "祝日"
    ],
    "openDaysNote": "但し、サービス提供時間は、ケアプラン、利用者の状況に応じて時間変更、延長可能とする。"
  },
  {
    "id": "4670113218",
    "name": "デイサービス福笑門",
    "kana": "デイサービスフクエモン",
    "address": "鹿児島県鹿児島市坂之上8-12-5",
    "lat": 31.4970886,
    "lng": 130.4993325,
    "tel": "099-262-1970",
    "url": "https://jyuemon-fukuemon.com/",
    "pref": "鹿児島県",
    "city": "鹿児島市",
    "category": "day_service",
    "serviceType": "通所介護",
    "capacity": null,
    "openDays": [
      "平日",
      "土曜日",
      "日曜日",
      "祝日"
    ],
    "openDaysNote": ""
  },
  {
    "id": "4670113077",
    "name": "デイサロンピース草牟田",
    "kana": "デイサロンピースソウムタ",
    "address": "鹿児島県鹿児島市草牟田2丁目29-10",
    "lat": 31.6071964686664,
    "lng": 130.537651803041,
    "tel": "099-295-0355",
    "url": "https://www.je-wa.jp",
    "pref": "鹿児島県",
    "city": "鹿児島市",
    "category": "day_service",
    "serviceType": "通所介護",
    "capacity": 0,
    "openDays": [
      "平日",
      "土曜日",
      "祝日"
    ],
    "openDaysNote": ""
  },
  {
    "id": "4670100702",
    "name": "とそ清風園デイサービスセンター",
    "kana": "トソセイフウエンデイサービスセンター",
    "address": "田上台1丁目43番1号",
    "lat": 31.567107675201,
    "lng": 130.528879323804,
    "tel": "099-286-6364",
    "url": "http://tososeifuen.com",
    "pref": "鹿児島県",
    "city": "鹿児島市",
    "category": "day_service",
    "serviceType": "通所介護",
    "capacity": 40,
    "openDays": [
      "平日",
      "土曜日",
      "祝日"
    ],
    "openDaysNote": ""
  },
  {
    "id": "4670105503",
    "name": "ニチイケアセンター南鹿児島",
    "kana": "ニチイケアセンターミナミカゴシマ",
    "address": "鹿児島県鹿児島市宇宿5丁目21番17号",
    "lat": 31.5476168,
    "lng": 130.5317693,
    "tel": "099-275-9882",
    "url": "http://www.nichiigakkan.co.jp",
    "pref": "鹿児島県",
    "city": "鹿児島市",
    "category": "day_service",
    "serviceType": "通所介護",
    "capacity": 0,
    "openDays": [
      "平日",
      "土曜日",
      "祝日"
    ],
    "openDaysNote": ""
  },
  {
    "id": "4670111865",
    "name": "ひびきビュータウン",
    "kana": "ヒビキビュータウン",
    "address": "鹿児島県鹿児島市桜ケ丘八丁目４０－６",
    "lat": 31.5448338,
    "lng": 130.5307806,
    "tel": "099-806-1011",
    "url": "",
    "pref": "鹿児島県",
    "city": "鹿児島市",
    "category": "day_service",
    "serviceType": "通所介護",
    "capacity": 0,
    "openDays": [
      "平日",
      "土曜日",
      "日曜日",
      "祝日"
    ],
    "openDaysNote": ""
  },
  {
    "id": "4670110370",
    "name": "ひびき桜館",
    "kana": "ヒビキサクラカン",
    "address": "鹿児島県鹿児島市桜ヶ丘七丁目6番地4",
    "lat": 31.5527272,
    "lng": 130.5211588,
    "tel": "099-275-9222",
    "url": "",
    "pref": "鹿児島県",
    "city": "鹿児島市",
    "category": "day_service",
    "serviceType": "通所介護",
    "capacity": 0,
    "openDays": [
      "平日",
      "土曜日",
      "日曜日",
      "祝日"
    ],
    "openDaysNote": ""
  },
  {
    "id": "4670110933",
    "name": "ヒューマンヒルズたなか",
    "kana": "ヒューマンヒルズタナカ",
    "address": "鹿児島県鹿児島市宮之浦町938番地1",
    "lat": 31.6787126,
    "lng": 130.5590983,
    "tel": "099-293-7210",
    "url": "http://human-tanaka.com/",
    "pref": "鹿児島県",
    "city": "鹿児島市",
    "category": "day_service",
    "serviceType": "通所介護",
    "capacity": 25,
    "openDays": [
      "平日",
      "土曜日",
      "日曜日",
      "祝日"
    ],
    "openDaysNote": ""
  },
  {
    "id": "4670113580",
    "name": "ヒューマンヒルズライム",
    "kana": "ヒューマンヒルズライム",
    "address": "鹿児島県鹿児島市本名町1077番地",
    "lat": 31.6835870973053,
    "lng": 130.554200013816,
    "tel": "099-801-7755",
    "url": "http://human-tanaka.com/",
    "pref": "鹿児島県",
    "city": "鹿児島市",
    "category": "day_service",
    "serviceType": "通所介護",
    "capacity": null,
    "openDays": [
      "平日",
      "土曜日",
      "日曜日",
      "祝日"
    ],
    "openDaysNote": ""
  },
  {
    "id": "4670107095",
    "name": "ヒユーマンライフケア玉乃湯",
    "kana": "ヒューマンライフケアタマノユ",
    "address": "鹿児島市荒田2丁目37-11",
    "lat": 31.5711897,
    "lng": 130.5509197,
    "tel": "099-812-2325",
    "url": "http://human-lifecare.jp",
    "pref": "鹿児島県",
    "city": "鹿児島市",
    "category": "day_service",
    "serviceType": "通所介護",
    "capacity": 36,
    "openDays": [
      "平日",
      "土曜日",
      "祝日"
    ],
    "openDaysNote": "ヒューマンライフケア玉乃湯むらさきばるサテライトも同様の営業時間・定休日とする。"
  },
  {
    "id": "4670108002",
    "name": "ぶれーす喜入デイサービスセンター",
    "kana": "ブレースキイレデイサービスセンター",
    "address": "鹿児島県鹿児島市喜入町８２３４－１",
    "lat": 31.367634657889,
    "lng": 130.536983291402,
    "tel": "０９９－３４５－２２０９",
    "url": "http://brace-kiire.jp",
    "pref": "鹿児島県",
    "city": "鹿児島市",
    "category": "day_service",
    "serviceType": "通所介護",
    "capacity": 20,
    "openDays": [
      "平日",
      "土曜日",
      "祝日"
    ],
    "openDaysNote": ""
  },
  {
    "id": "4670111998",
    "name": "ゆめふる鹿児島中央店",
    "kana": "ユメフルカゴシマチュウオウテン",
    "address": "鹿児島県鹿児島市平之町8-16第2丸西ビル1階 第2丸西ビル1階",
    "lat": 31.5907734,
    "lng": 130.5474638,
    "tel": "050-1753-8185",
    "url": "yasashiite.com/subdomains/section/482/",
    "pref": "鹿児島県",
    "city": "鹿児島市",
    "category": "day_service",
    "serviceType": "通所介護",
    "capacity": 0,
    "openDays": [
      "平日",
      "土曜日",
      "祝日"
    ],
    "openDaysNote": ""
  },
  {
    "id": "4670108788",
    "name": "ら・千年　デイサービスセンター",
    "kana": "ラ・センネン　デイサービスセンター",
    "address": "鹿児島県鹿児島市千年２丁目１１番２１号",
    "lat": 31.6402540968892,
    "lng": 130.524271975671,
    "tel": "099－220－7535",
    "url": "",
    "pref": "鹿児島県",
    "city": "鹿児島市",
    "category": "day_service",
    "serviceType": "通所介護",
    "capacity": 30,
    "openDays": [
      "平日",
      "土曜日",
      "祝日"
    ],
    "openDaysNote": ""
  },
  {
    "id": "4670109521",
    "name": "リハコート慈遊館",
    "kana": "リハコートジユウカン",
    "address": "下福元町3703サンコート慈遊館 サンコート慈遊館",
    "lat": 31.520783,
    "lng": 130.5024705,
    "tel": "992633077",
    "url": "http://www.jiyu-kan.com/sun-court/",
    "pref": "鹿児島県",
    "city": "鹿児島市",
    "category": "day_service",
    "serviceType": "通所介護",
    "capacity": 0,
    "openDays": [
      "平日",
      "土曜日",
      "祝日"
    ],
    "openDaysNote": ""
  },
  {
    "id": "4670111873",
    "name": "リハビリ型デイサービスセンターまりん",
    "kana": "リハビリガタデイサービスセンターマリン",
    "address": "鹿児島県鹿児島市東開町13-46ケアライフ南鹿児島 ケアライフ南鹿児島",
    "lat": 31.5276269,
    "lng": 130.5402172,
    "tel": "099-210-1165",
    "url": "https://bestlife1165.com/",
    "pref": "鹿児島県",
    "city": "鹿児島市",
    "category": "day_service",
    "serviceType": "通所介護",
    "capacity": 0,
    "openDays": [
      "平日",
      "土曜日",
      "日曜日",
      "祝日"
    ],
    "openDaysNote": ""
  },
  {
    "id": "4670105925",
    "name": "リハプラザ　ふれんどみなみ",
    "kana": "リハプラザ　フレンドミナミ",
    "address": "田上8丁目15番3号",
    "lat": 31.5943254,
    "lng": 130.503401,
    "tel": "099-283-3310",
    "url": "",
    "pref": "鹿児島県",
    "city": "鹿児島市",
    "category": "day_service",
    "serviceType": "通所介護",
    "capacity": 25,
    "openDays": [
      "平日",
      "土曜日",
      "祝日"
    ],
    "openDaysNote": ""
  },
  {
    "id": "4670113994",
    "name": "レッツ俱楽部草牟田",
    "kana": "レッツクラブソウムタ",
    "address": "草牟田１丁目5-1",
    "lat": 31.6015627,
    "lng": 130.5395835,
    "tel": "099-298-9850",
    "url": "https://www.lets-club.jp/shop/somuta/",
    "pref": "鹿児島県",
    "city": "鹿児島市",
    "category": "day_service",
    "serviceType": "通所介護",
    "capacity": 350,
    "openDays": [
      "平日",
      "土曜日",
      "祝日"
    ],
    "openDaysNote": ""
  },
  {
    "id": "4673200038",
    "name": "愛泉園デイサービスセンター通所介護事業所",
    "kana": "アイセンエンデイサービスセンターツウショカイゴジギョウショ",
    "address": "鹿児島県鹿児島市東俣町127-1",
    "lat": 31.687171617907,
    "lng": 130.499577840475,
    "tel": "099-298-8331",
    "url": "http://syoueikai.or.jp",
    "pref": "鹿児島県",
    "city": "鹿児島市",
    "category": "day_service",
    "serviceType": "通所介護",
    "capacity": 18,
    "openDays": [
      "平日",
      "土曜日",
      "祝日"
    ],
    "openDaysNote": "天候等の事情により休業とさせていただく場合があります。"
  },
  {
    "id": "4670113192",
    "name": "元気サロン花花",
    "kana": "ゲンキサロンハナハナ",
    "address": "鹿児島県鹿児島市緑ヶ丘町8番12号元気サロン花花 元気サロン花花",
    "lat": 31.6575945,
    "lng": 130.5462499,
    "tel": "099-243-2260",
    "url": "jimukyoku@midorigaoka-g.jp",
    "pref": "鹿児島県",
    "city": "鹿児島市",
    "category": "day_service",
    "serviceType": "通所介護",
    "capacity": null,
    "openDays": [
      "平日",
      "土曜日",
      "日曜日",
      "祝日"
    ],
    "openDaysNote": "年中無休"
  },
  {
    "id": "4670112723",
    "name": "公益財団法人　慈愛会　デイサービスはなぶさ",
    "kana": "コウエキザイダンホウジン　ジアイカイ　デイサービスハナブサ",
    "address": "鹿児島県鹿児島市小原町8-3介護老人保健施設愛と結の街内(1階フロア) 介護老人保健施設愛と結の街内(1階フロア)",
    "lat": 31.5418806,
    "lng": 130.5310393,
    "tel": "099-284-5663",
    "url": "http://www.jiaikai.or.jp/aitoyui/division/hanabusa.html",
    "pref": "鹿児島県",
    "city": "鹿児島市",
    "category": "day_service",
    "serviceType": "通所介護",
    "capacity": null,
    "openDays": [
      "平日",
      "土曜日",
      "祝日"
    ],
    "openDaysNote": "年末年始は休業（改行）※但し、休日が重なる場合は、利用者に不利益が生じないように休業期間を短縮する場合がある。"
  },
  {
    "id": "4670103755",
    "name": "慈眼寺園デイサービスセンター",
    "kana": "ジゲンジエンデイサービスセンター",
    "address": "鹿児島市錦江台１丁目２０番２０号",
    "lat": 31.5062117,
    "lng": 130.4959407,
    "tel": "099-263-0251",
    "url": "https://jigenjien.org/",
    "pref": "鹿児島県",
    "city": "鹿児島市",
    "category": "day_service",
    "serviceType": "通所介護",
    "capacity": 18,
    "openDays": [
      "平日",
      "土曜日",
      "祝日"
    ],
    "openDaysNote": ""
  },
  {
    "id": "4670101429",
    "name": "社会福祉法人恵会　はっぴー園デイサービスセンター",
    "kana": "シャカイフクシホウジンメグミカイハッピーエンデイサービスセンター",
    "address": "鹿児島市下福元町9563番地",
    "lat": 31.5039701321587,
    "lng": 130.48874045582,
    "tel": "099-284-2666",
    "url": "https://happy-en.jp/features/dayservice/",
    "pref": "鹿児島県",
    "city": "鹿児島市",
    "category": "day_service",
    "serviceType": "通所介護",
    "capacity": 0,
    "openDays": [
      "平日",
      "土曜日",
      "祝日"
    ],
    "openDaysNote": ""
  },
  {
    "id": "4673100022",
    "name": "松元通所介護事業所",
    "kana": "マツモトツウショカイゴジギョウショ",
    "address": "鹿児島県鹿児島市上谷口町3366番地5",
    "lat": 31.5967111232795,
    "lng": 130.429427298148,
    "tel": "099-278-4358",
    "url": "https://syafukuseijukai.com/",
    "pref": "鹿児島県",
    "city": "鹿児島市",
    "category": "day_service",
    "serviceType": "通所介護",
    "capacity": 40,
    "openDays": [
      "平日",
      "土曜日",
      "祝日"
    ],
    "openDaysNote": "ご利用の予約は、希望される期間の初日の２ケ月前から受け付けております。"
  },
  {
    "id": "4670101403",
    "name": "城山苑デイサービスセンター",
    "kana": "シロヤマエンデイサービスセンター",
    "address": "鹿児島市長田町32番1号",
    "lat": 31.6010305,
    "lng": 130.5489828,
    "tel": "099-219-6032",
    "url": "http://www.shiroyamakai.cim/",
    "pref": "鹿児島県",
    "city": "鹿児島市",
    "category": "day_service",
    "serviceType": "通所介護",
    "capacity": 0,
    "openDays": [
      "平日",
      "土曜日",
      "祝日"
    ],
    "openDaysNote": ""
  },
  {
    "id": "4670110347",
    "name": "真珠の里　伊敷台デイサービス",
    "kana": "シンジュノサト　イシキダイデイサービス",
    "address": "鹿児島県鹿児島市伊敷台１丁目２８－１１真珠の里　伊敷台ケアハイツ 真珠の里　伊敷台ケアハイツ",
    "lat": 31.6235173,
    "lng": 130.5361077,
    "tel": "099-228-5525",
    "url": "http://shinjunosato.com/",
    "pref": "鹿児島県",
    "city": "鹿児島市",
    "category": "day_service",
    "serviceType": "通所介護",
    "capacity": 20,
    "openDays": [
      "平日",
      "土曜日",
      "日曜日",
      "祝日"
    ],
    "openDaysNote": ""
  },
  {
    "id": "4670112202",
    "name": "真珠の里向陽デイサービス",
    "kana": "シンジュノサトコウヨウデイサービス",
    "address": "鹿児島県鹿児島市向陽2丁目２３－２真珠の里向陽ケアハイツ 真珠の里向陽ケアハイツ",
    "lat": 31.5570711,
    "lng": 130.5159593,
    "tel": "０９９－８２２－５５８５",
    "url": "http://shinnjunosato.com",
    "pref": "鹿児島県",
    "city": "鹿児島市",
    "category": "day_service",
    "serviceType": "通所介護",
    "capacity": 0,
    "openDays": [
      "平日",
      "土曜日",
      "日曜日",
      "祝日"
    ],
    "openDaysNote": "年中無休"
  },
  {
    "id": "4670101510",
    "name": "清谿園デイサービスセンター花時計",
    "kana": "セイケイエンデイサービスセンターハナドケイ",
    "address": "鹿児島市山田町3769番地",
    "lat": 31.5734080309334,
    "lng": 130.491903109631,
    "tel": "099-264-0370",
    "url": "http://www.seikeien.com",
    "pref": "鹿児島県",
    "city": "鹿児島市",
    "category": "day_service",
    "serviceType": "通所介護",
    "capacity": 0,
    "openDays": [
      "平日",
      "土曜日",
      "日曜日",
      "祝日"
    ],
    "openDaysNote": ""
  },
  {
    "id": "4670100694",
    "name": "泰山荘デイサービスセンター通所介護事業所",
    "kana": "タイザンソウデイサービスセンターツウショカイゴジギョウショ",
    "address": "皆与志町2261番地1",
    "lat": 31.6656241,
    "lng": 130.5291985,
    "tel": "099-238-5577",
    "url": "https://taizansou.jp",
    "pref": "鹿児島県",
    "city": "鹿児島市",
    "category": "day_service",
    "serviceType": "通所介護",
    "capacity": 0,
    "openDays": [
      "平日",
      "土曜日",
      "日曜日",
      "祝日"
    ],
    "openDaysNote": "季節災害時等につきましては休止する場合もございます。"
  },
  {
    "id": "4670112251",
    "name": "通所介護　コンフォート武岡",
    "kana": "ツウショカイゴコンフォートタケオカ",
    "address": "鹿児島県鹿児島市武岡1丁目１２１番１４号コンフォート武岡Ⅱ　１Ｆ コンフォート武岡Ⅱ　１Ｆ",
    "lat": 31.5862399,
    "lng": 130.5263457,
    "tel": "099-204-7497",
    "url": "",
    "pref": "鹿児島県",
    "city": "鹿児島市",
    "category": "day_service",
    "serviceType": "通所介護",
    "capacity": 0,
    "openDays": [
      "平日",
      "土曜日",
      "祝日"
    ],
    "openDaysNote": "お盆、正月3が日"
  },
  {
    "id": "4670105289",
    "name": "通所介護ひびき園",
    "kana": "ツウショカイゴヒビキエン",
    "address": "鹿児島市桜ヶ丘7丁目6-5",
    "lat": 31.5528366,
    "lng": 130.5213409,
    "tel": "099-275-8236",
    "url": "",
    "pref": "鹿児島県",
    "city": "鹿児島市",
    "category": "day_service",
    "serviceType": "通所介護",
    "capacity": 20,
    "openDays": [
      "平日",
      "土曜日",
      "日曜日",
      "祝日"
    ],
    "openDaysNote": ""
  },
  {
    "id": "4671600031",
    "name": "通所介護事業所　桜島苑",
    "kana": "ツウショカイゴジギョウショ　サクラジマエン",
    "address": "鹿児島市桜島横山町1722-45",
    "lat": 31.5901132,
    "lng": 130.602123,
    "tel": "099-293-2805",
    "url": "https//sakurajimaen.com",
    "pref": "鹿児島県",
    "city": "鹿児島市",
    "category": "day_service",
    "serviceType": "通所介護",
    "capacity": 0,
    "openDays": [
      "平日",
      "土曜日",
      "祝日"
    ],
    "openDaysNote": ""
  },
  {
    "id": "4670102120",
    "name": "美樹園デイサービスセンター",
    "kana": "ミキエンデイサービスセンター",
    "address": "鹿児島県鹿児島市下福元町１９２６番地６",
    "lat": 31.52351418888,
    "lng": 130.488274498811,
    "tel": "０９９－２６８－８８１１",
    "url": "https://mikien.or.jp/",
    "pref": "鹿児島県",
    "city": "鹿児島市",
    "category": "day_service",
    "serviceType": "通所介護",
    "capacity": 30,
    "openDays": [
      "平日",
      "土曜日",
      "祝日"
    ],
    "openDaysNote": "但し、利用者から希望があり、それに対応可能な場合は、その限りではない。"
  },
  {
    "id": "4670102880",
    "name": "武岡台デイサービスセンター",
    "kana": "タケオカダイデイサービスセンター",
    "address": "鹿児島市小野町2427番2",
    "lat": 31.5996135,
    "lng": 130.5124024,
    "tel": "099-283-6880",
    "url": "http://www.saiseikai-kg.jp",
    "pref": "鹿児島県",
    "city": "鹿児島市",
    "category": "day_service",
    "serviceType": "通所介護",
    "capacity": 55,
    "openDays": [
      "平日",
      "土曜日",
      "日曜日",
      "祝日"
    ],
    "openDaysNote": ""
  },
  {
    "id": "4670105545",
    "name": "睦園通所介護事業所",
    "kana": "ムツミエンツウショカイゴジギョウショ",
    "address": "鹿児島市吉野町6077番地56",
    "lat": 31.6501791,
    "lng": 130.5927005,
    "tel": "099-244-3583",
    "url": "https://www.mutumien.com",
    "pref": "鹿児島県",
    "city": "鹿児島市",
    "category": "day_service",
    "serviceType": "通所介護",
    "capacity": 0,
    "openDays": [
      "平日",
      "土曜日",
      "日曜日",
      "祝日"
    ],
    "openDaysNote": ""
  },
  {
    "id": "4670110644",
    "name": "夢のみずうみ村　デイサービスセンター",
    "kana": "ユメノミズウミムラ　デイサービスセンター",
    "address": "鹿児島県鹿児島市与次郎1-4-18アルテンハイム鹿児島６F アルテンハイム鹿児島６F",
    "lat": 31.5669362081428,
    "lng": 130.559757520613,
    "tel": "099-230-7776",
    "url": "http://www.nonohanakai.or.jp/",
    "pref": "鹿児島県",
    "city": "鹿児島市",
    "category": "day_service",
    "serviceType": "通所介護",
    "capacity": 0,
    "openDays": [
      "平日",
      "土曜日",
      "祝日"
    ],
    "openDaysNote": ""
  },
  {
    "id": "4670800640",
    "name": "ＪＡ鹿児島いずみ指定通所介護事業所",
    "kana": "ジェイエイカゴシマイズミシテイツウショカイゴジギョウショ",
    "address": "出水市高尾野町下水流890番地ＪＡ鹿児島いずみ介護福祉センター ＪＡ鹿児島いずみ介護福祉センター",
    "lat": 32.0862917978066,
    "lng": 130.28619272209,
    "tel": "0996-82-0056",
    "url": "https://ja-izumi.or.jp/care/",
    "pref": "鹿児島県",
    "city": "出水市",
    "category": "day_service",
    "serviceType": "通所介護",
    "capacity": 25,
    "openDays": [
      "平日",
      "土曜日",
      "祝日"
    ],
    "openDaysNote": "但し、年末12/31～翌年の1/3日までは休業とする。"
  },
  {
    "id": "4670800707",
    "name": "げんきリハサービス",
    "kana": "ゲンキリハサービス",
    "address": "鹿児島県出水市高尾野町下水流2247番地7",
    "lat": 32.0926793319606,
    "lng": 130.299039219678,
    "tel": "0996-64-2085",
    "url": "",
    "pref": "鹿児島県",
    "city": "出水市",
    "category": "day_service",
    "serviceType": "通所介護",
    "capacity": 35,
    "openDays": [
      "平日",
      "祝日"
    ],
    "openDaysNote": ""
  },
  {
    "id": "4670800657",
    "name": "デイサービス　はる風",
    "kana": "デイサービスハルカゼ",
    "address": "出水市大野原町742番地",
    "lat": 32.0764537,
    "lng": 130.3297769,
    "tel": "0996-63-7886",
    "url": "kubo210805@po4.synapse.ne.jp",
    "pref": "鹿児島県",
    "city": "出水市",
    "category": "day_service",
    "serviceType": "通所介護",
    "capacity": 25,
    "openDays": [
      "平日",
      "土曜日",
      "祝日"
    ],
    "openDaysNote": ""
  },
  {
    "id": "4670800616",
    "name": "デイサービスさくら草",
    "kana": "デイサービスサクラソウ",
    "address": "鹿児島県出水市知識町681番地",
    "lat": 32.0934879,
    "lng": 130.3318874,
    "tel": "0996-63-5305",
    "url": "http://sakura-izumi.com",
    "pref": "鹿児島県",
    "city": "出水市",
    "category": "day_service",
    "serviceType": "通所介護",
    "capacity": 30,
    "openDays": [
      "平日",
      "土曜日",
      "日曜日",
      "祝日"
    ],
    "openDaysNote": ""
  },
  {
    "id": "4670801069",
    "name": "デイサービスセカンドライフ合同会社",
    "kana": "デイサービスセカンドライフライフゴウドウカイシャ",
    "address": "鹿児島県出水市福ノ江町１２２６番地",
    "lat": 32.0984579,
    "lng": 130.3174569,
    "tel": "0996－68－1621",
    "url": "fp523525@dk2.so-net.ne.jp;",
    "pref": "鹿児島県",
    "city": "出水市",
    "category": "day_service",
    "serviceType": "通所介護",
    "capacity": 0,
    "openDays": [
      "平日",
      "土曜日",
      "日曜日",
      "祝日"
    ],
    "openDaysNote": ""
  },
  {
    "id": "4670800608",
    "name": "デイサービスセンター　リハシップ　あい西出水",
    "kana": "デイサービスセンター　リハシップ　アイニシイズミ",
    "address": "出水市大野原町1078-2",
    "lat": 32.0764987285927,
    "lng": 130.332902171164,
    "tel": "0996-68-6810",
    "url": "http://rehaship-ai.com/",
    "pref": "鹿児島県",
    "city": "出水市",
    "category": "day_service",
    "serviceType": "通所介護",
    "capacity": 55,
    "openDays": [
      "平日",
      "土曜日",
      "祝日"
    ],
    "openDaysNote": ""
  },
  {
    "id": "4670801036",
    "name": "デイサービスセンターポエム",
    "kana": "デイサ－ビスセンターポエム",
    "address": "鹿児島県出水市中央町907番地デイサービスセンターポエム デイサービスセンターポエム",
    "lat": 32.0837177383863,
    "lng": 130.353098468153,
    "tel": "0996-68-1450",
    "url": "http://eifu-kai.com",
    "pref": "鹿児島県",
    "city": "出水市",
    "category": "day_service",
    "serviceType": "通所介護",
    "capacity": 25,
    "openDays": [
      "平日",
      "土曜日",
      "祝日"
    ],
    "openDaysNote": "ただし、年末12月30日〜年始1月3日までは休業とするが事業所の定休と連続する場合はこの限りではない"
  },
  {
    "id": "4670800376",
    "name": "デイサービスセンターリハシップあい",
    "kana": "デイサービスセンターリハシップアイ",
    "address": "鹿児島県出水市米ノ津町429番地",
    "lat": 32.1181042620985,
    "lng": 130.339327889411,
    "tel": "0996-67-0819",
    "url": "http://rehaship-ai.com/",
    "pref": "鹿児島県",
    "city": "出水市",
    "category": "day_service",
    "serviceType": "通所介護",
    "capacity": 25,
    "openDays": [
      "平日",
      "土曜日",
      "祝日"
    ],
    "openDaysNote": ""
  },
  {
    "id": "4670800129",
    "name": "デイサービスセンター出水の里",
    "kana": "デイサービスセンターイズミノサト",
    "address": "出水市境町1822",
    "lat": 32.1661337,
    "lng": 130.3597676,
    "tel": "0996-67-1087",
    "url": "www.izumi-kouseikai.or.jp",
    "pref": "鹿児島県",
    "city": "出水市",
    "category": "day_service",
    "serviceType": "通所介護",
    "capacity": 0,
    "openDays": [
      "平日",
      "土曜日",
      "祝日"
    ],
    "openDaysNote": ""
  },
  {
    "id": "4670800822",
    "name": "デイサービスセンター鶴寿会たかおの",
    "kana": "デイサービスセンターカクジュカイタカオノ",
    "address": "出水市高尾野町大久保６００番地",
    "lat": 32.0625246,
    "lng": 130.310959,
    "tel": "0996-82-1071",
    "url": "",
    "pref": "鹿児島県",
    "city": "出水市",
    "category": "day_service",
    "serviceType": "通所介護",
    "capacity": 25,
    "openDays": [
      "平日",
      "土曜日",
      "祝日"
    ],
    "openDaysNote": "12/31～1/3は、休業日。"
  },
  {
    "id": "4674700036",
    "name": "デイサービスセンター野田の郷",
    "kana": "デイサービスセンターノダノサト",
    "address": "野田町下名4,975番地2",
    "lat": 32.0624341542268,
    "lng": 130.25944861039,
    "tel": "090-8769-9538",
    "url": "https://nodanosato.jp/",
    "pref": "鹿児島県",
    "city": "出水市",
    "category": "day_service",
    "serviceType": "通所介護",
    "capacity": 0,
    "openDays": [
      "平日",
      "土曜日",
      "祝日"
    ],
    "openDaysNote": ""
  },
  {
    "id": "4670800434",
    "name": "デイサービスセンター和",
    "kana": "デイサービスセンターナゴミ",
    "address": "鹿児島県出水市五万石町261番地",
    "lat": 32.0732069,
    "lng": 130.3443678,
    "tel": "０９９６－６２－２４１７",
    "url": "http://maedakenkoudoujou.web.fc2.com/",
    "pref": "鹿児島県",
    "city": "出水市",
    "category": "day_service",
    "serviceType": "通所介護",
    "capacity": 20,
    "openDays": [
      "平日",
      "土曜日",
      "祝日"
    ],
    "openDaysNote": ""
  },
  {
    "id": "4670800038",
    "name": "ニチイケアセンター出水",
    "kana": "ニチイケアセンターイズミ",
    "address": "鹿児島県出水市昭和町17-22",
    "lat": 32.0891943,
    "lng": 130.3521919,
    "tel": "0996-63-7673",
    "url": "http://www.nichiigakkan.co.jp",
    "pref": "鹿児島県",
    "city": "出水市",
    "category": "day_service",
    "serviceType": "通所介護",
    "capacity": 0,
    "openDays": [
      "平日",
      "土曜日",
      "祝日"
    ],
    "openDaysNote": ""
  },
  {
    "id": "4670800921",
    "name": "レストケア出水在宅医療センター（レストケア出水　デイ・イブニングセンター　癒）",
    "kana": "レストケアイズミザイタクイリョウセンター",
    "address": "鹿児島県出水市上知識町806番地",
    "lat": 32.0816032,
    "lng": 130.3410178,
    "tel": "0996-63-1900",
    "url": "restcare.co.jp",
    "pref": "鹿児島県",
    "city": "出水市",
    "category": "day_service",
    "serviceType": "通所介護",
    "capacity": 0,
    "openDays": [
      "平日",
      "土曜日",
      "祝日"
    ],
    "openDaysNote": ""
  },
  {
    "id": "4670800871",
    "name": "三慶医院・デイサービス",
    "kana": "サンケイイイン・デイサービス",
    "address": "鹿児島県出水市上鯖渕１９６６番地",
    "lat": 32.0802676,
    "lng": 130.366091,
    "tel": "０９９６－６３－２３３４",
    "url": "http://ochahoku.com",
    "pref": "鹿児島県",
    "city": "出水市",
    "category": "day_service",
    "serviceType": "通所介護",
    "capacity": 25,
    "openDays": [
      "平日",
      "土曜日",
      "祝日"
    ],
    "openDaysNote": ""
  },
  {
    "id": "4670800103",
    "name": "鶴寿園デイサービスセンター",
    "kana": "カクジュエンデイサービスセンター",
    "address": "出水市汐見町93番地鶴寿園デイサービスセンター 鶴寿園デイサービスセンター",
    "lat": 32.114819,
    "lng": 130.3145856,
    "tel": "0996-67-3890",
    "url": "",
    "pref": "鹿児島県",
    "city": "出水市",
    "category": "day_service",
    "serviceType": "通所介護",
    "capacity": 0,
    "openDays": [
      "平日",
      "土曜日",
      "祝日"
    ],
    "openDaysNote": ""
  },
  {
    "id": "4671400077",
    "name": "デイサービスセンター垂水華厳園",
    "kana": "デイサービスセンタータルミズケゴンエン",
    "address": "錦江町1番地226",
    "lat": 31.4882792,
    "lng": 130.6933873,
    "tel": "0994-32-0114",
    "url": "",
    "pref": "鹿児島県",
    "city": "垂水市",
    "category": "day_service",
    "serviceType": "通所介護",
    "capacity": 0,
    "openDays": [
      "平日",
      "土曜日",
      "祝日"
    ],
    "openDaysNote": "平成26年1月より祝日も営業　ただし日曜・年末29日～年始3日及び台風や自然災害により施設が使用できない時は、臨時休館"
  },
  {
    "id": "4671400317",
    "name": "デイサービスみらい",
    "kana": "デイサービスミライ",
    "address": "鹿児島県垂水市田神408番地1",
    "lat": 31.4885718,
    "lng": 130.7148437,
    "tel": "0994-32-4888",
    "url": "http://www.welfare-mirai.com",
    "pref": "鹿児島県",
    "city": "垂水市",
    "category": "day_service",
    "serviceType": "通所介護",
    "capacity": 26,
    "openDays": [
      "平日",
      "土曜日",
      "日曜日",
      "祝日"
    ],
    "openDaysNote": ""
  },
  {
    "id": "4678600398",
    "name": "医療法人　徳洲会　デイサービスセンターつむぎ",
    "kana": "イリョウホウジントクシュウカイ",
    "address": "鹿児島県大島郡瀬戸内町古仁屋下間原3-1デイサービスセンターつむぎ デイサービスセンターつむぎ",
    "lat": 28.1472656556603,
    "lng": 129.305962595631,
    "tel": "0997-73-7171",
    "url": "",
    "pref": "鹿児島県",
    "city": "瀬戸内町",
    "category": "day_service",
    "serviceType": "通所介護",
    "capacity": 0,
    "openDays": [
      "平日",
      "土曜日",
      "祝日"
    ],
    "openDaysNote": ""
  },
  {
    "id": "4678600059",
    "name": "奄美の園指定通所介護事業所",
    "kana": "アマミノソノシテイツウショカイゴジギョウショ",
    "address": "鹿児島県大島郡瀬戸内町古仁屋1283-27",
    "lat": 28.1382471,
    "lng": 129.3207023,
    "tel": "0997-72-0892",
    "url": "www.amaminosono.jp/seibokai.html",
    "pref": "鹿児島県",
    "city": "瀬戸内町",
    "category": "day_service",
    "serviceType": "通所介護",
    "capacity": 0,
    "openDays": [
      "平日",
      "土曜日",
      "祝日"
    ],
    "openDaysNote": ""
  },
  {
    "id": "4678600109",
    "name": "加計呂麻園通所介護事業所",
    "kana": "カケロマエンツウショカイゴジギョウショ",
    "address": "大島郡瀬戸内町伊子茂187番地1",
    "lat": 28.1085957,
    "lng": 129.243878,
    "tel": "0997-76-0808",
    "url": "kakeromaen.jp",
    "pref": "鹿児島県",
    "city": "瀬戸内町",
    "category": "day_service",
    "serviceType": "通所介護",
    "capacity": 0,
    "openDays": [
      "平日",
      "土曜日",
      "祝日"
    ],
    "openDaysNote": ""
  },
  {
    "id": "4671300483",
    "name": "オリオン",
    "kana": "オリオン",
    "address": "安城３６８０番地３５０",
    "lat": 30.6245539,
    "lng": 131.0025118,
    "tel": "0997-28-3350",
    "url": "",
    "pref": "鹿児島県",
    "city": "西之表市",
    "category": "day_service",
    "serviceType": "通所介護",
    "capacity": 20,
    "openDays": [
      "平日",
      "土曜日",
      "祝日"
    ],
    "openDaysNote": "但し１２月２９日から１月３日までは休み"
  },
  {
    "id": "4671300178",
    "name": "デイサービスセンター百合砂苑",
    "kana": "デイサービスセンターユリサエン",
    "address": "鹿児島県西之表市西之表6087番地",
    "lat": 30.7478607,
    "lng": 131.0036174,
    "tel": "0997-23-6161",
    "url": "www.yurisa.jp",
    "pref": "鹿児島県",
    "city": "西之表市",
    "category": "day_service",
    "serviceType": "通所介護",
    "capacity": 0,
    "openDays": [
      "平日",
      "土曜日",
      "祝日"
    ],
    "openDaysNote": ""
  },
  {
    "id": "4671300327",
    "name": "社会福祉法人西之表市社会福祉協議会「生きいきデイサービスセンター」",
    "kana": "シャカイフクシホウジンニシノオモテシシャカイフクシキョウギカイ「イキイキデイサービスセンター」",
    "address": "鹿児島県西之表市桜が丘7779番地94西之表市老人福祉センター 西之表市老人福祉センター",
    "lat": 30.7371395,
    "lng": 131.0067843,
    "tel": "0997-22-0506",
    "url": "http://nishinoomote-shakyo.jp/",
    "pref": "鹿児島県",
    "city": "西之表市",
    "category": "day_service",
    "serviceType": "通所介護",
    "capacity": 0,
    "openDays": [
      "平日",
      "祝日"
    ],
    "openDaysNote": ""
  },
  {
    "id": "4671600619",
    "name": "アクティブハウスＲ　短時間運動型デイサービス",
    "kana": "アクティブハウスアール　タンジカンウンドウガタデイサービス",
    "address": "鹿児島県曽於市大隅町岩川6564-4",
    "lat": 31.5932641,
    "lng": 130.997967,
    "tel": "099-479-3005",
    "url": "http//activehouse-r.co.jp",
    "pref": "鹿児島県",
    "city": "曽於市",
    "category": "day_service",
    "serviceType": "通所介護",
    "capacity": 0,
    "openDays": [
      "平日",
      "土曜日",
      "祝日"
    ],
    "openDaysNote": ""
  },
  {
    "id": "4671600577",
    "name": "デイサービス　あいり",
    "kana": "デイサービス　アイリ",
    "address": "鹿児島県曽於市末吉町深川1950番地3デイサービス　あいり デイサービス　あいり",
    "lat": 31.700604,
    "lng": 131.006041,
    "tel": "0986-58-7740",
    "url": "",
    "pref": "鹿児島県",
    "city": "曽於市",
    "category": "day_service",
    "serviceType": "通所介護",
    "capacity": 19,
    "openDays": [
      "平日",
      "土曜日",
      "祝日"
    ],
    "openDaysNote": "送迎に支障のある天候や感染症拡大予防が必要な時などは休業とする。"
  },
  {
    "id": "4676300181",
    "name": "デイサービスセンター　おおすみ苑",
    "kana": "デイサービスセンター　オオスミエン",
    "address": "曽於市大隅町月野1045番地",
    "lat": 31.5746505,
    "lng": 131.0343736,
    "tel": "099-482-3488",
    "url": "http://www.hakujyukai-kagoshima.jp",
    "pref": "鹿児島県",
    "city": "曽於市",
    "category": "day_service",
    "serviceType": "通所介護",
    "capacity": 40,
    "openDays": [
      "平日",
      "土曜日",
      "祝日"
    ],
    "openDaysNote": ""
  },
  {
    "id": "4671600551",
    "name": "デイサービスセンター　てんとうむし",
    "kana": "デイサービスセンターテントウムシ",
    "address": "鹿児島県曽於市財部町下財部1684番地1",
    "lat": 31.7245937358872,
    "lng": 131.009922749738,
    "tel": "0986-77-2173",
    "url": "",
    "pref": "鹿児島県",
    "city": "曽於市",
    "category": "day_service",
    "serviceType": "通所介護",
    "capacity": 34,
    "openDays": [
      "平日",
      "土曜日",
      "祝日"
    ],
    "openDaysNote": ""
  },
  {
    "id": "4671600627",
    "name": "海田ディサービス",
    "kana": "カイダディサービス",
    "address": "鹿児島県曽於市末吉町二之方439番地",
    "lat": 31.6596372,
    "lng": 131.0217169,
    "tel": "0986-36-6158",
    "url": "",
    "pref": "鹿児島県",
    "city": "曽於市",
    "category": "day_service",
    "serviceType": "通所介護",
    "capacity": 0,
    "openDays": [
      "平日",
      "土曜日",
      "祝日"
    ],
    "openDaysNote": ""
  },
  {
    "id": "4671600155",
    "name": "曽於市社会福祉協議会通所介護大隅事業所",
    "kana": "ソオシシャカイフクシキョウギカイツウショカイゴオオスミジギョウショ",
    "address": "鹿児島県曽於市大隅町岩川5760番地1大隅デイサービスセンター 大隅デイサービスセンター",
    "lat": 31.5930056,
    "lng": 130.9907252,
    "tel": "099-482-3240",
    "url": "http://soo-shakyo.or.jp/",
    "pref": "鹿児島県",
    "city": "曽於市",
    "category": "day_service",
    "serviceType": "通所介護",
    "capacity": 30,
    "openDays": [
      "平日",
      "土曜日",
      "祝日"
    ],
    "openDaysNote": "悪天候（台風，積雪等）の場合や災害が発生した場合（未然に防ぐ場合を含む。）には，休業又は営業時間を短縮することがあります。"
  },
  {
    "id": "4671600684",
    "name": "末吉デイサービスセンター",
    "kana": "スエヨシデイサービスセンター",
    "address": "鹿児島県曽於市末吉町二之方3990番地3",
    "lat": 31.6314282,
    "lng": 131.041092,
    "tel": "0996-76-1814",
    "url": "https://www.unity-g.com/",
    "pref": "鹿児島県",
    "city": "曽於市",
    "category": "day_service",
    "serviceType": "通所介護",
    "capacity": 0,
    "openDays": [
      "平日",
      "土曜日",
      "祝日"
    ],
    "openDaysNote": ""
  },
  {
    "id": "4676600101",
    "name": "輪光無量寿園デイサービスセンター",
    "kana": "リンコウムリョウジュエンデイサービスセンター",
    "address": "鹿児島県曽於市末吉町岩崎971番地1",
    "lat": 31.5962329,
    "lng": 130.9988659,
    "tel": "099-482-5800",
    "url": "day@rinkou1964.or.jp",
    "pref": "鹿児島県",
    "city": "曽於市",
    "category": "day_service",
    "serviceType": "通所介護",
    "capacity": 0,
    "openDays": [
      "平日",
      "土曜日",
      "日曜日",
      "祝日"
    ],
    "openDaysNote": ""
  },
  {
    "id": "4677000202",
    "name": "さくらわくわくデイサービス",
    "kana": "サクラワクワクデイサービス",
    "address": "鹿児島県曽於郡大崎町假宿101番地1さくらわくわくデイサービス さくらわくわくデイサービス",
    "lat": 31.4400518,
    "lng": 130.9909381,
    "tel": "099-476-3509",
    "url": "dayservice-sakura.com",
    "pref": "鹿児島県",
    "city": "大崎町",
    "category": "day_service",
    "serviceType": "通所介護",
    "capacity": 10,
    "openDays": [
      "平日",
      "祝日"
    ],
    "openDaysNote": "月曜日から金曜日まで祝日関係なく営業してます"
  },
  {
    "id": "4677000269",
    "name": "デイサービスちゃのか",
    "kana": "デイサービスチャノカ",
    "address": "鹿児島県曽於郡大崎町持留1167番地４",
    "lat": 31.4509186848473,
    "lng": 130.954463118091,
    "tel": "099-479-3761",
    "url": "https://happy-support-web.com/",
    "pref": "鹿児島県",
    "city": "大崎町",
    "category": "day_service",
    "serviceType": "通所介護",
    "capacity": null,
    "openDays": [
      "平日",
      "土曜日",
      "祝日"
    ],
    "openDaysNote": ""
  },
  {
    "id": "4677000053",
    "name": "回生園デイサービスセンター",
    "kana": "カイセイエンデイサービスセンター",
    "address": "曽於郡大崎町菱田家戸原3063番地",
    "lat": 31.4443079,
    "lng": 131.0416522,
    "tel": "099-477-2525",
    "url": "http://www.kaiseien-sanpokai.jp/pc/index.html",
    "pref": "鹿児島県",
    "city": "大崎町",
    "category": "day_service",
    "serviceType": "通所介護",
    "capacity": 7,
    "openDays": [
      "平日",
      "土曜日",
      "祝日"
    ],
    "openDaysNote": "サービス提供時間は午前09:30～午後15:40とする。（改行）元旦・祝日営業"
  },
  {
    "id": "4613110602",
    "name": "中種子クリニック",
    "kana": "ナカタネクリニック",
    "address": "鹿児島県熊毛郡中種子町野間6481-1",
    "lat": 30.5231231,
    "lng": 130.9539617,
    "tel": "0997-27-3222",
    "url": "http://www.tokushukai.jp/hso/c-nakataneko/",
    "pref": "鹿児島県",
    "city": "中種子町",
    "category": "day_service",
    "serviceType": "通所介護",
    "capacity": 30,
    "openDays": [
      "平日",
      "土曜日",
      "祝日"
    ],
    "openDaysNote": ""
  },
  {
    "id": "4678000045",
    "name": "南界園通所介護センター",
    "kana": "ナンカイエンツウショカイゴセンター",
    "address": "熊毛郡中種子町田島327-1",
    "lat": 30.4812014,
    "lng": 130.9409206,
    "tel": "0997-27-9204",
    "url": "https://nankaien.jiaikai-k.or.jp/tuusyo",
    "pref": "鹿児島県",
    "city": "中種子町",
    "category": "day_service",
    "serviceType": "通所介護",
    "capacity": 30,
    "openDays": [
      "平日",
      "土曜日",
      "祝日"
    ],
    "openDaysNote": "サービス提供時間とは異なります。"
  },
  {
    "id": "4675000139",
    "name": "あかね園デイサービスセンター",
    "kana": "アカネエンデイサービスセンター",
    "address": "出水郡長島町城川内2331-8",
    "lat": 32.1199304,
    "lng": 130.1192863,
    "tel": "0996-65-1117",
    "url": "akaneen_day@po3.synapsene.jp",
    "pref": "鹿児島県",
    "city": "長島町",
    "category": "day_service",
    "serviceType": "通所介護",
    "capacity": 30,
    "openDays": [
      "平日",
      "土曜日",
      "祝日"
    ],
    "openDaysNote": "台風や積雪等で、送迎に危険がある場合は、営業中止か時間短縮での営業を行います。"
  },
  {
    "id": "4679200065",
    "name": "天城町社会福祉協議会　デイサービスセンター",
    "kana": "アマギチョウシャカイフクシキョウギカイ　デイサービスセンター",
    "address": "鹿児島県大島郡天城町天城462番地",
    "lat": 27.8150985350329,
    "lng": 128.894197313492,
    "tel": "0997-85-5093",
    "url": "",
    "pref": "鹿児島県",
    "city": "天城町",
    "category": "day_service",
    "serviceType": "通所介護",
    "capacity": 0,
    "openDays": [
      "平日",
      "祝日"
    ],
    "openDaysNote": ""
  },
  {
    "id": "4677200067",
    "name": "デイサービスセンタールーピンの里",
    "kana": "デイサービスセンタールーピンノサト",
    "address": "鹿児島県肝属郡東串良町池之原２０７７－１",
    "lat": 31.3941942,
    "lng": 130.9787525,
    "tel": "０９９４－６３－０７００",
    "url": "http://www.ru-pin.jp",
    "pref": "鹿児島県",
    "city": "東串良町",
    "category": "day_service",
    "serviceType": "通所介護",
    "capacity": 0,
    "openDays": [
      "平日",
      "土曜日",
      "日曜日",
      "祝日"
    ],
    "openDaysNote": "自然災害等により安全な送迎実施が不能な場合は休業"
  },
  {
    "id": "4677200133",
    "name": "デイサービス南の太陽",
    "kana": "デイサービスミナミノタイヨウ",
    "address": "鹿児島県肝属群東串良町新川西1355-3",
    "lat": 31.3614107,
    "lng": 130.9884695,
    "tel": "0994-63-8833",
    "url": "http://www.minaminotaiyo.co.jp",
    "pref": "鹿児島県",
    "city": "東串良町",
    "category": "day_service",
    "serviceType": "通所介護",
    "capacity": 0,
    "openDays": [
      "平日",
      "土曜日",
      "日曜日",
      "祝日"
    ],
    "openDaysNote": ""
  },
  {
    "id": "4677200166",
    "name": "自立支援センターおおすみ",
    "kana": "ジリツシエンセンターオオスミ",
    "address": "鹿児島県肝属郡東串良町池之原1223番地",
    "lat": 31.3917275,
    "lng": 130.9698086,
    "tel": "0994-31-4510",
    "url": "https://bs-osumi.com/",
    "pref": "鹿児島県",
    "city": "東串良町",
    "category": "day_service",
    "serviceType": "通所介護",
    "capacity": 20,
    "openDays": [
      "平日",
      "土曜日",
      "祝日"
    ],
    "openDaysNote": "・非常災害時に営業時間を変更し、あるいは休業日とすることがあります。"
  },
  {
    "id": "4679100091",
    "name": "デイサービスセンター南風園",
    "kana": "デイサービスセンターナンプウエン",
    "address": "鹿児島県大島郡徳之島町花徳620番地",
    "lat": 27.8198466,
    "lng": 128.9661946,
    "tel": "0997-84-0881",
    "url": "https://www.nanpuuen.org/",
    "pref": "鹿児島県",
    "city": "徳之島町",
    "category": "day_service",
    "serviceType": "通所介護",
    "capacity": 35,
    "openDays": [
      "平日",
      "土曜日",
      "祝日"
    ],
    "openDaysNote": "宿泊サービスは提供しておりません。"
  },
  {
    "id": "4679100059",
    "name": "社会福祉法人徳之島町社会福祉協議会通所介護事業所",
    "kana": "シャカイフクシホウジントクノシマチョウシャカイフクシキョウギカイツウショカイゴジギョウショ",
    "address": "大島郡徳之島町亀津７６７４番地",
    "lat": 27.7364194,
    "lng": 129.0227455,
    "tel": "０９９７－８３－１２０５",
    "url": "htpps//www.syakyo.or.jp/hp/1770/",
    "pref": "鹿児島県",
    "city": "徳之島町",
    "category": "day_service",
    "serviceType": "通所介護",
    "capacity": 30,
    "openDays": [
      "平日",
      "祝日"
    ],
    "openDaysNote": ""
  },
  {
    "id": "4671100537",
    "name": "デイサービス・カンナ",
    "kana": "デイサービス・カンナ",
    "address": "鹿児島県南さつま市加世田本町21-4",
    "lat": 31.4185285,
    "lng": 130.3201661,
    "tel": "0993-52-2036",
    "url": "",
    "pref": "鹿児島県",
    "city": "南さつま市",
    "category": "day_service",
    "serviceType": "通所介護",
    "capacity": 0,
    "openDays": [
      "平日",
      "土曜日"
    ],
    "openDaysNote": "特になし"
  },
  {
    "id": "4671100339",
    "name": "デイサービスセンター坊津",
    "kana": "デイサービスセンターボウノツ",
    "address": "鹿児島県南さつま市坊津町坊9422番地2坊津老人福祉センター 坊津老人福祉センター",
    "lat": 31.2735051976785,
    "lng": 130.224794960134,
    "tel": "0993-67-0176",
    "url": "http://www.shakyo.or.jp/hp/1744/",
    "pref": "鹿児島県",
    "city": "南さつま市",
    "category": "day_service",
    "serviceType": "通所介護",
    "capacity": 25,
    "openDays": [
      "平日",
      "祝日"
    ],
    "openDaysNote": "急を要する場合、あるいは利用者の状況等により必要な場合は営業日あるいは営業時間を超えて業務が行えるものとする。"
  },
  {
    "id": "4671100453",
    "name": "デイサービス石蕗の里",
    "kana": "デイサービスツワブキノサト",
    "address": "鹿児島県南さつま市金峰町花瀬１６１１デイサービス石蕗の里 デイサービス石蕗の里",
    "lat": 31.4225196,
    "lng": 130.3402167,
    "tel": "0993-58-4100",
    "url": "http://tuwabukinosato.co.jp/index.html",
    "pref": "鹿児島県",
    "city": "南さつま市",
    "category": "day_service",
    "serviceType": "通所介護",
    "capacity": 51,
    "openDays": [
      "平日",
      "土曜日",
      "日曜日",
      "祝日"
    ],
    "openDaysNote": "なし"
  },
  {
    "id": "4671100628",
    "name": "デイサービス有馬",
    "kana": "デイサービスアリマ",
    "address": "鹿児島県南さつま市加世田本町18-3有料老人ホームセレーノ 有料老人ホームセレーノ",
    "lat": 31.4205032,
    "lng": 130.3207069,
    "tel": "0993-76-1231",
    "url": "",
    "pref": "鹿児島県",
    "city": "南さつま市",
    "category": "day_service",
    "serviceType": "通所介護",
    "capacity": 30,
    "openDays": [
      "平日",
      "土曜日",
      "祝日"
    ],
    "openDaysNote": "その他の年間休日　12月31日～1月1日"
  },
  {
    "id": "4673500031",
    "name": "金峰苑デイサービスセンター",
    "kana": "キンポウエンデイサービスセンター",
    "address": "鹿児島県南さつま市金峰町宮崎4019",
    "lat": 31.4352288,
    "lng": 130.3358441,
    "tel": "0993-77-0041",
    "url": "",
    "pref": "鹿児島県",
    "city": "南さつま市",
    "category": "day_service",
    "serviceType": "通所介護",
    "capacity": 20,
    "openDays": [
      "平日",
      "土曜日",
      "祝日"
    ],
    "openDaysNote": "・定休日に業務についてのお問い合わせは、金峰苑指定居宅介護支援事業所又は特別養護老人ホーム金峰苑で承ります。"
  },
  {
    "id": "4671100081",
    "name": "夢のみずうみ村アルテンハイムデイサービスセンター",
    "kana": "ユメノミズウミムラアルテンハイムデイサービスセンター",
    "address": "鹿児島県南さつま市加世田武田13877番地",
    "lat": 31.4014637,
    "lng": 130.3023281,
    "tel": "0993-58-2715",
    "url": "http://www.nonohanakai.or.jp/",
    "pref": "鹿児島県",
    "city": "南さつま市",
    "category": "day_service",
    "serviceType": "通所介護",
    "capacity": 35,
    "openDays": [
      "平日",
      "土曜日",
      "祝日"
    ],
    "openDaysNote": "リハビリテーションの効果を高めるため以下のような障壁（バリアー）があります。階段、段差などによる転倒の危険、火、機械、道具を使う危険、長い廊下、狭い通路などご家庭や外出時において遭遇される可能性のある、これらの危険性を克服するための方法を体験・学習して頂くことをねらって、意図的に、障壁（バリアー）のある環境設置をしています。"
  },
  {
    "id": "4671100073",
    "name": "養徳園指定通所介護事業所",
    "kana": "ヨウトクエンシテイツウショカイゴジギョウショ",
    "address": "鹿児島県南さつま市加世田小湊528番地",
    "lat": 31.4203972,
    "lng": 130.2930368,
    "tel": "0993-53-8831",
    "url": "https://youtokuen.com/",
    "pref": "鹿児島県",
    "city": "南さつま市",
    "category": "day_service",
    "serviceType": "通所介護",
    "capacity": 40,
    "openDays": [
      "平日",
      "土曜日",
      "祝日"
    ],
    "openDaysNote": "特に無し"
  },
  {
    "id": "4671100578",
    "name": "和が家のデイ和温",
    "kana": "ワガヤノデイワオン",
    "address": "鹿児島県南さつま市金峰町中津野1185番地",
    "lat": 31.4485577,
    "lng": 130.3475259,
    "tel": "0993-78-3503",
    "url": "",
    "pref": "鹿児島県",
    "city": "南さつま市",
    "category": "day_service",
    "serviceType": "通所介護",
    "capacity": 23,
    "openDays": [
      "平日",
      "土曜日",
      "日曜日",
      "祝日"
    ],
    "openDaysNote": ""
  },
  {
    "id": "4672100098",
    "name": "こぎく園大川デイサービスセンター",
    "kana": "コギクエンオオカワデイサービスセンター",
    "address": "頴娃町別府６６１１番地３",
    "lat": 31.2563308,
    "lng": 130.4148963,
    "tel": "0993-38-0828",
    "url": "https://ookawafukushikai.jp/",
    "pref": "鹿児島県",
    "city": "南九州市",
    "category": "day_service",
    "serviceType": "通所介護",
    "capacity": 0,
    "openDays": [
      "平日",
      "土曜日",
      "祝日"
    ],
    "openDaysNote": "営業日は月曜日から土曜日（ただし、１２月３１日〜１月３日は除く）"
  },
  {
    "id": "4674300423",
    "name": "シオンの家かわなべ",
    "kana": "シオンノイエカワナベ",
    "address": "鹿児島県南九州市川辺町清水9435-3",
    "lat": 31.42507562749,
    "lng": 130.453793271164,
    "tel": "0993-58-3701",
    "url": "https://zionnoie.jimdofree.com/",
    "pref": "鹿児島県",
    "city": "南九州市",
    "category": "day_service",
    "serviceType": "通所介護",
    "capacity": 20,
    "openDays": [
      "平日",
      "土曜日",
      "日曜日",
      "祝日"
    ],
    "openDaysNote": ""
  },
  {
    "id": "4674300183",
    "name": "デイサービス　笑和",
    "kana": "デイサービス　ショウワ",
    "address": "川辺町平山6140-2",
    "lat": 31.3870845,
    "lng": 130.3976718,
    "tel": "0993-56-0660",
    "url": "https://daysa-bisusyouwa.p-kit.com/",
    "pref": "鹿児島県",
    "city": "南九州市",
    "category": "day_service",
    "serviceType": "通所介護",
    "capacity": 25,
    "openDays": [
      "平日",
      "祝日"
    ],
    "openDaysNote": ""
  },
  {
    "id": "4672600063",
    "name": "デイサービスセンター　音野舎",
    "kana": "デイサービスセンター　ノンノシャ",
    "address": "鹿児島県南九州市知覧町郡2072番地２",
    "lat": 31.3543562,
    "lng": 130.4328692,
    "tel": "0993-58-7158",
    "url": "https://www.nonnosya.com/",
    "pref": "鹿児島県",
    "city": "南九州市",
    "category": "day_service",
    "serviceType": "通所介護",
    "capacity": 0,
    "openDays": [
      "平日",
      "土曜日",
      "祝日"
    ],
    "openDaysNote": ""
  },
  {
    "id": "4674300530",
    "name": "デイサービス潮騒の郷",
    "kana": "デイサービス　シオサイノサト",
    "address": "鹿児島県南九州市知覧町塩屋14632-7",
    "lat": 31.2921978,
    "lng": 130.3992765,
    "tel": "0993-78-4112",
    "url": "",
    "pref": "鹿児島県",
    "city": "南九州市",
    "category": "day_service",
    "serviceType": "通所介護",
    "capacity": 0,
    "openDays": [
      "平日",
      "土曜日",
      "祝日"
    ],
    "openDaysNote": "夏季　8月14日と8月15日　および　年末年始　12月31日から1月3日　は休日とします"
  },
  {
    "id": "4674300407",
    "name": "一歩通所介護",
    "kana": "イッポツウショカイゴ",
    "address": "鹿児島県南九州市頴娃町上別府8413番地1",
    "lat": 31.3058728,
    "lng": 130.4401674,
    "tel": "0993-28-2112",
    "url": "ippoyume66＠Yahoo.co.jp",
    "pref": "鹿児島県",
    "city": "南九州市",
    "category": "day_service",
    "serviceType": "通所介護",
    "capacity": 0,
    "openDays": [
      "平日",
      "土曜日",
      "祝日"
    ],
    "openDaysNote": ""
  },
  {
    "id": "4672600089",
    "name": "憩いの里デイサービスセンター",
    "kana": "イコイノサトデイサービスセンター",
    "address": "鹿児島県南九州市知覧町永里４５７７番地３",
    "lat": 31.3684026,
    "lng": 130.449425,
    "tel": "0993-83-4815",
    "url": "http://www.ikoi-chiran.com/",
    "pref": "鹿児島県",
    "city": "南九州市",
    "category": "day_service",
    "serviceType": "通所介護",
    "capacity": 0,
    "openDays": [
      "平日",
      "土曜日",
      "祝日"
    ],
    "openDaysNote": "台風・雪等自然災害時等、送迎などで利用者に危険が生じる場合は、休館する事がある。"
  },
  {
    "id": "4672700046",
    "name": "川辺みどり園デイサービスセンター",
    "kana": "カワナベミドリエンデイサービスセンター",
    "address": "鹿児島県南九州市川辺町清水10131-2",
    "lat": 31.432728514587,
    "lng": 130.46247792056,
    "tel": "0993-56-0018",
    "url": "http://kawanabe19.sakura.ne.jp/~midorien/index.htm",
    "pref": "鹿児島県",
    "city": "南九州市",
    "category": "day_service",
    "serviceType": "通所介護",
    "capacity": 0,
    "openDays": [
      "平日",
      "土曜日",
      "祝日"
    ],
    "openDaysNote": ""
  },
  {
    "id": "4672100205",
    "name": "童里夢えい通所介護事業所",
    "kana": "ドリームエイツウショカイゴジギョウショ",
    "address": "鹿児島県南九州市頴娃町上別府489-1",
    "lat": 31.2812137060142,
    "lng": 130.457596765082,
    "tel": "0993-38-0354",
    "url": "",
    "pref": "鹿児島県",
    "city": "南九州市",
    "category": "day_service",
    "serviceType": "通所介護",
    "capacity": 0,
    "openDays": [
      "平日",
      "土曜日",
      "日曜日",
      "祝日"
    ],
    "openDaysNote": ""
  },
  {
    "id": "4672100080",
    "name": "望洋の里デイ・サービスセンター通所介護事業所",
    "kana": "ボウヨウノサトデイサービスセンターツウショカイゴジギョウショ",
    "address": "南九州市頴娃町牧之内3776-8",
    "lat": 31.2487302,
    "lng": 130.4947308,
    "tel": "0993-36-3075",
    "url": "http://www3.synapse.ne.jp/bouyou/",
    "pref": "鹿児島県",
    "city": "南九州市",
    "category": "day_service",
    "serviceType": "通所介護",
    "capacity": 0,
    "openDays": [
      "平日",
      "土曜日",
      "祝日"
    ],
    "openDaysNote": "自然災害等の悪天候による送迎中の事故が予想される場合等急遽営業を中止する場合があります。"
  },
  {
    "id": "4678100134",
    "name": "南種子町社協　河内温泉ディサービスセンター",
    "kana": "ミナミタネチョウシャキョウ　カワチオンセンディサービスセンター",
    "address": "熊毛郡南種子町中之上384番地",
    "lat": 30.4167126,
    "lng": 130.9024986,
    "tel": "0997-26-1771",
    "url": "http://minamitaneshakyo.sakura.ne.jp",
    "pref": "鹿児島県",
    "city": "南種子町",
    "category": "day_service",
    "serviceType": "通所介護",
    "capacity": 30,
    "openDays": [
      "平日",
      "祝日"
    ],
    "openDaysNote": ""
  },
  {
    "id": "4678100043",
    "name": "芙蓉苑デイサービスセンター",
    "kana": "フヨウエンデイサービスセンター",
    "address": "中之上１７０２－４",
    "lat": 30.4360108965073,
    "lng": 130.913211918385,
    "tel": "０９９７－２６－２３４５",
    "url": "",
    "pref": "鹿児島県",
    "city": "南種子町",
    "category": "day_service",
    "serviceType": "通所介護",
    "capacity": 30,
    "openDays": [
      "平日",
      "土曜日",
      "祝日"
    ],
    "openDaysNote": "特になし。"
  },
  {
    "id": "4677700033",
    "name": "蒼水園デイサービスセンター",
    "kana": "ソウスイエンデイサービスセンター",
    "address": "鹿児島県肝属郡南大隅町根占山本1250番地1",
    "lat": 31.2033674072528,
    "lng": 130.775036939287,
    "tel": "0994-24-5547",
    "url": "https://sousuien.org",
    "pref": "鹿児島県",
    "city": "南大隅町",
    "category": "day_service",
    "serviceType": "通所介護",
    "capacity": 0,
    "openDays": [
      "平日",
      "土曜日",
      "祝日"
    ],
    "openDaysNote": "なし"
  },
  {
    "id": "4671500991",
    "name": "デイサービス　しろうぞの",
    "kana": "デイサービス　シロウゾノ",
    "address": "鹿児島県日置市伊集院町下谷口2569",
    "lat": 31.6177684,
    "lng": 130.4089182,
    "tel": "099-272-4646",
    "url": "http://kentac.org",
    "pref": "鹿児島県",
    "city": "日置市",
    "category": "day_service",
    "serviceType": "通所介護",
    "capacity": 30,
    "openDays": [
      "平日",
      "土曜日",
      "祝日"
    ],
    "openDaysNote": "今後、利用者数の増加が見込まれれば日曜日も営業予定。"
  },
  {
    "id": "4673000131",
    "name": "デイサービスセンター　やはずの里",
    "kana": "デイサービスセンター　ヤハズノサト",
    "address": "鹿児島県日置市伊集院町飯牟礼369番1号",
    "lat": 31.6179683,
    "lng": 130.3857349,
    "tel": "099-273-8219",
    "url": "http://www.yahazunosato.com/",
    "pref": "鹿児島県",
    "city": "日置市",
    "category": "day_service",
    "serviceType": "通所介護",
    "capacity": 0,
    "openDays": [
      "平日",
      "土曜日",
      "祝日"
    ],
    "openDaysNote": "年末年始(12/30～1/3)は、休業日とさせて頂きます。"
  },
  {
    "id": "4671500603",
    "name": "デイサービスセンターゆめいろ",
    "kana": "デイサービスセンターユメイロ",
    "address": "伊集院町下谷口2168デイサービスセンターゆめいろ デイサービスセンターゆめいろ",
    "lat": 31.6235913249827,
    "lng": 130.399483262566,
    "tel": "099-213-9444",
    "url": "",
    "pref": "鹿児島県",
    "city": "日置市",
    "category": "day_service",
    "serviceType": "通所介護",
    "capacity": 0,
    "openDays": [
      "平日",
      "土曜日",
      "日曜日",
      "祝日"
    ],
    "openDaysNote": ""
  },
  {
    "id": "4672900083",
    "name": "デイサービスセンター秋光園",
    "kana": "デイサービスセンターシュウコウエン",
    "address": "鹿児島県日置市東市来町長里360-1",
    "lat": 31.6625997551571,
    "lng": 130.348942855295,
    "tel": "099-274-3770",
    "url": "",
    "pref": "鹿児島県",
    "city": "日置市",
    "category": "day_service",
    "serviceType": "通所介護",
    "capacity": 35,
    "openDays": [
      "平日",
      "土曜日",
      "祝日"
    ],
    "openDaysNote": ""
  },
  {
    "id": "4671500918",
    "name": "デイサービス百花",
    "kana": "デイサービスモモカ",
    "address": "鹿児島県日置市伊集院町徳重338-1百花 百花",
    "lat": 31.6308789972686,
    "lng": 130.396005361377,
    "tel": "099-272-6606",
    "url": "",
    "pref": "鹿児島県",
    "city": "日置市",
    "category": "day_service",
    "serviceType": "通所介護",
    "capacity": 0,
    "openDays": [
      "平日",
      "土曜日"
    ],
    "openDaysNote": ""
  },
  {
    "id": "4673400059",
    "name": "喜楽奈村通所介護事業所",
    "kana": "キラクナムラツウショカイゴジギョウショ",
    "address": "鹿児島県日置市吹上町湯之浦2781番地",
    "lat": 31.5041924,
    "lng": 130.3718549,
    "tel": "099-296-3400",
    "url": "http://www.akebonofukushikai.jp/",
    "pref": "鹿児島県",
    "city": "日置市",
    "category": "day_service",
    "serviceType": "通所介護",
    "capacity": 0,
    "openDays": [
      "平日",
      "土曜日",
      "祝日"
    ],
    "openDaysNote": ""
  },
  {
    "id": "4671500124",
    "name": "社会福祉法人　日置市社会福祉協議会　通所介護東市来事業所",
    "kana": "シャカイフクシホウジン　ヒオキシシャカイフクシキョウギカイツウショカイゴヒガシイチキジギョウショ",
    "address": "鹿児島県日置市東市来町湯田３２６４番地日置市東市来総合福祉センター 日置市東市来総合福祉センター",
    "lat": 31.6718057,
    "lng": 130.3342946,
    "tel": "099-274-6565",
    "url": "http://www.hiokishi-syakyo.com",
    "pref": "鹿児島県",
    "city": "日置市",
    "category": "day_service",
    "serviceType": "通所介護",
    "capacity": 40,
    "openDays": [
      "平日",
      "祝日"
    ],
    "openDaysNote": ""
  },
  {
    "id": "4673000040",
    "name": "寿福園デイサービスセンター",
    "kana": "ジュフクエンデイサービスセンター",
    "address": "日置市伊集院町下神殿224-2",
    "lat": 31.6631195,
    "lng": 130.415983,
    "tel": "099-272-5855",
    "url": "midorinosato.kobira05.info",
    "pref": "鹿児島県",
    "city": "日置市",
    "category": "day_service",
    "serviceType": "通所介護",
    "capacity": 30,
    "openDays": [
      "平日",
      "土曜日",
      "祝日"
    ],
    "openDaysNote": ""
  },
  {
    "id": "4673400109",
    "name": "前原やすしクリニック指定通所介護事業所",
    "kana": "マエハラヤスシクリニックシテイツウショカイゴジギョウショ",
    "address": "鹿児島県日置市吹上町小野1480",
    "lat": 31.5391105,
    "lng": 130.3392646,
    "tel": "099-296-2001",
    "url": "http://www.seishin-kai.org",
    "pref": "鹿児島県",
    "city": "日置市",
    "category": "day_service",
    "serviceType": "通所介護",
    "capacity": 0,
    "openDays": [
      "平日",
      "土曜日"
    ],
    "openDaysNote": "※祝日が利用日の際はその前後に振替利用も可能ですので前月迄に担当のケアマネージャーさんか事業所にご相談下さい。"
  },
  {
    "id": "4670400243",
    "name": "妙見デイサービスセンター",
    "kana": "ミョウケンデイサービスセンター",
    "address": "鹿児島県枕崎市寿町263",
    "lat": 31.2860925134841,
    "lng": 130.297760700604,
    "tel": "0993-73-5519",
    "url": "",
    "pref": "鹿児島県",
    "city": "枕崎市",
    "category": "day_service",
    "serviceType": "通所介護",
    "capacity": 30,
    "openDays": [
      "平日",
      "土曜日",
      "祝日"
    ],
    "openDaysNote": ""
  },
  {
    "id": "4671201574",
    "name": "エスプリ鹿児島デイサービスセンター",
    "kana": "エスプリカゴシマデイサービスセンター",
    "address": "鹿児島県霧島市隼人町真孝2720エスプリ鹿児島 エスプリ鹿児島",
    "lat": 31.7230968675082,
    "lng": 130.72905850829,
    "tel": "0995-73-8182",
    "url": "",
    "pref": "鹿児島県",
    "city": "霧島市",
    "category": "day_service",
    "serviceType": "通所介護",
    "capacity": 0,
    "openDays": [
      "平日",
      "土曜日",
      "日曜日",
      "祝日"
    ],
    "openDaysNote": ""
  },
  {
    "id": "4671200840",
    "name": "デイサービスせせらぎの里",
    "kana": "デイサービスセセラギノサト",
    "address": "鹿児島県霧島市国分下井1794番地1",
    "lat": 31.7075050110471,
    "lng": 130.780722642328,
    "tel": "0995-48-7555",
    "url": "http://www.seseragi-sato.jp",
    "pref": "鹿児島県",
    "city": "霧島市",
    "category": "day_service",
    "serviceType": "通所介護",
    "capacity": 42,
    "openDays": [
      "平日",
      "土曜日",
      "祝日"
    ],
    "openDaysNote": "台風接近や積雪など送迎に危険があると判断される場合、臨時に休業することがあります。その際は各利用者へ直接電話等で連絡いたします。"
  },
  {
    "id": "4671200899",
    "name": "デイサービスセンター　えがお",
    "kana": "デイサービスセンター　エガオ",
    "address": "鹿児島県霧島市横川町中ノ字岩元5091番地1",
    "lat": 31.9017817,
    "lng": 130.7013222,
    "tel": "0995-64-6666",
    "url": "https://smilelifecare.jp",
    "pref": "鹿児島県",
    "city": "霧島市",
    "category": "day_service",
    "serviceType": "通所介護",
    "capacity": 0,
    "openDays": [
      "平日",
      "祝日"
    ],
    "openDaysNote": ""
  },
  {
    "id": "4671200865",
    "name": "ニチイケアセンター国分",
    "kana": "ニチイケアセンターコクブ",
    "address": "鹿児島県霧島市国分剣之宇都町9番地6",
    "lat": 31.7693268,
    "lng": 130.7664429,
    "tel": "0995-48-6618",
    "url": "http://www.nichiigakkan.co.jp",
    "pref": "鹿児島県",
    "city": "霧島市",
    "category": "day_service",
    "serviceType": "通所介護",
    "capacity": 35,
    "openDays": [
      "平日",
      "土曜日",
      "祝日"
    ],
    "openDaysNote": ""
  },
  {
    "id": "4675500021",
    "name": "フラワーホームデイサービスセンター",
    "kana": "フラワーホームデイサービスセンター",
    "address": "鹿児島県　霧島市　溝辺町　六丁目4番地",
    "lat": 31.7919186616884,
    "lng": 130.708421700139,
    "tel": "0995-58-4165",
    "url": "https://www.flowerh.jp/",
    "pref": "鹿児島県",
    "city": "霧島市",
    "category": "day_service",
    "serviceType": "通所介護",
    "capacity": 45,
    "openDays": [
      "平日",
      "土曜日",
      "祝日"
    ],
    "openDaysNote": ""
  },
  {
    "id": "4676100086",
    "name": "みゆき苑デイサービス",
    "kana": "ミユキエンデイサービス",
    "address": "鹿児島県霧島市隼人町松永895番地3",
    "lat": 31.7745791,
    "lng": 130.7713396,
    "tel": "0995-43-8111",
    "url": "http://www.h-miyukien.info/",
    "pref": "鹿児島県",
    "city": "霧島市",
    "category": "day_service",
    "serviceType": "通所介護",
    "capacity": 60,
    "openDays": [
      "平日",
      "土曜日",
      "日曜日",
      "祝日"
    ],
    "openDaysNote": "年中無休"
  },
  {
    "id": "4671201426",
    "name": "リハケアガーデンネクスト",
    "kana": "リハケアガーデンネクスト",
    "address": "鹿児島県霧島市国分広瀬１丁目２４番３０号リーベンビル1階リーベンビル１階 リーベンビル１階",
    "lat": 31.7182475,
    "lng": 130.7502651,
    "tel": "0995-70-1262",
    "url": "http://www.unity-g.com/",
    "pref": "鹿児島県",
    "city": "霧島市",
    "category": "day_service",
    "serviceType": "通所介護",
    "capacity": 0,
    "openDays": [
      "平日",
      "土曜日",
      "祝日"
    ],
    "openDaysNote": ""
  },
  {
    "id": "4671200808",
    "name": "リハケアガーデン国分",
    "kana": "リハケアガーデンコクブ",
    "address": "国分中央４丁目12-22",
    "lat": 31.7305252601672,
    "lng": 130.7750189,
    "tel": "0995-73-3381",
    "url": "http://www.unity-g.com",
    "pref": "鹿児島県",
    "city": "霧島市",
    "category": "day_service",
    "serviceType": "通所介護",
    "capacity": 35,
    "openDays": [
      "平日",
      "土曜日",
      "祝日"
    ],
    "openDaysNote": ""
  },
  {
    "id": "4671201590",
    "name": "リハテラス国分",
    "kana": "リハテラスコクブ",
    "address": "鹿児島県霧島市国分新町一丁目29番42号",
    "lat": 31.7539731835822,
    "lng": 130.762508010559,
    "tel": "0995-45-5600",
    "url": "http://e-terasu.sakura.ne.jp/",
    "pref": "鹿児島県",
    "city": "霧島市",
    "category": "day_service",
    "serviceType": "通所介護",
    "capacity": 25,
    "openDays": [
      "平日",
      "土曜日",
      "祝日"
    ],
    "openDaysNote": "半日ご利用も可能です。"
  },
  {
    "id": "4671201509",
    "name": "リハビリカレッジ徒々草",
    "kana": "リハビリカレッジツレヅレグサ",
    "address": "国分新町1544-5",
    "lat": 31.7548476,
    "lng": 130.775604,
    "tel": "0995-55-8625",
    "url": "tureduregusa.sunnyday.jp",
    "pref": "鹿児島県",
    "city": "霧島市",
    "category": "day_service",
    "serviceType": "通所介護",
    "capacity": 0,
    "openDays": [
      "平日",
      "土曜日",
      "祝日"
    ],
    "openDaysNote": ""
  },
  {
    "id": "4671201673",
    "name": "リハプライド鹿児島空港",
    "kana": "リハプライドカゴシマクウコウ",
    "address": "溝辺町麓2603-4",
    "lat": 31.8162371,
    "lng": 130.7031964,
    "tel": "0995-55-8500",
    "url": "http://www.rehapride.co.jp/kagoshimakuko/",
    "pref": "鹿児島県",
    "city": "霧島市",
    "category": "day_service",
    "serviceType": "通所介護",
    "capacity": 20,
    "openDays": [
      "平日",
      "祝日"
    ],
    "openDaysNote": ""
  },
  {
    "id": "4671200329",
    "name": "医療法人誠井会　井料デイサービスセンター",
    "kana": "イリョウホウジンセイイカイ　イリョウデイサービスセンター",
    "address": "国分広瀬二丁目28番8号 8号",
    "lat": 31.7190225,
    "lng": 130.7540268,
    "tel": "0995-49-8467",
    "url": "http://www16.ocn.ne.jp/~iryo-day/",
    "pref": "鹿児島県",
    "city": "霧島市",
    "category": "day_service",
    "serviceType": "通所介護",
    "capacity": 65,
    "openDays": [
      "平日",
      "土曜日",
      "祝日"
    ],
    "openDaysNote": "12月30日から1月3日を除きます。"
  },
  {
    "id": "4675600037",
    "name": "横川緑風園デイサービスセンター",
    "kana": "ヨコカワリョクフウエンデイサービスセンター",
    "address": "霧島市横川町中ノ5645番１",
    "lat": 31.8876161,
    "lng": 130.6948704,
    "tel": "0995-72-1010",
    "url": "https://www.kibo-ryokufuen.com/",
    "pref": "鹿児島県",
    "city": "霧島市",
    "category": "day_service",
    "serviceType": "通所介護",
    "capacity": 0,
    "openDays": [
      "平日",
      "土曜日",
      "祝日"
    ],
    "openDaysNote": ""
  },
  {
    "id": "4671200923",
    "name": "音の館通所介護事業所",
    "kana": "ネノヤカタツウショカイゴジギョウショ",
    "address": "霧島市隼人町松永２７８４番地５住宅型有料老人ホーム 住宅型有料老人ホーム",
    "lat": 31.7937103,
    "lng": 130.7686614,
    "tel": "０９９５－４３－７５３７",
    "url": "http://zen-kokoro.com",
    "pref": "鹿児島県",
    "city": "霧島市",
    "category": "day_service",
    "serviceType": "通所介護",
    "capacity": 0,
    "openDays": [
      "平日",
      "土曜日",
      "祝日"
    ],
    "openDaysNote": "年末１２月３１日～年始１月１日休み"
  },
  {
    "id": "4671200816",
    "name": "株式会社　霧島リハウォーク絆デイサービスセンター",
    "kana": "カブシキガイシャキリシマリハウォークキズナデイサービスセンター",
    "address": "霧島市牧園町宿窪田654番地",
    "lat": 31.8609977370102,
    "lng": 130.755950584656,
    "tel": "0995-54-5512",
    "url": "",
    "pref": "鹿児島県",
    "city": "霧島市",
    "category": "day_service",
    "serviceType": "通所介護",
    "capacity": 40,
    "openDays": [
      "平日",
      "土曜日",
      "祝日"
    ],
    "openDaysNote": "天災（主に台風）等により休業となる場合あり。"
  },
  {
    "id": "4671200113",
    "name": "瑞祥園　通所介護事業所",
    "kana": "ズイショウエン　ツウショカイゴジギョウショ",
    "address": "鹿児島県霧島市国分郡田711番地",
    "lat": 31.7626163,
    "lng": 130.7880251,
    "tel": "0995-46-6500",
    "url": "http://www.seitenkaijp/",
    "pref": "鹿児島県",
    "city": "霧島市",
    "category": "day_service",
    "serviceType": "通所介護",
    "capacity": 0,
    "openDays": [
      "平日",
      "土曜日",
      "祝日"
    ],
    "openDaysNote": "ただし、風水害等天災による休業もあります。"
  },
  {
    "id": "4671201798",
    "name": "通所介護事業所れいめい",
    "kana": "ツウショカイゴジギョウショレイメイ",
    "address": "隼人町松永657番地",
    "lat": 31.7738633,
    "lng": 130.765839,
    "tel": "0995-55-8066",
    "url": "",
    "pref": "鹿児島県",
    "city": "霧島市",
    "category": "day_service",
    "serviceType": "通所介護",
    "capacity": 0,
    "openDays": [
      "平日",
      "土曜日",
      "祝日"
    ],
    "openDaysNote": ""
  },
  {
    "id": "4676200076",
    "name": "牧之原むつみ園デイサービスセンター",
    "kana": "マキノハラムツミエン　デイサービスセンター",
    "address": "福山町福沢4611番地",
    "lat": 31.6580864,
    "lng": 130.8657357,
    "tel": "0995-56-2568",
    "url": "http://www.mutumi-en.com",
    "pref": "鹿児島県",
    "city": "霧島市",
    "category": "day_service",
    "serviceType": "通所介護",
    "capacity": 0,
    "openDays": [
      "平日",
      "土曜日",
      "祝日"
    ],
    "openDaysNote": "台風の接近や積雪等により送迎に危険が生じると判断される場合、臨時に休業することもある。"
  },
  {
    "id": "4671201608",
    "name": "霧島リハウォーク絆隼人デイサービスセンター",
    "kana": "キリシマリハウォークキズナハヤトデイサービスセンター",
    "address": "鹿児島県霧島市隼人町内山田1110-2霧島リハウォーク絆 霧島リハウォーク絆",
    "lat": 31.7482804019824,
    "lng": 130.730291462505,
    "tel": "0995-73-3923",
    "url": "",
    "pref": "鹿児島県",
    "city": "霧島市",
    "category": "day_service",
    "serviceType": "通所介護",
    "capacity": 30,
    "openDays": [
      "平日",
      "土曜日",
      "祝日"
    ],
    "openDaysNote": ""
  },
  {
    "id": "4676000039",
    "name": "翔朋園デイサービスセンター指定通所介護事業所",
    "kana": "ショウホウエンデイサービスセンターシテイツウショカイゴジギョウショ",
    "address": "霧島田口２７３７番地３６",
    "lat": 31.8416619134196,
    "lng": 130.859426046558,
    "tel": "０９９５－５７－０１００",
    "url": "kirishimakai.jp",
    "pref": "鹿児島県",
    "city": "霧島市",
    "category": "day_service",
    "serviceType": "通所介護",
    "capacity": 20,
    "openDays": [
      "平日",
      "土曜日",
      "祝日"
    ],
    "openDaysNote": "日曜日は営業日ではないが、電話連絡は日曜・営業時間外でも可能。"
  },
  {
    "id": "4675800041",
    "name": "つつはの園デイサービスセンター",
    "kana": "ツツハノエン　デイサービスセンター",
    "address": "鹿児島県姶良郡湧水町般若寺３５８番地",
    "lat": 32.0394372,
    "lng": 130.7443298,
    "tel": "0995-75-4622",
    "url": "",
    "pref": "鹿児島県",
    "city": "湧水町",
    "category": "day_service",
    "serviceType": "通所介護",
    "capacity": 40,
    "openDays": [
      "平日",
      "土曜日",
      "祝日"
    ],
    "openDaysNote": "自然災害や台風・積雪などの状況の悪化が著し場合及び、感染症の蔓延などの状況においては安全上の事由により、当日の営業を中止させていただく場合があります。"
  },
  {
    "id": "4675700142",
    "name": "デイサービスセンターさくら",
    "kana": "デイサービスセンターサクラ",
    "address": "鹿児島県姶良郡湧水町鶴丸６２２－１０",
    "lat": 32.0308473427072,
    "lng": 130.748304773492,
    "tel": "０９９５－７５－３２７４",
    "url": "",
    "pref": "鹿児島県",
    "city": "湧水町",
    "category": "day_service",
    "serviceType": "通所介護",
    "capacity": 5,
    "openDays": [
      "平日",
      "祝日"
    ],
    "openDaysNote": ""
  },
  {
    "id": "4675700290",
    "name": "リハガーデン歩",
    "kana": "リハガーデンアユミ",
    "address": "鹿児島県姶良郡湧水町幸田1727-1",
    "lat": 31.9439716569709,
    "lng": 130.670168660162,
    "tel": "0995-73-5050",
    "url": "",
    "pref": "鹿児島県",
    "city": "湧水町",
    "category": "day_service",
    "serviceType": "通所介護",
    "capacity": 0,
    "openDays": [
      "平日",
      "土曜日"
    ],
    "openDaysNote": "年末年始休暇あり"
  },
  {
    "id": "4679600033",
    "name": "社会福祉法人与論町社会福祉協議会通所介護事業所",
    "kana": "シャカイフクシホウジンヨロンチョウシャカイフクシキョウギカイツウショカイゴジギョウショ",
    "address": "鹿児島県大島郡与論町大字茶花2643番地3与論町地域福祉センター内 与論町地域福祉センター内",
    "lat": 27.0517779977661,
    "lng": 128.425151847885,
    "tel": "0997-97-5042",
    "url": "http://yoronsyakyo.jimdosite.com",
    "pref": "鹿児島県",
    "city": "与論町",
    "category": "day_service",
    "serviceType": "通所介護",
    "capacity": 0,
    "openDays": [
      "平日"
    ],
    "openDaysNote": "災害や感染症発生時には、やむを得ず営業を中止する場合があります。"
  },
  {
    "id": "4678800279",
    "name": "デイサービス和月龍郷",
    "kana": "デイサービスワヅキタツゴウ",
    "address": "鹿児島県大島郡龍郷町浦１０６８番３",
    "lat": 28.4038611559532,
    "lng": 129.58710206015,
    "tel": "997694761",
    "url": "http://www5.synapse.ne.jp/waduki/index.html",
    "pref": "鹿児島県",
    "city": "龍郷町",
    "category": "day_service",
    "serviceType": "通所介護",
    "capacity": 0,
    "openDays": [
      "平日",
      "祝日"
    ],
    "openDaysNote": "12/30～1/3は休業"
  },
  {
    "id": "4679400087",
    "name": "しらゆりの園通所介護事業所",
    "kana": "シラユリノソノツウショカイゴジギョウショ",
    "address": "大島郡和泊町手々知名781番地",
    "lat": 27.4014195,
    "lng": 128.6541554,
    "tel": "0997-92-0059",
    "url": "",
    "pref": "鹿児島県",
    "city": "和泊町",
    "category": "day_service",
    "serviceType": "通所介護",
    "capacity": null,
    "openDays": [
      "平日",
      "土曜日",
      "祝日"
    ],
    "openDaysNote": ""
  },
  {
    "id": "4679400251",
    "name": "笑顔の花",
    "kana": "エガオノハナ",
    "address": "鹿児島県大島郡和泊町手々知名775",
    "lat": 27.4003831,
    "lng": 128.6556055,
    "tel": "0997-92-3225",
    "url": "http://foryou-kaigo.jp",
    "pref": "鹿児島県",
    "city": "和泊町",
    "category": "day_service",
    "serviceType": "通所介護",
    "capacity": 0,
    "openDays": [
      "平日",
      "土曜日",
      "祝日"
    ],
    "openDaysNote": ""
  },
  {
    "id": "4679400038",
    "name": "和泊町社会福祉協議会　指定通所介護事業所",
    "kana": "ワドマリチョウシャカイフクシキョウギカイ　シテイツウショカイゴジギョウショ",
    "address": "鹿児島県大島郡和泊町和泊３９－３番地社会福祉センター内 社会福祉センター内",
    "lat": 27.3914482,
    "lng": 128.6541251,
    "tel": "0997-92-2299",
    "url": "wasyakyo@jimdo.com",
    "pref": "鹿児島県",
    "city": "和泊町",
    "category": "day_service",
    "serviceType": "通所介護",
    "capacity": 0,
    "openDays": [
      "平日",
      "土曜日",
      "祝日"
    ],
    "openDaysNote": "土曜日・祝日も営業しています。"
  }
]