[
  {
    "id": "2471400065",
    "name": "いなべ市社協ホームヘルパーステーション",
    "kana": "イナベシシャキョウホームヘルパーステーション",
    "address": "三重県いなべ市北勢町阿下喜2624番地2",
    "lat": 35.1531546,
    "lng": 136.5243204,
    "tel": "0594-72-7788",
    "url": "",
    "pref": "三重県",
    "city": "いなべ市",
    "category": "home_help",
    "serviceType": "訪問介護",
    "capacity": 0,
    "openDays": [
      "平日"
    ],
    "openDaysNote": "土曜・日曜・祝日・早朝・夜間・深夜帯については、利用者との契約により対応します。"
  },
  {
    "id": "2471400818",
    "name": "じねんケアサービス",
    "kana": "ジネンケアサービス",
    "address": "員弁町御薗193番地55",
    "lat": 35.1083946,
    "lng": 136.555933,
    "tel": "594737987",
    "url": "https://www.jinen-c.com",
    "pref": "三重県",
    "city": "いなべ市",
    "category": "home_help",
    "serviceType": "訪問介護",
    "capacity": null,
    "openDays": [
      "平日",
      "土曜日",
      "日曜日",
      "祝日"
    ],
    "openDaysNote": "サービス提供は必要に応じ柔軟に対応。"
  },
  {
    "id": "2471400925",
    "name": "ナーシングホームもも",
    "kana": "ナーシングホームモモホウモンカイゴ",
    "address": "三重県いなべ市北勢町阿下喜３５１４",
    "lat": 35.1478332,
    "lng": 136.5116555,
    "tel": "０５９４－４１－２３８８",
    "url": "https://www.momo3.net",
    "pref": "三重県",
    "city": "いなべ市",
    "category": "home_help",
    "serviceType": "訪問介護",
    "capacity": 0,
    "openDays": [
      "平日",
      "土曜日",
      "日曜日",
      "祝日"
    ],
    "openDaysNote": "ご利用時間等、応相談。"
  },
  {
    "id": "2471400933",
    "name": "ヘルパーステーション優愛",
    "kana": "ヘルパーステーションユア",
    "address": "三重県いなべ市北勢町麻生田3887-2ホクセイドリーム1D ホクセイドリーム1D",
    "lat": 35.13364,
    "lng": 136.5379276,
    "tel": "0594-87-5885",
    "url": "",
    "pref": "三重県",
    "city": "いなべ市",
    "category": "home_help",
    "serviceType": "訪問介護",
    "capacity": null,
    "openDays": [
      "平日",
      "土曜日",
      "日曜日",
      "祝日"
    ],
    "openDaysNote": ""
  },
  {
    "id": "2471400586",
    "name": "ヘルプサービスまる",
    "kana": "ヘルプサービスマル",
    "address": "いなべ市大安町大井田字北代336-1",
    "lat": 35.0965894,
    "lng": 136.5495354,
    "tel": "0594-87-0040",
    "url": "http://www.isism.jp",
    "pref": "三重県",
    "city": "いなべ市",
    "category": "home_help",
    "serviceType": "訪問介護",
    "capacity": 27,
    "openDays": [
      "平日",
      "土曜日",
      "日曜日",
      "祝日"
    ],
    "openDaysNote": ""
  },
  {
    "id": "2471400842",
    "name": "株式会社ＡＩＤＣＡＲＥ",
    "kana": "カブシキガイシャエイドケア",
    "address": "員弁町東一色９３９番地2",
    "lat": 35.0957448,
    "lng": 136.571159,
    "tel": "0594-41-4165",
    "url": "",
    "pref": "三重県",
    "city": "いなべ市",
    "category": "home_help",
    "serviceType": "訪問介護",
    "capacity": null,
    "openDays": [
      "平日",
      "土曜日",
      "祝日"
    ],
    "openDaysNote": ""
  },
  {
    "id": "2471400677",
    "name": "訪問介護ステーション　大安ひまわり",
    "kana": "ホウモンカイゴステーション　ダイアンヒマワリ",
    "address": "三重県いなべ市大安町平塚１７６１番地２",
    "lat": 35.0986584904681,
    "lng": 136.544955524637,
    "tel": "0594-88-1187",
    "url": "",
    "pref": "三重県",
    "city": "いなべ市",
    "category": "home_help",
    "serviceType": "訪問介護",
    "capacity": 0,
    "openDays": [
      "平日",
      "土曜日",
      "日曜日",
      "祝日"
    ],
    "openDaysNote": ""
  },
  {
    "id": "2471400776",
    "name": "訪問介護ステーション　友だち",
    "kana": "ホウモンカイゴステーション　トモダチ",
    "address": "大安町石榑東２８４１番地５",
    "lat": 35.0999575666083,
    "lng": 136.524918158336,
    "tel": "0594-78-3711",
    "url": "",
    "pref": "三重県",
    "city": "いなべ市",
    "category": "home_help",
    "serviceType": "訪問介護",
    "capacity": 0,
    "openDays": [
      "平日",
      "土曜日"
    ],
    "openDaysNote": "同一建物内の老人ホームの利用者様は２４時間　年中無休"
  },
  {
    "id": "2471400834",
    "name": "訪問介護事業所えんむすび",
    "kana": "ホウモンカイゴジギョウショエンムスビ",
    "address": "三重県いなべ市藤原町本郷836番地",
    "lat": 35.1845134,
    "lng": 136.47971,
    "tel": "0594-37-7062",
    "url": "https://www.enmusubi.or.jp/",
    "pref": "三重県",
    "city": "いなべ市",
    "category": "home_help",
    "serviceType": "訪問介護",
    "capacity": 0,
    "openDays": [
      "平日"
    ],
    "openDaysNote": "※利用者との契約により土曜日・日曜日・祝日も対応します。（改行）※早朝・夜間・深夜帯については、利用者との契約により対応します。（改行）※暴雨・暴風・大雪等で訪問介護員の安全が確保できないと判断した場合は、支援の変更または中止とさせていただくことがあります。"
  },
  {
    "id": "2471400644",
    "name": "北勢コアラ",
    "kana": "ホクセイコアラ",
    "address": "藤原町大貝戸５６７番地",
    "lat": 35.1688491839087,
    "lng": 136.481984540367,
    "tel": "0594-46-9300",
    "url": "http://helpertaxi.com/hokuseikoala/",
    "pref": "三重県",
    "city": "いなべ市",
    "category": "home_help",
    "serviceType": "訪問介護",
    "capacity": 0,
    "openDays": [
      "平日",
      "土曜日"
    ],
    "openDaysNote": ""
  },
  {
    "id": "2471200796",
    "name": "グローバルケアサービス",
    "kana": "グローバルケアサービス",
    "address": "伊賀市上野桑町２０８２番地の3グランヒルズ1Ｆ グランヒルズ1Ｆ",
    "lat": 34.7567827,
    "lng": 136.1320495,
    "tel": "0595-26-1100",
    "url": "",
    "pref": "三重県",
    "city": "伊賀市",
    "category": "home_help",
    "serviceType": "訪問介護",
    "capacity": 0,
    "openDays": [
      "平日",
      "土曜日",
      "日曜日",
      "祝日"
    ],
    "openDaysNote": "早朝、夜間に相談に応じます。"
  },
  {
    "id": "2471201406",
    "name": "ケアステーション伊賀",
    "kana": "ケアステーションイガ",
    "address": "三重県伊賀市上野忍町2473-5201号 201号",
    "lat": 34.7636301,
    "lng": 136.1287042,
    "tel": "0595-74-0889",
    "url": "http://care-station.jp/",
    "pref": "三重県",
    "city": "伊賀市",
    "category": "home_help",
    "serviceType": "訪問介護",
    "capacity": 0,
    "openDays": [
      "平日",
      "土曜日",
      "日曜日",
      "祝日"
    ],
    "openDaysNote": ""
  },
  {
    "id": "2471200069",
    "name": "さくらんぼ",
    "kana": "サクランボ",
    "address": "三重県伊賀市高畑747-1",
    "lat": 34.773601,
    "lng": 136.1534366,
    "tel": "0595-21-1030",
    "url": "http://www.sakuranbo-iga.com",
    "pref": "三重県",
    "city": "伊賀市",
    "category": "home_help",
    "serviceType": "訪問介護",
    "capacity": 30,
    "openDays": [
      "平日",
      "土曜日",
      "日曜日",
      "祝日"
    ],
    "openDaysNote": ""
  },
  {
    "id": "2471200689",
    "name": "セントケア伊賀上野",
    "kana": "セントケアイガウエノ",
    "address": "三重県伊賀市西明寺2798-3　西建ビル1Ｆ",
    "lat": 34.756359,
    "lng": 136.1499008,
    "tel": "0595-26-3371",
    "url": "https://saint-care-mie.com",
    "pref": "三重県",
    "city": "伊賀市",
    "category": "home_help",
    "serviceType": "訪問介護",
    "capacity": 0,
    "openDays": [
      "平日",
      "土曜日",
      "日曜日",
      "祝日"
    ],
    "openDaysNote": "原則としてサービス提供時間は、事前に居宅支援事業所により計画された居宅サービス計画に基づくものとする。"
  },
  {
    "id": "2471200259",
    "name": "ニチイケアセンター上野",
    "kana": "ニチイケアセンターウエノ",
    "address": "三重県伊賀市比土3213-1ディッチポンド・マンション103 ディッチポンド・マンション103",
    "lat": 34.6765324,
    "lng": 136.1491729,
    "tel": "0595-36-9010",
    "url": "",
    "pref": "三重県",
    "city": "伊賀市",
    "category": "home_help",
    "serviceType": "訪問介護",
    "capacity": 0,
    "openDays": [
      "平日",
      "土曜日",
      "日曜日",
      "祝日"
    ],
    "openDaysNote": ""
  },
  {
    "id": "2471201455",
    "name": "はんどいんはんど",
    "kana": "ハンドインハンド",
    "address": "三重県伊賀市伊勢路６番地の１",
    "lat": 34.6808249,
    "lng": 136.2046919,
    "tel": "0595-41-1477",
    "url": "",
    "pref": "三重県",
    "city": "伊賀市",
    "category": "home_help",
    "serviceType": "訪問介護",
    "capacity": null,
    "openDays": [
      "平日",
      "土曜日",
      "日曜日",
      "祝日"
    ],
    "openDaysNote": ""
  },
  {
    "id": "2471201547",
    "name": "ヘルパーステーションヒラソル伊賀",
    "kana": "ヘルパーステーションヒラソルイガ",
    "address": "三重県伊賀市上野東町2955番地古喜商事ビル1階 古喜商事ビル1階",
    "lat": 34.7662209,
    "lng": 136.1299992,
    "tel": "0595-21-7880",
    "url": "",
    "pref": "三重県",
    "city": "伊賀市",
    "category": "home_help",
    "serviceType": "訪問介護",
    "capacity": 0,
    "openDays": [
      "平日",
      "土曜日",
      "祝日"
    ],
    "openDaysNote": ""
  },
  {
    "id": "2471200812",
    "name": "ヘルパーステーション中部",
    "kana": "ヘルパーステーションチュウブ",
    "address": "三重県伊賀市四十九町1929番地46福祉サービス総合センター 福祉サービス総合センター",
    "lat": 34.7510612,
    "lng": 136.1346078,
    "tel": "0595-21-2541",
    "url": "",
    "pref": "三重県",
    "city": "伊賀市",
    "category": "home_help",
    "serviceType": "訪問介護",
    "capacity": 0,
    "openDays": [
      "平日",
      "土曜日",
      "日曜日",
      "祝日"
    ],
    "openDaysNote": "天災その他やむを得ず業務を遂行できない日を除き、毎日とする。電話等により２４時間連絡可能な体制とする。"
  },
  {
    "id": "2471200044",
    "name": "ホームヘルパーステーション　彩四季",
    "kana": "ホームヘルパーステーション　サイシキ",
    "address": "三重県伊賀市市部奥山２６１１－５",
    "lat": 34.7390301811498,
    "lng": 136.178790905077,
    "tel": "0595-26-0011",
    "url": "",
    "pref": "三重県",
    "city": "伊賀市",
    "category": "home_help",
    "serviceType": "訪問介護",
    "capacity": 0,
    "openDays": [
      "平日",
      "土曜日",
      "日曜日",
      "祝日"
    ],
    "openDaysNote": "基本　８：００～１８：００　　早朝　６：００～８：００　　夜間　１８：００～２２：００"
  },
  {
    "id": "2471201471",
    "name": "リトルスター",
    "kana": "リトルスター",
    "address": "三重県伊賀市市部1512番地",
    "lat": 34.7245784,
    "lng": 136.1535589,
    "tel": "050-8884-9124",
    "url": "",
    "pref": "三重県",
    "city": "伊賀市",
    "category": "home_help",
    "serviceType": "訪問介護",
    "capacity": null,
    "openDays": [
      "平日",
      "土曜日",
      "日曜日",
      "祝日"
    ],
    "openDaysNote": ""
  },
  {
    "id": "2471200895",
    "name": "介護サービス・メイ合同会社",
    "kana": "カイゴサービスメイゴウドウガイシャ",
    "address": "伊賀市馬場1079",
    "lat": 34.8276163,
    "lng": 136.176276,
    "tel": "0595-43-1550",
    "url": "",
    "pref": "三重県",
    "city": "伊賀市",
    "category": "home_help",
    "serviceType": "訪問介護",
    "capacity": 1,
    "openDays": [
      "平日",
      "土曜日",
      "日曜日",
      "祝日"
    ],
    "openDaysNote": ""
  },
  {
    "id": "2471200705",
    "name": "介護サービスふれんど",
    "kana": "カイゴサービスフレンド",
    "address": "伊賀市ゆめが丘2丁目1番地4クレマチス102 クレマチス102",
    "lat": 34.7399799754241,
    "lng": 136.160394659525,
    "tel": "0595-24-0556",
    "url": "https://hmc344.wixsite.com/website",
    "pref": "三重県",
    "city": "伊賀市",
    "category": "home_help",
    "serviceType": "訪問介護",
    "capacity": 160,
    "openDays": [
      "平日",
      "土曜日",
      "日曜日",
      "祝日"
    ],
    "openDaysNote": ""
  },
  {
    "id": "2471200697",
    "name": "介護支援サービス　さんぽくらぶ",
    "kana": "カイゴシエンサービス　サンポクラブ",
    "address": "三重県伊賀市生琉里3118番地の1",
    "lat": 34.7540222,
    "lng": 136.1497207,
    "tel": "0595-48-6660",
    "url": "",
    "pref": "三重県",
    "city": "伊賀市",
    "category": "home_help",
    "serviceType": "訪問介護",
    "capacity": 36,
    "openDays": [
      "平日",
      "土曜日",
      "祝日"
    ],
    "openDaysNote": ""
  },
  {
    "id": "2471201380",
    "name": "笑美の里ホムヘルパーステーション",
    "kana": "エミノサトホームヘルパーステーション",
    "address": "三重県伊賀市阿保２４５－１サービス付き高齢者向け住宅　笑みの森 サービス付き高齢者向け住宅　笑みの森",
    "lat": 34.6698676,
    "lng": 136.1739968,
    "tel": "0595-52-4165",
    "url": "https://www.emi-care.info/",
    "pref": "三重県",
    "city": "伊賀市",
    "category": "home_help",
    "serviceType": "訪問介護",
    "capacity": 0,
    "openDays": [
      "平日",
      "土曜日",
      "日曜日",
      "祝日"
    ],
    "openDaysNote": ""
  },
  {
    "id": "2471201497",
    "name": "訪問介護　和　伊賀営業所",
    "kana": "ホウモンカイゴ　ワ　イガエイギョウショ",
    "address": "三重県伊賀市上野徳居町3280リパルティーレ伊賀301号室 リパルティーレ伊賀301号室",
    "lat": 34.763306,
    "lng": 136.1251218,
    "tel": "090-8152-8455",
    "url": "",
    "pref": "三重県",
    "city": "伊賀市",
    "category": "home_help",
    "serviceType": "訪問介護",
    "capacity": null,
    "openDays": [
      "平日"
    ],
    "openDaysNote": ""
  },
  {
    "id": "2473300065",
    "name": "訪問介護サービス　エールきたもり",
    "kana": "ホウモンカイゴサービス　エールキタモリ",
    "address": "三重県伊賀市古郡５４６－１",
    "lat": 34.6836823,
    "lng": 136.1519117,
    "tel": "0595-38-1524",
    "url": "http://www.kitamori.jp/",
    "pref": "三重県",
    "city": "伊賀市",
    "category": "home_help",
    "serviceType": "訪問介護",
    "capacity": 0,
    "openDays": [
      "平日",
      "土曜日",
      "祝日"
    ],
    "openDaysNote": "上記以外の日時は相談に応じて対応"
  },
  {
    "id": "2471201349",
    "name": "訪問介護サービス八起",
    "kana": "ホウモンカイゴサービスヤオキ",
    "address": "三重県伊賀市東高倉2340番地の7",
    "lat": 34.7887152,
    "lng": 136.1072312,
    "tel": "0595-51-7679",
    "url": "http://yaoki-care.com",
    "pref": "三重県",
    "city": "伊賀市",
    "category": "home_help",
    "serviceType": "訪問介護",
    "capacity": 0,
    "openDays": [
      "平日",
      "土曜日",
      "日曜日",
      "祝日"
    ],
    "openDaysNote": ""
  },
  {
    "id": "2471201281",
    "name": "訪問介護ステーション　とんとん",
    "kana": "ホウモンカイゴステーション　トントン",
    "address": "三重県伊賀市四十九町1784番地の25",
    "lat": 34.7491225,
    "lng": 136.1347634,
    "tel": "0595-23-5541",
    "url": "",
    "pref": "三重県",
    "city": "伊賀市",
    "category": "home_help",
    "serviceType": "訪問介護",
    "capacity": 18,
    "openDays": [
      "平日"
    ],
    "openDaysNote": "利用者様。ご家族に希望があり、介護支援専門員が必要と判断した場合は、24時間、土日　祭日訪問可能"
  },
  {
    "id": "2471200275",
    "name": "訪問介護ステーションみやま",
    "kana": "ホウモンカイゴステーションミヤマ",
    "address": "三重県伊賀市長田3480－1",
    "lat": 34.7603513,
    "lng": 136.08812,
    "tel": "0595-22-2788",
    "url": "http://www.miyamakanko.co.jp",
    "pref": "三重県",
    "city": "伊賀市",
    "category": "home_help",
    "serviceType": "訪問介護",
    "capacity": 0,
    "openDays": [
      "平日",
      "土曜日",
      "日曜日",
      "祝日"
    ],
    "openDaysNote": "ただし、日曜日、ゴールデンウィーク、盆（８／１３～１５）、年末年始はサービス計画に基ずくものとする。（改行）上記時間外で利用を希望される場合は、別途要相談。"
  },
  {
    "id": "2471200515",
    "name": "訪問介護事業所　かしの木ひろば",
    "kana": "ホウモンカイゴジギョウショ　カシノキヒロバ",
    "address": "伊賀市上野寺町1184-2",
    "lat": 34.7633349,
    "lng": 136.1345436,
    "tel": "0595-22-2288",
    "url": "http://www.iga-sjk.or.jp/",
    "pref": "三重県",
    "city": "伊賀市",
    "category": "home_help",
    "serviceType": "訪問介護",
    "capacity": 0,
    "openDays": [
      "平日",
      "土曜日",
      "日曜日",
      "祝日"
    ],
    "openDaysNote": ""
  },
  {
    "id": "2473200240",
    "name": "有限会社ヘルパーステーションIGA",
    "kana": "ユウゲンガイシャヘルパーステーションアイジーエー",
    "address": "三重県伊賀市下柘植７０４番地の１",
    "lat": 34.8254815,
    "lng": 136.2142807,
    "tel": "0595-45-3137",
    "url": "helper-iga@ict.jp",
    "pref": "三重県",
    "city": "伊賀市",
    "category": "home_help",
    "serviceType": "訪問介護",
    "capacity": 0,
    "openDays": [
      "平日",
      "土曜日",
      "日曜日",
      "祝日"
    ],
    "openDaysNote": ""
  },
  {
    "id": "2470800679",
    "name": "JA伊勢介護センター「ひまわり」",
    "kana": "ジェイエイイセカイゴセンター「ヒマワリ」",
    "address": "三重県伊勢市上地町1810",
    "lat": 34.4914787,
    "lng": 136.6617677,
    "tel": "0596-20-5000",
    "url": "http://www.jaise.jp",
    "pref": "三重県",
    "city": "伊勢市",
    "category": "home_help",
    "serviceType": "訪問介護",
    "capacity": 0,
    "openDays": [
      "平日",
      "土曜日",
      "日曜日",
      "祝日"
    ],
    "openDaysNote": ""
  },
  {
    "id": "2470800810",
    "name": "あいはーと訪問介護事業所",
    "kana": "アイハートホウモンカイゴジギョウショ",
    "address": "三重県伊勢市尾上町１番２１号エステートヤマキ　101 エステートヤマキ　101",
    "lat": 34.4858594,
    "lng": 136.7164658,
    "tel": "0596-20-1810",
    "url": "",
    "pref": "三重県",
    "city": "伊勢市",
    "category": "home_help",
    "serviceType": "訪問介護",
    "capacity": 110,
    "openDays": [
      "平日",
      "土曜日",
      "日曜日",
      "祝日"
    ],
    "openDaysNote": "緊急時等必要に応じ対応（改行）事前計画により　早朝のケアについても必要な場合　対応可"
  },
  {
    "id": "2470802030",
    "name": "アドニス介護ステーション",
    "kana": "アドニスカイゴステーション",
    "address": "三重県伊勢市東大淀町2番地33",
    "lat": 34.5571596,
    "lng": 136.6674918,
    "tel": "0596-38-2960",
    "url": "",
    "pref": "三重県",
    "city": "伊勢市",
    "category": "home_help",
    "serviceType": "訪問介護",
    "capacity": 0,
    "openDays": [
      "平日",
      "土曜日",
      "日曜日",
      "祝日"
    ],
    "openDaysNote": "上記の営業日、営業時間、サービス提供時間のほか、電話等により24時間常時連絡及び対応が可能な体制をとる。"
  },
  {
    "id": "2470801651",
    "name": "アロハサポート",
    "kana": "アロハサポート",
    "address": "勢田町590勢田パークマンションB棟105号 勢田パークマンションB棟105号",
    "lat": 34.4792782960772,
    "lng": 136.710795810837,
    "tel": "0596-63-8287",
    "url": "http://parkhills-aloha.com",
    "pref": "三重県",
    "city": "伊勢市",
    "category": "home_help",
    "serviceType": "訪問介護",
    "capacity": null,
    "openDays": [
      "平日",
      "土曜日",
      "日曜日",
      "祝日"
    ],
    "openDaysNote": "なし"
  },
  {
    "id": "2470800976",
    "name": "いちの木ホームステーション",
    "kana": "イチノキホームステーション",
    "address": "三重県伊勢市一之木4-11-33神都の杜内 神都の杜内",
    "lat": 34.5023429332536,
    "lng": 136.70669077236,
    "tel": "0596-20-6969",
    "url": "",
    "pref": "三重県",
    "city": "伊勢市",
    "category": "home_help",
    "serviceType": "訪問介護",
    "capacity": 0,
    "openDays": [
      "平日",
      "土曜日",
      "日曜日",
      "祝日"
    ],
    "openDaysNote": ""
  },
  {
    "id": "2470800737",
    "name": "ケアサ-ビス　なごやか",
    "kana": "ケアサ-ビス　ナゴヤカ",
    "address": "伊勢市小木町128番地1",
    "lat": 34.5034575,
    "lng": 136.7280176,
    "tel": "0596-31-1330",
    "url": "",
    "pref": "三重県",
    "city": "伊勢市",
    "category": "home_help",
    "serviceType": "訪問介護",
    "capacity": 0,
    "openDays": [
      "平日",
      "土曜日",
      "日曜日",
      "祝日"
    ],
    "openDaysNote": ""
  },
  {
    "id": "2470802840",
    "name": "スマイルケア訪問介護事業所",
    "kana": "スマイルケアホウモンカイゴジギョウショ",
    "address": "三重県伊勢市御薗町高向3508番地",
    "lat": 34.5096141,
    "lng": 136.6999412,
    "tel": "0596-63-6600",
    "url": "",
    "pref": "三重県",
    "city": "伊勢市",
    "category": "home_help",
    "serviceType": "訪問介護",
    "capacity": 13,
    "openDays": [
      "平日",
      "土曜日",
      "日曜日",
      "祝日"
    ],
    "openDaysNote": ""
  },
  {
    "id": "2470802998",
    "name": "スマイルホーム伊勢訪問介護事業所",
    "kana": "スマイルホームイセホウモンカイゴジギョウショ",
    "address": "三重県伊勢市本町16-5",
    "lat": 34.4891026,
    "lng": 136.7048759,
    "tel": "0596-64-8691",
    "url": "https://alive-grp.co.jp",
    "pref": "三重県",
    "city": "伊勢市",
    "category": "home_help",
    "serviceType": "訪問介護",
    "capacity": 0,
    "openDays": [
      "平日",
      "土曜日",
      "日曜日",
      "祝日"
    ],
    "openDaysNote": "上記の他、電話等により２４時間常時連絡が可能な体制とする。"
  },
  {
    "id": "2470802691",
    "name": "そふとけあいせてん",
    "kana": "ソフトケア伊勢店",
    "address": "三重県伊勢市小俣町明野４０９番２号サンライフ明野２０３号室 サンライフ明野２０３号室",
    "lat": 34.5278434,
    "lng": 136.6603792,
    "tel": "0596-72-8301",
    "url": "",
    "pref": "三重県",
    "city": "伊勢市",
    "category": "home_help",
    "serviceType": "訪問介護",
    "capacity": 0,
    "openDays": [
      "平日",
      "土曜日",
      "日曜日",
      "祝日"
    ],
    "openDaysNote": ""
  },
  {
    "id": "2470802592",
    "name": "ナーシング伊勢",
    "kana": "ナーシングイセ",
    "address": "藤里町166-10",
    "lat": 34.4647308,
    "lng": 136.6987843,
    "tel": "0596-21-1194",
    "url": "http://www.technocare-mie.com/index.html",
    "pref": "三重県",
    "city": "伊勢市",
    "category": "home_help",
    "serviceType": "訪問介護",
    "capacity": null,
    "openDays": [
      "平日",
      "土曜日",
      "日曜日",
      "祝日"
    ],
    "openDaysNote": "電話等により、２４時間常時連絡可能な体制とする。"
  },
  {
    "id": "2472800693",
    "name": "ニチイケアセンターみその三重",
    "kana": "ニチイケアセンターミソノミエ",
    "address": "三重県伊勢市御薗町王中島773　ジョイタウン1F",
    "lat": 34.5082085,
    "lng": 136.7177659,
    "tel": "0596-31-0511",
    "url": "http://www.nichiigakkan.co.jp",
    "pref": "三重県",
    "city": "伊勢市",
    "category": "home_help",
    "serviceType": "訪問介護",
    "capacity": 0,
    "openDays": [
      "平日",
      "土曜日",
      "日曜日",
      "祝日"
    ],
    "openDaysNote": "但し、介護サービス計画により営業時間以外でもサービスの提供を行う場合がある"
  },
  {
    "id": "2470801842",
    "name": "ハートフルケア",
    "kana": "ハートフルケア",
    "address": "三重県伊勢市川端町301番2",
    "lat": 34.4918154,
    "lng": 136.6811412,
    "tel": "0596-65-7585",
    "url": "",
    "pref": "三重県",
    "city": "伊勢市",
    "category": "home_help",
    "serviceType": "訪問介護",
    "capacity": 0,
    "openDays": [
      "平日",
      "土曜日",
      "日曜日",
      "祝日"
    ],
    "openDaysNote": "24時間365日対応"
  },
  {
    "id": "2470802626",
    "name": "ひかりの橋ヘルパーステーション",
    "kana": "ヒカリノハシヘルパーステーション",
    "address": "常磐2丁目4番35号",
    "lat": 34.9712375,
    "lng": 138.3813459,
    "tel": "0596-72-8082",
    "url": "http://hikarinohashi.jp/",
    "pref": "三重県",
    "city": "伊勢市",
    "category": "home_help",
    "serviceType": "訪問介護",
    "capacity": null,
    "openDays": [
      "平日",
      "土曜日",
      "日曜日",
      "祝日"
    ],
    "openDaysNote": ""
  },
  {
    "id": "2472800495",
    "name": "ふたみ訪問介護ステーションシルバーケア豊壽園",
    "kana": "フタミホウモンカイゴステーションシルバーケアホウジュエン",
    "address": "伊勢市二見町三津855",
    "lat": 34.5002002,
    "lng": 136.7730469,
    "tel": "0596-44-2525",
    "url": "http://www.sensin.or.jp/",
    "pref": "三重県",
    "city": "伊勢市",
    "category": "home_help",
    "serviceType": "訪問介護",
    "capacity": 0,
    "openDays": [
      "平日",
      "土曜日",
      "日曜日",
      "祝日"
    ],
    "openDaysNote": ""
  },
  {
    "id": "2470802790",
    "name": "ヘルパーステーション　ささえ愛い",
    "kana": "ヘルパーステーション　ササエアイ",
    "address": "三重県伊勢市通町210番地3",
    "lat": 34.4989133,
    "lng": 136.7429947,
    "tel": "0596-29-5017",
    "url": "",
    "pref": "三重県",
    "city": "伊勢市",
    "category": "home_help",
    "serviceType": "訪問介護",
    "capacity": 0,
    "openDays": [
      "平日"
    ],
    "openDaysNote": "要請があれば営業時間外でもご相談に乗ります。"
  },
  {
    "id": "2470802535",
    "name": "ヘルパーステーション　ピースフル",
    "kana": "ヘルパーステーション　ピースフル",
    "address": "三重県伊勢市中島2丁目22番22号",
    "lat": 34.4904137042456,
    "lng": 136.689411993918,
    "tel": "0596-20-3355",
    "url": "http://peaceful-ise.com",
    "pref": "三重県",
    "city": "伊勢市",
    "category": "home_help",
    "serviceType": "訪問介護",
    "capacity": 0,
    "openDays": [
      "平日",
      "土曜日",
      "日曜日",
      "祝日"
    ],
    "openDaysNote": ""
  },
  {
    "id": "2470802121",
    "name": "ヘルパーステーション　ゆかり",
    "kana": "ヘルパーステーション　ユカリ",
    "address": "三重県伊勢市小俣町新村字休坂117",
    "lat": 34.5152770857348,
    "lng": 136.64295209875,
    "tel": "0596-63-6663",
    "url": "http://peaceful-ise.com",
    "pref": "三重県",
    "city": "伊勢市",
    "category": "home_help",
    "serviceType": "訪問介護",
    "capacity": 0,
    "openDays": [
      "平日",
      "土曜日",
      "日曜日",
      "祝日"
    ],
    "openDaysNote": ""
  },
  {
    "id": "2470801966",
    "name": "ヘルパーステーション・こはる",
    "kana": "ヘルパーステーション・コハル",
    "address": "伊勢市小木町490番地1",
    "lat": 34.5068236,
    "lng": 136.7210736,
    "tel": "0596-64-8099",
    "url": "",
    "pref": "三重県",
    "city": "伊勢市",
    "category": "home_help",
    "serviceType": "訪問介護",
    "capacity": null,
    "openDays": [
      "平日",
      "土曜日",
      "日曜日",
      "祝日"
    ],
    "openDaysNote": "電話等により、２４時間常時連絡が可能な体制とする。"
  },
  {
    "id": "2470802113",
    "name": "ヘルパーステーションあんず",
    "kana": "ヘルパーステーションアンズ",
    "address": "三重県伊勢市大世古4-7-57",
    "lat": 34.5010647335628,
    "lng": 136.703544200139,
    "tel": "（0596）65-6000",
    "url": "https://matsumotoclinic-iseshi.com",
    "pref": "三重県",
    "city": "伊勢市",
    "category": "home_help",
    "serviceType": "訪問介護",
    "capacity": 0,
    "openDays": [
      "平日",
      "土曜日",
      "日曜日",
      "祝日"
    ],
    "openDaysNote": "電話等により、２４時間常時連絡可能な体制をとっている。"
  },
  {
    "id": "2470803004",
    "name": "ヘルパーステーションエイド",
    "kana": "ヘルパーステーションエイド",
    "address": "三重県伊勢市前山町503-9",
    "lat": 34.463012,
    "lng": 136.6891535,
    "tel": "596728569",
    "url": "",
    "pref": "三重県",
    "city": "伊勢市",
    "category": "home_help",
    "serviceType": "訪問介護",
    "capacity": null,
    "openDays": [
      "平日",
      "土曜日",
      "日曜日",
      "祝日"
    ],
    "openDaysNote": ""
  },
  {
    "id": "2470803087",
    "name": "ヘルパーステーション音彩",
    "kana": "ヘルパーステーションネイロ",
    "address": "三重県伊勢市津村町791番地1",
    "lat": 34.4529311,
    "lng": 136.6578515,
    "tel": "0596-25-8739",
    "url": "",
    "pref": "三重県",
    "city": "伊勢市",
    "category": "home_help",
    "serviceType": "訪問介護",
    "capacity": null,
    "openDays": [
      "平日",
      "土曜日",
      "日曜日",
      "祝日"
    ],
    "openDaysNote": ""
  },
  {
    "id": "2470802386",
    "name": "ヘルパーステーション鹿海",
    "kana": "ヘルパーステーションカノミ",
    "address": "伊勢市鹿海町1621番地1",
    "lat": 34.4913378898915,
    "lng": 136.742958983437,
    "tel": "0596-65-5310",
    "url": "",
    "pref": "三重県",
    "city": "伊勢市",
    "category": "home_help",
    "serviceType": "訪問介護",
    "capacity": null,
    "openDays": [
      "平日",
      "土曜日",
      "日曜日",
      "祝日"
    ],
    "openDaysNote": ""
  },
  {
    "id": "2470801552",
    "name": "ヘルパーステーション有明の里伊勢",
    "kana": "ヘルパーステーションアリアケノサトイセ",
    "address": "三重県伊勢市中村町７３３番地４",
    "lat": 34.4712771209217,
    "lng": 136.727126588581,
    "tel": "0596-29-2123",
    "url": "http://www.ariakenosato.com/",
    "pref": "三重県",
    "city": "伊勢市",
    "category": "home_help",
    "serviceType": "訪問介護",
    "capacity": 50,
    "openDays": [
      "平日",
      "土曜日",
      "日曜日",
      "祝日"
    ],
    "openDaysNote": ""
  },
  {
    "id": "2470803038",
    "name": "ポピーヘルパーステーション五十鈴川",
    "kana": "ポピーヘルパーステーションイスズガワ",
    "address": "三重県伊勢市楠部町510番地86",
    "lat": 34.4774709,
    "lng": 136.7284515,
    "tel": "0596-63-8806",
    "url": "https://mk-corporation-ise.com",
    "pref": "三重県",
    "city": "伊勢市",
    "category": "home_help",
    "serviceType": "訪問介護",
    "capacity": 0,
    "openDays": [
      "平日",
      "土曜日",
      "日曜日",
      "祝日"
    ],
    "openDaysNote": "基本　年末年始12月31日～1月3日を除く毎日となっております。"
  },
  {
    "id": "2472800362",
    "name": "ポピーヘルパーステーション小俣",
    "kana": "ポピーヘルパーステーションオバタ",
    "address": "三重県伊勢市小俣町湯田44番地",
    "lat": 34.5107651,
    "lng": 136.6567107,
    "tel": "0596-22-5003",
    "url": "https://mk-corporation-ise.com",
    "pref": "三重県",
    "city": "伊勢市",
    "category": "home_help",
    "serviceType": "訪問介護",
    "capacity": 0,
    "openDays": [
      "平日",
      "土曜日",
      "日曜日",
      "祝日"
    ],
    "openDaysNote": "基本　年末年始12月31日～1月3日を除く毎日となっております。"
  },
  {
    "id": "2470803012",
    "name": "みどりの森介護サービス伊勢",
    "kana": "ミドリノモリカイゴサービスイセ",
    "address": "三重県伊勢市御薗町新開893番地2",
    "lat": 34.5103828,
    "lng": 136.7250059,
    "tel": "0596-31-1165",
    "url": "http://www.midori-nomori.com",
    "pref": "三重県",
    "city": "伊勢市",
    "category": "home_help",
    "serviceType": "訪問介護",
    "capacity": null,
    "openDays": [
      "平日",
      "土曜日",
      "日曜日",
      "祝日"
    ],
    "openDaysNote": ""
  },
  {
    "id": "2470801339",
    "name": "医療法人全心会　伊勢ひかりヘルパーステーション",
    "kana": "イリョウホウジンゼンシンカイ　イセヒカリヘルパーステーション",
    "address": "三重県伊勢市御薗町高向810-1",
    "lat": 34.4931604,
    "lng": 136.6986785,
    "tel": "0596-28-8077",
    "url": "http://www.isekeiyu.com",
    "pref": "三重県",
    "city": "伊勢市",
    "category": "home_help",
    "serviceType": "訪問介護",
    "capacity": 0,
    "openDays": [
      "平日",
      "土曜日",
      "日曜日",
      "祝日"
    ],
    "openDaysNote": "時間外サービスについては応相談（改行）電話受付は２４時間対応させて頂きます"
  },
  {
    "id": "2470800588",
    "name": "楽寿苑指定訪問介護事業所",
    "kana": "ラクジュエンシテイホウモンカイゴジギョウショ",
    "address": "三重県伊勢市馬瀬町1065番地",
    "lat": 34.5136921,
    "lng": 136.724637,
    "tel": "0596-31-0030",
    "url": "http://www.hoeikai.or.jp",
    "pref": "三重県",
    "city": "伊勢市",
    "category": "home_help",
    "serviceType": "訪問介護",
    "capacity": 0,
    "openDays": [
      "平日",
      "土曜日",
      "日曜日",
      "祝日"
    ],
    "openDaysNote": "12月31日～1月3日につきましては応相談。"
  },
  {
    "id": "2470801883",
    "name": "指定訪問介護事業所　正邦苑中須",
    "kana": "シテイホウモンカイゴジギョウショ　ショウホウエンナカズ",
    "address": "伊勢市中須町402番地グループホーム正邦苑城田 グループホーム正邦苑城田",
    "lat": 34.4881171496152,
    "lng": 136.677981181052,
    "tel": "0596-67-7708",
    "url": "ｗｗｗ.jikeikai-ise.or.jp",
    "pref": "三重県",
    "city": "伊勢市",
    "category": "home_help",
    "serviceType": "訪問介護",
    "capacity": 0,
    "openDays": [
      "平日",
      "土曜日",
      "日曜日",
      "祝日"
    ],
    "openDaysNote": "居宅サービス計画書により対応可能。"
  },
  {
    "id": "2470800356",
    "name": "社会福祉法人　伊勢市社会福祉協議会　訪問介護事業所",
    "kana": "シャカイフクシホウジン　イセシシャカイフクシキョウギカイ　ホウモンカイゴジギョウショ",
    "address": "三重県伊勢市御薗町長屋2767番地ハートプラザみその北側駐車場事務所棟 ハートプラザみその北側駐車場事務所棟",
    "lat": 34.509978,
    "lng": 136.7076248,
    "tel": "0596-22-6617",
    "url": "",
    "pref": "三重県",
    "city": "伊勢市",
    "category": "home_help",
    "serviceType": "訪問介護",
    "capacity": 5,
    "openDays": [
      "平日",
      "土曜日",
      "日曜日",
      "祝日"
    ],
    "openDaysNote": "規定に関わらず、台風、地震などの災害、その他訪問介護、介護予防訪問介護、伊勢市介護予防・日常生活支援総合事業第1号訪問事業の【訪問介護相当サービス】、及び、伊勢市介護予防・日常生活支援総合事業第１号訪問事業の【くらし応援サービス】の実施が困難な事態が発生した時には、事業者の判断により休業とする場合があります。"
  },
  {
    "id": "2470802410",
    "name": "生活サポートえがおの木",
    "kana": "セイカツサポートエガオノキ",
    "address": "三重県伊勢市小俣町宮前６４１番地１",
    "lat": 34.4962202121935,
    "lng": 136.671618204789,
    "tel": "0596-20-1115",
    "url": "http://www.care-fit.com/",
    "pref": "三重県",
    "city": "伊勢市",
    "category": "home_help",
    "serviceType": "訪問介護",
    "capacity": 0,
    "openDays": [
      "平日",
      "土曜日",
      "祝日"
    ],
    "openDaysNote": "日曜、提供時間外も相談に応じる"
  },
  {
    "id": "2470800802",
    "name": "田中ヘルパーステーション",
    "kana": "タナカヘルパーステーション",
    "address": "伊勢市曽祢1丁目6-1",
    "lat": 34.4925117310223,
    "lng": 136.701531750926,
    "tel": "0596-65-7757",
    "url": "https://www.isetanaka.jp/helper.php",
    "pref": "三重県",
    "city": "伊勢市",
    "category": "home_help",
    "serviceType": "訪問介護",
    "capacity": 65,
    "openDays": [
      "平日"
    ],
    "openDaysNote": "ご利用者の要望の必要に応じて、要相談"
  },
  {
    "id": "2470801149",
    "name": "訪問介護　あさひ",
    "kana": "ホウモンカイゴ　アサヒ",
    "address": "三重県伊勢市小俣町宮前７５７番地",
    "lat": 34.4921177366534,
    "lng": 136.675497301852,
    "tel": "0596-21-2111",
    "url": "http://asahi‐ise.net",
    "pref": "三重県",
    "city": "伊勢市",
    "category": "home_help",
    "serviceType": "訪問介護",
    "capacity": 37,
    "openDays": [
      "平日",
      "土曜日",
      "日曜日",
      "祝日"
    ],
    "openDaysNote": ""
  },
  {
    "id": "2472800735",
    "name": "訪問介護　かがやき伊勢",
    "kana": "ホウモンカイゴ　カガヤキイセ",
    "address": "三重県伊勢市黒瀬町680-1",
    "lat": 34.4985525794273,
    "lng": 136.736022983979,
    "tel": "0596-22-0589",
    "url": "",
    "pref": "三重県",
    "city": "伊勢市",
    "category": "home_help",
    "serviceType": "訪問介護",
    "capacity": 0,
    "openDays": [
      "平日",
      "土曜日",
      "日曜日",
      "祝日"
    ],
    "openDaysNote": "ケアプランに対応する。"
  },
  {
    "id": "2470801479",
    "name": "訪問介護　ちからもち",
    "kana": "ホウモンカイゴ　チカラモチ",
    "address": "三重県伊勢市浦口４丁目２番１３号",
    "lat": 34.4879997,
    "lng": 136.6921236,
    "tel": "0596-20-5212",
    "url": "http://www.isewatarai-iryoseikyo.com/",
    "pref": "三重県",
    "city": "伊勢市",
    "category": "home_help",
    "serviceType": "訪問介護",
    "capacity": 0,
    "openDays": [
      "平日",
      "土曜日",
      "日曜日",
      "祝日"
    ],
    "openDaysNote": "8：00～8：30の間のサービスについては適宜、相談の上での対応となります。土曜日・日曜日・GW・年末年始・お盆に関しては、稼働ヘルパーが限られてくるため、要相談となります。"
  },
  {
    "id": "2470802642",
    "name": "訪問介護　幸結",
    "kana": "ホウモンカイゴ　サユ",
    "address": "三重県伊勢市旭町200番3",
    "lat": 34.4714487657618,
    "lng": 136.696921119021,
    "tel": "0596-20-1122",
    "url": "",
    "pref": "三重県",
    "city": "伊勢市",
    "category": "home_help",
    "serviceType": "訪問介護",
    "capacity": 0,
    "openDays": [
      "平日",
      "土曜日",
      "日曜日",
      "祝日"
    ],
    "openDaysNote": ""
  },
  {
    "id": "2470802048",
    "name": "訪問介護ステーション　かがせお",
    "kana": "ホウモンカイゴステーション　カガセオ",
    "address": "三重県伊勢市藤里町338-1",
    "lat": 34.4728466712425,
    "lng": 136.701749715595,
    "tel": "0596－27－1165",
    "url": "",
    "pref": "三重県",
    "city": "伊勢市",
    "category": "home_help",
    "serviceType": "訪問介護",
    "capacity": 0,
    "openDays": [
      "平日"
    ],
    "openDaysNote": ""
  },
  {
    "id": "2470802527",
    "name": "訪問介護ステーション　なごみ",
    "kana": "ホウモンカイゴステーション　ナゴミ",
    "address": "三重県伊勢市東大淀町字里中242番地",
    "lat": 34.5567745060817,
    "lng": 136.661287882273,
    "tel": "596638872",
    "url": "",
    "pref": "三重県",
    "city": "伊勢市",
    "category": "home_help",
    "serviceType": "訪問介護",
    "capacity": 14,
    "openDays": [
      "平日",
      "土曜日",
      "日曜日",
      "祝日"
    ],
    "openDaysNote": ""
  },
  {
    "id": "2470801156",
    "name": "訪問介護ステーションくれよん",
    "kana": "クレヨン",
    "address": "三重県伊勢市上地町5019-3",
    "lat": 34.4879984,
    "lng": 136.6488048,
    "tel": "0596-20-6013",
    "url": "",
    "pref": "三重県",
    "city": "伊勢市",
    "category": "home_help",
    "serviceType": "訪問介護",
    "capacity": null,
    "openDays": [
      "平日",
      "土曜日",
      "日曜日",
      "祝日"
    ],
    "openDaysNote": ""
  },
  {
    "id": "2470801008",
    "name": "訪問介護ステーションユニーク",
    "kana": "ホウモンカイゴステーションユニーク",
    "address": "三重県伊勢市御園町高向400番地1",
    "lat": 34.5062848487449,
    "lng": 136.703229709705,
    "tel": "0596-26-0010",
    "url": "",
    "pref": "三重県",
    "city": "伊勢市",
    "category": "home_help",
    "serviceType": "訪問介護",
    "capacity": 0,
    "openDays": [
      "平日",
      "土曜日",
      "日曜日",
      "祝日"
    ],
    "openDaysNote": "ただし依頼があればその限りではない。（改行）上記の他、電話等のサービス提供は24時間連絡が可能。"
  },
  {
    "id": "2470803111",
    "name": "訪問介護つくし",
    "kana": "ホウモンカイゴツクシ",
    "address": "三重県伊勢市小俣町明野５５９番地４０",
    "lat": 34.5329182,
    "lng": 136.664572,
    "tel": "0596-67-6213",
    "url": "",
    "pref": "三重県",
    "city": "伊勢市",
    "category": "home_help",
    "serviceType": "訪問介護",
    "capacity": 0,
    "openDays": [
      "平日"
    ],
    "openDaysNote": ""
  },
  {
    "id": "2470801735",
    "name": "訪問介護ひこばえ",
    "kana": "ホウモンカイゴヒコバエ",
    "address": "伊勢市上地町2564-1",
    "lat": 34.4993165,
    "lng": 136.6628789,
    "tel": "0596-21-1165",
    "url": "eminoie.com",
    "pref": "三重県",
    "city": "伊勢市",
    "category": "home_help",
    "serviceType": "訪問介護",
    "capacity": 23,
    "openDays": [
      "平日",
      "土曜日",
      "日曜日",
      "祝日"
    ],
    "openDaysNote": ""
  },
  {
    "id": "2470802923",
    "name": "訪問介護りゅー",
    "kana": "ホウモンカイゴリュー",
    "address": "野村町5557番地",
    "lat": 34.525625154434,
    "lng": 136.660700605271,
    "tel": "050-1053-6221",
    "url": "",
    "pref": "三重県",
    "city": "伊勢市",
    "category": "home_help",
    "serviceType": "訪問介護",
    "capacity": null,
    "openDays": [
      "平日",
      "土曜日"
    ],
    "openDaysNote": ""
  },
  {
    "id": "2470802915",
    "name": "訪問介護事業所　ボヌール",
    "kana": "ホウモンカイゴジギョウショ　ボヌール",
    "address": "三重県伊勢市朝熊町1364番地3",
    "lat": 34.4729666,
    "lng": 136.7590107,
    "tel": "0596-65-6648",
    "url": "",
    "pref": "三重県",
    "city": "伊勢市",
    "category": "home_help",
    "serviceType": "訪問介護",
    "capacity": 40,
    "openDays": [
      "平日",
      "土曜日",
      "日曜日",
      "祝日"
    ],
    "openDaysNote": ""
  },
  {
    "id": "2470802873",
    "name": "訪問介護本舗　伊勢",
    "kana": "ホウモンカイゴホンポ　イセ",
    "address": "三重県伊勢市馬瀬町１２０５－１２エクセレント堀１０２ エクセレント堀１０２",
    "lat": 34.5187002,
    "lng": 136.7272622,
    "tel": "0596-63-9772",
    "url": "http://dayservicehonpo.jp/houmonise/",
    "pref": "三重県",
    "city": "伊勢市",
    "category": "home_help",
    "serviceType": "訪問介護",
    "capacity": 0,
    "openDays": [],
    "openDaysNote": "24時間"
  },
  {
    "id": "2470802360",
    "name": "藍ちゃんの家　訪問介護",
    "kana": "アイチャンノウチ　ホウモンカイゴ",
    "address": "三重県伊勢市常磐2-10-12",
    "lat": 34.4911745,
    "lng": 136.6976203,
    "tel": "0596-20-5155",
    "url": "",
    "pref": "三重県",
    "city": "伊勢市",
    "category": "home_help",
    "serviceType": "訪問介護",
    "capacity": 0,
    "openDays": [
      "平日",
      "土曜日",
      "日曜日",
      "祝日"
    ],
    "openDaysNote": ""
  },
  {
    "id": "2473100408",
    "name": "ＮＰＯ法人　てとて",
    "kana": "エヌピィオゥホウジンテトテ",
    "address": "南牟婁郡紀宝町井内409-5",
    "lat": 33.7883474655825,
    "lng": 135.99257929016,
    "tel": "0735-33-1007",
    "url": "",
    "pref": "三重県",
    "city": "紀宝町",
    "category": "home_help",
    "serviceType": "訪問介護",
    "capacity": 0,
    "openDays": [
      "平日",
      "土曜日",
      "日曜日",
      "祝日"
    ],
    "openDaysNote": "日程については相談に応じます。"
  },
  {
    "id": "2473100416",
    "name": "株式会社ハート・ハート紀宝２４時間介護サービス",
    "kana": "カブシキガイシャハート・ハートキホウ24ジカンカイゴサービス",
    "address": "三重県南牟婁郡紀宝町井田2417番地24",
    "lat": 33.7428359,
    "lng": 136.0189386,
    "tel": "0735-32-3579",
    "url": "",
    "pref": "三重県",
    "city": "紀宝町",
    "category": "home_help",
    "serviceType": "訪問介護",
    "capacity": 25,
    "openDays": [
      "平日",
      "土曜日",
      "日曜日",
      "祝日"
    ],
    "openDaysNote": "電話等により２４時間常時相談、利用受付等が可能な体制とする。"
  },
  {
    "id": "2473100036",
    "name": "紀宝町社協ホームヘルプサービス",
    "kana": "キホウチョウシャキョウホームヘルプサービス",
    "address": "三重県南牟婁郡紀宝町神内277-2神内福祉センター 神内福祉センター",
    "lat": 33.7487213,
    "lng": 136.0129918,
    "tel": "0735-32-2023",
    "url": "http://kiho-shakyo.sub.jp/",
    "pref": "三重県",
    "city": "紀宝町",
    "category": "home_help",
    "serviceType": "訪問介護",
    "capacity": 0,
    "openDays": [
      "平日",
      "土曜日",
      "日曜日",
      "祝日"
    ],
    "openDaysNote": "提供時間外の利用に関してはご相談に応じます。"
  },
  {
    "id": "2473100705",
    "name": "訪問介護　ハートフル",
    "kana": "ホウモンカイゴ　ハートフル",
    "address": "三重県南牟婁郡紀宝町鮒田８６２－５",
    "lat": 33.7437497,
    "lng": 135.9762699,
    "tel": "０７３５－２１－４２８９",
    "url": "",
    "pref": "三重県",
    "city": "紀宝町",
    "category": "home_help",
    "serviceType": "訪問介護",
    "capacity": 0,
    "openDays": [
      "平日",
      "土曜日",
      "日曜日",
      "祝日"
    ],
    "openDaysNote": "電話等による対応は２４時間体制で行っている。"
  },
  {
    "id": "2473100747",
    "name": "訪問介護きほう",
    "kana": "ホウモンカイゴキホウ",
    "address": "三重県南牟婁郡紀宝町成川４４－２０",
    "lat": 33.7411195,
    "lng": 136.0044233,
    "tel": "0735-22-0855",
    "url": "",
    "pref": "三重県",
    "city": "紀宝町",
    "category": "home_help",
    "serviceType": "訪問介護",
    "capacity": 20,
    "openDays": [
      "平日",
      "土曜日",
      "日曜日",
      "祝日"
    ],
    "openDaysNote": ""
  },
  {
    "id": "2473100689",
    "name": "訪問介護事業所　紀宝の丘",
    "kana": "ホウモンカイゴジギョウショ　キホウノオカ",
    "address": "井田２３８９番１",
    "lat": 33.7457745,
    "lng": 136.0184914,
    "tel": "0735-32-0606",
    "url": "",
    "pref": "三重県",
    "city": "紀宝町",
    "category": "home_help",
    "serviceType": "訪問介護",
    "capacity": 0,
    "openDays": [
      "平日",
      "土曜日",
      "日曜日",
      "祝日"
    ],
    "openDaysNote": ""
  },
  {
    "id": "2473000541",
    "name": "ヘルパーステーションすまいる",
    "kana": "ヘルパーステーションスマイル",
    "address": "三重県北牟婁郡紀北町上里377番地2",
    "lat": 34.1438946,
    "lng": 136.2311556,
    "tel": "0597-35-0100",
    "url": "http://www.zb.ztv.ne.jp/suncare-center/",
    "pref": "三重県",
    "city": "紀北町",
    "category": "home_help",
    "serviceType": "訪問介護",
    "capacity": 0,
    "openDays": [
      "平日",
      "土曜日",
      "日曜日",
      "祝日"
    ],
    "openDaysNote": ""
  },
  {
    "id": "2473000467",
    "name": "ヘルパーステーションゆりかご",
    "kana": "ヘルパーステーションユリカゴ",
    "address": "三重県北牟婁郡紀北町船津430番地3シルバーハウスゆりかご シルバーハウスゆりかご",
    "lat": 34.125276111596,
    "lng": 136.216019436385,
    "tel": "0597-35-1022",
    "url": "",
    "pref": "三重県",
    "city": "紀北町",
    "category": "home_help",
    "serviceType": "訪問介護",
    "capacity": 60,
    "openDays": [
      "平日",
      "土曜日",
      "日曜日",
      "祝日"
    ],
    "openDaysNote": "事業者、利用者双方の合意のある場合は、上記時間にかかわらず訪問いたします。"
  },
  {
    "id": "2473000053",
    "name": "紀北町社協ホームヘルパー『海山』",
    "kana": "キホクチョウシャキョウホームヘルパー『ミヤマ』",
    "address": "三重県北牟婁郡紀北町引本浦239-2紀北町社会福祉協議会　海山支所内 紀北町社会福祉協議会　海山支所内",
    "lat": 34.1062210602715,
    "lng": 136.237618158093,
    "tel": "0597-32-3357",
    "url": "http://www.kihoku-shakyou.com/",
    "pref": "三重県",
    "city": "紀北町",
    "category": "home_help",
    "serviceType": "訪問介護",
    "capacity": 0,
    "openDays": [
      "平日",
      "土曜日",
      "日曜日",
      "祝日"
    ],
    "openDaysNote": "連絡は、２４時間体制"
  },
  {
    "id": "2473000061",
    "name": "紀北町社協ホームヘルパー『長島』",
    "kana": "キホクチョウシャキョウホームヘルパー『ナガシマ』",
    "address": "三重県北牟婁郡紀北町東長島２０９番地９紀北町社会福祉会館内 紀北町社会福祉会館内",
    "lat": 34.2104197,
    "lng": 136.3383019,
    "tel": "0597-47-1080",
    "url": "http://kihoku-shakyo.com/",
    "pref": "三重県",
    "city": "紀北町",
    "category": "home_help",
    "serviceType": "訪問介護",
    "capacity": 0,
    "openDays": [
      "平日",
      "土曜日",
      "日曜日",
      "祝日"
    ],
    "openDaysNote": ""
  },
  {
    "id": "2473000137",
    "name": "在宅ケアグループ　ゆうあい",
    "kana": "ザイタクケアグループ　ユウアイ",
    "address": "三重県北牟婁郡紀北町東長島1307-1",
    "lat": 34.2195959282772,
    "lng": 136.327185889441,
    "tel": "0597‐47-0458",
    "url": "yuai2002.com",
    "pref": "三重県",
    "city": "紀北町",
    "category": "home_help",
    "serviceType": "訪問介護",
    "capacity": 0,
    "openDays": [
      "平日",
      "土曜日",
      "日曜日",
      "祝日"
    ],
    "openDaysNote": "日曜日・祭日・盆・年末年始に関しては家族等で対応できる方は休み。"
  },
  {
    "id": "2473000525",
    "name": "社会福祉法人　慈徳会　菖蒲園訪問介護事業所",
    "kana": "シャカイフクシホウジン　ジトクカイ　ショウブエンホウモンカイゴジギョウショ",
    "address": "三重県北牟婁郡紀北町上里245-2",
    "lat": 34.143311,
    "lng": 136.2334148,
    "tel": "0597-35-1660",
    "url": "",
    "pref": "三重県",
    "city": "紀北町",
    "category": "home_help",
    "serviceType": "訪問介護",
    "capacity": 0,
    "openDays": [
      "平日",
      "土曜日",
      "日曜日"
    ],
    "openDaysNote": "サービス提供時間　24時間体制、年中無休"
  },
  {
    "id": "2473000194",
    "name": "訪問介護　たいき",
    "kana": "ホウモンカイゴ　タイキ",
    "address": "三重県北牟婁郡紀北町三浦７０９番地１",
    "lat": 34.1646072,
    "lng": 136.2770725,
    "tel": "0597-46-1488",
    "url": "http://www.za.ztv.ne.jp/taiki/",
    "pref": "三重県",
    "city": "紀北町",
    "category": "home_help",
    "serviceType": "訪問介護",
    "capacity": 0,
    "openDays": [
      "平日",
      "土曜日",
      "祝日"
    ],
    "openDaysNote": ""
  },
  {
    "id": "2470401072",
    "name": "からふるサポート川崎",
    "kana": "カラフルサポートカワサキ",
    "address": "三重県亀山市川崎町1656-1からふる庭園川崎 からふる庭園川崎",
    "lat": 34.8963943,
    "lng": 136.4729592,
    "tel": "0595-97-3312",
    "url": "http://colofulgarden.jp",
    "pref": "三重県",
    "city": "亀山市",
    "category": "home_help",
    "serviceType": "訪問介護",
    "capacity": null,
    "openDays": [
      "平日",
      "土曜日",
      "日曜日",
      "祝日"
    ],
    "openDaysNote": ""
  },
  {
    "id": "2470401023",
    "name": "サクラサクラ",
    "kana": "サクラサクラ",
    "address": "三重県亀山市川合町１０３番地",
    "lat": 34.8654259,
    "lng": 136.4875302,
    "tel": "0595-84-0002",
    "url": "",
    "pref": "三重県",
    "city": "亀山市",
    "category": "home_help",
    "serviceType": "訪問介護",
    "capacity": null,
    "openDays": [
      "平日"
    ],
    "openDaysNote": ""
  },
  {
    "id": "2470400520",
    "name": "さと和亀山訪問介護事業所",
    "kana": "サトワカメヤマホウモンカイゴジギョウショ",
    "address": "亀山市布気町字道野６３４番地１０サービス付き高齢者向け住宅さと和の家 サービス付き高齢者向け住宅さと和の家",
    "lat": 34.8652481715788,
    "lng": 136.428299773633,
    "tel": "0595-97-3086",
    "url": "http://anjyu.co.jp/",
    "pref": "三重県",
    "city": "亀山市",
    "category": "home_help",
    "serviceType": "訪問介護",
    "capacity": 0,
    "openDays": [
      "平日",
      "土曜日",
      "日曜日",
      "祝日"
    ],
    "openDaysNote": "２４時間対応可能"
  },
  {
    "id": "2470400850",
    "name": "ナーシング三重",
    "kana": "ナーシングミエ",
    "address": "三重県亀山市川崎町4855番地",
    "lat": 34.9031192069861,
    "lng": 136.470651357117,
    "tel": "0595-85-3911",
    "url": "http://www.nursing-mie.jp/",
    "pref": "三重県",
    "city": "亀山市",
    "category": "home_help",
    "serviceType": "訪問介護",
    "capacity": null,
    "openDays": [
      "平日",
      "土曜日",
      "日曜日",
      "祝日"
    ],
    "openDaysNote": ""
  },
  {
    "id": "2470400983",
    "name": "ニチイケアセンター亀山",
    "kana": "ニチイケアセンターカメヤマ",
    "address": "三重県亀山市みずほ台14番地292シリウス29Ⅱ103 シリウス29Ⅱ103",
    "lat": 34.8718078,
    "lng": 136.4769796,
    "tel": "0595-96-9496",
    "url": "https://www.nichiigakkan.co.jp/",
    "pref": "三重県",
    "city": "亀山市",
    "category": "home_help",
    "serviceType": "訪問介護",
    "capacity": 0,
    "openDays": [
      "平日",
      "土曜日",
      "日曜日",
      "祝日"
    ],
    "openDaysNote": "サービスを利用できる時間については居宅サービス計画に基づきます。"
  },
  {
    "id": "2470400496",
    "name": "ヘルパーステーション　いちごいちえ",
    "kana": "ヘルパーステーション　イチゴイチエ",
    "address": "三重県亀山市住山町５４４",
    "lat": 34.8686835219174,
    "lng": 136.436286328616,
    "tel": "0595-84-1122",
    "url": "",
    "pref": "三重県",
    "city": "亀山市",
    "category": "home_help",
    "serviceType": "訪問介護",
    "capacity": 0,
    "openDays": [
      "平日",
      "土曜日",
      "日曜日",
      "祝日"
    ],
    "openDaysNote": ""
  },
  {
    "id": "2470401098",
    "name": "ヘルパーステーション　エイド",
    "kana": "ヘルパーステーション　エイド",
    "address": "三重県亀山市関町木崎864番地1",
    "lat": 34.8561696,
    "lng": 136.3916809,
    "tel": "0595-97-3567",
    "url": "https://helper-s-eid.com",
    "pref": "三重県",
    "city": "亀山市",
    "category": "home_help",
    "serviceType": "訪問介護",
    "capacity": 40,
    "openDays": [
      "平日",
      "土曜日",
      "日曜日",
      "祝日"
    ],
    "openDaysNote": "盆休み：8/13～8/15、年末年始：12/29～1/3"
  },
  {
    "id": "2470401064",
    "name": "ヘルパーステーションおかだ",
    "kana": "ヘルパーステーションオカダ",
    "address": "三重県亀山市和賀町14-20",
    "lat": 34.8414604,
    "lng": 136.4470313,
    "tel": "090-8339-6097",
    "url": "",
    "pref": "三重県",
    "city": "亀山市",
    "category": "home_help",
    "serviceType": "訪問介護",
    "capacity": 0,
    "openDays": [
      "平日",
      "土曜日",
      "日曜日",
      "祝日"
    ],
    "openDaysNote": ""
  },
  {
    "id": "2470400371",
    "name": "ヘルパーステーションみずほ",
    "kana": "ヘルパーステーションミズホ",
    "address": "三重県亀山市小下町13－4",
    "lat": 34.8527916249395,
    "lng": 136.47256333174,
    "tel": "0595-84-0303",
    "url": "",
    "pref": "三重県",
    "city": "亀山市",
    "category": "home_help",
    "serviceType": "訪問介護",
    "capacity": 0,
    "openDays": [
      "平日",
      "土曜日",
      "日曜日",
      "祝日"
    ],
    "openDaysNote": ""
  },
  {
    "id": "2470400058",
    "name": "亀山市社会福祉協議会　訪問介護事業所",
    "kana": "カメヤマシシャカイフクシキョウギカイ　ホウモンカイゴジギョウショ",
    "address": "亀山市若山町７番１号",
    "lat": 34.8603924490997,
    "lng": 136.44678697365,
    "tel": "0595-97‐3911",
    "url": "http://www.kameyama-syakyo.or.jp",
    "pref": "三重県",
    "city": "亀山市",
    "category": "home_help",
    "serviceType": "訪問介護",
    "capacity": 0,
    "openDays": [
      "平日",
      "土曜日",
      "日曜日",
      "祝日"
    ],
    "openDaysNote": "サービス提供時間は6：00～22：00とする。土・日・祝日についても対応する。"
  },
  {
    "id": "2470400322",
    "name": "指定訪問介護事業所ハート",
    "kana": "シテイホウモンカイゴジギョウショハート",
    "address": "三重県亀山市みどり町6番地の9",
    "lat": 34.8695464,
    "lng": 136.4855841,
    "tel": "0595-84-2255",
    "url": "",
    "pref": "三重県",
    "city": "亀山市",
    "category": "home_help",
    "serviceType": "訪問介護",
    "capacity": 0,
    "openDays": [
      "平日",
      "土曜日",
      "日曜日",
      "祝日"
    ],
    "openDaysNote": "緊急性の高い場合は、夜間も含め即対応します。介護サービスの内容に応じて上記以外の時間帯も応じます。早朝・夜間・土日祝日や事務所が留守の時、時間外の場合は担当者の携帯へ転送となりますので常時連絡可能です。"
  },
  {
    "id": "2470401007",
    "name": "樹楽にじむすび蒼空",
    "kana": "キラクニジムスビソラ",
    "address": "三重県亀山市田村町705-20",
    "lat": 34.8732567914506,
    "lng": 136.489268342328,
    "tel": "0595-98-6940",
    "url": "",
    "pref": "三重県",
    "city": "亀山市",
    "category": "home_help",
    "serviceType": "訪問介護",
    "capacity": 0,
    "openDays": [
      "平日",
      "土曜日",
      "日曜日",
      "祝日"
    ],
    "openDaysNote": "各スタッフのシフト制のよる"
  },
  {
    "id": "2470400421",
    "name": "訪問介護ステーション　みえ",
    "kana": "ホウモンカイゴステーション　ミエ",
    "address": "三重県亀山市アイリス町14-7",
    "lat": 34.8671154,
    "lng": 136.460588,
    "tel": "0595-84-3527",
    "url": "http://www．mie-enge.jp/",
    "pref": "三重県",
    "city": "亀山市",
    "category": "home_help",
    "serviceType": "訪問介護",
    "capacity": 7,
    "openDays": [
      "平日",
      "土曜日",
      "日曜日",
      "祝日"
    ],
    "openDaysNote": ""
  },
  {
    "id": "2470401031",
    "name": "訪問介護ステーションTomoneel",
    "kana": "ホウモンカイゴステーショントモニール",
    "address": "三重県亀山市東御幸町９７番地１",
    "lat": 34.8504212593594,
    "lng": 136.45300744695,
    "tel": "0595-98-6909",
    "url": "https://tomoneel.co.jp",
    "pref": "三重県",
    "city": "亀山市",
    "category": "home_help",
    "serviceType": "訪問介護",
    "capacity": 0,
    "openDays": [
      "平日",
      "土曜日",
      "日曜日",
      "祝日"
    ],
    "openDaysNote": "サービスの提供は、電話等により、２４時間対応が可能な体制とする。"
  },
  {
    "id": "2470401114",
    "name": "訪問介護ステーション結び",
    "kana": "ホウモンカイゴステーションムスビ",
    "address": "三重県亀山市川崎町４７８２番地メディケアホーム結び心 メディケアホーム結び心",
    "lat": 34.8994916,
    "lng": 136.4750622,
    "tel": "0595-98-6601",
    "url": "https://www.musubi-care.com/",
    "pref": "三重県",
    "city": "亀山市",
    "category": "home_help",
    "serviceType": "訪問介護",
    "capacity": null,
    "openDays": [
      "平日",
      "土曜日",
      "日曜日",
      "祝日"
    ],
    "openDaysNote": ""
  },
  {
    "id": "2470401056",
    "name": "訪問介護咲楽",
    "kana": "ホウモンカイゴサクラ",
    "address": "三重県亀山市能褒野町67-28",
    "lat": 34.8882195,
    "lng": 136.4952992,
    "tel": "0595-85-2324",
    "url": "",
    "pref": "三重県",
    "city": "亀山市",
    "category": "home_help",
    "serviceType": "訪問介護",
    "capacity": null,
    "openDays": [
      "平日",
      "土曜日",
      "日曜日",
      "祝日"
    ],
    "openDaysNote": ""
  },
  {
    "id": "2470400116",
    "name": "訪問介護優亀山",
    "kana": "ホウモンカイゴ　ユウ　カメヤマ",
    "address": "三重県亀山市椿世町201-1",
    "lat": 34.8622921623143,
    "lng": 136.465354471399,
    "tel": "0595-82-7571",
    "url": "",
    "pref": "三重県",
    "city": "亀山市",
    "category": "home_help",
    "serviceType": "訪問介護",
    "capacity": 0,
    "openDays": [
      "平日",
      "土曜日",
      "日曜日",
      "祝日"
    ],
    "openDaysNote": "上記以外に電話等により、24時間常時連絡は可能です。"
  },
  {
    "id": "2472800305",
    "name": "ネクスト",
    "kana": "ネクスト",
    "address": "度会郡玉城町妙法寺398-1",
    "lat": 34.4933526236803,
    "lng": 136.638025671348,
    "tel": "0596-58-0300",
    "url": "https://www.all-kaigo.net/",
    "pref": "三重県",
    "city": "玉城町",
    "category": "home_help",
    "serviceType": "訪問介護",
    "capacity": 0,
    "openDays": [
      "平日",
      "土曜日",
      "日曜日",
      "祝日"
    ],
    "openDaysNote": ""
  },
  {
    "id": "2472801782",
    "name": "介護ステーションよつば",
    "kana": "カイゴステーションヨツバ",
    "address": "三重県度会郡玉城町妙法寺375",
    "lat": 34.4917884504534,
    "lng": 136.6383308128,
    "tel": "0596-58-1600",
    "url": "",
    "pref": "三重県",
    "city": "玉城町",
    "category": "home_help",
    "serviceType": "訪問介護",
    "capacity": 0,
    "openDays": [
      "平日",
      "土曜日",
      "日曜日",
      "祝日"
    ],
    "openDaysNote": "電話等により24時間常時連絡が可能な体制とする。"
  },
  {
    "id": "2472800552",
    "name": "玉城町生活支援ステーションたまき",
    "kana": "タマキチョウセイカツシエンステーションタマキ",
    "address": "三重県度会郡玉城町佐田８８１番地",
    "lat": 34.489666752829,
    "lng": 136.638868429625,
    "tel": "0596-58-8117",
    "url": "http://www.tamaki-hsp.jp/care/index.html",
    "pref": "三重県",
    "city": "玉城町",
    "category": "home_help",
    "serviceType": "訪問介護",
    "capacity": 0,
    "openDays": [
      "平日",
      "土曜日",
      "祝日"
    ],
    "openDaysNote": "業務日及び業務時間外は、緊急時等必要に応じ個別に対応する。"
  },
  {
    "id": "2472800024",
    "name": "社会福祉法人　　玉城町社会福祉協議会",
    "kana": "シャカイフクシホウジン　タマキチョウシャカイフクシキョウギカイ",
    "address": "三重県度会郡玉城町勝田4876番地1",
    "lat": 34.4871649,
    "lng": 136.6284872,
    "tel": "0596-58-6915",
    "url": "http://www2.mie-net.ne.jp/tamasya/",
    "pref": "三重県",
    "city": "玉城町",
    "category": "home_help",
    "serviceType": "訪問介護",
    "capacity": 0,
    "openDays": [
      "平日",
      "土曜日",
      "日曜日",
      "祝日"
    ],
    "openDaysNote": "なし"
  },
  {
    "id": "2471100491",
    "name": "たいせつ",
    "kana": "タイセツ",
    "address": "三重県熊野市飛鳥町大又５４番地６",
    "lat": 33.9575327828565,
    "lng": 136.103410618912,
    "tel": "0597-84-0090",
    "url": "",
    "pref": "三重県",
    "city": "熊野市",
    "category": "home_help",
    "serviceType": "訪問介護",
    "capacity": 0,
    "openDays": [
      "平日",
      "土曜日",
      "日曜日",
      "祝日"
    ],
    "openDaysNote": "利用者様の希望に応じて対応させていただきます。"
  },
  {
    "id": "2471100509",
    "name": "介護サポートなないろ",
    "kana": "カイゴサポ－トナナイロ",
    "address": "三重県熊野市井戸町758-2",
    "lat": 33.8908142,
    "lng": 136.0964384,
    "tel": "0597-85-2716",
    "url": "",
    "pref": "三重県",
    "city": "熊野市",
    "category": "home_help",
    "serviceType": "訪問介護",
    "capacity": 0,
    "openDays": [
      "平日",
      "土曜日",
      "日曜日",
      "祝日"
    ],
    "openDaysNote": ""
  },
  {
    "id": "2471100269",
    "name": "株式会社　だいち",
    "kana": "カブシキガイシャ　ダイチ",
    "address": "三重県熊野市木本町696-57",
    "lat": 33.8905785,
    "lng": 136.100045,
    "tel": "0597-88-0900",
    "url": "",
    "pref": "三重県",
    "city": "熊野市",
    "category": "home_help",
    "serviceType": "訪問介護",
    "capacity": 0,
    "openDays": [
      "平日",
      "土曜日",
      "日曜日",
      "祝日"
    ],
    "openDaysNote": "・ケアプランにおいて必要と認められ、日程等の調整が可能であれば、営業時間に関係なくいつでもサービス可能"
  },
  {
    "id": "2471100368",
    "name": "株式会社光輝会",
    "kana": "カブシキガイシャコウキカイ",
    "address": "熊野市二木島町７５１－１",
    "lat": 33.9400775027962,
    "lng": 136.181905912144,
    "tel": "0597-87-0255",
    "url": "http://care-koukikai.net",
    "pref": "三重県",
    "city": "熊野市",
    "category": "home_help",
    "serviceType": "訪問介護",
    "capacity": 0,
    "openDays": [
      "平日",
      "土曜日",
      "日曜日",
      "祝日"
    ],
    "openDaysNote": "上記時間外であっても対応致します"
  },
  {
    "id": "2471100020",
    "name": "熊社協井戸訪問介護事業所",
    "kana": "クマシャキョウイドホウモンカイゴジギョウショ(カイゴヨボウ)",
    "address": "三重県熊野市井戸町1150熊野市保健福祉センター1F 熊野市保健福祉センター1F",
    "lat": 33.8937556,
    "lng": 136.088468,
    "tel": "0597-89-5000",
    "url": "http://www.k-shakyo.com/",
    "pref": "三重県",
    "city": "熊野市",
    "category": "home_help",
    "serviceType": "訪問介護",
    "capacity": 0,
    "openDays": [
      "平日",
      "土曜日",
      "日曜日",
      "祝日"
    ],
    "openDaysNote": ""
  },
  {
    "id": "2473100044",
    "name": "熊社協紀和訪問介護事業所",
    "kana": "クマシャキョウキワホウモンカイゴジギョウショ",
    "address": "三重県熊野市紀和町板屋135－1高齢者生活福祉センター 高齢者生活福祉センター",
    "lat": 33.8747032,
    "lng": 135.912863,
    "tel": "0597-97-0633",
    "url": "http://www.k-shakyo.com/",
    "pref": "三重県",
    "city": "熊野市",
    "category": "home_help",
    "serviceType": "訪問介護",
    "capacity": 0,
    "openDays": [
      "平日",
      "土曜日",
      "日曜日",
      "祝日"
    ],
    "openDaysNote": "天災、その他のやむを得ず業務を遂行できない日を除く。"
  },
  {
    "id": "2471100087",
    "name": "熊野市社会福祉協議会飛鳥訪問介護事業所",
    "kana": "クマノシシャカイフクシキョウギカイアスカホウモンカイゴジギョウショ",
    "address": "三重県熊野市飛鳥町野口678番地",
    "lat": 33.9482407,
    "lng": 136.0756901,
    "tel": "0597-84-1000",
    "url": "http://k-shakyo.com/",
    "pref": "三重県",
    "city": "熊野市",
    "category": "home_help",
    "serviceType": "訪問介護",
    "capacity": 0,
    "openDays": [
      "平日",
      "土曜日",
      "日曜日",
      "祝日"
    ],
    "openDaysNote": ""
  },
  {
    "id": "2471100335",
    "name": "特定非営利活動法人　よりあい",
    "kana": "トクテイヒエイリカツドウホウジン　ヨリアイ",
    "address": "三重県熊野市五郷町寺谷１０６５番地４",
    "lat": 33.9842138,
    "lng": 136.048259,
    "tel": "0597-83-0105",
    "url": "",
    "pref": "三重県",
    "city": "熊野市",
    "category": "home_help",
    "serviceType": "訪問介護",
    "capacity": 0,
    "openDays": [
      "平日",
      "土曜日",
      "日曜日",
      "祝日"
    ],
    "openDaysNote": "・祝日も提供可。事務所の都合により休所の場合あり。（改行）・時間外、その他は相談により応じる。"
  },
  {
    "id": "2471100129",
    "name": "特定非営利活動法人たんぽぽ",
    "kana": "トクテイヒエイリカツドウホウジンタンポポ",
    "address": "三重県熊野有馬町字山崎前4520-345",
    "lat": 33.8741324,
    "lng": 136.0866242,
    "tel": "0597-89-3181",
    "url": "",
    "pref": "三重県",
    "city": "熊野市",
    "category": "home_help",
    "serviceType": "訪問介護",
    "capacity": 0,
    "openDays": [
      "平日",
      "土曜日",
      "日曜日",
      "祝日"
    ],
    "openDaysNote": "時間外については、利用者又はその家族の要望に対し、必要に応じ柔軟に対応する。"
  },
  {
    "id": "2471100061",
    "name": "特定非営利活動法人思いやり支援センターくまの",
    "kana": "オモイヤリシエンセンタークマノ",
    "address": "三重県熊野市井戸町３３１番地の５",
    "lat": 33.886948,
    "lng": 136.0924707,
    "tel": "0597-89-6763",
    "url": "",
    "pref": "三重県",
    "city": "熊野市",
    "category": "home_help",
    "serviceType": "訪問介護",
    "capacity": 0,
    "openDays": [
      "平日",
      "土曜日",
      "日曜日",
      "祝日"
    ],
    "openDaysNote": "始業・終業・休憩については、就業規則に定める輪番制ととり、夜朝・深夜にも対応可能な人員配置を確保する。"
  },
  {
    "id": "2471100426",
    "name": "訪問介護事業所ケアプランおかざき",
    "kana": "ホウモンカイゴジギョウショケアプランオカザキ",
    "address": "三重県熊野市久生屋町１２５３番地",
    "lat": 33.8584313,
    "lng": 136.0647619,
    "tel": "0587-89-4509",
    "url": "",
    "pref": "三重県",
    "city": "熊野市",
    "category": "home_help",
    "serviceType": "訪問介護",
    "capacity": 0,
    "openDays": [
      "平日",
      "土曜日",
      "日曜日",
      "祝日"
    ],
    "openDaysNote": ""
  },
  {
    "id": "2471100418",
    "name": "訪問介護事業所ささえあい",
    "kana": "ホウモンカイゴジギョウショササエアイ",
    "address": "三重県熊野市木本町710番地７",
    "lat": 33.8910979,
    "lng": 136.0992923,
    "tel": "090-6333-8668",
    "url": "https://kumanonoki.wixsite.com/kumanonoki",
    "pref": "三重県",
    "city": "熊野市",
    "category": "home_help",
    "serviceType": "訪問介護",
    "capacity": 0,
    "openDays": [
      "平日",
      "土曜日",
      "日曜日",
      "祝日"
    ],
    "openDaysNote": ""
  },
  {
    "id": "2471100186",
    "name": "有限会社　ゆうき介護",
    "kana": "ユウゲンガイシャユウキカイゴ",
    "address": "三重県熊野市遊木町461番地",
    "lat": 33.9243921,
    "lng": 136.172161,
    "tel": "0597-87-0590",
    "url": "amcb5zza@za.ztv.ne.jp",
    "pref": "三重県",
    "city": "熊野市",
    "category": "home_help",
    "serviceType": "訪問介護",
    "capacity": 25,
    "openDays": [
      "平日",
      "土曜日",
      "日曜日",
      "祝日"
    ],
    "openDaysNote": "随時対応"
  },
  {
    "id": "2470102522",
    "name": "アクティブ訪問介護ステーション",
    "kana": "アクティブホウモンカイゴステーション",
    "address": "桑名市大仲新田２５２番地1",
    "lat": 35.083476,
    "lng": 136.6103562,
    "tel": "0594-31-4165",
    "url": "",
    "pref": "三重県",
    "city": "桑名市",
    "category": "home_help",
    "serviceType": "訪問介護",
    "capacity": 0,
    "openDays": [
      "平日",
      "土曜日",
      "祝日"
    ],
    "openDaysNote": ""
  },
  {
    "id": "2470101409",
    "name": "ケアサービスたんぽぽ",
    "kana": "ケアサービスタンポポ",
    "address": "桑名市外堀45番地",
    "lat": 35.0601333,
    "lng": 136.6935353,
    "tel": "0594-21-3917",
    "url": "",
    "pref": "三重県",
    "city": "桑名市",
    "category": "home_help",
    "serviceType": "訪問介護",
    "capacity": 0,
    "openDays": [
      "平日",
      "土曜日",
      "日曜日",
      "祝日"
    ],
    "openDaysNote": ""
  },
  {
    "id": "2470100211",
    "name": "すずらん",
    "kana": "スズラン",
    "address": "三重県桑名市大字下深谷部447番地1",
    "lat": 35.0934348,
    "lng": 136.6707423,
    "tel": "0594-29-1467",
    "url": "",
    "pref": "三重県",
    "city": "桑名市",
    "category": "home_help",
    "serviceType": "訪問介護",
    "capacity": 40,
    "openDays": [
      "平日",
      "土曜日",
      "日曜日",
      "祝日"
    ],
    "openDaysNote": ""
  },
  {
    "id": "2470102472",
    "name": "つきのこみちヘルパーステーション",
    "kana": "ツキノコミチヘルパーステーション",
    "address": "三重県桑名市福島853番1ケアガーデンつきのこみち内 ケアガーデンつきのこみち内",
    "lat": 53.41291,
    "lng": -8.24388999999996,
    "tel": "0594-82-7030",
    "url": "http://www.kobayaku.com/",
    "pref": "三重県",
    "city": "桑名市",
    "category": "home_help",
    "serviceType": "訪問介護",
    "capacity": 25,
    "openDays": [
      "平日",
      "土曜日",
      "日曜日",
      "祝日"
    ],
    "openDaysNote": "サービスの提供は、電話・オンコール等により、２４時間対応が可能な体制とする。（改行）また早朝、夜間においても必要に応じて対応可能。"
  },
  {
    "id": "2470101961",
    "name": "とくていひえいりかつどうほうじん　ひかりのわ",
    "kana": "特定非営利活動法人　光ノ輪",
    "address": "大字下深谷部345番地２４",
    "lat": 35.0933653,
    "lng": 136.6693314,
    "tel": "0594-29-2064",
    "url": "",
    "pref": "三重県",
    "city": "桑名市",
    "category": "home_help",
    "serviceType": "訪問介護",
    "capacity": 0,
    "openDays": [
      "平日",
      "土曜日",
      "祝日"
    ],
    "openDaysNote": ""
  },
  {
    "id": "2470102779",
    "name": "ナーシングホームしらゆりケア桑名能部",
    "kana": "ナーシングホームクワナノンベ",
    "address": "三重県桑名市大字能部字北貝戸602-4",
    "lat": 34.9536907,
    "lng": 136.5987382,
    "tel": "0594-41-3007",
    "url": "https://planb-shirayuri.com/",
    "pref": "三重県",
    "city": "桑名市",
    "category": "home_help",
    "serviceType": "訪問介護",
    "capacity": 0,
    "openDays": [
      "平日",
      "土曜日",
      "日曜日",
      "祝日"
    ],
    "openDaysNote": ""
  },
  {
    "id": "2470102688",
    "name": "ナーシング桑名",
    "kana": "ナーシングクワナ",
    "address": "三重県桑名市大仲新田252番25",
    "lat": 35.0831859,
    "lng": 136.6101016,
    "tel": "0594-41-2681",
    "url": "",
    "pref": "三重県",
    "city": "桑名市",
    "category": "home_help",
    "serviceType": "訪問介護",
    "capacity": null,
    "openDays": [
      "平日",
      "土曜日",
      "日曜日",
      "祝日"
    ],
    "openDaysNote": "電話等により24時間常時連絡可能な体制とする。"
  },
  {
    "id": "2470102563",
    "name": "にじのさと桑名サービスセンター",
    "kana": "ニジノサトクワナサービスセンター",
    "address": "三重県桑名市東方1529-1ハイツアザレア302 ハイツアザレア302",
    "lat": 35.0644659,
    "lng": 136.677532,
    "tel": "0594-25-8801",
    "url": "http://www.elderly.jp/",
    "pref": "三重県",
    "city": "桑名市",
    "category": "home_help",
    "serviceType": "訪問介護",
    "capacity": null,
    "openDays": [
      "平日",
      "土曜日",
      "日曜日",
      "祝日"
    ],
    "openDaysNote": "人員等の都合により、事前にお問い合わせください。"
  },
  {
    "id": "2470100393",
    "name": "ニチイケアセンター桑名",
    "kana": "ニチイケアセンタークワナ",
    "address": "桑名市大字東方細貝道3139",
    "lat": 35.0744605596506,
    "lng": 136.677375274591,
    "tel": "0594-27-6501",
    "url": "http://www.nichiigakkann.co.jp",
    "pref": "三重県",
    "city": "桑名市",
    "category": "home_help",
    "serviceType": "訪問介護",
    "capacity": 0,
    "openDays": [
      "平日",
      "土曜日",
      "日曜日",
      "祝日"
    ],
    "openDaysNote": "18：00以降のサービス提供時間は応相談"
  },
  {
    "id": "2470102571",
    "name": "ニチイケアセンター桑名西",
    "kana": "ニチイケアセンタークワナニシ",
    "address": "三重県桑名市星川851-3",
    "lat": 35.0660265,
    "lng": 136.6290223,
    "tel": "0594-33-3060",
    "url": "",
    "pref": "三重県",
    "city": "桑名市",
    "category": "home_help",
    "serviceType": "訪問介護",
    "capacity": null,
    "openDays": [
      "平日"
    ],
    "openDaysNote": ""
  },
  {
    "id": "2470100146",
    "name": "ヒューマン・ケア指定訪問介護事業所",
    "kana": "ヒューマン・ケアシテイホウモンカイゴジギョウショ",
    "address": "三重県桑名市星見ヶ丘６丁目９１９番地",
    "lat": 35.0658199,
    "lng": 136.6327097,
    "tel": "0594-33-4411",
    "url": "https://humancarestationmie.com/",
    "pref": "三重県",
    "city": "桑名市",
    "category": "home_help",
    "serviceType": "訪問介護",
    "capacity": 0,
    "openDays": [
      "平日",
      "土曜日",
      "日曜日",
      "祝日"
    ],
    "openDaysNote": ""
  },
  {
    "id": "2470102480",
    "name": "ぶりす",
    "kana": "ブリス",
    "address": "野田3丁目８番地1サービス付き高齢者向け住宅　至福の郷 サービス付き高齢者向け住宅　至福の郷",
    "lat": 35.0819377,
    "lng": 136.631343,
    "tel": "0594-82-7955",
    "url": "",
    "pref": "三重県",
    "city": "桑名市",
    "category": "home_help",
    "serviceType": "訪問介護",
    "capacity": 0,
    "openDays": [
      "平日",
      "土曜日",
      "日曜日",
      "祝日"
    ],
    "openDaysNote": ""
  },
  {
    "id": "2470101227",
    "name": "へるぱーステーション　れんげの里",
    "kana": "ヘルパーステーション　レンゲノサト",
    "address": "三重県桑名市蓮花寺825-33",
    "lat": 35.0639108783252,
    "lng": 136.649331395661,
    "tel": "070-1472-4999",
    "url": "http://rennge-sato.jp",
    "pref": "三重県",
    "city": "桑名市",
    "category": "home_help",
    "serviceType": "訪問介護",
    "capacity": 0,
    "openDays": [
      "平日",
      "土曜日",
      "日曜日",
      "祝日"
    ],
    "openDaysNote": ""
  },
  {
    "id": "2470101847",
    "name": "ヘルパーステーション　わくわく",
    "kana": "ヘルパーステーション　ワクワク",
    "address": "桑名市新西方4丁目14番地くわなWAC2階 くわなWAC2階",
    "lat": 35.071195,
    "lng": 136.6561693,
    "tel": "0594-23-7300",
    "url": "wellness-medicalclinic.jp",
    "pref": "三重県",
    "city": "桑名市",
    "category": "home_help",
    "serviceType": "訪問介護",
    "capacity": 10,
    "openDays": [
      "平日",
      "土曜日",
      "日曜日",
      "祝日"
    ],
    "openDaysNote": "24時間365日、サービス提供の実施体制あり。"
  },
  {
    "id": "2470100708",
    "name": "ヘルパーステーション「よなは」",
    "kana": "ヘルパーステーション「ヨナハ」",
    "address": "桑名市星見ヶ丘7丁目121ヨナハ在宅ケアセンター星見ヶ丘 ヨナハ在宅ケアセンター星見ヶ丘",
    "lat": 35.0666476,
    "lng": 136.6355484,
    "tel": "0594-87-6662",
    "url": "https://yonaha.or.jp/zc/helper.html",
    "pref": "三重県",
    "city": "桑名市",
    "category": "home_help",
    "serviceType": "訪問介護",
    "capacity": 0,
    "openDays": [
      "平日",
      "土曜日",
      "日曜日",
      "祝日"
    ],
    "openDaysNote": "特になし"
  },
  {
    "id": "2470102423",
    "name": "ヘルパーステーション桑名陽だまりの丘",
    "kana": "ヘルパーステーションクワナヒダマリノオカ",
    "address": "陽だまりの丘二丁目303-1",
    "lat": 35.0879868962744,
    "lng": 136.645539246341,
    "tel": "0594-41-3810",
    "url": "www.prestige-care-tokai.co.jp",
    "pref": "三重県",
    "city": "桑名市",
    "category": "home_help",
    "serviceType": "訪問介護",
    "capacity": 0,
    "openDays": [
      "平日",
      "土曜日"
    ],
    "openDaysNote": "早朝、夜間、日曜日、祝日のご利用については別途ご相談ください。"
  },
  {
    "id": "2470102720",
    "name": "ヘルパーステーション桑名陽だまりの丘",
    "kana": "ヘルパーステーションクワナヒダマリノオカ",
    "address": "三重県桑名市陽だまりの丘2丁目303-1",
    "lat": 35.088023,
    "lng": 136.645486,
    "tel": "594413811",
    "url": "https://www.prestige-care-tokai.co.jp/institutions/kuwanahidamarinooka/",
    "pref": "三重県",
    "city": "桑名市",
    "category": "home_help",
    "serviceType": "訪問介護",
    "capacity": null,
    "openDays": [
      "平日",
      "土曜日",
      "日曜日",
      "祝日"
    ],
    "openDaysNote": ""
  },
  {
    "id": "2470101177",
    "name": "ヘルパーステーション木もれび",
    "kana": "ヘルパーステーションコモレビ",
    "address": "三重県桑名市桑部２５３３－３",
    "lat": 35.0477527,
    "lng": 136.656936,
    "tel": "0594-27-1212",
    "url": "",
    "pref": "三重県",
    "city": "桑名市",
    "category": "home_help",
    "serviceType": "訪問介護",
    "capacity": 60,
    "openDays": [
      "平日",
      "土曜日",
      "祝日"
    ],
    "openDaysNote": "２４時間　年中無休"
  },
  {
    "id": "2470101581",
    "name": "ホームヘルプいがまち",
    "kana": "ホームヘルプイガマチ",
    "address": "桑名市伊賀町55-2",
    "lat": 35.0599807,
    "lng": 136.698407,
    "tel": "0594-41-2265",
    "url": "http://www.hhelp-iga@k-hewcoop.jp",
    "pref": "三重県",
    "city": "桑名市",
    "category": "home_help",
    "serviceType": "訪問介護",
    "capacity": 50,
    "openDays": [
      "平日",
      "土曜日",
      "祝日"
    ],
    "openDaysNote": "電話対応、営業時間内とする。また要介護者の状態を考慮し、その必要に応じて休日および営業時間以外においては、相談のうえ対応する。"
  },
  {
    "id": "2470102175",
    "name": "ホームヘルプサービス　ひまわり",
    "kana": "ホームヘルプサービス　ヒマワリ",
    "address": "三重県桑名市長島町福吉268番地１サービス付高齢者向け住宅　シニアレジデンス・スパながしま内 サービス付高齢者向け住宅　シニアレジデンス・スパながしま内",
    "lat": 35.0573416911933,
    "lng": 136.717103010451,
    "tel": "0594-45-8855",
    "url": "http://www.sato-group.jp",
    "pref": "三重県",
    "city": "桑名市",
    "category": "home_help",
    "serviceType": "訪問介護",
    "capacity": 0,
    "openDays": [],
    "openDaysNote": "サービス提供時間は24時間としていますが（改行）夜間、深夜、早朝などの時間帯については、要相談となりますのでご了承ください。"
  },
  {
    "id": "2470100534",
    "name": "介護「まほうの杖」",
    "kana": "カイゴ「マホウノツエ」",
    "address": "三重県桑名市東方556番地",
    "lat": 35.0739371,
    "lng": 136.6810559,
    "tel": "0594-21-6580",
    "url": "http://maho-no-tue.jp",
    "pref": "三重県",
    "city": "桑名市",
    "category": "home_help",
    "serviceType": "訪問介護",
    "capacity": 90,
    "openDays": [
      "平日",
      "土曜日",
      "祝日"
    ],
    "openDaysNote": "日中時間は８：３０から１７：３０までとなります。（改行）午前８時以前と午後６時以降は介護保険の割増料金となります。（改行）日曜日、時間外はご相談ください。"
  },
  {
    "id": "2470100328",
    "name": "介護ネットグリーン",
    "kana": "カイゴネットグリーン",
    "address": "三重県桑名市大字矢田413-1",
    "lat": 35.058355,
    "lng": 136.6716013,
    "tel": "0594-24-0760",
    "url": "",
    "pref": "三重県",
    "city": "桑名市",
    "category": "home_help",
    "serviceType": "訪問介護",
    "capacity": 0,
    "openDays": [
      "平日",
      "土曜日",
      "日曜日",
      "祝日"
    ],
    "openDaysNote": "訪問時間はサービスの必然性において相談に応じます。"
  },
  {
    "id": "2470102704",
    "name": "株式会社ごかんホールディングス",
    "kana": "カブシキガイシャ　ゴカンホールディングス",
    "address": "西金井560番地12階 2階",
    "lat": 35.0498546,
    "lng": 136.6583639,
    "tel": "9041170882",
    "url": "",
    "pref": "三重県",
    "city": "桑名市",
    "category": "home_help",
    "serviceType": "訪問介護",
    "capacity": null,
    "openDays": [
      "平日"
    ],
    "openDaysNote": ""
  },
  {
    "id": "2470102035",
    "name": "桑名の杜　訪問介護事業所",
    "kana": "クワナノモリ　ホウモンカイゴジギョウショ",
    "address": "大字桑部1464-1",
    "lat": 35.0510645311975,
    "lng": 136.643509422696,
    "tel": "0594-28-8418",
    "url": "",
    "pref": "三重県",
    "city": "桑名市",
    "category": "home_help",
    "serviceType": "訪問介護",
    "capacity": 0,
    "openDays": [
      "平日",
      "土曜日",
      "日曜日",
      "祝日"
    ],
    "openDaysNote": ""
  },
  {
    "id": "2470102654",
    "name": "桑名ヘルパーステーション",
    "kana": "クワナヘルパーステーション",
    "address": "三重県桑名市蓮花寺825－33",
    "lat": 35.0631113,
    "lng": 136.649923,
    "tel": "0594－24－0350",
    "url": "",
    "pref": "三重県",
    "city": "桑名市",
    "category": "home_help",
    "serviceType": "訪問介護",
    "capacity": 0,
    "openDays": [
      "平日",
      "土曜日",
      "日曜日",
      "祝日"
    ],
    "openDaysNote": ""
  },
  {
    "id": "2472000047",
    "name": "桑名市社協ホームヘルパーステーション",
    "kana": "クワナシシャキョウホームヘルパーステーション",
    "address": "三重県桑名市長島町松ヶ島６６番地",
    "lat": 35.087389,
    "lng": 136.6998342,
    "tel": "0594-41-1022",
    "url": "http://www.kuwana-shakyo.com",
    "pref": "三重県",
    "city": "桑名市",
    "category": "home_help",
    "serviceType": "訪問介護",
    "capacity": 10,
    "openDays": [
      "平日",
      "土曜日",
      "日曜日",
      "祝日"
    ],
    "openDaysNote": "サービス提供は土・日・祝祭日及び年末年始も実施しています。"
  },
  {
    "id": "2470102787",
    "name": "合同会社ﾂﾙﾏﾙｻｰﾋﾞｽ訪問介護",
    "kana": "ゴウドウガイシャツルマルサービスホウモンカイゴジギョウショ",
    "address": "三重県桑名市大字下深谷部4689番地5",
    "lat": 35.0994853,
    "lng": 136.6677992,
    "tel": "0594-73-4341",
    "url": "",
    "pref": "三重県",
    "city": "桑名市",
    "category": "home_help",
    "serviceType": "訪問介護",
    "capacity": null,
    "openDays": [
      "平日",
      "土曜日"
    ],
    "openDaysNote": "通院等乗降介助の許可を申請中"
  },
  {
    "id": "2470102183",
    "name": "三交ウェルフェア桑名事業所",
    "kana": "サンコウウェルフェアクワナジギョウショ",
    "address": "三重県桑名市明正町77番地１",
    "lat": 35.0585207855162,
    "lng": 136.677083178022,
    "tel": "0594-25-8235",
    "url": "http://www.sanco-welfare.co.jp",
    "pref": "三重県",
    "city": "桑名市",
    "category": "home_help",
    "serviceType": "訪問介護",
    "capacity": 0,
    "openDays": [
      "平日",
      "土曜日",
      "日曜日",
      "祝日"
    ],
    "openDaysNote": ""
  },
  {
    "id": "2470102241",
    "name": "訪問介護　ちえの羽",
    "kana": "ホウモンカイゴ　チエノワ",
    "address": "三重県桑名市福島新町６６番地",
    "lat": 35.0774423,
    "lng": 136.6823473,
    "tel": "0594-27-0136",
    "url": "",
    "pref": "三重県",
    "city": "桑名市",
    "category": "home_help",
    "serviceType": "訪問介護",
    "capacity": 0,
    "openDays": [
      "平日",
      "土曜日",
      "祝日"
    ],
    "openDaysNote": ""
  },
  {
    "id": "2470102712",
    "name": "訪問介護ステーション　みどりのもり",
    "kana": "ホウモンカイゴステーション　ミドリノモリ",
    "address": "三重県桑名市中央町1-16",
    "lat": 35.0641331,
    "lng": 136.6856913,
    "tel": "0594-24-5533",
    "url": "",
    "pref": "三重県",
    "city": "桑名市",
    "category": "home_help",
    "serviceType": "訪問介護",
    "capacity": 0,
    "openDays": [
      "平日",
      "土曜日",
      "祝日"
    ],
    "openDaysNote": ""
  },
  {
    "id": "2470102159",
    "name": "訪問介護ステーションわかば",
    "kana": "ホウモンカイゴステーションワカバ",
    "address": "三重県桑名市星見ヶ丘9丁目807マ・ファミーユわかば マ・ファミーユわかば",
    "lat": 35.0723616425624,
    "lng": 136.6356068569,
    "tel": "0594-32-0876",
    "url": "http://wakaba.hp4u.jp/homecare",
    "pref": "三重県",
    "city": "桑名市",
    "category": "home_help",
    "serviceType": "訪問介護",
    "capacity": 0,
    "openDays": [
      "平日",
      "土曜日",
      "日曜日",
      "祝日"
    ],
    "openDaysNote": ""
  },
  {
    "id": "2470102670",
    "name": "訪問介護事業所　ひまわりケアサービス　はりま",
    "kana": "ホウモンカイゴジギョウショ　ヒマワリケアサービス　ハリマ",
    "address": "三重県桑名市播磨2505-2大和ビル１F1号 大和ビル１F1号",
    "lat": 35.0798995,
    "lng": 136.6682052,
    "tel": "0594-23-6505",
    "url": "",
    "pref": "三重県",
    "city": "桑名市",
    "category": "home_help",
    "serviceType": "訪問介護",
    "capacity": 2,
    "openDays": [
      "平日",
      "土曜日",
      "日曜日",
      "祝日"
    ],
    "openDaysNote": ""
  },
  {
    "id": "2470102696",
    "name": "訪問介護事業所　マミー",
    "kana": "ホウモンカイゴジギョウショ　マミー",
    "address": "多度町中須字寺前５９番地2",
    "lat": 35.1257716983919,
    "lng": 136.65505689146,
    "tel": "0594-48-5667",
    "url": "",
    "pref": "三重県",
    "city": "桑名市",
    "category": "home_help",
    "serviceType": "訪問介護",
    "capacity": 0,
    "openDays": [
      "平日",
      "土曜日",
      "日曜日",
      "祝日"
    ],
    "openDaysNote": ""
  },
  {
    "id": "2470101029",
    "name": "有限会社　訪問介護　ほほえみ",
    "kana": "ユウゲンガイシャ　ホウモンカイゴ　ホホエミ",
    "address": "三重県桑名市桑部山ヶ鼻１４５６番地２",
    "lat": 35.0515939,
    "lng": 136.6475449,
    "tel": "0594-25-8187",
    "url": "",
    "pref": "三重県",
    "city": "桑名市",
    "category": "home_help",
    "serviceType": "訪問介護",
    "capacity": 0,
    "openDays": [
      "平日",
      "土曜日",
      "日曜日",
      "祝日"
    ],
    "openDaysNote": "職員の体制による。"
  },
  {
    "id": "2472200340",
    "name": "株式会社ジェイエイあいけあセンター",
    "kana": "ジェイエイアイケアセンター",
    "address": "三重県三重郡菰野町大字田光字宮川原4821番地",
    "lat": 35.063382018675,
    "lng": 136.511463473047,
    "tel": "059-399-3060",
    "url": "https://www.ja-miekita.or.jp/service/icare/",
    "pref": "三重県",
    "city": "菰野町",
    "category": "home_help",
    "serviceType": "訪問介護",
    "capacity": 0,
    "openDays": [
      "平日",
      "土曜日",
      "日曜日",
      "祝日"
    ],
    "openDaysNote": "早朝・夜間は要相談致します。"
  },
  {
    "id": "2472200019",
    "name": "菰野町ホームヘルパーステーションけやき",
    "kana": "コモノチョウホームヘルパーステーションケヤキ",
    "address": "三重県三重郡菰野町潤田1281菰野町保健福祉センターけやき 菰野町保健福祉センターけやき",
    "lat": 35.0200681,
    "lng": 136.5060737,
    "tel": "059-391-2216",
    "url": "http://komonovc.sakura.ne.jp/syakyo/index.html",
    "pref": "三重県",
    "city": "菰野町",
    "category": "home_help",
    "serviceType": "訪問介護",
    "capacity": 0,
    "openDays": [
      "平日",
      "土曜日",
      "日曜日",
      "祝日"
    ],
    "openDaysNote": ""
  },
  {
    "id": "2463190013",
    "name": "NPO法人　つどい",
    "kana": "エヌピーオウホウジンツドイ",
    "address": "三重県南牟婁郡御浜町大字志原字赤崎平１８１９番地３３",
    "lat": 33.8144776,
    "lng": 136.048724,
    "tel": "05979-3-0137",
    "url": "http://npo-tsudoi.com",
    "pref": "三重県",
    "city": "御浜町",
    "category": "home_help",
    "serviceType": "訪問介護",
    "capacity": null,
    "openDays": [
      "平日",
      "土曜日",
      "日曜日",
      "祝日"
    ],
    "openDaysNote": "２４時間対応"
  },
  {
    "id": "2473100382",
    "name": "株式会社　ひまわり介護サービス",
    "kana": "カブシキガイシャ　ヒマワリカイゴサービス",
    "address": "三重県南牟婁郡御浜町大字阿田和４２２７番地",
    "lat": 33.7974098,
    "lng": 136.0398027,
    "tel": "05979-2-2230",
    "url": "",
    "pref": "三重県",
    "city": "御浜町",
    "category": "home_help",
    "serviceType": "訪問介護",
    "capacity": 0,
    "openDays": [
      "平日",
      "土曜日",
      "日曜日",
      "祝日"
    ],
    "openDaysNote": "相談があれば、事業所として可能な限り、対応することにしている。"
  },
  {
    "id": "2473100010",
    "name": "御浜町ヘルパーステーション",
    "kana": "ミハマチョウヘルパーステーション",
    "address": "三重県南牟婁郡御浜町大字下市木2040番地御浜町福祉健康センター 御浜町福祉健康センター",
    "lat": 33.8340673,
    "lng": 136.0469962,
    "tel": "05979-2-1377",
    "url": "http://www.mihama-fukushi.com/",
    "pref": "三重県",
    "city": "御浜町",
    "category": "home_help",
    "serviceType": "訪問介護",
    "capacity": 0,
    "openDays": [
      "平日",
      "土曜日",
      "日曜日",
      "祝日"
    ],
    "openDaysNote": "上記時間帯以外（早朝・夜間）のサービスを希望される場合はご相談に応じます。"
  },
  {
    "id": "2473100291",
    "name": "訪問介護事業所　あゆみ",
    "kana": "ホウモンカイゴジギョウショ　アユミ",
    "address": "三重県南牟婁郡御浜町大字志原１９１２－４",
    "lat": 33.8431387,
    "lng": 136.0532708,
    "tel": "05979-3-1777",
    "url": "",
    "pref": "三重県",
    "city": "御浜町",
    "category": "home_help",
    "serviceType": "訪問介護",
    "capacity": 0,
    "openDays": [
      "平日",
      "土曜日",
      "日曜日",
      "祝日"
    ],
    "openDaysNote": "ただし必要と認めた場合には営業時間を延長します"
  },
  {
    "id": "2473100341",
    "name": "訪問介護事業所であい",
    "kana": "ホウモンカイゴジギョウショデアイ",
    "address": "三重県南牟婁郡御浜町大字志原９２２番地１２１",
    "lat": 33.8513065785794,
    "lng": 136.055669755218,
    "tel": "05979-2-0013",
    "url": "",
    "pref": "三重県",
    "city": "御浜町",
    "category": "home_help",
    "serviceType": "訪問介護",
    "capacity": 0,
    "openDays": [
      "平日",
      "土曜日",
      "日曜日",
      "祝日"
    ],
    "openDaysNote": ""
  },
  {
    "id": "2470202769",
    "name": "LTS訪問介護サービスセンター",
    "kana": "エルティーエスホウモンカイゴサービスセンター",
    "address": "三重県四日市市大治田2丁目18-19",
    "lat": 34.931312,
    "lng": 136.6000769,
    "tel": "059-373-6621",
    "url": "http://www.life-techno.jp/index-ikoi-obata.htm",
    "pref": "三重県",
    "city": "四日市市",
    "category": "home_help",
    "serviceType": "訪問介護",
    "capacity": 40,
    "openDays": [
      "平日",
      "土曜日",
      "日曜日",
      "祝日"
    ],
    "openDaysNote": ""
  },
  {
    "id": "2470201068",
    "name": "YMCA在宅介護サービスセンター訪問介護事業所",
    "kana": "ワイエムシイエイザイタクカイゴサービスセンターホウモンカイゴジギョウショ",
    "address": "三重県四日市市羽津山町１番１９号",
    "lat": 34.9866633622097,
    "lng": 136.628930706706,
    "tel": "059-333-9831",
    "url": "https://ymca-fukushi.jp/",
    "pref": "三重県",
    "city": "四日市市",
    "category": "home_help",
    "serviceType": "訪問介護",
    "capacity": 0,
    "openDays": [
      "平日",
      "土曜日",
      "祝日"
    ],
    "openDaysNote": "利用に際して、事前に相談が必要です。"
  },
  {
    "id": "2470203411",
    "name": "アースサポート四日市",
    "kana": "アースサポートヨッカイチ",
    "address": "三重県四日市市鵜の森二丁目2番1号",
    "lat": 34.9677144,
    "lng": 136.6126497,
    "tel": "059-356-4400",
    "url": "http://www.earthsupport.co.jp",
    "pref": "三重県",
    "city": "四日市市",
    "category": "home_help",
    "serviceType": "訪問介護",
    "capacity": 0,
    "openDays": [
      "平日",
      "土曜日",
      "日曜日",
      "祝日"
    ],
    "openDaysNote": "年中無休"
  },
  {
    "id": "2470206471",
    "name": "アクア大治田訪問介護",
    "kana": "アクアオバタホウモンカイゴ",
    "address": "三重県四日市市大治田3丁目1番32号",
    "lat": 34.9283526,
    "lng": 136.5990722,
    "tel": "059-329-6877",
    "url": "",
    "pref": "三重県",
    "city": "四日市市",
    "category": "home_help",
    "serviceType": "訪問介護",
    "capacity": null,
    "openDays": [
      "平日",
      "土曜日",
      "日曜日",
      "祝日"
    ],
    "openDaysNote": ""
  },
  {
    "id": "2470203924",
    "name": "アバンセ介護センターよっかいち",
    "kana": "アバンセカイゴセンターヨッカイチ",
    "address": "四日市市日永４丁目5－57号",
    "lat": 34.949977,
    "lng": 136.602043,
    "tel": "059-349-1720",
    "url": "http://a-lifesupport.co.jp/",
    "pref": "三重県",
    "city": "四日市市",
    "category": "home_help",
    "serviceType": "訪問介護",
    "capacity": 30,
    "openDays": [
      "平日",
      "土曜日",
      "日曜日",
      "祝日"
    ],
    "openDaysNote": ""
  },
  {
    "id": "2470205267",
    "name": "あみーごライフ四日市",
    "kana": "アミーゴライフヨッカイチ",
    "address": "三重県四日市市波木町2040-6有料老人ホーム　あみーご俱楽部四日市内 有料老人ホーム　あみーご俱楽部四日市内",
    "lat": 34.9370541134192,
    "lng": 136.574517872353,
    "tel": "059-340-5335",
    "url": "http://amigo-net.jp/",
    "pref": "三重県",
    "city": "四日市市",
    "category": "home_help",
    "serviceType": "訪問介護",
    "capacity": 0,
    "openDays": [
      "平日",
      "土曜日",
      "日曜日",
      "祝日"
    ],
    "openDaysNote": ""
  },
  {
    "id": "2470205622",
    "name": "あみーごライフ四日市日永",
    "kana": "アミーゴライフヨッカイチヒナガ",
    "address": "三重県四日市市日永五丁目1番21号有料老人ホーム　あみーご倶楽部四日市日永 有料老人ホーム　あみーご倶楽部四日市日永",
    "lat": 34.9452652532318,
    "lng": 136.602946706149,
    "tel": "059-327-7222",
    "url": "http://www.amigo-net.jp/",
    "pref": "三重県",
    "city": "四日市市",
    "category": "home_help",
    "serviceType": "訪問介護",
    "capacity": 0,
    "openDays": [
      "平日",
      "土曜日",
      "日曜日",
      "祝日"
    ],
    "openDaysNote": ""
  },
  {
    "id": "2470206026",
    "name": "いのうえサポート合同会社",
    "kana": "イノウエサポートゴウドウガイシャ",
    "address": "四日市市小杉町1892-1",
    "lat": 34.9946319,
    "lng": 136.6138882,
    "tel": "059-324-5054",
    "url": "",
    "pref": "三重県",
    "city": "四日市市",
    "category": "home_help",
    "serviceType": "訪問介護",
    "capacity": 0,
    "openDays": [
      "平日",
      "土曜日",
      "日曜日",
      "祝日"
    ],
    "openDaysNote": ""
  },
  {
    "id": "2470203007",
    "name": "ヴィラ四日市在宅介護サービスセンター（訪問介護事業）",
    "kana": "ヴィラヨッカイチザイタクカイゴサービスセンター（ホウモンカイゴジギョウ）",
    "address": "三重県四日市市垂坂町8-2",
    "lat": 35.0053741,
    "lng": 136.6276554,
    "tel": "059-363-2121",
    "url": "http//yokkaichi.tokuyou.jp/index.html",
    "pref": "三重県",
    "city": "四日市市",
    "category": "home_help",
    "serviceType": "訪問介護",
    "capacity": 40,
    "openDays": [
      "平日",
      "土曜日",
      "日曜日",
      "祝日"
    ],
    "openDaysNote": "年末年始休業について（改行）（12/31～1/3のこの期間については、身体支援は予定通り支援させていただきます。生活支援に関しては基本的にはお休みをさせていただきます）（改行）（改行）利用時間に関しては、個々における利用者様との相談に応じます。早朝、深夜などその他、緊急時における対応など相談に応じます"
  },
  {
    "id": "2470206463",
    "name": "エース",
    "kana": "エース",
    "address": "三重県四日市市生桑町７７－１プロスパいくわ プロスパいくわ",
    "lat": 34.9880644941831,
    "lng": 136.599022364714,
    "tel": "059-328-5348",
    "url": "",
    "pref": "三重県",
    "city": "四日市市",
    "category": "home_help",
    "serviceType": "訪問介護",
    "capacity": 0,
    "openDays": [
      "平日",
      "土曜日",
      "日曜日",
      "祝日"
    ],
    "openDaysNote": ""
  },
  {
    "id": "2470206133",
    "name": "からふるサポート日永",
    "kana": "カラフルサポートヒナガ",
    "address": "三重県四日市市日永字明徳谷5450番40からふる庭園日永 からふる庭園日永",
    "lat": 34.9436611790183,
    "lng": 136.590980171525,
    "tel": "059-328-5611",
    "url": "https://colofulgarden.jp",
    "pref": "三重県",
    "city": "四日市市",
    "category": "home_help",
    "serviceType": "訪問介護",
    "capacity": null,
    "openDays": [
      "平日",
      "土曜日",
      "日曜日",
      "祝日"
    ],
    "openDaysNote": ""
  },
  {
    "id": "2470206307",
    "name": "ケア２１四日市",
    "kana": "ケアニジュウイチヨッカイチ",
    "address": "三重県四日市市鵜の森二丁目10-2三幸ビル５階５A号室 三幸ビル５階５A号室",
    "lat": 34.965678,
    "lng": 136.6125318,
    "tel": "059-350-6621",
    "url": "https://www.care21.co.jp/",
    "pref": "三重県",
    "city": "四日市市",
    "category": "home_help",
    "serviceType": "訪問介護",
    "capacity": 0,
    "openDays": [
      "平日",
      "土曜日",
      "日曜日",
      "祝日"
    ],
    "openDaysNote": ""
  },
  {
    "id": "2470203544",
    "name": "ケアサービスまる",
    "kana": "ケアサービスマル",
    "address": "四日市市芝田二丁目4-20ナーシングホーム四日市にじ（新館） ナーシングホーム四日市にじ（新館）",
    "lat": 34.9702152721867,
    "lng": 136.60572428435,
    "tel": "059-359-3780",
    "url": "www.isism.jp/",
    "pref": "三重県",
    "city": "四日市市",
    "category": "home_help",
    "serviceType": "訪問介護",
    "capacity": 22,
    "openDays": [
      "平日",
      "土曜日",
      "日曜日",
      "祝日"
    ],
    "openDaysNote": "24時間可能"
  },
  {
    "id": "2470204385",
    "name": "ケアサービスまる北",
    "kana": "ケアサービスマルキタ",
    "address": "四日市市伊坂町1636－4",
    "lat": 35.0316431,
    "lng": 136.6311155,
    "tel": "059－328-5058",
    "url": "www.isism.jp/",
    "pref": "三重県",
    "city": "四日市市",
    "category": "home_help",
    "serviceType": "訪問介護",
    "capacity": 0,
    "openDays": [
      "平日",
      "土曜日",
      "日曜日",
      "祝日"
    ],
    "openDaysNote": ""
  },
  {
    "id": "2470201795",
    "name": "ケアサービス菜の花",
    "kana": "ケアサービスナノハナ",
    "address": "三重県四日市市八千代台３－１－６７",
    "lat": 35.0311396,
    "lng": 136.5805263,
    "tel": "059-336-2151",
    "url": "http://care-net.biz/nanohano/",
    "pref": "三重県",
    "city": "四日市市",
    "category": "home_help",
    "serviceType": "訪問介護",
    "capacity": 0,
    "openDays": [
      "平日",
      "土曜日"
    ],
    "openDaysNote": ""
  },
  {
    "id": "2470206042",
    "name": "ケアステーション想桜",
    "kana": "ケアステーションソウ",
    "address": "三重県四日市市笹川3丁目48番地",
    "lat": 34.9518903,
    "lng": 136.5745031,
    "tel": "080-4524-7113",
    "url": "",
    "pref": "三重県",
    "city": "四日市市",
    "category": "home_help",
    "serviceType": "訪問介護",
    "capacity": 32,
    "openDays": [
      "平日"
    ],
    "openDaysNote": "営業日・営業時間帯に関わらず、24時間体制を取っておりますので緊急時など時間外でも訪問いたします。ただし、時間外の場合は利用料が異なります。時間帯については以下を参照してください。（改行）・早朝時間帯6:00～8：00（改行）・夜間帯18:00～22:00（改行）・深夜時間帯22:00～6:00"
  },
  {
    "id": "2470205572",
    "name": "ケア工房ゑまふ",
    "kana": "ケアコウボウエマウ",
    "address": "三重県四日市市西松本町4番22号",
    "lat": 34.9706121740229,
    "lng": 136.587167118058,
    "tel": "059-359-2730",
    "url": "http://emau.jp",
    "pref": "三重県",
    "city": "四日市市",
    "category": "home_help",
    "serviceType": "訪問介護",
    "capacity": 0,
    "openDays": [
      "平日",
      "土曜日",
      "日曜日",
      "祝日"
    ],
    "openDaysNote": ""
  },
  {
    "id": "2470206075",
    "name": "ゴールドエイジ三重営業所",
    "kana": "ゴールドエイジミエエイギョウショ",
    "address": "三重県四日市市城西町7-32",
    "lat": 34.9642365,
    "lng": 136.6034979,
    "tel": "059-329-5899",
    "url": "http://www.goldage.jp",
    "pref": "三重県",
    "city": "四日市市",
    "category": "home_help",
    "serviceType": "訪問介護",
    "capacity": 0,
    "openDays": [
      "平日",
      "土曜日",
      "日曜日",
      "祝日"
    ],
    "openDaysNote": "24時間対応"
  },
  {
    "id": "2470203304",
    "name": "ゴールドエイジ四日市営業所",
    "kana": "ゴールドエイジヨッカイチエイギョウショ",
    "address": "三重県四日市市城西町７－３２",
    "lat": 34.9642172,
    "lng": 136.6034397,
    "tel": "059-350-6988",
    "url": "http://www.goldage.jp",
    "pref": "三重県",
    "city": "四日市市",
    "category": "home_help",
    "serviceType": "訪問介護",
    "capacity": 0,
    "openDays": [
      "平日",
      "土曜日",
      "日曜日",
      "祝日"
    ],
    "openDaysNote": "２４時間対応"
  },
  {
    "id": "2470206034",
    "name": "すまいる介護　かなで",
    "kana": "スマイルカイゴ　カナデ",
    "address": "三重県四日市市河原田町228番地1",
    "lat": 34.9148851360735,
    "lng": 136.600752690213,
    "tel": "059-337-8682",
    "url": "http://hp.kaipoke.biz/vz4",
    "pref": "三重県",
    "city": "四日市市",
    "category": "home_help",
    "serviceType": "訪問介護",
    "capacity": 0,
    "openDays": [
      "平日",
      "土曜日",
      "日曜日",
      "祝日"
    ],
    "openDaysNote": "サービス提供は、電話等により、24時間対応が可能な体制とする。"
  },
  {
    "id": "2470202538",
    "name": "セントケア四日市",
    "kana": "セントケアヨッカイチ",
    "address": "三重県四日市市新正4丁目7-5",
    "lat": 34.9556298,
    "lng": 136.6167165,
    "tel": "059-350-1210",
    "url": "https://saint-care-mie.com",
    "pref": "三重県",
    "city": "四日市市",
    "category": "home_help",
    "serviceType": "訪問介護",
    "capacity": 0,
    "openDays": [
      "平日",
      "土曜日",
      "日曜日",
      "祝日"
    ],
    "openDaysNote": "原則としてサービス提供時間は,事前に居宅支援事業所により計画された居宅サービス計画に基づくものとする。"
  },
  {
    "id": "2470202603",
    "name": "セントケア北四日市",
    "kana": "セントケアキタヨッカイチ",
    "address": "三重県四日市市下さざらい町5-17",
    "lat": 35.0199723,
    "lng": 136.6439262,
    "tel": "059-361-2121",
    "url": "https://saint-care-mie.com",
    "pref": "三重県",
    "city": "四日市市",
    "category": "home_help",
    "serviceType": "訪問介護",
    "capacity": 0,
    "openDays": [
      "平日",
      "土曜日",
      "日曜日",
      "祝日"
    ],
    "openDaysNote": "原則としてサービス提供時間は、事前に居宅支援事業所により計画された居宅サービス計画に基づくものとする。"
  },
  {
    "id": "2470205200",
    "name": "デジコ在宅介護サービスセンター",
    "kana": "デジコザイタクカイゴサービスセンター",
    "address": "三重県四日市市日永東2丁目3-8",
    "lat": 34.9483251359839,
    "lng": 136.608632650674,
    "tel": "059-327-5108",
    "url": "",
    "pref": "三重県",
    "city": "四日市市",
    "category": "home_help",
    "serviceType": "訪問介護",
    "capacity": 70,
    "openDays": [
      "平日",
      "土曜日",
      "日曜日",
      "祝日"
    ],
    "openDaysNote": ""
  },
  {
    "id": "2470200797",
    "name": "トラスト介護センター",
    "kana": "トラストカイゴセンター",
    "address": "三重県四日市市南浜田町8-18",
    "lat": 34.9600959,
    "lng": 136.6145053,
    "tel": "059-354-3663",
    "url": "",
    "pref": "三重県",
    "city": "四日市市",
    "category": "home_help",
    "serviceType": "訪問介護",
    "capacity": 0,
    "openDays": [
      "平日",
      "土曜日",
      "日曜日",
      "祝日"
    ],
    "openDaysNote": ""
  },
  {
    "id": "2470200292",
    "name": "ニチイケアセンター四日市",
    "kana": "ニチイケアセンターヨッカイチ",
    "address": "三重県四日市市城西町１３－２８第二大誠ビル１階 第二大誠ビル１階",
    "lat": 34.9666863,
    "lng": 136.6001789,
    "tel": "059-350-0855",
    "url": "http://www.nichiigakkan.co.jp",
    "pref": "三重県",
    "city": "四日市市",
    "category": "home_help",
    "serviceType": "訪問介護",
    "capacity": 0,
    "openDays": [
      "平日",
      "土曜日",
      "日曜日",
      "祝日"
    ],
    "openDaysNote": "居宅サービス計画により、時間外のサービス提供を行う場合があります。"
  },
  {
    "id": "2470200557",
    "name": "ハピネスやさと訪問介護事業所",
    "kana": "ハピネスヤサトホウモンカイゴジギョウショ",
    "address": "四日市市千代田町３２５－１",
    "lat": 35.0310238,
    "lng": 136.6249159,
    "tel": "059-366-3303",
    "url": "http://www.apatheia.jp",
    "pref": "三重県",
    "city": "四日市市",
    "category": "home_help",
    "serviceType": "訪問介護",
    "capacity": 0,
    "openDays": [
      "平日",
      "土曜日",
      "日曜日",
      "祝日"
    ],
    "openDaysNote": "提供時間については相談に応じています。"
  },
  {
    "id": "2470206083",
    "name": "ひまわりケアサービス富田",
    "kana": "ヒマワリケアサービストミダ",
    "address": "三重県四日市市下之宮町字位田222番1",
    "lat": 35.0156383,
    "lng": 136.642778,
    "tel": "059-361-7015",
    "url": "https://himawari-care-s.com/",
    "pref": "三重県",
    "city": "四日市市",
    "category": "home_help",
    "serviceType": "訪問介護",
    "capacity": null,
    "openDays": [
      "平日",
      "土曜日",
      "日曜日",
      "祝日"
    ],
    "openDaysNote": ""
  },
  {
    "id": "2470206216",
    "name": "フレアスヘルパーステーション四日市",
    "kana": "フレアスヘルパーステーションヨッカイチ",
    "address": "三重県四日市市赤堀南町2-25",
    "lat": 34.9570613,
    "lng": 136.6116605,
    "tel": "059-329-5270",
    "url": "https://fureasu.jp/business/hospice/yokkaichi/",
    "pref": "三重県",
    "city": "四日市市",
    "category": "home_help",
    "serviceType": "訪問介護",
    "capacity": null,
    "openDays": [
      "平日",
      "土曜日",
      "日曜日",
      "祝日"
    ],
    "openDaysNote": "365日24時間対応"
  },
  {
    "id": "2470206539",
    "name": "フレアスヘルパーステーション四日市あさけ",
    "kana": "フレアスヘルパーステーションヨッカイチアサケ",
    "address": "三重県四日市市大矢知町1007-2グリーンハイツ201号室 グリーンハイツ201号室",
    "lat": 35.0200182,
    "lng": 136.6390269,
    "tel": "055-234-5031",
    "url": "",
    "pref": "三重県",
    "city": "四日市市",
    "category": "home_help",
    "serviceType": "訪問介護",
    "capacity": null,
    "openDays": [
      "平日",
      "土曜日",
      "日曜日",
      "祝日"
    ],
    "openDaysNote": "365日24時間対応"
  },
  {
    "id": "2470201100",
    "name": "ヘルパーステイションこまち四日市中央",
    "kana": "ヘルパーステイションコマチヨッカイチチュウオウ",
    "address": "三重県四日市市中部17番11号",
    "lat": 34.9704061,
    "lng": 136.624926,
    "tel": "059-352-2150",
    "url": "http://www.hukushi.jp",
    "pref": "三重県",
    "city": "四日市市",
    "category": "home_help",
    "serviceType": "訪問介護",
    "capacity": 0,
    "openDays": [
      "平日",
      "土曜日",
      "日曜日",
      "祝日"
    ],
    "openDaysNote": "サービスは24時間365日ご利用可能です。"
  },
  {
    "id": "2470205291",
    "name": "ヘルパーステイションぴーす",
    "kana": "ヘルパーステイションピース",
    "address": "三重県四日市市南松本町９番地１１",
    "lat": 34.9666332,
    "lng": 136.581139,
    "tel": "059-322-5541",
    "url": "https://www.kaigo-peace.com",
    "pref": "三重県",
    "city": "四日市市",
    "category": "home_help",
    "serviceType": "訪問介護",
    "capacity": 0,
    "openDays": [
      "平日",
      "土曜日",
      "日曜日",
      "祝日"
    ],
    "openDaysNote": ""
  },
  {
    "id": "2470203783",
    "name": "ヘルパーステーション　オリーブ",
    "kana": "ヘルパーステーション　オリーブ",
    "address": "三重県四日市市小林町字小林新田3018-23",
    "lat": 34.9571948,
    "lng": 136.5378833,
    "tel": "059-340-5001",
    "url": "",
    "pref": "三重県",
    "city": "四日市市",
    "category": "home_help",
    "serviceType": "訪問介護",
    "capacity": 0,
    "openDays": [
      "平日",
      "土曜日",
      "祝日"
    ],
    "openDaysNote": "常時24時間、利用者やその家族からの電話などによる連絡体制を整備。"
  },
  {
    "id": "2470205036",
    "name": "ヘルパーステーション　すこやか",
    "kana": "ヘルパーステーション　スコヤカ",
    "address": "三重県四日市市生桑町654-1すこやかレジデンス すこやかレジデンス",
    "lat": 34.9831012852784,
    "lng": 136.597745716449,
    "tel": "059-330-0130",
    "url": "http://sukoyaka-residence.com/",
    "pref": "三重県",
    "city": "四日市市",
    "category": "home_help",
    "serviceType": "訪問介護",
    "capacity": 0,
    "openDays": [
      "平日",
      "土曜日",
      "日曜日",
      "祝日"
    ],
    "openDaysNote": "利用者の希望に応じて、サービス提供については２４時間３６５日対応可能"
  },
  {
    "id": "2470205051",
    "name": "ヘルパーステーション　にっこり山城",
    "kana": "ヘルパーステーション　ニッコリヤマジョウ",
    "address": "三重県四日市市山城町1014サービス付き高齢者向け住宅にっこり山城 サービス付き高齢者向け住宅にっこり山城",
    "lat": 35.0351473000001,
    "lng": 136.585790747955,
    "tel": "059-337-2525",
    "url": "http://nikkoriyamajou.com/",
    "pref": "三重県",
    "city": "四日市市",
    "category": "home_help",
    "serviceType": "訪問介護",
    "capacity": 0,
    "openDays": [
      "平日",
      "土曜日",
      "日曜日",
      "祝日"
    ],
    "openDaysNote": ""
  },
  {
    "id": "2470206315",
    "name": "ヘルパーステーション　まほろば",
    "kana": "ヘルパーステーション　マホロバ",
    "address": "三重県四日市市東日野町１８番地3",
    "lat": 34.9540553311584,
    "lng": 136.594599880961,
    "tel": "059-322-1310",
    "url": "",
    "pref": "三重県",
    "city": "四日市市",
    "category": "home_help",
    "serviceType": "訪問介護",
    "capacity": null,
    "openDays": [
      "平日",
      "土曜日",
      "日曜日",
      "祝日"
    ],
    "openDaysNote": ""
  },
  {
    "id": "2470205648",
    "name": "ヘルパーステーション　まめ蔵",
    "kana": "ヘルパーステーション　マメゾウ",
    "address": "釆女町１７１６番地１サービス付き高齢者向け住宅　まめ蔵 サービス付き高齢者向け住宅　まめ蔵",
    "lat": 34.9250869,
    "lng": 136.5767145,
    "tel": "059-325-6825",
    "url": "",
    "pref": "三重県",
    "city": "四日市市",
    "category": "home_help",
    "serviceType": "訪問介護",
    "capacity": null,
    "openDays": [
      "平日",
      "土曜日",
      "日曜日",
      "祝日"
    ],
    "openDaysNote": ""
  },
  {
    "id": "2470206091",
    "name": "ヘルパーステーション　よつば",
    "kana": "ヘルパーステーション　ヨツバ",
    "address": "三重県四日市市小林町字小林新田3019-263",
    "lat": 34.9548458724539,
    "lng": 136.548052477177,
    "tel": "059-327-5884",
    "url": "http://shiawase-senior.co.jp/wp-login.php",
    "pref": "三重県",
    "city": "四日市市",
    "category": "home_help",
    "serviceType": "訪問介護",
    "capacity": 2,
    "openDays": [
      "平日",
      "土曜日",
      "日曜日",
      "祝日"
    ],
    "openDaysNote": "２４時間対応体制あり"
  },
  {
    "id": "2470205614",
    "name": "ヘルパーステーション　紫",
    "kana": "ヘルパーステーション　ムラサキ",
    "address": "三重県四日市市川原町22-19",
    "lat": 34.9746807,
    "lng": 136.6275618,
    "tel": "059-324-5439",
    "url": "",
    "pref": "三重県",
    "city": "四日市市",
    "category": "home_help",
    "serviceType": "訪問介護",
    "capacity": 0,
    "openDays": [
      "平日",
      "土曜日",
      "祝日"
    ],
    "openDaysNote": "相談に応じます"
  },
  {
    "id": "2470205960",
    "name": "ヘルパーステーションくるみ",
    "kana": "ヘルパーステーションクルミ",
    "address": "三重県四日市市笹川三丁目141-3",
    "lat": 34.9514325,
    "lng": 136.5705696,
    "tel": "080-9171-0964",
    "url": "",
    "pref": "三重県",
    "city": "四日市市",
    "category": "home_help",
    "serviceType": "訪問介護",
    "capacity": null,
    "openDays": [
      "平日",
      "土曜日",
      "日曜日",
      "祝日"
    ],
    "openDaysNote": ""
  },
  {
    "id": "2470206422",
    "name": "ヘルパーステーションつくし",
    "kana": "ヘルパーステーションツクシ",
    "address": "三重県四日市市楠町本郷1692２階 ２階",
    "lat": 34.9124771,
    "lng": 136.6188423,
    "tel": "059-327-6717",
    "url": "",
    "pref": "三重県",
    "city": "四日市市",
    "category": "home_help",
    "serviceType": "訪問介護",
    "capacity": null,
    "openDays": [
      "平日",
      "土曜日",
      "日曜日",
      "祝日"
    ],
    "openDaysNote": ""
  },
  {
    "id": "2470205879",
    "name": "ヘルパーステーションねこの手",
    "kana": "ヘルパーステーションネコノテ",
    "address": "三重県四日市市泊山崎町9-37",
    "lat": 34.9422059766518,
    "lng": 136.596138949504,
    "tel": "059-318-9208",
    "url": "http://hp.kaipoke.biz/g3r/",
    "pref": "三重県",
    "city": "四日市市",
    "category": "home_help",
    "serviceType": "訪問介護",
    "capacity": 0,
    "openDays": [
      "平日",
      "土曜日",
      "日曜日",
      "祝日"
    ],
    "openDaysNote": ""
  },
  {
    "id": "2470205101",
    "name": "ヘルパーステーション花びより",
    "kana": "ヘルパーステーション　ハナビヨリ",
    "address": "笹川3丁目21番1号",
    "lat": 34.952845774749,
    "lng": 136.572927543389,
    "tel": "059-322-8787",
    "url": "hanbiyori.net",
    "pref": "三重県",
    "city": "四日市市",
    "category": "home_help",
    "serviceType": "訪問介護",
    "capacity": 0,
    "openDays": [
      "平日",
      "土曜日",
      "日曜日",
      "祝日"
    ],
    "openDaysNote": "サービス提供時間は２４時間"
  },
  {
    "id": "2470204195",
    "name": "ヘルパーステーション四日市楠館",
    "kana": "ヘルパーステーションヨッカイチクスカン",
    "address": "楠町小倉764-1プレステージ四日市楠館 プレステージ四日市楠館",
    "lat": 34.9217666,
    "lng": 136.6261028,
    "tel": "059-342-0018",
    "url": "http://www.puresutige-care-tokai.co.jp/",
    "pref": "三重県",
    "city": "四日市市",
    "category": "home_help",
    "serviceType": "訪問介護",
    "capacity": 0,
    "openDays": [
      "平日",
      "土曜日",
      "日曜日",
      "祝日"
    ],
    "openDaysNote": ""
  },
  {
    "id": "2470206505",
    "name": "ヘルパーステーション四日市楠館",
    "kana": "ヘルパーステーションヨッカイチクスカン",
    "address": "三重県四日市市楠町小倉764-1",
    "lat": 34.9218327,
    "lng": 136.6260474,
    "tel": "059-342-0018",
    "url": "https://www.prestige-care-tokai.co.jp/institutions/kusunoyakata/",
    "pref": "三重県",
    "city": "四日市市",
    "category": "home_help",
    "serviceType": "訪問介護",
    "capacity": null,
    "openDays": [
      "平日",
      "土曜日",
      "日曜日",
      "祝日"
    ],
    "openDaysNote": ""
  },
  {
    "id": "2470202827",
    "name": "ヘルパーステーション杉の木",
    "kana": "ヘルパーステーションスギノキ",
    "address": "四日市市東日野町３５４番地６",
    "lat": 34.9588453,
    "lng": 136.5962822,
    "tel": "059-321-0078",
    "url": "",
    "pref": "三重県",
    "city": "四日市市",
    "category": "home_help",
    "serviceType": "訪問介護",
    "capacity": 0,
    "openDays": [
      "平日",
      "土曜日",
      "日曜日",
      "祝日"
    ],
    "openDaysNote": ""
  },
  {
    "id": "2470206331",
    "name": "ヘルパーステーション傳々",
    "kana": "ヘルパーステーションデンデン",
    "address": "三重県四日市市室山町1655番17",
    "lat": 34.9532986260965,
    "lng": 136.5799189,
    "tel": "059-322-5588",
    "url": "https://process-care.co.jp",
    "pref": "三重県",
    "city": "四日市市",
    "category": "home_help",
    "serviceType": "訪問介護",
    "capacity": null,
    "openDays": [
      "平日",
      "土曜日",
      "日曜日",
      "祝日"
    ],
    "openDaysNote": ""
  },
  {
    "id": "2470204120",
    "name": "ヘルプサービスまる　四日市",
    "kana": "ヘルプサービスマル　ヨッカイチ",
    "address": "三重県四日市市川島町736番2",
    "lat": 34.9721243,
    "lng": 136.5708479,
    "tel": "059-320-1170",
    "url": "",
    "pref": "三重県",
    "city": "四日市市",
    "category": "home_help",
    "serviceType": "訪問介護",
    "capacity": 0,
    "openDays": [
      "平日",
      "土曜日",
      "日曜日",
      "祝日"
    ],
    "openDaysNote": "上記以外も応相談"
  },
  {
    "id": "2470206117",
    "name": "マーベラス介護事業所",
    "kana": "マーベラスカイゴジギョウショ",
    "address": "久保田町2丁目10-13TOYOTAactionBuild　オフィス棟2階 TOYOTAactionBuild　オフィス棟2階",
    "lat": 33.9539886,
    "lng": 133.2775518,
    "tel": "059-359-1765",
    "url": "",
    "pref": "三重県",
    "city": "四日市市",
    "category": "home_help",
    "serviceType": "訪問介護",
    "capacity": 0,
    "openDays": [
      "平日"
    ],
    "openDaysNote": ""
  },
  {
    "id": "2470203429",
    "name": "みえ医療福祉生協ヘルパーステーションいくわ",
    "kana": "ミエイリョウフクシセイキョウヘルパーステーションイクワ",
    "address": "四日市市生桑町１４５５番地",
    "lat": 34.9797794,
    "lng": 136.5963957,
    "tel": "059-337-8885",
    "url": "http://www.y-medico.com",
    "pref": "三重県",
    "city": "四日市市",
    "category": "home_help",
    "serviceType": "訪問介護",
    "capacity": 0,
    "openDays": [
      "平日",
      "土曜日"
    ],
    "openDaysNote": "時間については相談に応じています。"
  },
  {
    "id": "2470201753",
    "name": "みたき在宅ケアセンター",
    "kana": "ミタキザイタクケアセンター",
    "address": "四日市市生桑町菰池４５８－１",
    "lat": 34.9805782364945,
    "lng": 136.603543740398,
    "tel": "059-330-6536",
    "url": "https://mitaki.or.jp",
    "pref": "三重県",
    "city": "四日市市",
    "category": "home_help",
    "serviceType": "訪問介護",
    "capacity": 0,
    "openDays": [
      "平日",
      "土曜日",
      "祝日"
    ],
    "openDaysNote": "居宅サービス計画により時間外のサービス提供をさせて頂く場合あります。"
  },
  {
    "id": "2470205986",
    "name": "医心館訪問介護ステーション四日市Ⅱ",
    "kana": "イシンカンホウモンカイゴステーションヨッカイチニ",
    "address": "三重県四日市市芝田一丁目1番20号",
    "lat": 34.9675058,
    "lng": 136.6085568,
    "tel": "059-350-4330",
    "url": "",
    "pref": "三重県",
    "city": "四日市市",
    "category": "home_help",
    "serviceType": "訪問介護",
    "capacity": 0,
    "openDays": [
      "平日",
      "土曜日",
      "日曜日",
      "祝日"
    ],
    "openDaysNote": "24時間対応"
  },