[
  {
    "id": "4171200761",
    "name": "ニチイケアセンターみやき",
    "kana": "ニチイケアセンターミヤキ",
    "address": "佐賀県三養基郡みやき町西島1648-4御厨店舗 御厨店舗",
    "lat": 33.2974337,
    "lng": 130.4371586,
    "tel": "0942-81-9700",
    "url": "http://www.nichiigakkan.co.jp",
    "pref": "佐賀県",
    "city": "みやき町",
    "category": "home_help",
    "serviceType": "訪問介護",
    "capacity": 0,
    "openDays": [
      "平日",
      "土曜日",
      "日曜日",
      "祝日"
    ],
    "openDaysNote": ""
  },
  {
    "id": "4171100284",
    "name": "ヘルパーステーションほがらか",
    "kana": "ヘルパーステーション　ホガラカ",
    "address": "佐賀県三養基郡みやき町大字白壁4204番地19",
    "lat": 33.348295027636,
    "lng": 130.45921715912,
    "tel": "0942-85-7075",
    "url": "",
    "pref": "佐賀県",
    "city": "みやき町",
    "category": "home_help",
    "serviceType": "訪問介護",
    "capacity": 30,
    "openDays": [
      "平日",
      "土曜日",
      "日曜日",
      "祝日"
    ],
    "openDaysNote": ""
  },
  {
    "id": "4161290053",
    "name": "よつば訪問ステーション",
    "kana": "ヨツバホウモンステーション",
    "address": "佐賀県三養基郡みやき町大字中津隈6017-3",
    "lat": 33.3198298540961,
    "lng": 130.449210874554,
    "tel": "0942－80－3271",
    "url": "https://www.yotsubakai.net",
    "pref": "佐賀県",
    "city": "みやき町",
    "category": "home_help",
    "serviceType": "訪問介護",
    "capacity": 0,
    "openDays": [
      "平日",
      "土曜日",
      "日曜日",
      "祝日"
    ],
    "openDaysNote": "サービス利用時間以外も対応しています。（改行）※24時間連絡体制あり。"
  },
  {
    "id": "4170500625",
    "name": "セントケア伊万里松島",
    "kana": "セントケアイマリマツシマ",
    "address": "佐賀県伊万里市松島町969番地アベニールMⅡ-101 アベニールMⅡ-101",
    "lat": 33.2808975,
    "lng": 129.8800829,
    "tel": "0955-24-9732",
    "url": "imarimatsushima_sc41@saint-care.com",
    "pref": "佐賀県",
    "city": "伊万里市",
    "category": "home_help",
    "serviceType": "訪問介護",
    "capacity": 0,
    "openDays": [
      "平日",
      "土曜日",
      "日曜日",
      "祝日"
    ],
    "openDaysNote": "サービス提供時間は、事前に計画された居宅介護等計画に基づくものとする。"
  },
  {
    "id": "4170500682",
    "name": "ニチイケアセンターいすい",
    "kana": "ニチイケアセンターイスイ",
    "address": "伊万里市立花町1891-47ＨＩＲＡＯビル2階 ＨＩＲＡＯビル2階",
    "lat": 33.260264,
    "lng": 129.8838909,
    "tel": "0955-20-9081",
    "url": "http://www.nichiigakkan.co.jp",
    "pref": "佐賀県",
    "city": "伊万里市",
    "category": "home_help",
    "serviceType": "訪問介護",
    "capacity": 0,
    "openDays": [
      "平日",
      "土曜日",
      "日曜日",
      "祝日"
    ],
    "openDaysNote": "365日24時間体制"
  },
  {
    "id": "4170500674",
    "name": "ヘルパーステーション　いこいの里伊万里",
    "kana": "ヘルパーステーション　イコイノサトイマリ",
    "address": "伊万里市立花町2394番1",
    "lat": 33.2596087,
    "lng": 129.8885961,
    "tel": "0955-22-7700",
    "url": "https://ikoino-sato.com/imari/",
    "pref": "佐賀県",
    "city": "伊万里市",
    "category": "home_help",
    "serviceType": "訪問介護",
    "capacity": 0,
    "openDays": [
      "平日",
      "土曜日",
      "日曜日",
      "祝日"
    ],
    "openDaysNote": "365日、24時間営業"
  },
  {
    "id": "4170500906",
    "name": "ヘルパーステーションジョウジマ",
    "kana": "ヘルパーステーションジョウジマ",
    "address": "佐賀県伊万里市南波多町大川原4224－１",
    "lat": 33.3345934,
    "lng": 129.873569,
    "tel": "0955-20-3600",
    "url": "http://gh-imari,com",
    "pref": "佐賀県",
    "city": "伊万里市",
    "category": "home_help",
    "serviceType": "訪問介護",
    "capacity": 0,
    "openDays": [
      "平日",
      "土曜日",
      "日曜日",
      "祝日"
    ],
    "openDaysNote": ""
  },
  {
    "id": "4170500039",
    "name": "ホームヘルプサービス　敬愛園",
    "kana": "ホームヘルプサービス　ケイアイエン",
    "address": "佐賀県伊万里市黒川町大黒川2201番地",
    "lat": 33.3352249,
    "lng": 129.8655759,
    "tel": "0955-27-2101",
    "url": "http://imari-keiaikai.com",
    "pref": "佐賀県",
    "city": "伊万里市",
    "category": "home_help",
    "serviceType": "訪問介護",
    "capacity": 0,
    "openDays": [
      "平日",
      "土曜日",
      "日曜日",
      "祝日"
    ],
    "openDaysNote": "24時間営業"
  },
  {
    "id": "4170500864",
    "name": "ホームヘルプサービス紅葉",
    "kana": "ホームヘルプサービス　モミジ",
    "address": "佐賀県伊万里市立花町小敷山2404-123",
    "lat": 33.2598052,
    "lng": 129.881054,
    "tel": "0955-23-8061",
    "url": "",
    "pref": "佐賀県",
    "city": "伊万里市",
    "category": "home_help",
    "serviceType": "訪問介護",
    "capacity": null,
    "openDays": [
      "平日",
      "土曜日",
      "日曜日"
    ],
    "openDaysNote": ""
  },
  {
    "id": "4170500021",
    "name": "ユートピア訪問介護事業所",
    "kana": "ユートピアホウモンカイゴジギョウショ",
    "address": "佐賀県伊万里市大川町大川野字赤坂1647",
    "lat": 33.294588568769,
    "lng": 129.971874427448,
    "tel": "0955-20-8008",
    "url": "http://www.kenjin-kai.com/utopia/",
    "pref": "佐賀県",
    "city": "伊万里市",
    "category": "home_help",
    "serviceType": "訪問介護",
    "capacity": 40,
    "openDays": [
      "平日",
      "土曜日",
      "日曜日",
      "祝日"
    ],
    "openDaysNote": "夜間帯は現状対応していないが、要望があれば検討する。"
  },
  {
    "id": "4170500278",
    "name": "謙仁会　訪問介護事業所",
    "kana": "ケンジンカイ　ホウモンカイゴジギョウショ",
    "address": "伊万里市二里町八谷搦１３番地５",
    "lat": 33.2732426,
    "lng": 129.871567,
    "tel": "0955-24-9388",
    "url": "http://www.kenjin-kai.com/care-support",
    "pref": "佐賀県",
    "city": "伊万里市",
    "category": "home_help",
    "serviceType": "訪問介護",
    "capacity": 50,
    "openDays": [
      "平日",
      "土曜日",
      "日曜日",
      "祝日"
    ],
    "openDaysNote": "ご利用者の希望により業務時間の調整いたします。その場合、早朝、夜間、深夜と時間帯により加算料金が発生いたします。まずはご相談下さい。"
  },
  {
    "id": "4150580019",
    "name": "西光苑訪問介護事業所",
    "kana": "セイコウエンホウモンカイゴジギョウショ",
    "address": "佐賀県伊万里市山代町峰6522番地4",
    "lat": 33.2988444,
    "lng": 129.8163934,
    "tel": "0955-28-4394",
    "url": "http://www.saganet.ne.jp/kojinkai/",
    "pref": "佐賀県",
    "city": "伊万里市",
    "category": "home_help",
    "serviceType": "訪問介護",
    "capacity": 0,
    "openDays": [
      "平日",
      "土曜日",
      "日曜日",
      "祝日"
    ],
    "openDaysNote": ""
  },
  {
    "id": "4170500013",
    "name": "長生園ホームヘルプサービス",
    "kana": "チョウセイエンホームヘルプサービス",
    "address": "佐賀県伊万里市立花町２７０３番地２",
    "lat": 33.264877,
    "lng": 129.8902522,
    "tel": "0955-25-8202",
    "url": "http://chousei-imari.jp",
    "pref": "佐賀県",
    "city": "伊万里市",
    "category": "home_help",
    "serviceType": "訪問介護",
    "capacity": 0,
    "openDays": [
      "平日",
      "土曜日",
      "日曜日",
      "祝日"
    ],
    "openDaysNote": ""
  },
  {
    "id": "4170500245",
    "name": "瑠璃光苑",
    "kana": "ルリコウエン",
    "address": "佐賀県伊万里市二里町大里乙403番地1",
    "lat": 33.2531330365463,
    "lng": 129.84752119895,
    "tel": "0955-29-8158",
    "url": "https://rurikouen.jp/",
    "pref": "佐賀県",
    "city": "伊万里市",
    "category": "home_help",
    "serviceType": "訪問介護",
    "capacity": 0,
    "openDays": [
      "平日",
      "土曜日",
      "日曜日",
      "祝日"
    ],
    "openDaysNote": "なし"
  },
  {
    "id": "4171200720",
    "name": "さくら訪問介護ｽﾃｰｼｮﾝ",
    "kana": "サクラホウモンカイゴステーション",
    "address": "佐賀県三養基郡基山町大字小倉457-2セカンドライフさくら セカンドライフさくら",
    "lat": 33.417786514109,
    "lng": 130.535408085828,
    "tel": "0942-85-8252",
    "url": "",
    "pref": "佐賀県",
    "city": "基山町",
    "category": "home_help",
    "serviceType": "訪問介護",
    "capacity": 0,
    "openDays": [
      "平日",
      "土曜日",
      "日曜日",
      "祝日"
    ],
    "openDaysNote": ""
  },
  {
    "id": "4171200753",
    "name": "ニチイケアセンター基山",
    "kana": "ニチイケアセンターキヤマ",
    "address": "佐賀県三養基郡基山町大字小倉字倉野1052番地1",
    "lat": 33.4351756,
    "lng": 130.5203448,
    "tel": "0942-81-7007",
    "url": "http://www.nichiigakkan/co.jp",
    "pref": "佐賀県",
    "city": "基山町",
    "category": "home_help",
    "serviceType": "訪問介護",
    "capacity": 2,
    "openDays": [
      "平日",
      "土曜日",
      "日曜日",
      "祝日"
    ],
    "openDaysNote": ""
  },
  {
    "id": "4170900320",
    "name": "合同会社　さくら",
    "kana": "ゴウドウカイシャ　サクラ",
    "address": "佐賀県嬉野市嬉野町大字下宿丙2245番地2山口アパート7号 山口アパート7号",
    "lat": 33.0964973,
    "lng": 129.977154,
    "tel": "0954-38-2862",
    "url": "",
    "pref": "佐賀県",
    "city": "嬉野市",
    "category": "home_help",
    "serviceType": "訪問介護",
    "capacity": 40,
    "openDays": [
      "平日",
      "土曜日",
      "日曜日",
      "祝日"
    ],
    "openDaysNote": ""
  },
  {
    "id": "4171700018",
    "name": "済昭園ホームヘルプサービス事業",
    "kana": "サイショウエンホームヘルプサービスジギョウ",
    "address": "佐賀県嬉野市塩田町大字五町田甲3432番地1",
    "lat": 33.1224646754179,
    "lng": 130.057383380239,
    "tel": "0954-66-5403",
    "url": "http://www.saisyouen.jp/",
    "pref": "佐賀県",
    "city": "嬉野市",
    "category": "home_help",
    "serviceType": "訪問介護",
    "capacity": 0,
    "openDays": [
      "平日",
      "土曜日",
      "祝日"
    ],
    "openDaysNote": "早朝午前6時～午前8時、昼間午前8時～午後6時、夜間午後6時～午後10時"
  },
  {
    "id": "4170600615",
    "name": "社会福祉法人グリーンコープふくしサービスセンターびすけっと西部",
    "kana": "シャカイフクシホウジングリーンコープフクシサービスセンタービスケットセイブ",
    "address": "佐賀県嬉野市塩田町大字五町田3256-1",
    "lat": 33.1220779653934,
    "lng": 130.060978847013,
    "tel": "0954-68-0401",
    "url": "http://www.fukushi-greencoop.or.jp/",
    "pref": "佐賀県",
    "city": "嬉野市",
    "category": "home_help",
    "serviceType": "訪問介護",
    "capacity": 0,
    "openDays": [
      "平日",
      "土曜日",
      "日曜日",
      "祝日"
    ],
    "openDaysNote": "上記以外のサ-ビス提供についても、可能な限り相談に応じます。"
  },
  {
    "id": "4170900197",
    "name": "訪問介護ステーション百花之里",
    "kana": "ホウモンカイゴステーションモモカノサト",
    "address": "嬉野町大字下宿乙961-1",
    "lat": 33.0980076,
    "lng": 129.9872423,
    "tel": "0954-43-0883",
    "url": "",
    "pref": "佐賀県",
    "city": "嬉野市",
    "category": "home_help",
    "serviceType": "訪問介護",
    "capacity": null,
    "openDays": [
      "平日",
      "土曜日",
      "日曜日",
      "祝日"
    ],
    "openDaysNote": "24時間提供可能な体制とする。"
  },
  {
    "id": "4170900056",
    "name": "訪問介護事業所　青空",
    "kana": "ホウモンカイゴジギョウショ　アオゾラ",
    "address": "佐賀県嬉野市嬉野町大字下宿甲2011番地",
    "lat": 33.1107619,
    "lng": 129.9965159,
    "tel": "0954-20-2656",
    "url": "https://npo-aozora.jp/",
    "pref": "佐賀県",
    "city": "嬉野市",
    "category": "home_help",
    "serviceType": "訪問介護",
    "capacity": 80,
    "openDays": [
      "平日",
      "土曜日",
      "日曜日",
      "祝日"
    ],
    "openDaysNote": ""
  },
  {
    "id": "4171100276",
    "name": "ニチイケアセンター吉野ヶ里",
    "kana": "ニチイケアセンターヨシノガリ",
    "address": "佐賀県神埼郡吉野ヶ里町吉田261-4",
    "lat": 33.3241977,
    "lng": 130.3992776,
    "tel": "0952-51-4611",
    "url": "http://www.nichiigaqkkan.co.jp",
    "pref": "佐賀県",
    "city": "吉野ヶ里町",
    "category": "home_help",
    "serviceType": "訪問介護",
    "capacity": 0,
    "openDays": [
      "平日",
      "土曜日",
      "日曜日",
      "祝日"
    ],
    "openDaysNote": "但し、休業日であってもサービスの提供を行う場合がある"
  },
  {
    "id": "4171600663",
    "name": "ニチイケアセンター江北",
    "kana": "ニチイケアセンターコウホク",
    "address": "佐賀県杵島郡江北町大字山口22番さくせすPOINT1階103号室 さくせすPOINT1階103号室",
    "lat": 33.2107817,
    "lng": 130.1521981,
    "tel": "0952-71-6171",
    "url": "",
    "pref": "佐賀県",
    "city": "江北町",
    "category": "home_help",
    "serviceType": "訪問介護",
    "capacity": 0,
    "openDays": [
      "平日",
      "土曜日",
      "日曜日",
      "祝日"
    ],
    "openDaysNote": ""
  },
  {
    "id": "4171600697",
    "name": "ヘルパーステーションいちょうの木",
    "kana": "ヘルパーステーションイチョウノキ",
    "address": "佐賀県杵島郡江北町大字上小田2061番",
    "lat": 33.2325615322444,
    "lng": 130.136922518985,
    "tel": "0952-71-6970",
    "url": "",
    "pref": "佐賀県",
    "city": "江北町",
    "category": "home_help",
    "serviceType": "訪問介護",
    "capacity": null,
    "openDays": [
      "平日",
      "土曜日",
      "祝日"
    ],
    "openDaysNote": ""
  },
  {
    "id": "4171600051",
    "name": "江北町社会福祉協議会ヘルプサービスセンター",
    "kana": "コウホクマチシャカイフクシキョウギカイ　ヘルプサービスセンター",
    "address": "佐賀県杵島郡江北町大字山口2637番地7江北町老人福祉センター 江北町老人福祉センター",
    "lat": 33.2167122,
    "lng": 130.1495922,
    "tel": "0952-86-4317",
    "url": "",
    "pref": "佐賀県",
    "city": "江北町",
    "category": "home_help",
    "serviceType": "訪問介護",
    "capacity": 0,
    "openDays": [
      "平日",
      "土曜日"
    ],
    "openDaysNote": ""
  },
  {
    "id": "4170101234",
    "name": "あいサポートこころ",
    "kana": "アイサポートココロ",
    "address": "佐賀県佐賀市鍋島町大字八戸溝1265-31",
    "lat": 33.2599193,
    "lng": 130.2682744,
    "tel": "952605332",
    "url": "",
    "pref": "佐賀県",
    "city": "佐賀市",
    "category": "home_help",
    "serviceType": "訪問介護",
    "capacity": null,
    "openDays": [
      "平日"
    ],
    "openDaysNote": "相談可"
  },
  {
    "id": "4170102190",
    "name": "アイランドケア",
    "kana": "アイランドケア",
    "address": "佐賀市神野東２－７－２",
    "lat": 33.2659317,
    "lng": 130.2962885,
    "tel": "０９５２－９７－７５９２",
    "url": "http://www.ailife-ics.jp/",
    "pref": "佐賀県",
    "city": "佐賀市",
    "category": "home_help",
    "serviceType": "訪問介護",
    "capacity": 50,
    "openDays": [
      "平日",
      "土曜日",
      "日曜日",
      "祝日"
    ],
    "openDaysNote": "ご利用者様の体調不良等により居宅介護計画書に基づき追加サービスを必要時行う。（改行）24Hコール体制（ONコール含む）"
  },
  {
    "id": "4170102893",
    "name": "あおぞらヘルパーステーション佐賀医大前",
    "kana": "アオゾラヘルパーステーションサガイダイマエ",
    "address": "佐賀県佐賀市鍋島町大字鍋島２００１－１アヴィラージュ佐賀医大前 アヴィラージュ佐賀医大前",
    "lat": 33.2766465,
    "lng": 130.263082,
    "tel": "0952-37-7130",
    "url": "",
    "pref": "佐賀県",
    "city": "佐賀市",
    "category": "home_help",
    "serviceType": "訪問介護",
    "capacity": 50,
    "openDays": [
      "平日",
      "土曜日",
      "日曜日",
      "祝日"
    ],
    "openDaysNote": ""
  },
  {
    "id": "4170103479",
    "name": "アリス・さが",
    "kana": "アリス・サガ",
    "address": "唐人2-3-28",
    "lat": 33.2574775,
    "lng": 130.3003837,
    "tel": "090-4480-5837",
    "url": "",
    "pref": "佐賀県",
    "city": "佐賀市",
    "category": "home_help",
    "serviceType": "訪問介護",
    "capacity": 0,
    "openDays": [
      "平日",
      "土曜日",
      "日曜日",
      "祝日"
    ],
    "openDaysNote": "ご希望はご相談に応じます。"
  },
  {
    "id": "4150180042",
    "name": "きりん訪問介護事業所",
    "kana": "キリンホウモンカイゴジギョウショ",
    "address": "佐賀市金立町久保泉町大字上和泉２２３２－１",
    "lat": 33.3044290235764,
    "lng": 130.315802106412,
    "tel": "0952-98-0808",
    "url": "http://www.kirin-saga.or.jp",
    "pref": "佐賀県",
    "city": "佐賀市",
    "category": "home_help",
    "serviceType": "訪問介護",
    "capacity": 45,
    "openDays": [
      "平日",
      "土曜日",
      "日曜日",
      "祝日"
    ],
    "openDaysNote": "利用者の状態・希望により、深夜・早朝の対応可能"
  },
  {
    "id": "4170102687",
    "name": "ケアネット　リング",
    "kana": "ケアネット　リング",
    "address": "佐賀県佐賀市水ヶ江5丁目8番18号",
    "lat": 33.2416159779667,
    "lng": 130.310338017791,
    "tel": "0952-97-6538",
    "url": "",
    "pref": "佐賀県",
    "city": "佐賀市",
    "category": "home_help",
    "serviceType": "訪問介護",
    "capacity": 0,
    "openDays": [
      "平日",
      "土曜日",
      "祝日"
    ],
    "openDaysNote": ""
  },
  {
    "id": "4171000054",
    "name": "けやき荘ホームヘルプサービス",
    "kana": "ケヤキソウホームヘルプサービス",
    "address": "佐賀市川副町大字福富828-1",
    "lat": 33.2113929,
    "lng": 130.321751,
    "tel": "0952-20-3140",
    "url": "http://www.keyakisou.or.jp/",
    "pref": "佐賀県",
    "city": "佐賀市",
    "category": "home_help",
    "serviceType": "訪問介護",
    "capacity": 7,
    "openDays": [
      "平日",
      "土曜日",
      "日曜日",
      "祝日"
    ],
    "openDaysNote": ""
  },
  {
    "id": "4161090032",
    "name": "シオンの園　ホームヘルプサービス",
    "kana": "シオンノソノ　ホームヘルプサービス",
    "address": "佐賀市大和町大字久留間3865-1",
    "lat": 33.3123104,
    "lng": 130.2433294,
    "tel": "0952-62-5625",
    "url": "http://www2saganet.ne.jp/zion",
    "pref": "佐賀県",
    "city": "佐賀市",
    "category": "home_help",
    "serviceType": "訪問介護",
    "capacity": 0,
    "openDays": [
      "平日",
      "土曜日",
      "日曜日",
      "祝日"
    ],
    "openDaysNote": ""
  },
  {
    "id": "4171000203",
    "name": "しょうぶ苑訪問介護事業所",
    "kana": "ショウブエンホウモンカイゴジギョウショ",
    "address": "佐賀市大和町大字尼寺3227-1",
    "lat": 33.3024226,
    "lng": 130.2758333,
    "tel": "0952-62-6511",
    "url": "https://shobuen.com/",
    "pref": "佐賀県",
    "city": "佐賀市",
    "category": "home_help",
    "serviceType": "訪問介護",
    "capacity": 0,
    "openDays": [
      "平日",
      "土曜日",
      "祝日"
    ],
    "openDaysNote": "年末年始12月３１日～１月３日（改行）＊上記に限らず必要に応じてサービスの提供をおこないます"
  },
  {
    "id": "4170101945",
    "name": "セントケア佐賀",
    "kana": "セントケアサガ",
    "address": "佐賀市兵庫南3－1－19",
    "lat": 33.2648602,
    "lng": 130.3171116,
    "tel": "0952-41-1003",
    "url": "",
    "pref": "佐賀県",
    "city": "佐賀市",
    "category": "home_help",
    "serviceType": "訪問介護",
    "capacity": 100,
    "openDays": [
      "平日",
      "土曜日",
      "日曜日",
      "祝日"
    ],
    "openDaysNote": ""
  },
  {
    "id": "4170101192",
    "name": "ちとせヘルパーステーション",
    "kana": "チトセヘルパーステーション",
    "address": "佐賀県佐賀市北川副町光法1777-8",
    "lat": 33.2352220143272,
    "lng": 130.325062212733,
    "tel": "0952-41‐2177",
    "url": "",
    "pref": "佐賀県",
    "city": "佐賀市",
    "category": "home_help",
    "serviceType": "訪問介護",
    "capacity": 30,
    "openDays": [
      "平日",
      "土曜日",
      "日曜日",
      "祝日"
    ],
    "openDaysNote": ""
  },
  {
    "id": "4170100103",
    "name": "つぼみ荘　ホームヘルプサービスチーム",
    "kana": "ツボミソウ　ホームヘルプサービスチーム",
    "address": "佐賀市北川副町大字光法1480-2",
    "lat": 33.2321383,
    "lng": 130.3312584,
    "tel": "0952-25-2803",
    "url": "http://itwan.main.jp/tsubomi-sou/",
    "pref": "佐賀県",
    "city": "佐賀市",
    "category": "home_help",
    "serviceType": "訪問介護",
    "capacity": 0,
    "openDays": [
      "平日",
      "土曜日",
      "日曜日",
      "祝日"
    ],
    "openDaysNote": "訪問時間は利用者様の希望に合わせるよう努力しますが、すでに予定がある時間帯は訪問可能な時間を提案させていただきます。（改行）サービスを利用できる時間内でも勤務時間の都合により訪問を受けることができない場合もあります。また、時間外でも提供をする場合もありますのでご相談ください。"
  },
  {
    "id": "4171000047",
    "name": "なごみ荘ホームヘルプサービス",
    "kana": "ナゴミソウホームヘルプサービス",
    "address": "佐賀県佐賀市富士町大字小副川562",
    "lat": 33.3651597707334,
    "lng": 130.243894725131,
    "tel": "0952-64-2314",
    "url": "https://www.kenjyu-nagomi",
    "pref": "佐賀県",
    "city": "佐賀市",
    "category": "home_help",
    "serviceType": "訪問介護",
    "capacity": 0,
    "openDays": [
      "平日",
      "土曜日",
      "日曜日",
      "祝日"
    ],
    "openDaysNote": ""
  },
  {
    "id": "4170100319",
    "name": "ニチイケアセンターさが",
    "kana": "ニチイケアセンターサガ",
    "address": "佐賀県佐賀市鍋島三丁目14番28号",
    "lat": 33.2800741,
    "lng": 130.2641596,
    "tel": "0952-34-5535",
    "url": "http://www.nichiigakkann.co.jp",
    "pref": "佐賀県",
    "city": "佐賀市",
    "category": "home_help",
    "serviceType": "訪問介護",
    "capacity": 0,
    "openDays": [
      "平日",
      "土曜日",
      "日曜日",
      "祝日"
    ],
    "openDaysNote": ""
  },
  {
    "id": "4170102323",
    "name": "ニチイケアセンター久保田",
    "kana": "ニチイケアセンタークボタ",
    "address": "佐賀市久保田町大字徳万345番地6",
    "lat": 33.2472039,
    "lng": 130.2388519,
    "tel": "0952-51-3100",
    "url": "",
    "pref": "佐賀県",
    "city": "佐賀市",
    "category": "home_help",
    "serviceType": "訪問介護",
    "capacity": 20,
    "openDays": [
      "平日",
      "土曜日",
      "日曜日",
      "祝日"
    ],
    "openDaysNote": ""
  },
  {
    "id": "4170100772",
    "name": "ニチイケアセンター佐賀みなみ",
    "kana": "ニチイケアセンターサガミナミ",
    "address": "佐賀県佐賀市本庄町袋142-1",
    "lat": 33.2377178,
    "lng": 130.303272,
    "tel": "0952-27-7736",
    "url": "http://www.nichiigakkan.co.jp",
    "pref": "佐賀県",
    "city": "佐賀市",
    "category": "home_help",
    "serviceType": "訪問介護",
    "capacity": 0,
    "openDays": [
      "平日",
      "土曜日",
      "日曜日",
      "祝日"
    ],
    "openDaysNote": ""
  },
  {
    "id": "4170103321",
    "name": "ニチイケアセンター諸富",
    "kana": "ニチイケアセンターモロドミ",
    "address": "佐賀市諸富町大字諸富津20-17澤野貸店舗　1階103号室 澤野貸店舗　1階103号室",
    "lat": 33.2229223,
    "lng": 130.3540535,
    "tel": "0952-47-9043",
    "url": "",
    "pref": "佐賀県",
    "city": "佐賀市",
    "category": "home_help",
    "serviceType": "訪問介護",
    "capacity": 10,
    "openDays": [
      "平日",
      "土曜日",
      "日曜日",
      "祝日"
    ],
    "openDaysNote": ""
  },
  {
    "id": "4170102653",
    "name": "ヘルパーステーション　きらきら",
    "kana": "ヘルパーステーション　キラキラ",
    "address": "佐賀県佐賀市西与賀町厘外１２３０番地６",
    "lat": 33.2352502862604,
    "lng": 130.276567943185,
    "tel": "０９５２－６５－４７６６",
    "url": "",
    "pref": "佐賀県",
    "city": "佐賀市",
    "category": "home_help",
    "serviceType": "訪問介護",
    "capacity": 10,
    "openDays": [
      "平日",
      "土曜日",
      "日曜日",
      "祝日"
    ],
    "openDaysNote": "利用できる時間以外でも、３６５日利用できる体制をとる。"
  },
  {
    "id": "4170103701",
    "name": "ヘルパーステーションあいあい",
    "kana": "ヘルパーステーションアイアイ",
    "address": "佐賀県佐賀市川副町大字早津江188番地5",
    "lat": 33.2078772,
    "lng": 130.3360653,
    "tel": "0952-45-8282",
    "url": "",
    "pref": "佐賀県",
    "city": "佐賀市",
    "category": "home_help",
    "serviceType": "訪問介護",
    "capacity": null,
    "openDays": [
      "平日",
      "土曜日",
      "日曜日",
      "祝日"
    ],
    "openDaysNote": "年末年始12/31～1/3休業"
  },
  {
    "id": "4170102307",
    "name": "ヘルパーステーションいこいの里巨勢",
    "kana": "ヘルパーステーションイコイノサトコセ",
    "address": "巨勢町大字牛島681-1",
    "lat": 33.2502754,
    "lng": 130.3182342,
    "tel": "0952-27-0001",
    "url": "http://ikoino-sato.com",
    "pref": "佐賀県",
    "city": "佐賀市",
    "category": "home_help",
    "serviceType": "訪問介護",
    "capacity": 0,
    "openDays": [
      "平日",
      "土曜日",
      "日曜日",
      "祝日"
    ],
    "openDaysNote": "24時間対応"
  },
  {
    "id": "4170102174",
    "name": "ヘルパーステーション昇開橋",
    "kana": "ヘルパーステーションショウカイキョウ",
    "address": "佐賀市諸富町大字徳富19-1",
    "lat": 33.2184346,
    "lng": 130.3648049,
    "tel": "0952-47-9060",
    "url": "http://www.souseikai.or.jp/",
    "pref": "佐賀県",
    "city": "佐賀市",
    "category": "home_help",
    "serviceType": "訪問介護",
    "capacity": 0,
    "openDays": [
      "平日",
      "土曜日",
      "日曜日",
      "祝日"
    ],
    "openDaysNote": "午前9時から午後6時までとする。ただし、特別の需要がある場合はこの限りではない。（改行）電話等により、24時間常時連絡が可能な体制にする。"
  },
  {
    "id": "4170102117",
    "name": "ヘルパーステーション西与賀",
    "kana": "ヘルパーステーションニシヨカ",
    "address": "佐賀市西与賀町大字高太郎１８４－１",
    "lat": 33.2254293,
    "lng": 130.2683839,
    "tel": "0952-37-7170",
    "url": "http://www.sunnycourt.info/",
    "pref": "佐賀県",
    "city": "佐賀市",
    "category": "home_help",
    "serviceType": "訪問介護",
    "capacity": 0,
    "openDays": [
      "平日",
      "土曜日",
      "日曜日",
      "祝日"
    ],
    "openDaysNote": "営業時間以外はオンコール対応"
  },
  {
    "id": "4170102109",
    "name": "ヘルパーネット青空",
    "kana": "ヘルパーネットアオゾラ",
    "address": "佐賀県佐賀市神野西４丁目１２番１２号",
    "lat": 33.2691478,
    "lng": 130.2862781,
    "tel": "080-5206-3063",
    "url": "",
    "pref": "佐賀県",
    "city": "佐賀市",
    "category": "home_help",
    "serviceType": "訪問介護",
    "capacity": 0,
    "openDays": [
      "平日",
      "土曜日",
      "日曜日",
      "祝日"
    ],
    "openDaysNote": ""
  },
  {
    "id": "4170103669",
    "name": "ほうもんかいごじぎょうしょけあかふぇ",
    "kana": "訪問介護事業所CARECAFE",
    "address": "佐賀県佐賀市本庄町大字本庄1153-2",
    "lat": 33.243150564534,
    "lng": 130.281512464418,
    "tel": "0952-97-9205",
    "url": "http://hakuhou-saga.com",
    "pref": "佐賀県",
    "city": "佐賀市",
    "category": "home_help",
    "serviceType": "訪問介護",
    "capacity": 0,
    "openDays": [
      "平日",
      "土曜日"
    ],
    "openDaysNote": ""
  },
  {
    "id": "4170100012",
    "name": "ホームヘルプケアポート晴寿",
    "kana": "ホームヘルプ　ケアポートセイジュ",
    "address": "佐賀市高木瀬町東高木1170",
    "lat": 33.2874629642657,
    "lng": 130.299078530827,
    "tel": "0952-32-3335",
    "url": "http://www.seijyukai.com/",
    "pref": "佐賀県",
    "city": "佐賀市",
    "category": "home_help",
    "serviceType": "訪問介護",
    "capacity": 0,
    "openDays": [
      "平日",
      "土曜日",
      "日曜日",
      "祝日"
    ],
    "openDaysNote": ""
  },
  {
    "id": "4170103594",
    "name": "ホームヘルプサービス　くるみ",
    "kana": "ホームヘルプサービス　クルミ",
    "address": "佐賀県佐賀市新中町8番20号",
    "lat": 33.2723287,
    "lng": 130.3000405,
    "tel": "0952-37-1310",
    "url": "https://www.npo-hinoki.or.jp",
    "pref": "佐賀県",
    "city": "佐賀市",
    "category": "home_help",
    "serviceType": "訪問介護",
    "capacity": 3,
    "openDays": [
      "平日"
    ],
    "openDaysNote": "時間外については、事前にご相談ください。"
  },
  {
    "id": "4170101879",
    "name": "ホームヘルプサービス　すみれ",
    "kana": "ホームヘルプサービス　スミレ",
    "address": "佐賀県佐賀市金立町大字千布2307番地2",
    "lat": 33.3079725,
    "lng": 130.3011923,
    "tel": "0952-20-0910",
    "url": "",
    "pref": "佐賀県",
    "city": "佐賀市",
    "category": "home_help",
    "serviceType": "訪問介護",
    "capacity": 0,
    "openDays": [
      "平日",
      "土曜日",
      "日曜日",
      "祝日"
    ],
    "openDaysNote": ""
  },
  {
    "id": "4171000286",
    "name": "ホームヘルプサービス　ゆうゆう",
    "kana": "ホームヘルプサービス　ユウユウ",
    "address": "佐賀市大和町大字久池井1663番地1プレミアムアイランド久池井1・106 プレミアムアイランド久池井1・106",
    "lat": 33.3191599850118,
    "lng": 130.287662227478,
    "tel": "0952-20-1252",
    "url": "",
    "pref": "佐賀県",
    "city": "佐賀市",
    "category": "home_help",
    "serviceType": "訪問介護",
    "capacity": 0,
    "openDays": [
      "平日",
      "土曜日",
      "日曜日",
      "祝日"
    ],
    "openDaysNote": "上記以外の時間でも、ご希望により応じています。"
  },
  {
    "id": "4110114925",
    "name": "ホームヘルプサービスうえむら",
    "kana": "ホームヘルプサービスウエムラ",
    "address": "佐賀市兵庫町大字渕4604番地１",
    "lat": 33.2831399095692,
    "lng": 130.314084388955,
    "tel": "0952-33-0139",
    "url": "http://www3.ocn.ne.jp/uemurahp/",
    "pref": "佐賀県",
    "city": "佐賀市",
    "category": "home_help",
    "serviceType": "訪問介護",
    "capacity": 0,
    "openDays": [
      "平日",
      "祝日"
    ],
    "openDaysNote": "利用者の状態・希望により営業時間外においてもサービスの提供を行います。"
  },
  {
    "id": "4170101507",
    "name": "ホームヘルプサービスチーム　桂寿苑",
    "kana": "ホームヘルプサービスチーム　ケイジュエン",
    "address": "佐賀市金立町大字千布4088-1",
    "lat": 33.2981177,
    "lng": 130.2973069,
    "tel": "0952-71-8055",
    "url": "http://www.ryoyuukai.jp",
    "pref": "佐賀県",
    "city": "佐賀市",
    "category": "home_help",
    "serviceType": "訪問介護",
    "capacity": 0,
    "openDays": [],
    "openDaysNote": "年中無休（365日）"
  },
  {
    "id": "4170102455",
    "name": "ホームヘルプサービス杏の樹",
    "kana": "ホームヘルプサービスアンズノキ",
    "address": "佐賀県佐賀市鬼丸町15-38",
    "lat": 33.2423282,
    "lng": 130.2954559,
    "tel": "0952-40-1101",
    "url": "https://kyokaen.wixsite.com/nicelandkitagata",
    "pref": "佐賀県",
    "city": "佐賀市",
    "category": "home_help",
    "serviceType": "訪問介護",
    "capacity": null,
    "openDays": [
      "平日",
      "土曜日",
      "日曜日",
      "祝日"
    ],
    "openDaysNote": ""
  },
  {
    "id": "4170102414",
    "name": "ホームヘルプサービス吉原",
    "kana": "ホームヘルプサービスヨシハラ",
    "address": "北川副町新郷654-1夢館 夢館",
    "lat": 33.2381486,
    "lng": 130.3128045,
    "tel": "0952－20－1118",
    "url": "http://www.sagareha.or.jp",
    "pref": "佐賀県",
    "city": "佐賀市",
    "category": "home_help",
    "serviceType": "訪問介護",
    "capacity": 0,
    "openDays": [
      "平日",
      "土曜日",
      "日曜日",
      "祝日"
    ],
    "openDaysNote": "緊急時・365日・24時間対応"
  },
  {
    "id": "4170101903",
    "name": "ホームヘルプサービス高木瀬",
    "kana": "ホームヘルプサービスタカギセ",
    "address": "佐賀市高木瀬町大字東高木241-1",
    "lat": 33.2758407179177,
    "lng": 130.299750346558,
    "tel": "0952-36-7111",
    "url": "http://www.senior-home.jp/",
    "pref": "佐賀県",
    "city": "佐賀市",
    "category": "home_help",
    "serviceType": "訪問介護",
    "capacity": 10,
    "openDays": [
      "平日",
      "土曜日",
      "日曜日",
      "祝日"
    ],
    "openDaysNote": "年中無休"
  },
  {
    "id": "4170101150",
    "name": "まちの移動ケアサービス鍋島センター",
    "kana": "マチノイドウケアサービスナベシマセンター",
    "address": "佐賀県佐賀市鍋島3丁目３番２０号鍋島シェストビル３階 鍋島シェストビル３階",
    "lat": 33.280252,
    "lng": 130.268476,
    "tel": "090-3737-4383",
    "url": "https://fukushinoie-saga.com/",
    "pref": "佐賀県",
    "city": "佐賀市",
    "category": "home_help",
    "serviceType": "訪問介護",
    "capacity": 0,
    "openDays": [
      "平日"
    ],
    "openDaysNote": ""
  },
  {
    "id": "4170101754",
    "name": "メティエ",
    "kana": "メティエ",
    "address": "大和町久池井853-5",
    "lat": 33.3160299,
    "lng": 130.2946121,
    "tel": "0952-60-1196",
    "url": "",
    "pref": "佐賀県",
    "city": "佐賀市",
    "category": "home_help",
    "serviceType": "訪問介護",
    "capacity": 0,
    "openDays": [
      "平日",
      "土曜日",
      "日曜日",
      "祝日"
    ],
    "openDaysNote": ""
  },
  {
    "id": "4150180018",
    "name": "ライフエイドホームヘルプサービス",
    "kana": "ライフエイドホームヘルプサービス",
    "address": "佐賀市久保泉町大字川久保5403",
    "lat": 33.3401702,
    "lng": 130.3239855,
    "tel": "0952-98-3377",
    "url": "http://seiyuukai.org/",
    "pref": "佐賀県",
    "city": "佐賀市",
    "category": "home_help",
    "serviceType": "訪問介護",
    "capacity": 0,
    "openDays": [
      "平日",
      "土曜日",
      "日曜日",
      "祝日"
    ],
    "openDaysNote": "※利用時間制限なし"
  },
  {
    "id": "4171000013",
    "name": "ロザリオの園　ホームヘルプサービス事業所",
    "kana": "ロザリオノソノ　ホームヘルプサービスジギョウショ",
    "address": "佐賀県佐賀市大和町大字久池井１３８６－２",
    "lat": 33.3257233,
    "lng": 130.2881707,
    "tel": "0952-62-0995",
    "url": "http://www.rosaryo.jp/",
    "pref": "佐賀県",
    "city": "佐賀市",
    "category": "home_help",
    "serviceType": "訪問介護",
    "capacity": 0,
    "openDays": [
      "平日",
      "土曜日",
      "日曜日",
      "祝日"
    ],
    "openDaysNote": "サービス計画書に沿った提供時間となる為、上記以外の時間帯でも対応可。"
  },
  {
    "id": "4170103644",
    "name": "介護　かんろ",
    "kana": "カイゴ　カンロ",
    "address": "佐賀県佐賀市北川副町大字新郷781",
    "lat": 33.2340301,
    "lng": 130.3119136,
    "tel": "070-2015-3370",
    "url": "kanro.230501@gmail.com",
    "pref": "佐賀県",
    "city": "佐賀市",
    "category": "home_help",
    "serviceType": "訪問介護",
    "capacity": 0,
    "openDays": [
      "平日",
      "土曜日",
      "祝日"
    ],
    "openDaysNote": ""
  },
  {
    "id": "4170100079",
    "name": "株式会社かほるケアサービス",
    "kana": "カブシキカイシャカホルケアサービス",
    "address": "佐賀市西田代２丁目４－１２",
    "lat": 33.2487163,
    "lng": 130.2878953,
    "tel": "0952-22-0708",
    "url": "http:www.kahoru-a.info/",
    "pref": "佐賀県",
    "city": "佐賀市",
    "category": "home_help",
    "serviceType": "訪問介護",
    "capacity": 0,
    "openDays": [
      "平日",
      "土曜日",
      "日曜日",
      "祝日"
    ],
    "openDaysNote": "１２月２９日～１月３日を除く"
  },
  {
    "id": "4170102851",
    "name": "合同会社絆（訪問介護絆）",
    "kana": "ゴウドウガイシャキズナ　（ホウモンカイゴ　キズナ）",
    "address": "佐賀県佐賀市西田代１－５－１０ファミーユM２０１号 ファミーユM２０１号",
    "lat": 33.2493215,
    "lng": 130.2861045,
    "tel": "0952-65-1806",
    "url": "",
    "pref": "佐賀県",
    "city": "佐賀市",
    "category": "home_help",
    "serviceType": "訪問介護",
    "capacity": 4,
    "openDays": [
      "平日",
      "土曜日",
      "日曜日",
      "祝日"
    ],
    "openDaysNote": "緊急時24時間対応いたします。"
  },
  {
    "id": "4170101531",
    "name": "社会福祉法人グリーンコープふくしサービスセンターびすけっと佐賀",
    "kana": "シャカイフクシホウジングリーンコープフクシサービスセンタービスケットサガ",
    "address": "佐賀市高木瀬東３丁目９番１３号",
    "lat": 33.2836773,
    "lng": 130.2950964,
    "tel": "0952-33-4450",
    "url": "http://www.fukushi-greencoop.or.jp/sprog/db/61",
    "pref": "佐賀県",
    "city": "佐賀市",
    "category": "home_help",
    "serviceType": "訪問介護",
    "capacity": 0,
    "openDays": [
      "平日"
    ],
    "openDaysNote": "上記以外のサービス提供についても、可能な限り相談に応じます。"
  },
  {
    "id": "4170100111",
    "name": "扇寿荘指定訪問介護センター",
    "kana": "センジュソウシテイホウモンカイゴセンター",
    "address": "佐賀市嘉瀬町大字中原２５８５番地",
    "lat": 33.2395133,
    "lng": 130.2537957,
    "tel": "0952-28-6166",
    "url": "",
    "pref": "佐賀県",
    "city": "佐賀市",
    "category": "home_help",
    "serviceType": "訪問介護",
    "capacity": 0,
    "openDays": [
      "平日",
      "土曜日",
      "祝日"
    ],
    "openDaysNote": "日曜日、年末年始(12／31～1／3)は休業"
  },
  {
    "id": "4170101994",
    "name": "長光園障害者支援センター",
    "kana": "チョウコウエンショウガイシャシエンセンター",
    "address": "佐賀県佐賀市兵庫南２丁目１６番３９号",
    "lat": 33.2640502,
    "lng": 130.3158916,
    "tel": "（０９５２）ー２９ー５２８",
    "url": "http://www.chokoen.com/",
    "pref": "佐賀県",
    "city": "佐賀市",
    "category": "home_help",
    "serviceType": "訪問介護",
    "capacity": 0,
    "openDays": [
      "平日",
      "土曜日",
      "日曜日",
      "祝日"
    ],
    "openDaysNote": ""
  },
  {
    "id": "4171000039",
    "name": "南鴎荘ホームヘルプサービス",
    "kana": "ナンオウソウホームヘルプサービス",
    "address": "佐賀市久保田町大字久富３４５９番地２",
    "lat": 33.2195266,
    "lng": 130.2382026,
    "tel": "0952-68-2136",
    "url": "https://www.nanousou.com",
    "pref": "佐賀県",
    "city": "佐賀市",
    "category": "home_help",
    "serviceType": "訪問介護",
    "capacity": 0,
    "openDays": [
      "平日",
      "土曜日",
      "祝日"
    ],
    "openDaysNote": ""
  },
  {
    "id": "4171000096",
    "name": "福寿園ホームヘルプサービスセンター",
    "kana": "フクジュエンホームヘルプサービスセンター",
    "address": "佐賀県佐賀市諸富町大字諸富津２０９番地３",
    "lat": 33.2197317,
    "lng": 130.3609971,
    "tel": "0952-47-5091",
    "url": "fukujukaisaga.com",
    "pref": "佐賀県",
    "city": "佐賀市",
    "category": "home_help",
    "serviceType": "訪問介護",
    "capacity": 0,
    "openDays": [
      "平日",
      "土曜日",
      "日曜日",
      "祝日"
    ],
    "openDaysNote": "24時間対応"
  },
  {
    "id": "4170102158",
    "name": "訪問介護　カームの里",
    "kana": "ホウモンカイゴ　カームノサト",
    "address": "佐賀県佐賀市富士町大字上熊川337番地4",
    "lat": 33.3631003760472,
    "lng": 130.23562406729,
    "tel": "0952-51-0770",
    "url": "",
    "pref": "佐賀県",
    "city": "佐賀市",
    "category": "home_help",
    "serviceType": "訪問介護",
    "capacity": 24,
    "openDays": [
      "平日",
      "土曜日",
      "日曜日",
      "祝日"
    ],
    "openDaysNote": ""
  },
  {
    "id": "4170101606",
    "name": "訪問介護　クローバー",
    "kana": "ホウモンカイゴ　クローバー",
    "address": "佐賀市高木瀬町大字長瀬１２４０番地１号",
    "lat": 33.2931873,
    "lng": 130.2825026,
    "tel": "0952-36-7222",
    "url": "",
    "pref": "佐賀県",
    "city": "佐賀市",
    "category": "home_help",
    "serviceType": "訪問介護",
    "capacity": 38,
    "openDays": [
      "平日",
      "土曜日",
      "日曜日",
      "祝日"
    ],
    "openDaysNote": "空き状況による"
  },
  {
    "id": "4170101440",
    "name": "訪問介護　つむぎ",
    "kana": "ホウモンカイゴ　ツムギ",
    "address": "佐賀市本庄町本庄264番地1小規模多機能ホーム　このはな内 小規模多機能ホーム　このはな内",
    "lat": 33.2380719248639,
    "lng": 130.292831685553,
    "tel": "0952-20-6003",
    "url": "",
    "pref": "佐賀県",
    "city": "佐賀市",
    "category": "home_help",
    "serviceType": "訪問介護",
    "capacity": 0,
    "openDays": [
      "平日",
      "土曜日",
      "祝日"
    ],
    "openDaysNote": "※日曜に関しては要相談"
  },
  {
    "id": "4170101564",
    "name": "訪問介護　ひまわり",
    "kana": "ホウモンカイゴ　ヒマワリ",
    "address": "佐賀市駅前中央二丁目９番１号",
    "lat": 33.2658791,
    "lng": 130.301738,
    "tel": "0952-36-7075",
    "url": "",
    "pref": "佐賀県",
    "city": "佐賀市",
    "category": "home_help",
    "serviceType": "訪問介護",
    "capacity": 0,
    "openDays": [
      "平日",
      "土曜日",
      "日曜日",
      "祝日"
    ],
    "openDaysNote": ""
  },
  {
    "id": "4170103677",
    "name": "訪問介護　ヒルビレッジ",
    "kana": "ホウモンカイゴ　ヒルビレッジ",
    "address": "佐賀県佐賀市兵庫町瓦町1096-10",
    "lat": 33.2657979,
    "lng": 130.3284219,
    "tel": "0952-97-5980",
    "url": "",
    "pref": "佐賀県",
    "city": "佐賀市",
    "category": "home_help",
    "serviceType": "訪問介護",
    "capacity": null,
    "openDays": [
      "平日",
      "土曜日",
      "日曜日",
      "祝日"
    ],
    "openDaysNote": ""
  },
  {
    "id": "4170101143",
    "name": "訪問介護　華みずき",
    "kana": "ホウモンカイゴ　ハナミズキ",
    "address": "佐賀市諸富町山領561-10",
    "lat": 33.2298788150187,
    "lng": 130.343073595107,
    "tel": "0952-47-4077",
    "url": "",
    "pref": "佐賀県",
    "city": "佐賀市",
    "category": "home_help",
    "serviceType": "訪問介護",
    "capacity": 0,
    "openDays": [
      "平日",
      "土曜日",
      "日曜日",
      "祝日"
    ],
    "openDaysNote": ""
  },
  {
    "id": "4170101044",
    "name": "訪問介護　春庵",
    "kana": "ホウモンカイゴ　シュンアン",
    "address": "佐賀市鍋島町蛎久１３１３番地",
    "lat": 33.2879155,
    "lng": 130.2805779,
    "tel": "0952-31-0724",
    "url": "http://www.2006shunan.sakura.ne.jp",
    "pref": "佐賀県",
    "city": "佐賀市",
    "category": "home_help",
    "serviceType": "訪問介護",
    "capacity": 0,
    "openDays": [
      "平日",
      "土曜日",
      "日曜日",
      "祝日"
    ],
    "openDaysNote": "但し、提供を求められた時は、営業時間以外においてのサービスの提供についても相談に応じる"
  },
  {
    "id": "4170102380",
    "name": "訪問介護かがやき",
    "kana": "ホウモンカイゴカガヤキ",
    "address": "大財6丁目1-1ｸﾞﾚｰｽﾌﾙ栄201 ｸﾞﾚｰｽﾌﾙ栄201",
    "lat": 33.2585925792921,
    "lng": 130.311940014064,
    "tel": "0952-97-6920",
    "url": "kagayaki2013＠outlook.jp",
    "pref": "佐賀県",
    "city": "佐賀市",
    "category": "home_help",
    "serviceType": "訪問介護",
    "capacity": 0,
    "openDays": [
      "平日",
      "土曜日",
      "日曜日",
      "祝日"
    ],
    "openDaysNote": "24時間対応可能な体制とする"
  },
  {
    "id": "4170101309",
    "name": "訪問介護ステーション　ケアビレッジ夢咲",
    "kana": "ホウモンカイゴステーション　ケアビレッジユメサキ",
    "address": "佐賀市兵庫北６丁目2-23ケアビレッジ夢咲 ケアビレッジ夢咲",
    "lat": 33.2733454,
    "lng": 130.3119035,
    "tel": "0952-20-0502",
    "url": "www.cv-yumesaki.com/",
    "pref": "佐賀県",
    "city": "佐賀市",
    "category": "home_help",
    "serviceType": "訪問介護",
    "capacity": 0,
    "openDays": [
      "平日",
      "土曜日",
      "日曜日",
      "祝日"
    ],
    "openDaysNote": ""
  },
  {
    "id": "4170103511",
    "name": "訪問介護ステーションあるば",
    "kana": "ホウモンカイゴステーションアルバ",
    "address": "佐賀県佐賀市日の出1-14-72-101",
    "lat": 33.2801194,
    "lng": 130.2976941,
    "tel": "0952-34-2800",
    "url": "作成中",
    "pref": "佐賀県",
    "city": "佐賀市",
    "category": "home_help",
    "serviceType": "訪問介護",
    "capacity": null,
    "openDays": [
      "平日",
      "土曜日",
      "日曜日",
      "祝日"
    ],
    "openDaysNote": ""
  },
  {
    "id": "4150180059",
    "name": "訪問介護ステーションエバーグリーン",
    "kana": "ホウモンカイゴステーションエバーグリーン",
    "address": "佐賀県佐賀市嘉瀬町中原1965-1",
    "lat": 33.2429048,
    "lng": 130.2587507,
    "tel": "0952-22-2300",
    "url": "http://www.shimada.or.jp/",
    "pref": "佐賀県",
    "city": "佐賀市",
    "category": "home_help",
    "serviceType": "訪問介護",
    "capacity": 0,
    "openDays": [
      "平日",
      "土曜日",
      "日曜日",
      "祝日"
    ],
    "openDaysNote": ""
  },
  {
    "id": "4170101911",
    "name": "訪問介護ステーション愛咲",
    "kana": "ホウモンカイゴステーションマナザシ",
    "address": "佐賀市水ヶ江二丁目7-23",
    "lat": 33.2492946,
    "lng": 130.3079935,
    "tel": "0952-23-3720",
    "url": "info@shida-hp.com",
    "pref": "佐賀県",
    "city": "佐賀市",
    "category": "home_help",
    "serviceType": "訪問介護",
    "capacity": null,
    "openDays": [],
    "openDaysNote": ""
  },
  {
    "id": "4170101895",
    "name": "訪問介護事業所　わいわい",
    "kana": "ホウモンカイゴジギョウショ　ワイワイ",
    "address": "佐賀市金立町大字金立799",
    "lat": 33.3243638517137,
    "lng": 130.303499327995,
    "tel": "0952-71-8250",
    "url": "https://sakou21.jp/",
    "pref": "佐賀県",
    "city": "佐賀市",
    "category": "home_help",
    "serviceType": "訪問介護",
    "capacity": 0,
    "openDays": [
      "平日",
      "土曜日",
      "日曜日",
      "祝日"
    ],
    "openDaysNote": "年末年始（12月29日から1月3日）の期間のサービスの提供については、状況に応じてご相談させていただく場合があります。"
  },
  {
    "id": "4150780015",
    "name": "ヘルパーステーションゆうあい",
    "kana": "ヘルパーステーションユウアイ",
    "address": "佐賀県鹿島市大字高津原2962番地1",
    "lat": 33.1114131378977,
    "lng": 130.095867238049,
    "tel": "0954-63-5533",
    "url": "https://www.yuaivillage.com/",
    "pref": "佐賀県",
    "city": "鹿島市",
    "category": "home_help",
    "serviceType": "訪問介護",
    "capacity": 0,
    "openDays": [
      "平日",
      "土曜日",
      "日曜日",
      "祝日"
    ],
    "openDaysNote": ""
  },
  {
    "id": "4170700050",
    "name": "好日の園ホームヘルプサービス",
    "kana": "コウジツノソノホームヘルプサービス",
    "address": "佐賀県鹿島市大字高津原667番地1",
    "lat": 33.1087689157065,
    "lng": 130.095377879376,
    "tel": "0954-63-0092",
    "url": "https://www.koujitu.or.jp/",
    "pref": "佐賀県",
    "city": "鹿島市",
    "category": "home_help",
    "serviceType": "訪問介護",
    "capacity": 0,
    "openDays": [],
    "openDaysNote": "なし"
  },
  {
    "id": "4170700142",
    "name": "有限会社　ひかり介護サービス",
    "kana": "ユウゲンガイシャ　ヒカリカイゴサービス",
    "address": "佐賀県鹿島市納富分1079番地1",
    "lat": 33.0935800700822,
    "lng": 130.093583057008,
    "tel": "0954-69-8172",
    "url": "http://hikari1079-1.com",
    "pref": "佐賀県",
    "city": "鹿島市",
    "category": "home_help",
    "serviceType": "訪問介護",
    "capacity": 0,
    "openDays": [
      "平日",
      "土曜日",
      "祝日"
    ],
    "openDaysNote": ""
  },
  {
    "id": "4171300371",
    "name": "セントケア小城",
    "kana": "セントケアオギ",
    "address": "佐賀県小城市小城町廿地217－1ミントハイツ高原１F ミントハイツ高原１F",
    "lat": 33.2983975880621,
    "lng": 130.207075824598,
    "tel": "0952-73-9057",
    "url": "http://www.saint-care.com",
    "pref": "佐賀県",
    "city": "小城市",
    "category": "home_help",
    "serviceType": "訪問介護",
    "capacity": 0,
    "openDays": [
      "平日",
      "土曜日",
      "日曜日",
      "祝日"
    ],
    "openDaysNote": ""
  },
  {
    "id": "4170400321",
    "name": "合同会社中島商事訪問介護さくら",
    "kana": "ゴウドウカイシャナカシマショウジホウモンカイゴサクラ",
    "address": "佐賀県小城市三日月町織島744-12一戸建て 一戸建て",
    "lat": 33.3042835,
    "lng": 130.22526,
    "tel": "0952-73-1635",
    "url": "",
    "pref": "佐賀県",
    "city": "小城市",
    "category": "home_help",
    "serviceType": "訪問介護",
    "capacity": 60,
    "openDays": [
      "平日",
      "土曜日"
    ],
    "openDaysNote": "利用者の都合を配慮。"
  },
  {
    "id": "4171300017",
    "name": "清水園ホームヘルプチームサービス",
    "kana": "キヨミズエンホームヘルプチームサービス",
    "address": "佐賀県小城市小城町８２６番地1",
    "lat": 33.300368,
    "lng": 130.2062686,
    "tel": "0952-72-1365",
    "url": "http://www,kiyonet@star,saganet,ne,jp",
    "pref": "佐賀県",
    "city": "小城市",
    "category": "home_help",
    "serviceType": "訪問介護",
    "capacity": 0,
    "openDays": [
      "平日",
      "土曜日",
      "日曜日",
      "祝日"
    ],
    "openDaysNote": ""
  },
  {
    "id": "4171300025",
    "name": "訪問介護事業　鳳寿苑",
    "kana": "ホウモンカイゴジギョウ　ホウジュエン",
    "address": "佐賀県小城市三日月町甲柳原68-1",
    "lat": 33.2726452,
    "lng": 130.2098894,
    "tel": "0952-72-8016",
    "url": "http://care-net.biz/41/houjyuen-hp/company.php",
    "pref": "佐賀県",
    "city": "小城市",
    "category": "home_help",
    "serviceType": "訪問介護",
    "capacity": 0,
    "openDays": [
      "平日",
      "土曜日",
      "日曜日",
      "祝日"
    ],
    "openDaysNote": ""
  },
  {
    "id": "4171200019",
    "name": "ヘルパーステーションプルメリア",
    "kana": "ヘルパーステーションプルメリア",
    "address": "佐賀県三養基郡上峰町大字前牟田1949番地",
    "lat": 33.3155901,
    "lng": 130.4167517,
    "tel": "0952-51-4617",
    "url": "http://www.esaga.jp/~gajyumaru.or.jp",
    "pref": "佐賀県",
    "city": "上峰町",
    "category": "home_help",
    "serviceType": "訪問介護",
    "capacity": 0,
    "openDays": [
      "平日",
      "土曜日",
      "日曜日",
      "祝日"
    ],
    "openDaysNote": "介護予防・日常生活支援総合事業については、営業時間　月～金8:30～17:30　（改行）定休日は、土・日・年末年始とする。（改行）指定訪問介護については営業日を毎日とする。"
  },
  {
    "id": "4171100011",
    "name": "こすもす苑　ホームヘルプサービス",
    "kana": "コスモスエン　ホームヘルプサービス",
    "address": "佐賀県神埼市千代田町用作2098-3",
    "lat": 33.2662847333511,
    "lng": 130.379134032912,
    "tel": "0952-44-5509",
    "url": "ｈｔｔｐｓ：//ｃｏｓｍｏｓｅｎ．ｃｏｍ",
    "pref": "佐賀県",
    "city": "神埼市",
    "category": "home_help",
    "serviceType": "訪問介護",
    "capacity": 0,
    "openDays": [
      "平日",
      "土曜日",
      "日曜日",
      "祝日"
    ],
    "openDaysNote": "特になし"
  },
  {
    "id": "4172000137",
    "name": "セントケア吉野ヶ里",
    "kana": "セントケアヨシノガリ",
    "address": "神埼市神埼町田道ヶ里2892-1",
    "lat": 33.3173037,
    "lng": 130.3800958,
    "tel": "0952-52-8911",
    "url": "",
    "pref": "佐賀県",
    "city": "神埼市",
    "category": "home_help",
    "serviceType": "訪問介護",
    "capacity": 0,
    "openDays": [
      "平日",
      "土曜日",
      "日曜日",
      "祝日"
    ],
    "openDaysNote": "３６５日２４時間サービス時間提供可能（ただし、事前に作成された居宅サービス計画に基づくものとする）"
  },
  {
    "id": "4172000244",
    "name": "訪問介護ステーション　バルーン",
    "kana": "ホウモンカイゴステーション　バルーン",
    "address": "佐賀県神埼市神埼町枝ヶ里61番地1",
    "lat": 33.3065832702177,
    "lng": 130.371648698442,
    "tel": "0952-97-9555",
    "url": "https://www.houmon-balloon.com/",
    "pref": "佐賀県",
    "city": "神埼市",
    "category": "home_help",
    "serviceType": "訪問介護",
    "capacity": 0,
    "openDays": [
      "平日"
    ],
    "openDaysNote": ""
  },
  {
    "id": "4170102844",
    "name": "訪問介護ステーションひだまり",
    "kana": "ホウモンカイゴステーションヒダマリ",
    "address": "佐賀県神埼市神埼町竹4694-1",
    "lat": 33.3121516160697,
    "lng": 130.355295113492,
    "tel": "080-1414-7794",
    "url": "http://hidamari-saga.com/",
    "pref": "佐賀県",
    "city": "神埼市",
    "category": "home_help",
    "serviceType": "訪問介護",
    "capacity": 0,
    "openDays": [
      "平日",
      "土曜日",
      "日曜日",
      "祝日"
    ],
    "openDaysNote": ""
  },
  {
    "id": "4170400024",
    "name": "社会福祉法人　多久市社会福祉協議会",
    "kana": "タクシシャカイフクシキョウギカイ",
    "address": "佐賀県多久市北多久町大字小侍４５－３１",
    "lat": 33.2865907,
    "lng": 130.1100801,
    "tel": "0952-75-3593",
    "url": "http://care‐net.biz/41/takushishakyo/",
    "pref": "佐賀県",
    "city": "多久市",
    "category": "home_help",
    "serviceType": "訪問介護",
    "capacity": 0,
    "openDays": [
      "平日",
      "祝日"
    ],
    "openDaysNote": "各個人のサービスについては、要介護認定により作成された個別訪問介護サービス計画に基づき、それぞれ本人のニーズに応じてサービスを提供する。"
  },
  {
    "id": "4170400016",
    "name": "天寿荘ホームヘルプサービス",
    "kana": "テンジュソウホームヘルプサービス",
    "address": "佐賀県多久市北多久町大字小侍132-6",
    "lat": 33.2887018,
    "lng": 130.0988867,
    "tel": "0952-74-3101",
    "url": "http://www.tenjyukai.com",
    "pref": "佐賀県",
    "city": "多久市",
    "category": "home_help",
    "serviceType": "訪問介護",
    "capacity": 0,
    "openDays": [
      "平日",
      "土曜日",
      "日曜日",
      "祝日"
    ],
    "openDaysNote": "電話等により、２４時間常時連絡が可能な体制としています。"
  },
  {
    "id": "4150480020",
    "name": "訪問介護センター　多久いこいの里",
    "kana": "ホウモンカイゴセンター　タクイコイノサト",
    "address": "佐賀県多久市北多久町多久原2512-24",
    "lat": 33.2848158,
    "lng": 130.1130743,
    "tel": "0952-75-3558",
    "url": "http://www.koujinkai.net/",
    "pref": "佐賀県",
    "city": "多久市",
    "category": "home_help",
    "serviceType": "訪問介護",
    "capacity": 0,
    "openDays": [
      "平日",
      "土曜日",
      "祝日"
    ],
    "openDaysNote": "ご利用なされる方の状況や相談に応じて営業終了時間の延長を致します。"
  },
  {
    "id": "4160390102",
    "name": "あいぞら訪問介護ステーション",
    "kana": "アイゾラホウモンカイゴステーション",
    "address": "田代外町６５５－２０",
    "lat": 33.3868447177096,
    "lng": 130.516611249017,
    "tel": "942844332",
    "url": "aizora@orion.ocn.ne.jp",
    "pref": "佐賀県",
    "city": "鳥栖市",
    "category": "home_help",
    "serviceType": "訪問介護",
    "capacity": 0,
    "openDays": [
      "平日",
      "土曜日",
      "日曜日"
    ],
    "openDaysNote": "※利用者の状況により対応あり"
  },
  {
    "id": "4170300307",
    "name": "ニチイケアセンター鳥栖",
    "kana": "ニチイケアセンタートス",
    "address": "鳥栖市大正町703-1",
    "lat": 33.3755135,
    "lng": 130.5158411,
    "tel": "0942-87-9357",
    "url": "http://www.nichigakkan.co.jp",
    "pref": "佐賀県",
    "city": "鳥栖市",
    "category": "home_help",
    "serviceType": "訪問介護",
    "capacity": 0,
    "openDays": [
      "平日",
      "土曜日",
      "日曜日",
      "祝日"
    ],
    "openDaysNote": "但し、休業日であってもサービスの提供を行う場合がある。"
  },
  {
    "id": "4170301248",
    "name": "パイン介護サービス",
    "kana": "パインカイゴサービス",
    "address": "佐賀県鳥栖市桜町1103番地7",
    "lat": 33.389258,
    "lng": 130.525491,
    "tel": "942505163",
    "url": "",
    "pref": "佐賀県",
    "city": "鳥栖市",
    "category": "home_help",
    "serviceType": "訪問介護",
    "capacity": 0,
    "openDays": [
      "平日",
      "土曜日",
      "日曜日",
      "祝日"
    ],
    "openDaysNote": "サービス利用時間については、相談に応じます。"
  },
  {
    "id": "4171200811",
    "name": "ヘルパーステーション　ゆかりん",
    "kana": "ヘルパーステーション　ユカリン",
    "address": "佐賀県鳥栖市宿町1421番地5",
    "lat": 33.3398,
    "lng": 130.4372481,
    "tel": "090－2717－2897",
    "url": "",
    "pref": "佐賀県",
    "city": "鳥栖市",
    "category": "home_help",
    "serviceType": "訪問介護",
    "capacity": 0,
    "openDays": [
      "平日",
      "土曜日",
      "祝日"
    ],
    "openDaysNote": "サービス提供時間は24時間とします。"
  },
  {
    "id": "4170301131",
    "name": "ヘルパーステーションえにし",
    "kana": "ヘルパーステーションエニシ",
    "address": "佐賀県鳥栖市下野町1391番地3",
    "lat": 33.331241,
    "lng": 130.5020216,
    "tel": "0942-50-8579",
    "url": "",
    "pref": "佐賀県",
    "city": "鳥栖市",
    "category": "home_help",
    "serviceType": "訪問介護",
    "capacity": 1,
    "openDays": [
      "平日",
      "土曜日",
      "日曜日",
      "祝日"
    ],
    "openDaysNote": ""
  },
  {
    "id": "4170300968",
    "name": "ヘルパーステーションろしゅう",
    "kana": "ヘルパーステーション　ロシュウ",
    "address": "佐賀県鳥栖市儀徳町2907-1",
    "lat": 33.3522119,
    "lng": 130.4942096,
    "tel": "0942-82-7133",
    "url": "https://rosyuu-rukkusu.com",
    "pref": "佐賀県",
    "city": "鳥栖市",
    "category": "home_help",
    "serviceType": "訪問介護",
    "capacity": 0,
    "openDays": [
      "平日",
      "土曜日",
      "日曜日",
      "祝日"
    ],
    "openDaysNote": "特になし"
  },
  {
    "id": "4170300778",
    "name": "ヘルパーステーション花ノ木",
    "kana": "ヘルパーステーションハナノキ",
    "address": "古賀町花ノ木554",
    "lat": 33.3864803,
    "lng": 130.4983642,
    "tel": "0942-87-8573",
    "url": "",
    "pref": "佐賀県",
    "city": "鳥栖市",
    "category": "home_help",
    "serviceType": "訪問介護",
    "capacity": 5,
    "openDays": [
      "平日",
      "土曜日",
      "日曜日",
      "祝日"
    ],
    "openDaysNote": "電話等により24時間常時連絡が可能な体制。"
  },
  {
    "id": "4170301123",
    "name": "ヘルパーステーション三介",
    "kana": "ヘルパーステーションサンスケ",
    "address": "佐賀県鳥栖市弥生が丘６−３３０",
    "lat": 33.4018546,
    "lng": 130.5144388,
    "tel": "0942-85-7444",
    "url": "",
    "pref": "佐賀県",
    "city": "鳥栖市",
    "category": "home_help",
    "serviceType": "訪問介護",
    "capacity": null,
    "openDays": [
      "平日",
      "土曜日",
      "日曜日",
      "祝日"
    ],
    "openDaysNote": ""
  },
  {
    "id": "4170300752",
    "name": "ヘルパーステーション人と木",
    "kana": "ヘルパーステーションヒトトキ",
    "address": "佐賀県鳥栖市原町1253-1",
    "lat": 33.3864110712026,
    "lng": 130.526254593848,
    "tel": "0942-82-2716",
    "url": "http://hitotoki-b.jp/",
    "pref": "佐賀県",
    "city": "鳥栖市",
    "category": "home_help",
    "serviceType": "訪問介護",
    "capacity": 0,
    "openDays": [
      "平日",
      "土曜日",
      "日曜日",
      "祝日"
    ],
    "openDaysNote": "２４時間・通年（３６５日）"
  },
  {
    "id": "4170300687",
    "name": "ホームヘルプけいしん",
    "kana": "ホームヘルプケイシン",
    "address": "佐賀県鳥栖市原町字恒石６８８－１",
    "lat": 33.3824769,
    "lng": 130.5258983,
    "tel": "0942-83-1075",
    "url": "http://www.keishinkai.jp",
    "pref": "佐賀県",
    "city": "鳥栖市",
    "category": "home_help",
    "serviceType": "訪問介護",
    "capacity": 0,
    "openDays": [
      "平日",
      "土曜日",
      "日曜日",
      "祝日"
    ],
    "openDaysNote": "・サービスの提供にあたっては、複数の訪問介護員が交替してサービスを提供いたします。（改行）・契約者は、当事業所が提供するサービスで定められたサービス以外の業務を事業所に依頼することは出来ません。（改行）・派遣するヘルパーは、派遣費用の金銭を受け取りません。ただし、お買い物等ご利用者による依頼については、金銭をお預かりするときに金額の確認、依頼の終了時に残金・領収及び物品等の確認をお願いいたします。"
  },
  {
    "id": "4170301016",
    "name": "ホームヘルプサービスセントポーリア",
    "kana": "ホームヘルプサービスセントポーリア",
    "address": "佐賀県鳥栖市真木町1990番地",
    "lat": 33.3613048,
    "lng": 130.5065247,
    "tel": "0942-87-5173",
    "url": "www15.ocn.ne.jp/~setojima",
    "pref": "佐賀県",
    "city": "鳥栖市",
    "category": "home_help",
    "serviceType": "訪問介護",
    "capacity": 0,
    "openDays": [
      "平日",
      "土曜日",
      "日曜日",
      "祝日"
    ],
    "openDaysNote": "24時間365日サービス提供できます"
  },
  {
    "id": "4171200043",
    "name": "ホームヘルプサービス寿楽園",
    "kana": "ホームヘルプサービスジュラクエン",
    "address": "佐賀県鳥栖市弥生が丘2丁目146番地1",
    "lat": 33.4048050847324,
    "lng": 130.523020504627,
    "tel": "0942-50-8740",
    "url": "http://www.jurakuen.jp/",
    "pref": "佐賀県",
    "city": "鳥栖市",
    "category": "home_help",
    "serviceType": "訪問介護",
    "capacity": 0,
    "openDays": [
      "平日",
      "土曜日",
      "日曜日",
      "祝日"
    ],
    "openDaysNote": ""
  },
  {
    "id": "4170300679",
    "name": "やよいがおかヘルパーステーション",
    "kana": "ヤヨイガオカヘルパーステーション",
    "address": "佐賀県鳥栖市弥生が丘2丁目1番光寿　やよいが丘ビル3階 光寿　やよいが丘ビル3階",
    "lat": 33.4033028,
    "lng": 130.5250834,
    "tel": "0942-87-7533",
    "url": "",
    "pref": "佐賀県",
    "city": "鳥栖市",
    "category": "home_help",
    "serviceType": "訪問介護",
    "capacity": 20,
    "openDays": [
      "平日"
    ],
    "openDaysNote": "訪問介護利用時間以外でも訪問介護計画書に沿って、サービスの利用は可能です。"
  },
  {
    "id": "4170301180",
    "name": "山津ヘルパーステーション",
    "kana": "ヤマツヘルパーステーション",
    "address": "佐賀県鳥栖市萱方町２７０番地",
    "lat": 33.3902339,
    "lng": 130.5000453,
    "tel": "0942-87-3560",
    "url": "http://www.sanzenkai.jp/",
    "pref": "佐賀県",
    "city": "鳥栖市",
    "category": "home_help",
    "serviceType": "訪問介護",
    "capacity": null,
    "openDays": [
      "平日",
      "土曜日",
      "日曜日",
      "祝日"
    ],
    "openDaysNote": ""
  },
  {
    "id": "4170300091",
    "name": "指定訪問介護すこやか",
    "kana": "シテイホウモンカイゴスコヤカ",
    "address": "佐賀県鳥栖市蔵上町６６３番地１",
    "lat": 33.3756495,
    "lng": 130.4979558,
    "tel": "0942-81-1665",
    "url": "https://carehome-sukoyaka.com/",
    "pref": "佐賀県",
    "city": "鳥栖市",
    "category": "home_help",
    "serviceType": "訪問介護",
    "capacity": 0,
    "openDays": [
      "平日",
      "土曜日",
      "日曜日",
      "祝日"
    ],
    "openDaysNote": "緊急時には規定時間以外にも対応致します。"
  },
  {
    "id": "4170300992",
    "name": "社会福祉法人グリーンコープふくしサービスセンターびすけっと鳥栖",
    "kana": "シャカイフクシホウジングリーンコープフクシサービスセンタービスケットトス",
    "address": "佐賀県鳥栖市養父町３５－１－２コーポヒロ１０３号室 コーポヒロ１０３号室",
    "lat": 33.3801348,
    "lng": 130.4999443,
    "tel": "0942-83-1944",
    "url": "",
    "pref": "佐賀県",
    "city": "鳥栖市",
    "category": "home_help",
    "serviceType": "訪問介護",
    "capacity": 0,
    "openDays": [
      "平日"
    ],
    "openDaysNote": "上記以外のサ-ビス提供についても、可能な限り相談に応じます。"
  },
  {
    "id": "4170300034",
    "name": "真心の園ホームヘルパーステーション",
    "kana": "マゴコロノソノホームヘルパーステーション",
    "address": "佐賀県鳥栖市村田町1250番地1",
    "lat": 33.3692489,
    "lng": 130.474957,
    "tel": "0942-81-1661",
    "url": "http://www.magokoro.or.jp",
    "pref": "佐賀県",
    "city": "鳥栖市",
    "category": "home_help",
    "serviceType": "訪問介護",
    "capacity": 0,
    "openDays": [
      "平日",
      "土曜日",
      "日曜日",
      "祝日"
    ],
    "openDaysNote": "２４時間対応　年中無休"
  },
  {
    "id": "4170300935",
    "name": "南風田代ヘルパーステーション",
    "kana": "ミナミカゼタシロヘルパーステーション",
    "address": "佐賀県鳥栖市田代外町699-4",
    "lat": 33.3876673,
    "lng": 130.5153255,
    "tel": "0942-50-8683",
    "url": "http://minamikaze-g.jp",
    "pref": "佐賀県",
    "city": "鳥栖市",
    "category": "home_help",
    "serviceType": "訪問介護",
    "capacity": 0,
    "openDays": [
      "平日",
      "土曜日",
      "日曜日",
      "祝日"
    ],
    "openDaysNote": ""
  },
  {
    "id": "4170301271",
    "name": "訪問介護こでまり",
    "kana": "ホウモンカイゴコデマリ",
    "address": "佐賀県鳥栖市立石町2069番地22",
    "lat": 33.3648126,
    "lng": 130.4687986,
    "tel": "8060222117",
    "url": "",
    "pref": "佐賀県",
    "city": "鳥栖市",
    "category": "home_help",
    "serviceType": "訪問介護",
    "capacity": 0,
    "openDays": [
      "平日",
      "土曜日",
      "日曜日",
      "祝日"
    ],
    "openDaysNote": "上記以外のサービス提供についても、可能な限り対応させていただきます。"
  },
  {
    "id": "4170300646",
    "name": "訪問介護ステーションライフサポ",
    "kana": "ホウモンカイゴステーション　ライフサポ",
    "address": "佐賀県鳥栖市田代本町９９８－１",
    "lat": 33.3916929075263,
    "lng": 130.521967586943,
    "tel": "0942－84－8087",
    "url": "https://totalcaresupports/com",
    "pref": "佐賀県",
    "city": "鳥栖市",
    "category": "home_help",
    "serviceType": "訪問介護",
    "capacity": null,
    "openDays": [
      "平日",
      "土曜日",
      "日曜日",
      "祝日"
    ],
    "openDaysNote": ""
  },
  {
    "id": "4170301347",
    "name": "訪問介護事業所　わらび",
    "kana": "ホウモンカイゴジギョウショ　ワラビ",
    "address": "佐賀県鳥栖市養父町497-1住宅型有料老人ホーム　わらび 住宅型有料老人ホーム　わらび",
    "lat": 33.3818239,
    "lng": 130.5003438,
    "tel": "0942-83-7737",
    "url": "osmedicare.net",
    "pref": "佐賀県",
    "city": "鳥栖市",
    "category": "home_help",
    "serviceType": "訪問介護",
    "capacity": 0,
    "openDays": [
      "平日",
      "土曜日",
      "日曜日",
      "祝日"
    ],
    "openDaysNote": ""
  },
  {
    "id": "4170201570",
    "name": "お世話宅配便",
    "kana": "オセワタクハイビン",
    "address": "佐賀県唐津市町田2丁目6-39有料老人ホーム自宅ぐらし 有料老人ホーム自宅ぐらし",
    "lat": 33.4398945716685,
    "lng": 129.965701139217,
    "tel": "0955-58-8816",
    "url": "https://osewa.jp/",
    "pref": "佐賀県",
    "city": "唐津市",
    "category": "home_help",
    "serviceType": "訪問介護",
    "capacity": 0,
    "openDays": [
      "平日",
      "土曜日",
      "日曜日",
      "祝日"
    ],
    "openDaysNote": "24時間365日対応可能です。ご相談ください。"
  },
  {
    "id": "4170200945",
    "name": "セントケア　唐津",
    "kana": "セントケア　カラツ",
    "address": "佐賀県唐津市和多田用尺6－34",
    "lat": 33.4377935322654,
    "lng": 129.978877080473,
    "tel": "0955-72-1176",
    "url": "http://www,care-mado,com",
    "pref": "佐賀県",
    "city": "唐津市",
    "category": "home_help",
    "serviceType": "訪問介護",
    "capacity": 75,
    "openDays": [
      "平日",
      "土曜日",
      "日曜日",
      "祝日"
    ],
    "openDaysNote": "サービス提供時間は、事前に居宅介護支援で計画された居宅サービス計画に基づくものとし、原則として緊急に依頼された訪問介護の提供は行わないものとする。（必要時は緊急時加算で対応）"
  },
  {
    "id": "4170200077",
    "name": "ニチイケアセンター唐津",
    "kana": "ニチイケアセンターカラツ",
    "address": "佐賀県唐津市鏡新開9番地",
    "lat": 33.4372317,
    "lng": 129.9966288,
    "tel": "0955-77-6100",
    "url": "http://www.nichiigakkan.co.jp",
    "pref": "佐賀県",
    "city": "唐津市",
    "category": "home_help",
    "serviceType": "訪問介護",
    "capacity": 0,
    "openDays": [
      "平日",
      "土曜日",
      "日曜日",
      "祝日"
    ],
    "openDaysNote": ""
  },
  {
    "id": "4170200325",
    "name": "ヘルパーステーション　からっと",
    "kana": "ヘルパーステーション　カラット",
    "address": "佐賀県唐津市相知町牟田部973-1",
    "lat": 33.3677226,
    "lng": 130.001076,
    "tel": "0955-51-8778",
    "url": "",
    "pref": "佐賀県",
    "city": "唐津市",
    "category": "home_help",
    "serviceType": "訪問介護",
    "capacity": 0,
    "openDays": [
      "平日",
      "土曜日",
      "日曜日",
      "祝日"
    ],
    "openDaysNote": "24時間365日対応。"
  },
  {
    "id": "4170200424",
    "name": "ヘルパーステーション　ひばり",
    "kana": "ヘルパーステーション　ヒバリ",
    "address": "佐賀県唐津市山田2824-5",
    "lat": 33.4219927105362,
    "lng": 129.951368111053,
    "tel": "0955-53-8207",
    "url": "http://link2005.jp/",
    "pref": "佐賀県",
    "city": "唐津市",
    "category": "home_help",
    "serviceType": "訪問介護",
    "capacity": 0,
    "openDays": [
      "平日",
      "土曜日",
      "祝日"
    ],
    "openDaysNote": "なし。"
  },
  {
    "id": "4170200929",
    "name": "ぽっかぽかハートケア東唐津",
    "kana": "ポッカポカハートケアヒガシカラツ",
    "address": "唐津市鏡新開９５番地",
    "lat": 33.4368757,
    "lng": 130.0007217,
    "tel": "0955-77-6700",
    "url": "",
    "pref": "佐賀県",
    "city": "唐津市",
    "category": "home_help",
    "serviceType": "訪問介護",
    "capacity": 0,
    "openDays": [
      "平日",
      "土曜日",
      "日曜日",
      "祝日"
    ],
    "openDaysNote": "営業時間：24時間対応"
  },
  {
    "id": "4170200028",
    "name": "栄荘ホームヘルプサービス",
    "kana": "サカエソウホームヘルプサービス",
    "address": "佐賀県唐津市栄町2588-19",
    "lat": 33.4493601,
    "lng": 129.9769635,
    "tel": "0955-75-2521",
    "url": "http://k-fukushikai.jp/sakae-gaiyou.html",
    "pref": "佐賀県",
    "city": "唐津市",
    "category": "home_help",
    "serviceType": "訪問介護",
    "capacity": 0,
    "openDays": [
      "平日",
      "土曜日",
      "日曜日",
      "祝日"
    ],
    "openDaysNote": "ただし、介護保険法に規定する早朝・夜間（午前６時～８時、夜間午後６時～午後１０時）の利用料は１．２５倍の利用負担金、深夜（午後１０時～午前６時）は。１．５０倍の利用負担金になります。"
  },
  {
    "id": "4170200606",
    "name": "株式会社からつヘルパーステーションあすなろ会",
    "kana": "カブシキガイシャカラツヘルパーステーションアスナロカイ",
    "address": "佐賀県唐津市熊原町3120-5",
    "lat": 33.4465918370384,
    "lng": 129.963536919327,
    "tel": "0955-74-7077",
    "url": "http://www.",
    "pref": "佐賀県",
    "city": "唐津市",
    "category": "home_help",
    "serviceType": "訪問介護",
    "capacity": null,
    "openDays": [
      "平日",
      "土曜日",
      "日曜日",
      "祝日"
    ],
    "openDaysNote": ""
  },
  {
    "id": "4150280016",
    "name": "佐賀県済生会指定訪問介護事業所",
    "kana": "サガケンサイセイカイシテイホウモンカイゴジギョウショ",
    "address": "佐賀県唐津市江川町694-1",
    "lat": 33.4540624467214,
    "lng": 129.963634714156,
    "tel": "0955-74-3201",
    "url": "http://www.saiseikai-karatsu.com",
    "pref": "佐賀県",
    "city": "唐津市",
    "category": "home_help",
    "serviceType": "訪問介護",
    "capacity": 0,
    "openDays": [
      "平日",
      "土曜日",
      "日曜日",
      "祝日"
    ],
    "openDaysNote": "早朝：6時～8時、　夜間18時～22時、　深夜：相談に応じます。"
  },
  {
    "id": "4171400072",
    "name": "作礼荘ホームヘルプサービス",
    "kana": "サクレイソウホームヘルプサービス",
    "address": "佐賀県唐津市相知町中山3544番地1",
    "lat": 33.3509978,
    "lng": 130.0159951,
    "tel": "0955-62-3903",
    "url": "karatsu＠k-fukushikai.jp",
    "pref": "佐賀県",
    "city": "唐津市",
    "category": "home_help",
    "serviceType": "訪問介護",
    "capacity": 0,
    "openDays": [
      "平日",
      "土曜日",
      "日曜日",
      "祝日"
    ],
    "openDaysNote": "毎日24時間対応"
  },
  {
    "id": "4110211978",
    "name": "指定訪問介護事業所河畔",
    "kana": "シテイホウモンカイゴジギョウショカハン",
    "address": "唐津市松南町１１９－２",
    "lat": 33.4387818,
    "lng": 130.0015755,
    "tel": "0955-77-6070",
    "url": "",
    "pref": "佐賀県",
    "city": "唐津市",
    "category": "home_help",
    "serviceType": "訪問介護",
    "capacity": 0,
    "openDays": [
      "平日",
      "土曜日",
      "日曜日",
      "祝日"
    ],
    "openDaysNote": ""
  },
  {
    "id": "4170201281",
    "name": "社会福祉法人ふくしサービスセンターびすけっと唐津",
    "kana": "シャカイフクシホウジングリーンコープフクシサービスセンタービスケットカラツ",
    "address": "佐賀県唐津市和多田本村5-29グリーンコープ生協からつセンター内 グリーンコープ生協からつセンター内",
    "lat": 33.4324289,
    "lng": 129.9832243,
    "tel": "0955-72-1377",
    "url": "g0welc@greencoop.co.jp",
    "pref": "佐賀県",
    "city": "唐津市",
    "category": "home_help",
    "serviceType": "訪問介護",
    "capacity": 0,
    "openDays": [
      "平日"
    ],
    "openDaysNote": "上記以外のサ-ビス提供についても、可能な限り相談に応じます。"
  },
  {
    "id": "4170200010",
    "name": "唐津市社会福祉協議会訪問介護唐津事業所",
    "kana": "カラツシシャカイフクシキョウギカイホウモンカイゴカラツジギョウショ",
    "address": "佐賀県唐津市二夕子3丁目155番地4唐津市高齢者ふれあい会館りふれ2F 唐津市高齢者ふれあい会館りふれ2F",
    "lat": 33.4630768172049,
    "lng": 129.957967927834,
    "tel": "0955-70-2335",
    "url": "http://www.karatsu-shakyo.or.jp/",
    "pref": "佐賀県",
    "city": "唐津市",
    "category": "home_help",
    "serviceType": "訪問介護",
    "capacity": 0,
    "openDays": [
      "平日",
      "土曜日",
      "日曜日",
      "祝日"
    ],
    "openDaysNote": "利用者の緊急時は、緊急用電話で対応。090-2713-5929（平山）"
  },
  {
    "id": "4171400049",
    "name": "浜玉荘ホームヘルプサービス",
    "kana": "ハマタマソウ　ホームヘルプサービス",
    "address": "佐賀県唐津市浜玉町東山田2399番地",
    "lat": 33.4300291,
    "lng": 130.0456136,
    "tel": "0955-56-8711",
    "url": "http://k-fukushikai.jp/h_about_riyou.html",
    "pref": "佐賀県",
    "city": "唐津市",
    "category": "home_help",
    "serviceType": "訪問介護",
    "capacity": 0,
    "openDays": [
      "平日",
      "土曜日",
      "日曜日",
      "祝日"
    ],
    "openDaysNote": "営業時間（24時間体制）　　（改行）【早朝】6：00～8：00　【昼間】8：00～18：00　【夜間】18：00～22：00　【深夜】22：00～翌日6：00（改行）＊早朝、夜間、深夜の時間帯については加算があります。"
  },
  {
    "id": "4170201406",
    "name": "宝寿荘ホームヘルプサービス",
    "kana": "ホウジュソウホームヘルプサービス",
    "address": "佐賀県唐津市呼子町殿ノ浦797-23",
    "lat": 33.531855,
    "lng": 129.8892372,
    "tel": "0955-82-4845",
    "url": "ｋ－fukushikai.jp",
    "pref": "佐賀県",
    "city": "唐津市",
    "category": "home_help",
    "serviceType": "訪問介護",
    "capacity": null,
    "openDays": [
      "平日",
      "土曜日",
      "日曜日",
      "祝日"
    ],
    "openDaysNote": ""
  },
  {
    "id": "4170200549",
    "name": "訪問介護サービスサリバン",
    "kana": "ホウモンカイゴサービスサリバン",
    "address": "佐賀県唐津市相知町佐里1646-13",
    "lat": 33.3417195,
    "lng": 129.9816504,
    "tel": "0955-62-4411",
    "url": "hikarinosono@vc1.people-i.ne.jp",
    "pref": "佐賀県",
    "city": "唐津市",
    "category": "home_help",
    "serviceType": "訪問介護",
    "capacity": 0,
    "openDays": [
      "平日",
      "土曜日",
      "日曜日",
      "祝日"
    ],
    "openDaysNote": "なし"
  },
  {
    "id": "4150280032",
    "name": "訪問介護サービスのぞみ",
    "kana": "ホウモンカイゴサービス　ノゾミ",
    "address": "佐賀県唐津市養母田553-1",
    "lat": 33.4127368,
    "lng": 129.9844631,
    "tel": "0955-73-7000",
    "url": "http://www.shujinkai.or.jp",
    "pref": "佐賀県",
    "city": "唐津市",
    "category": "home_help",
    "serviceType": "訪問介護",
    "capacity": 0,
    "openDays": [
      "平日",
      "土曜日",
      "日曜日",
      "祝日"
    ],
    "openDaysNote": "24時間対応"
  },
  {
    "id": "4110212687",
    "name": "訪問介護サービス岩本内科かなえ隊",
    "kana": "ホウモンカイゴサービス　イワモトナイカ　カナエタイ",
    "address": "佐賀県唐津市海岸通7182番地78",
    "lat": 33.4683136,
    "lng": 129.9573369,
    "tel": "0955-72-2869",
    "url": "",
    "pref": "佐賀県",
    "city": "唐津市",
    "category": "home_help",
    "serviceType": "訪問介護",
    "capacity": 40,
    "openDays": [
      "平日",
      "土曜日",
      "日曜日",
      "祝日"
    ],
    "openDaysNote": "年中無休。（改行）提供時間はご相談に応じます。"
  },
  {
    "id": "4170201299",
    "name": "訪問介護ステーションひだまり",
    "kana": "ホウモンカイゴステーションヒダマリ",
    "address": "佐賀県唐津市山田4025番地1",
    "lat": 33.4086722,
    "lng": 129.944688,
    "tel": "0955-78-3197",
    "url": "www.vf-life.com",
    "pref": "佐賀県",
    "city": "唐津市",
    "category": "home_help",
    "serviceType": "訪問介護",
    "capacity": 0,
    "openDays": [
      "平日",
      "土曜日",
      "日曜日",
      "祝日"
    ],
    "openDaysNote": ""
  },
  {
    "id": "4170201372",
    "name": "訪問介護事業所ウェルビー唐津",
    "kana": "ホウモンカイゴジギョウショウェルビーカラツ",
    "address": "佐賀県唐津市浜玉町浜崎字長田297-7",
    "lat": 33.4461803413964,
    "lng": 130.044179828697,
    "tel": "0955-56-2279",
    "url": "",
    "pref": "佐賀県",
    "city": "唐津市",
    "category": "home_help",
    "serviceType": "訪問介護",
    "capacity": 0,
    "openDays": [
      "平日",
      "土曜日",
      "日曜日",
      "祝日"
    ],
    "openDaysNote": "訪問介護サービスのご利用につきましては、上記時間以外でも承ります。"
  },
  {
    "id": "4171600028",
    "name": "ホームヘルプサービスセンター桜の園",
    "kana": "ホームヘルプサービスセンターサクラノソノ",
    "address": "佐賀県杵島郡白石町大字福富２３８７番地３",
    "lat": 33.192048383574,
    "lng": 130.198956200894,
    "tel": "0952-87-3939",
    "url": "http://www.sakuranosono.com/",
    "pref": "佐賀県",
    "city": "白石町",
    "category": "home_help",
    "serviceType": "訪問介護",
    "capacity": 5,
    "openDays": [
      "平日",
      "土曜日",
      "祝日"
    ],
    "openDaysNote": ""
  },
  {
    "id": "4151680024",
    "name": "訪問介護事業所　白い石",
    "kana": "ホウモンカイゴジギョウショ　シロイイシ",
    "address": "杵島郡白石町福吉1808",
    "lat": 33.185696,
    "lng": 130.1534424,
    "tel": "0952-71-5130",
    "url": "siroiisi@helen.ocn.ne.jp",
    "pref": "佐賀県",
    "city": "白石町",
    "category": "home_help",
    "serviceType": "訪問介護",
    "capacity": 0,
    "openDays": [
      "平日",
      "土曜日",
      "日曜日",
      "祝日"
    ],
    "openDaysNote": ""
  },
  {
    "id": "4170600771",
    "name": "OARETサービス",
    "kana": "オアレットサービス",
    "address": "佐賀県武雄市武雄町大字永島14377-13住宅型有料老人ホームOARETHOUSE 住宅型有料老人ホームOARETHOUSE",
    "lat": 33.1911028,
    "lng": 130.0371327,
    "tel": "0954-27-7777",
    "url": "https://oaret.com/",
    "pref": "佐賀県",
    "city": "武雄市",
    "category": "home_help",
    "serviceType": "訪問介護",
    "capacity": 0,
    "openDays": [
      "平日",
      "土曜日",
      "日曜日",
      "祝日"
    ],
    "openDaysNote": ""
  },
  {
    "id": "4170600482",
    "name": "あすなろ",
    "kana": "アスナロ",
    "address": "佐賀県武雄市北方町大字志久3242-8",
    "lat": 33.2217673402293,
    "lng": 130.068765522997,
    "tel": "0954-28-9127",
    "url": "",
    "pref": "佐賀県",
    "city": "武雄市",
    "category": "home_help",
    "serviceType": "訪問介護",
    "capacity": 0,
    "openDays": [
      "平日",
      "土曜日",
      "日曜日",
      "祝日"
    ],
    "openDaysNote": ""
  },
  {
    "id": "4170600458",
    "name": "セントケア武雄",
    "kana": "セントケアタケオ",
    "address": "武雄市大字武雄４６０４番地３スミレマンション１０２号室 スミレマンション１０２号室",
    "lat": 33.1870838478337,
    "lng": 130.028036266897,
    "tel": "0954-26-0200",
    "url": "http://www.saint-care.com/",
    "pref": "佐賀県",
    "city": "武雄市",
    "category": "home_help",
    "serviceType": "訪問介護",
    "capacity": 0,
    "openDays": [
      "平日",
      "土曜日",
      "日曜日",
      "祝日"
    ],
    "openDaysNote": "サービス提供時間は、事前に居宅介護支援及び介護予防支援事業所により計画された居宅サービス及び介護予防サービス計画に基づくものとし、原則として緊急に依頼された訪問介護及び介護予防訪問介護の提供は行わない。"
  },
  {
    "id": "4170600730",
    "name": "ニチイケアセンタ－武雄",
    "kana": "ニチイケアセンタ-タケオ",
    "address": "佐賀県武雄市大字昭和841前田事務所　B-2 前田事務所　B-2",
    "lat": 33.1949851594406,
    "lng": 130.030807804893,
    "tel": "0954-26-0171",
    "url": "",
    "pref": "佐賀県",
    "city": "武雄市",
    "category": "home_help",
    "serviceType": "訪問介護",
    "capacity": 40,
    "openDays": [
      "平日",
      "土曜日",
      "日曜日",
      "祝日"
    ],
    "openDaysNote": "365日24時間体制"
  },
  {
    "id": "4170600474",
    "name": "ヘルパーステーション道の家",
    "kana": "ヘルパーステイション　ミチノイエ",
    "address": "佐賀県武雄市武雄町大字富岡11083番地1",
    "lat": 33.2075947,
    "lng": 130.0230858,
    "tel": "0954-26-8100",
    "url": "http://npo-yutori.jp",
    "pref": "佐賀県",
    "city": "武雄市",
    "category": "home_help",
    "serviceType": "訪問介護",
    "capacity": 12,
    "openDays": [
      "平日",
      "土曜日",
      "日曜日",
      "祝日"
    ],
    "openDaysNote": ""
  },
  {
    "id": "4171600069",
    "name": "ホームヘルプサービス　そよかぜの杜",
    "kana": "ホームヘルプサービス　ソヨカゼノモリ",
    "address": "佐賀県武雄市山内町大字大野7045番地",
    "lat": 33.2058735,
    "lng": 129.9350154,
    "tel": "0954-45-5155",
    "url": "https://www.seiwafukushikai.net",
    "pref": "佐賀県",
    "city": "武雄市",
    "category": "home_help",
    "serviceType": "訪問介護",
    "capacity": 0,
    "openDays": [
      "平日",
      "土曜日",
      "日曜日",
      "祝日"
    ],
    "openDaysNote": ""
  },
  {
    "id": "4170600763",
    "name": "ホームヘルプ事業杏花苑",
    "kana": "ホームヘルプジギョウキョウカエン",
    "address": "佐賀県武雄市北方町大字志久4531-14",
    "lat": 33.2222204696569,
    "lng": 130.082763032541,
    "tel": "0954-36-5622",
    "url": "https://kyokaen.wixsite.com/nicelandkitagata",
    "pref": "佐賀県",
    "city": "武雄市",
    "category": "home_help",
    "serviceType": "訪問介護",
    "capacity": null,
    "openDays": [
      "平日",
      "土曜日",
      "日曜日",
      "祝日"
    ],
    "openDaysNote": ""
  },
  {
    "id": "4170600029",
    "name": "御船荘ホームヘルプサービスステーション",
    "kana": "ミフネソウホームヘルプサービスステーション",
    "address": "佐賀県武雄市東川登町大字永野4058番地5",
    "lat": 33.1624876,
    "lng": 130.0160403,
    "tel": "0954-23-6767",
    "url": "https://takeo-seiwafukushikai.jp/",
    "pref": "佐賀県",
    "city": "武雄市",
    "category": "home_help",
    "serviceType": "訪問介護",
    "capacity": 0,
    "openDays": [
      "平日",
      "土曜日",
      "日曜日",
      "祝日"
    ],
    "openDaysNote": ""
  },
  {
    "id": "4170600326",
    "name": "訪問介護サービス　ほほえみ",
    "kana": "ホウモンカイゴサービス　ホホエミ",
    "address": "佐賀県武雄市北方町大字大崎4０７０番地１",
    "lat": 33.2285388068407,
    "lng": 130.045785110112,
    "tel": "０９５４－３６－５８００",
    "url": "",
    "pref": "佐賀県",
    "city": "武雄市",
    "category": "home_help",
    "serviceType": "訪問介護",
    "capacity": 0,
    "openDays": [
      "平日",
      "土曜日",
      "日曜日",
      "祝日"
    ],
    "openDaysNote": "・サービスの提供は、３６５日、２４時間行います。"
  },
  {
    "id": "4170600052",
    "name": "有限会社　介護家事サービス武雄訪問介護事業所",
    "kana": "ユウゲンガイシャ　カイゴカジサービス　タケオホウモンカイゴジギョウショ",
    "address": "佐賀県武雄市武雄町大字武雄133番地1",
    "lat": 33.1876299358105,
    "lng": 130.002694606865,
    "tel": "0954-23-2095",
    "url": "https://www.kaigokaji-takeo.com/",
    "pref": "佐賀県",
    "city": "武雄市",
    "category": "home_help",
    "serviceType": "訪問介護",
    "capacity": 60,
    "openDays": [
      "平日",
      "土曜日",
      "日曜日",
      "祝日"
    ],
    "openDaysNote": "２４時間体制で利用できます。"
  },
  {
    "id": "4170600375",
    "name": "竜門堂訪問介護事業所爽風館",
    "kana": "リュウモンドウホウモンカイゴジギョウショソウフウカン",
    "address": "佐賀県武雄市山内町大字三間坂甲１４０４３番地",
    "lat": 33.1915748,
    "lng": 129.9549698,
    "tel": "0954-45-0650",
    "url": "",
    "pref": "佐賀県",
    "city": "武雄市",
    "category": "home_help",
    "serviceType": "訪問介護",
    "capacity": 0,
    "openDays": [
      "平日",
      "土曜日",
      "日曜日",
      "祝日"
    ],
    "openDaysNote": ""
  },
  {
    "id": "4171500012",
    "name": "ホームヘルパーステーション「ありた」",
    "kana": "ホームヘルパーステーション「アリタ」",
    "address": "佐賀県西松浦郡有田町南原甲６６４番地４",
    "lat": 33.1928833230617,
    "lng": 129.863922576374,
    "tel": "0955-41-1315",
    "url": "http://arita-shakyo.com/",
    "pref": "佐賀県",
    "city": "有田町",
    "category": "home_help",
    "serviceType": "訪問介護",
    "capacity": 0,
    "openDays": [
      "平日",
      "土曜日",
      "日曜日",
      "祝日"
    ],
    "openDaysNote": ""
  }
]