[
  {
    "id": "2873600239",
    "name": "JA兵庫西揖龍介護支援センター",
    "kana": "ジェイエイヒョウゴニシイリュウカイゴシエンセンター",
    "address": "兵庫県たつの市揖西町竹万97",
    "lat": 34.850487192136,
    "lng": 134.511856364665,
    "tel": "0791-64-8265",
    "url": "http://www.ja-hyogonishi.or.jp",
    "pref": "兵庫県",
    "city": "たつの市",
    "category": "home_help",
    "serviceType": "訪問介護",
    "capacity": 0,
    "openDays": [
      "平日",
      "土曜日",
      "日曜日",
      "祝日"
    ],
    "openDaysNote": "12月31日から1月3日は定休日、上記以外の時間帯については応相談"
  },
  {
    "id": "2873600353",
    "name": "あっぷる訪問介護事業所龍野",
    "kana": "アップルホウモンカイゴジギョウショタツノ",
    "address": "たつの市龍野町富永５０５－１",
    "lat": 34.8550477,
    "lng": 134.5492003,
    "tel": "0791-62-9799",
    "url": "http://www.apple-117.jp/",
    "pref": "兵庫県",
    "city": "たつの市",
    "category": "home_help",
    "serviceType": "訪問介護",
    "capacity": 0,
    "openDays": [
      "平日",
      "土曜日",
      "日曜日",
      "祝日"
    ],
    "openDaysNote": ""
  },
  {
    "id": "2873600494",
    "name": "たつの市社会福祉協議会ヘルパーステーション",
    "kana": "タツノシシャカイフクシキョウギカイヘルパーステーション",
    "address": "兵庫県たつの市龍野町富永428番地3ピアさぽーとセンター ピアさぽーとセンター",
    "lat": 34.8538640363245,
    "lng": 134.550349614681,
    "tel": "0791-63-5020",
    "url": "http://tatsuno-syakyo.jp/",
    "pref": "兵庫県",
    "city": "たつの市",
    "category": "home_help",
    "serviceType": "訪問介護",
    "capacity": 0,
    "openDays": [
      "平日",
      "土曜日",
      "日曜日",
      "祝日"
    ],
    "openDaysNote": "サービス提供時間以外については、その都度相談に応じます。（改行）１２月２９日から翌年１月３日までの間は、対応できない場合もあるが、相談に応じています。"
  },
  {
    "id": "2873600841",
    "name": "ヘルパーステーション　ひまわり",
    "kana": "ヘルパーステーション　ヒマワリ",
    "address": "兵庫県たつの市龍野町富永311-2",
    "lat": 34.8615343,
    "lng": 134.5487427,
    "tel": "0791-63-2486",
    "url": "",
    "pref": "兵庫県",
    "city": "たつの市",
    "category": "home_help",
    "serviceType": "訪問介護",
    "capacity": 0,
    "openDays": [
      "平日",
      "土曜日",
      "祝日"
    ],
    "openDaysNote": "ご利用者様の状態・希望等により対応する。"
  },
  {
    "id": "2873600254",
    "name": "ヘルパーステーションオアシス",
    "kana": "ヘルパーステーションオアシス",
    "address": "兵庫県たつの市龍野町島田669番地１",
    "lat": 34.8750049,
    "lng": 134.5544694,
    "tel": "0791-63-0528",
    "url": "",
    "pref": "兵庫県",
    "city": "たつの市",
    "category": "home_help",
    "serviceType": "訪問介護",
    "capacity": 0,
    "openDays": [
      "平日",
      "土曜日",
      "祝日"
    ],
    "openDaysNote": "利用者の希望により２４時間連絡可能な体制をとる。"
  },
  {
    "id": "2873601229",
    "name": "ヘルパーステーションかなで",
    "kana": "ヘルパーステーションカナデ",
    "address": "兵庫県たつの市龍野町北龍野２６－１",
    "lat": 34.8747295,
    "lng": 134.5431306,
    "tel": "0791-62-0240",
    "url": "",
    "pref": "兵庫県",
    "city": "たつの市",
    "category": "home_help",
    "serviceType": "訪問介護",
    "capacity": null,
    "openDays": [],
    "openDaysNote": ""
  },
  {
    "id": "2873600163",
    "name": "ホームヘルパーステーション助さん",
    "kana": "ホームヘルパーステションスケサン",
    "address": "兵庫県たつの市龍野町堂本260-1",
    "lat": 34.8570955917166,
    "lng": 134.558293163451,
    "tel": "0791-64-8855",
    "url": "http://www.kuwanomien.jp/",
    "pref": "兵庫県",
    "city": "たつの市",
    "category": "home_help",
    "serviceType": "訪問介護",
    "capacity": 0,
    "openDays": [
      "平日",
      "土曜日",
      "日曜日",
      "祝日"
    ],
    "openDaysNote": "時間外は随時相談に応じる"
  },
  {
    "id": "2873601013",
    "name": "ほがらかヘルパーステーション",
    "kana": "ホガラカヘルパーステーション",
    "address": "兵庫県たつの市揖保川町神戸北山126-1",
    "lat": 34.8272215,
    "lng": 134.5219904,
    "tel": "0791-76-7111",
    "url": "http://muroi-medical.or.jp/",
    "pref": "兵庫県",
    "city": "たつの市",
    "category": "home_help",
    "serviceType": "訪問介護",
    "capacity": 0,
    "openDays": [
      "平日",
      "土曜日",
      "日曜日",
      "祝日"
    ],
    "openDaysNote": "24時間対応"
  },
  {
    "id": "2873600304",
    "name": "リリーライフヘルパーステーションたつの",
    "kana": "リリーライフヘルパーステーションタツノ",
    "address": "兵庫県たつの市誉田町片吹８５番地の５",
    "lat": 34.8331376257372,
    "lng": 134.558416793254,
    "tel": "0791-64-9115",
    "url": "http://relielife.jp/",
    "pref": "兵庫県",
    "city": "たつの市",
    "category": "home_help",
    "serviceType": "訪問介護",
    "capacity": 0,
    "openDays": [
      "平日",
      "土曜日",
      "日曜日",
      "祝日"
    ],
    "openDaysNote": "２４時間３６５日"
  },
  {
    "id": "2874100015",
    "name": "株式会社のもと本店",
    "kana": "カブシキガイシャノモトホンテン",
    "address": "たつの市御津町黒崎２６８",
    "lat": 34.7795109,
    "lng": 134.5598444,
    "tel": "079-322-0878",
    "url": "https://nomoto-ayabe.com",
    "pref": "兵庫県",
    "city": "たつの市",
    "category": "home_help",
    "serviceType": "訪問介護",
    "capacity": 40,
    "openDays": [
      "平日",
      "土曜日",
      "日曜日",
      "祝日"
    ],
    "openDaysNote": "相談により早朝夜間の訪問も可能。"
  },
  {
    "id": "2873600072",
    "name": "西はりまグリーンホームホームヘルプサービス",
    "kana": "ニシハリマグリーンホームホームヘルプサービス",
    "address": "兵庫県たつの市誉田町福田７８０－１",
    "lat": 34.84955,
    "lng": 134.5769598,
    "tel": "0791-63-2880",
    "url": "http://www.enshoukai.com/",
    "pref": "兵庫県",
    "city": "たつの市",
    "category": "home_help",
    "serviceType": "訪問介護",
    "capacity": 40,
    "openDays": [
      "平日",
      "土曜日",
      "日曜日",
      "祝日"
    ],
    "openDaysNote": "上記営業日および時間外のサービス提供の必要性が生じた場合、事業所と契約者との話し合いにより調整いたします。"
  },
  {
    "id": "2873601104",
    "name": "訪問介護ステーションあかとんぼ",
    "kana": "ホウモンカイゴステーションアカトンボ",
    "address": "兵庫県たつの市龍野町島田20-1",
    "lat": 34.8801056,
    "lng": 134.5557657,
    "tel": "9071072864",
    "url": "",
    "pref": "兵庫県",
    "city": "たつの市",
    "category": "home_help",
    "serviceType": "訪問介護",
    "capacity": null,
    "openDays": [
      "平日",
      "土曜日",
      "日曜日",
      "祝日"
    ],
    "openDaysNote": "時間外でも相談によりサービス提供可能"
  },
  {
    "id": "2871000143",
    "name": "あしや聖徳園ホームヘルパーステーション",
    "kana": "ショウトクエン",
    "address": "芦屋市朝日ヶ丘町6番9号",
    "lat": 34.7435341023462,
    "lng": 135.306548557478,
    "tel": "0797-26-7664",
    "url": "http://www.shotokuen.or.jp/",
    "pref": "兵庫県",
    "city": "芦屋市",
    "category": "home_help",
    "serviceType": "訪問介護",
    "capacity": 0,
    "openDays": [
      "平日",
      "土曜日",
      "日曜日",
      "祝日"
    ],
    "openDaysNote": ""
  },
  {
    "id": "2871000218",
    "name": "エルホーム芦屋",
    "kana": "エルホームアシヤ",
    "address": "兵庫県芦屋市浜町１２番３号",
    "lat": 34.7259608,
    "lng": 135.3166861,
    "tel": "0797-35-2828",
    "url": "http://ellehome.jp/",
    "pref": "兵庫県",
    "city": "芦屋市",
    "category": "home_help",
    "serviceType": "訪問介護",
    "capacity": 0,
    "openDays": [
      "平日",
      "土曜日",
      "日曜日",
      "祝日"
    ],
    "openDaysNote": ""
  },
  {
    "id": "2871001760",
    "name": "グランダアシヤケアステーション",
    "kana": "グランダアシヤケアステーション",
    "address": "兵庫県芦屋市上宮川町1番14号",
    "lat": 34.7333272,
    "lng": 135.3083925,
    "tel": "0797-25-7131",
    "url": "http://www.benesse-style-care.co.jp/",
    "pref": "兵庫県",
    "city": "芦屋市",
    "category": "home_help",
    "serviceType": "訪問介護",
    "capacity": 0,
    "openDays": [
      "平日",
      "土曜日",
      "日曜日",
      "祝日"
    ],
    "openDaysNote": "サービスの提供は、３６５日、２４時間行います。"
  },
  {
    "id": "2871000242",
    "name": "ケアーコミュニケーションズ　芦屋",
    "kana": "ケアーコミュニケーションズ　アシヤ",
    "address": "兵庫県芦屋市船戸町３－２４－１ＭＴビル202号 ＭＴビル202号",
    "lat": 34.7349011377515,
    "lng": 135.305589298781,
    "tel": "0797-31-5622",
    "url": "",
    "pref": "兵庫県",
    "city": "芦屋市",
    "category": "home_help",
    "serviceType": "訪問介護",
    "capacity": 0,
    "openDays": [
      "平日",
      "土曜日",
      "日曜日",
      "祝日"
    ],
    "openDaysNote": "24時間年中無休"
  },
  {
    "id": "2871001083",
    "name": "シティインデックスホスピタリティ芦屋訪問介護事業所",
    "kana": "シティインデックスホスピタリティアシヤホウモンカイゴジギョウショ",
    "address": "芦屋市海洋町12番3号",
    "lat": 34.7136036,
    "lng": 135.3215412,
    "tel": "0797-25-2640",
    "url": "",
    "pref": "兵庫県",
    "city": "芦屋市",
    "category": "home_help",
    "serviceType": "訪問介護",
    "capacity": 0,
    "openDays": [
      "平日",
      "土曜日",
      "日曜日",
      "祝日"
    ],
    "openDaysNote": "相談によりサービス提供は365日、24時間実施可能。"
  },
  {
    "id": "2871001711",
    "name": "すみれケアサポート",
    "kana": "スミレケアサポート",
    "address": "兵庫県芦屋市茶屋之町12-14メインステージ芦屋茶屋之町103号 メインステージ芦屋茶屋之町103号",
    "lat": 34.7348032,
    "lng": 135.2971876,
    "tel": "0797-75-3582",
    "url": "http://sumirecaresupport.jp/",
    "pref": "兵庫県",
    "city": "芦屋市",
    "category": "home_help",
    "serviceType": "訪問介護",
    "capacity": 0,
    "openDays": [
      "平日",
      "土曜日",
      "日曜日"
    ],
    "openDaysNote": "サービス日時は利用者様の状況状態により異なります。"
  },
  {
    "id": "2871000879",
    "name": "なでしこケアセンター",
    "kana": "ナデシコケアセンター",
    "address": "芦屋市南宮町４－１４-101エクセレンス芦屋１０１号 エクセレンス芦屋１０１号",
    "lat": 34.7310351856631,
    "lng": 135.319622695523,
    "tel": "0797-23-7045",
    "url": "",
    "pref": "兵庫県",
    "city": "芦屋市",
    "category": "home_help",
    "serviceType": "訪問介護",
    "capacity": 0,
    "openDays": [
      "平日",
      "土曜日",
      "日曜日",
      "祝日"
    ],
    "openDaysNote": ""
  },
  {
    "id": "2871000291",
    "name": "にこにこ介護",
    "kana": "ニコニコカイゴ",
    "address": "兵庫県芦屋市上宮川町５－２",
    "lat": 34.7341379,
    "lng": 135.308934,
    "tel": "0797-31-2552",
    "url": "",
    "pref": "兵庫県",
    "city": "芦屋市",
    "category": "home_help",
    "serviceType": "訪問介護",
    "capacity": 0,
    "openDays": [
      "平日",
      "土曜日",
      "日曜日",
      "祝日"
    ],
    "openDaysNote": "上記時間外でも御相談に応じます。"
  },
  {
    "id": "2871001828",
    "name": "ニチイケアセンターうちでのこづち",
    "kana": "ニチイケアセンターウチデノコヅチ",
    "address": "打出小槌町4-6打出小槌館101号 打出小槌館101号",
    "lat": 34.732217733717,
    "lng": 135.312834779763,
    "tel": "0797-25-0750",
    "url": "http://www.nichiigakkan.co.jp",
    "pref": "兵庫県",
    "city": "芦屋市",
    "category": "home_help",
    "serviceType": "訪問介護",
    "capacity": 0,
    "openDays": [
      "平日"
    ],
    "openDaysNote": "居宅サービス計画により、休業日及び営業時間外であってもサービスを提供する場合があります。"
  },
  {
    "id": "2871000135",
    "name": "ニチイケアセンター芦屋",
    "kana": "ニチイケアセンターアシヤ",
    "address": "兵庫県芦屋市大原町12-16サンライズ芦屋102 サンライズ芦屋102",
    "lat": 34.7371487,
    "lng": 135.3085145,
    "tel": "0797-21-2540",
    "url": "http//www.nichiigakkan.co.jp",
    "pref": "兵庫県",
    "city": "芦屋市",
    "category": "home_help",
    "serviceType": "訪問介護",
    "capacity": 0,
    "openDays": [
      "平日"
    ],
    "openDaysNote": "居宅サービス計画により、休業日及び営業時間外であってもサービスを提供する場合があります。"
  },
  {
    "id": "2871000887",
    "name": "ヘルパーステーションあしや",
    "kana": "ヘルパーステーションアシヤ",
    "address": "芦屋市浜風町３１－３",
    "lat": 34.7181227,
    "lng": 135.3212218,
    "tel": "0797-23-7300",
    "url": "http://meirinfukushi.or.jp/ashiya/",
    "pref": "兵庫県",
    "city": "芦屋市",
    "category": "home_help",
    "serviceType": "訪問介護",
    "capacity": 0,
    "openDays": [
      "平日",
      "土曜日",
      "祝日"
    ],
    "openDaysNote": "状況に応じて、早朝や夕方以降の時間も対応させていただいておりますので、お気軽にご相談ください。"
  },
  {
    "id": "2871001273",
    "name": "まごころヘルパーステーション",
    "kana": "マゴコロヘルパーステーション",
    "address": "兵庫県芦屋市陽光町４－５８シニアライフパレス潮芦屋 シニアライフパレス潮芦屋",
    "lat": 34.7137198919054,
    "lng": 135.314816113878,
    "tel": "0797-26-8081",
    "url": "http://medicare-planning.jp/seniorlifepalace/index.php",
    "pref": "兵庫県",
    "city": "芦屋市",
    "category": "home_help",
    "serviceType": "訪問介護",
    "capacity": 36,
    "openDays": [
      "平日",
      "土曜日",
      "祝日"
    ],
    "openDaysNote": "営業日以外及び営業時間外のサービス提供については、必要に応じてサービスの提供を行う。"
  },
  {
    "id": "2871000366",
    "name": "マストケアセンター芦屋",
    "kana": "マストケアセンターアシヤ",
    "address": "芦屋市宮塚町1-8芦屋宮塚ハイツ504 芦屋宮塚ハイツ504",
    "lat": 34.7325307,
    "lng": 135.3090958,
    "tel": "0797-31-6002",
    "url": "https://mastocare.net/",
    "pref": "兵庫県",
    "city": "芦屋市",
    "category": "home_help",
    "serviceType": "訪問介護",
    "capacity": 0,
    "openDays": [
      "平日",
      "土曜日",
      "日曜日",
      "祝日"
    ],
    "openDaysNote": "通常のサービス提供時間外も相談可能"
  },
  {
    "id": "2871001133",
    "name": "メイプル",
    "kana": "メイプル",
    "address": "芦屋市春日町１7－１2１階 １階",
    "lat": 34.7330310515411,
    "lng": 135.319420248244,
    "tel": "0797-38-7863",
    "url": "http://www.comcare.co.jp",
    "pref": "兵庫県",
    "city": "芦屋市",
    "category": "home_help",
    "serviceType": "訪問介護",
    "capacity": 0,
    "openDays": [
      "平日",
      "土曜日",
      "日曜日",
      "祝日"
    ],
    "openDaysNote": ""
  },
  {
    "id": "2871001570",
    "name": "ライフサポートリアン",
    "kana": "ライフサポートリアン",
    "address": "兵庫県芦屋市打出町5番22メゾン打出201号 メゾン打出201号",
    "lat": 34.7319383,
    "lng": 135.3170261,
    "tel": "0797-61-7099",
    "url": "",
    "pref": "兵庫県",
    "city": "芦屋市",
    "category": "home_help",
    "serviceType": "訪問介護",
    "capacity": 0,
    "openDays": [
      "平日",
      "土曜日",
      "日曜日",
      "祝日"
    ],
    "openDaysNote": "休業日及び営業時間外であってもサービスを提供する場合があります。"
  },
  {
    "id": "2871001554",
    "name": "ルソナ訪問介護事業所",
    "kana": "ルソナホウモンカイゴジギョウショ",
    "address": "兵庫県芦屋市宮川町１－１８",
    "lat": 34.7290768703829,
    "lng": 135.310045086925,
    "tel": "0797-20-7285",
    "url": "https://rusona.jp",
    "pref": "兵庫県",
    "city": "芦屋市",
    "category": "home_help",
    "serviceType": "訪問介護",
    "capacity": 0,
    "openDays": [
      "平日",
      "土曜日",
      "日曜日",
      "祝日"
    ],
    "openDaysNote": "年末12月31日～年始1月1日は休み（改行）夜間のサービスに関して応相談"
  },
  {
    "id": "2871000861",
    "name": "ロジケアあしや",
    "kana": "ロジケアアシヤ",
    "address": "兵庫県芦屋市大原町4-10",
    "lat": 34.7358824072064,
    "lng": 135.310188134346,
    "tel": "0797-35-7114",
    "url": "http://logicare.co.jp",
    "pref": "兵庫県",
    "city": "芦屋市",
    "category": "home_help",
    "serviceType": "訪問介護",
    "capacity": 500,
    "openDays": [
      "平日",
      "土曜日",
      "日曜日",
      "祝日"
    ],
    "openDaysNote": ""
  },
  {
    "id": "2871001786",
    "name": "芦屋ハートフル訪問介護事業所",
    "kana": "アシヤハートフルホウモンカイゴジギョウショ",
    "address": "兵庫県芦屋市精道町８－２０芦屋市分庁舎３階 芦屋市分庁舎３階",
    "lat": 34.726415851895,
    "lng": 135.304728052115,
    "tel": "0797-38-6053",
    "url": "https://ashiya-shakyo.com/",
    "pref": "兵庫県",
    "city": "芦屋市",
    "category": "home_help",
    "serviceType": "訪問介護",
    "capacity": null,
    "openDays": [
      "平日",
      "土曜日",
      "日曜日",
      "祝日"
    ],
    "openDaysNote": ""
  },
  {
    "id": "2871001539",
    "name": "円訪問介護事業所",
    "kana": "マドカホウモンカイゴジギョウショ",
    "address": "兵庫県芦屋市大東町１０番１５号サニーマート２０３ サニーマート２０３",
    "lat": 34.7291217,
    "lng": 135.3213606,
    "tel": "0797-61-8730",
    "url": "",
    "pref": "兵庫県",
    "city": "芦屋市",
    "category": "home_help",
    "serviceType": "訪問介護",
    "capacity": 4,
    "openDays": [
      "平日",
      "土曜日",
      "日曜日",
      "祝日"
    ],
    "openDaysNote": "夜間早朝、緊急時は対応いたします。"
  },
  {
    "id": "2871001869",
    "name": "介護サービスフォーユー",
    "kana": "カイゴサービスフォーユー",
    "address": "兵庫県芦屋市打出小槌町8番15号打出小槌ビル1階西",
    "lat": 34.7315127086441,
    "lng": 135.3133071,
    "tel": "0797-35-2039",
    "url": "http://www.kaigo-foryou.co.jp",
    "pref": "兵庫県",
    "city": "芦屋市",
    "category": "home_help",
    "serviceType": "訪問介護",
    "capacity": 0,
    "openDays": [
      "平日",
      "土曜日",
      "日曜日",
      "祝日"
    ],
    "openDaysNote": "年中無休"
  },
  {
    "id": "2871000838",
    "name": "株式会社ともケアセンター",
    "kana": "カブシキガイシャトモケアセンター",
    "address": "芦屋市大原町12－24－101",
    "lat": 34.7364695379715,
    "lng": 135.308229437321,
    "tel": "0797-23-6393",
    "url": "http://hp.kaipoke.biz/zwg/",
    "pref": "兵庫県",
    "city": "芦屋市",
    "category": "home_help",
    "serviceType": "訪問介護",
    "capacity": 0,
    "openDays": [
      "平日",
      "土曜日",
      "日曜日",
      "祝日"
    ],
    "openDaysNote": "上記以上の時間でも相談に応じます。"
  },
  {
    "id": "2871000572",
    "name": "在宅ケアサービス　ソラスト芦屋",
    "kana": "ザイタクケアサービス　ソラストアシヤ",
    "address": "兵庫県芦屋市公光町9-7モントルービル202号 モントルービル202号",
    "lat": 34.7287471312981,
    "lng": 135.304302462496,
    "tel": "0797-38-6941",
    "url": "https://solasto-kaigo.com/care/area/post-15.html",
    "pref": "兵庫県",
    "city": "芦屋市",
    "category": "home_help",
    "serviceType": "訪問介護",
    "capacity": 0,
    "openDays": [
      "平日",
      "土曜日",
      "日曜日",
      "祝日"
    ],
    "openDaysNote": "人員等により、訪問時間等を相談させていただく場合があります。"
  },
  {
    "id": "2871001745",
    "name": "桜十字訪問介護ステーション芦屋",
    "kana": "サクラジュウジホウモンカイゴステーションアシヤ",
    "address": "松ノ内町7-3メゾン美貴301 メゾン美貴301",
    "lat": 34.3463251,
    "lng": 134.0518926,
    "tel": "0797-26-6733",
    "url": "https://www.sakurajyuji.jp/",
    "pref": "兵庫県",
    "city": "芦屋市",
    "category": "home_help",
    "serviceType": "訪問介護",
    "capacity": 61,
    "openDays": [
      "平日",
      "土曜日",
      "日曜日",
      "祝日"
    ],
    "openDaysNote": "利用者の希望により、上記の営業日、営業時間、サービス提供時間のほかにサービス提供する場合もある。"
  },
  {
    "id": "2871000127",
    "name": "地域福祉センター「ハーブあしや」",
    "kana": "チイキフクシセンター「ハーブアシヤ」",
    "address": "兵庫県芦屋市潮見町31番1号",
    "lat": 34.7161867,
    "lng": 135.3061901,
    "tel": "0797-34-9287",
    "url": "http://wwwkirakuen.or.jp",
    "pref": "兵庫県",
    "city": "芦屋市",
    "category": "home_help",
    "serviceType": "訪問介護",
    "capacity": 0,
    "openDays": [
      "平日",
      "土曜日",
      "日曜日",
      "祝日"
    ],
    "openDaysNote": "平常の時間帯（午前8時～午後6時）以外の時間帯でサービスを行う場合には次の割合で利用料金に割増料金が加算されます。（改行）・夜間（18：00～22：00）25％・早朝（6：00～8：00）25％・深夜（22：00～6：00）50％"
  },
  {
    "id": "2871000770",
    "name": "芙蓉合同会社",
    "kana": "フヨウゴウドウガイシャ",
    "address": "芦屋市朝日ヶ丘町37-24",
    "lat": 34.7485447,
    "lng": 135.3061033,
    "tel": "0797-32-2133",
    "url": "",
    "pref": "兵庫県",
    "city": "芦屋市",
    "category": "home_help",
    "serviceType": "訪問介護",
    "capacity": 10,
    "openDays": [
      "平日",
      "土曜日",
      "日曜日",
      "祝日"
    ],
    "openDaysNote": "可能なかぎり相談に応じます。"
  },
  {
    "id": "2871002024",
    "name": "訪問介護ＢＵＬＬ芦屋",
    "kana": "ホウモンカイゴブルアシヤ",
    "address": "兵庫県芦屋市東芦屋町３－６－１０５",
    "lat": 34.73759,
    "lng": 135.3030895,
    "tel": "0797-52-4119",
    "url": "",
    "pref": "兵庫県",
    "city": "芦屋市",
    "category": "home_help",
    "serviceType": "訪問介護",
    "capacity": null,
    "openDays": [
      "平日"
    ],
    "openDaysNote": ""
  },
  {
    "id": "2871000853",
    "name": "訪問介護ステーションレモン",
    "kana": "ホウモンカイゴステーションレモン",
    "address": "兵庫県芦屋市茶屋之町１２番１４号メインステージ芦屋茶屋之町１０２号室 メインステージ芦屋茶屋之町１０２号室",
    "lat": 34.7298528349336,
    "lng": 135.309168760327,
    "tel": "0797-34-8377",
    "url": "",
    "pref": "兵庫県",
    "city": "芦屋市",
    "category": "home_help",
    "serviceType": "訪問介護",
    "capacity": 16,
    "openDays": [
      "平日",
      "土曜日"
    ],
    "openDaysNote": "上記営業日、営業時間、サービス提供時間のほかについては、利用者の希望によりその都度相談によりサービスの提供をするとともに、電話、ファクシミリ等により２４時間常時連絡を取れる体制をとるものとする。"
  },
  {
    "id": "2871001141",
    "name": "訪問介護ちゃいむ",
    "kana": "ホウモンカイゴチャイム",
    "address": "兵庫県蘆屋市南宮町7-6-304アビタシオンパート2 アビタシオンパート2",
    "lat": 34.7293937328406,
    "lng": 135.318640106746,
    "tel": "0797-80-7883",
    "url": "https://r.goope.jp/kaigocyaimu/",
    "pref": "兵庫県",
    "city": "芦屋市",
    "category": "home_help",
    "serviceType": "訪問介護",
    "capacity": 0,
    "openDays": [
      "平日",
      "土曜日",
      "日曜日",
      "祝日"
    ],
    "openDaysNote": ""
  },
  {
    "id": "2873303560",
    "name": "CBCメディケアサービス",
    "kana": "シービーシーメディケアサービス",
    "address": "伊丹市寺本１丁目１３８番地",
    "lat": 34.7751687148136,
    "lng": 135.387633645369,
    "tel": "072-781-2500",
    "url": "",
    "pref": "兵庫県",
    "city": "伊丹市",
    "category": "home_help",
    "serviceType": "訪問介護",
    "capacity": 0,
    "openDays": [
      "平日",
      "土曜日",
      "日曜日",
      "祝日"
    ],
    "openDaysNote": ""
  },
  {
    "id": "2873303677",
    "name": "SAIYO訪問サービス",
    "kana": "サイヨウホウモンサービス",
    "address": "兵庫県伊丹市西台４丁目6-26　2F",
    "lat": 34.7790071,
    "lng": 135.4117701,
    "tel": "072-703-8315",
    "url": "https://saiyo-kaigo.com/",
    "pref": "兵庫県",
    "city": "伊丹市",
    "category": "home_help",
    "serviceType": "訪問介護",
    "capacity": null,
    "openDays": [
      "平日",
      "土曜日",
      "祝日"
    ],
    "openDaysNote": ""
  },
  {
    "id": "2873302646",
    "name": "ＳＯＭＰＯケア　伊丹北　訪問介護",
    "kana": "ソンポケアイタミキタ　ホウモンカイゴ",
    "address": "兵庫県伊丹市荒牧南2－8－5そんぽの家S伊丹北　1階 そんぽの家S伊丹北　1階",
    "lat": 34.8055923,
    "lng": 135.3822013,
    "tel": "072－780－5200",
    "url": "http://www.sompocare.com",
    "pref": "兵庫県",
    "city": "伊丹市",
    "category": "home_help",
    "serviceType": "訪問介護",
    "capacity": 0,
    "openDays": [
      "平日",
      "土曜日",
      "日曜日",
      "祝日"
    ],
    "openDaysNote": "24時間対応"
  },
  {
    "id": "2873303511",
    "name": "STEP　BY　STEP",
    "kana": "ステップバイステップ",
    "address": "兵庫県伊丹市西台５－６－２５パセオ相生１０３号室 パセオ相生１０３号室",
    "lat": 34.7778213,
    "lng": 135.4107043,
    "tel": "090-3894-5474",
    "url": "",
    "pref": "兵庫県",
    "city": "伊丹市",
    "category": "home_help",
    "serviceType": "訪問介護",
    "capacity": 0,
    "openDays": [
      "平日",
      "土曜日",
      "祝日"
    ],
    "openDaysNote": "年末年始はお休みを頂いております。"
  },
  {
    "id": "2873300145",
    "name": "アール・サポートセンター",
    "kana": "アール・サポートセンター",
    "address": "兵庫県伊丹市行基町4丁目55番地",
    "lat": 34.7771042,
    "lng": 135.4083299,
    "tel": "072-777-0119",
    "url": "https://aresupport.jp/",
    "pref": "兵庫県",
    "city": "伊丹市",
    "category": "home_help",
    "serviceType": "訪問介護",
    "capacity": 0,
    "openDays": [
      "平日",
      "土曜日",
      "日曜日",
      "祝日"
    ],
    "openDaysNote": "上記営業時間以外もご相談の上対応いたします。緊急時のご相談受付、訪問も行っております。"
  },
  {
    "id": "2873300616",
    "name": "あじさい居宅介護支援センター伊丹",
    "kana": "アジサイキョタクカイゴシエンセンターイタミ",
    "address": "兵庫県伊丹市南野3丁目1番18号",
    "lat": 34.7685275,
    "lng": 135.4068691,
    "tel": "072-781-3011",
    "url": "",
    "pref": "兵庫県",
    "city": "伊丹市",
    "category": "home_help",
    "serviceType": "訪問介護",
    "capacity": 0,
    "openDays": [
      "平日",
      "土曜日",
      "日曜日",
      "祝日"
    ],
    "openDaysNote": ""
  },
  {
    "id": "2873300426",
    "name": "あそか苑訪問介護事業所",
    "kana": "アソカエンホウモンカイゴジギョウショ",
    "address": "伊丹市瑞穂町6-46",
    "lat": 34.7914722792375,
    "lng": 135.402599967828,
    "tel": "072-785-2101",
    "url": "http://www.asokaen.or.jp",
    "pref": "兵庫県",
    "city": "伊丹市",
    "category": "home_help",
    "serviceType": "訪問介護",
    "capacity": 0,
    "openDays": [
      "平日",
      "土曜日",
      "祝日"
    ],
    "openDaysNote": "定休日・時間外の利用は相談に応じ実施しています。"
  },
  {
    "id": "2873303305",
    "name": "アナザースカイヘルパーステーション",
    "kana": "アナザースカイヘルパーステーション",
    "address": "兵庫県伊丹市山田1丁目4-10ビューラーMITA301 ビューラーMITA301",
    "lat": 34.7734102,
    "lng": 135.3900876,
    "tel": "０７２－７７３－０５１５",
    "url": "",
    "pref": "兵庫県",
    "city": "伊丹市",
    "category": "home_help",
    "serviceType": "訪問介護",
    "capacity": 0,
    "openDays": [
      "平日",
      "土曜日",
      "日曜日",
      "祝日"
    ],
    "openDaysNote": "上記時間外でも、訪問介護員の配置状況により対応は可能。"
  },
  {
    "id": "2873302174",
    "name": "エヴァ訪問介護ステーション",
    "kana": "エヴァホウモンカイゴステーション",
    "address": "中野1丁目105-15",
    "lat": 34.7883795173012,
    "lng": 135.38806293317,
    "tel": "072-780-3506",
    "url": "https://rahula.co.jp",
    "pref": "兵庫県",
    "city": "伊丹市",
    "category": "home_help",
    "serviceType": "訪問介護",
    "capacity": 0,
    "openDays": [
      "平日",
      "土曜日",
      "日曜日",
      "祝日"
    ],
    "openDaysNote": "現在は上記の時間での訪問となっておりますが、ご相談に応じて早朝夜間も対応可能"
  },
  {
    "id": "2873303669",
    "name": "エース稲野介護センター",
    "kana": "エースイナノカイゴセンター",
    "address": "稲野町２－７３",
    "lat": 34.7644812,
    "lng": 135.4139202,
    "tel": "072-773-4165",
    "url": "",
    "pref": "兵庫県",
    "city": "伊丹市",
    "category": "home_help",
    "serviceType": "訪問介護",
    "capacity": null,
    "openDays": [
      "平日"
    ],
    "openDaysNote": "２４時間電話対応可能"
  },
  {
    "id": "2873300772",
    "name": "オアシス千歳ヘルパーステーション",
    "kana": "オアシスチトセヘルパーステーション",
    "address": "兵庫県伊丹市中央４丁目４番２号",
    "lat": 34.7789278950494,
    "lng": 135.415252442853,
    "tel": "072-771-8702",
    "url": "http://ja-oasis.com/",
    "pref": "兵庫県",
    "city": "伊丹市",
    "category": "home_help",
    "serviceType": "訪問介護",
    "capacity": 180,
    "openDays": [
      "平日",
      "土曜日",
      "祝日"
    ],
    "openDaysNote": "ただし、早朝・夜間・日曜日・年末年始は相談に応じます。"
  },
  {
    "id": "2873303487",
    "name": "かたくりケアサポート",
    "kana": "カタクリケアサポート",
    "address": "兵庫県伊丹市昆陽8丁目21－1ー2階",
    "lat": 34.7775131,
    "lng": 135.3929966,
    "tel": "072－773－6210",
    "url": "http://www.katakuri.jp/",
    "pref": "兵庫県",
    "city": "伊丹市",
    "category": "home_help",
    "serviceType": "訪問介護",
    "capacity": null,
    "openDays": [
      "平日",
      "土曜日",
      "日曜日",
      "祝日"
    ],
    "openDaysNote": "時間外であっても必要に応じてケアに入らせていただいています。"
  },
  {
    "id": "2873301085",
    "name": "グリーンアルス伊丹　訪問介護事業所",
    "kana": "グリーンアルスイタミ　ホウモンカイゴジギョウショ",
    "address": "兵庫県　伊丹市西野３丁目２４０番地",
    "lat": 34.79083,
    "lng": 135.3754746,
    "tel": "072-779-6600",
    "url": "http://www.ryokushinkai.jp/",
    "pref": "兵庫県",
    "city": "伊丹市",
    "category": "home_help",
    "serviceType": "訪問介護",
    "capacity": 0,
    "openDays": [
      "平日",
      "土曜日",
      "祝日"
    ],
    "openDaysNote": "ただし、利用者で希望があれば対応しています。"
  },
  {
    "id": "2873303453",
    "name": "ケア21伊丹",
    "kana": "ケアニジュウイチイタミ",
    "address": "兵庫県伊丹市宮ノ前3丁目1-3浅岡ビル2F 浅岡ビル2F",
    "lat": 34.7834096,
    "lng": 135.4136446,
    "tel": "072-772-0621",
    "url": "",
    "pref": "兵庫県",
    "city": "伊丹市",
    "category": "home_help",
    "serviceType": "訪問介護",
    "capacity": 0,
    "openDays": [
      "平日",
      "土曜日",
      "日曜日",
      "祝日"
    ],
    "openDaysNote": "上記以外の時間はヘルパー確保出来る時は対応"
  },
  {
    "id": "2873303289",
    "name": "ｹｱｽﾃｰｼｮﾝﾅｵﾋﾞｯｸﾞ伊丹",
    "kana": "ケアステーションナオビッグイタミ",
    "address": "伊丹市寺本5丁目440番",
    "lat": 34.7832088937822,
    "lng": 135.389150241167,
    "tel": "072-773-8816",
    "url": "http://naobig.com",
    "pref": "兵庫県",
    "city": "伊丹市",
    "category": "home_help",
    "serviceType": "訪問介護",
    "capacity": null,
    "openDays": [
      "平日",
      "土曜日",
      "日曜日",
      "祝日"
    ],
    "openDaysNote": ""
  },
  {
    "id": "2873301010",
    "name": "ケアステーション　ゆずりは",
    "kana": "ケアステーション　ユズリハ",
    "address": "兵庫県伊丹市南本町1-2-10",
    "lat": 34.7761405,
    "lng": 135.4182038,
    "tel": "072-780-0525",
    "url": "http://www.yuzuriha.co.jp/",
    "pref": "兵庫県",
    "city": "伊丹市",
    "category": "home_help",
    "serviceType": "訪問介護",
    "capacity": 0,
    "openDays": [
      "平日",
      "土曜日",
      "日曜日",
      "祝日"
    ],
    "openDaysNote": "相談に応じています。"
  },
  {
    "id": "2873303255",
    "name": "ケアステーションヒューマン",
    "kana": "ケアステーションヒューマン",
    "address": "兵庫県伊丹市北伊丹8-10-6₋637",
    "lat": 34.7992336,
    "lng": 135.4153439,
    "tel": "072-747-4708",
    "url": "",
    "pref": "兵庫県",
    "city": "伊丹市",
    "category": "home_help",
    "serviceType": "訪問介護",
    "capacity": 0,
    "openDays": [
      "平日",
      "土曜日",
      "日曜日",
      "祝日"
    ],
    "openDaysNote": ""
  },
  {
    "id": "2873303644",
    "name": "すとろべりぃ",
    "kana": "ストロベリィ",
    "address": "兵庫県伊丹市荻野西1丁目6－40",
    "lat": 34.8026627813629,
    "lng": 135.392076689985,
    "tel": "072-764-7929",
    "url": "",
    "pref": "兵庫県",
    "city": "伊丹市",
    "category": "home_help",
    "serviceType": "訪問介護",
    "capacity": 0,
    "openDays": [
      "平日"
    ],
    "openDaysNote": ""
  },
  {
    "id": "2873303800",
    "name": "たいよう訪問介護ステーション",
    "kana": "タイヨウホウモンカイゴステーション",
    "address": "兵庫県伊丹市荒牧南1-2-8",
    "lat": 34.8045988,
    "lng": 135.3788086,
    "tel": "072-773-3720",
    "url": "",
    "pref": "兵庫県",
    "city": "伊丹市",
    "category": "home_help",
    "serviceType": "訪問介護",
    "capacity": null,
    "openDays": [
      "平日"
    ],
    "openDaysNote": ""
  },
  {
    "id": "2873303412",
    "name": "ちえの和ヘルパーステーション",
    "kana": "チエノワヘルパーステーション",
    "address": "兵庫県伊丹市鴻池5-6-6",
    "lat": 34.8017461,
    "lng": 135.3887317,
    "tel": "072-773-5770",
    "url": "http://chienowa-station.com/",
    "pref": "兵庫県",
    "city": "伊丹市",
    "category": "home_help",
    "serviceType": "訪問介護",
    "capacity": 0,
    "openDays": [
      "平日",
      "土曜日",
      "日曜日",
      "祝日"
    ],
    "openDaysNote": "年末年始はお休みをいただいていますが、ご事情のある方には個別にご相談させて頂いています。"
  },
  {
    "id": "2873300525",
    "name": "ハッピー介護センター",
    "kana": "ハッピーカイゴセンター",
    "address": "伊丹市御願塚８丁目１０番６号",
    "lat": 34.7658309,
    "lng": 135.409464,
    "tel": "072-785-8177",
    "url": "http://www.happy-corporation.jp",
    "pref": "兵庫県",
    "city": "伊丹市",
    "category": "home_help",
    "serviceType": "訪問介護",
    "capacity": 0,
    "openDays": [
      "平日",
      "土曜日",
      "日曜日",
      "祝日"
    ],
    "openDaysNote": ""
  },
  {
    "id": "2873303602",
    "name": "ひるけあ",
    "kana": "ヒルケア",
    "address": "兵庫県伊丹市中野東1-363内山ビル307 内山ビル307",
    "lat": 34.790570680052,
    "lng": 135.390121314729,
    "tel": "072-744-2282",
    "url": "http://hp.kaipoke.biz/ya8/index.html",
    "pref": "兵庫県",
    "city": "伊丹市",
    "category": "home_help",
    "serviceType": "訪問介護",
    "capacity": 300,
    "openDays": [
      "平日",
      "土曜日",
      "日曜日",
      "祝日"
    ],
    "openDaysNote": "時間外も必要に応じて対応可。"
  },
  {
    "id": "2873303719",
    "name": "ぶどうの木",
    "kana": "ブドウノキ",
    "address": "兵庫県伊丹市荒牧三丁目7番28号ヴェール伊丹C212号室 ヴェール伊丹C212号室",
    "lat": 34.8108375,
    "lng": 135.3797103,
    "tel": "072-776-1140",
    "url": "",
    "pref": "兵庫県",
    "city": "伊丹市",
    "category": "home_help",
    "serviceType": "訪問介護",
    "capacity": 0,
    "openDays": [
      "平日"
    ],
    "openDaysNote": "ただし、国民の祝日及び夏季休暇（8月13日～8月16日）､冬季休暇（12月29日～1月3日）の間は休業（改行）※夜勤対応可"
  },
  {
    "id": "2873302372",
    "name": "ヘルパーステーション　どんぐり",
    "kana": "ヘルパーステーション　ドングリ",
    "address": "池尻３丁目２２８番地",
    "lat": 34.7827506,
    "lng": 135.3834796,
    "tel": "072-741-8556",
    "url": "",
    "pref": "兵庫県",
    "city": "伊丹市",
    "category": "home_help",
    "serviceType": "訪問介護",
    "capacity": 0,
    "openDays": [
      "平日"
    ],
    "openDaysNote": "相談に応じます。"
  },
  {
    "id": "2873303685",
    "name": "ヘルパーステーション　結思",
    "kana": "ヘルパーステーション　ユイ",
    "address": "兵庫県伊丹市稲野町１－９４レファインドU　２０６号室 レファインドU　２０６号室",
    "lat": 34.7645525,
    "lng": 135.4162732,
    "tel": "０７２－７７３－６５５０",
    "url": "",
    "pref": "兵庫県",
    "city": "伊丹市",
    "category": "home_help",
    "serviceType": "訪問介護",
    "capacity": 0,
    "openDays": [
      "平日"
    ],
    "openDaysNote": ""
  },
  {
    "id": "2873303180",
    "name": "ヘルパーステーションＩＹＡＳＡＫＡ伊丹",
    "kana": "ヘルパーステーションイヤサカイタミ",
    "address": "兵庫県伊丹市野間北１－１２－６ボナール有堀　２０３号室 ボナール有堀　２０３号室",
    "lat": 34.771865790728,
    "lng": 135.394068744506,
    "tel": "072‐778‐2418",
    "url": "http://iyasaka.care/",
    "pref": "兵庫県",
    "city": "伊丹市",
    "category": "home_help",
    "serviceType": "訪問介護",
    "capacity": 33,
    "openDays": [],
    "openDaysNote": "サービス提供時間は24時間とする。"
  },
  {
    "id": "2873303792",
    "name": "ヘルパーステーションスイッチオン伊丹",
    "kana": "ヘルパーステーションスイッチオンイタミ",
    "address": "兵庫県伊丹市鴻池6丁目3-2-1",
    "lat": 34.7990007,
    "lng": 135.386024,
    "tel": "072-744-7826",
    "url": "",
    "pref": "兵庫県",
    "city": "伊丹市",
    "category": "home_help",
    "serviceType": "訪問介護",
    "capacity": 0,
    "openDays": [
      "平日",
      "土曜日",
      "祝日"
    ],
    "openDaysNote": ""
  },
  {
    "id": "2873303818",
    "name": "ヘルパーステーションりぼん",
    "kana": "ヘルパーステーションリボン",
    "address": "兵庫県伊丹市広畑2丁目46-1ルミエール広畑307号 ルミエール広畑307号",
    "lat": 34.7856412,
    "lng": 135.4008951,
    "tel": "072-746-2951",
    "url": "",
    "pref": "兵庫県",
    "city": "伊丹市",
    "category": "home_help",
    "serviceType": "訪問介護",
    "capacity": 60,
    "openDays": [
      "平日",
      "土曜日",
      "日曜日",
      "祝日"
    ],
    "openDaysNote": "利用者様の状況により延長の場合あり"
  },
  {
    "id": "2873300871",
    "name": "ヘルパーステーション川口",
    "kana": "ヘルパーステーションカワグチ",
    "address": "兵庫県伊丹市昆陽泉町１丁目１－３",
    "lat": 34.7744366,
    "lng": 135.4018997,
    "tel": "072-779-0063",
    "url": "",
    "pref": "兵庫県",
    "city": "伊丹市",
    "category": "home_help",
    "serviceType": "訪問介護",
    "capacity": 0,
    "openDays": [
      "平日"
    ],
    "openDaysNote": "★定休日及び営業時間外もヘルパー派遣を行っている場合がある（要相談）（改行）★電話連絡（072-779-0063)は転送電話または留守番電話その後折り返し連絡で対応している。"
  },
  {
    "id": "2873303859",
    "name": "ほほえむ訪問介護ステーション",
    "kana": "ホホエムホウモンカイゴステーション",
    "address": "伊丹市野間5丁目2—16",
    "lat": 34.7669469,
    "lng": 135.3931125,
    "tel": "06-6433-0033",
    "url": "http;//rahula.co.jp",
    "pref": "兵庫県",
    "city": "伊丹市",
    "category": "home_help",
    "serviceType": "訪問介護",
    "capacity": 0,
    "openDays": [
      "平日",
      "土曜日",
      "日曜日",
      "祝日"
    ],
    "openDaysNote": "必要によって深夜、早朝ケアの提供も可能。"
  },
  {
    "id": "2873302539",
    "name": "ボンセジュール伊丹ケアステーション",
    "kana": "ボンセジュールイタミケアステーション",
    "address": "兵庫県伊丹市中央1-2-25",
    "lat": 34.7810982,
    "lng": 135.4131265,
    "tel": "072-775-6567",
    "url": "http://www.benesse-style-care.co.jp/",
    "pref": "兵庫県",
    "city": "伊丹市",
    "category": "home_help",
    "serviceType": "訪問介護",
    "capacity": 0,
    "openDays": [
      "平日",
      "土曜日",
      "日曜日",
      "祝日"
    ],
    "openDaysNote": "24時間対応"
  },
  {
    "id": "2873304113",
    "name": "まほろばライフサポート",
    "kana": "マホロバライフサポート",
    "address": "兵庫県伊丹市稲野町3丁目30‐16",
    "lat": 34.7635036,
    "lng": 135.4147165,
    "tel": "072-768-9170",
    "url": "https://www.mahorobans.jp/",
    "pref": "兵庫県",
    "city": "伊丹市",
    "category": "home_help",
    "serviceType": "訪問介護",
    "capacity": null,
    "openDays": [
      "平日",
      "祝日"
    ],
    "openDaysNote": ""
  },
  {
    "id": "2873302083",
    "name": "やさしい手伊丹",
    "kana": "ヤサシイテイタミ",
    "address": "兵庫県伊丹市森本2-146インペリアル高山 インペリアル高山",
    "lat": 34.7823817,
    "lng": 135.432722,
    "tel": "072-767-7711",
    "url": "http://www.kkjc.jp/removal/estate/010yasasiiitami/index.html",
    "pref": "兵庫県",
    "city": "伊丹市",
    "category": "home_help",
    "serviceType": "訪問介護",
    "capacity": 0,
    "openDays": [
      "平日",
      "土曜日",
      "日曜日",
      "祝日"
    ],
    "openDaysNote": "訪問介護サービスについては、24時間・365日対応致します。（改行）サービスに関する連絡について、定休日の9：00～18：00は、緊急電話へ転送し対応致します。"
  },
  {
    "id": "2873303313",
    "name": "ライフサポートすみれ",
    "kana": "ライフサポートスミレ",
    "address": "兵庫県伊丹市荒牧南３丁目４番１３号",
    "lat": 34.8069404,
    "lng": 135.3836258,
    "tel": "072-786-5915",
    "url": "",
    "pref": "兵庫県",
    "city": "伊丹市",
    "category": "home_help",
    "serviceType": "訪問介護",
    "capacity": 0,
    "openDays": [
      "平日",
      "土曜日",
      "日曜日",
      "祝日"
    ],
    "openDaysNote": "時間外対応については要相談あり"
  },
  {
    "id": "2873300566",
    "name": "愛ケアセンター",
    "kana": "アイケアセンター",
    "address": "伊丹市寺本５丁目３４",
    "lat": 34.7787151,
    "lng": 135.3870905,
    "tel": "072-783-2177",
    "url": "http://www.aicare-center-itami.com/",
    "pref": "兵庫県",
    "city": "伊丹市",
    "category": "home_help",
    "serviceType": "訪問介護",
    "capacity": 0,
    "openDays": [
      "平日",
      "土曜日",
      "日曜日",
      "祝日"
    ],
    "openDaysNote": ""
  },
  {
    "id": "2873302919",
    "name": "愛さんさん",
    "kana": "アイサンサン",
    "address": "兵庫県伊丹市寺本3丁目175-1",
    "lat": 34.7777874,
    "lng": 135.3847852,
    "tel": "072-744-1271",
    "url": "http://hp.kaipoke.biz/s71/",
    "pref": "兵庫県",
    "city": "伊丹市",
    "category": "home_help",
    "serviceType": "訪問介護",
    "capacity": 10,
    "openDays": [
      "平日",
      "祝日"
    ],
    "openDaysNote": "12/26～1/3は年末年始として休ませて頂いております。（改行）やむを得ない場合は、ご相談に応じます。"
  },
  {
    "id": "2873303545",
    "name": "伊丹ゆうあい訪問介護",
    "kana": "イタミユウアイホウモンカイゴ",
    "address": "伊丹市荒牧6丁目29番7号輪廻館 輪廻館",
    "lat": 34.8113265,
    "lng": 135.3880521,
    "tel": "072-772-5800",
    "url": "http://seisyoukai-gr.or.jp/",
    "pref": "兵庫県",
    "city": "伊丹市",
    "category": "home_help",
    "serviceType": "訪問介護",
    "capacity": 0,
    "openDays": [
      "平日",
      "土曜日",
      "日曜日",
      "祝日"
    ],
    "openDaysNote": ""
  },
  {
    "id": "2873300335",
    "name": "伊丹市訪問介護事業所",
    "kana": "イタミシホウモンカイゴジギョウショ",
    "address": "伊丹市中野北4丁目2番11号中野ぬくもりの郷 中野ぬくもりの郷",
    "lat": 34.7934111593565,
    "lng": 135.380681387003,
    "tel": "072-780-2904",
    "url": "http://jigyoudan-itami-hyogo.jp/",
    "pref": "兵庫県",
    "city": "伊丹市",
    "category": "home_help",
    "serviceType": "訪問介護",
    "capacity": 0,
    "openDays": [
      "平日",
      "土曜日",
      "日曜日",
      "祝日"
    ],
    "openDaysNote": "早朝・深夜など時間帯によりサービス提供が困難な場合もありますが、まずはご相談ください。"
  },
  {
    "id": "2873300491",
    "name": "医療法人社団温新会訪問介護事業所コンスウェル",
    "kana": "イリョウホウジンシャダンオンシンカイホウモンカイゴジギョウショコンスウェル",
    "address": "兵庫県伊丹市中野西2-207",
    "lat": 34.7921106,
    "lng": 135.3843432,
    "tel": "072-785-1896",
    "url": "http://www.onsinkai.jp",
    "pref": "兵庫県",
    "city": "伊丹市",
    "category": "home_help",
    "serviceType": "訪問介護",
    "capacity": 0,
    "openDays": [
      "平日",
      "土曜日"
    ],
    "openDaysNote": ""
  },
  {
    "id": "2873302836",
    "name": "介護ステーションはな",
    "kana": "カイゴステーションハナ",
    "address": "兵庫県伊丹市鴻池2丁目12-12ラヴェール伊丹昆陽池B1002 ラヴェール伊丹昆陽池B1002",
    "lat": 34.7942244,
    "lng": 135.3878684,
    "tel": "072-744-3410",
    "url": "http://hp.kaipoke.biz/hyk/",
    "pref": "兵庫県",
    "city": "伊丹市",
    "category": "home_help",
    "serviceType": "訪問介護",
    "capacity": null,
    "openDays": [
      "平日",
      "土曜日",
      "日曜日",
      "祝日"
    ],
    "openDaysNote": ""
  },
  {
    "id": "2873301275",
    "name": "介護支援センター　あすなろ",
    "kana": "カイゴシエンセンター　アスナロ",
    "address": "兵庫県伊丹市昆陽6丁目45",
    "lat": 34.7793317,
    "lng": 135.397956,
    "tel": "072-770-2666",
    "url": "",
    "pref": "兵庫県",
    "city": "伊丹市",
    "category": "home_help",
    "serviceType": "訪問介護",
    "capacity": 0,
    "openDays": [
      "平日",
      "土曜日",
      "日曜日",
      "祝日"
    ],
    "openDaysNote": "必要時は利用者に応じて対応しています。"
  },
  {
    "id": "2873302588",
    "name": "介護事業所イエローベル",
    "kana": "カイゴジギョウショイエローベル",
    "address": "伊丹市南野５丁目８－１",
    "lat": 34.7677248,
    "lng": 135.4029113,
    "tel": "727850218",
    "url": "",
    "pref": "兵庫県",
    "city": "伊丹市",
    "category": "home_help",
    "serviceType": "訪問介護",
    "capacity": 0,
    "openDays": [
      "平日",
      "土曜日",
      "日曜日",
      "祝日"
    ],
    "openDaysNote": ""
  },
  {
    "id": "2873302513",
    "name": "株式会社　四ツ葉ケア・サポート",
    "kana": "カブシキガイシャ　ヨツバケア・サポート",
    "address": "兵庫県伊丹市昆陽泉町６丁目９－５８",
    "lat": 34.7762182,
    "lng": 135.3967618,
    "tel": "072-779-1866",
    "url": "",
    "pref": "兵庫県",
    "city": "伊丹市",
    "category": "home_help",
    "serviceType": "訪問介護",
    "capacity": 0,
    "openDays": [
      "平日"
    ],
    "openDaysNote": "２４時間対応（要相談）"
  },
  {
    "id": "2873302430",
    "name": "協同の苑　ケイメゾンときめきホームヘルプ",
    "kana": "キョウドウノソノ　ケイメゾントキメキ　ホームヘルプ",
    "address": "森本1丁目8-19",
    "lat": 34.7789376,
    "lng": 135.4292528,
    "tel": "072-777-0771",
    "url": "http://www.kyodo-no-sono.or.jp",
    "pref": "兵庫県",
    "city": "伊丹市",
    "category": "home_help",
    "serviceType": "訪問介護",
    "capacity": 0,
    "openDays": [
      "平日",
      "土曜日",
      "日曜日",
      "祝日"
    ],
    "openDaysNote": "基本の訪問時間は9：00～18：00です。早遅時間の対応についてはご相談下さい。"
  },
  {
    "id": "2873303321",
    "name": "光ヘルパーステーション",
    "kana": "ヒカリヘルパーステーション",
    "address": "兵庫県伊丹市昆陽南4丁目5番3号レジデンスM108号 レジデンスM108号",
    "lat": 34.7754433,
    "lng": 135.3937844,
    "tel": "072-764-5767",
    "url": "",
    "pref": "兵庫県",
    "city": "伊丹市",
    "category": "home_help",
    "serviceType": "訪問介護",
    "capacity": null,
    "openDays": [],
    "openDaysNote": "３６５日、２４時間"
  },
  {
    "id": "2873300764",
    "name": "在宅介護サービス　えすぷり",
    "kana": "ザイタクカイゴサービス　エスプリ",
    "address": "兵庫県伊丹市荒牧南１－１－１",
    "lat": 34.8037952,
    "lng": 135.3792099,
    "tel": "072-782-9227",
    "url": "",
    "pref": "兵庫県",
    "city": "伊丹市",
    "category": "home_help",
    "serviceType": "訪問介護",
    "capacity": 0,
    "openDays": [],
    "openDaysNote": "３６５日２４時間対応しています。"
  },
  {
    "id": "2873301432",
    "name": "在宅複合型施設　ぐろ～りあ",
    "kana": "ザイタクフクゴウガタシセツ　グロ～リア",
    "address": "兵庫県伊丹市北園１丁目１９番１在宅複合型施設ぐろ～りあ 在宅複合型施設ぐろ～りあ",
    "lat": 34.792719,
    "lng": 135.4161178,
    "tel": "072-777-3572",
    "url": "http://helkyo.com",
    "pref": "兵庫県",
    "city": "伊丹市",
    "category": "home_help",
    "serviceType": "訪問介護",
    "capacity": 0,
    "openDays": [
      "平日",
      "土曜日",
      "日曜日",
      "祝日"
    ],
    "openDaysNote": "大雨・洪水・暴風等により警報が発せられ、所定時間帯の訪問が困難と思われる場合は、訪問時間の変更もしくは臨時休業する事があります。"
  },
  {
    "id": "2873301556",
    "name": "星優訪問介護ステーション",
    "kana": "セイユウホウモンカイゴステーション",
    "address": "兵庫県伊丹市桜ヶ丘１丁目３番２３号星優クリニック 星優クリニック",
    "lat": 34.7837395,
    "lng": 135.4103185,
    "tel": "072-772-8186",
    "url": "http://seishokai-gr.or.jp/",
    "pref": "兵庫県",
    "city": "伊丹市",
    "category": "home_help",
    "serviceType": "訪問介護",
    "capacity": 0,
    "openDays": [
      "平日",
      "土曜日",
      "日曜日",
      "祝日"
    ],
    "openDaysNote": "時間帯に応じて夜朝加算あり"
  },
  {
    "id": "2873303404",
    "name": "誠ケアステーション",
    "kana": "マコトケアステーション",
    "address": "兵庫県伊丹市東野1丁目25第一久保マンション203 第一久保マンション203",
    "lat": 34.8005754,
    "lng": 135.4036998,
    "tel": "072-768-9279",
    "url": "http://www.makotocare.com/",
    "pref": "兵庫県",
    "city": "伊丹市",
    "category": "home_help",
    "serviceType": "訪問介護",
    "capacity": 0,
    "openDays": [
      "平日",
      "土曜日",
      "日曜日",
      "祝日"
    ],
    "openDaysNote": ""
  },
  {
    "id": "2873303990",
    "name": "訪問介護　一休伊丹",
    "kana": "ホウモンカイゴ　イッキュウイタミ",
    "address": "北伊丹3丁目126サンビレッジ405号室 サンビレッジ405号室",
    "lat": 34.7946398,
    "lng": 135.4179937,
    "tel": "072-769-5055",
    "url": "",
    "pref": "兵庫県",
    "city": "伊丹市",
    "category": "home_help",
    "serviceType": "訪問介護",
    "capacity": null,
    "openDays": [
      "平日"
    ],
    "openDaysNote": ""
  },
  {
    "id": "2873303347",
    "name": "訪問介護ステーション　こすもす",
    "kana": "ホウモンカイゴステーションコスモス",
    "address": "兵庫県伊丹市森本６丁目１２３葵荘１０４葵荘１０４ 葵荘１０４",
    "lat": 34.7760798,
    "lng": 135.4321725,
    "tel": "０７２－７６８－９５９５",
    "url": "https://cosmos-houmonkaigo.com",
    "pref": "兵庫県",
    "city": "伊丹市",
    "category": "home_help",
    "serviceType": "訪問介護",
    "capacity": 0,
    "openDays": [
      "平日",
      "土曜日",
      "祝日"
    ],
    "openDaysNote": "その他については、応相談とする。（改行）※利用者の要請に基づき夜間の対応を行うことができることとする"
  },
  {
    "id": "2873303784",
    "name": "訪問介護ステーションHIBISU伊丹",
    "kana": "ホウモンカイゴステーションハイビスイタミ",
    "address": "兵庫県伊丹市西台2丁目4番17号メゾンコプロス203号室",
    "lat": 34.7793834,
    "lng": 135.4110134,
    "tel": "072-764-9292",
    "url": "",
    "pref": "兵庫県",
    "city": "伊丹市",
    "category": "home_help",
    "serviceType": "訪問介護",
    "capacity": null,
    "openDays": [],
    "openDaysNote": ""
  },
  {
    "id": "2873303875",
    "name": "訪問介護ステーションはーとふる伊丹荒牧",
    "kana": "ホウモンカイゴステーションハートフルイタミアラマキ",
    "address": "兵庫県伊丹市荒牧南3丁目1-21",
    "lat": 34.8057996,
    "lng": 135.3846839,
    "tel": "072-785-1810",
    "url": "https://royalhome.heartfulcare.com/itami-aramaki/news/",
    "pref": "兵庫県",
    "city": "伊丹市",
    "category": "home_help",
    "serviceType": "訪問介護",
    "capacity": null,
    "openDays": [
      "平日",
      "土曜日",
      "日曜日",
      "祝日"
    ],
    "openDaysNote": ""
  },
  {
    "id": "2873303842",
    "name": "訪問介護フィットケア",
    "kana": "ホウモンカイゴフィットケア",
    "address": "荻野4丁目32",
    "lat": null,
    "lng": null,
    "tel": "072-744-1723",
    "url": "https://amistad-life.com/",
    "pref": "兵庫県",
    "city": "伊丹市",
    "category": "home_help",
    "serviceType": "訪問介護",
    "capacity": 24,
    "openDays": [
      "平日",
      "土曜日",
      "日曜日",
      "祝日"
    ],
    "openDaysNote": "電話等により24時間常時連絡が可能な体制をとっております"
  },
  {
    "id": "2873302778",
    "name": "訪問介護事業所　つどい伊丹",
    "kana": "ホウモンカイゴジギョウショ　ツドイイタミ",
    "address": "兵庫県伊丹市瑞ケ丘３－２４つどい伊丹 つどい伊丹",
    "lat": 34.7934308866084,
    "lng": 135.397498618945,
    "tel": "072-744-1955",
    "url": "http://www.seniorcircle.co.jp/",
    "pref": "兵庫県",
    "city": "伊丹市",
    "category": "home_help",
    "serviceType": "訪問介護",
    "capacity": 0,
    "openDays": [
      "平日",
      "祝日"
    ],
    "openDaysNote": ""
  },
  {
    "id": "2873301176",
    "name": "訪問介護事業所ぶる～む",
    "kana": "ホウモンカイゴジギョウショブル～ム",
    "address": "兵庫県伊丹市南野北1丁目３－４４南野ローズヴィラ１０２ 南野ローズヴィラ１０２",
    "lat": 34.7716771,
    "lng": 135.4038666,
    "tel": "072-779-9300",
    "url": "http://helkyo.sub.jp",
    "pref": "兵庫県",
    "city": "伊丹市",
    "category": "home_help",
    "serviceType": "訪問介護",
    "capacity": 0,
    "openDays": [
      "平日",
      "土曜日",
      "日曜日",
      "祝日"
    ],
    "openDaysNote": ""
  },
  {
    "id": "2873303826",
    "name": "訪問介護本舗つくし",
    "kana": "ホウモンカイゴホンポツクシ",
    "address": "兵庫県伊丹市南本町2-1-14202ラゴ・クラーロ　202 ラゴ・クラーロ　202",
    "lat": 34.7753102,
    "lng": 135.4183562,
    "tel": "072-764-5403",
    "url": "https://www.houmon-tukushi.com/",
    "pref": "兵庫県",
    "city": "伊丹市",
    "category": "home_help",
    "serviceType": "訪問介護",
    "capacity": 80,
    "openDays": [
      "平日",
      "土曜日",
      "日曜日",
      "祝日"
    ],
    "openDaysNote": "上記時間以外は要相談"
  },
  {
    "id": "2873301267",
    "name": "有限会社　きらら",
    "kana": "ユウゲンガイシャ　キララ",
    "address": "兵庫県伊丹市荒牧南２丁目１７番１２号",
    "lat": 34.8061394,
    "lng": 135.3795404,
    "tel": "072-781-3789",
    "url": "",
    "pref": "兵庫県",
    "city": "伊丹市",
    "category": "home_help",
    "serviceType": "訪問介護",
    "capacity": 10,
    "openDays": [
      "平日",
      "土曜日",
      "日曜日",
      "祝日"
    ],
    "openDaysNote": "12月30日から翌1月3日まで休み（要相談）"
  },
  {
    "id": "2873300418",
    "name": "有限会社　ケア・サポート・モリ",
    "kana": "ユウゲンガイシャ　ケア・サポート・モリ",
    "address": "兵庫県伊丹市南野１丁目４番３０号",
    "lat": 34.7668138,
    "lng": 135.4087717,
    "tel": "072-779-0492",
    "url": "https://www.care-mori.com/",
    "pref": "兵庫県",
    "city": "伊丹市",
    "category": "home_help",
    "serviceType": "訪問介護",
    "capacity": 0,
    "openDays": [
      "平日",
      "土曜日",
      "日曜日",
      "祝日"
    ],
    "openDaysNote": ""
  },
  {
    "id": "2873300582",
    "name": "有限会社　訪問介護事業所　ソフトサポート",
    "kana": "ユゲンガイシャホウモンカイゴジギョウショソフトサポート",
    "address": "伊丹市瑞ヶ丘4丁目51番地６",
    "lat": 34.7948382,
    "lng": 135.3964225,
    "tel": "072-785-0405",
    "url": "",
    "pref": "兵庫県",
    "city": "伊丹市",
    "category": "home_help",
    "serviceType": "訪問介護",
    "capacity": 0,
    "openDays": [
      "平日",
      "土曜日",
      "日曜日",
      "祝日"
    ],
    "openDaysNote": "ヘルパーの稼動状況により派遣できない場合がある"
  },
  {
    "id": "2872800848",
    "name": "スマイルサポートセンター国岡",
    "kana": "スマイルサポートセンタークニオカ",
    "address": "兵庫県加古郡稲美町国岡2-8-1",
    "lat": 34.7493169,
    "lng": 134.9125021,
    "tel": "079-497-1121",
    "url": "https://hinode.or.jp/",
    "pref": "兵庫県",
    "city": "稲美町",
    "category": "home_help",
    "serviceType": "訪問介護",
    "capacity": 0,
    "openDays": [
      "平日"
    ],
    "openDaysNote": ""
  },
  {
    "id": "2872800194",
    "name": "デイサ－ビスセンタ－ＪＡはなかご",
    "kana": "デイサ-ビスセンタ-　ジェイエイ　ハナカゴ",
    "address": "兵庫県加古郡稲美町加古2335番地の3",
    "lat": 34.7631638,
    "lng": 134.9074265,
    "tel": "079-496-5557",
    "url": "http://www.ja-hyogominami.com/kaigo_fukusi/ja_hanakago.html",
    "pref": "兵庫県",
    "city": "稲美町",
    "category": "home_help",
    "serviceType": "訪問介護",
    "capacity": 0,
    "openDays": [
      "平日",
      "土曜日",
      "日曜日",
      "祝日"
    ],
    "openDaysNote": ""
  },
  {
    "id": "2872800525",
    "name": "ヒューマニティーケアセンター稲美",
    "kana": "ヒューマニティーケアセンターイナミ",
    "address": "兵庫県加古郡稲美町国岡907",
    "lat": 34.7538705,
    "lng": 134.9101458,
    "tel": "079-492-9311",
    "url": "",
    "pref": "兵庫県",
    "city": "稲美町",
    "category": "home_help",
    "serviceType": "訪問介護",
    "capacity": 0,
    "openDays": [
      "平日",
      "土曜日",
      "日曜日",
      "祝日"
    ],
    "openDaysNote": "上記の営業日、営業時間、サービス提供時間のほか、電話等により24時間常時連絡、また（改行）必要に応じてサービス提供が可能な体制とする。"
  },
  {
    "id": "2872800152",
    "name": "稲美苑　ホームヘルプサービス",
    "kana": "イナミエン　ホームヘルプサービス",
    "address": "兵庫県加古郡稲美町国安字新開1256番地",
    "lat": 34.747089952341,
    "lng": 134.918318106946,
    "tel": "079-492-4002",
    "url": "https://hinode.or.jp",
    "pref": "兵庫県",
    "city": "稲美町",
    "category": "home_help",
    "serviceType": "訪問介護",
    "capacity": 0,
    "openDays": [
      "平日",
      "土曜日",
      "日曜日",
      "祝日"
    ],
    "openDaysNote": "申し込み受付時間　９時００分~１７時３０分（改行）（改行）時間外のサービスについても相談に応じます"
  },
  {
    "id": "2872800129",
    "name": "訪問介護事業所スマイル１７３",
    "kana": "ホウモンカイゴジギョウショスマイルイナミ",
    "address": "兵庫県加古郡稲美町加古５１４１番地",
    "lat": 34.7607835,
    "lng": 134.9075904,
    "tel": "079-492-0285",
    "url": "http://www.bb.banban.jp/inami-shakyo/__",
    "pref": "兵庫県",
    "city": "稲美町",
    "category": "home_help",
    "serviceType": "訪問介護",
    "capacity": 0,
    "openDays": [
      "平日",
      "土曜日",
      "祝日"
    ],
    "openDaysNote": "緊急対応は携帯電話にて対応。"
  },
  {
    "id": "2872201666",
    "name": "ＮＰＯ法人訪問介護ハバナケア",
    "kana": "エヌピオホウジンホウモカイゴハバナケア",
    "address": "兵庫県加古川市加古川町新在家二丁目274-4　サンロードビル6Ｆ",
    "lat": 34.7447958591704,
    "lng": 134.867572071828,
    "tel": "079-427-8268",
    "url": "",
    "pref": "兵庫県",
    "city": "加古川市",
    "category": "home_help",
    "serviceType": "訪問介護",
    "capacity": 15,
    "openDays": [
      "平日",
      "土曜日",
      "日曜日",
      "祝日"
    ],
    "openDaysNote": "利用者の希望がありましたら時間外のサービスも行っております。"
  },
  {
    "id": "2872204454",
    "name": "PetiteJam訪問介護ステーション",
    "kana": "プチジャムホウモンカイゴステーション",
    "address": "野口町良野1762住宅型有料老人ホームPetiteJam（プチジャム） 住宅型有料老人ホームPetiteJam（プチジャム）",
    "lat": 34.7554645,
    "lng": 134.8397054,
    "tel": "079-454-8835",
    "url": "https://www.petite-jam.com/",
    "pref": "兵庫県",
    "city": "加古川市",
    "category": "home_help",
    "serviceType": "訪問介護",
    "capacity": null,
    "openDays": [
      "平日"
    ],
    "openDaysNote": ""
  },
  {
    "id": "2872200965",
    "name": "あっぷる訪問介護事業所加古川",
    "kana": "アップルホウモンカイゴジギョウショカコガワ",
    "address": "兵庫県加古川市尾上町旭3丁目50",
    "lat": 34.7515201,
    "lng": 134.8182384,
    "tel": "079-426-1199",
    "url": "http://www.apple-117,jp/",
    "pref": "兵庫県",
    "city": "加古川市",
    "category": "home_help",
    "serviceType": "訪問介護",
    "capacity": 0,
    "openDays": [
      "平日",
      "土曜日",
      "日曜日",
      "祝日"
    ],
    "openDaysNote": "休業日　年末年始（12月30日～1月3日）"
  },
  {
    "id": "2872203225",
    "name": "あるこヘルパーステーション",
    "kana": "アルコヘルパーステーション",
    "address": "兵庫県加古川市野口町野口160-6",
    "lat": 34.750491325172,
    "lng": 134.859839974154,
    "tel": "079-427-3666",
    "url": "https://okrs.co.jp/",
    "pref": "兵庫県",
    "city": "加古川市",
    "category": "home_help",
    "serviceType": "訪問介護",
    "capacity": 0,
    "openDays": [
      "平日"
    ],
    "openDaysNote": "営業時間外でのサービス利用日・時間帯につきましては、ご相談ください。"
  },
  {
    "id": "2872203845",
    "name": "いろり",
    "kana": "イロリ",
    "address": "兵庫県加古川市野口町坂元88-1",
    "lat": 34.7578785,
    "lng": 134.8457434,
    "tel": "079-441-7312",
    "url": "",
    "pref": "兵庫県",
    "city": "加古川市",
    "category": "home_help",
    "serviceType": "訪問介護",
    "capacity": 0,
    "openDays": [],
    "openDaysNote": "対応する職員がいる場合は24時間対応可"
  },
  {
    "id": "2872200650",
    "name": "ヴィラ播磨　ホームヘルパーステーション",
    "kana": "ヴィラハリマ　ホームヘルパーステーション",
    "address": "兵庫県加古川市志方町成井１００番地",
    "lat": 34.8162181618391,
    "lng": 134.803247164418,
    "tel": "079-453-2100",
    "url": "https://harima.tokuyou.jp",
    "pref": "兵庫県",
    "city": "加古川市",
    "category": "home_help",
    "serviceType": "訪問介護",
    "capacity": 0,
    "openDays": [
      "平日",
      "土曜日",
      "日曜日",
      "祝日"
    ],
    "openDaysNote": "訪問時間に関しては、利用者の希望により延長可能"
  },
  {
    "id": "2872200841",
    "name": "エイジサポート",
    "kana": "エイジサポート",
    "address": "兵庫県加古川市尾上町長田524-8",
    "lat": 34.7402392042203,
    "lng": 134.824773496295,
    "tel": "079-422-0242",
    "url": "",
    "pref": "兵庫県",
    "city": "加古川市",
    "category": "home_help",
    "serviceType": "訪問介護",
    "capacity": 0,
    "openDays": [
      "平日",
      "祝日"
    ],
    "openDaysNote": ""
  },
  {
    "id": "2872204215",
    "name": "ケア21加古川",
    "kana": "ケアニジュウイチカコガワ",
    "address": "兵庫県加古川市加古川町溝之口755安本ビル２階南 安本ビル２階南",
    "lat": 34.7655324,
    "lng": 134.8404487,
    "tel": "079-425-2821",
    "url": "",
    "pref": "兵庫県",
    "city": "加古川市",
    "category": "home_help",
    "serviceType": "訪問介護",
    "capacity": 0,
    "openDays": [
      "平日",
      "土曜日",
      "日曜日",
      "祝日"
    ],
    "openDaysNote": ""
  },
  {
    "id": "2872202458",
    "name": "ケアサービスみらい",
    "kana": "ケアサービスミライ",
    "address": "兵庫県加古川市加古川町本町４６５",
    "lat": 34.770457,
    "lng": 134.8323276,
    "tel": "079-453-6100",
    "url": "",
    "pref": "兵庫県",
    "city": "加古川市",
    "category": "home_help",
    "serviceType": "訪問介護",
    "capacity": 0,
    "openDays": [
      "平日",
      "土曜日",
      "日曜日",
      "祝日"
    ],
    "openDaysNote": ""
  },
  {
    "id": "2872204165",
    "name": "ケアステーションあんじぇす加古川",
    "kana": "ケアステーションアンジェスカコガワ",
    "address": "兵庫県加古川市別府町新野辺3066アンジェス加古川 アンジェス加古川",
    "lat": 34.7298046825302,
    "lng": 134.835172884656,
    "tel": "079-490-7775",
    "url": "http://www.t-s-i.jp",
    "pref": "兵庫県",
    "city": "加古川市",
    "category": "home_help",
    "serviceType": "訪問介護",
    "capacity": 72,
    "openDays": [
      "平日",
      "土曜日",
      "日曜日",
      "祝日"
    ],
    "openDaysNote": "当該留意事項なし"
  },
  {
    "id": "2872204355",
    "name": "ケアステーションなないろの花",
    "kana": "ケアステーションナナイロノハナ",
    "address": "兵庫県加古川市野口町良野1604サンチビル101 サンチビル101",
    "lat": 34.7582701,
    "lng": 134.8425269,
    "tel": "079-497-7325",
    "url": "",
    "pref": "兵庫県",
    "city": "加古川市",
    "category": "home_help",
    "serviceType": "訪問介護",
    "capacity": null,
    "openDays": [
      "平日",
      "土曜日",
      "日曜日",
      "祝日"
    ],
    "openDaysNote": "時間外、休日のサービス提供は相談に応じる。また電話等による連絡は24時間可能とする。"
  },
  {
    "id": "2872203019",
    "name": "サポートプラス",
    "kana": "サポートプラス",
    "address": "兵庫県加古川市野口町長砂1330ー19",
    "lat": 34.7438181,
    "lng": 134.8456051,
    "tel": "079-421-3205",
    "url": "http://housesupportplus.com/",
    "pref": "兵庫県",
    "city": "加古川市",
    "category": "home_help",
    "serviceType": "訪問介護",
    "capacity": 0,
    "openDays": [
      "平日",
      "土曜日",
      "日曜日",
      "祝日"
    ],
    "openDaysNote": ""
  },
  {
    "id": "2872200528",
    "name": "せいりょう園ホームヘルパーステーション",
    "kana": "セイリョウエンホームヘルパーステーション",
    "address": "兵庫県加古川市野口町長砂95-32",
    "lat": 34.7497454,
    "lng": 134.8482519,
    "tel": "079-424-3433",
    "url": "http://seiryoen.or.jp",
    "pref": "兵庫県",
    "city": "加古川市",
    "category": "home_help",
    "serviceType": "訪問介護",
    "capacity": 0,
    "openDays": [
      "平日",
      "土曜日",
      "日曜日",
      "祝日"
    ],
    "openDaysNote": "毎日24時間を通じて、ケアプランに沿って指定された時間に訪問します。"
  },
  {
    "id": "2872203589",
    "name": "それいゆ訪問介護事業所別府",
    "kana": "ソレイユホウモンカイゴジギョウショベフ",
    "address": "兵庫県加古川市平岡町新在家1456-1",
    "lat": 34.7465175725985,
    "lng": 134.871240931009,
    "tel": "079-441-0102",
    "url": "www.hakuaif.or.jp/facilities/befu_smile.htm",
    "pref": "兵庫県",
    "city": "加古川市",
    "category": "home_help",
    "serviceType": "訪問介護",
    "capacity": 10,
    "openDays": [
      "平日",
      "土曜日",
      "日曜日",
      "祝日"
    ],
    "openDaysNote": "ただしサービス提供は、ケアプランの定める時間帯であれば、いつでも対応するものとする。"
  },
  {
    "id": "2872200783",
    "name": "ニチイケアセンターべふ",
    "kana": "ニチイケアセンターベフ",
    "address": "兵庫県加古川市別府町新野辺北町3丁目56-1",
    "lat": 34.7366493,
    "lng": 134.8384864,
    "tel": "079-441-2065",
    "url": "",
    "pref": "兵庫県",
    "city": "加古川市",
    "category": "home_help",
    "serviceType": "訪問介護",
    "capacity": null,
    "openDays": [
      "平日",
      "土曜日",
      "日曜日",
      "祝日"
    ],
    "openDaysNote": ""
  },
  {
    "id": "2872200395",
    "name": "ニチイケアセンター加古川",
    "kana": "ニチイケアセンターカコガワ",
    "address": "兵庫県加古川市加古川町溝之口700番地平成ビル5F 平成ビル5F",
    "lat": 34.7660517313646,
    "lng": 134.839736915344,
    "tel": "079-453-5231",
    "url": "http://www.nichiigakkan.co.jp",
    "pref": "兵庫県",
    "city": "加古川市",
    "category": "home_help",
    "serviceType": "訪問介護",
    "capacity": 0,
    "openDays": [
      "平日"
    ],
    "openDaysNote": "居宅サービス計画によっては、休業日及び営業時間以外であってもサービスを提供する場合があります。"
  },
  {
    "id": "2872202375",
    "name": "ニチイケアセンター平岡",
    "kana": "ニチイケアセンターヒラオカ",
    "address": "兵庫県加古川市平岡町新在家1359-1クリスタルハイツ1F西側クリスタルハイツ　1F西側 クリスタルハイツ　1F西側",
    "lat": 34.7452045,
    "lng": 134.8748912,
    "tel": "079-453-5760",
    "url": "http://www.nichiigakkan.co.jp",
    "pref": "兵庫県",
    "city": "加古川市",
    "category": "home_help",
    "serviceType": "訪問介護",
    "capacity": 0,
    "openDays": [
      "平日",
      "土曜日",
      "日曜日",
      "祝日"
    ],
    "openDaysNote": "居宅サービス計画によっては休業日及び営業時間外であってもサービスを提供する場合があります。"
  },
  {
    "id": "2872203803",
    "name": "ぬくもりヘルパーステーション",
    "kana": "ヌクモリヘルパーステーション",
    "address": "兵庫県加古川市加古川町中津850－5",
    "lat": 34.7718795,
    "lng": 134.8499068,
    "tel": "079－424－9020",
    "url": "https://nukumori.synnefo.shop",
    "pref": "兵庫県",
    "city": "加古川市",
    "category": "home_help",
    "serviceType": "訪問介護",
    "capacity": 0,
    "openDays": [
      "平日",
      "土曜日",
      "日曜日",
      "祝日"
    ],
    "openDaysNote": "サービス利用時間外の訪問については要相談"
  },
  {
    "id": "2872203464",
    "name": "ヘルパーステーション　たけのこ",
    "kana": "ヘルパーステーション　タケノコ",
    "address": "東神吉町砂部133",
    "lat": 34.779976,
    "lng": 134.8284591,
    "tel": "079-451-6782",
    "url": "http://takehana-kaigo.co.jp/",
    "pref": "兵庫県",
    "city": "加古川市",
    "category": "home_help",
    "serviceType": "訪問介護",
    "capacity": 0,
    "openDays": [
      "平日",
      "土曜日",
      "日曜日",
      "祝日"
    ],
    "openDaysNote": ""
  },
  {
    "id": "2872204488",
    "name": "ヘルパーステーション　ももの樹",
    "kana": "ヘルパーステーション　モモノキ",
    "address": "兵庫県加古川市加古川町稲屋444-4",
    "lat": 34.7567285,
    "lng": 134.8121274,
    "tel": "079-490-5551",
    "url": "",
    "pref": "兵庫県",
    "city": "加古川市",
    "category": "home_help",
    "serviceType": "訪問介護",
    "capacity": null,
    "openDays": [
      "平日",
      "土曜日",
      "日曜日",
      "祝日"
    ],
    "openDaysNote": ""
  },
  {
    "id": "2872202516",
    "name": "ヘルパーステーションあえる",
    "kana": "ヘルパーステーションアエル",
    "address": "野口町北野１２８９－２",
    "lat": 34.759534548998,
    "lng": 134.874649407669,
    "tel": "079-441-7690",
    "url": "https://www.a-lc.co.jp",
    "pref": "兵庫県",
    "city": "加古川市",
    "category": "home_help",
    "serviceType": "訪問介護",
    "capacity": 0,
    "openDays": [
      "平日",
      "土曜日",
      "日曜日",
      "祝日"
    ],
    "openDaysNote": "サービス提供は上記時間以外でも行います。"
  },
  {
    "id": "2872203316",
    "name": "ヘルパーステーションひだまりの里",
    "kana": "ヘルパーステーションヒダマリノサト",
    "address": "兵庫県加古川市尾上町池田294番地の2ハイツレインボー202号室 ハイツレインボー202号室",
    "lat": 34.735212347028,
    "lng": 134.826708756483,
    "tel": "079-451-6541",
    "url": "http://hidamari-onoueikeda.info",
    "pref": "兵庫県",
    "city": "加古川市",
    "category": "home_help",
    "serviceType": "訪問介護",
    "capacity": 0,
    "openDays": [
      "平日"
    ],
    "openDaysNote": ""
  },
  {
    "id": "2872204363",
    "name": "ヘルパーステーションゆうき",
    "kana": "ヘルパーステーションユウキ",
    "address": "兵庫県加古川市加古川町美乃利162-1アールサンビル2階 アールサンビル2階",
    "lat": 34.7635609,
    "lng": 134.8500731,
    "tel": "079-490-5524",
    "url": "https://group-kirameki.com",
    "pref": "兵庫県",
    "city": "加古川市",
    "category": "home_help",
    "serviceType": "訪問介護",
    "capacity": null,
    "openDays": [
      "平日",
      "土曜日",
      "祝日"
    ],
    "openDaysNote": ""
  },
  {
    "id": "2872204348",
    "name": "ヘルパーステーション陽まり",
    "kana": "ヘルパーステーションヒマリ",
    "address": "兵庫県加古川市東神吉町西井ノ口623-4",
    "lat": 34.785148,
    "lng": 134.8171581,
    "tel": "079-431-5678",
    "url": "",
    "pref": "兵庫県",
    "city": "加古川市",
    "category": "home_help",
    "serviceType": "訪問介護",
    "capacity": null,
    "openDays": [
      "平日",
      "祝日"
    ],
    "openDaysNote": "加古川市（改行）高砂市（改行）稲美町（改行）播磨町（改行）姫路市一部"
  },
  {
    "id": "2872200627",
    "name": "ホームケアー関西",
    "kana": "ホームケアーカンサイ",
    "address": "兵庫県加古川市加古川町備後385-4",
    "lat": 34.7587124040149,
    "lng": 134.820870886716,
    "tel": "079-423-1502",
    "url": "",
    "pref": "兵庫県",
    "city": "加古川市",
    "category": "home_help",
    "serviceType": "訪問介護",
    "capacity": 0,
    "openDays": [
      "平日",
      "土曜日",
      "日曜日",
      "祝日"
    ],
    "openDaysNote": "特になし"
  },
  {
    "id": "2872201831",
    "name": "ホームヘルパーステーション　なのはな加古川",
    "kana": "ホームヘルパーステーション　ナノハナカコガワ",
    "address": "加古川市野口町北野1238-11",
    "lat": 34.7591784787992,
    "lng": 134.879467583853,
    "tel": "079-451-6637",
    "url": "",
    "pref": "兵庫県",
    "city": "加古川市",
    "category": "home_help",
    "serviceType": "訪問介護",
    "capacity": 30,
    "openDays": [
      "平日",
      "土曜日",
      "日曜日",
      "祝日"
    ],
    "openDaysNote": "基本な時間はあるが、特に制限は設けておりません"
  },
  {
    "id": "2872200338",
    "name": "ホームヘルプサービス鹿児の郷",
    "kana": "ホームヘルプサービスカコノサト",
    "address": "加古川市平荘町山角1038-4",
    "lat": 34.8043182,
    "lng": 134.873174,
    "tel": "079-428-1765",
    "url": "https://ftk1998.or.jp/",
    "pref": "兵庫県",
    "city": "加古川市",
    "category": "home_help",
    "serviceType": "訪問介護",
    "capacity": 0,
    "openDays": [
      "平日",
      "土曜日",
      "祝日"
    ],
    "openDaysNote": "年末年始(12月30日～1月3日）は休み"
  },
  {
    "id": "2872200502",
    "name": "ホームヘルプサービス万亀園",
    "kana": "ホームヘルプサービスマンキエン",
    "address": "兵庫県加古川市野口町水足１０７-１",
    "lat": 34.7623054,
    "lng": 134.8697162,
    "tel": "079-426-8226",
    "url": "https://www.mankikai.org",
    "pref": "兵庫県",
    "city": "加古川市",
    "category": "home_help",
    "serviceType": "訪問介護",
    "capacity": 0,
    "openDays": [
      "平日",
      "祝日"
    ],
    "openDaysNote": ""
  },
  {
    "id": "2872204199",
    "name": "まごの手",
    "kana": "マゴノテ",
    "address": "兵庫県加古川市平岡町つつじ野2番21",
    "lat": 34.742115,
    "lng": 134.8725934,
    "tel": "079-423-7376",
    "url": "",
    "pref": "兵庫県",
    "city": "加古川市",
    "category": "home_help",
    "serviceType": "訪問介護",
    "capacity": 0,
    "openDays": [
      "平日"
    ],
    "openDaysNote": ""
  },
  {
    "id": "2872200049",
    "name": "みどり園",
    "kana": "ミドリエン",
    "address": "兵庫県加古川市平岡町土山４２３－９",
    "lat": 34.7284594,
    "lng": 134.8961838,
    "tel": "078-941-0306",
    "url": "taishifukusikai.org/midorien/",
    "pref": "兵庫県",
    "city": "加古川市",
    "category": "home_help",
    "serviceType": "訪問介護",
    "capacity": 150,
    "openDays": [
      "平日",
      "土曜日",
      "日曜日",
      "祝日"
    ],
    "openDaysNote": ""
  },
  {
    "id": "2872202110",
    "name": "やすらぎ",
    "kana": "ヤスラギ",
    "address": "尾上町安田769-1-302加古川シティビル 加古川シティビル",
    "lat": 34.7514113,
    "lng": 134.8344216,
    "tel": "0794-27-2253",
    "url": "http://www.new-tomorrow.jp/",
    "pref": "兵庫県",
    "city": "加古川市",
    "category": "home_help",
    "serviceType": "訪問介護",
    "capacity": 0,
    "openDays": [
      "平日",
      "土曜日",
      "日曜日",
      "祝日"
    ],
    "openDaysNote": "受付窓口は平日9：00～17：00"
  },
  {
    "id": "2872203324",
    "name": "レオ・ケアステーション加古川南",
    "kana": "レオ・ケアステーションカコガワミナミ",
    "address": "兵庫県加古川市尾上町今福346-1ぬくもりの家　加古川南 ぬくもりの家　加古川南",
    "lat": 34.7511436689847,
    "lng": 134.823805546435,
    "tel": "079-441-7418",
    "url": "www.leo-good.com",
    "pref": "兵庫県",
    "city": "加古川市",
    "category": "home_help",
    "serviceType": "訪問介護",
    "capacity": 0,
    "openDays": [
      "平日",
      "土曜日",
      "日曜日",
      "祝日"
    ],
    "openDaysNote": "24時間対応可能"
  },
  {
    "id": "2872202383",
    "name": "加古川さくら園ヘルパーステーション",
    "kana": "カコガワサクラエン　ヘルパーステーション",
    "address": "兵庫県加古川市東神吉町神吉字北山1844－5",
    "lat": 34.8017318223823,
    "lng": 134.833343104066,
    "tel": "079-432-7300",
    "url": "http://www.kakogawa-sakuraen.com/",
    "pref": "兵庫県",
    "city": "加古川市",
    "category": "home_help",
    "serviceType": "訪問介護",
    "capacity": 40,
    "openDays": [
      "平日",
      "土曜日",
      "祝日"
    ],
    "openDaysNote": ""
  },
  {
    "id": "2872200403",
    "name": "加古川磯病院ヒューマンケアいそ訪問介護事業所",
    "kana": "カコガワイソビョウインヒューマンケアイソホウモンカイゴジギョウショ",
    "address": "兵庫県加古川市八幡町下村１３５３加古川磯病院 加古川磯病院",
    "lat": 34.7907683,
    "lng": 134.9143844,
    "tel": "079-438-8676",
    "url": "https://isohosp.com",
    "pref": "兵庫県",
    "city": "加古川市",
    "category": "home_help",
    "serviceType": "訪問介護",
    "capacity": 0,
    "openDays": [
      "平日",
      "土曜日",
      "日曜日",
      "祝日"
    ],
    "openDaysNote": ""
  },
  {
    "id": "2872201658",
    "name": "花花介護ステーション",
    "kana": "ハナハナカイゴステーション",
    "address": "兵庫県加古川市加古川町北在家548-8",
    "lat": 34.7522889952844,
    "lng": 134.829893977446,
    "tel": "079-454-1657",
    "url": "",
    "pref": "兵庫県",
    "city": "加古川市",
    "category": "home_help",
    "serviceType": "訪問介護",
    "capacity": 0,
    "openDays": [
      "平日",
      "土曜日"
    ],
    "openDaysNote": "定休日・年始年末・深夜帯の訪問はケアマネージャー様・利用者様・ご家族様と話し合いにて対応も行う事がある。"
  },
  {
    "id": "2872202185",
    "name": "株式会社へるぷさーびす翔",
    "kana": "カブシキカイシャヘルプサービスショウ",
    "address": "加古川市野口町野口13-1岡田ビル202B 岡田ビル202B",
    "lat": 34.7646663612333,
    "lng": 134.862439967828,
    "tel": "079-422-0236",
    "url": "",
    "pref": "兵庫県",
    "city": "加古川市",
    "category": "home_help",
    "serviceType": "訪問介護",
    "capacity": 0,
    "openDays": [
      "平日",
      "土曜日",
      "日曜日",
      "祝日"
    ],
    "openDaysNote": "提供票による"
  },
  {
    "id": "2872200114",
    "name": "株式会社まごころケアー研究センター",
    "kana": "カブシキガイシャマゴコロケアーケンキュウセンター",
    "address": "兵庫県加古川市平岡町新在家2丁目２７１－１二番館ビル 二番館ビル",
    "lat": 34.7447072,
    "lng": 134.8681196,
    "tel": "079-422-8741",
    "url": "https://cyclo-inc.jp/",
    "pref": "兵庫県",
    "city": "加古川市",
    "category": "home_help",
    "serviceType": "訪問介護",
    "capacity": 0,
    "openDays": [
      "平日",
      "土曜日",
      "日曜日",
      "祝日"
    ],
    "openDaysNote": "これ以前、あるいは以後の訪問については、訪問介護員等の状況に応じて対応する。"
  },
  {
    "id": "2872204017",
    "name": "株式会社真音",
    "kana": "カブシキガイシャシオン",
    "address": "兵庫県加古川市尾上町長田517-90",
    "lat": 34.7427056,
    "lng": 134.8259758,
    "tel": "079-439-9407",
    "url": "",
    "pref": "兵庫県",
    "city": "加古川市",
    "category": "home_help",
    "serviceType": "訪問介護",
    "capacity": null,
    "openDays": [
      "平日"
    ],
    "openDaysNote": ""
  },
  {
    "id": "2872204082",
    "name": "樹楽・にじむすび　加古川",
    "kana": "キラクニジムスビカコガワ",
    "address": "兵庫県加古川市加古川町粟津82-2朝日プラザ205 朝日プラザ205",
    "lat": 34.7585388,
    "lng": 134.8353774,
    "tel": "079-490-3770",
    "url": "http://kiraku-nijimusubi.com/shisetsu/kakogawa",
    "pref": "兵庫県",
    "city": "加古川市",
    "category": "home_help",
    "serviceType": "訪問介護",
    "capacity": 10,
    "openDays": [
      "平日",
      "土曜日",
      "日曜日",
      "祝日"
    ],
    "openDaysNote": "特にありません。"
  },
  {
    "id": "2872202789",
    "name": "生き活きサポート加古川",
    "kana": "イキイキサポートカコガワ",
    "address": "兵庫県加古川市東神吉町西井ノ口７６３番地",
    "lat": 34.7829652471889,
    "lng": 134.823800825131,
    "tel": "079-432-5732",
    "url": "",
    "pref": "兵庫県",
    "city": "加古川市",
    "category": "home_help",
    "serviceType": "訪問介護",
    "capacity": 50,
    "openDays": [
      "平日",
      "祝日"
    ],
    "openDaysNote": "ご利用者様のご要望により定休日及びその他の日時におけるサービスは応相談可能。"
  },
  {
    "id": "2872201930",
    "name": "生活協同組合コープこうべ在宅介護サービス加古川",
    "kana": "セイカツキョウドウクミアイコープコウベザイタクカイゴサービスカコガワ",
    "address": "兵庫県加古川市東神吉町神吉881-1コープ神吉横 コープ神吉横",
    "lat": 34.7918971,
    "lng": 134.8237232,
    "tel": "079-432-4600",
    "url": "http://www.coop.or.jp/",
    "pref": "兵庫県",
    "city": "加古川市",
    "category": "home_help",
    "serviceType": "訪問介護",
    "capacity": 0,
    "openDays": [
      "平日",
      "土曜日",
      "祝日"
    ],
    "openDaysNote": "日曜日及び12月30日～1月3日は休業日"
  },
  {
    "id": "2872200411",
    "name": "鶴林園ホームヘルプサービスセンター",
    "kana": "カクリンエンホームヘルプサービスセンター",
    "address": "兵庫県加古川市志方町細工所１０８６番地",
    "lat": 34.8403443,
    "lng": 134.8415935,
    "tel": "079-452-0524",
    "url": "https://www.kakurinen.com",
    "pref": "兵庫県",
    "city": "加古川市",
    "category": "home_help",
    "serviceType": "訪問介護",
    "capacity": 100,
    "openDays": [
      "平日",
      "土曜日",
      "日曜日",
      "祝日"
    ],
    "openDaysNote": "日曜日の利用については要相談。"
  },
  {
    "id": "2872200205",
    "name": "特別養護老人ホーム　こすもす園",
    "kana": "トクベツヨウゴロウジンホーム　コスモスエン",
    "address": "兵庫県加古川市神野町神野１３６－８",
    "lat": 34.7726822,
    "lng": 134.8862811,
    "tel": "079-438-7813",
    "url": "http://www.nojiigiku.or.jp",
    "pref": "兵庫県",
    "city": "加古川市",
    "category": "home_help",
    "serviceType": "訪問介護",
    "capacity": 0,
    "openDays": [
      "平日",
      "土曜日",
      "日曜日",
      "祝日"
    ],
    "openDaysNote": ""
  },
  {
    "id": "2872202102",
    "name": "尾上の郷ヘルパーステーション",
    "kana": "オノエノサトヘルパーステーション",
    "address": "兵庫県加古川市尾上町池田830-1",
    "lat": 34.7400295,
    "lng": 134.8209186,
    "tel": "079-454-8756",
    "url": "http//www.onoenosato.org",
    "pref": "兵庫県",
    "city": "加古川市",
    "category": "home_help",
    "serviceType": "訪問介護",
    "capacity": 0,
    "openDays": [
      "平日",
      "土曜日",
      "日曜日",
      "祝日"
    ],
    "openDaysNote": "夜間・早朝・深夜については申し込みに応じて提供します。"
  },
  {
    "id": "2872203514",
    "name": "訪問ステーションなないろ館",
    "kana": "ホウモンステーションナナイロカン",
    "address": "加古川市別府町新野辺北町5丁目121-2",
    "lat": 34.7393366,
    "lng": 134.8408756,
    "tel": "079-437-2355",
    "url": "",
    "pref": "兵庫県",
    "city": "加古川市",
    "category": "home_help",
    "serviceType": "訪問介護",
    "capacity": 0,
    "openDays": [
      "平日",
      "土曜日",
      "祝日"
    ],
    "openDaysNote": ""
  },
  {
    "id": "2872202565",
    "name": "訪問介護ステーション　四季彩",
    "kana": "ホウモンカイゴステーション　シキサイ",
    "address": "西神吉町岸３１８番地の７",
    "lat": 34.7925591,
    "lng": 134.8121383,
    "tel": "079-433-4931",
    "url": "http://llc-ajuga.com",
    "pref": "兵庫県",
    "city": "加古川市",
    "category": "home_help",
    "serviceType": "訪問介護",
    "capacity": 80,
    "openDays": [
      "平日",
      "土曜日",
      "日曜日",
      "祝日"
    ],
    "openDaysNote": "２４時間３６５日"
  },
  {
    "id": "2872200569",
    "name": "訪問介護センター　はっぴいあかり",
    "kana": "ホウモンカイゴセンター　ハッピイアカリ",
    "address": "兵庫県　加古川市　山手1丁目19番4号",
    "lat": 34.779201,
    "lng": 134.8874505,
    "tel": "079-438-3377",
    "url": "http://akari-fukushikai.com",
    "pref": "兵庫県",
    "city": "加古川市",
    "category": "home_help",
    "serviceType": "訪問介護",
    "capacity": 0,
    "openDays": [
      "平日",
      "土曜日",
      "祝日"
    ],
    "openDaysNote": ""
  },
  {
    "id": "2872200601",
    "name": "訪問介護ルーカス",
    "kana": "ホウモンカイゴルーカス",
    "address": "加古川市別府町新野辺北町２－１８７－１",
    "lat": 34.7340801,
    "lng": 134.841775,
    "tel": "079-430-0777",
    "url": "",
    "pref": "兵庫県",
    "city": "加古川市",
    "category": "home_help",
    "serviceType": "訪問介護",
    "capacity": 0,
    "openDays": [
      "平日",
      "土曜日",
      "祝日"
    ],
    "openDaysNote": "12/30～1/3　休み"
  },
  {
    "id": "2872203704",
    "name": "訪問介護虹の架け橋",
    "kana": "ホウモンカイゴ　ニジノカケハシ",
    "address": "兵庫県加古川市加古川町南備後２０６番地",
    "lat": 34.7542283,
    "lng": 134.8218824,
    "tel": "０７９－４４０－１５６０",
    "url": "",
    "pref": "兵庫県",
    "city": "加古川市",
    "category": "home_help",
    "serviceType": "訪問介護",
    "capacity": 0,
    "openDays": [
      "平日",
      "土曜日",
      "日曜日",
      "祝日"
    ],
    "openDaysNote": "但し、利用者の方からの要望があれば、定休日・営業時間外でも対応可能です。"
  },
  {
    "id": "2872200940",
    "name": "有限会社　うさぎ堂薬品介護支援サービス",
    "kana": "ユウゲンガイシャ　ウサギドウヤクヒンカイゴシエンサービス",
    "address": "兵庫県加古川市加古川町溝之口５０７番地サンライズ加古川１階103 サンライズ加古川１階103",
    "lat": 34.7661500796143,
    "lng": 134.840356146033,
    "tel": "079-424-8530",
    "url": "",
    "pref": "兵庫県",
    "city": "加古川市",
    "category": "home_help",
    "serviceType": "訪問介護",
    "capacity": 0,
    "openDays": [
      "平日",
      "土曜日"
    ],
    "openDaysNote": "土曜日又は平日の１８時以降はご相談下さい。"
  },
  {
    "id": "2872600784",
    "name": "コケコッコースマイル",
    "kana": "コケコッコースマイル",
    "address": "兵庫県加西市尾崎町字野田10番１",
    "lat": 34.906029,
    "lng": 134.84883,
    "tel": "0790-48-3591",
    "url": "https://www.yoneda-hospital.com",
    "pref": "兵庫県",
    "city": "加西市",
    "category": "home_help",
    "serviceType": "訪問介護",
    "capacity": 0,
    "openDays": [
      "平日"
    ],
    "openDaysNote": "土、日、祝日は要相談"
  },
  {
    "id": "2872600123",
    "name": "ナイトウメディックス株式会社ヘルパーステーションミクチ",
    "kana": "ナイトウメディックスカブシキガイシャヘルパーステーションミクチ",
    "address": "兵庫県加西市北条町古坂7丁目62",
    "lat": 34.9275496596894,
    "lng": 134.84312730311,
    "tel": "0790-27-8244",
    "url": "http://naitomedics.co.jp/",
    "pref": "兵庫県",
    "city": "加西市",
    "category": "home_help",
    "serviceType": "訪問介護",
    "capacity": 20,
    "openDays": [
      "平日",
      "土曜日",
      "日曜日",
      "祝日"
    ],
    "openDaysNote": "（1）事業所の営業時間外でも上記留意事項通り、転送・社内連絡網により24時間連絡が可能（改行）（2）サービス提供は年中無休（改行）（3）平成26年9月1日より提供を開始した定期巡回・随時対応型訪問介護看護サービスについては24時間対応が可能です。"
  },
  {
    "id": "2872600792",
    "name": "ファーストケア訪問介護事業所",
    "kana": "ファーストケアホウモンカイゴジギョウショ",
    "address": "兵庫県加西市北条町西高室466-3",
    "lat": 34.9190906152535,
    "lng": 134.835932808598,
    "tel": "0790-43-1150",
    "url": "firstcare1150.com",
    "pref": "兵庫県",
    "city": "加西市",
    "category": "home_help",
    "serviceType": "訪問介護",
    "capacity": null,
    "openDays": [
      "平日",
      "土曜日",
      "日曜日",
      "祝日"
    ],
    "openDaysNote": "休日：12/31～1/3"
  },
  {
    "id": "2872600750",
    "name": "ヘルパーステーション訪問介護　ニカサ加西店",
    "kana": "ヘルパーステーションホウモンカイゴ　ニカサカサイテン",
    "address": "兵庫県加西市北条町東南101－20番地",
    "lat": 34.9258423,
    "lng": 134.8331314,
    "tel": "0790－20－0734",
    "url": "info@longu-pharmacy.jp",
    "pref": "兵庫県",
    "city": "加西市",
    "category": "home_help",
    "serviceType": "訪問介護",
    "capacity": 0,
    "openDays": [
      "平日",
      "土曜日",
      "祝日"
    ],
    "openDaysNote": "＊早朝及び夜間（通常料金の25％増し）（改行）　深夜（通常料金の50％増し）"
  },
  {
    "id": "2872600149",
    "name": "社会福祉法人加西市社会福祉協議会　ラヴィかさいホームヘルパーステーション",
    "kana": "シャカイフクシホウジンカサイシシャカイフクシキョウギカイ　ラビィカサイホウムヘルパァステェション",
    "address": "加西市北条町古坂１０７２番地の１４加西市健康福祉会館 加西市健康福祉会館",
    "lat": 34.9242091,
    "lng": 134.8483909,
    "tel": "0790-42-6703",
    "url": "http://www.kasai-sakyo.com/",
    "pref": "兵庫県",
    "city": "加西市",
    "category": "home_help",
    "serviceType": "訪問介護",
    "capacity": 2,
    "openDays": [
      "平日",
      "土曜日",
      "日曜日",
      "祝日"
    ],
    "openDaysNote": "訪問曜日、訪問時間については相談に応じている。"
  },
  {
    "id": "2872600198",
    "name": "第二サルビア荘　訪問介護事業所",
    "kana": "ダイニサルビアソウ　ホウモンカイゴジギョウショ",
    "address": "兵庫県加西市国正町1931-2",
    "lat": 34.943487,
    "lng": 134.9334433,
    "tel": "0790-45-1801",
    "url": "http://www.enyuukai.jp",
    "pref": "兵庫県",
    "city": "加西市",
    "category": "home_help",
    "serviceType": "訪問介護",
    "capacity": null,
    "openDays": [
      "平日",
      "土曜日",
      "祝日"
    ],
    "openDaysNote": ""
  },
  {
    "id": "2872600768",
    "name": "弥栄の園訪問介護事業所",
    "kana": "イヤサカノソノホウモンカイゴジギョウショ",
    "address": "兵庫県加西市北条町西高室595-11サ－ビス付き高齢者向け住宅弥栄の園 サ－ビス付き高齢者向け住宅弥栄の園",
    "lat": 34.9201394,
    "lng": 134.8384607,
    "tel": "0790-43-7770",
    "url": "http://www.kenjinkai-swc.or.jp",
    "pref": "兵庫県",
    "city": "加西市",
    "category": "home_help",
    "serviceType": "訪問介護",
    "capacity": 0,
    "openDays": [
      "平日",
      "土曜日",
      "日曜日",
      "祝日"
    ],
    "openDaysNote": "定休日（改行）・12/30～1/3"
  },
  {
    "id": "2872500869",
    "name": "Get訪問介護岡本",
    "kana": "ゲットホウモンカイゴオカモト",
    "address": "岡本1538",
    "lat": null,
    "lng": null,
    "tel": "0795-40-8388",
    "url": "https://www.getounohana.com/",
    "pref": "兵庫県",
    "city": "加東市",
    "category": "home_help",
    "serviceType": "訪問介護",
    "capacity": 0,
    "openDays": [
      "平日",
      "土曜日",
      "日曜日",
      "祝日"
    ],
    "openDaysNote": ""
  },
  {
    "id": "2872500109",
    "name": "ＪＡみのり加東ケアセンター",
    "kana": "ジェイエイミノリ　カトウケアセンター",
    "address": "兵庫県加東市沢部613",
    "lat": 34.8956721,
    "lng": 134.9546803,
    "tel": "0795-42-4583",
    "url": "https://www.ja-minori.jp",
    "pref": "兵庫県",
    "city": "加東市",
    "category": "home_help",
    "serviceType": "訪問介護",
    "capacity": 73,
    "openDays": [
      "平日",
      "土曜日",
      "日曜日",
      "祝日"
    ],
    "openDaysNote": "早朝時間として午前６時から午前８時、通常時間として午前８時から午後６時、夜間時間として午後６時から午後１０時までとする。なお特別な場合に深夜時間として、午後１０時から翌日午前６時を設定することができる。12/31から1/3までを休業日とする。"
  },
  {
    "id": "2872500752",
    "name": "ライヴリフードサポートきよふく",
    "kana": "ライゔリフードサポートキヨフク",
    "address": "兵庫県加東市社1536-1",
    "lat": 34.9205731,
    "lng": 134.9672945,
    "tel": "0795-38-7072",
    "url": "http://www.fukuwalife.jp",
    "pref": "兵庫県",
    "city": "加東市",
    "category": "home_help",
    "serviceType": "訪問介護",
    "capacity": null,
    "openDays": [
      "平日",
      "土曜日",
      "日曜日",
      "祝日"
    ],
    "openDaysNote": ""
  },
  {
    "id": "2872500224",
    "name": "伽の里ホームヘルプサービス",
    "kana": "トギノサトホームヘルプサービス",
    "address": "兵庫県加東市天神608番地",
    "lat": 34.9124994,
    "lng": 135.0616868,
    "tel": "0795-47-5502",
    "url": "http://www.hinode-wf.com/fukushi/togi/",
    "pref": "兵庫県",
    "city": "加東市",
    "category": "home_help",
    "serviceType": "訪問介護",
    "capacity": 0,
    "openDays": [
      "平日",
      "土曜日",
      "日曜日",
      "祝日"
    ],
    "openDaysNote": "夜間・早朝・深夜対応可"
  },
  {
    "id": "2872500729",
    "name": "訪問介護ステーション　だいだい",
    "kana": "ホウモンカイゴステーション　ダイダイ",
    "address": "上滝野　2331番地",
    "lat": 34.9429844,
    "lng": 134.9577939,
    "tel": "795485888",
    "url": "",
    "pref": "兵庫県",
    "city": "加東市",
    "category": "home_help",
    "serviceType": "訪問介護",
    "capacity": 0,
    "openDays": [
      "平日",
      "土曜日",
      "日曜日",
      "祝日"
    ],
    "openDaysNote": "ご相談により18時～翌８時までのサービスも可能です。"
  },
  {
    "id": "2874700327",
    "name": "香美町社会福祉協議会　村岡訪問介護事業所",
    "kana": "カミチョウシャカイフクシキョウギカイ　ムラオカホウモンカイゴジギョウショ",
    "address": "兵庫県美方郡香美町村岡区村岡305-1香美町村岡老人福祉センター 香美町村岡老人福祉センター",
    "lat": 35.4722051,
    "lng": 134.5938946,
    "tel": "0796-98-1000",
    "url": "https://www.kami-shakyo.org/care/307/",
    "pref": "兵庫県",
    "city": "香美町",
    "category": "home_help",
    "serviceType": "訪問介護",
    "capacity": 35,
    "openDays": [
      "平日",
      "土曜日",
      "日曜日",
      "祝日"
    ],
    "openDaysNote": ""
  },
  {
    "id": "2874500347",
    "name": "香美町社会福祉協議会香住ふれ愛介護センター訪問介護事業所",
    "kana": "カミチョウシャカイフクシキョウギカイカスミフレアイカイゴセンターホウモンカイゴジギョウショ",
    "address": "兵庫県美方郡香美町香住区森31-1",
    "lat": 35.6261033,
    "lng": 134.6272339,
    "tel": "0796-39-1275",
    "url": "https://www.kami-shakyo.org/care/307/",
    "pref": "兵庫県",
    "city": "香美町",
    "category": "home_help",
    "serviceType": "訪問介護",
    "capacity": 0,
    "openDays": [
      "平日",
      "土曜日",
      "日曜日",
      "祝日"
    ],
    "openDaysNote": ""
  },
  {
    "id": "2872100314",
    "name": "（株式会社）まごころケアー研究センター高砂",
    "kana": "（カブシキガイシャ）マゴコロケアーケンキュウセンタータカサゴ",
    "address": "兵庫県高砂市荒井町御旅１丁目２－３９荒井ビル",
    "lat": 34.7641934,
    "lng": 134.7953135,
    "tel": "079-444-4507",
    "url": "http://cyclo-inc.jp",
    "pref": "兵庫県",
    "city": "高砂市",
    "category": "home_help",
    "serviceType": "訪問介護",
    "capacity": 0,
    "openDays": [
      "平日",
      "土曜日",
      "日曜日",
      "祝日"
    ],
    "openDaysNote": "これ以前、あるいは以降の訪問については、訪門介護員等の状況に応じて対応する。"
  },
  {
    "id": "2872101247",
    "name": "ちいきのよりどころ",
    "kana": "チイキノヨリドコロ",
    "address": "中島3丁目2-18",
    "lat": 35.5261814,
    "lng": 139.7151124,
    "tel": "079-490-3708",
    "url": "",
    "pref": "兵庫県",
    "city": "高砂市",
    "category": "home_help",
    "serviceType": "訪問介護",
    "capacity": null,
    "openDays": [],
    "openDaysNote": "24時間対応可"
  },
  {
    "id": "2872100116",
    "name": "ニチイケアセンター高砂中央",
    "kana": "ニチイケアセンタータカサゴチュウオウ",
    "address": "兵庫県高砂市荒井町小松原1丁目１９－３０ロイヤルコーポ荒井101号 ロイヤルコーポ荒井101号",
    "lat": 34.7584346,
    "lng": 134.8023382,
    "tel": "079-444-2481",
    "url": "http://www.nichiigakkan.co.jp",
    "pref": "兵庫県",
    "city": "高砂市",
    "category": "home_help",
    "serviceType": "訪問介護",
    "capacity": 20,
    "openDays": [
      "平日",
      "土曜日",
      "日曜日",
      "祝日"
    ],
    "openDaysNote": "居宅サービス計画により、営業時間外であってもサービスを提供する場合があります。"
  },
  {
    "id": "2872101262",
    "name": "ニチイケアセンター宝殿",
    "kana": "ニチイケアセンターホウデン",
    "address": "兵庫県高砂市神爪１丁目11-40ランディック２階南 ランディック２階南",
    "lat": 34.7878019,
    "lng": 134.8108981,
    "tel": "079-431-2727",
    "url": "",
    "pref": "兵庫県",
    "city": "高砂市",
    "category": "home_help",
    "serviceType": "訪問介護",
    "capacity": 0,
    "openDays": [
      "平日",
      "土曜日",
      "日曜日",
      "祝日"
    ],
    "openDaysNote": "居宅サービス計画により、営業時間外であってもサービスを提供する場合があります。"
  },
  {
    "id": "2872100249",
    "name": "ハーモニー訪問介護事業所",
    "kana": "ハーモニーホウモンカイゴジギョウショ",
    "address": "兵庫県高砂市高砂町朝日町２丁目８-２８",
    "lat": 34.7541721,
    "lng": 134.801782,
    "tel": "079-444-4480",
    "url": "",
    "pref": "兵庫県",
    "city": "高砂市",
    "category": "home_help",
    "serviceType": "訪問介護",
    "capacity": 0,
    "openDays": [
      "平日",
      "土曜日",
      "日曜日",
      "祝日"
    ],
    "openDaysNote": "利用者様の情況に応じて上記時間帯でも対応しています。"
  },
  {
    "id": "2872101445",
    "name": "ふぁ～みんヘルパーステーション",
    "kana": "ファ～ミンヘルパ―ステ―ション",
    "address": "兵庫県高砂市阿弥陀町阿弥陀1146番地",
    "lat": 34.7957082,
    "lng": 134.780126,
    "tel": "079-447-0535",
    "url": "",
    "pref": "兵庫県",
    "city": "高砂市",
    "category": "home_help",
    "serviceType": "訪問介護",
    "capacity": 80,
    "openDays": [
      "平日",
      "土曜日",
      "日曜日",
      "祝日"
    ],
    "openDaysNote": "早朝、夜間、深夜と緊急時加算あり"
  },
  {
    "id": "2872100561",
    "name": "ほのぼの訪問介護ステーション",
    "kana": "ホノボノホウモンカイゴステーション",
    "address": "兵庫県高砂市米田町米田1119-7",
    "lat": 34.7789121,
    "lng": 134.8193268,
    "tel": "079-433-1231",
    "url": "",
    "pref": "兵庫県",
    "city": "高砂市",
    "category": "home_help",
    "serviceType": "訪問介護",
    "capacity": 5,
    "openDays": [
      "平日",
      "土曜日",
      "日曜日",
      "祝日"
    ],
    "openDaysNote": "但し、上記以外も緊急の場合は訪問可能"
  },
  {
    "id": "2872100256",
    "name": "ゆうゆうケアセンター",
    "kana": "ユウユウケアセンター",
    "address": "高砂市米田町米田857-4",
    "lat": 34.774515764218,
    "lng": 134.808791251102,
    "tel": "079-433-8185",
    "url": "uokawa-home.com",
    "pref": "兵庫県",
    "city": "高砂市",
    "category": "home_help",
    "serviceType": "訪問介護",
    "capacity": 0,
    "openDays": [
      "平日",
      "土曜日",
      "日曜日",
      "祝日"
    ],
    "openDaysNote": "状況により、上記以外の時間でも応じます。"
  },
  {
    "id": "2872100512",
    "name": "介護センター　もみの木",
    "kana": "カイゴセンター　モミノキ",
    "address": "兵庫県高砂市米田町米田59-3.ｺｰﾎﾟﾏｽﾔ1-A ｺｰﾎﾟﾏｽﾔ1-A",
    "lat": 34.7796174,
    "lng": 134.8115721,
    "tel": "079-434-5045",
    "url": "",
    "pref": "兵庫県",
    "city": "高砂市",
    "category": "home_help",
    "serviceType": "訪問介護",
    "capacity": 0,
    "openDays": [
      "平日",
      "土曜日",
      "日曜日",
      "祝日"
    ],
    "openDaysNote": ""
  },
  {
    "id": "2872100058",
    "name": "高砂市社会福祉協議会ふれあい訪問介護事業所",
    "kana": "タカサゴシシャカイフクシキョウギカイフレアイホウモンカイゴジギョウショ",
    "address": "高砂市高砂町松波町440番地の35高砂市ユーアイ福祉交流センター内 高砂市ユーアイ福祉交流センター内",
    "lat": 34.7521870072012,
    "lng": 134.796925865021,
    "tel": "079-443-3408",
    "url": "http://www.takasago-syakyo.or.jp/",
    "pref": "兵庫県",
    "city": "高砂市",
    "category": "home_help",
    "serviceType": "訪問介護",
    "capacity": 0,
    "openDays": [
      "平日",
      "土曜日",
      "日曜日",
      "祝日"
    ],
    "openDaysNote": "上記の時間帯以外の訪問を希望される場合は、相談に応じます。"
  },
  {
    "id": "2872101346",
    "name": "高砂訪問介護ステーション　きらめき",
    "kana": "タカサゴホウモンカイゴステーション　キラメキ",
    "address": "兵庫県高砂市中筋1丁目10番41号高砂西部病院5階 高砂西部病院5階",
    "lat": 34.7892497,
    "lng": 134.7723476,
    "tel": "079-447-0800",
    "url": "www.takasagoseibu.jp",
    "pref": "兵庫県",
    "city": "高砂市",
    "category": "home_help",
    "serviceType": "訪問介護",
    "capacity": 60,
    "openDays": [
      "平日",
      "土曜日",
      "日曜日",
      "祝日"
    ],
    "openDaysNote": "12/31～1/3休業"
  },
  {
    "id": "2872100454",
    "name": "常寿園ホームヘルプサービスセンター",
    "kana": "ジョウジュエンホームヘルプサービスセンター",
    "address": "兵庫県高砂市北浜町牛谷721-1",
    "lat": 34.7934785,
    "lng": 134.7606667,
    "tel": "079-446-0833",
    "url": "http://www.jyoujyuen.com/",
    "pref": "兵庫県",
    "city": "高砂市",
    "category": "home_help",
    "serviceType": "訪問介護",
    "capacity": 0,
    "openDays": [
      "平日",
      "土曜日"
    ],
    "openDaysNote": "お客様のご依頼で日曜日・祝日・早朝・深夜に介護が必要場合は、その体制をとって訪問介護を行います。"
  },
  {
    "id": "2872100918",
    "name": "生き活きヘルパーステーション",
    "kana": "イキイキヘルパーステーション",
    "address": "兵庫県高砂市米田町古新308-1",
    "lat": 34.7721319,
    "lng": 134.8094171,
    "tel": "079-432-3870",
    "url": "http://higashitakasago.web.fc2.com/",
    "pref": "兵庫県",
    "city": "高砂市",
    "category": "home_help",
    "serviceType": "訪問介護",
    "capacity": 0,
    "openDays": [
      "平日",
      "土曜日",
      "日曜日",
      "祝日"
    ],
    "openDaysNote": ""
  },
  {
    "id": "2872100322",
    "name": "特別養護老人ホームのじぎくの里　訪問介護",
    "kana": "トクベツヨウゴロウジンホームノジギクノサト　ホウモンカイゴ",
    "address": "兵庫県高砂市北浜町西浜773-3",
    "lat": 34.7855176,
    "lng": 134.7484018,
    "tel": "079-247-9207",
    "url": "http://www.nojigiku.or.jp/",
    "pref": "兵庫県",
    "city": "高砂市",
    "category": "home_help",
    "serviceType": "訪問介護",
    "capacity": 80,
    "openDays": [
      "平日",
      "土曜日",
      "日曜日",
      "祝日"
    ],
    "openDaysNote": "要望に応じて相談。（独居身体介護でお困りの際など優先的に対応致しております。）"
  },
  {
    "id": "2873700237",
    "name": "JA兵庫西佐用介護センター",
    "kana": "ジェイエイヒョウゴニシサヨウカイゴセンター",
    "address": "兵庫県佐用郡佐用町円応寺４５０",
    "lat": 35.0043456,
    "lng": 134.3557344,
    "tel": "0790-82-3533",
    "url": "http://www.ja-hyogonishi.or.jp",
    "pref": "兵庫県",
    "city": "佐用町",
    "category": "home_help",
    "serviceType": "訪問介護",
    "capacity": 0,
    "openDays": [
      "平日",
      "土曜日",
      "日曜日",
      "祝日"
    ],
    "openDaysNote": "12月31日から1月3日は定休。上記以外の時間については、応相談。"
  },
  {
    "id": "2873700419",
    "name": "サンホームみかづき訪問介護事業所",
    "kana": "サンホームミカヅキホウモンカイゴジギョウショ",
    "address": "兵庫県佐用郡佐用町志文515番地",
    "lat": 35.0119406,
    "lng": 134.4355641,
    "tel": "0790-79-3145",
    "url": "http://info@sunhome-cat.jp",
    "pref": "兵庫県",
    "city": "佐用町",
    "category": "home_help",
    "serviceType": "訪問介護",
    "capacity": 0,
    "openDays": [
      "平日",
      "土曜日",
      "日曜日",
      "祝日"
    ],
    "openDaysNote": "提供時間　２４時間３６５日"
  },
  {
    "id": "2873700427",
    "name": "共立ヘルパーステーション",
    "kana": "キョウリツヘルパーステーション",
    "address": "兵庫県佐用郡佐用町佐用1111番地",
    "lat": 35.0041983,
    "lng": 134.3520903,
    "tel": "0790-82-0380",
    "url": "http://www9.ocn.ne.jp/-kyoritu/",
    "pref": "兵庫県",
    "city": "佐用町",
    "category": "home_help",
    "serviceType": "訪問介護",
    "capacity": 40,
    "openDays": [
      "平日",
      "土曜日",
      "祝日"
    ],
    "openDaysNote": ""
  },
  {
    "id": "2873700336",
    "name": "佐用町社会福祉協議会きらめきケアセンター",
    "kana": "サヨウチョウシャカイフクシキョウギカイキラメキケアセンター",
    "address": "兵庫県佐用郡佐用町東徳久１９４６番地南光地域福祉センター 南光地域福祉センター",
    "lat": 34.9988277,
    "lng": 134.4066699,
    "tel": "0790-78-8955",
    "url": "http://www.sayo‐wel.or.jp/",
    "pref": "兵庫県",
    "city": "佐用町",
    "category": "home_help",
    "serviceType": "訪問介護",
    "capacity": 0,
    "openDays": [
      "平日",
      "土曜日",
      "日曜日",
      "祝日"
    ],
    "openDaysNote": ""
  },
  {
    "id": "2871201170",
    "name": "オアシス三田　ヘルパーステーション",
    "kana": "オアシスサンダ　ヘルパーステーション",
    "address": "兵庫県三田市川除　６７７－１三田JA総合センター　２F 三田JA総合センター　２F",
    "lat": 34.8923874,
    "lng": 135.2168181,
    "tel": "０７９－５６９－７１５６",
    "url": "http://www.ja-oasis.com",
    "pref": "兵庫県",
    "city": "三田市",
    "category": "home_help",
    "serviceType": "訪問介護",
    "capacity": 0,
    "openDays": [
      "平日",
      "土曜日",
      "祝日"
    ],
    "openDaysNote": "早朝（午前６時～午前８時）・　夜間（午後６時～午後１０時）（改行）日曜日・年末年始は相談に応じます。"
  },
  {
    "id": "2871200339",
    "name": "さわやか介護ステーション",
    "kana": "サワヤカカイゴステイション",
    "address": "三田市あかしあ台１－１８－１０",
    "lat": 34.8971181,
    "lng": 135.1864903,
    "tel": "079-565-0890",
    "url": "http://sarwayaka.wixsite.com/mysite",
    "pref": "兵庫県",
    "city": "三田市",
    "category": "home_help",
    "serviceType": "訪問介護",
    "capacity": 0,
    "openDays": [
      "平日",
      "土曜日",
      "祝日"
    ],
    "openDaysNote": "原則、12月30日～1月3日及び日曜日は休業日。休日及び時間外のサービスについては、ヘルパーの稼働状況・サービスの必要性を吟味して対応している。。事前に要相談。"
  },
  {
    "id": "2871200222",
    "name": "サンウエストヘルパーステーション",
    "kana": "サンウエストヘルパーステーション",
    "address": "三田市小野1139-1",
    "lat": 34.9522718,
    "lng": 135.2321214,
    "tel": "079-560-3070",
    "url": "http://www.sunwest-kaigo.jp",
    "pref": "兵庫県",
    "city": "三田市",
    "category": "home_help",
    "serviceType": "訪問介護",
    "capacity": 0,
    "openDays": [
      "平日",
      "土曜日",
      "祝日"
    ],
    "openDaysNote": "緊急時は上記に関わらず対応可"
  },
  {
    "id": "2871201147",
    "name": "ニチイケアセンターウッディタウン",
    "kana": "ニチイケアセンターウッディタウン",
    "address": "兵庫県三田市けやき台３－１２－５",
    "lat": 34.9085117,
    "lng": 135.1963947,
    "tel": "079-553-1711",
    "url": "http://www.nichiigakkan.co.jp",
    "pref": "兵庫県",
    "city": "三田市",
    "category": "home_help",
    "serviceType": "訪問介護",
    "capacity": 0,
    "openDays": [
      "平日"
    ],
    "openDaysNote": "休業日及び営業時間外でも、サービス提供を行う場合があるものとする。"
  },
  {
    "id": "2871200131",
    "name": "ニチイケアセンター三田",
    "kana": "ニチイケアセンターサンダ",
    "address": "兵庫県三田市中央町9-38ユマニティビル２F ユマニティビル２F",
    "lat": 34.8874989,
    "lng": 135.22707,
    "tel": "079-559-6351",
    "url": "http://www.nichiigakkan.co.jp",
    "pref": "兵庫県",
    "city": "三田市",
    "category": "home_help",
    "serviceType": "訪問介護",
    "capacity": 0,
    "openDays": [
      "平日"
    ],
    "openDaysNote": "休業日及び営業時間外であってもサービスを提供する場合があります。"
  },
  {
    "id": "2871201469",
    "name": "ヘルパーステーションスイッチオン三田",
    "kana": "ヘルパーステーションスイッチオンサンダ",
    "address": "兵庫県三田市南が丘2丁目6-12",
    "lat": 34.8780027,
    "lng": 135.2195627,
    "tel": "079-569-7720",
    "url": "http://switchon-service.co.jp",
    "pref": "兵庫県",
    "city": "三田市",
    "category": "home_help",
    "serviceType": "訪問介護",
    "capacity": 0,
    "openDays": [
      "平日",
      "土曜日",
      "日曜日",
      "祝日"
    ],
    "openDaysNote": ""
  },
  {
    "id": "2871201576",
    "name": "ロジケアさんだ",
    "kana": "ロジケアサンダ",
    "address": "兵庫県三田市高次２‐６‐６",
    "lat": 34.8903601,
    "lng": 135.2325947,
    "tel": "079-562-2431",
    "url": "http://logicare.co.jp/",
    "pref": "兵庫県",
    "city": "三田市",
    "category": "home_help",
    "serviceType": "訪問介護",
    "capacity": 300,
    "openDays": [
      "平日",
      "土曜日",
      "日曜日",
      "祝日"
    ],
    "openDaysNote": "上記以外もケアプランに沿って訪問可能"
  },
  {
    "id": "2871200073",
    "name": "社会福祉法人　三田市社会福祉協議会　中央ホームヘルパーステーション",
    "kana": "シャカイフクシホウジン　サンダシシャカイフクシキョウギカイ　チュウオウ",
    "address": "兵庫県三田市川除675番地三田市総合福祉保健センター内 三田市総合福祉保健センター内",
    "lat": 34.8927874,
    "lng": 135.2176097,
    "tel": "079-559-5944",
    "url": "https://www.sanda-shakyo.or.jp",
    "pref": "兵庫県",
    "city": "三田市",
    "category": "home_help",
    "serviceType": "訪問介護",
    "capacity": 0,
    "openDays": [
      "平日",
      "土曜日",
      "日曜日",
      "祝日"
    ],
    "openDaysNote": "1月1日～1月3日は休み"
  },
  {
    "id": "2871200214",
    "name": "社会福祉法人三翠会　ホームヘルプステーションさんすい",
    "kana": "シャカイフクシホウジンサンスイカイ　ホームヘルプステーションサンスイ",
    "address": "兵庫県三田市下相野薬師尾1460番地の1",
    "lat": 34.9461734,
    "lng": 135.1558892,
    "tel": "079-568-6960",
    "url": "https://sansui-en.org",
    "pref": "兵庫県",
    "city": "三田市",
    "category": "home_help",
    "serviceType": "訪問介護",
    "capacity": 5,
    "openDays": [
      "平日",
      "土曜日",
      "日曜日",
      "祝日"
    ],
    "openDaysNote": ""
  },
  {
    "id": "2871200297",
    "name": "神鉄ケアサービスセンター三田",
    "kana": "シンテツケアサービスセンターサンダ",
    "address": "三田市ゆりのき台1丁目102番ウッディタウン中央駅内",
    "lat": 34.9166552,
    "lng": 135.1823651,
    "tel": "079-553-1465",
    "url": "http://www.shintetsu.co.jp",
    "pref": "兵庫県",
    "city": "三田市",
    "category": "home_help",
    "serviceType": "訪問介護",
    "capacity": 0,
    "openDays": [
      "平日",
      "土曜日",
      "日曜日",
      "祝日"
    ],
    "openDaysNote": "12月30日から1月3日は休業"
  },
  {
    "id": "2871201394",
    "name": "訪問介護ステ－ション　和（なごみ）",
    "kana": "ホウモンカイゴステ－ション　ナゴミ",
    "address": "兵庫県三田市天神1丁目2番15号",
    "lat": 34.8897264,
    "lng": 135.2222731,
    "tel": "079-564-5420",
    "url": "https://www.mc-shojin.or.jp/",
    "pref": "兵庫県",
    "city": "三田市",
    "category": "home_help",
    "serviceType": "訪問介護",
    "capacity": 0,
    "openDays": [
      "平日",
      "土曜日",
      "日曜日",
      "祝日"
    ],
    "openDaysNote": "24時間対応"
  },
  {
    "id": "2871201154",
    "name": "訪問介護ステーションリバティスクエア",
    "kana": "ホウモンカイゴステーション　リバティスクエア",
    "address": "兵庫県三田市けやき台4丁目39-2",
    "lat": 34.9092173,
    "lng": 135.1881149,
    "tel": "079-559-7711",
    "url": "",
    "pref": "兵庫県",
    "city": "三田市",
    "category": "home_help",
    "serviceType": "訪問介護",
    "capacity": 0,
    "openDays": [
      "平日",
      "土曜日",
      "日曜日",
      "祝日"
    ],
    "openDaysNote": "上記の時間以外でもご希望があれば相談いたします（改行）事業所の人員体制などによりお受けできかねる場合もございます"
  },
  {
    "id": "2871201261",
    "name": "訪問介護ステーション笑楽三田",
    "kana": "ホウモンカイゴステエションワラクサンダ",
    "address": "兵庫県三田市南が丘2丁目14番23号",
    "lat": 34.8786525,
    "lng": 135.2152128,
    "tel": "079-563-0306",
    "url": "http://わらく.com/",
    "pref": "兵庫県",
    "city": "三田市",
    "category": "home_help",
    "serviceType": "訪問介護",
    "capacity": 0,
    "openDays": [
      "平日",
      "土曜日",
      "日曜日",
      "祝日"
    ],
    "openDaysNote": ""
  },
  {
    "id": "2871201527",
    "name": "訪問介護ステーション想",
    "kana": "ホウモンカイゴステーションソウ",
    "address": "兵庫県三田市友が丘3-21-1",
    "lat": 34.9068043,
    "lng": 135.2266548,
    "tel": "079-551-3000",
    "url": "",
    "pref": "兵庫県",
    "city": "三田市",
    "category": "home_help",
    "serviceType": "訪問介護",
    "capacity": 0,
    "openDays": [
      "平日"
    ],
    "openDaysNote": "サービスの提供時間定めてありますがご相談受け付けます。"
  },
  {
    "id": "2871201006",
    "name": "訪問介護センターひなたぼっこ",
    "kana": "ホウモンカイゴセンターヒナタボッコ",
    "address": "兵庫県三田市相生町４３－１",
    "lat": 34.8831199739891,
    "lng": 135.228757483655,
    "tel": "079-551-0186",
    "url": "http://www.collabonet.com",
    "pref": "兵庫県",
    "city": "三田市",
    "category": "home_help",
    "serviceType": "訪問介護",
    "capacity": 0,
    "openDays": [
      "平日",
      "土曜日",
      "祝日"
    ],
    "openDaysNote": "ご希望があれば上記利用時間以外でのサービス提供も行っています。"
  },
  {
    "id": "2871201345",
    "name": "訪問介護事業所りかおん",
    "kana": "ホウモンカイゴジギョウショリカオン",
    "address": "兵庫県三田市天神３丁目２５ー２２　１０７サニーコートすみれ107 サニーコートすみれ107",
    "lat": 34.8846073,
    "lng": 135.2130338,
    "tel": "079-558-8282",
    "url": "",
    "pref": "兵庫県",
    "city": "三田市",
    "category": "home_help",
    "serviceType": "訪問介護",
    "capacity": 0,
    "openDays": [
      "平日",
      "土曜日",
      "日曜日",
      "祝日"
    ],
    "openDaysNote": "必要性により深夜の対応も可能"
  },
  {
    "id": "2872300757",
    "name": "あいむ介護サービス",
    "kana": "アイムカイゴサービス",
    "address": "三木市宿原1270番地122",
    "lat": 34.7940780484416,
    "lng": 134.998805354423,
    "tel": "0794-86-6555",
    "url": "aimukaigo.com",
    "pref": "兵庫県",
    "city": "三木市",
    "category": "home_help",
    "serviceType": "訪問介護",
    "capacity": 0,
    "openDays": [
      "平日",
      "土曜日",
      "日曜日",
      "祝日"
    ],
    "openDaysNote": "原則は上記のとおり。ただし、上記時間以外は状況に応じてサービス提供可。"
  },
  {
    "id": "2872301441",
    "name": "けあさぽーとスピナッチ",
    "kana": "ケアサポートスピナッチ",
    "address": "兵庫県三木市吉川町山上267番地の１",
    "lat": 34.8800756,
    "lng": 135.0920721,
    "tel": "0794-76-5539",
    "url": "",
    "pref": "兵庫県",
    "city": "三木市",
    "category": "home_help",
    "serviceType": "訪問介護",
    "capacity": null,
    "openDays": [
      "平日",
      "土曜日",
      "日曜日",
      "祝日"
    ],
    "openDaysNote": ""
  },
  {
    "id": "2872301060",
    "name": "ニチイケアセンター志染",
    "kana": "ニチイケアセンターシジミ",
    "address": "兵庫県三木市志染町西自由が丘1丁目254番地ベルゲン山下ビル1Ｆ ベルゲン山下ビル1Ｆ",
    "lat": 34.7843339,
    "lng": 135.00962,
    "tel": "0794-87-8785",
    "url": "http://www.nichiigakkan.co.jp",
    "pref": "兵庫県",
    "city": "三木市",
    "category": "home_help",
    "serviceType": "訪問介護",
    "capacity": 0,
    "openDays": [
      "平日"
    ],
    "openDaysNote": "休業日及び営業時間外であってもサービスを提供する場合があります。"
  },
  {
    "id": "2872301391",
    "name": "ハッピーケアサポート",
    "kana": "ハッピーケアサポート",
    "address": "兵庫県三木市末広1丁目6-55",
    "lat": 34.8012721869105,
    "lng": 134.984881148479,
    "tel": "0794-83-4439",
    "url": "http://happycare.hp.gogo.jp",
    "pref": "兵庫県",
    "city": "三木市",
    "category": "home_help",
    "serviceType": "訪問介護",
    "capacity": 120,
    "openDays": [
      "平日",
      "土曜日",
      "祝日"
    ],
    "openDaysNote": "時間外は応相談"
  },
  {
    "id": "2872300310",
    "name": "ポリーライフケアサービス有限会社緑が丘営業所",
    "kana": "ポリーライフケアサービスユウゲンガイシャミドリガオカエイギョウショ",
    "address": "兵庫県三木市緑が丘町中１丁目8-23",
    "lat": 34.7686085668942,
    "lng": 135.029169549074,
    "tel": "0794-85-6797",
    "url": "www.poly-lifecare.com",
    "pref": "兵庫県",
    "city": "三木市",
    "category": "home_help",
    "serviceType": "訪問介護",
    "capacity": 100,
    "openDays": [
      "平日",
      "土曜日",
      "日曜日",
      "祝日"
    ],
    "openDaysNote": "１２月３０日～１月３日については要相談"
  },
  {
    "id": "2872301144",
    "name": "みきやま訪問介護ステーション　ミント",
    "kana": "ミキヤマホウモンカイゴステーション　ミント",
    "address": "兵庫県三木市大村1074番１５９",
    "lat": 34.8096004167162,
    "lng": 134.969205862033,
    "tel": "0794-86-6125",
    "url": "https://rehacare.wakeikai-gr.or.jp/",
    "pref": "兵庫県",
    "city": "三木市",
    "category": "home_help",
    "serviceType": "訪問介護",
    "capacity": 0,
    "openDays": [
      "平日",
      "土曜日",
      "日曜日",
      "祝日"
    ],
    "openDaysNote": ""
  },
  {
    "id": "2852380019",
    "name": "医療法人社団　仁恵会　介護老人保健施設　サンビラ三木",
    "kana": "イリョウホウジンシャダン　ジンケイカイ　カイゴロウジンホケンシセツ　サンビラミキ",
    "address": "兵庫県三木市与呂木字高野越６８３－４",
    "lat": 34.8075777931236,
    "lng": 135.00863699364,
    "tel": "0794-83-8118",
    "url": "http://www.jinkeikai-group.or.jp/sunvilla/",
    "pref": "兵庫県",
    "city": "三木市",
    "category": "home_help",
    "serviceType": "訪問介護",
    "capacity": 0,
    "openDays": [
      "平日",
      "土曜日",
      "祝日"
    ],
    "openDaysNote": "サービス提供に当たっては、チーム運営方式でサービス提供をしていますので、複数の介護員が交替してサービスを提供します。"
  },
  {
    "id": "2872301185",
    "name": "介護サービスさんふらわぁ",
    "kana": "カイゴサービスサンフラワァ",
    "address": "兵庫県三木市宿原11-1シルバーハウスひまわりの里2F シルバーハウスひまわりの里2F",
    "lat": 34.7970095211234,
    "lng": 135.000012769312,
    "tel": "0794-83-8137",
    "url": "",
    "pref": "兵庫県",
    "city": "三木市",
    "category": "home_help",
    "serviceType": "訪問介護",
    "capacity": null,
    "openDays": [
      "平日",
      "土曜日",
      "祝日"
    ],
    "openDaysNote": "上記時間外・日曜日は応相談"
  },
  {
    "id": "2872300930",
    "name": "三木市社会福祉協議会　ヘルパーステーション",
    "kana": "ミキシシャカイフクシキョウギカイヘルパーステーション",
    "address": "兵庫県三木市大塚１丁目６番４０号　三木市総合保健福祉センター２階",
    "lat": 34.7952746,
    "lng": 134.9962101,
    "tel": "0794-86-0888",
    "url": "http://www.miki.or.jp",
    "pref": "兵庫県",
    "city": "三木市",
    "category": "home_help",
    "serviceType": "訪問介護",
    "capacity": 0,
    "openDays": [
      "平日",
      "土曜日",
      "日曜日",
      "祝日"
    ],
    "openDaysNote": "電話等により24時間常時連絡が可能な体制"
  },
  {
    "id": "2872301003",
    "name": "太陽と月の家",
    "kana": "タイヨウトツキノイエ",
    "address": "兵庫県三木市志染町広野1-106",
    "lat": 34.7808352,
    "lng": 135.0093902,
    "tel": "0794-84-1868",
    "url": "",
    "pref": "兵庫県",
    "city": "三木市",
    "category": "home_help",
    "serviceType": "訪問介護",
    "capacity": 0,
    "openDays": [
      "平日"
    ],
    "openDaysNote": ""
  },