[
  {
    "id": "3071300101",
    "name": "かつらぎ町社会福祉協議会　花園介護事業所",
    "kana": "カツラギチョウシャカイフクシキョウギカイ　ハナゾノカイゴジギョウショ",
    "address": "和歌山県伊都郡かつらぎ町大字花園梁瀬１５７８番地の２かつらぎ町社会福祉協議会　花園介護事業所 かつらぎ町社会福祉協議会　花園介護事業所",
    "lat": 34.1444598,
    "lng": 135.5204827,
    "tel": "0737-26-0344",
    "url": "https://katuragishakyo.or.jp/",
    "pref": "和歌山県",
    "city": "かつらぎ町",
    "category": "home_help",
    "serviceType": "訪問介護",
    "capacity": 0,
    "openDays": [
      "平日",
      "祝日"
    ],
    "openDaysNote": "留意事項なし"
  },
  {
    "id": "3071300556",
    "name": "ケアステーション　ささゆりの里",
    "kana": "ケアステーション　ササユリノサト",
    "address": "和歌山県伊都郡かつらぎ町笠田東４３３番地",
    "lat": 34.288021,
    "lng": 135.4770219,
    "tel": "0736-22-3333",
    "url": "",
    "pref": "和歌山県",
    "city": "かつらぎ町",
    "category": "home_help",
    "serviceType": "訪問介護",
    "capacity": 14,
    "openDays": [
      "平日",
      "土曜日",
      "日曜日",
      "祝日"
    ],
    "openDaysNote": "身体介護・生活援助は９時～１７時　通院等乗降介助は７時３０分～２４時（但し、以外の時間帯も相談に応じます）"
  },
  {
    "id": "3071301000",
    "name": "医療法人南労会　かつらぎヘルパーステーション",
    "kana": "イリョウホウジンナンロウカイ　カツラギヘルパーステーション",
    "address": "笠田東15-2",
    "lat": 34.2922465,
    "lng": 135.4808247,
    "tel": "0736-22-6116",
    "url": "http://www.nanroukai.or.jp",
    "pref": "和歌山県",
    "city": "かつらぎ町",
    "category": "home_help",
    "serviceType": "訪問介護",
    "capacity": 0,
    "openDays": [
      "平日",
      "土曜日",
      "日曜日",
      "祝日"
    ],
    "openDaysNote": ""
  },
  {
    "id": "3071300960",
    "name": "株式会社ビッグプラネット",
    "kana": "カブシキガイシャビッグプラネット",
    "address": "和歌山県伊都郡かつらぎ町丁ノ町403-3",
    "lat": 34.300302,
    "lng": 135.5167442,
    "tel": "0736-25-6655",
    "url": "",
    "pref": "和歌山県",
    "city": "かつらぎ町",
    "category": "home_help",
    "serviceType": "訪問介護",
    "capacity": 0,
    "openDays": [
      "平日",
      "土曜日",
      "日曜日"
    ],
    "openDaysNote": ""
  },
  {
    "id": "3071300820",
    "name": "合同会社　輝",
    "kana": "ゴウドウガイシャ　カガヤキ",
    "address": "和歌山県伊都郡かつらぎ町丁ノ町818-2",
    "lat": 34.3023619,
    "lng": 135.5184343,
    "tel": "0736-20-2161",
    "url": "",
    "pref": "和歌山県",
    "city": "かつらぎ町",
    "category": "home_help",
    "serviceType": "訪問介護",
    "capacity": 0,
    "openDays": [
      "平日"
    ],
    "openDaysNote": "相談可"
  },
  {
    "id": "3071300952",
    "name": "訪問介護ステーションおやつ",
    "kana": "ホウモンカイゴステーションオヤツ",
    "address": "和歌山県伊都郡かつらぎ町大字三谷１６２０−４",
    "lat": 34.2916394,
    "lng": 135.5198749,
    "tel": "0736-20-2609",
    "url": "https//www.15oyatsu/co.jp",
    "pref": "和歌山県",
    "city": "かつらぎ町",
    "category": "home_help",
    "serviceType": "訪問介護",
    "capacity": 5,
    "openDays": [
      "平日"
    ],
    "openDaysNote": "時間要相談"
  },
  {
    "id": "3071300986",
    "name": "訪問介護ステーションはずみ",
    "kana": "ホウモンカイゴステーションハズミ",
    "address": "和歌山県伊都郡かつらぎ町笠田東７２－３",
    "lat": 34.2902555,
    "lng": 135.480475,
    "tel": "0736-20-5953",
    "url": "",
    "pref": "和歌山県",
    "city": "かつらぎ町",
    "category": "home_help",
    "serviceType": "訪問介護",
    "capacity": null,
    "openDays": [
      "平日",
      "土曜日",
      "日曜日",
      "祝日"
    ],
    "openDaysNote": "日曜～土曜（12/30～1/4を除く）（改行）但しご希望により対応させていただきます。"
  },
  {
    "id": "3072400793",
    "name": "社会福祉法人　すさみ町社会福祉協議会",
    "kana": "シャカイフクシホウジン　スサミチョウシャカイフクシキョウギカイ",
    "address": "和歌山県西牟婁郡すさみ町周参見４１３３",
    "lat": 33.5499592,
    "lng": 135.4955984,
    "tel": "0739-55-2580",
    "url": "https://susamishakyo.com/",
    "pref": "和歌山県",
    "city": "すさみ町",
    "category": "home_help",
    "serviceType": "訪問介護",
    "capacity": 0,
    "openDays": [
      "平日",
      "土曜日",
      "日曜日",
      "祝日"
    ],
    "openDaysNote": "ただし、上記のほか通常連絡可能な体制を整えて、電話により要請があれば、その都度対応する。"
  },
  {
    "id": "3072401429",
    "name": "和歌山県西牟婁郡すさみ町江住1330",
    "kana": "ワカヤマケンニシムログンスサミチョウエスミ",
    "address": "和歌山県西牟婁郡すさみ町江住1330",
    "lat": 33.5125409,
    "lng": 135.6041981,
    "tel": "0739-58-8111",
    "url": "",
    "pref": "和歌山県",
    "city": "すさみ町",
    "category": "home_help",
    "serviceType": "訪問介護",
    "capacity": 2,
    "openDays": [
      "平日"
    ],
    "openDaysNote": ""
  },
  {
    "id": "3072100781",
    "name": "ニチイケアセンターみなべ",
    "kana": "ニチイケアセンターミナベ",
    "address": "和歌山県日高郡みなべ町谷口502番地テナントＭ102号 テナントＭ102号",
    "lat": 33.7889002,
    "lng": 135.3261638,
    "tel": "0739-74-2160",
    "url": "",
    "pref": "和歌山県",
    "city": "みなべ町",
    "category": "home_help",
    "serviceType": "訪問介護",
    "capacity": 0,
    "openDays": [
      "平日",
      "土曜日",
      "日曜日",
      "祝日"
    ],
    "openDaysNote": "居宅サービス計画により、休業日及び営業時間外であってもサービス提供する場合があります。"
  },
  {
    "id": "3072100021",
    "name": "みなべ町社協はあと館",
    "kana": "ミナベチョウシャキョウハアトカン",
    "address": "和歌山県日高郡みなべ町芝447番地2",
    "lat": 33.7660335,
    "lng": 135.3235118,
    "tel": "0739-72-5611",
    "url": "http://www.wakayamanet.or.jp/minabeshakyo/",
    "pref": "和歌山県",
    "city": "みなべ町",
    "category": "home_help",
    "serviceType": "訪問介護",
    "capacity": 0,
    "openDays": [
      "平日"
    ],
    "openDaysNote": "必要に応じて、定休日及び営業時間外であってもサービス提供をする場合があります。"
  },
  {
    "id": "3072101029",
    "name": "ケアサポートかえる",
    "kana": "ケアサポートカエル",
    "address": "和歌山県日高郡印南町西ノ地２０－４",
    "lat": 33.8031820848358,
    "lng": 135.227681799231,
    "tel": "0738-20-4861",
    "url": "https://hp.kaipoke.biz/0sg/131118/base_0003.html",
    "pref": "和歌山県",
    "city": "印南町",
    "category": "home_help",
    "serviceType": "訪問介護",
    "capacity": 0,
    "openDays": [
      "平日"
    ],
    "openDaysNote": "サービスに関しては上記の定休日・営業時間でも可能。"
  },
  {
    "id": "3072100013",
    "name": "社会福祉法人　印南町社会福祉協議会",
    "kana": "シャカイフクシホウジン　イナミチョウシャカイフクシキョウギカイ",
    "address": "和歌山県日高郡印南町山口145-1",
    "lat": 33.8203606158922,
    "lng": 135.222506870436,
    "tel": "0738-42-1433",
    "url": "http://www.inami-syakyo.jp/",
    "pref": "和歌山県",
    "city": "印南町",
    "category": "home_help",
    "serviceType": "訪問介護",
    "capacity": 100,
    "openDays": [
      "平日",
      "祝日"
    ],
    "openDaysNote": "土日必要性のある場合サービスを提供します。"
  },
  {
    "id": "3071401453",
    "name": "Leoサポート",
    "kana": "レオサポート",
    "address": "和歌山県海南市山崎町３丁目２番４",
    "lat": 34.1597055,
    "lng": 135.2154022,
    "tel": "734036611",
    "url": "",
    "pref": "和歌山県",
    "city": "海南市",
    "category": "home_help",
    "serviceType": "訪問介護",
    "capacity": 30,
    "openDays": [
      "平日"
    ],
    "openDaysNote": "上記以外のサービス提供についても対応可能です。"
  },
  {
    "id": "3071400521",
    "name": "オスカーケアセンター",
    "kana": "オスカーケアセンター",
    "address": "和歌山県海南市重根東1-11-17",
    "lat": 34.1544201,
    "lng": 135.2494696,
    "tel": "073-485-1005",
    "url": "",
    "pref": "和歌山県",
    "city": "海南市",
    "category": "home_help",
    "serviceType": "訪問介護",
    "capacity": 0,
    "openDays": [
      "平日",
      "土曜日"
    ],
    "openDaysNote": "※人員の都合により、サービスの提供が難しい場合がございます。"
  },
  {
    "id": "3071100089",
    "name": "かぐのみ苑ホームヘルプサービス",
    "kana": "カグノミエンホームヘルプサービス",
    "address": "和歌山県海南市下津町丸田２２１",
    "lat": 34.1249427596336,
    "lng": 135.155358505557,
    "tel": "073-492-0100",
    "url": "",
    "pref": "和歌山県",
    "city": "海南市",
    "category": "home_help",
    "serviceType": "訪問介護",
    "capacity": 0,
    "openDays": [
      "平日",
      "土曜日",
      "日曜日",
      "祝日"
    ],
    "openDaysNote": "利用者と相談の上決定。希望により早朝・夜間の派遣可能"
  },
  {
    "id": "3071401370",
    "name": "ケアサポートつむぎ",
    "kana": "ケアサポートツムギ",
    "address": "和歌山県海南市且来233-8",
    "lat": 34.1727403,
    "lng": 135.2341376,
    "tel": "073-499-5856",
    "url": "",
    "pref": "和歌山県",
    "city": "海南市",
    "category": "home_help",
    "serviceType": "訪問介護",
    "capacity": 0,
    "openDays": [
      "平日",
      "土曜日",
      "日曜日",
      "祝日"
    ],
    "openDaysNote": "サービス提供日・提供時間は、相談に応じるものとする。"
  },
  {
    "id": "3071401198",
    "name": "ケアステーションあゆむ",
    "kana": "ケアステーションアユム",
    "address": "大野中747番地１ハウスリット202号室 ハウスリット202号室",
    "lat": 34.1705085,
    "lng": 135.2077281,
    "tel": "073-488-9483",
    "url": "",
    "pref": "和歌山県",
    "city": "海南市",
    "category": "home_help",
    "serviceType": "訪問介護",
    "capacity": 0,
    "openDays": [
      "平日",
      "祝日"
    ],
    "openDaysNote": "上記時間以外の介護サービスの提供に関しては相談に応じます"
  },
  {
    "id": "3071401479",
    "name": "ケアステーションエール",
    "kana": "ケアステーションエール",
    "address": "且来584番地",
    "lat": 34.1720098,
    "lng": 135.2411444,
    "tel": "073-497-6373",
    "url": "",
    "pref": "和歌山県",
    "city": "海南市",
    "category": "home_help",
    "serviceType": "訪問介護",
    "capacity": null,
    "openDays": [
      "平日",
      "祝日"
    ],
    "openDaysNote": "上記以外のサービスについては、相談に応じます"
  },
  {
    "id": "3071401461",
    "name": "ケアステーションきみこ",
    "kana": "ケアステーションキミコ",
    "address": "下津町下津1579",
    "lat": 34.1086677,
    "lng": 135.1385793,
    "tel": "073-463-8580",
    "url": "",
    "pref": "和歌山県",
    "city": "海南市",
    "category": "home_help",
    "serviceType": "訪問介護",
    "capacity": 0,
    "openDays": [
      "平日",
      "土曜日",
      "祝日"
    ],
    "openDaysNote": "ただし、国民の祝日、12月30日から1月3日までを除く。"
  },
  {
    "id": "3071400679",
    "name": "ケアセンター和が家",
    "kana": "ケアセンターワガヤ",
    "address": "和歌山県海南市木津273",
    "lat": 34.1518403,
    "lng": 135.2755507,
    "tel": "073-485-3001",
    "url": "",
    "pref": "和歌山県",
    "city": "海南市",
    "category": "home_help",
    "serviceType": "訪問介護",
    "capacity": 0,
    "openDays": [
      "平日",
      "土曜日",
      "日曜日",
      "祝日"
    ],
    "openDaysNote": "サービス時間帯は要相談"
  },
  {
    "id": "3071400638",
    "name": "セントケアかいなん",
    "kana": "セントケアカイナン",
    "address": "海南市日方1167-1日方スクエアB 日方スクエアB",
    "lat": 34.1539015373096,
    "lng": 135.213935536805,
    "tel": "073-484-2110",
    "url": "http://www.saint-care.com/",
    "pref": "和歌山県",
    "city": "海南市",
    "category": "home_help",
    "serviceType": "訪問介護",
    "capacity": 0,
    "openDays": [
      "平日"
    ],
    "openDaysNote": ""
  },
  {
    "id": "3071400158",
    "name": "ニチイケアセンター　海南",
    "kana": "ニチイケアセンター　カイナン",
    "address": "海南市　名高534-5　ナビオミカサビル２F",
    "lat": 34.1543304,
    "lng": 135.2129777,
    "tel": "073-484-3536",
    "url": "http://www.nichigakkan.co.jp",
    "pref": "和歌山県",
    "city": "海南市",
    "category": "home_help",
    "serviceType": "訪問介護",
    "capacity": 0,
    "openDays": [
      "平日"
    ],
    "openDaysNote": "居宅サービス計画により、休業日及び営業時間外であってもサービスを提供する場合があります。"
  },
  {
    "id": "3071401354",
    "name": "ニチイケアセンター下津",
    "kana": "ニチイケアセンターシモツ",
    "address": "和歌山県海南市下津町丁字竹ノ下103-1",
    "lat": 34.1219498988811,
    "lng": 135.15552960707,
    "tel": "073-493-1120",
    "url": "http://www.nichiigakkann.co.jp",
    "pref": "和歌山県",
    "city": "海南市",
    "category": "home_help",
    "serviceType": "訪問介護",
    "capacity": 0,
    "openDays": [
      "平日"
    ],
    "openDaysNote": "ただし居宅サービス計画により、営業時間外でもサービスの提供を行う場合がある。"
  },
  {
    "id": "3071401008",
    "name": "ニチイケアセンター黒江",
    "kana": "ニチイケアセンタークロエ",
    "address": "和歌山県海南市船尾213-1新　前田ビル２F 新　前田ビル２F",
    "lat": 34.1586016,
    "lng": 135.2036147,
    "tel": "073-484-2127",
    "url": "http://www.nichiigakkan.co.jp",
    "pref": "和歌山県",
    "city": "海南市",
    "category": "home_help",
    "serviceType": "訪問介護",
    "capacity": 100,
    "openDays": [
      "平日"
    ],
    "openDaysNote": "ただし、居宅サービス計画により、営業時間外でもサービスの提供を行う場合がある"
  },
  {
    "id": "3071400869",
    "name": "ヘルパーステーション　きら",
    "kana": "ヘルパーステーション　キラ",
    "address": "椋木１３１－３",
    "lat": 34.1591947418367,
    "lng": 135.282338688224,
    "tel": "０７３－４８７－５５１１",
    "url": "",
    "pref": "和歌山県",
    "city": "海南市",
    "category": "home_help",
    "serviceType": "訪問介護",
    "capacity": 0,
    "openDays": [
      "平日",
      "土曜日",
      "日曜日",
      "祝日"
    ],
    "openDaysNote": ""
  },
  {
    "id": "3071401321",
    "name": "ヘルパーステーション　はるな",
    "kana": "ヘルパーステーション　ハルナ",
    "address": "和歌山県海南市椋木173",
    "lat": 34.160403,
    "lng": 135.2815308,
    "tel": "073-487-3000",
    "url": "",
    "pref": "和歌山県",
    "city": "海南市",
    "category": "home_help",
    "serviceType": "訪問介護",
    "capacity": 0,
    "openDays": [
      "平日",
      "土曜日",
      "祝日"
    ],
    "openDaysNote": "事業所の営業時間外は相談に応じて提供"
  },
  {
    "id": "3071400794",
    "name": "ヘルパーステーション　ひだまり",
    "kana": "ヘルパーステーション　ヒダマリ",
    "address": "和歌山県海南市下津町方498-25",
    "lat": 34.1242926566908,
    "lng": 135.144530262183,
    "tel": "073-493-2100",
    "url": "https://www.kisan.or.jp",
    "pref": "和歌山県",
    "city": "海南市",
    "category": "home_help",
    "serviceType": "訪問介護",
    "capacity": 0,
    "openDays": [
      "平日",
      "土曜日",
      "日曜日",
      "祝日"
    ],
    "openDaysNote": ""
  },
  {
    "id": "3071400125",
    "name": "ライフパートナー",
    "kana": "ライフパートナー",
    "address": "海南市重根348-2ライフパートナー重根1F",
    "lat": 34.1561610717427,
    "lng": 135.243051976352,
    "tel": "073-487-2474",
    "url": "",
    "pref": "和歌山県",
    "city": "海南市",
    "category": "home_help",
    "serviceType": "訪問介護",
    "capacity": 0,
    "openDays": [
      "平日",
      "祝日"
    ],
    "openDaysNote": "定休日、土日　夜間、早朝　緊急時であっても相談の上対応している。"
  },
  {
    "id": "3071400075",
    "name": "特別養護老人ホーム　天美苑",
    "kana": "トクベツヨウゴロウジンホーム　テンビエン",
    "address": "海南市七山964番地1",
    "lat": 34.1961325,
    "lng": 135.3088888,
    "tel": "073-486-0114",
    "url": "http//tenbien.naxnet.jp/",
    "pref": "和歌山県",
    "city": "海南市",
    "category": "home_help",
    "serviceType": "訪問介護",
    "capacity": 0,
    "openDays": [
      "平日",
      "土曜日",
      "祝日"
    ],
    "openDaysNote": "訪問時間ついては、相談に応ず。"
  },
  {
    "id": "3071400596",
    "name": "訪問介護サービス・こころ",
    "kana": "ホウモンカイゴサービス・ココロ",
    "address": "和歌山県海南市下津町丸田232番地4",
    "lat": 34.12338375674,
    "lng": 135.15589861623,
    "tel": "073-499-7739",
    "url": "http://cocolo4031.com",
    "pref": "和歌山県",
    "city": "海南市",
    "category": "home_help",
    "serviceType": "訪問介護",
    "capacity": 0,
    "openDays": [
      "平日",
      "土曜日",
      "日曜日",
      "祝日"
    ],
    "openDaysNote": "個々の利用者の状況に応じて時間外についてもケースバイケースで対応致します。"
  },
  {
    "id": "3071400612",
    "name": "訪問介護ステーション　ウェルネス",
    "kana": "ホウモンカイゴステーション　ウェルネス",
    "address": "日方1274－76ウェルネス・コート海南 ウェルネス・コート海南",
    "lat": 34.1570047,
    "lng": 135.2062256,
    "tel": "073-483-0428",
    "url": "https://www.w428.jp/",
    "pref": "和歌山県",
    "city": "海南市",
    "category": "home_help",
    "serviceType": "訪問介護",
    "capacity": 0,
    "openDays": [
      "平日",
      "土曜日",
      "日曜日",
      "祝日"
    ],
    "openDaysNote": ""
  },
  {
    "id": "3071401420",
    "name": "訪問介護ステーション　グッデイ",
    "kana": "ホウモンカイゴステーション　グッデイ",
    "address": "重根530-1フレグランス大谷フレグランス大谷102号 フレグランス大谷102号",
    "lat": 34.1520084,
    "lng": 135.2453557,
    "tel": "073-488-2381",
    "url": "http://hp.kaipoke.biz/dav/",
    "pref": "和歌山県",
    "city": "海南市",
    "category": "home_help",
    "serviceType": "訪問介護",
    "capacity": 0,
    "openDays": [
      "平日",
      "祝日"
    ],
    "openDaysNote": "時間外については要相談。"
  },
  {
    "id": "3071401164",
    "name": "訪問介護ステーション　星に願いを",
    "kana": "ホウモンカイゴステーション　ホシニネガイヲ",
    "address": "木津288-1",
    "lat": 34.1508526168641,
    "lng": 135.275676254367,
    "tel": "073-487-1755",
    "url": "https://www.big-advance.site/.c/206/1292",
    "pref": "和歌山県",
    "city": "海南市",
    "category": "home_help",
    "serviceType": "訪問介護",
    "capacity": 10,
    "openDays": [
      "平日",
      "土曜日",
      "日曜日",
      "祝日"
    ],
    "openDaysNote": "上記時間外でもサービスを提供しています。"
  },
  {
    "id": "3071400430",
    "name": "訪問介護ステーション恵友",
    "kana": "ホウモンカイゴステーションケイユウ",
    "address": "海南市船尾２４９－１７",
    "lat": 34.1590486,
    "lng": 135.2002012,
    "tel": "073-483-0110",
    "url": "",
    "pref": "和歌山県",
    "city": "海南市",
    "category": "home_help",
    "serviceType": "訪問介護",
    "capacity": 0,
    "openDays": [
      "平日",
      "土曜日"
    ],
    "openDaysNote": "随時対応"
  },
  {
    "id": "3071800738",
    "name": "lalalaライフケア",
    "kana": "ラララ　ライフケア",
    "address": "和歌山県岩出市南大池２１４番地の１",
    "lat": 34.2752263,
    "lng": 135.3264098,
    "tel": "０７３６-６７-７６８２",
    "url": "lalalalifecare@icloud.com",
    "pref": "和歌山県",
    "city": "岩出市",
    "category": "home_help",
    "serviceType": "訪問介護",
    "capacity": 0,
    "openDays": [
      "平日",
      "土曜日"
    ],
    "openDaysNote": ""
  },
  {
    "id": "3071800787",
    "name": "アシュアケアステーション",
    "kana": "アシュアケアステーション",
    "address": "和歌山県岩出市吉田３８２－１４",
    "lat": 34.2660057,
    "lng": 135.2774804,
    "tel": "０７３６－６０－３３１０",
    "url": "",
    "pref": "和歌山県",
    "city": "岩出市",
    "category": "home_help",
    "serviceType": "訪問介護",
    "capacity": 0,
    "openDays": [
      "平日",
      "土曜日"
    ],
    "openDaysNote": ""
  },
  {
    "id": "3071201077",
    "name": "きのくに訪問介護ステーション",
    "kana": "キノクニホウモンカイゴステーション",
    "address": "和歌山県岩出市水栖145-5",
    "lat": 34.2677603,
    "lng": 135.323774,
    "tel": "0736-69-5321",
    "url": "",
    "pref": "和歌山県",
    "city": "岩出市",
    "category": "home_help",
    "serviceType": "訪問介護",
    "capacity": 20,
    "openDays": [
      "平日",
      "土曜日",
      "日曜日",
      "祝日"
    ],
    "openDaysNote": ""
  },
  {
    "id": "3071800274",
    "name": "セントケア那賀",
    "kana": "セントケアナガ",
    "address": "和歌山県岩出市川尻14-1フォレストボックス1　2F8号室 フォレストボックス1　2F8号室",
    "lat": 34.2695826291545,
    "lng": 135.309352516533,
    "tel": "0736-67-7821",
    "url": "",
    "pref": "和歌山県",
    "city": "岩出市",
    "category": "home_help",
    "serviceType": "訪問介護",
    "capacity": 3,
    "openDays": [
      "平日",
      "土曜日",
      "日曜日",
      "祝日"
    ],
    "openDaysNote": "時間外でも検討いたします。"
  },
  {
    "id": "3071800779",
    "name": "ﾆﾁｲｹｱｾﾝﾀｰいわで",
    "kana": "ニチイケアセンターイワデ",
    "address": "和歌山県岩出市中迫248-1田中ビル2F西 田中ビル2F西",
    "lat": 34.262964,
    "lng": 135.3123763,
    "tel": "0736-69-5131",
    "url": "",
    "pref": "和歌山県",
    "city": "岩出市",
    "category": "home_help",
    "serviceType": "訪問介護",
    "capacity": 5,
    "openDays": [
      "平日",
      "土曜日",
      "日曜日",
      "祝日"
    ],
    "openDaysNote": "現在実施している時間帯です。"
  },
  {
    "id": "3071800951",
    "name": "ヘルパーステーション　さざんか",
    "kana": "ヘルパーステーション　サザンカ",
    "address": "和歌山県岩出市水栖98-1",
    "lat": 34.2653029991124,
    "lng": 135.323925709787,
    "tel": "0736-79-8400",
    "url": "https://www.sowan-lien.net",
    "pref": "和歌山県",
    "city": "岩出市",
    "category": "home_help",
    "serviceType": "訪問介護",
    "capacity": null,
    "openDays": [
      "平日",
      "土曜日",
      "日曜日",
      "祝日"
    ],
    "openDaysNote": ""
  },
  {
    "id": "3071800720",
    "name": "ヘルパーステーション　小春の里",
    "kana": "ヘルパーステーション　コハルノサト",
    "address": "山田6-2",
    "lat": 34.7733325,
    "lng": 135.3889433,
    "tel": "0736-62-2102",
    "url": "https://www.sowan-lien.net/",
    "pref": "和歌山県",
    "city": "岩出市",
    "category": "home_help",
    "serviceType": "訪問介護",
    "capacity": 48,
    "openDays": [
      "平日",
      "土曜日",
      "日曜日",
      "祝日"
    ],
    "openDaysNote": ""
  },
  {
    "id": "3071800878",
    "name": "ヘルパーステーションうらら",
    "kana": "ヘルパーステーションウララ",
    "address": "和歌山県岩出市山878-5メインストリート豊和ⅢB棟東号室 メインストリート豊和ⅢB棟東号室",
    "lat": 34.2741937,
    "lng": 135.2871677,
    "tel": "0736-67-8801",
    "url": "",
    "pref": "和歌山県",
    "city": "岩出市",
    "category": "home_help",
    "serviceType": "訪問介護",
    "capacity": null,
    "openDays": [
      "平日",
      "祝日"
    ],
    "openDaysNote": ""
  },
  {
    "id": "3071800357",
    "name": "ヘルパーステーションえんがわ",
    "kana": "ヘルパーステーションエンガワ",
    "address": "和歌山県岩出市畑毛111-1エルダリーハウスえんがわ エルダリーハウスえんがわ",
    "lat": 34.2631264508009,
    "lng": 135.302563194287,
    "tel": "0736-63-4165",
    "url": "",
    "pref": "和歌山県",
    "city": "岩出市",
    "category": "home_help",
    "serviceType": "訪問介護",
    "capacity": 0,
    "openDays": [
      "平日",
      "土曜日",
      "日曜日",
      "祝日"
    ],
    "openDaysNote": ""
  },
  {
    "id": "3071800290",
    "name": "ヘルパーステーションこころ",
    "kana": "ヘルパーステーションココロ",
    "address": "和歌山県岩出市森112-1",
    "lat": 34.2709744487463,
    "lng": 135.310345068678,
    "tel": "0736-67-7227",
    "url": "https://kokoro-himawari.com/",
    "pref": "和歌山県",
    "city": "岩出市",
    "category": "home_help",
    "serviceType": "訪問介護",
    "capacity": 5,
    "openDays": [
      "平日",
      "祝日"
    ],
    "openDaysNote": "利用者さんの希望により２４時間対応"
  },
  {
    "id": "3071800670",
    "name": "ヘルパーステーションことぶき",
    "kana": "ヘルパーステーションコトブキ",
    "address": "和歌山県岩出市中迫188番地の6",
    "lat": 34.2617737775007,
    "lng": 135.312765308827,
    "tel": "0736-67-8888",
    "url": "",
    "pref": "和歌山県",
    "city": "岩出市",
    "category": "home_help",
    "serviceType": "訪問介護",
    "capacity": 0,
    "openDays": [
      "平日",
      "祝日"
    ],
    "openDaysNote": ""
  },
  {
    "id": "3071800886",
    "name": "ヘルパーステーションこもれびの里",
    "kana": "ヘルパーステーションコモレビノサト",
    "address": "和歌山県岩出市中島字古川718-3",
    "lat": 34.258704,
    "lng": 135.287655,
    "tel": "0736-63-3830",
    "url": "http://www.sowan-lien.net",
    "pref": "和歌山県",
    "city": "岩出市",
    "category": "home_help",
    "serviceType": "訪問介護",
    "capacity": 0,
    "openDays": [
      "平日",
      "土曜日",
      "日曜日",
      "祝日"
    ],
    "openDaysNote": ""
  },
  {
    "id": "3071800910",
    "name": "ヘルパーステーションつむぎ",
    "kana": "ヘルパーステーションツムギ",
    "address": "和歌山県岩出市吉田92-14ソル・ヤード吉田101 ソル・ヤード吉田101",
    "lat": 34.2692685,
    "lng": 135.2771545,
    "tel": "0736-67-6287",
    "url": "",
    "pref": "和歌山県",
    "city": "岩出市",
    "category": "home_help",
    "serviceType": "訪問介護",
    "capacity": 0,
    "openDays": [
      "平日",
      "祝日"
    ],
    "openDaysNote": ""
  },
  {
    "id": "3071201333",
    "name": "ヘルパーステーションらふ",
    "kana": "ヘルパーステーションラフ",
    "address": "和歌山県岩出市根来866-6",
    "lat": 34.2774808885193,
    "lng": 135.305736358947,
    "tel": "0736-60-8027",
    "url": "",
    "pref": "和歌山県",
    "city": "岩出市",
    "category": "home_help",
    "serviceType": "訪問介護",
    "capacity": 0,
    "openDays": [
      "平日",
      "土曜日",
      "祝日"
    ],
    "openDaysNote": "年中無休　２４時間体制"
  },
  {
    "id": "3071800456",
    "name": "ヘルパーステーション金池",
    "kana": "ヘルパーステーションカナイケ",
    "address": "和歌山県　岩出市　金池　19-1",
    "lat": 34.2740763,
    "lng": 135.2938506,
    "tel": "0736-69-0877",
    "url": "www.bananahome.jp",
    "pref": "和歌山県",
    "city": "岩出市",
    "category": "home_help",
    "serviceType": "訪問介護",
    "capacity": 0,
    "openDays": [],
    "openDaysNote": ""
  },
  {
    "id": "3071800134",
    "name": "ヘルパーステーション憩いの里",
    "kana": "ヘルパーステーションイコイノサト",
    "address": "和歌山県岩出市船戸１１６番地",
    "lat": 34.248987,
    "lng": 135.3090098,
    "tel": "0736-69-0500",
    "url": "http://www.ikoi-sato.jp",
    "pref": "和歌山県",
    "city": "岩出市",
    "category": "home_help",
    "serviceType": "訪問介護",
    "capacity": 0,
    "openDays": [
      "平日",
      "土曜日",
      "日曜日",
      "祝日"
    ],
    "openDaysNote": "24時間対応可能。"
  },
  {
    "id": "3071800548",
    "name": "ヘルパーステーション小春日和",
    "kana": "ヘルパーステーションコハルビヨリ",
    "address": "西国分793-1住宅型有料老人ホーム小春日和 住宅型有料老人ホーム小春日和",
    "lat": 34.2626053,
    "lng": 135.3351898,
    "tel": "0736-69-5255",
    "url": "http://www.sowan-lien.net/",
    "pref": "和歌山県",
    "city": "岩出市",
    "category": "home_help",
    "serviceType": "訪問介護",
    "capacity": 0,
    "openDays": [
      "平日",
      "土曜日",
      "日曜日",
      "祝日"
    ],
    "openDaysNote": ""
  },
  {
    "id": "3071201416",
    "name": "ホームヘルパーステーションとみた",
    "kana": "ホームヘルパーステーショントミタ",
    "address": "岩出市紀泉台432",
    "lat": 34.2809699,
    "lng": 135.2930312,
    "tel": "0736-61-3722",
    "url": "http://www.tomita.or.jp",
    "pref": "和歌山県",
    "city": "岩出市",
    "category": "home_help",
    "serviceType": "訪問介護",
    "capacity": 0,
    "openDays": [
      "平日",
      "土曜日",
      "日曜日",
      "祝日"
    ],
    "openDaysNote": ""
  },
  {
    "id": "3071800415",
    "name": "ホームヘルプサービスエンジョイ",
    "kana": "ホームヘルプサービスエンジョイ",
    "address": "和歌山県岩出市吉田242-9",
    "lat": 34.266026331617,
    "lng": 135.281120417006,
    "tel": "0736-62-8811",
    "url": "",
    "pref": "和歌山県",
    "city": "岩出市",
    "category": "home_help",
    "serviceType": "訪問介護",
    "capacity": 0,
    "openDays": [
      "平日",
      "土曜日",
      "日曜日",
      "祝日"
    ],
    "openDaysNote": ""
  },
  {
    "id": "3071800928",
    "name": "訪問介護OhanA",
    "kana": "ホウモンカイゴ　オハナ",
    "address": "和歌山県岩出市山51-11",
    "lat": 34.2744785,
    "lng": 135.2763671,
    "tel": "080-4482-2525",
    "url": "",
    "pref": "和歌山県",
    "city": "岩出市",
    "category": "home_help",
    "serviceType": "訪問介護",
    "capacity": 0,
    "openDays": [
      "平日",
      "土曜日",
      "日曜日",
      "祝日"
    ],
    "openDaysNote": ""
  },
  {
    "id": "3071700482",
    "name": "㈱あおぞらケアセンター紀の川",
    "kana": "（カブ）アオゾラケアセンターキノカワ",
    "address": "和歌山県紀の川市貴志川町丸栖687-3",
    "lat": 34.2338497,
    "lng": 135.3242694,
    "tel": "0736-64-0771",
    "url": "",
    "pref": "和歌山県",
    "city": "紀の川市",
    "category": "home_help",
    "serviceType": "訪問介護",
    "capacity": 0,
    "openDays": [
      "平日",
      "土曜日",
      "日曜日",
      "祝日"
    ],
    "openDaysNote": "早朝（７：00～）の要望がある場合は対応可能としている。"
  },
  {
    "id": "3071701126",
    "name": "ＯＣＥＡＮヘルパーステーション",
    "kana": "オーシャンヘルパーステーション",
    "address": "和歌山県紀の川市貴志川町丸栖662番地１",
    "lat": 34.2320522,
    "lng": 135.3238531,
    "tel": "0736-60-3792",
    "url": "",
    "pref": "和歌山県",
    "city": "紀の川市",
    "category": "home_help",
    "serviceType": "訪問介護",
    "capacity": null,
    "openDays": [
      "平日"
    ],
    "openDaysNote": "上記時間以外は応相談"
  },
  {
    "id": "3071700599",
    "name": "ガーデン紀の川",
    "kana": "ガーデンキノカワ",
    "address": "畑野上121番地1",
    "lat": 34.2592009140124,
    "lng": 135.349957158336,
    "tel": "0736-78-1165",
    "url": "http://garden-kinokawa.jp/",
    "pref": "和歌山県",
    "city": "紀の川市",
    "category": "home_help",
    "serviceType": "訪問介護",
    "capacity": 44,
    "openDays": [
      "平日",
      "土曜日",
      "日曜日",
      "祝日"
    ],
    "openDaysNote": ""
  },
  {
    "id": "3071700920",
    "name": "ここあケアセンター",
    "kana": "ココアケアセンター",
    "address": "和歌山県紀の川市貴志川町前田570番地8",
    "lat": 34.223054,
    "lng": 135.3208312,
    "tel": "0736-67-7645",
    "url": "",
    "pref": "和歌山県",
    "city": "紀の川市",
    "category": "home_help",
    "serviceType": "訪問介護",
    "capacity": 0,
    "openDays": [
      "平日",
      "土曜日",
      "祝日"
    ],
    "openDaysNote": ""
  },
  {
    "id": "3071700284",
    "name": "ニチイケアセンター紀の川",
    "kana": "ニチイケアセンターキノカワ",
    "address": "和歌山県紀の川市粉河420-2瑞穂ビル2A 瑞穂ビル2A",
    "lat": 34.2691006,
    "lng": 135.4079847,
    "tel": "0736-73-7250",
    "url": "http://www.nichiigakkan.co.jp",
    "pref": "和歌山県",
    "city": "紀の川市",
    "category": "home_help",
    "serviceType": "訪問介護",
    "capacity": 10,
    "openDays": [
      "平日",
      "土曜日",
      "日曜日",
      "祝日"
    ],
    "openDaysNote": "現在の状況です。"
  },
  {
    "id": "3071201242",
    "name": "ヘルパーステーション　なだい",
    "kana": "ヘルパーステーション　ナダイ",
    "address": "和歌山県紀の川下井阪605番地トータルケアセンターなだい トータルケアセンターなだい",
    "lat": 34.2565948,
    "lng": 135.3382342,
    "tel": "0736-78-2055",
    "url": "http://www.tcc-nadai.com",
    "pref": "和歌山県",
    "city": "紀の川市",
    "category": "home_help",
    "serviceType": "訪問介護",
    "capacity": 0,
    "openDays": [
      "平日",
      "土曜日",
      "日曜日",
      "祝日"
    ],
    "openDaysNote": "平日に対応させて頂いている方の状況に変化があれば土日祝日にも対応します。（改行）夜間の対応は訪問看護と連携しています。（改行）上記以外の時間帯も場合によっては、相談に応じます。"
  },
  {
    "id": "3071701167",
    "name": "ヘルパーステーションNICO",
    "kana": "ヘルパーステーションニコ",
    "address": "和歌山県紀の川市下井阪605番地",
    "lat": 34.2586472,
    "lng": 135.338961,
    "tel": "0736-78-1255",
    "url": "",
    "pref": "和歌山県",
    "city": "紀の川市",
    "category": "home_help",
    "serviceType": "訪問介護",
    "capacity": 0,
    "openDays": [
      "平日",
      "土曜日",
      "日曜日",
      "祝日"
    ],
    "openDaysNote": "年末年始（12/30～1/3）を除く。"
  },
  {
    "id": "3071701076",
    "name": "ヘルパーステーションくろーばー",
    "kana": "ヘルパーステーションクローバー",
    "address": "和歌山県紀の川市南中219-14",
    "lat": 34.2800231389674,
    "lng": 135.358711241087,
    "tel": "0736-77-0587",
    "url": "http://clover002784.html.xdomain.jp",
    "pref": "和歌山県",
    "city": "紀の川市",
    "category": "home_help",
    "serviceType": "訪問介護",
    "capacity": null,
    "openDays": [
      "平日",
      "土曜日",
      "日曜日",
      "祝日"
    ],
    "openDaysNote": "時間外であっても、必要・相談に応じて対応可能。"
  },
  {
    "id": "3071701043",
    "name": "ヘルパーステーションぴーち",
    "kana": "ヘルパーステーションピーチ",
    "address": "和歌山県紀の川市東大井321番地4",
    "lat": 34.2689989,
    "lng": 135.3663013,
    "tel": "0736ー78ー1877",
    "url": "https://peach-kinokawa.com",
    "pref": "和歌山県",
    "city": "紀の川市",
    "category": "home_help",
    "serviceType": "訪問介護",
    "capacity": 0,
    "openDays": [
      "平日",
      "土曜日",
      "日曜日"
    ],
    "openDaysNote": ""
  },
  {
    "id": "3071701175",
    "name": "ヘルパーステーションむぎ",
    "kana": "ヘルパーステーションムギ",
    "address": "和歌山県紀の川市貴志川町井ノ口693-7",
    "lat": 34.2040664,
    "lng": 135.315173,
    "tel": "0736-60-6056",
    "url": "https://mugi20220515.jp/",
    "pref": "和歌山県",
    "city": "紀の川市",
    "category": "home_help",
    "serviceType": "訪問介護",
    "capacity": 0,
    "openDays": [
      "平日",
      "土曜日",
      "日曜日",
      "祝日"
    ],
    "openDaysNote": ""
  },
  {
    "id": "3071700953",
    "name": "ヘルパーテーション雅",
    "kana": "ヘルパーステーションミヤビ",
    "address": "粉河1775-1百式楼２０1号室内 百式楼２０1号室内",
    "lat": 34.2732210876089,
    "lng": 135.404400059303,
    "tel": "0736-79-3237",
    "url": "http://miyabi537/com/",
    "pref": "和歌山県",
    "city": "紀の川市",
    "category": "home_help",
    "serviceType": "訪問介護",
    "capacity": null,
    "openDays": [
      "平日",
      "土曜日",
      "日曜日",
      "祝日"
    ],
    "openDaysNote": ""
  },
  {
    "id": "3071201192",
    "name": "ホームヘルパーステーション後楽",
    "kana": "ホームヘルパーステーションコウラク",
    "address": "和歌山県紀の川市黒土262番地ケアハウス後楽荘 ケアハウス後楽荘",
    "lat": 34.2610869,
    "lng": 135.3786922,
    "tel": "0736-77-3575",
    "url": "http://www.kourakusou3575.sakura.ne.jp/",
    "pref": "和歌山県",
    "city": "紀の川市",
    "category": "home_help",
    "serviceType": "訪問介護",
    "capacity": 70,
    "openDays": [
      "平日",
      "土曜日",
      "日曜日",
      "祝日"
    ],
    "openDaysNote": "但し、電話等により24時間、365日体制とします"
  },
  {
    "id": "3071700037",
    "name": "ホームヘルプサービス　こんにちは",
    "kana": "ホームヘルプサービス　コンニチハ",
    "address": "桃山町元764-1",
    "lat": 34.237473457416,
    "lng": 135.354540325513,
    "tel": "0736-66-0052",
    "url": "",
    "pref": "和歌山県",
    "city": "紀の川市",
    "category": "home_help",
    "serviceType": "訪問介護",
    "capacity": 0,
    "openDays": [
      "平日",
      "土曜日",
      "日曜日",
      "祝日"
    ],
    "openDaysNote": ""
  },
  {
    "id": "3071200871",
    "name": "まりっくすホームヘルプサービスセンター打田",
    "kana": "マリックスホームヘルプサービスセンターウチタ",
    "address": "和歌山県紀の川市打田１３３６－１岡ビル2F 岡ビル2F",
    "lat": 34.2621058,
    "lng": 135.3653846,
    "tel": "0736-77-0653",
    "url": "http://www.marix317.com",
    "pref": "和歌山県",
    "city": "紀の川市",
    "category": "home_help",
    "serviceType": "訪問介護",
    "capacity": 0,
    "openDays": [
      "平日",
      "土曜日",
      "日曜日",
      "祝日"
    ],
    "openDaysNote": "当社が特別に認めた場合はこの限りではありません。"
  },
  {
    "id": "3071700581",
    "name": "よっといで長山",
    "kana": "ヨットイデナガヤマ",
    "address": "和歌山県紀ノ川市貴志川町長山259-5",
    "lat": 34.2102386,
    "lng": 135.2914157,
    "tel": "0736-64-2798",
    "url": "https://www.pasona-lc.co.jp/",
    "pref": "和歌山県",
    "city": "紀の川市",
    "category": "home_help",
    "serviceType": "訪問介護",
    "capacity": 0,
    "openDays": [
      "平日",
      "土曜日",
      "日曜日",
      "祝日"
    ],
    "openDaysNote": "日曜日・祝日・大型連休・年末年始については、ご利用者様と相談させていただきます。"
  },
  {
    "id": "3071701092",
    "name": "株式会社　Nouvelespoir",
    "kana": "カブシキガイシャ　ヌーベルエスポワール",
    "address": "桃山町元８７３番地",
    "lat": 34.2353919,
    "lng": 135.3540669,
    "tel": "0736-67-7570",
    "url": "",
    "pref": "和歌山県",
    "city": "紀の川市",
    "category": "home_help",
    "serviceType": "訪問介護",
    "capacity": null,
    "openDays": [
      "平日"
    ],
    "openDaysNote": ""
  },
  {
    "id": "3071700508",
    "name": "株式会社　大樹　ヘルパーステーション　ぐりーん",
    "kana": "カブシキカイシャ　ダイキ　ヘルパーステーション　グリーン",
    "address": "和歌山県紀の川市畑野上226-1",
    "lat": 34.2678907005733,
    "lng": 135.350424159331,
    "tel": "0736-79-3381",
    "url": "",
    "pref": "和歌山県",
    "city": "紀の川市",
    "category": "home_help",
    "serviceType": "訪問介護",
    "capacity": 0,
    "openDays": [
      "平日",
      "土曜日",
      "祝日"
    ],
    "openDaysNote": "上記サービス以外の時間でもサービスを利用できる場合もございます。"
  },
  {
    "id": "3071200079",
    "name": "紀の川市社会福祉協議会　介護サービス事業所",
    "kana": "キノカワシシャカイフクシキョウギカイ　カイゴサービスジギョウショ",
    "address": "和歌山県紀の川市桃山町最上1253番地2",
    "lat": 34.2196687154586,
    "lng": 135.3497783,
    "tel": "0736-66-1200",
    "url": "https://kinokawashishakyo.jp/",
    "pref": "和歌山県",
    "city": "紀の川市",
    "category": "home_help",
    "serviceType": "訪問介護",
    "capacity": 0,
    "openDays": [
      "平日",
      "土曜日",
      "日曜日",
      "祝日"
    ],
    "openDaysNote": "紀の川市全域。　その他の訪問時間はご相談下さい。"
  },
  {
    "id": "3071201432",
    "name": "特定非営利活動法人三敬福祉会訪問介護ステーション",
    "kana": "トクテイヒエイリカツドウホウジンサンケイフクシカイホウモンカイゴステーション",
    "address": "和歌山県紀の川市桃山町市場１８６番地",
    "lat": 34.2395803,
    "lng": 135.3501669,
    "tel": "0736-66-1245",
    "url": "sankei-fukushikai@maia.eonet.ne.jp",
    "pref": "和歌山県",
    "city": "紀の川市",
    "category": "home_help",
    "serviceType": "訪問介護",
    "capacity": 5,
    "openDays": [
      "平日",
      "土曜日",
      "日曜日",
      "祝日"
    ],
    "openDaysNote": ""
  },
  {
    "id": "3071200350",
    "name": "風の里ホームヘルプサービス",
    "kana": "カゼノサトホームヘルプサービス",
    "address": "紀の川市粉河９５１－１",
    "lat": 34.2689057,
    "lng": 135.4025012,
    "tel": "0736-74-3116",
    "url": "http://koyokai.or.jp",
    "pref": "和歌山県",
    "city": "紀の川市",
    "category": "home_help",
    "serviceType": "訪問介護",
    "capacity": 0,
    "openDays": [
      "平日",
      "土曜日",
      "日曜日",
      "祝日"
    ],
    "openDaysNote": ""
  },
  {
    "id": "3071201259",
    "name": "訪問介護ステーション　ハートフル",
    "kana": "ホウモンカイゴステーション　ハートフル",
    "address": "和歌山県紀の川市貴志川町長原1037-4",
    "lat": 34.2082114,
    "lng": 135.3051863,
    "tel": "0736-64-1507",
    "url": "http://human-pc.com/wp1/",
    "pref": "和歌山県",
    "city": "紀の川市",
    "category": "home_help",
    "serviceType": "訪問介護",
    "capacity": 0,
    "openDays": [
      "平日",
      "土曜日",
      "日曜日",
      "祝日"
    ],
    "openDaysNote": "5/3～5/5・8/13～8/16・12/30～1/3を除く。（改行）日曜祝日に関してはご相談により随時対応。"
  },
  {
    "id": "3071700631",
    "name": "訪問介護ステーション　りんく",
    "kana": "ホウモンカイゴステーション　リンク",
    "address": "和歌山県紀の川市畑野上333-1",
    "lat": 34.2599707198327,
    "lng": 135.347488268271,
    "tel": "0736-79-3832",
    "url": "",
    "pref": "和歌山県",
    "city": "紀の川市",
    "category": "home_help",
    "serviceType": "訪問介護",
    "capacity": 40,
    "openDays": [
      "平日",
      "祝日"
    ],
    "openDaysNote": "必要に応じて利用できる時間を調整させて頂きます。夜間、早朝も必要に応じて対応させていただきます。"
  },
  {
    "id": "3071700912",
    "name": "訪問介護事業所じんべえ",
    "kana": "ホウモンカイゴジギョウショジンベエ",
    "address": "和歌山県紀の川市打田1342番地1クルーセ102 クルーセ102",
    "lat": 34.2624918,
    "lng": 135.3648513,
    "tel": "0736-88-9186",
    "url": "",
    "pref": "和歌山県",
    "city": "紀の川市",
    "category": "home_help",
    "serviceType": "訪問介護",
    "capacity": 0,
    "openDays": [
      "平日"
    ],
    "openDaysNote": "営業日・時間外は相談に応じ対応可能範囲で対応します。"
  },
  {
    "id": "3071201499",
    "name": "有限会社　ニューステージ",
    "kana": "ユウゲンガイシャ　ニューステージ",
    "address": "和歌山県紀の川市貴志川町尼寺186",
    "lat": 34.2239843,
    "lng": 135.3125127,
    "tel": "0736-65-1117",
    "url": "",
    "pref": "和歌山県",
    "city": "紀の川市",
    "category": "home_help",
    "serviceType": "訪問介護",
    "capacity": 30,
    "openDays": [
      "平日",
      "土曜日",
      "日曜日",
      "祝日"
    ],
    "openDaysNote": "上記以外の時間については　御相談させて頂きます。"
  },
  {
    "id": "3071100394",
    "name": "ヘルパーステーション　たんぽぽ",
    "kana": "ヘルパーステーション　タンポポ",
    "address": "和歌山県海草郡紀美野町下佐々１３３８－２メゾンアクア１０２号",
    "lat": 34.1523029,
    "lng": 135.3134017,
    "tel": "073-489-8011",
    "url": "",
    "pref": "和歌山県",
    "city": "紀美野町",
    "category": "home_help",
    "serviceType": "訪問介護",
    "capacity": 0,
    "openDays": [
      "平日",
      "土曜日",
      "日曜日",
      "祝日"
    ],
    "openDaysNote": "電話等により２４時間常時連絡が可能な体制をとり、訪問介護を利用できる時間についてはその都度、利用者様のご要望に添えるよう臨機応変に対応させて頂きます。"
  },
  {
    "id": "3071100345",
    "name": "社会福祉法人　紀美野町社会福祉協議会　紀美野訪問介護事業所",
    "kana": "シャカイフクシホウジン　キミノチョウシャカイフクシキョウギカイ　キミノホウモンカイゴジギョウショ",
    "address": "海草郡紀美野町下佐々1408番地4総合福祉センター 総合福祉センター",
    "lat": 34.1521352,
    "lng": 135.3109025,
    "tel": "073-489-9962",
    "url": "",
    "pref": "和歌山県",
    "city": "紀美野町",
    "category": "home_help",
    "serviceType": "訪問介護",
    "capacity": 0,
    "openDays": [
      "平日",
      "土曜日",
      "祝日"
    ],
    "openDaysNote": ""
  },
  {
    "id": "3071100246",
    "name": "美里園ホームヘルパーステーション",
    "kana": "ミサトエンホームヘルパーステーション",
    "address": "和歌山県海草郡紀美野町安井6-1",
    "lat": 34.1490559,
    "lng": 135.3466156,
    "tel": "073-495-3216",
    "url": "http://seiwa-sws.or.jp/",
    "pref": "和歌山県",
    "city": "紀美野町",
    "category": "home_help",
    "serviceType": "訪問介護",
    "capacity": null,
    "openDays": [
      "平日"
    ],
    "openDaysNote": "利用者及び家族の状況等により、サービス提供時間は柔軟に対応。"
  },
  {
    "id": "3071001261",
    "name": "あんずケアステーション",
    "kana": "アンズケアステーション",
    "address": "和歌山県橋本市市脇1丁目734-3シノウビル２F北号室 シノウビル２F北号室",
    "lat": 34.3161635,
    "lng": 135.6016827,
    "tel": "0736-26-5197",
    "url": "",
    "pref": "和歌山県",
    "city": "橋本市",
    "category": "home_help",
    "serviceType": "訪問介護",
    "capacity": 0,
    "openDays": [
      "平日"
    ],
    "openDaysNote": "サービス提供についてはケアプランに基づいて行う。"
  },
  {
    "id": "3071000602",
    "name": "ケアセクション伊都",
    "kana": "ケアセクションイト",
    "address": "和歌山県橋本市高野口町名倉２３４",
    "lat": 34.3040618,
    "lng": 135.5535986,
    "tel": "0736-42-3910",
    "url": "http://www.npo-comnet.jp",
    "pref": "和歌山県",
    "city": "橋本市",
    "category": "home_help",
    "serviceType": "訪問介護",
    "capacity": null,
    "openDays": [
      "平日",
      "土曜日"
    ],
    "openDaysNote": ""
  },
  {
    "id": "3071001477",
    "name": "ケアセンターサニー",
    "kana": "ケアセンターサニー",
    "address": "和歌山県橋本市高野口町伏原243番地の1",
    "lat": 34.3075796414895,
    "lng": 135.572178652779,
    "tel": "0736-43-1546",
    "url": "",
    "pref": "和歌山県",
    "city": "橋本市",
    "category": "home_help",
    "serviceType": "訪問介護",
    "capacity": 1,
    "openDays": [
      "平日"
    ],
    "openDaysNote": "緊急時や土日祝のサービスは相談にて対応"
  },
  {
    "id": "3071001063",
    "name": "ケアセンター和の里",
    "kana": "ケアセンターワノサト",
    "address": "和歌山県橋本市紀見ヶ丘2丁目2番1号",
    "lat": 34.3654150061489,
    "lng": 135.609519163229,
    "tel": "0736-26-7023",
    "url": "http://wanosato-kowa.com/",
    "pref": "和歌山県",
    "city": "橋本市",
    "category": "home_help",
    "serviceType": "訪問介護",
    "capacity": 0,
    "openDays": [
      "平日",
      "土曜日",
      "祝日"
    ],
    "openDaysNote": "12月30日～1月3日休み（改行）訪問介護サービス提供対応日(月曜日～土曜日までとする。但し、12月30日～1月3日までを除く。）"
  },
  {
    "id": "3071000792",
    "name": "ケアプラザ柚っ子",
    "kana": "ケアプラザユッコ",
    "address": "橋本市城山台2丁目１1－5",
    "lat": 34.3483439260341,
    "lng": 135.613155696295,
    "tel": "０７３６－２６－７４６０",
    "url": "",
    "pref": "和歌山県",
    "city": "橋本市",
    "category": "home_help",
    "serviceType": "訪問介護",
    "capacity": 0,
    "openDays": [
      "平日",
      "土曜日",
      "日曜日",
      "祝日"
    ],
    "openDaysNote": ""
  },
  {
    "id": "3071000016",
    "name": "ケアランド橋本",
    "kana": "ケアランド　ハシモト",
    "address": "和歌山県橋本市高野口町名倉234",
    "lat": 34.3041536303918,
    "lng": 135.553488098789,
    "tel": "0736-26-7771",
    "url": "http://www",
    "pref": "和歌山県",
    "city": "橋本市",
    "category": "home_help",
    "serviceType": "訪問介護",
    "capacity": null,
    "openDays": [
      "平日",
      "土曜日",
      "日曜日",
      "祝日"
    ],
    "openDaysNote": "ケアマネージャー・ご利用者さんとの相談により　24時間対応"
  },
  {
    "id": "3071000925",
    "name": "セントケア橋本",
    "kana": "セントケアハシモト",
    "address": "橋本市岸上５５８番地3　２階",
    "lat": 34.3115259,
    "lng": 135.5911729,
    "tel": "0736-39-5561",
    "url": "http://www.saint-care.com",
    "pref": "和歌山県",
    "city": "橋本市",
    "category": "home_help",
    "serviceType": "訪問介護",
    "capacity": 0,
    "openDays": [
      "平日",
      "土曜日",
      "日曜日",
      "祝日"
    ],
    "openDaysNote": "24時間365日営業しています。"
  },
  {
    "id": "3071000644",
    "name": "てのひらはぁと",
    "kana": "テノヒラハァト",
    "address": "和歌山県橋本市高野口町伏原４０５－２",
    "lat": 34.3016593,
    "lng": 135.5738441,
    "tel": "0736-43-0810",
    "url": "",
    "pref": "和歌山県",
    "city": "橋本市",
    "category": "home_help",
    "serviceType": "訪問介護",
    "capacity": 0,
    "openDays": [
      "平日",
      "土曜日",
      "日曜日",
      "祝日"
    ],
    "openDaysNote": "上記以外も対応可能"
  },
  {
    "id": "3071000420",
    "name": "ニチイケアセンターはしもと",
    "kana": "ニチイケアセンターハシモト",
    "address": "和歌山県橋本市東家6-2-6　2F",
    "lat": 34.314225,
    "lng": 135.606796,
    "tel": "0736-39-2690",
    "url": "www.nichiigakkann.co.jp",
    "pref": "和歌山県",
    "city": "橋本市",
    "category": "home_help",
    "serviceType": "訪問介護",
    "capacity": 0,
    "openDays": [
      "平日"
    ],
    "openDaysNote": "居宅サービス計画により営業時間以外でもサービスの提供を行う場合がある"
  },
  {
    "id": "3071300366",
    "name": "ニチイケアセンター紀北",
    "kana": "ニチイケアセンターキホク",
    "address": "和歌山県橋本市高野口町伏原267-1",
    "lat": 34.3081141,
    "lng": 135.5726802,
    "tel": "0736-44-2186",
    "url": "http://www.nichiigakkan.co.jp",
    "pref": "和歌山県",
    "city": "橋本市",
    "category": "home_help",
    "serviceType": "訪問介護",
    "capacity": 6,
    "openDays": [
      "平日",
      "土曜日",
      "日曜日",
      "祝日"
    ],
    "openDaysNote": "居宅サービス計画書により、休業日および、営業時間外であっても、サービスを提供する場合があります。"
  },
  {
    "id": "3071001469",
    "name": "はいケア橋本",
    "kana": "ハイケアハシモト",
    "address": "和歌山県橋本市胡麻生542-4グリーンハイツ21、101 グリーンハイツ21、101",
    "lat": 34.3398696,
    "lng": 135.6087006,
    "tel": "0736-26-7187",
    "url": "http://hp.kaipoke.biz/m5k/",
    "pref": "和歌山県",
    "city": "橋本市",
    "category": "home_help",
    "serviceType": "訪問介護",
    "capacity": 0,
    "openDays": [
      "平日",
      "土曜日",
      "日曜日",
      "祝日"
    ],
    "openDaysNote": "電話等により、24時間常時連絡が可能な体制とする。"
  },
  {
    "id": "3071001493",
    "name": "ベリー介護サービス",
    "kana": "ベリーカイゴサービス",
    "address": "和歌山県橋本市隅田町河瀬　７９１－３３",
    "lat": 34.3226189,
    "lng": 135.6245363,
    "tel": "０７３６－３９－７０１１",
    "url": "",
    "pref": "和歌山県",
    "city": "橋本市",
    "category": "home_help",
    "serviceType": "訪問介護",
    "capacity": null,
    "openDays": [
      "平日",
      "土曜日",
      "祝日"
    ],
    "openDaysNote": "日曜日及び年末年始については、単身世帯で日常生活を行うことが困難な利用者については、サービスを行う。（改行）（改行）(12/30～1/3については、休日とする）"
  },
  {
    "id": "3071001378",
    "name": "ヘルパーステーション　つくしの宿",
    "kana": "ヘルパーステーション　ツクシノヤド",
    "address": "和歌山県橋本市清水字西栄270.271-1",
    "lat": 34.3072523063377,
    "lng": 135.599426096696,
    "tel": "0736-39-5539",
    "url": "",
    "pref": "和歌山県",
    "city": "橋本市",
    "category": "home_help",
    "serviceType": "訪問介護",
    "capacity": 0,
    "openDays": [
      "平日",
      "土曜日",
      "日曜日",
      "祝日"
    ],
    "openDaysNote": "年末年始12/30から翌年1/3を除きます。又、訪問介護員の状況によりサービス提供時間をご相談させて頂く（改行）場合があります。"
  },
  {
    "id": "3071000982",
    "name": "ヘルパーステーション　花ごよみ",
    "kana": "ヘルパーステーション　ハナゴヨミ",
    "address": "和歌山県橋本市さつき台１丁目１８－６",
    "lat": 34.3336903075796,
    "lng": 135.597149060756,
    "tel": "0736-26-7064",
    "url": "",
    "pref": "和歌山県",
    "city": "橋本市",
    "category": "home_help",
    "serviceType": "訪問介護",
    "capacity": 0,
    "openDays": [
      "平日",
      "土曜日",
      "日曜日",
      "祝日"
    ],
    "openDaysNote": ""
  },
  {
    "id": "3071000776",
    "name": "ヘルパーステーション　幸",
    "kana": "ヘルパーステーション　ミユキ",
    "address": "和歌山県橋本市隅田町山内1919－2",
    "lat": 34.3629850231879,
    "lng": 135.643539945369,
    "tel": "0736-37-4366",
    "url": "www.keieikai.com.",
    "pref": "和歌山県",
    "city": "橋本市",
    "category": "home_help",
    "serviceType": "訪問介護",
    "capacity": 0,
    "openDays": [
      "平日",
      "土曜日",
      "日曜日",
      "祝日"
    ],
    "openDaysNote": "携帯電話により24時間対応可能"
  },
  {
    "id": "3071000313",
    "name": "ヘルパーステーション・はるす",
    "kana": "ヘルパーステーション・ハルス",
    "address": "和歌山県橋本市岸上563番地の1",
    "lat": 34.3116387,
    "lng": 135.5896202,
    "tel": "0736-39-3026",
    "url": "http://hals-hals.co.jp",
    "pref": "和歌山県",
    "city": "橋本市",
    "category": "home_help",
    "serviceType": "訪問介護",
    "capacity": 80,
    "openDays": [
      "平日",
      "土曜日",
      "日曜日",
      "祝日"
    ],
    "openDaysNote": ""
  },
  {
    "id": "3071000503",
    "name": "ヘルパーステーションケアネット",
    "kana": "ヘルパーステーションケアネット",
    "address": "和歌山県橋本市神野々１２０１番地の１",
    "lat": 34.3007872,
    "lng": 135.5783243,
    "tel": "0736-39-3366",
    "url": "",
    "pref": "和歌山県",
    "city": "橋本市",
    "category": "home_help",
    "serviceType": "訪問介護",
    "capacity": 0,
    "openDays": [
      "平日",
      "土曜日",
      "日曜日",
      "祝日"
    ],
    "openDaysNote": "深夜早朝については要相談"
  },
  {
    "id": "3071001345",
    "name": "ヘルパーステーションもも",
    "kana": "ヘルパーステーションモモ",
    "address": "清水160-2",
    "lat": 35.0055697,
    "lng": 138.4718543,
    "tel": "0736-20-6522",
    "url": "",
    "pref": "和歌山県",
    "city": "橋本市",
    "category": "home_help",
    "serviceType": "訪問介護",
    "capacity": 5,
    "openDays": [
      "平日",
      "土曜日",
      "日曜日",
      "祝日"
    ],
    "openDaysNote": "8時以前の利用時間は要相談。"
  },
  {
    "id": "3071000131",
    "name": "ホームヘルプ紀和",
    "kana": "ホームヘルプキワ",
    "address": "和歌山県橋本市神野々1109-2",
    "lat": 34.3044378977531,
    "lng": 135.581956341705,
    "tel": "0736-39-1550",
    "url": "",
    "pref": "和歌山県",
    "city": "橋本市",
    "category": "home_help",
    "serviceType": "訪問介護",
    "capacity": 0,
    "openDays": [
      "平日",
      "土曜日",
      "日曜日",
      "祝日"
    ],
    "openDaysNote": ""
  },
  {
    "id": "3071000974",
    "name": "ライフ・パル",
    "kana": "ライフ・パル",
    "address": "橋本市胡麻生467",
    "lat": 34.3390554,
    "lng": 135.6072095,
    "tel": "0736-37-0101",
    "url": "",
    "pref": "和歌山県",
    "city": "橋本市",
    "category": "home_help",
    "serviceType": "訪問介護",
    "capacity": 54,
    "openDays": [
      "平日",
      "土曜日",
      "日曜日",
      "祝日"
    ],
    "openDaysNote": ""
  },
  {
    "id": "3071000891",
    "name": "ライフガーデン",
    "kana": "ライフガーデン",
    "address": "和歌山県橋本市御幸辻176-1ライフガーデン御幸 ライフガーデン御幸",
    "lat": 34.3386359,
    "lng": 135.6053624,
    "tel": "0736-33-8111",
    "url": "",
    "pref": "和歌山県",
    "city": "橋本市",
    "category": "home_help",
    "serviceType": "訪問介護",
    "capacity": 25,
    "openDays": [
      "平日",
      "土曜日",
      "日曜日",
      "祝日"
    ],
    "openDaysNote": "その他、時間外のサービスについてもご相談させて頂きます。"
  },
  {
    "id": "3071001253",
    "name": "愛があるケアサポート",
    "kana": "アイガアルケアサポート",
    "address": "和歌山県橋本市高野口町向島200番地の10",
    "lat": 34.301627328347,
    "lng": 135.556342368101,
    "tel": "0736-42-0585",
    "url": "",
    "pref": "和歌山県",
    "city": "橋本市",
    "category": "home_help",
    "serviceType": "訪問介護",
    "capacity": 79,
    "openDays": [
      "平日",
      "土曜日",
      "日曜日",
      "祝日"
    ],
    "openDaysNote": "必要時24時間サービス提供可能な体制とする。"
  },
  {
    "id": "3071300713",
    "name": "介護ステーションめばえ",
    "kana": "カイゴステーションメバエ",
    "address": "野296番地‐39",
    "lat": 34.2931075,
    "lng": 135.5577206,
    "tel": "０７３６－２６－７８８０",
    "url": "",
    "pref": "和歌山県",
    "city": "橋本市",
    "category": "home_help",
    "serviceType": "訪問介護",
    "capacity": 0,
    "openDays": [
      "平日",
      "土曜日",
      "日曜日",
      "祝日"
    ],
    "openDaysNote": "上記の営業日、営業時間のほか電話等により２４時間常時連絡可能な体制としています。"
  },
  {
    "id": "3071300168",
    "name": "株式会社　マリックスホームヘルプサービスセンター",
    "kana": "カブシキカイシャ　マリックスホームヘルプサービスセンター",
    "address": "和歌山県橋本市高野口町伏原1048-1",
    "lat": 34.3075641,
    "lng": 135.5733496,
    "tel": "0736-43-2736",
    "url": "http://www.marix317.com",
    "pref": "和歌山県",
    "city": "橋本市",
    "category": "home_help",
    "serviceType": "訪問介護",
    "capacity": 0,
    "openDays": [
      "平日",
      "土曜日",
      "日曜日",
      "祝日"
    ],
    "openDaysNote": "時間外でもサービスのご依頼があれば、サービスさせて頂きます。"
  },
  {
    "id": "3071000206",
    "name": "指定訪問介護センター春風",
    "kana": "シテイホウモンカイゴゼンターハルカゼ",
    "address": "和歌山県橋本市北馬場367",
    "lat": 34.3280303454033,
    "lng": 135.615462544009,
    "tel": "0736-25-7598",
    "url": "",
    "pref": "和歌山県",
    "city": "橋本市",
    "category": "home_help",
    "serviceType": "訪問介護",
    "capacity": 5,
    "openDays": [
      "平日",
      "土曜日",
      "日曜日",
      "祝日"
    ],
    "openDaysNote": "上記以外でもサービスを提供する場合もある"
  },
  {
    "id": "3071000057",
    "name": "社会福祉法人橋本市社会福祉協議会",
    "kana": "シャカイフクシホウジンハシモトシシャカイフクシキョウギカイ",
    "address": "和歌山県橋本市東家1-3-1橋本市保健福祉センター２階 橋本市保健福祉センター２階",
    "lat": 34.3158145519609,
    "lng": 135.603740593146,
    "tel": "0736-33-0294",
    "url": "",
    "pref": "和歌山県",
    "city": "橋本市",
    "category": "home_help",
    "serviceType": "訪問介護",
    "capacity": 0,
    "openDays": [
      "平日",
      "土曜日",
      "日曜日",
      "祝日"
    ],
    "openDaysNote": ""
  },
  {
    "id": "3071000842",
    "name": "訪問介護ごもうのいえ",
    "kana": "ホウモンカイゴゴモウノイエ",
    "address": "和歌山県橋本市胡麻生700-20",
    "lat": 34.3387492112569,
    "lng": 135.610654926536,
    "tel": "0736-36-7700",
    "url": "http://jinsyoudou.wix.com/gomounoie",
    "pref": "和歌山県",
    "city": "橋本市",
    "category": "home_help",
    "serviceType": "訪問介護",
    "capacity": 0,
    "openDays": [
      "平日",
      "土曜日",
      "日曜日",
      "祝日"
    ],
    "openDaysNote": ""
  },
  {
    "id": "3071001451",
    "name": "訪問介護すず",
    "kana": "ホウモンカイゴスズ",
    "address": "和歌山県橋本市清水２９番地の２",
    "lat": 34.3094584312431,
    "lng": 135.608093552779,
    "tel": "0736-26-8328",
    "url": "",
    "pref": "和歌山県",
    "city": "橋本市",
    "category": "home_help",
    "serviceType": "訪問介護",
    "capacity": 35,
    "openDays": [
      "平日",
      "土曜日",
      "日曜日",
      "祝日"
    ],
    "openDaysNote": ""
  },
  {
    "id": "3071000537",
    "name": "訪問介護ステーション千樹木",
    "kana": "ホウモンカイゴステーション　センジュ",
    "address": "和歌山県橋本市市脇1-1-6ＪＡ橋本支店ビル　５号室 ＪＡ橋本支店ビル　５号室",
    "lat": 34.314902,
    "lng": 135.602519,
    "tel": "0736-26-5078",
    "url": "",
    "pref": "和歌山県",
    "city": "橋本市",
    "category": "home_help",
    "serviceType": "訪問介護",
    "capacity": 5,
    "openDays": [
      "平日",
      "土曜日",
      "祝日"
    ],
    "openDaysNote": "年末12月31日～年始1月3日まで休み"
  },
  {
    "id": "3071300028",
    "name": "九度山町社会福祉協議会",
    "kana": "クドヤマチョウシャカイフクシキョウギカイ",
    "address": "和歌山県伊都郡九度山町河根732-1九度山町地域福祉センター 九度山町地域福祉センター",
    "lat": 34.2813423,
    "lng": 135.5811546,
    "tel": "0736-54-9294",
    "url": "http://www.shakyo.or.jp/hp/1295",
    "pref": "和歌山県",
    "city": "九度山町",
    "category": "home_help",
    "serviceType": "訪問介護",
    "capacity": 0,
    "openDays": [
      "平日",
      "祝日"
    ],
    "openDaysNote": ""
  },
  {
    "id": "3072400579",
    "name": "NPO法人あいらんど",
    "kana": "エヌピーオーホウジンアイランド",
    "address": "和歌山県東牟婁郡串本町二色505番地1",
    "lat": 33.4819387622602,
    "lng": 135.76838904736,
    "tel": "0735-62-3910",
    "url": "http://www18.ocn.ne.jp/^nporando/",
    "pref": "和歌山県",
    "city": "串本町",
    "category": "home_help",
    "serviceType": "訪問介護",
    "capacity": 3,
    "openDays": [
      "平日",
      "土曜日",
      "日曜日",
      "祝日"
    ],
    "openDaysNote": "転送電話にて24時間連絡可能な体制とする。"
  },
  {
    "id": "3072400272",
    "name": "にしき園指定訪問介護事業所",
    "kana": "ニシキエンシテイホウモンカイゴジギョウショ",
    "address": "和歌山県東牟婁郡串本町二色165番地",
    "lat": 33.4887418,
    "lng": 135.7683526,
    "tel": "0735-62-6922",
    "url": "http://www2.ocn.ne.jp/~nisikien//",
    "pref": "和歌山県",
    "city": "串本町",
    "category": "home_help",
    "serviceType": "訪問介護",
    "capacity": 0,
    "openDays": [
      "平日",
      "土曜日",
      "日曜日",
      "祝日"
    ],
    "openDaysNote": ""
  },
  {
    "id": "3072500659",
    "name": "ホームヘルプはーとふれんど",
    "kana": "ホームヘルプハートフレンド",
    "address": "和歌山県東牟婁郡串本町田原700番地",
    "lat": 33.5375878604296,
    "lng": 135.867923979974,
    "tel": "0735-74-0991",
    "url": "http://www.wfj.or.jp/",
    "pref": "和歌山県",
    "city": "串本町",
    "category": "home_help",
    "serviceType": "訪問介護",
    "capacity": 0,
    "openDays": [
      "平日",
      "土曜日",
      "日曜日",
      "祝日"
    ],
    "openDaysNote": "上記時間外のサービス提供については、応相談"
  },
  {
    "id": "3072500725",
    "name": "まりん",
    "kana": "マリン",
    "address": "潮岬2688-7",
    "lat": 33.4404793301073,
    "lng": 135.762893658891,
    "tel": "0735-67-7889",
    "url": "https://ashitaba.c-co.jp/",
    "pref": "和歌山県",
    "city": "串本町",
    "category": "home_help",
    "serviceType": "訪問介護",
    "capacity": 80,
    "openDays": [
      "平日",
      "土曜日",
      "日曜日",
      "祝日"
    ],
    "openDaysNote": "日曜日や年始年末、また時間外でも必要・相談に応じ提供しています。"
  },
  {
    "id": "3072500691",
    "name": "みはまヘルパーステーション",
    "kana": "ミハマヘルパーステーション",
    "address": "和歌山県東牟婁郡串本町西向1480-56",
    "lat": 33.5107499,
    "lng": 135.8189764,
    "tel": "0735-72-6121",
    "url": "mihama-kyotaku@zb.ztvne.jp",
    "pref": "和歌山県",
    "city": "串本町",
    "category": "home_help",
    "serviceType": "訪問介護",
    "capacity": 0,
    "openDays": [
      "平日",
      "土曜日",
      "日曜日",
      "祝日"
    ],
    "openDaysNote": "上記、営業時間外のサービスの提供については応相談。"
  },
  {
    "id": "3072500634",
    "name": "もみじ介護ステーション",
    "kana": "モミジカイゴステーション",
    "address": "和歌山県東牟婁郡串本町潮岬3496-4",
    "lat": 33.4500448514614,
    "lng": 135.760492991336,
    "tel": "0735-62-5868",
    "url": "",
    "pref": "和歌山県",
    "city": "串本町",
    "category": "home_help",
    "serviceType": "訪問介護",
    "capacity": 0,
    "openDays": [
      "平日",
      "土曜日",
      "日曜日",
      "祝日"
    ],
    "openDaysNote": "上記の営業日、営業時間、サービス提供時間のほか、電話等により２４時間常時連絡が可能な体制とする。"
  },
  {
    "id": "3072501145",
    "name": "株式会社　陽楽",
    "kana": "カブシキガイシャ　ヒララ",
    "address": "和歌山県東牟婁郡串本町串本１３３２番地３",
    "lat": 33.4651347,
    "lng": 135.778698,
    "tel": "0735-70-1089",
    "url": "",
    "pref": "和歌山県",
    "city": "串本町",
    "category": "home_help",
    "serviceType": "訪問介護",
    "capacity": null,
    "openDays": [
      "平日",
      "土曜日",
      "日曜日"
    ],
    "openDaysNote": ""
  },
  {
    "id": "3072400553",
    "name": "串本タクシー指定訪問介護事業所",
    "kana": "クシモトタクシーシテイホウモンカイゴジギョウショ",
    "address": "和歌山県東牟婁郡串本町串本1804",
    "lat": 33.4719673,
    "lng": 135.7813733,
    "tel": "0735-62-6900",
    "url": "http://www.kushimoto-taxi.co.jp/",
    "pref": "和歌山県",
    "city": "串本町",
    "category": "home_help",
    "serviceType": "訪問介護",
    "capacity": 0,
    "openDays": [
      "平日"
    ],
    "openDaysNote": "但し、利用者の状況によっては、上記営業時間以外の派遣も可能とする。"
  },
  {
    "id": "3072400017",
    "name": "社会福祉法人　串本町社会福祉協議会",
    "kana": "シャカイフクシホウジン　クシモトチョウシャカイフクシキョウギカイ",
    "address": "和歌山県東牟婁郡串本町サンゴ台783-7",
    "lat": 33.4838950547073,
    "lng": 135.782405129114,
    "tel": "0735-62-7060",
    "url": "http://www.naxnet.ne.jp/^nantan/",
    "pref": "和歌山県",
    "city": "串本町",
    "category": "home_help",
    "serviceType": "訪問介護",
    "capacity": 0,
    "openDays": [
      "平日",
      "土曜日",
      "日曜日",
      "祝日"
    ],
    "openDaysNote": "早朝・夜間にも対応します"
  },
  {
    "id": "3072500824",
    "name": "心愛ケア",
    "kana": "シンアイケア",
    "address": "和歌山県東牟婁郡串本町西向476-1",
    "lat": 33.5160494850458,
    "lng": 135.82372307703,
    "tel": "0735-70-4553",
    "url": "",
    "pref": "和歌山県",
    "city": "串本町",
    "category": "home_help",
    "serviceType": "訪問介護",
    "capacity": 0,
    "openDays": [
      "平日",
      "土曜日",
      "日曜日",
      "祝日"
    ],
    "openDaysNote": ""
  },
  {
    "id": "3072401247",
    "name": "訪問介護ステーション華",
    "kana": "ホウモンカイゴステーションハナ",
    "address": "和歌山県東牟婁郡串本町西向582－5",
    "lat": 33.5166689,
    "lng": 135.8222123,
    "tel": "0735－67－7267",
    "url": "",
    "pref": "和歌山県",
    "city": "串本町",
    "category": "home_help",
    "serviceType": "訪問介護",
    "capacity": 5,
    "openDays": [
      "平日"
    ],
    "openDaysNote": ""
  },
  {
    "id": "3072500204",
    "name": "社会福祉法人古座川町社会福祉協議会",
    "kana": "シャカイフクシホウジンコザガワチョウシャカイフクシキョウギカイ",
    "address": "和歌山県東牟婁郡古座川町川口254番地1古座川町保健福祉センター 古座川町保健福祉センター",
    "lat": 33.5423686051722,
    "lng": 135.775495460096,
    "tel": "0735-72-3719",
    "url": "http://www.zd.ztv.ne.jp/kozagawa_shakyo/",
    "pref": "和歌山県",
    "city": "古座川町",
    "category": "home_help",
    "serviceType": "訪問介護",
    "capacity": 80,
    "openDays": [
      "平日",
      "土曜日",
      "日曜日",
      "祝日"
    ],
    "openDaysNote": ""
  },
  {
    "id": "3072500097",
    "name": "社会福祉法人高瀬会訪問介護ステーション",
    "kana": "シャカイフクシホウジンタカセカイホウモンカイゴステーション",
    "address": "和歌山県東牟婁郡古座川町高瀬４０６",
    "lat": 33.535302,
    "lng": 135.778202,
    "tel": "0735-72-0611",
    "url": "http://www.takasekai.or.jp/",
    "pref": "和歌山県",
    "city": "古座川町",
    "category": "home_help",
    "serviceType": "訪問介護",
    "capacity": 0,
    "openDays": [
      "平日",
      "土曜日",
      "日曜日",
      "祝日"
    ],
    "openDaysNote": ""
  },
  {
    "id": "3072000205",
    "name": "かいてきケアステーション",
    "kana": "カイテキケアステーション",
    "address": "和歌山県御坊市塩屋町北塩屋１４００－６",
    "lat": 33.8729308,
    "lng": 135.1594653,
    "tel": "0738-24-5558",
    "url": "http://www.chukibus-group.co.jp/taxi/",
    "pref": "和歌山県",
    "city": "御坊市",
    "category": "home_help",
    "serviceType": "訪問介護",
    "capacity": 0,
    "openDays": [
      "平日",
      "土曜日",
      "祝日"
    ],
    "openDaysNote": "定休日等の対応も相談により対応可。"
  },
  {
    "id": "3072000767",
    "name": "くらし",
    "kana": "クラシ",
    "address": "和歌山県御坊市岩内1036-13",
    "lat": 33.8940948,
    "lng": 135.1772026,
    "tel": "0738-20-1988",
    "url": "",
    "pref": "和歌山県",
    "city": "御坊市",
    "category": "home_help",
    "serviceType": "訪問介護",
    "capacity": 0,
    "openDays": [
      "平日"
    ],
    "openDaysNote": "電話等により２４時間常時連絡が可能な体制とする。"
  },
  {
    "id": "3072000577",
    "name": "ケアステーションこはる",
    "kana": "ケアステーションコハル",
    "address": "和歌山県御坊市島280-11",
    "lat": 33.8907926,
    "lng": 135.1602208,
    "tel": "0738-20-5109",
    "url": "",
    "pref": "和歌山県",
    "city": "御坊市",
    "category": "home_help",
    "serviceType": "訪問介護",
    "capacity": 50,
    "openDays": [
      "平日",
      "土曜日",
      "日曜日",
      "祝日"
    ],
    "openDaysNote": "営業時間外サービスについては応相談。"
  },
  {
    "id": "3072000247",
    "name": "ケアセンターおたっしゃ倶楽部　御坊・日高事業所",
    "kana": "ケアセンターオタッシャクラブ　ゴボウ・ヒダカジギョウショ",
    "address": "薗397－2日高木材協同組合・2階 日高木材協同組合・2階",
    "lat": 33.8886168519072,
    "lng": 135.154060342467,
    "tel": "0738-23-0396",
    "url": "http://ｗｗｗ.s-co-op.or.jp",
    "pref": "和歌山県",
    "city": "御坊市",
    "category": "home_help",
    "serviceType": "訪問介護",
    "capacity": 5,
    "openDays": [
      "平日",
      "土曜日",
      "日曜日",
      "祝日"
    ],
    "openDaysNote": "上記時間外も対応可能です。ご相談に応じます。"
  },
  {
    "id": "3072000437",
    "name": "ケアフルズ",
    "kana": "ケアフルズ",
    "address": "御坊市島695番地3",
    "lat": 33.8957087,
    "lng": 135.1622235,
    "tel": "0738-24-0593",
    "url": "",
    "pref": "和歌山県",
    "city": "御坊市",
    "category": "home_help",
    "serviceType": "訪問介護",
    "capacity": 0,
    "openDays": [
      "平日"
    ],
    "openDaysNote": "訪問介護計画により、休日及び営業時間外であっても提供する場合があります。"
  },
  {
    "id": "3072000015",
    "name": "ケアランド御坊",
    "kana": "ケアランドゴボウ",
    "address": "御坊市野口１１８４",
    "lat": 33.9017197,
    "lng": 135.1823306,
    "tel": "0738-24-1094",
    "url": "",
    "pref": "和歌山県",
    "city": "御坊市",
    "category": "home_help",
    "serviceType": "訪問介護",
    "capacity": null,
    "openDays": [
      "平日"
    ],
    "openDaysNote": "年中無休"
  },
  {
    "id": "3072000783",
    "name": "こころねケア",
    "kana": "ココロネケア",
    "address": "湯川町財部７７８－４",
    "lat": 33.9000217,
    "lng": 135.1584242,
    "tel": "090－6662－7111",
    "url": "",
    "pref": "和歌山県",
    "city": "御坊市",
    "category": "home_help",
    "serviceType": "訪問介護",
    "capacity": 15,
    "openDays": [
      "平日"
    ],
    "openDaysNote": ""
  },
  {
    "id": "3072000387",
    "name": "ステーション　つくし",
    "kana": "ステーション　ツクシ",
    "address": "和歌山県御坊市湯川町富安1875-1ハイツナカオカ２Ｆ８号室 ハイツナカオカ２Ｆ８号室",
    "lat": 33.9154229,
    "lng": 135.1487272,
    "tel": "0738-32-1427",
    "url": "",
    "pref": "和歌山県",
    "city": "御坊市",
    "category": "home_help",
    "serviceType": "訪問介護",
    "capacity": 0,
    "openDays": [
      "平日",
      "土曜日",
      "日曜日",
      "祝日"
    ],
    "openDaysNote": "なお、上記利用時間以外は要相談"
  },
  {
    "id": "3072000122",
    "name": "ニチイケアセンター御坊",
    "kana": "ニチイケアセンターゴボウ",
    "address": "和歌山県御坊市薗42-7",
    "lat": 33.8945782,
    "lng": 135.1507076,
    "tel": "0738-32-3152",
    "url": "http://www.nichiigakkan.co.jp",
    "pref": "和歌山県",
    "city": "御坊市",
    "category": "home_help",
    "serviceType": "訪問介護",
    "capacity": 0,
    "openDays": [
      "平日",
      "土曜日",
      "日曜日",
      "祝日"
    ],
    "openDaysNote": "居宅サービス計画により、休業日及び営業時間外であってもサービス提供する（改行）場合があります。"
  },
  {
    "id": "3072000718",
    "name": "ネオグループ御坊",
    "kana": "ネオグループゴボウ",
    "address": "和歌山県御坊市湯川町小松原380-10",
    "lat": 33.9062208,
    "lng": 135.1602786,
    "tel": "0738-24-0087",
    "url": "",
    "pref": "和歌山県",
    "city": "御坊市",
    "category": "home_help",
    "serviceType": "訪問介護",
    "capacity": 0,
    "openDays": [
      "平日",
      "土曜日",
      "日曜日",
      "祝日"
    ],
    "openDaysNote": ""
  },
  {
    "id": "3072000262",
    "name": "ヘルパーステーションあおぞら",
    "kana": "ヘルパーステーションアオゾラ",
    "address": "和歌山県御坊市薗27-3",
    "lat": 33.8960502,
    "lng": 135.1519103,
    "tel": "0738-22-1106",
    "url": "https://www.taiyo.or.jp",
    "pref": "和歌山県",
    "city": "御坊市",
    "category": "home_help",
    "serviceType": "訪問介護",
    "capacity": 0,
    "openDays": [
      "平日",
      "土曜日",
      "日曜日",
      "祝日"
    ],
    "openDaysNote": "サービスの利用については、利用者様とご相談させていただきます"
  },
  {
    "id": "3072000809",
    "name": "ヘルパーステーションえくぼ",
    "kana": "ヘルパーステーションエクボ",
    "address": "湯川町小松原420-15興土ビル4F　B号 興土ビル4F　B号",
    "lat": 33.9080066,
    "lng": 135.1606533,
    "tel": "0738-24-9161",
    "url": "http://hp.kaipoke.biz/4ad/index.html",
    "pref": "和歌山県",
    "city": "御坊市",
    "category": "home_help",
    "serviceType": "訪問介護",
    "capacity": null,
    "openDays": [
      "平日"
    ],
    "openDaysNote": ""
  },
  {
    "id": "3072000692",
    "name": "ヘルパーステーションキタデ",
    "kana": "ヘルパースーテションキタデ",
    "address": "和歌山県御坊市薗98－3",
    "lat": 33.8959435232055,
    "lng": 135.153377252338,
    "tel": "０７３８－３２－３０６０",
    "url": "http://www.hck.jp",
    "pref": "和歌山県",
    "city": "御坊市",
    "category": "home_help",
    "serviceType": "訪問介護",
    "capacity": 0,
    "openDays": [
      "平日",
      "土曜日",
      "日曜日",
      "祝日"
    ],
    "openDaysNote": "早朝夜間の訪問につては要相談とさせて頂きます。"
  },
  {
    "id": "3072000619",
    "name": "ヘルパーステーションよつ葉",
    "kana": "ヘルパーステーションヨツバ",
    "address": "和歌山県御坊市薗147-1",
    "lat": 33.8939863335166,
    "lng": 135.156041584667,
    "tel": "0738-52-5201",
    "url": "",
    "pref": "和歌山県",
    "city": "御坊市",
    "category": "home_help",
    "serviceType": "訪問介護",
    "capacity": 0,
    "openDays": [
      "平日",
      "土曜日",
      "日曜日",
      "祝日"
    ],
    "openDaysNote": "上記の休日、営業時間外であっても、サービスを行うことがある。"
  },
  {
    "id": "3072000478",
    "name": "ホームヘルプサービスケアビレッジ御坊",
    "kana": "ホームヘルプサービスケアビレッジゴボウ",
    "address": "御坊市湯川町財部663-16",
    "lat": 33.8991825574397,
    "lng": 135.153491767151,
    "tel": "0738-22-8612",
    "url": "http://www.nexvi.co.jp/",
    "pref": "和歌山県",
    "city": "御坊市",
    "category": "home_help",
    "serviceType": "訪問介護",
    "capacity": 50,
    "openDays": [
      "平日",
      "土曜日",
      "日曜日",
      "祝日"
    ],
    "openDaysNote": "営業時間外のサービス提供については応相談"
  },
  {
    "id": "3072000825",
    "name": "株式会社nikoplusエヌケア",
    "kana": "カブシキガイシャニコプラスエヌケア",
    "address": "和歌山県御坊市塩屋町北塩屋1891-2",
    "lat": 33.8706849,
    "lng": 135.1806109,
    "tel": "0738-20-1190",
    "url": "https://ncare.nikoplus25.com",
    "pref": "和歌山県",
    "city": "御坊市",
    "category": "home_help",
    "serviceType": "訪問介護",
    "capacity": null,
    "openDays": [
      "平日",
      "土曜日",
      "日曜日",
      "祝日"
    ],
    "openDaysNote": "利用者の要望について上記時間外も受ける事あり"
  },
  {
    "id": "3072000791",
    "name": "株式会社ケアステーション奏",
    "kana": "カブシキガイシャケアステーションカナデ",
    "address": "和歌山県御坊市塩屋町北塩屋７１４",
    "lat": 33.8773659,
    "lng": 135.1615429,
    "tel": "0738－22－4811",
    "url": "",
    "pref": "和歌山県",
    "city": "御坊市",
    "category": "home_help",
    "serviceType": "訪問介護",
    "capacity": null,
    "openDays": [
      "平日",
      "土曜日",
      "日曜日",
      "祝日"
    ],
    "openDaysNote": ""
  },
  {
    "id": "3072000072",
    "name": "日高博愛園　ホームヘルプサービス",
    "kana": "ヒダカハクアイエン　ホームヘルプサービス",
    "address": "和歌山県御坊市薗263番地3",
    "lat": 33.8925284,
    "lng": 135.1544684,
    "tel": "0738-24-1828",
    "url": "hakuaikai.net",
    "pref": "和歌山県",
    "city": "御坊市",
    "category": "home_help",
    "serviceType": "訪問介護",
    "capacity": 0,
    "openDays": [
      "平日",
      "土曜日",
      "日曜日",
      "祝日"
    ],
    "openDaysNote": "ケアプランの必要性により年中無休24時間対応でサービスを実施しています"
  },
  {
    "id": "3072101102",
    "name": "訪問介護事業所　市松",
    "kana": "ホウモンカイゴジギョウショ　イチマツ",
    "address": "和歌山県御坊市湯川町小松原33-3",
    "lat": 33.90835647025,
    "lng": 135.163629654939,
    "tel": "0738-52-7350",
    "url": "",
    "pref": "和歌山県",
    "city": "御坊市",
    "category": "home_help",
    "serviceType": "訪問介護",
    "capacity": 20,
    "openDays": [
      "平日",
      "土曜日",
      "日曜日",
      "祝日"
    ],
    "openDaysNote": ""
  },
  {
    "id": "3072000312",
    "name": "有限会社ライフケアしあわせ",
    "kana": "ユウゲンガイシャライフケアシアワセ",
    "address": "和歌山県御坊市御坊184-6",
    "lat": 33.8874263,
    "lng": 135.1566544,
    "tel": "0738-24-0676",
    "url": "shiawase@aroma.ocn.ne.jp",
    "pref": "和歌山県",
    "city": "御坊市",
    "category": "home_help",
    "serviceType": "訪問介護",
    "capacity": 0,
    "openDays": [
      "平日",
      "土曜日",
      "日曜日",
      "祝日"
    ],
    "openDaysNote": ""
  },
  {
    "id": "3071601409",
    "name": "サンライズケア広川",
    "kana": "サンライズケアヒロガワ",
    "address": "和歌山県有田郡広川町広552-4",
    "lat": 34.0254328,
    "lng": 135.1753369,
    "tel": "0737-62-2111",
    "url": "http://www.sunrisecare.co.jp/",
    "pref": "和歌山県",
    "city": "広川町",
    "category": "home_help",
    "serviceType": "訪問介護",
    "capacity": 0,
    "openDays": [
      "平日",
      "土曜日",
      "日曜日",
      "祝日"
    ],
    "openDaysNote": "サービスの提供は３６５日、２４時間行います。　電話等により２４時間連絡可能体制をとっています。"
  },
  {
    "id": "3071300036",
    "name": "社会福祉法人高野町社会福祉協議会",
    "kana": "シャカイフクシホウジンコウヤチョウシャカイフクシキョウギカイ",
    "address": "和歌山県伊都郡高野町大字高野山２６－８",
    "lat": 34.221493,
    "lng": 135.5916828,
    "tel": "0736-56-2941",
    "url": "http://koyasyakyo.ec-net.jp/",
    "pref": "和歌山県",
    "city": "高野町",
    "category": "home_help",
    "serviceType": "訪問介護",
    "capacity": 0,
    "openDays": [
      "平日",
      "土曜日",
      "祝日"
    ],
    "openDaysNote": "祝日は訪問希望者のみ８時３０分～１７時００分の間で対応可"
  },
  {
    "id": "3072401189",
    "name": "ケアサポート　えがお",
    "kana": "ケアサポート　エガオ",
    "address": "和歌山県西牟婁郡上富田町南紀の台13-5",
    "lat": 33.7015371,
    "lng": 135.4045878,
    "tel": "0739-47-6449",
    "url": "",
    "pref": "和歌山県",
    "city": "上富田町",
    "category": "home_help",
    "serviceType": "訪問介護",
    "capacity": 0,
    "openDays": [
      "平日",
      "土曜日",
      "日曜日",
      "祝日"
    ],
    "openDaysNote": "相談の上、対応（改行）時間外の訪問、電話対応あり"
  },
  {
    "id": "3072400892",
    "name": "ケアセンターおたっしゃ倶楽部田辺事業所",
    "kana": "ケアセンターオタッシャクラブタナベジギョウショ",
    "address": "上富田町生馬字救馬渓185-7",
    "lat": 33.7165152509927,
    "lng": 135.430422005808,
    "tel": "0739-47-0010",
    "url": "http://www.s-co-op.or.jp",
    "pref": "和歌山県",
    "city": "上富田町",
    "category": "home_help",
    "serviceType": "訪問介護",
    "capacity": 0,
    "openDays": [
      "平日"
    ],
    "openDaysNote": "上記　休日・祝日・時間外についてのサービス提供は要相談で対応可能"
  },
  {
    "id": "3072401403",
    "name": "たかの訪問介護",
    "kana": "タカノホウモンカイゴ",
    "address": "和歌山県西牟婁郡上富田町321-74",
    "lat": 33.7099438,
    "lng": 135.4307172,
    "tel": "050-7111-4714",
    "url": "",
    "pref": "和歌山県",
    "city": "上富田町",
    "category": "home_help",
    "serviceType": "訪問介護",
    "capacity": 0,
    "openDays": [
      "平日"
    ],
    "openDaysNote": ""
  },
  {
    "id": "3072401361",
    "name": "ニチイケアセンターかみとんだ",
    "kana": "ニチケアセンターカミトンダ",
    "address": "和歌山県西牟婁郡上富田町1304-1Ｆ号 Ｆ号",
    "lat": 33.6941671,
    "lng": 135.4184513,
    "tel": "0739-83-2882",
    "url": "",
    "pref": "和歌山県",
    "city": "上富田町",
    "category": "home_help",
    "serviceType": "訪問介護",
    "capacity": 0,
    "openDays": [
      "平日"
    ],
    "openDaysNote": "居宅介護計画書により、休日及び営業時間外であってもサービスを提供する場合があります。"
  },
  {
    "id": "3072400595",
    "name": "ヘルパーステーション　あやとり",
    "kana": "ヘルパーステーション　アヤトリ",
    "address": "和歌山県西牟婁郡上富田町岡６２５－１",
    "lat": 33.725400629225,
    "lng": 135.441776721674,
    "tel": "0739-47-6156",
    "url": "http://ayatori-fa.com",
    "pref": "和歌山県",
    "city": "上富田町",
    "category": "home_help",
    "serviceType": "訪問介護",
    "capacity": 0,
    "openDays": [
      "平日",
      "土曜日",
      "日曜日",
      "祝日"
    ],
    "openDaysNote": "年末年始、夜間、深夜、早朝については応相談"
  },
  {
    "id": "3072401379",
    "name": "ヘルパーステーションフレンドリー",
    "kana": "ヘルパーステーションフレンドリー",
    "address": "和歌山県西牟婁郡上富田町朝来326-521",
    "lat": 33.6997385,
    "lng": 135.4232936,
    "tel": "090-5244-1311",
    "url": "",
    "pref": "和歌山県",
    "city": "上富田町",
    "category": "home_help",
    "serviceType": "訪問介護",
    "capacity": 0,
    "openDays": [
      "平日"
    ],
    "openDaysNote": "必要であれば訪問介護計画に基づくサービス提供時間は24時間365日体制とする。"
  },
  {
    "id": "3072201753",
    "name": "ホームヘルパーつくし",
    "kana": "ホームヘルパーツクシ",
    "address": "和歌山県西牟婁郡上富田町岩田2707-3",
    "lat": 33.7332447,
    "lng": 135.3948668,
    "tel": "0739-33-9402",
    "url": "",
    "pref": "和歌山県",
    "city": "上富田町",
    "category": "home_help",
    "serviceType": "訪問介護",
    "capacity": 0,
    "openDays": [
      "平日",
      "土曜日",
      "日曜日",
      "祝日"
    ],
    "openDaysNote": "時間外：相談可"
  },
  {
    "id": "3072400819",
    "name": "ホームヘルプすてっぷ",
    "kana": "ホームヘルプステップ",
    "address": "和歌山県西牟婁郡上富田町朝来2302",
    "lat": 33.7081213488701,
    "lng": 135.444158188361,
    "tel": "0739-83-3363",
    "url": "https://www.wfj.or.jp/",
    "pref": "和歌山県",
    "city": "上富田町",
    "category": "home_help",
    "serviceType": "訪問介護",
    "capacity": 0,
    "openDays": [
      "平日",
      "土曜日",
      "日曜日",
      "祝日"
    ],
    "openDaysNote": "上記時間以外のサービス提供については、応相談"
  },
  {
    "id": "3072400843",
    "name": "介護センター　すもも",
    "kana": "カイゴセンター　スモモ",
    "address": "和歌山県西牟婁郡上富田町岩田１５３３－１深見電器様２階 深見電器様２階",
    "lat": 33.7039512,
    "lng": 135.4425455,
    "tel": "0739-83-3788",
    "url": "",
    "pref": "和歌山県",
    "city": "上富田町",
    "category": "home_help",
    "serviceType": "訪問介護",
    "capacity": 10,
    "openDays": [
      "平日",
      "土曜日",
      "日曜日",
      "祝日"
    ],
    "openDaysNote": "２４時間対応"
  },
  {
    "id": "3072200714",
    "name": "響訪問介護事業所",
    "kana": "ヒビキホウモンカイゴジギョウショ",
    "address": "和歌山県西牟婁郡上富田町朝来３２９５－１７",
    "lat": 33.7070288594185,
    "lng": 135.415190181648,
    "tel": "0739-24-7773",
    "url": "",
    "pref": "和歌山県",
    "city": "上富田町",
    "category": "home_help",
    "serviceType": "訪問介護",
    "capacity": 0,
    "openDays": [
      "平日",
      "土曜日",
      "日曜日",
      "祝日"
    ],
    "openDaysNote": "上記営業時間外は応相談"
  },
  {
    "id": "3072401346",
    "name": "社会福祉法人　上富田町社会福祉協議会",
    "kana": "シャカイフクシホウジン　カミトンダチョウシャカイフクシキョウギカイ",
    "address": "和歌山県西牟婁郡上富田町朝来７５３－１",
    "lat": 33.6964105762164,
    "lng": 135.430120943783,
    "tel": "0739-47-4757",
    "url": "http://kamitonda.shakyo-w.jp/",
    "pref": "和歌山県",
    "city": "上富田町",
    "category": "home_help",
    "serviceType": "訪問介護",
    "capacity": 0,
    "openDays": [
      "平日",
      "土曜日",
      "日曜日",
      "祝日"
    ],
    "openDaysNote": "上記の他、常時連絡体制を整え、要望があればその都度対応。"
  },
  {
    "id": "3072400876",
    "name": "訪問介護ステーション　きらり",
    "kana": "ホウモンカイゴステーション　キラリ",
    "address": "西牟婁郡上富田町生馬701-20訪問介護ステーションきらり事務所 訪問介護ステーションきらり事務所",
    "lat": 33.6925967330726,
    "lng": 135.429402687175,
    "tel": "0739-33-7684",
    "url": "http://seikatukan.exblog.jp/",
    "pref": "和歌山県",
    "city": "上富田町",
    "category": "home_help",
    "serviceType": "訪問介護",
    "capacity": 38,
    "openDays": [
      "平日",
      "土曜日",
      "日曜日",
      "祝日"
    ],
    "openDaysNote": ""
  },
  {
    "id": "3072400884",
    "name": "訪問介護ステーションあかり",
    "kana": "ホウモンカイゴステーションアカリ",
    "address": "和歌山県西牟婁郡上富田町岩田２０６８番地",
    "lat": 33.7151605099492,
    "lng": 135.437147483445,
    "tel": "０７３９－４７－４００２",
    "url": "",
    "pref": "和歌山県",
    "city": "上富田町",
    "category": "home_help",
    "serviceType": "訪問介護",
    "capacity": 0,
    "openDays": [
      "平日",
      "土曜日",
      "日曜日",
      "祝日"
    ],
    "openDaysNote": ""
  },
  {
    "id": "3072300753",
    "name": "ケアセンターこもれび。",
    "kana": "ケアセンターコモレビ。",
    "address": "和歌山県新宮市蜂伏12番17号こもれびの丘 こもれびの丘",
    "lat": 33.6830971812799,
    "lng": 135.965264714156,
    "tel": "0735-29-7855",
    "url": "http://www.komorebinooka.jp",
    "pref": "和歌山県",
    "city": "新宮市",
    "category": "home_help",
    "serviceType": "訪問介護",
    "capacity": 17,
    "openDays": [
      "平日",
      "土曜日",
      "日曜日",
      "祝日"
    ],
    "openDaysNote": "上記　時間外についてのサービスは要相談"
  },
  {
    "id": "3072300274",
    "name": "さくら介護サービス",
    "kana": "サクラカイゴサービス",
    "address": "和歌山県新宮市千穂２－３－３２",
    "lat": 33.7257685,
    "lng": 135.9871611,
    "tel": "0735-28-5510",
    "url": "",
    "pref": "和歌山県",
    "city": "新宮市",
    "category": "home_help",
    "serviceType": "訪問介護",
    "capacity": 5,
    "openDays": [
      "平日",
      "土曜日",
      "日曜日",
      "祝日"
    ],
    "openDaysNote": "日曜日は基本的に従業者の休日としております。独居の方や認知症等どうしても日曜日の支援が必要な方については応相談にて随時対応させて頂きます。"
  },
  {
    "id": "3072300423",
    "name": "さら介護サービス",
    "kana": "サラカイゴサービス",
    "address": "新宮市佐野1010-8",
    "lat": 33.6851928,
    "lng": 135.972502,
    "tel": "0735-29-7785",
    "url": "sara-2585@zj8.so-net.ne.jp",
    "pref": "和歌山県",
    "city": "新宮市",
    "category": "home_help",
    "serviceType": "訪問介護",
    "capacity": 0,
    "openDays": [
      "平日",
      "土曜日",
      "日曜日",
      "祝日"
    ],
    "openDaysNote": ""
  },
  {
    "id": "3072300316",
    "name": "ニチイケアセンター紀南",
    "kana": "ニチイケアセンターキナン",
    "address": "和歌山県新宮市佐野952-1ぶるベリーマンション１Ｆ ぶるベリーマンション１Ｆ",
    "lat": 33.6842739,
    "lng": 135.9700803,
    "tel": "0735-31-3901",
    "url": "http://www.nichiigakkan.co.jp",
    "pref": "和歌山県",
    "city": "新宮市",
    "category": "home_help",
    "serviceType": "訪問介護",
    "capacity": 0,
    "openDays": [
      "平日"
    ],
    "openDaysNote": "居宅サービス計画により、休業日及び営業時間外であってもサービス提供する場合があります。"
  },
  {
    "id": "3072300068",
    "name": "ニチイケアセンター新宮",
    "kana": "ニチイケアセンターシングウ",
    "address": "和歌山県新宮市鴻田三丁目５番３７号",
    "lat": 33.7091844,
    "lng": 135.9861751,
    "tel": "0735-28-3022",
    "url": "http://www.nichiigakkan.co.jp",
    "pref": "和歌山県",
    "city": "新宮市",
    "category": "home_help",
    "serviceType": "訪問介護",
    "capacity": 0,
    "openDays": [
      "平日",
      "土曜日",
      "日曜日",
      "祝日"
    ],
    "openDaysNote": "居宅サービス計画により、休業日及び営業時間外であってもサービス提供する場合があります。"
  },
  {
    "id": "3072500550",
    "name": "のの花訪問介護事業所",
    "kana": "ノノハナホウモンカイゴジギョウショ",
    "address": "和歌山県新宮市仲之町2丁目1-13",
    "lat": 33.729229644457,
    "lng": 135.988753751781,
    "tel": "0735-22-8249",
    "url": "",
    "pref": "和歌山県",
    "city": "新宮市",
    "category": "home_help",
    "serviceType": "訪問介護",
    "capacity": 19,
    "openDays": [
      "平日",
      "土曜日",
      "日曜日",
      "祝日"
    ],
    "openDaysNote": "無し"
  },
  {
    "id": "3072300803",
    "name": "ライフパートナー木の香",
    "kana": "ライフパートナーキノカ",
    "address": "和歌山県新宮市池田二丁目1番13号",
    "lat": 33.7281848,
    "lng": 135.9957021,
    "tel": "0735-28-5522",
    "url": "",
    "pref": "和歌山県",
    "city": "新宮市",
    "category": "home_help",
    "serviceType": "訪問介護",
    "capacity": 1,
    "openDays": [
      "平日",
      "土曜日",
      "日曜日",
      "祝日"
    ],
    "openDaysNote": "営業時間外であってもサービスの提供を行う場合があります。"
  },
  {
    "id": "3072300290",
    "name": "王子介護",
    "kana": "オウジカイゴ",
    "address": "和歌山県新宮市熊野地２丁目11番25号",
    "lat": 33.7217133,
    "lng": 136.0014795,
    "tel": "0735-21-5005",
    "url": "",
    "pref": "和歌山県",
    "city": "新宮市",
    "category": "home_help",
    "serviceType": "訪問介護",
    "capacity": 5,
    "openDays": [
      "平日",
      "土曜日",
      "日曜日",
      "祝日"
    ],
    "openDaysNote": "なし"
  },
  {
    "id": "3072300241",
    "name": "介護サービス　オーネット",
    "kana": "カイゴサービス　オーネット",
    "address": "和歌山県新宮市新宮３８１３－１６４",
    "lat": 33.7137894,
    "lng": 135.9856418,
    "tel": "0735-23-0919",
    "url": "",
    "pref": "和歌山県",
    "city": "新宮市",
    "category": "home_help",
    "serviceType": "訪問介護",
    "capacity": 0,
    "openDays": [
      "平日",
      "土曜日",
      "日曜日",
      "祝日"
    ],
    "openDaysNote": "営業時間外も必要に応じ、サービスの提供可能"
  },
  {
    "id": "3072300621",
    "name": "介護サービススマイル",
    "kana": "カイゴサービススマイル",
    "address": "和歌山県新宮市蓬莱３丁目２番２7号",
    "lat": 33.7243897725513,
    "lng": 135.997214899614,
    "tel": "0735-23-9100",
    "url": "",
    "pref": "和歌山県",
    "city": "新宮市",
    "category": "home_help",
    "serviceType": "訪問介護",
    "capacity": 120,
    "openDays": [
      "平日",
      "祝日"
    ],
    "openDaysNote": "２４時間常時連絡が可能な体制とします"
  },
  {
    "id": "3072300845",
    "name": "介護センター　アオ空",
    "kana": "カイゴセンター　アオゾラ",
    "address": "鴻田１丁目２番５号",
    "lat": 33.7121254475375,
    "lng": 135.987878249182,
    "tel": "0735-23-0606",
    "url": "",
    "pref": "和歌山県",
    "city": "新宮市",
    "category": "home_help",
    "serviceType": "訪問介護",
    "capacity": null,
    "openDays": [
      "平日",
      "土曜日",
      "日曜日",
      "祝日"
    ],
    "openDaysNote": "緊急連絡方法は、電話などにより２４時間常時連絡が可能です。"
  },
  {
    "id": "3072300324",
    "name": "介護センターピンポンパン新宮",
    "kana": "カイゴセンターピンポンパンシングウ",
    "address": "和歌山県新宮市井の沢８－１",
    "lat": 33.7226939,
    "lng": 135.9903553,
    "tel": "0735-28-1161",
    "url": "",
    "pref": "和歌山県",
    "city": "新宮市",
    "category": "home_help",
    "serviceType": "訪問介護",
    "capacity": 0,
    "openDays": [
      "平日",
      "土曜日",
      "日曜日",
      "祝日"
    ],
    "openDaysNote": "年中無休、上記時間外でも応相談"
  },
  {
    "id": "3072300696",
    "name": "介護センターよろこび",
    "kana": "カイゴセンターヨロコビ",
    "address": "和歌山県新宮市蜂伏9-26",
    "lat": 33.6824989,
    "lng": 135.9639444,
    "tel": "0735-31-3007",
    "url": "",
    "pref": "和歌山県",
    "city": "新宮市",
    "category": "home_help",
    "serviceType": "訪問介護",
    "capacity": 0,
    "openDays": [
      "平日",
      "土曜日",
      "祝日"
    ],
    "openDaysNote": "家族の方が留守などの場合、時間外サービス提供することがある。"
  },
  {
    "id": "3072300662",
    "name": "介護センター一歩",
    "kana": "カイゴセンターイッポ",
    "address": "相筋2丁目3-16",
    "lat": 33.7345353127308,
    "lng": 135.979273879097,
    "tel": "0735-30-0064",
    "url": "",
    "pref": "和歌山県",
    "city": "新宮市",
    "category": "home_help",
    "serviceType": "訪問介護",
    "capacity": 20,
    "openDays": [
      "平日",
      "土曜日",
      "日曜日",
      "祝日"
    ],
    "openDaysNote": "なし"
  },
  {
    "id": "3062390020",
    "name": "社会福祉法人　新宮市社会福祉協議会",
    "kana": "シャカイフクシホウジン　シングウシシャカイフクシキョウギカイ",
    "address": "和歌山県新宮市春日2-12ふくろくビル2階 ふくろくビル2階",
    "lat": 33.7249464,
    "lng": 135.9925283,
    "tel": "0735-21-2941",
    "url": "",
    "pref": "和歌山県",
    "city": "新宮市",
    "category": "home_help",
    "serviceType": "訪問介護",
    "capacity": 0,
    "openDays": [
      "平日",
      "土曜日",
      "日曜日",
      "祝日"
    ],
    "openDaysNote": "夜間～深夜の訪問についてはヘルパーの出勤状況により訪問できない可能性あり。"
  },
  {
    "id": "3072300829",
    "name": "訪問介護　紀の風",
    "kana": "ホウモンカイゴ　キノカゼ",
    "address": "佐野1322-1グランドール紀の風 グランドール紀の風",
    "lat": 33.6895822328292,
    "lng": 135.965766889766,
    "tel": "0735-31-3100",
    "url": "http://www.kinokaze.net/",
    "pref": "和歌山県",
    "city": "新宮市",
    "category": "home_help",
    "serviceType": "訪問介護",
    "capacity": 0,
    "openDays": [
      "平日",
      "土曜日",
      "日曜日",
      "祝日"
    ],
    "openDaysNote": "なし"
  },
  {
    "id": "3072300860",
    "name": "訪問介護えみ",
    "kana": "ホウモンカイゴエミ",
    "address": "和歌山県新宮市緑ヶ丘1丁目1番地34号",
    "lat": 33.721400042069,
    "lng": 135.991096573016,
    "tel": "0735-30-4569",
    "url": "http://hp.kaipoke.biz/3su/",
    "pref": "和歌山県",
    "city": "新宮市",
    "category": "home_help",
    "serviceType": "訪問介護",
    "capacity": 100,
    "openDays": [
      "平日",
      "土曜日",
      "日曜日",
      "祝日"
    ],
    "openDaysNote": "必要に応じて対応いたします。"
  },
  {
    "id": "3072301009",
    "name": "訪問介護きらきら",
    "kana": "ホウモンカイゴキラキラ",
    "address": "和歌山県新宮市新宮3651-1",
    "lat": 33.7111474,
    "lng": 135.9872827,
    "tel": "0735-29-2220",
    "url": "",
    "pref": "和歌山県",
    "city": "新宮市",
    "category": "home_help",
    "serviceType": "訪問介護",
    "capacity": null,
    "openDays": [
      "平日"
    ],
    "openDaysNote": ""
  },
  {
    "id": "3072301058",
    "name": "訪問介護サービス　てん",
    "kana": "ホウモンカイゴサービス　テン",
    "address": "和歌山県新宮市相筋1-3-12",
    "lat": 33.7313857,
    "lng": 135.9821492,
    "tel": "0735-21-3543",
    "url": "",
    "pref": "和歌山県",
    "city": "新宮市",
    "category": "home_help",
    "serviceType": "訪問介護",
    "capacity": null,
    "openDays": [
      "平日"
    ],
    "openDaysNote": ""
  },
  {
    "id": "3072300282",
    "name": "訪問介護サービス　千寿",
    "kana": "ホウモンカイゴサービス　センジュ",
    "address": "和歌山県新宮市下田2-2-33",
    "lat": 33.7167424034361,
    "lng": 135.992752259176,
    "tel": "0735-23-4505",
    "url": "",
    "pref": "和歌山県",
    "city": "新宮市",
    "category": "home_help",
    "serviceType": "訪問介護",
    "capacity": 0,
    "openDays": [
      "平日",
      "土曜日",
      "日曜日",
      "祝日"
    ],
    "openDaysNote": "２４時間体制で連絡可能・緊急時対応"
  },
  {
    "id": "3072300811",
    "name": "訪問介護サービスきしゅう",
    "kana": "ホウモンカイゴサービスキシュウ",
    "address": "和歌山県新宮市熊野地２－１７－１４",
    "lat": 33.7210360924521,
    "lng": 136.003989166201,
    "tel": "０７３５－２９－１０４４",
    "url": "",
    "pref": "和歌山県",
    "city": "新宮市",
    "category": "home_help",
    "serviceType": "訪問介護",
    "capacity": 39,
    "openDays": [
      "平日",
      "土曜日",
      "日曜日",
      "祝日"
    ],
    "openDaysNote": ""
  },
  {
    "id": "3072300993",
    "name": "訪問介護シエスタ",
    "kana": "ホウモンカイゴシエスタ",
    "address": "和歌山県新宮市浮島1-28中本ビル2-1 中本ビル2-1",
    "lat": 33.7257958,
    "lng": 135.9915729,
    "tel": "0735-29-2390",
    "url": "",
    "pref": "和歌山県",
    "city": "新宮市",
    "category": "home_help",
    "serviceType": "訪問介護",
    "capacity": 0,
    "openDays": [
      "平日",
      "土曜日",
      "日曜日",
      "祝日"
    ],
    "openDaysNote": "１月１日～１月３日は原則として休み"
  },
  {
    "id": "3072301017",
    "name": "訪問介護事業所みかん",
    "kana": "ホウモンカイゴジギョウショミカン",
    "address": "和歌山県新宮市田鶴町２丁目３－８",
    "lat": 33.7241203,
    "lng": 135.9924819,
    "tel": "0735-29-7334",
    "url": "",
    "pref": "和歌山県",
    "city": "新宮市",
    "category": "home_help",
    "serviceType": "訪問介護",
    "capacity": 0,
    "openDays": [
      "平日",
      "土曜日",
      "日曜日",
      "祝日"
    ],
    "openDaysNote": ""
  },
  {
    "id": "3072301074",
    "name": "訪問居宅介護事業所　にこ",
    "kana": "ホウモンキョタクカイゴジギョウショ　ニコ",
    "address": "和歌山県新宮市徐福１－１－１０　２F",
    "lat": 33.7244643,
    "lng": 135.9949653,
    "tel": "0735-29-3723",
    "url": "",
    "pref": "和歌山県",
    "city": "新宮市",
    "category": "home_help",
    "serviceType": "訪問介護",
    "capacity": null,
    "openDays": [
      "平日"
    ],
    "openDaysNote": "基本的にいつでも。（改行）夜間も相談にのります。"
  },
  {
    "id": "3072300092",
    "name": "有限会社　ひだまり",
    "kana": "ユウゲンガイシャ　ヒダマリ",
    "address": "和歌山県新宮市井の沢9番10号",
    "lat": 33.7223373048412,
    "lng": 135.991214585953,
    "tel": "0735-23-9301",
    "url": "http://kaigo-hidamari.com/",
    "pref": "和歌山県",
    "city": "新宮市",
    "category": "home_help",
    "serviceType": "訪問介護",
    "capacity": 0,
    "openDays": [
      "平日",
      "土曜日",
      "日曜日",
      "祝日"
    ],
    "openDaysNote": "サービス提供日は年中無休。"
  },
  {
    "id": "3072500865",
    "name": "社会福祉法人　太地町社会福祉協議会",
    "kana": "シャカイフクシホウジン　タイジチョウシャカイフクシキョウギカイ",
    "address": "和歌山県東牟婁郡太地町太地2991－1番地「多目的センター内」社会福祉法人　太地町社会福祉協議会 社会福祉法人　太地町社会福祉協議会",
    "lat": 33.5970893997134,
    "lng": 135.942349674561,
    "tel": "0735-59-3380",
    "url": "",
    "pref": "和歌山県",
    "city": "太地町",
    "category": "home_help",
    "serviceType": "訪問介護",
    "capacity": 0,
    "openDays": [
      "平日",
      "土曜日",
      "日曜日",
      "祝日"
    ],
    "openDaysNote": "午後6時から午前8時までの訪問依頼があれば夜間料金午後6時から午後10時まで２５％上乗せ・早朝料金午前6時から午前8時まで２５％上乗せ・深夜料金午後10時からあ午前6時まで５０％上乗せになります。"
  },
  {
    "id": "3072201969",
    "name": "AMORE株式会社",
    "kana": "アモレカブシキガイシャ",
    "address": "和歌山県田辺市あけぼの37-17あけぼの台ハイツ2F あけぼの台ハイツ2F",
    "lat": 33.7302198,
    "lng": 135.3921482,
    "tel": "0739-34-2477",
    "url": "https://www.amore.ltd/",
    "pref": "和歌山県",
    "city": "田辺市",
    "category": "home_help",
    "serviceType": "訪問介護",
    "capacity": null,
    "openDays": [
      "平日",
      "土曜日",
      "日曜日",
      "祝日"
    ],
    "openDaysNote": ""
  },
  {
    "id": "3072200532",
    "name": "あけぼの在宅介護サービス",
    "kana": "アケボノザイタクカイゴサービス",
    "address": "和歌山県田辺市上屋敷一丁目14-50",
    "lat": 33.7323774,
    "lng": 135.3734739,
    "tel": "0739-24-5512",
    "url": "http://pine.icts.jp/",
    "pref": "和歌山県",
    "city": "田辺市",
    "category": "home_help",
    "serviceType": "訪問介護",
    "capacity": 0,
    "openDays": [
      "平日",
      "土曜日",
      "祝日"
    ],
    "openDaysNote": "早朝・夜間は電話等により、24時間連絡可能な体制とする。"
  },
  {
    "id": "3072200458",
    "name": "あじさい介護センター",
    "kana": "アジサイカイゴセンター",
    "address": "和歌山県田辺市秋津町３３０－７",
    "lat": 33.7498364,
    "lng": 135.3938943,
    "tel": "0739-23-3533",
    "url": "",
    "pref": "和歌山県",
    "city": "田辺市",
    "category": "home_help",
    "serviceType": "訪問介護",
    "capacity": 0,
    "openDays": [
      "平日",
      "土曜日",
      "日曜日",
      "祝日"
    ],
    "openDaysNote": "年中無休（１月１日～１月３日以外）"
  },
  {
    "id": "3072201704",
    "name": "アマポーラ",
    "kana": "アマポーラ",
    "address": "和歌山県田辺市下万呂463-3",
    "lat": 33.7292667,
    "lng": 135.3897891,
    "tel": "0739-24-5000",
    "url": "",
    "pref": "和歌山県",
    "city": "田辺市",
    "category": "home_help",
    "serviceType": "訪問介護",
    "capacity": 0,
    "openDays": [
      "平日",
      "土曜日",
      "日曜日",
      "祝日"
    ],
    "openDaysNote": "営業時間外のサービス利用については相談に応じます"
  },
  {
    "id": "3072201910",
    "name": "ケア・クラフトいなり",
    "kana": "ケア・クラフトイナリ",
    "address": "稲成町186番地ヴィラYS201号室 ヴィラYS201号室",
    "lat": 33.7402645,
    "lng": 135.3739645,
    "tel": "0739-33-2700",
    "url": "",
    "pref": "和歌山県",
    "city": "田辺市",
    "category": "home_help",
    "serviceType": "訪問介護",
    "capacity": 0,
    "openDays": [
      "平日",
      "土曜日",
      "日曜日",
      "祝日"
    ],
    "openDaysNote": ""
  },
  {
    "id": "3072200391",
    "name": "ケアーセンターひまわり",
    "kana": "ケアーセンターヒマワリ",
    "address": "和歌山県田辺市高雄三丁目8番17号",
    "lat": 33.7382906,
    "lng": 135.3839563,
    "tel": "0739-25-7363",
    "url": "",
    "pref": "和歌山県",
    "city": "田辺市",
    "category": "home_help",
    "serviceType": "訪問介護",
    "capacity": 0,
    "openDays": [
      "平日",
      "土曜日",
      "日曜日",
      "祝日"
    ],
    "openDaysNote": "相談に応じ、柔軟な対応を心がけています。"
  },
  {
    "id": "3072201027",
    "name": "ケアサポートカタチ",
    "kana": "ケアサポートカタチ",
    "address": "和歌山県田辺市目良37-28",
    "lat": 33.735946617912,
    "lng": 135.354969787399,
    "tel": "0739-33-7967",
    "url": "http://catachi.jp/wp40/",
    "pref": "和歌山県",
    "city": "田辺市",
    "category": "home_help",
    "serviceType": "訪問介護",
    "capacity": 0,
    "openDays": [
      "平日",
      "土曜日",
      "日曜日",
      "祝日"
    ],
    "openDaysNote": "上記の他、常時連絡体制を整え、要望があればその都度対応"
  },
  {
    "id": "3072201860",
    "name": "ケアサポートかなで",
    "kana": "ケアサポートカナデ",
    "address": "和歌山県田辺市神島台12-13スペースルーム205号 スペースルーム205号",
    "lat": 33.7067869109565,
    "lng": 135.403128385959,
    "tel": "0739-26-1234",
    "url": "http://hp.kaipoke.biz/xsx/",
    "pref": "和歌山県",
    "city": "田辺市",
    "category": "home_help",
    "serviceType": "訪問介護",
    "capacity": 0,
    "openDays": [
      "平日",
      "土曜日",
      "日曜日",
      "祝日"
    ],
    "openDaysNote": "時間外の訪問も相談により対応可能です"
  },
  {
    "id": "3072200482",
    "name": "ケアサポートセンターほほえみ",
    "kana": "ケアサポートセンターホホエミ",
    "address": "和歌山県田辺市下万呂481",
    "lat": 33.7387461,
    "lng": 135.3925778,
    "tel": "0739-81-0588",
    "url": "",
    "pref": "和歌山県",
    "city": "田辺市",
    "category": "home_help",
    "serviceType": "訪問介護",
    "capacity": 0,
    "openDays": [
      "平日",
      "土曜日",
      "日曜日",
      "祝日"
    ],
    "openDaysNote": "年中無休"
  },
  {
    "id": "3072201688",
    "name": "ケアサポートよりそい",
    "kana": "ケアサポートヨリソイ",
    "address": "本町49-3田辺中央ビル301 田辺中央ビル301",
    "lat": 33.7339093882583,
    "lng": 135.37558757423,
    "tel": "0739-33-7515",
    "url": "",
    "pref": "和歌山県",
    "city": "田辺市",
    "category": "home_help",
    "serviceType": "訪問介護",
    "capacity": 0,
    "openDays": [
      "平日",
      "土曜日",
      "日曜日",
      "祝日"
    ],
    "openDaysNote": "利用者の希望に応じて、サービスの提供については、２４時間対応可能な体制を整えるものとします。"
  },
  {
    "id": "3072200789",
    "name": "ケアセンターこみの",
    "kana": "ケアセンターコミノ",
    "address": "田辺市神島台7番1号",
    "lat": 33.7058366,
    "lng": 135.4042212,
    "tel": "0739-34-6556",
    "url": "",
    "pref": "和歌山県",
    "city": "田辺市",
    "category": "home_help",
    "serviceType": "訪問介護",
    "capacity": 0,
    "openDays": [
      "平日",
      "土曜日",
      "日曜日",
      "祝日"
    ],
    "openDaysNote": "居宅サービス計画により、休業日および営業時間外であっても、サービスを提供する場合がありますのでご相談ください。"
  },
  {
    "id": "3072201654",
    "name": "ケアセンターめばえ",
    "kana": "ケアセンターメバエ",
    "address": "和歌山県田辺市芳養町808-35エクセルピュア1F エクセルピュア1F",
    "lat": 33.748281849193,
    "lng": 135.346484404946,
    "tel": "0739-33-9240",
    "url": "",
    "pref": "和歌山県",
    "city": "田辺市",
    "category": "home_help",
    "serviceType": "訪問介護",
    "capacity": 0,
    "openDays": [
      "平日",
      "土曜日",
      "日曜日",
      "祝日"
    ],
    "openDaysNote": ""
  },
  {
    "id": "3072200607",
    "name": "さくらホームヘルプサービス",
    "kana": "サクラホームヘルプサービス",
    "address": "和歌山県田辺市下三栖1471-10",
    "lat": 33.7300556,
    "lng": 135.4199114,
    "tel": "0739-26-3463",
    "url": "",
    "pref": "和歌山県",
    "city": "田辺市",
    "category": "home_help",
    "serviceType": "訪問介護",
    "capacity": 0,
    "openDays": [
      "平日",
      "土曜日",
      "日曜日",
      "祝日"
    ],
    "openDaysNote": "年中無休"
  },
  {
    "id": "3072201241",
    "name": "さくらんぼ訪問介護",
    "kana": "サクランボホウモンカイゴ",
    "address": "秋津川1472-2",
    "lat": 33.8004387,
    "lng": 135.4281764,
    "tel": "0739-36-0092",
    "url": "",
    "pref": "和歌山県",
    "city": "田辺市",
    "category": "home_help",
    "serviceType": "訪問介護",
    "capacity": 3,
    "openDays": [
      "平日",
      "土曜日"
    ],
    "openDaysNote": "特になし"
  },
  {
    "id": "3072201829",
    "name": "セントケアたなべ",
    "kana": "セントケアタナベ",
    "address": "和歌山県田辺市新庄町369-1メゾンサンテ1階A号室 メゾンサンテ1階A号室",
    "lat": 33.7245748,
    "lng": 135.3994348,
    "tel": "0739-23-5030",
    "url": "https://www.saint-care.com/",
    "pref": "和歌山県",
    "city": "田辺市",
    "category": "home_help",
    "serviceType": "訪問介護",
    "capacity": 0,
    "openDays": [
      "平日",
      "土曜日",
      "日曜日",
      "祝日"
    ],
    "openDaysNote": "※事業所体制により変動あり。"
  },
  {
    "id": "3072201506",
    "name": "ときめき訪問介護事業所",
    "kana": "トキメキホウモンカイゴジギョウショ",
    "address": "下万呂16番地の6",
    "lat": 33.7430483,
    "lng": 135.3948747,
    "tel": "0739-25-6745",
    "url": "",
    "pref": "和歌山県",
    "city": "田辺市",
    "category": "home_help",
    "serviceType": "訪問介護",
    "capacity": 0,
    "openDays": [
      "平日"
    ],
    "openDaysNote": ""
  },
  {
    "id": "3072201779",
    "name": "ニチイケアセンター紀中たなべ",
    "kana": "ニチイケアセンターキチュウタナベ",
    "address": "和歌山県田辺市龍神村西360-1龍神村西テナント3号室 龍神村西テナント3号室",
    "lat": 33.8946033202508,
    "lng": 135.48803817791,
    "tel": "0739-78-8088",
    "url": "www.nichiigakkann.co.jp",
    "pref": "和歌山県",
    "city": "田辺市",
    "category": "home_help",
    "serviceType": "訪問介護",
    "capacity": 0,
    "openDays": [
      "平日"
    ],
    "openDaysNote": "居宅サービス計画により、休業日及び営業時間外であってもサービス提供する場合があります。"
  },
  {
    "id": "3072201712",
    "name": "ニチイケアセンター新万",
    "kana": "ニチイケアセンターシンマン",
    "address": "和歌山県田辺市朝日ヶ丘19-16朝日ヶ丘ライフ店舗 朝日ヶ丘ライフ店舗",
    "lat": 33.7335891,
    "lng": 135.3943157,
    "tel": "0739-81-3270",
    "url": "www.nichiigakkan.co.jp",
    "pref": "和歌山県",
    "city": "田辺市",
    "category": "home_help",
    "serviceType": "訪問介護",
    "capacity": 0,
    "openDays": [
      "平日",
      "土曜日",
      "日曜日",
      "祝日"
    ],
    "openDaysNote": "居宅サービス計画により、休業日及び営業時間外であってもサービス提供する場合があります。"
  },
  {
    "id": "3072200292",
    "name": "ニチイケアセンター田辺",
    "kana": "ニチイケアセンタータナベ",
    "address": "和歌山県田辺市稲成町77-1",
    "lat": 33.7400115609145,
    "lng": 135.371130779762,
    "tel": "0739-24-7713",
    "url": "http//www.nichiigakkan.co.jp",
    "pref": "和歌山県",
    "city": "田辺市",
    "category": "home_help",
    "serviceType": "訪問介護",
    "capacity": 0,
    "openDays": [
      "平日"
    ],
    "openDaysNote": "居宅サービス計画により、休業日及び営業時間外であってもサービス提供する場合があります。"
  },
  {
    "id": "3072202009",
    "name": "ヘルパーステーション　コンフォート",
    "kana": "ヘルパーステーション　コンフォート",
    "address": "和歌山県田辺市朝日ヶ丘２１－１ハートビル２F　２０２号 ハートビル２F　２０２号",
    "lat": 33.7343977,
    "lng": 135.3935994,
    "tel": "0739-34-4500",
    "url": "",
    "pref": "和歌山県",
    "city": "田辺市",
    "category": "home_help",
    "serviceType": "訪問介護",
    "capacity": 0,
    "openDays": [
      "平日",
      "土曜日",
      "日曜日",
      "祝日"
    ],
    "openDaysNote": ""
  },
  {
    "id": "3072201340",
    "name": "ヘルパーステーション　ソルマーレ",
    "kana": "ヘルパーステーション　ソルマーレ",
    "address": "和歌山県田辺市下万呂588-1フロムドットビル103号 フロムドットビル103号",
    "lat": 33.7403459,
    "lng": 135.3932166,
    "tel": "0739-24-1911",
    "url": "",
    "pref": "和歌山県",
    "city": "田辺市",
    "category": "home_help",
    "serviceType": "訪問介護",
    "capacity": 0,
    "openDays": [
      "平日"
    ],
    "openDaysNote": "営業時間外のサービス提供に関しては、ご相談に応じます。"
  },
  {
    "id": "3072201134",
    "name": "ヘルパーステーション　田辺の郷",
    "kana": "ヘルパーステーション　タナベノサト",
    "address": "田辺市芳養松原1丁目31番10号",
    "lat": 33.7443554,
    "lng": 135.3546725,
    "tel": "0739-26-3210",
    "url": "http://sanyofukushikai.com/",
    "pref": "和歌山県",
    "city": "田辺市",
    "category": "home_help",
    "serviceType": "訪問介護",
    "capacity": 0,
    "openDays": [
      "平日",
      "土曜日",
      "祝日"
    ],
    "openDaysNote": "必要に応じサービス提供する体制あり"
  },
  {
    "id": "3072201878",
    "name": "ヘルパーステーションあかつき",
    "kana": "ヘルパーステーションアカツキ",
    "address": "和歌山県田辺市高雄1-7-18",
    "lat": 33.7359732,
    "lng": 135.3792856,
    "tel": "0739-23-2777",
    "url": "",
    "pref": "和歌山県",
    "city": "田辺市",
    "category": "home_help",
    "serviceType": "訪問介護",
    "capacity": null,
    "openDays": [
      "平日",
      "土曜日",
      "日曜日",
      "祝日"
    ],
    "openDaysNote": "必要に応じて規定時間外の訪問も可能"
  },
  {
    "id": "3072200045",
    "name": "ホームヘルプ24",
    "kana": "ホームヘルプニジュウヨン",
    "address": "和歌山県田辺市片町１１６－１",
    "lat": 33.7328767837276,
    "lng": 135.376423482431,
    "tel": "0739-25-3637",
    "url": "http//care-net.biz/30/ho-mu24/",
    "pref": "和歌山県",
    "city": "田辺市",
    "category": "home_help",
    "serviceType": "訪問介護",
    "capacity": 0,
    "openDays": [
      "平日",
      "土曜日",
      "日曜日",
      "祝日"
    ],
    "openDaysNote": ""
  },
  {
    "id": "3072202017",
    "name": "ホワイトケアサービス",
    "kana": "ホワイトケアサービス",
    "address": "和歌山県田辺市朝日ヶ丘22-24",
    "lat": 33.7358508,
    "lng": 135.3942055,
    "tel": "0739-34-5616",
    "url": "",
    "pref": "和歌山県",
    "city": "田辺市",
    "category": "home_help",
    "serviceType": "訪問介護",
    "capacity": 0,
    "openDays": [
      "平日",
      "土曜日",
      "日曜日",
      "祝日"
    ],
    "openDaysNote": "サービス提供日は365日（改行）上記サービス提供時間のほか、相談に応じてサービスの提供をします。"
  },
  {
    "id": "3072200102",
    "name": "ユウガ訪問介護ステーション",
    "kana": "ユウガホウモンカイゴステーション",
    "address": "田辺市東山１-4-54",
    "lat": 33.7296361,
    "lng": 135.387431,
    "tel": "0739-25-7120",
    "url": "http://yuuga.blogdehp.ne.jp/",
    "pref": "和歌山県",
    "city": "田辺市",
    "category": "home_help",
    "serviceType": "訪問介護",
    "capacity": 0,
    "openDays": [
      "平日",
      "土曜日",
      "日曜日",
      "祝日"
    ],
    "openDaysNote": ""
  },
  {
    "id": "3072201126",
    "name": "ライフパートナー　ひよこ",
    "kana": "ライフパートナー　ヒヨコ",
    "address": "和歌山県田辺市天神崎35-30ｻﾝｳﾞｨﾚｯｼﾞ202号 ｻﾝｳﾞｨﾚｯｼﾞ202号",
    "lat": 33.730922,
    "lng": 135.3597974,
    "tel": "0739-81-0945",
    "url": "",
    "pref": "和歌山県",
    "city": "田辺市",
    "category": "home_help",
    "serviceType": "訪問介護",
    "capacity": 0,
    "openDays": [
      "平日",
      "土曜日",
      "日曜日",
      "祝日"
    ],
    "openDaysNote": ""
  },
  {
    "id": "3072200011",
    "name": "紀南在宅介護サービス",
    "kana": "キナンザイタクカイゴサービス",
    "address": "和歌山県田辺市高雄一丁目6番45号",
    "lat": 33.7359010879125,
    "lng": 135.379995665607,
    "tel": "0739-24-5156",
    "url": "",
    "pref": "和歌山県",
    "city": "田辺市",
    "category": "home_help",
    "serviceType": "訪問介護",
    "capacity": 160,
    "openDays": [
      "平日",
      "土曜日",
      "日曜日",
      "祝日"
    ],
    "openDaysNote": "ただし、必要に応じて規定利用時間外の訪問も可能。"
  },
  {
    "id": "3072400454",
    "name": "古道“まごころ”",
    "kana": "コドウ　マゴコロ",
    "address": "和歌山県田辺市中辺路町栗栖川275-1",
    "lat": 33.7887604,
    "lng": 135.5122772,
    "tel": "0739-64-1628",
    "url": "",
    "pref": "和歌山県",
    "city": "田辺市",
    "category": "home_help",
    "serviceType": "訪問介護",
    "capacity": 0,
    "openDays": [
      "平日",
      "土曜日",
      "日曜日",
      "祝日"
    ],
    "openDaysNote": ""
  },
  {
    "id": "3072400041",
    "name": "社会福祉法人　田辺市社会福祉協議会　大塔事業所",
    "kana": "シャカイフクシホウジン　タナベシシャカイフクシキョウギカイ　オオトウジギョウショ",
    "address": "和歌山県田辺市鮎川５８３－９大塔ふくしかいかん 大塔ふくしかいかん",
    "lat": 33.7292982,
    "lng": 135.4836222,
    "tel": "0739-48‐0871",
    "url": "",
    "pref": "和歌山県",
    "city": "田辺市",
    "category": "home_help",
    "serviceType": "訪問介護",
    "capacity": 0,
    "openDays": [
      "平日",
      "土曜日",
      "日曜日",
      "祝日"
    ],
    "openDaysNote": "なし"
  },
  {
    "id": "3072201274",
    "name": "真寿苑ホームヘルプサービス",
    "kana": "シンジュエンホームヘルプサービス",
    "address": "田辺市神島台6-13",
    "lat": 33.7077474,
    "lng": 135.4032185,
    "tel": "0739-22-5557",
    "url": "http://www.sjk-tanabe.or.jp/",
    "pref": "和歌山県",
    "city": "田辺市",
    "category": "home_help",
    "serviceType": "訪問介護",
    "capacity": null,
    "openDays": [
      "平日",
      "土曜日",
      "日曜日",
      "祝日"
    ],
    "openDaysNote": "上記以外にも24時間対応可能"
  },
  {
    "id": "3072201985",
    "name": "田辺すみれ訪問ケアステーション",
    "kana": "タナベスミレホウモンケアステーション",
    "address": "和歌山県田辺市城山台5番6号",
    "lat": 33.7281873,
    "lng": 135.4261244,
    "tel": "0739-22-8887",
    "url": "https://tanabe-sumire-v.jp",
    "pref": "和歌山県",
    "city": "田辺市",
    "category": "home_help",
    "serviceType": "訪問介護",
    "capacity": null,
    "openDays": [
      "平日"
    ],
    "openDaysNote": ""
  },
  {
    "id": "3072201381",
    "name": "田辺すみれ訪問介護ステーション",
    "kana": "タナベスミレホウモンカイゴステーション",
    "address": "和歌山県田辺市新庄町田鶴1739-21",
    "lat": 33.7092292423504,
    "lng": 135.406880499228,
    "tel": "0739-23-5599",
    "url": "http://tanabe-sumire-heim.jp/",
    "pref": "和歌山県",
    "city": "田辺市",
    "category": "home_help",
    "serviceType": "訪問介護",
    "capacity": 0,
    "openDays": [
      "平日"
    ],
    "openDaysNote": "上記、時間外のサービス提供時間については応相談"
  },