[
  {
    "id": "1671600623",
    "name": "ファミリーハンズ　米沢",
    "kana": "ファミリーハンズ　ヨネザワ",
    "address": "富山県滑川市沖田新85",
    "lat": 36.7525950443904,
    "lng": 137.348995611006,
    "tel": "076-475-1684",
    "url": "https://sinsei.me/",
    "pref": "富山県",
    "city": "滑川市",
    "category": "home_help",
    "serviceType": "訪問介護",
    "capacity": 0,
    "openDays": [
      "平日",
      "土曜日",
      "日曜日",
      "祝日"
    ],
    "openDaysNote": ""
  },
  {
    "id": "1670600392",
    "name": "ヘルパーステーションむゆうじゅ",
    "kana": "ヘルパーステーションムユウジュ",
    "address": "上小泉278-1",
    "lat": 36.7629338,
    "lng": 137.3515036,
    "tel": "076-476-0114",
    "url": "",
    "pref": "富山県",
    "city": "滑川市",
    "category": "home_help",
    "serviceType": "訪問介護",
    "capacity": 0,
    "openDays": [
      "平日",
      "土曜日",
      "日曜日",
      "祝日"
    ],
    "openDaysNote": "ケアプランによる"
  },
  {
    "id": "1670600525",
    "name": "ヘルパーステーション想心",
    "kana": "ヘルパーステーション　ソウシン",
    "address": "富山県滑川市沖田新212番地3スプリング・グローブテナント２ スプリング・グローブテナント２",
    "lat": 36.753382,
    "lng": 137.343513,
    "tel": "076-482-3212",
    "url": "",
    "pref": "富山県",
    "city": "滑川市",
    "category": "home_help",
    "serviceType": "訪問介護",
    "capacity": 0,
    "openDays": [
      "平日",
      "土曜日",
      "日曜日",
      "祝日"
    ],
    "openDaysNote": "居宅サービス計画により、営業時間外であってもサービスを提供する場合があります。"
  },
  {
    "id": "1670600293",
    "name": "よろこび滑川ケアセンタ－",
    "kana": "ヨロコビナメリカワケアセンタ-",
    "address": "富山県滑川市瀬羽町1874-5１階 １階",
    "lat": 36.7636205300502,
    "lng": 137.335554495107,
    "tel": "076-476-5771",
    "url": "http://www.imizu-manyoukai.or.jp",
    "pref": "富山県",
    "city": "滑川市",
    "category": "home_help",
    "serviceType": "訪問介護",
    "capacity": 0,
    "openDays": [
      "平日",
      "土曜日",
      "日曜日",
      "祝日"
    ],
    "openDaysNote": "ケアプランによる"
  },
  {
    "id": "1670600087",
    "name": "滑川市社会福祉協議会",
    "kana": "ナメリカワシシャカイフクシキョウギカイ",
    "address": "富山県滑川市寺家町104滑川市庁舎東別館２階 滑川市庁舎東別館２階",
    "lat": 36.7645460730966,
    "lng": 137.341871644709,
    "tel": "076-476-1500",
    "url": "http://www.nashakyo.net/",
    "pref": "富山県",
    "city": "滑川市",
    "category": "home_help",
    "serviceType": "訪問介護",
    "capacity": 0,
    "openDays": [
      "平日",
      "土曜日",
      "日曜日",
      "祝日"
    ],
    "openDaysNote": "定休日は１２月２９日～１月３日であるが、利用者の希望があれば、訪問介護員の対応可能な範囲で対応"
  },
  {
    "id": "1670600475",
    "name": "訪問介護ステーション　一会",
    "kana": "ホウモンカイゴステ-ション　イチエ",
    "address": "富山県滑川市田中町154番地サービス付き高齢者向け住宅　早月の郷 サービス付き高齢者向け住宅　早月の郷",
    "lat": 36.7610931,
    "lng": 137.3372501,
    "tel": "076-411-9706",
    "url": "http://scrum-aw.jp/test_nagomi/",
    "pref": "富山県",
    "city": "滑川市",
    "category": "home_help",
    "serviceType": "訪問介護",
    "capacity": 0,
    "openDays": [
      "平日",
      "土曜日",
      "日曜日",
      "祝日"
    ],
    "openDaysNote": ""
  },
  {
    "id": "1670400694",
    "name": "とわ合同会社",
    "kana": "トワゴウドウカイシャ",
    "address": "富山県魚津市相木４９７番地１",
    "lat": 36.8222562,
    "lng": 137.4227887,
    "tel": "0765－22－8508",
    "url": "",
    "pref": "富山県",
    "city": "魚津市",
    "category": "home_help",
    "serviceType": "訪問介護",
    "capacity": null,
    "openDays": [
      "平日",
      "土曜日",
      "日曜日",
      "祝日"
    ],
    "openDaysNote": "サービス内容によりその限りではない。"
  },
  {
    "id": "1670400520",
    "name": "ぬくもり訪問介護事業所",
    "kana": "ヌクモリホウモンカイゴジギョウショ",
    "address": "富山県魚津市友道777番地",
    "lat": 36.8145575,
    "lng": 137.4112042,
    "tel": "0765-24-7681",
    "url": "http://www/uozubyouin.jp",
    "pref": "富山県",
    "city": "魚津市",
    "category": "home_help",
    "serviceType": "訪問介護",
    "capacity": 0,
    "openDays": [
      "平日",
      "土曜日",
      "日曜日",
      "祝日"
    ],
    "openDaysNote": ""
  },
  {
    "id": "1670400603",
    "name": "ヘルパーステーション　あんどの里　ありそ館",
    "kana": "ヘルパーステーション　アンドノサト　アリソカン",
    "address": "魚津市北鬼江1177番地あんどの里ありそ館 あんどの里ありそ館",
    "lat": 36.8288365,
    "lng": 137.4007539,
    "tel": "0765-24-1680",
    "url": "",
    "pref": "富山県",
    "city": "魚津市",
    "category": "home_help",
    "serviceType": "訪問介護",
    "capacity": 0,
    "openDays": [
      "平日",
      "土曜日",
      "日曜日",
      "祝日"
    ],
    "openDaysNote": "24時間常時対応可能な体制とし、必要であれば応じます。"
  },
  {
    "id": "1670400645",
    "name": "ヘルパーセンタータイアップ",
    "kana": "ヘルパーセンタータイアップ",
    "address": "富山県魚津市北山７１４番地",
    "lat": 36.77544,
    "lng": 137.4454528,
    "tel": "０７６５－３３－９０２０",
    "url": "",
    "pref": "富山県",
    "city": "魚津市",
    "category": "home_help",
    "serviceType": "訪問介護",
    "capacity": 43,
    "openDays": [
      "平日",
      "土曜日",
      "日曜日",
      "祝日"
    ],
    "openDaysNote": ""
  },
  {
    "id": "1670400140",
    "name": "魚津市社協ヘルパーステーション",
    "kana": "ウオヅシシャキョウヘルパーステーション",
    "address": "富山県魚津市新金屋二丁目13番26号",
    "lat": 36.8211708,
    "lng": 137.4092844,
    "tel": "0765-23-1888",
    "url": "https://uoshakyo.net",
    "pref": "富山県",
    "city": "魚津市",
    "category": "home_help",
    "serviceType": "訪問介護",
    "capacity": 0,
    "openDays": [
      "平日",
      "土曜日",
      "日曜日",
      "祝日"
    ],
    "openDaysNote": "年末年始（12／29～翌年1／3）は、原則、休日だが、必要に応じて、訪問している。"
  },
  {
    "id": "1670411139",
    "name": "支援猫の手",
    "kana": "シエンネコノテ",
    "address": "富山県魚津市上村木2丁目1番1号",
    "lat": 36.8208901,
    "lng": 137.4095132,
    "tel": "0765-32-5294",
    "url": "",
    "pref": "富山県",
    "city": "魚津市",
    "category": "home_help",
    "serviceType": "訪問介護",
    "capacity": null,
    "openDays": [
      "平日",
      "土曜日",
      "日曜日",
      "祝日"
    ],
    "openDaysNote": "ただし、営業時間外でも相談に応じサービス提供可能な体制をとる。"
  },
  {
    "id": "1670400447",
    "name": "新川ヴィーラ訪問介護事業所",
    "kana": "ニイカワヴィィーラホウモンカイゴジギョウショ",
    "address": "富山県魚津市本江２２３６番地２",
    "lat": 36.8178140706616,
    "lng": 137.405716700247,
    "tel": "0765-22-7877",
    "url": "http://www.niikawa-fukushi.net/",
    "pref": "富山県",
    "city": "魚津市",
    "category": "home_help",
    "serviceType": "訪問介護",
    "capacity": 0,
    "openDays": [],
    "openDaysNote": "２４時間体制"
  },
  {
    "id": "1670400207",
    "name": "訪問介護ステーションちょうろく",
    "kana": "ホウモンカイゴステーションチョウロク",
    "address": "富山県魚津市本江1616",
    "lat": 36.8160211,
    "lng": 137.4040906,
    "tel": "0765-23-6378",
    "url": "http://www.hospy.jp",
    "pref": "富山県",
    "city": "魚津市",
    "category": "home_help",
    "serviceType": "訪問介護",
    "capacity": null,
    "openDays": [
      "平日",
      "土曜日",
      "日曜日",
      "祝日"
    ],
    "openDaysNote": ""
  },
  {
    "id": "1670400496",
    "name": "訪問介護事業所かがやき魚津",
    "kana": "ホウモンカイゴジギョウショカガヤキウオヅ",
    "address": "魚津市新金屋1-12-38ｲﾝﾃﾘｼﾞｪﾝﾄｾﾝﾀｰﾋﾞﾙ2F ｲﾝﾃﾘｼﾞｪﾝﾄｾﾝﾀｰﾋﾞﾙ2F",
    "lat": 36.8203541,
    "lng": 137.4067041,
    "tel": "0765-22-0266",
    "url": "",
    "pref": "富山県",
    "city": "魚津市",
    "category": "home_help",
    "serviceType": "訪問介護",
    "capacity": 0,
    "openDays": [
      "平日",
      "土曜日",
      "日曜日",
      "祝日"
    ],
    "openDaysNote": ""
  },
  {
    "id": "1670202421",
    "name": "あさひの里ヘルパーステーション",
    "kana": "アサヒノサトヘルパーステーション",
    "address": "富山県高岡市角560-1",
    "lat": 36.7661628111735,
    "lng": 137.037700890508,
    "tel": "0766-21-8688",
    "url": "http://akanekai.toyama.jp/",
    "pref": "富山県",
    "city": "高岡市",
    "category": "home_help",
    "serviceType": "訪問介護",
    "capacity": null,
    "openDays": [
      "平日",
      "土曜日",
      "日曜日",
      "祝日"
    ],
    "openDaysNote": ""
  },
  {
    "id": "1670202207",
    "name": "あっかり介護サービス",
    "kana": "アッカリカイゴサービス",
    "address": "富山県高岡市高陵町７番５４号",
    "lat": 36.7415924,
    "lng": 137.0255956,
    "tel": "0766-21-5009",
    "url": "http://taxi-akkari.com/kaigoservice/",
    "pref": "富山県",
    "city": "高岡市",
    "category": "home_help",
    "serviceType": "訪問介護",
    "capacity": 40,
    "openDays": [
      "平日",
      "土曜日"
    ],
    "openDaysNote": ""
  },
  {
    "id": "1670202280",
    "name": "イフディケア高岡四屋",
    "kana": "イフディケアタカオカヨツヤ",
    "address": "富山県高岡市長江（四屋）1868コンチネンタルスカイハイツ101 コンチネンタルスカイハイツ101",
    "lat": 36.7606740867275,
    "lng": 137.00525118257,
    "tel": "0766-73-2914",
    "url": "https://if-d.net/sakura/",
    "pref": "富山県",
    "city": "高岡市",
    "category": "home_help",
    "serviceType": "訪問介護",
    "capacity": 70,
    "openDays": [
      "平日",
      "土曜日",
      "日曜日",
      "祝日"
    ],
    "openDaysNote": "365日24時間対応しています。"
  },
  {
    "id": "1670202942",
    "name": "いろはケア",
    "kana": "イロハケア",
    "address": "石瀬６１５－１ケアコミュニティしんせい ケアコミュニティしんせい",
    "lat": 36.7601377,
    "lng": 137.0472855,
    "tel": "0766-50-8595",
    "url": "",
    "pref": "富山県",
    "city": "高岡市",
    "category": "home_help",
    "serviceType": "訪問介護",
    "capacity": null,
    "openDays": [
      "平日",
      "土曜日",
      "日曜日",
      "祝日"
    ],
    "openDaysNote": "併設の住宅型有料老人ホーム内のみ実施"
  },
  {
    "id": "1670201365",
    "name": "きらめき介護サービス",
    "kana": "キラメキカイゴサービス",
    "address": "富山県高岡市オフィスパーク５番地",
    "lat": 36.6695257,
    "lng": 136.999521,
    "tel": "0766-63-5277",
    "url": "",
    "pref": "富山県",
    "city": "高岡市",
    "category": "home_help",
    "serviceType": "訪問介護",
    "capacity": null,
    "openDays": [],
    "openDaysNote": "24時間、年中無休"
  },
  {
    "id": "1670202868",
    "name": "ケアサービスあかり",
    "kana": "ケアサービスアカリ",
    "address": "富山県高岡市伏木古府元町1-23",
    "lat": 36.7890581,
    "lng": 137.0480406,
    "tel": "5088836376",
    "url": "",
    "pref": "富山県",
    "city": "高岡市",
    "category": "home_help",
    "serviceType": "訪問介護",
    "capacity": 0,
    "openDays": [
      "平日",
      "土曜日"
    ],
    "openDaysNote": ""
  },
  {
    "id": "1670202801",
    "name": "ケアタクシー　りぼん",
    "kana": "ケアタクシーリボン",
    "address": "富山県高岡市二塚1170",
    "lat": 36.7099998,
    "lng": 137.0061534,
    "tel": "0766-62-0120",
    "url": "URL:www.hrs-rikuso.com",
    "pref": "富山県",
    "city": "高岡市",
    "category": "home_help",
    "serviceType": "訪問介護",
    "capacity": null,
    "openDays": [
      "平日"
    ],
    "openDaysNote": ""
  },
  {
    "id": "1670500360",
    "name": "コミュニティケア",
    "kana": "コミュニティケア",
    "address": "高岡市太田伊勢領1511-13リゾートビラ雨晴 リゾートビラ雨晴",
    "lat": 36.8225769,
    "lng": 137.018617,
    "tel": "0766-45-0117",
    "url": "http://mmn-villa.com",
    "pref": "富山県",
    "city": "高岡市",
    "category": "home_help",
    "serviceType": "訪問介護",
    "capacity": 0,
    "openDays": [
      "平日",
      "土曜日",
      "日曜日",
      "祝日"
    ],
    "openDaysNote": "営業時間以外であっても、依頼があれば対応します。"
  },
  {
    "id": "1670201944",
    "name": "サンケア高岡",
    "kana": "サンケアタカオカ",
    "address": "富山県高岡市赤祖父６３６番地",
    "lat": 36.7284578,
    "lng": 137.0217384,
    "tel": "0766-50-9006",
    "url": "",
    "pref": "富山県",
    "city": "高岡市",
    "category": "home_help",
    "serviceType": "訪問介護",
    "capacity": 0,
    "openDays": [
      "平日",
      "土曜日",
      "日曜日",
      "祝日"
    ],
    "openDaysNote": ""
  },
  {
    "id": "1670200284",
    "name": "だいご苑ヘルパーステーション",
    "kana": "ダイゴエンヘルパーステーション",
    "address": "富山県高岡市醍醐　1257番地",
    "lat": 36.6961986,
    "lng": 136.9616544,
    "tel": "0766-62-0170",
    "url": "http://www.daigoen.com",
    "pref": "富山県",
    "city": "高岡市",
    "category": "home_help",
    "serviceType": "訪問介護",
    "capacity": 0,
    "openDays": [
      "平日",
      "土曜日",
      "日曜日",
      "祝日"
    ],
    "openDaysNote": ""
  },
  {
    "id": "1670201019",
    "name": "ニチイケアセンター高岡",
    "kana": "ニチイケアセンタータカオカ",
    "address": "富山県高岡市中川栄町5番13号",
    "lat": 36.7448889,
    "lng": 137.0281067,
    "tel": "0766-27-7280",
    "url": "http://www.nichiigakkkan.co.jp",
    "pref": "富山県",
    "city": "高岡市",
    "category": "home_help",
    "serviceType": "訪問介護",
    "capacity": 0,
    "openDays": [
      "平日",
      "土曜日",
      "日曜日",
      "祝日"
    ],
    "openDaysNote": "但し、居宅サービス計画により、営業時間外でも、サービス提供を行います。"
  },
  {
    "id": "1670202652",
    "name": "ニチイケアセンター高岡佐野",
    "kana": "ニチイケアセンタータカオカサノ",
    "address": "富山県高岡市佐野580番地",
    "lat": 36.7225658,
    "lng": 136.994411,
    "tel": "0766-29-0012",
    "url": "http:ｗｗw.nichiigakkan.co.jp/",
    "pref": "富山県",
    "city": "高岡市",
    "category": "home_help",
    "serviceType": "訪問介護",
    "capacity": 0,
    "openDays": [
      "平日",
      "土曜日",
      "日曜日",
      "祝日"
    ],
    "openDaysNote": "但し、居宅サービス計画により、営業時間外でもサービス提供を行います。"
  },
  {
    "id": "1670202660",
    "name": "ニチイケアセンター中田",
    "kana": "ニチイケアセンターナカダ",
    "address": "富山県高岡市中田1427番地",
    "lat": 36.6822446,
    "lng": 137.0184211,
    "tel": "0766-36-8522",
    "url": "http://nichiigakkan.co.jp",
    "pref": "富山県",
    "city": "高岡市",
    "category": "home_help",
    "serviceType": "訪問介護",
    "capacity": 0,
    "openDays": [
      "平日"
    ],
    "openDaysNote": "居宅サービス計画により、休業日であっても、サービスの提供を行う場合がある。"
  },
  {
    "id": "1670200318",
    "name": "ニチイケアセンター能町",
    "kana": "ニチイケアセンターノウマチ",
    "address": "富山県高岡市能町南2-25",
    "lat": 36.7647118,
    "lng": 137.0430376,
    "tel": "0766-27-5221",
    "url": "http://www.nichiigakkan.co.jp",
    "pref": "富山県",
    "city": "高岡市",
    "category": "home_help",
    "serviceType": "訪問介護",
    "capacity": 0,
    "openDays": [
      "平日",
      "土曜日",
      "日曜日",
      "祝日"
    ],
    "openDaysNote": "但し、居宅サービス計画により、営業時間以外でも、サービスの提供を行う場合がある。"
  },
  {
    "id": "1670200839",
    "name": "ふしき苑ヘルパーステーション",
    "kana": "フシキエンヘルパーステーション",
    "address": "富山県高岡市伏木国分１丁目１０番１０号",
    "lat": 36.8001945,
    "lng": 137.0539238,
    "tel": "0766-44-7887",
    "url": "http://www2.tcnet.ne.jp/fusikien/",
    "pref": "富山県",
    "city": "高岡市",
    "category": "home_help",
    "serviceType": "訪問介護",
    "capacity": 0,
    "openDays": [
      "平日",
      "土曜日",
      "日曜日",
      "祝日"
    ],
    "openDaysNote": "なし"
  },
  {
    "id": "1670202967",
    "name": "ヘルパーステーションいちごいちえ",
    "kana": "ヘルパーステーションイチゴイチエ",
    "address": "富山県高岡市問屋町211",
    "lat": 36.7307024,
    "lng": 137.0272207,
    "tel": "0766-73-2261",
    "url": "https://www.ichigoichie-toyama.com/company/",
    "pref": "富山県",
    "city": "高岡市",
    "category": "home_help",
    "serviceType": "訪問介護",
    "capacity": null,
    "openDays": [
      "平日",
      "土曜日",
      "日曜日",
      "祝日"
    ],
    "openDaysNote": "年中無休（12月31日～1月3日を除く）"
  },
  {
    "id": "1670202165",
    "name": "ヘルパーステーションのむら藤園苑",
    "kana": "ヘルパーステーションノムラフジソノエン",
    "address": "富山県高岡市野村923-4サンビューハイムのむら103号 サンビューハイムのむら103号",
    "lat": 36.7504415454855,
    "lng": 137.036259146033,
    "tel": "0766-20-8910",
    "url": "http://www.fujisonoen.jp/Nomura/Nomura_index.php",
    "pref": "富山県",
    "city": "高岡市",
    "category": "home_help",
    "serviceType": "訪問介護",
    "capacity": 0,
    "openDays": [
      "平日",
      "土曜日",
      "日曜日",
      "祝日"
    ],
    "openDaysNote": "特になし"
  },
  {
    "id": "1670201241",
    "name": "ヘルパーステーションひだまり高岡",
    "kana": "ヘルパーステーションヒダマリタカオカ",
    "address": "富山県高岡市佐野845-1",
    "lat": 36.7311315934945,
    "lng": 136.990028121086,
    "tel": "0766-23-3386",
    "url": "http://www.hidamari-tmt.com",
    "pref": "富山県",
    "city": "高岡市",
    "category": "home_help",
    "serviceType": "訪問介護",
    "capacity": 0,
    "openDays": [
      "平日",
      "土曜日",
      "日曜日",
      "祝日"
    ],
    "openDaysNote": "２４時間年中無休"
  },
  {
    "id": "1670202470",
    "name": "ヘルパーステーションひふみ",
    "kana": "ヘルパーステーションヒフミ",
    "address": "富山県高岡市野村1844番地メゾン藤20B メゾン藤20B",
    "lat": 36.7609123,
    "lng": 137.0425794,
    "tel": "0766-50-9865",
    "url": "",
    "pref": "富山県",
    "city": "高岡市",
    "category": "home_help",
    "serviceType": "訪問介護",
    "capacity": 0,
    "openDays": [
      "平日",
      "土曜日",
      "祝日"
    ],
    "openDaysNote": ""
  },
  {
    "id": "1670202793",
    "name": "ヘルパーステーションまもる",
    "kana": "ヘルパーステーションマモル",
    "address": "富山県高岡市大野１７２番地１サンヴィラ大野Ａ棟 サンヴィラ大野Ａ棟",
    "lat": 36.7385625923131,
    "lng": 137.028004119049,
    "tel": "9082667861",
    "url": "http://hp.kaipoke.biz/4cv/",
    "pref": "富山県",
    "city": "高岡市",
    "category": "home_help",
    "serviceType": "訪問介護",
    "capacity": null,
    "openDays": [
      "平日",
      "土曜日",
      "日曜日",
      "祝日"
    ],
    "openDaysNote": "上記の営業日、営業時間、サービス提供時間のほか、電話等により２４時間常時連絡が可能な体制とする。"
  },
  {
    "id": "1670202017",
    "name": "ヘルパーステーション一真戸出",
    "kana": "ヘルパーステーションイッシントイデ",
    "address": "高岡市戸出町３丁目１５－５４",
    "lat": 36.680978657573,
    "lng": 136.979217201497,
    "tel": "0766-63-1317",
    "url": "http://iryou-corp.com/",
    "pref": "富山県",
    "city": "高岡市",
    "category": "home_help",
    "serviceType": "訪問介護",
    "capacity": 50,
    "openDays": [
      "平日",
      "土曜日",
      "日曜日",
      "祝日"
    ],
    "openDaysNote": "営業日　３６５日、営業時間　２４時間（改行）　サービス提供時間は、事前に訪問介護（予防）支援事業者等により計画された訪問介護（予防）サービス計画に基づくものとし、原則として緊急のサービス依頼をお受けすることはできません。"
  },
  {
    "id": "1670202744",
    "name": "ヘルパーステーション紬",
    "kana": "ヘルパーステーションツムギ",
    "address": "富山県高岡市野村1542-1シニアメゾン紬 シニアメゾン紬",
    "lat": 36.7575723,
    "lng": 137.0409838,
    "tel": "0766-30-6220",
    "url": "aim-care.jp",
    "pref": "富山県",
    "city": "高岡市",
    "category": "home_help",
    "serviceType": "訪問介護",
    "capacity": null,
    "openDays": [
      "平日",
      "土曜日",
      "日曜日",
      "祝日"
    ],
    "openDaysNote": "外部訪問介護サービスは要相談"
  },
  {
    "id": "1670200813",
    "name": "ヘルパーステーション藤園苑",
    "kana": "ヘルパーステーションフジソノエン",
    "address": "高岡市早川390-1",
    "lat": 36.7465688,
    "lng": 136.9882882,
    "tel": "0766-27-8288",
    "url": "http://www.fujisonoen.or.jp",
    "pref": "富山県",
    "city": "高岡市",
    "category": "home_help",
    "serviceType": "訪問介護",
    "capacity": 0,
    "openDays": [
      "平日",
      "土曜日",
      "日曜日",
      "祝日"
    ],
    "openDaysNote": "特になし"
  },
  {
    "id": "1671100616",
    "name": "ぽらりすかいごさーびす",
    "kana": "ポラリス介護サービス",
    "address": "中曽根１６０－３",
    "lat": 36.7712568809226,
    "lng": 137.080383152637,
    "tel": "０７６６－７５－２９６３",
    "url": "",
    "pref": "富山県",
    "city": "高岡市",
    "category": "home_help",
    "serviceType": "訪問介護",
    "capacity": null,
    "openDays": [
      "平日",
      "土曜日"
    ],
    "openDaysNote": ""
  },
  {
    "id": "1670202546",
    "name": "メディカルケアステーション",
    "kana": "メディカルケアステーション",
    "address": "中曽根2373番地セントラルパーク牧野 セントラルパーク牧野",
    "lat": 36.769973,
    "lng": 137.0776346,
    "tel": "0766-54-5935",
    "url": "http://care-net.biz/16/medicalcare/",
    "pref": "富山県",
    "city": "高岡市",
    "category": "home_help",
    "serviceType": "訪問介護",
    "capacity": null,
    "openDays": [
      "平日",
      "土曜日",
      "日曜日",
      "祝日"
    ],
    "openDaysNote": "状況に応じ時間外でも対応。"
  },
  {
    "id": "1670201621",
    "name": "よろこび高岡南ケアセンタ－",
    "kana": "ヨロコビタカオカミナミケアセンタ-",
    "address": "富山県高岡市佐野654-5中部ハイツ１階 中部ハイツ１階",
    "lat": 36.7296764,
    "lng": 137.0017047,
    "tel": "0766-29-2561",
    "url": "http://www.imizu-manyoukai.or.jp",
    "pref": "富山県",
    "city": "高岡市",
    "category": "home_help",
    "serviceType": "訪問介護",
    "capacity": 0,
    "openDays": [
      "平日",
      "土曜日",
      "日曜日",
      "祝日"
    ],
    "openDaysNote": "ケアプランによる"
  },
  {
    "id": "1670203023",
    "name": "医心館訪問介護ステーション高岡",
    "kana": "イシンカンホウモンカイゴステーションタカオカ",
    "address": "富山県高岡市羽広一丁目９番５号",
    "lat": 36.7392157,
    "lng": 136.9887366,
    "tel": "0766-73-3610",
    "url": "",
    "pref": "富山県",
    "city": "高岡市",
    "category": "home_help",
    "serviceType": "訪問介護",
    "capacity": 0,
    "openDays": [
      "平日",
      "土曜日",
      "日曜日",
      "祝日"
    ],
    "openDaysNote": "24時間対応"
  },
  {
    "id": "1670200227",
    "name": "雨晴苑ホームヘルパー事業所",
    "kana": "アマハラシエンホームヘルパージギョウショ",
    "address": "高岡市太田58番地",
    "lat": 36.8154082,
    "lng": 137.0148648,
    "tel": "0766-44-2240",
    "url": "http://www.amaharashien.jp/",
    "pref": "富山県",
    "city": "高岡市",
    "category": "home_help",
    "serviceType": "訪問介護",
    "capacity": null,
    "openDays": [
      "平日",
      "土曜日",
      "日曜日",
      "祝日"
    ],
    "openDaysNote": "12月30日～1月3日　身体介護のみ"
  },
  {
    "id": "1670202587",
    "name": "援JOYヘルパーステーション",
    "kana": "エンジョイヘルパーステーション",
    "address": "富山県高岡市開発本町6番14号",
    "lat": 36.7648493,
    "lng": 137.0155025,
    "tel": "0766-26-7071",
    "url": "",
    "pref": "富山県",
    "city": "高岡市",
    "category": "home_help",
    "serviceType": "訪問介護",
    "capacity": 0,
    "openDays": [
      "平日",
      "土曜日",
      "祝日"
    ],
    "openDaysNote": ""
  },
  {
    "id": "1670200375",
    "name": "香野苑ホームヘルプサービス",
    "kana": "カノエンホームヘルプサービス",
    "address": "富山県高岡市上渡１６１番地",
    "lat": 36.7296946,
    "lng": 136.9578727,
    "tel": "0766-31-5700",
    "url": "",
    "pref": "富山県",
    "city": "高岡市",
    "category": "home_help",
    "serviceType": "訪問介護",
    "capacity": 0,
    "openDays": [
      "平日",
      "土曜日",
      "日曜日",
      "祝日"
    ],
    "openDaysNote": "通常の営業時間以外は下記の通り加算されます。　（改行）ＡＭ6：00～8：00　25％,PM6：00～10：00　25％。"
  },
  {
    "id": "1670200649",
    "name": "高岡交通株式会社",
    "kana": "タカオカコウツウカブシキカイシャ",
    "address": "富山県高岡市二塚754-1",
    "lat": 36.7176002,
    "lng": 137.0091325,
    "tel": "0766-23-0148",
    "url": "http://www.takaoka-kotsu.co.jp/",
    "pref": "富山県",
    "city": "高岡市",
    "category": "home_help",
    "serviceType": "訪問介護",
    "capacity": 0,
    "openDays": [
      "平日",
      "土曜日",
      "日曜日",
      "祝日"
    ],
    "openDaysNote": "1月１日は、休み"
  },
  {
    "id": "1670202785",
    "name": "志貴野長生寮訪問介護センター",
    "kana": "シキノチョウセイリョウホウモンカイゴセンター",
    "address": "高岡市滝新21-1",
    "lat": 36.6778729,
    "lng": 137.0303327,
    "tel": "0766-36-8181",
    "url": "URL:http//www.shikino.or.jp",
    "pref": "富山県",
    "city": "高岡市",
    "category": "home_help",
    "serviceType": "訪問介護",
    "capacity": 0,
    "openDays": [
      "平日",
      "土曜日",
      "日曜日",
      "祝日"
    ],
    "openDaysNote": ""
  },
  {
    "id": "1670202561",
    "name": "紫蘭会　ヘルパーステーション",
    "kana": "シランカイヘルパーステーション",
    "address": "富山県高岡市京田490番地",
    "lat": 36.728266,
    "lng": 137.0172973,
    "tel": "0766－26－5111",
    "url": "",
    "pref": "富山県",
    "city": "高岡市",
    "category": "home_help",
    "serviceType": "訪問介護",
    "capacity": 0,
    "openDays": [
      "平日",
      "土曜日",
      "日曜日",
      "祝日"
    ],
    "openDaysNote": "２４時間無休"
  },
  {
    "id": "1670201670",
    "name": "社会福祉法人　射水万葉会　よろこび高岡ケアセンター",
    "kana": "シャカイフクシホウジン　イミズマンヨウカイ　ヨロコビタカオカケアセンター",
    "address": "富山県高岡市野村1817",
    "lat": 36.7624830592182,
    "lng": 137.042216709065,
    "tel": "0766-73-9990",
    "url": "http//www.imizu-manyoukai.or.jp/",
    "pref": "富山県",
    "city": "高岡市",
    "category": "home_help",
    "serviceType": "訪問介護",
    "capacity": 0,
    "openDays": [
      "平日",
      "土曜日",
      "日曜日",
      "祝日"
    ],
    "openDaysNote": "ケアプランによる"
  },
  {
    "id": "1670200177",
    "name": "社協ホームヘルパーステーション",
    "kana": "シャキョウホームヘルパーステーション",
    "address": "富山県高岡市清水町1丁目7番30号",
    "lat": 36.7409086,
    "lng": 137.0028954,
    "tel": "0766-23-2968",
    "url": "htto://www.takaoka-shakyo.or.jp",
    "pref": "富山県",
    "city": "高岡市",
    "category": "home_help",
    "serviceType": "訪問介護",
    "capacity": 0,
    "openDays": [
      "平日",
      "土曜日",
      "祝日"
    ],
    "openDaysNote": "事情を勘案し必要があると認める場合は、上記以外の日時でも提供いたします。"
  },
  {
    "id": "1670202066",
    "name": "富綜ヘルパーステーション",
    "kana": "トミソウヘルパーステーション",
    "address": "石瀬830-1",
    "lat": 36.762526,
    "lng": 137.0466263,
    "tel": "0766-32-1575",
    "url": "http://www.toyama-alsok.co.jp",
    "pref": "富山県",
    "city": "高岡市",
    "category": "home_help",
    "serviceType": "訪問介護",
    "capacity": null,
    "openDays": [
      "平日",
      "土曜日",
      "祝日"
    ],
    "openDaysNote": "利用者の希望に応じてサービスの提供について対応可能な体制を整えるものとします。"
  },
  {
    "id": "1670202843",
    "name": "訪問介護　えにし",
    "kana": "ホウモンカイゴ　エニシ",
    "address": "富山県高岡市野村1029-1有料老人ホーム　縁高岡　1階 有料老人ホーム　縁高岡　1階",
    "lat": 36.7515557958351,
    "lng": 137.033362984393,
    "tel": "0766-28-8155",
    "url": "https://syoei-group.co.jp/facility/enishi_takaoka/",
    "pref": "富山県",
    "city": "高岡市",
    "category": "home_help",
    "serviceType": "訪問介護",
    "capacity": 0,
    "openDays": [
      "平日",
      "土曜日",
      "日曜日",
      "祝日"
    ],
    "openDaysNote": "電話等により上記時間外の相談に応じる（24時間）"
  },
  {
    "id": "1670202892",
    "name": "訪問介護　えにし",
    "kana": "ホウモンカイゴ　エニシ",
    "address": "富山県高岡市野村1029-1有料老人ホーム　縁高岡　1階 有料老人ホーム　縁高岡　1階",
    "lat": 36.7516309547836,
    "lng": 137.033162782109,
    "tel": "0766-28-8155",
    "url": "",
    "pref": "富山県",
    "city": "高岡市",
    "category": "home_help",
    "serviceType": "訪問介護",
    "capacity": null,
    "openDays": [
      "平日",
      "土曜日",
      "日曜日",
      "祝日"
    ],
    "openDaysNote": "電話等により上記時間外の相談に応じる（24時間）"
  },
  {
    "id": "1670203049",
    "name": "訪問介護さくら",
    "kana": "ホウモンカイゴサクラ",
    "address": "木津691-1",
    "lat": 36.7356433254166,
    "lng": 136.997055733402,
    "tel": "0766-54-4763",
    "url": "",
    "pref": "富山県",
    "city": "高岡市",
    "category": "home_help",
    "serviceType": "訪問介護",
    "capacity": null,
    "openDays": [
      "平日",
      "土曜日",
      "日曜日",
      "祝日"
    ],
    "openDaysNote": "電話等により２４時間常時連絡が可能"
  },
  {
    "id": "1670201951",
    "name": "訪問介護ステーションあいの風",
    "kana": "ホウモンカイゴステーションアイノカゼ",
    "address": "二上町１１４４－２",
    "lat": 36.7761492,
    "lng": 137.0050342,
    "tel": "0766-30-2400",
    "url": "houkai@ainokaze.ne.jp",
    "pref": "富山県",
    "city": "高岡市",
    "category": "home_help",
    "serviceType": "訪問介護",
    "capacity": 0,
    "openDays": [
      "平日",
      "土曜日",
      "日曜日",
      "祝日"
    ],
    "openDaysNote": "サービス提供時間は、事前に居宅介護支援事業所等により計画された居宅サービス計画に基づくものとするが、利用者やその家族から緊急の要請を受けた場合、サービス提供責任者がケアマネージャーと連携を図り、ケアマネージャーが必要と認めたとこはサービスを提供する場合があります。"
  },
  {
    "id": "1670202108",
    "name": "訪問介護ひまわり",
    "kana": "ホウモンカイゴヒマワリ",
    "address": "富山県高岡市佐野514-5",
    "lat": 36.7257032259733,
    "lng": 136.988769786633,
    "tel": "080-9560-6876",
    "url": "www.forestleaf.info/cont/facility.html",
    "pref": "富山県",
    "city": "高岡市",
    "category": "home_help",
    "serviceType": "訪問介護",
    "capacity": 148,
    "openDays": [
      "平日",
      "土曜日",
      "日曜日",
      "祝日"
    ],
    "openDaysNote": "電話等により24時間常時可能な体制をとる。"
  },
  {
    "id": "1670200243",
    "name": "鳳鳴苑デイサービスセンター",
    "kana": "ホウメイエンデイサービスセンター",
    "address": "富山県高岡市蔵野町3番地",
    "lat": 36.7229736,
    "lng": 136.9781604,
    "tel": "0766-31-4025",
    "url": "https://www.fukuhoukai.jp/",
    "pref": "富山県",
    "city": "高岡市",
    "category": "home_help",
    "serviceType": "訪問介護",
    "capacity": 0,
    "openDays": [
      "平日",
      "土曜日",
      "日曜日",
      "祝日"
    ],
    "openDaysNote": "なし"
  },
  {
    "id": "1670200417",
    "name": "有限会社ヘルパーサービスセンター高岡",
    "kana": "ユウゲンガイシャ　ヘルパーサービスセンター　タカオカ",
    "address": "富山県　高岡市　中央町　７２番地",
    "lat": 36.7467971,
    "lng": 137.0143936,
    "tel": "0766-22-0688",
    "url": "",
    "pref": "富山県",
    "city": "高岡市",
    "category": "home_help",
    "serviceType": "訪問介護",
    "capacity": 0,
    "openDays": [
      "平日",
      "土曜日"
    ],
    "openDaysNote": "上記記入するも、利用できる時間は、指定無しとし、利用者にあわせる。但し、人材がいない場合は、対応ができない場合あり。"
  },
  {
    "id": "1670202694",
    "name": "有限会社わか木訪問介護事業所",
    "kana": "ユウゲンガイシャワカキホウモンカイゴジギョウショ",
    "address": "富山県高岡市波岡61番地1",
    "lat": 36.7545001,
    "lng": 136.99162,
    "tel": "0766-23-9080",
    "url": "http://wakaki.net",
    "pref": "富山県",
    "city": "高岡市",
    "category": "home_help",
    "serviceType": "訪問介護",
    "capacity": null,
    "openDays": [
      "平日",
      "土曜日",
      "祝日"
    ],
    "openDaysNote": ""
  },
  {
    "id": "1670700481",
    "name": "ニチイケアセンター黒部",
    "kana": "ニチイケアセンタークロベ",
    "address": "富山県黒部市荻生2897-1",
    "lat": 36.8787378,
    "lng": 137.461734,
    "tel": "0765-56-8111",
    "url": "http:/www.nichiigakkan.co.ｊｐ",
    "pref": "富山県",
    "city": "黒部市",
    "category": "home_help",
    "serviceType": "訪問介護",
    "capacity": 0,
    "openDays": [
      "平日",
      "土曜日",
      "日曜日",
      "祝日"
    ],
    "openDaysNote": "居宅サービス計画により、休業日及び時間外であっても、サービスを提供する場合があります。"
  },
  {
    "id": "1671700134",
    "name": "宇奈月ホームヘルプサービスセンター",
    "kana": "ウナヅキホームヘルプサービスセンター",
    "address": "富山県黒部市宇奈月町下立３８番地",
    "lat": 36.8642892,
    "lng": 137.5267138,
    "tel": "0765-65-1448",
    "url": "http://orahausu.jimdo.com/",
    "pref": "富山県",
    "city": "黒部市",
    "category": "home_help",
    "serviceType": "訪問介護",
    "capacity": null,
    "openDays": [
      "平日",
      "土曜日",
      "祝日"
    ],
    "openDaysNote": "利用者の要望があれば、訪問介護員等の勤務可能な範囲で対応。"
  },
  {
    "id": "1670700044",
    "name": "黒部市社会福祉協議会　ホームヘルプセンター",
    "kana": "クロベシシャカイフクシキョウギカイ　ホームヘルプセンター",
    "address": "富山県黒部市金屋４６４－１",
    "lat": 36.8867031,
    "lng": 137.443505,
    "tel": "0765-57-1089",
    "url": "http://www.kurobesw.com/",
    "pref": "富山県",
    "city": "黒部市",
    "category": "home_help",
    "serviceType": "訪問介護",
    "capacity": 30,
    "openDays": [
      "平日",
      "土曜日",
      "日曜日",
      "祝日"
    ],
    "openDaysNote": ""
  },
  {
    "id": "1670700549",
    "name": "富山県黒部市宇奈月町浦山４０７－２０",
    "kana": "トヤマケンクロベシウナヅキマチウラヤマ４０７－２０",
    "address": "富山県黒部市宇奈月町浦山４０７－２０",
    "lat": 36.8679828,
    "lng": 137.5190648,
    "tel": "０７６５－６５－１２１９",
    "url": "",
    "pref": "富山県",
    "city": "黒部市",
    "category": "home_help",
    "serviceType": "訪問介護",
    "capacity": 0,
    "openDays": [
      "平日",
      "土曜日"
    ],
    "openDaysNote": ""
  },
  {
    "id": "1671700357",
    "name": "訪問介護ステーション　ファミリーハンズ",
    "kana": "ホウモンカイゴステーション　ファミリーハンズ",
    "address": "黒部市新牧野３４９　ユアーズビル黒部B棟",
    "lat": 36.8699776962575,
    "lng": 137.446485323804,
    "tel": "0765-57-3070",
    "url": "https://shinsei.me/",
    "pref": "富山県",
    "city": "黒部市",
    "category": "home_help",
    "serviceType": "訪問介護",
    "capacity": 0,
    "openDays": [
      "平日",
      "土曜日",
      "日曜日",
      "祝日"
    ],
    "openDaysNote": "休日等もニーズによりサービス提供あり。"
  },
  {
    "id": "1671100269",
    "name": "オーロラ介護サービス",
    "kana": "オーロラカイゴサービス",
    "address": "富山県射水市鷲塚197-2",
    "lat": 36.7202664,
    "lng": 137.1250975,
    "tel": "0800-200-5548",
    "url": "http://aurorakaigo.com/",
    "pref": "富山県",
    "city": "射水市",
    "category": "home_help",
    "serviceType": "訪問介護",
    "capacity": 0,
    "openDays": [
      "平日",
      "土曜日"
    ],
    "openDaysNote": "事前に依頼があれば時間外でもサービス提供いたします。"
  },
  {
    "id": "1671100400",
    "name": "こかげ訪問介護ステーション",
    "kana": "コカゲホウモンカイゴステーション",
    "address": "富山県射水市作道302ケアサークル作道 ケアサークル作道",
    "lat": 36.7633546,
    "lng": 137.0861924,
    "tel": "0766-50-8953",
    "url": "",
    "pref": "富山県",
    "city": "射水市",
    "category": "home_help",
    "serviceType": "訪問介護",
    "capacity": 30,
    "openDays": [
      "平日",
      "土曜日",
      "日曜日",
      "祝日"
    ],
    "openDaysNote": "サービス対応日全日、サービス対応時間24時間。"
  },
  {
    "id": "1670300035",
    "name": "ニチイケアセンターいみず",
    "kana": "ニチイケアセンターイミズ",
    "address": "富山県射水市二口３１５９番地２",
    "lat": 36.7283831,
    "lng": 137.0530576,
    "tel": "0766-52-7762",
    "url": "http://www.nichiigakkan.co.jp",
    "pref": "富山県",
    "city": "射水市",
    "category": "home_help",
    "serviceType": "訪問介護",
    "capacity": 0,
    "openDays": [
      "平日",
      "土曜日",
      "日曜日",
      "祝日"
    ],
    "openDaysNote": "居宅サービス計画により、営業時間以外でも、サービスの提供を行う場合がある。"
  },
  {
    "id": "1671100798",
    "name": "ニチイケアセンター新湊",
    "kana": "ニチイケアセンターシンミナト",
    "address": "富山県射水市朴木2-2アーミデール新湊　1階　105号室 アーミデール新湊　1階　105号室",
    "lat": 36.7612086,
    "lng": 137.0809794,
    "tel": "0766-82-1210",
    "url": "https://www.nichiigakkan.co.jp/",
    "pref": "富山県",
    "city": "射水市",
    "category": "home_help",
    "serviceType": "訪問介護",
    "capacity": 0,
    "openDays": [
      "平日",
      "土曜日",
      "日曜日",
      "祝日"
    ],
    "openDaysNote": "但し、居宅サービス計画により、営業時間外でもサービス提供を行います。"
  },
  {
    "id": "1671100640",
    "name": "ヘルパーステーション　愛のて",
    "kana": "ヘルパーステーション　アイノテ",
    "address": "富山県射水市かもめ台80",
    "lat": 36.7576629,
    "lng": 137.1752108,
    "tel": "0766-50-9779",
    "url": "",
    "pref": "富山県",
    "city": "射水市",
    "category": "home_help",
    "serviceType": "訪問介護",
    "capacity": 0,
    "openDays": [
      "平日",
      "土曜日",
      "日曜日",
      "祝日"
    ],
    "openDaysNote": ""
  },
  {
    "id": "1671900270",
    "name": "ヘルパーステーションほのぼの小杉",
    "kana": "ヘルパーステーションホノボノコスギ",
    "address": "富山県射水市三ヶ４０３３",
    "lat": 36.7219014,
    "lng": 137.0922263,
    "tel": "0766-55-8112",
    "url": "",
    "pref": "富山県",
    "city": "射水市",
    "category": "home_help",
    "serviceType": "訪問介護",
    "capacity": 0,
    "openDays": [
      "平日",
      "土曜日",
      "日曜日",
      "祝日"
    ],
    "openDaysNote": "２０：００～翌７：００は応相談"
  },
  {
    "id": "1671100756",
    "name": "ヘルパーステーションやまぶき",
    "kana": "ヘルパーステーションヤマブキ",
    "address": "富山県射水市大門６番地１５",
    "lat": 36.73386,
    "lng": 137.0510659,
    "tel": "0766-52-3356",
    "url": "https://acid4349.wixsite.com/yamabuki",
    "pref": "富山県",
    "city": "射水市",
    "category": "home_help",
    "serviceType": "訪問介護",
    "capacity": null,
    "openDays": [
      "平日",
      "土曜日",
      "日曜日",
      "祝日"
    ],
    "openDaysNote": ""
  },
  {
    "id": "1671100541",
    "name": "ヘルパーセンター　こすか",
    "kana": "ヘルパーセンター　コスカ",
    "address": "富山県射水市戸破688",
    "lat": 36.718933,
    "lng": 137.1143571,
    "tel": "0766-55-1855",
    "url": "http://www.cosuca.jp/",
    "pref": "富山県",
    "city": "射水市",
    "category": "home_help",
    "serviceType": "訪問介護",
    "capacity": 25,
    "openDays": [
      "平日",
      "土曜日",
      "日曜日",
      "祝日"
    ],
    "openDaysNote": ""
  },
  {
    "id": "1671100202",
    "name": "よろこび射水緑ケアセンター",
    "kana": "ヨロコビイミズミドリケアセンター",
    "address": "富山県射水市緑町4番12号",
    "lat": 36.7757282,
    "lng": 137.0826618,
    "tel": "0766-83-0511",
    "url": "http://www.imizu-manyoukai.or.jp",
    "pref": "富山県",
    "city": "射水市",
    "category": "home_help",
    "serviceType": "訪問介護",
    "capacity": 0,
    "openDays": [
      "平日",
      "土曜日",
      "日曜日",
      "祝日"
    ],
    "openDaysNote": "ケアプランによる"
  },
  {
    "id": "1670300233",
    "name": "射水市社協ヘルパーステーション",
    "kana": "イミズシシャキョウヘルパーステーション",
    "address": "射水市三日曽根９-18",
    "lat": 36.7791278,
    "lng": 137.0794341,
    "tel": "0766-82-8455",
    "url": "http://www.imizushakyo.jp/",
    "pref": "富山県",
    "city": "射水市",
    "category": "home_help",
    "serviceType": "訪問介護",
    "capacity": 0,
    "openDays": [
      "平日",
      "土曜日",
      "日曜日",
      "祝日"
    ],
    "openDaysNote": "サービス提供時間内であっても、ヘルパーの体制により調整させていただくことがあります。"
  },
  {
    "id": "1671900015",
    "name": "射水市大門在宅介護支援センター",
    "kana": "イミズシダイモンザイタクカイゴシエンセンター",
    "address": "富山県射水市中村20番地",
    "lat": 36.7229811,
    "lng": 137.0561602,
    "tel": "0766-52-7300",
    "url": "http://www.kobushi-en.com/",
    "pref": "富山県",
    "city": "射水市",
    "category": "home_help",
    "serviceType": "訪問介護",
    "capacity": 0,
    "openDays": [
      "平日",
      "土曜日",
      "日曜日",
      "祝日"
    ],
    "openDaysNote": "年中無休"
  },
  {
    "id": "1671900189",
    "name": "大江苑ヘルパーステーション",
    "kana": "オオゴエンヘルパーステーション",
    "address": "富山県射水市大江333番地の1",
    "lat": 36.7283541,
    "lng": 137.1151734,
    "tel": "0766-55-8888",
    "url": "http://kosugifukushikai.jp/",
    "pref": "富山県",
    "city": "射水市",
    "category": "home_help",
    "serviceType": "訪問介護",
    "capacity": 0,
    "openDays": [
      "平日",
      "土曜日",
      "日曜日",
      "祝日"
    ],
    "openDaysNote": ""
  },
  {
    "id": "1671100855",
    "name": "富山民間救急サービス",
    "kana": "トヤマミンカンキュウキュウサービス",
    "address": "富山県射水市太閤山8-54",
    "lat": 36.7074213,
    "lng": 137.0920569,
    "tel": "0766-50-9030",
    "url": "https://www.ncstoyama.com/",
    "pref": "富山県",
    "city": "射水市",
    "category": "home_help",
    "serviceType": "訪問介護",
    "capacity": null,
    "openDays": [
      "平日"
    ],
    "openDaysNote": ""
  },
  {
    "id": "1671100509",
    "name": "訪問ケアステーション　なでしこ",
    "kana": "ホウモンケアステーション　ナデシコ",
    "address": "富山県射水市草岡町２丁目１０－４",
    "lat": 36.7673074,
    "lng": 137.1347564,
    "tel": "0766-86-3350",
    "url": "",
    "pref": "富山県",
    "city": "射水市",
    "category": "home_help",
    "serviceType": "訪問介護",
    "capacity": 0,
    "openDays": [
      "平日",
      "土曜日",
      "日曜日",
      "祝日"
    ],
    "openDaysNote": "２４時間対応します。"
  },
  {
    "id": "1671100434",
    "name": "訪問介護ステーションあいの風　新湊事業所",
    "kana": "ホウモンカイゴステーションアイノカゼ　シンミナトジギョウショ",
    "address": "海王町21-61",
    "lat": 36.7792425790983,
    "lng": 137.103419444566,
    "tel": "0766-54-6647",
    "url": "",
    "pref": "富山県",
    "city": "射水市",
    "category": "home_help",
    "serviceType": "訪問介護",
    "capacity": 0,
    "openDays": [
      "平日",
      "土曜日",
      "日曜日",
      "祝日"
    ],
    "openDaysNote": ""
  },
  {
    "id": "1671100426",
    "name": "訪問介護センターかどや",
    "kana": "ホウモンカイゴセンターカドヤ",
    "address": "富山県射水市新片町５丁目２５番地",
    "lat": 36.7587648821628,
    "lng": 137.11664082209,
    "tel": "0766-86-2048",
    "url": "",
    "pref": "富山県",
    "city": "射水市",
    "category": "home_help",
    "serviceType": "訪問介護",
    "capacity": 0,
    "openDays": [
      "平日",
      "土曜日"
    ],
    "openDaysNote": "サービス提供日　　　月～土曜日までとします。（改行）（改行）　　　　　　　　　　但し、サービス提供は利用者の希望に応じて対応をします。（改行）（改行）サービス提供時間　　９：００～１８：００までとします。（改行）（改行）　　　　　　　　　　但し、サービス提供は利用者の希望に応じて対応をします。　（改行）（改行）連絡体制　　　　　　転送電話等により、常時連絡が可能な体制をとっています。"
  },
  {
    "id": "1671100822",
    "name": "訪問介護事業所　白寿",
    "kana": "ホウモンカイゴジギョウショ　ハクジュ",
    "address": "富山県射水市橋下条５０８－４",
    "lat": 36.706552,
    "lng": 137.079846,
    "tel": "0766-57-8910",
    "url": "https://www.kanazawa-fukushi.co.jp/institutions/imizu/",
    "pref": "富山県",
    "city": "射水市",
    "category": "home_help",
    "serviceType": "訪問介護",
    "capacity": 0,
    "openDays": [
      "平日",
      "土曜日",
      "日曜日",
      "祝日"
    ],
    "openDaysNote": ""
  },
  {
    "id": "1671600920",
    "name": "舟橋村ホームヘルパーステーション",
    "kana": "フナハシムラホームヘルパーステーション",
    "address": "富山県中新川郡舟橋村仏生寺５５番地舟橋村役場庁舎２階 舟橋村役場庁舎２階",
    "lat": 36.7035781,
    "lng": 137.3073686,
    "tel": "076-464-1847",
    "url": "http://www.funahashi-wel.or.jp/",
    "pref": "富山県",
    "city": "舟橋村",
    "category": "home_help",
    "serviceType": "訪問介護",
    "capacity": 0,
    "openDays": [
      "平日",
      "土曜日",
      "日曜日",
      "祝日"
    ],
    "openDaysNote": "必要に応じ対応します。"
  },
  {
    "id": "1670900032",
    "name": "JAいなば福祉支援センター",
    "kana": "ジェイエイイナバフクシシエンセンター",
    "address": "富山県小矢部市水島６８０番地",
    "lat": 36.6382031,
    "lng": 136.9026813,
    "tel": "0766-61-3737",
    "url": "http://www.ja-inaba.or.jp",
    "pref": "富山県",
    "city": "小矢部市",
    "category": "home_help",
    "serviceType": "訪問介護",
    "capacity": 0,
    "openDays": [
      "平日",
      "土曜日",
      "日曜日",
      "祝日"
    ],
    "openDaysNote": "お盆（８／１５～８／１６）と年末年始（１２／３１～１／３）は休業"
  },
  {
    "id": "1670900131",
    "name": "小矢部市社協ホームヘルプセンター",
    "kana": "オヤベシシャキョウホームヘルプセンター",
    "address": "富山県小矢部市鷲島１５番地小矢部市総合保健福祉センター 小矢部市総合保健福祉センター",
    "lat": 36.6594855,
    "lng": 136.8766442,
    "tel": "0766-67-8613",
    "url": "https://www.oyabe.or.jp/",
    "pref": "富山県",
    "city": "小矢部市",
    "category": "home_help",
    "serviceType": "訪問介護",
    "capacity": 0,
    "openDays": [
      "平日",
      "土曜日",
      "日曜日",
      "祝日"
    ],
    "openDaysNote": "営業日　１月４日～１２月２８日"
  },
  {
    "id": "1671600086",
    "name": "JAアルプス生活福祉センター",
    "kana": "ジェイエイアルプスセイカツフクシセンター",
    "address": "富山県中新川郡上市町若杉3-3",
    "lat": 36.7043993,
    "lng": 137.3577639,
    "tel": "076-472-0581",
    "url": "http://www.ja-alps.or.jp",
    "pref": "富山県",
    "city": "上市町",
    "category": "home_help",
    "serviceType": "訪問介護",
    "capacity": 0,
    "openDays": [
      "平日",
      "土曜日",
      "日曜日"
    ],
    "openDaysNote": ""
  },
  {
    "id": "1671600177",
    "name": "ニチイケアセンター上市",
    "kana": "ニチイケアセンターカミイチ",
    "address": "富山県中新川郡上市町神田20-5",
    "lat": 36.6984134,
    "lng": 137.340799,
    "tel": "076-473-9156",
    "url": "http://www.nichiigakkan.co.jp",
    "pref": "富山県",
    "city": "上市町",
    "category": "home_help",
    "serviceType": "訪問介護",
    "capacity": null,
    "openDays": [
      "平日"
    ],
    "openDaysNote": "居宅サービス計画により、休日であっても、サービス提供を行う場合があります。（改行）居宅サービス計画により、営業時間外であってもサービスを提供する場合があります。"
  },
  {
    "id": "1671600383",
    "name": "ハッピーとやま上市ヘルパーセンター",
    "kana": "ハッピートヤマカミイチヘルパーセンター",
    "address": "富山県中新川郡上市町稗田33-1",
    "lat": 36.695192,
    "lng": 137.3601918,
    "tel": "076-473-2858",
    "url": "http://www.kaigosoudan.com",
    "pref": "富山県",
    "city": "上市町",
    "category": "home_help",
    "serviceType": "訪問介護",
    "capacity": 0,
    "openDays": [
      "平日",
      "土曜日",
      "日曜日",
      "祝日"
    ],
    "openDaysNote": "担当する訪問介護員に空きがない場合は、ご利用できない場合があります。"
  },
  {
    "id": "1671600128",
    "name": "上市町ホームヘルパーステーション",
    "kana": "カミイチマチホームヘルパーステーション",
    "address": "富山県中新川郡上市町湯上野１１７６番",
    "lat": 36.6964474,
    "lng": 137.3615,
    "tel": "076-472-0316",
    "url": "https://www.kamiichi-hearty.jp",
    "pref": "富山県",
    "city": "上市町",
    "category": "home_help",
    "serviceType": "訪問介護",
    "capacity": 100,
    "openDays": [
      "平日",
      "土曜日",
      "日曜日",
      "祝日"
    ],
    "openDaysNote": "必要に応じて対応します。"
  },
  {
    "id": "1671600839",
    "name": "訪問介護ステーションつるぎ",
    "kana": "ホウモンカイゴステーションツルギ",
    "address": "富山県中新川郡上市町森尻７４６番地",
    "lat": 36.7179067997156,
    "lng": 137.353882760019,
    "tel": "076-472-6117",
    "url": "",
    "pref": "富山県",
    "city": "上市町",
    "category": "home_help",
    "serviceType": "訪問介護",
    "capacity": 0,
    "openDays": [
      "平日",
      "土曜日"
    ],
    "openDaysNote": "日曜・祝日については、別途ご相談ください。（改行）サービス提供時間についても、対応できる場合もあるので、別途ご相談ください。"
  },
  {
    "id": "1671700654",
    "name": "ニチイケアセンターとまり",
    "kana": "ニチイケアセンタートマリ",
    "address": "富山県下新川郡朝日町平柳字上折戸301-4セブンホーム2-2 セブンホーム2-2",
    "lat": 36.9470235002873,
    "lng": 137.55773539161,
    "tel": "0765-83-8020",
    "url": "http:/www.nichiigakkan.co.jp",
    "pref": "富山県",
    "city": "朝日町",
    "category": "home_help",
    "serviceType": "訪問介護",
    "capacity": 0,
    "openDays": [
      "平日",
      "土曜日",
      "日曜日",
      "祝日"
    ],
    "openDaysNote": "居宅サービス計画により、休業日及び時間外であっても、サービスを提供する場合があります。"
  },
  {
    "id": "1671700209",
    "name": "朝日町在宅介護支援センター",
    "kana": "アサヒマチザイタクカイゴシエンセンター",
    "address": "富山県下新川郡朝日町泊477番地あさひ総合病院６階 あさひ総合病院６階",
    "lat": 36.9610564344374,
    "lng": 137.562130324206,
    "tel": "0765-83-0303",
    "url": "https://www.asahi-ghp.com",
    "pref": "富山県",
    "city": "朝日町",
    "category": "home_help",
    "serviceType": "訪問介護",
    "capacity": 0,
    "openDays": [
      "平日",
      "土曜日",
      "日曜日",
      "祝日"
    ],
    "openDaysNote": ""
  },
  {
    "id": "1670800794",
    "name": "アイテラスケアセンター",
    "kana": "アイテラスケアセンター",
    "address": "富山県砺波市秋元２００番地１５",
    "lat": 36.6487775,
    "lng": 136.9929601,
    "tel": "0763-77-3987",
    "url": "",
    "pref": "富山県",
    "city": "砺波市",
    "category": "home_help",
    "serviceType": "訪問介護",
    "capacity": null,
    "openDays": [
      "平日"
    ],
    "openDaysNote": ""
  },
  {
    "id": "1670800802",
    "name": "ケアサポートたんぽぽ",
    "kana": "ケアサポートタンポポ",
    "address": "富山県砺波市太郎丸1丁目4-26NTCとなみビル５階A NTCとなみビル５階A",
    "lat": 36.6326445,
    "lng": 136.9571199,
    "tel": "0763-23-6186",
    "url": "",
    "pref": "富山県",
    "city": "砺波市",
    "category": "home_help",
    "serviceType": "訪問介護",
    "capacity": 0,
    "openDays": [
      "平日",
      "土曜日",
      "日曜日",
      "祝日"
    ],
    "openDaysNote": ""
  },
  {
    "id": "1670800703",
    "name": "コスモスヘルパーステーション",
    "kana": "コスモスヘルパーステーション",
    "address": "富山県砺波市平成町1-11",
    "lat": 36.6344931312225,
    "lng": 136.959213356483,
    "tel": "0763-34-7501",
    "url": "",
    "pref": "富山県",
    "city": "砺波市",
    "category": "home_help",
    "serviceType": "訪問介護",
    "capacity": 0,
    "openDays": [
      "平日",
      "土曜日",
      "日曜日",
      "祝日"
    ],
    "openDaysNote": ""
  },
  {
    "id": "1670800778",
    "name": "ニチイケアセンター庄川",
    "kana": "ニチイケアセンターショウガワ",
    "address": "富山県砺波市庄川町示野121",
    "lat": 36.5741217,
    "lng": 136.9813654,
    "tel": "0763-82-8588",
    "url": "http://www.nichiigakkan.co.jp",
    "pref": "富山県",
    "city": "砺波市",
    "category": "home_help",
    "serviceType": "訪問介護",
    "capacity": 0,
    "openDays": [
      "平日",
      "土曜日",
      "日曜日",
      "祝日"
    ],
    "openDaysNote": "但し、居宅サービス計画により営業時間外でも、サービスの提供を行う場合がある。"
  },
  {
    "id": "1670800596",
    "name": "ニチイケアセンター石丸",
    "kana": "ニチイケアセンターイシマル",
    "address": "富山県砺波市石丸401番地",
    "lat": 36.6647131152129,
    "lng": 136.979701258301,
    "tel": "0763-34-1020",
    "url": "http://nichiigakkan.co.jp",
    "pref": "富山県",
    "city": "砺波市",
    "category": "home_help",
    "serviceType": "訪問介護",
    "capacity": 0,
    "openDays": [
      "平日"
    ],
    "openDaysNote": "居宅サービス計画により、営業時間外でもサービスの提供を行う場合がある。"
  },
  {
    "id": "1670800224",
    "name": "ニチイケアセンター砺波",
    "kana": "ニチイケアセンタートナミ",
    "address": "富山県砺波市太郎丸1-8-12",
    "lat": 36.6320722,
    "lng": 136.9599673,
    "tel": "0763-34-7261",
    "url": "http://nichiigakkan.co.jp",
    "pref": "富山県",
    "city": "砺波市",
    "category": "home_help",
    "serviceType": "訪問介護",
    "capacity": 0,
    "openDays": [
      "平日",
      "土曜日",
      "日曜日",
      "祝日"
    ],
    "openDaysNote": "但し、居宅サービス計画により営業時間外でも、サービスの提供を行なう場合がある。"
  },
  {
    "id": "1670800554",
    "name": "ものがたりホームヘルパーステーション",
    "kana": "モノガタリホームヘルパーステーション",
    "address": "富山県砺波市太田1382",
    "lat": 36.6271396429144,
    "lng": 136.993224586748,
    "tel": "0763-55-6200",
    "url": "http://narrative-home.jp",
    "pref": "富山県",
    "city": "砺波市",
    "category": "home_help",
    "serviceType": "訪問介護",
    "capacity": 0,
    "openDays": [
      "平日",
      "土曜日",
      "日曜日",
      "祝日"
    ],
    "openDaysNote": ""
  },
  {
    "id": "1670800307",
    "name": "砺波ふれあいの杜　ヘルパーステーション",
    "kana": "トナミフレアイノモリ　ヘルパーステーション",
    "address": "富山県砺波市神島756-1",
    "lat": 36.6358074,
    "lng": 136.9393554,
    "tel": "0763-33-0826",
    "url": "http://www.furemori.com",
    "pref": "富山県",
    "city": "砺波市",
    "category": "home_help",
    "serviceType": "訪問介護",
    "capacity": 0,
    "openDays": [
      "平日",
      "土曜日",
      "祝日"
    ],
    "openDaysNote": "特になし"
  },
  {
    "id": "1670800166",
    "name": "砺波市ヘルパーステーション",
    "kana": "トナミシヘルパーステーション",
    "address": "富山県砺波市栄町７番３号",
    "lat": 36.6474864,
    "lng": 136.9621224,
    "tel": "0763-33-1111",
    "url": "",
    "pref": "富山県",
    "city": "砺波市",
    "category": "home_help",
    "serviceType": "訪問介護",
    "capacity": 0,
    "openDays": [
      "平日"
    ],
    "openDaysNote": ""
  },
  {
    "id": "1660890391",
    "name": "訪問介護ステーション　ひばり",
    "kana": "ホウモンカイゴステーション　ヒバリ",
    "address": "富山県砺波市高波1171番地シニアホームいなほの里 シニアホームいなほの里",
    "lat": 36.6786939374776,
    "lng": 136.935943918925,
    "tel": "0763-23-6378",
    "url": "http://www.inaho-toyama.com/",
    "pref": "富山県",
    "city": "砺波市",
    "category": "home_help",
    "serviceType": "訪問介護",
    "capacity": 30,
    "openDays": [
      "平日",
      "土曜日",
      "日曜日",
      "祝日"
    ],
    "openDaysNote": ""
  },
  {
    "id": "1670800638",
    "name": "訪問介護ステーションことほぎ",
    "kana": "ホウモンカイゴステーション　コトホギ",
    "address": "富山県砺波市杉木５丁目５番地サンライズマンション101 サンライズマンション101",
    "lat": 36.6437009,
    "lng": 136.9569061,
    "tel": "0763-33-3331",
    "url": "",
    "pref": "富山県",
    "city": "砺波市",
    "category": "home_help",
    "serviceType": "訪問介護",
    "capacity": 0,
    "openDays": [
      "平日",
      "土曜日",
      "日曜日",
      "祝日"
    ],
    "openDaysNote": "住宅型有料老人ホームことほぎの里入居者のみ24時間帯での利用可"
  },
  {
    "id": "1670800018",
    "name": "北陸メディカルサービス株式会社となみ営業所",
    "kana": "ホクリクメディカルサービスカブシキカイシャトナミエイギョウショ",
    "address": "砺波市中央町4番1号",
    "lat": 36.6382596017124,
    "lng": 136.954429307935,
    "tel": "0763-34-7250",
    "url": "https://www.hokuriku-medical.co.jp",
    "pref": "富山県",
    "city": "砺波市",
    "category": "home_help",
    "serviceType": "訪問介護",
    "capacity": 49,
    "openDays": [
      "平日",
      "土曜日",
      "日曜日",
      "祝日"
    ],
    "openDaysNote": "ご要望に応じて対応いたします。"
  },
  {
    "id": "1672000047",
    "name": "JAなんと指定訪問介護事業所",
    "kana": "ジェイエイナントシテイホウモンカイゴジギョウショ",
    "address": "富山県南砺市理休190番地の1",
    "lat": 36.5148607,
    "lng": 136.9103309,
    "tel": "0763-62-8588",
    "url": "fukushi@ja-nanto.or.jp",
    "pref": "富山県",
    "city": "南砺市",
    "category": "home_help",
    "serviceType": "訪問介護",
    "capacity": 0,
    "openDays": [
      "平日",
      "土曜日",
      "日曜日",
      "祝日"
    ],
    "openDaysNote": ""
  },
  {
    "id": "1672100086",
    "name": "ＪＡ福光ふれあいセンタ－",
    "kana": "ジェイエイフクミツフレアイセンタ-",
    "address": "富山県南砺市福光1192デイサービス日向ぼっこ デイサービス日向ぼっこ",
    "lat": 36.5542476668018,
    "lng": 136.870465333313,
    "tel": "0763-52-2621",
    "url": "http://ja.fuku3.com/",
    "pref": "富山県",
    "city": "南砺市",
    "category": "home_help",
    "serviceType": "訪問介護",
    "capacity": 40,
    "openDays": [
      "平日",
      "土曜日",
      "日曜日",
      "祝日"
    ],
    "openDaysNote": "早朝夜間、祝日のサービス提供については、管理者(所長)が必要と認めた場合。"
  },
  {
    "id": "1672000039",
    "name": "となみケアサービス",
    "kana": "トナミケアサービス",
    "address": "富山県南砺市野口191-１",
    "lat": 36.5101518,
    "lng": 136.8914167,
    "tel": "0763-62-3777",
    "url": "https://tonamicare.com",
    "pref": "富山県",
    "city": "南砺市",
    "category": "home_help",
    "serviceType": "訪問介護",
    "capacity": 120,
    "openDays": [
      "平日",
      "土曜日",
      "日曜日",
      "祝日"
    ],
    "openDaysNote": "緊急の連絡は時間外の電話にて受け付ける（改行）早朝、夜間のサービスに関してはお問い合わせ下さい"
  },
  {
    "id": "1672100243",
    "name": "ニチイケアセンター南砺",
    "kana": "ニチイケアセンターナント",
    "address": "富山県南砺市八幡13-1",
    "lat": 36.5687360099246,
    "lng": 136.872258481766,
    "tel": "0763-52-8086",
    "url": "http://www.nichiigakkan.co.jp",
    "pref": "富山県",
    "city": "南砺市",
    "category": "home_help",
    "serviceType": "訪問介護",
    "capacity": 100,
    "openDays": [
      "平日",
      "土曜日",
      "日曜日",
      "祝日"
    ],
    "openDaysNote": "居宅サービス計画により、営業時間外でも、サービスの提供を行う場合がある。"
  },
  {
    "id": "1672000443",
    "name": "ニチイケアセンター福野",
    "kana": "ニチイケアセンターフクノ",
    "address": "富山県南砺市やかた105",
    "lat": 36.5904907,
    "lng": 136.9191068,
    "tel": "0763-22-8003",
    "url": "http://www.nichiigakkan.co.jp",
    "pref": "富山県",
    "city": "南砺市",
    "category": "home_help",
    "serviceType": "訪問介護",
    "capacity": 0,
    "openDays": [
      "平日",
      "土曜日",
      "日曜日",
      "祝日"
    ],
    "openDaysNote": "居宅サービス計画により営業時間外であっても、サービスの提供を行う場合がある。"
  },
  {
    "id": "1672100185",
    "name": "ふく満ホームヘルプサービス事業所",
    "kana": "フクミツホームヘルプサービスジギョウショ",
    "address": "富山県南砺市福光１０４５番地",
    "lat": 36.5548104,
    "lng": 136.867542,
    "tel": "0763-53-0055",
    "url": "http://fukuju.jp/",
    "pref": "富山県",
    "city": "南砺市",
    "category": "home_help",
    "serviceType": "訪問介護",
    "capacity": 0,
    "openDays": [
      "平日",
      "土曜日",
      "日曜日",
      "祝日"
    ],
    "openDaysNote": ""
  },
  {
    "id": "1671000352",
    "name": "ヘルパーステーションやどりぎ",
    "kana": "ヘルパーステーションヤドリギ",
    "address": "富山県南砺市本江238番地8サービス付き高齢者向け住宅やどりぎ サービス付き高齢者向け住宅やどりぎ",
    "lat": 36.6127511825626,
    "lng": 136.915711297255,
    "tel": "0763-23-4603",
    "url": "",
    "pref": "富山県",
    "city": "南砺市",
    "category": "home_help",
    "serviceType": "訪問介護",
    "capacity": null,
    "openDays": [
      "平日",
      "土曜日",
      "日曜日",
      "祝日"
    ],
    "openDaysNote": "同一敷地内にある「サービス付き高齢者向け住宅やどりぎ」の入居者に関しては、上記営業時間の限りではない。"
  },
  {
    "id": "1672000245",
    "name": "南砺市井波ホームヘルプステーション",
    "kana": "ナントシイナミホームヘルプステーション",
    "address": "富山県南砺市井波９３８",
    "lat": 36.5703135,
    "lng": 136.9734316,
    "tel": "0763-82-0524",
    "url": "",
    "pref": "富山県",
    "city": "南砺市",
    "category": "home_help",
    "serviceType": "訪問介護",
    "capacity": 80,
    "openDays": [
      "平日",
      "土曜日",
      "祝日"
    ],
    "openDaysNote": ""
  },
  {
    "id": "1670800687",
    "name": "訪問介護ステーション　愛ケア",
    "kana": "ホウモンカイゴステーション　アイケア",
    "address": "富山県南砺市遊部653白寿の里ふくみつ 白寿の里ふくみつ",
    "lat": 36.5697082053647,
    "lng": 136.886480335242,
    "tel": "0763-55-6166",
    "url": "",
    "pref": "富山県",
    "city": "南砺市",
    "category": "home_help",
    "serviceType": "訪問介護",
    "capacity": 64,
    "openDays": [
      "平日",
      "土曜日",
      "日曜日",
      "祝日"
    ],
    "openDaysNote": ""
  },
  {
    "id": "1672000138",
    "name": "旅川ホームヘルプサービス事業所",
    "kana": "タビカワホームヘルプサービスジギョウショ",
    "address": "富山県南砺市院林92番地1",
    "lat": 36.5909874,
    "lng": 136.9089925,
    "tel": "0763-22-6548",
    "url": "http://fukuju.jp/",
    "pref": "富山県",
    "city": "南砺市",
    "category": "home_help",
    "serviceType": "訪問介護",
    "capacity": 0,
    "openDays": [
      "平日",
      "土曜日",
      "祝日"
    ],
    "openDaysNote": ""
  },
  {
    "id": "1671700019",
    "name": "JAみな穂ケアセンターはぴねす",
    "kana": "ジェイエイミナホケアセンターハピネス",
    "address": "富山県下新川郡入善町上野７９８の１",
    "lat": 36.9332659,
    "lng": 137.4928517,
    "tel": "0765-74-1862",
    "url": "http://www.ja-minaho.or.jp",
    "pref": "富山県",
    "city": "入善町",
    "category": "home_help",
    "serviceType": "訪問介護",
    "capacity": 0,
    "openDays": [
      "平日",
      "土曜日"
    ],
    "openDaysNote": "定休日、時間外利用相談に応じます"
  },
  {
    "id": "1671700621",
    "name": "ヘルパーステーションにゅうぜんの里",
    "kana": "ヘルパーステーションニュウゼンノサト",
    "address": "富山県下新川郡入善町入膳343番地にゅぜんの里 にゅぜんの里",
    "lat": 36.9237966552493,
    "lng": 137.507950688522,
    "tel": "0765-74-7112",
    "url": "http://www.nyuzennosato.com",
    "pref": "富山県",
    "city": "入善町",
    "category": "home_help",
    "serviceType": "訪問介護",
    "capacity": null,
    "openDays": [
      "平日",
      "土曜日",
      "日曜日",
      "祝日"
    ],
    "openDaysNote": ""
  },
  {
    "id": "1671700274",
    "name": "特定非営利活動法人パートナー",
    "kana": "トクテイヒエイリカツドウホウジンパートナー",
    "address": "富山県下新川郡入善町上野1672",
    "lat": 36.9253452,
    "lng": 137.4958683,
    "tel": "0765-74-2072",
    "url": "",
    "pref": "富山県",
    "city": "入善町",
    "category": "home_help",
    "serviceType": "訪問介護",
    "capacity": 0,
    "openDays": [
      "平日",
      "土曜日",
      "日曜日",
      "祝日"
    ],
    "openDaysNote": "受付時間は9：00～17：00　土日祝日は休み"
  },
  {
    "id": "1671700084",
    "name": "入善町社会福祉協議会　訪問介護　ほほえみ",
    "kana": "ニュウゼンマチシャカイフクシキョウギカイホウモンカイゴ　ホホエミ",
    "address": "富山県下新川郡入善町上野2793-1入善町健康交流プラザ　サンウェル　２F 入善町健康交流プラザ　サンウェル　２F",
    "lat": 36.9235153,
    "lng": 137.5018118,
    "tel": "0765-74-2584",
    "url": "https://www.nyuzen-shakyo.org/",
    "pref": "富山県",
    "city": "入善町",
    "category": "home_help",
    "serviceType": "訪問介護",
    "capacity": 0,
    "openDays": [
      "平日",
      "土曜日",
      "日曜日",
      "祝日"
    ],
    "openDaysNote": "早朝夜間6:00～8:00、18:00～22:00は要相談。（改行）また、料金は通常の1.25％の額を徴収。"
  },
  {
    "id": "1671700613",
    "name": "訪問介護サービス　笑楽",
    "kana": "ホウモンカイゴサービス　ワラク",
    "address": "富山県下新川郡入善町中沢110番地",
    "lat": 36.9045662063872,
    "lng": 137.541106384934,
    "tel": "0765-78-1188",
    "url": "https://sites.google.com/view/h-c-s-waraku/",
    "pref": "富山県",
    "city": "入善町",
    "category": "home_help",
    "serviceType": "訪問介護",
    "capacity": null,
    "openDays": [
      "平日"
    ],
    "openDaysNote": "定休日・時間外の希望は、ご相談ください。"
  },
  {
    "id": "1671700597",
    "name": "訪問介護ステーションささや木",
    "kana": "ホウモンカイゴステーションササヤキ",
    "address": "富山県下新川郡入善町青島401番地1サービス付き高齢者向け住宅　ささや木 サービス付き高齢者向け住宅　ささや木",
    "lat": 36.9272893415442,
    "lng": 137.509751627509,
    "tel": "0765-32-3786",
    "url": "http://www.sasayaki.org",
    "pref": "富山県",
    "city": "入善町",
    "category": "home_help",
    "serviceType": "訪問介護",
    "capacity": 0,
    "openDays": [
      "平日",
      "土曜日",
      "日曜日",
      "祝日"
    ],
    "openDaysNote": "営業時間外においても、電話等により２４時間常時連絡が可能な体制とし、必要に応じてサービス提供を実施する。但し、令和２年度は「サービス付き高齢者向け住宅ささや木」の入居者にのみサービス提供を実施。"
  },
  {
    "id": "1670500790",
    "name": "ありがとうホーム柳田",
    "kana": "アリガトウホーム　ヤナイダ",
    "address": "柳田1134ありがとうホーム　やないだの郷 ありがとうホーム　やないだの郷",
    "lat": 36.8337122869148,
    "lng": 137.008227944472,
    "tel": "0766-91-7839",
    "url": "http://www.mita-home.co.jp/index.shtml",
    "pref": "富山県",
    "city": "氷見市",
    "category": "home_help",
    "serviceType": "訪問介護",
    "capacity": 0,
    "openDays": [
      "平日",
      "土曜日",
      "日曜日",
      "祝日"
    ],
    "openDaysNote": ""
  },
  {
    "id": "1670500113",
    "name": "はまなす苑氷見指定居宅訪問介護事業所",
    "kana": "ハマナスエンヒミシテイキョタクホウモンカイゴジギョウショ",
    "address": "富山県氷見市島尾837番地有料老人ホームいちえ内 有料老人ホームいちえ内",
    "lat": 36.8232491621587,
    "lng": 137.010816890213,
    "tel": "0766-91-7701",
    "url": "https://www.hamanasu-himi.jp/",
    "pref": "富山県",
    "city": "氷見市",
    "category": "home_help",
    "serviceType": "訪問介護",
    "capacity": 0,
    "openDays": [
      "平日",
      "土曜日",
      "日曜日",
      "祝日"
    ],
    "openDaysNote": "時間については、利用者の要望があれば、ご相談に応じております。"
  },
  {
    "id": "1670500717",
    "name": "リハ・ハウス来夢訪問介護事業所",
    "kana": "リハ・ハウスライムホウモンカイゴジギョウショ",
    "address": "富山県氷見市伊勢大町二丁目14番20号サービス付き高齢者向け住宅　リハ・ハウス来夢 サービス付き高齢者向け住宅　リハ・ハウス来夢",
    "lat": 36.8481335956595,
    "lng": 136.989704249738,
    "tel": "0766-54-5519",
    "url": "https://raimucare-t.jp/",
    "pref": "富山県",
    "city": "氷見市",
    "category": "home_help",
    "serviceType": "訪問介護",
    "capacity": 55,
    "openDays": [
      "平日",
      "土曜日",
      "日曜日",
      "祝日"
    ],
    "openDaysNote": "全日とも17:00～翌09:00の間はリハ・ハウス来夢建物内以外の訪問サービスの対応はしていない"
  },
  {
    "id": "1670500212",
    "name": "在宅介護サービスセンターすずらん",
    "kana": "ザイタクカイゴサービスセンタースズラン",
    "address": "朝日丘8-88",
    "lat": 36.8481596703903,
    "lng": 136.980529446172,
    "tel": "0766-74-1697",
    "url": "",
    "pref": "富山県",
    "city": "氷見市",
    "category": "home_help",
    "serviceType": "訪問介護",
    "capacity": 0,
    "openDays": [
      "平日"
    ],
    "openDaysNote": "24時間対応できます。"
  },
  {
    "id": "1670500147",
    "name": "社会福祉法人　氷見市社会福祉協議会",
    "kana": "シャカイフクシホウジン　ヒミシシャカイフクシキョウギカイ",
    "address": "富山県氷見市鞍川９７５",
    "lat": 36.8554979,
    "lng": 136.9744487,
    "tel": "0766-74-8407",
    "url": "houmonkaigo@himi-shakyo.jp",
    "pref": "富山県",
    "city": "氷見市",
    "category": "home_help",
    "serviceType": "訪問介護",
    "capacity": 0,
    "openDays": [
      "平日",
      "土曜日",
      "日曜日",
      "祝日"
    ],
    "openDaysNote": "なし"
  },
  {
    "id": "1670500063",
    "name": "氷見ケアサービス",
    "kana": "ヒミケアサービス",
    "address": "富山県氷見市窪552-1",
    "lat": 36.8362625,
    "lng": 136.9905505,
    "tel": "0766-91-5556",
    "url": "",
    "pref": "富山県",
    "city": "氷見市",
    "category": "home_help",
    "serviceType": "訪問介護",
    "capacity": 0,
    "openDays": [
      "平日",
      "土曜日",
      "祝日"
    ],
    "openDaysNote": "年末年始・お盆休み"
  },
  {
    "id": "1670500394",
    "name": "氷見苑訪問介護事業所",
    "kana": "ヒミエンホウモンカイゴジギョウショ",
    "address": "富山県氷見市薮田2058番地",
    "lat": 36.8929735,
    "lng": 136.9977587,
    "tel": "0766-72-8911",
    "url": "https://www.himien.jp",
    "pref": "富山県",
    "city": "氷見市",
    "category": "home_help",
    "serviceType": "訪問介護",
    "capacity": 30,
    "openDays": [
      "平日",
      "土曜日",
      "日曜日",
      "祝日"
    ],
    "openDaysNote": ""
  },
  {
    "id": "1670500048",
    "name": "氷見市農業協同組合",
    "kana": "ヒミシノウギョウキョウドウクミアイ",
    "address": "富山県氷見市朝日丘２番３２号",
    "lat": 36.8494935,
    "lng": 136.9842202,
    "tel": "0766-74-8834",
    "url": "https://himi.ja-toyama.jp/",
    "pref": "富山県",
    "city": "氷見市",
    "category": "home_help",
    "serviceType": "訪問介護",
    "capacity": 0,
    "openDays": [
      "平日",
      "土曜日",
      "祝日"
    ],
    "openDaysNote": "日曜及びお盆8/14～8/16、年末年始12/30～1/3(但し、ＪＡが認めた場合は、相談に応じます。)"
  },
  {
    "id": "1670100328",
    "name": "(有)千石ケアサービス",
    "kana": "（ユウ）センゴクケアサービス",
    "address": "富山県富山市千石町5丁目-3-7",
    "lat": 36.6850673,
    "lng": 137.2114471,
    "tel": "076-491-4375",
    "url": "http://care-net.biz/16/sengokucare/",
    "pref": "富山県",
    "city": "富山市",
    "category": "home_help",
    "serviceType": "訪問介護",
    "capacity": 0,
    "openDays": [
      "平日"
    ],
    "openDaysNote": "ヘルパーは指定休日無し"
  },
  {
    "id": "1670115409",
    "name": "Coco楽笑訪問介護ステーション",
    "kana": "ココラクショウホウモンカイゴステーション",
    "address": "富山県富山市蓮町４丁目6-3Coco楽笑 Coco楽笑",
    "lat": 36.7412944,
    "lng": 137.2314585,
    "tel": "076-438-7021",
    "url": "",
    "pref": "富山県",
    "city": "富山市",
    "category": "home_help",
    "serviceType": "訪問介護",
    "capacity": null,
    "openDays": [
      "平日",
      "土曜日",
      "日曜日",
      "祝日"
    ],
    "openDaysNote": ""
  },
  {
    "id": "1671800215",
    "name": "ＪＡあおば介護サービスセンター",
    "kana": "ジェイエイアオバカイゴサービスセンター",
    "address": "富山県富山市八尾町黒田2702-1",
    "lat": 36.601162257641,
    "lng": 137.163493429297,
    "tel": "076-454-3106",
    "url": "https://ja-aoba.jp/",
    "pref": "富山県",
    "city": "富山市",
    "category": "home_help",
    "serviceType": "訪問介護",
    "capacity": 70,
    "openDays": [
      "平日",
      "土曜日",
      "日曜日",
      "祝日"
    ],
    "openDaysNote": "お盆（8/14～8/15）、年末年始（12/31～1/3）は休み"
  },
  {
    "id": "1670111523",
    "name": "アースサポート富山",
    "kana": "アースサポートトヤマ",
    "address": "富山県富山市大町22番地14松倉ビル1F 松倉ビル1F",
    "lat": 36.667619513267,
    "lng": 137.219397556067,
    "tel": "076-422-7400",
    "url": "http://www.earthsupport.co.jp",
    "pref": "富山県",
    "city": "富山市",
    "category": "home_help",
    "serviceType": "訪問介護",
    "capacity": 0,
    "openDays": [
      "平日",
      "土曜日",
      "日曜日",
      "祝日"
    ],
    "openDaysNote": "年中無休"
  },
  {
    "id": "1670115557",
    "name": "あい訪問介護センター",
    "kana": "アイホウモンカイゴセンター",
    "address": "富山県富山市中川原128番1",
    "lat": 36.6749593,
    "lng": 137.2542286,
    "tel": "076-413-6830",
    "url": "",
    "pref": "富山県",
    "city": "富山市",
    "category": "home_help",
    "serviceType": "訪問介護",
    "capacity": null,
    "openDays": [
      "平日",
      "土曜日",
      "日曜日",
      "祝日"
    ],
    "openDaysNote": "その状況においては、この限りではありません。"
  },
  {
    "id": "1670104965",
    "name": "あかりケアサービス",
    "kana": "アカリケアサービス",
    "address": "冨山市奥田本町3-8",
    "lat": 36.7136105452817,
    "lng": 137.222565061285,
    "tel": "076-411-8388",
    "url": "www.chuetsu-auto.com/akari-taxi/",
    "pref": "富山県",
    "city": "富山市",
    "category": "home_help",
    "serviceType": "訪問介護",
    "capacity": 0,
    "openDays": [
      "平日",
      "土曜日"
    ],
    "openDaysNote": ""
  },
  {
    "id": "1670115458",
    "name": "アクア富山訪問介護",
    "kana": "アクアトヤマホウモンカイゴ",
    "address": "富山県富山市中冨居15-73",
    "lat": 36.7099145092844,
    "lng": 137.246922137236,
    "tel": "076-471-8644",
    "url": "",
    "pref": "富山県",
    "city": "富山市",
    "category": "home_help",
    "serviceType": "訪問介護",
    "capacity": null,
    "openDays": [
      "平日",
      "土曜日",
      "日曜日",
      "祝日"
    ],
    "openDaysNote": ""
  },
  {
    "id": "1670113123",
    "name": "あすケアとやま訪問介護事業所",
    "kana": "アスケアトヤマホウモンカイゴジギョウショ",
    "address": "富山県富山市寺町９番１",
    "lat": 36.6939638739508,
    "lng": 137.170987295929,
    "tel": "076-471-8559",
    "url": "",
    "pref": "富山県",
    "city": "富山市",
    "category": "home_help",
    "serviceType": "訪問介護",
    "capacity": 0,
    "openDays": [
      "平日",
      "土曜日",
      "日曜日",
      "祝日"
    ],
    "openDaysNote": "ただし、利用者の状況によってはこの限りではありません。"
  },
  {
    "id": "1670114592",
    "name": "ありがとうホーム呉羽",
    "kana": "アリガトウホームクレハ",
    "address": "富山県富山市吉作491-1",
    "lat": 36.7068516798189,
    "lng": 137.163844235582,
    "tel": "076-436-2804",
    "url": "",
    "pref": "富山県",
    "city": "富山市",
    "category": "home_help",
    "serviceType": "訪問介護",
    "capacity": 0,
    "openDays": [
      "平日",
      "土曜日",
      "日曜日",
      "祝日"
    ],
    "openDaysNote": "緊急の場合利用時間外でも対応可能"
  },
  {
    "id": "1670114683",
    "name": "ありがとうホーム新屋訪問介護",
    "kana": "アリガトウホウムアラヤ　ホウモンカイゴ",
    "address": "富山県富山市新屋73-2ウインク101号室 ウインク101号室",
    "lat": 36.7244815,
    "lng": 137.2496838,
    "tel": "076-471-6754",
    "url": "",
    "pref": "富山県",
    "city": "富山市",
    "category": "home_help",
    "serviceType": "訪問介護",
    "capacity": null,
    "openDays": [
      "平日"
    ],
    "openDaysNote": ""
  },
  {
    "id": "1670100708",
    "name": "アルペンヘルパーステーション",
    "kana": "アルペンヘルパーステーション",
    "address": "富山市小西１７６番地",
    "lat": 36.7253049,
    "lng": 137.2577307,
    "tel": "076-452-5885",
    "url": "http://www.alpen.or.jp",
    "pref": "富山県",
    "city": "富山市",
    "category": "home_help",
    "serviceType": "訪問介護",
    "capacity": 0,
    "openDays": [
      "平日",
      "土曜日",
      "日曜日",
      "祝日"
    ],
    "openDaysNote": "緊急時など状況に応じて対応していきます。"
  },
  {
    "id": "1670101862",
    "name": "アルペン室谷クリニック訪問介護ステーション",
    "kana": "アルペンムロタニクリニックホウモンカイゴステーション",
    "address": "富山市東岩瀬町275番地",
    "lat": 36.7551234,
    "lng": 137.2290127,
    "tel": "076-437-2026",
    "url": "http:/www.murotani.or.jp",
    "pref": "富山県",
    "city": "富山市",
    "category": "home_help",
    "serviceType": "訪問介護",
    "capacity": 3,
    "openDays": [
      "平日",
      "土曜日",
      "日曜日",
      "祝日"
    ],
    "openDaysNote": ""
  },
  {
    "id": "1670112323",
    "name": "イフディケアとやま南",
    "kana": "イフディケアトヤマミナミ",
    "address": "富山市黒崎291コンフォート黒崎 コンフォート黒崎",
    "lat": 36.6525357687381,
    "lng": 137.207328927734,
    "tel": "076-481-6239",
    "url": "http://if-d.net",
    "pref": "富山県",
    "city": "富山市",
    "category": "home_help",
    "serviceType": "訪問介護",
    "capacity": 440,
    "openDays": [
      "平日",
      "土曜日",
      "日曜日"
    ],
    "openDaysNote": ""
  },
  {
    "id": "1670114113",
    "name": "うちくるケア富山",
    "kana": "ウチクルケアトヤマ",
    "address": "富山県富山市西野新47番地",
    "lat": 36.6633285589521,
    "lng": 137.264104948688,
    "tel": "076‐255‐0856",
    "url": "https://www.uchikuru-k.co.jp/",
    "pref": "富山県",
    "city": "富山市",
    "category": "home_help",
    "serviceType": "訪問介護",
    "capacity": 0,
    "openDays": [
      "平日",
      "土曜日",
      "日曜日",
      "祝日"
    ],
    "openDaysNote": "サービス提供はケアプランの定める時間帯であれば、いつでも対応します。"
  },
  {
    "id": "1670114394",
    "name": "おあしす訪問介護事業所",
    "kana": "オアシスホウモンカイゴジギョウショ",
    "address": "富山県富山市中島3丁目8番33号",
    "lat": 36.72001,
    "lng": 137.2206693,
    "tel": "076-431-1232",
    "url": "http://modest-mind.com",
    "pref": "富山県",
    "city": "富山市",
    "category": "home_help",
    "serviceType": "訪問介護",
    "capacity": 0,
    "openDays": [
      "平日",
      "土曜日",
      "祝日"
    ],
    "openDaysNote": "年始1月1日～3日・日祝祭日休み（改行）ケアタクシー・日祝祭日についてはご要望があれば応じます。"
  },
  {
    "id": "1670111770",
    "name": "オークスヘルパーステーション",
    "kana": "オークスヘルパーステーション",
    "address": "富山市中島4-2-14",
    "lat": 36.7268705,
    "lng": 137.2256465,
    "tel": "076-432-1198",
    "url": "www.oarks.co.jp",
    "pref": "富山県",
    "city": "富山市",
    "category": "home_help",
    "serviceType": "訪問介護",
    "capacity": 1,
    "openDays": [
      "平日",
      "土曜日"
    ],
    "openDaysNote": "利用者の状況により、日曜日のサービス実施有"
  },
  {
    "id": "1670115359",
    "name": "カナディアンホーム訪問介護ステーション",
    "kana": "カナディアンホームホウモンカイゴステーション",
    "address": "富山市経田1231ホクサン空港通り店 ホクサン空港通り店",
    "lat": 36.6516793097833,
    "lng": 137.191685645369,
    "tel": "076-481-6673",
    "url": "",
    "pref": "富山県",
    "city": "富山市",
    "category": "home_help",
    "serviceType": "訪問介護",
    "capacity": 0,
    "openDays": [
      "平日",
      "土曜日",
      "日曜日",
      "祝日"
    ],
    "openDaysNote": ""
  },
  {
    "id": "1671800371",
    "name": "かりゆしヘルパーステーション",
    "kana": "カリユシヘルパーステーション",
    "address": "富山県富山市婦中町中名903番地33",
    "lat": 36.644399,
    "lng": 137.1668809,
    "tel": "076-465-1218",
    "url": "http://chimugurisa.com/",
    "pref": "富山県",
    "city": "富山市",
    "category": "home_help",
    "serviceType": "訪問介護",
    "capacity": 0,
    "openDays": [
      "平日",
      "土曜日"
    ],
    "openDaysNote": ""
  },
  {
    "id": "1670112646",
    "name": "ケアサポート　アイリス",
    "kana": "ケアサポート　アイリス",
    "address": "富山県富山市松若町11-20",
    "lat": 36.7153981563154,
    "lng": 137.225204397863,
    "tel": "076－471－7948",
    "url": "",
    "pref": "富山県",
    "city": "富山市",
    "category": "home_help",
    "serviceType": "訪問介護",
    "capacity": 0,
    "openDays": [
      "平日",
      "土曜日",
      "日曜日",
      "祝日"
    ],
    "openDaysNote": ""
  },
  {
    "id": "1670113172",
    "name": "ケアサポートジョジョ",
    "kana": "ケアサポートジョジョ",
    "address": "富山県富山市藤木1831",
    "lat": 36.6855017,
    "lng": 137.269378,
    "tel": "076-461-6165",
    "url": "",
    "pref": "富山県",
    "city": "富山市",
    "category": "home_help",
    "serviceType": "訪問介護",
    "capacity": 0,
    "openDays": [
      "平日"
    ],
    "openDaysNote": "24時間対応あり"
  },
  {
    "id": "1670102670",
    "name": "ケアステーション　ラポール",
    "kana": "ケアステーション　ラポール",
    "address": "富山市中市2-8-41",
    "lat": 36.6782021,
    "lng": 137.237631,
    "tel": "076-461-5260",
    "url": "",
    "pref": "富山県",
    "city": "富山市",
    "category": "home_help",
    "serviceType": "訪問介護",
    "capacity": 0,
    "openDays": [
      "平日",
      "土曜日",
      "日曜日",
      "祝日"
    ],
    "openDaysNote": "上記の時間以外でも場合によっては可"
  },
  {
    "id": "1670113768",
    "name": "コメチャンカイゴサービス",
    "kana": "コメチャン介護サービス",
    "address": "富山県富山市金山新東510",
    "lat": 36.7385244,
    "lng": 137.2146475,
    "tel": "090－1396－1983",
    "url": "http://ｗｗｗ.komecammChan.com/",
    "pref": "富山県",
    "city": "富山市",
    "category": "home_help",
    "serviceType": "訪問介護",
    "capacity": 0,
    "openDays": [
      "平日",
      "土曜日",
      "日曜日",
      "祝日"
    ],
    "openDaysNote": ""
  },
  {
    "id": "1670104718",
    "name": "こもれびの森マロンケアサ－ビス",
    "kana": "コモレビノモリマロンケアサ-ビス",
    "address": "富山県富山市今泉西部町２番地５　ＶＩＰﾊｲﾂ日本海２０１号室",
    "lat": 36.6739648,
    "lng": 137.2103722,
    "tel": "076-494-2880",
    "url": "http://baron-jp.com",
    "pref": "富山県",
    "city": "富山市",
    "category": "home_help",
    "serviceType": "訪問介護",
    "capacity": 5,
    "openDays": [
      "平日",
      "土曜日",
      "日曜日",
      "祝日"
    ],
    "openDaysNote": "但し、居宅介護支援事業所等により計画された居宅サービス計画に基づくものとし、原則として緊急依頼のサービス、計画外のサービスはお受けできません。"
  },
  {
    "id": "1670104304",
    "name": "さくらヘルパーステーション",
    "kana": "サクラヘルパーステーション",
    "address": "富山県富山市水橋市田袋108-1",
    "lat": 36.7269335,
    "lng": 137.2894333,
    "tel": "076-478-3705",
    "url": "http://www.niikawa-fukushi.net/",
    "pref": "富山県",
    "city": "富山市",
    "category": "home_help",
    "serviceType": "訪問介護",
    "capacity": 0,
    "openDays": [],
    "openDaysNote": "２４時間体制"
  },
  {
    "id": "1670115524",
    "name": "サルビア訪問介護事業所",
    "kana": "サルビアホウモンカイゴジギョウショ",
    "address": "富山県富山市婦中町速星339番セラビ速星110号室",
    "lat": 36.6620275,
    "lng": 137.1634397,
    "tel": "070－4817－2794",
    "url": "",
    "pref": "富山県",
    "city": "富山市",
    "category": "home_help",
    "serviceType": "訪問介護",
    "capacity": null,
    "openDays": [
      "平日"
    ],
    "openDaysNote": ""
  },
  {
    "id": "1670112513",
    "name": "さんうえるずにしあらやへるぱーすてーしょん",
    "kana": "サンウェルズ西荒屋ヘルパーステーション",
    "address": "富山県富山市西荒屋990",
    "lat": 36.6516022244424,
    "lng": 137.19347669679,
    "tel": "076-485-5690",
    "url": "http://www.sunwels.jp",
    "pref": "富山県",
    "city": "富山市",
    "category": "home_help",
    "serviceType": "訪問介護",
    "capacity": 0,
    "openDays": [],
    "openDaysNote": "24時間対応しています。"
  },
  {
    "id": "1670114014",
    "name": "サンウェルズ才覚寺ヘルパーステーション",
    "kana": "サンウェルズサイカクジヘルパーステーション",
    "address": "富山県富山市才覚寺２５９太陽のプリズム才覚寺 太陽のプリズム才覚寺",
    "lat": 36.6542542,
    "lng": 137.1940056,
    "tel": "076ー482－6543",
    "url": "www.sunwels.jp",
    "pref": "富山県",
    "city": "富山市",
    "category": "home_help",
    "serviceType": "訪問介護",
    "capacity": 0,
    "openDays": [
      "平日",
      "土曜日",
      "日曜日",
      "祝日"
    ],
    "openDaysNote": ""
  },
  {
    "id": "1670115227",
    "name": "サンウェルズ秋吉ヘルパーステーション",
    "kana": "サンウェルズアキヨシヘルパーステーション",
    "address": "富山県富山市秋吉130-4",
    "lat": 36.6784383,
    "lng": 137.2450561,
    "tel": "076-425-6951",
    "url": "https://sunwels.jp/",
    "pref": "富山県",
    "city": "富山市",
    "category": "home_help",
    "serviceType": "訪問介護",
    "capacity": 0,
    "openDays": [
      "平日",
      "土曜日",
      "日曜日",
      "祝日"
    ],
    "openDaysNote": ""
  },
  {
    "id": "1670102993",
    "name": "しみずまち敬寿苑ホームヘルパーステーション",
    "kana": "シミズマチケイジュエンホームヘルパーステーション",
    "address": "富山市清水町二丁目6－23",
    "lat": 36.6888661072797,
    "lng": 137.225909651698,
    "tel": "076-492-6676",
    "url": "https://toyamajonankai.mutsumi-gr.jp",
    "pref": "富山県",
    "city": "富山市",
    "category": "home_help",
    "serviceType": "訪問介護",
    "capacity": 0,
    "openDays": [
      "平日",
      "土曜日",
      "日曜日",
      "祝日"
    ],
    "openDaysNote": "土曜日・日曜日・12月30日～1月3日は応相談"
  },
  {
    "id": "1670100302",
    "name": "しらいわ苑ホームヘルパーセンター",
    "kana": "シライワエンホームヘルパーセンター",
    "address": "富山県富山市水橋新堀17-1",
    "lat": 36.7148715,
    "lng": 137.3041768,
    "tel": "076-478-4636",
    "url": "http://www.nijinokai.net/",
    "pref": "富山県",
    "city": "富山市",
    "category": "home_help",
    "serviceType": "訪問介護",
    "capacity": 0,
    "openDays": [
      "平日"
    ],
    "openDaysNote": "状況により土曜・祝日対応を行う。"
  },
  {
    "id": "1670113594",
    "name": "スマイルワン",
    "kana": "スマイルワン",
    "address": "富山県富山市堀川町580-21",
    "lat": 36.660046,
    "lng": 137.2195528,
    "tel": "076-461-5256",
    "url": "",
    "pref": "富山県",
    "city": "富山市",
    "category": "home_help",
    "serviceType": "訪問介護",
    "capacity": 100,
    "openDays": [
      "平日",
      "土曜日",
      "祝日"
    ],
    "openDaysNote": ""
  },
  {
    "id": "1670100518",
    "name": "すみれ苑ヘルパーセンター",
    "kana": "スミレエンヘルパーセンター",
    "address": "富山市横越180番地",
    "lat": 36.7515253,
    "lng": 137.2837831,
    "tel": "076-437-8944",
    "url": "http://www.sumireen.jp",
    "pref": "富山県",
    "city": "富山市",
    "category": "home_help",
    "serviceType": "訪問介護",
    "capacity": null,
    "openDays": [
      "平日",
      "土曜日",
      "祝日"
    ],
    "openDaysNote": "利用者の要請があれば時間外も応ずる。"
  },
  {
    "id": "1670104767",
    "name": "ソーロング株式会社",
    "kana": "ソーロングカブシキガイシャ",
    "address": "富山市向新庄町7丁目8番16号",
    "lat": 36.7115346,
    "lng": 137.2661053,
    "tel": "076-452-2787",
    "url": "",
    "pref": "富山県",
    "city": "富山市",
    "category": "home_help",
    "serviceType": "訪問介護",
    "capacity": 0,
    "openDays": [
      "平日",
      "土曜日",
      "祝日"
    ],
    "openDaysNote": "なし"
  },
  {
    "id": "1670100914",
    "name": "チューリップ苑　在宅介護支援センター",
    "kana": "チューリップエン　ザイタクカイゴシエンセンター",
    "address": "富山県富山市長江五丁目４番３３号",
    "lat": 36.6876527622073,
    "lng": 137.245331814542,
    "tel": "076-494-1255",
    "url": "http://www.tulipen.jp/",
    "pref": "富山県",
    "city": "富山市",
    "category": "home_help",
    "serviceType": "訪問介護",
    "capacity": 0,
    "openDays": [
      "平日",
      "土曜日",
      "日曜日",
      "祝日"
    ],
    "openDaysNote": "早朝、夜間、土曜、日曜、祝日は希望時相談　必要性が高いと判断される場合は派遣を行なうことがある。"
  },
  {
    "id": "1670100195",
    "name": "ツクイ富山",
    "kana": "ツクイトヤマ",
    "address": "富山市稲荷元町2丁目8-9アクトピアトヤマ　１階 アクトピアトヤマ　１階",
    "lat": 36.6961577,
    "lng": 137.2284446,
    "tel": "076-415-4347",
    "url": "http://www.tsukui.net",
    "pref": "富山県",
    "city": "富山市",
    "category": "home_help",
    "serviceType": "訪問介護",
    "capacity": 0,
    "openDays": [
      "平日",
      "土曜日",
      "日曜日",
      "祝日"
    ],
    "openDaysNote": "365日年中無休　24時間体制"
  },
  {
    "id": "1670111929",
    "name": "にこサポケアサービス",
    "kana": "ニコサポケアサービス",
    "address": "富山市横内585番地",
    "lat": 36.6663336471146,
    "lng": 137.258163135582,
    "tel": "076（493）2525",
    "url": "",
    "pref": "富山県",
    "city": "富山市",
    "category": "home_help",
    "serviceType": "訪問介護",
    "capacity": 0,
    "openDays": [
      "平日",
      "土曜日"
    ],
    "openDaysNote": ""
  },
  {
    "id": "1670111846",
    "name": "ニチイケアセンター安養坊",
    "kana": "ニチイケアセンターアンヨウボウ",
    "address": "富山市安養坊256-1",
    "lat": 36.7103159,
    "lng": 137.1931293,
    "tel": "076-439-6566",
    "url": "http://www.nichiigakkan.co.jp",
    "pref": "富山県",
    "city": "富山市",
    "category": "home_help",
    "serviceType": "訪問介護",
    "capacity": 0,
    "openDays": [
      "平日",
      "土曜日",
      "日曜日",
      "祝日"
    ],
    "openDaysNote": "居宅サービス計画により、営業時間外であってもサービスを提供する場合があります。"
  },
  {
    "id": "1670114733",
    "name": "ニチイケアセンター呉羽",
    "kana": "ニチイケアセンタークレハ",
    "address": "富山県富山市呉羽町7320-14アーバンつつじヶ丘2-F アーバンつつじヶ丘2-F",
    "lat": 36.7102369,
    "lng": 137.174136,
    "tel": "076-434-9322",
    "url": "www.nichiigakkan.co.jp",
    "pref": "富山県",
    "city": "富山市",
    "category": "home_help",
    "serviceType": "訪問介護",
    "capacity": 0,
    "openDays": [
      "平日"
    ],
    "openDaysNote": "居宅サービス計画により、休業日であっても、サービス提供を行う場合があります。（改行）居宅サービス計画により、営業時間外であってもサービスを提供を行う場合があります。"
  },
  {
    "id": "1670105145",
    "name": "ニチイケアセンター大沢野",
    "kana": "ニチイケアセンターオオサワノ",
    "address": "富山県　富山市　高内　２区387-4　サントピア41　1F",
    "lat": 36.5780042,
    "lng": 137.2076668,
    "tel": "076-468-1920",
    "url": "http://www.nichiigakkan.co.jp",
    "pref": "富山県",
    "city": "富山市",
    "category": "home_help",
    "serviceType": "訪問介護",
    "capacity": 0,
    "openDays": [
      "平日",
      "土曜日",
      "日曜日",
      "祝日"
    ],
    "openDaysNote": "居宅サービス計画により、営業時間外であってもサービスを提供する場合があります。"
  },
  {
    "id": "1670114709",
    "name": "ニチイケアセンター藤の木",
    "kana": "ニチイケアセンターフジノキ",
    "address": "富山県富山市大島2丁目608　ハウスプラスビル",
    "lat": 36.672031,
    "lng": 137.2733702,
    "tel": "076-420-0121",
    "url": "http://www.nichiigakkan.co.jp",
    "pref": "富山県",
    "city": "富山市",
    "category": "home_help",
    "serviceType": "訪問介護",
    "capacity": 0,
    "openDays": [
      "平日"
    ],
    "openDaysNote": "居宅サービス計画においては、休日であってもサービス提供を行う場合があります。（改行）居宅サービス計画においては、営業時間外でもサービスを提供を行う場合があります。"
  },
  {
    "id": "1671800223",
    "name": "ニチイケアセンター婦中",
    "kana": "ニチイケアセンターフチュウ",
    "address": "富山県富山市婦中町上田島32-2",
    "lat": 36.6689491,
    "lng": 137.1739103,
    "tel": "076-466-0701",
    "url": "http://www.nichiigakkan.co.jp",
    "pref": "富山県",
    "city": "富山市",
    "category": "home_help",
    "serviceType": "訪問介護",
    "capacity": 0,
    "openDays": [
      "平日",
      "土曜日",
      "日曜日",
      "祝日"
    ],
    "openDaysNote": "居宅サービス計画により、営業時間外であってもサービスを提供する場合があります。（改行）要相談"
  },
  {
    "id": "1670102811",
    "name": "ニチイケアセンター富山",
    "kana": "ニチイケアセンタートヤマ",
    "address": "富山県富山市下奥井1-19-16",
    "lat": 36.7126499,
    "lng": 137.2232165,
    "tel": "076-431-1620",
    "url": "http://www.nichiigakkann.co.jp",
    "pref": "富山県",
    "city": "富山市",
    "category": "home_help",
    "serviceType": "訪問介護",
    "capacity": 0,
    "openDays": [
      "平日"
    ],
    "openDaysNote": "居宅サービス計画により、休業日であっても、サービス提供を行う場合があります。（改行）居宅サービス計画により、営業時間外であってもサービスを提供を行う場合があります。"
  },
  {
    "id": "1670114998",
    "name": "ニチイケアセンター富山東",
    "kana": "ニチイケアセンタートヤマヒガシ",
    "address": "富山県富山市中田２丁目２－２４メゾンヴィレ・マール３０１号 メゾンヴィレ・マール３０１号",
    "lat": 36.7481142,
    "lng": 137.2461258,
    "tel": "０７６－４３７－２０５８",
    "url": "http://www.nichiigakkan.co.jp",
    "pref": "富山県",
    "city": "富山市",
    "category": "home_help",
    "serviceType": "訪問介護",
    "capacity": 0,
    "openDays": [
      "平日",
      "土曜日",
      "日曜日",
      "祝日"
    ],
    "openDaysNote": "居宅サービス計画により、営業時間外であってもサービスを提供する場合があります。（改行）居宅サ－ビス計画により、営業時間外であってもサ－ビス提供を行う場合があります。"
  },
  {
    "id": "1670100450",
    "name": "ニチイケアセンター堀川",
    "kana": "ニチイケアセンターホリカワ",
    "address": "富山市富山市本郷新３６",
    "lat": 36.670142,
    "lng": 137.2295348,
    "tel": "076-420-3440",
    "url": "http:www.nichiigakkan.co.jp",
    "pref": "富山県",
    "city": "富山市",
    "category": "home_help",
    "serviceType": "訪問介護",
    "capacity": 0,
    "openDays": [
      "平日"
    ],
    "openDaysNote": "居宅サービス計画により、休業日であっても、サービス提供を行う場合があります。（改行）居宅サービス計画により、営業時間外であってもサービスを提供を行う場合があります。"
  },
  {
    "id": "1670114832",
    "name": "のむら訪問介護ステーション",
    "kana": "ノムラホウモンカイゴステーション",
    "address": "富山県富山市水橋畠等297",
    "lat": 36.7478653,
    "lng": 137.3069946,
    "tel": "076－479－2515",
    "url": "https://nomura-hospital.jp",
    "pref": "富山県",
    "city": "富山市",
    "category": "home_help",
    "serviceType": "訪問介護",
    "capacity": 0,
    "openDays": [
      "平日",
      "土曜日",
      "日曜日",
      "祝日"
    ],
    "openDaysNote": "サービス時間外のサービス提供を希望される方は、サービス提供責任者に相談してください。"
  },
  {
    "id": "1671500054",
    "name": "ハッピーとやま",
    "kana": "ハッピートヤマ",
    "address": "富山県富山市高畠町1丁目10番17号",
    "lat": 36.7497434,
    "lng": 137.2299737,
    "tel": "076-438-8484",
    "url": "http://www.kaigosoudan.co.jp",
    "pref": "富山県",
    "city": "富山市",
    "category": "home_help",
    "serviceType": "訪問介護",
    "capacity": 0,
    "openDays": [
      "平日",
      "土曜日",
      "日曜日",
      "祝日"
    ],
    "openDaysNote": "担当する訪問介護員に空きがない場合は、ご利用できない場合があります。"
  },
  {
    "id": "1671500088",
    "name": "はなさき苑ホームヘルプセンター",
    "kana": "ハナサキエンホームヘルプセンター",
    "address": "富山県富山市花崎80番地",
    "lat": 36.6100076,
    "lng": 137.2798627,
    "tel": "076-483-3111",
    "url": "http://www.hanasakien.or.jp",
    "pref": "富山県",
    "city": "富山市",
    "category": "home_help",
    "serviceType": "訪問介護",
    "capacity": 0,
    "openDays": [
      "平日",
      "土曜日",
      "日曜日",
      "祝日"
    ],
    "openDaysNote": "なし"
  },
  {
    "id": "1670113362",
    "name": "ファミリーサポートアミーゴ",
    "kana": "ファミリーサポートアミーゴ",
    "address": "富山県富山市茶屋町２１０番地",
    "lat": 36.7125349,
    "lng": 137.1800144,
    "tel": "076-434-1213",
    "url": "",
    "pref": "富山県",
    "city": "富山市",
    "category": "home_help",
    "serviceType": "訪問介護",
    "capacity": 0,
    "openDays": [
      "平日",
      "土曜日",
      "祝日"
    ],
    "openDaysNote": "特記事項"
  },
  {
    "id": "1670112166",
    "name": "フールケア富山ヘルパーステーション",
    "kana": "フールケアトヤマヘルパーステーション",
    "address": "黒瀬北町2丁目3番3",
    "lat": 36.6666974,
    "lng": 137.2021018,
    "tel": "076-493-1245",
    "url": "http://fullcare-c.com/",
    "pref": "富山県",
    "city": "富山市",
    "category": "home_help",
    "serviceType": "訪問介護",
    "capacity": 120,
    "openDays": [
      "平日",
      "土曜日",
      "日曜日",
      "祝日"
    ],
    "openDaysNote": ""
  },
  {
    "id": "1670114675",
    "name": "フールケア訪問介護事業所",
    "kana": "フールケアホウモンカイゴジギョウショ",
    "address": "富山県富山市新庄町2丁目7番10号",
    "lat": 36.7025836151081,
    "lng": 137.258685761881,
    "tel": "076-443-1061",
    "url": "",
    "pref": "富山県",
    "city": "富山市",
    "category": "home_help",
    "serviceType": "訪問介護",
    "capacity": 0,
    "openDays": [
      "平日",
      "土曜日",
      "日曜日",
      "祝日"
    ],
    "openDaysNote": ""
  },
  {
    "id": "1670113099",
    "name": "ふくし百選　ケア・アシスト　あずみ",
    "kana": "フクシヒャクセン　ケア・アシスト　アズミ",
    "address": "富山県富山市上冨居2-2-27",
    "lat": 36.7112205644906,
    "lng": 137.241600697237,
    "tel": "076-482-4721",
    "url": "http://www.hs-k.co.jp/fukushi/index.html",
    "pref": "富山県",
    "city": "富山市",
    "category": "home_help",
    "serviceType": "訪問介護",
    "capacity": 0,
    "openDays": [
      "平日",
      "土曜日",
      "日曜日",
      "祝日"
    ],
    "openDaysNote": ""
  },
  {
    "id": "1671800330",
    "name": "ふるさと敬寿苑ホームヘルパーステーション",
    "kana": "フルサトケイジュエンホームヘルパーステーション",
    "address": "富山県富山市婦中町羽根1092番2",
    "lat": 36.659941,
    "lng": 137.1405192,
    "tel": "076-469-6323",
    "url": "http://www.toyamajonankai.mutsumi-gr.jp/f-keijuen",
    "pref": "富山県",
    "city": "富山市",
    "category": "home_help",
    "serviceType": "訪問介護",
    "capacity": 0,
    "openDays": [
      "平日",
      "土曜日",
      "祝日"
    ],
    "openDaysNote": ""
  },
  {
    "id": "1670112877",
    "name": "ふる里の風訪問介護事業所",
    "kana": "フルサトノカゼホウモンカイゴジギョウショ",
    "address": "富山県富山市上赤江町1-12-6サービス付高齢者住宅内 サービス付高齢者住宅内",
    "lat": 36.7095170212788,
    "lng": 137.232069271164,
    "tel": "076-431-0168",
    "url": "https://furusatonokaze.com/",
    "pref": "富山県",
    "city": "富山市",
    "category": "home_help",
    "serviceType": "訪問介護",
    "capacity": 24,
    "openDays": [
      "平日",
      "土曜日",
      "日曜日",
      "祝日"
    ],
    "openDaysNote": "サービス付高齢者住宅内に併設してある為、入居者様への訪問利用可能時間は２４時間であるが、外部に関しては日中のみとしている。"
  },
  {
    "id": "1670113016",
    "name": "ヘルパ－ステ－ション　すみれ",
    "kana": "ヘルパ－ステ－ション　スミレ",
    "address": "富山県富山市上大久保1585-1サ－ビス付き高齢者向け住宅希望の郷内 サ－ビス付き高齢者向け住宅希望の郷内",
    "lat": 36.5912144,
    "lng": 137.2114777,
    "tel": "076-461-5513",
    "url": "http://kibounosato.toyama.jp/",
    "pref": "富山県",
    "city": "富山市",
    "category": "home_help",
    "serviceType": "訪問介護",
    "capacity": 0,
    "openDays": [
      "平日",
      "土曜日",
      "日曜日",
      "祝日"
    ],
    "openDaysNote": "サ-ビス提供時間、曜日に関しては、３６５日２４時間体制で実施。（改行）居宅サ-ビス計画にそって、サ-ビス提供。"
  },
  {
    "id": "1670102829",
    "name": "ヘルパーステーション　コクエー",
    "kana": "ヘルパーステーション　コクエー",
    "address": "富山市中川原新町２７４－５",
    "lat": 36.6758941,
    "lng": 137.2443722,
    "tel": "076-420-1050",
    "url": "http://www.ctt.ne.jp/~kokue/",
    "pref": "富山県",
    "city": "富山市",
    "category": "home_help",
    "serviceType": "訪問介護",
    "capacity": 0,
    "openDays": [
      "平日"
    ],
    "openDaysNote": "２４時間　年中無休"
  },
  {
    "id": "1670104098",
    "name": "ヘルパーステーション　まる～な",
    "kana": "ヘルパーステーション　マル～ナ",
    "address": "富山県富山市月見町４丁目42番地",
    "lat": 36.6293274,
    "lng": 137.2451874,
    "tel": "076-429-5740",
    "url": "",
    "pref": "富山県",
    "city": "富山市",
    "category": "home_help",
    "serviceType": "訪問介護",
    "capacity": 0,
    "openDays": [
      "平日",
      "土曜日",
      "祝日"
    ],
    "openDaysNote": ""
  },
  {
    "id": "1670114295",
    "name": "ヘルパーステーション　リベロ",
    "kana": "ヘルパーステーション　リベロ",
    "address": "富山県富山市二口町５－５－１０ブルートA201 ブルートA201",
    "lat": 36.6680235749427,
    "lng": 137.203347343432,
    "tel": "076-422-0180",
    "url": "http://hp.kaipoke.biz/h4c",
    "pref": "富山県",
    "city": "富山市",
    "category": "home_help",
    "serviceType": "訪問介護",
    "capacity": 40,
    "openDays": [
      "平日",
      "土曜日",
      "日曜日",
      "祝日"
    ],
    "openDaysNote": "時間外に関しては、担当介護支援専門員と相談連絡をして調整をさせていただき出来る限り対応をさせていただきます。また、突発的な案件に対しても同様です。"
  },
  {
    "id": "1670114584",
    "name": "ヘルパーステーションありがとうホーム",
    "kana": "ヘルパ－ステーションアリガトウホーム",
    "address": "富山県富山市東町1-5-8クリスタルビル201 クリスタルビル201",
    "lat": 36.690936,
    "lng": 137.2386549,
    "tel": "076-482-3239",
    "url": "",
    "pref": "富山県",
    "city": "富山市",
    "category": "home_help",
    "serviceType": "訪問介護",
    "capacity": 0,
    "openDays": [
      "平日",
      "土曜日",
      "日曜日",
      "祝日"
    ],
    "openDaysNote": ""
  },
  {
    "id": "1670115300",
    "name": "ヘルパーステーションくるり",
    "kana": "ヘルパーステーションクルリ",
    "address": "月岡町６丁目1313-1",
    "lat": 36.6305272,
    "lng": 137.2430042,
    "tel": "076-482-6027",
    "url": "andkururi.net",
    "pref": "富山県",
    "city": "富山市",
    "category": "home_help",
    "serviceType": "訪問介護",
    "capacity": 0,
    "openDays": [
      "平日"
    ],
    "openDaysNote": ""
  },
  {
    "id": "1671500229",
    "name": "ヘルパーステーションケアーズおおさわの",
    "kana": "ヘルパーステーション　ケアーズオオサワノ",
    "address": "富山県富山市上二杉４２０－２",
    "lat": 36.5910172,
    "lng": 137.2026619,
    "tel": "076-468-8114",
    "url": "http://www.toyama-souseikai.or.jp",
    "pref": "富山県",
    "city": "富山市",
    "category": "home_help",
    "serviceType": "訪問介護",
    "capacity": 0,
    "openDays": [
      "平日",
      "土曜日",
      "日曜日",
      "祝日"
    ],
    "openDaysNote": "定休日は祝日、お盆、正月ですが、訪問介護員の派遣は常時対応"
  },
  {
    "id": "1670104007",
    "name": "ヘルパーステーションささえ愛",
    "kana": "ヘルパーステーションササエアイ",
    "address": "富山市中島３丁目１番１号",
    "lat": 36.7217681,
    "lng": 137.2186029,
    "tel": "076-471-5425",
    "url": "",
    "pref": "富山県",
    "city": "富山市",
    "category": "home_help",
    "serviceType": "訪問介護",
    "capacity": 0,
    "openDays": [
      "平日",
      "土曜日",
      "日曜日",
      "祝日"
    ],
    "openDaysNote": ""
  },
  {
    "id": "1670104122",
    "name": "ヘルパーステーションすこやか富山",
    "kana": "ヘルパーステーションスコヤカトヤマ",
    "address": "富山市大泉東町１丁目２－１４",
    "lat": 36.6834126139134,
    "lng": 137.227826225166,
    "tel": "076-407-0155",
    "url": "",
    "pref": "富山県",
    "city": "富山市",
    "category": "home_help",
    "serviceType": "訪問介護",
    "capacity": null,
    "openDays": [
      "平日",
      "土曜日",
      "日曜日",
      "祝日"
    ],
    "openDaysNote": "19：００～翌7：００は応相談"
  },
  {
    "id": "1670114881",
    "name": "ヘルパーステーションなないろ",
    "kana": "ヘルパーステーションナナイロ",
    "address": "富山県富山市長江本町18番1号",
    "lat": 36.6859803,
    "lng": 137.2421454,
    "tel": "076-493-7716",
    "url": "http://yua-nanairo.jp/",
    "pref": "富山県",
    "city": "富山市",
    "category": "home_help",
    "serviceType": "訪問介護",
    "capacity": null,
    "openDays": [
      "平日",
      "土曜日",
      "日曜日",
      "祝日"
    ],
    "openDaysNote": ""
  },
  {
    "id": "1670115011",
    "name": "ヘルパーステーションふれあいの里ひろた",
    "kana": "ヘルパーステーションフレアイノサトヒロタ",
    "address": "富山県富山市鍋田17-50",
    "lat": 36.7144937,
    "lng": 137.2448457,
    "tel": "076-482-3091",
    "url": "https://fureai-hirota.jp.net/",
    "pref": "富山県",
    "city": "富山市",
    "category": "home_help",
    "serviceType": "訪問介護",
    "capacity": null,
    "openDays": [
      "平日",
      "土曜日",
      "日曜日",
      "祝日"
    ],
    "openDaysNote": "営業日・営業時間のほか、電話等により２４時間常時連絡可能な体制とし、必要であれば応じます。"
  },
  {
    "id": "1670112356",
    "name": "ヘルパーステーションマーガレット",
    "kana": "ヘルパーステーションマーガレット",
    "address": "富山市西長江2丁目3-47",
    "lat": 36.6931208386538,
    "lng": 137.239027891485,
    "tel": "076-493-8003",
    "url": "http://margaret.toyama.jp",
    "pref": "富山県",
    "city": "富山市",
    "category": "home_help",
    "serviceType": "訪問介護",
    "capacity": 0,
    "openDays": [
      "平日",
      "土曜日",
      "日曜日",
      "祝日"
    ],
    "openDaysNote": "電話等により、営業時間外の連絡が可能な体制を取るようにします。（改行）居宅サービス計画により、休業日及び営業時間外であってもサービスを提供することがあります。"
  },
  {
    "id": "1670104338",
    "name": "ヘルパーステーションみんなの輪",
    "kana": "ヘルパーステーションミンナノワ",
    "address": "富山県富山市大宮町24番地",
    "lat": 36.6604945925757,
    "lng": 137.247401862284,
    "tel": "076-423-0038",
    "url": "http://www.minnanowa.co.jp",
    "pref": "富山県",
    "city": "富山市",
    "category": "home_help",
    "serviceType": "訪問介護",
    "capacity": 0,
    "openDays": [
      "平日",
      "土曜日",
      "日曜日",
      "祝日"
    ],
    "openDaysNote": "年中無休（但し、１２月３１日～１月３日を除く）"
  },
  {
    "id": "1670102720",
    "name": "ヘルパーステーションわかな",
    "kana": "ヘルパーステーションワカナ",
    "address": "富山市上赤江町２－８－４４－１",
    "lat": 36.7103003,
    "lng": 137.2294134,
    "tel": "０７６－４４２－２８０８",
    "url": "",
    "pref": "富山県",
    "city": "富山市",
    "category": "home_help",
    "serviceType": "訪問介護",
    "capacity": 0,
    "openDays": [
      "平日",
      "土曜日",
      "日曜日",
      "祝日"
    ],
    "openDaysNote": "なし"
  },
  {
    "id": "1670115003",
    "name": "ヘルパーステーション愛の家",
    "kana": "ヘルパーステーションアイノイエ",
    "address": "富山市西緑町134",
    "lat": 36.6174935,
    "lng": 137.2456944,
    "tel": "076-481-6483",
    "url": "",
    "pref": "富山県",
    "city": "富山市",
    "category": "home_help",
    "serviceType": "訪問介護",
    "capacity": null,
    "openDays": [
      "平日",
      "土曜日",
      "日曜日",
      "祝日"
    ],
    "openDaysNote": "利用者の希望に応じて24時間対応可能な体制を整えるものとします。「"
  },
  {
    "id": "1670113206",
    "name": "ヘルパーステーション鵜坂",
    "kana": "ヘルパーステーション　ウサカ",
    "address": "富山県富山市婦中町鵜坂139",
    "lat": 36.6748209,
    "lng": 137.1886144,
    "tel": "076-461-3496",
    "url": "http://www.toyama-hiyori.jp/",
    "pref": "富山県",
    "city": "富山市",
    "category": "home_help",
    "serviceType": "訪問介護",
    "capacity": null,
    "openDays": [
      "平日",
      "土曜日",
      "日曜日",
      "祝日"
    ],
    "openDaysNote": "サービス付高齢者向け住宅に併設してあるため、入居者様への訪問介護が中心となっています"
  },
  {
    "id": "1670112240",
    "name": "ヘルパーステーション永楽",
    "kana": "ヘルパーステーションエイラク",
    "address": "永楽町41番22号",
    "lat": 36.7026843,
    "lng": 137.2201949,
    "tel": "076-432-7810",
    "url": "http://www.asunaronosato.jp",
    "pref": "富山県",
    "city": "富山市",
    "category": "home_help",
    "serviceType": "訪問介護",
    "capacity": 47,
    "openDays": [
      "平日",
      "土曜日",
      "日曜日",
      "祝日"
    ],
    "openDaysNote": ""
  },
  {
    "id": "1670104262",
    "name": "ヘルパーステーション花みずき",
    "kana": "ヘルパーステーションハナミズキ",
    "address": "富山県富山市稲荷町4丁目3-16",
    "lat": 36.696355,
    "lng": 137.233586,
    "tel": "076-444-5353",
    "url": "https://www.kaiboufukushi.com/",
    "pref": "富山県",
    "city": "富山市",
    "category": "home_help",
    "serviceType": "訪問介護",
    "capacity": 0,
    "openDays": [
      "平日",
      "土曜日",
      "日曜日",
      "祝日"
    ],
    "openDaysNote": "２４時間常時連絡可能な体制とし、必要であれば応じます。"
  },
  {
    "id": "1670104841",
    "name": "ヘルパーステーション花みずき弐番館",
    "kana": "ヘルパーステーションハナミズキニバンカン",
    "address": "富山県富山市曙町2番23号",
    "lat": 36.7002348,
    "lng": 137.2254668,
    "tel": "076-471-5002",
    "url": "https://www.kaiboufukushi.com/",
    "pref": "富山県",
    "city": "富山市",
    "category": "home_help",
    "serviceType": "訪問介護",
    "capacity": 0,
    "openDays": [
      "平日",
      "土曜日",
      "日曜日",
      "祝日"
    ],
    "openDaysNote": ""
  },
  {
    "id": "1670113511",
    "name": "ヘルパーステーション金泉寺",
    "kana": "ヘルパーステーションキンセンジ",
    "address": "富山県富山市手屋3丁目8-40",
    "lat": 36.7186260010505,
    "lng": 137.26597463373,
    "tel": "076-456-3292",
    "url": "http://selfcaresupport.racms.jp/",
    "pref": "富山県",
    "city": "富山市",
    "category": "home_help",
    "serviceType": "訪問介護",
    "capacity": 0,
    "openDays": [
      "平日",
      "土曜日",
      "日曜日",
      "祝日"
    ],
    "openDaysNote": "サービス提供日は３６５日"
  },
  {
    "id": "1670114923",
    "name": "ヘルパーステーション心",
    "kana": "ヘルパーステーションココロ",
    "address": "富山県富山市元町1丁目3番22号矢郷ビル1F 矢郷ビル1F",
    "lat": 36.6889045,
    "lng": 137.2293265,
    "tel": "076-422-3008",
    "url": "https://daiichi-home-build.com/",
    "pref": "富山県",
    "city": "富山市",
    "category": "home_help",
    "serviceType": "訪問介護",
    "capacity": 0,
    "openDays": [
      "平日",
      "土曜日",
      "日曜日",
      "祝日"
    ],
    "openDaysNote": "ケアープランに基づく"
  },
  {
    "id": "1670114063",
    "name": "ヘルパーステーション針原",
    "kana": "ヘルパーステーションハリハラ",
    "address": "富山県富山市針原中町355番地",
    "lat": 36.724508,
    "lng": 137.2642495,
    "tel": "080-1960-7448",
    "url": "http://seikeikaitoyama.com/",
    "pref": "富山県",
    "city": "富山市",
    "category": "home_help",
    "serviceType": "訪問介護",
    "capacity": 0,
    "openDays": [
      "平日",
      "土曜日",
      "日曜日",
      "祝日"
    ],
    "openDaysNote": ""
  },
  {
    "id": "1670103892",
    "name": "ヘルパーステーション虹の丘",
    "kana": "ヘルパーステーションニジノオカ",
    "address": "富山県富山市水橋小路287-1",
    "lat": 36.7208898,
    "lng": 137.2914333,
    "tel": "076-478-1444",
    "url": "http://www.jecs.jp/",
    "pref": "富山県",
    "city": "富山市",
    "category": "home_help",
    "serviceType": "訪問介護",
    "capacity": 35,
    "openDays": [
      "平日",
      "土曜日",
      "日曜日",
      "祝日"
    ],
    "openDaysNote": "営業日　365日／営業時間24時間。　サービス提供時間は、事前に居宅介護支援事業者等により計画された居宅サービス計画に基づくものとし、原則として緊急のサービス依頼をお受兼ねます。ご了承ください。"
  },
  {
    "id": "1670112869",
    "name": "ヘルパーステーション和合",
    "kana": "ヘルパーステーションワゴウ",
    "address": "富山市布目１９６６番地1特別養護老人ホーム　和合ハイツ 特別養護老人ホーム　和合ハイツ",
    "lat": 36.7468618,
    "lng": 137.1904314,
    "tel": "076-435-3336",
    "url": "http://wagoufukushikai.com",
    "pref": "富山県",
    "city": "富山市",
    "category": "home_help",
    "serviceType": "訪問介護",
    "capacity": 0,
    "openDays": [
      "平日",
      "土曜日",
      "日曜日",
      "祝日"
    ],
    "openDaysNote": "※年末年始(12/29～1/3)、期間についても原則対応させていただいております。但し状況に応じてご相談させていただく場合がございます。"
  },
  {
    "id": "1670103884",
    "name": "ヘルパーセンター『みらい』",
    "kana": "ヘルパーセンター『ミライ』",
    "address": "富山市下赤江町2-3-14",
    "lat": 36.7161553,
    "lng": 137.2327186,
    "tel": "076-443-9255",
    "url": "",
    "pref": "富山県",
    "city": "富山市",
    "category": "home_help",
    "serviceType": "訪問介護",
    "capacity": 5,
    "openDays": [
      "平日",
      "土曜日",
      "日曜日",
      "祝日"
    ],
    "openDaysNote": ""
  },
  {
    "id": "1670103017",
    "name": "ヘルパーセンターコロネット",
    "kana": "ヘルパーセンターコロネット",
    "address": "富山県富山市堀川町374番地2",
    "lat": 36.6654924,
    "lng": 137.215067,
    "tel": "076-421-2181",
    "url": "http://coronet-t.com/",
    "pref": "富山県",
    "city": "富山市",
    "category": "home_help",
    "serviceType": "訪問介護",
    "capacity": 0,
    "openDays": [
      "平日",
      "土曜日",
      "日曜日",
      "祝日"
    ],
    "openDaysNote": ""
  },
  {
    "id": "1670104460",
    "name": "ヘルパーセンターセンチュリー",
    "kana": "ヘルパーセンターセンチュリー",
    "address": "富山市金代7番地",
    "lat": 36.6887270624891,
    "lng": 137.258389875926,
    "tel": "076-420-5110",
    "url": "carecentury@wave.plala.or.jp",
    "pref": "富山県",
    "city": "富山市",
    "category": "home_help",
    "serviceType": "訪問介護",
    "capacity": 19,
    "openDays": [
      "平日",
      "土曜日",
      "日曜日",
      "祝日"
    ],
    "openDaysNote": "特になし"
  },
  {
    "id": "1670104726",
    "name": "ヘルパーセンターフィール",
    "kana": "ヘルパーセンターフィール",
    "address": "黒瀬435−1",
    "lat": 36.6612864462813,
    "lng": 137.201723825828,
    "tel": "076-413-3730",
    "url": "http://feel-kaigo.jp/",
    "pref": "富山県",
    "city": "富山市",
    "category": "home_help",
    "serviceType": "訪問介護",
    "capacity": 0,
    "openDays": [
      "平日",
      "土曜日",
      "日曜日",
      "祝日"
    ],
    "openDaysNote": "サービス提供時間は、事前に居宅支援事業所等により計画された居宅サービス計画に基づくものとし、原則として緊急のサービス依頼をお受けすることは出来ません。（改行）24時間のサービス提供可能"
  },
  {
    "id": "1670115045",
    "name": "ヘルパー処あんき家",
    "kana": "ヘルパードコロアンキヤ",
    "address": "富山県富山市常盤台16番12号",
    "lat": 36.6925796426626,
    "lng": 137.252532094443,
    "tel": "090-6018-3737",
    "url": "https://www.ankiya-helper.com/",
    "pref": "富山県",
    "city": "富山市",
    "category": "home_help",
    "serviceType": "訪問介護",
    "capacity": null,
    "openDays": [
      "平日",
      "土曜日",
      "日曜日",
      "祝日"
    ],
    "openDaysNote": ""
  },
  {
    "id": "1670102316",
    "name": "ホームヘルプサービスしおんの家",
    "kana": "ホームヘルプサービスシオンノイエ",
    "address": "富山市水橋辻ヶ堂801番地1",
    "lat": 36.7549134456877,
    "lng": 137.296132510451,
    "tel": "076-471-5072",
    "url": "http://www.toyamagata.com/sionnoie",
    "pref": "富山県",
    "city": "富山市",
    "category": "home_help",
    "serviceType": "訪問介護",
    "capacity": 0,
    "openDays": [
      "平日",
      "土曜日"
    ],
    "openDaysNote": "上記以外の曜日、時間についても、ご相談に応じます。"
  },
  {
    "id": "1670114857",
    "name": "ホームヘルプサービス乙姫",
    "kana": "ホームヘルプサービスオトヒメ",
    "address": "富山県富山市堀川小泉町1-10-8　日之出ハイツ102",
    "lat": 36.6780111411502,
    "lng": 137.222695897812,
    "tel": "076-482-4402",
    "url": "",
    "pref": "富山県",
    "city": "富山市",
    "category": "home_help",
    "serviceType": "訪問介護",
    "capacity": 0,
    "openDays": [
      "平日",
      "土曜日",
      "日曜日",
      "祝日"
    ],
    "openDaysNote": "電話等により、24時間常時連絡が可能な体制とする。"
  },
  {
    "id": "1670115318",
    "name": "みどり苑ケアステーション",
    "kana": "ミドリエンケアステーション",
    "address": "富山県富山市秋ケ島146-1",
    "lat": 36.6447224,
    "lng": 137.1931388,
    "tel": "076-428-5565",
    "url": "http://www.sainouhp.or.jp/~midori/",
    "pref": "富山県",
    "city": "富山市",
    "category": "home_help",
    "serviceType": "訪問介護",
    "capacity": null,
    "openDays": [
      "平日",
      "祝日"
    ],
    "openDaysNote": ""
  },
  {
    "id": "1670115508",
    "name": "もなみヘルパーステーション",
    "kana": "モナミヘルパーステーション",
    "address": "富山県富山市太郎丸本町一丁目10番23住宅型有料老人ホーム　シニアライフもなみ内 住宅型有料老人ホーム　シニアライフもなみ内",
    "lat": 36.6773813,
    "lng": 137.2123813,
    "tel": "076-481-6363",
    "url": "monami-heIper＠jonankai,or.ip",
    "pref": "富山県",
    "city": "富山市",
    "category": "home_help",
    "serviceType": "訪問介護",
    "capacity": 0,
    "openDays": [
      "平日"
    ],
    "openDaysNote": "利用者からの希望がありそれに対応可能な場合はこの限りでない。"
  },
  {
    "id": "1670112117",
    "name": "花いちごヘルパーステーション",
    "kana": "ハナイチゴヘルパーステーション",
    "address": "富山県富山市上冨居2-9-38",
    "lat": 36.7084232,
    "lng": 137.2435043,
    "tel": "０７６－４５６－９９０８",
    "url": "http://www.hokusei-kai.org",
    "pref": "富山県",
    "city": "富山市",
    "category": "home_help",
    "serviceType": "訪問介護",
    "capacity": 0,
    "openDays": [
      "平日",
      "土曜日",
      "祝日"
    ],
    "openDaysNote": ""
  },
  {
    "id": "1670114840",
    "name": "株式会社　Ｈ・クオリティ．タケダ",
    "kana": "カブシキガイシャ　エイチ　クオリティ　タケダ",
    "address": "富山県富山市下堀５１番１号",
    "lat": 36.6612409022162,
    "lng": 137.226302940189,
    "tel": "076-464-3735",
    "url": "https://horikawa-minami.jp/",
    "pref": "富山県",
    "city": "富山市",
    "category": "home_help",
    "serviceType": "訪問介護",
    "capacity": 0,
    "openDays": [
      "平日"
    ],
    "openDaysNote": ""
  },
  {
    "id": "1670102928",
    "name": "株式会社ケア・ワールド",
    "kana": "カブシキガイシャ　ケア・ワールド",
    "address": "富山県富山市布瀬町南2丁目9番地2",
    "lat": 36.6744543,
    "lng": 137.2022055,
    "tel": "076-422-7003",
    "url": "www.cwn.web.co.jp",
    "pref": "富山県",
    "city": "富山市",
    "category": "home_help",
    "serviceType": "訪問介護",
    "capacity": 5,
    "openDays": [
      "平日"
    ],
    "openDaysNote": "月曜から日曜（改行）24時間"
  },
  {
    "id": "1670100203",
    "name": "吉田内科クリニック・ホームヘルプサービス有限会社",
    "kana": "ヨシダナイカクリニック・ホームヘルプサービスユウゲンカイシャ",
    "address": "富山県富山市吉作365-6",
    "lat": 36.710249,
    "lng": 137.1646356,
    "tel": "076-427-1228",
    "url": "",
    "pref": "富山県",
    "city": "富山市",
    "category": "home_help",
    "serviceType": "訪問介護",
    "capacity": 0,
    "openDays": [
      "平日",
      "土曜日"
    ],
    "openDaysNote": "なし"
  },
  {
    "id": "1670100526",
    "name": "敬寿苑ホームヘルパーステーション",
    "kana": "ケイジュエンホームヘルパーステーション",
    "address": "富山県富山市今泉西部町12番地１",
    "lat": 36.6735434161535,
    "lng": 137.209067499008,
    "tel": "076-491-0300",
    "url": "https://toyamajonankai.mutsumi-gr.jp/keijuen/",
    "pref": "富山県",
    "city": "富山市",
    "category": "home_help",
    "serviceType": "訪問介護",
    "capacity": 0,
    "openDays": [
      "平日",
      "土曜日",
      "日曜日",
      "祝日"
    ],
    "openDaysNote": ""
  },
  {
    "id": "1670100625",
    "name": "光風会みまもりステーション",
    "kana": "コウフウカイミマモリステーション",
    "address": "富山県富山市本郷町262-15堀川南光風苑　ぬくもり館 堀川南光風苑　ぬくもり館",
    "lat": 36.6630334341517,
    "lng": 137.232885034858,
    "tel": "076-464-3353",
    "url": "https://koufuukai.jp/",
    "pref": "富山県",
    "city": "富山市",
    "category": "home_help",
    "serviceType": "訪問介護",
    "capacity": null,
    "openDays": [
      "平日",
      "土曜日",
      "祝日"
    ],
    "openDaysNote": ""
  },
  {
    "id": "1670111945",
    "name": "合同会社　サポートハウス　牧さん家",
    "kana": "ゴウドウガイシャ　サポートハウス　マキサンチ",
    "address": "富山市西長江２丁目１－２",
    "lat": 36.6943165,
    "lng": 137.2369692,
    "tel": "076-422-7217",
    "url": "",
    "pref": "富山県",
    "city": "富山市",
    "category": "home_help",
    "serviceType": "訪問介護",
    "capacity": 0,
    "openDays": [
      "平日",
      "土曜日",
      "日曜日",
      "祝日"
    ],
    "openDaysNote": "早朝・１７時以降は要相談。"
  },
  {
    "id": "1670115532",
    "name": "彩和ヘルパーステーション",
    "kana": "イロワヘルパーステーション",
    "address": "千成町33番15号",
    "lat": 36.7172941,
    "lng": 137.2455804,
    "tel": "076-456-8715",
    "url": "",
    "pref": "富山県",
    "city": "富山市",
    "category": "home_help",
    "serviceType": "訪問介護",
    "capacity": 10,
    "openDays": [
      "平日",
      "土曜日",
      "祝日"
    ],
    "openDaysNote": ""
  },
  {
    "id": "1670103355",
    "name": "在宅介護あおい",
    "kana": "ザイタクカイゴアオイ",
    "address": "富山県富山市下奥井1丁目4番2号",
    "lat": 36.7145803,
    "lng": 137.2251608,
    "tel": "076-482-4917",
    "url": "http://kaigoaoi.ec-net.jp",
    "pref": "富山県",
    "city": "富山市",
    "category": "home_help",
    "serviceType": "訪問介護",
    "capacity": 0,
    "openDays": [
      "平日",
      "土曜日",
      "日曜日",
      "祝日"
    ],
    "openDaysNote": "上記以外の曜日・時間についてのサービスについて、特別の事由がある場合は、利用者と事業者の協議によりサービスを提供することがあります。"
  },
  {
    "id": "1670112448",
    "name": "桜谷の里ヘルパーステーション",
    "kana": "サクラダニノサトヘルパーステーション",
    "address": "富山市石坂新８３０番地1",
    "lat": 36.7153905,
    "lng": 137.1990116,
    "tel": "076－444－8840",
    "url": "http://www.byakkouen.jp",
    "pref": "富山県",
    "city": "富山市",
    "category": "home_help",
    "serviceType": "訪問介護",
    "capacity": 0,
    "openDays": [
      "平日",
      "土曜日",
      "祝日"
    ],
    "openDaysNote": "これ以外の時間帯については要相談。"
  },
  {
    "id": "1670100393",
    "name": "三寿苑介護サービスセンター",
    "kana": "サンジュエンカイゴサービスセンター",
    "address": "富山市大島三丁目１４７番地",
    "lat": 36.6740811,
    "lng": 137.2780304,
    "tel": "076-492-3012",
    "url": "http://www.sannjyukai.jp/index.html",
    "pref": "富山県",
    "city": "富山市",
    "category": "home_help",
    "serviceType": "訪問介護",
    "capacity": 55,
    "openDays": [
      "平日",
      "土曜日",
      "日曜日",
      "祝日"
    ],
    "openDaysNote": ""
  },
  {
    "id": "1670114303",
    "name": "山田地域福祉事業所　雪つばき",
    "kana": "ヤマダチイキフクシジギョウショ　ユキツバキ",
    "address": "富山県富山市山田湯935",
    "lat": 36.5797625,
    "lng": 137.0809538,
    "tel": "764572272",
    "url": "jwcu.coop",
    "pref": "富山県",
    "city": "富山市",
    "category": "home_help",
    "serviceType": "訪問介護",
    "capacity": 0,
    "openDays": [
      "平日",
      "土曜日",
      "日曜日",
      "祝日"
    ],
    "openDaysNote": "相談により対応いたします。"
  },
  {
    "id": "1670102191",
    "name": "紙ふうせん",
    "kana": "カミフウセン",
    "address": "富山県富山市犬島三丁目８番２３号",
    "lat": 36.7350503,
    "lng": 137.2338235,
    "tel": "076-437-9688",
    "url": "",
    "pref": "富山県",
    "city": "富山市",
    "category": "home_help",
    "serviceType": "訪問介護",
    "capacity": 0,
    "openDays": [
      "平日",
      "土曜日",
      "祝日"
    ],
    "openDaysNote": "上記以外の日時相談に応じます"
  },
  {
    "id": "1670104585",
    "name": "若葉会訪問介護事業所",
    "kana": "ワカバカイホウモンカイゴジギョウショ",
    "address": "富山市石金１丁目２番３０号",
    "lat": 36.6888227,
    "lng": 137.2303477,
    "tel": "076-461-4403",
    "url": "http://www.wakabakaimedical.com/",
    "pref": "富山県",
    "city": "富山市",
    "category": "home_help",
    "serviceType": "訪問介護",
    "capacity": 0,
    "openDays": [
      "平日",
      "土曜日",
      "日曜日",
      "祝日"
    ],
    "openDaysNote": "緊急の場合は上記営業時間以外であっても対応いたします。"
  },
  {
    "id": "1670104288",
    "name": "笑ひ　訪問介護",
    "kana": "ワライ　ホウモンカイゴ",
    "address": "富山市五福4区116",
    "lat": 36.7037788,
    "lng": 137.1860629,
    "tel": "076-433-0128",
    "url": "https://www.warai2525.com/",
    "pref": "富山県",
    "city": "富山市",
    "category": "home_help",
    "serviceType": "訪問介護",
    "capacity": 0,
    "openDays": [
      "平日",
      "土曜日",
      "日曜日",
      "祝日"
    ],
    "openDaysNote": ""
  },
  {
    "id": "1670104817",
    "name": "新庄ヒルズヘルパーステーション",
    "kana": "シンジョウヒルズヘルパーステーション",
    "address": "富山市向新庄町4丁目１４－４８",
    "lat": 36.7036811,
    "lng": 137.267103,
    "tel": "076-451-8017",
    "url": "http：//www.shinjyou-hills.jp/",
    "pref": "富山県",
    "city": "富山市",
    "category": "home_help",
    "serviceType": "訪問介護",
    "capacity": 0,
    "openDays": [
      "平日",
      "土曜日",
      "日曜日",
      "祝日"
    ],
    "openDaysNote": "夜間帯のサービス時間は要相談"
  },
  {
    "id": "1670100377",
    "name": "翠十字会ホームヘルパーステーション",
    "kana": "ミドリジュウジカイ",
    "address": "富山県富山市上千俵町９８－１番地",
    "lat": 36.6269555,
    "lng": 137.244307,
    "tel": "076-429-4038",
    "url": "",
    "pref": "富山県",
    "city": "富山市",
    "category": "home_help",
    "serviceType": "訪問介護",
    "capacity": 0,
    "openDays": [
      "平日",
      "土曜日",
      "祝日"
    ],
    "openDaysNote": "定休日の利用については、特別な事由がある場合は、契約者と事業者との協議によりサービスを提供することがあります。"
  },
  {
    "id": "1670104577",
    "name": "晴風荘ホームヘルパーステーション",
    "kana": "セイフウソウホームヘルパーステーション",
    "address": "富山県富山市水橋辻",
    "lat": 36.7459844,
    "lng": 137.2978486,
    "tel": "076-478-3364",
    "url": "http://seifusou.e-294.net/",
    "pref": "富山県",
    "city": "富山市",
    "category": "home_help",
    "serviceType": "訪問介護",
    "capacity": null,
    "openDays": [
      "平日",
      "土曜日"
    ],
    "openDaysNote": ""
  },
  {
    "id": "1670113636",
    "name": "正栄ウェルフェア長江訪問介護事業所",
    "kana": "ショウエイウェルフェアナガエホウモンカイゴジギョウショ",
    "address": "二口町５丁目１０－６",
    "lat": 36.668145764601,
    "lng": 137.20209061888,
    "tel": "076-423-0377",
    "url": "http://www.shoei-welfare.net/",
    "pref": "富山県",
    "city": "富山市",
    "category": "home_help",
    "serviceType": "訪問介護",
    "capacity": null,
    "openDays": [],
    "openDaysNote": "必要に応じ24時間対応"
  },
  {
    "id": "1670112265",
    "name": "正栄ウェルフェア訪問介護事業所",
    "kana": "ショウエイウェルフェアホウモンカイゴジギョウショ",
    "address": "富山市秋吉１４７－１",
    "lat": 36.6769522588381,
    "lng": 137.247074708341,
    "tel": "076-493-3355",
    "url": "http://www.shoei-welfare.net/",
    "pref": "富山県",
    "city": "富山市",
    "category": "home_help",
    "serviceType": "訪問介護",
    "capacity": 95,
    "openDays": [
      "平日",
      "土曜日",
      "日曜日",
      "祝日"
    ],
    "openDaysNote": "要望があれば２４時間対応可能。"
  },
  {
    "id": "1671800413",
    "name": "椿寿荘ヘルパーステーション",
    "kana": "チンジュソウヘルパーステーション",
    "address": "富山県富山市八尾町奥田80番地",
    "lat": 36.6186518,
    "lng": 137.1311624,
    "tel": "076-461-4766",
    "url": "http://keiju-kai.jp/",
    "pref": "富山県",
    "city": "富山市",
    "category": "home_help",
    "serviceType": "訪問介護",
    "capacity": 4,
    "openDays": [
      "平日",
      "土曜日"
    ],
    "openDaysNote": "利用者の希望に応じて営業時間外であっても対応します"
  },
  {
    "id": "1670111937",
    "name": "天正寺サポートセンター",
    "kana": "テンショウジサポートセンター",
    "address": "富山市天正寺４８４番地1",
    "lat": 36.6870483,
    "lng": 137.2492852,
    "tel": "076-411-4040",
    "url": "http://www.imizu-manyoukai.or.jp",
    "pref": "富山県",
    "city": "富山市",
    "category": "home_help",
    "serviceType": "訪問介護",
    "capacity": 0,
    "openDays": [
      "平日",
      "土曜日",
      "日曜日",
      "祝日"
    ],
    "openDaysNote": ""
  },
  {
    "id": "1670100906",
    "name": "富山リハビリホームヘルプサービス事業所",
    "kana": "トヤマリハビリホームヘルプサービスジギョウショ",
    "address": "富山市丸の内2丁目3番8号",
    "lat": 36.6914745,
    "lng": 137.2085167,
    "tel": "076-425-1350",
    "url": "",
    "pref": "富山県",
    "city": "富山市",
    "category": "home_help",
    "serviceType": "訪問介護",
    "capacity": 0,
    "openDays": [
      "平日",
      "土曜日",
      "祝日"
    ],
    "openDaysNote": "時間外は、相談可"
  },
  {
    "id": "1660190016",
    "name": "富山医療生活協同組合　在宅福祉総合センターひまわり　ヘルパーステーション",
    "kana": "トヤマイリョウセイカツキョウドウクミアイ　ザイタクフクシソウゴウセンターヒマワリ　ヘルパーステーション",
    "address": "富山市粟島２丁目２－１",
    "lat": 36.724432,
    "lng": 137.2311796,
    "tel": "076-433-2592",
    "url": "http://www.toyama-hcoop.com",
    "pref": "富山県",
    "city": "富山市",
    "category": "home_help",
    "serviceType": "訪問介護",
    "capacity": 0,
    "openDays": [
      "平日",
      "土曜日",
      "日曜日",
      "祝日"
    ],
    "openDaysNote": "日曜・祝日・・・ご要望があれば応じます。"
  },
  {
    "id": "1670115177",
    "name": "富山県富山市花園町３丁目４－１９ＡＫビル３階",
    "kana": "ヘルパーステーションカルシア",
    "address": "富山県富山市花園町３丁目４－１９AKビル３階 AKビル３階",
    "lat": 36.6798553,
    "lng": 137.2091385,
    "tel": "8050480324",
    "url": "",
    "pref": "富山県",
    "city": "富山市",
    "category": "home_help",
    "serviceType": "訪問介護",
    "capacity": 0,
    "openDays": [
      "平日"
    ],
    "openDaysNote": ""
  },
  {
    "id": "1670114816",
    "name": "富山西ヘルパーステーション",
    "kana": "トヤマニシヘルパーステーション",
    "address": "富山県富山市婦中町下轡田1001ラ・サンテ富山西 ラ・サンテ富山西",
    "lat": 36.6599412243844,
    "lng": 137.17281081891,
    "tel": "076-405-9310",
    "url": "http://toyama-nishi.jp/",
    "pref": "富山県",
    "city": "富山市",
    "category": "home_help",
    "serviceType": "訪問介護",
    "capacity": null,
    "openDays": [
      "平日",
      "土曜日",
      "祝日"
    ],
    "openDaysNote": ""
  },
  {
    "id": "1670100849",
    "name": "富山地域福祉事業所サポートハウスぽぴー",
    "kana": "トヤマチイキフクシジギョウショサポートハウスポピー",
    "address": "富山県富山市寺町けや木台71",
    "lat": 36.6987167635453,
    "lng": 137.175241452406,
    "tel": "076-444-8633",
    "url": "",
    "pref": "富山県",
    "city": "富山市",
    "category": "home_help",
    "serviceType": "訪問介護",
    "capacity": 0,
    "openDays": [
      "平日",
      "土曜日",
      "日曜日",
      "祝日"
    ],
    "openDaysNote": "お盆、年末年始は相談により対応します。（改行）平常の時間帯以外の時間帯でサービスを行う場合には次の割合で利用料金に割増料金が加算されます。夜間25％、早朝25％、深夜50％"
  },
  {
    "id": "1670114790",
    "name": "訪問介護　ひとと樹",
    "kana": "ホウモンカイゴ　ヒトトキ",
    "address": "富山県富山市町村69-1",
    "lat": 36.6836165,
    "lng": 137.2522105,
    "tel": "764616970",
    "url": "",
    "pref": "富山県",
    "city": "富山市",
    "category": "home_help",
    "serviceType": "訪問介護",
    "capacity": 30,
    "openDays": [
      "平日",
      "土曜日",
      "日曜日",
      "祝日"
    ],
    "openDaysNote": "①　営業日　365日　②　営業時間　24時間　③　連絡体制　電話等により、24時間常時連絡が可能な体制をとっています。"
  },
  {
    "id": "1670114931",
    "name": "訪問介護　小島麗贈",
    "kana": "訪問介護　小島麗贈",
    "address": "富山県富山市天正寺488",
    "lat": 36.6871374,
    "lng": 137.2498335,
    "tel": "076-493-7577",
    "url": "",
    "pref": "富山県",
    "city": "富山市",
    "category": "home_help",
    "serviceType": "訪問介護",
    "capacity": 118,
    "openDays": [
      "平日",
      "土曜日",
      "日曜日",
      "祝日"
    ],
    "openDaysNote": ""
  },
  {
    "id": "1670114568",
    "name": "訪問介護ステーション　希",
    "kana": "ホウモンカイゴステーション　ノゾミ",
    "address": "富山県富山市太田2204",
    "lat": 36.6664581,
    "lng": 137.2380852,
    "tel": "764616381",
    "url": "",
    "pref": "富山県",
    "city": "富山市",
    "category": "home_help",
    "serviceType": "訪問介護",
    "capacity": 0,
    "openDays": [
      "平日",
      "土曜日",
      "日曜日",
      "祝日"
    ],
    "openDaysNote": ""
  },
  {
    "id": "1670113883",
    "name": "訪問介護ステーションあいの風　呉羽事業所",
    "kana": "ホウモンカイゴステーションアイノカゼ　クレハアイノカゼ",
    "address": "野々上340",
    "lat": 34.5628784,
    "lng": 135.5955463,
    "tel": "076-436-1213",
    "url": "www.ainokaze.ne.jp",
    "pref": "富山県",
    "city": "富山市",
    "category": "home_help",
    "serviceType": "訪問介護",
    "capacity": null,
    "openDays": [
      "平日",
      "土曜日",
      "日曜日",
      "祝日"
    ],
    "openDaysNote": ""
  },
  {
    "id": "1670114329",
    "name": "訪問介護ステーションほの字",
    "kana": "ホウモンカイゴステーションホノジ",
    "address": "富山県富山市才覚寺246-4",
    "lat": 36.6575645268275,
    "lng": 137.206994299377,
    "tel": "076－461－6572",
    "url": "",
    "pref": "富山県",
    "city": "富山市",
    "category": "home_help",
    "serviceType": "訪問介護",
    "capacity": 0,
    "openDays": [
      "平日",
      "土曜日",
      "日曜日",
      "祝日"
    ],
    "openDaysNote": ""
  },
  {
    "id": "1670114725",
    "name": "訪問介護ステーションまめなけ",
    "kana": "ホウモンカイゴステーションマメナケ",
    "address": "富山市八尾町福島七丁目42番地",
    "lat": 36.5964704,
    "lng": 137.1375803,
    "tel": "076-454-3923",
    "url": "://www.yatsuo.or.jp",
    "pref": "富山県",
    "city": "富山市",
    "category": "home_help",
    "serviceType": "訪問介護",
    "capacity": null,
    "openDays": [
      "平日",
      "土曜日",
      "日曜日",
      "祝日"
    ],
    "openDaysNote": ""
  },
  {
    "id": "1670114469",
    "name": "訪問介護ステーション呉羽",
    "kana": "ホウモンカイゴステーションクレハ",
    "address": "富山県富山市追分茶屋４７２番１ケアコミュニティまるとみ ケアコミュニティまるとみ",
    "lat": 36.7088075,
    "lng": 137.1691213,
    "tel": "076-464-6856",
    "url": "",
    "pref": "富山県",
    "city": "富山市",
    "category": "home_help",
    "serviceType": "訪問介護",
    "capacity": null,
    "openDays": [
      "平日",
      "土曜日",
      "日曜日",
      "祝日"
    ],
    "openDaysNote": ""
  },
  {
    "id": "1670115136",
    "name": "訪問介護ステーション笑～にこ～",
    "kana": "ホウモンカイゴステーション～ニコ～",
    "address": "富山県富山市向新庄町5-6-24ポプリ101号 ポプリ101号",
    "lat": 36.7039465,
    "lng": 137.2651311,
    "tel": "076-461-7185",
    "url": "https://nico-care.com/",
    "pref": "富山県",
    "city": "富山市",
    "category": "home_help",
    "serviceType": "訪問介護",
    "capacity": 0,
    "openDays": [
      "平日",
      "土曜日"
    ],
    "openDaysNote": "利用者の希望に応じて、サービスの提供については、24時間対応可能な体制を整える（改行）ものとする。"
  },
  {
    "id": "1670114402",
    "name": "訪問介護ステーション東の郷",
    "kana": "ホウモンカイゴステーションヒガシノサト",
    "address": "中川原5-4オーキッド中川原 オーキッド中川原",
    "lat": 36.7036018,
    "lng": 137.2512373,
    "tel": "076-493-7008",
    "url": "",
    "pref": "富山県",
    "city": "富山市",
    "category": "home_help",
    "serviceType": "訪問介護",
    "capacity": null,
    "openDays": [
      "平日",
      "土曜日",
      "日曜日",
      "祝日"
    ],
    "openDaysNote": ""
  },
  {
    "id": "1670113214",
    "name": "訪問介護ビルト",
    "kana": "ホウモンカイゴビルト",
    "address": "富山県富山市館出町2丁目4-4",
    "lat": 36.6944730187248,
    "lng": 137.232633315109,
    "tel": "076-464-3004",
    "url": "",
    "pref": "富山県",
    "city": "富山市",
    "category": "home_help",
    "serviceType": "訪問介護",
    "capacity": 0,
    "openDays": [
      "平日",
      "土曜日",
      "日曜日",
      "祝日"
    ],
    "openDaysNote": "その状況においてはこの限りではありません。（改行）緊急時は電話などにより常時連絡がとれる体制とします。"
  },
  {
    "id": "1670115466",
    "name": "訪問介護介護ステーション　悠ライフ富山",
    "kana": "ホウモンカイゴステーション　ユウライフトヤマ",
    "address": "山室250-7",
    "lat": 36.6758438,
    "lng": 137.239788,
    "tel": "076-413-7607",
    "url": "https://www.kaigo.kind-life-japan.com/facility-1/nursinghome-toyama",
    "pref": "富山県",
    "city": "富山市",
    "category": "home_help",
    "serviceType": "訪問介護",
    "capacity": 0,
    "openDays": [
      "平日"
    ],
    "openDaysNote": "24時間対応"
  },
  {
    "id": "1670112612",
    "name": "訪問介護事業所　コスモスの里",
    "kana": "ホウモンカイゴジギョウショ　コスモスノサト",
    "address": "富山市大江干３０－３",
    "lat": 36.6916287,
    "lng": 137.2655865,
    "tel": "076-461-5080",
    "url": "http:www.kosumosu-sato.co.jp",
    "pref": "富山県",
    "city": "富山市",
    "category": "home_help",
    "serviceType": "訪問介護",
    "capacity": 30,
    "openDays": [
      "平日"
    ],
    "openDaysNote": "休みや時間外は相談可"
  },
  {
    "id": "1670114667",
    "name": "訪問介護事業所　自薦サポートセンター",
    "kana": "ホウモンカイゴジギョウショ　ジセンサポートセンター",
    "address": "富山県富山市月岡西緑町１３８番地",
    "lat": 36.6168584,
    "lng": 137.2454561,
    "tel": "070-4496-9836",
    "url": "https://www.als-relation.co.jp/",
    "pref": "富山県",
    "city": "富山市",
    "category": "home_help",
    "serviceType": "訪問介護",
    "capacity": null,
    "openDays": [
      "平日",
      "土曜日",
      "日曜日",
      "祝日"
    ],
    "openDaysNote": ""
  },
  {
    "id": "1670114097",
    "name": "訪問介護事業所　樹",
    "kana": "ホウモンカイゴジギョウショ　タツキ",
    "address": "富山県富山市太田口通り２丁目５-１サワダビル１階 サワダビル１階",
    "lat": 36.6859259736148,
    "lng": 137.214635920912,
    "tel": "076-461-3035",
    "url": "",
    "pref": "富山県",
    "city": "富山市",
    "category": "home_help",
    "serviceType": "訪問介護",
    "capacity": 28,
    "openDays": [
      "平日",
      "土曜日",
      "日曜日",
      "祝日"
    ],
    "openDaysNote": "ご利用者様との契約に準じて対応いたします。"
  },
  {
    "id": "1670115185",
    "name": "訪問介護事業所エイト・ビイト",
    "kana": "ホウモンカイゴジギョウショエイトビイト",
    "address": "富山県富山市加納264-2",
    "lat": 36.5815163,
    "lng": 137.196753,
    "tel": "090-1267-0888",
    "url": "https://odekake-eightbite-168.com/",
    "pref": "富山県",
    "city": "富山市",
    "category": "home_help",
    "serviceType": "訪問介護",
    "capacity": 0,
    "openDays": [
      "平日"
    ],
    "openDaysNote": ""
  },
  {
    "id": "1670115169",
    "name": "訪問介護事業所ベストライフケア",
    "kana": "ホウモンカイゴジギョウショ　ベストライフケア",
    "address": "富山県富山市黒瀬459-1",
    "lat": 36.6618156,
    "lng": 137.201558,
    "tel": "080-5853-5256",
    "url": "",
    "pref": "富山県",
    "city": "富山市",
    "category": "home_help",
    "serviceType": "訪問介護",
    "capacity": 0,
    "openDays": [
      "平日"
    ],
    "openDaysNote": ""
  },
  {
    "id": "1670113545",
    "name": "訪問介護事業所みのり",
    "kana": "ホウモンカイゴジギョウショミノリ",
    "address": "下堀6番地2",
    "lat": 36.6589823,
    "lng": 137.229363,
    "tel": "076-425-8817",
    "url": "",
    "pref": "富山県",
    "city": "富山市",
    "category": "home_help",
    "serviceType": "訪問介護",
    "capacity": null,
    "openDays": [
      "平日",
      "土曜日",
      "日曜日",
      "祝日"
    ],
    "openDaysNote": ""
  },
  {
    "id": "1670115052",
    "name": "訪問介護事業所ライフパートナー",
    "kana": "ホウモンカイゴジギョウショライフパートナー",
    "address": "富山市中市1丁目27番22号",
    "lat": 36.6793674,
    "lng": 137.2402909,
    "tel": "076-407-0120",
    "url": "https://www.yk-lifepartner.com/",
    "pref": "富山県",
    "city": "富山市",
    "category": "home_help",
    "serviceType": "訪問介護",
    "capacity": 0,
    "openDays": [
      "平日",
      "土曜日",
      "日曜日",
      "祝日"
    ],
    "openDaysNote": "サービス提供時間は、事前に居宅支援事業者等により計画された居宅サービス計画に基づくものとし、原則として緊急のサービス依頼は、お受けできません。"
  },
  {
    "id": "1670100138",
    "name": "北陸メディカルサービス株式会社　介護事業部",
    "kana": "ホクリクメディカルサービスカブシキガイシャ　カイゴジギョウブ",
    "address": "富山市奥井町4番36号",
    "lat": 36.7048064,
    "lng": 137.2247028,
    "tel": "076-443-3855",
    "url": "http://www.hokuriku-medical.co.jp",
    "pref": "富山県",
    "city": "富山市",
    "category": "home_help",
    "serviceType": "訪問介護",
    "capacity": 0,
    "openDays": [
      "平日",
      "土曜日",
      "日曜日",
      "祝日"
    ],
    "openDaysNote": "利用者またはその家族の要望がある場合は、この限りではありません。"
  },
  {
    "id": "1671800488",
    "name": "北陸メディカルサービス株式会社八尾営業所",
    "kana": "ホクリクメディカルサービスカブシキガイシャヤツオエイギョウショ",
    "address": "富山市八尾町福島字牧野１０１番地１",
    "lat": 36.5803092,
    "lng": 137.1341875,
    "tel": "076-455-1543",
    "url": "http://www.hokuriku-medical.co.jp",
    "pref": "富山県",
    "city": "富山市",
    "category": "home_help",
    "serviceType": "訪問介護",
    "capacity": 0,
    "openDays": [
      "平日",
      "土曜日",
      "日曜日",
      "祝日"
    ],
    "openDaysNote": "利用者またはそのご家族のご要望がある場合、この限りではありませんのでご相談ください。"
  },
  {
    "id": "1670104791",
    "name": "北陸介護ステーション株式会社　しあわせ",
    "kana": "ホクリクカイゴステーションカブシキカイシャ　シアワセ",
    "address": "堀川町８番地",
    "lat": 36.6598506,
    "lng": 137.224284,
    "tel": "０７６－４８２－６６８５",
    "url": "",
    "pref": "富山県",
    "city": "富山市",
    "category": "home_help",
    "serviceType": "訪問介護",
    "capacity": 0,
    "openDays": [
      "平日",
      "土曜日",
      "日曜日",
      "祝日"
    ],
    "openDaysNote": ""
  },
  {
    "id": "1670100997",
    "name": "有限会社　中央ケアーサポート",
    "kana": "ユウゲンガイシャチュウオウケアーサポート",
    "address": "富山市二口町5丁目4番地1テフィスD棟1階B号室 テフィスD棟1階B号室",
    "lat": 36.6687866407786,
    "lng": 137.202793019611,
    "tel": "076-442-3828",
    "url": "https://www.chuo-care.com/",
    "pref": "富山県",
    "city": "富山市",
    "category": "home_help",
    "serviceType": "訪問介護",
    "capacity": 400,
    "openDays": [
      "平日",
      "土曜日",
      "日曜日",
      "祝日"
    ],
    "openDaysNote": ""
  },
  {
    "id": "1670101722",
    "name": "梨雲苑ヘルパーセンター",
    "kana": "リウンエンヘルパーセンター",
    "address": "富山県富山市吉作1725番地",
    "lat": 36.7122291,
    "lng": 137.1532702,
    "tel": "076-436-2002",
    "url": "http://www.riunen.com",
    "pref": "富山県",
    "city": "富山市",
    "category": "home_help",
    "serviceType": "訪問介護",
    "capacity": 0,
    "openDays": [
      "平日",
      "土曜日",
      "日曜日",
      "祝日"
    ],
    "openDaysNote": "上記以外の時間について、相談可能"
  },
  {
    "id": "1670103066",
    "name": "老人介護事業所　あさひホーム",
    "kana": "ロウジンカイゴジギョウショ　アサヒホーム",
    "address": "富山市吉作４２６１－５",
    "lat": 36.7199866,
    "lng": 137.1756507,
    "tel": "076-436-2133",
    "url": "http://www.asahicare.com/",
    "pref": "富山県",
    "city": "富山市",
    "category": "home_help",
    "serviceType": "訪問介護",
    "capacity": 0,
    "openDays": [
      "平日",
      "土曜日",
      "日曜日",
      "祝日"
    ],
    "openDaysNote": ""
  },
  {
    "id": "1671600938",
    "name": "ニチイケアセンター立山",
    "kana": "ニチイケアセンタータテヤマ",
    "address": "富山県中新川郡立山町五百石5-1　松林ビル1階",
    "lat": 36.6641305,
    "lng": 137.3165488,
    "tel": "076-462-7010",
    "url": "http://www.nichiigakkan.co.jp",
    "pref": "富山県",
    "city": "立山町",
    "category": "home_help",
    "serviceType": "訪問介護",
    "capacity": null,
    "openDays": [
      "平日",
      "土曜日",
      "日曜日",
      "祝日"
    ],
    "openDaysNote": "居宅サービス計画により、営業時間外であってもサービスを提供する場合があります。"
  },
  {
    "id": "1671600664",
    "name": "ヘルパーステーションまんてん",
    "kana": "ヘルパーステーションマンテン",
    "address": "中新川郡立山町米沢46-1",
    "lat": 36.6654975738423,
    "lng": 137.321910073196,
    "tel": "076-463-3328",
    "url": "",
    "pref": "富山県",
    "city": "立山町",
    "category": "home_help",
    "serviceType": "訪問介護",
    "capacity": 0,
    "openDays": [
      "平日",
      "土曜日",
      "日曜日",
      "祝日"
    ],
    "openDaysNote": ""
  },
  {
    "id": "1671600904",
    "name": "ヘルパーステーション花のいえ",
    "kana": "ヘルパーステーションハナノイエ",
    "address": "富山県中新川郡上市町正印684",
    "lat": 36.6990605,
    "lng": 137.3407101,
    "tel": "076-472-1612",
    "url": "",
    "pref": "富山県",
    "city": "立山町",
    "category": "home_help",
    "serviceType": "訪問介護",
    "capacity": null,
    "openDays": [
      "平日",
      "土曜日",
      "日曜日",
      "祝日"
    ],
    "openDaysNote": ""
  },
  {
    "id": "1671600805",
    "name": "やまの湯ヘルパーステーション",
    "kana": "ヤマノユヘルパーステーション",
    "address": "富山県中新川郡立山町横江7-1サービス付き高齢者向け住宅「グリーンライフとんがりやま」内 サービス付き高齢者向け住宅「グリーンライフとんがりやま」内",
    "lat": 36.5911323,
    "lng": 137.3296244,
    "tel": "076-483-8772",
    "url": "http://384yamanoyu.jp",
    "pref": "富山県",
    "city": "立山町",
    "category": "home_help",
    "serviceType": "訪問介護",
    "capacity": 5,
    "openDays": [
      "平日"
    ],
    "openDaysNote": "必要時、相談に応じます。"
  },
  {
    "id": "1671600896",
    "name": "訪問介護ステーション　アンサンブルたてやま",
    "kana": "ホウモンカイゴステーション　アンサンブルタテヤマ",
    "address": "富山県中新川郡立山町大石原226番地",
    "lat": 36.6676018,
    "lng": 137.2954595,
    "tel": "076-464-2082",
    "url": "http//www.keijinkai-f.or.jp",
    "pref": "富山県",
    "city": "立山町",
    "category": "home_help",
    "serviceType": "訪問介護",
    "capacity": 0,
    "openDays": [
      "平日",
      "土曜日",
      "日曜日",
      "祝日"
    ],
    "openDaysNote": "居宅サービス計画書により、サービス提供を行うものとする。"
  },
  {
    "id": "1671600151",
    "name": "立山町社協ホームヘルパーステーション",
    "kana": "タテヤママチシャキョウホームヘルパーステーション",
    "address": "富山県中新川郡立山町前沢1169番地元気交流ステーション3階 元気交流ステーション3階",
    "lat": 36.6653564783624,
    "lng": 137.314558447651,
    "tel": "076-462-8074",
    "url": "https://www.tateyama-shakyou.jp",
    "pref": "富山県",
    "city": "立山町",
    "category": "home_help",
    "serviceType": "訪問介護",
    "capacity": 0,
    "openDays": [
      "平日"
    ],
    "openDaysNote": "祝祭日については、要相談"
  }
]