[
  {
    "id": "3578100459",
    "name": "清ヶ浜ヘルパーステーション",
    "kana": "キヨガハマヘルパーステーション",
    "address": "山口県阿武郡阿武町大字木与10037番地3",
    "lat": 34.536138,
    "lng": 131.5058371,
    "tel": "08388-2-3315",
    "url": "",
    "pref": "山口県",
    "city": "阿武町",
    "category": "home_help",
    "serviceType": "訪問介護",
    "capacity": 0,
    "openDays": [
      "平日",
      "土曜日"
    ],
    "openDaysNote": "需要によっては、午前６時から午後９時までの利用が可能"
  },
  {
    "id": "3570201123",
    "name": "あさがおケアステーション宇部",
    "kana": "アサガオケアステーションウベ",
    "address": "宇部市大字東岐波４０５番地の1",
    "lat": 33.9972638,
    "lng": 131.3307402,
    "tel": "（0836）-58-094",
    "url": "",
    "pref": "山口県",
    "city": "宇部市",
    "category": "home_help",
    "serviceType": "訪問介護",
    "capacity": 0,
    "openDays": [
      "平日",
      "土曜日",
      "日曜日",
      "祝日"
    ],
    "openDaysNote": ""
  },
  {
    "id": "3570201842",
    "name": "きわなみヘルパーステーション",
    "kana": "キワナミヘルパーステーション",
    "address": "宇部市大字際波726番地3",
    "lat": 33.994705100729,
    "lng": 131.222752043597,
    "tel": "0836-39-3303",
    "url": "https://kiwanami-kaigo.com",
    "pref": "山口県",
    "city": "宇部市",
    "category": "home_help",
    "serviceType": "訪問介護",
    "capacity": 0,
    "openDays": [
      "平日",
      "土曜日",
      "日曜日",
      "祝日"
    ],
    "openDaysNote": "日曜日から土曜日まで365日、24時間"
  },
  {
    "id": "3570204556",
    "name": "ケアサービスオクト",
    "kana": "ケアサービスオクト",
    "address": "山口県宇部市大字西岐波５２２５番地５",
    "lat": 33.9682389,
    "lng": 131.3052244,
    "tel": "0836-52-8767",
    "url": "",
    "pref": "山口県",
    "city": "宇部市",
    "category": "home_help",
    "serviceType": "訪問介護",
    "capacity": null,
    "openDays": [
      "平日"
    ],
    "openDaysNote": ""
  },
  {
    "id": "3570200935",
    "name": "ケアセンター共生",
    "kana": "ケアセンターキョウセイ",
    "address": "宇部市中央町３丁目２番７号",
    "lat": 33.954675,
    "lng": 131.2417637,
    "tel": "0836-29-6192",
    "url": "",
    "pref": "山口県",
    "city": "宇部市",
    "category": "home_help",
    "serviceType": "訪問介護",
    "capacity": 0,
    "openDays": [
      "平日",
      "土曜日",
      "日曜日",
      "祝日"
    ],
    "openDaysNote": "特になし"
  },
  {
    "id": "3570200323",
    "name": "さるびあヘルパーステーション",
    "kana": "サルビアヘルパーステーション",
    "address": "山口県宇部市浜町2丁目1番3",
    "lat": 33.9649627,
    "lng": 131.2373831,
    "tel": "0836-36-1173",
    "url": "https://familand.jp/",
    "pref": "山口県",
    "city": "宇部市",
    "category": "home_help",
    "serviceType": "訪問介護",
    "capacity": 0,
    "openDays": [
      "平日",
      "土曜日",
      "日曜日",
      "祝日"
    ],
    "openDaysNote": "営業時間外の訪問介護サービスは、希望があれば利用可能"
  },
  {
    "id": "3570202410",
    "name": "サンキ・ウエルビィ介護センター宇部",
    "kana": "サンキ・ウエルビィカイゴセンターウベ",
    "address": "山口県宇部市南浜町２丁目９番１５号",
    "lat": 33.9660237,
    "lng": 131.2320918,
    "tel": "0836-39-5277",
    "url": "",
    "pref": "山口県",
    "city": "宇部市",
    "category": "home_help",
    "serviceType": "訪問介護",
    "capacity": 0,
    "openDays": [
      "平日",
      "土曜日",
      "日曜日",
      "祝日"
    ],
    "openDaysNote": "ただし、ケアプランに沿ったサービス提供とする。"
  },
  {
    "id": "3570204119",
    "name": "シルバーサポートアスワン",
    "kana": "シルバーサポートアスワン",
    "address": "山口県宇部市あすとぴあ七丁目１番２号シルバーサポートアスワン シルバーサポートアスワン",
    "lat": 33.9803445,
    "lng": 131.2962278,
    "tel": "0836-53-5558",
    "url": "https://www.asuwansansou.jp",
    "pref": "山口県",
    "city": "宇部市",
    "category": "home_help",
    "serviceType": "訪問介護",
    "capacity": 0,
    "openDays": [
      "平日",
      "土曜日"
    ],
    "openDaysNote": ""
  },
  {
    "id": "3570203137",
    "name": "シンプルケア宇部",
    "kana": "シンプルケアウベ",
    "address": "山口県宇部市東岐波大字水落1464-1",
    "lat": 33.9853804947985,
    "lng": 131.350221088898,
    "tel": "０８３６－５８－５５１１",
    "url": "",
    "pref": "山口県",
    "city": "宇部市",
    "category": "home_help",
    "serviceType": "訪問介護",
    "capacity": 0,
    "openDays": [
      "平日",
      "土曜日",
      "日曜日",
      "祝日"
    ],
    "openDaysNote": "訪問介護は３６５日２４時間体制です。"
  },
  {
    "id": "3570203384",
    "name": "セントヒルヘルパーこうなん",
    "kana": "セントヒルヘルパーコウナン",
    "address": "山口県宇部市大字妻崎開作108番地",
    "lat": 33.9784677937291,
    "lng": 131.217891933868,
    "tel": "0836-38-8989",
    "url": "http://www.sthill-hp.or.jp/k_st/",
    "pref": "山口県",
    "city": "宇部市",
    "category": "home_help",
    "serviceType": "訪問介護",
    "capacity": 0,
    "openDays": [
      "平日",
      "土曜日",
      "日曜日",
      "祝日"
    ],
    "openDaysNote": ""
  },
  {
    "id": "3570203160",
    "name": "なごみヘルパーステーション",
    "kana": "ナゴミヘルパーステーション",
    "address": "山口県宇部市草江2丁目5-6-1",
    "lat": 33.9389382,
    "lng": 131.2752067,
    "tel": "0836-35-7533",
    "url": "http://www.nagominokai.com/",
    "pref": "山口県",
    "city": "宇部市",
    "category": "home_help",
    "serviceType": "訪問介護",
    "capacity": 80,
    "openDays": [
      "平日",
      "土曜日",
      "日曜日",
      "祝日"
    ],
    "openDaysNote": "早朝、深夜帯は隣接の施設内のみとさせていただいています。"
  },
  {
    "id": "3570204010",
    "name": "ニチイケアセンター琴芝",
    "kana": "ニチイケアセンターコトシバ",
    "address": "山口県宇部市北琴芝2丁目7-6松井ビル1階101号室 松井ビル1階101号室",
    "lat": 33.9590942,
    "lng": 131.2604034,
    "tel": "0836-37-0030",
    "url": "",
    "pref": "山口県",
    "city": "宇部市",
    "category": "home_help",
    "serviceType": "訪問介護",
    "capacity": 0,
    "openDays": [
      "平日",
      "土曜日",
      "日曜日",
      "祝日"
    ],
    "openDaysNote": "居宅サービス計画により時間外であってもサービスを提供する場合があります。"
  },
  {
    "id": "3570201362",
    "name": "ニチイケアセンター厚南",
    "kana": "ニチイケアセンターコウナン",
    "address": "山口県宇部市大字妻崎開作113-3",
    "lat": 33.9780611,
    "lng": 131.2164536,
    "tel": "0836-45-0038",
    "url": "http://www.nitiigakkan.co.jp",
    "pref": "山口県",
    "city": "宇部市",
    "category": "home_help",
    "serviceType": "訪問介護",
    "capacity": 0,
    "openDays": [
      "平日",
      "土曜日",
      "日曜日",
      "祝日"
    ],
    "openDaysNote": "サービス計画に基づき、休業日・営業時間外であってもサービスの提供を行なう場合もある"
  },
  {
    "id": "3570200190",
    "name": "ニチイケアセンター西岐波",
    "kana": "ニチイケアセンターニシキワ",
    "address": "山口県宇部市大字西岐波字浜田1545-1",
    "lat": 33.9618525,
    "lng": 131.315846,
    "tel": "0836-54-0582",
    "url": "http://www.nichiigakkan.cp.jp",
    "pref": "山口県",
    "city": "宇部市",
    "category": "home_help",
    "serviceType": "訪問介護",
    "capacity": 0,
    "openDays": [
      "平日",
      "土曜日",
      "日曜日",
      "祝日"
    ],
    "openDaysNote": "サービス計画に基づき、休業日、営業時間外であっても、サービスの提供を行う場合がある。"
  },
  {
    "id": "3570200968",
    "name": "フレンドサービス",
    "kana": "フレンドサービス",
    "address": "山口県宇部市大字中宇部1964番地1",
    "lat": 33.9762283,
    "lng": 131.2512625,
    "tel": "0836－33－7093",
    "url": "",
    "pref": "山口県",
    "city": "宇部市",
    "category": "home_help",
    "serviceType": "訪問介護",
    "capacity": 50,
    "openDays": [
      "平日",
      "土曜日",
      "日曜日",
      "祝日"
    ],
    "openDaysNote": "上記時間外でもサービス提供する場合がある（要相談）（改行）対応出来る訪問介護員がいない場合はお断りする事がある。"
  },
  {
    "id": "3570201933",
    "name": "ヘルパーステーション　フィットケア",
    "kana": "ヘルパーステーション　フィットケア",
    "address": "山口県宇部市大字西岐波３１５番地５０",
    "lat": 33.970882060581,
    "lng": 131.293779248549,
    "tel": "0836-38-6700",
    "url": "https://go-fitcare.com",
    "pref": "山口県",
    "city": "宇部市",
    "category": "home_help",
    "serviceType": "訪問介護",
    "capacity": 0,
    "openDays": [
      "平日",
      "土曜日",
      "日曜日",
      "祝日"
    ],
    "openDaysNote": ""
  },
  {
    "id": "3570201750",
    "name": "ヘルパーステーション　宇部あいおい苑",
    "kana": "ヘルパーステーション　ウベアイオイエン",
    "address": "宇部市恩田町３－８－１",
    "lat": 33.9468762,
    "lng": 131.2658681,
    "tel": "０８３６－３４－４５１５",
    "url": "http：//hitotsunokai.jp/",
    "pref": "山口県",
    "city": "宇部市",
    "category": "home_help",
    "serviceType": "訪問介護",
    "capacity": 0,
    "openDays": [
      "平日",
      "土曜日",
      "日曜日",
      "祝日"
    ],
    "openDaysNote": "※天災・警報・特別警報クラスが発令された場合「原則、訪問は中止させて頂きます」"
  },
  {
    "id": "3570204689",
    "name": "ヘルパーステーション　柚",
    "kana": "ヘルパーステーション　ユズ",
    "address": "山口県宇部市川添一丁目３番３７号サランハイツA-102 サランハイツA-102",
    "lat": 33.9721025,
    "lng": 131.2688298,
    "tel": "0836-55-7221",
    "url": "",
    "pref": "山口県",
    "city": "宇部市",
    "category": "home_help",
    "serviceType": "訪問介護",
    "capacity": null,
    "openDays": [
      "平日",
      "土曜日",
      "日曜日",
      "祝日"
    ],
    "openDaysNote": "電話等により24時間常時連絡可能な体制"
  },
  {
    "id": "3570202758",
    "name": "ヘルパーステーションEnjyu",
    "kana": "ヘルパーステーション　エンジュ",
    "address": "宇部市大字西岐波732-1",
    "lat": 33.9649773035313,
    "lng": 131.329215447446,
    "tel": "0836-54-1070",
    "url": "",
    "pref": "山口県",
    "city": "宇部市",
    "category": "home_help",
    "serviceType": "訪問介護",
    "capacity": 36,
    "openDays": [
      "平日",
      "土曜日",
      "日曜日",
      "祝日"
    ],
    "openDaysNote": "緊急対応を含めて２４時間対応できる"
  },
  {
    "id": "3570202709",
    "name": "ヘルパーステーションアポロ",
    "kana": "ヘルパーステーションアポロ",
    "address": "宇部市大字中宇部１８５８－３０",
    "lat": 33.9720426,
    "lng": 131.2533375,
    "tel": "0836-37-0070",
    "url": "dl@y-apl.com",
    "pref": "山口県",
    "city": "宇部市",
    "category": "home_help",
    "serviceType": "訪問介護",
    "capacity": 0,
    "openDays": [
      "平日",
      "土曜日",
      "祝日"
    ],
    "openDaysNote": ""
  },
  {
    "id": "3570204440",
    "name": "ヘルパーステーションいきいき参宮通り",
    "kana": "ヘルパーステーションイキイキサングウドオリ",
    "address": "山口県宇部市西梶返1丁目2-9-1",
    "lat": 33.9574834,
    "lng": 131.2607172,
    "tel": "080-4266-2299",
    "url": "",
    "pref": "山口県",
    "city": "宇部市",
    "category": "home_help",
    "serviceType": "訪問介護",
    "capacity": 0,
    "openDays": [
      "平日"
    ],
    "openDaysNote": ""
  },
  {
    "id": "3570201990",
    "name": "へるぱーすてーしょんきゅあ",
    "kana": "ヘルパーステーションキュア",
    "address": "宇部市大字小野8265番地1ケアビレッジおの ケアビレッジおの",
    "lat": 34.1176683,
    "lng": 131.3211046,
    "tel": "0836-64-5050",
    "url": "",
    "pref": "山口県",
    "city": "宇部市",
    "category": "home_help",
    "serviceType": "訪問介護",
    "capacity": 16,
    "openDays": [
      "平日",
      "祝日"
    ],
    "openDaysNote": "場合により休日、夜間、早朝についても対応可能"
  },
  {
    "id": "3570203566",
    "name": "ヘルパーステーションケアヒルズ扶老会",
    "kana": "ヘルパーステーションケアヒルズフロウカイ",
    "address": "山口県宇部市大字船木字向ヒ833番3",
    "lat": 34.0449709,
    "lng": 131.2228763,
    "tel": "0836－69－0925",
    "url": "ｈｔｔｐ；//ｗｗｗ.furoukai.jp",
    "pref": "山口県",
    "city": "宇部市",
    "category": "home_help",
    "serviceType": "訪問介護",
    "capacity": 0,
    "openDays": [
      "平日",
      "祝日"
    ],
    "openDaysNote": "ご本人の要望により営業日・営業時間は相談可"
  },
  {
    "id": "3570204390",
    "name": "ヘルパーステーションずっと",
    "kana": "ヘルパーステーションズット",
    "address": "山口県宇部市錦町9-4",
    "lat": 33.9450228,
    "lng": 131.2531847,
    "tel": "0836-52-7267",
    "url": "",
    "pref": "山口県",
    "city": "宇部市",
    "category": "home_help",
    "serviceType": "訪問介護",
    "capacity": 0,
    "openDays": [
      "平日",
      "土曜日",
      "日曜日",
      "祝日"
    ],
    "openDaysNote": "1/1、8/15は休業日とさせていただきます"
  },
  {
    "id": "3570200562",
    "name": "ヘルパーステーションはばたき",
    "kana": "ヘルパーステーションハバタキ",
    "address": "宇部市五十目山町16-41-1シティハイムＦ１－Ｃ シティハイムＦ１－Ｃ",
    "lat": 33.937372637865,
    "lng": 131.266000862704,
    "tel": "0836-33-6234",
    "url": "",
    "pref": "山口県",
    "city": "宇部市",
    "category": "home_help",
    "serviceType": "訪問介護",
    "capacity": 120,
    "openDays": [
      "平日",
      "土曜日",
      "日曜日",
      "祝日"
    ],
    "openDaysNote": "早朝、夜間対応については、相談の上対応可。"
  },
  {
    "id": "3570203459",
    "name": "ヘルパーステーションみのり",
    "kana": "ヘルパーステーションミノリ",
    "address": "宇部市大字際波1704-1住宅型有料老人ホームみのり内 住宅型有料老人ホームみのり内",
    "lat": 34.0065179531227,
    "lng": 131.220251694759,
    "tel": "0836-44-6191",
    "url": "http://www.minori-ube.jp",
    "pref": "山口県",
    "city": "宇部市",
    "category": "home_help",
    "serviceType": "訪問介護",
    "capacity": 0,
    "openDays": [
      "平日",
      "祝日"
    ],
    "openDaysNote": "居宅介護サービス計画により、休業日及び営業時間外であってもサービスを提供する場合があります。"
  },
  {
    "id": "3570202972",
    "name": "ヘルパーステーションりんご",
    "kana": "ヘルパーステーションリンゴ",
    "address": "宇部市開四丁目9番7号",
    "lat": 33.9603038420896,
    "lng": 131.280361873941,
    "tel": "0836-43-6226",
    "url": "qqcx8cm9k@forest.ocn.ne.jp",
    "pref": "山口県",
    "city": "宇部市",
    "category": "home_help",
    "serviceType": "訪問介護",
    "capacity": 0,
    "openDays": [
      "平日"
    ],
    "openDaysNote": "但し、利用者様の状況に応じて調整し、臨時営業を行うことがあります。"
  },
  {
    "id": "3571600885",
    "name": "ヘルパーステーション縁",
    "kana": "ヘルパーステーションエン",
    "address": "山口県宇部市大字妻崎開作32番地1",
    "lat": 33.9824245,
    "lng": 131.2193255,
    "tel": "0836-43-6326",
    "url": "",
    "pref": "山口県",
    "city": "宇部市",
    "category": "home_help",
    "serviceType": "訪問介護",
    "capacity": 30,
    "openDays": [
      "平日",
      "土曜日",
      "日曜日",
      "祝日"
    ],
    "openDaysNote": ""
  },
  {
    "id": "3570204093",
    "name": "ヘルパーステーション幸",
    "kana": "ヘルパーステーションサチ",
    "address": "山口県宇部市今村北４丁目5-17ビバライフTOWA103号 ビバライフTOWA103号",
    "lat": 33.9619267480173,
    "lng": 131.306231647543,
    "tel": "0836-38-8225",
    "url": "",
    "pref": "山口県",
    "city": "宇部市",
    "category": "home_help",
    "serviceType": "訪問介護",
    "capacity": 0,
    "openDays": [
      "平日",
      "土曜日",
      "日曜日",
      "祝日"
    ],
    "openDaysNote": "電話転送にて、常時連絡可能"
  },
  {
    "id": "3570201891",
    "name": "ヘルパーステーション未来",
    "kana": "ヘルパーステーションミライ",
    "address": "山口県宇部市大字船木1016番地1株式会社　愛優会 株式会社　愛優会",
    "lat": 34.0411423570299,
    "lng": 131.222023701852,
    "tel": "0836-39-6702",
    "url": "https://aiyuukai-mirai.jp/",
    "pref": "山口県",
    "city": "宇部市",
    "category": "home_help",
    "serviceType": "訪問介護",
    "capacity": 0,
    "openDays": [
      "平日",
      "土曜日",
      "日曜日",
      "祝日"
    ],
    "openDaysNote": "利用者から希望があり、それに対応可能な場合はこの限りではありません。"
  },
  {
    "id": "3570203228",
    "name": "ヘルパーステーション夢",
    "kana": "ヘルパーステーションユメ",
    "address": "山口県宇部市西岐波1522-23",
    "lat": 33.9649681695019,
    "lng": 131.319461934384,
    "tel": "0836-43-9010",
    "url": "",
    "pref": "山口県",
    "city": "宇部市",
    "category": "home_help",
    "serviceType": "訪問介護",
    "capacity": 0,
    "openDays": [
      "平日",
      "土曜日",
      "日曜日",
      "祝日"
    ],
    "openDaysNote": "上記のサービス提供日，時間のほか，電話等により24時間常時連絡が可能な体制とする。"
  },
  {
    "id": "3570200513",
    "name": "むべの里在宅福祉サービスセンター上宇部",
    "kana": "ムベノサトザイタクフクシサービスセンターカミウベ",
    "address": "山口県宇部市中村２丁目７－15",
    "lat": 33.9636276507599,
    "lng": 131.262308786928,
    "tel": "0836-35-8348",
    "url": "http://www.mubenosato.com",
    "pref": "山口県",
    "city": "宇部市",
    "category": "home_help",
    "serviceType": "訪問介護",
    "capacity": 0,
    "openDays": [
      "平日",
      "土曜日",
      "日曜日",
      "祝日"
    ],
    "openDaysNote": "特になし"
  },
  {
    "id": "3570201636",
    "name": "ろしゅうケアセンター集いの家",
    "kana": "ロシュウケアセンターツドイノイエ",
    "address": "南小羽山１丁目９－１６",
    "lat": 33.9730086912037,
    "lng": 131.255714505947,
    "tel": "0836-31-4050",
    "url": "https://itp.ne.jp/info/354483027177050200/shop/",
    "pref": "山口県",
    "city": "宇部市",
    "category": "home_help",
    "serviceType": "訪問介護",
    "capacity": 7,
    "openDays": [
      "平日",
      "土曜日",
      "日曜日",
      "祝日"
    ],
    "openDaysNote": "特になし"
  },
  {
    "id": "3570200216",
    "name": "宇部あかり園訪問介護事業所",
    "kana": "ウベアカリエンホウモンカイゴジギョウショ",
    "address": "宇部市大字西岐波229-105",
    "lat": 33.9665968,
    "lng": 131.3014987,
    "tel": "0836-51-1616",
    "url": "http://www.hakuaikai-yamaguchi.jp",
    "pref": "山口県",
    "city": "宇部市",
    "category": "home_help",
    "serviceType": "訪問介護",
    "capacity": 0,
    "openDays": [
      "平日",
      "土曜日",
      "日曜日",
      "祝日"
    ],
    "openDaysNote": ""
  },
  {
    "id": "3570200810",
    "name": "宇部西ヘルパーステーション",
    "kana": "ウベニシヘルパーステーション",
    "address": "山口県宇部市大字際波字東河田287-1",
    "lat": 33.9515087,
    "lng": 131.2467858,
    "tel": "0836-45-1221",
    "url": "http://www.h5.dion.ne.jp/~ube-west/jigyou/jigyou",
    "pref": "山口県",
    "city": "宇部市",
    "category": "home_help",
    "serviceType": "訪問介護",
    "capacity": 0,
    "openDays": [
      "平日",
      "土曜日",
      "日曜日",
      "祝日"
    ],
    "openDaysNote": "但し利用者の実情に応じ、標記時間以外にもサービスを提供する場合があります。"
  },
  {
    "id": "3570203962",
    "name": "介護ステーションすまいる",
    "kana": "カイゴステーションスマイル",
    "address": "大字小串17-1",
    "lat": 33.966568,
    "lng": 131.2550817,
    "tel": "0836-38-5355",
    "url": "",
    "pref": "山口県",
    "city": "宇部市",
    "category": "home_help",
    "serviceType": "訪問介護",
    "capacity": 0,
    "openDays": [
      "平日",
      "土曜日",
      "日曜日",
      "祝日"
    ],
    "openDaysNote": "営業時間外でもサービスの提供を行う場合がある。"
  },
  {
    "id": "3570204580",
    "name": "介護センターうさまま",
    "kana": "カイゴセンターウサママ",
    "address": "東岐波4511‐5ハイムルーラルⅠ　102号 ハイムルーラルⅠ　102号",
    "lat": 33.9685707,
    "lng": 131.3424304,
    "tel": "0836‐52‐8558",
    "url": "",
    "pref": "山口県",
    "city": "宇部市",
    "category": "home_help",
    "serviceType": "訪問介護",
    "capacity": null,
    "openDays": [
      "平日"
    ],
    "openDaysNote": ""
  },
  {
    "id": "3570200166",
    "name": "株式会社　河村福祉サービス",
    "kana": "カブシキカイシャ　カワムラフクシサービス",
    "address": "山口県宇部市大字川上720番地9",
    "lat": 33.993041722235,
    "lng": 131.276453959013,
    "tel": "0836-37-0007",
    "url": "http://homepage2.nifty.com/kawamura_fukushi/",
    "pref": "山口県",
    "city": "宇部市",
    "category": "home_help",
    "serviceType": "訪問介護",
    "capacity": 0,
    "openDays": [
      "平日",
      "土曜日",
      "日曜日",
      "祝日"
    ],
    "openDaysNote": "２４時間電話での連絡が可能な体制をとる"
  },
  {
    "id": "3570204473",
    "name": "株式会社ヒューマン24",
    "kana": "カブシキガイシャヒューマンニジュウヨン",
    "address": "山口県宇部市上野中町1-12",
    "lat": 33.9539801,
    "lng": 131.2741613,
    "tel": "0836-33₋3838",
    "url": "",
    "pref": "山口県",
    "city": "宇部市",
    "category": "home_help",
    "serviceType": "訪問介護",
    "capacity": 40,
    "openDays": [
      "平日"
    ],
    "openDaysNote": ""
  },
  {
    "id": "3570200158",
    "name": "指定訪問介護ヘルパーステーションほほえみ",
    "kana": "シテイホウモンカイゴヘルパーステーションホホエミ",
    "address": "山口県宇部市寿町三丁目３－２５",
    "lat": 33.9505312,
    "lng": 131.2531493,
    "tel": "0836-37-６２００",
    "url": "www.jinsinkai.or.jp",
    "pref": "山口県",
    "city": "宇部市",
    "category": "home_help",
    "serviceType": "訪問介護",
    "capacity": 10,
    "openDays": [
      "平日",
      "土曜日",
      "日曜日",
      "祝日"
    ],
    "openDaysNote": ""
  },
  {
    "id": "3570204572",
    "name": "助さん訪問介護事業所",
    "kana": "スケサンホウモンカイゴジギョウショ",
    "address": "山口県宇部市文京町2-9",
    "lat": 33.9712766,
    "lng": 131.2321119,
    "tel": "0836-39-9110",
    "url": "https://suke3.co.jp",
    "pref": "山口県",
    "city": "宇部市",
    "category": "home_help",
    "serviceType": "訪問介護",
    "capacity": null,
    "openDays": [
      "平日",
      "土曜日",
      "日曜日",
      "祝日"
    ],
    "openDaysNote": "365日24時間営業"
  },
  {
    "id": "3570200307",
    "name": "神原苑ホームヘルパーステーション",
    "kana": "カミハラエンホームヘルパーステーション",
    "address": "宇部市神原町2丁目4番40号",
    "lat": 33.9487592,
    "lng": 131.2602628,
    "tel": "0836-35-5555",
    "url": "http://www.kamiharaen.com",
    "pref": "山口県",
    "city": "宇部市",
    "category": "home_help",
    "serviceType": "訪問介護",
    "capacity": 0,
    "openDays": [
      "平日",
      "土曜日",
      "日曜日",
      "祝日"
    ],
    "openDaysNote": "訪問介護員の確保ができない場合、早朝・夜間帯の訪問ができない場合があります。"
  },
  {
    "id": "3570200844",
    "name": "神原苑上宇部ホームヘルパーステーション",
    "kana": "カミハラエン　カミウベ　ホームヘルパーステーション",
    "address": "山口県宇部市宮地町5番40号",
    "lat": 33.9652795,
    "lng": 131.2574403,
    "tel": "0836-36-8540",
    "url": "http://www.kamiharaen.com",
    "pref": "山口県",
    "city": "宇部市",
    "category": "home_help",
    "serviceType": "訪問介護",
    "capacity": 0,
    "openDays": [
      "平日",
      "土曜日",
      "日曜日",
      "祝日"
    ],
    "openDaysNote": "夜間、深夜の訪問については、勤務の状況によりお断りする事があります。"
  },
  {
    "id": "3570203277",
    "name": "奏音　ヘルパーステーション",
    "kana": "カノン　ヘルパーステーション",
    "address": "宇部市中村２丁目７番５号",
    "lat": 33.9640181227852,
    "lng": 131.262003800261,
    "tel": "0836-38-7310",
    "url": "",
    "pref": "山口県",
    "city": "宇部市",
    "category": "home_help",
    "serviceType": "訪問介護",
    "capacity": 0,
    "openDays": [
      "平日",
      "土曜日",
      "日曜日",
      "祝日"
    ],
    "openDaysNote": ""
  },
  {
    "id": "3570202113",
    "name": "福祉生活協同組合　さんコープ　宇部　訪問介護事業所",
    "kana": "フクシセイカツキョウドウクミアイ　サンコープ　ウベ　ホウモンカイゴジギョウショ",
    "address": "宇部市上宇部75",
    "lat": 33.9658802,
    "lng": 131.2865079,
    "tel": "0836-35-7207",
    "url": "www.san-coop.jp",
    "pref": "山口県",
    "city": "宇部市",
    "category": "home_help",
    "serviceType": "訪問介護",
    "capacity": 0,
    "openDays": [
      "平日",
      "祝日"
    ],
    "openDaysNote": "土・日曜日の訪問は要相談"
  },
  {
    "id": "3570202782",
    "name": "訪問介護ステーション　のぞみ",
    "kana": "ホウモンカイゴステーション　ノゾミ",
    "address": "宇部市寿町2-1-1",
    "lat": 33.9538279,
    "lng": 131.2499133,
    "tel": "0836-39-5920",
    "url": "",
    "pref": "山口県",
    "city": "宇部市",
    "category": "home_help",
    "serviceType": "訪問介護",
    "capacity": null,
    "openDays": [
      "平日",
      "土曜日"
    ],
    "openDaysNote": ""
  },
  {
    "id": "3570204044",
    "name": "訪問介護ステーションりんく",
    "kana": "ホウモンカイゴステーションリンク",
    "address": "山口県宇部市海南町2番58-1オックスビル２Ｆ オックスビル２Ｆ",
    "lat": 33.9587002,
    "lng": 131.2609722,
    "tel": "0836-39-7638",
    "url": "",
    "pref": "山口県",
    "city": "宇部市",
    "category": "home_help",
    "serviceType": "訪問介護",
    "capacity": 0,
    "openDays": [
      "平日"
    ],
    "openDaysNote": ""
  },
  {
    "id": "3570204374",
    "name": "訪問介護セレクト",
    "kana": "ホウモンカイゴセレクト",
    "address": "山口県宇部市中村3丁目10番18-2号アーバンみどり102号 アーバンみどり102号",
    "lat": 33.9611927,
    "lng": 131.2580888,
    "tel": "0836-39-7564",
    "url": "",
    "pref": "山口県",
    "city": "宇部市",
    "category": "home_help",
    "serviceType": "訪問介護",
    "capacity": 0,
    "openDays": [
      "平日"
    ],
    "openDaysNote": "必要時、土曜日、日曜日、祝日も対応（改行）支援内容等により、臨時営業および営業時間の変更を行うこととする"
  },
  {
    "id": "3570204465",
    "name": "訪問介護事業所ケアタウン日の山",
    "kana": "ホウモンカイゴジギョウショ　ケアタウンヒノヤマ",
    "address": "山口県宇部市大字東岐波1449番地1",
    "lat": 33.9988806,
    "lng": 131.3527316,
    "tel": "0836-39-6656",
    "url": "",
    "pref": "山口県",
    "city": "宇部市",
    "category": "home_help",
    "serviceType": "訪問介護",
    "capacity": 0,
    "openDays": [
      "平日",
      "土曜日",
      "日曜日",
      "祝日"
    ],
    "openDaysNote": ""
  },
  {
    "id": "3570104814",
    "name": "ＩＭＬヘルパーステーション",
    "kana": "アイエムエルヘルパーステーション",
    "address": "下関市一の宮本町一丁目7-17",
    "lat": 34.0022048885081,
    "lng": 130.951244288504,
    "tel": "083－227－2427",
    "url": "http://www.inmailife.com/",
    "pref": "山口県",
    "city": "下関市",
    "category": "home_help",
    "serviceType": "訪問介護",
    "capacity": 80,
    "openDays": [
      "平日",
      "土曜日",
      "日曜日",
      "祝日"
    ],
    "openDaysNote": "サービス提供時間（改行）（早朝）　６：００～　８：００（改行）（通常）　８：００～１８：００（改行）（夜間）１８：００～２２：００（改行）早朝、夜間帯の提供は応相談。"
  },
  {
    "id": "3570103923",
    "name": "あいサービス下関",
    "kana": "アイサービスシモノセキ",
    "address": "山口県下関市幸町１３番２５号増田ビル２階 増田ビル２階",
    "lat": 33.9627812,
    "lng": 130.9441133,
    "tel": "083-250-8475",
    "url": "",
    "pref": "山口県",
    "city": "下関市",
    "category": "home_help",
    "serviceType": "訪問介護",
    "capacity": 0,
    "openDays": [
      "平日"
    ],
    "openDaysNote": ""
  },
  {
    "id": "3570100556",
    "name": "アイユウの苑　ホームヘルプサービス",
    "kana": "アイユウノソノ　ホームヘルプサービス",
    "address": "山口県下関市彦島迫町三丁目17番2号",
    "lat": 33.9383705,
    "lng": 130.9002994,
    "tel": "083-261-1372",
    "url": "http://www.shoubikai.or.jp",
    "pref": "山口県",
    "city": "下関市",
    "category": "home_help",
    "serviceType": "訪問介護",
    "capacity": 0,
    "openDays": [
      "平日",
      "土曜日",
      "日曜日",
      "祝日"
    ],
    "openDaysNote": "上記以外の時間は、要相談。"
  },
  {
    "id": "3570100416",
    "name": "アイユウ長府ホームヘルプサービス事業部",
    "kana": "アイユウチョウフホームヘルプサービスジギョウブ",
    "address": "山口県下関市長府南之町1-1アイユウ城下町長府 アイユウ城下町長府",
    "lat": 33.997714959843,
    "lng": 130.990862972214,
    "tel": "083-246-6430",
    "url": "http://shoueikai-aiyuu.com",
    "pref": "山口県",
    "city": "下関市",
    "category": "home_help",
    "serviceType": "訪問介護",
    "capacity": 0,
    "openDays": [
      "平日",
      "土曜日"
    ],
    "openDaysNote": "日曜祝日その他緊急等やむを得ない時はこの限りではなく対応する。電話も24時間で対応している。"
  },
  {
    "id": "3570106439",
    "name": "あさお。ヘルパーステーション",
    "kana": "アサオ。ヘルパーステーション",
    "address": "山口県下関市栄町1-13レジデンス新和201号 レジデンス新和201号",
    "lat": 33.9637394,
    "lng": 130.9269226,
    "tel": "083-291-3026",
    "url": "",
    "pref": "山口県",
    "city": "下関市",
    "category": "home_help",
    "serviceType": "訪問介護",
    "capacity": null,
    "openDays": [
      "平日",
      "土曜日",
      "日曜日",
      "祝日"
    ],
    "openDaysNote": ""
  },
  {
    "id": "3570103121",
    "name": "アビイヘルパーステーション",
    "kana": "アビイヘルパーステーション",
    "address": "山口県下関市清末鞍馬2丁目4-15",
    "lat": 34.0635432,
    "lng": 131.0259163,
    "tel": "083-283-0953",
    "url": "",
    "pref": "山口県",
    "city": "下関市",
    "category": "home_help",
    "serviceType": "訪問介護",
    "capacity": 0,
    "openDays": [
      "平日",
      "土曜日",
      "日曜日",
      "祝日"
    ],
    "openDaysNote": ""
  },
  {
    "id": "3570105811",
    "name": "ケアーズヘルパーステーション",
    "kana": "ケアーズヘルパーステーション",
    "address": "山口県下関市稗田町9-23",
    "lat": 33.9724638,
    "lng": 130.9186626,
    "tel": "083-242-0550",
    "url": "",
    "pref": "山口県",
    "city": "下関市",
    "category": "home_help",
    "serviceType": "訪問介護",
    "capacity": 0,
    "openDays": [
      "平日",
      "土曜日",
      "日曜日",
      "祝日"
    ],
    "openDaysNote": "サービスの提供時間は365日24時間とする"
  },
  {
    "id": "3570103584",
    "name": "ケアライフくろいヘルパーステーション",
    "kana": "ケアライフクロイヘルパーステーション",
    "address": "下関市豊浦町黒井10634-5",
    "lat": 34.1263353,
    "lng": 130.9092932,
    "tel": "083-775-1765",
    "url": "http://carelife1165.web.fc2.com/index.html",
    "pref": "山口県",
    "city": "下関市",
    "category": "home_help",
    "serviceType": "訪問介護",
    "capacity": 0,
    "openDays": [
      "平日",
      "土曜日",
      "日曜日",
      "祝日"
    ],
    "openDaysNote": "その他の時間については御相談に応じます。"
  },
  {
    "id": "3570106595",
    "name": "こころハウス　ヘルパーステーション",
    "kana": "ココロハウス　ヘルパーステーション",
    "address": "山口県下関市菊川町大字久野94‐1",
    "lat": 34.1450163,
    "lng": 130.9783069,
    "tel": "083-287-0001",
    "url": "https://shiennomori.com/",
    "pref": "山口県",
    "city": "下関市",
    "category": "home_help",
    "serviceType": "訪問介護",
    "capacity": null,
    "openDays": [
      "平日",
      "土曜日",
      "日曜日",
      "祝日"
    ],
    "openDaysNote": ""
  },
  {
    "id": "3570104137",
    "name": "サンキ・ウエルビィ介護センター下関",
    "kana": "サンキ・ウエルビィカイゴセンターシモノセキ",
    "address": "山口県下関市生野町一丁目４－１０－２",
    "lat": 33.9815117,
    "lng": 130.9346314,
    "tel": "083-250-1127",
    "url": "",
    "pref": "山口県",
    "city": "下関市",
    "category": "home_help",
    "serviceType": "訪問介護",
    "capacity": 0,
    "openDays": [
      "平日",
      "土曜日",
      "日曜日",
      "祝日"
    ],
    "openDaysNote": "年中無休　24時間　（改行）サービス提供時間は事前に居宅介護支援事業所等により計画された居宅サービス計画に基づくものとし、原則として緊急のサービス依頼のを受けることはできない。"
  },
  {
    "id": "3570101216",
    "name": "しゃくなげ園ヘルパーステーション",
    "kana": "シャクナゲエンヘルパーステーション",
    "address": "山口県下関市大字田倉80番地2",
    "lat": 34.0180117342771,
    "lng": 130.969726486508,
    "tel": "083-256-3670",
    "url": "http://care-net.biz/35/syakunag/",
    "pref": "山口県",
    "city": "下関市",
    "category": "home_help",
    "serviceType": "訪問介護",
    "capacity": 0,
    "openDays": [
      "平日",
      "土曜日",
      "日曜日",
      "祝日"
    ],
    "openDaysNote": "電話等の連絡により、24時間出勤可能"
  },
  {
    "id": "3570106587",
    "name": "タイヘイヘルパーステーション",
    "kana": "タイヘイヘルパーステーション",
    "address": "山口県下関市上新地町2-2-7",
    "lat": 33.9579775969871,
    "lng": 130.921033148926,
    "tel": "083-235-5000",
    "url": "https://taihei-hd.jp/",
    "pref": "山口県",
    "city": "下関市",
    "category": "home_help",
    "serviceType": "訪問介護",
    "capacity": 37,
    "openDays": [
      "平日",
      "土曜日",
      "日曜日",
      "祝日"
    ],
    "openDaysNote": ""
  },
  {
    "id": "3570101281",
    "name": "ティーワスヘルパーステーション",
    "kana": "ティーワスヘルパーステーション",
    "address": "下関市秋根本町2-9-20",
    "lat": 34.0095762425929,
    "lng": 130.951782,
    "tel": "083-263-1011",
    "url": "www.twas.jp",
    "pref": "山口県",
    "city": "下関市",
    "category": "home_help",
    "serviceType": "訪問介護",
    "capacity": 0,
    "openDays": [
      "平日",
      "土曜日",
      "日曜日",
      "祝日"
    ],
    "openDaysNote": "基本的には365日24時間サービス提供対応とする。（夜間、深夜、早朝のご利用は、ケアプランに沿ったサービス提供とします。事前協議による）時間外の相談は事業所の営業時間に相談。実費利用は、別契約となります。"
  },
  {
    "id": "3570106355",
    "name": "ニチイケアセンターえげ町",
    "kana": "ニチイケアセンターエゲマチ",
    "address": "山口県下関市長府江下町1番46号ELCIA-Ⅱ3階　311号室 ELCIA-Ⅱ3階　311号室",
    "lat": 34.0132921135696,
    "lng": 130.997477935582,
    "tel": "083-241-4207",
    "url": "",
    "pref": "山口県",
    "city": "下関市",
    "category": "home_help",
    "serviceType": "訪問介護",
    "capacity": 0,
    "openDays": [
      "平日",
      "土曜日",
      "日曜日",
      "祝日"
    ],
    "openDaysNote": "居宅サービス計画により、営業時間以外でも、サービスの提供を行う場合がある。"
  },
  {
    "id": "3570100382",
    "name": "ニチイケアセンター下関",
    "kana": "ニチイケアセンターシモノセキ",
    "address": "山口県下関市細江町2丁目2-1　原弘産ビル３F",
    "lat": 33.951802,
    "lng": 130.9317445,
    "tel": "083-228-6451",
    "url": "http://www.nichiigakkan.co.jp",
    "pref": "山口県",
    "city": "下関市",
    "category": "home_help",
    "serviceType": "訪問介護",
    "capacity": 0,
    "openDays": [
      "平日",
      "土曜日",
      "日曜日",
      "祝日"
    ],
    "openDaysNote": "サービス計画に基づき、休業日・営業時間外であっても、サービスの提供を行う場合がある。"
  },
  {
    "id": "3570101299",
    "name": "ハートケアセンター下関",
    "kana": "ハートケアセンターシモノセキ",
    "address": "下関市豊前田町3-2-7第一ビル１F 第一ビル１F",
    "lat": 33.9507229,
    "lng": 130.9277935,
    "tel": "083-228-0336",
    "url": "heartcaregroup.net",
    "pref": "山口県",
    "city": "下関市",
    "category": "home_help",
    "serviceType": "訪問介護",
    "capacity": 0,
    "openDays": [
      "平日",
      "土曜日",
      "日曜日",
      "祝日"
    ],
    "openDaysNote": ""
  },
  {
    "id": "3570100036",
    "name": "はまゆう苑あやらぎ",
    "kana": "ハマユウエンアヤラギ",
    "address": "下関市綾羅木新町三丁目11番40号",
    "lat": 34.0112477,
    "lng": 130.9230399,
    "tel": "083-251-1113",
    "url": "https://www.syoutoukai.or.jp/facilities/hamayu_ayaragi/",
    "pref": "山口県",
    "city": "下関市",
    "category": "home_help",
    "serviceType": "訪問介護",
    "capacity": 0,
    "openDays": [
      "平日",
      "土曜日",
      "祝日"
    ],
    "openDaysNote": "ただし、依頼があれば、夜間・早朝のサービスを行う"
  },
  {
    "id": "3570101075",
    "name": "ピア　ヘルパーステーション　どりーむ",
    "kana": "ピア　ヘルパーステーション　ドリーム",
    "address": "新地町４番２２号みんなの家 みんなの家",
    "lat": 33.9554076,
    "lng": 130.921346,
    "tel": "083-242-9952",
    "url": "https://h-n-peer.org/index.html",
    "pref": "山口県",
    "city": "下関市",
    "category": "home_help",
    "serviceType": "訪問介護",
    "capacity": 0,
    "openDays": [
      "平日",
      "土曜日",
      "祝日"
    ],
    "openDaysNote": "営業日外・営業時間外でも対応　※但し、当方の派遣体制が整っている場合に限る"
  },
  {
    "id": "3570105662",
    "name": "ファインヘルパーケアルーム",
    "kana": "ファインヘルパーケアルーム",
    "address": "山口県下関市大字冨任131番地ﾙﾅﾚｰｳﾞ ﾙﾅﾚｰｳﾞ",
    "lat": 34.0247287,
    "lng": 130.9279563,
    "tel": "083-258-4010",
    "url": "http://lunar.care/",
    "pref": "山口県",
    "city": "下関市",
    "category": "home_help",
    "serviceType": "訪問介護",
    "capacity": 0,
    "openDays": [
      "平日",
      "土曜日",
      "日曜日",
      "祝日"
    ],
    "openDaysNote": ""
  },
  {
    "id": "3570103253",
    "name": "ふくしサービスセンターあゆむ",
    "kana": "フクシサービスセンターアユム",
    "address": "下関市東神田町1番10号ｺｰｸｽしものせき２F ｺｰｸｽしものせき２F",
    "lat": 33.9603748,
    "lng": 130.9276463,
    "tel": "083-229-2940",
    "url": "b1wela@greencoop.or.jp",
    "pref": "山口県",
    "city": "下関市",
    "category": "home_help",
    "serviceType": "訪問介護",
    "capacity": 10,
    "openDays": [
      "平日",
      "土曜日",
      "日曜日",
      "祝日"
    ],
    "openDaysNote": "ご相談に応じます。"
  },
  {
    "id": "3570106041",
    "name": "ヘルパーステーション　ここしあ",
    "kana": "ヘルパーステーション　ココシア",
    "address": "山口県下関市壇之浦町４番２８号",
    "lat": 33.9616304,
    "lng": 130.9521747,
    "tel": "083-228-0700",
    "url": "http://reiwakai.com",
    "pref": "山口県",
    "city": "下関市",
    "category": "home_help",
    "serviceType": "訪問介護",
    "capacity": 0,
    "openDays": [
      "平日",
      "土曜日",
      "日曜日",
      "祝日"
    ],
    "openDaysNote": ""
  },
  {
    "id": "3570105357",
    "name": "ヘルパーステーション　華園",
    "kana": "ヘルパーステーション　カエン",
    "address": "山口県下関市豊浦町大字川棚4040番地の1コンフォールⅡ号館103号 コンフォールⅡ号館103号",
    "lat": 34.1562650110987,
    "lng": 130.925379505183,
    "tel": "083-242-2336",
    "url": "",
    "pref": "山口県",
    "city": "下関市",
    "category": "home_help",
    "serviceType": "訪問介護",
    "capacity": 0,
    "openDays": [
      "平日",
      "土曜日",
      "日曜日",
      "祝日"
    ],
    "openDaysNote": ""
  },
  {
    "id": "3570105464",
    "name": "ヘルパーステーション　夢叶",
    "kana": "ヘルパーステーション　ユメカ",
    "address": "山口県下関市山の田中央町1-18",
    "lat": 33.9862474,
    "lng": 130.9278153,
    "tel": "083-255-3003",
    "url": "",
    "pref": "山口県",
    "city": "下関市",
    "category": "home_help",
    "serviceType": "訪問介護",
    "capacity": 0,
    "openDays": [
      "平日",
      "土曜日",
      "日曜日",
      "祝日"
    ],
    "openDaysNote": ""
  },
  {
    "id": "3570106389",
    "name": "ヘルパーステーションオクトサービス",
    "kana": "ヘルパーステーションオクトサービス",
    "address": "山口県下関市綾羅木新町１丁目13-11",
    "lat": 34.0111669,
    "lng": 130.9203202,
    "tel": "083-242-2366",
    "url": "",
    "pref": "山口県",
    "city": "下関市",
    "category": "home_help",
    "serviceType": "訪問介護",
    "capacity": 0,
    "openDays": [
      "平日",
      "土曜日",
      "日曜日",
      "祝日"
    ],
    "openDaysNote": ""
  },
  {
    "id": "3570106728",
    "name": "ヘルパーステーションひまわり安岡",
    "kana": "ヘルパーステーションヒマワリヤスオカ",
    "address": "山口県下関市大字安岡1478-1",
    "lat": 34.025481449312,
    "lng": 130.923025499336,
    "tel": "083-250-8753",
    "url": "",
    "pref": "山口県",
    "city": "下関市",
    "category": "home_help",
    "serviceType": "訪問介護",
    "capacity": 0,
    "openDays": [
      "平日",
      "土曜日",
      "日曜日",
      "祝日"
    ],
    "openDaysNote": ""
  },
  {
    "id": "3570105217",
    "name": "ヘルパーステーション木蘭",
    "kana": "ヘルパーステーション　モクレン",
    "address": "山口県下関市豊浦町黒井１５３６－１",
    "lat": 34.1257049,
    "lng": 130.9131567,
    "tel": "０８３－７７４－３０７７",
    "url": "http://takurousho-ajisai.com",
    "pref": "山口県",
    "city": "下関市",
    "category": "home_help",
    "serviceType": "訪問介護",
    "capacity": 0,
    "openDays": [
      "平日",
      "祝日"
    ],
    "openDaysNote": ""
  },
  {
    "id": "3570101240",
    "name": "ヘルパーセンター山風",
    "kana": "ヘルパーセンターヤマカゼ",
    "address": "山口県下関市大字永田郷４４０－３",
    "lat": 34.0954609,
    "lng": 130.8942586,
    "tel": "083-286-7115",
    "url": "http://www.yamamou.com/syunkouen/",
    "pref": "山口県",
    "city": "下関市",
    "category": "home_help",
    "serviceType": "訪問介護",
    "capacity": null,
    "openDays": [
      "平日",
      "土曜日",
      "日曜日",
      "祝日"
    ],
    "openDaysNote": "ただし、事前の申し込みが必要"
  },
  {
    "id": "3570106553",
    "name": "ホームケア土屋下関",
    "kana": "ホームケアツチヤシモノセキ",
    "address": "山口県下関市新垢田南町1丁目13₋19グリーンベル２F グリーンベル２F",
    "lat": 33.9878967,
    "lng": 130.9180508,
    "tel": "050-3204-2418",
    "url": "https://homecare-tsuchiya.com",
    "pref": "山口県",
    "city": "下関市",
    "category": "home_help",
    "serviceType": "訪問介護",
    "capacity": 0,
    "openDays": [
      "平日",
      "土曜日",
      "日曜日",
      "祝日"
    ],
    "openDaysNote": "サービス提供日年中無休（改行）サービス提供時間24時間とする。"
  },
  {
    "id": "3570100697",
    "name": "ホームヘルパーステーション員光",
    "kana": "ホームヘルパーステーションカジミツ",
    "address": "下関市員光1544",
    "lat": 34.0510493,
    "lng": 130.9840315,
    "tel": "083-248-5115",
    "url": "http://care-net.biz/35/yamabatokai/index.php",
    "pref": "山口県",
    "city": "下関市",
    "category": "home_help",
    "serviceType": "訪問介護",
    "capacity": 1,
    "openDays": [
      "平日",
      "土曜日",
      "日曜日",
      "祝日"
    ],
    "openDaysNote": "介護保険に沿ったサービスの提供。（改行）日曜日は、要相談。（改行）介護保険外の自費利用サービス有り。"
  },
  {
    "id": "3570103170",
    "name": "ホームヘルプサービス　ほがらか",
    "kana": "ホームヘルプサービス　ホガラカ",
    "address": "下関市彦島向井町二丁目１０－３６",
    "lat": 33.9197121,
    "lng": 130.91812,
    "tel": "083-294-2172",
    "url": "",
    "pref": "山口県",
    "city": "下関市",
    "category": "home_help",
    "serviceType": "訪問介護",
    "capacity": 0,
    "openDays": [
      "平日",
      "土曜日",
      "日曜日",
      "祝日"
    ],
    "openDaysNote": "その他の時間はご相談ください。"
  },
  {
    "id": "3570102149",
    "name": "ホームヘルプサービスセンターSUN",
    "kana": "ホームヘルプサービスセンターサン",
    "address": "山口県下関市豊浦町吉永1815-1",
    "lat": 34.1393564,
    "lng": 130.9237444,
    "tel": "083-774-3915",
    "url": "",
    "pref": "山口県",
    "city": "下関市",
    "category": "home_help",
    "serviceType": "訪問介護",
    "capacity": 0,
    "openDays": [
      "平日",
      "土曜日",
      "祝日"
    ],
    "openDaysNote": ""
  },
  {
    "id": "3570106249",
    "name": "ほっとステーション心桜",
    "kana": "ホットステーションココロ",
    "address": "山口県下関市長府新松原町10番3号",
    "lat": 33.9909298675381,
    "lng": 130.987881537973,
    "tel": "083-242-4544",
    "url": "",
    "pref": "山口県",
    "city": "下関市",
    "category": "home_help",
    "serviceType": "訪問介護",
    "capacity": 0,
    "openDays": [
      "平日",
      "土曜日",
      "日曜日",
      "祝日"
    ],
    "openDaysNote": ""
  },
  {
    "id": "3570100432",
    "name": "みどり園訪問介護事業所",
    "kana": "ミドリエンホウモンカイゴジギョウショ",
    "address": "山口県下関市長府才川二丁目21番1号",
    "lat": 34.0252383,
    "lng": 130.9995583,
    "tel": "083-248-2639",
    "url": "http://care-net.biz/35/houaikai/",
    "pref": "山口県",
    "city": "下関市",
    "category": "home_help",
    "serviceType": "訪問介護",
    "capacity": 0,
    "openDays": [
      "平日",
      "土曜日",
      "日曜日",
      "祝日"
    ],
    "openDaysNote": "派遣時間については、出来る限り要望に応じるよう努めております。"
  },
  {
    "id": "3570105415",
    "name": "みらいヘルパーステーション",
    "kana": "ミライヘルパーステーション",
    "address": "山口県下関市幡生宮の下町8-12",
    "lat": 33.9671512377303,
    "lng": 130.928246088326,
    "tel": "083-242-1221",
    "url": "",
    "pref": "山口県",
    "city": "下関市",
    "category": "home_help",
    "serviceType": "訪問介護",
    "capacity": null,
    "openDays": [
      "平日",
      "土曜日",
      "日曜日",
      "祝日"
    ],
    "openDaysNote": "提供時間帯以外にも、相談に応じます。"
  },
  {
    "id": "3570100879",
    "name": "愛グループ　シャングリラ",
    "kana": "アイグループ　シャングリラ",
    "address": "下関市みもすそ川町23番1号",
    "lat": 33.9672936,
    "lng": 130.9548689,
    "tel": "083-231-1165",
    "url": "http://www.aigroup.co.jp",
    "pref": "山口県",
    "city": "下関市",
    "category": "home_help",
    "serviceType": "訪問介護",
    "capacity": 0,
    "openDays": [
      "平日",
      "土曜日",
      "日曜日",
      "祝日"
    ],
    "openDaysNote": "上記の時間以外でも相談に応じます"
  },
  {
    "id": "3570101174",
    "name": "安夢住ケアセンター下関",
    "kana": "アムズケアセンターシモノセキ",
    "address": "下関市長府松小田北町15番18号",
    "lat": 34.0217914,
    "lng": 130.9962864,
    "tel": "083-245-5113",
    "url": "",
    "pref": "山口県",
    "city": "下関市",
    "category": "home_help",
    "serviceType": "訪問介護",
    "capacity": 0,
    "openDays": [
      "平日",
      "土曜日",
      "日曜日",
      "祝日"
    ],
    "openDaysNote": ""
  },
  {
    "id": "3570100184",
    "name": "医療法人　茜会　勝山ホームヘルパーステーション",
    "kana": "イリョウホウジン　アカネカイ　カツヤマホームヘルパーステーション",
    "address": "下関市秋根南町2－3－7",
    "lat": 34.0078981,
    "lng": 130.9546595,
    "tel": "083-257-2662",
    "url": "",
    "pref": "山口県",
    "city": "下関市",
    "category": "home_help",
    "serviceType": "訪問介護",
    "capacity": 0,
    "openDays": [
      "平日",
      "土曜日",
      "日曜日",
      "祝日"
    ],
    "openDaysNote": "特になし"
  },
  {
    "id": "3570106827",
    "name": "医療法人　社団季朋会　王司病院訪問介護事業所",
    "kana": "イリョウホウジン　シャダンキホウカイ　オウジビョウインホウモンカイゴジギョウショ",
    "address": "王司本町1丁目18-27",
    "lat": 34.0411882,
    "lng": 131.0153895,
    "tel": "083-248-3631",
    "url": "http://www.kihoukai.or.jp",
    "pref": "山口県",
    "city": "下関市",
    "category": "home_help",
    "serviceType": "訪問介護",
    "capacity": 0,
    "openDays": [
      "平日",
      "土曜日",
      "日曜日",
      "祝日"
    ],
    "openDaysNote": "365日、24時間行う"
  },
  {
    "id": "3570100176",
    "name": "医療法人茜会桜山ホームヘルパーステーション",
    "kana": "イリョウホウジンアカネカイサクラヤマホームヘルパーステーション",
    "address": "下関市上新地町２丁目６－２６",
    "lat": 33.960908225719,
    "lng": 130.921192532602,
    "tel": "083-223-1367",
    "url": "",
    "pref": "山口県",
    "city": "下関市",
    "category": "home_help",
    "serviceType": "訪問介護",
    "capacity": 0,
    "openDays": [
      "平日",
      "土曜日",
      "日曜日",
      "祝日"
    ],
    "openDaysNote": "年中無休２４時間体制"
  },
  {
    "id": "3570100903",
    "name": "王喜の郷ホームヘルパーステーションいるか",
    "kana": "オウキノサト　ホームヘルパーステーション　イルカ",
    "address": "下関市王喜本町6丁目1-12",
    "lat": 34.0636432,
    "lng": 131.052084,
    "tel": "083-283-2834",
    "url": "http://www.ryokujukai.jp",
    "pref": "山口県",
    "city": "下関市",
    "category": "home_help",
    "serviceType": "訪問介護",
    "capacity": 0,
    "openDays": [
      "平日",
      "土曜日",
      "日曜日",
      "祝日"
    ],
    "openDaysNote": "早朝、深夜は対応しておりません。夜間は18：00～19：00のみ対応しています。"
  },
  {
    "id": "3570102040",
    "name": "下関市社協　下関ホームヘルパーステーション",
    "kana": "シモノセキシシャキョウ　シモノセキホームヘルパーステーション",
    "address": "山口県下関市貴船町三丁目４番１号下関市社会福祉センター内 下関市社会福祉センター内",
    "lat": 33.9687128819586,
    "lng": 130.941637333591,
    "tel": "083-232-2005",
    "url": "http://www.shimoshakyo.or.jp",
    "pref": "山口県",
    "city": "下関市",
    "category": "home_help",
    "serviceType": "訪問介護",
    "capacity": 0,
    "openDays": [
      "平日",
      "土曜日",
      "日曜日",
      "祝日"
    ],
    "openDaysNote": ""
  },
  {
    "id": "3570102115",
    "name": "下関市社協豊浦ホームヘルパーステーション",
    "kana": "シモノセキシシャキョウトヨウラホームヘルパーステーション",
    "address": "下関市豊浦町大字川棚6895番地1",
    "lat": 34.1457405727331,
    "lng": 130.923480416367,
    "tel": "083-775-4139",
    "url": "https://www.shimoshakyo.or.jp",
    "pref": "山口県",
    "city": "下関市",
    "category": "home_help",
    "serviceType": "訪問介護",
    "capacity": 0,
    "openDays": [
      "平日"
    ],
    "openDaysNote": ""
  },
  {
    "id": "3570102099",
    "name": "下関市社協豊田ホームヘルパーステーション",
    "kana": "シモノセキシシャキョウトヨタホームヘルパーステーション",
    "address": "下関市豊田町大字矢田194番地",
    "lat": 34.2032236,
    "lng": 131.0723232,
    "tel": "083-767-0488",
    "url": "",
    "pref": "山口県",
    "city": "下関市",
    "category": "home_help",
    "serviceType": "訪問介護",
    "capacity": 5,
    "openDays": [
      "平日"
    ],
    "openDaysNote": "サービスの提供にあたっては、利用者の訪問時の状況、事情、意向等について十分配慮します"
  },
  {
    "id": "3570102032",
    "name": "下関市社協豊北ホームヘルパーステーション",
    "kana": "シモノセキシシャキョウホウホクホームヘルパーステーション",
    "address": "下関市豊北町大字滝部3140番地1",
    "lat": 34.2894924,
    "lng": 130.9488745,
    "tel": "083-784-1028",
    "url": "http://www.shimoshakyo.or.jp",
    "pref": "山口県",
    "city": "下関市",
    "category": "home_help",
    "serviceType": "訪問介護",
    "capacity": 0,
    "openDays": [
      "平日"
    ],
    "openDaysNote": "電話等により連絡及びサービス提供が可能な体制とします。"
  },
  {
    "id": "3570100838",
    "name": "株式会社　セービング",
    "kana": "カブシキガイシャ　セービング",
    "address": "下関市小月宮の町7-3",
    "lat": 34.0743782,
    "lng": 131.0380653,
    "tel": "083-281-1221",
    "url": "http://www.e-saving.jp/",
    "pref": "山口県",
    "city": "下関市",
    "category": "home_help",
    "serviceType": "訪問介護",
    "capacity": 0,
    "openDays": [
      "平日",
      "土曜日",
      "日曜日",
      "祝日"
    ],
    "openDaysNote": "なし"
  },
  {
    "id": "3570102461",
    "name": "菊川ヘルパーステーションひかり",
    "kana": "キクガワヘルパーステーションヒカリ",
    "address": "下関市菊川町下岡枝389-1",
    "lat": 34.1266701182472,
    "lng": 131.036821771939,
    "tel": "083-288-2027",
    "url": "http://r.goope.jp/kaien",
    "pref": "山口県",
    "city": "下関市",
    "category": "home_help",
    "serviceType": "訪問介護",
    "capacity": 96,
    "openDays": [
      "平日",
      "土曜日",
      "日曜日",
      "祝日"
    ],
    "openDaysNote": "特になし"
  },
  {
    "id": "3570102578",
    "name": "済生会貴船福祉ケアセンター　貴船園ヘルパーステーション",
    "kana": "サイセイカイキフネフクシケアセンター　キフネエンヘルパーステーション",
    "address": "下関市貴船町3丁目4-1",
    "lat": 33.9692601,
    "lng": 130.9425922,
    "tel": "083-223-0263",
    "url": "http://www.saiseikai.or.jp",
    "pref": "山口県",
    "city": "下関市",
    "category": "home_help",
    "serviceType": "訪問介護",
    "capacity": 0,
    "openDays": [
      "平日",
      "土曜日",
      "日曜日",
      "祝日"
    ],
    "openDaysNote": "特になし"
  },
  {
    "id": "3570101513",
    "name": "三伶ヘルパーステーション",
    "kana": "サンレイヘルパーステーション",
    "address": "下関市一の宮町4丁目10番19号",
    "lat": 33.9950688,
    "lng": 130.9487798,
    "tel": "083-260-1260",
    "url": "",
    "pref": "山口県",
    "city": "下関市",
    "category": "home_help",
    "serviceType": "訪問介護",
    "capacity": 0,
    "openDays": [
      "平日",
      "土曜日",
      "日曜日",
      "祝日"
    ],
    "openDaysNote": "上記時間以外にも、対応が可能な状況であれば随時対応いたします。"
  },
  {
    "id": "3570102537",
    "name": "神田福祉介護サービス",
    "kana": "カンダフクシカイゴサービス",
    "address": "山口県下関市豊北町大字阿川３６４７－２",
    "lat": 34.3357212,
    "lng": 130.9263893,
    "tel": "083-786-1058",
    "url": "",
    "pref": "山口県",
    "city": "下関市",
    "category": "home_help",
    "serviceType": "訪問介護",
    "capacity": 2,
    "openDays": [
      "平日",
      "土曜日",
      "日曜日",
      "祝日"
    ],
    "openDaysNote": "緊急時の対応あり"
  },
  {
    "id": "3570105647",
    "name": "第一あんしんサービス下関",
    "kana": "ダイイチアンシンサービスシモノセキ",
    "address": "幡生宮の下町24番１１号",
    "lat": 33.9845435,
    "lng": 130.9311362,
    "tel": "083-251-6645",
    "url": "",
    "pref": "山口県",
    "city": "下関市",
    "category": "home_help",
    "serviceType": "訪問介護",
    "capacity": 0,
    "openDays": [
      "平日",
      "土曜日",
      "祝日"
    ],
    "openDaysNote": "特になし"
  },
  {
    "id": "3570100283",
    "name": "長府ケアハウスホームヘルプサービスセンター",
    "kana": "チョウフケアハウスホームヘルプサービスセンター",
    "address": "下関市長府黒門南町６番５３号昇陽弐番館 昇陽弐番館",
    "lat": 33.9839971123602,
    "lng": 130.985579078018,
    "tel": "083-246-8444",
    "url": "htpp:/www.shinsetu.net",
    "pref": "山口県",
    "city": "下関市",
    "category": "home_help",
    "serviceType": "訪問介護",
    "capacity": 0,
    "openDays": [
      "平日",
      "土曜日",
      "日曜日",
      "祝日"
    ],
    "openDaysNote": "必要に応じ２４時間対応とする。"
  },
  {
    "id": "3570100309",
    "name": "彦島ホームヘルパーステーション",
    "kana": "ヒコシマホームヘルパーステーション",
    "address": "下関市彦島江の浦町９丁目4番5号",
    "lat": 33.9299053,
    "lng": 130.9178586,
    "tel": "083-266-6687",
    "url": "http://www.syoutoukai.or.jp/",
    "pref": "山口県",
    "city": "下関市",
    "category": "home_help",
    "serviceType": "訪問介護",
    "capacity": 0,
    "openDays": [
      "平日",
      "土曜日",
      "日曜日",
      "祝日"
    ],
    "openDaysNote": "必要に応じて時間の対応に取り組んでいる。"
  },
  {
    "id": "3570103436",
    "name": "武久興産指定訪問介護事業所",
    "kana": "タケヒサコウサンシテイホウモンカイゴジギョウショ",
    "address": "下関市西大坪町１８番１３号シニアウエルス下関　弐番館 シニアウエルス下関　弐番館",
    "lat": 33.9619855,
    "lng": 130.9147505,
    "tel": "083-222-2551",
    "url": "",
    "pref": "山口県",
    "city": "下関市",
    "category": "home_help",
    "serviceType": "訪問介護",
    "capacity": 0,
    "openDays": [
      "平日",
      "土曜日",
      "日曜日",
      "祝日"
    ],
    "openDaysNote": "特になし"
  },
  {
    "id": "3570106140",
    "name": "訪問介護　ハビリス",
    "kana": "ホウモンカイゴ　ハビリス",
    "address": "山口県下関市勝谷新町1-3-7　船津ビル203号",
    "lat": 34.0035375,
    "lng": 130.972458,
    "tel": "083-242-9303",
    "url": "http://hp.kaipoke.biz/crk/",
    "pref": "山口県",
    "city": "下関市",
    "category": "home_help",
    "serviceType": "訪問介護",
    "capacity": 0,
    "openDays": [
      "平日",
      "土曜日",
      "日曜日",
      "祝日"
    ],
    "openDaysNote": "利用者の方と相談のうえ、事業所営業時間以外も対応可能。"
  },
  {
    "id": "3570106629",
    "name": "訪問介護ステーションアドバンス山の田",
    "kana": "ホウモンカイゴステーションアドバンスヤマノタ",
    "address": "山口県下関市山の田東町1-20",
    "lat": 33.9876728,
    "lng": 130.9300871,
    "tel": "083-242-6776",
    "url": "https://advannce-siva.co.jp",
    "pref": "山口県",
    "city": "下関市",
    "category": "home_help",
    "serviceType": "訪問介護",
    "capacity": 0,
    "openDays": [
      "平日",
      "土曜日",
      "日曜日",
      "祝日"
    ],
    "openDaysNote": ""
  },
  {
    "id": "3570106637",
    "name": "訪問介護ステーションエクラ",
    "kana": "ホウモンカイゴステーションエクラ",
    "address": "山の田中央町1-13武嶋ビル2-B 武嶋ビル2-B",
    "lat": 33.9866458,
    "lng": 130.928158,
    "tel": "083-250-7842",
    "url": "https://ekura.jp/",
    "pref": "山口県",
    "city": "下関市",
    "category": "home_help",
    "serviceType": "訪問介護",
    "capacity": 0,
    "openDays": [
      "平日"
    ],
    "openDaysNote": "平日の営業時間外、土曜日、日曜日、祝日でも必要時要相談。"
  },
  {
    "id": "3570100390",
    "name": "豊関介護サービス株式会社",
    "kana": "ホウカンカイゴサービスカブシキガイシャ",
    "address": "下関市生野町2-19-6",
    "lat": 33.9828699,
    "lng": 130.9337204,
    "tel": "083-251-1188",
    "url": "",
    "pref": "山口県",
    "city": "下関市",
    "category": "home_help",
    "serviceType": "訪問介護",
    "capacity": 0,
    "openDays": [
      "平日",
      "土曜日",
      "日曜日",
      "祝日"
    ],
    "openDaysNote": "深夜については要相談"
  },
  {
    "id": "3570102917",
    "name": "豊寿苑ホームヘルパーステーション",
    "kana": "ホウジュエンホームヘルパーステーション",
    "address": "山口県下関市豊浦町大字厚母郷１０４４２番地",
    "lat": 34.1186009455377,
    "lng": 130.90562535153,
    "tel": "083-772-0107",
    "url": "http://care-net.biz/35/houjyu/",
    "pref": "山口県",
    "city": "下関市",
    "category": "home_help",
    "serviceType": "訪問介護",
    "capacity": null,
    "openDays": [
      "平日",
      "土曜日",
      "日曜日",
      "祝日"
    ],
    "openDaysNote": ""
  },
  {
    "id": "3570100192",
    "name": "豊前田ホームヘルパーステーション",
    "kana": "ブゼンダホームヘルパーステーション",
    "address": "下関市豊前田町2-4-10　弘仁ビル2階",
    "lat": 33.9521466,
    "lng": 130.9265949,
    "tel": "083-228-1988",
    "url": "",
    "pref": "山口県",
    "city": "下関市",
    "category": "home_help",
    "serviceType": "訪問介護",
    "capacity": null,
    "openDays": [
      "平日",
      "土曜日",
      "日曜日",
      "祝日"
    ],
    "openDaysNote": "サービス提供時間は上記の受付時間帯とは限りません。ご相談ください"
  },
  {
    "id": "3570104624",
    "name": "夢ステーションすいれん花",
    "kana": "ユメステーションスイレンカ",
    "address": "下関市一の宮町4丁目11－27",
    "lat": 33.9945479936959,
    "lng": 130.950316894032,
    "tel": "083-227-4171",
    "url": "http://kabu-kousei.com/",
    "pref": "山口県",
    "city": "下関市",
    "category": "home_help",
    "serviceType": "訪問介護",
    "capacity": 5,
    "openDays": [
      "平日",
      "土曜日",
      "祝日"
    ],
    "openDaysNote": "サービス提供時間365日、24時間とする。"
  },
  {
    "id": "3570100325",
    "name": "有限会社ゴールデン・エイジ・サービス",
    "kana": "ユウゲンガイシャゴールデン・エイジ・サービス",
    "address": "下関市武久町1丁目39番6号",
    "lat": 33.9795952,
    "lng": 130.9225382,
    "tel": "083-255-2005",
    "url": "golden-age@crux.ocn.ne.jp",
    "pref": "山口県",
    "city": "下関市",
    "category": "home_help",
    "serviceType": "訪問介護",
    "capacity": 0,
    "openDays": [
      "平日",
      "土曜日",
      "日曜日",
      "祝日"
    ],
    "openDaysNote": "特に無し"
  },
  {
    "id": "3577800356",
    "name": "有限会社ライフサポートたきやま",
    "kana": "ユウゲンガイシャライフサポートタキヤマ",
    "address": "下関市豊田町大字矢田233",
    "lat": 34.2017849,
    "lng": 131.0745926,
    "tel": "083-766-0642",
    "url": "",
    "pref": "山口県",
    "city": "下関市",
    "category": "home_help",
    "serviceType": "訪問介護",
    "capacity": null,
    "openDays": [
      "平日",
      "土曜日",
      "日曜日",
      "祝日"
    ],
    "openDaysNote": "電話により、連絡可能な体制にしている。"
  },
  {
    "id": "3577800463",
    "name": "梨花の里ホームヘルパーステーション",
    "kana": "リカノサト　ホームヘルパーステーション",
    "address": "下関市豊北町大字滝部字東11042番地１",
    "lat": 34.2940337,
    "lng": 130.9489938,
    "tel": "083-782-0305",
    "url": "http://houhokufukushikai.jp/",
    "pref": "山口県",
    "city": "下関市",
    "category": "home_help",
    "serviceType": "訪問介護",
    "capacity": 0,
    "openDays": [
      "平日",
      "土曜日",
      "日曜日",
      "祝日"
    ],
    "openDaysNote": "特になし"
  },
  {
    "id": "3570104186",
    "name": "林田クリニックヘルパーステーションそよ風",
    "kana": "ハヤシダクリニックヘルパーステーションソヨカゼ",
    "address": "下関市山の口町１－３０",
    "lat": 33.9685407,
    "lng": 130.9355206,
    "tel": "083-242-5810",
    "url": "",
    "pref": "山口県",
    "city": "下関市",
    "category": "home_help",
    "serviceType": "訪問介護",
    "capacity": 0,
    "openDays": [
      "平日",
      "土曜日",
      "祝日"
    ],
    "openDaysNote": "電話等により２４時間常時連絡が可能な体制です。"
  },
  {
    "id": "3570700991",
    "name": "ＪＡ訪問介護ふれあい下松",
    "kana": "ジェイエーホウモンカイゴフレアイクダマツ",
    "address": "山口県下松市大字河内１９３３−１",
    "lat": 34.0213266164541,
    "lng": 131.885727523371,
    "tel": "0833-43-6620",
    "url": "htpps://www.ja‐ymg.or.jp",
    "pref": "山口県",
    "city": "下松市",
    "category": "home_help",
    "serviceType": "訪問介護",
    "capacity": null,
    "openDays": [
      "平日",
      "土曜日",
      "日曜日",
      "祝日"
    ],
    "openDaysNote": "休日・時間外は電話対応です。"
  },
  {
    "id": "3571501893",
    "name": "えむ訪問介護事業所",
    "kana": "エムホウモンカイゴジギョウショ",
    "address": "山口県下松市古川町4－4－12ゆうきビル３F ゆうきビル３F",
    "lat": 34.0058913,
    "lng": 131.8708342,
    "tel": "0833‐44‐9830",
    "url": "",
    "pref": "山口県",
    "city": "下松市",
    "category": "home_help",
    "serviceType": "訪問介護",
    "capacity": 0,
    "openDays": [
      "平日",
      "土曜日"
    ],
    "openDaysNote": ""
  },
  {
    "id": "3570701262",
    "name": "グレイシア下松ヘルパーステーション",
    "kana": "グレイシアクダマツヘルパーステーション",
    "address": "山口県下松市中島町二丁目１番５０号",
    "lat": 34.0113553,
    "lng": 131.8603872,
    "tel": "0833-45-1165",
    "url": "",
    "pref": "山口県",
    "city": "下松市",
    "category": "home_help",
    "serviceType": "訪問介護",
    "capacity": null,
    "openDays": [
      "平日",
      "土曜日",
      "日曜日",
      "祝日"
    ],
    "openDaysNote": ""
  },
  {
    "id": "3570700330",
    "name": "サンキ・ウエルビィ介護センター下松",
    "kana": "サンキ・ウエルビィカイゴセンタークダマツ",
    "address": "山口県下松市西豊井915-1",
    "lat": 34.0137856,
    "lng": 131.8698172,
    "tel": "0833-48-1235",
    "url": "",
    "pref": "山口県",
    "city": "下松市",
    "category": "home_help",
    "serviceType": "訪問介護",
    "capacity": 0,
    "openDays": [
      "平日",
      "土曜日",
      "日曜日",
      "祝日"
    ],
    "openDaysNote": "ただし、ケアプランに沿ったサービス提供とする。"
  },
  {
    "id": "3570700454",
    "name": "ニチイケアセンター下松",
    "kana": "ニチイケアセンタークダマツ",
    "address": "せせらぎ町１丁目２番３１号",
    "lat": 34.0162379,
    "lng": 131.8607235,
    "tel": "0833-48-1080",
    "url": "http://www.nichiigakkan.so.jp",
    "pref": "山口県",
    "city": "下松市",
    "category": "home_help",
    "serviceType": "訪問介護",
    "capacity": 0,
    "openDays": [
      "平日",
      "土曜日",
      "日曜日",
      "祝日"
    ],
    "openDaysNote": "サービス計画に基づき、休業日、営業時間外であっても、サービスの提供を行う場合がある。"
  },
  {
    "id": "3570700843",
    "name": "ヘルパーステーションねがい星",
    "kana": "ヘルパーステーションネガイボシ",
    "address": "下松市東陽6丁目1－3",
    "lat": 34.0323436,
    "lng": 131.914021,
    "tel": "0833－46－0015",
    "url": "http://www.negaiboshi.net/",
    "pref": "山口県",
    "city": "下松市",
    "category": "home_help",
    "serviceType": "訪問介護",
    "capacity": 0,
    "openDays": [
      "平日",
      "土曜日",
      "日曜日",
      "祝日"
    ],
    "openDaysNote": ""
  },
  {
    "id": "3570700074",
    "name": "下松市社会福祉協議会指定訪問介護事業所",
    "kana": "クダマツシシャカイフクシキョウギカイシテイホウモンカイゴジギョウショ",
    "address": "山口県下松市西市二丁目１０番１６号",
    "lat": 34.0120826,
    "lng": 131.8586266,
    "tel": "0833‐41‐2720",
    "url": "",
    "pref": "山口県",
    "city": "下松市",
    "category": "home_help",
    "serviceType": "訪問介護",
    "capacity": 0,
    "openDays": [
      "平日",
      "土曜日",
      "日曜日",
      "祝日"
    ],
    "openDaysNote": ""
  },
  {
    "id": "3570701072",
    "name": "指定訪問介護事業所げんき",
    "kana": "シテイホウモンカイゴジギョウショゲンキ",
    "address": "山口県下松市西豊井1655-3",
    "lat": 34.0180854,
    "lng": 131.8772386,
    "tel": "0833-45-2200",
    "url": "",
    "pref": "山口県",
    "city": "下松市",
    "category": "home_help",
    "serviceType": "訪問介護",
    "capacity": 0,
    "openDays": [
      "平日",
      "土曜日",
      "日曜日",
      "祝日"
    ],
    "openDaysNote": "・必要に応じて随時、サービス提供可能な体制を検討していっている。"
  },
  {
    "id": "3570701205",
    "name": "松寿苑ホームヘルパーステーション",
    "kana": "ショウジュエンホームヘルパーステーション",
    "address": "山口県下松市大字来巻944番地の1",
    "lat": 34.023756,
    "lng": 131.9299953,
    "tel": "0833-47-0753",
    "url": "https://www.syojuen.com",
    "pref": "山口県",
    "city": "下松市",
    "category": "home_help",
    "serviceType": "訪問介護",
    "capacity": 39,
    "openDays": [
      "平日",
      "土曜日"
    ],
    "openDaysNote": "ケアプランの定める時間帯であれば、いつでも対応するものとする。（原則として8時から17時）"
  },
  {
    "id": "3570700637",
    "name": "訪問介護　友遊",
    "kana": "ホウモンカイゴ　ユウユウ",
    "address": "下松市河内中戸原1897番地",
    "lat": 34.0236522,
    "lng": 131.8965617,
    "tel": "0833-45-6501",
    "url": "",
    "pref": "山口県",
    "city": "下松市",
    "category": "home_help",
    "serviceType": "訪問介護",
    "capacity": 0,
    "openDays": [
      "平日",
      "土曜日",
      "日曜日",
      "祝日"
    ],
    "openDaysNote": "提供日以外でも要望があれば対応をします。"
  },
  {
    "id": "3570701189",
    "name": "訪問介護ステーション　きょうとも",
    "kana": "ホウモンカイゴステーション　キョウトモ",
    "address": "山口県下松市望町１丁目１０番１号",
    "lat": 34.0279100957485,
    "lng": 131.861277249074,
    "tel": "0833－48－2488",
    "url": "",
    "pref": "山口県",
    "city": "下松市",
    "category": "home_help",
    "serviceType": "訪問介護",
    "capacity": 0,
    "openDays": [
      "平日",
      "土曜日",
      "日曜日",
      "祝日"
    ],
    "openDaysNote": ""
  },
  {
    "id": "3570700652",
    "name": "訪問介護ステーション　ブリスケア",
    "kana": "ホウモンカイゴステーション　ブリスケア",
    "address": "下松市望町一丁目11番28号",
    "lat": 34.0280701,
    "lng": 131.8610203,
    "tel": "0833-48-1088",
    "url": "http://www.blisshomes.co.jp",
    "pref": "山口県",
    "city": "下松市",
    "category": "home_help",
    "serviceType": "訪問介護",
    "capacity": 0,
    "openDays": [
      "平日",
      "土曜日",
      "日曜日",
      "祝日"
    ],
    "openDaysNote": "特になし"
  },
  {
    "id": "3570700900",
    "name": "訪問介護事業所であい",
    "kana": "ホウモンカイゴジギョウショデアイ",
    "address": "下松市大字河内1048-1",
    "lat": 34.024166,
    "lng": 131.895659,
    "tel": "0833-47-0001",
    "url": "",
    "pref": "山口県",
    "city": "下松市",
    "category": "home_help",
    "serviceType": "訪問介護",
    "capacity": 0,
    "openDays": [
      "平日",
      "土曜日",
      "日曜日",
      "祝日"
    ],
    "openDaysNote": ""
  },
  {
    "id": "3570801914",
    "name": "コパン",
    "kana": "コパン",
    "address": "岩国市横山3-4-10ヴィラ吉香内 ヴィラ吉香内",
    "lat": 34.1733327,
    "lng": 132.1776118,
    "tel": "0827-43-1358",
    "url": "https://copan.smafo.biz",
    "pref": "山口県",
    "city": "岩国市",
    "category": "home_help",
    "serviceType": "訪問介護",
    "capacity": 0,
    "openDays": [
      "平日",
      "土曜日",
      "祝日"
    ],
    "openDaysNote": "サービス提供時間は利用者の希望に応じて曜日・時間共に変更あり。"
  },
  {
    "id": "3570801401",
    "name": "サンキ・ウエルビィ介護センター岩国",
    "kana": "サンキ・ウエルビィカイゴセンターイワクニ",
    "address": "山口県岩国市牛野谷町二丁目16番32号",
    "lat": 34.1560906,
    "lng": 132.1966912,
    "tel": "0827-28-5367",
    "url": "",
    "pref": "山口県",
    "city": "岩国市",
    "category": "home_help",
    "serviceType": "訪問介護",
    "capacity": 0,
    "openDays": [
      "平日",
      "土曜日",
      "日曜日",
      "祝日"
    ],
    "openDaysNote": "ただし、ケアプランに沿ったサービス提供とする。"
  },
  {
    "id": "3570800015",
    "name": "ニチイケアセンター岩国",
    "kana": "ニチイケアセンターイワクニ",
    "address": "山口県岩国市川西三丁目5-40",
    "lat": 34.1560385542729,
    "lng": 132.176013731283,
    "tel": "0827-44-0511",
    "url": "http://www.nichiigakkann.co.jp",
    "pref": "山口県",
    "city": "岩国市",
    "category": "home_help",
    "serviceType": "訪問介護",
    "capacity": 0,
    "openDays": [
      "平日",
      "土曜日",
      "日曜日",
      "祝日"
    ],
    "openDaysNote": "サービス計画に基づき、休業日・営業時間外であっても、サービスの提供を行う場合がある。"
  },
  {
    "id": "3570802334",
    "name": "ニチイケアセンター玖珂",
    "kana": "ニチイケアセンタークガ",
    "address": "山口県岩国市玖珂町505番地1桃園マンション１Ｆ 桃園マンション１Ｆ",
    "lat": 34.0965279,
    "lng": 132.078682,
    "tel": "0827-81-1780",
    "url": "hstAB9@nichiigakkan.co.jp",
    "pref": "山口県",
    "city": "岩国市",
    "category": "home_help",
    "serviceType": "訪問介護",
    "capacity": 0,
    "openDays": [
      "平日",
      "土曜日",
      "日曜日",
      "祝日"
    ],
    "openDaysNote": "ただし、居宅サービス計画書により、営業時間外でもサービスの提供を行う場合がある。"
  },
  {
    "id": "3570801856",
    "name": "ふくしサービスセンターいろは",
    "kana": "フクシサービスセンターイロハ",
    "address": "山口県岩国市錦見８丁目２３－１",
    "lat": 34.1622685566529,
    "lng": 132.201744409787,
    "tel": "0827-35-4327",
    "url": "www.fukushi-greencoop.or.jp",
    "pref": "山口県",
    "city": "岩国市",
    "category": "home_help",
    "serviceType": "訪問介護",
    "capacity": 40,
    "openDays": [
      "平日",
      "土曜日",
      "日曜日",
      "祝日"
    ],
    "openDaysNote": "盆・正月、日米親善ﾃﾞｰおよび天候不良時に、ご相談の上、日程変更させて頂く場合があります。"
  },
  {
    "id": "3570802466",
    "name": "ふくろうの会",
    "kana": "フクロウノカイ",
    "address": "山口県岩国市元町4丁目9番16号",
    "lat": 34.1708061,
    "lng": 132.2310125,
    "tel": "827691392",
    "url": "",
    "pref": "山口県",
    "city": "岩国市",
    "category": "home_help",
    "serviceType": "訪問介護",
    "capacity": 0,
    "openDays": [
      "平日",
      "土曜日",
      "祝日"
    ],
    "openDaysNote": ""
  },
  {
    "id": "3570800312",
    "name": "ふれんず在宅介護支援センター　ヘルパーチーム",
    "kana": "フレンズザイタクカイゴシエンセンターヘルパーチーム",
    "address": "山口県岩国市今津町1丁目11-23",
    "lat": 34.1667755,
    "lng": 132.2206811,
    "tel": "0827-21-5135",
    "url": "http://marifukai.com",
    "pref": "山口県",
    "city": "岩国市",
    "category": "home_help",
    "serviceType": "訪問介護",
    "capacity": 0,
    "openDays": [
      "平日",
      "土曜日",
      "祝日"
    ],
    "openDaysNote": "特になし"
  },
  {
    "id": "3570801955",
    "name": "ヘルパーステーション　さくらんぼ",
    "kana": "ヘルパーステーション　サクランボ",
    "address": "山口県岩国市室の木町1-1-50",
    "lat": 34.1720617563654,
    "lng": 132.213764239755,
    "tel": "0827-29-5360",
    "url": "http://i-shinseikai.or.jp/",
    "pref": "山口県",
    "city": "岩国市",
    "category": "home_help",
    "serviceType": "訪問介護",
    "capacity": 0,
    "openDays": [
      "平日",
      "土曜日",
      "祝日"
    ],
    "openDaysNote": "予防のサービス援助時間は8時から18時です。"
  },
  {
    "id": "3570801948",
    "name": "ヘルパーステーション　わたなべ",
    "kana": "ヘルパーステーション　ワタナベ",
    "address": "山口県岩国市麻里布町５－３－８",
    "lat": 34.173947,
    "lng": 132.2239446,
    "tel": "0827-24-5188",
    "url": "http://iwayaku.com/watanabe/",
    "pref": "山口県",
    "city": "岩国市",
    "category": "home_help",
    "serviceType": "訪問介護",
    "capacity": 0,
    "openDays": [
      "平日",
      "土曜日",
      "日曜日",
      "祝日"
    ],
    "openDaysNote": ""
  },
  {
    "id": "3570800890",
    "name": "ヘルパーステーションあいあい",
    "kana": "ヘルパーステーションアイアイ",
    "address": "山口県岩国市通津１９６７－１フランメゾンＢ１０４ フランメゾンＢ１０４",
    "lat": 34.0758948,
    "lng": 132.2043483,
    "tel": "0827-38-0090",
    "url": "",
    "pref": "山口県",
    "city": "岩国市",
    "category": "home_help",
    "serviceType": "訪問介護",
    "capacity": 0,
    "openDays": [
      "平日",
      "土曜日",
      "日曜日",
      "祝日"
    ],
    "openDaysNote": "特になし"
  },
  {
    "id": "3570800726",
    "name": "ヘルパーステーションあおぞら",
    "kana": "ヘルパーステーションアオゾラ",
    "address": "山口県岩国市多田３丁目１０４－４－２０１",
    "lat": 34.1802957,
    "lng": 132.1687624,
    "tel": "0827-44-1414",
    "url": "",
    "pref": "山口県",
    "city": "岩国市",
    "category": "home_help",
    "serviceType": "訪問介護",
    "capacity": 0,
    "openDays": [
      "平日",
      "土曜日"
    ],
    "openDaysNote": "必要であればいつでも介護専門員と家族の連携の下で対応。"
  },
  {
    "id": "3570801815",
    "name": "ヘルパーステーションなでしこ",
    "kana": "ヘルパーステーションナデシコ",
    "address": "岩国市玖珂町1011‐4有料老人ホームなでしこ 有料老人ホームなでしこ",
    "lat": 34.0965753,
    "lng": 132.0869787,
    "tel": "0827-81-0525",
    "url": "",
    "pref": "山口県",
    "city": "岩国市",
    "category": "home_help",
    "serviceType": "訪問介護",
    "capacity": 18,
    "openDays": [
      "平日",
      "土曜日",
      "日曜日",
      "祝日"
    ],
    "openDaysNote": "なし"
  },
  {
    "id": "3570802300",
    "name": "ヘルパーステーション千樹の杜",
    "kana": "ヘルパーステーションセンジュノモリ",
    "address": "周東町下久原2580-2サービス付き高齢者向け住宅　千樹の杜 サービス付き高齢者向け住宅　千樹の杜",
    "lat": 34.1008835,
    "lng": 132.0542921,
    "tel": "0827-84-5555",
    "url": "https://www.kiyotoki.co.jp/",
    "pref": "山口県",
    "city": "岩国市",
    "category": "home_help",
    "serviceType": "訪問介護",
    "capacity": 21,
    "openDays": [
      "平日",
      "土曜日",
      "日曜日",
      "祝日"
    ],
    "openDaysNote": "サービス提供時間は、事前に居宅介護支援事業者等により計画された居宅サービス計画に基づくものとする。"
  },
  {
    "id": "3570800155",
    "name": "医療法人錦病院指定居宅介護サービス事業ヘルパーセンターあいりす",
    "kana": "イリョウホウジンニシキビョウインシテイキョタクカイゴサービスヘルパーセンターアイリス",
    "address": "山口県岩国市錦見７丁目１６番１号",
    "lat": 34.1597679,
    "lng": 132.187214,
    "tel": "0827-44-0080",
    "url": "http://www.ymg.urban.ne.jp/home/ryuchan2/index.html",
    "pref": "山口県",
    "city": "岩国市",
    "category": "home_help",
    "serviceType": "訪問介護",
    "capacity": 0,
    "openDays": [
      "平日",
      "土曜日"
    ],
    "openDaysNote": "特になし"
  },
  {
    "id": "3570801468",
    "name": "縁介護支援事業所ヘルパーチーム",
    "kana": "ユカリカイゴシエンジギョウショヘルパーチーム",
    "address": "岩国市平田５丁目５０番１４号１０１号室",
    "lat": 34.1413869,
    "lng": 132.1931641,
    "tel": "0827-28-1183",
    "url": "",
    "pref": "山口県",
    "city": "岩国市",
    "category": "home_help",
    "serviceType": "訪問介護",
    "capacity": 0,
    "openDays": [
      "平日",
      "土曜日",
      "日曜日",
      "祝日"
    ],
    "openDaysNote": "特になし"
  },
  {
    "id": "3570802201",
    "name": "株式会社　メディス玖珂営業所",
    "kana": "カブシキカイシャ　メディス　クガエイギョウショ",
    "address": "山口県岩国市玖珂町11361-101号",
    "lat": 34.1026996,
    "lng": 132.0595088,
    "tel": "0827-81-0161",
    "url": "",
    "pref": "山口県",
    "city": "岩国市",
    "category": "home_help",
    "serviceType": "訪問介護",
    "capacity": 0,
    "openDays": [
      "平日",
      "土曜日",
      "日曜日",
      "祝日"
    ],
    "openDaysNote": "24時間対応可能"
  },
  {
    "id": "3570802458",
    "name": "株式会社一期一会",
    "kana": "カブシキガイシャイチゴイチエ",
    "address": "山口県岩国市周東町下久原４４１番地１レジデンスニューパストラル　D201 レジデンスニューパストラル　D201",
    "lat": 34.0894450400691,
    "lng": 132.062100728225,
    "tel": "0827-28-5928",
    "url": "https://www.ichigoichie-iwakuni.com/",
    "pref": "山口県",
    "city": "岩国市",
    "category": "home_help",
    "serviceType": "訪問介護",
    "capacity": null,
    "openDays": [
      "平日"
    ],
    "openDaysNote": ""
  },
  {
    "id": "3570802508",
    "name": "株式会社睦",
    "kana": "カブシキガイシャムツキ",
    "address": "山口県岩国市三笠町3-8-4",
    "lat": 34.1684802,
    "lng": 132.2303389,
    "tel": "0827-23-9108",
    "url": "",
    "pref": "山口県",
    "city": "岩国市",
    "category": "home_help",
    "serviceType": "訪問介護",
    "capacity": 0,
    "openDays": [
      "平日",
      "土曜日",
      "日曜日"
    ],
    "openDaysNote": ""
  },
  {
    "id": "3577200441",
    "name": "錦苑ヘルパーステーション",
    "kana": "ニシキエンヘルパーステーション",
    "address": "山口県岩国市錦町広瀬７58番地",
    "lat": 34.2569949,
    "lng": 131.9502922,
    "tel": "0827-72-3523",
    "url": "http://nishiki-f.com",
    "pref": "山口県",
    "city": "岩国市",
    "category": "home_help",
    "serviceType": "訪問介護",
    "capacity": 0,
    "openDays": [
      "平日",
      "祝日"
    ],
    "openDaysNote": "特になし"
  },
  {
    "id": "3570801898",
    "name": "玖西ヘルパーステーション",
    "kana": "クセイヘルパーステーション",
    "address": "岩国市玖珂町581－6",
    "lat": 34.0976141,
    "lng": 132.0829291,
    "tel": "0827-28-4188",
    "url": "",
    "pref": "山口県",
    "city": "岩国市",
    "category": "home_help",
    "serviceType": "訪問介護",
    "capacity": 40,
    "openDays": [
      "平日",
      "土曜日",
      "日曜日",
      "祝日"
    ],
    "openDaysNote": "人員の都合でお断りすることがあります。"
  },
  {
    "id": "3570801070",
    "name": "社会福祉法人　岩国市社会福祉協議会　社協ヘルパーセンター周東",
    "kana": "シャカイフクシホウジン　イワクニシシャカイフクシキョウギカイシャキョウヘルパーセンターシュウトウ",
    "address": "岩国市周東町下久原626番地8",
    "lat": 34.0904726076356,
    "lng": 132.057128990768,
    "tel": "0827-83-1633",
    "url": "http://www.iwasha.jp",
    "pref": "山口県",
    "city": "岩国市",
    "category": "home_help",
    "serviceType": "訪問介護",
    "capacity": 0,
    "openDays": [
      "平日",
      "土曜日",
      "日曜日",
      "祝日"
    ],
    "openDaysNote": "上記営業時間ほか、必要に応じて随時対応いたします。"
  },
  {
    "id": "3570801104",
    "name": "社会福祉法人　岩国市社会福祉協議会　社協ヘルパーセンター由宇",
    "kana": "シャカイフクシホウジン　イワクニシシャカイフクシキョウギカイ　シャキョウヘルパーセンターユウ",
    "address": "岩国市由宇町中央1丁目8番35号",
    "lat": 34.0463316,
    "lng": 132.2116013,
    "tel": "0827-63-3022",
    "url": "http://www.iwasha.jp",
    "pref": "山口県",
    "city": "岩国市",
    "category": "home_help",
    "serviceType": "訪問介護",
    "capacity": 0,
    "openDays": [
      "平日",
      "土曜日",
      "日曜日",
      "祝日"
    ],
    "openDaysNote": "上記営業時間ほか、必要に応じて随時対応いたします。"
  },
  {
    "id": "3570801062",
    "name": "社会福祉法人岩国市社会福祉協議会　社協ヘルパーセンター岩国",
    "kana": "シャカイフクシホウジンイワクニシシャカイフクシキョウギカイ　シャキョウヘルパーセンターイワクニ",
    "address": "山口県岩国市南岩国町3-3-14",
    "lat": 34.132567954405,
    "lng": 132.201522183807,
    "tel": "0827-28-6108",
    "url": "http://www.iwasha.jp",
    "pref": "山口県",
    "city": "岩国市",
    "category": "home_help",
    "serviceType": "訪問介護",
    "capacity": 0,
    "openDays": [
      "平日",
      "土曜日",
      "日曜日",
      "祝日"
    ],
    "openDaysNote": "上記営業時間ほか必要に応じて随時対応いたします。"
  },
  {
    "id": "3570800742",
    "name": "第一あんしんサービス岩国",
    "kana": "ダイイチアンシンサービスイワクニ",
    "address": "岩国市南岩国町４－６５－２８",
    "lat": 34.1278466,
    "lng": 132.198689,
    "tel": "0827-34-5917",
    "url": "ansininoue@yahoo.co.jp",
    "pref": "山口県",
    "city": "岩国市",
    "category": "home_help",
    "serviceType": "訪問介護",
    "capacity": null,
    "openDays": [
      "平日",
      "土曜日",
      "祝日"
    ],
    "openDaysNote": "特になし"
  },
  {
    "id": "3577200433",
    "name": "美和苑ヘルパーステーション",
    "kana": "ミワエンヘルパーステーション",
    "address": "岩国市美和町生見12538番地",
    "lat": 34.2271004,
    "lng": 132.0683144,
    "tel": "0827-96-1158",
    "url": "http://miwafukushikai.jp/",
    "pref": "山口県",
    "city": "岩国市",
    "category": "home_help",
    "serviceType": "訪問介護",
    "capacity": 0,
    "openDays": [
      "平日",
      "土曜日",
      "日曜日",
      "祝日"
    ],
    "openDaysNote": "但し、希望により利用時間の延長ができます"
  },
  {
    "id": "3570800429",
    "name": "平成ホームヘルパーステーション黒磯",
    "kana": "ヘイセイホームヘルパーステーションクロイソ",
    "address": "山口県岩国市黒磯町2-50-14",
    "lat": 34.1035295,
    "lng": 132.1945347,
    "tel": "0827-34-2257",
    "url": "",
    "pref": "山口県",
    "city": "岩国市",
    "category": "home_help",
    "serviceType": "訪問介護",
    "capacity": 0,
    "openDays": [
      "平日",
      "土曜日",
      "祝日"
    ],
    "openDaysNote": "利用者の状況により、所定の時間外の訪問も行っている。"
  },
  {
    "id": "3560890109",
    "name": "訪問ステーションてとてと岩国",
    "kana": "ホウモンステーションテトテトイワクニ",
    "address": "山口県岩国市御庄4丁目106-7",
    "lat": 34.1695704881712,
    "lng": 132.156743370676,
    "tel": "0827-28-6360",
    "url": "http://tetote.to/office/iwakuni/",
    "pref": "山口県",
    "city": "岩国市",
    "category": "home_help",
    "serviceType": "訪問介護",
    "capacity": 0,
    "openDays": [
      "平日",
      "祝日"
    ],
    "openDaysNote": ""
  },
  {
    "id": "3570802185",
    "name": "訪問介護サービス　つぼみ",
    "kana": "ホウモンカイゴサービス　ツボミ",
    "address": "山口県岩国市南岩国町1-17-10村中アパートB201号 村中アパートB201号",
    "lat": 34.1351181,
    "lng": 132.2039661,
    "tel": "0827-32-1239",
    "url": "",
    "pref": "山口県",
    "city": "岩国市",
    "category": "home_help",
    "serviceType": "訪問介護",
    "capacity": 0,
    "openDays": [
      "平日",
      "土曜日",
      "日曜日",
      "祝日"
    ],
    "openDaysNote": "緊急時は転送電話にて24時間対応しています。"
  },
  {
    "id": "3570801971",
    "name": "訪問介護サービスことり",
    "kana": "ホウモンカイゴサービスコトリ",
    "address": "山口県岩国市麻里布町5-15-27",
    "lat": 34.1754093033479,
    "lng": 132.222627284914,
    "tel": "0827-35-5445",
    "url": "http://hp.kaipoke.biz/8zx/index.html",
    "pref": "山口県",
    "city": "岩国市",
    "category": "home_help",
    "serviceType": "訪問介護",
    "capacity": 0,
    "openDays": [
      "平日",
      "土曜日",
      "日曜日",
      "祝日"
    ],
    "openDaysNote": "基本的には８時から１７時までで人員を確保しておりますが、状況に応じて、他の時間帯でもサービス提供を行うことができるよう努めております。"
  },
  {
    "id": "3570801682",
    "name": "訪問介護ステーション　あゆみ",
    "kana": "ホウモンカイゴステーション　アユミ",
    "address": "岩国市玖4999番地1",
    "lat": 34.0932097502694,
    "lng": 132.08540455381,
    "tel": "0827-28-5228",
    "url": "http://forest-ayumi.jp",
    "pref": "山口県",
    "city": "岩国市",
    "category": "home_help",
    "serviceType": "訪問介護",
    "capacity": 0,
    "openDays": [
      "平日",
      "土曜日",
      "日曜日",
      "祝日"
    ],
    "openDaysNote": "24時間365日利用可能。（改行）但し、事前に計画されたサービス計画書に基づくものとし、原則として緊急な依頼に（改行）対しての提供は行なわないものとする。但し介護支援専門員および提供責任者の協議（改行）の結果、必要があると認められた場合は提供を行なう。"
  },
  {
    "id": "3570802268",
    "name": "訪問介護ステーション無花果（Mukaka）",
    "kana": "ホウモンカイゴステーションムカカ",
    "address": "山口県岩国市牛野谷町1-5-25",
    "lat": 34.1573296735131,
    "lng": 132.193349551807,
    "tel": "0827-31-9887",
    "url": "https://care‾net.biz/35/mukaka",
    "pref": "山口県",
    "city": "岩国市",
    "category": "home_help",
    "serviceType": "訪問介護",
    "capacity": 45,
    "openDays": [
      "平日",
      "土曜日",
      "日曜日",
      "祝日"
    ],
    "openDaysNote": "事前に予約を頂ければ対応可能な事も。"
  },
  {
    "id": "3570802177",
    "name": "訪問介護のびのび",
    "kana": "ホウモンカイゴノビノビ",
    "address": "山口県岩国市周東町下久原１２６０番地",
    "lat": 34.0894844,
    "lng": 132.0511631,
    "tel": "0827－84‐5055",
    "url": "http://blog.canpan/nobinobiday/",
    "pref": "山口県",
    "city": "岩国市",
    "category": "home_help",
    "serviceType": "訪問介護",
    "capacity": 0,
    "openDays": [
      "平日",
      "土曜日",
      "日曜日",
      "祝日"
    ],
    "openDaysNote": "なし"
  },
  {
    "id": "3570802227",
    "name": "訪問介護事業所　なでしこ岩国",
    "kana": "ホウモンカイゴジギョウショ　ナデシコイワクニ",
    "address": "山口県岩国市柱野832-1",
    "lat": 34.1349505,
    "lng": 132.1486026,
    "tel": "0827-45-1355",
    "url": "",
    "pref": "山口県",
    "city": "岩国市",
    "category": "home_help",
    "serviceType": "訪問介護",
    "capacity": 0,
    "openDays": [
      "平日",
      "土曜日",
      "日曜日",
      "祝日"
    ],
    "openDaysNote": "３６５日２４時間対応。"
  },
  {
    "id": "3570802474",
    "name": "訪問介護事業所　にじいろ",
    "kana": "ホウモンカイゴジギョウショ　ニジイロ",
    "address": "山口県岩国市御庄3丁目102－8",
    "lat": 34.1680113,
    "lng": 132.1542794,
    "tel": "0827-46-0885",
    "url": "https://wakuwaku-company.jimdosite.com/",
    "pref": "山口県",
    "city": "岩国市",
    "category": "home_help",
    "serviceType": "訪問介護",
    "capacity": 120,
    "openDays": [
      "平日"
    ],
    "openDaysNote": "ただし、8/13から8/15、12/30から1/3を除く。（改行）※ケアプランのより、サービス提供時間・提供日外でも相談に応じます。"
  },
  {
    "id": "3570802250",
    "name": "訪問介護事業所笑顔",
    "kana": "ホウモンカイゴジギョウショエガオ",
    "address": "御庄1丁目107番6",
    "lat": 34.1659213,
    "lng": 132.1489535,
    "tel": "0827-28-6668",
    "url": "",
    "pref": "山口県",
    "city": "岩国市",
    "category": "home_help",
    "serviceType": "訪問介護",
    "capacity": null,
    "openDays": [
      "平日",
      "土曜日",
      "日曜日",
      "祝日"
    ],
    "openDaysNote": ""
  },
  {
    "id": "3571000177",
    "name": "ニチイケアセンター光",
    "kana": "ニチイケアセンターヒカリ",
    "address": "木園1-5-32",
    "lat": 33.9783043998808,
    "lng": 131.930283330831,
    "tel": "0833-74-2888",
    "url": "",
    "pref": "山口県",
    "city": "光市",
    "category": "home_help",
    "serviceType": "訪問介護",
    "capacity": 5,
    "openDays": [
      "平日"
    ],
    "openDaysNote": "但し、居宅サービス計画書により、営業時間外でも、サービスの提供を行なう場合がある。"
  },
  {
    "id": "3571000326",
    "name": "ヘルパーステーションおりづる",
    "kana": "ヘルパーステーションオリヅル",
    "address": "光市三井６丁目15-5",
    "lat": 34.0220854211513,
    "lng": 131.981243506235,
    "tel": "0833-76-1231",
    "url": "http://orizuru-supporter.jp/",
    "pref": "山口県",
    "city": "光市",
    "category": "home_help",
    "serviceType": "訪問介護",
    "capacity": 0,
    "openDays": [
      "平日",
      "祝日"
    ],
    "openDaysNote": "提供時間以外でもご相談に応じています。"
  },
  {
    "id": "3571000656",
    "name": "やまびこヘルパーステーション",
    "kana": "ヤマビコヘルパーステーション",
    "address": "山口県光市三輪780-2",
    "lat": 33.9804378,
    "lng": 132.0030534,
    "tel": "0820-49-3255",
    "url": "http://godoyamabiko.web.fc2.com/",
    "pref": "山口県",
    "city": "光市",
    "category": "home_help",
    "serviceType": "訪問介護",
    "capacity": 40,
    "openDays": [
      "平日"
    ],
    "openDaysNote": "利用者の状況等により上記時間外でも対応します。"
  },
  {
    "id": "3571000201",
    "name": "光富士白苑訪問介護事業所",
    "kana": "ヒカリフジシロエンホウモンカイゴジギョウショ",
    "address": "光市虹ヶ浜2丁目5番12号",
    "lat": 33.968867,
    "lng": 131.9183864,
    "tel": "0833-72-6013",
    "url": "http://www.h-fuji.com",
    "pref": "山口県",
    "city": "光市",
    "category": "home_help",
    "serviceType": "訪問介護",
    "capacity": 0,
    "openDays": [
      "平日",
      "土曜日",
      "日曜日",
      "祝日"
    ],
    "openDaysNote": "上記以外の日時に派遣希望があれば可能な範囲で応じます。"
  },
  {
    "id": "3571000854",
    "name": "指定訪問介護事業所　ほっとはーと",
    "kana": "シテイホウモンカイゴジギョウショ　ホットハート",
    "address": "山口県光市虹ケ浜1-1-10",
    "lat": 33.9742747333677,
    "lng": 131.919554260327,
    "tel": "0833-48-7165",
    "url": "https://hot-heart.co.jp",
    "pref": "山口県",
    "city": "光市",
    "category": "home_help",
    "serviceType": "訪問介護",
    "capacity": 0,
    "openDays": [
      "平日",
      "土曜日"
    ],
    "openDaysNote": "利用者から依頼があった場合はその限りではありません"
  },
  {
    "id": "3571000367",
    "name": "社会福祉法人　光市社会福祉協議会訪問介護事業所",
    "kana": "シャカイフクシホウジンヒカリシシャカイフクシキョウギカイホウモンカイゴジギョウショ",
    "address": "山口県光市光井２丁目２－１光市総合福祉センターあいぱーく光 光市総合福祉センターあいぱーく光",
    "lat": 33.9533455,
    "lng": 131.9534448,
    "tel": "0833-74-3022",
    "url": "http://www.hikari-shakyo.or.jp",
    "pref": "山口県",
    "city": "光市",
    "category": "home_help",
    "serviceType": "訪問介護",
    "capacity": 0,
    "openDays": [
      "平日"
    ],
    "openDaysNote": "営業日外、営業時間については弾力的に対応"
  },
  {
    "id": "3571000938",
    "name": "土屋訪問介護事業所　光センター",
    "kana": "ツチヤホウモンカイゴジギョウショ　ヒカリセンター",
    "address": "光井4丁目27-27",
    "lat": 33.9551591506395,
    "lng": 131.953080423446,
    "tel": "0833-72-3700",
    "url": "http://hp.kaipoke.biz/rz6/170961/base_0003.html",
    "pref": "山口県",
    "city": "光市",
    "category": "home_help",
    "serviceType": "訪問介護",
    "capacity": null,
    "openDays": [
      "平日",
      "土曜日",
      "日曜日",
      "祝日"
    ],
    "openDaysNote": ""
  },
  {
    "id": "3571000730",
    "name": "訪問介護ステーション幸せます山口",
    "kana": "ホウモンカイゴステーションシアワセマスヤマグチ",
    "address": "光市島田2-8-1",
    "lat": 33.9731281,
    "lng": 131.9330933,
    "tel": "0833-48-9798",
    "url": "http://hp.kaipoke.biz/zwr/privacy.html",
    "pref": "山口県",
    "city": "光市",
    "category": "home_help",
    "serviceType": "訪問介護",
    "capacity": 0,
    "openDays": [
      "平日",
      "土曜日",
      "日曜日",
      "祝日"
    ],
    "openDaysNote": "基本的には24時間だが、深夜・早朝は協議による"
  },
  {
    "id": "3571000664",
    "name": "訪問介護事業所　ひだまりの家",
    "kana": "ホウモンカイゴジギョウショ　ヒダマリノイエ",
    "address": "山口県光市三井8丁目6-14",
    "lat": 33.9894922202475,
    "lng": 131.958262091402,
    "tel": "0833-76-0182",
    "url": "http://tsuru-wagaya.jp/hidamari/",
    "pref": "山口県",
    "city": "光市",
    "category": "home_help",
    "serviceType": "訪問介護",
    "capacity": 35,
    "openDays": [
      "平日",
      "土曜日",
      "日曜日",
      "祝日"
    ],
    "openDaysNote": ""
  },
  {
    "id": "3570301550",
    "name": "24時間介護サービスまごころ",
    "kana": "ニジュウヨジカンカイゴサービスマゴコロ",
    "address": "山口県山口市大内長野字鍛冶屋208番地",
    "lat": 34.1633077847346,
    "lng": 131.51889801275,
    "tel": "083-927-8170",
    "url": "magocoro@wind.ocn.ne.jp",
    "pref": "山口県",
    "city": "山口市",
    "category": "home_help",
    "serviceType": "訪問介護",
    "capacity": 0,
    "openDays": [
      "平日",
      "土曜日",
      "日曜日",
      "祝日"
    ],
    "openDaysNote": "365日24時間体制(居宅サービス計画書に基づきます。)"
  },
  {
    "id": "3570301808",
    "name": "アス・ヘルパーステーション",
    "kana": "アス・ヘルパーステーション",
    "address": "山口県山口市大市町3－12社会福祉法人　アス・ライフ 社会福祉法人　アス・ライフ",
    "lat": 34.1795304409573,
    "lng": 131.480373137573,
    "tel": "083-902－6667",
    "url": "us-life",
    "pref": "山口県",
    "city": "山口市",
    "category": "home_help",
    "serviceType": "訪問介護",
    "capacity": 50,
    "openDays": [
      "平日",
      "土曜日",
      "日曜日",
      "祝日"
    ],
    "openDaysNote": "サービス受付営業時間は8時30分から17時30分までとする。ただし、電話等により、24時間連絡が可能な体制とする。"
  },
  {
    "id": "3570303820",
    "name": "アネシス",
    "kana": "アネシス",
    "address": "山口県山口市朝田337-11",
    "lat": 34.1460252,
    "lng": 131.4416727,
    "tel": "083-929-6517",
    "url": "",
    "pref": "山口県",
    "city": "山口市",
    "category": "home_help",
    "serviceType": "訪問介護",
    "capacity": 20,
    "openDays": [
      "平日",
      "土曜日",
      "日曜日",
      "祝日"
    ],
    "openDaysNote": ""
  },
  {
    "id": "3570303440",
    "name": "あやめケアサポート",
    "kana": "アヤメケアサポート",
    "address": "山口県山口市宮野下2987番地17",
    "lat": 34.2013349,
    "lng": 131.503109,
    "tel": "083-902-1890",
    "url": "",
    "pref": "山口県",
    "city": "山口市",
    "category": "home_help",
    "serviceType": "訪問介護",
    "capacity": 0,
    "openDays": [
      "平日"
    ],
    "openDaysNote": "１２月２９日から１月３日までを除く（改行）会社が必要と求めた場合上記営業日、営業時間及び休業日、休業時間を変更することができ、必要に応じて営業する事とする。サービス提供日は月曜日から日曜日とする"
  },
  {
    "id": "3570303333",
    "name": "ケアホーム小郡ヘルパーステーション",
    "kana": "ケアホームオゴオリヘルパーステーション",
    "address": "山口県山口市小郡新町2丁目10－21ケアホーム小郡 ケアホーム小郡",
    "lat": 34.1144694,
    "lng": 131.3958707,
    "tel": "083-974-5111",
    "url": "https://care-net.biz/35/carehomeogoori/",
    "pref": "山口県",
    "city": "山口市",
    "category": "home_help",
    "serviceType": "訪問介護",
    "capacity": 0,
    "openDays": [],
    "openDaysNote": "なし"
  },
  {
    "id": "3570302319",
    "name": "ケアライフ小鯖ヘルパーステーション",
    "kana": "ケアライフオサバヘルパーステーション",
    "address": "山口県山口市下小鯖520",
    "lat": 34.1476625,
    "lng": 131.5243896,
    "tel": "083-941-1765",
    "url": "http://carelife1165.web.fc2.com/index.html",
    "pref": "山口県",
    "city": "山口市",
    "category": "home_help",
    "serviceType": "訪問介護",
    "capacity": 0,
    "openDays": [
      "平日",
      "土曜日",
      "日曜日",
      "祝日"
    ],
    "openDaysNote": "24時間提供体制。"
  },
  {
    "id": "3570301246",
    "name": "サクラ介護事業所",
    "kana": "サクラカイゴジギョウショ",
    "address": "山口市桜畠6丁目7-15",
    "lat": 34.1972216740149,
    "lng": 131.498493026173,
    "tel": "083-932-1165",
    "url": "http://sakura-kj.jp/",
    "pref": "山口県",
    "city": "山口市",
    "category": "home_help",
    "serviceType": "訪問介護",
    "capacity": 0,
    "openDays": [
      "平日",
      "土曜日"
    ],
    "openDaysNote": ""
  },
  {
    "id": "3570301501",
    "name": "サンキ・ウエルビィ介護センター山口",
    "kana": "サンキ・ウエルビィカイゴセンターヤマグチ",
    "address": "山口県山口市維新公園三丁目12-15",
    "lat": 34.1524778,
    "lng": 131.4376101,
    "tel": "083-921-8601",
    "url": "",
    "pref": "山口県",
    "city": "山口市",
    "category": "home_help",
    "serviceType": "訪問介護",
    "capacity": 1,
    "openDays": [
      "平日",
      "土曜日",
      "日曜日",
      "祝日"
    ],
    "openDaysNote": "ただし、ケアプランに沿ったサービス提供とする。"
  },
  {
    "id": "3570302129",
    "name": "サンキ・ウエルビィ介護センター小郡",
    "kana": "サンキ・ウエルビィカイゴセンターオゴオリ",
    "address": "山口県山口市小郡下郷217-1",
    "lat": 34.1079646,
    "lng": 131.4021426,
    "tel": "083-976-8228",
    "url": "",
    "pref": "山口県",
    "city": "山口市",
    "category": "home_help",
    "serviceType": "訪問介護",
    "capacity": 0,
    "openDays": [
      "平日",
      "土曜日",
      "日曜日",
      "祝日"
    ],
    "openDaysNote": "ただし、ケアプランに沿ったサービス提供とする。"
  },
  {
    "id": "3570300636",
    "name": "さんコープ訪問介護　宮野",
    "kana": "サンコープホウモンカイゴミヤノ",
    "address": "山口市桜畠２丁目２３１２番８",
    "lat": 34.1947922,
    "lng": 131.5013068,
    "tel": "083-934-9505",
    "url": "http://www.yamaguti-coop.or.jp/active./welfare/suncoop.html",
    "pref": "山口県",
    "city": "山口市",
    "category": "home_help",
    "serviceType": "訪問介護",
    "capacity": 0,
    "openDays": [
      "平日",
      "祝日"
    ],
    "openDaysNote": "土・日曜日の訪問は要相談"
  },
  {
    "id": "3570302384",
    "name": "たみちゃんヘルパーステーション",
    "kana": "タミチャンヘルパーステーション",
    "address": "山口市大内御堀3616-1",
    "lat": 34.1415029424396,
    "lng": 131.499295748263,
    "tel": "０８３－９４１－６５６５",
    "url": "http://tami-home.com/",
    "pref": "山口県",
    "city": "山口市",
    "category": "home_help",
    "serviceType": "訪問介護",
    "capacity": 0,
    "openDays": [
      "平日",
      "土曜日",
      "日曜日",
      "祝日"
    ],
    "openDaysNote": "ご家族からの要請があれば、夜間・深夜・早朝も可。（改行）２４時間連絡体制。"
  },
  {
    "id": "3570303614",
    "name": "ツクイ山口",
    "kana": "ツクイヤマグチ",
    "address": "大内御堀六丁目2番5号",
    "lat": 34.1650776,
    "lng": 131.4856727,
    "tel": "083-934-7225",
    "url": "https://corp.tsukui.net/",
    "pref": "山口県",
    "city": "山口市",
    "category": "home_help",
    "serviceType": "訪問介護",
    "capacity": 0,
    "openDays": [
      "平日",
      "土曜日",
      "日曜日",
      "祝日"
    ],
    "openDaysNote": ""
  },
  {
    "id": "3570302566",
    "name": "ニチイケアセンター郷",
    "kana": "ニチイケアセンターゴウ",
    "address": "山口県山口市小郡下郷2203-1",
    "lat": 34.0988434,
    "lng": 131.3903217,
    "tel": "083-974-6455",
    "url": "",
    "pref": "山口県",
    "city": "山口市",
    "category": "home_help",
    "serviceType": "訪問介護",
    "capacity": 0,
    "openDays": [
      "平日",
      "土曜日",
      "日曜日",
      "祝日"
    ],
    "openDaysNote": "サービス計画により、営業時間以外でも、サービスの提供を行う場合がある。"
  },
  {
    "id": "3570300081",
    "name": "ニチイケアセンター山口",
    "kana": "ニチイケアセンタ-ヤマグチ",
    "address": "山口市宮島町3-24山口印刷ビル1F 山口印刷ビル1F",
    "lat": 34.1673184,
    "lng": 131.4789912,
    "tel": "083-934-5707",
    "url": "http://www.nichiigakkan.co.jp",
    "pref": "山口県",
    "city": "山口市",
    "category": "home_help",
    "serviceType": "訪問介護",
    "capacity": 0,
    "openDays": [
      "平日",
      "土曜日",
      "日曜日",
      "祝日"
    ],
    "openDaysNote": "サ－ビス計画に基づき、休業日・営業時間外であっても、サービスの提供を行なう場合がある。"
  },
  {
    "id": "3570302236",
    "name": "はるかぜヘルパーステーション",
    "kana": "ハルカゼヘルパーステーション",
    "address": "山口市嘉川４４７１",
    "lat": 34.0644829,
    "lng": 131.3705183,
    "tel": "083-988-0030",
    "url": "http://www.shinjin-kai.org/",
    "pref": "山口県",
    "city": "山口市",
    "category": "home_help",
    "serviceType": "訪問介護",
    "capacity": 60,
    "openDays": [
      "平日",
      "土曜日",
      "日曜日",
      "祝日"
    ],
    "openDaysNote": ""
  },
  {
    "id": "3570300404",
    "name": "ヘルパーステーションアーユス",
    "kana": "ヘルパーステーションアーユス",
    "address": "山口市湯田温泉一丁目1番3号ReLife湯田温泉内 ReLife湯田温泉内",
    "lat": 34.1661308157313,
    "lng": 131.46023255161,
    "tel": "083-941-5783",
    "url": "http://www.suiseikai.org/",
    "pref": "山口県",
    "city": "山口市",
    "category": "home_help",
    "serviceType": "訪問介護",
    "capacity": 0,
    "openDays": [
      "平日",
      "土曜日",
      "日曜日",
      "祝日"
    ],
    "openDaysNote": "夜間の訪問はしませんが時間帯により相談、訪問可"
  },
  {
    "id": "3570303002",
    "name": "ヘルパーステーションおおうち",
    "kana": "ヘルパーステーションオオウチ",
    "address": "山口県山口市大内千坊六丁目１１番２号",
    "lat": 34.1579393813183,
    "lng": 131.493441118385,
    "tel": "083-941-6180",
    "url": "",
    "pref": "山口県",
    "city": "山口市",
    "category": "home_help",
    "serviceType": "訪問介護",
    "capacity": 40,
    "openDays": [
      "平日",
      "土曜日",
      "日曜日",
      "祝日"
    ],
    "openDaysNote": ""
  },
  {
    "id": "3570301964",
    "name": "ヘルパーステーションすこやか",
    "kana": "ヘルパーステーションスコヤカ",
    "address": "山口県山口市阿知須４７２４番地１",
    "lat": 34.0085341508215,
    "lng": 131.357264027786,
    "tel": "0836-66-3011",
    "url": "",
    "pref": "山口県",
    "city": "山口市",
    "category": "home_help",
    "serviceType": "訪問介護",
    "capacity": 0,
    "openDays": [
      "平日",
      "土曜日",
      "日曜日",
      "祝日"
    ],
    "openDaysNote": "営業時間は、利用者様からの希望があり、それに対応可能な場合はこの限りではない。"
  },
  {
    "id": "3577600376",
    "name": "ヘルパーステーションほーゆう",
    "kana": "ヘルパーステーションホーユウ",
    "address": "山口市秋穂東1822番地",
    "lat": 34.0255718,
    "lng": 131.4642877,
    "tel": "083-984-5373",
    "url": "",
    "pref": "山口県",
    "city": "山口市",
    "category": "home_help",
    "serviceType": "訪問介護",
    "capacity": 0,
    "openDays": [
      "平日",
      "土曜日",
      "日曜日",
      "祝日"
    ],
    "openDaysNote": ""
  },
  {
    "id": "3570303804",
    "name": "ヘルパーステーション花咲美",
    "kana": "ヘルパーステーションカザミ",
    "address": "山口県山口市大内矢田北6丁目4-26",
    "lat": 34.1539277,
    "lng": 131.511922,
    "tel": "083-941-1288",
    "url": "",
    "pref": "山口県",
    "city": "山口市",
    "category": "home_help",
    "serviceType": "訪問介護",
    "capacity": null,
    "openDays": [
      "平日",
      "土曜日",
      "日曜日",
      "祝日"
    ],
    "openDaysNote": ""
  },
  {
    "id": "3570302418",
    "name": "マザーベル湯田温泉",
    "kana": "マザーベルユダオンセン",
    "address": "山口県山口市湯田温泉4丁目3-15",
    "lat": 34.1654216,
    "lng": 131.4552019,
    "tel": "083-902-8080",
    "url": "",
    "pref": "山口県",
    "city": "山口市",
    "category": "home_help",
    "serviceType": "訪問介護",
    "capacity": 0,
    "openDays": [
      "平日",
      "土曜日",
      "日曜日",
      "祝日"
    ],
    "openDaysNote": ""
  },
  {
    "id": "3570303465",
    "name": "みんなのふるさと訪問介護事業所",
    "kana": "ミンナノフルサトホウモンカイゴジギョウショ",
    "address": "山口市小郡下郷251-9",
    "lat": 34.1064745921475,
    "lng": 131.401477766466,
    "tel": "083-902-5851",
    "url": "",
    "pref": "山口県",
    "city": "山口市",
    "category": "home_help",
    "serviceType": "訪問介護",
    "capacity": null,
    "openDays": [
      "平日",
      "土曜日",
      "日曜日",
      "祝日"
    ],
    "openDaysNote": ""
  },
  {
    "id": "3570303648",
    "name": "ヨシヤ徳地",
    "kana": "ヨシヤ　トクヂ",
    "address": "徳地堀3939番地1",
    "lat": 34.1777546,
    "lng": 131.6287396,
    "tel": "0835-52-0200",
    "url": "",
    "pref": "山口県",
    "city": "山口市",
    "category": "home_help",
    "serviceType": "訪問介護",
    "capacity": null,
    "openDays": [
      "平日",
      "土曜日",
      "日曜日",
      "祝日"
    ],
    "openDaysNote": ""
  },
  {
    "id": "3570302103",
    "name": "ライフケアステーション",
    "kana": "ライフケアステーション",
    "address": "黒川81－2ライフケアステーション ライフケアステーション",
    "lat": 34.1375105632589,
    "lng": 131.432921220238,
    "tel": "083－941－6100",
    "url": "http://www.yumesannyo.jp",
    "pref": "山口県",
    "city": "山口市",
    "category": "home_help",
    "serviceType": "訪問介護",
    "capacity": 32,
    "openDays": [
      "平日",
      "土曜日",
      "日曜日",
      "祝日"
    ],
    "openDaysNote": ""
  },
  {
    "id": "3570302442",
    "name": "ライフケアステーションあじす",
    "kana": "ライフケアステーションアジス",
    "address": "山口市阿知須5312-1ゆめの里あじす ゆめの里あじす",
    "lat": 34.0106918532559,
    "lng": 131.349241067459,
    "tel": "0836-65-0303",
    "url": "http://www.yumesanyo.jp",
    "pref": "山口県",
    "city": "山口市",
    "category": "home_help",
    "serviceType": "訪問介護",
    "capacity": 36,
    "openDays": [
      "平日",
      "土曜日",
      "日曜日",
      "祝日"
    ],
    "openDaysNote": ""
  },
  {
    "id": "3570302806",
    "name": "らしく",
    "kana": "ラシク",
    "address": "山口県山口市熊野町4-39",
    "lat": 34.1674827,
    "lng": 131.4602984,
    "tel": "083-920-3340",
    "url": "",
    "pref": "山口県",
    "city": "山口市",
    "category": "home_help",
    "serviceType": "訪問介護",
    "capacity": 0,
    "openDays": [
      "平日",
      "土曜日",
      "日曜日",
      "祝日"
    ],
    "openDaysNote": "上記以外の時間は要相談。体制可能な体制を整えるものとします。"
  },
  {
    "id": "3570303911",
    "name": "阿東園ヘルパーステーション",
    "kana": "アトウエンヘルパーステーション",
    "address": "山口県山口市阿東地福下２８６番地１",
    "lat": 34.3431822,
    "lng": 131.6308877,
    "tel": "083-952-5003",
    "url": "",
    "pref": "山口県",
    "city": "山口市",
    "category": "home_help",
    "serviceType": "訪問介護",
    "capacity": null,
    "openDays": [
      "平日",
      "土曜日",
      "日曜日",
      "祝日"
    ],
    "openDaysNote": "24時間365日営業"
  },
  {
    "id": "3570303143",
    "name": "医療法人　真人会　まごろんヘルパーステーション",
    "kana": "イリョウホジン　シンジンカイ　ヘルパーステーション",
    "address": "山口県山口市江崎2471-8",
    "lat": 34.0633951907283,
    "lng": 131.366086727737,
    "tel": "083-988-1155",
    "url": "http://www.shinjin-kai.org/",
    "pref": "山口県",
    "city": "山口市",
    "category": "home_help",
    "serviceType": "訪問介護",
    "capacity": 0,
    "openDays": [
      "平日",
      "土曜日",
      "日曜日",
      "祝日"
    ],
    "openDaysNote": ""
  },
  {
    "id": "3570303754",
    "name": "介護西京",
    "kana": "カイゴサイキョウ",
    "address": "山口県山口市泉都町3-1",
    "lat": 34.1678404,
    "lng": 131.4650004,
    "tel": "083-921-9127",
    "url": "",
    "pref": "山口県",
    "city": "山口市",
    "category": "home_help",
    "serviceType": "訪問介護",
    "capacity": null,
    "openDays": [
      "平日",
      "土曜日",
      "日曜日",
      "祝日"
    ],
    "openDaysNote": ""
  },
  {
    "id": "3570303861",
    "name": "月之國",
    "kana": "ツキノクニ",
    "address": "山口市下小鯖2098-2",
    "lat": 34.1383851,
    "lng": 131.5239747,
    "tel": "839810009",
    "url": "",
    "pref": "山口県",
    "city": "山口市",
    "category": "home_help",
    "serviceType": "訪問介護",
    "capacity": null,
    "openDays": [
      "平日"
    ],
    "openDaysNote": "交通に要する時間も含めて柔軟に対応します。"
  },
  {
    "id": "3570302913",
    "name": "光山医院山口ヘルパ－ステ－ション",
    "kana": "ミツヤマイインヤマグチヘルパ－ステ－ション",
    "address": "山口県山口市矢原町7番18号",
    "lat": 34.1565723,
    "lng": 131.4526388,
    "tel": "０８３－９３３－６２２０",
    "url": "www.mitsuyama-c.com/index.php",
    "pref": "山口県",
    "city": "山口市",
    "category": "home_help",
    "serviceType": "訪問介護",
    "capacity": 0,
    "openDays": [
      "平日",
      "土曜日"
    ],
    "openDaysNote": ""
  },
  {
    "id": "3570300073",
    "name": "佐々木在宅ケアセンター",
    "kana": "ササキザイタクケアセンター",
    "address": "山口市泉都町９－７",
    "lat": 34.1670272,
    "lng": 131.4613538,
    "tel": "083-934-5032",
    "url": "https://sasaki-geka.jp/care.html",
    "pref": "山口県",
    "city": "山口市",
    "category": "home_help",
    "serviceType": "訪問介護",
    "capacity": 0,
    "openDays": [
      "平日",
      "土曜日"
    ],
    "openDaysNote": "祝日訪問　相談により対応可"
  },
  {
    "id": "3570301477",
    "name": "済生会山口地域ケアセンター居宅介護サービス複合施設にほ苑訪問介護事業所",
    "kana": "サイセイカイヤマグチチイキケアセンターキョタクカイゴサービスフクゴウシセツニホエンホウモンカイゴジギョウショ",
    "address": "山口市仁保中郷988-1",
    "lat": 34.2128332,
    "lng": 131.5595317,
    "tel": "083-929-5082",
    "url": "",
    "pref": "山口県",
    "city": "山口市",
    "category": "home_help",
    "serviceType": "訪問介護",
    "capacity": null,
    "openDays": [
      "平日",
      "土曜日",
      "日曜日",
      "祝日"
    ],
    "openDaysNote": "希望により、24時間３６５日対応"
  },
  {
    "id": "3570300263",
    "name": "済生会山口地域ケアセンター在宅複合型施設やすらぎヘルパーステーション",
    "kana": "サイセイカイヤマグチチイキケアセンターザイタクフクゴウガタシセツヤスラギヘルパーステーション",
    "address": "山口市朝倉町４－５５－６",
    "lat": 34.1763789,
    "lng": 131.4534627,
    "tel": "083-924-6654",
    "url": "http://www.c-able.ne.jp/~saiyama/top2hml",
    "pref": "山口県",
    "city": "山口市",
    "category": "home_help",
    "serviceType": "訪問介護",
    "capacity": 0,
    "openDays": [
      "平日",
      "土曜日",
      "日曜日",
      "祝日"
    ],
    "openDaysNote": "２４時間営業"
  },
  {
    "id": "3570300313",
    "name": "山口あかり園訪問介護事業所",
    "kana": "ヤマグチアカリエンホウモンカイゴジギョウショ",
    "address": "山口市黒川3363番地",
    "lat": 34.1310547,
    "lng": 131.4387164,
    "tel": "083-921-1618",
    "url": "http://www.hakuaikai-yamaguchi.jp/",
    "pref": "山口県",
    "city": "山口市",
    "category": "home_help",
    "serviceType": "訪問介護",
    "capacity": 0,
    "openDays": [
      "平日",
      "土曜日",
      "日曜日",
      "祝日"
    ],
    "openDaysNote": ""
  },
  {
    "id": "3570301758",
    "name": "山口市社会福祉協議会　あとう訪問介護事業所",
    "kana": "ヤマグチシシャカイフクシキョウギカイ　アトウホウモンカイゴジギョウショ",
    "address": "山口県山口市阿東地福上１６９７番地山口市阿東老人福祉センター 山口市阿東老人福祉センター",
    "lat": 34.3618826,
    "lng": 131.6686826,
    "tel": "０８３－９５２－０２５０",
    "url": "",
    "pref": "山口県",
    "city": "山口市",
    "category": "home_help",
    "serviceType": "訪問介護",
    "capacity": 0,
    "openDays": [
      "平日",
      "土曜日",
      "日曜日",
      "祝日"
    ],
    "openDaysNote": "年末年始（12/29～1/3）を除く"
  },
  {
    "id": "3570303515",
    "name": "瀬戸内ヘルパーステーションあいお",
    "kana": "セトウチヘルパーステーションアイオ",
    "address": "山口県山口市秋穂東2260-7",
    "lat": 34.0203833,
    "lng": 131.4620335,
    "tel": "083-984-8500",
    "url": "https://www.lcraft-kabushikigaisya.com/",
    "pref": "山口県",
    "city": "山口市",
    "category": "home_help",
    "serviceType": "訪問介護",
    "capacity": 55,
    "openDays": [
      "平日",
      "土曜日",
      "日曜日",
      "祝日"
    ],
    "openDaysNote": ""
  },
  {
    "id": "3570300792",
    "name": "青藍会在宅医療支援センター新山口ヘルパーステーション",
    "kana": "セイランカイザイタクイリョウシエンセンターシンヤマグチヘルパーステーション",
    "address": "山口県山口市小郡平成町１-18",
    "lat": 34.0878253,
    "lng": 131.400471,
    "tel": "083-976-2400",
    "url": "http://www.seirankai.or.jp",
    "pref": "山口県",
    "city": "山口市",
    "category": "home_help",
    "serviceType": "訪問介護",
    "capacity": 0,
    "openDays": [
      "平日",
      "土曜日"
    ],
    "openDaysNote": "利用者の実情により営業日、営業時間を変更することがある。"
  },
  {
    "id": "3570301717",
    "name": "相川医院ヘルパーステーション",
    "kana": "アイカワイイン　ヘルパーステーション",
    "address": "山口市鋳銭司5963番地1",
    "lat": 34.0837583974868,
    "lng": 131.444157189024,
    "tel": "083-985-0173",
    "url": "http://www.aikawaiin.or.jp",
    "pref": "山口県",
    "city": "山口市",
    "category": "home_help",
    "serviceType": "訪問介護",
    "capacity": 76,
    "openDays": [
      "平日",
      "土曜日",
      "日曜日",
      "祝日"
    ],
    "openDaysNote": ""
  },
  {
    "id": "3570303341",
    "name": "特定非営利活動法人介護派遣センターライフライン山口",
    "kana": "トクテイヒエイリカツドウホウジンカイゴハケンセンターライフラインヤマグチ",
    "address": "山口県山口市吉田2804番地",
    "lat": 34.1403722,
    "lng": 131.4669547,
    "tel": "083－932－8614",
    "url": "",
    "pref": "山口県",
    "city": "山口市",
    "category": "home_help",
    "serviceType": "訪問介護",
    "capacity": 0,
    "openDays": [
      "平日",
      "土曜日",
      "日曜日",
      "祝日"
    ],
    "openDaysNote": "時間外も可。"
  },
  {
    "id": "3570300099",
    "name": "日吉台ホームヘルパーステーション",
    "kana": "ヒヨシダイホームヘルパーステーション",
    "address": "山口市陶３９６８",
    "lat": 34.0983351,
    "lng": 131.4206661,
    "tel": "083-973-2030",
    "url": "https://www.hiyoshidai.or.jp",
    "pref": "山口県",
    "city": "山口市",
    "category": "home_help",
    "serviceType": "訪問介護",
    "capacity": 0,
    "openDays": [
      "平日",
      "土曜日",
      "祝日"
    ],
    "openDaysNote": "特記事項なし"
  },
  {
    "id": "3570303713",
    "name": "福祉サービスリズム",
    "kana": "フクシサービスリズム",
    "address": "山口県山口市吉田２４７７番地１８",
    "lat": 34.1364201,
    "lng": 131.4740577,
    "tel": "083-981-4683",
    "url": "https://rhythm-taxi.com",
    "pref": "山口県",
    "city": "山口市",
    "category": "home_help",
    "serviceType": "訪問介護",
    "capacity": 0,
    "openDays": [
      "平日",
      "土曜日",
      "日曜日",
      "祝日"
    ],
    "openDaysNote": "サービス提供時間は午前７時から午後８時まで。それ以外の時間帯は応相談とする。（改行）電話等により、２４時間常時連絡が可能な体制とする。"
  },
  {
    "id": "3570302327",
    "name": "訪問介護　むっちゃん方",
    "kana": "ホウモンカイゴ　ムッチャンカタ",
    "address": "山口市徳地島地590-2",
    "lat": 34.1646048,
    "lng": 131.6954947,
    "tel": "0835-54-0505",
    "url": "http://www.mucchankata.com/",
    "pref": "山口県",
    "city": "山口市",
    "category": "home_help",
    "serviceType": "訪問介護",
    "capacity": 14,
    "openDays": [
      "平日",
      "土曜日",
      "日曜日",
      "祝日"
    ],
    "openDaysNote": "なし"
  },
  {
    "id": "3570303796",
    "name": "訪問介護ステーションアドバンス湯田",
    "kana": "ホウモンカイゴステーションアドバンスユダ",
    "address": "湯田温泉1-1-7",
    "lat": 34.1658627,
    "lng": 131.4604273,
    "tel": "083-902-5551",
    "url": "",
    "pref": "山口県",
    "city": "山口市",
    "category": "home_help",
    "serviceType": "訪問介護",
    "capacity": null,
    "openDays": [
      "平日",
      "土曜日",
      "日曜日",
      "祝日"
    ],
    "openDaysNote": "特記なし"
  },
  {
    "id": "3570303853",
    "name": "訪問介護センターながさわ",
    "kana": "ホウモンカイゴセンター　ナガサワ",
    "address": "山口県山口市鋳銭司３３８１番地",
    "lat": 34.0763473,
    "lng": 131.4615413,
    "tel": "083-986-3711",
    "url": "www.kitunan.jp",
    "pref": "山口県",
    "city": "山口市",
    "category": "home_help",
    "serviceType": "訪問介護",
    "capacity": 0,
    "openDays": [
      "平日",
      "土曜日",
      "日曜日",
      "祝日"
    ],
    "openDaysNote": "要望のあった場合は、この限りではない。"
  },
  {
    "id": "3570302368",
    "name": "訪問介護事業所きんもくせい",
    "kana": "ホウモンカイゴジギョウショキンモクセイ",
    "address": "山口市大内御堀4331番地23",
    "lat": 34.1338217,
    "lng": 131.4973987,
    "tel": "083-941-3800",
    "url": "",
    "pref": "山口県",
    "city": "山口市",
    "category": "home_help",
    "serviceType": "訪問介護",
    "capacity": 33,
    "openDays": [
      "平日",
      "土曜日",
      "日曜日",
      "祝日"
    ],
    "openDaysNote": ""
  },
  {
    "id": "3570303838",
    "name": "訪問介護事業所ここれ",
    "kana": "ホウモンカイゴジギョウショココレ",
    "address": "山口県山口市楠木町8-18パレス楠木町105号 パレス楠木町105号",
    "lat": 34.1719876,
    "lng": 131.4536738,
    "tel": "083-923-5881",
    "url": "https://kokore0414.com",
    "pref": "山口県",
    "city": "山口市",
    "category": "home_help",
    "serviceType": "訪問介護",
    "capacity": null,
    "openDays": [
      "平日"
    ],
    "openDaysNote": ""
  },
  {
    "id": "3571600257",
    "name": "サンキ・ウエルビィ介護センター小野田",
    "kana": "サンキ・ウエルビィカイゴセンターオノダ",
    "address": "山口県山陽小野田市日の出3-15-28",
    "lat": 34.0072269,
    "lng": 131.1799697,
    "tel": "0836-81-5391",
    "url": "",
    "pref": "山口県",
    "city": "山陽小野田市",
    "category": "home_help",
    "serviceType": "訪問介護",
    "capacity": 0,
    "openDays": [
      "平日",
      "土曜日",
      "日曜日",
      "祝日"
    ],
    "openDaysNote": "ただし、ケアプランに沿ったサービス提供とする。"
  },
  {
    "id": "3570900013",
    "name": "ニチイケアセンター小野田",
    "kana": "ニチイケアセンターオノダ",
    "address": "山陽小野田市日の出３丁目９番９号　平成ビル２Ｆ",
    "lat": 34.0065328,
    "lng": 131.1823809,
    "tel": "0836-81-3571",
    "url": "",
    "pref": "山口県",
    "city": "山陽小野田市",
    "category": "home_help",
    "serviceType": "訪問介護",
    "capacity": 0,
    "openDays": [
      "平日",
      "土曜日",
      "日曜日",
      "祝日"
    ],
    "openDaysNote": "サービス計画に基づき、休業日・営業時間外であってもサービスの提供を行なう場合もある"
  },
  {
    "id": "3571600612",
    "name": "ヘルパーステーションミント",
    "kana": "ヘルパーステーション　ミント",
    "address": "山陽小野田市中川3－12－1山下ビル202号 山下ビル202号",
    "lat": 33.9875950926699,
    "lng": 131.17363412226,
    "tel": "0836－43－9936",
    "url": "",
    "pref": "山口県",
    "city": "山陽小野田市",
    "category": "home_help",
    "serviceType": "訪問介護",
    "capacity": 0,
    "openDays": [
      "平日",
      "土曜日",
      "日曜日",
      "祝日"
    ],
    "openDaysNote": "サービス計画に基づき、休業日・営業時間外でもサービス提供を行う。（改行）夜間、早朝など緊急時（転送電話）の対応要相談"
  },
  {
    "id": "3571601024",
    "name": "ヘルパーステーションゆう",
    "kana": "ヘルパーステーションユウ",
    "address": "山口県山陽小野田市大字西高泊７５８－１",
    "lat": 34.0087944310892,
    "lng": 131.168290699956,
    "tel": "0836－43－7882",
    "url": "https://www.yuyukai-llc.com",
    "pref": "山口県",
    "city": "山陽小野田市",
    "category": "home_help",
    "serviceType": "訪問介護",
    "capacity": 20,
    "openDays": [
      "平日",
      "土曜日",
      "祝日"
    ],
    "openDaysNote": "サービス提供時間　営業時間以外について365日出来る限り利用者様とご相談の上、可能な限り対応"
  },
  {
    "id": "3571601081",
    "name": "ヘルパーステーションわけん",
    "kana": "ヘルパーステーションワケン",
    "address": "山口県山陽小野田市新生2丁目8-10",
    "lat": 34.0006680499743,
    "lng": 131.177214574205,
    "tel": "0836-39-7773",
    "url": "https://onodawaken.com/",
    "pref": "山口県",
    "city": "山陽小野田市",
    "category": "home_help",
    "serviceType": "訪問介護",
    "capacity": null,
    "openDays": [
      "平日",
      "土曜日",
      "日曜日",
      "祝日"
    ],
    "openDaysNote": "災害時を除き、定休日なしで対応しております。"
  },
  {
    "id": "3571600976",
    "name": "むべの里訪問介護事業所住吉",
    "kana": "ムベノサトホウモンカイゴジギョウショスミヨシ",
    "address": "山口県山陽小野田市住吉本町2-5-12",
    "lat": 33.9810189,
    "lng": 131.1797881,
    "tel": "0836-81-1015",
    "url": "ｈｔｔｐ//ｗｗｗ.mubenosato.com",
    "pref": "山口県",
    "city": "山陽小野田市",
    "category": "home_help",
    "serviceType": "訪問介護",
    "capacity": 54,
    "openDays": [
      "平日",
      "土曜日",
      "日曜日",
      "祝日"
    ],
    "openDaysNote": ""
  },
  {
    "id": "3571600471",
    "name": "株式会社　福祉の郷　訪問介護事業所　いこい",
    "kana": "カブシキガイシャ　フクシノサト　　ホウモンカイゴジギョウショ　イコイ",
    "address": "山陽小野田市大字有帆1493",
    "lat": 34.0269252,
    "lng": 131.2084834,
    "tel": "0836-39-7352",
    "url": "tanabe.satoshi@rose.plala.or.jp",
    "pref": "山口県",
    "city": "山陽小野田市",
    "category": "home_help",
    "serviceType": "訪問介護",
    "capacity": 0,
    "openDays": [
      "平日",
      "祝日"
    ],
    "openDaysNote": "上記と同じ"
  },
  {
    "id": "3571601123",
    "name": "株式会社　凛と　ヘルパーステーションいちえ",
    "kana": "カブシキガイシャ　リント　ヘルパーステーションイチエ",
    "address": "山口県山陽小野田市住吉本町1丁目5-1",
    "lat": 33.980431,
    "lng": 131.1791399,
    "tel": "0836-81-1130",
    "url": "",
    "pref": "山口県",
    "city": "山陽小野田市",
    "category": "home_help",
    "serviceType": "訪問介護",
    "capacity": null,
    "openDays": [
      "平日",
      "土曜日",
      "祝日"
    ],
    "openDaysNote": "緊急依頼の場合、特別な事由によってはこの限りではありません。"
  },
  {
    "id": "3571600810",
    "name": "訪問介護　S.L.C「ゆとり」",
    "kana": "ホウモンカイゴ　エス.エル.シー　ユトリ",
    "address": "山口県山陽小野田市須恵3丁目10-3",
    "lat": 33.9624862489131,
    "lng": 131.175737578963,
    "tel": "（0836）55-4403",
    "url": "",
    "pref": "山口県",
    "city": "山陽小野田市",
    "category": "home_help",
    "serviceType": "訪問介護",
    "capacity": 20,
    "openDays": [
      "平日",
      "土曜日",
      "日曜日",
      "祝日"
    ],
    "openDaysNote": ""
  },
  {
    "id": "3571600141",
    "name": "訪問介護ステーション　あさ紫苑",
    "kana": "ホウモンカイゴステーション　アサシオン",
    "address": "山陽小野田市大字桜一丁目3番2号",
    "lat": 34.0535817050105,
    "lng": 131.155578053967,
    "tel": "0836-71-1700",
    "url": "http://41kaigo.com/",
    "pref": "山口県",
    "city": "山陽小野田市",
    "category": "home_help",
    "serviceType": "訪問介護",
    "capacity": 0,
    "openDays": [
      "平日",
      "土曜日",
      "祝日"
    ],
    "openDaysNote": "特になし"
  },
  {
    "id": "3571601180",
    "name": "訪問介護ステーションネスレ",
    "kana": "ホウモンカイゴステーションネスレ",
    "address": "山口県山陽小野田市厚狭688-5",
    "lat": 34.0541814,
    "lng": 131.1772943,
    "tel": "0836-72-1165",
    "url": "",
    "pref": "山口県",
    "city": "山陽小野田市",
    "category": "home_help",
    "serviceType": "訪問介護",
    "capacity": null,
    "openDays": [
      "平日",
      "土曜日",
      "日曜日",
      "祝日"
    ],
    "openDaysNote": ""
  },
  {
    "id": "3571601040",
    "name": "訪問介護ステーション翔陽",
    "kana": "ホウモンカイゴステーションショウヨウ",
    "address": "山口県山陽小野田市新生2-8-8",
    "lat": 34.0009268,
    "lng": 131.177309,
    "tel": "0836-39-7169",
    "url": "",
    "pref": "山口県",
    "city": "山陽小野田市",
    "category": "home_help",
    "serviceType": "訪問介護",
    "capacity": 15,
    "openDays": [
      "平日"
    ],
    "openDaysNote": ""
  },
  {
    "id": "3571600877",
    "name": "訪問介護事業所エガオ",
    "kana": "ホウモンガイゴジギョウショ",
    "address": "山口県山陽小野田市大字小野田4839-1",
    "lat": 33.9461435,
    "lng": 131.1715879,
    "tel": "0863-43-9556",
    "url": "",
    "pref": "山口県",
    "city": "山陽小野田市",
    "category": "home_help",
    "serviceType": "訪問介護",
    "capacity": 16,
    "openDays": [
      "平日",
      "土曜日",
      "日曜日",
      "祝日"
    ],
    "openDaysNote": ""
  },
  {
    "id": "3571601131",
    "name": "訪問介護事業所小さき花",
    "kana": "ホウモンカイゴジギョウショチイサキハナ",
    "address": "大字小野田１０３２５番地８",
    "lat": 33.9748975096704,
    "lng": 131.183823999211,
    "tel": "0836-83-4862",
    "url": "",
    "pref": "山口県",
    "city": "山陽小野田市",
    "category": "home_help",
    "serviceType": "訪問介護",
    "capacity": null,
    "openDays": [
      "平日",
      "土曜日",
      "日曜日",
      "祝日"
    ],
    "openDaysNote": ""
  },
  {
    "id": "3570900203",
    "name": "有限会社　ケア・サービス優",
    "kana": "ユウゲンガイシャ　ケア・サービスユウ",
    "address": "山陽小野田市新生二丁目６番２５号",
    "lat": 34.001479,
    "lng": 131.1778434,
    "tel": "0836-83-4302",
    "url": "http://care-service-you.com/day.service.haru/houmon.html",
    "pref": "山口県",
    "city": "山陽小野田市",
    "category": "home_help",
    "serviceType": "訪問介護",
    "capacity": 0,
    "openDays": [
      "平日",
      "土曜日",
      "日曜日",
      "祝日"
    ],
    "openDaysNote": "特になし"
  },
  {
    "id": "3571501422",
    "name": "JＡ訪問介護ふれあい新南陽",
    "kana": "ジェイエイホウモンカイゴフレアイシンナンヨウ",
    "address": "山口県周南市清水１丁目１２番7号",
    "lat": 34.0708579,
    "lng": 131.7676306,
    "tel": "0834-62-7013",
    "url": "http://www.ja-ｙｍｇ.or.jp",
    "pref": "山口県",
    "city": "周南市",
    "category": "home_help",
    "serviceType": "訪問介護",
    "capacity": 120,
    "openDays": [
      "平日",
      "土曜日",
      "日曜日",
      "祝日"
    ],
    "openDaysNote": "休日・時間外は電話対応"
  },
  {
    "id": "3571501430",
    "name": "JA訪問介護ふれあい徳山",
    "kana": "ジェイエイホウモンカイゴフレアイトクヤマ",
    "address": "山口県周南市大字徳山字三田川5825-8",
    "lat": 34.0707969,
    "lng": 131.7689388,
    "tel": "0834-27-2950",
    "url": "https://www.ja-ymg.or.jp",
    "pref": "山口県",
    "city": "周南市",
    "category": "home_help",
    "serviceType": "訪問介護",
    "capacity": 0,
    "openDays": [
      "平日",
      "土曜日",
      "日曜日",
      "祝日"
    ],
    "openDaysNote": "休日・時間外は電話対応です。"
  },
  {
    "id": "3570500565",
    "name": "あい・周南ケアセンター",
    "kana": "アイ・シュウナンケアセンター",
    "address": "周南市秋月1丁目1番10号",
    "lat": 34.0538445,
    "lng": 131.8247923,
    "tel": "0834-39-0506",
    "url": "https://ai-syunan.jimdofree.com/",
    "pref": "山口県",
    "city": "周南市",
    "category": "home_help",
    "serviceType": "訪問介護",
    "capacity": 0,
    "openDays": [
      "平日",
      "土曜日",
      "日曜日",
      "祝日"
    ],
    "openDaysNote": "特に無し"
  },
  {
    "id": "3571501372",
    "name": "さわやか　訪問介護",
    "kana": "サワヤカ　ホウモンカイゴ",
    "address": "周南市下上１３３-１８",
    "lat": 34.0902429,
    "lng": 131.7861539,
    "tel": "0834-61-0577",
    "url": "",
    "pref": "山口県",
    "city": "周南市",
    "category": "home_help",
    "serviceType": "訪問介護",
    "capacity": 0,
    "openDays": [
      "平日",
      "土曜日",
      "日曜日",
      "祝日"
    ],
    "openDaysNote": ""
  },
  {
    "id": "3571501034",
    "name": "サンキ・ウエルビィ介護センター新南陽",
    "kana": "サンキ・ウエルビィカイゴセンターシンナンヨウ",
    "address": "山口県周南市政所２丁目７－２０",
    "lat": 34.0735299,
    "lng": 131.7680166,
    "tel": "0834-34-3260",
    "url": "",
    "pref": "山口県",
    "city": "周南市",
    "category": "home_help",
    "serviceType": "訪問介護",
    "capacity": 0,
    "openDays": [
      "平日",
      "土曜日",
      "日曜日",
      "祝日"
    ],
    "openDaysNote": "ただし、ケアプランに沿ったサービス提供とする。"
  },
  {
    "id": "3570500367",
    "name": "サンキ・ウエルビィ介護センター徳山",
    "kana": "サンキウエルビィカイゴセンタートクヤマ",
    "address": "山口県周南市五月町７－１０",
    "lat": 34.0376878,
    "lng": 131.8289785,
    "tel": "0834-27-6057",
    "url": "",
    "pref": "山口県",
    "city": "周南市",
    "category": "home_help",
    "serviceType": "訪問介護",
    "capacity": 0,
    "openDays": [
      "平日",
      "土曜日",
      "日曜日",
      "祝日"
    ],
    "openDaysNote": "ただしケアプランに沿ったサービスを提供する。"
  },
  {
    "id": "3570500441",
    "name": "ニチイケアセンター菊川",
    "kana": "ニチイケアセンターキクガワ",
    "address": "山口県周南市大字下上字向土井644-1",
    "lat": 34.0797991,
    "lng": 131.7763131,
    "tel": "0834-61-2826",
    "url": "",
    "pref": "山口県",
    "city": "周南市",
    "category": "home_help",
    "serviceType": "訪問介護",
    "capacity": 0,
    "openDays": [
      "平日"
    ],
    "openDaysNote": "但し、居宅サービス計画により、営業時間外でも、サービスの提供を行う場合がある。"
  },
  {
    "id": "3570500417",
    "name": "ニチイケアセンター周南",
    "kana": "ニチイケアセンターシュウナン",
    "address": "周南市河東町9-20グランデリバーサイドBｸﾞﾗﾝﾃﾞﾘﾊﾞｰｻｲﾄﾞB ｸﾞﾗﾝﾃﾞﾘﾊﾞｰｻｲﾄﾞB",
    "lat": 34.0461813025101,
    "lng": 131.812886171783,
    "tel": "0834-27-5330",
    "url": "http://www.nichiigakkan.co.jp",
    "pref": "山口県",
    "city": "周南市",
    "category": "home_help",
    "serviceType": "訪問介護",
    "capacity": 0,
    "openDays": [
      "平日",
      "土曜日",
      "日曜日",
      "祝日"
    ],
    "openDaysNote": "サービス計画書に基づき、休業日・営業時間外であっても、サービスの提供を行う場合がある。"
  },
  {
    "id": "3571501851",
    "name": "ニチイケアセンター須々万",
    "kana": "ニチイケアセンターススマ",
    "address": "山口県周南市大字須々万本郷353番地12",
    "lat": 34.1177307,
    "lng": 131.8646143,
    "tel": "0834-87-2643",
    "url": "http://www.nichiigakkan.co.jp",
    "pref": "山口県",
    "city": "周南市",
    "category": "home_help",
    "serviceType": "訪問介護",
    "capacity": 0,
    "openDays": [
      "平日",
      "土曜日",
      "日曜日",
      "祝日"
    ],
    "openDaysNote": "サービス計画に基づき、休業日・営業時間外であっても、サービスの提供を行う場合がある。"
  },
  {
    "id": "3571501844",
    "name": "ニチイケアセンター湯野",
    "kana": "ニチイケアセンターユノ",
    "address": "周南市大字湯野字古野3848番地3",
    "lat": 34.1165852,
    "lng": 131.6710049,
    "tel": "0834-82-0022",
    "url": "",
    "pref": "山口県",
    "city": "周南市",
    "category": "home_help",
    "serviceType": "訪問介護",
    "capacity": 0,
    "openDays": [
      "平日",
      "土曜日",
      "日曜日",
      "祝日"
    ],
    "openDaysNote": "但し居宅サービス計画により、営業時間外でもサービスの提供を行う場合がある"
  },
  {
    "id": "3570500243",
    "name": "ニチイケアセンター徳山",
    "kana": "ニチイケアセンタートクヤマ",
    "address": "山口県周南市城ヶ丘3丁目15-11パープルI　1F",
    "lat": 34.0461623,
    "lng": 131.8396302,
    "tel": "0834-39-0461",
    "url": "http://www.nichiigakkan.co.jp",
    "pref": "山口県",
    "city": "周南市",
    "category": "home_help",
    "serviceType": "訪問介護",
    "capacity": 0,
    "openDays": [
      "平日",
      "土曜日",
      "日曜日",
      "祝日"
    ],
    "openDaysNote": "サービス計画書に基づき、休業日・営業時間外であっても、サービスの提供を行う場合がある。"
  },
  {
    "id": "3571501869",
    "name": "ヘルパーステーショクローネ中須",
    "kana": "ヘルパーステーションクローネナカズ",
    "address": "山口県周南市大字中須南2553-13有料老人ホームクローネ中須 有料老人ホームクローネ中須",
    "lat": 34.1140525,
    "lng": 131.9155076,
    "tel": "0834-89-5100",
    "url": "https://krone-shunan.net",
    "pref": "山口県",
    "city": "周南市",
    "category": "home_help",
    "serviceType": "訪問介護",
    "capacity": 0,
    "openDays": [
      "平日",
      "土曜日",
      "日曜日",
      "祝日"
    ],
    "openDaysNote": ""
  },
  {
    "id": "3571500929",
    "name": "ヘルパーステーションこもれび",
    "kana": "ヘルパーステーションコモレビ",
    "address": "山口県周南市城ケ丘4丁目3536－1",
    "lat": 34.0474417260547,
    "lng": 131.846244032603,
    "tel": "0834-33-8788",
    "url": "http://komorebinomori.jp",
    "pref": "山口県",
    "city": "周南市",
    "category": "home_help",
    "serviceType": "訪問介護",
    "capacity": 0,
    "openDays": [
      "平日",
      "土曜日",
      "日曜日",
      "祝日"
    ],
    "openDaysNote": ""
  },
  {
    "id": "3570500235",
    "name": "やすらぎ苑訪問介護事業所",
    "kana": "ヤスラギエンホウモンカイゴジギョウショ",
    "address": "山口県周南市大字湯野１５８番地",
    "lat": 34.0922546956252,
    "lng": 131.678154247221,
    "tel": "0834-83-2800",
    "url": "http://www.yasuragi-en.jp/",
    "pref": "山口県",
    "city": "周南市",
    "category": "home_help",
    "serviceType": "訪問介護",
    "capacity": 0,
    "openDays": [
      "平日",
      "土曜日",
      "日曜日",
      "祝日"
    ],
    "openDaysNote": "＊サービス提供時間について、天災やその他やむを得ず業務を遂行できない場合は、時間変更やお断りをさせていただくことがあります。"
  },
  {
    "id": "3577400041",
    "name": "やまなみ荘在宅介護支援センター",
    "kana": "ヤマナミソウザイタクカイゴシエンセンター",
    "address": "山口県周南市大字鹿野上2755番地の1",
    "lat": 34.2296147,
    "lng": 131.8096681,
    "tel": "0834-68-4183",
    "url": "https://www.kanofukushikai.or.jp/",
    "pref": "山口県",
    "city": "周南市",
    "category": "home_help",
    "serviceType": "訪問介護",
    "capacity": 0,
    "openDays": [
      "平日",
      "土曜日",
      "祝日"
    ],
    "openDaysNote": ""
  },
  {
    "id": "3571501794",
    "name": "株式会社ネクストウイル",
    "kana": "カブシキガイシャ　ネクストウィル",
    "address": "周南市徳山５５２９サービス付き高齢者住宅　虹の丘 サービス付き高齢者住宅　虹の丘",
    "lat": 34.0634381,
    "lng": 131.8245865,
    "tel": "０８３４－２１－２４２４",
    "url": "https://www.nijinooka-shunan.com/",
    "pref": "山口県",
    "city": "周南市",
    "category": "home_help",
    "serviceType": "訪問介護",
    "capacity": 30,
    "openDays": [
      "平日",
      "土曜日",
      "日曜日",
      "祝日"
    ],
    "openDaysNote": "24時間体制"
  },
  {
    "id": "3571501687",
    "name": "合同会社　ほっこり",
    "kana": "ゴウドウガイシャ　ホッコリ",
    "address": "山口県周南市孝田町５－６サニーシックスセンター４号室 サニーシックスセンター４号室",
    "lat": 34.047576,
    "lng": 131.8367554,
    "tel": "0834-51-4025",
    "url": "",
    "pref": "山口県",
    "city": "周南市",
    "category": "home_help",
    "serviceType": "訪問介護",
    "capacity": 59,
    "openDays": [
      "平日",
      "土曜日",
      "日曜日",
      "祝日"
    ],
    "openDaysNote": "訪問介護計画等の実施状況の把握を行ない、必要に応じて変更を行います。"
  },
  {
    "id": "3571502016",
    "name": "周南訪問介護事業所",
    "kana": "シュウナンホウモンカイゴジギョウショ",
    "address": "山口県周南市西桝町１６－１１",
    "lat": 34.0697518,
    "lng": 131.7351874,
    "tel": "0834‐34‐9843",
    "url": "",
    "pref": "山口県",
    "city": "周南市",
    "category": "home_help",
    "serviceType": "訪問介護",
    "capacity": 0,
    "openDays": [
      "平日",
      "土曜日",
      "日曜日",
      "祝日"
    ],
    "openDaysNote": ""
  },
  {
    "id": "3570500169",
    "name": "徳山医師会訪問介護事業所",
    "kana": "トクヤマイシカイホウモンカイゴジギョウショ",
    "address": "周南市東山町6－28",
    "lat": 34.0498184400516,
    "lng": 131.816199033066,
    "tel": "0834-31-6875",
    "url": "http://www.tokuyamaishikai.com",
    "pref": "山口県",
    "city": "周南市",
    "category": "home_help",
    "serviceType": "訪問介護",
    "capacity": 20,
    "openDays": [
      "平日",
      "土曜日",
      "日曜日",
      "祝日"
    ],
    "openDaysNote": "上記の時間外でも相談のうえサービスの提供可能（２４時間対応）"
  },
  {
    "id": "3571501919",
    "name": "徳山病院訪問介護ステーションオリーブ",
    "kana": "トクヤマビョウインホウモンカイゴステーションオリーブ",
    "address": "山口県周南市南浦山町5番14号",
    "lat": 34.0698643165548,
    "lng": 131.78820607473,
    "tel": "0834-34-1550",
    "url": "http://tokuyama-hp.jp/",
    "pref": "山口県",
    "city": "周南市",
    "category": "home_help",
    "serviceType": "訪問介護",
    "capacity": 0,
    "openDays": [
      "平日",
      "土曜日",
      "日曜日",
      "祝日"
    ],
    "openDaysNote": ""
  },
  {
    "id": "3571501547",
    "name": "訪問介護　湯野温泉",
    "kana": "ホウモンカイゴ　ユノオンセン",
    "address": "山口県周南市大字湯野4203番地の6サービス付き高齢者向け住宅　湯野温泉 サービス付き高齢者向け住宅　湯野温泉",
    "lat": 34.0940568,
    "lng": 131.6749365,
    "tel": "0834-82-1001",
    "url": "http://www.chitokukai.com",
    "pref": "山口県",
    "city": "周南市",
    "category": "home_help",
    "serviceType": "訪問介護",
    "capacity": null,
    "openDays": [
      "平日",
      "土曜日",
      "日曜日",
      "祝日"
    ],
    "openDaysNote": ""
  },
  {
    "id": "3571500788",
    "name": "訪問介護ステーションつるの恩がえし",
    "kana": "ホウモンカイゴステーションツルノオンガエシ",
    "address": "山口県周南市大字八代1029番地",
    "lat": 34.0939266439429,
    "lng": 131.928903339269,
    "tel": "0833-91-5660",
    "url": "http://www.tsuru-wagaya.jp",
    "pref": "山口県",
    "city": "周南市",
    "category": "home_help",
    "serviceType": "訪問介護",
    "capacity": 0,
    "openDays": [
      "平日",
      "土曜日",
      "日曜日",
      "祝日"
    ],
    "openDaysNote": ""
  },
  {
    "id": "3571501596",
    "name": "訪問介護ステーション鹿野博愛",
    "kana": "ホウモンカイゴステーションカノハクアイ",
    "address": "大字鹿野下１１６１番地１",
    "lat": 34.2240959,
    "lng": 131.8160733,
    "tel": "０８３４－６８－２２３３",
    "url": "http://ryokuzankai.jp",
    "pref": "山口県",
    "city": "周南市",
    "category": "home_help",
    "serviceType": "訪問介護",
    "capacity": 0,
    "openDays": [
      "平日",
      "土曜日"
    ],
    "openDaysNote": "特になし"
  },
  {
    "id": "3571500937",
    "name": "訪問介護事業所　なごやか熊毛",
    "kana": "ホウモンカイゴジギョウショ　ナゴヤカクマゲ",
    "address": "山口県周南市高水原2丁目7番27号",
    "lat": 34.0536427,
    "lng": 131.9730938,
    "tel": "0833-92-0600",
    "url": "http://www.kumage-rk.jp",
    "pref": "山口県",
    "city": "周南市",
    "category": "home_help",
    "serviceType": "訪問介護",
    "capacity": 40,
    "openDays": [
      "平日",
      "土曜日",
      "日曜日",
      "祝日"
    ],
    "openDaysNote": "居宅サービス計画により、休業日及び営業時間外であってもサービスを提供する場合があります。"
  },
  {
    "id": "3571501265",
    "name": "訪問介護事業所ウェル周南",
    "kana": "ホウモンカイゴジギョウショ　ウェルシュウナン",
    "address": "周南市大字樋口６０５－１",
    "lat": 34.0560452,
    "lng": 131.9751714,
    "tel": "０８３３-９１-1733",
    "url": "",
    "pref": "山口県",
    "city": "周南市",
    "category": "home_help",
    "serviceType": "訪問介護",
    "capacity": 0,
    "openDays": [
      "平日",
      "土曜日",
      "日曜日",
      "祝日"
    ],
    "openDaysNote": ""
  },
  {
    "id": "3571501901",
    "name": "訪問介護事業所きさんの里",
    "kana": "ホウモンカイゴジギョウショキサンノサト",
    "address": "山口県周南市五月町１２番１号",
    "lat": 34.0369438,
    "lng": 131.8316647,
    "tel": "0834-33-9901",
    "url": "",
    "pref": "山口県",
    "city": "周南市",
    "category": "home_help",
    "serviceType": "訪問介護",
    "capacity": 0,
    "openDays": [
      "平日",
      "土曜日",
      "日曜日",
      "祝日"
    ],
    "openDaysNote": "但し、居宅介護支援事業所等により特段の要請がある場合、天災やその他やむを得ず業務を遂行できない場合は休止または中止になります。"
  },
  {
    "id": "3571501182",
    "name": "訪問介護事業所きらきら星",
    "kana": "ホウモンカイゴジギョウショキラキラボシ",
    "address": "周南市川崎3丁目19-24",
    "lat": 34.0704065712839,
    "lng": 131.781767101868,
    "tel": "0834-34-0034",
    "url": "",
    "pref": "山口県",
    "city": "周南市",
    "category": "home_help",
    "serviceType": "訪問介護",
    "capacity": 0,
    "openDays": [
      "平日",
      "土曜日",
      "日曜日",
      "祝日"
    ],
    "openDaysNote": "スタッフの配置状況や他の介護提供状況によりサービスを提供できないことがあります。"
  },
  {
    "id": "3571501877",
    "name": "訪問介護事業所ひまわり三丘",
    "kana": "ホウモンカイゴジギョウショヒマワリミツオ",
    "address": "山口県周南市大字安田１０１番地",
    "lat": 34.0452576,
    "lng": 131.9717365,
    "tel": "0833-48-9986",
    "url": "",
    "pref": "山口県",
    "city": "周南市",
    "category": "home_help",
    "serviceType": "訪問介護",
    "capacity": 0,
    "openDays": [
      "平日",
      "土曜日",
      "祝日"
    ],
    "openDaysNote": ""
  },
  {
    "id": "3571500838",
    "name": "訪問介護事業所元気村",
    "kana": "ホウモンカイゴジギョウショゲンキムラ",
    "address": "周南市大字湯野27番地",
    "lat": 34.0842847784936,
    "lng": 131.679951122641,
    "tel": "0834-82-0777",
    "url": "http://www.genkimura-sa.jp/",
    "pref": "山口県",
    "city": "周南市",
    "category": "home_help",
    "serviceType": "訪問介護",
    "capacity": 0,
    "openDays": [
      "平日",
      "土曜日",
      "日曜日",
      "祝日"
    ],
    "openDaysNote": ""
  },
  {
    "id": "3571500085",
    "name": "友愛園訪問介護事業所",
    "kana": "ユウアイエンホウモンカイゴジギョウショ",
    "address": "周南市大字須々万本郷２９番地の２",
    "lat": 34.1240080128551,
    "lng": 131.85803273373,
    "tel": "0834-88-2346",
    "url": "http://ryokuzankai.jp",
    "pref": "山口県",
    "city": "周南市",
    "category": "home_help",
    "serviceType": "訪問介護",
    "capacity": 0,
    "openDays": [
      "平日",
      "土曜日",
      "日曜日",
      "祝日"
    ],
    "openDaysNote": "ただし、利用者及びケアマネジャー等の特別の要請がある場合は除く"
  },
  {
    "id": "3577100807",
    "name": "ヘルパーステーション松福",
    "kana": "ヘルパーステーションマツフク",
    "address": "山口県大島郡周防大島町小松開作1202-7",
    "lat": 33.927338278183,
    "lng": 132.182089400757,
    "tel": "0820-74-5539",
    "url": "",
    "pref": "山口県",
    "city": "周防大島町",
    "category": "home_help",
    "serviceType": "訪問介護",
    "capacity": null,
    "openDays": [
      "平日",
      "土曜日",
      "日曜日",
      "祝日"
    ],
    "openDaysNote": "サービス提供については利用者様との相談に応じ対応"
  },
  {
    "id": "3577100450",
    "name": "周防大島町社協　訪問介護西部事業所",
    "kana": "スオウオオシマチョウシャキョウ　ホウモンカイゴセイブジギョウショ",
    "address": "大島郡周防大島町大字小松125-2",
    "lat": 33.9272040500533,
    "lng": 132.195882251307,
    "tel": "0820-74-5500",
    "url": "",
    "pref": "山口県",
    "city": "周防大島町",
    "category": "home_help",
    "serviceType": "訪問介護",
    "capacity": 0,
    "openDays": [
      "平日",
      "土曜日",
      "日曜日",
      "祝日"
    ],
    "openDaysNote": "年中無休"
  },
  {
    "id": "3577100443",
    "name": "周防大島町社協　訪問介護東部事業所",
    "kana": "スオウオオシマチョウシャキョウ　ホウモンカイゴ　トウブジギョウショ",
    "address": "大島郡周防大島町大字日前１９３２－３２",
    "lat": 33.9216558,
    "lng": 132.3010245,
    "tel": "0820-73-0070",
    "url": "",
    "pref": "山口県",
    "city": "周防大島町",
    "category": "home_help",
    "serviceType": "訪問介護",
    "capacity": 0,
    "openDays": [
      "平日",
      "土曜日",
      "日曜日",
      "祝日"
    ],
    "openDaysNote": "特になし"
  },
  {
    "id": "3577100732",
    "name": "訪問介護ステーション　なないろ",
    "kana": "ホウモンカイゴステーション　ナナイロ",
    "address": "大島郡周防大島町小松91番地4おげんきハグニティ おげんきハグニティ",
    "lat": 33.9274335,
    "lng": 132.1901902,
    "tel": "0820-79-2225",
    "url": "okaharakai.com/",
    "pref": "山口県",
    "city": "周防大島町",
    "category": "home_help",
    "serviceType": "訪問介護",
    "capacity": 0,
    "openDays": [
      "平日",
      "土曜日",
      "祝日"
    ],
    "openDaysNote": "ただし上記の時間以外についても相談に応じます。"
  },
  {
    "id": "3577100351",
    "name": "訪問介護ステーションのんた",
    "kana": "ホウモンカイゴステーションノンタ",
    "address": "大島郡周防大島町大字久賀５１２３－４",
    "lat": 33.948722,
    "lng": 132.2623528,
    "tel": "0820-79-0655",
    "url": "",
    "pref": "山口県",
    "city": "周防大島町",
    "category": "home_help",
    "serviceType": "訪問介護",
    "capacity": null,
    "openDays": [
      "平日",
      "土曜日",
      "日曜日",
      "祝日"
    ],
    "openDaysNote": "事務所留守時間は転送電話にて現場ヘルパーにて対応。（改行）サービス提供中は留守番電話に切り替え対応。"
  },
  {
    "id": "3577100310",
    "name": "有限会社　しらき",
    "kana": "ユウゲンガイシャ　シラキ",
    "address": "山口県大島郡周防大島町西方14番地",
    "lat": 33.9038443,
    "lng": 132.3274609,
    "tel": "0820-78-2626",
    "url": "",
    "pref": "山口県",
    "city": "周防大島町",
    "category": "home_help",
    "serviceType": "訪問介護",
    "capacity": 0,
    "openDays": [
      "平日",
      "土曜日",
      "日曜日",
      "祝日"
    ],
    "openDaysNote": ""
  },
  {
    "id": "3577300233",
    "name": "上関町ヘルパーステーション",
    "kana": "カミノセキチョウヘルパーステーション",
    "address": "山口県熊毛郡上関町大字長島1561-1",
    "lat": 33.8152633,
    "lng": 132.0737511,
    "tel": "0820-65-5110",
    "url": "https://kaminoseki-fukushikai.com/",
    "pref": "山口県",
    "city": "上関町",
    "category": "home_help",
    "serviceType": "訪問介護",
    "capacity": 0,
    "openDays": [
      "平日",
      "祝日"
    ],
    "openDaysNote": "特になし"
  },
  {
    "id": "3571100340",
    "name": "ヘルパーステーションしあわせ長門",
    "kana": "ヘルパーステーションシアワセナガト",
    "address": "山口県長門市東深川1321番地1",
    "lat": 34.3709860792782,
    "lng": 131.181189754265,
    "tel": "0837-23-1616",
    "url": "http://www.nagatoshakyo.jp",
    "pref": "山口県",
    "city": "長門市",
    "category": "home_help",
    "serviceType": "訪問介護",
    "capacity": 130,
    "openDays": [
      "平日",
      "土曜日",
      "日曜日",
      "祝日"
    ],
    "openDaysNote": ""
  },
  {
    "id": "3571100613",
    "name": "ヘルパーステーションつむぎ",
    "kana": "ヘルパーステーションツムギ",
    "address": "山口県長門市日置上2087-1",
    "lat": 34.3872701,
    "lng": 131.1387747,
    "tel": "0837-37-2386",
    "url": "",
    "pref": "山口県",
    "city": "長門市",
    "category": "home_help",
    "serviceType": "訪問介護",
    "capacity": 0,
    "openDays": [
      "平日"
    ],
    "openDaysNote": "緊急性・必要性がある場合は、提供時間外に於いても対応いたします。"
  },
  {
    "id": "3571100498",
    "name": "ヘルパーステーションひまわり長州",
    "kana": "ヘルパーステーションヒマワリチョウシュウ",
    "address": "山口県長門市日置上字反所１５４０番地の1",
    "lat": 34.384552238407,
    "lng": 131.106247471997,
    "tel": "0837-37-6881",
    "url": "",
    "pref": "山口県",
    "city": "長門市",
    "category": "home_help",
    "serviceType": "訪問介護",
    "capacity": 0,
    "openDays": [
      "平日",
      "土曜日",
      "日曜日",
      "祝日"
    ],
    "openDaysNote": ""
  },
  {
    "id": "3571100399",
    "name": "ヘルパーステーション生き活きネットみすみ",
    "kana": "ヘルパーステーションイキイキネットミスミ",
    "address": "山口県長門市三隅下字住吉1394番5",
    "lat": 34.3591837,
    "lng": 131.2596545,
    "tel": "0837-42-1255",
    "url": "",
    "pref": "山口県",
    "city": "長門市",
    "category": "home_help",
    "serviceType": "訪問介護",
    "capacity": 0,
    "openDays": [
      "平日"
    ],
    "openDaysNote": "土曜日、日曜日、祭日は営業はしないものの、緊急時は出来る限りの対応は致します。"
  },
  {
    "id": "3571100035",
    "name": "ゆもと苑指定訪問介護事業所",
    "kana": "ユモトエンシテイホウモンカイゴジギョウショ",
    "address": "長門市深川湯本10600-1",
    "lat": 34.3390819,
    "lng": 131.1786246,
    "tel": "0837-22-7002",
    "url": "https://www.fukushoukai.or.jp",
    "pref": "山口県",
    "city": "長門市",
    "category": "home_help",
    "serviceType": "訪問介護",
    "capacity": 0,
    "openDays": [
      "平日",
      "土曜日",
      "日曜日",
      "祝日"
    ],
    "openDaysNote": "365日24時間対応（但し、居宅サービス計画に位置づけられたもの）"
  },
  {
    "id": "3571100209",
    "name": "長門市社協ゆや訪問介護事業所",
    "kana": "ナガトシシャキョウユヤホウモンカイゴジギョウショ",
    "address": "山口県長門市油谷新別名10803番地",
    "lat": 34.3681800837717,
    "lng": 131.055860133223,
    "tel": "0837-32-0931",
    "url": "http://www.nagatoshakyo.jp",
    "pref": "山口県",
    "city": "長門市",
    "category": "home_help",
    "serviceType": "訪問介護",
    "capacity": 110,
    "openDays": [
      "平日",
      "土曜日",
      "日曜日",
      "祝日"
    ],
    "openDaysNote": ""
  },
  {
    "id": "3571100290",
    "name": "長門中央介護事業所はればれ長門",
    "kana": "ナガトチュウオウカイゴジギョウショハレバレナガト",
    "address": "長門市東深川６３０－１１",
    "lat": 34.3798029498903,
    "lng": 131.186432479562,
    "tel": "0837-23-2323",
    "url": "",
    "pref": "山口県",
    "city": "長門市",
    "category": "home_help",
    "serviceType": "訪問介護",
    "capacity": 0,
    "openDays": [
      "平日",
      "土曜日",
      "日曜日",
      "祝日"
    ],
    "openDaysNote": "必要に応じケアマネと相談し２４時間３６５日対応します"
  },
  {
    "id": "3571100605",
    "name": "訪問介護ステーション寿樹",
    "kana": "ホウモンカイゴステーションジュジュ",
    "address": "山口県長門市西深川338番地1",
    "lat": 34.3713022679882,
    "lng": 131.167692840723,
    "tel": "0837-27-0025",
    "url": "",
    "pref": "山口県",
    "city": "長門市",
    "category": "home_help",
    "serviceType": "訪問介護",
    "capacity": null,
    "openDays": [
      "平日",
      "土曜日",
      "日曜日",
      "祝日"
    ],
    "openDaysNote": ""
  },
  {
    "id": "3577300225",
    "name": "たぶせ苑指定訪問介護事業所",
    "kana": "タブセエンシテイホウモンカイゴジギョウショ",
    "address": "熊毛郡田布施町大字宿井４０６番地",
    "lat": 33.9655012,
    "lng": 132.0282905,
    "tel": "0820-53-1293",
    "url": "http://care-net.biz/35/shifuku/company.php",
    "pref": "山口県",
    "city": "田布施町",
    "category": "home_help",
    "serviceType": "訪問介護",
    "capacity": 0,
    "openDays": [
      "平日",
      "祝日"
    ],
    "openDaysNote": "利用者から希望があり、それに対応可能な場合はこの限りでない"
  },
  {
    "id": "3577300845",
    "name": "ニチイケアセンター田布施",
    "kana": "ニチイケアセンタータブセ",
    "address": "山口県熊毛郡田布施町大字下田布施3543-8",
    "lat": 33.9517302,
    "lng": 132.0410641,
    "tel": "0820-51-0950",
    "url": "http://www.nichiigakkan.co.jp",
    "pref": "山口県",
    "city": "田布施町",
    "category": "home_help",
    "serviceType": "訪問介護",
    "capacity": null,
    "openDays": [
      "平日",
      "土曜日",
      "日曜日",
      "祝日"
    ],
    "openDaysNote": "サービス計画書に基づき休業日・営業時間外であっても、サービスの提供を行う場合がある。"
  },
  {
    "id": "3577300704",
    "name": "訪問介護ステーション　ブリスケア田布施",
    "kana": "ホウモンカイゴステーション　ブリスケア　タブセ",
    "address": "熊毛郡田布施町大字波野４３３－１",
    "lat": 33.9587222122466,
    "lng": 132.047616655217,
    "tel": "0820-52-6660",
    "url": "",
    "pref": "山口県",
    "city": "田布施町",
    "category": "home_help",
    "serviceType": "訪問介護",
    "capacity": 0,
    "openDays": [
      "平日",
      "土曜日",
      "日曜日",
      "祝日"
    ],
    "openDaysNote": "特に無し"
  },
  {
    "id": "3570400931",
    "name": "JA訪問介護ふれあい萩",
    "kana": "ジェイエイホウモンカイゴフレアイハギ",
    "address": "山口県萩市大字椿３０３２番地",
    "lat": 34.3980496,
    "lng": 131.4010854,
    "tel": "０８３８−２２−４１６５",
    "url": "https://ja-kyodo-support.jp",
    "pref": "山口県",
    "city": "萩市",
    "category": "home_help",
    "serviceType": "訪問介護",
    "capacity": null,
    "openDays": [
      "平日",
      "土曜日",
      "日曜日",
      "祝日"
    ],
    "openDaysNote": "ヘルパー業務は２４時間　３６５日対応（改行）休日・時間外は電話対応事業所営業時間以外は、２４時間電話対応"
  },
  {
    "id": "3570400790",
    "name": "フォーユー　ヘルパーステーション",
    "kana": "フォーユー　ヘルパーステーション",
    "address": "山口県萩市土原217-1",
    "lat": 34.4090717780632,
    "lng": 131.40828556044,
    "tel": "0838-58-8001",
    "url": "",
    "pref": "山口県",
    "city": "萩市",
    "category": "home_help",
    "serviceType": "訪問介護",
    "capacity": null,
    "openDays": [
      "平日",
      "祝日"
    ],
    "openDaysNote": "常時連絡が可能な体制とし、利用者の状況に応じて、休日・営業時間外においてもサービスの提供が可能な体制"
  },
  {
    "id": "3570400675",
    "name": "ライフケアステーションはぎ",
    "kana": "ライフケアステーションハギ",
    "address": "萩市椿東2942‐13ゆめの里はぎ ゆめの里はぎ",
    "lat": 34.4144542,
    "lng": 131.4120423,
    "tel": "0838-21-7635",
    "url": "http://www.yumesanyo.jp/",
    "pref": "山口県",
    "city": "萩市",
    "category": "home_help",
    "serviceType": "訪問介護",
    "capacity": 34,
    "openDays": [
      "平日",
      "土曜日",
      "日曜日",
      "祝日"
    ],
    "openDaysNote": ""
  },
  {
    "id": "3570400717",
    "name": "椿の郷　ヘルパーステーション",
    "kana": "ツバキノサト　ヘルパーステーション",
    "address": "山口県萩市大字椿東6030番地13有料老人ホーム椿の郷内 有料老人ホーム椿の郷内",
    "lat": 34.4397522,
    "lng": 131.4219312,
    "tel": "0838-21-7216",
    "url": "",
    "pref": "山口県",
    "city": "萩市",
    "category": "home_help",
    "serviceType": "訪問介護",
    "capacity": 40,
    "openDays": [
      "平日",
      "土曜日",
      "日曜日",
      "祝日"
    ],
    "openDaysNote": ""
  },
  {
    "id": "3570400261",
    "name": "萩市ヘルパーステーションかがやき",
    "kana": "ハギシヘルパーステーションカガヤキ",
    "address": "萩市大字椿2398番地1",
    "lat": 34.393805586044,
    "lng": 131.402797077277,
    "tel": "0838-24-4123",
    "url": "http://hagi-kagayaki.or.jp/",
    "pref": "山口県",
    "city": "萩市",
    "category": "home_help",
    "serviceType": "訪問介護",
    "capacity": 10,
    "openDays": [
      "平日",
      "土曜日",
      "日曜日",
      "祝日"
    ],
    "openDaysNote": "特になし"
  },
  {
    "id": "3570400881",
    "name": "萩市大字下田万字袴田２４１７－１",
    "kana": "ハギシオオアザシモタマアザヒエダ",
    "address": "2417-1",
    "lat": 34.8297222,
    "lng": 136.3991667,
    "tel": "08387－3－0005",
    "url": "http://www.care-iwami.jp/",
    "pref": "山口県",
    "city": "萩市",
    "category": "home_help",
    "serviceType": "訪問介護",
    "capacity": null,
    "openDays": [
      "平日"
    ],
    "openDaysNote": ""
  },
  {
    "id": "3570400337",
    "name": "萩社協訪問介護事業所",
    "kana": "ハギシャキョウホウモンカイゴジギョウショ",
    "address": "萩市大字福井下３９９９番地６ふくえ～る内 ふくえ～る内",
    "lat": 34.4336267072869,
    "lng": 131.483437691391,
    "tel": "0838-52-0338",
    "url": "",
    "pref": "山口県",
    "city": "萩市",
    "category": "home_help",
    "serviceType": "訪問介護",
    "capacity": 0,
    "openDays": [
      "平日",
      "土曜日",
      "祝日"
    ],
    "openDaysNote": "なし"
  },
  {
    "id": "3571300551",
    "name": "ライフサポートケア悠",
    "kana": "ライフサポートケアユウ",
    "address": "山口県美祢市伊佐町伊佐5632-2",
    "lat": 34.1627159,
    "lng": 131.1986617,
    "tel": "０８３７-５２-９２０１",
    "url": "",
    "pref": "山口県",
    "city": "美祢市",
    "category": "home_help",
    "serviceType": "訪問介護",
    "capacity": null,
    "openDays": [
      "平日"
    ],
    "openDaysNote": ""
  },
  {
    "id": "3571300189",
    "name": "介護サービス　ひまわり",
    "kana": "カイゴサービス　ヒマワリ",
    "address": "美祢市大嶺町東分349-5",
    "lat": 34.1686186,
    "lng": 131.206192,
    "tel": "0837-52-2236",
    "url": "",
    "pref": "山口県",
    "city": "美祢市",
    "category": "home_help",
    "serviceType": "訪問介護",
    "capacity": 0,
    "openDays": [
      "平日",
      "土曜日"
    ],
    "openDaysNote": "利用者の身体の状況、その他特に必要と認められる場合は、上記に限らず対応する。"
  },
  {
    "id": "3571300395",
    "name": "介護サポート　なでしこ",
    "kana": "カイゴサポート　ナデシコ",
    "address": "山口県美祢市大嶺町東分来福台４丁目９番地５",
    "lat": 34.1847863,
    "lng": 131.1971675,
    "tel": "0837-52-3077",
    "url": "",
    "pref": "山口県",
    "city": "美祢市",
    "category": "home_help",
    "serviceType": "訪問介護",
    "capacity": 0,
    "openDays": [
      "平日",
      "土曜日"
    ],
    "openDaysNote": "特に必要な場合は、日曜、祭日であっても対応します。"
  },
  {
    "id": "3571300502",
    "name": "株式会社エス・エス・ケイ",
    "kana": "カブシキガイシャエス・エス・ケイ",
    "address": "山口県美祢市美東町真名11521番地4",
    "lat": 34.1743493,
    "lng": 131.3290491,
    "tel": "08396-5-5155",
    "url": "http//mitounomori.jp",
    "pref": "山口県",
    "city": "美祢市",
    "category": "home_help",
    "serviceType": "訪問介護",
    "capacity": 20,
    "openDays": [
      "平日",
      "土曜日",
      "祝日"
    ],
    "openDaysNote": ""
  },
  {
    "id": "3571300338",
    "name": "社会福祉法人　美祢市社会福祉協議会　美祢事業所",
    "kana": "シャカイフクシホウジン　ミネシシャカイフクシキョウギカイ　ミネジギョウショ",
    "address": "美祢市大嶺町東分３２０番地１",
    "lat": 34.1680687,
    "lng": 131.2075669,
    "tel": "0837-52-3477",
    "url": "http://www.mine－shakyo.jp",
    "pref": "山口県",
    "city": "美祢市",
    "category": "home_help",
    "serviceType": "訪問介護",
    "capacity": 0,
    "openDays": [
      "平日",
      "土曜日",
      "日曜日",
      "祝日"
    ],
    "openDaysNote": "営業時間外の利用は要相談にて決定（午前7時から午後10時を想定）（改行）原則として緊急時等の連絡は、電話等により24時間常時連絡可能"
  },
  {
    "id": "3571300346",
    "name": "社会福祉法人　美祢市社会福祉協議会　美祢東事業所",
    "kana": "シャカイフクシホウジン　ミネシシャカイフクシキョウギカイ　ミネヒガシジギョウショ",
    "address": "山口県美祢市美東町大田５８７０番地１",
    "lat": 34.2235605,
    "lng": 131.3403853,
    "tel": "08396-2-1133",
    "url": "http://www.mine-shakyo.jp",
    "pref": "山口県",
    "city": "美祢市",
    "category": "home_help",
    "serviceType": "訪問介護",
    "capacity": 0,
    "openDays": [
      "平日"
    ],
    "openDaysNote": "原則として訪問介護を利用できる時間は上記のとおりとするが、緊急時等、電話により２４時間連絡可能な体制とする。"
  },
  {
    "id": "3577300043",
    "name": "ながやす介護ステーション",
    "kana": "ナガヤスカイゴステーション",
    "address": "山口県熊毛郡平生町大字平生村862-2",
    "lat": 33.9438433,
    "lng": 132.0729434,
    "tel": "0820-56-7890",
    "url": "",
    "pref": "山口県",
    "city": "平生町",
    "category": "home_help",
    "serviceType": "訪問介護",
    "capacity": 0,
    "openDays": [
      "平日",
      "土曜日",
      "日曜日",
      "祝日"
    ],
    "openDaysNote": "電話等により24時間常時連絡が可能な体制とする。（改行）356日24時間訪問だが、予約状況によっては訪問できない時間帯、曜日がある場合あり。"
  },
  {
    "id": "3577300548",
    "name": "社会福祉法人　幸寿会　ヘルパーステーション　サンガーデン",
    "kana": "シャカイフクシホウジン　コウジュカイ　ヘルパーステーション　サンガーデン",
    "address": "山口県熊毛郡平生町大字平生町5番17",
    "lat": 33.9329776,
    "lng": 132.0684132,
    "tel": "0820-56-5330",
    "url": "http://kouju-kai.com/",
    "pref": "山口県",
    "city": "平生町",
    "category": "home_help",
    "serviceType": "訪問介護",
    "capacity": 0,
    "openDays": [
      "平日",
      "土曜日",
      "日曜日",
      "祝日"
    ],
    "openDaysNote": "ただし、介護サービス計画に記載のある場合は、どの時間帯でもサービス提供する。"
  },
  {
    "id": "3577300027",
    "name": "平生町社会福祉協議会",
    "kana": "ヒラオチョウシャカイフクシキョウギカイ",
    "address": "熊毛郡平生町大字平生村618-2ケアセンターあいあむ ケアセンターあいあむ",
    "lat": 33.9409248406276,
    "lng": 132.075379429361,
    "tel": "0820-56-8200",
    "url": "http://www.hirao-shakyo.or.jp",
    "pref": "山口県",
    "city": "平生町",
    "category": "home_help",
    "serviceType": "訪問介護",
    "capacity": 0,
    "openDays": [
      "平日",
      "土曜日",
      "日曜日",
      "祝日"
    ],
    "openDaysNote": "特になし"
  },
  {
    "id": "3570602031",
    "name": "あんず訪問介護事業所",
    "kana": "アンズホウモンカイゴジギョウショ",
    "address": "防府市大字新田問屋口1969",
    "lat": 34.0218503195401,
    "lng": 131.580971917088,
    "tel": "0835-28-9396",
    "url": "https://www.anzu-kaogo.com/",
    "pref": "山口県",
    "city": "防府市",
    "category": "home_help",
    "serviceType": "訪問介護",
    "capacity": 2,
    "openDays": [
      "平日",
      "土曜日",
      "日曜日",
      "祝日"
    ],
    "openDaysNote": "但し、利用者の要請に基づき深夜の対応を行い電話等のより24時間連絡が可能な体制をとる"
  },
  {
    "id": "3570601496",
    "name": "エルスマイル訪問介護事業所",
    "kana": "エルスマイルホウモンカイゴジギョウショ",
    "address": "山口県防府市岸津２丁目14-50",
    "lat": 34.0598229,
    "lng": 131.593193,
    "tel": "0835-28-2299",
    "url": "",
    "pref": "山口県",
    "city": "防府市",
    "category": "home_help",
    "serviceType": "訪問介護",
    "capacity": 0,
    "openDays": [
      "平日",
      "土曜日",
      "日曜日",
      "祝日"
    ],
    "openDaysNote": "上記以外の時間帯もご相談に応じます。"
  },
  {
    "id": "3570600928",
    "name": "きんこうホームヘルパーステーション",
    "kana": "キンコウホームヘルパーステーション",
    "address": "防府市大字田島433番地",
    "lat": 34.0241688,
    "lng": 131.5519834,
    "tel": "（０８３５）２０－１１３０",
    "url": "",
    "pref": "山口県",
    "city": "防府市",
    "category": "home_help",
    "serviceType": "訪問介護",
    "capacity": 0,
    "openDays": [
      "平日",
      "土曜日",
      "日曜日",
      "祝日"
    ],
    "openDaysNote": "なし"
  },
  {
    "id": "3570602619",
    "name": "グリーンライフ防府沖今宿訪問介護ステーション",
    "kana": "グリーンライフホウフオキイマジュクホウモンカイゴステーション",
    "address": "山口県防府市沖今宿一丁目18番20号",
    "lat": 34.0487465,
    "lng": 131.5994511,
    "tel": "0835－27－2826",
    "url": "https://www.greenlife-inc.co.jp/",
    "pref": "山口県",
    "city": "防府市",
    "category": "home_help",
    "serviceType": "訪問介護",
    "capacity": 0,
    "openDays": [],
    "openDaysNote": ""
  },
  {
    "id": "3570600613",
    "name": "コミュニティケア防府　ヘルパー部",
    "kana": "コミュニティケアホウフ　ヘルパーブ",
    "address": "防府市栄町1丁目10-20エンゼルビル2Ｆ エンゼルビル2Ｆ",
    "lat": 34.0563065,
    "lng": 131.5713893,
    "tel": "0835-26-0180",
    "url": "",
    "pref": "山口県",
    "city": "防府市",
    "category": "home_help",
    "serviceType": "訪問介護",
    "capacity": 0,
    "openDays": [
      "平日",
      "土曜日",
      "日曜日",
      "祝日"
    ],
    "openDaysNote": "状況によってはこの限りではない"
  },
  {
    "id": "3570600407",
    "name": "サンキ・ウエルビィ介護センター防府",
    "kana": "サンキ・ウエルビィカイゴセンターホウフ",
    "address": "山口県防府市新田600－5",
    "lat": 34.0341402,
    "lng": 131.5674428,
    "tel": "0835-27-0677",
    "url": "",
    "pref": "山口県",
    "city": "防府市",
    "category": "home_help",
    "serviceType": "訪問介護",
    "capacity": 5,
    "openDays": [
      "平日",
      "土曜日",
      "日曜日",
      "祝日"
    ],
    "openDaysNote": "但し、ケアプランに沿ったサービス提供とする。"
  },
  {
    "id": "3570601231",
    "name": "さんコープ訪問介護防府",
    "kana": "サンコープホウモンカイゴホウフ",
    "address": "防府市西仁井令1丁目２１－６５",
    "lat": 34.0500136959514,
    "lng": 131.542432462157,
    "tel": "０８３５－２６－０２５５",
    "url": "http://www.san-coop.jp/",
    "pref": "山口県",
    "city": "防府市",
    "category": "home_help",
    "serviceType": "訪問介護",
    "capacity": 10,
    "openDays": [
      "平日",
      "土曜日",
      "日曜日",
      "祝日"
    ],
    "openDaysNote": "・土・日曜日の訪問は要相談。"
  },
  {
    "id": "3570602585",
    "name": "にじいろヘルパーステーション",
    "kana": "ニジイロヘルパーステーション",
    "address": "山口県防府市大字真尾314番地の3",
    "lat": 34.0999928,
    "lng": 131.5921157,
    "tel": "0835-36-5936",
    "url": "https://www.cs-improving-lab.com/",
    "pref": "山口県",
    "city": "防府市",
    "category": "home_help",
    "serviceType": "訪問介護",
    "capacity": 0,
    "openDays": [
      "平日",
      "土曜日",
      "日曜日",
      "祝日"
    ],
    "openDaysNote": ""
  },
  {
    "id": "3570601454",
    "name": "ニチイケアセンター周防",
    "kana": "ニチイケアセンタースオウ",
    "address": "山口県防府市三田尻３丁目6-35",
    "lat": 34.0442222,
    "lng": 131.5785111,
    "tel": "0835-27-1530",
    "url": "",
    "pref": "山口県",
    "city": "防府市",
    "category": "home_help",
    "serviceType": "訪問介護",
    "capacity": 0,
    "openDays": [
      "平日",
      "土曜日",
      "日曜日",
      "祝日"
    ],
    "openDaysNote": "但し、居宅サービス計画により、営業時間外でも、サービスの提供を行う場合がある"
  },
  {
    "id": "3570601835",
    "name": "はぴね防府",
    "kana": "ハピネホウフ",
    "address": "防府市大字田島1460-4",
    "lat": 34.0226077,
    "lng": 131.5472227,
    "tel": "0835－26－5100",
    "url": "http://www.greenlife-inc.co.jp/",
    "pref": "山口県",
    "city": "防府市",
    "category": "home_help",
    "serviceType": "訪問介護",
    "capacity": 0,
    "openDays": [
      "平日",
      "土曜日",
      "日曜日",
      "祝日"
    ],
    "openDaysNote": "利用者の要望等に応じ、サービス利用時間を延長する場合があります。また、営業時間以外でもサービスの提供を行う場合があるものとします。"
  },
  {
    "id": "3570601264",
    "name": "ふくしサービスセンターわかば",
    "kana": "フクシサービスセンターワカバ",
    "address": "防府市植松1894-2",
    "lat": 34.0473422982131,
    "lng": 131.524338572353,
    "tel": "0835-23-6764",
    "url": "",
    "pref": "山口県",
    "city": "防府市",
    "category": "home_help",
    "serviceType": "訪問介護",
    "capacity": 0,
    "openDays": [
      "平日",
      "土曜日",
      "日曜日",
      "祝日"
    ],
    "openDaysNote": "上記以外はご相談に応じます。"
  },
  {
    "id": "3570600415",
    "name": "ヘスティア華城ヘルパーステーション",
    "kana": "ヘスティアハナギヘルパーステーション",
    "address": "山口県防府市大字伊佐江１０３９番地の１",
    "lat": 34.0395198,
    "lng": 131.5441558,
    "tel": "0835-28-1002",
    "url": "http://kaseikai.com",
    "pref": "山口県",
    "city": "防府市",
    "category": "home_help",
    "serviceType": "訪問介護",
    "capacity": 40,
    "openDays": [
      "平日",
      "土曜日",
      "日曜日",
      "祝日"
    ],
    "openDaysNote": "特になし"
  },
  {
    "id": "3570601462",
    "name": "ヘルパーステーション　さやかの森",
    "kana": "ヘルパーステーション　サヤカノモリ",
    "address": "防府市岸津1-22-26　A101",
    "lat": 34.0552626,
    "lng": 131.5960732,
    "tel": "0835-28-7666",
    "url": "imazumidesign.sakura.ne.jp",
    "pref": "山口県",
    "city": "防府市",
    "category": "home_help",
    "serviceType": "訪問介護",
    "capacity": 3,
    "openDays": [
      "平日",
      "土曜日",
      "日曜日",
      "祝日"
    ],
    "openDaysNote": ""
  },
  {
    "id": "3570601132",
    "name": "ヘルパーステーション　ホットライフサポート",
    "kana": "ヘルパーステーション　ホットライフサポート",
    "address": "防府市大字田島3379番地1",
    "lat": 34.0066279,
    "lng": 131.5271334,
    "tel": "0835-29-0009",
    "url": "http://www",
    "pref": "山口県",
    "city": "防府市",
    "category": "home_help",
    "serviceType": "訪問介護",
    "capacity": 0,
    "openDays": [
      "平日",
      "土曜日"
    ],
    "openDaysNote": "早朝、および夜間の対応については事前に予約がある場合は対応可能"
  },
  {
    "id": "3570602320",
    "name": "ヘルパーステーション　天満",
    "kana": "ヘルパーステーション　テンマン",
    "address": "山口県防府市大字下右田363有料老人ホーム初梅 有料老人ホーム初梅",
    "lat": 34.0733486,
    "lng": 131.5566787,
    "tel": "0835-28-1217",
    "url": "https://www.anshin-cls.net/",
    "pref": "山口県",
    "city": "防府市",
    "category": "home_help",
    "serviceType": "訪問介護",
    "capacity": 63,
    "openDays": [
      "平日",
      "土曜日",
      "日曜日",
      "祝日"
    ],
    "openDaysNote": "※24時間の連絡体制をとることとする。"
  },
  {
    "id": "3570602577",
    "name": "ヘルパーステーションあ・す・も",
    "kana": "ヘルパーステーションア・ス・モ",
    "address": "山口県防府市酢貝６番７号",
    "lat": 34.0574025,
    "lng": 131.5979369,
    "tel": "0835-28-8368",
    "url": "",
    "pref": "山口県",
    "city": "防府市",
    "category": "home_help",
    "serviceType": "訪問介護",
    "capacity": 40,
    "openDays": [
      "平日"
    ],
    "openDaysNote": "必要に応じて時間外の対応を行う"
  },
  {
    "id": "3570601363",
    "name": "ヘルパーステーションえがおの森",
    "kana": "ヘルパーステーションエガオノモリ",
    "address": "防府市大字仁井令668-2",
    "lat": 34.034568,
    "lng": 131.5583686,
    "tel": "0835-28-8333",
    "url": "",
    "pref": "山口県",
    "city": "防府市",
    "category": "home_help",
    "serviceType": "訪問介護",
    "capacity": 0,
    "openDays": [
      "平日",
      "土曜日",
      "日曜日",
      "祝日"
    ],
    "openDaysNote": "ご希望の時間帯があれば相談に応じます。"
  },
  {
    "id": "3570600886",
    "name": "ヘルパーステーションスマイルネット防府",
    "kana": "ヘルパーステーションスマイルネットホウフ",
    "address": "山口県防府市大字佐野152-1",
    "lat": 34.0574838,
    "lng": 131.5290567,
    "tel": "0835-27-6700",
    "url": "http://hitotsunokai.jp/",
    "pref": "山口県",
    "city": "防府市",
    "category": "home_help",
    "serviceType": "訪問介護",
    "capacity": 0,
    "openDays": [
      "平日",
      "土曜日",
      "日曜日",
      "祝日"
    ],
    "openDaysNote": "上記以外でも、相談によりサービス提供可能。"
  },
  {
    "id": "3570602593",
    "name": "ヘルパーステーション丸山",
    "kana": "ヘルパーステーションマルヤマ",
    "address": "山口県防府市西浦1865-1",
    "lat": 34.0231292226553,
    "lng": 131.52240994418,
    "tel": "0835-28-2332",
    "url": "https://www.lcraft-kabushikigaisya.com/",
    "pref": "山口県",
    "city": "防府市",
    "category": "home_help",
    "serviceType": "訪問介護",
    "capacity": 49,
    "openDays": [
      "平日",
      "土曜日",
      "日曜日",
      "祝日"
    ],
    "openDaysNote": "電話等により24時間連絡対応可能な体制とする。"
  },
  {
    "id": "3570600696",
    "name": "まめ舎ヘルパーステーション",
    "kana": "マメジャヘルパーステーション",
    "address": "防府市大字新田６７２番地",
    "lat": 34.0377648,
    "lng": 131.566815,
    "tel": "0835-26-1134",
    "url": "",
    "pref": "山口県",
    "city": "防府市",
    "category": "home_help",
    "serviceType": "訪問介護",
    "capacity": 0,
    "openDays": [
      "平日",
      "土曜日",
      "祝日"
    ],
    "openDaysNote": "なし"
  },
  {
    "id": "3570602296",
    "name": "ライフケア高砂訪問介護事業所",
    "kana": "ライフケアタカサゴホウモンカイゴジギョウショ",
    "address": "山口県防府市上右田334",
    "lat": 34.0950486495373,
    "lng": 131.580606581122,
    "tel": "0835-22-5551",
    "url": "http://life-care-takasago.jp/",
    "pref": "山口県",
    "city": "防府市",
    "category": "home_help",
    "serviceType": "訪問介護",
    "capacity": 0,
    "openDays": [
      "平日",
      "土曜日",
      "日曜日",
      "祝日"
    ],
    "openDaysNote": ""
  },
  {
    "id": "3570601546",
    "name": "医療法人康淳会ナーシングホーム緑町訪問介護",
    "kana": "イリョウホウジンコウジュンカイナーシングホームミドリマチホウモンカイゴ",
    "address": "山口県防府市緑町一丁目7番61号",
    "lat": 34.0546595,
    "lng": 131.5779777,
    "tel": "0835-20-1614",
    "url": "",
    "pref": "山口県",
    "city": "防府市",
    "category": "home_help",
    "serviceType": "訪問介護",
    "capacity": null,
    "openDays": [
      "平日",
      "土曜日",
      "日曜日",
      "祝日"
    ],
    "openDaysNote": ""
  },
  {
    "id": "3570601181",
    "name": "株式会社ピーエー　　ヘルパーステーションゆうの風三田尻",
    "kana": "カブシキガイシャピーエー　ヘルパーステーションユウノカゼミタジリ",
    "address": "山口県防府市警固町1丁目6番39号",
    "lat": 34.0504823,
    "lng": 131.5794054,
    "tel": "0835-28-0069",
    "url": "http://care-net.biz/35/younokaze/",
    "pref": "山口県",
    "city": "防府市",
    "category": "home_help",
    "serviceType": "訪問介護",
    "capacity": 0,
    "openDays": [
      "平日",
      "土曜日",
      "日曜日",
      "祝日"
    ],
    "openDaysNote": "365日24時間体制　（居宅介護計画書に基づきます）"
  },
  {
    "id": "3570602338",
    "name": "岸津苑ホームヘルパーステーション",
    "kana": "キシヅエンホームヘルパーステーション",
    "address": "山口県防府市岸津二丁目２４番２０号",
    "lat": 34.0498688,
    "lng": 131.5932597,
    "tel": "０８３５－２８－１８１０",
    "url": "http://www.shuyou.jp/",
    "pref": "山口県",
    "city": "防府市",
    "category": "home_help",
    "serviceType": "訪問介護",
    "capacity": 0,
    "openDays": [
      "平日",
      "土曜日",
      "日曜日",
      "祝日"
    ],
    "openDaysNote": "※利用者の希望に応じて、サービスの提供については、２４時間対応可能な体制を整えるものとします。"
  },
  {
    "id": "3570601413",
    "name": "光山医院ヘルパーステーション",
    "kana": "ミツヤマイインヘルパーステーション",
    "address": "防府市今市町21-15",
    "lat": 34.0627575930296,
    "lng": 131.564950580341,
    "tel": "０８３５－２０－２８００",
    "url": "//www.mitsuyama‐c.com/",
    "pref": "山口県",
    "city": "防府市",
    "category": "home_help",
    "serviceType": "訪問介護",
    "capacity": 0,
    "openDays": [
      "平日",
      "土曜日",
      "日曜日",
      "祝日"
    ],
    "openDaysNote": ""
  },
  {
    "id": "3570602304",
    "name": "社会福祉法人　博愛会　防府あかり園訪問介護事業所",
    "kana": "シャカイフクシホウジンハクアイカイ　ホウフアカリエンホウモンカイゴジギョウショ",
    "address": "山口県防府市大字台道1655番地",
    "lat": 34.0698448639315,
    "lng": 131.492689042353,
    "tel": "0835-32-0886",
    "url": "",
    "pref": "山口県",
    "city": "防府市",
    "category": "home_help",
    "serviceType": "訪問介護",
    "capacity": 0,
    "openDays": [
      "平日",
      "土曜日",
      "日曜日",
      "祝日"
    ],
    "openDaysNote": "特になし。"
  },
  {
    "id": "3570600100",
    "name": "社会福祉法人防府市社会福祉事業団ホームヘルパーセンター",
    "kana": "シャカイフクシホウジンホウフシシャカイフクシジギョウダンホームヘルパーセンター",
    "address": "山口県防府市天神１丁目６番２０号",
    "lat": 34.054878267932,
    "lng": 131.573649387697,
    "tel": "0835-27-0210",
    "url": "http://www.c-able.ne.jp/~jigyodan/",
    "pref": "山口県",
    "city": "防府市",
    "category": "home_help",
    "serviceType": "訪問介護",
    "capacity": 0,
    "openDays": [
      "平日",
      "土曜日",
      "日曜日",
      "祝日"
    ],
    "openDaysNote": "特になし"
  },
  {
    "id": "3570600753",
    "name": "特定非営利活動法人さわやか防府",
    "kana": "トクテイヒエイリカツドウホウジンサワヤカホウフ",
    "address": "山口県防府市中西２９－７－２階",
    "lat": 34.0616221611554,
    "lng": 131.604251022283,
    "tel": "0835-28-8171",
    "url": "https://www.sawayakahofu.com",
    "pref": "山口県",
    "city": "防府市",
    "category": "home_help",
    "serviceType": "訪問介護",
    "capacity": 0,
    "openDays": [
      "平日",
      "土曜日",
      "日曜日",
      "祝日"
    ],
    "openDaysNote": "特になし"
  },
  {
    "id": "3570601710",
    "name": "訪問介護ステーション　ふうき",
    "kana": "ホウモンカイゴステーション　フウキ",
    "address": "防府市国分寺町5番29号",
    "lat": 34.06620168344,
    "lng": 131.579539746954,
    "tel": "0835-28-1970",
    "url": "http://hp.kaipoke.biz/0a3",
    "pref": "山口県",
    "city": "防府市",
    "category": "home_help",
    "serviceType": "訪問介護",
    "capacity": 100,
    "openDays": [
      "平日",
      "土曜日",
      "日曜日",
      "祝日"
    ],
    "openDaysNote": "いつでも相談に応じます。"
  },
  {
    "id": "3570600126",
    "name": "有限会社　防府ケア・サービス",
    "kana": "ユウゲンガイシャホウフケア・サービス",
    "address": "山口県防府市警固町２丁目６－１０",
    "lat": 34.050749,
    "lng": 131.5835995,
    "tel": "0835-22-2021",
    "url": "https://hofucare.jp/",
    "pref": "山口県",
    "city": "防府市",
    "category": "home_help",
    "serviceType": "訪問介護",
    "capacity": 0,
    "openDays": [
      "平日",
      "土曜日",
      "日曜日",
      "祝日"
    ],
    "openDaysNote": "夜間帯の訪問については要相談"
  },
  {
    "id": "3570601173",
    "name": "娑羅樹ヘルパーステーション",
    "kana": "サラジュヘルパーステーション",
    "address": "防府市大字新田７７６番地の５",
    "lat": 34.0319238,
    "lng": 131.5637821,
    "tel": "0835-27-0312",
    "url": "",
    "pref": "山口県",
    "city": "防府市",
    "category": "home_help",
    "serviceType": "訪問介護",
    "capacity": 22,
    "openDays": [
      "平日",
      "土曜日",
      "日曜日",
      "祝日"
    ],
    "openDaysNote": "特になし"
  },
  {
    "id": "3571200579",
    "name": "サンキ・ウエルビィ介護センター柳井",
    "kana": "サンキ・ウエルビィカイゴセンターヤナイ",
    "address": "山口県柳井市柳井1010-1",
    "lat": 33.9596964847978,
    "lng": 132.129861000075,
    "tel": "0820-24-1064",
    "url": "",
    "pref": "山口県",
    "city": "柳井市",
    "category": "home_help",
    "serviceType": "訪問介護",
    "capacity": 0,
    "openDays": [
      "平日",
      "土曜日",
      "日曜日",
      "祝日"
    ],
    "openDaysNote": "但し、ケアプランに沿ったサービス提供とする。"
  },
  {
    "id": "3571200090",
    "name": "ニチイケアセンター　柳井",
    "kana": "ニチイケアセンター　ヤナイ",
    "address": "山口県柳井市南町１丁目９番１号　重村ビル３階",
    "lat": 33.9651901,
    "lng": 132.1020775,
    "tel": "0820-24-2181",
    "url": "http://www.nichiigakkan.co.jp",
    "pref": "山口県",
    "city": "柳井市",
    "category": "home_help",
    "serviceType": "訪問介護",
    "capacity": 0,
    "openDays": [
      "平日",
      "土曜日",
      "日曜日",
      "祝日"
    ],
    "openDaysNote": "サービス計画書に基づき休業日・営業時間外であっても、サービスの提供を行う場合がある"
  },
  {
    "id": "3577200730",
    "name": "ニチイケアセンター大畠",
    "kana": "ニチイケアセンターオオバタケ",
    "address": "山口県柳井市神代2983-2",
    "lat": 33.9731515,
    "lng": 132.1896564,
    "tel": "0820-45-5538",
    "url": "http://www.nichiigakkan.co.jp",
    "pref": "山口県",
    "city": "柳井市",
    "category": "home_help",
    "serviceType": "訪問介護",
    "capacity": 0,
    "openDays": [
      "平日",
      "土曜日",
      "日曜日",
      "祝日"
    ],
    "openDaysNote": "ただし、居宅サービス計画書により、営業時間外でも、サービスの提供を行う場合がある。"
  },
  {
    "id": "3571200702",
    "name": "ヘルパーステーションＡＳＯＫＡやない",
    "kana": "ヘルパーステーションアソカヤナイ",
    "address": "山口県柳井市柳井4896-1",
    "lat": 33.9719768,
    "lng": 132.0997775,
    "tel": "0820-25-3604",
    "url": "http://www.saisyokai.or.jp/",
    "pref": "山口県",
    "city": "柳井市",
    "category": "home_help",
    "serviceType": "訪問介護",
    "capacity": 26,
    "openDays": [
      "平日",
      "土曜日",
      "日曜日",
      "祝日"
    ],
    "openDaysNote": "無し"
  },
  {
    "id": "3571200611",
    "name": "ゆうわ苑ヘルパーステーション",
    "kana": "ユウワエンヘルパーステーション",
    "address": "山口県柳井市伊保庄字近長浜1番4",
    "lat": 33.9102872894061,
    "lng": 132.128059521379,
    "tel": "0820-27-6001",
    "url": "http://www.yuwaen.net",
    "pref": "山口県",
    "city": "柳井市",
    "category": "home_help",
    "serviceType": "訪問介護",
    "capacity": 0,
    "openDays": [
      "平日",
      "土曜日",
      "日曜日",
      "祝日"
    ],
    "openDaysNote": ""
  },
  {
    "id": "3571200595",
    "name": "わたぼうしヘルパーステーション",
    "kana": "ワタボウシヘルパーステーション",
    "address": "柳井市柳井４９２０番地の２",
    "lat": 33.9734516,
    "lng": 132.0972749,
    "tel": "0820-25-3710",
    "url": "http://watabosi.web.fc2.com",
    "pref": "山口県",
    "city": "柳井市",
    "category": "home_help",
    "serviceType": "訪問介護",
    "capacity": 14,
    "openDays": [
      "平日",
      "土曜日",
      "日曜日",
      "祝日"
    ],
    "openDaysNote": "転送電話等により常時連絡可能です。予約状況によっては、訪問できない時間帯・曜日があります。"
  },
  {
    "id": "3571200777",
    "name": "株式会社やないきたヘルパーステーション",
    "kana": "カブシキガイシャヤナイキタヘルパーステーション",
    "address": "山口県柳井市柳井１１０５３－１０",
    "lat": 33.994667491044,
    "lng": 132.092182061241,
    "tel": "０８２０－２２－２７２８",
    "url": "",
    "pref": "山口県",
    "city": "柳井市",
    "category": "home_help",
    "serviceType": "訪問介護",
    "capacity": null,
    "openDays": [
      "平日",
      "土曜日",
      "日曜日",
      "祝日"
    ],
    "openDaysNote": "電話等により２４時間常時連絡が可能な体制"
  },
  {
    "id": "3571200454",
    "name": "社会福祉法人　柳井市社会福祉協議会　指定訪問介護事業所",
    "kana": "シャカイフクシホウジン　ヤナイシシャカイフクシキョウギカイ　シテイホウモンカイゴジギョウショ",
    "address": "山口県柳井市南町三丁目9番2号",
    "lat": 33.9631751,
    "lng": 132.102608,
    "tel": "0820-22-3870",
    "url": "http://yanaicityswc.wordpress.com/",
    "pref": "山口県",
    "city": "柳井市",
    "category": "home_help",
    "serviceType": "訪問介護",
    "capacity": 0,
    "openDays": [
      "平日",
      "土曜日",
      "日曜日",
      "祝日"
    ],
    "openDaysNote": "時間外及び休日であっても電話による24時間対応"
  },
  {
    "id": "3571200801",
    "name": "訪問介護縁むすび",
    "kana": "ホウモンカイゴエンムスビ",
    "address": "山口県柳井市南町２丁目7-30奥原第一ビル１階北 奥原第一ビル１階北",
    "lat": 33.9643386,
    "lng": 132.1058245,
    "tel": "0820-25-1772",
    "url": "",
    "pref": "山口県",
    "city": "柳井市",
    "category": "home_help",
    "serviceType": "訪問介護",
    "capacity": null,
    "openDays": [
      "平日"
    ],
    "openDaysNote": "上記営業時間以外でも対応可。但し、深夜帯は応相談。"
  },
  {
    "id": "3577200201",
    "name": "わきあいあい苑ホームヘルパーステーション",
    "kana": "ワキアイアイエンホームヘルパーステーション",
    "address": "玖珂郡和木町瀬田４丁目１－１",
    "lat": 34.1919204,
    "lng": 132.2245524,
    "tel": "0827-54-0345",
    "url": "https://aiaien.hp.gogo.jp",
    "pref": "山口県",
    "city": "和木町",
    "category": "home_help",
    "serviceType": "訪問介護",
    "capacity": 0,
    "openDays": [
      "平日"
    ],
    "openDaysNote": "なし"
  }
]