[
  {
    "id": "672300647",
    "name": "ココロケア河北",
    "kana": "ココロケアカホク",
    "address": "西村山郡河北町谷地中央五丁目5-26",
    "lat": 38.4183437,
    "lng": 140.3074793,
    "tel": "0237-85-1644",
    "url": "http://www.care-w.com/",
    "pref": "山形県",
    "city": "河北町",
    "category": "home_help",
    "serviceType": "訪問介護",
    "capacity": 0,
    "openDays": [
      "平日",
      "土曜日",
      "日曜日",
      "祝日"
    ],
    "openDaysNote": "上記の時間外でも、ケアプランの定める時間帯であれば、いつでもサービス提供をするものとする。"
  },
  {
    "id": "672300183",
    "name": "社会福祉法人河北町社会福祉協議会指定訪問介護事業所",
    "kana": "シャカイフクシホウジンカホクチョウシャカイフクシキョウギカイシテイホウモンカイゴジギョウショ",
    "address": "西村山郡河北町谷地甲２３２５番地の２",
    "lat": 38.4246407,
    "lng": 140.3160673,
    "tel": "0237-72-7800",
    "url": "http://kahokushakyo.or.jp/",
    "pref": "山形県",
    "city": "河北町",
    "category": "home_help",
    "serviceType": "訪問介護",
    "capacity": 0,
    "openDays": [
      "平日",
      "土曜日",
      "日曜日",
      "祝日"
    ],
    "openDaysNote": "緊急を要する時等の対応はこの限りではありません。"
  },
  {
    "id": "671200137",
    "name": "さがえ西村山農業協同組合",
    "kana": "サガエニシムラヤマノウギョウキョウドウクミアイ",
    "address": "山形県寒河江市大字寒河江字久保２番地ＪＡ健康福祉センター ＪＡ健康福祉センター",
    "lat": 38.3654989385487,
    "lng": 140.256409385211,
    "tel": "0237-86-8165",
    "url": "http://www.ic-net.or.jp/home/jasagae/",
    "pref": "山形県",
    "city": "寒河江市",
    "category": "home_help",
    "serviceType": "訪問介護",
    "capacity": 0,
    "openDays": [
      "平日",
      "土曜日",
      "日曜日",
      "祝日"
    ],
    "openDaysNote": ""
  },
  {
    "id": "671200244",
    "name": "ニチイケアセンターさがえ",
    "kana": "ニチイケアセンターサガエ",
    "address": "山形県寒河江市大字寒河江字横道13-1",
    "lat": 38.3672819,
    "lng": 140.2812278,
    "tel": "0237-83-3023",
    "url": "http://www/nichiigakkan.co.jp",
    "pref": "山形県",
    "city": "寒河江市",
    "category": "home_help",
    "serviceType": "訪問介護",
    "capacity": 0,
    "openDays": [
      "平日",
      "土曜日",
      "日曜日",
      "祝日"
    ],
    "openDaysNote": "介護計画書により、休業日及び営業時間外であってもサービスを提供する場合がある。"
  },
  {
    "id": "671200707",
    "name": "ニチイケアセンター西さがえ",
    "kana": "ニチイケアセンターニシサガエ",
    "address": "山形県寒河江市大字寒河江字鶴田10-2",
    "lat": 38.3797272,
    "lng": 140.2596855,
    "tel": "0237-83-1077",
    "url": "http://www/nichiigakkan.co.jp",
    "pref": "山形県",
    "city": "寒河江市",
    "category": "home_help",
    "serviceType": "訪問介護",
    "capacity": 40,
    "openDays": [
      "平日",
      "土曜日",
      "日曜日",
      "祝日"
    ],
    "openDaysNote": "営業時間・定休日に関して、事業所の営業時間・定休日となっております。介護計画書により、定休日及び営業時間外であってもサービスを提供する場合がございます。"
  },
  {
    "id": "671200434",
    "name": "みずき介護サービス",
    "kana": "ミズキカイゴサービス",
    "address": "寒河江市大字西根字石川西228番1",
    "lat": 38.3888016,
    "lng": 140.2807216,
    "tel": "0237-85-0763",
    "url": "https://www.mizukikaigo.jp",
    "pref": "山形県",
    "city": "寒河江市",
    "category": "home_help",
    "serviceType": "訪問介護",
    "capacity": 0,
    "openDays": [
      "平日",
      "土曜日",
      "日曜日",
      "祝日"
    ],
    "openDaysNote": "上記以外でも要望があれば検討いたします。"
  },
  {
    "id": "671200467",
    "name": "株式会社ケアセンターべにばな",
    "kana": "カブシキカイシャケアセンターベニバナ",
    "address": "山形県寒河江市大字島字島東228-1",
    "lat": 38.3555166,
    "lng": 140.2785673,
    "tel": "0237-85-0953",
    "url": "",
    "pref": "山形県",
    "city": "寒河江市",
    "category": "home_help",
    "serviceType": "訪問介護",
    "capacity": 0,
    "openDays": [
      "平日"
    ],
    "openDaysNote": "営業時間以外に利用者からのサービスの依頼がある場合は、希望に添えるようサービスを提供する場合がある。"
  },
  {
    "id": "671200111",
    "name": "寒河江市社会福祉協議会指定訪問介護事業所",
    "kana": "サガエシシャカイフクシキョウギカイ　シテイホウモンカイゴジギョウショ",
    "address": "寒河江市中央二丁目2番1号寒河江市ハートフルセンター内 寒河江市ハートフルセンター内",
    "lat": 38.3829216,
    "lng": 140.2772527,
    "tel": "0237-83-3207",
    "url": "http://care-net.biz/06/sagae/",
    "pref": "山形県",
    "city": "寒河江市",
    "category": "home_help",
    "serviceType": "訪問介護",
    "capacity": 0,
    "openDays": [
      "平日",
      "土曜日",
      "日曜日",
      "祝日"
    ],
    "openDaysNote": "サービス提供日は1月1日を除く全日となる。"
  },
  {
    "id": "671200608",
    "name": "訪問介護つつじ",
    "kana": "ホウモンカイゴツツジ",
    "address": "山形県寒河江市寒河江塩水６－１",
    "lat": 38.3793049073157,
    "lng": 140.260913427895,
    "tel": "0237－85－1326",
    "url": "http://www.npo-ajisai.jp",
    "pref": "山形県",
    "city": "寒河江市",
    "category": "home_help",
    "serviceType": "訪問介護",
    "capacity": 0,
    "openDays": [
      "平日",
      "土曜日",
      "日曜日",
      "祝日"
    ],
    "openDaysNote": "24時間対応します"
  },
  {
    "id": "672500246",
    "name": "訪問介護センター「みすぎ荘」",
    "kana": "ホウモンカイゴセンターミスギソウ",
    "address": "山形県最上郡金山町大字金山字荒屋829番地1",
    "lat": 38.8777591,
    "lng": 140.317889,
    "tel": "0233-52-3300",
    "url": "https://www.kaneyamakouseikai.or.jp/",
    "pref": "山形県",
    "city": "金山町",
    "category": "home_help",
    "serviceType": "訪問介護",
    "capacity": 20,
    "openDays": [
      "平日",
      "土曜日",
      "日曜日",
      "祝日"
    ],
    "openDaysNote": "上記の営業時間以外でも相談に応じます。"
  },
  {
    "id": "672600491",
    "name": "ヘルパーステーションのどか",
    "kana": "ヘルパーステーションノドカ",
    "address": "山形県東置賜郡高畠町大字高畠173-2",
    "lat": 37.9981076,
    "lng": 140.1930862,
    "tel": "0238-40-0777",
    "url": "ｈｔｔｐ：ｆ-ｈ-ｔ.ｊｐ/",
    "pref": "山形県",
    "city": "高畠町",
    "category": "home_help",
    "serviceType": "訪問介護",
    "capacity": 0,
    "openDays": [
      "平日",
      "土曜日",
      "日曜日",
      "祝日"
    ],
    "openDaysNote": ""
  },
  {
    "id": "672600392",
    "name": "株式会社はな　訪問介護事業所",
    "kana": "カブシキガイシャハナ　ホウモンカイゴジギョウショ",
    "address": "山形県東置賜郡高畠町大字深沼１８１７－１",
    "lat": 38.0254862,
    "lng": 140.1687496,
    "tel": "0238-51-1287",
    "url": "",
    "pref": "山形県",
    "city": "高畠町",
    "category": "home_help",
    "serviceType": "訪問介護",
    "capacity": 22,
    "openDays": [
      "平日",
      "土曜日",
      "日曜日",
      "祝日"
    ],
    "openDaysNote": ""
  },
  {
    "id": "672600012",
    "name": "高畠ふれあいケアセンター",
    "kana": "タカハタフレアイケアセンター",
    "address": "山形県東置賜郡高畠町大字高畠454番地の４老人福祉センター 老人福祉センター",
    "lat": 38.0028891,
    "lng": 140.1876964,
    "tel": "0238-51-1055",
    "url": "https://www.takahata-shakyo.or.jp",
    "pref": "山形県",
    "city": "高畠町",
    "category": "home_help",
    "serviceType": "訪問介護",
    "capacity": 0,
    "openDays": [
      "平日",
      "土曜日",
      "日曜日",
      "祝日"
    ],
    "openDaysNote": "場合によっては、時間外の対応もあり得る。　　　　　　　　　　　　　　　　　　　　　　　　　　　　　　　　　　　　　　　　　　　　　　　　　　　電話等により２４時間常時連絡が可能な体制とする。"
  },
  {
    "id": "672500089",
    "name": "訪問介護事業所「グリーン」",
    "kana": "ホウモンカイゴジギョウショ「グリーン」",
    "address": "山形県最上郡最上町大字向町４３番地の１",
    "lat": 38.7529816,
    "lng": 140.5172595,
    "tel": "0233-43-3180",
    "url": "http://www.mogami-shakyo.net",
    "pref": "山形県",
    "city": "最上町",
    "category": "home_help",
    "serviceType": "訪問介護",
    "capacity": 0,
    "openDays": [
      "平日",
      "土曜日",
      "日曜日",
      "祝日"
    ],
    "openDaysNote": "電話等により、24時間常時、連絡が可能な体制をとっています。"
  },
  {
    "id": "672500915",
    "name": "訪問介護事業所かもしか介護タクシーかもしか",
    "kana": "ホウモンカイゴジギョウショカモシカ　介護タクシーカモシカ",
    "address": "山形県最上郡最上町大字向町546-5",
    "lat": 38.7587255,
    "lng": 140.5150876,
    "tel": "0233-43-4475",
    "url": "https://okano-pharmacy.net",
    "pref": "山形県",
    "city": "最上町",
    "category": "home_help",
    "serviceType": "訪問介護",
    "capacity": 0,
    "openDays": [
      "平日"
    ],
    "openDaysNote": "土曜日、日曜日、祝日は相談による。"
  },
  {
    "id": "672500329",
    "name": "ヘルパーセンターひめゆり",
    "kana": "ヘルパーセンターヒメユリ",
    "address": "山形県最上郡鮭川村大字石名坂５８９番７",
    "lat": 38.835377,
    "lng": 140.2874183,
    "tel": "0233-55-3480",
    "url": "",
    "pref": "山形県",
    "city": "鮭川村",
    "category": "home_help",
    "serviceType": "訪問介護",
    "capacity": 0,
    "openDays": [
      "平日"
    ],
    "openDaysNote": "利用者の希望により、営業日以外の日(定休日)のサービス利用並びに営業時間（8；30～17；30)以外のサービス利用が出来る。"
  },
  {
    "id": "673000261",
    "name": "指定訪問介護事業所ホームヘルパーステーションなの花荘",
    "kana": "シテイホウモンカイゴジギョウショホームヘルパーステーションナノハナソウ",
    "address": "山形県東田川郡三川町大字横山字城下228番地9",
    "lat": 38.7768357,
    "lng": 139.8511147,
    "tel": "0235-33-8896",
    "url": "https://www.nanohanaso.or.jp",
    "pref": "山形県",
    "city": "三川町",
    "category": "home_help",
    "serviceType": "訪問介護",
    "capacity": 45,
    "openDays": [
      "平日",
      "土曜日",
      "日曜日",
      "祝日"
    ],
    "openDaysNote": "２４時間対応"
  },
  {
    "id": "670103159",
    "name": "ＪＡやまがた福祉センター青田",
    "kana": "ジェイエイヤマガタフクシセンターアオタ",
    "address": "山形県山形市青田一丁目４番２１号",
    "lat": 38.2261331,
    "lng": 140.3294647,
    "tel": "023-616-8002",
    "url": "http://www.jayamagata.or.jp",
    "pref": "山形県",
    "city": "山形市",
    "category": "home_help",
    "serviceType": "訪問介護",
    "capacity": 40,
    "openDays": [
      "平日",
      "土曜日",
      "祝日"
    ],
    "openDaysNote": "時間外については、相談のうえ対応します。"
  },
  {
    "id": "670104504",
    "name": "SOMPOケア　山形あかねヶ丘　訪問介護",
    "kana": "ソンポケア　ヤマガタアカネガオカ　ホウモンカイゴ",
    "address": "山形県山形市あかねヶ丘１丁目2-33結城貸店舗2階 結城貸店舗2階",
    "lat": 38.2522163,
    "lng": 140.3105714,
    "tel": "023-647-6540",
    "url": "https://www.sompocare.com",
    "pref": "山形県",
    "city": "山形市",
    "category": "home_help",
    "serviceType": "訪問介護",
    "capacity": 0,
    "openDays": [
      "平日",
      "土曜日",
      "日曜日",
      "祝日"
    ],
    "openDaysNote": "３６５日　２４時間対応"
  },
  {
    "id": "670104496",
    "name": "ＳＯＭＰＯケア　山形桜田　訪問介護",
    "kana": "ソンポケア　ヤマガタサクラダ　ホウモンカイゴ",
    "address": "山形市桜田西4-17-1桜田悠々館2Ｆ-D号室 桜田悠々館2Ｆ-D号室",
    "lat": 38.2187167,
    "lng": 140.3152439,
    "tel": "023-629-8351",
    "url": "https://www.sompocare.com",
    "pref": "山形県",
    "city": "山形市",
    "category": "home_help",
    "serviceType": "訪問介護",
    "capacity": 0,
    "openDays": [
      "平日",
      "土曜日",
      "日曜日",
      "祝日"
    ],
    "openDaysNote": "サービス提供時間は、事前に居宅介護支援事業所により計画された居宅サービス計画に基づくものとし、原則として緊急に依頼された訪問介護の提供は行わないものとする。なお、サービスは２４時間対応しております。"
  },
  {
    "id": "670101617",
    "name": "アースサポート山形",
    "kana": "アースサポートヤマガタ",
    "address": "山形県山形市吉原1丁目11-13",
    "lat": 38.2282923772693,
    "lng": 140.315521009032,
    "tel": "023-645-7311",
    "url": "http://www.earthsupport.co.jp/",
    "pref": "山形県",
    "city": "山形市",
    "category": "home_help",
    "serviceType": "訪問介護",
    "capacity": 0,
    "openDays": [
      "平日",
      "土曜日",
      "日曜日",
      "祝日"
    ],
    "openDaysNote": ""
  },
  {
    "id": "670104843",
    "name": "あすなろ訪問介護事業所",
    "kana": "アスナロホウモンカイゴジギョウショ",
    "address": "山形県山形市桧町二丁目7-35",
    "lat": 38.2764872,
    "lng": 140.3331507,
    "tel": "023-664-3914",
    "url": "",
    "pref": "山形県",
    "city": "山形市",
    "category": "home_help",
    "serviceType": "訪問介護",
    "capacity": null,
    "openDays": [
      "平日",
      "土曜日",
      "日曜日",
      "祝日"
    ],
    "openDaysNote": "時間外も出来る限りご相談に応じます。"
  },
  {
    "id": "670102995",
    "name": "エ・アロール　ベーシック",
    "kana": "エ・アロール　ベーシック",
    "address": "山形県山形市桜田西2丁目5-12",
    "lat": 38.2434815,
    "lng": 140.3295613,
    "tel": "023-600-2065",
    "url": "",
    "pref": "山形県",
    "city": "山形市",
    "category": "home_help",
    "serviceType": "訪問介護",
    "capacity": 0,
    "openDays": [
      "平日",
      "土曜日",
      "日曜日",
      "祝日"
    ],
    "openDaysNote": "サービス提供時間：２４時間、年中無休"
  },
  {
    "id": "670105121",
    "name": "エスケア山形",
    "kana": "エスケアヤマガタ",
    "address": "山形県山形市深町3丁目3－3コンフォース深町103 コンフォース深町103",
    "lat": 38.2314312,
    "lng": 140.3171953,
    "tel": "023‐674-8165",
    "url": "",
    "pref": "山形県",
    "city": "山形市",
    "category": "home_help",
    "serviceType": "訪問介護",
    "capacity": null,
    "openDays": [
      "平日",
      "土曜日",
      "日曜日",
      "祝日"
    ],
    "openDaysNote": ""
  },
  {
    "id": "670103704",
    "name": "くつろ木吉の原訪問介護事業所",
    "kana": "クツロギヨシノハラホウモンカイゴジギョウショ",
    "address": "山形市若宮四丁目1番1号",
    "lat": 38.2282136178409,
    "lng": 140.308404998195,
    "tel": "023-646-0772",
    "url": "https://kutsurogi-home.net/",
    "pref": "山形県",
    "city": "山形市",
    "category": "home_help",
    "serviceType": "訪問介護",
    "capacity": 30,
    "openDays": [
      "平日",
      "土曜日",
      "日曜日",
      "祝日"
    ],
    "openDaysNote": "サービス提供時間は２４時間、年中無休。（改行）指定訪問介護の内容は次のとおりである。（改行）①　身体介護（改行）②生活援助"
  },
  {
    "id": "670102656",
    "name": "ケアセンターおかめ",
    "kana": "ケアセンターオカメ",
    "address": "山形県山形市西原２丁目２番２号",
    "lat": 38.2655809,
    "lng": 140.2815602,
    "tel": "023-679-4471",
    "url": "",
    "pref": "山形県",
    "city": "山形市",
    "category": "home_help",
    "serviceType": "訪問介護",
    "capacity": 0,
    "openDays": [
      "平日",
      "土曜日",
      "日曜日",
      "祝日"
    ],
    "openDaysNote": "休日でも利用者の状況・状態によって対応している。"
  },
  {
    "id": "670102623",
    "name": "ゴールデンスタッフ山形",
    "kana": "ゴールデンスタッフヤマガタ",
    "address": "山形県山形市上町五丁目5番地27号フォレストネットビル201号 フォレストネットビル201号",
    "lat": 38.24277,
    "lng": 140.3120854,
    "tel": "023-647-6875",
    "url": "https://pwig.jp/",
    "pref": "山形県",
    "city": "山形市",
    "category": "home_help",
    "serviceType": "訪問介護",
    "capacity": 0,
    "openDays": [
      "平日",
      "土曜日",
      "日曜日",
      "祝日"
    ],
    "openDaysNote": "サービス提供時間の基本は午前6時00分から午後８時まで、ただし、ケアプランの内容により時間外のサービス提供を受けることができます。"
  },
  {
    "id": "670102896",
    "name": "せんじゅ在宅サービス",
    "kana": "センジュザイタクサービス",
    "address": "山形市鳥居ケ丘18-1",
    "lat": 38.2281585021433,
    "lng": 140.334432942226,
    "tel": "023-673-0512",
    "url": "",
    "pref": "山形県",
    "city": "山形市",
    "category": "home_help",
    "serviceType": "訪問介護",
    "capacity": 0,
    "openDays": [
      "平日",
      "土曜日",
      "日曜日",
      "祝日"
    ],
    "openDaysNote": "電話を携帯電話に転送し、２４時間連絡可能な体制をとっています。"
  },
  {
    "id": "670104587",
    "name": "セントケア山形",
    "kana": "セントケアヤマガタ",
    "address": "山形県山形市十日町3丁目6番43号ほうゆうキャピタル ほうゆうキャピタル",
    "lat": 38.2437502,
    "lng": 140.3340805,
    "tel": "023-615-1014",
    "url": "http://www.saint-care.com/",
    "pref": "山形県",
    "city": "山形市",
    "category": "home_help",
    "serviceType": "訪問介護",
    "capacity": 0,
    "openDays": [
      "平日",
      "土曜日",
      "日曜日",
      "祝日"
    ],
    "openDaysNote": ""
  },
  {
    "id": "670104652",
    "name": "ﾆﾁｲｹｱｾﾝﾀｰみなみはら",
    "kana": "ニチイケアセンターミナミハラ",
    "address": "山形県山形市南原町1丁目18番1号コーポ青柳102号室 コーポ青柳102号室",
    "lat": 38.2373406,
    "lng": 140.3438963,
    "tel": "023-627-6233",
    "url": "http://www.nichiigakkan.co.jp",
    "pref": "山形県",
    "city": "山形市",
    "category": "home_help",
    "serviceType": "訪問介護",
    "capacity": 10,
    "openDays": [
      "平日",
      "土曜日",
      "日曜日",
      "祝日"
    ],
    "openDaysNote": "居宅介護計画により、営業時間外であってもサービスを提供する場合があります。"
  },
  {
    "id": "670104645",
    "name": "ニチイケアセンター江俣",
    "kana": "ニチイケアセンターエマタ",
    "address": "山形県山形市江俣４丁目20番17号サンセットアベニュー1階101号室 サンセットアベニュー1階101号室",
    "lat": 38.2790286,
    "lng": 140.3155362,
    "tel": "023-616-6558",
    "url": "www.nichiigakkan.co.jp",
    "pref": "山形県",
    "city": "山形市",
    "category": "home_help",
    "serviceType": "訪問介護",
    "capacity": 0,
    "openDays": [
      "平日"
    ],
    "openDaysNote": "※居宅サービス計画により、休業日及び営業時間外であってもサービス提供をする場合があります。"
  },
  {
    "id": "670100486",
    "name": "ニチイケアセンター山形",
    "kana": "ニチイケアセンターヤマガタ",
    "address": "山形県山形市上町3丁目12-6",
    "lat": 38.2400066,
    "lng": 140.3194068,
    "tel": "023-647-1951",
    "url": "http://www.nichiigakkan.co.jp",
    "pref": "山形県",
    "city": "山形市",
    "category": "home_help",
    "serviceType": "訪問介護",
    "capacity": 120,
    "openDays": [
      "平日",
      "土曜日",
      "日曜日",
      "祝日"
    ],
    "openDaysNote": "居宅介護計画により、休業日及び営業時間外であってもサービスを提供する場合があります。"
  },
  {
    "id": "670100585",
    "name": "ニチイケアセンター山形五十鈴",
    "kana": "ニチイケアセンターヤマガタイスズ",
    "address": "山形県山形市五十鈴２丁目２―６８",
    "lat": 38.2733675,
    "lng": 140.3528417,
    "tel": "023-626-4455",
    "url": "http://www.nichiigakkan.co.jp",
    "pref": "山形県",
    "city": "山形市",
    "category": "home_help",
    "serviceType": "訪問介護",
    "capacity": 2,
    "openDays": [
      "平日",
      "土曜日",
      "日曜日",
      "祝日"
    ],
    "openDaysNote": "居宅サービス計画により、営業日時間以外でもサービスを提供する場合があります。"
  },
  {
    "id": "670100924",
    "name": "ニチイケアセンター山形中央",
    "kana": "ニチイケアセンターヤマガタチュウオウ",
    "address": "山形市城西町4丁目18-30",
    "lat": 38.2598132,
    "lng": 140.3222809,
    "tel": "023-647-7366",
    "url": "http://www.nichiigakkan.co.jp",
    "pref": "山形県",
    "city": "山形市",
    "category": "home_help",
    "serviceType": "訪問介護",
    "capacity": 0,
    "openDays": [
      "平日",
      "土曜日",
      "日曜日",
      "祝日"
    ],
    "openDaysNote": "居宅サービス計画により、営業日以外、営業時間外であってもサービスを提供する場合があります。"
  },
  {
    "id": "670103167",
    "name": "ヘルパーステーション　樫の木",
    "kana": "ヘルパーステーション　カシノキ",
    "address": "山形市上町４丁目６－２４",
    "lat": 38.2444227,
    "lng": 140.3133296,
    "tel": "023-644-3364",
    "url": "http://daiwa-med.co.jp",
    "pref": "山形県",
    "city": "山形市",
    "category": "home_help",
    "serviceType": "訪問介護",
    "capacity": 0,
    "openDays": [
      "平日",
      "土曜日",
      "日曜日",
      "祝日"
    ],
    "openDaysNote": "電話により２４時間対応可能"
  },
  {
    "id": "670104314",
    "name": "ヘルパーステーション虹",
    "kana": "ヘルパーステーションニジ",
    "address": "山形県山形市北町三丁目1-37協同の家虹 協同の家虹",
    "lat": 38.2720399,
    "lng": 140.3292604,
    "tel": "023-674-0362",
    "url": "http://y-mcoop.com/",
    "pref": "山形県",
    "city": "山形市",
    "category": "home_help",
    "serviceType": "訪問介護",
    "capacity": 31,
    "openDays": [
      "平日",
      "土曜日",
      "日曜日",
      "祝日"
    ],
    "openDaysNote": ""
  },
  {
    "id": "670104835",
    "name": "ホームケア土屋山形",
    "kana": "ホームケアツチヤヤマガタ",
    "address": "山形県山形市城北町2丁目10-9",
    "lat": 38.2602615,
    "lng": 140.3255705,
    "tel": "050-3138-5872",
    "url": "https://homecare-tsuchiya.com",
    "pref": "山形県",
    "city": "山形市",
    "category": "home_help",
    "serviceType": "訪問介護",
    "capacity": 0,
    "openDays": [
      "平日",
      "土曜日",
      "日曜日",
      "祝日"
    ],
    "openDaysNote": ""
  },
  {
    "id": "670100528",
    "name": "わたげの会訪問介護事業所",
    "kana": "ワタゲノカイホウモンカイゴジギョウショ",
    "address": "山形市上町1-9-17",
    "lat": 38.2419481,
    "lng": 140.3199039,
    "tel": "023-644-4870",
    "url": "",
    "pref": "山形県",
    "city": "山形市",
    "category": "home_help",
    "serviceType": "訪問介護",
    "capacity": 120,
    "openDays": [
      "平日",
      "土曜日",
      "日曜日",
      "祝日"
    ],
    "openDaysNote": "土日、祝祭日と12/29～1/3は営業していないが、利用者の状態によって対応している。"
  },
  {
    "id": "670104223",
    "name": "愛・訪問介護ステーション山形",
    "kana": "アイホウモンカイゴステーションヤマガタ",
    "address": "山形県山形市春日町5-15エルエスペランス104 エルエスペランス104",
    "lat": 38.2520749,
    "lng": 140.3178566,
    "tel": "023-647-5553",
    "url": "https://i-sogofukushi.com/",
    "pref": "山形県",
    "city": "山形市",
    "category": "home_help",
    "serviceType": "訪問介護",
    "capacity": 0,
    "openDays": [
      "平日",
      "土曜日",
      "日曜日",
      "祝日"
    ],
    "openDaysNote": ""
  },
  {
    "id": "670105097",
    "name": "愛・訪問介護ステーション山形北",
    "kana": "アイ・ホウモンカイゴステーションヤマガタキタ",
    "address": "山形県山形市大野目3-2-7レジデンス武田105 レジデンス武田105",
    "lat": 38.2804419,
    "lng": 140.35903,
    "tel": "023-616-7021",
    "url": "",
    "pref": "山形県",
    "city": "山形市",
    "category": "home_help",
    "serviceType": "訪問介護",
    "capacity": 0,
    "openDays": [
      "平日",
      "土曜日",
      "日曜日",
      "祝日"
    ],
    "openDaysNote": ""
  },
  {
    "id": "670101146",
    "name": "愛和ケアセンター",
    "kana": "アイワケアセンター",
    "address": "山形市漆山1835",
    "lat": 38.3167959110752,
    "lng": 140.35442014418,
    "tel": "023-666-4102",
    "url": "http://aiwacc.com/",
    "pref": "山形県",
    "city": "山形市",
    "category": "home_help",
    "serviceType": "訪問介護",
    "capacity": 23,
    "openDays": [
      "平日",
      "土曜日",
      "日曜日",
      "祝日"
    ],
    "openDaysNote": "特別なご事情の場合はご相談ください。"
  },
  {
    "id": "670104629",
    "name": "医心館訪問介護ステーション山形",
    "kana": "イシンカンホウモンカイゴステーションヤマガタ",
    "address": "山形県山形市馬見ヶ崎1丁目10-25",
    "lat": 38.2813016,
    "lng": 140.3342979,
    "tel": "023-666-5380",
    "url": "",
    "pref": "山形県",
    "city": "山形市",
    "category": "home_help",
    "serviceType": "訪問介護",
    "capacity": 0,
    "openDays": [
      "平日",
      "土曜日",
      "日曜日",
      "祝日"
    ],
    "openDaysNote": "24時間対応"
  },
  {
    "id": "670104868",
    "name": "医心館訪問介護ステーション山形Ⅱ",
    "kana": "イシンカンホウモンカイゴステーションヤマガタニ",
    "address": "山形県山形市南栄町二丁目14番2号医心館山形Ⅱ 医心館山形Ⅱ",
    "lat": 38.2311622,
    "lng": 140.3191581,
    "tel": "023-664-2062",
    "url": "https://www.amvis.com/",
    "pref": "山形県",
    "city": "山形市",
    "category": "home_help",
    "serviceType": "訪問介護",
    "capacity": 0,
    "openDays": [
      "平日",
      "土曜日",
      "日曜日",
      "祝日"
    ],
    "openDaysNote": "24時間対応"
  },
  {
    "id": "670105063",
    "name": "街の介護屋さんピース",
    "kana": "マチノカイゴヤサンピース",
    "address": "山形県山形市双月町四丁目6番7号",
    "lat": 38.2541575,
    "lng": 140.3539013,
    "tel": "023-674-6974",
    "url": "",
    "pref": "山形県",
    "city": "山形市",
    "category": "home_help",
    "serviceType": "訪問介護",
    "capacity": 0,
    "openDays": [
      "平日",
      "土曜日",
      "日曜日",
      "祝日"
    ],
    "openDaysNote": ""
  },
  {
    "id": "670100569",
    "name": "敬寿園訪問介護事業所",
    "kana": "ケイジュエンホウモンカイゴジギョウショ",
    "address": "山形市大字妙見寺５００－１",
    "lat": 38.2370975,
    "lng": 140.3778432,
    "tel": "023-634-2020",
    "url": "http://keijuen.or.jp/",
    "pref": "山形県",
    "city": "山形市",
    "category": "home_help",
    "serviceType": "訪問介護",
    "capacity": 0,
    "openDays": [
      "平日",
      "土曜日",
      "祝日"
    ],
    "openDaysNote": "可能な限り、早朝（７：００～８：００）、夜間（１８：００～１９：００）あり"
  },
  {
    "id": "670100676",
    "name": "山形市社会福祉協議会訪問介護事業所",
    "kana": "ヤマガタシシャカイフクシキョウギカイホウモンカイゴジギョウショ",
    "address": "山形県山形市城西町二丁目２－２２",
    "lat": 38.2546692,
    "lng": 140.3220338,
    "tel": "023-645-9231",
    "url": "http://www.yamagatashishakyo.or.jp/",
    "pref": "山形県",
    "city": "山形市",
    "category": "home_help",
    "serviceType": "訪問介護",
    "capacity": 80,
    "openDays": [
      "平日",
      "土曜日",
      "日曜日",
      "祝日"
    ],
    "openDaysNote": "1年365日サービスを提供します。通常時間帯(８：００～１８：００)以外でご利用の場合は割増料金がかかります。"
  },
  {
    "id": "670101484",
    "name": "指定訪問介護事業所　ヘルパーステーションよねき",
    "kana": "シテイホウモンカイゴジギョウショ　ヘルパーステーションヨネキ",
    "address": "山形県山形市大字前明石字京旦121-1",
    "lat": 38.2317957,
    "lng": 140.301037,
    "tel": "023-645-2639",
    "url": "http://www.yonekiya.com/",
    "pref": "山形県",
    "city": "山形市",
    "category": "home_help",
    "serviceType": "訪問介護",
    "capacity": 0,
    "openDays": [
      "平日",
      "土曜日",
      "日曜日",
      "祝日"
    ],
    "openDaysNote": "なし"
  },
  {
    "id": "670105139",
    "name": "指定訪問介護事業所つむぐ縁",
    "kana": "シテイホウモンカイゴジギョウショツムグエン",
    "address": "山形県山形市上町一丁目８－１７紅霞荘２０４号 紅霞荘２０４号",
    "lat": 38.2417936,
    "lng": 140.3205531,
    "tel": "０２３－６０７－２６９０",
    "url": "https://caremaps-inc.com/tsumugu-en/",
    "pref": "山形県",
    "city": "山形市",
    "category": "home_help",
    "serviceType": "訪問介護",
    "capacity": 3,
    "openDays": [
      "平日",
      "土曜日",
      "日曜日",
      "祝日"
    ],
    "openDaysNote": "上記時間帯以外でも、早朝夜間の支援相談可能。"
  },
  {
    "id": "670104892",
    "name": "訪問介護アイラ",
    "kana": "ホウモンカイゴアイラ",
    "address": "山形県山形市小立4丁目20番3号アルファＡ101号室 アルファＡ101号室",
    "lat": 38.224118,
    "lng": 140.3464511,
    "tel": "023-666-4943",
    "url": "",
    "pref": "山形県",
    "city": "山形市",
    "category": "home_help",
    "serviceType": "訪問介護",
    "capacity": 0,
    "openDays": [
      "平日",
      "土曜日",
      "日曜日",
      "祝日"
    ],
    "openDaysNote": ""
  },
  {
    "id": "670104108",
    "name": "訪問介護エス＆ケイ",
    "kana": "ホウモンカイゴエスアンドケイ",
    "address": "山形県山形市西田３丁目３番１５号",
    "lat": 38.2666411,
    "lng": 140.3152079,
    "tel": "０２３－６７４－８８７１",
    "url": "",
    "pref": "山形県",
    "city": "山形市",
    "category": "home_help",
    "serviceType": "訪問介護",
    "capacity": 0,
    "openDays": [
      "平日",
      "土曜日",
      "日曜日",
      "祝日"
    ],
    "openDaysNote": ""
  },
  {
    "id": "670104397",
    "name": "訪問介護こころ",
    "kana": "ホウモンカイゴココロ",
    "address": "山形県山形市山家町2-7-17",
    "lat": 38.2632355,
    "lng": 140.3615189,
    "tel": "023-687-1882",
    "url": "http://www.cocolo.biz",
    "pref": "山形県",
    "city": "山形市",
    "category": "home_help",
    "serviceType": "訪問介護",
    "capacity": 0,
    "openDays": [
      "平日",
      "土曜日",
      "日曜日",
      "祝日"
    ],
    "openDaysNote": ""
  },
  {
    "id": "670105147",
    "name": "訪問介護こころやまがた",
    "kana": "ホウモンカイゴココロヤマガタ",
    "address": "山形県山形市中桜田1丁目12-6桜田庭学館101号室 桜田庭学館101号室",
    "lat": 38.2180823,
    "lng": 140.3321222,
    "tel": "070-1388-9379",
    "url": "",
    "pref": "山形県",
    "city": "山形市",
    "category": "home_help",
    "serviceType": "訪問介護",
    "capacity": 0,
    "openDays": [
      "平日",
      "土曜日",
      "日曜日",
      "祝日"
    ],
    "openDaysNote": ""
  },
  {
    "id": "670104595",
    "name": "訪問介護ステーションえがお",
    "kana": "ホウモンカイゴステーションエガオ",
    "address": "山形県山形市宮町1丁目7番1号ハイツオカダ102号室 ハイツオカダ102号室",
    "lat": 38.264469,
    "lng": 140.3333557,
    "tel": "023-664-0775",
    "url": "",
    "pref": "山形県",
    "city": "山形市",
    "category": "home_help",
    "serviceType": "訪問介護",
    "capacity": 50,
    "openDays": [
      "平日",
      "土曜日",
      "祝日"
    ],
    "openDaysNote": "ただし、利用者の希望に応じて、午前７時から午後９時までの体制を整えるものとする。"
  },
  {
    "id": "670103589",
    "name": "訪問介護ステーションプルメリア",
    "kana": "ホウモンカイゴステーションプルメリア",
    "address": "山形県山形市嶋南二丁目2番7号",
    "lat": 38.2786778,
    "lng": 140.3184866,
    "tel": "023－674－6527",
    "url": "",
    "pref": "山形県",
    "city": "山形市",
    "category": "home_help",
    "serviceType": "訪問介護",
    "capacity": 0,
    "openDays": [
      "平日",
      "土曜日",
      "日曜日",
      "祝日"
    ],
    "openDaysNote": ""
  },
  {
    "id": "670105022",
    "name": "訪問介護つばさ",
    "kana": "ホウモンカイゴツバサ",
    "address": "山形県山形市北町2‐6-6",
    "lat": 38.2705257,
    "lng": 140.3300111,
    "tel": "023‐679-4117",
    "url": "",
    "pref": "山形県",
    "city": "山形市",
    "category": "home_help",
    "serviceType": "訪問介護",
    "capacity": 0,
    "openDays": [
      "平日",
      "土曜日",
      "日曜日",
      "祝日"
    ],
    "openDaysNote": ""
  },
  {
    "id": "670104785",
    "name": "訪問介護事業所　てらす",
    "kana": "ホウモンカイゴジギョウショ　テラス",
    "address": "山形県山形市飯田西四丁目12番8号",
    "lat": 38.2118282,
    "lng": 140.3173187,
    "tel": "023-616-3303",
    "url": "",
    "pref": "山形県",
    "city": "山形市",
    "category": "home_help",
    "serviceType": "訪問介護",
    "capacity": 0,
    "openDays": [
      "平日",
      "土曜日",
      "日曜日",
      "祝日"
    ],
    "openDaysNote": "特になし"
  },
  {
    "id": "670105071",
    "name": "訪問介護事業所Ｔｒｉｍ",
    "kana": "ホウモンカイゴジギョウショトリム",
    "address": "山形県山形市江俣五丁目1番1号　シャーメゾン・ベレオ102",
    "lat": 38.2765496434485,
    "lng": 140.314443864285,
    "tel": "090-8507-2242",
    "url": "",
    "pref": "山形県",
    "city": "山形市",
    "category": "home_help",
    "serviceType": "訪問介護",
    "capacity": null,
    "openDays": [
      "平日",
      "土曜日",
      "日曜日",
      "祝日"
    ],
    "openDaysNote": ""
  },
  {
    "id": "672200144",
    "name": "ホームヘルパーステーションメルヘン",
    "kana": "ホームヘルパーステーションメルヘン",
    "address": "東村山郡山辺町大字大寺1152番1",
    "lat": 38.3069517,
    "lng": 140.2650774,
    "tel": "023-667-0823",
    "url": "",
    "pref": "山形県",
    "city": "山辺町",
    "category": "home_help",
    "serviceType": "訪問介護",
    "capacity": 17,
    "openDays": [
      "平日",
      "土曜日",
      "日曜日",
      "祝日"
    ],
    "openDaysNote": "なし"
  },
  {
    "id": "670801729",
    "name": "ＪＡ庄内みどり福祉センター",
    "kana": "ジェイエイショウナイミドリフクシセンター",
    "address": "山形県酒田市熊手島字道の下熊興屋17番1",
    "lat": 38.9067299,
    "lng": 139.8936767,
    "tel": "0234-24-5411",
    "url": "http://ja.midorinet.or.jp",
    "pref": "山形県",
    "city": "酒田市",
    "category": "home_help",
    "serviceType": "訪問介護",
    "capacity": 0,
    "openDays": [
      "平日",
      "土曜日",
      "日曜日",
      "祝日"
    ],
    "openDaysNote": ""
  },
  {
    "id": "670801406",
    "name": "アースサポート酒田",
    "kana": "アースサポートサカタ",
    "address": "山形県酒田市若原町5番2",
    "lat": 38.8977343376885,
    "lng": 139.843492388103,
    "tel": "0234-26-9900",
    "url": "http://www.earthsupport.co.jp",
    "pref": "山形県",
    "city": "酒田市",
    "category": "home_help",
    "serviceType": "訪問介護",
    "capacity": 0,
    "openDays": [
      "平日",
      "土曜日",
      "日曜日",
      "祝日"
    ],
    "openDaysNote": "年中無休"
  },
  {
    "id": "670800366",
    "name": "うららホームヘルプサービス",
    "kana": "ウララホームヘルプサービス",
    "address": "山形県酒田市本楯字前田127-2",
    "lat": 38.9645509004229,
    "lng": 139.889243491135,
    "tel": "0234-28-3157",
    "url": "http://www.kouyuu-kai.or.jp/",
    "pref": "山形県",
    "city": "酒田市",
    "category": "home_help",
    "serviceType": "訪問介護",
    "capacity": 0,
    "openDays": [
      "平日",
      "土曜日",
      "祝日"
    ],
    "openDaysNote": "電話等により24時間、常時連絡が可能な体制をとっている。"
  },
  {
    "id": "670801976",
    "name": "かすみそう",
    "kana": "カスミソウ",
    "address": "酒田市ゆたか1丁目8-10西友ハイツ1D 西友ハイツ1D",
    "lat": 38.9347992934184,
    "lng": 139.841312540929,
    "tel": "0234-31-7745",
    "url": "",
    "pref": "山形県",
    "city": "酒田市",
    "category": "home_help",
    "serviceType": "訪問介護",
    "capacity": 30,
    "openDays": [
      "平日",
      "土曜日",
      "日曜日",
      "祝日"
    ],
    "openDaysNote": "1月1.2.3日　休み"
  },
  {
    "id": "670800168",
    "name": "サン・シティ指定訪問介護事業所",
    "kana": "サン・シティシテイホウモンカイゴジギョウショ",
    "address": "山形県酒田市曙町二丁目28番地の5",
    "lat": 38.9189807,
    "lng": 139.8630632,
    "tel": "0234-26-7888",
    "url": "http://www.fuku-yuwakai.jp",
    "pref": "山形県",
    "city": "酒田市",
    "category": "home_help",
    "serviceType": "訪問介護",
    "capacity": 0,
    "openDays": [
      "平日",
      "土曜日",
      "日曜日",
      "祝日"
    ],
    "openDaysNote": ""
  },
  {
    "id": "670800291",
    "name": "シエ・モワ訪問介護サービス",
    "kana": "シエ・モワホウモンカイゴサービス",
    "address": "酒田市緑町13－38",
    "lat": 38.9109116,
    "lng": 139.8527617,
    "tel": "0234-25-8058",
    "url": "http://www.koufukai.or.jp",
    "pref": "山形県",
    "city": "酒田市",
    "category": "home_help",
    "serviceType": "訪問介護",
    "capacity": 0,
    "openDays": [
      "平日",
      "土曜日",
      "日曜日",
      "祝日"
    ],
    "openDaysNote": "無し"
  },
  {
    "id": "670800739",
    "name": "ニチイケアセンタ－東泉",
    "kana": "ニチイケアセンタ-ヒガシイズミ",
    "address": "山形県酒田市東泉町5丁目8-10",
    "lat": 38.9328791,
    "lng": 139.8531665,
    "tel": "0234-21-7311",
    "url": "http://www.nichiigakkan.co.jp",
    "pref": "山形県",
    "city": "酒田市",
    "category": "home_help",
    "serviceType": "訪問介護",
    "capacity": 0,
    "openDays": [
      "平日",
      "土曜日",
      "日曜日",
      "祝日"
    ],
    "openDaysNote": "但し、居宅サ－ビス計画により、休業日、営業時間以外であってもサ－ビスの提供を行なう場合がある。"
  },
  {
    "id": "670802149",
    "name": "ニチイケアセンターあすか",
    "kana": "ニチイケアセンターアスカ",
    "address": "山形県酒田市飛鳥字中島3-18",
    "lat": 38.8860511487174,
    "lng": 139.925363525795,
    "tel": "0234-61-7060",
    "url": "hllp:/www.nichiigakkan.co.jp",
    "pref": "山形県",
    "city": "酒田市",
    "category": "home_help",
    "serviceType": "訪問介護",
    "capacity": 0,
    "openDays": [
      "平日",
      "土曜日",
      "日曜日",
      "祝日"
    ],
    "openDaysNote": "但し、居宅サービス計画により、休業日、営業時間以外であってもサービスの提供を行う場合がある。"
  },
  {
    "id": "670800853",
    "name": "ニチイケアセンターこあら",
    "kana": "ニチイケアセンターコアラ",
    "address": "山形県酒田市こあら二丁目５番地の２",
    "lat": 38.9146672,
    "lng": 139.8633299,
    "tel": "0234-21-8581",
    "url": "hittp://www/nichiigakkan.co.jp",
    "pref": "山形県",
    "city": "酒田市",
    "category": "home_help",
    "serviceType": "訪問介護",
    "capacity": 0,
    "openDays": [
      "平日",
      "土曜日",
      "日曜日",
      "祝日"
    ],
    "openDaysNote": "但し,居宅サービス計画により,休業日,営業時間以外であってもサービスの提供を行う場合がある。"
  },
  {
    "id": "670802115",
    "name": "ニチイケアセンターゆするべ",
    "kana": "ニチイケアセンターユスルベ",
    "address": "山形県酒田市遊摺部村立5番地の1フィールファイン酒田A203号 フィールファイン酒田A203号",
    "lat": 38.8840305,
    "lng": 139.8774584,
    "tel": "0234-21-9012",
    "url": "",
    "pref": "山形県",
    "city": "酒田市",
    "category": "home_help",
    "serviceType": "訪問介護",
    "capacity": 0,
    "openDays": [
      "平日",
      "土曜日",
      "日曜日"
    ],
    "openDaysNote": "但し、休業日、営業時間以外であってもサービスの提供を行う場合があります。"
  },
  {
    "id": "670800309",
    "name": "ニチイケアセンター酒田",
    "kana": "ニチイケアセンターサカタ",
    "address": "山形県酒田市中町1丁目13番15号本立ビル1Ｆ 本立ビル1Ｆ",
    "lat": 38.9150164,
    "lng": 139.8378208,
    "tel": "0234-21-4801",
    "url": "http://www.nichiigakkan.co.jp",
    "pref": "山形県",
    "city": "酒田市",
    "category": "home_help",
    "serviceType": "訪問介護",
    "capacity": 0,
    "openDays": [
      "平日"
    ],
    "openDaysNote": "但し、居宅サービス計画により、休業日、営業時間以外であってもサービスの提供を行う場合がある。"
  },
  {
    "id": "670800564",
    "name": "ニチイケアセンター酒田みずほ",
    "kana": "ニチイケアセンターサカタミズホ",
    "address": "山形県酒田市亀ヶ崎3丁目5番地55号",
    "lat": 38.9047675,
    "lng": 139.8440651,
    "tel": "0234-21-8920",
    "url": "http://www.nichiigakkan.co.jp",
    "pref": "山形県",
    "city": "酒田市",
    "category": "home_help",
    "serviceType": "訪問介護",
    "capacity": 0,
    "openDays": [
      "平日",
      "土曜日",
      "日曜日",
      "祝日"
    ],
    "openDaysNote": "但し、居宅サービス計画により、休業日、営業時間以外であってもサービスの提供を行う場合がある。"
  },
  {
    "id": "670802073",
    "name": "ヘルパーステーションあらた",
    "kana": "ヘルパーステーションアラタ",
    "address": "酒田市東町一丁目15番地の25",
    "lat": 38.9236870872418,
    "lng": 139.832694091614,
    "tel": "0234-26-0488",
    "url": "https://idealfaro.com/",
    "pref": "山形県",
    "city": "酒田市",
    "category": "home_help",
    "serviceType": "訪問介護",
    "capacity": 0,
    "openDays": [
      "平日",
      "土曜日",
      "日曜日",
      "祝日"
    ],
    "openDaysNote": "電話等により24時間常時連絡可能な体制とする"
  },
  {
    "id": "670800275",
    "name": "ヘルパーステーションにしの",
    "kana": "ヘルパーステーションニシノ",
    "address": "山形県酒田市泉町1番地16",
    "lat": 38.9339594,
    "lng": 139.847178,
    "tel": "0234-35-1456",
    "url": "http://www.ken-sei.or.jp",
    "pref": "山形県",
    "city": "酒田市",
    "category": "home_help",
    "serviceType": "訪問介護",
    "capacity": 0,
    "openDays": [
      "平日",
      "土曜日",
      "日曜日",
      "祝日"
    ],
    "openDaysNote": "営業時間外の訪問は相談可能です（改行）電話等により２４時間常時緊急対応が可能な体制をとっています"
  },
  {
    "id": "670800531",
    "name": "ホームヘルプサービスキャット",
    "kana": "ホームヘルプサービスキャット",
    "address": "山形県酒田市高砂3丁目8-35",
    "lat": 38.9438608812031,
    "lng": 139.825838524454,
    "tel": "0234-35-1780",
    "url": "https://catsgp.com",
    "pref": "山形県",
    "city": "酒田市",
    "category": "home_help",
    "serviceType": "訪問介護",
    "capacity": 0,
    "openDays": [
      "平日",
      "土曜日",
      "日曜日",
      "祝日"
    ],
    "openDaysNote": "ご相談に応じます。"
  },
  {
    "id": "673200051",
    "name": "みすみ指定訪問介護事業所",
    "kana": "ミスミシテイホウモンカイゴジギョウショ",
    "address": "山形県酒田市楢橋字大柳1番地１６",
    "lat": 38.8917528,
    "lng": 139.9508697,
    "tel": "0234-52-3470",
    "url": "https://www.hirata.or.jp/",
    "pref": "山形県",
    "city": "酒田市",
    "category": "home_help",
    "serviceType": "訪問介護",
    "capacity": 15,
    "openDays": [
      "平日",
      "土曜日"
    ],
    "openDaysNote": "特にありません。"
  },
  {
    "id": "670802255",
    "name": "愛ネット　さかた",
    "kana": "アイネット　サカタ",
    "address": "山形県酒田市ゆたか２丁目１４－２SハイツＡ号 SハイツＡ号",
    "lat": 38.9383557,
    "lng": 139.8465216,
    "tel": "０２３４－２５－０２０５",
    "url": "http://www.ainet-care.co.jp/",
    "pref": "山形県",
    "city": "酒田市",
    "category": "home_help",
    "serviceType": "訪問介護",
    "capacity": 1,
    "openDays": [
      "平日",
      "土曜日",
      "日曜日",
      "祝日"
    ],
    "openDaysNote": "その他の時間帯の希望の場合は相談にのります。又、利用できる時間帯でも派遣できる介護士がいないときは派遣できないことがありますのでご了承ください。"
  },
  {
    "id": "673200069",
    "name": "医療法人徳洲会　介護老人保健施設　徳田山介護センター",
    "kana": "イリョウホウジン　トクシュウカイ　カイゴロウジンホケンシセツ　トクダヤマカイゴセンター",
    "address": "山形県酒田市相沢字道脇７",
    "lat": 38.8762711549157,
    "lng": 139.939425829939,
    "tel": "0234-61-4161",
    "url": "http://tokudayama.com/",
    "pref": "山形県",
    "city": "酒田市",
    "category": "home_help",
    "serviceType": "訪問介護",
    "capacity": 0,
    "openDays": [
      "平日",
      "土曜日",
      "日曜日",
      "祝日"
    ],
    "openDaysNote": "24時間対応"
  },
  {
    "id": "670800051",
    "name": "株式会社福祉のひろば",
    "kana": "カブシキガイシャフクシノヒロバ",
    "address": "山形県酒田市穂積字上市神１３９番地の５",
    "lat": 38.9762354,
    "lng": 139.8630356,
    "tel": "0234-33-2581",
    "url": "http://www18.con.ne.jp/~fukusi12/",
    "pref": "山形県",
    "city": "酒田市",
    "category": "home_help",
    "serviceType": "訪問介護",
    "capacity": 0,
    "openDays": [
      "平日",
      "土曜日",
      "日曜日",
      "祝日"
    ],
    "openDaysNote": "なし"
  },
  {
    "id": "670800846",
    "name": "丸岡医院訪問介護事業所",
    "kana": "マルオカイインホウモンカイゴジギョウショ",
    "address": "山形県酒田市亀ケ崎7丁目４－２２",
    "lat": 38.8965856,
    "lng": 139.8498664,
    "tel": "0234-22-2730",
    "url": "http://www.maruoka.or.jp",
    "pref": "山形県",
    "city": "酒田市",
    "category": "home_help",
    "serviceType": "訪問介護",
    "capacity": 140,
    "openDays": [
      "平日",
      "土曜日",
      "日曜日",
      "祝日"
    ],
    "openDaysNote": "なお、19:00以降の対応はシニアガーデンそよかぜ28-8066となります"
  },
  {
    "id": "670800150",
    "name": "酒田市社会福祉協議会",
    "kana": "サカタシシャカイフクシキョウギカイ",
    "address": "山形県酒田市新橋二丁目1番地の19",
    "lat": 38.9194692,
    "lng": 139.8537447,
    "tel": "0234-23-5765",
    "url": "http://www.sakata-syakyo.or.jp/",
    "pref": "山形県",
    "city": "酒田市",
    "category": "home_help",
    "serviceType": "訪問介護",
    "capacity": 0,
    "openDays": [
      "平日",
      "土曜日",
      "日曜日",
      "祝日"
    ],
    "openDaysNote": "24時間対応"
  },
  {
    "id": "670800697",
    "name": "酒田第一タクシー指定訪問介護事業所",
    "kana": "サカタダイイチタクシーシテイホウモンガイゴジギョウショ",
    "address": "山形県酒田市あきほ町651番4号",
    "lat": 38.8909216470381,
    "lng": 139.850871730165,
    "tel": "0234-22-7600",
    "url": "https://www.sakata-no1taxi.co.jp",
    "pref": "山形県",
    "city": "酒田市",
    "category": "home_help",
    "serviceType": "訪問介護",
    "capacity": 0,
    "openDays": [
      "平日",
      "土曜日",
      "日曜日",
      "祝日"
    ],
    "openDaysNote": "一般乗用旅客自動車運送事業と平行した時間帯での、サービス提供が可能である。"
  },
  {
    "id": "670800317",
    "name": "酒田地域福祉事業所　ヘルパーステーション　こだま",
    "kana": "サカタチイキフクシジギョウショ　ヘルパーステーション　コダマ",
    "address": "山形県酒田市光ヶ丘5丁目13番32号",
    "lat": 38.9352197,
    "lng": 139.8243876,
    "tel": "0234-35-2955",
    "url": "",
    "pref": "山形県",
    "city": "酒田市",
    "category": "home_help",
    "serviceType": "訪問介護",
    "capacity": 0,
    "openDays": [
      "平日",
      "土曜日",
      "日曜日",
      "祝日"
    ],
    "openDaysNote": "電話転送にて24時間対応"
  },
  {
    "id": "670801943",
    "name": "訪問介護　八重櫻",
    "kana": "ホウモンカイゴ　ヤエザクラ",
    "address": "山形県酒田市牧曽根字宮ノ越92番地3",
    "lat": 38.936185,
    "lng": 139.8744034,
    "tel": "0234-43-6955",
    "url": "",
    "pref": "山形県",
    "city": "酒田市",
    "category": "home_help",
    "serviceType": "訪問介護",
    "capacity": 0,
    "openDays": [
      "平日"
    ],
    "openDaysNote": "営業時間内であれば指定訪問介護･指定介護予防訪問介護を利用できる時間に関する制限事項等はありません。"
  },
  {
    "id": "670801448",
    "name": "訪問介護すずらん",
    "kana": "ホウモンカイゴスズラン",
    "address": "山形県酒田市上安町3-7-11",
    "lat": 38.9298768771221,
    "lng": 139.865965196295,
    "tel": "0234-35-8355",
    "url": "hppt://care-net.biz/06/cp-suzuran/",
    "pref": "山形県",
    "city": "酒田市",
    "category": "home_help",
    "serviceType": "訪問介護",
    "capacity": 0,
    "openDays": [
      "平日",
      "土曜日",
      "日曜日",
      "祝日"
    ],
    "openDaysNote": "時間外でも緊急時対応は可"
  },
  {
    "id": "670802305",
    "name": "訪問介護事業所　ゆい",
    "kana": "ホウモンカイゴジギョウショ　ユイ",
    "address": "山形県酒田市臼ケ沢字池田通１２２番地有料老人ホームゆい 有料老人ホームゆい",
    "lat": 38.8201842017875,
    "lng": 139.978507991402,
    "tel": "234318883",
    "url": "",
    "pref": "山形県",
    "city": "酒田市",
    "category": "home_help",
    "serviceType": "訪問介護",
    "capacity": 0,
    "openDays": [
      "平日",
      "土曜日",
      "日曜日",
      "祝日"
    ],
    "openDaysNote": ""
  },
  {
    "id": "673200135",
    "name": "訪問介護事業所「幸楽荘」",
    "kana": "ホウモンカイゴジギョウショ「コウラクソウ」",
    "address": "山形県酒田市市条字荒瀬115番地",
    "lat": 38.9655746,
    "lng": 139.9318964,
    "tel": "0234-64-4374",
    "url": "http://www.kourakusou.or.jp",
    "pref": "山形県",
    "city": "酒田市",
    "category": "home_help",
    "serviceType": "訪問介護",
    "capacity": 0,
    "openDays": [
      "平日",
      "土曜日",
      "日曜日",
      "祝日"
    ],
    "openDaysNote": "なし"
  },
  {
    "id": "670802297",
    "name": "訪問介護事業所はなはま",
    "kana": "ホウモンカイゴジギョウショハナハマ",
    "address": "山形県酒田市高砂２丁目１番１７号",
    "lat": 38.9400202,
    "lng": 139.8230654,
    "tel": "0234-26-3636",
    "url": "",
    "pref": "山形県",
    "city": "酒田市",
    "category": "home_help",
    "serviceType": "訪問介護",
    "capacity": 32,
    "openDays": [
      "平日",
      "土曜日",
      "日曜日",
      "祝日"
    ],
    "openDaysNote": ""
  },
  {
    "id": "672500337",
    "name": "指定訪問介護事業所　えんじゅ",
    "kana": "シテイホウモンカイゴジギョウショ　エンジュ",
    "address": "山形県最上郡舟形町長者原１７１２－１",
    "lat": 38.7000731,
    "lng": 140.2992495,
    "tel": "0233-32-0031",
    "url": "http://shuwakai.jp/",
    "pref": "山形県",
    "city": "舟形町",
    "category": "home_help",
    "serviceType": "訪問介護",
    "capacity": 0,
    "openDays": [
      "平日",
      "土曜日",
      "日曜日",
      "祝日"
    ],
    "openDaysNote": "必要に応じ、上記以外の時間にも対応する。"
  },
  {
    "id": "672700192",
    "name": "おぐに社協ホームヘルプサービス",
    "kana": "オグニシャキョウホームヘルプサービス",
    "address": "山形県西置賜郡小国町大字岩井沢604-2小国町老人福祉センター　あおば 小国町老人福祉センター　あおば",
    "lat": 38.0591056,
    "lng": 139.7524637,
    "tel": "0238-62-2825",
    "url": "https://ogn-shakyo.jp",
    "pref": "山形県",
    "city": "小国町",
    "category": "home_help",
    "serviceType": "訪問介護",
    "capacity": 0,
    "openDays": [
      "平日",
      "土曜日",
      "日曜日",
      "祝日"
    ],
    "openDaysNote": "なし"
  },
  {
    "id": "673000824",
    "name": "ニチイケアセンターあまるめ",
    "kana": "ニチイケアセンターアマルメ",
    "address": "山形県東田川郡庄内町余目字上梵天塚90番地２シューハイム　103号室 シューハイム　103号室",
    "lat": 38.8387439,
    "lng": 139.9023033,
    "tel": "0234-25-0215",
    "url": "http://www.nichiigakkan.co.jp",
    "pref": "山形県",
    "city": "庄内町",
    "category": "home_help",
    "serviceType": "訪問介護",
    "capacity": 0,
    "openDays": [
      "平日",
      "土曜日",
      "日曜日",
      "祝日"
    ],
    "openDaysNote": "但し、居宅サービス計画により、休業日、営業時間以外であってもサービスの提供を行う場合がある。"
  },
  {
    "id": "673000204",
    "name": "介護センターほほえみ",
    "kana": "カイゴセンターホホエミ",
    "address": "山形県東田川郡庄内町余目字大塚1番地2",
    "lat": 38.8539488089059,
    "lng": 139.905361237066,
    "tel": "0234-45-0585",
    "url": "http://shonai-shakyo.or.jp/",
    "pref": "山形県",
    "city": "庄内町",
    "category": "home_help",
    "serviceType": "訪問介護",
    "capacity": 0,
    "openDays": [
      "平日",
      "土曜日",
      "日曜日",
      "祝日"
    ],
    "openDaysNote": "電話については24時間対応可能。"
  },
  {
    "id": "673000816",
    "name": "訪問介護事業所　つばさ",
    "kana": "ホウモンカイゴジギョウショ　ツバサ",
    "address": "山形県東田川郡庄内町余目字猿田7-2",
    "lat": 38.8486781,
    "lng": 139.9022333,
    "tel": "0234-43-1525",
    "url": "",
    "pref": "山形県",
    "city": "庄内町",
    "category": "home_help",
    "serviceType": "訪問介護",
    "capacity": 0,
    "openDays": [
      "平日",
      "土曜日",
      "日曜日",
      "祝日"
    ],
    "openDaysNote": "上記時間以外にも、利用者の希望により、適宜対応致します。"
  },
  {
    "id": "671300622",
    "name": "ＳＯＭＰＯケア　上山　訪問介護",
    "kana": "ソンポケア　カミノヤマ　ホウモンカイゴ",
    "address": "山形県上山市石曽根37",
    "lat": 38.1359745,
    "lng": 140.260059,
    "tel": "023-677-0097",
    "url": "http://www.sompocare.com",
    "pref": "山形県",
    "city": "上山市",
    "category": "home_help",
    "serviceType": "訪問介護",
    "capacity": 0,
    "openDays": [
      "平日",
      "土曜日",
      "日曜日",
      "祝日"
    ],
    "openDaysNote": "サービス提供時間は、事前に居宅介護支援事業所より計画された居宅サービス計画に基づくものとし、原則として緊急に依頼された訪問介護の提供は行わないものとする。なお、サービスは２４時間対応しております。"
  },
  {
    "id": "671300267",
    "name": "みゆきヘルパーステーション",
    "kana": "ミユキヘルパーステーション",
    "address": "山形県上山市弁天２丁目2-11",
    "lat": 38.1699242,
    "lng": 140.2926039,
    "tel": "023-672-8585",
    "url": "http://www.miyuki.or.jp",
    "pref": "山形県",
    "city": "上山市",
    "category": "home_help",
    "serviceType": "訪問介護",
    "capacity": 0,
    "openDays": [
      "平日",
      "土曜日",
      "日曜日",
      "祝日"
    ],
    "openDaysNote": "なし"
  },
  {
    "id": "671300093",
    "name": "上山市社会福祉協議会指定訪問介護事業所",
    "kana": "カミノヤマシシャカイフクシキョウギカイシテイホウモンカイゴジギョウショ",
    "address": "上山市南町４番５－１２号",
    "lat": 38.1497455,
    "lng": 140.2748873,
    "tel": "023-677-1570",
    "url": "http://care-net.biz/06/kaminoyama/",
    "pref": "山形県",
    "city": "上山市",
    "category": "home_help",
    "serviceType": "訪問介護",
    "capacity": 0,
    "openDays": [
      "平日",
      "土曜日",
      "日曜日",
      "祝日"
    ],
    "openDaysNote": "なし"
  },
  {
    "id": "671101194",
    "name": "ＳＯＭＰＯケア　新庄金沢　訪問介護",
    "kana": "ソンポケア　シンジョウカナザワ　ホウモンカイゴ",
    "address": "山形県新庄市金沢1863-1",
    "lat": 38.7535226,
    "lng": 140.3114416,
    "tel": "0233-28-8266",
    "url": "https://www.sompocare.com",
    "pref": "山形県",
    "city": "新庄市",
    "category": "home_help",
    "serviceType": "訪問介護",
    "capacity": 0,
    "openDays": [
      "平日",
      "土曜日",
      "日曜日",
      "祝日"
    ],
    "openDaysNote": "サービス提供時間は、事前に居宅介護支援事業者等により、計画された居宅サービス計画に基づくものとします。"
  },
  {
    "id": "672500634",
    "name": "カイセイ訪問介護事業所",
    "kana": "カイセイホウモンカイゴジギョウショ",
    "address": "山形県新庄市末広町７-４",
    "lat": 38.7563332,
    "lng": 140.3044335,
    "tel": "0233-29-2912",
    "url": "http://www.kaisei-company.com/",
    "pref": "山形県",
    "city": "新庄市",
    "category": "home_help",
    "serviceType": "訪問介護",
    "capacity": 0,
    "openDays": [],
    "openDaysNote": "24時間対応"
  },
  {
    "id": "671100584",
    "name": "どんぐり",
    "kana": "ドングリ",
    "address": "新庄市本町6－11",
    "lat": 38.7675595,
    "lng": 140.3019056,
    "tel": "0233-29-4556",
    "url": "http://www.fukusi-sc-yamagata.org",
    "pref": "山形県",
    "city": "新庄市",
    "category": "home_help",
    "serviceType": "訪問介護",
    "capacity": 0,
    "openDays": [
      "平日",
      "土曜日",
      "日曜日",
      "祝日"
    ],
    "openDaysNote": "利用者様の相談・状況に応じて、出来る限り迅速丁寧に対応して参ります。"
  },
  {
    "id": "671100410",
    "name": "ニチイケアセンター若葉",
    "kana": "ニチイケアセンターワカバ",
    "address": "新庄市若葉町24-19スプレム21　1F スプレム21　1F",
    "lat": 38.7600156,
    "lng": 140.301191,
    "tel": "0233-28-0050",
    "url": "",
    "pref": "山形県",
    "city": "新庄市",
    "category": "home_help",
    "serviceType": "訪問介護",
    "capacity": 40,
    "openDays": [
      "平日"
    ],
    "openDaysNote": "土日祝日、早朝夜間も居宅サービス計画によりサービス提供いたします。"
  },
  {
    "id": "671101095",
    "name": "ヘルパーセンター神室荘",
    "kana": "ヘルパーセンターカムロソウ",
    "address": "山形県新庄市十日町1319番地養護老人ホーム神室荘内 養護老人ホーム神室荘内",
    "lat": 38.7889352,
    "lng": 140.3115928,
    "tel": "0233-22-4142",
    "url": "",
    "pref": "山形県",
    "city": "新庄市",
    "category": "home_help",
    "serviceType": "訪問介護",
    "capacity": 0,
    "openDays": [
      "平日",
      "土曜日",
      "日曜日",
      "祝日"
    ],
    "openDaysNote": ""
  },
  {
    "id": "671100030",
    "name": "もみの木訪問介護事業所",
    "kana": "モミノキホウモンカイゴジギョウショ",
    "address": "山形県新庄市五日町字宮内２４０番地２",
    "lat": 38.7591934,
    "lng": 140.2880372,
    "tel": "0233-22-5790",
    "url": "http://www.shinjo-shakyo.or.jp/",
    "pref": "山形県",
    "city": "新庄市",
    "category": "home_help",
    "serviceType": "訪問介護",
    "capacity": 0,
    "openDays": [
      "平日",
      "土曜日",
      "日曜日",
      "祝日"
    ],
    "openDaysNote": "特になし"
  },
  {
    "id": "671100378",
    "name": "医療法人徳洲会　新庄徳洲会介護センター",
    "kana": "イリョウホウジントクシュウカイ　シンジョウトクシュウカイカイゴセンター",
    "address": "山形県新庄市大字鳥越字駒場4623",
    "lat": 38.7382994,
    "lng": 140.3113809,
    "tel": "0233-28-1808",
    "url": "http://www.shin-toku.com",
    "pref": "山形県",
    "city": "新庄市",
    "category": "home_help",
    "serviceType": "訪問介護",
    "capacity": 0,
    "openDays": [
      "平日",
      "土曜日",
      "日曜日",
      "祝日"
    ],
    "openDaysNote": "訪問介護に於いては24時間対応可能。サービス提供時間は事前に居宅介護支援事業所により計画された居宅サービス計画書に基づくものとし、原則として緊急のサービスをお受けする事は出来ません。"
  },
  {
    "id": "671100238",
    "name": "新庄地域福祉事業所ヘルパーステーションさんのほり",
    "kana": "シンジョウチイキフクシジギョウショヘルパーステーションサンノホリ",
    "address": "山形県新庄市大字鳥越1013-37",
    "lat": 38.7459003011691,
    "lng": 140.304815297267,
    "tel": "0233-28-9371",
    "url": "",
    "pref": "山形県",
    "city": "新庄市",
    "category": "home_help",
    "serviceType": "訪問介護",
    "capacity": 0,
    "openDays": [
      "平日",
      "土曜日",
      "日曜日",
      "祝日"
    ],
    "openDaysNote": "24時間対応"
  },
  {
    "id": "671101293",
    "name": "訪問介護事業所・のぞみ",
    "kana": "ホウモンカイゴジギョウショ　ノゾミ",
    "address": "山形県新庄市金沢2575番地",
    "lat": 38.7516331412157,
    "lng": 140.3043649,
    "tel": "0233-23-5071",
    "url": "",
    "pref": "山形県",
    "city": "新庄市",
    "category": "home_help",
    "serviceType": "訪問介護",
    "capacity": 0,
    "openDays": [
      "平日",
      "土曜日",
      "日曜日",
      "祝日"
    ],
    "openDaysNote": "営業時間外でも、ご利用者様のご要望により対応いたします。"
  },
  {
    "id": "671101004",
    "name": "訪問介護事業所すまいる",
    "kana": "ホウモンカイゴジギョウショスマイル",
    "address": "新庄市金沢2002番地１",
    "lat": 38.7514304145217,
    "lng": 140.311497978044,
    "tel": "0233-32-1300",
    "url": "http://hp.kaipoke.biz/x7f/",
    "pref": "山形県",
    "city": "新庄市",
    "category": "home_help",
    "serviceType": "訪問介護",
    "capacity": 0,
    "openDays": [
      "平日",
      "土曜日",
      "日曜日",
      "祝日"
    ],
    "openDaysNote": "サービス提供時間は、事前に居宅介護支援事業者等により、計画された居宅サービス計画に基づき、営業日、営業時間、サービス提供時間のほか、電話等により24時間常時連絡が可能な体制とする。"
  },
  {
    "id": "671100048",
    "name": "有限会社ケアワーク新庄訪問介護事業所",
    "kana": "ユウゲンカイシャケアワークシンジョウホウモンカイゴジギョウショ",
    "address": "山形県新庄市上金沢町9番37号",
    "lat": 38.7527336,
    "lng": 140.3058169,
    "tel": "0233-22-2415",
    "url": "http://carework-shinjo.na.coocan.jp",
    "pref": "山形県",
    "city": "新庄市",
    "category": "home_help",
    "serviceType": "訪問介護",
    "capacity": null,
    "openDays": [
      "平日",
      "土曜日",
      "日曜日",
      "祝日"
    ],
    "openDaysNote": "年間を通じヘルパーは交代制で無休"
  },
  {
    "id": "672500477",
    "name": "ホームヘルパーステーション「ゆうゆう」",
    "kana": "ホームヘルパーステーション「ユウユウ」",
    "address": "山形県最上郡真室川町大字新町４６９番５",
    "lat": 38.8514575964263,
    "lng": 140.247747959525,
    "tel": "0233-62-3431",
    "url": "",
    "pref": "山形県",
    "city": "真室川町",
    "category": "home_help",
    "serviceType": "訪問介護",
    "capacity": 0,
    "openDays": [
      "平日",
      "土曜日",
      "日曜日",
      "祝日"
    ],
    "openDaysNote": "特になし"
  },
  {
    "id": "672300530",
    "name": "ケアハイツ西川指定訪問介護事業所",
    "kana": "ケアハイツニシカワシテイホウモンカイゴジギョウショ",
    "address": "山形県西村山郡西川町大字海味５４８",
    "lat": 38.4268296,
    "lng": 140.1461473,
    "tel": "0237-74-4065",
    "url": "https://care-h-n.or.jp/",
    "pref": "山形県",
    "city": "西川町",
    "category": "home_help",
    "serviceType": "訪問介護",
    "capacity": 0,
    "openDays": [],
    "openDaysNote": "なし"
  },
  {
    "id": "672600137",
    "name": "川西町社会福祉協議会訪問介護事業所",
    "kana": "カワニシマチシャカイフクシキョウギカイホウモンカイゴジギョウショ",
    "address": "山形県東置賜郡川西町大字上小松２９１８－２",
    "lat": 38.0019713,
    "lng": 140.0402208,
    "tel": "0238-46-5500",
    "url": "http://www5.omn.ne.jp/~kawanishi/",
    "pref": "山形県",
    "city": "川西町",
    "category": "home_help",
    "serviceType": "訪問介護",
    "capacity": 60,
    "openDays": [
      "平日",
      "土曜日",
      "日曜日",
      "祝日"
    ],
    "openDaysNote": "時間外は携帯電話で連絡可能"
  },
  {
    "id": "671400158",
    "name": "ニチイケアセンター村山",
    "kana": "ニチイケアセンタームラヤマ",
    "address": "山形県村山市楯岡五日町16-15",
    "lat": 38.4780527,
    "lng": 140.3870354,
    "tel": "0237-52-0233",
    "url": "http://www.nichiigakkan.co.jp",
    "pref": "山形県",
    "city": "村山市",
    "category": "home_help",
    "serviceType": "訪問介護",
    "capacity": 0,
    "openDays": [
      "平日",
      "土曜日",
      "日曜日",
      "祝日"
    ],
    "openDaysNote": "居宅サービス計画により、定休日および営業時間外であっても、サービスを提供する場合あり。（当事業所の営業時間は24時間、年中無休とする）"
  },
  {
    "id": "671400380",
    "name": "指定訪問介護事業所　村山光ホーム",
    "kana": "シテイホウモンカイゴジギョウショ　ムラヤマヒカリホーム",
    "address": "山形県村山市楯岡笛田二丁目19番40号",
    "lat": 38.4793113,
    "lng": 140.4027728,
    "tel": "0237-53-2520",
    "url": "http://murayama-hikari-kouseikai.jp/",
    "pref": "山形県",
    "city": "村山市",
    "category": "home_help",
    "serviceType": "訪問介護",
    "capacity": 0,
    "openDays": [
      "平日",
      "土曜日",
      "日曜日",
      "祝日"
    ],
    "openDaysNote": "但し、営業時間外にも相談に応じます。"
  },
  {
    "id": "671400075",
    "name": "村山市社会福祉協議会訪問介護事業所",
    "kana": "ムラヤマシシャカイフクシキョウギカイホウモンカイゴジギョウショ",
    "address": "山形県村山市中央１－５－２４",
    "lat": 38.4814939,
    "lng": 140.378986,
    "tel": "0237-52-0322",
    "url": "http://www1.ocn.ne.jp/^m･syakyo",
    "pref": "山形県",
    "city": "村山市",
    "category": "home_help",
    "serviceType": "訪問介護",
    "capacity": 0,
    "openDays": [
      "平日",
      "土曜日",
      "日曜日",
      "祝日"
    ],
    "openDaysNote": "12/31～1/3は休業日となります。（緊急時は電話受付で随時対応している。）"
  },
  {
    "id": "671400174",
    "name": "訪問介護こでまりの会",
    "kana": "ホウモンカイゴコデマリノカイ",
    "address": "山形県村山市駅西18番23号バーンアネックスC バーンアネックスC",
    "lat": 38.4769833,
    "lng": 140.3844107,
    "tel": "0237-55-8555",
    "url": "",
    "pref": "山形県",
    "city": "村山市",
    "category": "home_help",
    "serviceType": "訪問介護",
    "capacity": 0,
    "openDays": [
      "平日",
      "土曜日"
    ],
    "openDaysNote": "利用者により時間外対応可能。"
  },
  {
    "id": "671400430",
    "name": "訪問介護ベテスダ",
    "kana": "ホウモンカイゴベテスダ",
    "address": "山形県村山市大字湯野沢1922-2",
    "lat": 38.4712953,
    "lng": 140.32106,
    "tel": "0237-54-3591",
    "url": "",
    "pref": "山形県",
    "city": "村山市",
    "category": "home_help",
    "serviceType": "訪問介護",
    "capacity": null,
    "openDays": [
      "平日",
      "土曜日"
    ],
    "openDaysNote": ""
  },
  {
    "id": "672400058",
    "name": "ヘルプセンター大石田",
    "kana": "ヘルプセンターオオイシダ",
    "address": "山形県北村山郡大石田町大字大石田甲574番地",
    "lat": 38.5993305520682,
    "lng": 140.375855635474,
    "tel": "0237-35-3040",
    "url": "https://keitennkai.or.jp",
    "pref": "山形県",
    "city": "大石田町",
    "category": "home_help",
    "serviceType": "訪問介護",
    "capacity": 0,
    "openDays": [
      "平日",
      "土曜日",
      "日曜日",
      "祝日"
    ],
    "openDaysNote": "なし"
  },
  {
    "id": "672200136",
    "name": "中山ひまわり荘指定訪問介護事業所",
    "kana": "ナカヤマヒマワリソウシテイホウモンカイゴジギョウショ",
    "address": "山形県東村山郡中山町大字柳沢２３３３番地",
    "lat": 38.3292051,
    "lng": 140.2597557,
    "tel": "023-662-6635",
    "url": "",
    "pref": "山形県",
    "city": "中山町",
    "category": "home_help",
    "serviceType": "訪問介護",
    "capacity": 0,
    "openDays": [
      "平日",
      "土曜日",
      "日曜日",
      "祝日"
    ],
    "openDaysNote": "平日以外は人員的に対応できない場合がありますのでご相談ください。"
  },
  {
    "id": "672300217",
    "name": "社会福祉法人朝日町社会福祉協議会指定訪問介護事業所",
    "kana": "シャカイフクシホウジンアサヒマチシャカイフクシキョウギカイシテイホウモンカイゴジギョウショ",
    "address": "山形県西村山郡朝日町大字宮宿1115番地",
    "lat": 38.2991733,
    "lng": 140.1459641,
    "tel": "0237-67-2463",
    "url": "",
    "pref": "山形県",
    "city": "朝日町",
    "category": "home_help",
    "serviceType": "訪問介護",
    "capacity": 0,
    "openDays": [
      "平日",
      "土曜日",
      "日曜日",
      "祝日"
    ],
    "openDaysNote": "サービス提供日：1月1日を除く全日"
  },
  {
    "id": "671500130",
    "name": "ケアサービスさくら　指定訪問介護事業所",
    "kana": "ケアサービスサクラ　シテイホウモンカイゴジギョウショ",
    "address": "山形県長井市平山２７８２番地",
    "lat": 38.1060475144639,
    "lng": 140.011652019024,
    "tel": "0238-87-1175",
    "url": "",
    "pref": "山形県",
    "city": "長井市",
    "category": "home_help",
    "serviceType": "訪問介護",
    "capacity": 0,
    "openDays": [
      "平日",
      "土曜日",
      "日曜日",
      "祝日"
    ],
    "openDaysNote": "１月１日休業　　　　　利用時間帯により加算料金あり"
  },
  {
    "id": "671500304",
    "name": "ヘルパーステーション　風ぐるま",
    "kana": "ヘルパーステーション　カザグルマ",
    "address": "山形県長井市今泉2945-3",
    "lat": 38.0523859,
    "lng": 140.0457315,
    "tel": "0238-88-5660",
    "url": "https://curedream.com",
    "pref": "山形県",
    "city": "長井市",
    "category": "home_help",
    "serviceType": "訪問介護",
    "capacity": 0,
    "openDays": [
      "平日",
      "土曜日",
      "日曜日",
      "祝日"
    ],
    "openDaysNote": "24時間対応"
  },
  {
    "id": "671500502",
    "name": "株式会社サン十字ホームヘルプサービス長井",
    "kana": "カブシキカイシャサンジュウジホームヘルプサービスナガイ",
    "address": "山形県長井市栄町4番21号ダイワビル２階 ダイワビル２階",
    "lat": 38.1068908,
    "lng": 140.0370852,
    "tel": "0238ー84－8037",
    "url": "http://www.pro-care-sanjyuji.jp",
    "pref": "山形県",
    "city": "長井市",
    "category": "home_help",
    "serviceType": "訪問介護",
    "capacity": 0,
    "openDays": [
      "平日",
      "土曜日",
      "日曜日",
      "祝日"
    ],
    "openDaysNote": "早朝7：00～8：00、夜間18：00～21：00帯は割り増し料25％加算"
  },
  {
    "id": "671500023",
    "name": "長井市社会福祉協議会　指定訪問介護事業所",
    "kana": "ナガイシシャカイフクシキョウギカイ　シテイホウモンカイゴジギョウショ",
    "address": "山形県長井市館町北6番19号",
    "lat": 38.1007,
    "lng": 140.0433545,
    "tel": "0238-88-3711",
    "url": "http://nagai-shakyo.jp/",
    "pref": "山形県",
    "city": "長井市",
    "category": "home_help",
    "serviceType": "訪問介護",
    "capacity": 0,
    "openDays": [
      "平日",
      "土曜日",
      "日曜日",
      "祝日"
    ],
    "openDaysNote": "要望があれば24時間対応"
  },
  {
    "id": "670701507",
    "name": "ケアリッツ",
    "kana": "ケアリッツ",
    "address": "山形県鶴岡市羽黒町川代字八森238番地",
    "lat": 38.6900584,
    "lng": 139.9207299,
    "tel": "0235-33-8855",
    "url": "",
    "pref": "山形県",
    "city": "鶴岡市",
    "category": "home_help",
    "serviceType": "訪問介護",
    "capacity": 21,
    "openDays": [
      "平日",
      "土曜日",
      "日曜日",
      "祝日"
    ],
    "openDaysNote": ""
  },
  {
    "id": "670700640",
    "name": "すずらん・ケア有限会社",
    "kana": "スズラン・ケアユウゲンガイシャ",
    "address": "鶴岡市日出一丁目３番３１号",
    "lat": 38.722545,
    "lng": 139.8424572,
    "tel": "0235-24-7557",
    "url": "",
    "pref": "山形県",
    "city": "鶴岡市",
    "category": "home_help",
    "serviceType": "訪問介護",
    "capacity": 0,
    "openDays": [
      "平日",
      "土曜日",
      "日曜日",
      "祝日"
    ],
    "openDaysNote": "２４時間対応"
  },
  {
    "id": "670700376",
    "name": "ニチイケアセンタ－鶴岡",
    "kana": "ニチイケアセンタ－ツルオカ",
    "address": "山形県鶴岡市若葉町23番38号",
    "lat": 38.7317523,
    "lng": 139.8270361,
    "tel": "0235-29-6889",
    "url": "http://www.nichiigakkan.co.jp",
    "pref": "山形県",
    "city": "鶴岡市",
    "category": "home_help",
    "serviceType": "訪問介護",
    "capacity": 0,
    "openDays": [
      "平日",
      "土曜日",
      "日曜日",
      "祝日"
    ],
    "openDaysNote": "但し、居宅サ－ビス計画により、営業時間外であってもサ－ビスの提供を行なう場合がある。"
  },
  {
    "id": "670702034",
    "name": "ニチイケアセンター桜新町",
    "kana": "ニチイケアセンターサクラシンマチ",
    "address": "山形県鶴岡市桜新町12番12号",
    "lat": 38.7177845852775,
    "lng": 139.840078875533,
    "tel": "0235-28-1810",
    "url": "http://www.nichiigakkan.co.jp",
    "pref": "山形県",
    "city": "鶴岡市",
    "category": "home_help",
    "serviceType": "訪問介護",
    "capacity": 0,
    "openDays": [
      "平日",
      "土曜日",
      "日曜日",
      "祝日"
    ],
    "openDaysNote": "但し、居宅サービス計画により、営業時間外であってもサービスの提供を行う場合がある。"
  },
  {
    "id": "670700491",
    "name": "ニチイケアセンター鶴岡みさき",
    "kana": "ニチイケアセンターツルオカミサキ",
    "address": "山形県鶴岡市美咲町7-16",
    "lat": 38.7359652,
    "lng": 139.80043,
    "tel": "0235-29-0305",
    "url": "http://www.nichiigakkan.co.jp",
    "pref": "山形県",
    "city": "鶴岡市",
    "category": "home_help",
    "serviceType": "訪問介護",
    "capacity": 0,
    "openDays": [
      "平日",
      "土曜日",
      "日曜日",
      "祝日"
    ],
    "openDaysNote": "但し、居宅サービス計画により、休業日、営業時間外であってもサービスの提供を行う場合がある。"
  },
  {
    "id": "670702026",
    "name": "ニチイケアセンター宝田",
    "kana": "ニチイケアセンタータカラダ",
    "address": "山形県鶴岡市宝田三丁目10番45号",
    "lat": 38.7499978,
    "lng": 139.8466084,
    "tel": "0235-33-8527",
    "url": "http://www.nichiigakkan.co.jp",
    "pref": "山形県",
    "city": "鶴岡市",
    "category": "home_help",
    "serviceType": "訪問介護",
    "capacity": 0,
    "openDays": [
      "平日",
      "土曜日",
      "日曜日",
      "祝日"
    ],
    "openDaysNote": "但し、居宅サービス計画により、営業時間外であってもサービスの提供を行う場合がある。"
  },
  {
    "id": "670700566",
    "name": "のぞみの園訪問介護サービス",
    "kana": "ノゾミノソノホウモンカイゴサービス",
    "address": "山形県鶴岡市北茅原町5-10",
    "lat": 38.754727166442,
    "lng": 139.841059459247,
    "tel": "0235-25-5055",
    "url": "http://www.mituwakai.com",
    "pref": "山形県",
    "city": "鶴岡市",
    "category": "home_help",
    "serviceType": "訪問介護",
    "capacity": 0,
    "openDays": [
      "平日",
      "土曜日",
      "日曜日",
      "祝日"
    ],
    "openDaysNote": "24時間対応"
  },
  {
    "id": "670701242",
    "name": "ヘルパーステーション　あさひ",
    "kana": "ヘルパーステーション　アサヒ",
    "address": "山形県鶴岡市熊出字日鑓31番地3",
    "lat": 38.6168234,
    "lng": 139.8366619,
    "tel": "0235-58-1510",
    "url": "http://www.turuoka-kyoritu-hp.or.jp",
    "pref": "山形県",
    "city": "鶴岡市",
    "category": "home_help",
    "serviceType": "訪問介護",
    "capacity": 0,
    "openDays": [
      "平日",
      "土曜日",
      "日曜日",
      "祝日"
    ],
    "openDaysNote": "24時間を標榜"
  },
  {
    "id": "670701093",
    "name": "ヘルパーステーションぬくもり",
    "kana": "ヘルパーステーションヌクモリ",
    "address": "鶴岡市日枝字海老島３６番４号",
    "lat": 38.7131513,
    "lng": 139.8261617,
    "tel": "0235-28-1588",
    "url": "http://www.shonai-niji.jp/",
    "pref": "山形県",
    "city": "鶴岡市",
    "category": "home_help",
    "serviceType": "訪問介護",
    "capacity": 0,
    "openDays": [
      "平日",
      "土曜日",
      "日曜日",
      "祝日"
    ],
    "openDaysNote": "２４時間を標榜"
  },
  {
    "id": "670702075",
    "name": "ヘルパーステーション奏",
    "kana": "ヘルパーステーションカナデ",
    "address": "山形県鶴岡市藤沢字石渡15-12",
    "lat": 38.6974942587598,
    "lng": 139.776375839431,
    "tel": "0235-64-1158",
    "url": "https://www.toyomi-rd.jp/",
    "pref": "山形県",
    "city": "鶴岡市",
    "category": "home_help",
    "serviceType": "訪問介護",
    "capacity": 0,
    "openDays": [
      "平日",
      "土曜日",
      "日曜日",
      "祝日"
    ],
    "openDaysNote": ""
  },
  {
    "id": "670701549",
    "name": "ヘルパーセンター　アライブ",
    "kana": "ヘルパーセンター　アライブ",
    "address": "山形県鶴岡市昭和町７番１６号",
    "lat": 38.7266507599567,
    "lng": 139.834811697553,
    "tel": "0235-33-8826",
    "url": "http://codee8826.web.fc2.com/",
    "pref": "山形県",
    "city": "鶴岡市",
    "category": "home_help",
    "serviceType": "訪問介護",
    "capacity": 0,
    "openDays": [
      "平日",
      "土曜日",
      "日曜日",
      "祝日"
    ],
    "openDaysNote": ""
  },
  {
    "id": "673000386",
    "name": "ホームヘルパーかみじ荘",
    "kana": "ホームヘルパーカミジソウ",
    "address": "山形県鶴岡市羽黒町手向薬師沢１９８番地３",
    "lat": 38.7180786,
    "lng": 139.9411353,
    "tel": "0235-62-2007",
    "url": "http://care-net.biz/06/kamiji/b11.php",
    "pref": "山形県",
    "city": "鶴岡市",
    "category": "home_help",
    "serviceType": "訪問介護",
    "capacity": 0,
    "openDays": [
      "平日",
      "土曜日",
      "日曜日",
      "祝日"
    ],
    "openDaysNote": "但し、電話等により連絡可能な体制とする。"
  },
  {
    "id": "670700293",
    "name": "ホームヘルパーセンターしおん",
    "kana": "ホームヘルパーセンターシオン",
    "address": "山形県鶴岡市馬町字枇杷川原23番地",
    "lat": 38.7634846021635,
    "lng": 139.767826618708,
    "tel": "0235-26-7627",
    "url": "https://www.sionkai.or.jp/",
    "pref": "山形県",
    "city": "鶴岡市",
    "category": "home_help",
    "serviceType": "訪問介護",
    "capacity": 0,
    "openDays": [
      "平日",
      "土曜日",
      "日曜日",
      "祝日"
    ],
    "openDaysNote": "上記営業時間外でも対応いたします。"
  },
  {
    "id": "670700137",
    "name": "ホームヘルパーセンターともえ",
    "kana": "ホームヘルパーセンタートモエ",
    "address": "山形県鶴岡市北茅原町17番1号",
    "lat": 38.7577208516171,
    "lng": 139.84250285818,
    "tel": "0235-35-0913",
    "url": "http://www.keisen-swc.jp",
    "pref": "山形県",
    "city": "鶴岡市",
    "category": "home_help",
    "serviceType": "訪問介護",
    "capacity": 0,
    "openDays": [
      "平日",
      "土曜日",
      "日曜日",
      "祝日"
    ],
    "openDaysNote": ""
  },
  {
    "id": "673100053",
    "name": "ホームヘルプ温寿荘",
    "kana": "ホームヘルプオンジュソウ",
    "address": "山形県鶴岡市槙代丁53番地１",
    "lat": 38.6012141,
    "lng": 139.593908,
    "tel": "0235-43-2182",
    "url": "http://atumihukushikai.jp",
    "pref": "山形県",
    "city": "鶴岡市",
    "category": "home_help",
    "serviceType": "訪問介護",
    "capacity": 0,
    "openDays": [
      "平日",
      "土曜日",
      "日曜日",
      "祝日"
    ],
    "openDaysNote": "時間帯によりサービス料金が異なります。"
  },
  {
    "id": "670702042",
    "name": "みつたま訪問介護事業所",
    "kana": "ミツタマホウモンカイゴジギョウショ",
    "address": "山形県鶴岡市大西町19番14号",
    "lat": 38.7283903,
    "lng": 139.8077559,
    "tel": "0235-23-7208",
    "url": "",
    "pref": "山形県",
    "city": "鶴岡市",
    "category": "home_help",
    "serviceType": "訪問介護",
    "capacity": 0,
    "openDays": [
      "平日",
      "土曜日"
    ],
    "openDaysNote": ""
  },
  {
    "id": "670700335",
    "name": "健楽園ホームヘルパーセンター",
    "kana": "ケンラクエンホームヘルパーセンター",
    "address": "山形県鶴岡市美原町３番７号",
    "lat": 38.7218226,
    "lng": 139.8211925,
    "tel": "0235-25-3047",
    "url": "http://ikkoukai.or.jp",
    "pref": "山形県",
    "city": "鶴岡市",
    "category": "home_help",
    "serviceType": "訪問介護",
    "capacity": 50,
    "openDays": [
      "平日",
      "土曜日",
      "日曜日",
      "祝日"
    ],
    "openDaysNote": "なし"
  },
  {
    "id": "670701994",
    "name": "在宅支援サービス　澄花",
    "kana": "ザイタクシエンサービス　スミカ",
    "address": "山形県鶴岡市大山字堤下2番31号",
    "lat": 38.7477999106391,
    "lng": 139.75741403515,
    "tel": "0235-35-1667",
    "url": "http://third-stage",
    "pref": "山形県",
    "city": "鶴岡市",
    "category": "home_help",
    "serviceType": "訪問介護",
    "capacity": 0,
    "openDays": [
      "平日",
      "土曜日",
      "日曜日",
      "祝日"
    ],
    "openDaysNote": ""
  },
  {
    "id": "670701788",
    "name": "庄内たがわ農業協同組合",
    "kana": "シヨウナイタガワノウギョウキョウドウクミアイ",
    "address": "山形県鶴岡市長沼字宮前23番1",
    "lat": 38.8030905521287,
    "lng": 139.873939676728,
    "tel": "0235-33-8165",
    "url": "http://www.ja-shonai.or.jp/",
    "pref": "山形県",
    "city": "鶴岡市",
    "category": "home_help",
    "serviceType": "訪問介護",
    "capacity": 0,
    "openDays": [
      "平日",
      "土曜日",
      "日曜日",
      "祝日"
    ],
    "openDaysNote": ""
  },
  {
    "id": "670701200",
    "name": "瑞穂の郷　訪問介護ステーション",
    "kana": "ミズホノサト　ホウモンカイゴステーション",
    "address": "鶴岡市羽黒町細谷字北田１２８－１",
    "lat": 38.737413,
    "lng": 139.8616022,
    "tel": "0235-29-1025",
    "url": "http://www.hcp-net.co.jp",
    "pref": "山形県",
    "city": "鶴岡市",
    "category": "home_help",
    "serviceType": "訪問介護",
    "capacity": 0,
    "openDays": [
      "平日",
      "土曜日",
      "日曜日",
      "祝日"
    ],
    "openDaysNote": "年中無休、２４時間対応"
  },
  {
    "id": "670701614",
    "name": "鶴岡市社会福祉協議会訪問介護事業所",
    "kana": "ツルオカシシャカイフクシキョウギカイホウモンカイゴジギョウショ",
    "address": "山形県鶴岡市西新斎町１４番２６号鶴岡ふれあいプラザかたりあい 鶴岡ふれあいプラザかたりあい",
    "lat": 38.7378404,
    "lng": 139.8144204,
    "tel": "0235-64-0301",
    "url": "http://www.shk01.jp/",
    "pref": "山形県",
    "city": "鶴岡市",
    "category": "home_help",
    "serviceType": "訪問介護",
    "capacity": 0,
    "openDays": [
      "平日",
      "土曜日",
      "日曜日",
      "祝日"
    ],
    "openDaysNote": "365日・24時間"
  },
  {
    "id": "670700269",
    "name": "鶴岡地域福祉事業所ヘルパーステーション海老島",
    "kana": "ツルオカチイキフクシジギョウショヘルパーステーションエビジマ",
    "address": "山形県鶴岡市大西町3番35号",
    "lat": 38.7286788319023,
    "lng": 139.810929269897,
    "tel": "0235-28-1760",
    "url": "",
    "pref": "山形県",
    "city": "鶴岡市",
    "category": "home_help",
    "serviceType": "訪問介護",
    "capacity": 0,
    "openDays": [
      "平日",
      "土曜日",
      "日曜日",
      "祝日"
    ],
    "openDaysNote": "24時間対応とするが状況に応じる"
  },
  {
    "id": "670701812",
    "name": "訪問介護　きんもくせい",
    "kana": "ホウモンカイゴ　キンモクセイ",
    "address": "山形県鶴岡市上山添字神明前310",
    "lat": 38.6770074740952,
    "lng": 139.843774991054,
    "tel": "0235-26-0267",
    "url": "http://www.kaigo-kinmokusei.jp",
    "pref": "山形県",
    "city": "鶴岡市",
    "category": "home_help",
    "serviceType": "訪問介護",
    "capacity": 30,
    "openDays": [
      "平日",
      "土曜日",
      "日曜日",
      "祝日"
    ],
    "openDaysNote": ""
  },
  {
    "id": "670700111",
    "name": "訪問介護ひまわり",
    "kana": "ホウモンカイゴヒマワリ",
    "address": "山形県鶴岡市稲生一丁目3番5号",
    "lat": 38.7206169,
    "lng": 139.8124655,
    "tel": "0235-25-5145",
    "url": "https://www.himawari-s.co.jp",
    "pref": "山形県",
    "city": "鶴岡市",
    "category": "home_help",
    "serviceType": "訪問介護",
    "capacity": 0,
    "openDays": [
      "平日",
      "土曜日",
      "日曜日",
      "祝日"
    ],
    "openDaysNote": "24時間対応（応相談）"
  },
  {
    "id": "671601136",
    "name": "ＳＯＭＰＯケア　天童　訪問介護",
    "kana": "ソンポケア　テンドウ　ホウモンカイゴ",
    "address": "山形県天童市老野森２丁目７－１熊沢テナント１号 熊沢テナント１号",
    "lat": 38.3628702,
    "lng": 140.3764388,
    "tel": "023-658-7422",
    "url": "https://www.sompocare.com",
    "pref": "山形県",
    "city": "天童市",
    "category": "home_help",
    "serviceType": "訪問介護",
    "capacity": 0,
    "openDays": [
      "平日",
      "土曜日",
      "日曜日",
      "祝日"
    ],
    "openDaysNote": "２４時間３６５日"
  },
  {
    "id": "671600153",
    "name": "ニチイケアセンター天童",
    "kana": "ニチイケアセンターテンドウ",
    "address": "山形県天童市中里７－４－５",
    "lat": 38.3278872,
    "lng": 140.3658512,
    "tel": "023-658-4467",
    "url": "http://www.nichiigakkan.co.jp",
    "pref": "山形県",
    "city": "天童市",
    "category": "home_help",
    "serviceType": "訪問介護",
    "capacity": 0,
    "openDays": [
      "平日"
    ],
    "openDaysNote": "居宅サービス計画により、休業日および営業時間外であってもサービスを提供する場合があります。"
  },
  {
    "id": "671600179",
    "name": "清幸園ヘルパーステーション",
    "kana": "セイコウエンヘルパーステーション",
    "address": "天童市大清水４９１番地１",
    "lat": 38.3875423,
    "lng": 140.3527558,
    "tel": "023-651-3323",
    "url": "http://www.seikouen.or.jp",
    "pref": "山形県",
    "city": "天童市",
    "category": "home_help",
    "serviceType": "訪問介護",
    "capacity": 0,
    "openDays": [
      "平日",
      "土曜日",
      "祝日"
    ],
    "openDaysNote": "時間帯により料金は異なります。（改行）時間帯に関しては応相談"
  },
  {
    "id": "671600112",
    "name": "天童市訪問介護サービス事業所",
    "kana": "テンドウシホウモンカイゴサービスジギョウショ",
    "address": "天童市老野森二丁目6番3号",
    "lat": 38.3638145,
    "lng": 140.3739223,
    "tel": "023-658-7355",
    "url": "http://www.tendo-shakyo.or.jp/",
    "pref": "山形県",
    "city": "天童市",
    "category": "home_help",
    "serviceType": "訪問介護",
    "capacity": 1,
    "openDays": [
      "平日",
      "土曜日",
      "日曜日",
      "祝日"
    ],
    "openDaysNote": "時間帯による割り増し等については、介護保険の介護報酬にそって実施されます。（改行）通常料金帯　8：00～18：00（改行）25％増し　　早朝・夜間　詳しくは介護支援専門員か窓口にご相談下さい。"
  },
  {
    "id": "671600963",
    "name": "特定非営利活動法人福祉グループコアラやまがた県央",
    "kana": "トクテイヒエイリカツドウホウジンフクシグループコアラヤマガタケンオウ",
    "address": "山形県天童市老野森1-5-16",
    "lat": 38.3586762,
    "lng": 140.3787053,
    "tel": "023-651-8038",
    "url": "https://www.koalaymgt.com",
    "pref": "山形県",
    "city": "天童市",
    "category": "home_help",
    "serviceType": "訪問介護",
    "capacity": 0,
    "openDays": [
      "平日",
      "土曜日",
      "祝日"
    ],
    "openDaysNote": ""
  },
  {
    "id": "671700219",
    "name": "にこにこヘルパーステーション",
    "kana": "ニコニコヘルパーステーション",
    "address": "東根市温泉町2丁目1-19",
    "lat": 38.4587439827664,
    "lng": 140.391270526343,
    "tel": "0237-41-1125",
    "url": "http://www.nikoniko-life.com",
    "pref": "山形県",
    "city": "東根市",
    "category": "home_help",
    "serviceType": "訪問介護",
    "capacity": 0,
    "openDays": [
      "平日",
      "土曜日",
      "日曜日",
      "祝日"
    ],
    "openDaysNote": "介護員の配置の都合で、提供時間の変更をお願いすることがある。"
  },
  {
    "id": "671700110",
    "name": "ニチイケアセンター東根",
    "kana": "ニチイケアセンターヒガシネ",
    "address": "東根市神町東１丁目17-30",
    "lat": 38.4102707,
    "lng": 140.383864,
    "tel": "0237-49-1551",
    "url": "",
    "pref": "山形県",
    "city": "東根市",
    "category": "home_help",
    "serviceType": "訪問介護",
    "capacity": 0,
    "openDays": [
      "平日",
      "土曜日",
      "日曜日",
      "祝日"
    ],
    "openDaysNote": "居宅サービス計画書により時間外でもサービス提供を行なう場合があります。"
  },
  {
    "id": "671700649",
    "name": "ニチイケアセンター東根北",
    "kana": "ニチイケアセンターヒガシネキタ",
    "address": "山形県東根市小林1-4-1ICパレスA103号室 ICパレスA103号室",
    "lat": 38.4253293,
    "lng": 140.3933694,
    "tel": "0237-48-6456",
    "url": "http://www.nichiigakkan.co.jp",
    "pref": "山形県",
    "city": "東根市",
    "category": "home_help",
    "serviceType": "訪問介護",
    "capacity": 0,
    "openDays": [
      "平日",
      "土曜日",
      "日曜日",
      "祝日"
    ],
    "openDaysNote": "居宅サービス計画により、定休日及び営業時間外であっても、サービスを提供する場合あり。（改行）（当事業所の営業時間は24時間、年中無休とする）"
  },
  {
    "id": "671700680",
    "name": "ヘルパーステーション　もり",
    "kana": "ヘルパーステーション　モリ",
    "address": "山形県東根市本丸西4-1-48",
    "lat": 38.4467616,
    "lng": 140.3938576,
    "tel": "0237-48-7739",
    "url": "",
    "pref": "山形県",
    "city": "東根市",
    "category": "home_help",
    "serviceType": "訪問介護",
    "capacity": null,
    "openDays": [
      "平日",
      "土曜日",
      "日曜日",
      "祝日"
    ],
    "openDaysNote": ""
  },
  {
    "id": "671700664",
    "name": "ホームケアなごみ",
    "kana": "ホームケアナゴミ",
    "address": "山形県東根市中央二丁目8-11パートナーE パートナーE",
    "lat": 38.4312207421845,
    "lng": 140.388201204425,
    "tel": "0237-48-9690",
    "url": "https://homecare-nagomi.hp.peraichi.com/1/",
    "pref": "山形県",
    "city": "東根市",
    "category": "home_help",
    "serviceType": "訪問介護",
    "capacity": 0,
    "openDays": [
      "平日",
      "土曜日",
      "日曜日",
      "祝日"
    ],
    "openDaysNote": ""
  },
  {
    "id": "671700045",
    "name": "東根市社会福祉協議会指定訪問介護事業所",
    "kana": "ヒガシネシシャカイフクシキョウギカイシテイホウモンカイゴジギョウショ",
    "address": "東根市中央一丁目3番5号東根市ふれあいセンター 東根市ふれあいセンター",
    "lat": 38.43121,
    "lng": 140.3928486,
    "tel": "0237-53-8211",
    "url": "http://www.higashine-shakyo.or.jp",
    "pref": "山形県",
    "city": "東根市",
    "category": "home_help",
    "serviceType": "訪問介護",
    "capacity": 0,
    "openDays": [
      "平日",
      "土曜日",
      "日曜日",
      "祝日"
    ],
    "openDaysNote": ""
  },
  {
    "id": "671700730",
    "name": "訪問介護事業所ほのか",
    "kana": "ホウモンカイゴジギョウショ　ホノカ",
    "address": "山形県東根市大字野川1318",
    "lat": 38.4186923,
    "lng": 140.4350529,
    "tel": "0237-53-6732",
    "url": "roujinhomehana0201@gmail.com",
    "pref": "山形県",
    "city": "東根市",
    "category": "home_help",
    "serviceType": "訪問介護",
    "capacity": null,
    "openDays": [
      "平日",
      "土曜日",
      "日曜日",
      "祝日"
    ],
    "openDaysNote": "・相談できる体制の中で、安心した気持ちで生活出来るようにします。"
  },
  {
    "id": "671900454",
    "name": "ヘルパーステーション　さわやか",
    "kana": "ヘルパーステーション　サワヤカ",
    "address": "山形県南陽市島貫598-3",
    "lat": 38.0464953538359,
    "lng": 140.145454464955,
    "tel": "0238-43-6211",
    "url": "",
    "pref": "山形県",
    "city": "南陽市",
    "category": "home_help",
    "serviceType": "訪問介護",
    "capacity": 0,
    "openDays": [
      "平日",
      "土曜日",
      "日曜日",
      "祝日"
    ],
    "openDaysNote": "通常午前8時から午後5時(御希望により午前6時～8時、午後5時～10時も利用可)"
  },
  {
    "id": "671900215",
    "name": "ほなみホームヘルパーステーション",
    "kana": "ホナミホームヘルパーステーション",
    "address": "山形県南陽市宮内4653番地1",
    "lat": 38.0693780411649,
    "lng": 140.138438257672,
    "tel": "0238-47-6030",
    "url": "http://nanyohonami.or.jp",
    "pref": "山形県",
    "city": "南陽市",
    "category": "home_help",
    "serviceType": "訪問介護",
    "capacity": 0,
    "openDays": [
      "平日",
      "土曜日",
      "日曜日",
      "祝日"
    ],
    "openDaysNote": "ご利用の希望があれば、早朝・夜間も対応させていただきます。"
  },
  {
    "id": "671900546",
    "name": "公徳会ほのぼのケアサービスヘルパーステーション",
    "kana": "コウトクカイホノボノケアサービスヘルパーステーション",
    "address": "山形県南陽市椚塚948‐1",
    "lat": 38.0437338,
    "lng": 140.1720058,
    "tel": "0238-40-0472",
    "url": "http://www.koutoku.or.jp/",
    "pref": "山形県",
    "city": "南陽市",
    "category": "home_help",
    "serviceType": "訪問介護",
    "capacity": null,
    "openDays": [
      "平日",
      "土曜日",
      "日曜日",
      "祝日"
    ],
    "openDaysNote": "事業所の営業時間外でのサービスの提供についてはご相談に応じます。（改行）なお、早朝・夜間帯（午前6時から午前8時、午後6時から午後10時）については25％増し、深夜帯（午後10時から翌朝午前6時）については50％増しとなります。"
  },
  {
    "id": "671900413",
    "name": "山形コアラ",
    "kana": "トクテイヒエイリカツドウホウジンヤマガタコアラ",
    "address": "山形県南陽市椚塚822番地の6",
    "lat": 38.0444259,
    "lng": 140.1711294,
    "tel": "0238-43-3365",
    "url": "",
    "pref": "山形県",
    "city": "南陽市",
    "category": "home_help",
    "serviceType": "訪問介護",
    "capacity": 0,
    "openDays": [
      "平日",
      "土曜日",
      "祝日"
    ],
    "openDaysNote": ""
  },
  {
    "id": "671900405",
    "name": "訪問介護サービスセンター南陽の里",
    "kana": "ホウモンカイゴサービスセンターナンヨウノサト",
    "address": "南陽市宮内1204番地の3",
    "lat": 38.0695144,
    "lng": 140.1445525,
    "tel": "0238-27-0122",
    "url": "http://www.yuuai-kai.or.jp",
    "pref": "山形県",
    "city": "南陽市",
    "category": "home_help",
    "serviceType": "訪問介護",
    "capacity": 3,
    "openDays": [
      "平日",
      "土曜日",
      "日曜日",
      "祝日"
    ],
    "openDaysNote": ""
  },
  {
    "id": "672700481",
    "name": "ケアセンターさわやか",
    "kana": "ケアセンターサワヤカ",
    "address": "山形県西置賜郡飯豊町大字萩生4284-3",
    "lat": 38.0604582,
    "lng": 139.9996071,
    "tel": "0238-87-0391",
    "url": "",
    "pref": "山形県",
    "city": "飯豊町",
    "category": "home_help",
    "serviceType": "訪問介護",
    "capacity": 20,
    "openDays": [
      "平日"
    ],
    "openDaysNote": ""
  },
  {
    "id": "672700093",
    "name": "訪問介護ステーション福祉の里めざみ",
    "kana": "ホウモンカイゴステーションフクシノサトメザミ",
    "address": "山形県西置賜郡飯豊町大字椿3642",
    "lat": 38.0445157,
    "lng": 139.9955869,
    "tel": "0238-86-2231",
    "url": "http://iide-shakyo.jp/",
    "pref": "山形県",
    "city": "飯豊町",
    "category": "home_help",
    "serviceType": "訪問介護",
    "capacity": 0,
    "openDays": [
      "平日",
      "土曜日",
      "日曜日",
      "祝日"
    ],
    "openDaysNote": ""
  },
  {
    "id": "672700465",
    "name": "訪問介護事業所えにし",
    "kana": "ホウモンカイゴジギョウショエニシ",
    "address": "山形県西置賜郡飯豊町大字萩生3608番地１",
    "lat": 38.0615083,
    "lng": 139.9988156,
    "tel": "0238－87－3808",
    "url": "www.caremezami.com",
    "pref": "山形県",
    "city": "飯豊町",
    "category": "home_help",
    "serviceType": "訪問介護",
    "capacity": 0,
    "openDays": [
      "平日",
      "土曜日",
      "祝日"
    ],
    "openDaysNote": ""
  },
  {
    "id": "671800100",
    "name": "尾花沢市社会福祉協議会訪問介護事業所",
    "kana": "オバナザワシシャカイフクシキョウギカイホウモンカイゴジギョウショ",
    "address": "山形県尾花沢市新町3丁目2番5号",
    "lat": 38.603763,
    "lng": 140.4127485,
    "tel": "0237-22-1092",
    "url": "http://www.obanazawa-syakyo.jp",
    "pref": "山形県",
    "city": "尾花沢市",
    "category": "home_help",
    "serviceType": "訪問介護",
    "capacity": 0,
    "openDays": [
      "平日",
      "土曜日",
      "日曜日",
      "祝日"
    ],
    "openDaysNote": "12月29日～１月3日は休みですが、利用者のニーズにより検討致します。"
  },
  {
    "id": "670401926",
    "name": "ＪＡ山形おきたま福祉センター川西",
    "kana": "ジェイエイヤマガタオキタマフクシセンターカワニシ",
    "address": "山形県米沢市広幡町上小菅638-4",
    "lat": 37.9457910212537,
    "lng": 140.078617507902,
    "tel": "0238-40-1845",
    "url": "http://www.okitama-yt-ja.jp",
    "pref": "山形県",
    "city": "米沢市",
    "category": "home_help",
    "serviceType": "訪問介護",
    "capacity": 0,
    "openDays": [
      "平日",
      "祝日"
    ],
    "openDaysNote": "定休日（土曜・日曜）及び年末年始は希望に応じて対応する。"
  },
  {
    "id": "670400431",
    "name": "おいたまの郷指定訪問介護事業所",
    "kana": "オイタマノサトシテイホウモンカイゴジギョウショ",
    "address": "米沢市下新田28番地",
    "lat": 37.9595032,
    "lng": 140.1482283,
    "tel": "0238-37-7788",
    "url": "http://oitamanosato.jp",
    "pref": "山形県",
    "city": "米沢市",
    "category": "home_help",
    "serviceType": "訪問介護",
    "capacity": 0,
    "openDays": [
      "平日",
      "土曜日",
      "祝日"
    ],
    "openDaysNote": "なし"
  },
  {
    "id": "670401975",
    "name": "ケアセンターてらす",
    "kana": "ケアセンターテラス",
    "address": "山形県米沢市窪田町窪田1435-13",
    "lat": 37.9548036,
    "lng": 140.1253044,
    "tel": "0238-27-8695",
    "url": "",
    "pref": "山形県",
    "city": "米沢市",
    "category": "home_help",
    "serviceType": "訪問介護",
    "capacity": 0,
    "openDays": [
      "平日",
      "土曜日",
      "日曜日",
      "祝日"
    ],
    "openDaysNote": "定休日期間中のご利用につきましては、要相談"
  },
  {
    "id": "671900017",
    "name": "ケアセンターなごみ",
    "kana": "ケアセンターナゴミ",
    "address": "山形県米沢市泉町二丁目１番６号",
    "lat": 37.8957397102852,
    "lng": 140.103662727586,
    "tel": "0238-38-7030",
    "url": "https://nagomi-calm.com",
    "pref": "山形県",
    "city": "米沢市",
    "category": "home_help",
    "serviceType": "訪問介護",
    "capacity": 0,
    "openDays": [
      "平日",
      "土曜日",
      "日曜日",
      "祝日"
    ],
    "openDaysNote": "電話等により24時間常時連絡が可能な体制をとる"
  },
  {
    "id": "670401728",
    "name": "ココロケア米沢",
    "kana": "ココロケアヨネザワ",
    "address": "山形県米沢市下花沢三丁目9-52",
    "lat": 37.9174557409271,
    "lng": 140.127923280951,
    "tel": "0238-40-8568",
    "url": "http://www.care-w.com/",
    "pref": "山形県",
    "city": "米沢市",
    "category": "home_help",
    "serviceType": "訪問介護",
    "capacity": 0,
    "openDays": [
      "平日",
      "土曜日",
      "日曜日",
      "祝日"
    ],
    "openDaysNote": "ケアプランの定める時間帯であればいつでも提供いたします。"
  },
  {
    "id": "670400324",
    "name": "さんデイケアホームヘルパーステーション",
    "kana": "サンデイケアホームヘルパーステーション",
    "address": "山形県米沢市大字簗沢3463番地",
    "lat": 37.8886862,
    "lng": 140.0519894,
    "tel": "0238-32-2030",
    "url": "http://y-kouwakai.jp/",
    "pref": "山形県",
    "city": "米沢市",
    "category": "home_help",
    "serviceType": "訪問介護",
    "capacity": 0,
    "openDays": [
      "平日",
      "土曜日",
      "祝日"
    ],
    "openDaysNote": "なし"
  },
  {
    "id": "670402171",
    "name": "シエンズホームケア事務所米沢",
    "kana": "シエンズホームケアジムショヨネザワ",
    "address": "山形県米沢市大町3丁目6番39号",
    "lat": 37.9085139,
    "lng": 140.1122296,
    "tel": "050-8886-7740",
    "url": "",
    "pref": "山形県",
    "city": "米沢市",
    "category": "home_help",
    "serviceType": "訪問介護",
    "capacity": 0,
    "openDays": [
      "平日",
      "土曜日",
      "日曜日",
      "祝日"
    ],
    "openDaysNote": "24時間"
  },
  {
    "id": "670401892",
    "name": "スマートライフ訪問介護事業所",
    "kana": "スマートライフホウモンカイゴジギョウショ",
    "address": "山形県米沢市駅前1丁目1‐110",
    "lat": 37.9087189897221,
    "lng": 140.129382911045,
    "tel": "0238‐20‐5550",
    "url": "",
    "pref": "山形県",
    "city": "米沢市",
    "category": "home_help",
    "serviceType": "訪問介護",
    "capacity": 5,
    "openDays": [
      "平日",
      "祝日"
    ],
    "openDaysNote": "提供時間に関しては特段の事情に限り相談に応じます。"
  },
  {
    "id": "670402072",
    "name": "ツクイ米沢　介護",
    "kana": "ツクイヨネザワカナイケ　カイゴ",
    "address": "山形県米沢市栄町1-4",
    "lat": 37.9219475,
    "lng": 140.1144854,
    "tel": "0238-26-7301",
    "url": "",
    "pref": "山形県",
    "city": "米沢市",
    "category": "home_help",
    "serviceType": "訪問介護",
    "capacity": 0,
    "openDays": [
      "平日",
      "土曜日",
      "日曜日",
      "祝日"
    ],
    "openDaysNote": ""
  },
  {
    "id": "670400811",
    "name": "ニチイケアセンター西米沢",
    "kana": "ニチイケアセンターニシヨネザワ",
    "address": "米沢市成島町２丁目１番１１０-１６号ニチイケアセンター西米沢 ニチイケアセンター西米沢",
    "lat": 37.9210595141213,
    "lng": 140.085128325131,
    "tel": "0238-37-0725",
    "url": "http://www.nichiigakkan.co.jp",
    "pref": "山形県",
    "city": "米沢市",
    "category": "home_help",
    "serviceType": "訪問介護",
    "capacity": 0,
    "openDays": [
      "平日"
    ],
    "openDaysNote": "居宅サービス計画により、営業時間外であってもサービスを提供する場合があります。"
  },
  {
    "id": "670400357",
    "name": "ニチイケアセンター米沢",
    "kana": "ニチイケアセンターヨネザワ",
    "address": "米沢市金池五丁目１３－２１",
    "lat": 37.9251676,
    "lng": 140.1191084,
    "tel": "0238-26-5222",
    "url": "http://www.nichiigakkan.co.jp",
    "pref": "山形県",
    "city": "米沢市",
    "category": "home_help",
    "serviceType": "訪問介護",
    "capacity": 0,
    "openDays": [
      "平日"
    ],
    "openDaysNote": "居宅サービス計画により、営業時間外であってもサービスを提供する場合があります。"
  },
  {
    "id": "670401991",
    "name": "ニチイケアセンター米沢大町",
    "kana": "ニチイケアセンターヨネザワオオマチ",
    "address": "山形県米沢市大町2丁目3番57号メゾン・ライゼ105号室 メゾン・ライゼ105号室",
    "lat": 37.9073125,
    "lng": 140.1121975,
    "tel": "0238-27-1241",
    "url": "",
    "pref": "山形県",
    "city": "米沢市",
    "category": "home_help",
    "serviceType": "訪問介護",
    "capacity": 0,
    "openDays": [
      "平日"
    ],
    "openDaysNote": "居宅サービス計画により、休業日及び営業時間外であってもサービスを提供する場合があります。"
  },
  {
    "id": "670401298",
    "name": "ぬくもり訪問介護事業所",
    "kana": "ヌクモリホウモンカイゴジギョウショ",
    "address": "山形県米沢市松が岬2丁目6-16",
    "lat": 37.9104378,
    "lng": 140.0993515,
    "tel": "0238-21-2610",
    "url": "nukumori-service.com",
    "pref": "山形県",
    "city": "米沢市",
    "category": "home_help",
    "serviceType": "訪問介護",
    "capacity": 55,
    "openDays": [
      "平日",
      "土曜日",
      "日曜日",
      "祝日"
    ],
    "openDaysNote": "営業時間外・定休日においても、ご相談に応じることは可能です｡（訪問介護員の確保を考慮して）"
  },
  {
    "id": "670401454",
    "name": "ひなたぼっこ訪問介護事業所",
    "kana": "ヒナタボッコホウモンカイゴジギョウショ",
    "address": "山形県米沢市舘山1丁目2－15－3",
    "lat": 37.9090754531456,
    "lng": 140.080158205557,
    "tel": "0238-21-6364",
    "url": "https：//y-hinata.com",
    "pref": "山形県",
    "city": "米沢市",
    "category": "home_help",
    "serviceType": "訪問介護",
    "capacity": 0,
    "openDays": [
      "平日",
      "土曜日",
      "日曜日",
      "祝日"
    ],
    "openDaysNote": "上記の時間帯のみ利用可能です。"
  },
  {
    "id": "670402106",
    "name": "ヘルパーステーションイーズ",
    "kana": "ヘルパーステーションイーズ",
    "address": "山形県米沢市下小菅1074番地",
    "lat": 37.9629089,
    "lng": 140.0653038,
    "tel": "0238-20-4833",
    "url": "",
    "pref": "山形県",
    "city": "米沢市",
    "category": "home_help",
    "serviceType": "訪問介護",
    "capacity": 0,
    "openDays": [
      "平日",
      "祝日"
    ],
    "openDaysNote": "年末年始（12/31～1/3）、お盆（8/13～8/15）は休みとなります。"
  },
  {
    "id": "670401124",
    "name": "ラベンダーの丘　訪問介護センター",
    "kana": "ラベンダーノオカ　ホウモンカイゴセンター",
    "address": "山形県米沢市直江石堤28-2",
    "lat": 37.8747846,
    "lng": 140.1172844,
    "tel": "0238-38-4032",
    "url": "",
    "pref": "山形県",
    "city": "米沢市",
    "category": "home_help",
    "serviceType": "訪問介護",
    "capacity": 0,
    "openDays": [
      "平日",
      "土曜日",
      "日曜日",
      "祝日"
    ],
    "openDaysNote": "特になし"
  },
  {
    "id": "670402130",
    "name": "愛のまちホームヘルパーステーション",
    "kana": "アイノマチホームヘルパーステーション",
    "address": "山形県米沢市城北１丁目2-5",
    "lat": 37.9141135,
    "lng": 140.1058187,
    "tel": "080-6026-9571",
    "url": "",
    "pref": "山形県",
    "city": "米沢市",
    "category": "home_help",
    "serviceType": "訪問介護",
    "capacity": null,
    "openDays": [
      "平日",
      "土曜日",
      "日曜日",
      "祝日"
    ],
    "openDaysNote": ""
  },
  {
    "id": "670400217",
    "name": "花の里指定訪問介護事業所",
    "kana": "ハナノサトシテイホウモンカイゴジギョウショ",
    "address": "山形県米沢市大字笹野170番地",
    "lat": 37.8769868,
    "lng": 140.1112515,
    "tel": "0238-38-5501",
    "url": "http://hana.yb-koudou.jp/",
    "pref": "山形県",
    "city": "米沢市",
    "category": "home_help",
    "serviceType": "訪問介護",
    "capacity": 0,
    "openDays": [
      "平日",
      "土曜日",
      "日曜日",
      "祝日"
    ],
    "openDaysNote": "利用者の要望があれば相談に応じる"
  },
  {
    "id": "670400613",
    "name": "楽らくケアセンター指定訪問介護事業所",
    "kana": "ラクラクケアセンターシテイホウモンカイゴジギョウショ",
    "address": "山形県米沢市大町5丁目4-51",
    "lat": 37.9132876213275,
    "lng": 140.113631955089,
    "tel": "0238-26-8680",
    "url": "http://raku-raku.info",
    "pref": "山形県",
    "city": "米沢市",
    "category": "home_help",
    "serviceType": "訪問介護",
    "capacity": null,
    "openDays": [
      "平日",
      "土曜日",
      "日曜日",
      "祝日"
    ],
    "openDaysNote": "24時間対応"
  },
  {
    "id": "670400258",
    "name": "株式会社サン十字ホームヘルプサービス",
    "kana": "カブシキカイシャサンジュウジホームヘルプサービス",
    "address": "山形県米沢市中田町751-1",
    "lat": 37.9438379,
    "lng": 140.1286838,
    "tel": "0238-37-7231",
    "url": "http://www9.ocn.ne.jp/~sunjyuji",
    "pref": "山形県",
    "city": "米沢市",
    "category": "home_help",
    "serviceType": "訪問介護",
    "capacity": 0,
    "openDays": [
      "平日",
      "土曜日",
      "日曜日",
      "祝日"
    ],
    "openDaysNote": "早朝7：00～8：00夜間18：00～21：00帯は割り増し料金25％加算"
  },
  {
    "id": "670400571",
    "name": "山形県高齢者福祉生活協同組合米沢地域福祉事業所「まごころ」",
    "kana": "ヤマガタケンコウレイシャフクシセイカツキョウドウクミアイヨネザワチイキフクシジギョウショマゴコロ",
    "address": "山形県米沢市舘山1丁目1番19号",
    "lat": 37.9109455122819,
    "lng": 140.080592542883,
    "tel": "0238-26-3881",
    "url": "",
    "pref": "山形県",
    "city": "米沢市",
    "category": "home_help",
    "serviceType": "訪問介護",
    "capacity": 0,
    "openDays": [
      "平日",
      "土曜日",
      "日曜日",
      "祝日"
    ],
    "openDaysNote": ""
  },
  {
    "id": "670401793",
    "name": "米沢清友会ヘルパーステーション",
    "kana": "ヨネザワセイユウカイヘルパーステーション",
    "address": "山形県米沢市金池７丁目６－６０",
    "lat": 37.92832,
    "lng": 140.1183193,
    "tel": "0238-40-1727",
    "url": "",
    "pref": "山形県",
    "city": "米沢市",
    "category": "home_help",
    "serviceType": "訪問介護",
    "capacity": 0,
    "openDays": [
      "平日",
      "土曜日",
      "日曜日",
      "祝日"
    ],
    "openDaysNote": "希望により時間外も対応可能"
  },
  {
    "id": "670401595",
    "name": "訪問介護ステーション　花はな",
    "kana": "ホウモンカイゴステーション　ハナハナ",
    "address": "山形県米沢市城南一丁目５番４１号",
    "lat": 37.9067017305997,
    "lng": 140.106193022259,
    "tel": "0238-49-7676",
    "url": "",
    "pref": "山形県",
    "city": "米沢市",
    "category": "home_help",
    "serviceType": "訪問介護",
    "capacity": 30,
    "openDays": [
      "平日",
      "土曜日",
      "日曜日",
      "祝日"
    ],
    "openDaysNote": ""
  },
  {
    "id": "670401934",
    "name": "訪問介護ステーション万益舎",
    "kana": "ホウモンカイゴステーションバンエキシャ",
    "address": "山形県米沢市大字笹野595番地の19",
    "lat": 37.8816279906039,
    "lng": 140.110360065047,
    "tel": "0238-27-0465",
    "url": "https://retreat-yonezawa.amebaownd.com/",
    "pref": "山形県",
    "city": "米沢市",
    "category": "home_help",
    "serviceType": "訪問介護",
    "capacity": 0,
    "openDays": [
      "平日",
      "土曜日",
      "日曜日",
      "祝日"
    ],
    "openDaysNote": ""
  },
  {
    "id": "670400894",
    "name": "有限会社　ヴィーヴル",
    "kana": "ユウゲンガイシャ　ビーブル",
    "address": "山形県米沢市門東町2丁目7番21号チャーメリー上杉公園１階 チャーメリー上杉公園１階",
    "lat": 37.9093050063044,
    "lng": 140.108601763229,
    "tel": "0238-37-0760",
    "url": "",
    "pref": "山形県",
    "city": "米沢市",
    "category": "home_help",
    "serviceType": "訪問介護",
    "capacity": 0,
    "openDays": [
      "平日",
      "土曜日",
      "日曜日",
      "祝日"
    ],
    "openDaysNote": "相談に応じる"
  },
  {
    "id": "673200440",
    "name": "株式会社在宅福祉サービスつくし",
    "kana": "カブシキガイシャザイタクフクシサービスツクシ",
    "address": "山形県飽海郡遊佐町菅里字菅野南山１－２０９",
    "lat": 39.041368,
    "lng": 139.8814514,
    "tel": "0234-75-3066",
    "url": "",
    "pref": "山形県",
    "city": "遊佐町",
    "category": "home_help",
    "serviceType": "訪問介護",
    "capacity": 0,
    "openDays": [
      "平日",
      "土曜日",
      "日曜日",
      "祝日"
    ],
    "openDaysNote": ""
  },
  {
    "id": "673200127",
    "name": "社会福祉法人　遊佐町社会福祉協議会　指定居宅サービス事業所",
    "kana": "シャカイフクシホウジン　ユザマチシャカイフクシキョウギカイ　シテイキョタクサービスジギョウショ",
    "address": "山形県飽海郡遊佐町遊佐字田子1番地遊佐町総合福祉センタ－ 遊佐町総合福祉センタ－",
    "lat": 39.0178185,
    "lng": 139.9123542,
    "tel": "0234-72-4715（",
    "url": "http://yuza-syakyo.sakura.ne.jp",
    "pref": "山形県",
    "city": "遊佐町",
    "category": "home_help",
    "serviceType": "訪問介護",
    "capacity": 0,
    "openDays": [
      "平日",
      "土曜日",
      "日曜日",
      "祝日"
    ],
    "openDaysNote": "事業所営業時間外でも直通電話番号0234-31-8866に掛けていただいた場合、電話転送により連絡可能です。（改行）土・日・祝日でも利用者よりご希望があれば対応させていただきます。"
  }
]