[
  {
    "id": "1972200313",
    "name": "ヘルパーサービスセンター和叶",
    "kana": "ヘルパーサービスセンターワカナ",
    "address": "山梨県甲州市塩山下塩後888-1",
    "lat": 35.6958735,
    "lng": 138.7199632,
    "tel": "0553-34-5422",
    "url": "https://itami-clinic.jp/",
    "pref": "山梨県",
    "city": "甲州市",
    "category": "home_help",
    "serviceType": "訪問介護",
    "capacity": null,
    "openDays": [
      "平日",
      "土曜日",
      "日曜日",
      "祝日"
    ],
    "openDaysNote": ""
  },
  {
    "id": "1970400162",
    "name": "やさしい手　甲州事業所",
    "kana": "ヤサシイテ　コウシュウジギョウショ",
    "address": "山梨県甲州市勝沼町山１１１０－１",
    "lat": 35.6815074,
    "lng": 138.7253859,
    "tel": "0553-44-4114",
    "url": "",
    "pref": "山梨県",
    "city": "甲州市",
    "category": "home_help",
    "serviceType": "訪問介護",
    "capacity": 0,
    "openDays": [
      "平日",
      "土曜日",
      "日曜日",
      "祝日"
    ],
    "openDaysNote": ""
  },
  {
    "id": "1972200362",
    "name": "光風園訪問介護事業所",
    "kana": "コウフウエンホウモンカイゴジギョウショ",
    "address": "山梨県甲州市塩山西野原603番地",
    "lat": 35.6891737,
    "lng": 138.7361642,
    "tel": "0553-33-7511",
    "url": "http://www.koufuukai-yamanashi.or.jp/",
    "pref": "山梨県",
    "city": "甲州市",
    "category": "home_help",
    "serviceType": "訪問介護",
    "capacity": 0,
    "openDays": [
      "平日",
      "土曜日",
      "日曜日",
      "祝日"
    ],
    "openDaysNote": ""
  },
  {
    "id": "1972200032",
    "name": "甲州市社会福祉協議会訪問介護事業所",
    "kana": "コウシュウシシャカイフクシキョウギカイホウモンカイゴジギョウショ",
    "address": "山梨県甲州市勝沼町休息1867番地2勝沼健康福祉センター内 勝沼健康福祉センター内",
    "lat": 35.6773216,
    "lng": 138.7206141,
    "tel": "0553-44-1237",
    "url": "http://wwwkoshushishakyo.or.jp",
    "pref": "山梨県",
    "city": "甲州市",
    "category": "home_help",
    "serviceType": "訪問介護",
    "capacity": 25,
    "openDays": [
      "平日"
    ],
    "openDaysNote": "サービス提供にあたっては、上記に関わらず利用者等からの相談に応じます"
  },
  {
    "id": "1972200354",
    "name": "訪問介護ライフアップ",
    "kana": "ホウモンカイゴ　ライフアップ",
    "address": "山梨県甲州市塩山上井尻1415-2",
    "lat": 35.7152526441839,
    "lng": 138.717897363091,
    "tel": "0553-39--9618",
    "url": "http://hp.kaipoke.biz/95a/",
    "pref": "山梨県",
    "city": "甲州市",
    "category": "home_help",
    "serviceType": "訪問介護",
    "capacity": 0,
    "openDays": [
      "平日",
      "土曜日",
      "日曜日",
      "祝日"
    ],
    "openDaysNote": "早朝・夜間・深夜時間帯のサービス提供の割り増し（改行）早朝（午前6時～8時）、夜間（午後6時～１０時）にサービスを提供した場合は、所定単位数の２５％を、（改行）深夜（午後10時～午前6時）にサービスを提供した場合は所定単位数の５０％を割り増ししてご請求させていただきます。"
  },
  {
    "id": "1972200271",
    "name": "訪問介護事業所まほろば",
    "kana": "ホウモンカイゴジギョウショマホロバ",
    "address": "山梨県甲州市塩山下小田原586-6第二塩山荘 第二塩山荘",
    "lat": 35.7295632,
    "lng": 138.7677954,
    "tel": "0553-39-8951",
    "url": "mahorobadai2@kcnet,ne,jp",
    "pref": "山梨県",
    "city": "甲州市",
    "category": "home_help",
    "serviceType": "訪問介護",
    "capacity": 0,
    "openDays": [
      "平日",
      "土曜日",
      "日曜日",
      "祝日"
    ],
    "openDaysNote": "重要事項説明書に記載"
  },
  {
    "id": "1970300057",
    "name": "有限会社　オギハラ介護サービス",
    "kana": "ユウゲンガイシャ　オギハラカイゴサービス",
    "address": "山梨県甲州市塩山上塩後1210",
    "lat": 35.7044737,
    "lng": 138.7140889,
    "tel": "0553-33-5779",
    "url": "",
    "pref": "山梨県",
    "city": "甲州市",
    "category": "home_help",
    "serviceType": "訪問介護",
    "capacity": null,
    "openDays": [
      "平日",
      "土曜日",
      "日曜日",
      "祝日"
    ],
    "openDaysNote": "ただし、利用者の状況に応じて時間外営業が可能な体制となっている。"
  },
  {
    "id": "1970800452",
    "name": "（有）ハピネスフレンドヘルパーステーション",
    "kana": "ユウゲンガイシャハピネスフレンドヘルパーステーション",
    "address": "山梨県甲斐市西八幡2297-7",
    "lat": 35.6409541,
    "lng": 138.5191768,
    "tel": "055-279-4543",
    "url": "",
    "pref": "山梨県",
    "city": "甲斐市",
    "category": "home_help",
    "serviceType": "訪問介護",
    "capacity": null,
    "openDays": [
      "平日",
      "土曜日",
      "日曜日",
      "祝日"
    ],
    "openDaysNote": "ただし、人員不足等の理由により対応できない場合もある"
  },
  {
    "id": "1971700990",
    "name": "ケア信玄",
    "kana": "ケアシンゲン",
    "address": "山梨県甲斐市西八幡2122サービス付き高齢者向け住宅シェール西八幡 サービス付き高齢者向け住宅シェール西八幡",
    "lat": 35.6386997,
    "lng": 138.5223569,
    "tel": "055-288-8787",
    "url": "",
    "pref": "山梨県",
    "city": "甲斐市",
    "category": "home_help",
    "serviceType": "訪問介護",
    "capacity": 0,
    "openDays": [
      "平日",
      "土曜日",
      "日曜日",
      "祝日"
    ],
    "openDaysNote": "提供利用時間については応相談。"
  },
  {
    "id": "1971700917",
    "name": "サンクシアヘルパーステーション",
    "kana": "サンクシアヘルパーステーション",
    "address": "西八幡637",
    "lat": 35.6519487618411,
    "lng": 138.513949273523,
    "tel": "055-269-5597",
    "url": "https://www.big-advance.site/c/158/1334/profile",
    "pref": "山梨県",
    "city": "甲斐市",
    "category": "home_help",
    "serviceType": "訪問介護",
    "capacity": 0,
    "openDays": [
      "平日",
      "土曜日"
    ],
    "openDaysNote": "営業日以外、営業時間外以外は相談に応じます。"
  },
  {
    "id": "1971700065",
    "name": "すけっと",
    "kana": "スケット",
    "address": "山梨県甲斐市西八幡1777",
    "lat": 35.6471072,
    "lng": 138.5260434,
    "tel": "055-276-3099",
    "url": "",
    "pref": "山梨県",
    "city": "甲斐市",
    "category": "home_help",
    "serviceType": "訪問介護",
    "capacity": 0,
    "openDays": [
      "平日"
    ],
    "openDaysNote": ""
  },
  {
    "id": "1971700982",
    "name": "セントケア甲斐",
    "kana": "セントケアカイ",
    "address": "山梨県甲斐市長塚242-4ｺﾝﾌｫｰﾄﾋﾟｱEQ1-103 ｺﾝﾌｫｰﾄﾋﾟｱEQ1-103",
    "lat": 35.673606,
    "lng": 138.5346289,
    "tel": "055-267-2171",
    "url": "",
    "pref": "山梨県",
    "city": "甲斐市",
    "category": "home_help",
    "serviceType": "訪問介護",
    "capacity": 0,
    "openDays": [
      "平日",
      "土曜日",
      "日曜日",
      "祝日"
    ],
    "openDaysNote": "サービス提供時間は、事前に居宅介護支援事業者等により計画された居宅サービス計画書に基づくものとし、原則として緊急に依頼された訪問介護の提供は行わないものとする。"
  },
  {
    "id": "1970800593",
    "name": "ニチイケアセンター甲斐",
    "kana": "ニチイケアセンターカイ",
    "address": "山梨県甲斐市篠原1659",
    "lat": 35.6503347,
    "lng": 138.5243043,
    "tel": "055-260-7060",
    "url": "http://www.nichiigakkan.co.jp/",
    "pref": "山梨県",
    "city": "甲斐市",
    "category": "home_help",
    "serviceType": "訪問介護",
    "capacity": 0,
    "openDays": [
      "平日",
      "土曜日",
      "日曜日",
      "祝日"
    ],
    "openDaysNote": "利用時間外については対応可否についてお問合せ下さい。"
  },
  {
    "id": "1971700669",
    "name": "ヘルパーステーション　上機嫌",
    "kana": "ヘルパーステーション　上機嫌",
    "address": "山梨県甲斐市下今井2977ハイブリッドホーム　上機嫌 ハイブリッドホーム　上機嫌",
    "lat": 35.6753881,
    "lng": 138.5011557,
    "tel": "0551-45-6700",
    "url": "http://www.jo-kigen.jp/",
    "pref": "山梨県",
    "city": "甲斐市",
    "category": "home_help",
    "serviceType": "訪問介護",
    "capacity": 0,
    "openDays": [
      "平日",
      "土曜日",
      "日曜日",
      "祝日"
    ],
    "openDaysNote": ""
  },
  {
    "id": "1970800221",
    "name": "ヘルパーセンター　敷島荘",
    "kana": "ヘルパーセンター　シキシマソウ",
    "address": "山梨県甲斐市大久保1357",
    "lat": 35.6933547,
    "lng": 138.5155152,
    "tel": "055-277-8811",
    "url": "shikishimasou.net",
    "pref": "山梨県",
    "city": "甲斐市",
    "category": "home_help",
    "serviceType": "訪問介護",
    "capacity": 80,
    "openDays": [
      "平日",
      "土曜日",
      "日曜日",
      "祝日"
    ],
    "openDaysNote": "夜間、深夜、早朝、年末年始は要相談"
  },
  {
    "id": "1971700180",
    "name": "やさしい手　甲斐事業所",
    "kana": "ヤサシイテ　カイジギョウショ",
    "address": "山梨県甲斐市篠原２１７３－６",
    "lat": 35.6553825,
    "lng": 138.5158101,
    "tel": "055-260-7701",
    "url": "",
    "pref": "山梨県",
    "city": "甲斐市",
    "category": "home_help",
    "serviceType": "訪問介護",
    "capacity": 0,
    "openDays": [
      "平日",
      "土曜日",
      "日曜日",
      "祝日"
    ],
    "openDaysNote": ""
  },
  {
    "id": "1961790001",
    "name": "医療法人　仁和会　ヘルパーステーション　コスモス",
    "kana": "イリョウホウジン　ジンワカイ　ヘルパーステーション　コスモス",
    "address": "山梨県甲斐市万才287番地8",
    "lat": 35.650217418148,
    "lng": 138.530029818385,
    "tel": "055-276-9933",
    "url": "http://www.ryuo-rhp.or.jp/",
    "pref": "山梨県",
    "city": "甲斐市",
    "category": "home_help",
    "serviceType": "訪問介護",
    "capacity": 0,
    "openDays": [
      "平日",
      "土曜日"
    ],
    "openDaysNote": "利用者の心身の状況等に応じて営業時間外、休日の対応可能"
  },
  {
    "id": "1961790019",
    "name": "赤坂台ヘルパーステーション",
    "kana": "アカサカダイヘルパーステーション",
    "address": "山梨県甲斐市竜王新町2150",
    "lat": 35.6782511,
    "lng": 138.507588,
    "tel": "055-279-0106",
    "url": "http://akasakadai.com/",
    "pref": "山梨県",
    "city": "甲斐市",
    "category": "home_help",
    "serviceType": "訪問介護",
    "capacity": null,
    "openDays": [
      "平日"
    ],
    "openDaysNote": "ご本人ご家族のご希望にあわせ、必要に応じ定休日にも訪問を行います"
  },
  {
    "id": "1971701097",
    "name": "訪問介護　和",
    "kana": "ホウモンカイゴ　ナゴミ",
    "address": "西八幡1196",
    "lat": 35.6436831,
    "lng": 138.5232604,
    "tel": "055-288-0196",
    "url": "https://goudoukaisyanagomi9.webnode.jp",
    "pref": "山梨県",
    "city": "甲斐市",
    "category": "home_help",
    "serviceType": "訪問介護",
    "capacity": 40,
    "openDays": [
      "平日",
      "土曜日",
      "日曜日",
      "祝日"
    ],
    "openDaysNote": ""
  },
  {
    "id": "1971701139",
    "name": "訪問介護事業所　紬生",
    "kana": "ホウモンカイゴジギョウショ　ツムギ",
    "address": "西八幡33001-7",
    "lat": 35.6444101263021,
    "lng": 138.513107673892,
    "tel": "7028261887",
    "url": "",
    "pref": "山梨県",
    "city": "甲斐市",
    "category": "home_help",
    "serviceType": "訪問介護",
    "capacity": null,
    "openDays": [
      "平日",
      "土曜日",
      "日曜日",
      "祝日"
    ],
    "openDaysNote": "利用時間については応相談。"
  },
  {
    "id": "1970105399",
    "name": "Careえみ",
    "kana": "ケアエミ",
    "address": "川田町481-4",
    "lat": 35.6968569,
    "lng": 139.7195415,
    "tel": "055-215-4630",
    "url": "",
    "pref": "山梨県",
    "city": "甲府市",
    "category": "home_help",
    "serviceType": "訪問介護",
    "capacity": null,
    "openDays": [
      "平日",
      "土曜日",
      "日曜日",
      "祝日"
    ],
    "openDaysNote": ""
  },
  {
    "id": "1970105654",
    "name": "Rケア甲府訪問介護事業所",
    "kana": "アールケアコウフホウモンカイゴジギョウショ",
    "address": "山梨県甲府市高畑1-13-18",
    "lat": 35.6507151099214,
    "lng": 138.562528858223,
    "tel": "055-287-9801",
    "url": "https://www.rcare-yamanashi.com/",
    "pref": "山梨県",
    "city": "甲府市",
    "category": "home_help",
    "serviceType": "訪問介護",
    "capacity": 80,
    "openDays": [
      "平日",
      "土曜日",
      "日曜日",
      "祝日"
    ],
    "openDaysNote": "12/31～1/3は定休日とさせていただきます。"
  },
  {
    "id": "1970105878",
    "name": "Rケア石和",
    "kana": "アールケアイサワ",
    "address": "和戸町1149コーポ小林第三201号 コーポ小林第三201号",
    "lat": 35.6545416,
    "lng": 138.6211714,
    "tel": "055-288-8771",
    "url": "https://www.rcare-yamanashi.com/",
    "pref": "山梨県",
    "city": "甲府市",
    "category": "home_help",
    "serviceType": "訪問介護",
    "capacity": 0,
    "openDays": [
      "平日",
      "土曜日",
      "日曜日",
      "祝日"
    ],
    "openDaysNote": "12/31～1/3は定休日とさせていただきます。"
  },
  {
    "id": "1970105530",
    "name": "アーク訪問介護事業所",
    "kana": "アークホウモンカイゴジギョウショ",
    "address": "山梨県甲府市上阿原町416-1MPイーストビル2階 MPイーストビル2階",
    "lat": 35.6465051,
    "lng": 138.6104072,
    "tel": "055-225-6455",
    "url": "http://www.arc-m.co.jp",
    "pref": "山梨県",
    "city": "甲府市",
    "category": "home_help",
    "serviceType": "訪問介護",
    "capacity": null,
    "openDays": [
      "平日",
      "土曜日",
      "日曜日",
      "祝日"
    ],
    "openDaysNote": "夜朝加算が付かない時間での営業となっております。"
  },
  {
    "id": "1970105738",
    "name": "アクア甲府訪問介護",
    "kana": "アクアコウフホウモンカイゴ",
    "address": "山梨県甲府市下小河町字相の原256番4",
    "lat": 35.6319114,
    "lng": 138.578147,
    "tel": "055-298-4366",
    "url": "",
    "pref": "山梨県",
    "city": "甲府市",
    "category": "home_help",
    "serviceType": "訪問介護",
    "capacity": 0,
    "openDays": [
      "平日",
      "土曜日",
      "日曜日",
      "祝日"
    ],
    "openDaysNote": ""
  },
  {
    "id": "1970104988",
    "name": "あずま太陽の家　ヘルパーステーション",
    "kana": "アズマタイヨウノイエ　ヘルパーステーション",
    "address": "甲府市羽黒町1272-1",
    "lat": 35.6911156,
    "lng": 138.5486205,
    "tel": "055-253-3711",
    "url": "",
    "pref": "山梨県",
    "city": "甲府市",
    "category": "home_help",
    "serviceType": "訪問介護",
    "capacity": 0,
    "openDays": [
      "平日",
      "土曜日",
      "日曜日",
      "祝日"
    ],
    "openDaysNote": ""
  },
  {
    "id": "1970103659",
    "name": "アスモ介護サービス国母",
    "kana": "アスモカイゴサービスコクボ",
    "address": "山梨県甲府市国母8‐5‐11宿沢ビル102号室 宿沢ビル102号室",
    "lat": 35.6329137,
    "lng": 138.5493104,
    "tel": "055-236-2520",
    "url": "",
    "pref": "山梨県",
    "city": "甲府市",
    "category": "home_help",
    "serviceType": "訪問介護",
    "capacity": 0,
    "openDays": [
      "平日",
      "土曜日",
      "日曜日",
      "祝日"
    ],
    "openDaysNote": ""
  },
  {
    "id": "1970104848",
    "name": "あっとほーむ訪問介護事業所",
    "kana": "アットホームホウモンカイゴジギョウショ",
    "address": "山梨県甲府市住吉4-20-15",
    "lat": 35.6381332,
    "lng": 138.5798963,
    "tel": "055-236-8156",
    "url": "https://www.athome-kofu.com/",
    "pref": "山梨県",
    "city": "甲府市",
    "category": "home_help",
    "serviceType": "訪問介護",
    "capacity": 30,
    "openDays": [
      "平日",
      "土曜日",
      "日曜日",
      "祝日"
    ],
    "openDaysNote": "その他の時間につきましてはご相談ください。"
  },
  {
    "id": "1970103576",
    "name": "アルファケア西甲府介護施設",
    "kana": "アルファケア　ニシコウフカイゴシセツ",
    "address": "甲府市富竹1-3-10",
    "lat": 35.6580521,
    "lng": 138.5469649,
    "tel": "055-221-2511",
    "url": "www.alphacare.jp",
    "pref": "山梨県",
    "city": "甲府市",
    "category": "home_help",
    "serviceType": "訪問介護",
    "capacity": null,
    "openDays": [
      "平日"
    ],
    "openDaysNote": ""
  },
  {
    "id": "1970105753",
    "name": "アルファケア南甲府介護施設",
    "kana": "アルファケアミナミコウフカイゴシセツ",
    "address": "山梨県甲府市南口町２番７号",
    "lat": 35.6467658,
    "lng": 138.579977,
    "tel": "552237511",
    "url": "http//www.alphacare.jp",
    "pref": "山梨県",
    "city": "甲府市",
    "category": "home_help",
    "serviceType": "訪問介護",
    "capacity": 0,
    "openDays": [
      "平日",
      "土曜日",
      "日曜日",
      "祝日"
    ],
    "openDaysNote": "自費サービスあり"
  },
  {
    "id": "1970100747",
    "name": "ヴィラ武田の杜訪問介護支援事業所",
    "kana": "ウ゛ィラタケダノモリホウモンカイゴシエンジギョウショ",
    "address": "山梨県甲府市羽黒町1455",
    "lat": 35.6945684870798,
    "lng": 138.544525884096,
    "tel": "055-253-8100",
    "url": "",
    "pref": "山梨県",
    "city": "甲府市",
    "category": "home_help",
    "serviceType": "訪問介護",
    "capacity": null,
    "openDays": [
      "平日",
      "土曜日",
      "日曜日",
      "祝日"
    ],
    "openDaysNote": ""
  },
  {
    "id": "1970101802",
    "name": "ケアサービス　青空",
    "kana": "ケアサービス　アオゾラ",
    "address": "山梨県甲府市武田2丁目12-14",
    "lat": 35.6729258,
    "lng": 138.5735022,
    "tel": "055-220-3315",
    "url": "",
    "pref": "山梨県",
    "city": "甲府市",
    "category": "home_help",
    "serviceType": "訪問介護",
    "capacity": 0,
    "openDays": [
      "平日",
      "土曜日",
      "日曜日",
      "祝日"
    ],
    "openDaysNote": ""
  },
  {
    "id": "1970101570",
    "name": "ケアセンターなごみ訪問介護事業所",
    "kana": "ケアセンターナゴミホウモンカイゴジギョウショ",
    "address": "山梨県甲府市富士見2丁目8-17",
    "lat": 35.6757887,
    "lng": 138.54885,
    "tel": "055-255-1151",
    "url": "nagomi-753@ivory.plala.or.jp",
    "pref": "山梨県",
    "city": "甲府市",
    "category": "home_help",
    "serviceType": "訪問介護",
    "capacity": null,
    "openDays": [
      "平日",
      "土曜日",
      "日曜日",
      "祝日"
    ],
    "openDaysNote": "365日24時間対応"
  },
  {
    "id": "1970105241",
    "name": "ケアフォーラム甲府",
    "kana": "ケアフォーラムコウフ",
    "address": "山梨県甲府市上石田３丁目８－８",
    "lat": 35.6540912,
    "lng": 138.5528253,
    "tel": "055-236-8565",
    "url": "https://careforum-kofu.jp",
    "pref": "山梨県",
    "city": "甲府市",
    "category": "home_help",
    "serviceType": "訪問介護",
    "capacity": 0,
    "openDays": [
      "平日",
      "土曜日",
      "日曜日",
      "祝日"
    ],
    "openDaysNote": ""
  },
  {
    "id": "1970105274",
    "name": "ケアフォレスト",
    "kana": "ケアフォレスト",
    "address": "山梨県甲府市国玉町1290-8",
    "lat": 35.6532765,
    "lng": 138.5971409,
    "tel": "055-242-7140",
    "url": "",
    "pref": "山梨県",
    "city": "甲府市",
    "category": "home_help",
    "serviceType": "訪問介護",
    "capacity": null,
    "openDays": [
      "平日",
      "土曜日",
      "日曜日",
      "祝日"
    ],
    "openDaysNote": ""
  },
  {
    "id": "1970105571",
    "name": "ケアリッツ甲府",
    "kana": "ケアリッツコウフ",
    "address": "山梨県甲府市朝日1-3-5新津ビル2階 新津ビル2階",
    "lat": 35.6695784712823,
    "lng": 138.567089441105,
    "tel": "055-242-9327",
    "url": "https://www.careritz.co.jp/station/branch/kofu/",
    "pref": "山梨県",
    "city": "甲府市",
    "category": "home_help",
    "serviceType": "訪問介護",
    "capacity": 0,
    "openDays": [
      "平日",
      "土曜日",
      "日曜日",
      "祝日"
    ],
    "openDaysNote": ""
  },
  {
    "id": "1970100986",
    "name": "ケアワークス山梨訪問介護事業所",
    "kana": "ケアワークスヤマナシホウモンカイゴジギョウショ",
    "address": "山梨県甲府市下石田２丁目１－２４",
    "lat": 35.6500643,
    "lng": 138.5503094,
    "tel": "055-230-1300",
    "url": "",
    "pref": "山梨県",
    "city": "甲府市",
    "category": "home_help",
    "serviceType": "訪問介護",
    "capacity": 10,
    "openDays": [
      "平日",
      "土曜日",
      "日曜日",
      "祝日"
    ],
    "openDaysNote": "年中無休・24時間"
  },
  {
    "id": "1970104715",
    "name": "ゴールドエイジ甲府営業所",
    "kana": "ゴールドエイジコウフエイギョウショ",
    "address": "中小河原1584-1",
    "lat": 35.6324147,
    "lng": 138.5688815,
    "tel": "055-242-0700",
    "url": "",
    "pref": "山梨県",
    "city": "甲府市",
    "category": "home_help",
    "serviceType": "訪問介護",
    "capacity": 0,
    "openDays": [
      "平日",
      "土曜日",
      "日曜日",
      "祝日"
    ],
    "openDaysNote": ""
  },
  {
    "id": "1970102271",
    "name": "スマイル",
    "kana": "スマイル",
    "address": "甲府市古上条町21-2",
    "lat": 35.6269092,
    "lng": 138.5577404,
    "tel": "055-242-0155",
    "url": "",
    "pref": "山梨県",
    "city": "甲府市",
    "category": "home_help",
    "serviceType": "訪問介護",
    "capacity": null,
    "openDays": [
      "平日",
      "土曜日",
      "日曜日",
      "祝日"
    ],
    "openDaysNote": ""
  },
  {
    "id": "1970102446",
    "name": "セントケア甲府",
    "kana": "セントケアコウフ",
    "address": "山梨県甲府市住吉2丁目4番8号　アイダビル2Ｆ",
    "lat": 35.6374162,
    "lng": 138.5666115,
    "tel": "055-236-1011",
    "url": "",
    "pref": "山梨県",
    "city": "甲府市",
    "category": "home_help",
    "serviceType": "訪問介護",
    "capacity": 0,
    "openDays": [
      "平日",
      "土曜日",
      "日曜日",
      "祝日"
    ],
    "openDaysNote": "サービス提供時間は、事前に居宅介護支援事業者等により計画された居宅サービス計画書に基づくものとし、原則として緊急に依頼された訪問介護の提供は行わないものとする。"
  },
  {
    "id": "1970100564",
    "name": "ニチイケアセンター　甲府南",
    "kana": "ニチイケアセンター　コウフミナミ",
    "address": "山梨県甲府市増坪町２６６-１１",
    "lat": 35.6360282,
    "lng": 138.5912315,
    "tel": "055-242-2501",
    "url": "http://nichiigakkan.co.jp",
    "pref": "山梨県",
    "city": "甲府市",
    "category": "home_help",
    "serviceType": "訪問介護",
    "capacity": 5,
    "openDays": [
      "平日",
      "土曜日",
      "日曜日",
      "祝日"
    ],
    "openDaysNote": "居宅サービス計画により休業日及び営業時間外であってもサービスを提供する場合があります。"
  },
  {
    "id": "1970101695",
    "name": "ニチイケアセンター甲府西",
    "kana": "ニチイケアセンターコウフニシ",
    "address": "山梨県甲府市下飯田2-4-30",
    "lat": 35.6632793,
    "lng": 138.5490783,
    "tel": "055-236-1680",
    "url": "http://www.nichiigakkan.co.jp",
    "pref": "山梨県",
    "city": "甲府市",
    "category": "home_help",
    "serviceType": "訪問介護",
    "capacity": 0,
    "openDays": [
      "平日",
      "土曜日",
      "日曜日",
      "祝日"
    ],
    "openDaysNote": "居宅サービス計画により休業日及び営業時間外であってもサービスを提供する場合があります。"
  },
  {
    "id": "1970105563",
    "name": "ヘルパーステーション　フロンティアの介護甲府",
    "kana": "ヘルパーステーション　フロンティアノカイゴコウフ",
    "address": "山梨県甲府市徳行３－７－２１橘ビル２０２ 橘ビル２０２",
    "lat": 35.6491114,
    "lng": 138.5423257,
    "tel": "０５５－２４２－７２４１",
    "url": "https://www.frontier-gp.jp/",
    "pref": "山梨県",
    "city": "甲府市",
    "category": "home_help",
    "serviceType": "訪問介護",
    "capacity": 0,
    "openDays": [
      "平日",
      "土曜日",
      "日曜日",
      "祝日"
    ],
    "openDaysNote": ""
  },
  {
    "id": "1970104426",
    "name": "ヘルパーステーションいけだ",
    "kana": "ヘルパーステーションイケダ",
    "address": "山梨県甲府市下飯田1-2-18",
    "lat": 35.6689024,
    "lng": 138.5450211,
    "tel": "055-236-3504",
    "url": "https://ykf.or.jp",
    "pref": "山梨県",
    "city": "甲府市",
    "category": "home_help",
    "serviceType": "訪問介護",
    "capacity": 0,
    "openDays": [
      "平日",
      "土曜日",
      "祝日"
    ],
    "openDaysNote": "相談の上、必要なケア提供時間であれば上記以外の時間でも365日対応しています。"
  },
  {
    "id": "1970101521",
    "name": "ヘルパーステーション青い鳥",
    "kana": "ヘルパ－ステーションアオイトリ",
    "address": "山梨県甲府市下飯田1丁目10番22号",
    "lat": 35.6660511,
    "lng": 138.546559,
    "tel": "055-221-0880",
    "url": "http://yamanashi-lighthouse.or.jp/",
    "pref": "山梨県",
    "city": "甲府市",
    "category": "home_help",
    "serviceType": "訪問介護",
    "capacity": 0,
    "openDays": [
      "平日",
      "土曜日",
      "日曜日",
      "祝日"
    ],
    "openDaysNote": "12月30日～1月3日は休業。休業日や時間外であっても、相談により訪問可能。"
  },
  {
    "id": "1970102743",
    "name": "ヘルパーステーション風見鶏",
    "kana": "ヘルパーステーションカザミドリ",
    "address": "山梨県甲府市城東２－２５－２０",
    "lat": 35.6562051,
    "lng": 138.5771374,
    "tel": "055-287-8121",
    "url": "",
    "pref": "山梨県",
    "city": "甲府市",
    "category": "home_help",
    "serviceType": "訪問介護",
    "capacity": null,
    "openDays": [
      "平日",
      "土曜日",
      "日曜日",
      "祝日"
    ],
    "openDaysNote": ""
  },
  {
    "id": "1970104046",
    "name": "ヘレーネケア甲府東事業所",
    "kana": "ヘレーネケアコウフヒガシジギョウショ",
    "address": "甲府市横根町1171-2",
    "lat": 35.6615356930235,
    "lng": 138.610612544531,
    "tel": "055-269-7772",
    "url": "",
    "pref": "山梨県",
    "city": "甲府市",
    "category": "home_help",
    "serviceType": "訪問介護",
    "capacity": null,
    "openDays": [],
    "openDaysNote": ""
  },
  {
    "id": "1970104517",
    "name": "マヴィ.ホームヘルプサービス",
    "kana": "マヴィ.ホームヘルプサービス",
    "address": "山梨県甲府市上阿原町１２６番地１０",
    "lat": 35.6428051,
    "lng": 138.6076881,
    "tel": "552150842",
    "url": "http://www.lacura-mavie.jp/",
    "pref": "山梨県",
    "city": "甲府市",
    "category": "home_help",
    "serviceType": "訪問介護",
    "capacity": 0,
    "openDays": [
      "平日",
      "土曜日",
      "日曜日",
      "祝日"
    ],
    "openDaysNote": ""
  },
  {
    "id": "1970105761",
    "name": "みどり",
    "kana": "ミドリ",
    "address": "山梨県甲府市大里町4133ハイツ三神101 ハイツ三神101",
    "lat": 35.6212987,
    "lng": 138.5611147,
    "tel": "055242-8391",
    "url": "",
    "pref": "山梨県",
    "city": "甲府市",
    "category": "home_help",
    "serviceType": "訪問介護",
    "capacity": 0,
    "openDays": [
      "平日"
    ],
    "openDaysNote": ""
  },
  {
    "id": "1970104582",
    "name": "みやびヘルパーステーション",
    "kana": "ミヤビヘルパーステーション",
    "address": "山梨県甲府市千塚3丁目1-4サンクシアビル101 サンクシアビル101",
    "lat": 35.6818429749834,
    "lng": 138.539216384779,
    "tel": "055-298-6671",
    "url": "",
    "pref": "山梨県",
    "city": "甲府市",
    "category": "home_help",
    "serviceType": "訪問介護",
    "capacity": 3,
    "openDays": [
      "平日",
      "土曜日",
      "日曜日",
      "祝日"
    ],
    "openDaysNote": "営業日以外、営業時間以外は、相談に応じます。"
  },
  {
    "id": "1970104822",
    "name": "みんぷく訪問介護事業所",
    "kana": "ミンプクホウモンカイゴジギョウショ",
    "address": "山梨県甲府市横根町451-1　KNビル３階",
    "lat": 35.6543237977809,
    "lng": 138.612771792711,
    "tel": "070-4405-7873",
    "url": "http://www.sakurai-ryo.com",
    "pref": "山梨県",
    "city": "甲府市",
    "category": "home_help",
    "serviceType": "訪問介護",
    "capacity": 0,
    "openDays": [
      "平日",
      "土曜日",
      "日曜日",
      "祝日"
    ],
    "openDaysNote": ""
  },
  {
    "id": "1970100911",
    "name": "やさしい手　甲府西事業所",
    "kana": "ヤサシイテ　コウフニシジギョウショ",
    "address": "甲府市上石田1-7-14",
    "lat": 35.6579134,
    "lng": 138.553267,
    "tel": "055-236-5151",
    "url": "",
    "pref": "山梨県",
    "city": "甲府市",
    "category": "home_help",
    "serviceType": "訪問介護",
    "capacity": 0,
    "openDays": [
      "平日",
      "土曜日",
      "日曜日",
      "祝日"
    ],
    "openDaysNote": ""
  },
  {
    "id": "1970100259",
    "name": "やさしい手　甲府東事業所",
    "kana": "ヤサシイテ　コウフヒガシジギョウショ",
    "address": "山梨県甲府市酒折1-20-23",
    "lat": 35.6552854,
    "lng": 138.595791,
    "tel": "055-231-7007",
    "url": "",
    "pref": "山梨県",
    "city": "甲府市",
    "category": "home_help",
    "serviceType": "訪問介護",
    "capacity": 0,
    "openDays": [
      "平日",
      "土曜日",
      "日曜日",
      "祝日"
    ],
    "openDaysNote": "２４時間対応"
  },
  {
    "id": "1970103568",
    "name": "やさしい手　甲府南事業所",
    "kana": "ヤサシイテ　コウフミナミジギョウショ",
    "address": "山梨県甲府市大里町2373-1",
    "lat": 35.6260985,
    "lng": 138.5696616,
    "tel": "055-220-2288",
    "url": "",
    "pref": "山梨県",
    "city": "甲府市",
    "category": "home_help",
    "serviceType": "訪問介護",
    "capacity": 0,
    "openDays": [
      "平日",
      "土曜日",
      "日曜日",
      "祝日"
    ],
    "openDaysNote": ""
  },
  {
    "id": "1970101786",
    "name": "やさしい手　富士見事業所",
    "kana": "ヤサシイテ　フジミジギョウショ",
    "address": "山梨県甲府市塩部4-1-13サンロードビル2Ｆ",
    "lat": 35.6732320764716,
    "lng": 138.552996150891,
    "tel": "055-220-3888",
    "url": "",
    "pref": "山梨県",
    "city": "甲府市",
    "category": "home_help",
    "serviceType": "訪問介護",
    "capacity": 0,
    "openDays": [
      "平日",
      "土曜日",
      "日曜日",
      "祝日"
    ],
    "openDaysNote": ""
  },
  {
    "id": "1970104442",
    "name": "ライフサポートひかり",
    "kana": "ライフサポートヒカリ",
    "address": "山梨県甲府市長松寺町7-13サンマリーナ長松寺1-A サンマリーナ長松寺1-A",
    "lat": 35.6657393,
    "lng": 138.5422114,
    "tel": "055-267-7261",
    "url": "https://www.lifesupport-hikari.com",
    "pref": "山梨県",
    "city": "甲府市",
    "category": "home_help",
    "serviceType": "訪問介護",
    "capacity": 0,
    "openDays": [
      "平日",
      "土曜日",
      "日曜日",
      "祝日"
    ],
    "openDaysNote": ""
  },
  {
    "id": "1970103139",
    "name": "縁ヘルパーステーション",
    "kana": "エンヘルパーステーション",
    "address": "山梨県甲府市下積翠寺町1534",
    "lat": 35.6919074744807,
    "lng": 138.584034434598,
    "tel": "055-269-5001",
    "url": "",
    "pref": "山梨県",
    "city": "甲府市",
    "category": "home_help",
    "serviceType": "訪問介護",
    "capacity": null,
    "openDays": [
      "平日"
    ],
    "openDaysNote": "時間外も相談の上対応可能です。電話などにより24時間常時連絡が可能な体制な体制をとっています。"
  },
  {
    "id": "1970105126",
    "name": "介護のみちる",
    "kana": "カイゴノミチル",
    "address": "住吉5丁目25-32Ｉ－ＳＯＨＯ－Ａ Ｉ－ＳＯＨＯ－Ａ",
    "lat": 33.5807852,
    "lng": 130.4141415,
    "tel": "055-231-5311",
    "url": "",
    "pref": "山梨県",
    "city": "甲府市",
    "category": "home_help",
    "serviceType": "訪問介護",
    "capacity": 0,
    "openDays": [
      "平日"
    ],
    "openDaysNote": ""
  },
  {
    "id": "1970105662",
    "name": "快晴苑　訪問介護事業所",
    "kana": "カイセイエン　ホウモンカイゴジギョウショ",
    "address": "山梨県甲府市大津町333番地",
    "lat": 35.609024,
    "lng": 138.5640001,
    "tel": "055-243-3939",
    "url": "https://daijukai-y.or.jp/",
    "pref": "山梨県",
    "city": "甲府市",
    "category": "home_help",
    "serviceType": "訪問介護",
    "capacity": null,
    "openDays": [
      "平日"
    ],
    "openDaysNote": "相談により時間外対応可"
  },
  {
    "id": "1970100648",
    "name": "公益社団法人山梨県看護協会　荒川ホームヘルパーステーション",
    "kana": "コウエキシャダンホウジンヤマナシケンカンゴキョウカイアラカワホームヘルパーステーション",
    "address": "山梨県甲府市荒川２丁目１０番２６号",
    "lat": 35.677405,
    "lng": 138.5377747,
    "tel": "055-254-5291",
    "url": "https.//www.yna.or.jp/houmo",
    "pref": "山梨県",
    "city": "甲府市",
    "category": "home_help",
    "serviceType": "訪問介護",
    "capacity": 0,
    "openDays": [
      "平日"
    ],
    "openDaysNote": "土、日、祝日、12/29～1/3は、ケアプランに沿って訪問介護サービスをさせていただきす。"
  },
  {
    "id": "1970101034",
    "name": "甲府ヘルパーステーション",
    "kana": "コウフヘルパーステーション",
    "address": "山梨県甲府市住吉5-22-14",
    "lat": 35.6344462,
    "lng": 138.5767696,
    "tel": "055-242-0166",
    "url": "http://heart-service.co.jp/",
    "pref": "山梨県",
    "city": "甲府市",
    "category": "home_help",
    "serviceType": "訪問介護",
    "capacity": null,
    "openDays": [
      "平日",
      "土曜日",
      "日曜日",
      "祝日"
    ],
    "openDaysNote": ""
  },
  {
    "id": "1970102131",
    "name": "今井整形訪問介護事業所",
    "kana": "イマイセイケイホウモンカイゴジギョウショ",
    "address": "山梨県甲府市上阿原町１１５１",
    "lat": 35.6438606,
    "lng": 138.6027885,
    "tel": "055-223-1100",
    "url": "",
    "pref": "山梨県",
    "city": "甲府市",
    "category": "home_help",
    "serviceType": "訪問介護",
    "capacity": 0,
    "openDays": [
      "平日",
      "土曜日",
      "日曜日",
      "祝日"
    ],
    "openDaysNote": "時間外も対応いたします。ご相談下さい。"
  },
  {
    "id": "1970100051",
    "name": "社会福祉法人　甲府市社会福祉協議会指定訪問介護事業所",
    "kana": "コウフシシャカイフクシキョウギカイシテイホウモンカイゴジギョウショ",
    "address": "山梨県甲府市相生2丁目17‐1甲府市南庁舎1号館　（旧相生小学校跡地） 甲府市南庁舎1号館　（旧相生小学校跡地）",
    "lat": 35.6562188512262,
    "lng": 138.567517049074,
    "tel": "055-228-7560",
    "url": "http://www.kofu-syakyo.or.jp/",
    "pref": "山梨県",
    "city": "甲府市",
    "category": "home_help",
    "serviceType": "訪問介護",
    "capacity": 0,
    "openDays": [
      "平日",
      "土曜日",
      "日曜日",
      "祝日"
    ],
    "openDaysNote": "サービスは２４時間対応。"
  },
  {
    "id": "1970103618",
    "name": "全労済在宅介護サービスセンター山梨",
    "kana": "ゼンロウサイザイタクカイゴサービスセンターヤマナシ",
    "address": "甲府市丸の内3-29-11",
    "lat": 35.659309,
    "lng": 138.5640132,
    "tel": "055-221-4165",
    "url": "",
    "pref": "山梨県",
    "city": "甲府市",
    "category": "home_help",
    "serviceType": "訪問介護",
    "capacity": 0,
    "openDays": [
      "平日",
      "土曜日",
      "日曜日",
      "祝日"
    ],
    "openDaysNote": "時間帯により、利用料金が異なります。"
  },
  {
    "id": "1970100655",
    "name": "藤訪問介護事業所",
    "kana": "フジホウモンカイゴジギョウショ",
    "address": "山梨県甲府市伊勢１－２－１８",
    "lat": 35.6512196,
    "lng": 138.5681636,
    "tel": "055-223-2322",
    "url": "",
    "pref": "山梨県",
    "city": "甲府市",
    "category": "home_help",
    "serviceType": "訪問介護",
    "capacity": 0,
    "openDays": [
      "平日",
      "土曜日"
    ],
    "openDaysNote": "ケアプラン及び利用者の要望等により休業日及び営業時間外でもサービスを実施する場合があります。"
  },
  {
    "id": "1970103824",
    "name": "日本ケアソリューション訪問介護コレクティブ「君住む街へ」",
    "kana": "ニホンケアソリューションホウモンカイゴコレクティブ「キミスムマチヘ」",
    "address": "甲府市国玉町1154-1",
    "lat": 35.6474046,
    "lng": 138.6015078,
    "tel": "０５５－２２５－５７５７",
    "url": "",
    "pref": "山梨県",
    "city": "甲府市",
    "category": "home_help",
    "serviceType": "訪問介護",
    "capacity": null,
    "openDays": [
      "平日",
      "土曜日",
      "日曜日",
      "祝日"
    ],
    "openDaysNote": "上記時間外も、相談可能です。"
  },
  {
    "id": "1970105340",
    "name": "訪問介護　みんなの家",
    "kana": "ホウモンカイゴミンナノイエ",
    "address": "山梨県甲府市青沼2-22-14",
    "lat": 35.6533684,
    "lng": 138.5784357,
    "tel": "055-236-0037",
    "url": "https://www.takumi.sc/welfare",
    "pref": "山梨県",
    "city": "甲府市",
    "category": "home_help",
    "serviceType": "訪問介護",
    "capacity": 0,
    "openDays": [
      "平日",
      "土曜日",
      "日曜日",
      "祝日"
    ],
    "openDaysNote": ""
  },
  {
    "id": "1970105027",
    "name": "訪問介護　志暖",
    "kana": "ホウモンカイゴ　シノン",
    "address": "山梨県甲府市善光寺1丁目28－25光栄ビル2階 光栄ビル2階",
    "lat": 35.6571115633256,
    "lng": 138.591378636725,
    "tel": "055-223-3785",
    "url": "",
    "pref": "山梨県",
    "city": "甲府市",
    "category": "home_help",
    "serviceType": "訪問介護",
    "capacity": 40,
    "openDays": [
      "平日",
      "土曜日",
      "日曜日",
      "祝日"
    ],
    "openDaysNote": "その他の時間につきましてはご相談ください。"
  },
  {
    "id": "1970104962",
    "name": "訪問介護　晴和",
    "kana": "ホウモンカイゴ　ハルカ",
    "address": "山梨県甲府市蓬沢町1200-18",
    "lat": 35.6452882,
    "lng": 138.5962862,
    "tel": "055-209-0064",
    "url": "",
    "pref": "山梨県",
    "city": "甲府市",
    "category": "home_help",
    "serviceType": "訪問介護",
    "capacity": 0,
    "openDays": [
      "平日",
      "土曜日",
      "日曜日",
      "祝日"
    ],
    "openDaysNote": "時間外は相談に応じます。"
  },
  {
    "id": "1970105514",
    "name": "訪問介護いろは",
    "kana": "ホウモンカイゴ　イロハ",
    "address": "山梨県　甲府市朝日1丁目１０－２朝日ビル102 朝日ビル102",
    "lat": 35.6707562,
    "lng": 138.5663843,
    "tel": "055-242-7035",
    "url": "http://hp.kaipoke.biz/df9/",
    "pref": "山梨県",
    "city": "甲府市",
    "category": "home_help",
    "serviceType": "訪問介護",
    "capacity": 75,
    "openDays": [
      "平日",
      "土曜日",
      "日曜日",
      "祝日"
    ],
    "openDaysNote": "応相談"
  },
  {
    "id": "1970101687",
    "name": "訪問介護えがお",
    "kana": "ホウモンカイゴエガオ",
    "address": "山梨県甲府市伊勢4-33-10",
    "lat": 35.6388049,
    "lng": 138.5665642,
    "tel": "055-237-2500",
    "url": "",
    "pref": "山梨県",
    "city": "甲府市",
    "category": "home_help",
    "serviceType": "訪問介護",
    "capacity": null,
    "openDays": [
      "平日",
      "土曜日",
      "日曜日",
      "祝日"
    ],
    "openDaysNote": "年中無休　朝6:00～7:59までと夕方18:00～21:59までは夜間早朝加算25％、深夜22:00～翌朝5:59までは深夜加算50％（介護報酬告示上の額）"
  },
  {
    "id": "1970104970",
    "name": "訪問介護かざぐるま",
    "kana": "ホウモンカイゴカザグルマ",
    "address": "山梨県甲府市高畑2-4-1",
    "lat": 35.6468289,
    "lng": 138.5633167,
    "tel": "055-244-5177",
    "url": "https://kazaguruma2.wixsite.com/kazaguruma",
    "pref": "山梨県",
    "city": "甲府市",
    "category": "home_help",
    "serviceType": "訪問介護",
    "capacity": 110,
    "openDays": [
      "平日",
      "土曜日",
      "日曜日",
      "祝日"
    ],
    "openDaysNote": "訪問できるヘルパーがいる場合は、24時間対応をいたします。"
  },
  {
    "id": "1970105795",
    "name": "訪問介護ステーションケアリー甲斐竜王",
    "kana": "ホウモンカイゴステーションケアリーカイリュウオウ",
    "address": "国母4-22-6レジデンスカサイ301 レジデンスカサイ301",
    "lat": 35.6358078,
    "lng": 138.5635898,
    "tel": "055-288-0133",
    "url": "",
    "pref": "山梨県",
    "city": "甲府市",
    "category": "home_help",
    "serviceType": "訪問介護",
    "capacity": 0,
    "openDays": [
      "平日",
      "土曜日",
      "日曜日",
      "祝日"
    ],
    "openDaysNote": ""
  },
  {
    "id": "1970105829",
    "name": "訪問介護まごころ甲府",
    "kana": "ホウモンカイゴマゴコロコウフ",
    "address": "山梨県甲府市徳行2-2-18テンバクS107 テンバクS107",
    "lat": 35.651332,
    "lng": 138.5492391,
    "tel": "055-206-2910",
    "url": "",
    "pref": "山梨県",
    "city": "甲府市",
    "category": "home_help",
    "serviceType": "訪問介護",
    "capacity": 0,
    "openDays": [
      "平日",
      "土曜日",
      "日曜日",
      "祝日"
    ],
    "openDaysNote": "可能な限りサービスの提供を致します。（改行）まずはご相談下さい。"
  },
  {
    "id": "1970101018",
    "name": "訪問介護事業所　あい",
    "kana": "ホウモンカイゴジギョウショ　アイ",
    "address": "山梨県甲府市天神町4-7",
    "lat": 35.6753885,
    "lng": 138.5688899,
    "tel": "055-255-1027",
    "url": "",
    "pref": "山梨県",
    "city": "甲府市",
    "category": "home_help",
    "serviceType": "訪問介護",
    "capacity": null,
    "openDays": [
      "平日",
      "土曜日",
      "日曜日",
      "祝日"
    ],
    "openDaysNote": ""
  },
  {
    "id": "1970105639",
    "name": "訪問介護事業所　フォーリーブス甲府",
    "kana": "ホウモンカイゴジギョウショ　フォーリーブスコウフ",
    "address": "東下条町107",
    "lat": 35.6127148,
    "lng": 138.5745859,
    "tel": "055-243-4800",
    "url": "",
    "pref": "山梨県",
    "city": "甲府市",
    "category": "home_help",
    "serviceType": "訪問介護",
    "capacity": null,
    "openDays": [
      "平日",
      "土曜日",
      "日曜日",
      "祝日"
    ],
    "openDaysNote": ""
  },
  {
    "id": "1970103436",
    "name": "訪問介護事業所コスモ・アンシア",
    "kana": "ホウモンカイゴジギョウショコスモ・アンシア",
    "address": "山梨県甲府市相生3-3-12",
    "lat": 35.6538034,
    "lng": 138.5693322,
    "tel": "055-221-8007",
    "url": "https://ikiikiclub.com/",
    "pref": "山梨県",
    "city": "甲府市",
    "category": "home_help",
    "serviceType": "訪問介護",
    "capacity": 0,
    "openDays": [
      "平日",
      "土曜日",
      "日曜日",
      "祝日"
    ],
    "openDaysNote": ""
  },
  {
    "id": "1970105670",
    "name": "訪問介護事業所コスモ甲府西",
    "kana": "ホウモンカイゴジギョウショコスモコウフニシ",
    "address": "山梨県甲府市徳行3丁目9-30　太田ビル201",
    "lat": 35.6487364,
    "lng": 138.54158,
    "tel": "055-236-8841",
    "url": "https://ikiikiclub.com/",
    "pref": "山梨県",
    "city": "甲府市",
    "category": "home_help",
    "serviceType": "訪問介護",
    "capacity": 0,
    "openDays": [
      "平日",
      "土曜日",
      "日曜日",
      "祝日"
    ],
    "openDaysNote": ""
  },
  {
    "id": "1970105290",
    "name": "訪問介護事業所ほの字",
    "kana": "ホウモンカイゴジギョウショホノジ",
    "address": "山梨県甲府市住吉5丁目25-14IKビル205号 IKビル205号",
    "lat": 35.6351554,
    "lng": 138.5784795,
    "tel": "055-288-8662",
    "url": "",
    "pref": "山梨県",
    "city": "甲府市",
    "category": "home_help",
    "serviceType": "訪問介護",
    "capacity": 0,
    "openDays": [
      "平日",
      "土曜日",
      "日曜日",
      "祝日"
    ],
    "openDaysNote": "24h体制"
  },
  {
    "id": "1970105480",
    "name": "訪問介護事業所奏",
    "kana": "ホウモンカイゴジギョウショカナデ",
    "address": "山梨県甲府市上石田3丁目19-23サービス付き高齢者向け住宅奏 サービス付き高齢者向け住宅奏",
    "lat": 35.6528726,
    "lng": 138.552983,
    "tel": "055-288-9277",
    "url": "http://kanade.jandm.co.jp",
    "pref": "山梨県",
    "city": "甲府市",
    "category": "home_help",
    "serviceType": "訪問介護",
    "capacity": null,
    "openDays": [
      "平日",
      "土曜日",
      "日曜日"
    ],
    "openDaysNote": ""
  },
  {
    "id": "1970104657",
    "name": "訪問介護事業所奏楽",
    "kana": "ホウモンカイゴジギョウショソラ",
    "address": "山梨県甲府市上阿原町1055-1訪問介護事業所奏楽 訪問介護事業所奏楽",
    "lat": 35.6489031526823,
    "lng": 138.60818186142,
    "tel": "055-288-9277",
    "url": "http://sora.plus-you.jp",
    "pref": "山梨県",
    "city": "甲府市",
    "category": "home_help",
    "serviceType": "訪問介護",
    "capacity": 0,
    "openDays": [
      "平日",
      "土曜日",
      "日曜日"
    ],
    "openDaysNote": ""
  },
  {
    "id": "1970101182",
    "name": "有限会社　小春日和",
    "kana": "ユウゲンカイシャ　コハルビヨリ",
    "address": "山梨県甲府市中小河原町1608-1",
    "lat": 35.6306419,
    "lng": 138.5690183,
    "tel": "055-242-3000",
    "url": "https://koharubi-kaigo.com/",
    "pref": "山梨県",
    "city": "甲府市",
    "category": "home_help",
    "serviceType": "訪問介護",
    "capacity": 60,
    "openDays": [
      "平日",
      "土曜日",
      "日曜日",
      "祝日"
    ],
    "openDaysNote": "応相談可"
  },
  {
    "id": "1970100440",
    "name": "有限会社アルファー・キッド",
    "kana": "ユウゲンガイシャアルファー・キッド",
    "address": "甲府市朝日1-6-1",
    "lat": 35.6699378,
    "lng": 138.5659735,
    "tel": "055-254-7557",
    "url": "",
    "pref": "山梨県",
    "city": "甲府市",
    "category": "home_help",
    "serviceType": "訪問介護",
    "capacity": 36,
    "openDays": [
      "平日",
      "土曜日",
      "日曜日",
      "祝日"
    ],
    "openDaysNote": "上記以外の時間帯は相談させていただきます。"
  },
  {
    "id": "1970101000",
    "name": "有限会社グットケアー住吉ヘルパーステーション",
    "kana": "ユウゲンガイシャグットケアースミヨシヘルパーステーション",
    "address": "山梨県甲府市住吉3-21-16",
    "lat": 35.6402024,
    "lng": 138.5810405,
    "tel": "055-236-6008",
    "url": "http://www.goodcare-kaigo.com/",
    "pref": "山梨県",
    "city": "甲府市",
    "category": "home_help",
    "serviceType": "訪問介護",
    "capacity": 0,
    "openDays": [
      "平日",
      "土曜日"
    ],
    "openDaysNote": "相談の上対応可能"
  },
  {
    "id": "1970101273",
    "name": "有限会社グットケアー東光寺ヘルパーステーション「子ぶた」",
    "kana": "ユウゲンガイシャグットケアートウコウジヘルパーステーション「コブタ」",
    "address": "山梨県甲府市東光寺2-19-29",
    "lat": 35.6623167,
    "lng": 138.5877858,
    "tel": "055-236-6556",
    "url": "http://www.goodcare-kaigo.com/",
    "pref": "山梨県",
    "city": "甲府市",
    "category": "home_help",
    "serviceType": "訪問介護",
    "capacity": 0,
    "openDays": [
      "平日",
      "土曜日"
    ],
    "openDaysNote": "相談の上対応可能"
  },
  {
    "id": "1970101539",
    "name": "有限会社さわやか介護",
    "kana": "ユウゲンガイシャサワヤカカイゴ",
    "address": "山梨県甲府市和戸町29-1",
    "lat": 35.6502508,
    "lng": 138.6218011,
    "tel": "055-237-8022",
    "url": "",
    "pref": "山梨県",
    "city": "甲府市",
    "category": "home_help",
    "serviceType": "訪問介護",
    "capacity": 0,
    "openDays": [
      "平日",
      "土曜日",
      "日曜日",
      "祝日"
    ],
    "openDaysNote": ""
  },
  {
    "id": "1970102792",
    "name": "和らぎ訪問介護事業所",
    "kana": "ヤワラギホウモンカイゴジギョウショ",
    "address": "山梨県甲府市上石田３－１３－１５ホーチキビル２Ｆ北 ホーチキビル２Ｆ北",
    "lat": 35.6515831,
    "lng": 138.5567939,
    "tel": "０５５－２２７－３９４０",
    "url": "",
    "pref": "山梨県",
    "city": "甲府市",
    "category": "home_help",
    "serviceType": "訪問介護",
    "capacity": null,
    "openDays": [
      "平日",
      "土曜日",
      "日曜日",
      "祝日"
    ],
    "openDaysNote": "当事業所スタッフによる対応可能時間のサービス提供となります。"
  },
  {
    "id": "1970102776",
    "name": "和告ヘルパーステーション",
    "kana": "ワコウヘルパーステーション",
    "address": "中村町4-12",
    "lat": 35.6677873110644,
    "lng": 138.53318884418,
    "tel": "055-226-3261",
    "url": "http://www.wakouwelfare.or.jp",
    "pref": "山梨県",
    "city": "甲府市",
    "category": "home_help",
    "serviceType": "訪問介護",
    "capacity": 40,
    "openDays": [
      "平日",
      "土曜日",
      "日曜日",
      "祝日"
    ],
    "openDaysNote": ""
  },
  {
    "id": "1970200786",
    "name": "サンクシア山梨ヘルパーステーション",
    "kana": "サンクシアヤマナシヘルパーステーション",
    "address": "山梨県山梨市下井尻347-10-1",
    "lat": 35.702098,
    "lng": 138.7088199,
    "tel": "0553-39-9047",
    "url": "",
    "pref": "山梨県",
    "city": "山梨市",
    "category": "home_help",
    "serviceType": "訪問介護",
    "capacity": 0,
    "openDays": [
      "平日",
      "土曜日",
      "日曜日",
      "祝日"
    ],
    "openDaysNote": ""
  },
  {
    "id": "1970200281",
    "name": "セントケア加納岩",
    "kana": "セントケアカノイワ",
    "address": "山梨県山梨市上神内川１１７１－１ＴＩビル１階 ＴＩビル１階",
    "lat": 35.688172,
    "lng": 138.6843891,
    "tel": "0553-20-8047",
    "url": "",
    "pref": "山梨県",
    "city": "山梨市",
    "category": "home_help",
    "serviceType": "訪問介護",
    "capacity": 0,
    "openDays": [
      "平日",
      "土曜日",
      "日曜日",
      "祝日"
    ],
    "openDaysNote": "サービス提供時間は、事前に居宅介護支援事業者等により計画された居宅サービス計画書に基づくものとし、原則として緊急に依頼された訪問介護の提供は行わないものとする。"
  },
  {
    "id": "1970200760",
    "name": "ヘルパーステーションローズマリーの家",
    "kana": "ヘルパーステーションローズマリーノイエ",
    "address": "山梨県山梨市小原西968‐6鶴田ビル2階 鶴田ビル2階",
    "lat": 35.6926311,
    "lng": 138.6861022,
    "tel": "0553‐39‐8708",
    "url": "",
    "pref": "山梨県",
    "city": "山梨市",
    "category": "home_help",
    "serviceType": "訪問介護",
    "capacity": 0,
    "openDays": [
      "平日",
      "土曜日",
      "日曜日",
      "祝日"
    ],
    "openDaysNote": ""
  },
  {
    "id": "1970200075",
    "name": "やさしい手　山梨事業所",
    "kana": "ヤサシイテ　ヤマナシジギョウショ",
    "address": "山梨市上神内川１６４６ステーションビル竹川2階",
    "lat": 35.6855873,
    "lng": 138.6851729,
    "tel": "0553-21-7330",
    "url": "",
    "pref": "山梨県",
    "city": "山梨市",
    "category": "home_help",
    "serviceType": "訪問介護",
    "capacity": 0,
    "openDays": [
      "平日",
      "土曜日",
      "日曜日",
      "祝日"
    ],
    "openDaysNote": ""
  },
  {
    "id": "1970200299",
    "name": "介護サービス　リアン",
    "kana": "カイゴサービス　リアン",
    "address": "山梨県山梨市小原西７４０－２　メゾン小菅１０２",
    "lat": 35.6944261,
    "lng": 138.6921396,
    "tel": "0553-20-1081",
    "url": "",
    "pref": "山梨県",
    "city": "山梨市",
    "category": "home_help",
    "serviceType": "訪問介護",
    "capacity": null,
    "openDays": [
      "平日",
      "土曜日",
      "日曜日",
      "祝日"
    ],
    "openDaysNote": "稼動可能人員に制限有り。"
  },
  {
    "id": "1970200190",
    "name": "社会福祉法人山梨市社会福祉協議会山梨訪問介護事業所",
    "kana": "シャカイフクシホウジンヤマナシシシャカイフクシキョウギカイヤマナシホウモンカイゴジギョウショ",
    "address": "山梨県山梨市小原西649-1",
    "lat": 35.6957889,
    "lng": 138.6933449,
    "tel": "0553-22-9616",
    "url": "http://www.yamanashi-shakyo.jp",
    "pref": "山梨県",
    "city": "山梨市",
    "category": "home_help",
    "serviceType": "訪問介護",
    "capacity": null,
    "openDays": [
      "平日",
      "土曜日",
      "日曜日",
      "祝日"
    ],
    "openDaysNote": "原則として、年末年始を除く毎日（改行）年末年始も必要に応じて、サービスの提供を行う"
  },
  {
    "id": "1970200521",
    "name": "訪問介護サービスリアン",
    "kana": "ホウモンカイゴサービスリアン",
    "address": "山梨県山梨市七日市場710-1",
    "lat": 35.6999804515035,
    "lng": 138.699575749738,
    "tel": "0553-20-1081",
    "url": "https://jyukokai.jp",
    "pref": "山梨県",
    "city": "山梨市",
    "category": "home_help",
    "serviceType": "訪問介護",
    "capacity": null,
    "openDays": [
      "平日",
      "土曜日",
      "日曜日",
      "祝日"
    ],
    "openDaysNote": "稼働可能人員に制限あり。"
  },
  {
    "id": "1970600548",
    "name": "市川訪問介護ステーション",
    "kana": "イチカワホウモンカイゴステーション",
    "address": "山梨県西八代郡市川三郷町高田518番地1",
    "lat": 35.556437,
    "lng": 138.49012,
    "tel": "055-272-3980",
    "url": "",
    "pref": "山梨県",
    "city": "市川三郷町",
    "category": "home_help",
    "serviceType": "訪問介護",
    "capacity": 0,
    "openDays": [
      "平日",
      "土曜日",
      "日曜日",
      "祝日"
    ],
    "openDaysNote": "上記の営業日、営業時間の他、居宅介護計画書に位置付けられた曜日、時間のサービス提供を行います。"
  },
  {
    "id": "1970600282",
    "name": "社会福祉法人　市川三郷町社会福祉協議会訪問介護事業所",
    "kana": "イチカワミサトチョウシャカイフクシキョウギカイホウモンカイゴジギョウショ",
    "address": "山梨県西八代郡市川三郷町市川大門４１６番地http://www1.ocn.ne.jp/~i-shakyo/ http://www1.ocn.ne.jp/~i-shakyo/",
    "lat": 35.5599756,
    "lng": 138.4928621,
    "tel": "055-272-5169",
    "url": "",
    "pref": "山梨県",
    "city": "市川三郷町",
    "category": "home_help",
    "serviceType": "訪問介護",
    "capacity": null,
    "openDays": [
      "平日",
      "土曜日",
      "祝日"
    ],
    "openDaysNote": "特になし"
  },
  {
    "id": "1970801252",
    "name": "ニチイケアセンター甲府昭和",
    "kana": "ニチイケアセンターコウフショウワ",
    "address": "山梨県中巨摩郡昭和町飯喰895-1",
    "lat": 35.6220682,
    "lng": 138.5223862,
    "tel": "055-268-7070",
    "url": "",
    "pref": "山梨県",
    "city": "昭和町",
    "category": "home_help",
    "serviceType": "訪問介護",
    "capacity": 0,
    "openDays": [
      "平日",
      "土曜日",
      "日曜日",
      "祝日"
    ],
    "openDaysNote": "居宅サービス計画により休業日及び営業時間外であってもサービスを提供する場合があります。"
  },
  {
    "id": "1970801062",
    "name": "常永訪問介護ステーション",
    "kana": "ジョウエイホウモンカイゴステーション",
    "address": "山梨県中巨摩郡昭和町河西１１４９－２",
    "lat": 35.6184737,
    "lng": 138.5198296,
    "tel": "055-288-0711",
    "url": "",
    "pref": "山梨県",
    "city": "昭和町",
    "category": "home_help",
    "serviceType": "訪問介護",
    "capacity": null,
    "openDays": [
      "平日",
      "土曜日",
      "日曜日",
      "祝日"
    ],
    "openDaysNote": "利用者のニーズに応じて上記の時間外でもサービスの提供をいたします。"
  },
  {
    "id": "1970801070",
    "name": "虹の郷甲府",
    "kana": "ニジノサトコウフ",
    "address": "山梨県中巨摩郡昭和町西条3798",
    "lat": 35.642887,
    "lng": 138.543169,
    "tel": "055-268-6311",
    "url": "https://www.nijinosato.biz/kcare/",
    "pref": "山梨県",
    "city": "昭和町",
    "category": "home_help",
    "serviceType": "訪問介護",
    "capacity": 0,
    "openDays": [
      "平日",
      "祝日"
    ],
    "openDaysNote": "お客様希望により応相談"
  },
  {
    "id": "1972000150",
    "name": "ケアサービスポッケの会",
    "kana": "ケアサービスポッケノカイ",
    "address": "山梨県上野原市上野原２０３７－１",
    "lat": 35.6278908,
    "lng": 139.1130247,
    "tel": "0554-63-2690",
    "url": "",
    "pref": "山梨県",
    "city": "上野原市",
    "category": "home_help",
    "serviceType": "訪問介護",
    "capacity": 65,
    "openDays": [
      "平日"
    ],
    "openDaysNote": "管理者が必要と認めた場合は、営業日・営業時間を変更することができます。"
  },
  {
    "id": "1971500150",
    "name": "ケアステーションにんじん・上野原",
    "kana": "ケアステーションニンジン・ウエノハラ",
    "address": "山梨県上野原市上野原522",
    "lat": 35.6236419895209,
    "lng": 139.118845729114,
    "tel": "0554-62-6222",
    "url": "http://www.ninjin.or.jp/",
    "pref": "山梨県",
    "city": "上野原市",
    "category": "home_help",
    "serviceType": "訪問介護",
    "capacity": null,
    "openDays": [
      "平日",
      "土曜日",
      "日曜日",
      "祝日"
    ],
    "openDaysNote": ""
  },
  {
    "id": "1972000127",
    "name": "はなぶさ介護保険タクシー株式会社",
    "kana": "ハナブサカイゴホケンタクシイカブシキガイシャ",
    "address": "山梨県上野原市桑久保864",
    "lat": 35.6410036,
    "lng": 139.065916,
    "tel": "0554-66-1165",
    "url": "",
    "pref": "山梨県",
    "city": "上野原市",
    "category": "home_help",
    "serviceType": "訪問介護",
    "capacity": null,
    "openDays": [
      "平日",
      "土曜日",
      "祝日"
    ],
    "openDaysNote": ""
  },
  {
    "id": "1972000317",
    "name": "山なしこあら　指定訪問介護事業所",
    "kana": "ヤマナシコアラ　シテイホウモンカイゴジギョウショ",
    "address": "山梨県上野原市鶴島589-4",
    "lat": 35.6116618,
    "lng": 139.1239423,
    "tel": "0554-63-6337",
    "url": "",
    "pref": "山梨県",
    "city": "上野原市",
    "category": "home_help",
    "serviceType": "訪問介護",
    "capacity": 40,
    "openDays": [
      "平日"
    ],
    "openDaysNote": ""
  },
  {
    "id": "1972000192",
    "name": "指定訪問介護サービス　あお葉",
    "kana": "シテイホウモンカイゴサービス　アオバ",
    "address": "山梨県上野原市上野原7380-2",
    "lat": 35.6474564,
    "lng": 139.1213317,
    "tel": "0554-56-8380",
    "url": "",
    "pref": "山梨県",
    "city": "上野原市",
    "category": "home_help",
    "serviceType": "訪問介護",
    "capacity": null,
    "openDays": [
      "平日"
    ],
    "openDaysNote": ""
  },
  {
    "id": "1972000176",
    "name": "訪問介護　太陽",
    "kana": "ホウモンカイゴ　タイヨウ",
    "address": "山梨県上野原市上野原4687-1",
    "lat": 35.6383108,
    "lng": 139.1054903,
    "tel": "0554-56-7578",
    "url": "",
    "pref": "山梨県",
    "city": "上野原市",
    "category": "home_help",
    "serviceType": "訪問介護",
    "capacity": null,
    "openDays": [
      "平日",
      "土曜日",
      "日曜日",
      "祝日"
    ],
    "openDaysNote": ""
  },
  {
    "id": "1972000374",
    "name": "訪問介護あいらーく",
    "kana": "ホウモンカイゴアイラーク",
    "address": "山梨県上野原市上野原3584",
    "lat": 35.6293843,
    "lng": 139.1119761,
    "tel": "554630685",
    "url": "",
    "pref": "山梨県",
    "city": "上野原市",
    "category": "home_help",
    "serviceType": "訪問介護",
    "capacity": 0,
    "openDays": [
      "平日",
      "土曜日",
      "祝日"
    ],
    "openDaysNote": ""
  },
  {
    "id": "1971400237",
    "name": "有限会社　　虹の橋",
    "kana": "ニジノハシ",
    "address": "山梨県上野原市鶴川　886番地",
    "lat": 35.6333113,
    "lng": 139.0994493,
    "tel": "0554-30-2108",
    "url": "",
    "pref": "山梨県",
    "city": "上野原市",
    "category": "home_help",
    "serviceType": "訪問介護",
    "capacity": null,
    "openDays": [
      "平日",
      "土曜日",
      "日曜日",
      "祝日"
    ],
    "openDaysNote": "提供時間帯は８時から又は１８時以降も相談により対応しています。（サービス提供票兼サービス計画に基づいて対応）"
  },
  {
    "id": "1960790028",
    "name": "ヘルパーステーションいいとみ",
    "kana": "ヘルパーステーションイイトミ",
    "address": "山梨県南巨摩郡身延町飯富１６２８",
    "lat": 35.4354226,
    "lng": 138.4378994,
    "tel": "0556-42-2980",
    "url": "http://www6.ocn.ne.jp/~iitomi/",
    "pref": "山梨県",
    "city": "身延町",
    "category": "home_help",
    "serviceType": "訪問介護",
    "capacity": 0,
    "openDays": [
      "平日"
    ],
    "openDaysNote": "上記営業日・営業時間に関わらず、利用者との相談の上訪問を行います。"
  },
  {
    "id": "1970700553",
    "name": "身延町社会福祉協議会　指定訪問介護事業所",
    "kana": "ミノブチョウシャカイフクシキョウギカイ　シテイホウモンカイゴジギョウショ",
    "address": "山梨県南巨摩郡身延町波木井272-1",
    "lat": 35.3723702,
    "lng": 138.4449371,
    "tel": "0556-62-3773",
    "url": "www.minobushakyo.jp",
    "pref": "山梨県",
    "city": "身延町",
    "category": "home_help",
    "serviceType": "訪問介護",
    "capacity": 0,
    "openDays": [
      "平日",
      "土曜日",
      "日曜日",
      "祝日"
    ],
    "openDaysNote": "サービス提供日は、天災その他止むを得ず業務を遂行できない日を除き毎日とする。ただし、１２月２９日から１月３日までは、緊急時のみの対応とする。"
  },
  {
    "id": "1970700496",
    "name": "福祉ネットスマイル",
    "kana": "フクシネットスマイル",
    "address": "山梨県南巨摩郡身延町身延３６３７番地",
    "lat": 35.3796221,
    "lng": 138.4219174,
    "tel": "0556-62-1134",
    "url": "",
    "pref": "山梨県",
    "city": "身延町",
    "category": "home_help",
    "serviceType": "訪問介護",
    "capacity": null,
    "openDays": [
      "平日",
      "土曜日",
      "日曜日",
      "祝日"
    ],
    "openDaysNote": "２４時間　・　３６５日。　ただし、交通の事情により対応できない場合がある。"
  },
  {
    "id": "1970700660",
    "name": "訪問介護　おんわ",
    "kana": "ホウモンカイゴ　オンワ",
    "address": "山梨県南巨摩郡身延町下山９０８１－１",
    "lat": 35.411963,
    "lng": 138.4417405,
    "tel": "0556-62-5390",
    "url": "",
    "pref": "山梨県",
    "city": "身延町",
    "category": "home_help",
    "serviceType": "訪問介護",
    "capacity": null,
    "openDays": [
      "平日",
      "土曜日",
      "日曜日",
      "祝日"
    ],
    "openDaysNote": "年末年始（１２／３０～１／３）は除く。"
  },
  {
    "id": "1971300783",
    "name": "西桂地域福祉事業所　ばいかも",
    "kana": "ニシカツラチイキフクシジギョウショ　バイカモ",
    "address": "山梨県南都留郡西桂町下暮地915-7",
    "lat": 35.5236907,
    "lng": 138.842914,
    "tel": "0555-25-3300",
    "url": "",
    "pref": "山梨県",
    "city": "西桂町",
    "category": "home_help",
    "serviceType": "訪問介護",
    "capacity": null,
    "openDays": [
      "平日",
      "土曜日",
      "日曜日",
      "祝日"
    ],
    "openDaysNote": "利用者、ご家族の人権を尊重し安心安寧な介護に留意する"
  },
  {
    "id": "1971300122",
    "name": "西桂訪問介護事業所",
    "kana": "ニシカツラホウモンカイゴジギョウショ",
    "address": "山梨県南都留郡西桂町下暮地915-7",
    "lat": 35.5236907,
    "lng": 138.842914,
    "tel": "0555-25-3300",
    "url": "",
    "pref": "山梨県",
    "city": "西桂町",
    "category": "home_help",
    "serviceType": "訪問介護",
    "capacity": null,
    "openDays": [
      "平日",
      "土曜日",
      "祝日"
    ],
    "openDaysNote": "日曜日・年末年始定休"
  },
  {
    "id": "1970701387",
    "name": "早川町社会福祉協議会訪問介護事業所",
    "kana": "ハヤカワチョウシャカイフクシキョウギカイホウモンカイゴジギョウショ",
    "address": "山梨県南巨摩郡早川町草塩８８番地",
    "lat": 35.4280008,
    "lng": 138.3418205,
    "tel": "0556-45-3003",
    "url": "https://h-syakyo.com",
    "pref": "山梨県",
    "city": "早川町",
    "category": "home_help",
    "serviceType": "訪問介護",
    "capacity": null,
    "openDays": [
      "平日",
      "祝日"
    ],
    "openDaysNote": ""
  },
  {
    "id": "1971400286",
    "name": "かえでケアサービス",
    "kana": "カエデケアサービス",
    "address": "山梨県大月市猿橋町伊良原214",
    "lat": 35.6138334,
    "lng": 138.9869503,
    "tel": "0554-20-1261",
    "url": "",
    "pref": "山梨県",
    "city": "大月市",
    "category": "home_help",
    "serviceType": "訪問介護",
    "capacity": null,
    "openDays": [
      "平日",
      "土曜日"
    ],
    "openDaysNote": "独居老人については特別なはからいも可"
  },
  {
    "id": "1971400492",
    "name": "クローバーケアサービス",
    "kana": "クローバーケアサービス",
    "address": "山梨県大月市御太刀２丁目８－８　ラ・グランメール２階",
    "lat": 35.6161311,
    "lng": 138.9469918,
    "tel": "0554-23-3288",
    "url": "",
    "pref": "山梨県",
    "city": "大月市",
    "category": "home_help",
    "serviceType": "訪問介護",
    "capacity": null,
    "openDays": [
      "平日",
      "土曜日",
      "日曜日",
      "祝日"
    ],
    "openDaysNote": "特になし"
  },
  {
    "id": "1971400435",
    "name": "セントケア大月",
    "kana": "セントケアオオツキ",
    "address": "山梨県大月市大月２丁目3-8",
    "lat": 35.6117732753858,
    "lng": 138.939572798891,
    "tel": "0554-21-5311",
    "url": "",
    "pref": "山梨県",
    "city": "大月市",
    "category": "home_help",
    "serviceType": "訪問介護",
    "capacity": 0,
    "openDays": [
      "平日",
      "土曜日",
      "日曜日",
      "祝日"
    ],
    "openDaysNote": "サービス提供時間は、事前に居宅介護支援事業者等により計画された居宅サービス計画書に基づくものとし、原則として緊急に依頼された訪問介護の提供は行わないものとする。"
  },
  {
    "id": "1971400104",
    "name": "ヘルパーステーション「花さき」",
    "kana": "ヘルパーステーション「ハナサキ」",
    "address": "山梨県大月市大月町花咲１０番地",
    "lat": 35.6045467,
    "lng": 138.9271983,
    "tel": "0554-23-2001",
    "url": "",
    "pref": "山梨県",
    "city": "大月市",
    "category": "home_help",
    "serviceType": "訪問介護",
    "capacity": null,
    "openDays": [
      "平日",
      "土曜日",
      "日曜日",
      "祝日"
    ],
    "openDaysNote": "天災等（大雪等）やむを得ず業務を遂行できない日を除く"
  },
  {
    "id": "1971400161",
    "name": "介護サービス　ささご",
    "kana": "カイゴサービス　ササゴ",
    "address": "山梨県大月市駒橋1－9－16",
    "lat": 35.614074,
    "lng": 138.9496627,
    "tel": "0554-22-6541",
    "url": "",
    "pref": "山梨県",
    "city": "大月市",
    "category": "home_help",
    "serviceType": "訪問介護",
    "capacity": null,
    "openDays": [
      "平日",
      "土曜日",
      "日曜日",
      "祝日"
    ],
    "openDaysNote": ""
  },
  {
    "id": "1971400195",
    "name": "福祉工房",
    "kana": "フクシコウボウ",
    "address": "山梨県大月市大月2丁目12-30塩谷ビル1F 塩谷ビル1F",
    "lat": 35.6060085,
    "lng": 138.9324647,
    "tel": "0554-20-1222",
    "url": "",
    "pref": "山梨県",
    "city": "大月市",
    "category": "home_help",
    "serviceType": "訪問介護",
    "capacity": 3,
    "openDays": [
      "平日",
      "土曜日",
      "日曜日",
      "祝日"
    ],
    "openDaysNote": "特に無し"
  },
  {
    "id": "1972300360",
    "name": "ケアサポート美来",
    "kana": "ケアサポートミライ",
    "address": "山梨県中央市成島3507番地8",
    "lat": 35.6101044831989,
    "lng": 138.543505158896,
    "tel": "0120-923-786",
    "url": "",
    "pref": "山梨県",
    "city": "中央市",
    "category": "home_help",
    "serviceType": "訪問介護",
    "capacity": 140,
    "openDays": [
      "平日",
      "土曜日",
      "日曜日",
      "祝日"
    ],
    "openDaysNote": "上記時間外でも対応可、お問い合わせください。"
  },
  {
    "id": "1972300055",
    "name": "中央市社会福祉協議会　訪問介護事業所",
    "kana": "チュウオウシシャカイフクシキョウギカイ　ホウモンカイゴジギョウショ",
    "address": "山梨県　中央市　臼井阿原　301-5",
    "lat": 35.6002538,
    "lng": 138.516883,
    "tel": "055-273-7300",
    "url": "",
    "pref": "山梨県",
    "city": "中央市",
    "category": "home_help",
    "serviceType": "訪問介護",
    "capacity": null,
    "openDays": [
      "平日"
    ],
    "openDaysNote": "希望の限りこの限りではない。"
  },
  {
    "id": "1971801541",
    "name": "アクア笛吹訪問介護",
    "kana": "アクアフエフキホウモンカイゴ",
    "address": "山梨県笛吹市石和町八田490-15",
    "lat": 35.6561708,
    "lng": 138.6423535,
    "tel": "055-242-7177",
    "url": "",
    "pref": "山梨県",
    "city": "笛吹市",
    "category": "home_help",
    "serviceType": "訪問介護",
    "capacity": 0,
    "openDays": [
      "平日",
      "土曜日",
      "日曜日",
      "祝日"
    ],
    "openDaysNote": ""
  },
  {
    "id": "1971800675",
    "name": "サンテヘルパーステーション",
    "kana": "サンテヘルパーステーション",
    "address": "山梨県笛吹市一宮町南野呂４２２－１",
    "lat": 35.6564797,
    "lng": 138.7095004,
    "tel": "0553-47-3181",
    "url": "http://kotokukai.com/",
    "pref": "山梨県",
    "city": "笛吹市",
    "category": "home_help",
    "serviceType": "訪問介護",
    "capacity": 0,
    "openDays": [
      "平日",
      "土曜日",
      "日曜日",
      "祝日"
    ],
    "openDaysNote": "年末年始は除く。"
  },
  {
    "id": "1971800626",
    "name": "ファミーユ",
    "kana": "ファミーユ",
    "address": "春日居町鎮目714-1",
    "lat": 35.66365853185,
    "lng": 138.642366537534,
    "tel": "0553-26-5046",
    "url": "",
    "pref": "山梨県",
    "city": "笛吹市",
    "category": "home_help",
    "serviceType": "訪問介護",
    "capacity": 70,
    "openDays": [
      "平日",
      "土曜日",
      "祝日"
    ],
    "openDaysNote": "プランに応じて（日曜のサービス提供は応相談・年末年始応相談）　　　　　　　　　　　　　サービス提供時間外については応相談"
  },
  {
    "id": "1971800691",
    "name": "ヘルパーステーション　オリオン",
    "kana": "ヘルパーステーション　オリオン",
    "address": "山梨県笛吹市八代町南679-2",
    "lat": 35.6138133,
    "lng": 138.6373732,
    "tel": "055-287-8330",
    "url": "",
    "pref": "山梨県",
    "city": "笛吹市",
    "category": "home_help",
    "serviceType": "訪問介護",
    "capacity": 0,
    "openDays": [
      "平日",
      "土曜日",
      "日曜日",
      "祝日"
    ],
    "openDaysNote": ""
  },
  {
    "id": "1971801509",
    "name": "ヘルパーステーションコスモ笛吹",
    "kana": "ヘルパーステーションコスモフエフキ",
    "address": "山梨県笛吹市石和町四日市場1647プラネットマンション1F プラネットマンション1F",
    "lat": 35.6446919,
    "lng": 138.62998,
    "tel": "055‐287‐8103",
    "url": "http://ikiikiclub.com",
    "pref": "山梨県",
    "city": "笛吹市",
    "category": "home_help",
    "serviceType": "訪問介護",
    "capacity": 0,
    "openDays": [
      "平日",
      "土曜日",
      "日曜日",
      "祝日"
    ],
    "openDaysNote": ""
  },
  {
    "id": "1971801392",
    "name": "ヘルパーステーションほほえみ",
    "kana": "ヘルパーステーションホホエミ",
    "address": "山梨県笛吹市石和町広瀬781",
    "lat": 35.642274489375,
    "lng": 138.621796976291,
    "tel": "055-261-1270",
    "url": "http://www.yamanashi-min.jp/fukushikai/",
    "pref": "山梨県",
    "city": "笛吹市",
    "category": "home_help",
    "serviceType": "訪問介護",
    "capacity": 90,
    "openDays": [
      "平日",
      "土曜日",
      "祝日"
    ],
    "openDaysNote": "利用者様の状態によっては上記定休日の限りではありません。（改行）申し出があればご相談に応じます。"
  },
  {
    "id": "1971801525",
    "name": "ヘルパーステーション光珠",
    "kana": "ヘルパーステーションコウジュ",
    "address": "山梨県笛吹市御坂町上黒駒2964",
    "lat": 35.6075783508423,
    "lng": 138.705749744844,
    "tel": "055-264-2811",
    "url": "http://www.kojyu.or.jp/",
    "pref": "山梨県",
    "city": "笛吹市",
    "category": "home_help",
    "serviceType": "訪問介護",
    "capacity": 0,
    "openDays": [
      "平日"
    ],
    "openDaysNote": "利用者の希望に応じて、上記時間外でも、サービス提供可能な体制をとります"
  },
  {
    "id": "1970500532",
    "name": "やさしい手　笛吹事業所",
    "kana": "ヤサシイテ　フエフキジギョウショ",
    "address": "山梨県笛吹市一宮町小城300-1",
    "lat": 35.6586671,
    "lng": 138.6918034,
    "tel": "0553-20-5330",
    "url": "",
    "pref": "山梨県",
    "city": "笛吹市",
    "category": "home_help",
    "serviceType": "訪問介護",
    "capacity": 0,
    "openDays": [
      "平日",
      "土曜日",
      "日曜日",
      "祝日"
    ],
    "openDaysNote": ""
  },
  {
    "id": "1971800493",
    "name": "応援家族　石和温泉リゾート",
    "kana": "オウエンカゾク　イサワオンセンリゾート",
    "address": "山梨県笛吹市石和町川中島４６７－１",
    "lat": 35.6570701,
    "lng": 138.6468211,
    "tel": "055-261-2922",
    "url": "http://ouenkazoku.co.jp",
    "pref": "山梨県",
    "city": "笛吹市",
    "category": "home_help",
    "serviceType": "訪問介護",
    "capacity": null,
    "openDays": [
      "平日",
      "土曜日",
      "日曜日",
      "祝日"
    ],
    "openDaysNote": "住宅型　訪問介護"
  },
  {
    "id": "1971800519",
    "name": "介護センターパートナー",
    "kana": "カイゴセンターパートナー",
    "address": "山梨県笛吹市石和町唐柏538-2",
    "lat": 35.63467,
    "lng": 138.6148739,
    "tel": "055-261-8107",
    "url": "",
    "pref": "山梨県",
    "city": "笛吹市",
    "category": "home_help",
    "serviceType": "訪問介護",
    "capacity": 10,
    "openDays": [
      "平日",
      "土曜日",
      "日曜日",
      "祝日"
    ],
    "openDaysNote": "時間外も応相談です。（改行）電話は24時間対応しています。"
  },
  {
    "id": "1971800634",
    "name": "甲州訪問介護ステーション",
    "kana": "コウシュウホウモンカイゴステーション",
    "address": "山梨県石和町四日市場2031",
    "lat": 35.6456226542388,
    "lng": 138.626193851065,
    "tel": "055-263-0242",
    "url": "https://www.krg.ne.jp/care/",
    "pref": "山梨県",
    "city": "笛吹市",
    "category": "home_help",
    "serviceType": "訪問介護",
    "capacity": 0,
    "openDays": [
      "平日",
      "土曜日",
      "日曜日",
      "祝日"
    ],
    "openDaysNote": "必要に応じて時間外も対応可能（応相談）（改行）※早朝・夜間・深夜料金が発生します。"
  },
  {
    "id": "1970500276",
    "name": "在宅ケア・すずらん訪問介護",
    "kana": "ザイタクケア・スズランホウモンカイゴ",
    "address": "山梨県笛吹市御坂町蕎麦塚６７５",
    "lat": 35.6207257,
    "lng": 138.6619123,
    "tel": "055-263-6124",
    "url": "",
    "pref": "山梨県",
    "city": "笛吹市",
    "category": "home_help",
    "serviceType": "訪問介護",
    "capacity": null,
    "openDays": [
      "平日",
      "土曜日",
      "日曜日",
      "祝日"
    ],
    "openDaysNote": "利用者さんの要望により相談に応じます"
  },
  {
    "id": "1971800352",
    "name": "笛吹市社会福祉協議会　訪問介護事業所",
    "kana": "フエフキシシャカイフクシキョウギカイ　ホウモンカイゴジギョウショ",
    "address": "山梨県笛吹市八代町南917",
    "lat": 35.6174434,
    "lng": 138.6413157,
    "tel": "055-265-5233",
    "url": "http://www.fuefuki-shakyo.or.jp/",
    "pref": "山梨県",
    "city": "笛吹市",
    "category": "home_help",
    "serviceType": "訪問介護",
    "capacity": 0,
    "openDays": [
      "平日",
      "土曜日",
      "日曜日",
      "祝日"
    ],
    "openDaysNote": "午後１０時以降及び緊急時は電話（転送あり）にて対応"
  },
  {
    "id": "1971801483",
    "name": "訪問介護ステーションももの里",
    "kana": "ホウモンカイゴステーションモモノサト",
    "address": "山梨県笛吹市石和町川中島1199-3",
    "lat": 35.6567248,
    "lng": 138.6600867,
    "tel": "055-215-0589",
    "url": "momonosato.ichiro@outlook.jp",
    "pref": "山梨県",
    "city": "笛吹市",
    "category": "home_help",
    "serviceType": "訪問介護",
    "capacity": null,
    "openDays": [
      "平日",
      "土曜日",
      "日曜日",
      "祝日"
    ],
    "openDaysNote": ""
  },
  {
    "id": "1971801517",
    "name": "訪問介護事業所エバーグリーン",
    "kana": "ホウモンカイゴジギョウショエバーグリーン",
    "address": "山梨県笛吹市春日居町国府271-6",
    "lat": 35.6612423,
    "lng": 138.6529032,
    "tel": "0553-34-6258",
    "url": "http://www.evergreen-yamanashi.com",
    "pref": "山梨県",
    "city": "笛吹市",
    "category": "home_help",
    "serviceType": "訪問介護",
    "capacity": null,
    "openDays": [
      "平日",
      "土曜日"
    ],
    "openDaysNote": ""
  },
  {
    "id": "1971100324",
    "name": "きずな福祉サービス",
    "kana": "キズナフクシサービス",
    "address": "井倉３３３－２",
    "lat": 35.5712577,
    "lng": 138.9379168,
    "tel": "０５５４－４５－１８３６",
    "url": "",
    "pref": "山梨県",
    "city": "都留市",
    "category": "home_help",
    "serviceType": "訪問介護",
    "capacity": 0,
    "openDays": [
      "平日"
    ],
    "openDaysNote": "年中無休（改行）２４時間　要相談"
  },
  {
    "id": "1971100506",
    "name": "サンクシア都留ヘルパーステーション",
    "kana": "サンクシアツルヘルパーステーション",
    "address": "山梨県都留市桂町907-1桂ハイツC号室 桂ハイツC号室",
    "lat": 35.5341437,
    "lng": 138.8686524,
    "tel": "0554-68-8185",
    "url": "https://www.big-advance.site/c/158/1334/profile",
    "pref": "山梨県",
    "city": "都留市",
    "category": "home_help",
    "serviceType": "訪問介護",
    "capacity": 5,
    "openDays": [
      "平日",
      "土曜日",
      "祝日"
    ],
    "openDaysNote": "提供時間外については応相談"
  },
  {
    "id": "1971100241",
    "name": "介護サービスゆりの里",
    "kana": "カイゴサービスユリノサト",
    "address": "山梨県都留市田野倉１４３１番地１",
    "lat": 35.5874712,
    "lng": 138.9342038,
    "tel": "0554-46-6006",
    "url": "https://yurinosato-web.jimdosite.com/",
    "pref": "山梨県",
    "city": "都留市",
    "category": "home_help",
    "serviceType": "訪問介護",
    "capacity": 10,
    "openDays": [
      "平日",
      "土曜日",
      "日曜日",
      "祝日"
    ],
    "openDaysNote": "天災その他やむを得ず業務を遂行できない日を除き毎日が営業日です。"
  },
  {
    "id": "1971100068",
    "name": "都留市社会福祉協議会",
    "kana": "ツルシシャカイフクシキョウギカイ",
    "address": "山梨県都留市下谷２，５１６番地１",
    "lat": 35.5611959,
    "lng": 138.9143241,
    "tel": "0554-45-2221",
    "url": "http://www11.ocn.ne.jp/~t-shakyo/",
    "pref": "山梨県",
    "city": "都留市",
    "category": "home_help",
    "serviceType": "訪問介護",
    "capacity": null,
    "openDays": [
      "平日",
      "土曜日",
      "日曜日",
      "祝日"
    ],
    "openDaysNote": ""
  },
  {
    "id": "1961190038",
    "name": "訪問介護事業所　あゆみ",
    "kana": "ホウモンカイゴジギョウショ　アユミ",
    "address": "山梨県都留市十日市場74-6",
    "lat": 35.542064,
    "lng": 138.8901642,
    "tel": "0554-56-7600",
    "url": "",
    "pref": "山梨県",
    "city": "都留市",
    "category": "home_help",
    "serviceType": "訪問介護",
    "capacity": 0,
    "openDays": [
      "平日",
      "祝日"
    ],
    "openDaysNote": ""
  },
  {
    "id": "1971100076",
    "name": "有限会社　ファミリーケアサービス",
    "kana": "ユウゲンガイシャファミリーケアサービス",
    "address": "山梨県　都留市つる５－４－２９",
    "lat": 35.5626066,
    "lng": 138.9051585,
    "tel": "0554-43-7787",
    "url": "",
    "pref": "山梨県",
    "city": "都留市",
    "category": "home_help",
    "serviceType": "訪問介護",
    "capacity": null,
    "openDays": [
      "平日",
      "土曜日",
      "日曜日",
      "祝日"
    ],
    "openDaysNote": "なし"
  },
  {
    "id": "1971100183",
    "name": "有限会社ケアサポート孫心",
    "kana": "ユウゲンガイシャケアサポートマゴコロ",
    "address": "都留市古川渡125-1",
    "lat": 35.5745095,
    "lng": 138.92597,
    "tel": "0554-45-0111",
    "url": "",
    "pref": "山梨県",
    "city": "都留市",
    "category": "home_help",
    "serviceType": "訪問介護",
    "capacity": 0,
    "openDays": [
      "平日",
      "土曜日",
      "日曜日",
      "祝日"
    ],
    "openDaysNote": "無災害などにより、サービスの提供が困難な場合は変更する場合もある"
  },
  {
    "id": "1971601032",
    "name": "あおぞらヘルパーステーション",
    "kana": "アオゾラヘルパーステーション",
    "address": "山梨県南アルプス市小笠原1164-1",
    "lat": 35.6126388,
    "lng": 138.4667987,
    "tel": "055-283-0095",
    "url": "http://www.kazokuno.net/aozora/",
    "pref": "山梨県",
    "city": "南アルプス市",
    "category": "home_help",
    "serviceType": "訪問介護",
    "capacity": 60,
    "openDays": [
      "平日",
      "土曜日",
      "日曜日",
      "祝日"
    ],
    "openDaysNote": "年末年始12月29日から1月3日まで休業"
  },
  {
    "id": "1971601511",
    "name": "うえむら訪問介護事業所",
    "kana": "ウエムラホウモンカイゴジギョウショ",
    "address": "山梨県南アルプス市小笠原365-2ハイツ52　201 ハイツ52　201",
    "lat": 35.6113190687577,
    "lng": 138.466254198148,
    "tel": "055-282-8099",
    "url": "",
    "pref": "山梨県",
    "city": "南アルプス市",
    "category": "home_help",
    "serviceType": "訪問介護",
    "capacity": 80,
    "openDays": [
      "平日",
      "土曜日",
      "祝日"
    ],
    "openDaysNote": ""
  },
  {
    "id": "1971601453",
    "name": "ニチイケアセンター南アルプス",
    "kana": "ニチイケアセンターミナミアルプス",
    "address": "山梨県南アルプス市小笠原351-1井上ビル1 井上ビル1",
    "lat": 35.6099195,
    "lng": 138.4664864,
    "tel": "055-280-1171",
    "url": "",
    "pref": "山梨県",
    "city": "南アルプス市",
    "category": "home_help",
    "serviceType": "訪問介護",
    "capacity": 0,
    "openDays": [
      "平日",
      "土曜日",
      "日曜日",
      "祝日"
    ],
    "openDaysNote": ""
  },
  {
    "id": "1971600794",
    "name": "ひまわりヘルパーステーション",
    "kana": "ヒマワリヘルパーステーション",
    "address": "山梨県南アルプス市小笠原1084-1",
    "lat": 35.6171803,
    "lng": 138.4613533,
    "tel": "055-284-3515",
    "url": "https://oujukai.jp/about/",
    "pref": "山梨県",
    "city": "南アルプス市",
    "category": "home_help",
    "serviceType": "訪問介護",
    "capacity": 0,
    "openDays": [
      "平日",
      "土曜日",
      "祝日"
    ],
    "openDaysNote": "上記時間外でも利用可能"
  },
  {
    "id": "1971601487",
    "name": "ヘルパーステーションももその",
    "kana": "ヘルパーステーションモモソノ",
    "address": "山梨県南アルプス市桃園379共立介護福祉センターももその 共立介護福祉センターももその",
    "lat": 35.628427,
    "lng": 138.4631489,
    "tel": "055-284-1960",
    "url": "https://ykf.or.jp/",
    "pref": "山梨県",
    "city": "南アルプス市",
    "category": "home_help",
    "serviceType": "訪問介護",
    "capacity": 0,
    "openDays": [
      "平日",
      "土曜日",
      "祝日"
    ],
    "openDaysNote": "利用者の状態によってはこの限りではありません。"
  },
  {
    "id": "1971601545",
    "name": "メディホス訪問介護中北",
    "kana": "メディホスホウモンカイゴチュウホク",
    "address": "山梨県南アルプス市藤田1657-4",
    "lat": 35.6031731534442,
    "lng": 138.494355479762,
    "tel": "055-269-5573",
    "url": "https://medihos-minamialps.jp",
    "pref": "山梨県",
    "city": "南アルプス市",
    "category": "home_help",
    "serviceType": "訪問介護",
    "capacity": null,
    "openDays": [
      "平日",
      "土曜日",
      "日曜日",
      "祝日"
    ],
    "openDaysNote": "サービス付き高齢者向け住宅（がん終末期や重度要介護者対象）併設の訪問介護となります。（改行）事業所には２４時間常駐しており、緊急時にも速やかに対応できるように体制を整備しています。"
  },
  {
    "id": "1970800783",
    "name": "やさしい手　南アルプス事業所",
    "kana": "ヤサシイテ　ミナミアルプスジギョウショ",
    "address": "山梨県南アルプス市在家塚67-1ジョイハウスＥ号 ジョイハウスＥ号",
    "lat": 35.6317931,
    "lng": 138.4672867,
    "tel": "055-280-2212",
    "url": "",
    "pref": "山梨県",
    "city": "南アルプス市",
    "category": "home_help",
    "serviceType": "訪問介護",
    "capacity": 0,
    "openDays": [
      "平日",
      "土曜日",
      "日曜日",
      "祝日"
    ],
    "openDaysNote": "24時間対応"
  },
  {
    "id": "1971600562",
    "name": "幸ケアサービス",
    "kana": "サチケアサービス",
    "address": "南アルプス市寺部３３５－１",
    "lat": 35.6072599499437,
    "lng": 138.487811805366,
    "tel": "055-283-1353",
    "url": "",
    "pref": "山梨県",
    "city": "南アルプス市",
    "category": "home_help",
    "serviceType": "訪問介護",
    "capacity": 0,
    "openDays": [
      "平日",
      "土曜日",
      "祝日"
    ],
    "openDaysNote": "なし"
  },
  {
    "id": "1971600141",
    "name": "南アルプス市社会福祉協議会訪問介護事業所",
    "kana": "ミナミアルプスシシャカイフクシキョウギカイホウモンカイゴジギョウショ",
    "address": "山梨県南アルプス市鏡中條1642-2",
    "lat": 35.6049756839078,
    "lng": 138.495567859039,
    "tel": "055-283-6688",
    "url": "https://www.minami-alpsshakyo.or.jp",
    "pref": "山梨県",
    "city": "南アルプス市",
    "category": "home_help",
    "serviceType": "訪問介護",
    "capacity": 100,
    "openDays": [
      "平日",
      "土曜日",
      "日曜日",
      "祝日"
    ],
    "openDaysNote": "利用者様のニーズに応じた時間帯のサービス提供を目指していますが、訪問介護員の稼働状況により夜間早朝のサービス提供や支援内容については相談をさせていただいています。"
  },
  {
    "id": "1971601271",
    "name": "楓　ケアサービス",
    "kana": "カエデ　ケアサービス",
    "address": "山梨県南アルプス市徳永１番地４コーポラス勇１０２号室 コーポラス勇１０２号室",
    "lat": 35.662798,
    "lng": 138.4930847,
    "tel": "055-269-8191",
    "url": "http://hp.kaipoke.biz/95u/",
    "pref": "山梨県",
    "city": "南アルプス市",
    "category": "home_help",
    "serviceType": "訪問介護",
    "capacity": 0,
    "openDays": [
      "平日",
      "土曜日"
    ],
    "openDaysNote": "曜日時間帯に関しましては相談可能です。"
  },
  {
    "id": "1971600463",
    "name": "有限会社ライフサポートなごみ",
    "kana": "ユウゲンガイシャ　ライフサポート　ナゴミ",
    "address": "南アルプス市飯野3701-1　オギノテナントビル",
    "lat": 35.6305187,
    "lng": 138.4631127,
    "tel": "055-282-8148",
    "url": "",
    "pref": "山梨県",
    "city": "南アルプス市",
    "category": "home_help",
    "serviceType": "訪問介護",
    "capacity": null,
    "openDays": [
      "平日",
      "土曜日",
      "日曜日",
      "祝日"
    ],
    "openDaysNote": ""
  },
  {
    "id": "1970700405",
    "name": "ヘルパーステーションさつき",
    "kana": "ヘルパーステーションサツキ",
    "address": "山梨県南巨摩郡南部町福士2688-3",
    "lat": 35.2421346,
    "lng": 138.4822792,
    "tel": "0556-66-3503",
    "url": "http://www/fujikoseikai.or.jp",
    "pref": "山梨県",
    "city": "南部町",
    "category": "home_help",
    "serviceType": "訪問介護",
    "capacity": null,
    "openDays": [
      "平日",
      "土曜日",
      "日曜日",
      "祝日"
    ],
    "openDaysNote": ""
  },
  {
    "id": "1970700074",
    "name": "慈生園訪問介護事業所",
    "kana": "ジセイエンホウモンカイゴジギョウショ",
    "address": "山梨県南巨摩郡南部町中野２８４７",
    "lat": 35.3019283,
    "lng": 138.4505939,
    "tel": "0556-64-2024",
    "url": "",
    "pref": "山梨県",
    "city": "南部町",
    "category": "home_help",
    "serviceType": "訪問介護",
    "capacity": null,
    "openDays": [
      "平日",
      "祝日"
    ],
    "openDaysNote": ""
  },
  {
    "id": "1970700520",
    "name": "南部町社会福祉協議会　訪問介護事業所",
    "kana": "ナンブチョウシャカイフクシキョウギカイ　ホウモンカイゴジギョウショ",
    "address": "山梨県南巨摩郡南部町内船８８１２番地",
    "lat": 35.2784669,
    "lng": 138.4650989,
    "tel": "0556-64-2075",
    "url": "",
    "pref": "山梨県",
    "city": "南部町",
    "category": "home_help",
    "serviceType": "訪問介護",
    "capacity": null,
    "openDays": [
      "平日"
    ],
    "openDaysNote": "なし"
  },
  {
    "id": "1970900385",
    "name": "アシストライフ",
    "kana": "アシストライフ",
    "address": "山梨県韮崎市旭町上條南割　296-4",
    "lat": 35.6690551,
    "lng": 138.4412728,
    "tel": "0551-45-6046",
    "url": "",
    "pref": "山梨県",
    "city": "韮崎市",
    "category": "home_help",
    "serviceType": "訪問介護",
    "capacity": 0,
    "openDays": [
      "平日"
    ],
    "openDaysNote": ""
  },
  {
    "id": "1970900351",
    "name": "グッドベース訪問介護事業所",
    "kana": "グッドベースホウモンカイゴジギョウショ",
    "address": "山梨県韮崎市富士見1-5-5韮崎エステートビル3FK室 韮崎エステートビル3FK室",
    "lat": 35.707475,
    "lng": 138.4563981,
    "tel": "0551-45-7061",
    "url": "http://goodbase.wix.com",
    "pref": "山梨県",
    "city": "韮崎市",
    "category": "home_help",
    "serviceType": "訪問介護",
    "capacity": 0,
    "openDays": [
      "平日",
      "土曜日",
      "日曜日",
      "祝日"
    ],
    "openDaysNote": ""
  },
  {
    "id": "1970900096",
    "name": "ひだまり訪問介護事業所",
    "kana": "ヒダマリホウモンカイゴジギョウショ",
    "address": "山梨県韮崎市旭町上條北割2757-1番地",
    "lat": 35.6911805237179,
    "lng": 138.437341260188,
    "tel": "0551-22-8831",
    "url": "http://www.hidamarikaigo.infol",
    "pref": "山梨県",
    "city": "韮崎市",
    "category": "home_help",
    "serviceType": "訪問介護",
    "capacity": 0,
    "openDays": [
      "平日",
      "土曜日",
      "日曜日",
      "祝日"
    ],
    "openDaysNote": "・場合により時間外も対応する。（改行）・電話等により24時間常時連絡が可能な体制とする。"
  },
  {
    "id": "1970900070",
    "name": "やさしい手　韮崎事業所",
    "kana": "ヤサシイテ　ニラサキジギョウショ",
    "address": "山梨県韮崎市藤井町南下條６４７－１",
    "lat": 35.719093,
    "lng": 138.4460624,
    "tel": "0551-30-5115",
    "url": "",
    "pref": "山梨県",
    "city": "韮崎市",
    "category": "home_help",
    "serviceType": "訪問介護",
    "capacity": 0,
    "openDays": [
      "平日",
      "土曜日",
      "日曜日",
      "祝日"
    ],
    "openDaysNote": ""
  },
  {
    "id": "1970900120",
    "name": "有限会社こすもす訪問介護事業所",
    "kana": "ユウゲンガイシャコスモスホウモンカイゴジギョウショ",
    "address": "山梨県韮崎市藤井町北下條2003-4",
    "lat": 35.726306,
    "lng": 138.4421069,
    "tel": "0551-23-6188",
    "url": "http://daycosmos.web.fc2.com/",
    "pref": "山梨県",
    "city": "韮崎市",
    "category": "home_help",
    "serviceType": "訪問介護",
    "capacity": 0,
    "openDays": [
      "平日",
      "土曜日",
      "日曜日",
      "祝日"
    ],
    "openDaysNote": "なし。"
  },
  {
    "id": "1971300593",
    "name": "忍野村訪問介護事業所",
    "kana": "オシノムラホウモンカイゴジギョウショ",
    "address": "山梨県南都留郡忍野村忍草１４４５－１番地",
    "lat": 35.4584231,
    "lng": 138.8474519,
    "tel": "0555-20-5187",
    "url": "https://oshino-syakyo.cms.ne.jp/",
    "pref": "山梨県",
    "city": "忍野村",
    "category": "home_help",
    "serviceType": "訪問介護",
    "capacity": null,
    "openDays": [
      "平日"
    ],
    "openDaysNote": "要望により営業時間以外もサービスを提供する場合がある。"
  },
  {
    "id": "1971300494",
    "name": "セントケア河口湖",
    "kana": "セントケアカワグチコ",
    "address": "山梨県南都留郡富士河口湖町船津２０９１－２　Ｓビル１階Ａ号",
    "lat": 35.4944726,
    "lng": 138.7633276,
    "tel": "0555-83-3551",
    "url": "",
    "pref": "山梨県",
    "city": "富士河口湖町",
    "category": "home_help",
    "serviceType": "訪問介護",
    "capacity": 0,
    "openDays": [
      "平日",
      "土曜日",
      "日曜日",
      "祝日"
    ],
    "openDaysNote": "サービス提供時間は、事前に居宅介護支援事業者等により計画された居宅サービス計画書に基づくものとし、原則として緊急に依頼された訪問介護の提供は行わないものとする。"
  },
  {
    "id": "1971300841",
    "name": "ニチイケアセンター富士河口湖",
    "kana": "ニチイケアセンターフジカワグチコ",
    "address": "山梨県南都留郡富士河口湖町河口2746-1",
    "lat": 35.5194607,
    "lng": 138.7722537,
    "tel": "0555-28-4257",
    "url": "",
    "pref": "山梨県",
    "city": "富士河口湖町",
    "category": "home_help",
    "serviceType": "訪問介護",
    "capacity": 0,
    "openDays": [
      "平日",
      "土曜日",
      "日曜日",
      "祝日"
    ],
    "openDaysNote": ""
  },
  {
    "id": "1971300619",
    "name": "はまなす訪問介護センター",
    "kana": "ハマナスホウモンカイゴセンター",
    "address": "南都留郡富士河口湖町船津６８８７",
    "lat": 35.4912589,
    "lng": 138.7607855,
    "tel": "0555-83-8385",
    "url": "",
    "pref": "山梨県",
    "city": "富士河口湖町",
    "category": "home_help",
    "serviceType": "訪問介護",
    "capacity": 0,
    "openDays": [
      "平日",
      "土曜日",
      "日曜日",
      "祝日"
    ],
    "openDaysNote": ""
  },
  {
    "id": "1971300817",
    "name": "ライフサポートすばる",
    "kana": "ライフサポートスバル",
    "address": "山梨県南都留郡富士河口湖町河口2870パークハイツワカサ１０５号 パークハイツワカサ１０５号",
    "lat": 35.5240914,
    "lng": 138.7752282,
    "tel": "0555-75-1419",
    "url": "https://lifesupport-subaru.com",
    "pref": "山梨県",
    "city": "富士河口湖町",
    "category": "home_help",
    "serviceType": "訪問介護",
    "capacity": 0,
    "openDays": [
      "平日"
    ],
    "openDaysNote": "サービス内容や利用者状況等を勘案し柔軟に対応できるので相談可"
  },
  {
    "id": "1971300320",
    "name": "富士河口湖町・鳴沢村訪問介護事業所",
    "kana": "フジカワグチコマチ・ナルサワムラホウモンカイゴジギョウショ",
    "address": "山梨県南都留郡富士河口湖町小立２４８７番地",
    "lat": 35.5040657,
    "lng": 138.7536449,
    "tel": "0555-72-1430",
    "url": "",
    "pref": "山梨県",
    "city": "富士河口湖町",
    "category": "home_help",
    "serviceType": "訪問介護",
    "capacity": null,
    "openDays": [
      "平日",
      "土曜日"
    ],
    "openDaysNote": "なし"
  },
  {
    "id": "1971300726",
    "name": "訪問介護サービスらいふケア",
    "kana": "ホウモンカイゴサービスライフケア",
    "address": "山梨県南都留郡富士河口湖町小立456訪問介護サービスらいふケア 訪問介護サービスらいふケア",
    "lat": 35.5112666989868,
    "lng": 138.749735581754,
    "tel": "0555-75-2378",
    "url": "",
    "pref": "山梨県",
    "city": "富士河口湖町",
    "category": "home_help",
    "serviceType": "訪問介護",
    "capacity": 40,
    "openDays": [
      "平日",
      "土曜日",
      "日曜日",
      "祝日"
    ],
    "openDaysNote": "サービスの提供時間は朝7：00～夜20：00までと致します。（改行）緊急の場合は連絡いただければ対応致します。"
  },
  {
    "id": "1971300825",
    "name": "訪問介護事業所ひまわり",
    "kana": "ホウモンカイゴジギョウショヒマワリ",
    "address": "山梨県南都留郡富士河口湖町小立8003-2オーキッド河口湖 オーキッド河口湖",
    "lat": 35.496518266831,
    "lng": 138.745236351204,
    "tel": "0555-73-8581",
    "url": "",
    "pref": "山梨県",
    "city": "富士河口湖町",
    "category": "home_help",
    "serviceType": "訪問介護",
    "capacity": 0,
    "openDays": [
      "平日",
      "土曜日",
      "日曜日",
      "祝日"
    ],
    "openDaysNote": "サービス提供はケアプランの定める時間帯であればいつでも対応するものとする。"
  },
  {
    "id": "1971300916",
    "name": "訪問介護事業所ほの字船津",
    "kana": "ホウモンカイゴジギョウショホノジフナツ",
    "address": "山梨県南都留郡富士河口湖町船津7415-1-1F",
    "lat": 35.4881242707738,
    "lng": 138.763191873541,
    "tel": "080-7967-9947",
    "url": "",
    "pref": "山梨県",
    "city": "富士河口湖町",
    "category": "home_help",
    "serviceType": "訪問介護",
    "capacity": null,
    "openDays": [
      "平日",
      "土曜日",
      "日曜日",
      "祝日"
    ],
    "openDaysNote": "24h体制にてサービス提供実施"
  },
  {
    "id": "1971200405",
    "name": "アンカケアサービス訪問介護事業所",
    "kana": "アンカケアサービスホウモンカイゴジギョウショ",
    "address": "松山1278",
    "lat": 35.4787562,
    "lng": 138.7788147,
    "tel": "0555-21-2200",
    "url": "",
    "pref": "山梨県",
    "city": "富士吉田市",
    "category": "home_help",
    "serviceType": "訪問介護",
    "capacity": 0,
    "openDays": [],
    "openDaysNote": "年中無休"
  },
  {
    "id": "1971200397",
    "name": "セントケア富士吉田",
    "kana": "セントケアフジヨシダ",
    "address": "山梨県富士吉田市下吉田1945　北井ビル2Ｆ",
    "lat": 35.487866,
    "lng": 138.8042544,
    "tel": "0555-30-4087",
    "url": "",
    "pref": "山梨県",
    "city": "富士吉田市",
    "category": "home_help",
    "serviceType": "訪問介護",
    "capacity": null,
    "openDays": [
      "平日",
      "土曜日",
      "日曜日",
      "祝日"
    ],
    "openDaysNote": "サービス提供時間は、事前に居宅介護支援事業者等により計画された居宅サービス計画書に基づくものとし、原則として緊急に依頼された訪問介護の提供は行わないものとする。"
  },
  {
    "id": "1971200058",
    "name": "ニチイケアセンタ-富士吉田",
    "kana": "ニチイケアセンタ-フジヨシダ",
    "address": "山梨県富士吉田市上吉田三枚畠6537",
    "lat": 35.4800585,
    "lng": 138.7964499,
    "tel": "0555-30-4103",
    "url": "http://www.nichiigakkan.co.jp",
    "pref": "山梨県",
    "city": "富士吉田市",
    "category": "home_help",
    "serviceType": "訪問介護",
    "capacity": null,
    "openDays": [
      "平日",
      "土曜日",
      "日曜日",
      "祝日"
    ],
    "openDaysNote": "年中無休　朝6：00～8：00まで　夕方18：００～22：００までは25％の加算　　　　　　　　　　　　　　　　　　　　深夜22：00～6：00までは50％の加算"
  },
  {
    "id": "1971200173",
    "name": "やさしい手　富士吉田事業所",
    "kana": "ヤサシイテ　フジヨシダジギョウショ",
    "address": "山梨県富士吉田市下吉田7-2-37",
    "lat": 35.4906092,
    "lng": 138.8088399,
    "tel": "0555-30-4441",
    "url": "",
    "pref": "山梨県",
    "city": "富士吉田市",
    "category": "home_help",
    "serviceType": "訪問介護",
    "capacity": 0,
    "openDays": [
      "平日",
      "土曜日",
      "日曜日",
      "祝日"
    ],
    "openDaysNote": ""
  },
  {
    "id": "1971200066",
    "name": "株式会社高木建材福祉事業部ポプラの木介護センター",
    "kana": "タカギケンザイフクシジギョウブポプラノキカイゴセンター",
    "address": "山梨県富士吉田市中曽根1-8-24",
    "lat": 35.4746598,
    "lng": 138.7962117,
    "tel": "0555-22-6635",
    "url": "http://www.popuranoki.jp",
    "pref": "山梨県",
    "city": "富士吉田市",
    "category": "home_help",
    "serviceType": "訪問介護",
    "capacity": 25,
    "openDays": [
      "平日",
      "土曜日",
      "日曜日",
      "祝日"
    ],
    "openDaysNote": "上記の時間以外は応相談"
  },
  {
    "id": "1971200025",
    "name": "訪問介護事業所　芙蓉荘",
    "kana": "ホウモンカイゴジギョウショ　　フヨウソウ",
    "address": "山梨県富士吉田市松山1613",
    "lat": 35.4810441,
    "lng": 138.7779378,
    "tel": "0555-22-5524",
    "url": "http://www.snhfuyoso.com",
    "pref": "山梨県",
    "city": "富士吉田市",
    "category": "home_help",
    "serviceType": "訪問介護",
    "capacity": 0,
    "openDays": [
      "平日",
      "土曜日",
      "日曜日",
      "祝日"
    ],
    "openDaysNote": ""
  },
  {
    "id": "1970700959",
    "name": "ぽっかぽか",
    "kana": "ポッカポカ",
    "address": "山梨県南巨摩郡富士川町大椚267－1",
    "lat": 35.5654355,
    "lng": 138.4703948,
    "tel": "0556-22-7855",
    "url": "",
    "pref": "山梨県",
    "city": "富士川町",
    "category": "home_help",
    "serviceType": "訪問介護",
    "capacity": 20,
    "openDays": [
      "平日",
      "土曜日",
      "日曜日",
      "祝日"
    ],
    "openDaysNote": ""
  },
  {
    "id": "1970700322",
    "name": "やさしい手　富士川事業所",
    "kana": "ヤサシイテ　フジカワジギョウショ",
    "address": "山梨県南巨摩郡富士川町大椚264-1",
    "lat": 35.5432716,
    "lng": 138.4581925,
    "tel": "0556-20-7330",
    "url": "",
    "pref": "山梨県",
    "city": "富士川町",
    "category": "home_help",
    "serviceType": "訪問介護",
    "capacity": 0,
    "openDays": [
      "平日",
      "土曜日",
      "日曜日",
      "祝日"
    ],
    "openDaysNote": "２４時間対応"
  },
  {
    "id": "1970700082",
    "name": "株式会社ヒューマンサービス山梨",
    "kana": "カブシキガイシャヒューマンサービスヤマナシ",
    "address": "山梨県南巨摩郡富士川町長沢６８７番地２",
    "lat": 35.5719241,
    "lng": 138.4677634,
    "tel": "0556-22-5995",
    "url": "http://care-net.biz/19/human/",
    "pref": "山梨県",
    "city": "富士川町",
    "category": "home_help",
    "serviceType": "訪問介護",
    "capacity": 0,
    "openDays": [
      "平日",
      "土曜日",
      "日曜日",
      "祝日"
    ],
    "openDaysNote": "夜間・早朝について対応可。応相談。"
  },
  {
    "id": "1971900517",
    "name": "ヘルパーステーション　ほくとのいえ",
    "kana": "ヘルパーステーション　ホクトノイエ",
    "address": "山梨県北杜市小淵沢町上笹尾3332-2560",
    "lat": 35.871209,
    "lng": 138.338243,
    "tel": "0551-36-6665",
    "url": "",
    "pref": "山梨県",
    "city": "北杜市",
    "category": "home_help",
    "serviceType": "訪問介護",
    "capacity": 0,
    "openDays": [
      "平日",
      "土曜日",
      "日曜日",
      "祝日"
    ],
    "openDaysNote": ""
  },
  {
    "id": "1971900251",
    "name": "やさしい手　北杜事業所",
    "kana": "ヤサシイテ　ホクトジギョウショ",
    "address": "山梨県北杜市須玉町藤田７９９－１",
    "lat": 35.7793633,
    "lng": 138.4281946,
    "tel": "0551-42-1213",
    "url": "",
    "pref": "山梨県",
    "city": "北杜市",
    "category": "home_help",
    "serviceType": "訪問介護",
    "capacity": 0,
    "openDays": [
      "平日",
      "土曜日",
      "日曜日",
      "祝日"
    ],
    "openDaysNote": ""
  },
  {
    "id": "1971900608",
    "name": "訪問介護事業所ひまわり",
    "kana": "ホウモンカイゴジギョウショウヒマワリ",
    "address": "山梨県北杜市須玉町東向2118",
    "lat": 35.8087681,
    "lng": 138.4454326,
    "tel": "070-9006-6384",
    "url": "",
    "pref": "山梨県",
    "city": "北杜市",
    "category": "home_help",
    "serviceType": "訪問介護",
    "capacity": null,
    "openDays": [
      "平日",
      "土曜日",
      "日曜日",
      "祝日"
    ],
    "openDaysNote": ""
  },
  {
    "id": "1971900202",
    "name": "北杜市社会福祉協議会ヘルパーステーションなのはな",
    "kana": "ホクトシシャカイフクシキョウギカイヘルパーステーションナノハナ",
    "address": "北杜市長坂町長坂上条2575-19",
    "lat": 35.826062,
    "lng": 138.3663116,
    "tel": "0551-32-6799",
    "url": "www.hokuto-shakyo.jp",
    "pref": "山梨県",
    "city": "北杜市",
    "category": "home_help",
    "serviceType": "訪問介護",
    "capacity": null,
    "openDays": [
      "平日",
      "土曜日",
      "日曜日",
      "祝日"
    ],
    "openDaysNote": "ヘルパー派遣時間は、24時間"
  },
  {
    "id": "1971300908",
    "name": "メディホス訪問介護河口湖",
    "kana": "メディホスホウモンカイゴカワグチコ",
    "address": "山梨県南都留郡鳴沢村2357-1",
    "lat": 35.4858182,
    "lng": 138.7156749,
    "tel": "0555-25-7467",
    "url": "https://medihos-kawaguchiko.jp/",
    "pref": "山梨県",
    "city": "鳴沢村",
    "category": "home_help",
    "serviceType": "訪問介護",
    "capacity": null,
    "openDays": [
      "平日",
      "土曜日",
      "日曜日",
      "祝日"
    ],
    "openDaysNote": "24時間365日"
  }
]