[
  {
    "id": "370901506",
    "name": "ＪＡいわて平泉訪問介護センターいわいの丘",
    "kana": "ジェイエイイワテヒライズミホウモンカイゴセンターイワイノオカ",
    "address": "岩手県一関市千厩町千厩字境田１５３番地１２",
    "lat": 38.9297088,
    "lng": 141.3274178,
    "tel": "0191-52-5668",
    "url": "http://www.ja-iwatehiraizumi.or.jp",
    "pref": "岩手県",
    "city": "一関市",
    "category": "home_help",
    "serviceType": "訪問介護",
    "capacity": null,
    "openDays": [
      "平日",
      "土曜日",
      "日曜日",
      "祝日"
    ],
    "openDaysNote": "年末年始１２月３１日～１月３日は休み"
  },
  {
    "id": "370901498",
    "name": "JAいわて平泉訪問介護センターもちっこ",
    "kana": "ジェイエーイワテヒライズミホウモンカイゴセンターモチッコ",
    "address": "岩手県一関市真柴字原下４番１号",
    "lat": 38.907587986623,
    "lng": 141.130433533344,
    "tel": "0191-31-1538",
    "url": "http://ja-iwatehiraizumi.or.jp",
    "pref": "岩手県",
    "city": "一関市",
    "category": "home_help",
    "serviceType": "訪問介護",
    "capacity": 0,
    "openDays": [
      "平日",
      "土曜日",
      "日曜日",
      "祝日"
    ],
    "openDaysNote": "上記以外の訪問時間もご相談に応じます。"
  },
  {
    "id": "370902173",
    "name": "ヴィジットケアエガリテ",
    "kana": "ゔィジットケアエガリテ",
    "address": "岩手県一関市萩荘字袋田165番地1有料老人ホームエガリテ 有料老人ホームエガリテ",
    "lat": 38.918299443529,
    "lng": 141.10958471595,
    "tel": "0191-34-5311",
    "url": "",
    "pref": "岩手県",
    "city": "一関市",
    "category": "home_help",
    "serviceType": "訪問介護",
    "capacity": 24,
    "openDays": [
      "平日",
      "土曜日",
      "日曜日",
      "祝日"
    ],
    "openDaysNote": "年中無休　２４時間対応可能（改行）緊急時の対応や電話対応、利用者の希望等により随時対応します。"
  },
  {
    "id": "370901803",
    "name": "きずな訪問介護ステーション",
    "kana": "キズナホウモンカイゴステーション",
    "address": "岩手県一関市宮前町4番18号",
    "lat": 38.9374928,
    "lng": 141.1289196,
    "tel": "0191-48-5303",
    "url": "",
    "pref": "岩手県",
    "city": "一関市",
    "category": "home_help",
    "serviceType": "訪問介護",
    "capacity": 5,
    "openDays": [
      "平日",
      "土曜日",
      "日曜日",
      "祝日"
    ],
    "openDaysNote": ""
  },
  {
    "id": "370900193",
    "name": "ケアセンターいこい指定訪問介護事業所",
    "kana": "ケアセンターイコイシテイホウモンカイゴジギョウショ",
    "address": "岩手県一関市三関字仲田100",
    "lat": 38.9274363,
    "lng": 141.1525483,
    "tel": "0191-31-8503",
    "url": "http://www.cc-ikoi.com/",
    "pref": "岩手県",
    "city": "一関市",
    "category": "home_help",
    "serviceType": "訪問介護",
    "capacity": 0,
    "openDays": [
      "平日",
      "土曜日",
      "日曜日",
      "祝日"
    ],
    "openDaysNote": "通常時間外の利用については相談させていただきます。"
  },
  {
    "id": "370900243",
    "name": "ケアワークひらか指定訪問介護事業所",
    "kana": "ケアワークヒラカシテイホウモンカイゴジギョウショ",
    "address": "岩手県一関市桜木町7-19",
    "lat": 38.9341739,
    "lng": 141.1369412,
    "tel": "0191-23-2505",
    "url": "",
    "pref": "岩手県",
    "city": "一関市",
    "category": "home_help",
    "serviceType": "訪問介護",
    "capacity": 0,
    "openDays": [
      "平日",
      "土曜日",
      "日曜日",
      "祝日"
    ],
    "openDaysNote": "24時間365日利用可能"
  },
  {
    "id": "370901951",
    "name": "これさぽヘルパーステーション南",
    "kana": "コレサポヘルパーステーションミナミ",
    "address": "岩手県一関市宮前町14番7号レクシア宮前1階107号室 レクシア宮前1階107号室",
    "lat": 38.938581,
    "lng": 141.1270479,
    "tel": "0191-34-7502",
    "url": "https://www.koresapo.jp/",
    "pref": "岩手県",
    "city": "一関市",
    "category": "home_help",
    "serviceType": "訪問介護",
    "capacity": 19,
    "openDays": [
      "平日",
      "土曜日",
      "日曜日",
      "祝日"
    ],
    "openDaysNote": "営業日及び営業時間外のサービス提供についてはご相談ください。"
  },
  {
    "id": "370901993",
    "name": "ツクイ一関",
    "kana": "ツクイイチノセキ",
    "address": "岩手県一関市東五代6番30号",
    "lat": 38.9407697,
    "lng": 141.130752,
    "tel": "0191-31-6886",
    "url": "http://www.tsukui.net",
    "pref": "岩手県",
    "city": "一関市",
    "category": "home_help",
    "serviceType": "訪問介護",
    "capacity": 0,
    "openDays": [
      "平日",
      "土曜日",
      "日曜日",
      "祝日"
    ],
    "openDaysNote": "年中無休、夜間、深夜帯も可能です。"
  },
  {
    "id": "370900318",
    "name": "なのはなヘルパーステーション",
    "kana": "ナノハナヘルパーステーション",
    "address": "岩手県一関市山目字館６４番７",
    "lat": 38.9405960304241,
    "lng": 141.117090337434,
    "tel": "0191-33-1531",
    "url": "https://i3syukai.com",
    "pref": "岩手県",
    "city": "一関市",
    "category": "home_help",
    "serviceType": "訪問介護",
    "capacity": 0,
    "openDays": [
      "平日",
      "土曜日",
      "日曜日",
      "祝日"
    ],
    "openDaysNote": "居宅サービス計画により、営業時間の繰り上げ及び延長あり"
  },
  {
    "id": "370900375",
    "name": "ニチイケアセンター一関",
    "kana": "ニチイケアセンターイチノセキ",
    "address": "岩手県一関市青葉二丁目7-26",
    "lat": 38.9324044,
    "lng": 141.1280532,
    "tel": "0191-32-5777",
    "url": "",
    "pref": "岩手県",
    "city": "一関市",
    "category": "home_help",
    "serviceType": "訪問介護",
    "capacity": 0,
    "openDays": [
      "平日",
      "土曜日",
      "日曜日",
      "祝日"
    ],
    "openDaysNote": "居宅サービス計画により営業時間以外であってもサービス提供を行う場合がある。"
  },
  {
    "id": "370902058",
    "name": "フォレスト訪問介護サービス",
    "kana": "フォレストホウモンカイゴサービス",
    "address": "岩手県一関市萩荘字打ノ目255番地1",
    "lat": 38.9184256,
    "lng": 141.0959278,
    "tel": "0191-32-1217",
    "url": "",
    "pref": "岩手県",
    "city": "一関市",
    "category": "home_help",
    "serviceType": "訪問介護",
    "capacity": 0,
    "openDays": [
      "平日",
      "土曜日",
      "日曜日",
      "祝日"
    ],
    "openDaysNote": ""
  },
  {
    "id": "370901522",
    "name": "ヘルパーステーションペルシモン",
    "kana": "ヘルパーステーションペルシモン",
    "address": "岩手県一関市東五代11-2",
    "lat": 38.9418438636294,
    "lng": 141.131685057672,
    "tel": "0191-48-4088",
    "url": "https://tsw-hd.com",
    "pref": "岩手県",
    "city": "一関市",
    "category": "home_help",
    "serviceType": "訪問介護",
    "capacity": 0,
    "openDays": [
      "平日",
      "土曜日",
      "日曜日",
      "祝日"
    ],
    "openDaysNote": "ケアプランの定める時間帯であれば、24時間対応"
  },
  {
    "id": "372600056",
    "name": "ヘルパーセンター花泉",
    "kana": "ヘルパーセンターハナイズミ",
    "address": "岩手県一関市花泉町涌津字一ノ町76番地",
    "lat": 38.8308767,
    "lng": 141.1853271,
    "tel": "0191-36-1226",
    "url": "http://www.ichinoseki-shakyo.com",
    "pref": "岩手県",
    "city": "一関市",
    "category": "home_help",
    "serviceType": "訪問介護",
    "capacity": 0,
    "openDays": [
      "平日",
      "土曜日",
      "日曜日",
      "祝日"
    ],
    "openDaysNote": "通常時間外は要相談"
  },
  {
    "id": "372700500",
    "name": "ヘルパーセンター室根",
    "kana": "ヘルパーセンタームロネ",
    "address": "岩手県一関市室根町折壁字八幡沖116番地",
    "lat": 38.9363639,
    "lng": 141.4406416,
    "tel": "0191-64-3983",
    "url": "",
    "pref": "岩手県",
    "city": "一関市",
    "category": "home_help",
    "serviceType": "訪問介護",
    "capacity": 0,
    "openDays": [
      "平日",
      "土曜日",
      "日曜日",
      "祝日"
    ],
    "openDaysNote": "居宅サービス計画により、営業時間外であってもサービスを提供する場合があります。"
  },
  {
    "id": "372700153",
    "name": "ヘルパーセンター大東",
    "kana": "ヘルパーセンターダイトウ",
    "address": "岩手県一関市大東町渋民字大洞地５５番地８",
    "lat": 39.0202125,
    "lng": 141.3391659,
    "tel": "0191-71-1178",
    "url": "http://www.ichinoseki-shakyo.com",
    "pref": "岩手県",
    "city": "一関市",
    "category": "home_help",
    "serviceType": "訪問介護",
    "capacity": 0,
    "openDays": [
      "平日",
      "土曜日",
      "日曜日",
      "祝日"
    ],
    "openDaysNote": "営業時間外であっても居宅サービス計画によりサービスを提供します。"
  },
  {
    "id": "372700252",
    "name": "ヘルパーセンター東山",
    "kana": "ヘルパーセンターヒガシヤマ",
    "address": "岩手県一関市東山町長坂字西本町139番地1東山保健センター 東山保健センター",
    "lat": 38.9955071,
    "lng": 141.252153,
    "tel": "0191-47-3238",
    "url": "http://www.ichinoseki-shakyo.com/",
    "pref": "岩手県",
    "city": "一関市",
    "category": "home_help",
    "serviceType": "訪問介護",
    "capacity": 0,
    "openDays": [
      "平日",
      "土曜日",
      "日曜日",
      "祝日"
    ],
    "openDaysNote": "居宅介護サービス計画により、休業日及び営業時間外であってもサービスを提供する場合があります。"
  },
  {
    "id": "370901654",
    "name": "ヘルパーセンター藤沢",
    "kana": "ヘルパーセンターフジサワ",
    "address": "岩手県一関市藤沢町藤沢字町裏55番地",
    "lat": 38.859251,
    "lng": 141.3498585,
    "tel": "0191-63-2936",
    "url": "",
    "pref": "岩手県",
    "city": "一関市",
    "category": "home_help",
    "serviceType": "訪問介護",
    "capacity": null,
    "openDays": [
      "平日",
      "土曜日",
      "日曜日",
      "祝日"
    ],
    "openDaysNote": "営業時間外であっても利用者のご希望により居宅サービス計画にそってサービスを提供します。"
  },
  {
    "id": "370900771",
    "name": "ホームヘルプサービスこはぎ",
    "kana": "ホームヘルプサービスコハギ",
    "address": "岩手県一関市大東町曽慶字御能場39番地１養護老人ホーム　こはぎ荘 養護老人ホーム　こはぎ荘",
    "lat": 38.9854312,
    "lng": 141.4006705,
    "tel": "0191-72-2228",
    "url": "http://www.sippoukai.com",
    "pref": "岩手県",
    "city": "一関市",
    "category": "home_help",
    "serviceType": "訪問介護",
    "capacity": 0,
    "openDays": [
      "平日",
      "土曜日",
      "日曜日",
      "祝日"
    ],
    "openDaysNote": "24時間対応"
  },
  {
    "id": "372700567",
    "name": "やまゆりヘルパーステーション",
    "kana": "ヤマユリヘルパーステーション",
    "address": "岩手県一関市千厩町千厩字宮敷４５番地１",
    "lat": 38.9230737,
    "lng": 141.3394116,
    "tel": "0191-52-5612",
    "url": "http://i3syukai.com",
    "pref": "岩手県",
    "city": "一関市",
    "category": "home_help",
    "serviceType": "訪問介護",
    "capacity": 0,
    "openDays": [
      "平日",
      "土曜日",
      "日曜日",
      "祝日"
    ],
    "openDaysNote": "相談により、時間外訪問可"
  },
  {
    "id": "370901878",
    "name": "ラポール・テトラ訪問介護事業所",
    "kana": "ラポールテトラホウモンカイゴジギョウショ",
    "address": "岩手県一関市萩荘字境ノ神112-2",
    "lat": 38.917869,
    "lng": 141.0920046,
    "tel": "0191-48-4871",
    "url": "",
    "pref": "岩手県",
    "city": "一関市",
    "category": "home_help",
    "serviceType": "訪問介護",
    "capacity": 0,
    "openDays": [
      "平日",
      "土曜日",
      "日曜日",
      "祝日"
    ],
    "openDaysNote": ""
  },
  {
    "id": "370900326",
    "name": "一関ヘルパーステーション",
    "kana": "イチノセキヘルパーステーション",
    "address": "岩手県一関市真柴字吉ケ沢20番135",
    "lat": 38.8817636,
    "lng": 141.1382927,
    "tel": "0191-31-1228",
    "url": "",
    "pref": "岩手県",
    "city": "一関市",
    "category": "home_help",
    "serviceType": "訪問介護",
    "capacity": 0,
    "openDays": [
      "平日",
      "土曜日",
      "祝日"
    ],
    "openDaysNote": ""
  },
  {
    "id": "370901589",
    "name": "一関福祉教育センター訪問介護ステーション",
    "kana": "イチノセキフクシキョウイクセンターホウモンカイゴステーション",
    "address": "岩手県一関市山目字中野134番1",
    "lat": 38.9332459162811,
    "lng": 141.116746966687,
    "tel": "0191-25-3495",
    "url": "",
    "pref": "岩手県",
    "city": "一関市",
    "category": "home_help",
    "serviceType": "訪問介護",
    "capacity": 0,
    "openDays": [
      "平日",
      "土曜日",
      "日曜日",
      "祝日"
    ],
    "openDaysNote": ""
  },
  {
    "id": "370900474",
    "name": "県南タクシー介護サービス",
    "kana": "ケンナンタクシーカイゴサービス",
    "address": "岩手県一関市大手町７番２６号",
    "lat": 38.9311298,
    "lng": 141.1349359,
    "tel": "0191-26-5234",
    "url": "",
    "pref": "岩手県",
    "city": "一関市",
    "category": "home_help",
    "serviceType": "訪問介護",
    "capacity": 0,
    "openDays": [
      "平日",
      "土曜日",
      "祝日"
    ],
    "openDaysNote": "訪問介護員の時間外労働を規制し、規程労働時間厳守に努めております。"
  },
  {
    "id": "370900722",
    "name": "孝養ハイツホームヘルパーステーション",
    "kana": "コウヨウハイツホームヘルパーステーション",
    "address": "岩手県一関市室根町折壁字向山67-3",
    "lat": 38.9354945,
    "lng": 141.4401417,
    "tel": "0191-64-3925",
    "url": "http://www.kouyouhaitsu.com/",
    "pref": "岩手県",
    "city": "一関市",
    "category": "home_help",
    "serviceType": "訪問介護",
    "capacity": 0,
    "openDays": [
      "平日",
      "土曜日",
      "日曜日",
      "祝日"
    ],
    "openDaysNote": "24時間サービス提供可"
  },
  {
    "id": "372700427",
    "name": "千厩寿慶会指定訪問介護事業所",
    "kana": "センマヤジュケイカイシテイホウモンカイゴジギョウショ",
    "address": "岩手県一関市千厩町千厩字脇谷２８番地５",
    "lat": 38.917277,
    "lng": 141.3260243,
    "tel": "0191-52-5959",
    "url": "https://www.jukeikai.or.jp/",
    "pref": "岩手県",
    "city": "一関市",
    "category": "home_help",
    "serviceType": "訪問介護",
    "capacity": 50,
    "openDays": [
      "平日",
      "土曜日",
      "祝日"
    ],
    "openDaysNote": "利用時間については相談に応じます。（日曜日と祝日が重なった場合は休日）"
  },
  {
    "id": "370901720",
    "name": "訪問介護あゆみ",
    "kana": "ホウモンカイゴアユミ",
    "address": "岩手県一関市中里字荒谷8番1",
    "lat": 38.9373576179257,
    "lng": 141.150904123001,
    "tel": "0191-21-5550",
    "url": "http://www.i-ayumi.net",
    "pref": "岩手県",
    "city": "一関市",
    "category": "home_help",
    "serviceType": "訪問介護",
    "capacity": 0,
    "openDays": [
      "平日",
      "土曜日",
      "日曜日",
      "祝日"
    ],
    "openDaysNote": ""
  },
  {
    "id": "370902207",
    "name": "訪問介護ステーションケアリー岩手一関",
    "kana": "ホウモンカイゴステーションケアリーイワテイチノセキ",
    "address": "岩手県一関市中里字舟場64番1",
    "lat": 37.5131862,
    "lng": 140.4087146,
    "tel": "0191-21-3030",
    "url": "",
    "pref": "岩手県",
    "city": "一関市",
    "category": "home_help",
    "serviceType": "訪問介護",
    "capacity": 47,
    "openDays": [
      "平日",
      "土曜日",
      "日曜日",
      "祝日"
    ],
    "openDaysNote": "24時間対応"
  },
  {
    "id": "370901068",
    "name": "訪問介護ステーションこころ",
    "kana": "ホウモンカイゴステーションココロ",
    "address": "岩手県一関市字散田43-2",
    "lat": 38.92785,
    "lng": 141.1460684,
    "tel": "090-9745-6226",
    "url": "https://kokoromiyata.com",
    "pref": "岩手県",
    "city": "一関市",
    "category": "home_help",
    "serviceType": "訪問介護",
    "capacity": 0,
    "openDays": [
      "平日",
      "土曜日",
      "日曜日",
      "祝日"
    ],
    "openDaysNote": ""
  },
  {
    "id": "370900904",
    "name": "訪問介護ステーションシエスタ一関",
    "kana": "ホウモンカイゴステーションシエスタイチノセキ",
    "address": "岩手県一関市中里字新川原１９０番地１３",
    "lat": 38.9342007,
    "lng": 141.1554405,
    "tel": "0191-31-8766",
    "url": "",
    "pref": "岩手県",
    "city": "一関市",
    "category": "home_help",
    "serviceType": "訪問介護",
    "capacity": 0,
    "openDays": [
      "平日",
      "土曜日",
      "日曜日",
      "祝日"
    ],
    "openDaysNote": ""
  },
  {
    "id": "370902231",
    "name": "訪問介護ステーションホスピス西城",
    "kana": "ホウモンカイゴステーションホスピスサイキ",
    "address": "岩手県一関市八幡町２番38号",
    "lat": 38.9267753,
    "lng": 141.1331978,
    "tel": "0191-34-5306",
    "url": "",
    "pref": "岩手県",
    "city": "一関市",
    "category": "home_help",
    "serviceType": "訪問介護",
    "capacity": 0,
    "openDays": [
      "平日",
      "土曜日",
      "日曜日",
      "祝日"
    ],
    "openDaysNote": "24時間対応。"
  },
  {
    "id": "370901829",
    "name": "訪問介護事業所白藤",
    "kana": "ホウモンカイゴジギョウショシラフジ",
    "address": "岩手県一関市藤沢町藤沢字八沢２６２番地１",
    "lat": 38.8501602,
    "lng": 141.3490644,
    "tel": "0191-61-1500",
    "url": "",
    "pref": "岩手県",
    "city": "一関市",
    "category": "home_help",
    "serviceType": "訪問介護",
    "capacity": 30,
    "openDays": [
      "平日",
      "土曜日",
      "日曜日",
      "祝日"
    ],
    "openDaysNote": "時間外でも電話等により、２４時間常時連絡が可能な体制をとっております。"
  },
  {
    "id": "372700674",
    "name": "有限会社たんぽぽ指定訪問介護事業所",
    "kana": "ユウゲンガイシャタンポポシテイホウモンカイゴジギョウショ",
    "address": "岩手県一関市大東町大原字袖山沢16番地",
    "lat": 39.0116529,
    "lng": 141.3738188,
    "tel": "0191-72-4040",
    "url": "",
    "pref": "岩手県",
    "city": "一関市",
    "category": "home_help",
    "serviceType": "訪問介護",
    "capacity": null,
    "openDays": [
      "平日",
      "土曜日",
      "日曜日",
      "祝日"
    ],
    "openDaysNote": "ケアプランにより、この限りでない。"
  },
  {
    "id": "373200286",
    "name": "ヘルシーパートナーなごみ",
    "kana": "ヘルシーパートナーナゴミ",
    "address": "岩手県二戸郡一戸町姉帯下村24番地1",
    "lat": 40.1659783,
    "lng": 141.3364543,
    "tel": "0195-34-3385",
    "url": "http://iwate-jikoukai.jp",
    "pref": "岩手県",
    "city": "一戸町",
    "category": "home_help",
    "serviceType": "訪問介護",
    "capacity": 0,
    "openDays": [
      "平日",
      "土曜日",
      "日曜日",
      "祝日"
    ],
    "openDaysNote": ""
  },
  {
    "id": "373200245",
    "name": "株式会社結愛サービス公社　指定訪問介護事業所",
    "kana": "カブシキガイシャユウアイサービスコウシャシテイホウモンカイゴジギョウショ",
    "address": "岩手県二戸郡一戸町一戸字砂森93番地２",
    "lat": 40.2084923,
    "lng": 141.3064928,
    "tel": "0195-32-3737",
    "url": "https://yuaiservice.co.jp",
    "pref": "岩手県",
    "city": "一戸町",
    "category": "home_help",
    "serviceType": "訪問介護",
    "capacity": 0,
    "openDays": [
      "平日",
      "土曜日",
      "日曜日",
      "祝日"
    ],
    "openDaysNote": ""
  },
  {
    "id": "370800427",
    "name": "かなえケアステーション",
    "kana": "カナエケアステーション",
    "address": "岩手県遠野市穀町１３番１号",
    "lat": 39.3292643706898,
    "lng": 141.534595334696,
    "tel": "0198-68-3027",
    "url": "https://www.care-grant.co.jp/",
    "pref": "岩手県",
    "city": "遠野市",
    "category": "home_help",
    "serviceType": "訪問介護",
    "capacity": 10,
    "openDays": [
      "平日",
      "土曜日",
      "祝日"
    ],
    "openDaysNote": ""
  },
  {
    "id": "370800286",
    "name": "ヘルパーステーション長寿の森",
    "kana": "ヘルパーステーションチョウジュノモリ",
    "address": "岩手県遠野市青笹町糠前9-7-67",
    "lat": 39.3350016,
    "lng": 141.5582366,
    "tel": "0198-62-2028",
    "url": "http://www.t-chouju.jp",
    "pref": "岩手県",
    "city": "遠野市",
    "category": "home_help",
    "serviceType": "訪問介護",
    "capacity": 0,
    "openDays": [
      "平日",
      "土曜日",
      "日曜日",
      "祝日"
    ],
    "openDaysNote": "※但し、サービス提供は、ケアプランの定める時間であれば、いつでも対応するものとする。"
  },
  {
    "id": "370800054",
    "name": "ヘルパーステーション薬研淵",
    "kana": "ヘルパーステーションヤケンブチ",
    "address": "岩手県遠野市松崎町白岩字薬研淵1-3",
    "lat": 39.3434499,
    "lng": 141.5366715,
    "tel": "0198-63-1233",
    "url": "http://www.tono-shakyo.jp/",
    "pref": "岩手県",
    "city": "遠野市",
    "category": "home_help",
    "serviceType": "訪問介護",
    "capacity": 0,
    "openDays": [
      "平日",
      "土曜日",
      "日曜日",
      "祝日"
    ],
    "openDaysNote": "24時間対応"
  },
  {
    "id": "370800344",
    "name": "指定訪問介護事業所おらほの家",
    "kana": "シテイホウモンカイゴジギョウショオラホノイエ",
    "address": "岩手県遠野市松崎町白岩18地割78番地2",
    "lat": 39.3347429,
    "lng": 141.5475208,
    "tel": "0198-60-2180",
    "url": "http://www.orahonoie.com/",
    "pref": "岩手県",
    "city": "遠野市",
    "category": "home_help",
    "serviceType": "訪問介護",
    "capacity": 0,
    "openDays": [
      "平日",
      "土曜日",
      "日曜日",
      "祝日"
    ],
    "openDaysNote": ""
  },
  {
    "id": "371500331",
    "name": "アースサポート奥州",
    "kana": "アースサポートオウシュウ",
    "address": "岩手県奥州市水沢後田16番地4",
    "lat": 39.1433034,
    "lng": 141.1226453,
    "tel": "0197-25-4111",
    "url": "http://www.earthsupport.co.jp",
    "pref": "岩手県",
    "city": "奥州市",
    "category": "home_help",
    "serviceType": "訪問介護",
    "capacity": 0,
    "openDays": [
      "平日",
      "土曜日",
      "日曜日",
      "祝日"
    ],
    "openDaysNote": ""
  },
  {
    "id": "371501040",
    "name": "あおぞら訪問介護事業所",
    "kana": "アオゾラホウモンカイゴジギョウショ",
    "address": "岩手県奥州市水沢南大鐘一丁目60番地",
    "lat": 39.1282943,
    "lng": 141.1375528,
    "tel": "0197-34-1115",
    "url": "http://assetlink.jp",
    "pref": "岩手県",
    "city": "奥州市",
    "category": "home_help",
    "serviceType": "訪問介護",
    "capacity": 26,
    "openDays": [
      "平日",
      "土曜日",
      "日曜日",
      "祝日"
    ],
    "openDaysNote": "年中無休、24時間対応"
  },
  {
    "id": "370400517",
    "name": "ケアネット・アテルイ訪問介護事業所",
    "kana": "ケアネット・アテルイホウモンカイゴジギョウショ",
    "address": "岩手県奥州市水沢宮下町84番地",
    "lat": 39.1377061944061,
    "lng": 141.137927556336,
    "tel": "0197-25-8777",
    "url": "",
    "pref": "岩手県",
    "city": "奥州市",
    "category": "home_help",
    "serviceType": "訪問介護",
    "capacity": 0,
    "openDays": [
      "平日",
      "土曜日",
      "日曜日",
      "祝日"
    ],
    "openDaysNote": ""
  },
  {
    "id": "371500869",
    "name": "これさぽヘルパーステーション",
    "kana": "コレサポヘルパーステーション",
    "address": "岩手県奥州市水沢太日通り二丁目1番20号これさぽビル2階 これさぽビル2階",
    "lat": 39.1364781441662,
    "lng": 141.150299343884,
    "tel": "0197-34-0560",
    "url": "http://www.koresapo.jp/",
    "pref": "岩手県",
    "city": "奥州市",
    "category": "home_help",
    "serviceType": "訪問介護",
    "capacity": 120,
    "openDays": [
      "平日",
      "土曜日",
      "日曜日",
      "祝日"
    ],
    "openDaysNote": "営業日及び営業時間外のサービス提供についてはご相談ください。"
  },
  {
    "id": "371500851",
    "name": "さつきいちえ訪問介護センター",
    "kana": "サツキイチエホウモンカイゴセンター",
    "address": "岩手県奥州市水沢佐倉河字九蔵田40－１さつきいちえ訪問介護センター さつきいちえ訪問介護センター",
    "lat": 39.1732339,
    "lng": 141.1383901,
    "tel": "0197-47-6586",
    "url": "",
    "pref": "岩手県",
    "city": "奥州市",
    "category": "home_help",
    "serviceType": "訪問介護",
    "capacity": 0,
    "openDays": [
      "平日",
      "土曜日",
      "日曜日",
      "祝日"
    ],
    "openDaysNote": "上記営業日・営業時間の他、電話等により２４時間常時連絡が可能な体制とし、利用者の要請に基づき、営業時間外の対応を行うものとする。"
  },
  {
    "id": "371200254",
    "name": "サポートセンターＮＰＯえさしヘルパーステーション",
    "kana": "サポートセンターエヌピーオーエサシヘルパーステーション",
    "address": "岩手県奥州市江刺八日町一丁目8-8",
    "lat": 39.186725376177,
    "lng": 141.172424599475,
    "tel": "0197-31-2271",
    "url": "http://npoesasi.or.jp",
    "pref": "岩手県",
    "city": "奥州市",
    "category": "home_help",
    "serviceType": "訪問介護",
    "capacity": 0,
    "openDays": [
      "平日",
      "土曜日",
      "日曜日",
      "祝日"
    ],
    "openDaysNote": "早朝(７～８時）・夜間(１８～１９時）帯は基本料金の２５％増となります。"
  },
  {
    "id": "370400368",
    "name": "ゼット・ケアサポート訪問介護事業所",
    "kana": "ゼット・ケアサポートホウモンカイゴジギョウショ",
    "address": "岩手県奥州市水沢字斉ノ神70-1奥州日高館 奥州日高館",
    "lat": 39.1414102306835,
    "lng": 141.131630580998,
    "tel": "0197-22-2071",
    "url": "",
    "pref": "岩手県",
    "city": "奥州市",
    "category": "home_help",
    "serviceType": "訪問介護",
    "capacity": 0,
    "openDays": [
      "平日",
      "土曜日",
      "日曜日",
      "祝日"
    ],
    "openDaysNote": "電話等により、24時間連絡可能な体制をとっています。"
  },
  {
    "id": "371500992",
    "name": "どんぐりヘルパー",
    "kana": "ドングリヘルパー",
    "address": "岩手県奥州市胆沢小山字尼沼22番地4住宅型有料老人ホームどんぐりの里 住宅型有料老人ホームどんぐりの里",
    "lat": 39.1201015226895,
    "lng": 141.139096111501,
    "tel": "0197-47-5536",
    "url": "https://donguri-web.com",
    "pref": "岩手県",
    "city": "奥州市",
    "category": "home_help",
    "serviceType": "訪問介護",
    "capacity": null,
    "openDays": [
      "平日",
      "土曜日",
      "祝日"
    ],
    "openDaysNote": "営業日及び営業時間は、利用者の身体状況や緊急性に応じて協議し柔軟に対応できることとする。"
  },
  {
    "id": "370400509",
    "name": "ニチイケアセンター江刺",
    "kana": "ニチイケアセンターエサシ",
    "address": "岩手県奥州市江刺八日町1-3-1",
    "lat": 39.1882718,
    "lng": 141.173853,
    "tel": "0197-31-0333",
    "url": "http://www.nichiigakkan.co.jp",
    "pref": "岩手県",
    "city": "奥州市",
    "category": "home_help",
    "serviceType": "訪問介護",
    "capacity": 0,
    "openDays": [
      "平日",
      "土曜日",
      "日曜日",
      "祝日"
    ],
    "openDaysNote": "居宅サービス計画により、営業時間以外でもサービスの提供を行う場合があります。"
  },
  {
    "id": "370400137",
    "name": "ニチイケアセンター水沢",
    "kana": "ニチイケアセンターミズサワ",
    "address": "岩手県奥州市水沢西町2番10号",
    "lat": 39.1377876,
    "lng": 141.1363831,
    "tel": "0197-51-2636",
    "url": "http://www.nichiigakkan.co.jp",
    "pref": "岩手県",
    "city": "奥州市",
    "category": "home_help",
    "serviceType": "訪問介護",
    "capacity": 0,
    "openDays": [
      "平日",
      "土曜日",
      "日曜日",
      "祝日"
    ],
    "openDaysNote": "居宅サービス計画書により、休業日および営業時間以外であってもサービスを提供する場合があります。"
  },
  {
    "id": "371501115",
    "name": "ニチイケアセンター前沢",
    "kana": "ニチイケアセンターマエサワ",
    "address": "岩手県奥州市前沢駅東二丁目6-7ユーユー貸店舗 ユーユー貸店舗",
    "lat": 39.0494088,
    "lng": 141.1286635,
    "tel": "0197-34-0328",
    "url": "https://www.nichiigakkan.co.jp",
    "pref": "岩手県",
    "city": "奥州市",
    "category": "home_help",
    "serviceType": "訪問介護",
    "capacity": 40,
    "openDays": [
      "平日",
      "土曜日",
      "日曜日",
      "祝日"
    ],
    "openDaysNote": "居宅サービス計画書により、営業時間以外であってもサービスを提供する場合があります。"
  },
  {
    "id": "371501206",
    "name": "ヘルパーステーションあおば",
    "kana": "ヘルパーステーションアオバ",
    "address": "岩手県奥州市水沢字小石田55番地",
    "lat": 39.1502921,
    "lng": 141.1345658,
    "tel": "0197‐34‐1530",
    "url": "https://www.koresapo.jp/",
    "pref": "岩手県",
    "city": "奥州市",
    "category": "home_help",
    "serviceType": "訪問介護",
    "capacity": 0,
    "openDays": [
      "平日",
      "土曜日",
      "日曜日",
      "祝日"
    ],
    "openDaysNote": "要相談"
  },
  {
    "id": "371500984",
    "name": "ヘルパーステーションあてるい",
    "kana": "ヘルパーステーションアテルイ",
    "address": "岩手県奥州市水沢佐倉河字石橋7番地",
    "lat": 39.1481063,
    "lng": 141.1535703,
    "tel": "0197-51-6815",
    "url": "",
    "pref": "岩手県",
    "city": "奥州市",
    "category": "home_help",
    "serviceType": "訪問介護",
    "capacity": 0,
    "openDays": [
      "平日",
      "土曜日",
      "日曜日",
      "祝日"
    ],
    "openDaysNote": "電話等により、24時間連絡可能な体制です。"
  },
  {
    "id": "371501024",
    "name": "ヘルパーステーションえがお",
    "kana": "ヘルパーステーションエガオ",
    "address": "岩手県奥州市水沢中田町4番17号社会福祉法人　福伸会 社会福祉法人　福伸会",
    "lat": 39.132997,
    "lng": 141.1519597,
    "tel": "0197-23-7223",
    "url": "",
    "pref": "岩手県",
    "city": "奥州市",
    "category": "home_help",
    "serviceType": "訪問介護",
    "capacity": 0,
    "openDays": [
      "平日",
      "土曜日",
      "日曜日",
      "祝日"
    ],
    "openDaysNote": ""
  },
  {
    "id": "372500157",
    "name": "やまゆり荘訪問介護事業所",
    "kana": "ヤマユリソウホウモンカイゴジギョウショ",
    "address": "岩手県奥州市胆沢南都田字加賀谷地416",
    "lat": 39.1169520240728,
    "lng": 141.072469864418,
    "tel": "0197-46-5111",
    "url": "http://www.oshuisawakai.iwate.jp",
    "pref": "岩手県",
    "city": "奥州市",
    "category": "home_help",
    "serviceType": "訪問介護",
    "capacity": 0,
    "openDays": [
      "平日",
      "土曜日",
      "日曜日",
      "祝日"
    ],
    "openDaysNote": ""
  },
  {
    "id": "370400145",
    "name": "奥州市社協ヘルパーサービス「げんき」",
    "kana": "オウシュウシシャキョウヘルパーサービス「ゲンキ」",
    "address": "岩手県奥州市水沢南町５－12",
    "lat": 39.136538,
    "lng": 141.1459462,
    "tel": "0197-51-1181",
    "url": "http://www.oshu-shakyo.jp",
    "pref": "岩手県",
    "city": "奥州市",
    "category": "home_help",
    "serviceType": "訪問介護",
    "capacity": 0,
    "openDays": [
      "平日",
      "土曜日",
      "日曜日",
      "祝日"
    ],
    "openDaysNote": ""
  },
  {
    "id": "371500315",
    "name": "株式会社ケアネットヘルパーステーション水沢",
    "kana": "カブシキガイシャケアネットヘルパーステーションミズサワ",
    "address": "岩手県奥州市水沢花園町一丁目19番16号",
    "lat": 39.1414708,
    "lng": 141.1479459,
    "tel": "0197-22-2901",
    "url": "http://www.carenet.fujitsu.com",
    "pref": "岩手県",
    "city": "奥州市",
    "category": "home_help",
    "serviceType": "訪問介護",
    "capacity": 160,
    "openDays": [
      "平日",
      "土曜日",
      "日曜日",
      "祝日"
    ],
    "openDaysNote": ""
  },
  {
    "id": "371500083",
    "name": "江寿園指定訪問介護事業所",
    "kana": "コウジュエンシテイホウモンカイゴジギョウショ",
    "address": "岩手県奥州市江刺伊手字新田149番地",
    "lat": 39.1760073762437,
    "lng": 141.311981281615,
    "tel": "0197-39-3217",
    "url": "https://esashijyuseikai.or.jp",
    "pref": "岩手県",
    "city": "奥州市",
    "category": "home_help",
    "serviceType": "訪問介護",
    "capacity": 0,
    "openDays": [
      "平日",
      "土曜日",
      "日曜日",
      "祝日"
    ],
    "openDaysNote": "早朝06：00～08：30（改行）夜間17：30～22：00"
  },
  {
    "id": "371500109",
    "name": "寿水荘指定訪問介護事業所",
    "kana": "ジュスイソウシテイホウモンカイゴジギョウショ",
    "address": "岩手県奥州市水沢字見分森16番地",
    "lat": 39.1211388,
    "lng": 141.1098583,
    "tel": "0197-25-3132",
    "url": "http://jyusuikai.jp",
    "pref": "岩手県",
    "city": "奥州市",
    "category": "home_help",
    "serviceType": "訪問介護",
    "capacity": 20,
    "openDays": [
      "平日",
      "土曜日",
      "日曜日",
      "祝日"
    ],
    "openDaysNote": ""
  },
  {
    "id": "370400053",
    "name": "福寿荘訪問介護事業所",
    "kana": "フクジュソウホウモンカイゴジギョウショ",
    "address": "岩手県奥州市水沢上姉体二丁目1番地22",
    "lat": 39.1166269,
    "lng": 141.1639952,
    "tel": "0197-28-1245",
    "url": "http://www.fukujyusou.jp/",
    "pref": "岩手県",
    "city": "奥州市",
    "category": "home_help",
    "serviceType": "訪問介護",
    "capacity": 0,
    "openDays": [
      "平日",
      "土曜日",
      "日曜日",
      "祝日"
    ],
    "openDaysNote": ""
  },
  {
    "id": "371500646",
    "name": "訪問介護事業所はなみずき",
    "kana": "ホウモンカイゴジギョウショハナミズキ",
    "address": "岩手県奥州市江刺西大通り１－１１複合型介護施設はなみずき 複合型介護施設はなみずき",
    "lat": 39.1893699557028,
    "lng": 141.174263463893,
    "tel": "0197-47-5666",
    "url": "",
    "pref": "岩手県",
    "city": "奥州市",
    "category": "home_help",
    "serviceType": "訪問介護",
    "capacity": 0,
    "openDays": [
      "平日",
      "土曜日",
      "日曜日",
      "祝日"
    ],
    "openDaysNote": ""
  },
  {
    "id": "370500068",
    "name": "ik介護サービス",
    "kana": "アイケイカイゴサービス",
    "address": "岩手県花巻市二枚橋５-360-1",
    "lat": 39.4418285804986,
    "lng": 141.120988019158,
    "tel": "0198-26-3719",
    "url": "http://www.ik-smile.jp",
    "pref": "岩手県",
    "city": "花巻市",
    "category": "home_help",
    "serviceType": "訪問介護",
    "capacity": 10,
    "openDays": [
      "平日",
      "土曜日",
      "日曜日",
      "祝日"
    ],
    "openDaysNote": "・ケアマネージャーの立てたケアプランに基づくサービスをいたします。（改行）・24時間年中無休でサービスしております。"
  },
  {
    "id": "370501223",
    "name": "アースサポート花巻",
    "kana": "アースサポートハナマキ",
    "address": "岩手県花巻市不動町2丁目1番地８",
    "lat": 39.3767132,
    "lng": 141.1114048,
    "tel": "0198-22-3111",
    "url": "http://www.earthsupport.co.jp",
    "pref": "岩手県",
    "city": "花巻市",
    "category": "home_help",
    "serviceType": "訪問介護",
    "capacity": 0,
    "openDays": [
      "平日",
      "土曜日",
      "日曜日",
      "祝日"
    ],
    "openDaysNote": "年中無休"
  },
  {
    "id": "370500266",
    "name": "アイリス花巻指定訪問介護事業所",
    "kana": "アイリスハナマキシテイホウモンカイゴジギョウショ",
    "address": "岩手県花巻市南万丁目970番地2",
    "lat": 39.3912805,
    "lng": 141.0987083,
    "tel": "0198-22-0020",
    "url": "http://iris-hanamaki.jp",
    "pref": "岩手県",
    "city": "花巻市",
    "category": "home_help",
    "serviceType": "訪問介護",
    "capacity": 55,
    "openDays": [
      "平日",
      "土曜日",
      "日曜日",
      "祝日"
    ],
    "openDaysNote": "なし"
  },
  {
    "id": "370501652",
    "name": "イーハトーブぬくもり訪問介護事業所",
    "kana": "イーハトーブヌクモリホウモンカイゴジギョウショ",
    "address": "岩手県花巻市石鳥谷町中寺林第６地割２１番地１",
    "lat": 39.4823832063803,
    "lng": 141.138919820781,
    "tel": "0198-29-5170",
    "url": "",
    "pref": "岩手県",
    "city": "花巻市",
    "category": "home_help",
    "serviceType": "訪問介護",
    "capacity": 25,
    "openDays": [
      "平日",
      "土曜日",
      "日曜日",
      "祝日"
    ],
    "openDaysNote": ""
  },
  {
    "id": "370501181",
    "name": "ニチイケアセンター花巻",
    "kana": "ニチイケアセンターハナマキ",
    "address": "岩手県花巻市四日町三丁目21-40",
    "lat": 39.4009028750349,
    "lng": 141.122443577771,
    "tel": "0198-21-1550",
    "url": "http://www.nichiigakkan.co.jp",
    "pref": "岩手県",
    "city": "花巻市",
    "category": "home_help",
    "serviceType": "訪問介護",
    "capacity": 0,
    "openDays": [
      "平日",
      "土曜日",
      "日曜日",
      "祝日"
    ],
    "openDaysNote": "居宅サービス計画書により、営業時間以外であってもサービス提供を行う場合がある。"
  },
  {
    "id": "370501819",
    "name": "ニチイケアセンター東花巻",
    "kana": "ニチイケアセンターヒガシハナマキ",
    "address": "岩手県花巻市東町4-8",
    "lat": 39.3855054,
    "lng": 141.1220199,
    "tel": "0198-41-3355",
    "url": "",
    "pref": "岩手県",
    "city": "花巻市",
    "category": "home_help",
    "serviceType": "訪問介護",
    "capacity": 0,
    "openDays": [
      "平日",
      "土曜日",
      "日曜日",
      "祝日"
    ],
    "openDaysNote": "居宅サービス計画書により、営業時間以外であってもサービス提供を行う場合がある。"
  },
  {
    "id": "370500258",
    "name": "のぞみホームヘルプステーション",
    "kana": "ノゾミホームヘルプステーション",
    "address": "岩手県花巻市椚ノ目第4地割99番地1",
    "lat": 39.4215142,
    "lng": 141.0864797,
    "tel": "0198-37-2253",
    "url": "http://www.jahanamaki.or.jp/",
    "pref": "岩手県",
    "city": "花巻市",
    "category": "home_help",
    "serviceType": "訪問介護",
    "capacity": 0,
    "openDays": [
      "平日",
      "土曜日",
      "日曜日",
      "祝日"
    ],
    "openDaysNote": ""
  },
  {
    "id": "370500860",
    "name": "はなまき荘指定訪問介護事業所",
    "kana": "ハナマキソウシテイホウモンカイゴジギョウショ",
    "address": "岩手県花巻市湯口字山根5番地1",
    "lat": 39.4034839081801,
    "lng": 141.04021437791,
    "tel": "0198-28-2438",
    "url": "http://www.ootanikai.jp",
    "pref": "岩手県",
    "city": "花巻市",
    "category": "home_help",
    "serviceType": "訪問介護",
    "capacity": 0,
    "openDays": [
      "平日",
      "土曜日",
      "日曜日",
      "祝日"
    ],
    "openDaysNote": "なし"
  },
  {
    "id": "370501884",
    "name": "ヘルパーステーション星の丘",
    "kana": "ヘルパーステーションホシノオカ",
    "address": "岩手県花巻市石鳥谷町松林寺第3地割76番地1サービス付き高齢者向け住宅　星の丘 サービス付き高齢者向け住宅　星の丘",
    "lat": 39.4748856,
    "lng": 141.094675,
    "tel": "0198-41-6661",
    "url": "http://chuyokai.or.jp",
    "pref": "岩手県",
    "city": "花巻市",
    "category": "home_help",
    "serviceType": "訪問介護",
    "capacity": 30,
    "openDays": [
      "平日",
      "土曜日",
      "日曜日",
      "祝日"
    ],
    "openDaysNote": "※但し、サービス提供はケアプランの定める時間であればいつでも対応"
  },
  {
    "id": "370501413",
    "name": "ヘルパーステーション中根子",
    "kana": "ヘルパーステーションナカネコ",
    "address": "岩手県花巻市中根子字拾田屋5番地1",
    "lat": 39.380032,
    "lng": 141.0974227,
    "tel": "0198-29-5785",
    "url": "http://blog.livedoor.jp/helper_tlc/",
    "pref": "岩手県",
    "city": "花巻市",
    "category": "home_help",
    "serviceType": "訪問介護",
    "capacity": 38,
    "openDays": [
      "平日",
      "土曜日",
      "日曜日",
      "祝日"
    ],
    "openDaysNote": ""
  },
  {
    "id": "370501942",
    "name": "ヘルパーステーション六花",
    "kana": "ヘルパーステーションリッカ",
    "address": "岩手県花巻市大畑第１地割７番地５ハウケア六花 ハウケア六花",
    "lat": 39.452797,
    "lng": 141.07905,
    "tel": "0198-29-6094",
    "url": "",
    "pref": "岩手県",
    "city": "花巻市",
    "category": "home_help",
    "serviceType": "訪問介護",
    "capacity": 0,
    "openDays": [
      "平日",
      "土曜日",
      "日曜日",
      "祝日"
    ],
    "openDaysNote": "上記営業時間の他、常時営業時間外の対応を行うことする。"
  },
  {
    "id": "370500951",
    "name": "愛ケアセンター花巻",
    "kana": "アイケアセンターハナマキ",
    "address": "岩手県花巻市若葉町3-5-5",
    "lat": 39.3854981,
    "lng": 141.1062161,
    "tel": "0198-41-4141",
    "url": "http://icare-center.co.jp/",
    "pref": "岩手県",
    "city": "花巻市",
    "category": "home_help",
    "serviceType": "訪問介護",
    "capacity": 0,
    "openDays": [
      "平日",
      "土曜日",
      "日曜日",
      "祝日"
    ],
    "openDaysNote": ""
  },
  {
    "id": "370500506",
    "name": "花巻あすかの里指定訪問介護事業所",
    "kana": "ハナマキアスカノサトシテイホウモンカイゴジギョウショ",
    "address": "岩手県花巻市西宮野目第14地割56番地2",
    "lat": 39.414675,
    "lng": 141.1107282,
    "tel": "0198-21-1010",
    "url": "http://matsuzonofukushikai.jp/",
    "pref": "岩手県",
    "city": "花巻市",
    "category": "home_help",
    "serviceType": "訪問介護",
    "capacity": null,
    "openDays": [
      "平日",
      "土曜日",
      "日曜日",
      "祝日"
    ],
    "openDaysNote": "ケアプランに基づくサービス提供、必要に応じて24時間対応"
  },
  {
    "id": "370500126",
    "name": "花巻市社会福祉協議会指定介護センター訪問介護事業所",
    "kana": "ハナマキシシャカイフクシキョウギカイシテイカイゴセンターホウモンカイゴジギョウショ",
    "address": "岩手県花巻市石神町364番地",
    "lat": 39.383716755147,
    "lng": 141.103178950926,
    "tel": "0198-24-7734",
    "url": "http://hanamaki-syakyo.or.jp/pages/361",
    "pref": "岩手県",
    "city": "花巻市",
    "category": "home_help",
    "serviceType": "訪問介護",
    "capacity": 0,
    "openDays": [
      "平日",
      "土曜日",
      "日曜日",
      "祝日"
    ],
    "openDaysNote": "特になし"
  },
  {
    "id": "372300061",
    "name": "花巻市社会福祉協議会指定大迫訪問介護事業所",
    "kana": "ハナマキシシャカイフクシキョウギカイシテイオオハサマホウモンカイゴジギョウショ",
    "address": "岩手県花巻市大迫町大迫第13地割23番地1",
    "lat": 39.4713945,
    "lng": 141.2791482,
    "tel": "0198-48-4111",
    "url": "",
    "pref": "岩手県",
    "city": "花巻市",
    "category": "home_help",
    "serviceType": "訪問介護",
    "capacity": 0,
    "openDays": [
      "平日",
      "土曜日",
      "日曜日",
      "祝日"
    ],
    "openDaysNote": ""
  },
  {
    "id": "370500589",
    "name": "株式会社三光タクシー指定訪問介護事業所",
    "kana": "カブシキガイシャサンコウタクシーシテイホウモンカイゴジギョウショ",
    "address": "岩手県花巻市西宮野目第１１地割１１５－２",
    "lat": 39.4149965813607,
    "lng": 141.126567194273,
    "tel": "0198-41-9988",
    "url": "http://www.sanko-taxi.ftw.jp",
    "pref": "岩手県",
    "city": "花巻市",
    "category": "home_help",
    "serviceType": "訪問介護",
    "capacity": 0,
    "openDays": [
      "平日",
      "土曜日",
      "日曜日",
      "祝日"
    ],
    "openDaysNote": "時間外のサービス提供に関しては相談に乗る事とする。"
  },
  {
    "id": "370500209",
    "name": "大谷荘指定訪問介護事業所",
    "kana": "オオタニソウシテイホウモンカイゴジギョウショ",
    "address": "岩手県花巻市湯口字松原53番地1",
    "lat": 39.4063854,
    "lng": 141.0199346,
    "tel": "0198-25-2700",
    "url": "http://ootanisou.jp",
    "pref": "岩手県",
    "city": "花巻市",
    "category": "home_help",
    "serviceType": "訪問介護",
    "capacity": 0,
    "openDays": [
      "平日",
      "土曜日",
      "日曜日",
      "祝日"
    ],
    "openDaysNote": ""
  },
  {
    "id": "372400085",
    "name": "東和荘指定訪問介護事業所",
    "kana": "トウワソウシテイホウモンカイゴジギョウショ",
    "address": "岩手県花巻市東和町東晴山7区16番地",
    "lat": 39.3724806,
    "lng": 141.2522536,
    "tel": "0198-44-3113",
    "url": "http://towaso.jp",
    "pref": "岩手県",
    "city": "花巻市",
    "category": "home_help",
    "serviceType": "訪問介護",
    "capacity": 0,
    "openDays": [
      "平日",
      "土曜日",
      "日曜日",
      "祝日"
    ],
    "openDaysNote": ""
  },
  {
    "id": "370500092",
    "name": "湯本指定訪問介護事業所",
    "kana": "ユモトシテイホウモンカイゴジギョウショ",
    "address": "岩手県花巻市金矢５－４３５－１",
    "lat": 39.4330784251554,
    "lng": 141.061223350263,
    "tel": "0198-27-3918",
    "url": "http://utsuno-kai.server-shared.com/",
    "pref": "岩手県",
    "city": "花巻市",
    "category": "home_help",
    "serviceType": "訪問介護",
    "capacity": 0,
    "openDays": [
      "平日",
      "祝日"
    ],
    "openDaysNote": "お盆（８／１４～１６）と年末年始（１２／２９～１／３）は休業"
  },
  {
    "id": "370501637",
    "name": "訪問介護ステーションピースハート石鳥谷",
    "kana": "ホウモンカイゴステーションピースハートイシドリヤ",
    "address": "岩手県花巻市石鳥谷町好地第3地割180番地1",
    "lat": 39.4950685835775,
    "lng": 141.143915369203,
    "tel": "0198-29-6587",
    "url": "https://www.peaceheart.jp/",
    "pref": "岩手県",
    "city": "花巻市",
    "category": "home_help",
    "serviceType": "訪問介護",
    "capacity": 0,
    "openDays": [
      "平日",
      "土曜日",
      "日曜日",
      "祝日"
    ],
    "openDaysNote": "２４時間対応"
  },
  {
    "id": "370501934",
    "name": "訪問介護事業所Happy",
    "kana": "ホウモンカイゴジギョウショハッピー",
    "address": "岩手県花巻市中根子字滝ノ沢１５０番地１",
    "lat": 39.3831756,
    "lng": 141.0928306,
    "tel": "0198-29-4868",
    "url": "",
    "pref": "岩手県",
    "city": "花巻市",
    "category": "home_help",
    "serviceType": "訪問介護",
    "capacity": 0,
    "openDays": [
      "平日",
      "土曜日",
      "日曜日",
      "祝日"
    ],
    "openDaysNote": ""
  },
  {
    "id": "372102020",
    "name": "ＪＡライフサポートホームヘルプステーション葛巻",
    "kana": "ジェイエイライフサポートホームヘルプステーションクズマキ",
    "address": "岩手県岩手郡葛巻町葛巻第9地割35番地７",
    "lat": 40.0366172292959,
    "lng": 141.4476882082,
    "tel": "0195-66-2030",
    "url": "",
    "pref": "岩手県",
    "city": "葛巻町",
    "category": "home_help",
    "serviceType": "訪問介護",
    "capacity": 60,
    "openDays": [
      "平日",
      "土曜日",
      "日曜日",
      "祝日"
    ],
    "openDaysNote": "・年末年始休み（１２月３０日～１月３日）（改行）・早朝・夜間・深夜のサービスにつきましては、別途ご相談に応じます。"
  },
  {
    "id": "371100819",
    "name": "ＳＯＭＰＯケア釜石訪問介護",
    "kana": "ソンポケアカマイシホウモンカイゴ",
    "address": "岩手県釜石市大町1丁目4番7号大町復興住宅4号棟店舗2 大町復興住宅4号棟店舗2",
    "lat": 39.2733936,
    "lng": 141.8809444,
    "tel": "0193-27-8761",
    "url": "",
    "pref": "岩手県",
    "city": "釜石市",
    "category": "home_help",
    "serviceType": "訪問介護",
    "capacity": 0,
    "openDays": [
      "平日",
      "土曜日",
      "日曜日",
      "祝日"
    ],
    "openDaysNote": "営業日：365日（改行）営業時間：24時間"
  },
  {
    "id": "371100306",
    "name": "いきいきホームヘルプステーション",
    "kana": "イキイキホームヘルプステーション",
    "address": "岩手県釜石市鵜住居町2-20-1いきいき福祉センター いきいき福祉センター",
    "lat": 39.3446719783973,
    "lng": 141.847730475983,
    "tel": "0193-29-1886",
    "url": "http://iwate-aikeikai.jp/info/",
    "pref": "岩手県",
    "city": "釜石市",
    "category": "home_help",
    "serviceType": "訪問介護",
    "capacity": 0,
    "openDays": [
      "平日",
      "土曜日",
      "日曜日",
      "祝日"
    ],
    "openDaysNote": "年末年始はご利用者様のご相談に応じます。"
  },
  {
    "id": "371100082",
    "name": "かまいしケアー・サービス指定訪問介護事業所",
    "kana": "カマイシケアー・サービスシテイホウモンカイゴジギョウショ",
    "address": "岩手県釜石市鵜住居町12-38-22",
    "lat": 39.3312089,
    "lng": 141.8809241,
    "tel": "0193-28-1043",
    "url": "",
    "pref": "岩手県",
    "city": "釜石市",
    "category": "home_help",
    "serviceType": "訪問介護",
    "capacity": 0,
    "openDays": [
      "平日",
      "祝日"
    ],
    "openDaysNote": "上記以外の時間帯でも状況に応じて対応可能。"
  },
  {
    "id": "371100595",
    "name": "ケアステーション・ファミリア",
    "kana": "ケアステーション・ファミリア",
    "address": "岩手県釜石市甲子町第15地割86-5カサ・デ・ファミリア カサ・デ・ファミリア",
    "lat": 39.2698849940252,
    "lng": 141.829500786508,
    "tel": "0193-27-9011",
    "url": "",
    "pref": "岩手県",
    "city": "釜石市",
    "category": "home_help",
    "serviceType": "訪問介護",
    "capacity": 0,
    "openDays": [
      "平日",
      "土曜日",
      "日曜日",
      "祝日"
    ],
    "openDaysNote": "夜間早朝加算、深夜加算有り"
  },
  {
    "id": "371100868",
    "name": "ケアタウン訪問介護事業所",
    "kana": "ケアタウンホウモンカイゴジギョウショ",
    "address": "岩手県釜石市平田町2丁目807番地",
    "lat": 39.245058250705,
    "lng": 141.889303003705,
    "tel": "0193-27-5430",
    "url": "https://www.caretown-iwate.com",
    "pref": "岩手県",
    "city": "釜石市",
    "category": "home_help",
    "serviceType": "訪問介護",
    "capacity": null,
    "openDays": [
      "平日",
      "土曜日",
      "日曜日",
      "祝日"
    ],
    "openDaysNote": ""
  },
  {
    "id": "371100108",
    "name": "ニチイケアセンター釜石",
    "kana": "ニチイケアセンターカマイシ",
    "address": "岩手県釜石市中妻町1-12-2",
    "lat": 39.2718438,
    "lng": 141.8600408,
    "tel": "0193-21-1133",
    "url": "http://www.nichiigakkan.co.jp",
    "pref": "岩手県",
    "city": "釜石市",
    "category": "home_help",
    "serviceType": "訪問介護",
    "capacity": 0,
    "openDays": [
      "平日"
    ],
    "openDaysNote": "居宅サービス計画により、休業日であっても、またサービスの営業時間以外でもサービスを行う場合がある"
  },
  {
    "id": "371100496",
    "name": "ニチイケアセンター釜石大町",
    "kana": "ニチイケアセンターカマイシオオマチ",
    "address": "岩手県釜石市大渡町2-2-171階－B号室 1階－B号室",
    "lat": 39.272800080583,
    "lng": 141.876535964613,
    "tel": "0193-22-6811",
    "url": "http://www.nichiigakkan.co.jp",
    "pref": "岩手県",
    "city": "釜石市",
    "category": "home_help",
    "serviceType": "訪問介護",
    "capacity": 0,
    "openDays": [
      "平日"
    ],
    "openDaysNote": "居宅サービス計画により、休業日であっても、またサービスの営業時間以外であってもサービスを行う場合がある。"
  },
  {
    "id": "371100850",
    "name": "フジクラ指定訪問介護事業所",
    "kana": "フジクラシテイホウモンカイゴジギョウショ",
    "address": "岩手県釜石市甲子町16-6-7",
    "lat": 39.2882498458962,
    "lng": 141.804551437434,
    "tel": "0193-21-1166",
    "url": "",
    "pref": "岩手県",
    "city": "釜石市",
    "category": "home_help",
    "serviceType": "訪問介護",
    "capacity": null,
    "openDays": [
      "平日",
      "土曜日",
      "日曜日",
      "祝日"
    ],
    "openDaysNote": ""
  },
  {
    "id": "371100264",
    "name": "釜石市社協指定訪問介護事業所",
    "kana": "カマイシシシャキョウシテイホウモンカイゴジギョウショ",
    "address": "岩手県釜石市大渡町三丁目１５番２６号釜石市保健福祉センター８階 釜石市保健福祉センター８階",
    "lat": 39.2737686,
    "lng": 141.8784446,
    "tel": "0193-24-2100",
    "url": "",
    "pref": "岩手県",
    "city": "釜石市",
    "category": "home_help",
    "serviceType": "訪問介護",
    "capacity": 0,
    "openDays": [
      "平日",
      "土曜日",
      "日曜日",
      "祝日"
    ],
    "openDaysNote": "利用者様のニーズで営業時間前の支援も対応しております。"
  },
  {
    "id": "371100660",
    "name": "指定訪問介護事業所ヘルパーステーションさくら",
    "kana": "シテイホウモンカイゴジギョウショヘルパーステーションサクラ",
    "address": "岩手県釜石市野田町2丁目14-17",
    "lat": 39.2567566596807,
    "lng": 141.821619571986,
    "tel": "0193-27-9765",
    "url": "",
    "pref": "岩手県",
    "city": "釜石市",
    "category": "home_help",
    "serviceType": "訪問介護",
    "capacity": 0,
    "openDays": [
      "平日",
      "土曜日",
      "日曜日",
      "祝日"
    ],
    "openDaysNote": ""
  },
  {
    "id": "372100602",
    "name": "岩手町社会福祉協議会指定訪問介護事業所",
    "kana": "イワテマチシャカイフクシキョウギカイシテイホウモンカイゴジギョウショ",
    "address": "岩手県岩手郡岩手町大字五日市第１０地割５１番地１",
    "lat": 39.9724066,
    "lng": 141.2134634,
    "tel": "0195-62-3570",
    "url": "http://iwatemachi-shakyo.org",
    "pref": "岩手県",
    "city": "岩手町",
    "category": "home_help",
    "serviceType": "訪問介護",
    "capacity": 40,
    "openDays": [
      "平日",
      "土曜日",
      "祝日"
    ],
    "openDaysNote": "日曜日及び年末年始（12月29日～1月3日）は休業"
  },
  {
    "id": "373000413",
    "name": "岩泉町社協指定訪問介護事業所",
    "kana": "イワイズミチョウシャキョウシテイホウモンカイゴジギョウショ",
    "address": "岩手県下閉伊郡岩泉町岩泉字森の越４番地１４",
    "lat": 39.8472362,
    "lng": 141.8002,
    "tel": "0194-22-3318",
    "url": "http://iwaizumi-shakyo.or.jp/",
    "pref": "岩手県",
    "city": "岩泉町",
    "category": "home_help",
    "serviceType": "訪問介護",
    "capacity": 0,
    "openDays": [
      "平日",
      "土曜日",
      "日曜日",
      "祝日"
    ],
    "openDaysNote": "24時間対応"
  },
  {
    "id": "370700304",
    "name": "コアラ訪問介護事業所",
    "kana": "コアラホウモンカイゴジギョウショ",
    "address": "岩手県久慈市京の森7-19-32",
    "lat": 40.2026137527301,
    "lng": 141.771782297525,
    "tel": "0194-53-5054",
    "url": "",
    "pref": "岩手県",
    "city": "久慈市",
    "category": "home_help",
    "serviceType": "訪問介護",
    "capacity": 0,
    "openDays": [
      "平日",
      "土曜日",
      "日曜日",
      "祝日"
    ],
    "openDaysNote": ""
  },
  {
    "id": "370700650",
    "name": "ヘルパーステーションアザレア",
    "kana": "ヘルパーステーションアザレア",
    "address": "岩手県久慈市侍浜町本町6-10-70",
    "lat": 40.2700268,
    "lng": 141.7856061,
    "tel": "0194-64-1670",
    "url": "http://samurai6104.web.fc2.com/",
    "pref": "岩手県",
    "city": "久慈市",
    "category": "home_help",
    "serviceType": "訪問介護",
    "capacity": null,
    "openDays": [
      "平日",
      "土曜日",
      "祝日"
    ],
    "openDaysNote": ""
  },
  {
    "id": "370700502",
    "name": "森の風ヘルパーステーション",
    "kana": "モリノカゼヘルパーステーション",
    "address": "岩手県久慈市長内町16-20-2",
    "lat": 40.1805314200504,
    "lng": 141.772924860947,
    "tel": "0194-66-9807",
    "url": "",
    "pref": "岩手県",
    "city": "久慈市",
    "category": "home_help",
    "serviceType": "訪問介護",
    "capacity": 0,
    "openDays": [
      "平日",
      "土曜日",
      "日曜日",
      "祝日"
    ],
    "openDaysNote": ""
  },
  {
    "id": "370700106",
    "name": "中央介護センター久慈ケアステーション",
    "kana": "チュウオウカイゴセンタークジケアステーション",
    "address": "岩手県久慈市旭町１０－６６－１",
    "lat": 40.1987177,
    "lng": 141.7789625,
    "tel": "0194-61-3310",
    "url": "https://kuji-chuokaigo.jimdo.com/",
    "pref": "岩手県",
    "city": "久慈市",
    "category": "home_help",
    "serviceType": "訪問介護",
    "capacity": 0,
    "openDays": [
      "平日",
      "土曜日",
      "日曜日",
      "祝日"
    ],
    "openDaysNote": "３６５日　２４時間対応"
  },
  {
    "id": "370700569",
    "name": "日和介護サービス事業所",
    "kana": "ヒヨリカイゴサービスジギョウショ",
    "address": "岩手県久慈市長内町第16地割40番地2",
    "lat": 40.1817808,
    "lng": 141.7715443,
    "tel": "0194-75-3867",
    "url": "https://www.hiyori.ltd/",
    "pref": "岩手県",
    "city": "久慈市",
    "category": "home_help",
    "serviceType": "訪問介護",
    "capacity": 0,
    "openDays": [
      "平日",
      "土曜日",
      "日曜日",
      "祝日"
    ],
    "openDaysNote": "原則として午前9時～午後6時までですが、それ以外の時間は応相談となります。"
  },
  {
    "id": "370700585",
    "name": "訪問介護ステーションドルチェ",
    "kana": "ホウモンカイゴステーションドルチェ",
    "address": "岩手県久慈市門前第6地割101番地",
    "lat": 40.1976749850554,
    "lng": 141.77123480977,
    "tel": "0194-75-3444",
    "url": "",
    "pref": "岩手県",
    "city": "久慈市",
    "category": "home_help",
    "serviceType": "訪問介護",
    "capacity": 0,
    "openDays": [
      "平日",
      "土曜日",
      "日曜日",
      "祝日"
    ],
    "openDaysNote": "サービス提供時間外のサービス希望受付可能。（改行）管理職を含め、事業所で検討し回答するものとする。"
  },
  {
    "id": "370700643",
    "name": "訪問介護事業所まごころの家",
    "kana": "ホウモンカイゴジギョウショマゴコロノイエ",
    "address": "岩手県久慈市長内町21-55-11アトトタウン１３号 アトトタウン１３号",
    "lat": 40.1830119773986,
    "lng": 141.774644090665,
    "tel": "0194-75-4488",
    "url": "http://magokoronoie.info/",
    "pref": "岩手県",
    "city": "久慈市",
    "category": "home_help",
    "serviceType": "訪問介護",
    "capacity": 30,
    "openDays": [
      "平日",
      "土曜日",
      "日曜日",
      "祝日"
    ],
    "openDaysNote": ""
  },
  {
    "id": "370700247",
    "name": "優介護サービス事業所",
    "kana": "ユウカイゴサービスジギョウショ",
    "address": "岩手県久慈市湊町第21地割48番地",
    "lat": 40.2047339,
    "lng": 141.7943722,
    "tel": "0194-53-1634",
    "url": "http://ameblo.jp/kiyo7292/",
    "pref": "岩手県",
    "city": "久慈市",
    "category": "home_help",
    "serviceType": "訪問介護",
    "capacity": 0,
    "openDays": [
      "平日",
      "土曜日",
      "日曜日",
      "祝日"
    ],
    "openDaysNote": "状況により、お客様の希望に基づく介護サービスを提供いたします。"
  },
  {
    "id": "370200974",
    "name": "JAライフサポートヘルパーステーションみやこ",
    "kana": "ジェイエイライフサポートヘルパーステーションミヤコ",
    "address": "岩手県宮古市千徳5番37号",
    "lat": 39.63367,
    "lng": 141.9196791,
    "tel": "0193-71-2213",
    "url": "",
    "pref": "岩手県",
    "city": "宮古市",
    "category": "home_help",
    "serviceType": "訪問介護",
    "capacity": null,
    "openDays": [
      "平日",
      "土曜日",
      "日曜日",
      "祝日"
    ],
    "openDaysNote": "日曜日については、事業所はお休みとなりますが、お問い合わせ等については、お電話で対応します。"
  },
  {
    "id": "370200933",
    "name": "ケアセンターみやこ訪問介護事業所",
    "kana": "ケアセンターミヤコホウモンカイゴジギョウショ",
    "address": "岩手県宮古市栄町５番３１",
    "lat": 39.6411615,
    "lng": 141.9445379,
    "tel": "0193-61-0004",
    "url": "",
    "pref": "岩手県",
    "city": "宮古市",
    "category": "home_help",
    "serviceType": "訪問介護",
    "capacity": 0,
    "openDays": [
      "平日",
      "土曜日",
      "日曜日",
      "祝日"
    ],
    "openDaysNote": "営業時間のほか、在宅サービスの計画によりサービスの提供を行います。（改行）電話等により、２４時間常時連絡が可能な体制を整えております"
  },
  {
    "id": "370200065",
    "name": "ニチイケアセンター宮古",
    "kana": "ニチイケアセンターミヤコ",
    "address": "岩手県宮古市太田1丁目2番3号",
    "lat": 39.6385947,
    "lng": 141.9286004,
    "tel": "0193-71-2188",
    "url": "http://www.nichiigakkan.co.jp",
    "pref": "岩手県",
    "city": "宮古市",
    "category": "home_help",
    "serviceType": "訪問介護",
    "capacity": 0,
    "openDays": [
      "平日"
    ],
    "openDaysNote": "居宅サービス計画により、休業日及び営業時間外であってもサービスを提供する場合があります。"
  },
  {
    "id": "370200370",
    "name": "ニチイケアセンター宮古西町",
    "kana": "ニチイケアセンターミヤコニシマチ",
    "address": "岩手県宮古市西町1-1-1",
    "lat": 39.6452333,
    "lng": 141.9459767,
    "tel": "0193-71-3061",
    "url": "http://www.nichiigakkan.co.jp",
    "pref": "岩手県",
    "city": "宮古市",
    "category": "home_help",
    "serviceType": "訪問介護",
    "capacity": 0,
    "openDays": [
      "平日"
    ],
    "openDaysNote": "居宅サービス計画により休業日及び、営業時間外であってもサービスを提供する場合があります。"
  },
  {
    "id": "370201030",
    "name": "ニチイケアセンター西ヶ丘",
    "kana": "ニチイケアセンターニシガオカ",
    "address": "岩手県宮古市神田沢町10番16号2階 2階",
    "lat": 39.6370117,
    "lng": 141.9165235,
    "tel": "0193-65-7637",
    "url": "https://www.nichiigakkan.co.jp/",
    "pref": "岩手県",
    "city": "宮古市",
    "category": "home_help",
    "serviceType": "訪問介護",
    "capacity": null,
    "openDays": [
      "平日"
    ],
    "openDaysNote": "居宅サービス計画により、休業日及び営業時間外であってもサービスを提供する場合があります。"
  },
  {
    "id": "370200784",
    "name": "ニチイケアセンター八木沢",
    "kana": "ニチイケアセンターヤギサワ",
    "address": "岩手県宮古市八木沢第4地割96-1",
    "lat": 39.6185282,
    "lng": 141.9471049,
    "tel": "0193-71-1125",
    "url": "http://www.nichiigakkan.co.jp",
    "pref": "岩手県",
    "city": "宮古市",
    "category": "home_help",
    "serviceType": "訪問介護",
    "capacity": 10,
    "openDays": [
      "平日"
    ],
    "openDaysNote": "居宅ｻｰﾋﾞｽ計画により、休日及び営業時間外であってもサービス提供する場合があります。"
  },
  {
    "id": "370200891",
    "name": "ハートランド宮古ヘルパーステーション",
    "kana": "ハートランドミヤコヘルパーステーション",
    "address": "岩手県宮古市実田2-5-12",
    "lat": 39.6232973,
    "lng": 141.952932,
    "tel": "0193-77-5810",
    "url": "http://www.heartland-miyako.org",
    "pref": "岩手県",
    "city": "宮古市",
    "category": "home_help",
    "serviceType": "訪問介護",
    "capacity": 0,
    "openDays": [
      "平日",
      "土曜日",
      "日曜日",
      "祝日"
    ],
    "openDaysNote": ""
  },
  {
    "id": "373000496",
    "name": "ふれあい荘ホームヘルパーステーション",
    "kana": "フレアイソウホームヘルパーステーション",
    "address": "岩手県宮古市田老字養呂地6番地２",
    "lat": 39.7302974803535,
    "lng": 141.939332756484,
    "tel": "0193-88-1204",
    "url": "http://www.tarouwasinkai.or.jp/",
    "pref": "岩手県",
    "city": "宮古市",
    "category": "home_help",
    "serviceType": "訪問介護",
    "capacity": 0,
    "openDays": [
      "平日",
      "土曜日",
      "日曜日",
      "祝日"
    ],
    "openDaysNote": ""
  },
  {
    "id": "370200909",
    "name": "ヘルパーステーションファミリー",
    "kana": "ヘルパアステエションファミリイ",
    "address": "岩手県宮古市山口二丁目3番13号デイサービスファミリー内 デイサービスファミリー内",
    "lat": 39.6492604,
    "lng": 141.9383496,
    "tel": "0193-63-7400",
    "url": "http;//www.familykaigo.com",
    "pref": "岩手県",
    "city": "宮古市",
    "category": "home_help",
    "serviceType": "訪問介護",
    "capacity": 0,
    "openDays": [
      "平日",
      "土曜日",
      "日曜日",
      "祝日"
    ],
    "openDaysNote": "サービス提供時間外においても電話等により対応できる体制を執っている。"
  },
  {
    "id": "370200321",
    "name": "ヘルパーステーションほっとはーと",
    "kana": "ヘルパーステーションホットハート",
    "address": "岩手県宮古市田の神１－２－３１",
    "lat": 39.6469629951902,
    "lng": 141.93961165119,
    "tel": "0193-64-0606",
    "url": "",
    "pref": "岩手県",
    "city": "宮古市",
    "category": "home_help",
    "serviceType": "訪問介護",
    "capacity": 0,
    "openDays": [
      "平日",
      "土曜日",
      "日曜日",
      "祝日"
    ],
    "openDaysNote": "居宅サービス計画により、時間外対応あり"
  },
  {
    "id": "370200578",
    "name": "ヘルパーステーションほほえみ",
    "kana": "ヘルパーステーションホホエミ",
    "address": "岩手県宮古市崎鍬ヶ崎第9地割39番地27",
    "lat": 39.6683752,
    "lng": 141.9575283,
    "tel": "0193-64-1515",
    "url": "http://www.hohoeminosato.jp/",
    "pref": "岩手県",
    "city": "宮古市",
    "category": "home_help",
    "serviceType": "訪問介護",
    "capacity": 0,
    "openDays": [
      "平日",
      "土曜日",
      "日曜日",
      "祝日"
    ],
    "openDaysNote": ""
  },
  {
    "id": "370200628",
    "name": "宮古市社会福祉協議会かわいホームヘルパー事業所",
    "kana": "ミヤコシシャカイフクシキョウギカイカワイホームヘルパージギョウショ",
    "address": "岩手県宮古市川井第2地割165番地",
    "lat": 39.5994299,
    "lng": 141.6789164,
    "tel": "0193-76-2575",
    "url": "",
    "pref": "岩手県",
    "city": "宮古市",
    "category": "home_help",
    "serviceType": "訪問介護",
    "capacity": 6,
    "openDays": [
      "平日",
      "土曜日",
      "日曜日",
      "祝日"
    ],
    "openDaysNote": ""
  },
  {
    "id": "370200073",
    "name": "宮古市社会福祉協議会ホームヘルプサービスセンター",
    "kana": "ミヤコシシャカイフクシキョウギカイホームヘルプサービスセンター",
    "address": "岩手県宮古市小山田二丁目９番２０号",
    "lat": 39.6349594,
    "lng": 141.9399439,
    "tel": "0193-64-5053",
    "url": "https://www.miyako-shakyo.or.jp/",
    "pref": "岩手県",
    "city": "宮古市",
    "category": "home_help",
    "serviceType": "訪問介護",
    "capacity": 0,
    "openDays": [
      "平日",
      "土曜日",
      "日曜日",
      "祝日"
    ],
    "openDaysNote": "３６５日提供しています。"
  },
  {
    "id": "370200990",
    "name": "咲希ホームヘルプ事業所",
    "kana": "サキホームヘルプジギョウショ",
    "address": "岩手県宮古市保久田3番46号",
    "lat": 39.6429604,
    "lng": 141.9492487,
    "tel": "0193-65-9117",
    "url": "http://www.sakihoukan.co.jp",
    "pref": "岩手県",
    "city": "宮古市",
    "category": "home_help",
    "serviceType": "訪問介護",
    "capacity": null,
    "openDays": [
      "平日",
      "土曜日",
      "日曜日",
      "祝日"
    ],
    "openDaysNote": "サービス提供時間の他も、柔軟に対応します。"
  },
  {
    "id": "370200362",
    "name": "三社指定訪問介護事業所",
    "kana": "サンシャシテイホウモンカイゴジギョウショ",
    "address": "岩手県宮古市保久田4番8号",
    "lat": 39.6427225,
    "lng": 141.9471404,
    "tel": "0193-62-3632",
    "url": "",
    "pref": "岩手県",
    "city": "宮古市",
    "category": "home_help",
    "serviceType": "訪問介護",
    "capacity": 0,
    "openDays": [
      "平日"
    ],
    "openDaysNote": "電話等により朝７時００分～翌朝３時００分まで連絡が可能な体制とする。"
  },
  {
    "id": "370200107",
    "name": "指定訪問介護事業所サンホームみやこ",
    "kana": "シテイホウモンカイゴジギョウショサンホームミヤコ",
    "address": "岩手県宮古市崎鍬ヶ崎第4地割1番地20",
    "lat": 39.6597928,
    "lng": 141.9516206,
    "tel": "0193-62-7011",
    "url": "http://www.wakatakekai.or.jp/",
    "pref": "岩手県",
    "city": "宮古市",
    "category": "home_help",
    "serviceType": "訪問介護",
    "capacity": 0,
    "openDays": [
      "平日",
      "土曜日",
      "日曜日",
      "祝日"
    ],
    "openDaysNote": "年中無休"
  },
  {
    "id": "372500686",
    "name": "ニチイケアセンター金ヶ崎",
    "kana": "ニチイケアセンターカネガサキ",
    "address": "岩手県胆沢郡金ヶ崎町三ヶ尻荒巻横道上60ディアス荒巻Ⅾ棟202号 ディアス荒巻Ⅾ棟202号",
    "lat": 39.2192396217912,
    "lng": 141.099125708598,
    "tel": "0197-41-1515",
    "url": "https://www.nichiigakkan.co.jp",
    "pref": "岩手県",
    "city": "金ヶ崎町",
    "category": "home_help",
    "serviceType": "訪問介護",
    "capacity": null,
    "openDays": [
      "平日",
      "土曜日",
      "日曜日",
      "祝日"
    ],
    "openDaysNote": "居宅サービス計画書により、営業時間外であってもサービス提供を行う場合があります。"
  },
  {
    "id": "372500207",
    "name": "金ケ崎町社会協議会指定訪問介護事業所",
    "kana": "カネガサキチョウシャカイフクシキョウギカイシテイホウモンカイゴジギョウショ",
    "address": "岩手県胆沢郡金ケ崎町西根南羽沢４３番地",
    "lat": 39.1974003,
    "lng": 141.1177795,
    "tel": "0197-44-6060",
    "url": "http://www.kin-syakyo.jp/",
    "pref": "岩手県",
    "city": "金ヶ崎町",
    "category": "home_help",
    "serviceType": "訪問介護",
    "capacity": 0,
    "openDays": [
      "平日",
      "土曜日",
      "祝日"
    ],
    "openDaysNote": ""
  },
  {
    "id": "373100338",
    "name": "ホームヘルパーステーションおりつめ",
    "kana": "ホームヘルパーステーションオリツメ",
    "address": "岩手県九戸郡九戸村大字伊保内9-73",
    "lat": 40.2142998,
    "lng": 141.4216045,
    "tel": "0195-42-4165",
    "url": "http://www.oritsumesou.or.jp",
    "pref": "岩手県",
    "city": "九戸村",
    "category": "home_help",
    "serviceType": "訪問介護",
    "capacity": null,
    "openDays": [
      "平日",
      "土曜日",
      "日曜日",
      "祝日"
    ],
    "openDaysNote": ""
  },
  {
    "id": "373100791",
    "name": "ほほえみタクシー訪問介護サービス",
    "kana": "ホホエミタクシーホウモンカイゴサービス",
    "address": "岩手県九戸郡九戸村大字江刺家第2地割135番地13",
    "lat": 40.2434434,
    "lng": 141.4133018,
    "tel": "0195-43-4528",
    "url": "",
    "pref": "岩手県",
    "city": "九戸村",
    "category": "home_help",
    "serviceType": "訪問介護",
    "capacity": null,
    "openDays": [
      "平日"
    ],
    "openDaysNote": "利用者の希望に応じて、上記の時間外でもサービス提供可能な体制をとります。"
  },
  {
    "id": "373100429",
    "name": "社会福祉法人九戸村社会福祉協議会指定訪問介護事業所",
    "kana": "シャカイフクシホウジンクノヘムラシャカイフクシキョウギカイシテイホウモンカイゴジギョウショ",
    "address": "岩手県九戸郡九戸村大字伊保内第７地割３９番地４",
    "lat": 40.2115223,
    "lng": 141.4201575,
    "tel": "0195-41-1200",
    "url": "http://www.kunohe-shakyo.jp/",
    "pref": "岩手県",
    "city": "九戸村",
    "category": "home_help",
    "serviceType": "訪問介護",
    "capacity": 0,
    "openDays": [
      "平日",
      "土曜日",
      "日曜日",
      "祝日"
    ],
    "openDaysNote": "随時対応（年中無休）"
  },
  {
    "id": "373100817",
    "name": "訪問介護げんき",
    "kana": "ホウモンカイゴゲンキ",
    "address": "岩手県九戸郡九戸村大字江刺家第15地割15番地2",
    "lat": 40.2654224,
    "lng": 141.4066784,
    "tel": "0195-26-9400",
    "url": "https://r.goope.jp/gennki-taxi/about",
    "pref": "岩手県",
    "city": "九戸村",
    "category": "home_help",
    "serviceType": "訪問介護",
    "capacity": null,
    "openDays": [
      "平日",
      "土曜日"
    ],
    "openDaysNote": "上記の営業日、営業時間の他、居宅サービス計画によりサービスを提供を行うものとする"
  },
  {
    "id": "373100379",
    "name": "くつろぎの家指定訪問介護事業所",
    "kana": "クツロギノイエシテイホウモンカイゴジギョウショ",
    "address": "岩手県九戸郡軽米町山内第１２地割太田向９６番地２",
    "lat": 40.3165901310632,
    "lng": 141.383776682887,
    "tel": "0195-47-2351",
    "url": "http://www.keisenkai.jp/kutsuroginoie/",
    "pref": "岩手県",
    "city": "軽米町",
    "category": "home_help",
    "serviceType": "訪問介護",
    "capacity": 0,
    "openDays": [
      "平日",
      "土曜日",
      "日曜日",
      "祝日"
    ],
    "openDaysNote": ""
  },
  {
    "id": "373100551",
    "name": "ヘルパーステーションせせらぎ",
    "kana": "ヘルパーステーションセセラギ",
    "address": "岩手県九戸郡軽米町大字小軽米１２－３－１",
    "lat": 40.2959844,
    "lng": 141.5236391,
    "tel": "0195-45-3007",
    "url": "",
    "pref": "岩手県",
    "city": "軽米町",
    "category": "home_help",
    "serviceType": "訪問介護",
    "capacity": 15,
    "openDays": [
      "平日",
      "土曜日",
      "日曜日",
      "祝日"
    ],
    "openDaysNote": ""
  },
  {
    "id": "373100486",
    "name": "軽米タクシー株式会社",
    "kana": "カルマイタクシーカブシキガイシャ",
    "address": "岩手県九戸郡軽米町大字軽米第４地割１６番地１２",
    "lat": 40.3220102,
    "lng": 141.4692488,
    "tel": "0195-46-2011",
    "url": "http//karumai.com/karutaku/index.htm",
    "pref": "岩手県",
    "city": "軽米町",
    "category": "home_help",
    "serviceType": "訪問介護",
    "capacity": 0,
    "openDays": [
      "平日",
      "土曜日",
      "日曜日",
      "祝日"
    ],
    "openDaysNote": ""
  },
  {
    "id": "373100809",
    "name": "訪問介護事業所いちい",
    "kana": "ホウモンカイゴジギョウショイチイ",
    "address": "岩手県九戸郡軽米町大字軽米3-22-7",
    "lat": 40.3174643546918,
    "lng": 141.473804950792,
    "tel": "0195-26-8128",
    "url": "http://karumai-shakyo.or.jp/",
    "pref": "岩手県",
    "city": "軽米町",
    "category": "home_help",
    "serviceType": "訪問介護",
    "capacity": 0,
    "openDays": [
      "平日"
    ],
    "openDaysNote": "定休日等の利用については、利用者の希望により対応。"
  },
  {
    "id": "373000900",
    "name": "つばさ支援センター山田",
    "kana": "ツバサシエンセンターヤマダ",
    "address": "岩手県下閉伊郡山田町長崎4丁目10番1号長崎アパート1F102号 長崎アパート1F102号",
    "lat": 39.463275,
    "lng": 141.9469444,
    "tel": "0193-77-3328",
    "url": "",
    "pref": "岩手県",
    "city": "山田町",
    "category": "home_help",
    "serviceType": "訪問介護",
    "capacity": 0,
    "openDays": [
      "平日",
      "土曜日",
      "日曜日",
      "祝日"
    ],
    "openDaysNote": "３６５日２４時間対応可能"
  },
  {
    "id": "373000181",
    "name": "山田町社協指定訪問介護事業所",
    "kana": "ヤマダマチシャキョウシテイホウモンカイゴジギョウショ",
    "address": "岩手県下閉伊郡山田町山田第１５地割８２番地２",
    "lat": 39.4748558710395,
    "lng": 141.936384547026,
    "tel": "0193-82-4000",
    "url": "http://www.yamada-shakyo.or.jp",
    "pref": "岩手県",
    "city": "山田町",
    "category": "home_help",
    "serviceType": "訪問介護",
    "capacity": 0,
    "openDays": [
      "平日",
      "土曜日",
      "日曜日",
      "祝日"
    ],
    "openDaysNote": ""
  },
  {
    "id": "373000355",
    "name": "有限会社あすなろ指定訪問介護事業所",
    "kana": "ユウゲンガイシャアスナロシテイホウモンカイゴジギョウショ",
    "address": "岩手県下閉伊郡山田町長崎４－１４－１",
    "lat": 39.4620654,
    "lng": 141.9446562,
    "tel": "0193-81-1126",
    "url": "",
    "pref": "岩手県",
    "city": "山田町",
    "category": "home_help",
    "serviceType": "訪問介護",
    "capacity": 0,
    "openDays": [
      "平日"
    ],
    "openDaysNote": "土曜・日曜・祝日は原則休み、ただしサービス計画で指定された時間は営業。"
  },
  {
    "id": "373000785",
    "name": "有限会社すずらん介護事業所",
    "kana": "ユウゲンガイシャスズランカイゴジギョウショ",
    "address": "岩手県下閉伊郡山田町豊間根3-3-8",
    "lat": 39.540299111667,
    "lng": 141.925138306906,
    "tel": "0193-86-3810",
    "url": "https://www.suzuran-web.co.jp",
    "pref": "岩手県",
    "city": "山田町",
    "category": "home_help",
    "serviceType": "訪問介護",
    "capacity": null,
    "openDays": [
      "平日",
      "土曜日",
      "日曜日",
      "祝日"
    ],
    "openDaysNote": ""
  },
  {
    "id": "373000348",
    "name": "有限会社ヘルパーはうす指定訪問介護事業所",
    "kana": "ユウゲンガイシャヘルパーハウスシテイホウモンカイゴジギョウショ",
    "address": "岩手県下閉伊郡山田町大沢４－３８－５",
    "lat": 39.495114006903,
    "lng": 141.960984661533,
    "tel": "0193-77-4712",
    "url": "https://www.big-advance.site/s/197/1290",
    "pref": "岩手県",
    "city": "山田町",
    "category": "home_help",
    "serviceType": "訪問介護",
    "capacity": 0,
    "openDays": [
      "平日",
      "土曜日",
      "日曜日",
      "祝日"
    ],
    "openDaysNote": "Ｒ７年４月１日からサービスを利用できる時間が7時～19時に変更。時間外の場合は応相談。"
  },
  {
    "id": "373000728",
    "name": "有限会社山﨑タクシー指定訪問介護事業所",
    "kana": "ユウゲンガイシャヤマザキタクシーシテイホウモンカイゴジギョウショ",
    "address": "岩手県下閉伊郡山田町川向町7-4",
    "lat": 39.4648887471683,
    "lng": 141.950146851312,
    "tel": "0193-82-9957",
    "url": "",
    "pref": "岩手県",
    "city": "山田町",
    "category": "home_help",
    "serviceType": "訪問介護",
    "capacity": 0,
    "openDays": [
      "平日",
      "土曜日",
      "日曜日",
      "祝日"
    ],
    "openDaysNote": "但し、時間外居宅サービス計画で指定された時間については営業する。"
  },
  {
    "id": "372200873",
    "name": "グリーンケアー",
    "kana": "グリーンケアー",
    "address": "岩手県紫波郡紫波町日詰字郡山駅164－1",
    "lat": 39.5581362472263,
    "lng": 141.16793142209,
    "tel": "019-656-8785",
    "url": "",
    "pref": "岩手県",
    "city": "紫波町",
    "category": "home_help",
    "serviceType": "訪問介護",
    "capacity": 25,
    "openDays": [
      "平日",
      "土曜日",
      "日曜日",
      "祝日"
    ],
    "openDaysNote": "利用者様のご希望があれば、時間外でも可能な限り対応させて頂きます。"
  },
  {
    "id": "372200782",
    "name": "指定訪問介護事業所愛ケアセンター紫波",
    "kana": "シテイホウモンカイゴジギョウショアイケアセンターシワ",
    "address": "岩手県紫波郡紫波町上平沢字川崎82-2",
    "lat": 39.5541789,
    "lng": 141.1040758,
    "tel": "019-673-7582",
    "url": "http://icare-center.co.jp/",
    "pref": "岩手県",
    "city": "紫波町",
    "category": "home_help",
    "serviceType": "訪問介護",
    "capacity": 25,
    "openDays": [
      "平日",
      "土曜日",
      "日曜日",
      "祝日"
    ],
    "openDaysNote": "24時間対応の訪問介護です。"
  },
  {
    "id": "372200089",
    "name": "紫波町社会福祉協議会指定訪問介護事業所",
    "kana": "シワチョウシャカイフクシキョウギカイシテイホウモンカイゴジギョウショ",
    "address": "岩手県紫波郡紫波町二日町字古舘356-1",
    "lat": 39.5608645,
    "lng": 141.1743595,
    "tel": "019-671-1577",
    "url": "http://www.shiwa-shakyo.or.jp/",
    "pref": "岩手県",
    "city": "紫波町",
    "category": "home_help",
    "serviceType": "訪問介護",
    "capacity": 0,
    "openDays": [
      "平日",
      "土曜日",
      "日曜日",
      "祝日"
    ],
    "openDaysNote": ""
  },
  {
    "id": "372201103",
    "name": "訪問介護ステーションユニゾン",
    "kana": "ホウモンカイゴステ－ションユニゾン",
    "address": "岩手県紫波郡紫波町日詰西6丁目5番11号赤坂ロッヂＡ 赤坂ロッヂＡ",
    "lat": 39.5526993847526,
    "lng": 141.164348961598,
    "tel": "019-601-4653",
    "url": "",
    "pref": "岩手県",
    "city": "紫波町",
    "category": "home_help",
    "serviceType": "訪問介護",
    "capacity": 0,
    "openDays": [
      "平日",
      "土曜日",
      "日曜日",
      "祝日"
    ],
    "openDaysNote": "サービス提供可能時間外のサービス希望受付可能。（改行）管理職を含め、事業所での検討し回答するものとする。"
  },
  {
    "id": "372200964",
    "name": "訪問介護事業所虹のいえ",
    "kana": "ホウモンカイゴジギョウショニジノイエ",
    "address": "岩手県紫波郡紫波町北日詰字大日堂2-1",
    "lat": 39.5388173,
    "lng": 141.1655248,
    "tel": "019-613-3117",
    "url": "http://care-net.biz/03/nijinoie/",
    "pref": "岩手県",
    "city": "紫波町",
    "category": "home_help",
    "serviceType": "訪問介護",
    "capacity": 35,
    "openDays": [
      "平日",
      "土曜日",
      "日曜日",
      "祝日"
    ],
    "openDaysNote": "午前7時～午前8時のサービス提供時は、早朝加算・午後18時～午後19時のサービス提供時は、夜間加算として、それぞれ所定単位数の25％が加算されます。"
  },
  {
    "id": "372102004",
    "name": "ヘルパーステーションしずく",
    "kana": "ヘルパーステーションシズク",
    "address": "岩手県岩手郡雫石町西根下駒木野41-2",
    "lat": 39.7317789078315,
    "lng": 140.954031157672,
    "tel": "019-693-3001",
    "url": "",
    "pref": "岩手県",
    "city": "雫石町",
    "category": "home_help",
    "serviceType": "訪問介護",
    "capacity": 22,
    "openDays": [
      "平日",
      "土曜日",
      "日曜日",
      "祝日"
    ],
    "openDaysNote": "利用者の要請に基づき、深夜の対応を行います。"
  },
  {
    "id": "372101329",
    "name": "松寿荘指定訪問介護事業所",
    "kana": "ショウジュソウシテイホウモンカイゴジギョウショ",
    "address": "岩手県岩手郡雫石町七ツ森16番地37",
    "lat": 39.6968799,
    "lng": 141.0132905,
    "tel": "019-692-2511",
    "url": "",
    "pref": "岩手県",
    "city": "雫石町",
    "category": "home_help",
    "serviceType": "訪問介護",
    "capacity": 0,
    "openDays": [
      "平日",
      "土曜日",
      "日曜日",
      "祝日"
    ],
    "openDaysNote": "訪問介護計画上必要性があれば早朝6時から9時00分、夜間18時00分から深夜２時の時間帯は対応が可能"
  },
  {
    "id": "372101758",
    "name": "訪問介護事業所ひまわり",
    "kana": "ホウモンカイゴジギョウショヒマワリ",
    "address": "岩手県岩手郡雫石町柿木5番地4",
    "lat": 39.705761030505,
    "lng": 140.963566730241,
    "tel": "019-691-1555",
    "url": "http://www.kouwa.iwate.jp",
    "pref": "岩手県",
    "city": "雫石町",
    "category": "home_help",
    "serviceType": "訪問介護",
    "capacity": 40,
    "openDays": [
      "平日",
      "土曜日",
      "日曜日",
      "祝日"
    ],
    "openDaysNote": "24時間対応"
  },
  {
    "id": "372800177",
    "name": "ヘルパーとなり",
    "kana": "ヘルパートナリ",
    "address": "岩手県気仙郡住田町上有住字上家6番地３",
    "lat": 39.2144523,
    "lng": 141.5965154,
    "tel": "0192-22-7445",
    "url": "",
    "pref": "岩手県",
    "city": "住田町",
    "category": "home_help",
    "serviceType": "訪問介護",
    "capacity": 0,
    "openDays": [
      "平日",
      "祝日"
    ],
    "openDaysNote": "8時30分～17時30分の営業時間ですが、時間外の対応も可能です。"
  },
  {
    "id": "372800060",
    "name": "住田町社会福祉協議会指定訪問介護事業所",
    "kana": "スミタチョウシャカイフクシキョウギカイシテイホウモンカイゴジギョウショ",
    "address": "岩手県気仙郡住田町世田米字川向９６－５",
    "lat": 39.141466,
    "lng": 141.5751529,
    "tel": "0192-47-3357",
    "url": "http://sumita-shakyo.jp/",
    "pref": "岩手県",
    "city": "住田町",
    "category": "home_help",
    "serviceType": "訪問介護",
    "capacity": 0,
    "openDays": [
      "平日",
      "土曜日",
      "日曜日",
      "祝日"
    ],
    "openDaysNote": "２４時間営業していますが、１８：０１～７：５９の訪問には加算があります。"
  },
  {
    "id": "370107765",
    "name": "55指定訪問介護事業所",
    "kana": "ゴジュウゴシテイホウモンカイゴジギョウショ",
    "address": "岩手県盛岡市みたけ四丁目14番53号",
    "lat": 39.7448718,
    "lng": 141.1194192,
    "tel": "019-601-5975",
    "url": "https://minenoyama.co.jp/",
    "pref": "岩手県",
    "city": "盛岡市",
    "category": "home_help",
    "serviceType": "訪問介護",
    "capacity": 0,
    "openDays": [
      "平日",
      "土曜日",
      "日曜日",
      "祝日"
    ],
    "openDaysNote": "２４時間対応します。"
  },
  {
    "id": "370104119",
    "name": "ＧＬＳ訪問介護事業所",
    "kana": "ジーエルエスホウモンカイゴジギョウショ",
    "address": "岩手県盛岡市南仙北１丁目１２―１２メゾンＭ１　１０２号 メゾンＭ１　１０２号",
    "lat": 39.6750042,
    "lng": 141.1531077,
    "tel": "019-697-5992",
    "url": "",
    "pref": "岩手県",
    "city": "盛岡市",
    "category": "home_help",
    "serviceType": "訪問介護",
    "capacity": null,
    "openDays": [
      "平日",
      "土曜日",
      "祝日"
    ],
    "openDaysNote": "特に無し"
  },
  {
    "id": "370106833",
    "name": "JAライフサポートホームヘルプステーション玉山",
    "kana": "ジェイエイライフサポートホームヘルプステーションタマヤマ",
    "address": "岩手県盛岡市渋民字鶴飼1－1",
    "lat": 39.8473064,
    "lng": 141.1704086,
    "tel": "019-683-3704",
    "url": "",
    "pref": "岩手県",
    "city": "盛岡市",
    "category": "home_help",
    "serviceType": "訪問介護",
    "capacity": 0,
    "openDays": [
      "平日",
      "土曜日",
      "日曜日",
      "祝日"
    ],
    "openDaysNote": "上記時間外については相談に応じる。"
  },
  {
    "id": "370106973",
    "name": "SOMPOケア盛岡厨川訪問介護",
    "kana": "ソンポケアモリオカクリヤガワホウモンカイゴ",
    "address": "岩手県盛岡市厨川５丁目５-１藤沢アパート　1Ｆ 藤沢アパート　1Ｆ",
    "lat": 39.7485002,
    "lng": 141.1247656,
    "tel": "019-601-1130",
    "url": "",
    "pref": "岩手県",
    "city": "盛岡市",
    "category": "home_help",
    "serviceType": "訪問介護",
    "capacity": 0,
    "openDays": [
      "平日",
      "土曜日",
      "日曜日",
      "祝日"
    ],
    "openDaysNote": "営業日：365日（改行）営業時間：24時間"
  },
  {
    "id": "370106981",
    "name": "ＳＯＭＰＯケア盛岡本町訪問介護",
    "kana": "ソンポケアモリオカホンチョウホウモンカイゴ",
    "address": "岩手県盛岡市長田町14番43号",
    "lat": 39.7087074,
    "lng": 141.1435874,
    "tel": "019-654-6686",
    "url": "",
    "pref": "岩手県",
    "city": "盛岡市",
    "category": "home_help",
    "serviceType": "訪問介護",
    "capacity": 0,
    "openDays": [
      "平日",
      "土曜日",
      "日曜日",
      "祝日"
    ],
    "openDaysNote": "営業日：365日（改行）営業時間：24時間"
  },
  {
    "id": "370102212",
    "name": "Unity指定訪問介護事業所",
    "kana": "ユニティーシテイホウモンカイゴジギョウショ",
    "address": "岩手県盛岡市緑ヶ丘2丁目6－6",
    "lat": 39.7325791205318,
    "lng": 141.141257025037,
    "tel": "019-662-5655",
    "url": "http://www.unity-morioka.com/top.html",
    "pref": "岩手県",
    "city": "盛岡市",
    "category": "home_help",
    "serviceType": "訪問介護",
    "capacity": 14,
    "openDays": [
      "平日",
      "土曜日",
      "日曜日",
      "祝日"
    ],
    "openDaysNote": ""
  },
  {
    "id": "370101933",
    "name": "アースサポート盛岡",
    "kana": "アースサポートモリオカ",
    "address": "岩手県盛岡市厨川1丁目16番3号",
    "lat": 39.7447535,
    "lng": 141.1303847,
    "tel": "019-645-4700",
    "url": "http://www.earthsupport.co.jp",
    "pref": "岩手県",
    "city": "盛岡市",
    "category": "home_help",
    "serviceType": "訪問介護",
    "capacity": 0,
    "openDays": [
      "平日",
      "土曜日",
      "日曜日",
      "祝日"
    ],
    "openDaysNote": "年中無休"
  },
  {
    "id": "370103962",
    "name": "アースサポート盛岡中央",
    "kana": "アースサポートモリオカチュウオウ",
    "address": "岩手県盛岡市高松2丁目6番39号",
    "lat": 39.7239354469968,
    "lng": 141.138579098182,
    "tel": "019-663-4400",
    "url": "http://www.earthsupport.co.jp",
    "pref": "岩手県",
    "city": "盛岡市",
    "category": "home_help",
    "serviceType": "訪問介護",
    "capacity": 0,
    "openDays": [
      "平日",
      "土曜日",
      "日曜日",
      "祝日"
    ],
    "openDaysNote": "年中無休"
  },
  {
    "id": "370105298",
    "name": "アースサポート盛岡津志田",
    "kana": "アースサポートモリオカツシダ",
    "address": "岩手県盛岡市津志田西2丁目14番5号",
    "lat": 39.6643405,
    "lng": 141.1481412,
    "tel": "019-637-5900",
    "url": "http://www.earthsupport.co.jp",
    "pref": "岩手県",
    "city": "盛岡市",
    "category": "home_help",
    "serviceType": "訪問介護",
    "capacity": 0,
    "openDays": [
      "平日",
      "土曜日",
      "日曜日",
      "祝日"
    ],
    "openDaysNote": "年中無休"
  },
  {
    "id": "370103558",
    "name": "アースサポート盛岡南",
    "kana": "アースサポートモリオカミナミ",
    "address": "岩手県盛岡市東仙北1丁目4番16号",
    "lat": 39.6845258757552,
    "lng": 141.156062700413,
    "tel": "019-656-4900",
    "url": "http://www.earthsupport.co.jp",
    "pref": "岩手県",
    "city": "盛岡市",
    "category": "home_help",
    "serviceType": "訪問介護",
    "capacity": 0,
    "openDays": [
      "平日",
      "土曜日",
      "日曜日",
      "祝日"
    ],
    "openDaysNote": "年中無休"
  },
  {
    "id": "370101297",
    "name": "あさひ指定訪問介護事業所",
    "kana": "アサヒシテイホウモンカイゴジギョウショ",
    "address": "岩手県盛岡市上厨川字杉原１０１－６",
    "lat": 39.7090369,
    "lng": 141.1052297,
    "tel": "019-647-4177",
    "url": "",
    "pref": "岩手県",
    "city": "盛岡市",
    "category": "home_help",
    "serviceType": "訪問介護",
    "capacity": 0,
    "openDays": [
      "平日",
      "土曜日",
      "日曜日",
      "祝日"
    ],
    "openDaysNote": "夜間・早朝及び深夜帯は男性の訪問介護員が担当。要相談。"
  },
  {
    "id": "370107401",
    "name": "あったかいごヘルパーステーション東安庭",
    "kana": "アッタカイゴヘルパーステーションヒガシアニワ",
    "address": "岩手県盛岡市東安庭1丁目２３－６８",
    "lat": 39.6800207,
    "lng": 141.1644209,
    "tel": "019-604-6622",
    "url": "https://sankyo-ika.jp",
    "pref": "岩手県",
    "city": "盛岡市",
    "category": "home_help",
    "serviceType": "訪問介護",
    "capacity": 0,
    "openDays": [
      "平日",
      "土曜日",
      "日曜日",
      "祝日"
    ],
    "openDaysNote": ""
  },
  {
    "id": "370104648",
    "name": "アルテ訪問介護事業所",
    "kana": "アルテホウモンカイゴジギョウショ",
    "address": "岩手県盛岡市黒石野１－１１－１０住宅型有料老人ホーム　アルテプラド黒石野　１Ｆ 住宅型有料老人ホーム　アルテプラド黒石野　１Ｆ",
    "lat": 39.7422094,
    "lng": 141.1487387,
    "tel": "019-662-6337",
    "url": "http://www.arteprado.jp",
    "pref": "岩手県",
    "city": "盛岡市",
    "category": "home_help",
    "serviceType": "訪問介護",
    "capacity": 0,
    "openDays": [
      "平日",
      "土曜日",
      "日曜日",
      "祝日"
    ],
    "openDaysNote": "＊但し、２４時間対応可能"
  },
  {
    "id": "370104622",
    "name": "アルテ訪問介護事業所向中野",
    "kana": "アルテホウモンカイゴジギョウショムカイナカノ",
    "address": "岩手県盛岡市向中野4丁目24-56住宅型有料老人ホームアルテプラド向中野 住宅型有料老人ホームアルテプラド向中野",
    "lat": 39.6778195,
    "lng": 141.1462686,
    "tel": "019-656-5620",
    "url": "https://www.arteprado.jp",
    "pref": "岩手県",
    "city": "盛岡市",
    "category": "home_help",
    "serviceType": "訪問介護",
    "capacity": 0,
    "openDays": [
      "平日",
      "土曜日",
      "日曜日",
      "祝日"
    ],
    "openDaysNote": ""
  },
  {
    "id": "370106569",
    "name": "えがお訪問介護事業所",
    "kana": "エガオホウモンカイゴジギョウショ",
    "address": "岩手県盛岡市南仙北２丁目6番1５号",
    "lat": 39.6727990440776,
    "lng": 141.149997266471,
    "tel": "019-636-2452",
    "url": "",
    "pref": "岩手県",
    "city": "盛岡市",
    "category": "home_help",
    "serviceType": "訪問介護",
    "capacity": 5,
    "openDays": [
      "平日",
      "土曜日",
      "祝日"
    ],
    "openDaysNote": "日曜日　　　12/29～１/３お休み"
  },
  {
    "id": "370106726",
    "name": "かたらい手と手・こころとこころ（ゆう）",
    "kana": "カタライテトテココロトココロユウ",
    "address": "岩手県盛岡市西松園一丁目18-11",
    "lat": 39.753673850405,
    "lng": 141.155316590342,
    "tel": "019-681-2628、",
    "url": "https://lifecare-u.com/",
    "pref": "岩手県",
    "city": "盛岡市",
    "category": "home_help",
    "serviceType": "訪問介護",
    "capacity": 0,
    "openDays": [
      "平日",
      "土曜日",
      "日曜日",
      "祝日"
    ],
    "openDaysNote": "時間外にサービスの利用を希望する場合は、連絡を受け利用可能"
  },
  {
    "id": "370107245",
    "name": "ケア・グッドライフ",
    "kana": "ケア・グッドライフ",
    "address": "岩手県盛岡市中央通3丁目14番4号パークハイツ桜城102号 パークハイツ桜城102号",
    "lat": 39.7048370749192,
    "lng": 141.142363196959,
    "tel": "019-656-6688",
    "url": "https://c-goodlife.jimdofree.com/",
    "pref": "岩手県",
    "city": "盛岡市",
    "category": "home_help",
    "serviceType": "訪問介護",
    "capacity": 30,
    "openDays": [
      "平日"
    ],
    "openDaysNote": "ケアプランにより、定休日及び営業時間外であってもサービスを提供できる場合があります。"
  },
  {
    "id": "370103624",
    "name": "ケアサポート岩手さくら会訪問介護事業所",
    "kana": "ケアサポートイワテサクラカイホウモンカイゴジギョウショ",
    "address": "岩手県盛岡市三ッ割4-1-48",
    "lat": 39.7262215841399,
    "lng": 141.157693503306,
    "tel": "019-656-9433",
    "url": "",
    "pref": "岩手県",
    "city": "盛岡市",
    "category": "home_help",
    "serviceType": "訪問介護",
    "capacity": 0,
    "openDays": [
      "平日",
      "土曜日"
    ],
    "openDaysNote": "上記以外の時間帯も相談に応じます。"
  },
  {
    "id": "370104697",
    "name": "ケアステーション　まつぞの",
    "kana": "ケアステーション　マツゾノ",
    "address": "岩手県盛岡市西松園三丁目21-10複合ケアセンターまつぞの 複合ケアセンターまつぞの",
    "lat": 39.7563834,
    "lng": 141.1623065,
    "tel": "019-601-7402",
    "url": "http://www.matsuzono.jp",
    "pref": "岩手県",
    "city": "盛岡市",
    "category": "home_help",
    "serviceType": "訪問介護",
    "capacity": 0,
    "openDays": [
      "平日",
      "土曜日",
      "日曜日",
      "祝日"
    ],
    "openDaysNote": "年中無休　24時間対応"
  },
  {
    "id": "370106882",
    "name": "ケアステーション銀河",
    "kana": "ケアステーションギンガ",
    "address": "岩手県盛岡市小鳥沢１丁目９番７号サンビレッジ小鳥沢Ｅ-１０２号室 サンビレッジ小鳥沢Ｅ-１０２号室",
    "lat": 39.76543,
    "lng": 141.1683389,
    "tel": "019-601-7212",
    "url": "",
    "pref": "岩手県",
    "city": "盛岡市",
    "category": "home_help",
    "serviceType": "訪問介護",
    "capacity": 0,
    "openDays": [
      "平日",
      "土曜日"
    ],
    "openDaysNote": "上記の営業時間外に関しては電話等により常時連絡が可能な体制とする"
  },
  {
    "id": "370107187",
    "name": "けあふるサポート",
    "kana": "ケアフルサポート",
    "address": "岩手県盛岡市稲荷町14-28サービス付き高齢者向け住宅けあふる稲荷町 サービス付き高齢者向け住宅けあふる稲荷町",
    "lat": 39.7099946678428,
    "lng": 141.109852683467,
    "tel": "019-645-4113",
    "url": "",
    "pref": "岩手県",
    "city": "盛岡市",
    "category": "home_help",
    "serviceType": "訪問介護",
    "capacity": 0,
    "openDays": [
      "平日",
      "土曜日",
      "日曜日",
      "祝日"
    ],
    "openDaysNote": ""
  },
  {
    "id": "370106734",
    "name": "けあふるヘルパーステーション",
    "kana": "ケアフルヘルパーステーション",
    "address": "岩手県盛岡市永井16-87サービス付き高齢者向け住宅けあふる永井 サービス付き高齢者向け住宅けあふる永井",
    "lat": 39.6565549904833,
    "lng": 141.140785754046,
    "tel": "019-638-1110",
    "url": "",
    "pref": "岩手県",
    "city": "盛岡市",
    "category": "home_help",
    "serviceType": "訪問介護",
    "capacity": 29,
    "openDays": [
      "平日",
      "土曜日",
      "日曜日",
      "祝日"
    ],
    "openDaysNote": ""
  },
  {
    "id": "370102063",
    "name": "コープ介護・福祉センター",
    "kana": "コープカイゴ・フクシセンター",
    "address": "岩手県盛岡市長橋町17-35",
    "lat": 39.7170060957615,
    "lng": 141.102777693679,
    "tel": "019-643-9131",
    "url": "https://www.iwate.coop/",
    "pref": "岩手県",
    "city": "盛岡市",
    "category": "home_help",
    "serviceType": "訪問介護",
    "capacity": 0,
    "openDays": [
      "平日",
      "土曜日",
      "日曜日",
      "祝日"
    ],
    "openDaysNote": ""
  },
  {
    "id": "370108128",
    "name": "これさぽヘルパーステーション盛岡",
    "kana": "コレサポヘルパーステーションモリオカ",
    "address": "岩手県盛岡市上堂3丁目10-33シニアパンション盛岡・上堂 シニアパンション盛岡・上堂",
    "lat": 39.7282541,
    "lng": 141.1268943,
    "tel": "019-646-1981",
    "url": "",
    "pref": "岩手県",
    "city": "盛岡市",
    "category": "home_help",
    "serviceType": "訪問介護",
    "capacity": 0,
    "openDays": [
      "平日",
      "土曜日",
      "日曜日",
      "祝日"
    ],
    "openDaysNote": "営業時間外のサービス提供についてはご相談ください。"
  },
  {
    "id": "370106544",
    "name": "サニー訪問介護事業所",
    "kana": "サニーホウモンカイゴジギョウショ",
    "address": "岩手県盛岡市東緑が丘26-32",
    "lat": 39.7330609508063,
    "lng": 141.152195557672,
    "tel": "019-613-6680",
    "url": "",
    "pref": "岩手県",
    "city": "盛岡市",
    "category": "home_help",
    "serviceType": "訪問介護",
    "capacity": 10,
    "openDays": [
      "平日",
      "祝日"
    ],
    "openDaysNote": "随時対応可"
  },
  {
    "id": "370107468",
    "name": "ちえのわ指定訪問介護事業所",
    "kana": "チエノワシテイホウモンカイゴジギョウショ",
    "address": "盛岡市厨川４丁目５番７号",
    "lat": 39.7482229,
    "lng": 141.1274892,
    "tel": "019-648-6077",
    "url": "http://chienowacare.com",
    "pref": "岩手県",
    "city": "盛岡市",
    "category": "home_help",
    "serviceType": "訪問介護",
    "capacity": 0,
    "openDays": [
      "平日",
      "土曜日",
      "日曜日",
      "祝日"
    ],
    "openDaysNote": "早朝・夜間にも希望により承ります。（要問合せ019-647-0570）"
  },
  {
    "id": "370107427",
    "name": "ツクイ盛岡",
    "kana": "ツクイモリオカ",
    "address": "岩手県盛岡市東黒石野二丁目1番5号",
    "lat": 39.7484241318318,
    "lng": 141.15278517791,
    "tel": "019-665-3213",
    "url": "https://www.tsukui.net/home-care/2031/",
    "pref": "岩手県",
    "city": "盛岡市",
    "category": "home_help",
    "serviceType": "訪問介護",
    "capacity": 0,
    "openDays": [
      "平日",
      "土曜日",
      "日曜日",
      "祝日"
    ],
    "openDaysNote": ""
  },
  {
    "id": "370106791",
    "name": "なごみヘルパーステーション",
    "kana": "ナゴミヘルパーステーション",
    "address": "岩手県盛岡市箱清水2丁目4-33",
    "lat": 39.7319484487819,
    "lng": 141.131930426984,
    "tel": "019-662-1000",
    "url": "https://physicare-i.com",
    "pref": "岩手県",
    "city": "盛岡市",
    "category": "home_help",
    "serviceType": "訪問介護",
    "capacity": 0,
    "openDays": [
      "平日",
      "土曜日",
      "日曜日",
      "祝日"
    ],
    "openDaysNote": ""
  },
  {
    "id": "370101446",
    "name": "ニチイケアセンタ－盛岡北",
    "kana": "ニチイケアセンターモリオカキタ",
    "address": "岩手県盛岡市みたけ三丁目３８番５０号",
    "lat": 39.7417064,
    "lng": 141.1165555,
    "tel": "019-648-1571",
    "url": "http://www.nichiigakkan.co.jp",
    "pref": "岩手県",
    "city": "盛岡市",
    "category": "home_help",
    "serviceType": "訪問介護",
    "capacity": 0,
    "openDays": [
      "平日"
    ],
    "openDaysNote": "居宅サ－ビス計画により、休業日及び営業時間外でもサ－ビスを行う場合があります。"
  },
  {
    "id": "370101925",
    "name": "ニチイケアセンター松園",
    "kana": "ニチイケアセンターマツゾノ",
    "address": "岩手県盛岡市東松園一丁目２４番２号",
    "lat": 39.7495814,
    "lng": 141.1667091,
    "tel": "019-665-2272",
    "url": "http://www.nichiigakkan.co.jp",
    "pref": "岩手県",
    "city": "盛岡市",
    "category": "home_help",
    "serviceType": "訪問介護",
    "capacity": 3,
    "openDays": [
      "平日"
    ],
    "openDaysNote": "居宅サービス計画により、休日であっても、また、営業時間以外でもサービスを行う場合がある。"
  },
  {
    "id": "370100265",
    "name": "ニチイケアセンター上田",
    "kana": "ニチイケアセンターウエダ",
    "address": "岩手県盛岡市上田一丁目３番４３号",
    "lat": 39.7136931,
    "lng": 141.1476174,
    "tel": "019-604-1333",
    "url": "http://www.nichiigakkan.co.jp",
    "pref": "岩手県",
    "city": "盛岡市",
    "category": "home_help",
    "serviceType": "訪問介護",
    "capacity": 0,
    "openDays": [
      "平日"
    ],
    "openDaysNote": "居宅ｻｰﾋﾞｽ計画により、休業日及び営業時間以外であってもサービスを提供する場合があります。"
  },
  {
    "id": "370104549",
    "name": "ニチイケアセンター盛岡西",
    "kana": "ニチイケアセンターモリオカニシ",
    "address": "岩手県盛岡市本宮3丁目51-2DNAムサシ101号 DNAムサシ101号",
    "lat": 39.6913285,
    "lng": 141.1286226,
    "tel": "019-656-5710",
    "url": "http://www.nichiigakkan.co.jp",
    "pref": "岩手県",
    "city": "盛岡市",
    "category": "home_help",
    "serviceType": "訪問介護",
    "capacity": 0,
    "openDays": [
      "平日"
    ],
    "openDaysNote": "居宅サービス計画により、休業日及び営業時間以外でも、サービスの提供を行う場合がある。"
  },
  {
    "id": "370107211",
    "name": "ニチイケアセンター盛岡東",
    "kana": "ニチイケアセンターモリオカヒガシ",
    "address": "岩手県盛岡市東新庄一丁目２７番１号ピソ・ヴェルデ102 ピソ・ヴェルデ102",
    "lat": 39.7009604,
    "lng": 141.1693683,
    "tel": "019-622-2611",
    "url": "https://www.nichiigakkan.co.jp/",
    "pref": "岩手県",
    "city": "盛岡市",
    "category": "home_help",
    "serviceType": "訪問介護",
    "capacity": null,
    "openDays": [
      "平日"
    ],
    "openDaysNote": "居宅サービス計画により、休業日及び営業時間外であってもサービス提供する場合があります"
  },
  {
    "id": "370100273",
    "name": "ニチイケアセンター盛岡南",
    "kana": "ニチイケアセンターモリオカミナミ",
    "address": "岩手県盛岡市津志田14地割112番地",
    "lat": 39.6562275,
    "lng": 141.1567826,
    "tel": "019-614-0031",
    "url": "http://www.nichiigakkan.co.jp",
    "pref": "岩手県",
    "city": "盛岡市",
    "category": "home_help",
    "serviceType": "訪問介護",
    "capacity": 0,
    "openDays": [
      "平日"
    ],
    "openDaysNote": "休業日　土曜日、日曜日、国民の祝日、年末年始（12/30～1/3）（改行）居宅サービス計画により、休業日であっても、また、営業時間以外でもサービスを行う場合がある。"
  },
  {
    "id": "370107203",
    "name": "ニチイケアセンター仙北",
    "kana": "ニチイケアセンターセンボク",
    "address": "岩手県盛岡市仙北三丁目16-38メゾンパオ101号 メゾンパオ101号",
    "lat": 39.6828461,
    "lng": 141.1512509,
    "tel": "019-656-1391",
    "url": "http://www.nichiigakkan.co.jp",
    "pref": "岩手県",
    "city": "盛岡市",
    "category": "home_help",
    "serviceType": "訪問介護",
    "capacity": 0,
    "openDays": [
      "平日"
    ],
    "openDaysNote": "居宅サービス計画により、休業日及び営業時間外であってもサービスを提供する場合があります。"
  },
  {
    "id": "370102097",
    "name": "ハーツケアセンター訪問介護事業所",
    "kana": "ハーツケアセンターホウモンカイゴジギョウショ",
    "address": "岩手県盛岡市上田3丁目6番33号中村ハイツ1号 中村ハイツ1号",
    "lat": 39.7163038,
    "lng": 141.141654,
    "tel": "019-652-1343",
    "url": "",
    "pref": "岩手県",
    "city": "盛岡市",
    "category": "home_help",
    "serviceType": "訪問介護",
    "capacity": 5,
    "openDays": [
      "平日"
    ],
    "openDaysNote": "・定休日　12月29日から1月3日まで。8月13日から8月16日。日曜日、祝日。（改行）・上記定休日でもサービスの提供が行える場合があります。ご相談ください。"
  },
  {
    "id": "370106312",
    "name": "ハート・ヘルパーステーション",
    "kana": "ハート・ヘルパーステーション",
    "address": "盛岡市下太田下川原57-6",
    "lat": 39.6965694354421,
    "lng": 141.119551779187,
    "tel": "019-658-0707",
    "url": "",
    "pref": "岩手県",
    "city": "盛岡市",
    "category": "home_help",
    "serviceType": "訪問介護",
    "capacity": 0,
    "openDays": [
      "平日",
      "土曜日",
      "日曜日",
      "祝日"
    ],
    "openDaysNote": ""
  },
  {
    "id": "370106163",
    "name": "フレアスヘルパーステーション盛岡",
    "kana": "フレアスヘルパーステーションモリオカ",
    "address": "岩手県盛岡市本宮３丁目40-10",
    "lat": 39.6935266237947,
    "lng": 141.132662342853,
    "tel": "019-601-8250",
    "url": "http://www.fureasu.jp/",
    "pref": "岩手県",
    "city": "盛岡市",
    "category": "home_help",
    "serviceType": "訪問介護",
    "capacity": null,
    "openDays": [
      "平日",
      "土曜日",
      "日曜日",
      "祝日"
    ],
    "openDaysNote": "土・日についてはご相談に応じております。"
  },
  {
    "id": "370105967",
    "name": "ヘルパーステーション･それいゆ",
    "kana": "ヘルパーステーション・ソレイユ",
    "address": "岩手県盛岡市南仙北2丁目27-1鈴木ビル1階　2号室 鈴木ビル1階　2号室",
    "lat": 39.6739508,
    "lng": 141.1552735,
    "tel": "019-636-0134",
    "url": "",
    "pref": "岩手県",
    "city": "盛岡市",
    "category": "home_help",
    "serviceType": "訪問介護",
    "capacity": null,
    "openDays": [
      "平日",
      "土曜日",
      "日曜日",
      "祝日"
    ],
    "openDaysNote": "居宅介護等のサービスは24時間対応とする。"
  },
  {
    "id": "370101669",
    "name": "ヘルパーステーションあじさい",
    "kana": "ヘルパーステーションアジサイ",
    "address": "岩手県盛岡市上堂三丁目15番7号",
    "lat": 39.7293162,
    "lng": 141.1298047,
    "tel": "019-648-7300",
    "url": "",
    "pref": "岩手県",
    "city": "盛岡市",
    "category": "home_help",
    "serviceType": "訪問介護",
    "capacity": 0,
    "openDays": [
      "平日",
      "土曜日",
      "日曜日",
      "祝日"
    ],
    "openDaysNote": "早朝（6：00～8：00）　夜間（18：00～22：00）は通常料金の25％増しになります。"
  },
  {
    "id": "370107930",
    "name": "ヘルパーステーションアンド",
    "kana": "ヘルパステーションアンド",
    "address": "岩手県盛岡市大館町23-62マンションマルニ201号 マンションマルニ201号",
    "lat": 39.7149418,
    "lng": 141.1098647,
    "tel": "019-681-3136",
    "url": "",
    "pref": "岩手県",
    "city": "盛岡市",
    "category": "home_help",
    "serviceType": "訪問介護",
    "capacity": null,
    "openDays": [
      "平日",
      "土曜日",
      "日曜日",
      "祝日"
    ],
    "openDaysNote": "サービスは24時間体制"
  },
  {
    "id": "370101776",
    "name": "ヘルパーステーションくるみ",
    "kana": "ヘルパーステーションクルミ",
    "address": "岩手県盛岡市愛宕町１２番１０号",
    "lat": 39.7101064105389,
    "lng": 141.162839008598,
    "tel": "019-623-2111",
    "url": "https://www.kuruminoie.com",
    "pref": "岩手県",
    "city": "盛岡市",
    "category": "home_help",
    "serviceType": "訪問介護",
    "capacity": 0,
    "openDays": [
      "平日",
      "土曜日",
      "日曜日",
      "祝日"
    ],
    "openDaysNote": ""
  },
  {
    "id": "370105629",
    "name": "ヘルパーステーションさつき",
    "kana": "ヘルパーステーションサツキ",
    "address": "岩手県盛岡市北飯岡2丁目16-73ヘルパーステーションさつき ヘルパーステーションさつき",
    "lat": 39.6739102816669,
    "lng": 141.132312406082,
    "tel": "019-637-7800",
    "url": "",
    "pref": "岩手県",
    "city": "盛岡市",
    "category": "home_help",
    "serviceType": "訪問介護",
    "capacity": 35,
    "openDays": [
      "平日",
      "土曜日",
      "日曜日",
      "祝日"
    ],
    "openDaysNote": "特記なし"
  },
  {
    "id": "370106239",
    "name": "ヘルパーステーションだいち",
    "kana": "ヘルパーステーションダイチ",
    "address": "岩手県盛岡市南仙北２丁目２５－２５",
    "lat": 39.6739113275146,
    "lng": 141.153579072423,
    "tel": "019-656-5515",
    "url": "https://www.daichi-iwate.jp/",
    "pref": "岩手県",
    "city": "盛岡市",
    "category": "home_help",
    "serviceType": "訪問介護",
    "capacity": 66,
    "openDays": [
      "平日",
      "土曜日",
      "日曜日",
      "祝日"
    ],
    "openDaysNote": "24時間対応"
  },
  {
    "id": "370106809",
    "name": "ヘルパーステーションてまり",
    "kana": "ヘルパーステーションテマリ",
    "address": "岩手県盛岡市中太田新田25-583",
    "lat": 39.7001788078316,
    "lng": 141.113556380962,
    "tel": "019-613-8423",
    "url": "https://care-roots.jp",
    "pref": "岩手県",
    "city": "盛岡市",
    "category": "home_help",
    "serviceType": "訪問介護",
    "capacity": 9,
    "openDays": [
      "平日",
      "土曜日",
      "日曜日",
      "祝日"
    ],
    "openDaysNote": "24時間対応"
  },
  {
    "id": "370102881",
    "name": "ヘルパーステーションはるかぜ",
    "kana": "ヘルパーステーションハルカゼ",
    "address": "岩手県盛岡市永井19-197-6セカンドライフはるかぜ セカンドライフはるかぜ",
    "lat": 39.6489005827258,
    "lng": 141.143980827647,
    "tel": "019-681-4754",
    "url": "",
    "pref": "岩手県",
    "city": "盛岡市",
    "category": "home_help",
    "serviceType": "訪問介護",
    "capacity": 0,
    "openDays": [
      "平日",
      "土曜日"
    ],
    "openDaysNote": "祝日、12月31日～1月3日、8月13日～15日を除く。上記時間外（日曜含む）については、管理者が特に必要と認めた時はサービス提供を行います。"
  },
  {
    "id": "370108011",
    "name": "ヘルパーステーションひとてまケア",
    "kana": "ヘルパーステーションヒトテマケア",
    "address": "岩手県盛岡市門2-1-48",
    "lat": 39.6681118,
    "lng": 141.1706821,
    "tel": "019-613-4656",
    "url": "https://hitotemacare.com/",
    "pref": "岩手県",
    "city": "盛岡市",
    "category": "home_help",
    "serviceType": "訪問介護",
    "capacity": 0,
    "openDays": [
      "平日",
      "土曜日",
      "祝日"
    ],
    "openDaysNote": ""
  },
  {
    "id": "370103590",
    "name": "ヘルパーステーションふきのとう",
    "kana": "ヘルパーステーションフキノトウ",
    "address": "岩手県盛岡市小鳥沢2丁目３３－２６",
    "lat": 39.7656129600258,
    "lng": 141.165396527925,
    "tel": "019-656-9127",
    "url": "https://emuzu-fukinotou.co.jp/",
    "pref": "岩手県",
    "city": "盛岡市",
    "category": "home_help",
    "serviceType": "訪問介護",
    "capacity": 0,
    "openDays": [
      "平日",
      "土曜日",
      "日曜日",
      "祝日"
    ],
    "openDaysNote": "その他の時間でもサービスの提供する場合がある。"
  },
  {
    "id": "370106049",
    "name": "ヘルパーステーションまごころ",
    "kana": "ヘルパーステーションマゴコロ",
    "address": "岩手県盛岡市高松3丁目4－48",
    "lat": 39.7254689752158,
    "lng": 141.140007005557,
    "tel": "019-605-1157",
    "url": "http://www.pn-magokoro.net",
    "pref": "岩手県",
    "city": "盛岡市",
    "category": "home_help",
    "serviceType": "訪問介護",
    "capacity": 0,
    "openDays": [
      "平日",
      "土曜日",
      "日曜日",
      "祝日"
    ],
    "openDaysNote": "年中無休(24時間対応)"
  },
  {
    "id": "370102782",
    "name": "ヘルパーステーションまごのて盛岡",
    "kana": "ヘルパーステーションマゴノテモリオカ",
    "address": "岩手県盛岡市東松園1丁目12-13",
    "lat": 39.7474746201211,
    "lng": 141.169572971533,
    "tel": "019-656-8080",
    "url": "http://www.magonote.cc",
    "pref": "岩手県",
    "city": "盛岡市",
    "category": "home_help",
    "serviceType": "訪問介護",
    "capacity": 0,
    "openDays": [
      "平日",
      "土曜日",
      "日曜日",
      "祝日"
    ],
    "openDaysNote": ""
  },
  {
    "id": "370105009",
    "name": "ヘルパーステーションメルシー",
    "kana": "ヘルパーステーションメルシー",
    "address": "岩手県盛岡市東松園一丁目19－20",
    "lat": 39.7529478,
    "lng": 141.1695226,
    "tel": "019-613-7466",
    "url": "",
    "pref": "岩手県",
    "city": "盛岡市",
    "category": "home_help",
    "serviceType": "訪問介護",
    "capacity": 0,
    "openDays": [
      "平日",
      "土曜日",
      "日曜日",
      "祝日"
    ],
    "openDaysNote": "サービス提供時間は利用者の希望・状態・体調に合わせて24時間の対応"
  },
  {
    "id": "370104309",
    "name": "ヘルパーステーションよろこび",
    "kana": "ヘルパーステーションヨロコビ",
    "address": "岩手県盛岡市三本柳２地割３２－１",
    "lat": 39.6661766,
    "lng": 141.1646174,
    "tel": "019-681-8071",
    "url": "",
    "pref": "岩手県",
    "city": "盛岡市",
    "category": "home_help",
    "serviceType": "訪問介護",
    "capacity": 0,
    "openDays": [
      "平日",
      "土曜日",
      "日曜日",
      "祝日"
    ],
    "openDaysNote": ""
  },
  {
    "id": "370107278",
    "name": "ヘルパーステーション結いの手",
    "kana": "ヘルパーステーションユイノテ",
    "address": "岩手県盛岡市本宮四丁目39番20号",
    "lat": 39.6871246028852,
    "lng": 141.127967095233,
    "tel": "019-681-2800",
    "url": "",
    "pref": "岩手県",
    "city": "盛岡市",
    "category": "home_help",
    "serviceType": "訪問介護",
    "capacity": 0,
    "openDays": [
      "平日"
    ],
    "openDaysNote": ""
  },
  {
    "id": "370107781",
    "name": "ヘルパーステーション月が丘",
    "kana": "ヘルパーステーションツキガオカ",
    "address": "岩手県盛岡市月が丘三丁目４９番６号",
    "lat": 39.7401615,
    "lng": 141.1066486,
    "tel": "019-681-7367",
    "url": "",
    "pref": "岩手県",
    "city": "盛岡市",
    "category": "home_help",
    "serviceType": "訪問介護",
    "capacity": 0,
    "openDays": [
      "平日",
      "土曜日",
      "日曜日",
      "祝日"
    ],
    "openDaysNote": ""
  },
  {
    "id": "370107377",
    "name": "ヘルパーステーション高松",
    "kana": "ヘルパーステーションタカマツ",
    "address": "岩手県盛岡市高松二丁目3番18号",
    "lat": 39.7219945600349,
    "lng": 141.137377296295,
    "tel": "019-681-1772",
    "url": "http://kawatou2020.com/",
    "pref": "岩手県",
    "city": "盛岡市",
    "category": "home_help",
    "serviceType": "訪問介護",
    "capacity": 0,
    "openDays": [
      "平日",
      "土曜日",
      "日曜日",
      "祝日"
    ],
    "openDaysNote": ""
  },
  {
    "id": "370107831",
    "name": "ヘルパーステーション寿縁",
    "kana": "ヘルパーステーションジュエン",
    "address": "岩手県盛岡市中野1丁目30－25",
    "lat": 39.6917861,
    "lng": 141.1738704,
    "tel": "080-3330-3001",
    "url": "",
    "pref": "岩手県",
    "city": "盛岡市",
    "category": "home_help",
    "serviceType": "訪問介護",
    "capacity": 0,
    "openDays": [
      "平日",
      "土曜日",
      "日曜日",
      "祝日"
    ],
    "openDaysNote": ""
  },
  {
    "id": "370102519",
    "name": "ヘルパーステーション茶愛",
    "kana": "ヘルパーステーションチャオ",
    "address": "岩手県盛岡市三本柳23-9-79",
    "lat": 39.6468302861002,
    "lng": 141.16880527791,
    "tel": "019-613-6320",
    "url": "",
    "pref": "岩手県",
    "city": "盛岡市",
    "category": "home_help",
    "serviceType": "訪問介護",
    "capacity": 5,
    "openDays": [
      "平日",
      "土曜日",
      "日曜日",
      "祝日"
    ],
    "openDaysNote": ""
  },
  {
    "id": "370106189",
    "name": "ヘルパーステーション内丸",
    "kana": "ヘルパーステーションウチマル",
    "address": "岩手県盛岡市本町通一丁目9-12",
    "lat": 39.7055025,
    "lng": 141.1531394,
    "tel": "019-652-3333",
    "url": "http://www.kohakunokaze.com",
    "pref": "岩手県",
    "city": "盛岡市",
    "category": "home_help",
    "serviceType": "訪問介護",
    "capacity": 32,
    "openDays": [
      "平日",
      "土曜日",
      "日曜日",
      "祝日"
    ],
    "openDaysNote": "22時～6時のご利用につきましてはご相談下さい。"
  },
  {
    "id": "370107336",
    "name": "ヘルパーステーション絆",
    "kana": "ヘルパーステーションキズナ",
    "address": "岩手県盛岡市東仙北2丁目4-26",
    "lat": 39.682022,
    "lng": 141.156581,
    "tel": "019-601-8317",
    "url": "",
    "pref": "岩手県",
    "city": "盛岡市",
    "category": "home_help",
    "serviceType": "訪問介護",
    "capacity": 20,
    "openDays": [
      "平日",
      "土曜日",
      "日曜日",
      "祝日"
    ],
    "openDaysNote": ""
  },
  {
    "id": "370107724",
    "name": "ホームケア土屋いわて",
    "kana": "ホームケアツチヤイワテ",
    "address": "岩手県盛岡市志家町2-6クリナーレ志家町102-B クリナーレ志家町102-B",
    "lat": 39.7008112,
    "lng": 141.1606207,
    "tel": "050-3172-5892",
    "url": "https://homecare-tsuchiya.com",
    "pref": "岩手県",
    "city": "盛岡市",
    "category": "home_help",
    "serviceType": "訪問介護",
    "capacity": 0,
    "openDays": [
      "平日",
      "土曜日",
      "日曜日",
      "祝日"
    ],
    "openDaysNote": "24時間対応応相談（改行）上記のサービス提供時間のほか、電話等により24時間常時連絡が可能な体制とする。"
  },
  {
    "id": "370105975",
    "name": "みんなのものがたり・おてつだいさん",
    "kana": "ミンナノモノガタリ・オテツダイサン",
    "address": "岩手県盛岡市南青山町4-15サウザ南青山A棟 サウザ南青山A棟",
    "lat": 39.7188222234867,
    "lng": 141.115439042947,
    "tel": "019-656-8625",
    "url": "",
    "pref": "岩手県",
    "city": "盛岡市",
    "category": "home_help",
    "serviceType": "訪問介護",
    "capacity": 0,
    "openDays": [
      "平日",
      "土曜日",
      "日曜日",
      "祝日"
    ],
    "openDaysNote": "サービス時間は利用者様等の希望により、提供時間以外でも行なうことがある"
  },
  {
    "id": "370103343",
    "name": "めだかのヘルパーステーション",
    "kana": "メダカノヘルパーステーション",
    "address": "岩手県盛岡市乙部31番地13地割1",
    "lat": 39.6089908,
    "lng": 141.2160062,
    "tel": "019-675-1199",
    "url": "https://www.medaka-nikka.jp/index.html",
    "pref": "岩手県",
    "city": "盛岡市",
    "category": "home_help",
    "serviceType": "訪問介護",
    "capacity": 0,
    "openDays": [
      "平日",
      "祝日"
    ],
    "openDaysNote": "ケア時間については相談に応じます。"
  },
  {
    "id": "370107815",
    "name": "メディコート安倍館2号館訪問介護事業所",
    "kana": "メディコートアベタテニゴウカンホウモンカイゴジギョウショ",
    "address": "岩手県盛岡市安倍館町16-29",
    "lat": 39.7221184,
    "lng": 141.1267947,
    "tel": "019-601-5867",
    "url": "https://medicourt.com",
    "pref": "岩手県",
    "city": "盛岡市",
    "category": "home_help",
    "serviceType": "訪問介護",
    "capacity": 0,
    "openDays": [
      "平日",
      "土曜日",
      "日曜日",
      "祝日"
    ],
    "openDaysNote": ""
  },
  {
    "id": "370107104",
    "name": "メディコート安倍館訪問介護事業所",
    "kana": "メディコートアベタテホウモンカイゴジギョウショ",
    "address": "岩手県盛岡市安倍館町16番30号メディコート安倍館 メディコート安倍館",
    "lat": 39.7221184,
    "lng": 141.1267947,
    "tel": "019-658-9081",
    "url": "",
    "pref": "岩手県",
    "city": "盛岡市",
    "category": "home_help",
    "serviceType": "訪問介護",
    "capacity": null,
    "openDays": [
      "平日",
      "土曜日",
      "日曜日",
      "祝日"
    ],
    "openDaysNote": "営業時間　午前4時～翌午前1時"
  },
  {
    "id": "370105512",
    "name": "メディコート訪問介護事業所",
    "kana": "メディコートホウモンカイゴジギョウショ",
    "address": "岩手県盛岡市上堂3丁目21番8号メディコート上堂 メディコート上堂",
    "lat": 39.7301661,
    "lng": 141.1284298,
    "tel": "019-656-8326",
    "url": "http://www.medicourt.com/",
    "pref": "岩手県",
    "city": "盛岡市",
    "category": "home_help",
    "serviceType": "訪問介護",
    "capacity": 35,
    "openDays": [
      "平日",
      "土曜日",
      "日曜日",
      "祝日"
    ],
    "openDaysNote": ""
  },
  {
    "id": "370102279",
    "name": "やさしい手盛岡津志田訪問介護事業所",
    "kana": "ヤサシイテモリオカツシダホウモンカイゴジギョウショ",
    "address": "岩手県盛岡市津志田26-9-10やさしえ盛岡津志田 やさしえ盛岡津志田",
    "lat": 39.6707178,
    "lng": 141.1576484,
    "tel": "019-656-5502",
    "url": "http://www.yasashiite.com/",
    "pref": "岩手県",
    "city": "盛岡市",
    "category": "home_help",
    "serviceType": "訪問介護",
    "capacity": 0,
    "openDays": [
      "平日",
      "土曜日",
      "日曜日",
      "祝日"
    ],
    "openDaysNote": "利用者のご要望により、時間外及び定休日でもサービス提供が可能"
  },
  {
    "id": "370105413",
    "name": "やすらぎ訪問介護事業所",
    "kana": "ヤスラギホウモンカイゴジギョウショ",
    "address": "岩手県盛岡市繋字猿田１番地４６",
    "lat": 39.6804712,
    "lng": 141.0265012,
    "tel": "019-691-7800",
    "url": "",
    "pref": "岩手県",
    "city": "盛岡市",
    "category": "home_help",
    "serviceType": "訪問介護",
    "capacity": 0,
    "openDays": [
      "平日",
      "土曜日"
    ],
    "openDaysNote": "営業日及び営業時間は、月曜日から土曜日までとする。（但し、第二・第三土曜日、国民の祝日、１２月３０日から１月３日を含まない）"
  },
  {
    "id": "370103921",
    "name": "やちだもの家指定訪問介護事業所",
    "kana": "ヤチダモノイエシテイホウモンカイゴジギョウショ",
    "address": "岩手県盛岡市加賀野一丁目18-5",
    "lat": 39.7071721,
    "lng": 141.1639856,
    "tel": "019-653-8801",
    "url": "https://yachidamonoie.dai-ichi.com/",
    "pref": "岩手県",
    "city": "盛岡市",
    "category": "home_help",
    "serviceType": "訪問介護",
    "capacity": 0,
    "openDays": [
      "平日",
      "土曜日",
      "日曜日",
      "祝日"
    ],
    "openDaysNote": ""
  },
  {
    "id": "370104598",
    "name": "ゆいま～る上田ヘルパーステーション",
    "kana": "ユイマ～ルウエダヘルパーステーション",
    "address": "岩手県盛岡市上田2丁目14番30号",
    "lat": 39.7171832079929,
    "lng": 141.143878025795,
    "tel": "019-601-7372",
    "url": "http://www.yuima--ru.jp/Ueda_helperstation.html",
    "pref": "岩手県",
    "city": "盛岡市",
    "category": "home_help",
    "serviceType": "訪問介護",
    "capacity": 0,
    "openDays": [
      "平日",
      "土曜日",
      "日曜日",
      "祝日"
    ],
    "openDaysNote": ""
  },
  {
    "id": "370104234",
    "name": "ゆめさと訪問介護",
    "kana": "ユメサトホウモンカイゴ",
    "address": "岩手県盛岡市西青山二丁目１番４５号ゆめさと　ワクワク館 ゆめさと　ワクワク館",
    "lat": 39.727117188883,
    "lng": 141.110907437126,
    "tel": "019-643-3350",
    "url": "http://www.yumesato-iwate.com/",
    "pref": "岩手県",
    "city": "盛岡市",
    "category": "home_help",
    "serviceType": "訪問介護",
    "capacity": 60,
    "openDays": [
      "平日",
      "土曜日",
      "日曜日",
      "祝日"
    ],
    "openDaysNote": ""
  },
  {
    "id": "370106254",
    "name": "医心館訪問介護ステーション盛岡",
    "kana": "イシンカンホウモンカイゴステーションモリオカ",
    "address": "岩手県盛岡市本宮６丁目１番２５号",
    "lat": 39.6873122,
    "lng": 141.1252785,
    "tel": "019-613-2707",
    "url": "",
    "pref": "岩手県",
    "city": "盛岡市",
    "category": "home_help",
    "serviceType": "訪問介護",
    "capacity": 0,
    "openDays": [
      "平日",
      "土曜日",
      "日曜日",
      "祝日"
    ],
    "openDaysNote": "24時間対応"
  },
  {
    "id": "370104036",
    "name": "加賀野の森訪問介護ステーション",
    "kana": "カガノノモリホウモンカイゴステーション",
    "address": "岩手県盛岡市加賀野一丁目２番３５号住宅型有料老人ホーム加賀野の森 住宅型有料老人ホーム加賀野の森",
    "lat": 39.7073997,
    "lng": 141.1609581,
    "tel": "019-681-3212",
    "url": "http://kaigonomori.net",
    "pref": "岩手県",
    "city": "盛岡市",
    "category": "home_help",
    "serviceType": "訪問介護",
    "capacity": 0,
    "openDays": [
      "平日",
      "土曜日",
      "日曜日",
      "祝日"
    ],
    "openDaysNote": ""
  },
  {
    "id": "370102543",
    "name": "株式会社　平和タクシー　訪問介護ステーション",
    "kana": "カブシキガイシャヘイワタクシーホウモンカイゴステーション",
    "address": "岩手県盛岡市中央通１丁目６番２５号",
    "lat": 39.7055968,
    "lng": 141.1483398,
    "tel": "019-622-0875",
    "url": "",
    "pref": "岩手県",
    "city": "盛岡市",
    "category": "home_help",
    "serviceType": "訪問介護",
    "capacity": 0,
    "openDays": [
      "平日",
      "土曜日",
      "日曜日",
      "祝日"
    ],
    "openDaysNote": "深夜についてはあらかじめ予約、打ち合わせが必要。"
  },
  {
    "id": "370101743",
    "name": "株式会社プレーゴヘルパーステーション",
    "kana": "カブシキガイシャプレーゴヘルパーステーション",
    "address": "岩手県盛岡市本宮3丁目9番2号",
    "lat": 39.6933627813781,
    "lng": 141.132357111501,
    "tel": "019-631-1384",
    "url": "https://genkinakaigo.co.jp",
    "pref": "岩手県",
    "city": "盛岡市",
    "category": "home_help",
    "serviceType": "訪問介護",
    "capacity": 0,
    "openDays": [
      "平日"
    ],
    "openDaysNote": "居宅サービス計画により、休業日であってもサービスを提供する場合があります。"
  },
  {
    "id": "370100976",
    "name": "岩手高齢協訪問介護事業所ゆたんぽ",
    "kana": "イワテコウレイキョウホウモンカイゴジギョウショユタンポ",
    "address": "岩手県盛岡市茶畑２－２１－１５",
    "lat": 39.689488,
    "lng": 141.1650277,
    "tel": "019-653-0055",
    "url": "http://www.koureikyou.org",
    "pref": "岩手県",
    "city": "盛岡市",
    "category": "home_help",
    "serviceType": "訪問介護",
    "capacity": 0,
    "openDays": [
      "平日"
    ],
    "openDaysNote": "原則　土曜日、日曜日、祝日は休み（改行）夏期休暇7月から8月中に3日間、年末年始休暇12月30日から1月3日（改行）上記にかかわらず、サービス提供時間についてはご利用者様等からの相談に応じます。"
  },
  {
    "id": "370107708",
    "name": "岩手福祉会訪問介護事業所",
    "kana": "イワテフクシカイホウモンカイゴジギョウショ",
    "address": "岩手県盛岡市黒石野2丁目13番47号",
    "lat": 39.7414336,
    "lng": 141.1463318,
    "tel": "019-664-0019",
    "url": "",
    "pref": "岩手県",
    "city": "盛岡市",
    "category": "home_help",
    "serviceType": "訪問介護",
    "capacity": 10,
    "openDays": [
      "平日"
    ],
    "openDaysNote": "但し、やむを得ない場合は必要に応じ対応。"
  },
  {
    "id": "370106767",
    "name": "結ま～る上堂ヘルパーステーション",
    "kana": "ユイマ～ルカミドウヘルパーステーション",
    "address": "岩手県盛岡市上堂3丁目６－３１",
    "lat": 39.7275294,
    "lng": 141.124209,
    "tel": "019-656-0848",
    "url": "http://www.yuima--ru.jp",
    "pref": "岩手県",
    "city": "盛岡市",
    "category": "home_help",
    "serviceType": "訪問介護",
    "capacity": 18,
    "openDays": [
      "平日",
      "土曜日",
      "日曜日",
      "祝日"
    ],
    "openDaysNote": ""
  },
  {
    "id": "370101487",
    "name": "三矢ケアサービス指定訪問介護事業所",
    "kana": "ミツヤケアサーピスシテイホウモンカイゴジギョウショ",
    "address": "岩手県盛岡市神子田町8番17号",
    "lat": 39.6870382,
    "lng": 141.1608865,
    "tel": "019-623-1742",
    "url": "",
    "pref": "岩手県",
    "city": "盛岡市",
    "category": "home_help",
    "serviceType": "訪問介護",
    "capacity": 0,
    "openDays": [
      "平日",
      "土曜日",
      "日曜日",
      "祝日"
    ],
    "openDaysNote": "上記営業時間外にも相談に応じ対応いたします"
  },
  {
    "id": "370105991",
    "name": "指定訪問介護事業所テンダーケア盛岡",
    "kana": "シテイホウモンカイゴジギョウショテンダーケアモリオカ",
    "address": "岩手県盛岡市大館町26-7",
    "lat": 39.7122618,
    "lng": 141.1090431,
    "tel": "019-646-1122",
    "url": "",
    "pref": "岩手県",
    "city": "盛岡市",
    "category": "home_help",
    "serviceType": "訪問介護",
    "capacity": 0,
    "openDays": [
      "平日",
      "土曜日",
      "日曜日",
      "祝日"
    ],
    "openDaysNote": "・サービス提供は利用者様の希望に応じて24時間対応です。"
  },
  {
    "id": "370105702",
    "name": "指定訪問介護事業所ハイジア",
    "kana": "シテイホウモンカイゴジギョウショハイジア",
    "address": "岩手県盛岡市松園３丁目１８番４１号",
    "lat": 39.753917,
    "lng": 141.1633842,
    "tel": "019-613-4728",
    "url": "",
    "pref": "岩手県",
    "city": "盛岡市",
    "category": "home_help",
    "serviceType": "訪問介護",
    "capacity": 14,
    "openDays": [
      "平日",
      "土曜日",
      "日曜日",
      "祝日"
    ],
    "openDaysNote": ""
  },
  {
    "id": "370108060",
    "name": "指定訪問介護事業所みなみ風",
    "kana": "シテイホウモンカイゴジギョウショミナミカゼ",
    "address": "岩手県盛岡市向中野７丁目４番１６号",
    "lat": 39.6758161,
    "lng": 141.1411217,
    "tel": "019-601-5766",
    "url": "https://sazan-cross.co.jp/",
    "pref": "岩手県",
    "city": "盛岡市",
    "category": "home_help",
    "serviceType": "訪問介護",
    "capacity": 0,
    "openDays": [
      "平日",
      "土曜日",
      "日曜日",
      "祝日"
    ],
    "openDaysNote": ""
  },
  {
    "id": "370105439",
    "name": "指定訪問介護事業所明来日",
    "kana": "シテイホウモンカイゴジギョウショアクビ",
    "address": "岩手県盛岡市新田町１０番８号",
    "lat": 39.7059460163726,
    "lng": 141.129537688361,
    "tel": "019-601-7652",
    "url": "http://www.akubi-onlylife.net",
    "pref": "岩手県",
    "city": "盛岡市",
    "category": "home_help",
    "serviceType": "訪問介護",
    "capacity": 0,
    "openDays": [
      "平日",
      "土曜日",
      "日曜日",
      "祝日"
    ],
    "openDaysNote": ""
  },
  {
    "id": "370101644",
    "name": "城南ヘルパーステーション",
    "kana": "ジョウナンヘルパーステーション",
    "address": "岩手県盛岡市神明町8番4号",
    "lat": 39.7015504,
    "lng": 141.1600361,
    "tel": "019-621-1215",
    "url": "http://senshoukai.or.jp/",
    "pref": "岩手県",
    "city": "盛岡市",
    "category": "home_help",
    "serviceType": "訪問介護",
    "capacity": 0,
    "openDays": [
      "平日",
      "土曜日",
      "日曜日",
      "祝日"
    ],
    "openDaysNote": ""
  },
  {
    "id": "370107690",
    "name": "盛岡ケアステーションそよ風",
    "kana": "モリオカケアステーションソヨカゼ",
    "address": "岩手県盛岡市北飯岡３丁目１１－４１盛南ケアコミュニティそよ風 盛南ケアコミュニティそよ風",
    "lat": 39.670495,
    "lng": 141.1369651,
    "tel": "019-639-7271",
    "url": "",
    "pref": "岩手県",
    "city": "盛岡市",
    "category": "home_help",
    "serviceType": "訪問介護",
    "capacity": 0,
    "openDays": [
      "平日",
      "土曜日",
      "日曜日",
      "祝日"
    ],
    "openDaysNote": "24時間提供　※電話等により24時間連絡可能な体制としております"
  },
  {
    "id": "370100604",
    "name": "盛岡市社会福祉協議会月が丘ヘルパーステーション",
    "kana": "モリオカシシャカイフクシキョウギカイツキガオカヘルパーステーション",
    "address": "岩手県盛岡市月が丘3丁目7番5号",
    "lat": 39.7339430142646,
    "lng": 141.109146076057,
    "tel": "019-645-5125",
    "url": "http://www.morioka-shakyo.or.jp/",
    "pref": "岩手県",
    "city": "盛岡市",
    "category": "home_help",
    "serviceType": "訪問介護",
    "capacity": 0,
    "openDays": [
      "平日",
      "土曜日",
      "日曜日",
      "祝日"
    ],
    "openDaysNote": ""
  },
  {
    "id": "370100596",
    "name": "盛岡市社会福祉協議会盛岡駅西口ヘルパーステーション",
    "kana": "モリオカシシャカイフクシキョウギカイモリオカエキニシグチヘルパーステーション",
    "address": "岩手県盛岡市盛岡駅西通１丁目2-2",
    "lat": 39.704091,
    "lng": 141.1319136,
    "tel": "019-653-3013",
    "url": "http://www.morioka-shakyo.or.jp/",
    "pref": "岩手県",
    "city": "盛岡市",
    "category": "home_help",
    "serviceType": "訪問介護",
    "capacity": 0,
    "openDays": [
      "平日",
      "土曜日",
      "日曜日",
      "祝日"
    ],
    "openDaysNote": ""
  },
  {
    "id": "370100547",
    "name": "千年苑ヘルパーステーション",
    "kana": "チトセエンヘルパーステーション",
    "address": "岩手県盛岡市上太田穴口53番地",
    "lat": 39.6908792,
    "lng": 141.0583394,
    "tel": "019-658-1191",
    "url": "https://senshoukai.or.jp/",
    "pref": "岩手県",
    "city": "盛岡市",
    "category": "home_help",
    "serviceType": "訪問介護",
    "capacity": 0,
    "openDays": [
      "平日",
      "土曜日",
      "日曜日",
      "祝日"
    ],
    "openDaysNote": "利用者の需要に則し、サービス提供時間を調整"
  },
  {
    "id": "370100281",
    "name": "第二松園ハイツ指定訪問介護事業所",
    "kana": "ダイニマツゾノハイツシテイホウモンカイゴジギョウショ",
    "address": "岩手県盛岡市西松園二丁目5番1号",
    "lat": 39.7519059,
    "lng": 141.1590291,
    "tel": "019-663-8881",
    "url": "http://www.ikushinkai.jp",
    "pref": "岩手県",
    "city": "盛岡市",
    "category": "home_help",
    "serviceType": "訪問介護",
    "capacity": 120,
    "openDays": [
      "平日",
      "土曜日",
      "日曜日",
      "祝日"
    ],
    "openDaysNote": "上記の時間以外については、ご相談に応じております。"
  },
  {
    "id": "370102527",
    "name": "福寿の森本宮訪問介護ステーション",
    "kana": "フクジュノモリモトミヤホウモンカイゴステーション",
    "address": "岩手県盛岡市本宮六丁目1-48",
    "lat": 39.6881426,
    "lng": 141.1248119,
    "tel": "019-636-3029",
    "url": "http://www.kaigonomori.net/",
    "pref": "岩手県",
    "city": "盛岡市",
    "category": "home_help",
    "serviceType": "訪問介護",
    "capacity": 0,
    "openDays": [
      "平日",
      "土曜日",
      "日曜日",
      "祝日"
    ],
    "openDaysNote": ""
  },
  {
    "id": "370107757",
    "name": "訪問介護イイクラス盛岡",
    "kana": "ホウモンカイゴイイクラスモリオカ",
    "address": "岩手県盛岡市黒石野二丁目13番45号黒沢長屋 黒沢長屋",
    "lat": 39.7418112438364,
    "lng": 141.146034052115,
    "tel": "019-619-0225",
    "url": "",
    "pref": "岩手県",
    "city": "盛岡市",
    "category": "home_help",
    "serviceType": "訪問介護",
    "capacity": 0,
    "openDays": [
      "平日",
      "土曜日",
      "日曜日",
      "祝日"
    ],
    "openDaysNote": ""
  },
  {
    "id": "370102840",
    "name": "訪問介護カノン",
    "kana": "ホウモンカイゴカノン",
    "address": "岩手県盛岡市長田町2-26Ｉ＆Ｂビル3階 Ｉ＆Ｂビル3階",
    "lat": 39.7060771,
    "lng": 141.1393351,
    "tel": "019-604-8780",
    "url": "http://kanon7773.exblog.jp/",
    "pref": "岩手県",
    "city": "盛岡市",
    "category": "home_help",
    "serviceType": "訪問介護",
    "capacity": 0,
    "openDays": [
      "平日",
      "土曜日",
      "日曜日",
      "祝日"
    ],
    "openDaysNote": "上記以外の時間帯でのサービス利用の申し出があった際は、話し合いによって受け入れる場合もあります。"
  },
  {
    "id": "370108086",
    "name": "訪問介護ぐっとなる",
    "kana": "ホウモンカイゴグットナル",
    "address": "岩手県盛岡市繋字湯ノ舘81-1",
    "lat": 39.6784875,
    "lng": 141.023847,
    "tel": "019-613-9011",
    "url": "https://guttonaru.moo.jp",
    "pref": "岩手県",
    "city": "盛岡市",
    "category": "home_help",
    "serviceType": "訪問介護",
    "capacity": null,
    "openDays": [
      "平日",
      "土曜日",
      "日曜日",
      "祝日"
    ],
    "openDaysNote": ""
  },
  {
    "id": "370107872",
    "name": "訪問介護さくら館",
    "kana": "ホウモンカイゴサクラカン",
    "address": "岩手県盛岡市大館町26番2号ハイム大館7号 ハイム大館7号",
    "lat": 39.7126216661961,
    "lng": 141.109841551521,
    "tel": "090-4793-6291",
    "url": "",
    "pref": "岩手県",
    "city": "盛岡市",
    "category": "home_help",
    "serviceType": "訪問介護",
    "capacity": null,
    "openDays": [
      "平日",
      "土曜日",
      "日曜日",
      "祝日"
    ],
    "openDaysNote": ""
  },
  {
    "id": "370105421",
    "name": "訪問介護ステーションとおやま",
    "kana": "ホウモンカイゴステーショントオヤマ",
    "address": "岩手県盛岡市南大通3丁目7-10サービス付き高齢者向け住宅　グレイス明治橋 サービス付き高齢者向け住宅　グレイス明治橋",
    "lat": 39.6936163750588,
    "lng": 141.151914743444,
    "tel": "019-652-4711",
    "url": "http://www.toyama-byouin.jp/",
    "pref": "岩手県",
    "city": "盛岡市",
    "category": "home_help",
    "serviceType": "訪問介護",
    "capacity": 0,
    "openDays": [
      "平日",
      "土曜日",
      "日曜日",
      "祝日"
    ],
    "openDaysNote": "サービス提供時間は、ケアプランに添って要相談"
  },
  {
    "id": "370107864",
    "name": "訪問介護ステーションベル",
    "kana": "ホウモンカイゴステーションベル",
    "address": "岩手県盛岡市本宮1丁目15-8盛岸ビル91201号 盛岸ビル91201号",
    "lat": 39.6895657,
    "lng": 141.1408797,
    "tel": "019-601-3778",
    "url": "https://www.bell923sh.co.jp",
    "pref": "岩手県",
    "city": "盛岡市",
    "category": "home_help",
    "serviceType": "訪問介護",
    "capacity": 39,
    "openDays": [
      "平日",
      "土曜日",
      "日曜日"
    ],
    "openDaysNote": "サービス提供時間は、365日、24時間とする。"
  },
  {
    "id": "370106403",
    "name": "訪問介護ステーションポラリス",
    "kana": "ホウモンカイゴステーションポラリス",
    "address": "岩手県盛岡市大新町２０番５４号",
    "lat": 39.7166393,
    "lng": 141.1152341,
    "tel": "019-601-7096",
    "url": "",
    "pref": "岩手県",
    "city": "盛岡市",
    "category": "home_help",
    "serviceType": "訪問介護",
    "capacity": 18,
    "openDays": [
      "平日",
      "土曜日",
      "日曜日",
      "祝日"
    ],
    "openDaysNote": "２４時間電話対応可"
  },
  {
    "id": "372200386",
    "name": "訪問介護ステーションミュー・シャンジェ",
    "kana": "ホウモンカイゴステーションミュー・シャンジェ",
    "address": "岩手県盛岡市上堂三丁目12番20号",
    "lat": 39.7267887,
    "lng": 141.1291826,
    "tel": "019-641-4804",
    "url": "https://mieux-changer.com",
    "pref": "岩手県",
    "city": "盛岡市",
    "category": "home_help",
    "serviceType": "訪問介護",
    "capacity": 60,
    "openDays": [
      "平日",
      "土曜日",
      "日曜日",
      "祝日"
    ],
    "openDaysNote": "訪問時間につきましては相談に応じます。"
  },
  {
    "id": "370108078",
    "name": "訪問介護ステーション悠ライフ盛岡",
    "kana": "ホウモンカイゴステーションユウライフモリオカ",
    "address": "岩手県盛岡市高松４丁目19-19",
    "lat": 39.7313316,
    "lng": 141.136578,
    "tel": "019-613-7364",
    "url": "https://www.kind-life-japan.com/",
    "pref": "岩手県",
    "city": "盛岡市",
    "category": "home_help",
    "serviceType": "訪問介護",
    "capacity": null,
    "openDays": [
      "平日",
      "土曜日",
      "日曜日",
      "祝日"
    ],
    "openDaysNote": "２４時間対応"
  },
  {
    "id": "370105777",
    "name": "訪問介護はるかぜの綾",
    "kana": "ホウモンカイゴハルカゼノアヤ",
    "address": "岩手県盛岡市上堂３丁目16-18",
    "lat": 39.7284753,
    "lng": 141.1289101,
    "tel": "019-601-6181",
    "url": "",
    "pref": "岩手県",
    "city": "盛岡市",
    "category": "home_help",
    "serviceType": "訪問介護",
    "capacity": 0,
    "openDays": [
      "平日"
    ],
    "openDaysNote": "通常の時間外でも、必要性に応じて柔軟に対応できるように考えます。"
  },
  {
    "id": "370106205",
    "name": "訪問介護事業所　ぱんだ",
    "kana": "ホウモンカイゴジギョウショ　パンダ",
    "address": "岩手県盛岡市松園二丁目１－１パルセ大都１Ｆ パルセ大都１Ｆ",
    "lat": 39.7478871,
    "lng": 141.1666563,
    "tel": "019-681-8206",
    "url": "",
    "pref": "岩手県",
    "city": "盛岡市",
    "category": "home_help",
    "serviceType": "訪問介護",
    "capacity": 0,
    "openDays": [
      "平日",
      "土曜日",
      "日曜日",
      "祝日"
    ],
    "openDaysNote": "２４時間対応"
  },
  {
    "id": "370102022",
    "name": "訪問介護事業所あおぞら",
    "kana": "ホウモンカイゴジギョウショアオゾラ",
    "address": "岩手県盛岡市津志田町1丁目15番37号",
    "lat": 39.6682933626141,
    "lng": 141.153535187961,
    "tel": "019-631-2013",
    "url": "http://medical-sp.jp",
    "pref": "岩手県",
    "city": "盛岡市",
    "category": "home_help",
    "serviceType": "訪問介護",
    "capacity": 0,
    "openDays": [
      "平日",
      "土曜日",
      "日曜日",
      "祝日"
    ],
    "openDaysNote": ""
  },
  {
    "id": "370107880",
    "name": "訪問介護事業所アズール",
    "kana": "ホウモンカイゴジギョウショアズール",
    "address": "岩手県盛岡市仙北2丁目13−15ヒューマンスクエア盛岡南１階 ヒューマンスクエア盛岡南１階",
    "lat": 39.6870583857376,
    "lng": 141.151137478002,
    "tel": "019-601-4457",
    "url": "https://www.big-advance.site/s/201/1359",
    "pref": "岩手県",
    "city": "盛岡市",
    "category": "home_help",
    "serviceType": "訪問介護",
    "capacity": null,
    "openDays": [
      "平日",
      "土曜日",
      "日曜日",
      "祝日"
    ],
    "openDaysNote": "365日対応可能"
  },
  {
    "id": "370107260",
    "name": "訪問介護事業所コスモハイツ・八番地",
    "kana": "ホウモンカイゴジギョウショコスモハイツ・ハチバンチ",
    "address": "岩手県盛岡市津志田西二丁目6番11号リリトンガーデンズ105号 リリトンガーデンズ105号",
    "lat": 39.6657192,
    "lng": 141.1487724,
    "tel": "090-8431-4447",
    "url": "http://cosmococolo.co.jp/service/homehelper/",
    "pref": "岩手県",
    "city": "盛岡市",
    "category": "home_help",
    "serviceType": "訪問介護",
    "capacity": 39,
    "openDays": [
      "平日",
      "土曜日",
      "日曜日",
      "祝日"
    ],
    "openDaysNote": ""
  },
  {
    "id": "370105728",
    "name": "訪問介護事業所さわやか",
    "kana": "ホウモンカイゴジギョウショサワヤカ",
    "address": "岩手県盛岡市湯沢東三丁目17番13号",
    "lat": 39.6404134193269,
    "lng": 141.100861071828,
    "tel": "019-632-1414",
    "url": "http://www.honobonohonobono.com",
    "pref": "岩手県",
    "city": "盛岡市",
    "category": "home_help",
    "serviceType": "訪問介護",
    "capacity": 0,
    "openDays": [
      "平日",
      "土曜日",
      "日曜日",
      "祝日"
    ],
    "openDaysNote": "年中無休　24時間営業"
  },
  {
    "id": "370105785",
    "name": "訪問介護事業所ななかまど",
    "kana": "ホウモンカイゴジギョウショナナカマド",
    "address": "岩手県盛岡市津志田町3丁目6-15",
    "lat": 39.6651393,
    "lng": 141.152129,
    "tel": "019-601-3535",
    "url": "https://www.kouwa.iwate.jp/",
    "pref": "岩手県",
    "city": "盛岡市",
    "category": "home_help",
    "serviceType": "訪問介護",
    "capacity": 0,
    "openDays": [
      "平日",
      "土曜日",
      "日曜日",
      "祝日"
    ],
    "openDaysNote": ""
  },
  {
    "id": "370107062",
    "name": "訪問介護事業所パーソナルアシスト",
    "kana": "ホウモンカイゴジギョウショパーソナルアシスト",
    "address": "岩手県盛岡市三ツ割1丁目1-11階 1階",
    "lat": 39.7141633547197,
    "lng": 141.156181534788,
    "tel": "019-618-6879",
    "url": "",
    "pref": "岩手県",
    "city": "盛岡市",
    "category": "home_help",
    "serviceType": "訪問介護",
    "capacity": 3,
    "openDays": [
      "平日",
      "土曜日",
      "日曜日",
      "祝日"
    ],
    "openDaysNote": "上記時間以外でも相談に応じます。"
  },
  {
    "id": "370106619",
    "name": "訪問介護事業所やまぼうし桜台",
    "kana": "ホウモンカイゴジギョウショヤマボウシサクラダイ",
    "address": "岩手県盛岡市桜台二丁目18-4",
    "lat": 39.7491906,
    "lng": 141.1969397,
    "tel": "019-667-1977",
    "url": "http://www.s-yamaboshi.com/",
    "pref": "岩手県",
    "city": "盛岡市",
    "category": "home_help",
    "serviceType": "訪問介護",
    "capacity": 0,
    "openDays": [
      "平日",
      "土曜日",
      "日曜日",
      "祝日"
    ],
    "openDaysNote": ""
  },
  {
    "id": "370105249",
    "name": "訪問介護事業所ゆうあい",
    "kana": "ホウモンカイゴジギョウショユウアイ",
    "address": "岩手県盛岡市北飯岡１丁目2-25",
    "lat": 39.6797637993464,
    "lng": 141.133139811114,
    "tel": "019-634-1100",
    "url": "http://www.yu-ai.net/mati%20hp/mati.html",
    "pref": "岩手県",
    "city": "盛岡市",
    "category": "home_help",
    "serviceType": "訪問介護",
    "capacity": 0,
    "openDays": [
      "平日",
      "土曜日",
      "日曜日",
      "祝日"
    ],
    "openDaysNote": "電話などにより24時間対応可能"
  },
  {
    "id": "370104325",
    "name": "訪問介護事業所愛ケアセンター盛岡",
    "kana": "ホウモンカイゴジギョウショアイケアセンターモリオカ",
    "address": "岩手県盛岡市三本柳7地割29-13へラインビル1-C へラインビル1-C",
    "lat": 39.6596873246412,
    "lng": 141.165497019379,
    "tel": "019-601-3930",
    "url": "https://www.icare-center.net",
    "pref": "岩手県",
    "city": "盛岡市",
    "category": "home_help",
    "serviceType": "訪問介護",
    "capacity": 0,
    "openDays": [
      "平日",
      "土曜日",
      "日曜日",
      "祝日"
    ],
    "openDaysNote": "年中無休"
  },
  {
    "id": "370103897",
    "name": "訪問介護事業所宇宙心ステーション",
    "kana": "ホウモンカイゴジギョウショコスモココロステーション",
    "address": "岩手県盛岡市北夕顔瀬町2番44号2F 2F",
    "lat": 39.7127881927902,
    "lng": 141.130358035582,
    "tel": "019-681-3282",
    "url": "",
    "pref": "岩手県",
    "city": "盛岡市",
    "category": "home_help",
    "serviceType": "訪問介護",
    "capacity": 0,
    "openDays": [
      "平日",
      "土曜日",
      "日曜日",
      "祝日"
    ],
    "openDaysNote": ""
  },
  {
    "id": "370105207",
    "name": "訪問介護事業所桜",
    "kana": "ホウモンカイゴジギョウショサクラ",
    "address": "岩手県盛岡市向中野5丁目１２番10号住宅型有料老人ホーム桜 住宅型有料老人ホーム桜",
    "lat": 39.6780109,
    "lng": 141.1365584,
    "tel": "019-601-8477",
    "url": "http://mmkenji53.wixsite.com/mukai",
    "pref": "岩手県",
    "city": "盛岡市",
    "category": "home_help",
    "serviceType": "訪問介護",
    "capacity": 30,
    "openDays": [
      "平日",
      "土曜日",
      "日曜日",
      "祝日"
    ],
    "openDaysNote": "利用者の希望に応じて、サービスの提供については、２４時間対応可能な体制を整えるものとします。"
  },
  {
    "id": "370106528",
    "name": "訪問介護事業所星めぐりの郷",
    "kana": "ホウモンカイゴジギョウショホシメグリノサト",
    "address": "岩手県盛岡市本宮1丁目6番48号",
    "lat": 39.6905821330046,
    "lng": 141.141191814819,
    "tel": "019-635-6200",
    "url": "",
    "pref": "岩手県",
    "city": "盛岡市",
    "category": "home_help",
    "serviceType": "訪問介護",
    "capacity": null,
    "openDays": [
      "平日",
      "土曜日",
      "日曜日",
      "祝日"
    ],
    "openDaysNote": "利用者の希望に応じて、サービスの提供については24時間対応365日可能な体制を整えるものとします。"
  },
  {
    "id": "370103699",
    "name": "有限会社ケアタクシーまつぞの",
    "kana": "ユウゲンガイシャケアタクシーマツゾノ",
    "address": "岩手県盛岡市東松園3-9-7",
    "lat": 39.7545477,
    "lng": 141.1693087,
    "tel": "019-613-6508",
    "url": "",
    "pref": "岩手県",
    "city": "盛岡市",
    "category": "home_help",
    "serviceType": "訪問介護",
    "capacity": 0,
    "openDays": [
      "平日",
      "土曜日",
      "祝日"
    ],
    "openDaysNote": ""
  },
  {
    "id": "370100216",
    "name": "有限会社サンケアネット盛岡",
    "kana": "ユウゲンガイシャサンケアネットモリオカ",
    "address": "岩手県盛岡市神明町6番16号",
    "lat": 39.7010143,
    "lng": 141.1587057,
    "tel": "019-606-0202",
    "url": "",
    "pref": "岩手県",
    "city": "盛岡市",
    "category": "home_help",
    "serviceType": "訪問介護",
    "capacity": 0,
    "openDays": [
      "平日",
      "土曜日",
      "日曜日",
      "祝日"
    ],
    "openDaysNote": "上記の時間外による利用は、担当ケアマネージャーを通して相談に応じます。"
  },
  {
    "id": "370100927",
    "name": "有限会社中央ケアサービス",
    "kana": "ユウゲンガイシャチュウオウケアサービス",
    "address": "岩手県盛岡市松尾町2番3号",
    "lat": 39.696104938072,
    "lng": 141.157262739252,
    "tel": "019-652-5255",
    "url": "http://care-net.biz/03/helper",
    "pref": "岩手県",
    "city": "盛岡市",
    "category": "home_help",
    "serviceType": "訪問介護",
    "capacity": 0,
    "openDays": [
      "平日",
      "土曜日",
      "日曜日",
      "祝日"
    ],
    "openDaysNote": ""
  },
  {
    "id": "372400184",
    "name": "ホームヘルプにしわが",
    "kana": "ホームヘルプニシワガ",
    "address": "岩手県和賀郡西和賀町川尻40地割73番地82",
    "lat": 39.3140542,
    "lng": 140.775447,
    "tel": "0197-84-2161",
    "url": "http://nishi-shakyo.net/",
    "pref": "岩手県",
    "city": "西和賀町",
    "category": "home_help",
    "serviceType": "訪問介護",
    "capacity": 0,
    "openDays": [
      "平日",
      "土曜日",
      "日曜日",
      "祝日"
    ],
    "openDaysNote": "サービス提供時間は上記のとおり定めているが、緊急の場合は対応する。"
  },
  {
    "id": "370300618",
    "name": "SOMPOケア　大船渡　訪問介護",
    "kana": "ソンポケア　オオフナト　ホウモンカイゴ",
    "address": "岩手県大船渡市盛町字みどり町8-13ＦＧ1アパート ＦＧ1アパート",
    "lat": 39.0845009,
    "lng": 141.712174,
    "tel": "0192-21-3119",
    "url": "",
    "pref": "岩手県",
    "city": "大船渡市",
    "category": "home_help",
    "serviceType": "訪問介護",
    "capacity": 30,
    "openDays": [
      "平日",
      "土曜日",
      "日曜日",
      "祝日"
    ],
    "openDaysNote": "営業日：365日（改行）営業時間：24時間"
  },
  {
    "id": "372800086",
    "name": "さんりくの園訪問介護サービスセンター",
    "kana": "サンリクノソノホウモンカイゴサービスセンター",
    "address": "岩手県大船渡市三陸町越喜来字所通９１番地",
    "lat": 39.125053175215,
    "lng": 141.805446580443,
    "tel": "0192-44-3810",
    "url": "http://www.caresono.jp/",
    "pref": "岩手県",
    "city": "大船渡市",
    "category": "home_help",
    "serviceType": "訪問介護",
    "capacity": 0,
    "openDays": [
      "平日",
      "土曜日",
      "日曜日",
      "祝日"
    ],
    "openDaysNote": ""
  },
  {
    "id": "370300188",
    "name": "気仙介護センターほほえみ",
    "kana": "ケセンカイゴセンターホホエミ",
    "address": "岩手県大船渡市盛町字中道下21番地11",
    "lat": 39.0792794,
    "lng": 141.7158849,
    "tel": "0192-21-1070",
    "url": "",
    "pref": "岩手県",
    "city": "大船渡市",
    "category": "home_help",
    "serviceType": "訪問介護",
    "capacity": 0,
    "openDays": [
      "平日",
      "土曜日",
      "日曜日",
      "祝日"
    ],
    "openDaysNote": ""
  },
  {
    "id": "370300048",
    "name": "大船渡市社会福祉協議会指定訪問介護事業所",
    "kana": "オオフナトシシャカイフクシキョウギカイシテイホウモンカイゴジギョウショ",
    "address": "岩手県大船渡市盛町字下舘下１４－１大船渡市総合福祉センター 大船渡市総合福祉センター",
    "lat": 39.0791932,
    "lng": 141.712077,
    "tel": "0192-27-1003",
    "url": "",
    "pref": "岩手県",
    "city": "大船渡市",
    "category": "home_help",
    "serviceType": "訪問介護",
    "capacity": 0,
    "openDays": [
      "平日",
      "土曜日",
      "日曜日",
      "祝日"
    ],
    "openDaysNote": ""
  },
  {
    "id": "370300220",
    "name": "大船渡市農業協同組合指定訪問介護事業所（JAおおふなとホームヘルプセンター）",
    "kana": "オオフナトシノウギョウキョウドウクミアイシテイホウモンカイゴジギョウショ（ジェイエーオオフナトホームヘルプセンター）",
    "address": "岩手県大船渡市立根町字関谷45番地1",
    "lat": 39.1148982281881,
    "lng": 141.720025305557,
    "tel": "0192-26-1231",
    "url": "",
    "pref": "岩手県",
    "city": "大船渡市",
    "category": "home_help",
    "serviceType": "訪問介護",
    "capacity": 0,
    "openDays": [
      "平日",
      "土曜日",
      "日曜日",
      "祝日"
    ],
    "openDaysNote": ""
  },
  {
    "id": "370300063",
    "name": "富美岡荘ホームヘルプ事業所",
    "kana": "トミオカソウホームヘルプジギョウショ",
    "address": "岩手県大船渡市盛町字町6-1富美岡荘介護センター 富美岡荘介護センター",
    "lat": 39.0868089,
    "lng": 141.7083854,
    "tel": "0192-25-1234",
    "url": "http://www.i-seijinkai.jp",
    "pref": "岩手県",
    "city": "大船渡市",
    "category": "home_help",
    "serviceType": "訪問介護",
    "capacity": 0,
    "openDays": [
      "平日",
      "土曜日",
      "日曜日",
      "祝日"
    ],
    "openDaysNote": "365日営業（年中無休）24時間対応"
  },
  {
    "id": "372900266",
    "name": "ニチイケアセンター大槌",
    "kana": "ニチイケアセンターオオツチ",
    "address": "岩手県上閉伊郡大槌町大ヶ口1丁目21-33JS大ヶ口106号室 JS大ヶ口106号室",
    "lat": 39.3712822,
    "lng": 141.8875536,
    "tel": "0193-41-1711",
    "url": "http://www.nichiigakkan.co.jp",
    "pref": "岩手県",
    "city": "大槌町",
    "category": "home_help",
    "serviceType": "訪問介護",
    "capacity": null,
    "openDays": [
      "平日"
    ],
    "openDaysNote": "居宅サービス計画により、休業日であっても、またサービスの営業時間以外でもサービスを行う場合がある"
  },
  {
    "id": "372900118",
    "name": "大槌町社協指定訪問介護事業所",
    "kana": "オオツチチョウシャキョウシテイホウモンカイゴジギョウショ",
    "address": "岩手県上閉伊郡大槌町大槌第12地割71番地2大槌町社会福祉協議会　介護サービスステーション 大槌町社会福祉協議会　介護サービスステーション",
    "lat": 39.3809175852692,
    "lng": 141.885443909279,
    "tel": "0193-41-1145",
    "url": "https://www.otsuchi-shakyo.jp/",
    "pref": "岩手県",
    "city": "大槌町",
    "category": "home_help",
    "serviceType": "訪問介護",
    "capacity": 0,
    "openDays": [
      "平日",
      "土曜日",
      "日曜日",
      "祝日"
    ],
    "openDaysNote": "土・日・祝日はサービス提供責任者が出勤、もしくは常に電話での連絡が可能な状態である。"
  },
  {
    "id": "371600305",
    "name": "JAライフサポートホームヘルプステーション滝沢",
    "kana": "ジェイエイライフサポートホームヘルプステーションタキザワ",
    "address": "岩手県滝沢市大釜外館114-6",
    "lat": 39.7072444,
    "lng": 141.0720906,
    "tel": "019-687-2877",
    "url": "",
    "pref": "岩手県",
    "city": "滝沢市",
    "category": "home_help",
    "serviceType": "訪問介護",
    "capacity": 70,
    "openDays": [
      "平日",
      "土曜日",
      "日曜日",
      "祝日"
    ],
    "openDaysNote": "サービス提供日は年末年始（12/30～1/3）を除く毎日です。サービス時間帯は8：00～18：00です。早朝・夜間・深夜のサービスにつきましては別途ご相談承ります。"
  },
  {
    "id": "372101808",
    "name": "ケア・ともたきざわ",
    "kana": "ケア・トモタキザワ",
    "address": "岩手県滝沢市巣子1197-7",
    "lat": 39.7788115781874,
    "lng": 141.132860827647,
    "tel": "019-694-3107",
    "url": "",
    "pref": "岩手県",
    "city": "滝沢市",
    "category": "home_help",
    "serviceType": "訪問介護",
    "capacity": 0,
    "openDays": [
      "平日"
    ],
    "openDaysNote": "※土・日・祝日等、休日のサービス提供については相談に応じます。（改行）※早朝・夜間につきましても相談に応じます。"
  },
  {
    "id": "371600412",
    "name": "ケーシン訪問介護",
    "kana": "ケーシンホウモンカイゴ",
    "address": "岩手県滝沢市牧野林302番6",
    "lat": 39.7451644623965,
    "lng": 141.104893564418,
    "tel": "019-681-9800",
    "url": "http://www.k-sinkaigo-foryou.com/",
    "pref": "岩手県",
    "city": "滝沢市",
    "category": "home_help",
    "serviceType": "訪問介護",
    "capacity": 0,
    "openDays": [
      "平日",
      "土曜日",
      "日曜日",
      "祝日"
    ],
    "openDaysNote": "なし"
  },
  {
    "id": "372101204",
    "name": "サン・ケアサービスセンター",
    "kana": "サン・ケアサービスセンター",
    "address": "岩手県滝沢市鵜飼大緩47-28",
    "lat": 39.7342395533363,
    "lng": 141.094760162566,
    "tel": "019-684-6254",
    "url": "",
    "pref": "岩手県",
    "city": "滝沢市",
    "category": "home_help",
    "serviceType": "訪問介護",
    "capacity": 0,
    "openDays": [
      "平日",
      "土曜日",
      "日曜日",
      "祝日"
    ],
    "openDaysNote": "時間外でのご希望の場合は、ご相談に応じます。"
  },
  {
    "id": "371600446",
    "name": "ニチイケアセンター大釜",
    "kana": "ニチイケアセンターオオガマ",
    "address": "岩手県滝沢市篠木黒畑137番地1ソフィア９９　102号 ソフィア９９　102号",
    "lat": 39.7096679,
    "lng": 141.0755053,
    "tel": "019-681-7319",
    "url": "https://www.nichiigakkan.co.jp",
    "pref": "岩手県",
    "city": "滝沢市",
    "category": "home_help",
    "serviceType": "訪問介護",
    "capacity": 40,
    "openDays": [
      "平日"
    ],
    "openDaysNote": "居宅サービス計画により、休業日及び営業時間外であってもサービスを提供する場合があります。"
  },
  {
    "id": "372101410",
    "name": "ヘルパーステーション　ほくりょう",
    "kana": "ヘルパーステーション　ホクリョウ",
    "address": "岩手県滝沢市穴口537-2",
    "lat": 39.7485723,
    "lng": 141.1190162,
    "tel": "019-641-4310",
    "url": "https://hokuryou.net/",
    "pref": "岩手県",
    "city": "滝沢市",
    "category": "home_help",
    "serviceType": "訪問介護",
    "capacity": 0,
    "openDays": [
      "平日",
      "土曜日",
      "日曜日",
      "祝日"
    ],
    "openDaysNote": "24時間対応"
  },
  {
    "id": "371600453",
    "name": "ヘルパーステーションまつなみき",
    "kana": "ヘルパーステーションマツナミキ",
    "address": "岩手県滝沢市巣子871-1",
    "lat": 39.7854525866731,
    "lng": 141.145244661461,
    "tel": "019-658-8616",
    "url": "http://www.fitton.co.jp",
    "pref": "岩手県",
    "city": "滝沢市",
    "category": "home_help",
    "serviceType": "訪問介護",
    "capacity": null,
    "openDays": [
      "平日"
    ],
    "openDaysNote": "利用者の希望に応じて３６５日２４時間対応する。"
  },
  {
    "id": "371600214",
    "name": "ヘルパーステーション姫さくら",
    "kana": "ヘルパーステーションヒメサクラ",
    "address": "岩手県滝沢市後268-473",
    "lat": 39.8526573647778,
    "lng": 141.110672752779,
    "tel": "019-613-6356",
    "url": "",
    "pref": "岩手県",
    "city": "滝沢市",
    "category": "home_help",
    "serviceType": "訪問介護",
    "capacity": 11,
    "openDays": [
      "平日",
      "土曜日",
      "祝日"
    ],
    "openDaysNote": "上記時間以外のサービス提供に関してはご相談により対応を検討させて頂きます。"
  },
  {
    "id": "372101519",
    "name": "指定訪問介護事業所おらほの家II",
    "kana": "シテイホウモンカイゴジギョウショオラホノイエツー",
    "address": "岩手県滝沢市鵜飼狐洞４６７",
    "lat": 39.7384837,
    "lng": 141.0870999,
    "tel": "019-681-4640",
    "url": "",
    "pref": "岩手県",
    "city": "滝沢市",
    "category": "home_help",
    "serviceType": "訪問介護",
    "capacity": 28,
    "openDays": [
      "平日",
      "土曜日",
      "日曜日",
      "祝日"
    ],
    "openDaysNote": ""
  },
  {
    "id": "372100685",
    "name": "松実会指定訪問介護事業所",
    "kana": "ショウジツカイシテイホウモンカイゴジギョウショ",
    "address": "岩手県滝沢市鵜飼狐洞1番地162",
    "lat": 39.7364805,
    "lng": 141.087865,
    "tel": "019-601-2515",
    "url": "http://www.shoujitsukai.or.jp",
    "pref": "岩手県",
    "city": "滝沢市",
    "category": "home_help",
    "serviceType": "訪問介護",
    "capacity": null,
    "openDays": [
      "平日",
      "土曜日",
      "日曜日",
      "祝日"
    ],
    "openDaysNote": ""
  },
  {
    "id": "371600602",
    "name": "訪問介護ステーション悠ライフ滝沢",
    "kana": "ホウモンカイゴステーションユウライフタキザワ",
    "address": "岩手県滝沢市鵜飼下高柳15-1",
    "lat": 39.7306211,
    "lng": 141.0933717,
    "tel": "019-681-8435",
    "url": "https://www.kaigo.kind-life-japan.com",
    "pref": "岩手県",
    "city": "滝沢市",
    "category": "home_help",
    "serviceType": "訪問介護",
    "capacity": 0,
    "openDays": [
      "平日",
      "土曜日",
      "日曜日",
      "祝日"
    ],
    "openDaysNote": "24時間対応"
  },
  {
    "id": "371600438",
    "name": "訪問介護ひなたぼっこ",
    "kana": "ホウモンカイゴヒナタボッコ",
    "address": "岩手県滝沢市大釜風林15番地33",
    "lat": 39.7102476349869,
    "lng": 141.028584708522,
    "tel": "019-681-9700",
    "url": "",
    "pref": "岩手県",
    "city": "滝沢市",
    "category": "home_help",
    "serviceType": "訪問介護",
    "capacity": null,
    "openDays": [
      "平日",
      "土曜日",
      "日曜日",
      "祝日"
    ],
    "openDaysNote": "ケアプランにより、時間外もサービスを提供することができます。"
  },
  {
    "id": "371600545",
    "name": "訪問介護事業所　訪問介護　咲の樹",
    "kana": "ホウモンカイゴジギョウショ　ホウモンカイゴ　エミノキ",
    "address": "岩手県滝沢市大釜大清水334－１",
    "lat": 39.7161557038106,
    "lng": 141.02689994418,
    "tel": "019-613-5291",
    "url": "https://eminoki-kaigo.jimdofree.com",
    "pref": "岩手県",
    "city": "滝沢市",
    "category": "home_help",
    "serviceType": "訪問介護",
    "capacity": 0,
    "openDays": [
      "平日",
      "土曜日",
      "日曜日",
      "祝日"
    ],
    "openDaysNote": "22:00～翌6:00は自己負担型サービス提供"
  },
  {
    "id": "372101618",
    "name": "訪問介護事業所ベルヴェーレの里",
    "kana": "ホウモンガイゴジギョウショベルウ゛ェーレノサト",
    "address": "岩手県滝沢市大釜風林445番地1",
    "lat": 39.7153841671829,
    "lng": 141.02188452698,
    "tel": "019-601-5768",
    "url": "http://belvere.com",
    "pref": "岩手県",
    "city": "滝沢市",
    "category": "home_help",
    "serviceType": "訪問介護",
    "capacity": 0,
    "openDays": [
      "平日",
      "土曜日",
      "日曜日",
      "祝日"
    ],
    "openDaysNote": ""
  },
  {
    "id": "372101881",
    "name": "訪問介護事業所リベルタ",
    "kana": "ホウモンカイゴジギョウショリベルタ",
    "address": "岩手県滝沢市室小路511番地",
    "lat": 39.741253,
    "lng": 141.10051,
    "tel": "019-601-5866",
    "url": "",
    "pref": "岩手県",
    "city": "滝沢市",
    "category": "home_help",
    "serviceType": "訪問介護",
    "capacity": 0,
    "openDays": [
      "平日",
      "土曜日",
      "日曜日",
      "祝日"
    ],
    "openDaysNote": ""
  },
  {
    "id": "373000223",
    "name": "寿生会訪問介護事業所",
    "kana": "ジュセイカイホウモンカイゴジギョウショ",
    "address": "岩手県下閉伊郡田野畑村田野畑120番地18",
    "lat": 39.9320084,
    "lng": 141.8938176,
    "tel": "0194-33-3221",
    "url": "http://www.jyuseikai.jp/",
    "pref": "岩手県",
    "city": "田野畑村",
    "category": "home_help",
    "serviceType": "訪問介護",
    "capacity": 0,
    "openDays": [
      "平日",
      "土曜日",
      "祝日"
    ],
    "openDaysNote": ""
  },
  {
    "id": "371300237",
    "name": "いつつ星会訪問介護事業所",
    "kana": "イツツボシカイホウモンカイゴジギョウショ",
    "address": "岩手県二戸市仁左平字横手6番1号",
    "lat": 40.3032087,
    "lng": 141.3087429,
    "tel": "0195-23-8987",
    "url": "http://www.itutuboshi.com",
    "pref": "岩手県",
    "city": "二戸市",
    "category": "home_help",
    "serviceType": "訪問介護",
    "capacity": 0,
    "openDays": [
      "平日",
      "土曜日",
      "祝日"
    ],
    "openDaysNote": "年末12／30～年明け1／3は休業"
  },
  {
    "id": "371300575",
    "name": "みんなのヘルパー事業所",
    "kana": "ミンナノヘルパージギョウショ",
    "address": "岩手県二戸市似鳥字上沖野6-3",
    "lat": 40.2375341,
    "lng": 141.2338995,
    "tel": "0195-20-1212",
    "url": "なし",
    "pref": "岩手県",
    "city": "二戸市",
    "category": "home_help",
    "serviceType": "訪問介護",
    "capacity": 12,
    "openDays": [
      "平日",
      "土曜日",
      "日曜日",
      "祝日"
    ],
    "openDaysNote": "サービス提供時間は、24時間365日"
  },
  {
    "id": "371300633",
    "name": "わガーヤにのへ横丁",
    "kana": "ワガーヤニノヘヨコチョウ",
    "address": "岩手県二戸市福岡字横丁15-1",
    "lat": 40.2739501,
    "lng": 141.2983155,
    "tel": "0195-22-1588",
    "url": "http://reitakukai.net",
    "pref": "岩手県",
    "city": "二戸市",
    "category": "home_help",
    "serviceType": "訪問介護",
    "capacity": 0,
    "openDays": [
      "平日",
      "土曜日",
      "日曜日",
      "祝日"
    ],
    "openDaysNote": ""
  },
  {
    "id": "373200138",
    "name": "浄法寺訪問介護事業所",
    "kana": "ジョウボウジホウモンカイゴジギョウショ",
    "address": "岩手県二戸市浄法寺町小池３番地二戸市ほほえみセンター 二戸市ほほえみセンター",
    "lat": 40.1844415,
    "lng": 141.1574534,
    "tel": "0195-38-2456",
    "url": "http://ninohe-shakyo.jp/",
    "pref": "岩手県",
    "city": "二戸市",
    "category": "home_help",
    "serviceType": "訪問介護",
    "capacity": 0,
    "openDays": [
      "平日",
      "土曜日",
      "日曜日",
      "祝日"
    ],
    "openDaysNote": "営業日３６５日、電話等により２４時間常時連絡、利用時間も相談状況により可。"
  },
  {
    "id": "371300070",
    "name": "二戸市社会福祉協議会訪問介護事業所",
    "kana": "ニノヘシシャカイフクシキョウギカイホウモンカイゴジギョウショ",
    "address": "岩手県二戸市仁左平字横手２番地３",
    "lat": 40.3035225,
    "lng": 141.3087429,
    "tel": "0195-23-5073",
    "url": "http://ninohe-shakyo.jp/",
    "pref": "岩手県",
    "city": "二戸市",
    "category": "home_help",
    "serviceType": "訪問介護",
    "capacity": 0,
    "openDays": [
      "平日",
      "土曜日",
      "日曜日",
      "祝日"
    ],
    "openDaysNote": "人員に限りがありますので、利用時間は、相談のうえ決めさせて頂きます。"
  },
  {
    "id": "371300443",
    "name": "訪問介護事業所ももの木",
    "kana": "ホウモンカイゴジギョウショモモノキ",
    "address": "岩手県二戸市石切所字天神下8-5有料老人ホームくつろ樹内 有料老人ホームくつろ樹内",
    "lat": 40.2600508,
    "lng": 141.3099496,
    "tel": "0195-22-5005",
    "url": "https://momo-kura.com/",
    "pref": "岩手県",
    "city": "二戸市",
    "category": "home_help",
    "serviceType": "訪問介護",
    "capacity": 0,
    "openDays": [
      "平日",
      "土曜日",
      "日曜日",
      "祝日"
    ],
    "openDaysNote": ""
  },
  {
    "id": "371400276",
    "name": "ＪＡライフサポートホームヘルプステーション西根",
    "kana": "ジェイエイライフサポートホームヘルプステーションニシネ",
    "address": "岩手県八幡平市田頭39-72-2",
    "lat": 39.9259820656313,
    "lng": 141.093091945878,
    "tel": "0195-70-2181",
    "url": "",
    "pref": "岩手県",
    "city": "八幡平市",
    "category": "home_help",
    "serviceType": "訪問介護",
    "capacity": 0,
    "openDays": [
      "平日",
      "土曜日",
      "日曜日",
      "祝日"
    ],
    "openDaysNote": "早朝・夜間・深夜サービスにつきましては別途ご相談を承ります。土日及び祝祭日等の対応につきましては利用者様と協議の上対応致します。"
  },
  {
    "id": "372100776",
    "name": "富士見荘指定訪問介護事業所",
    "kana": "フジミソウシテイホウモンカイゴジギョウショ",
    "address": "岩手県八幡平市柏台二丁目5番15号",
    "lat": 39.9143903,
    "lng": 140.9778558,
    "tel": "0195-78-4220",
    "url": "http://michinoku.or.jp",
    "pref": "岩手県",
    "city": "八幡平市",
    "category": "home_help",
    "serviceType": "訪問介護",
    "capacity": 0,
    "openDays": [
      "平日",
      "土曜日",
      "日曜日",
      "祝日"
    ],
    "openDaysNote": "特になし"
  },
  {
    "id": "371400318",
    "name": "訪問介護ステーションライラック安比高原",
    "kana": "ホウモンカイゴステーションライラックアッピコウゲン",
    "address": "岩手県八幡平市安比高原605-382",
    "lat": 40.002058,
    "lng": 140.9792378,
    "tel": "0195-68-7365",
    "url": "",
    "pref": "岩手県",
    "city": "八幡平市",
    "category": "home_help",
    "serviceType": "訪問介護",
    "capacity": null,
    "openDays": [
      "平日",
      "土曜日",
      "日曜日",
      "祝日"
    ],
    "openDaysNote": "上記は通常時間帯です。（改行）上記時間帯以外の早朝時間帯6:00～8:00、夜間時間帯18:00～22:00、深夜時間帯22:00～6:00もサービス利用できます。"
  },
  {
    "id": "371400284",
    "name": "訪問介護ふぁみりあ安比高原",
    "kana": "ホウモンカイゴファミリアアッピコウゲン",
    "address": "岩手県八幡平市安比高原605番地329",
    "lat": 40.002058,
    "lng": 140.9792378,
    "tel": "0195-78-8839",
    "url": "",
    "pref": "岩手県",
    "city": "八幡平市",
    "category": "home_help",
    "serviceType": "訪問介護",
    "capacity": null,
    "openDays": [
      "平日",
      "土曜日",
      "日曜日",
      "祝日"
    ],
    "openDaysNote": ""
  },
  {
    "id": "373000645",
    "name": "普代福祉会指定訪問介護事業所",
    "kana": "フダイフクシカイシテイホウモンカイゴジギョウショ",
    "address": "岩手県下閉伊郡普代村第24地割字鳥居5番地１",
    "lat": 40.0136984,
    "lng": 141.8542857,
    "tel": "0194-35-3577",
    "url": "https://www.unetorisou.com",
    "pref": "岩手県",
    "city": "普代村",
    "category": "home_help",
    "serviceType": "訪問介護",
    "capacity": null,
    "openDays": [
      "平日",
      "土曜日",
      "日曜日",
      "祝日"
    ],
    "openDaysNote": ""
  },
  {
    "id": "372600304",
    "name": "ニチイケアセンター平泉",
    "kana": "ニチイケアセンターヒライズミ",
    "address": "岩手県西磐井郡平泉町平泉字樋渡12番地4",
    "lat": 38.9832788,
    "lng": 141.1159198,
    "tel": "0191-48-5036",
    "url": "",
    "pref": "岩手県",
    "city": "平泉町",
    "category": "home_help",
    "serviceType": "訪問介護",
    "capacity": 0,
    "openDays": [
      "平日",
      "土曜日",
      "日曜日",
      "祝日"
    ],
    "openDaysNote": "居宅サービス計画により営業時間以外であってもサービス提供を行う場合があります。"
  },
  {
    "id": "372600197",
    "name": "平泉町社会福祉協議会指定訪問介護事業所",
    "kana": "ヒライズミチョウシャカイフクシキョウギカイシテイホウモンカイゴジギョウショ",
    "address": "岩手県西磐井郡平泉町平泉字志羅山１２番地６",
    "lat": 38.9864592,
    "lng": 141.1065893,
    "tel": "0191-34-1006",
    "url": "https://hiraizumi-shakyo.or.jp/",
    "pref": "岩手県",
    "city": "平泉町",
    "category": "home_help",
    "serviceType": "訪問介護",
    "capacity": 0,
    "openDays": [
      "平日",
      "土曜日",
      "日曜日",
      "祝日"
    ],
    "openDaysNote": "上記、時間帯以外でも訪問の希望がある時は、対応する体制をとっております。その際は、基本料金（昼間）に対して、早朝・夜間・深夜毎に割り増し料金を負担して頂くことになります。"
  },
  {
    "id": "370601049",
    "name": "ＪＡいわて花巻訪問介護きたかみ事業所",
    "kana": "ジェイエイイワテハナマキホウモンカイゴキタカミジギョウショ",
    "address": "岩手県北上市和賀町藤根18-39-3",
    "lat": 39.3022806,
    "lng": 141.0335938,
    "tel": "0197-71-7373",
    "url": "http://www.jahanamaki.or.jp",
    "pref": "岩手県",
    "city": "北上市",
    "category": "home_help",
    "serviceType": "訪問介護",
    "capacity": 0,
    "openDays": [
      "平日",
      "土曜日",
      "日曜日",
      "祝日"
    ],
    "openDaysNote": ""
  },
  {
    "id": "370601635",
    "name": "ＳＯＭＰＯケア北上　訪問介護",
    "kana": "ソンポケアキタカミ　ホウモンカイゴ",
    "address": "岩手県北上市さくら通り4丁目14－17",
    "lat": 39.2632031,
    "lng": 141.102526,
    "tel": "0197-88-2891",
    "url": "",
    "pref": "岩手県",
    "city": "北上市",
    "category": "home_help",
    "serviceType": "訪問介護",
    "capacity": null,
    "openDays": [
      "平日",
      "土曜日",
      "日曜日",
      "祝日"
    ],
    "openDaysNote": "営業日：365日（改行）営業時間：24時間"
  },
  {
    "id": "370600603",
    "name": "ニチイケアセンター北上",
    "kana": "ニチイケアセンターキタカミ",
    "address": "岩手県北上市青柳町一丁目2番40号",
    "lat": 39.2846288,
    "lng": 141.1216818,
    "tel": "0197-61-2104",
    "url": "http://www.nichiigakkan.co.jp",
    "pref": "岩手県",
    "city": "北上市",
    "category": "home_help",
    "serviceType": "訪問介護",
    "capacity": 0,
    "openDays": [
      "平日",
      "土曜日",
      "日曜日",
      "祝日"
    ],
    "openDaysNote": "居宅サービス計画により、営業時間以外であってもサービス提供を行う場合がある。"
  },
  {
    "id": "370601692",
    "name": "ニチイケアセンター北上西",
    "kana": "ニチイケアセンターキタカミニシ",
    "address": "岩手県北上市和賀町藤根16地割21番地ＳＵＮハイツ藤光Ｄ棟101 ＳＵＮハイツ藤光Ｄ棟101",
    "lat": 39.3064361,
    "lng": 141.0286737,
    "tel": "0197-71-7715",
    "url": "",
    "pref": "岩手県",
    "city": "北上市",
    "category": "home_help",
    "serviceType": "訪問介護",
    "capacity": 0,
    "openDays": [
      "平日",
      "土曜日",
      "日曜日",
      "祝日"
    ],
    "openDaysNote": ""
  },
  {
    "id": "370600116",
    "name": "ニチイケアセンター北上中央",
    "kana": "ニチイケアセンターキタカミチュウオウ",
    "address": "岩手県北上市上野町三丁目21番19号",
    "lat": 39.3081735,
    "lng": 141.123681,
    "tel": "0197-61-2525",
    "url": "http://www.nichiigakkan.co.jp",
    "pref": "岩手県",
    "city": "北上市",
    "category": "home_help",
    "serviceType": "訪問介護",
    "capacity": 0,
    "openDays": [
      "平日",
      "土曜日",
      "日曜日",
      "祝日"
    ],
    "openDaysNote": "居宅サービス計画書により、営業時間以外であってもサービス提供を行なう場合がある。"
  },
  {
    "id": "370600314",
    "name": "ヘルパーステーションいいとよ",
    "kana": "ヘルパーステーションイイトヨ",
    "address": "岩手県北上市村崎野12地割74番地28",
    "lat": 39.3325567,
    "lng": 141.0984936,
    "tel": "0197-71-1501",
    "url": "http://www.keiwakai.info/",
    "pref": "岩手県",
    "city": "北上市",
    "category": "home_help",
    "serviceType": "訪問介護",
    "capacity": 0,
    "openDays": [
      "平日",
      "土曜日",
      "日曜日",
      "祝日"
    ],
    "openDaysNote": "２４時間体制で対応しておりますが、上記以外の時間帯は料金が異なります。"
  },
  {
    "id": "370601197",
    "name": "ヘルパーステーションコスモス",
    "kana": "ヘルパーステーションコスモス",
    "address": "岩手県北上市大通り四丁目1-10",
    "lat": 39.2853647,
    "lng": 141.1087552,
    "tel": "0197-72-5900",
    "url": "",
    "pref": "岩手県",
    "city": "北上市",
    "category": "home_help",
    "serviceType": "訪問介護",
    "capacity": 0,
    "openDays": [
      "平日",
      "土曜日",
      "日曜日",
      "祝日"
    ],
    "openDaysNote": ""
  },
  {
    "id": "370601213",
    "name": "ヘルパーステーション希望",
    "kana": "ヘルパーステーションノゾミ",
    "address": "岩手県北上市村崎野14-178-11",
    "lat": 39.3137191686935,
    "lng": 141.121857525592,
    "tel": "0197-72-5187",
    "url": "https://nozomi2011.wixsite.com/my-site",
    "pref": "岩手県",
    "city": "北上市",
    "category": "home_help",
    "serviceType": "訪問介護",
    "capacity": 0,
    "openDays": [
      "平日",
      "土曜日",
      "日曜日",
      "祝日"
    ],
    "openDaysNote": ""
  },
  {
    "id": "370601379",
    "name": "やちだもの家北上ヘルパーステーション",
    "kana": "ヤチダモノイエキタカミヘルパーステーション",
    "address": "岩手県北上市立花17地割1番地3",
    "lat": 39.2820761640289,
    "lng": 141.139748936651,
    "tel": "0197-61-5582",
    "url": "https://yachidamonoie.dai-ichi.com/",
    "pref": "岩手県",
    "city": "北上市",
    "category": "home_help",
    "serviceType": "訪問介護",
    "capacity": 0,
    "openDays": [
      "平日",
      "土曜日",
      "日曜日"
    ],
    "openDaysNote": ""
  },
  {
    "id": "370601726",
    "name": "医心館訪問介護ステーション北上",
    "kana": "イシンカンホウモンカイゴステーションキタカミ",
    "address": "岩手県北上市さくら通り5-14-10",
    "lat": 39.3023034,
    "lng": 141.1103211,
    "tel": "0197-62-3228",
    "url": "",
    "pref": "岩手県",
    "city": "北上市",
    "category": "home_help",
    "serviceType": "訪問介護",
    "capacity": 0,
    "openDays": [
      "平日",
      "土曜日",
      "日曜日",
      "祝日"
    ],
    "openDaysNote": "年中無休24時間対応"
  },
  {
    "id": "370600611",
    "name": "社会福祉法人北上市社会福祉協議会指定訪問介護事業所",
    "kana": "シャカイフクシホウジンキタカミシシャカイフクシキョウギカイシテイホウモンカイゴジギョウショ",
    "address": "岩手県北上市常盤台二丁目１番63号北上市総合福祉センター 北上市総合福祉センター",
    "lat": 39.300538,
    "lng": 141.1165041,
    "tel": "0197-64-1212",
    "url": "http://www.kitakami-shakyo.jp/",
    "pref": "岩手県",
    "city": "北上市",
    "category": "home_help",
    "serviceType": "訪問介護",
    "capacity": 20,
    "openDays": [
      "平日",
      "土曜日",
      "日曜日",
      "祝日"
    ],
    "openDaysNote": ""
  },
  {
    "id": "370600728",
    "name": "日高見ヘルパーステーション",
    "kana": "ヒダカミヘルパーステーション",
    "address": "岩手県北上市北鬼柳22-46",
    "lat": 39.2913000048608,
    "lng": 141.095233176581,
    "tel": "0197-61-3134",
    "url": "http://www.keiwakai.info",
    "pref": "岩手県",
    "city": "北上市",
    "category": "home_help",
    "serviceType": "訪問介護",
    "capacity": 0,
    "openDays": [
      "平日",
      "土曜日",
      "日曜日",
      "祝日"
    ],
    "openDaysNote": "早朝　6：00～8：00、夜間　18：00～22：00、深夜　22：00～6：00"
  },
  {
    "id": "370600181",
    "name": "博愛ヘルパーステーション",
    "kana": "ハクアイヘルパーステーション",
    "address": "岩手県北上市立花10地割36番地1",
    "lat": 39.2826755,
    "lng": 141.1330449,
    "tel": "0197-62-1166",
    "url": "http://hakuaikai-kitakami.or.jp/",
    "pref": "岩手県",
    "city": "北上市",
    "category": "home_help",
    "serviceType": "訪問介護",
    "capacity": 0,
    "openDays": [
      "平日",
      "土曜日",
      "日曜日",
      "祝日"
    ],
    "openDaysNote": ""
  },
  {
    "id": "370601577",
    "name": "訪問介護なごみ",
    "kana": "ホウモンカイゴナゴミ",
    "address": "岩手県北上市黒沢尻４丁目８－２０",
    "lat": 39.296925,
    "lng": 141.1368273,
    "tel": "0197-61-5100",
    "url": "http://www.nagominakazato.net",
    "pref": "岩手県",
    "city": "北上市",
    "category": "home_help",
    "serviceType": "訪問介護",
    "capacity": 19,
    "openDays": [
      "平日",
      "土曜日",
      "日曜日"
    ],
    "openDaysNote": ""
  },
  {
    "id": "370601676",
    "name": "訪問介護事業所きたかみ",
    "kana": "ホウモンカイゴジギョウショキタカミ",
    "address": "岩手県北上市鬼柳町荒高３７番地１有料老人ホームきたかみ 有料老人ホームきたかみ",
    "lat": 39.273828156523,
    "lng": 141.101879961624,
    "tel": "0197-62-3721",
    "url": "",
    "pref": "岩手県",
    "city": "北上市",
    "category": "home_help",
    "serviceType": "訪問介護",
    "capacity": 3,
    "openDays": [
      "平日",
      "土曜日",
      "日曜日",
      "祝日"
    ],
    "openDaysNote": ""
  },
  {
    "id": "370600926",
    "name": "北星荘指定訪問介護事業所",
    "kana": "ホクセイソウシテイホウモンカイゴジギョウショ",
    "address": "岩手県北上市下鬼柳１７地割１２７番地５",
    "lat": 39.2675327,
    "lng": 141.0897853,
    "tel": "0197-81-5777",
    "url": "http://risshokai.jp/",
    "pref": "岩手県",
    "city": "北上市",
    "category": "home_help",
    "serviceType": "訪問介護",
    "capacity": 0,
    "openDays": [
      "平日",
      "土曜日",
      "日曜日",
      "祝日"
    ],
    "openDaysNote": "養護老人ホーム利用者の個別契約型として訪問介護事業を実施"
  },
  {
    "id": "373100270",
    "name": "野田白寿会指定訪問介護事業所",
    "kana": "ノダハクジュカイシテイホウモンカイゴジギョウショ",
    "address": "岩手県九戸郡野田村大字野田第22地割38番地7",
    "lat": 40.1080777248428,
    "lng": 141.801853271936,
    "tel": "0194-75-3655",
    "url": "https://hakuju.wixsite.com/nodahakujukai",
    "pref": "岩手県",
    "city": "野田村",
    "category": "home_help",
    "serviceType": "訪問介護",
    "capacity": 0,
    "openDays": [
      "平日",
      "土曜日",
      "日曜日",
      "祝日"
    ],
    "openDaysNote": ""
  },
  {
    "id": "372200147",
    "name": "ニチイケアセンター矢巾",
    "kana": "ニチイケアセンターヤハバ",
    "address": "岩手県紫波郡矢巾町南矢幅第12地割237-1",
    "lat": 39.6084684672162,
    "lng": 141.149659605835,
    "tel": "019-698-1266",
    "url": "http://www.nichiigakkan.co.jp",
    "pref": "岩手県",
    "city": "矢巾町",
    "category": "home_help",
    "serviceType": "訪問介護",
    "capacity": 0,
    "openDays": [
      "平日"
    ],
    "openDaysNote": "居宅サービス計画により、休業日であってもまた営業時間以外でもサービスを行う場合がある。"
  },
  {
    "id": "372201061",
    "name": "ヘルパーステーションにぎ和い",
    "kana": "ヘルパーステーションニギワイ",
    "address": "岩手県紫波郡矢巾町大字高田第13地割224番地4",
    "lat": 39.6297092371191,
    "lng": 141.171171961763,
    "tel": "019-658-8803",
    "url": "https://sozonigiwai.wixsite.com/omotenashi",
    "pref": "岩手県",
    "city": "矢巾町",
    "category": "home_help",
    "serviceType": "訪問介護",
    "capacity": 22,
    "openDays": [
      "平日",
      "土曜日",
      "日曜日",
      "祝日"
    ],
    "openDaysNote": ""
  },
  {
    "id": "372200204",
    "name": "ヘルパーステーションやはば",
    "kana": "ヘルパーステーションヤハバ",
    "address": "岩手県紫波郡矢巾町大字又兵ェ新田第5地割335番地医療福祉多機能ビル　ケアセンター南昌 医療福祉多機能ビル　ケアセンター南昌",
    "lat": 39.6135137198833,
    "lng": 141.147002752887,
    "tel": "019-698-1385",
    "url": "https://kikodo.or.jp",
    "pref": "岩手県",
    "city": "矢巾町",
    "category": "home_help",
    "serviceType": "訪問介護",
    "capacity": 0,
    "openDays": [
      "平日",
      "土曜日",
      "日曜日",
      "祝日"
    ],
    "openDaysNote": ""
  },
  {
    "id": "372201038",
    "name": "ヘルパーステーション鶴亀",
    "kana": "ヘルパーステーションツルカメ",
    "address": "岩手県紫波郡矢巾町大字高田第15地割28番地14",
    "lat": 39.6276923,
    "lng": 141.175624,
    "tel": "019-697-0804",
    "url": "https://www.moriokaminami-hp.com",
    "pref": "岩手県",
    "city": "矢巾町",
    "category": "home_help",
    "serviceType": "訪問介護",
    "capacity": 0,
    "openDays": [
      "平日",
      "土曜日",
      "日曜日",
      "祝日"
    ],
    "openDaysNote": "365日、24時間利用可能"
  },
  {
    "id": "372201186",
    "name": "ルポン訪問介護事業所",
    "kana": "ルポンホウモンカイゴジギョウショ",
    "address": "岩手県紫波郡矢巾町南矢幅第8地割111-6",
    "lat": 39.6079118,
    "lng": 141.1503622,
    "tel": "019-681-9138",
    "url": "https://t-design-lepont.studio.site",
    "pref": "岩手県",
    "city": "矢巾町",
    "category": "home_help",
    "serviceType": "訪問介護",
    "capacity": null,
    "openDays": [
      "平日",
      "土曜日",
      "日曜日",
      "祝日"
    ],
    "openDaysNote": ""
  },
  {
    "id": "372201145",
    "name": "訪問介護事業所あんどけあ",
    "kana": "ホウモンカイゴジギョウショアンドケア",
    "address": "岩手県紫波郡矢巾町又兵エ新田第3地割200-14",
    "lat": 39.616437161873,
    "lng": 141.143725359525,
    "tel": "070-1358-9374",
    "url": "https://andcarenk.wixsite.com/home",
    "pref": "岩手県",
    "city": "矢巾町",
    "category": "home_help",
    "serviceType": "訪問介護",
    "capacity": 0,
    "openDays": [
      "平日",
      "土曜日",
      "日曜日",
      "祝日"
    ],
    "openDaysNote": "利用者の希望に応じて、サービスの提供については24時間対応可能"
  },
  {
    "id": "373100643",
    "name": "Nextケア・サポートひろの",
    "kana": "ネクストケアサポートヒロノ",
    "address": "岩手県九戸郡洋野町種市第37地割111-23",
    "lat": 40.4278837575471,
    "lng": 141.688605549159,
    "tel": "0194-75-3761",
    "url": "",
    "pref": "岩手県",
    "city": "洋野町",
    "category": "home_help",
    "serviceType": "訪問介護",
    "capacity": 0,
    "openDays": [
      "平日",
      "土曜日",
      "日曜日",
      "祝日"
    ],
    "openDaysNote": "年末年始を除き、土、日、祝日も営業。"
  },
  {
    "id": "373100726",
    "name": "ひろの会指定訪問介護事業所",
    "kana": "ヒロノカイシテイホウモンカイゴジギョウショ",
    "address": "岩手県九戸郡洋野町種市第23地割81番地6",
    "lat": 40.4097117,
    "lng": 141.7191422,
    "tel": "0194-69-2122",
    "url": "https://hironokai.or.jp/",
    "pref": "岩手県",
    "city": "洋野町",
    "category": "home_help",
    "serviceType": "訪問介護",
    "capacity": 0,
    "openDays": [
      "平日",
      "祝日"
    ],
    "openDaysNote": "土曜日のサービス提供については、ご相談ください。"
  },
  {
    "id": "373100155",
    "name": "久慈平荘ホームヘルプサービス事業所",
    "kana": "クジヒラソウホームヘルプサービスジギョウショ",
    "address": "岩手県九戸郡洋野町大野60-41-8",
    "lat": 40.2766863,
    "lng": 141.6346269,
    "tel": "0194-77-2771",
    "url": "https://m-kujihirasou.jp/",
    "pref": "岩手県",
    "city": "洋野町",
    "category": "home_help",
    "serviceType": "訪問介護",
    "capacity": 0,
    "openDays": [
      "平日",
      "土曜日",
      "日曜日",
      "祝日"
    ],
    "openDaysNote": ""
  },
  {
    "id": "371000324",
    "name": "すみれ介護事業所",
    "kana": "スミレカイゴジギョウショ",
    "address": "岩手県陸前高田市竹駒町字滝の里62番地2",
    "lat": 39.0391954,
    "lng": 141.6250886,
    "tel": "0192-47-5515",
    "url": "",
    "pref": "岩手県",
    "city": "陸前高田市",
    "category": "home_help",
    "serviceType": "訪問介護",
    "capacity": 0,
    "openDays": [
      "平日",
      "土曜日",
      "日曜日",
      "祝日"
    ],
    "openDaysNote": "24時間対応（改行）指定地域に限る"
  },
  {
    "id": "370300204",
    "name": "岩手高齢協すずらん",
    "kana": "イワテコウレイキョウスズラン",
    "address": "岩手県陸前高田市米崎町字和野66-4",
    "lat": 39.0096739660193,
    "lng": 141.676996394862,
    "tel": "0192-22-7220",
    "url": "http://www.koureikyou.org/",
    "pref": "岩手県",
    "city": "陸前高田市",
    "category": "home_help",
    "serviceType": "訪問介護",
    "capacity": 0,
    "openDays": [
      "平日",
      "土曜日",
      "日曜日",
      "祝日"
    ],
    "openDaysNote": ""
  },
  {
    "id": "371000167",
    "name": "公益社団法人陸前高田市シルバー人材センター指定訪問介護事業所",
    "kana": "コウエキシャダンホウジンリクゼンタカタシシルバージンザイセンターシテイホウモンカイゴジギョウショ",
    "address": "岩手県陸前高田市高田町字中田62番地1",
    "lat": 39.0127964,
    "lng": 141.6467292,
    "tel": "0192-54-4888",
    "url": "https://rikuzentakata-sjc.jp/",
    "pref": "岩手県",
    "city": "陸前高田市",
    "category": "home_help",
    "serviceType": "訪問介護",
    "capacity": 0,
    "openDays": [
      "平日"
    ],
    "openDaysNote": "営業日、営業時間外のサービスについては、居宅サービス計画に沿って対応します。"
  },
  {
    "id": "371000084",
    "name": "高寿園指定訪問介護事業所",
    "kana": "コウジュエンシテイホウモンカイゴジギョウショ",
    "address": "岩手県陸前高田市高田町字東和野67番地",
    "lat": 39.0221729,
    "lng": 141.6390769,
    "tel": "0192-54-4777",
    "url": "",
    "pref": "岩手県",
    "city": "陸前高田市",
    "category": "home_help",
    "serviceType": "訪問介護",
    "capacity": 0,
    "openDays": [
      "平日",
      "土曜日",
      "日曜日",
      "祝日"
    ],
    "openDaysNote": "利用者の希望に合わせた時間変更等は可能です。"
  },
  {
    "id": "371000159",
    "name": "陸前高田市社会福祉協議会指定訪問介護事業所",
    "kana": "リクゼンタカタシシャカイフクシキョウギカイシテイホウモンカイゴジギョウショ",
    "address": "岩手県陸前高田市高田町字太田511番地陸前高田市保健福祉総合センター内 陸前高田市保健福祉総合センター内",
    "lat": 39.0254279160843,
    "lng": 141.641038027983,
    "tel": "0192-54-5151",
    "url": "http://www.rikutakashakyo.jp/",
    "pref": "岩手県",
    "city": "陸前高田市",
    "category": "home_help",
    "serviceType": "訪問介護",
    "capacity": 0,
    "openDays": [
      "平日",
      "土曜日",
      "日曜日",
      "祝日"
    ],
    "openDaysNote": ""
  },
  {
    "id": "371000274",
    "name": "絆ホームヘルプ事業所",
    "kana": "キズナホームヘルプジギョウショ",
    "address": "岩手県陸前高田市広田町字久保13番地4",
    "lat": 38.9488066,
    "lng": 141.691619,
    "tel": "0192-56-3864",
    "url": "http://kizuna-care.jimdofree.com/",
    "pref": "岩手県",
    "city": "陸前高田市",
    "category": "home_help",
    "serviceType": "訪問介護",
    "capacity": 0,
    "openDays": [
      "平日",
      "土曜日",
      "日曜日",
      "祝日"
    ],
    "openDaysNote": ""
  }
]