[
  {
    "id": "3270200458",
    "name": "とも・らいふ訪問介護",
    "kana": "トモ・ライフホウモンカイゴ",
    "address": "島根県安来市安来町1133番2",
    "lat": 35.4302031,
    "lng": 133.2532296,
    "tel": "0854-23-0014",
    "url": "http://hp.kaipoke.biz/a40/",
    "pref": "島根県",
    "city": "安来市",
    "category": "home_help",
    "serviceType": "訪問介護",
    "capacity": 0,
    "openDays": [
      "平日",
      "土曜日",
      "日曜日",
      "祝日"
    ],
    "openDaysNote": "電話連絡により土日祝日対応します"
  },
  {
    "id": "3270200441",
    "name": "ヘルパーステーションくるみ",
    "kana": "ヘルパーステーションクルミ",
    "address": "島根県安来市飯島町1205-1",
    "lat": 35.4323278,
    "lng": 133.2480325,
    "tel": "0854-23-8230",
    "url": "https://signpost-llc.com/",
    "pref": "島根県",
    "city": "安来市",
    "category": "home_help",
    "serviceType": "訪問介護",
    "capacity": 0,
    "openDays": [
      "平日",
      "土曜日",
      "日曜日",
      "祝日"
    ],
    "openDaysNote": "ご希望に応じて時間外対応を致します。"
  },
  {
    "id": "3270200144",
    "name": "ヘルパーステーションひだまり",
    "kana": "ヘルパーステーションヒダマリ",
    "address": "安来市広瀬町町帳80-3",
    "lat": 35.3742946066364,
    "lng": 133.182648703173,
    "tel": "0854-32-2201",
    "url": "http//www.sirasagi-yasugi.or.jp",
    "pref": "島根県",
    "city": "安来市",
    "category": "home_help",
    "serviceType": "訪問介護",
    "capacity": 0,
    "openDays": [
      "平日",
      "土曜日",
      "日曜日",
      "祝日"
    ],
    "openDaysNote": "24時間対応いたします。"
  },
  {
    "id": "3270200029",
    "name": "社会医療法人昌林会　ヘルパーステーションやすぎ",
    "kana": "シャカイイリョウホウジンショウリンカイ　ヘルパーステーションヤスギ",
    "address": "安来市安来町８９９－１",
    "lat": 35.4318422,
    "lng": 133.2521539,
    "tel": "0854-23-2299",
    "url": "http://www.syourinkai.or.ip",
    "pref": "島根県",
    "city": "安来市",
    "category": "home_help",
    "serviceType": "訪問介護",
    "capacity": 0,
    "openDays": [
      "平日",
      "土曜日",
      "日曜日",
      "祝日"
    ],
    "openDaysNote": ""
  },
  {
    "id": "3270200086",
    "name": "社会福祉法人安来市社会福祉協議会指定訪問介護事業所",
    "kana": "シャカイフクシホウジンヤスギシシャカイフクシキョウギカイシテイホウモンカイゴジギョウショ",
    "address": "島根県安来市伯太町安田1687",
    "lat": 35.4335198,
    "lng": 133.246657,
    "tel": "0854-37-1432",
    "url": "http//www.yasugisｈakyou.com",
    "pref": "島根県",
    "city": "安来市",
    "category": "home_help",
    "serviceType": "訪問介護",
    "capacity": 0,
    "openDays": [
      "平日",
      "土曜日",
      "祝日"
    ],
    "openDaysNote": "特別の場合は、この限りではありません。"
  },
  {
    "id": "3271200051",
    "name": "太陽ヘルパーステーション",
    "kana": "タイヨウヘルパーステーション",
    "address": "島根県安来市広瀬町広瀬1911-1",
    "lat": 35.3688437,
    "lng": 133.1775363,
    "tel": "0854-32-9260",
    "url": "http://amago-taiyo.jp/",
    "pref": "島根県",
    "city": "安来市",
    "category": "home_help",
    "serviceType": "訪問介護",
    "capacity": 0,
    "openDays": [
      "平日",
      "土曜日",
      "日曜日",
      "祝日"
    ],
    "openDaysNote": "なし"
  },
  {
    "id": "3272200498",
    "name": "ふれあい五箇訪問介護事業所",
    "kana": "フレアイゴカホウモンカイゴジギョウショ",
    "address": "隠岐の島町北方２７８番２",
    "lat": 36.2887062,
    "lng": 133.2271804,
    "tel": "08512-5-3541",
    "url": "https://fureaigoka.web.fc2.com/",
    "pref": "島根県",
    "city": "隠岐の島町",
    "category": "home_help",
    "serviceType": "訪問介護",
    "capacity": 60,
    "openDays": [
      "平日",
      "土曜日",
      "祝日"
    ],
    "openDaysNote": "電話等により、24時間常時連絡が可能な体制をとる"
  },
  {
    "id": "3272200852",
    "name": "リベラル訪問介護事業所",
    "kana": "リベラルホウモンカイゴジギョウショ",
    "address": "島根県隠岐郡隠岐の島町上西蓮花畑11番地2番地",
    "lat": 36.238761,
    "lng": 133.272047,
    "tel": "08512-3-1077",
    "url": "",
    "pref": "島根県",
    "city": "隠岐の島町",
    "category": "home_help",
    "serviceType": "訪問介護",
    "capacity": 0,
    "openDays": [
      "平日"
    ],
    "openDaysNote": ""
  },
  {
    "id": "3272200357",
    "name": "静和園訪問介護事業所",
    "kana": "セイワエンホウモンカイゴジギョウショ",
    "address": "隠岐郡隠岐の島町栄町1088番地",
    "lat": 36.2147242,
    "lng": 133.3267495,
    "tel": "08512-2-7502",
    "url": "http://www.kyousei.gr.jp",
    "pref": "島根県",
    "city": "隠岐の島町",
    "category": "home_help",
    "serviceType": "訪問介護",
    "capacity": 0,
    "openDays": [
      "平日",
      "土曜日",
      "日曜日",
      "祝日"
    ],
    "openDaysNote": ""
  },
  {
    "id": "3271400693",
    "name": "チャット・ケアすずらん訪問介護事業所",
    "kana": "チャット・ケアスズランホウモンカイゴジギョウショ",
    "address": "里方616-2",
    "lat": 35.3068657994178,
    "lng": 132.901842736325,
    "tel": "0854-47-7877",
    "url": "",
    "pref": "島根県",
    "city": "雲南市",
    "category": "home_help",
    "serviceType": "訪問介護",
    "capacity": null,
    "openDays": [
      "平日",
      "土曜日",
      "日曜日",
      "祝日"
    ],
    "openDaysNote": "日曜日から月曜日まで24時間対応です。"
  },
  {
    "id": "3271400578",
    "name": "なごみヘルパーステーション",
    "kana": "ナゴミヘルパーステーション",
    "address": "島根県雲南市大東町飯田92-1",
    "lat": 35.3249276,
    "lng": 132.9607649,
    "tel": "0854-47-7370",
    "url": "http://nagomi-daitou.jp",
    "pref": "島根県",
    "city": "雲南市",
    "category": "home_help",
    "serviceType": "訪問介護",
    "capacity": 0,
    "openDays": [
      "平日",
      "土曜日",
      "日曜日",
      "祝日"
    ],
    "openDaysNote": ""
  },
  {
    "id": "3271400255",
    "name": "ニチイケアセンターあかがわ",
    "kana": "ニチイケアセンターアカガワ",
    "address": "雲南市大東町仁和寺1918-7",
    "lat": 35.334698,
    "lng": 132.937134,
    "tel": "0854-43-8576",
    "url": "",
    "pref": "島根県",
    "city": "雲南市",
    "category": "home_help",
    "serviceType": "訪問介護",
    "capacity": 0,
    "openDays": [
      "平日",
      "土曜日",
      "日曜日",
      "祝日"
    ],
    "openDaysNote": "居宅サービス計画により、休業日及び営業時間外であっても、サービスの提供を行う場合がある。"
  },
  {
    "id": "3271400339",
    "name": "ヘルパーステーションかも",
    "kana": "ヘルパーステーションカモ",
    "address": "島根県雲南市加茂町宇治328番地雲南市加茂健康福祉センターかもてらす 雲南市加茂健康福祉センターかもてらす",
    "lat": 35.3418073,
    "lng": 132.9059065,
    "tel": "0854-49-8098",
    "url": "http://kamofukushikai.jp/publics/index/19/&anchor_link=page19#page19",
    "pref": "島根県",
    "city": "雲南市",
    "category": "home_help",
    "serviceType": "訪問介護",
    "capacity": 0,
    "openDays": [
      "平日",
      "土曜日",
      "日曜日",
      "祝日"
    ],
    "openDaysNote": "サービス提供時間24時間（改行）（上記の営業日、営業時間のほか、電話等により24時間常時連絡が可能な体制）"
  },
  {
    "id": "3271400511",
    "name": "訪問介護事業所えん",
    "kana": "ホウモンカイゴジギョウショエン",
    "address": "掛合町入間２８０番地３",
    "lat": 35.1498723,
    "lng": 132.7840832,
    "tel": "0854-62-1922",
    "url": "",
    "pref": "島根県",
    "city": "雲南市",
    "category": "home_help",
    "serviceType": "訪問介護",
    "capacity": 0,
    "openDays": [
      "平日",
      "土曜日",
      "日曜日",
      "祝日"
    ],
    "openDaysNote": "但し利用者の状況に応じてサービスの変更可能"
  },
  {
    "id": "3271400149",
    "name": "訪問介護事業所おおぎ",
    "kana": "ホウモンカイゴジギョウショオオギ",
    "address": "雲南市大東町大東1038",
    "lat": 35.3207671,
    "lng": 132.9641925,
    "tel": "0854-43-9100",
    "url": "",
    "pref": "島根県",
    "city": "雲南市",
    "category": "home_help",
    "serviceType": "訪問介護",
    "capacity": null,
    "openDays": [
      "平日",
      "土曜日",
      "日曜日",
      "祝日"
    ],
    "openDaysNote": "なし"
  },
  {
    "id": "3271500179",
    "name": "訪問介護事業所かけや",
    "kana": "ホウモンカイゴジギョウショカケヤ",
    "address": "島根県雲南市掛合町掛合853-1特別養護老人ホームえがおの里 特別養護老人ホームえがおの里",
    "lat": 35.1946115,
    "lng": 132.8172663,
    "tel": "0854-62-9050",
    "url": "http://unnanshakyo.jp/",
    "pref": "島根県",
    "city": "雲南市",
    "category": "home_help",
    "serviceType": "訪問介護",
    "capacity": 0,
    "openDays": [
      "平日",
      "土曜日",
      "日曜日",
      "祝日"
    ],
    "openDaysNote": "年中無休　営業時間の他、電話連絡などにより２４時間対応が可能な体制とする(状況対応）"
  },
  {
    "id": "3271500161",
    "name": "訪問介護事業所みとや",
    "kana": "ホウモンカイゴジギョウショミトヤ",
    "address": "雲南市三刀屋町三刀屋1212-3",
    "lat": 35.2941468,
    "lng": 132.8850293,
    "tel": "0854-45-5533",
    "url": "http://unnanshakyo.jp/",
    "pref": "島根県",
    "city": "雲南市",
    "category": "home_help",
    "serviceType": "訪問介護",
    "capacity": null,
    "openDays": [
      "平日",
      "土曜日",
      "日曜日",
      "祝日"
    ],
    "openDaysNote": "但し、利用者の状況に応じてサービス提供時間の変更も可能"
  },
  {
    "id": "3270800794",
    "name": "あすかヘルパーステーション",
    "kana": "アスカヘルパーステーション",
    "address": "中島町イ1454番地1あすか福祉センター中ノ島 あすか福祉センター中ノ島",
    "lat": 34.696134,
    "lng": 131.8250879,
    "tel": "0856-25-7780",
    "url": "http://www.asukaec.com",
    "pref": "島根県",
    "city": "益田市",
    "category": "home_help",
    "serviceType": "訪問介護",
    "capacity": 20,
    "openDays": [
      "平日",
      "土曜日",
      "祝日"
    ],
    "openDaysNote": "ケアプラン上にサービスの必要性が記載されており、サービス提供が計画されている時間帯においては、上記時間以外での対応も可能。"
  },
  {
    "id": "3270800968",
    "name": "ヘルパーステーションいわみ",
    "kana": "ヘルパーステーションイワミ",
    "address": "島根県益田市染羽町１番２７号",
    "lat": 34.6807502,
    "lng": 131.8625853,
    "tel": "０８５６－２５－７１９０",
    "url": "",
    "pref": "島根県",
    "city": "益田市",
    "category": "home_help",
    "serviceType": "訪問介護",
    "capacity": 0,
    "openDays": [
      "平日",
      "土曜日",
      "日曜日",
      "祝日"
    ],
    "openDaysNote": ""
  },
  {
    "id": "3270801131",
    "name": "ヘルパーステーションにじヶ丘",
    "kana": "ヘルパーステーションニジガオカ",
    "address": "島根県益田市乙吉町イ758-4",
    "lat": 34.6875738352873,
    "lng": 131.859769757251,
    "tel": "0856-32-0610",
    "url": "https://nijigaoka-iwaumi.wixsite.com/hukusi",
    "pref": "島根県",
    "city": "益田市",
    "category": "home_help",
    "serviceType": "訪問介護",
    "capacity": null,
    "openDays": [
      "平日",
      "土曜日",
      "日曜日",
      "祝日"
    ],
    "openDaysNote": ""
  },
  {
    "id": "3270800075",
    "name": "ホームヘルプセンター万葉苑",
    "kana": "ホームヘルプセンターマンヨウエン",
    "address": "益田市高津四丁目６番４０号",
    "lat": 34.6867599,
    "lng": 131.8121507,
    "tel": "0856-22-2023",
    "url": "https://www.baijukai.jp/",
    "pref": "島根県",
    "city": "益田市",
    "category": "home_help",
    "serviceType": "訪問介護",
    "capacity": 0,
    "openDays": [
      "平日",
      "土曜日",
      "日曜日",
      "祝日"
    ],
    "openDaysNote": "電話等により、２４時間常時連絡が可能な体制とします。"
  },
  {
    "id": "3270801198",
    "name": "むすび",
    "kana": "ムスビ",
    "address": "乙吉町イ342-1第１ビル107",
    "lat": 34.6786953948462,
    "lng": 131.84644077791,
    "tel": "0856-25-7740",
    "url": "",
    "pref": "島根県",
    "city": "益田市",
    "category": "home_help",
    "serviceType": "訪問介護",
    "capacity": null,
    "openDays": [
      "平日"
    ],
    "openDaysNote": ""
  },
  {
    "id": "3270800893",
    "name": "益田ヘルパーステーションさくらんぼ",
    "kana": "マスダヘルパーステーションサクランボ",
    "address": "島根県益田市駅前町3-19",
    "lat": 34.6754944518007,
    "lng": 131.842833826292,
    "tel": "0856-23-3408",
    "url": "http://r.goope.jp/sakuranbo",
    "pref": "島根県",
    "city": "益田市",
    "category": "home_help",
    "serviceType": "訪問介護",
    "capacity": null,
    "openDays": [
      "平日",
      "土曜日",
      "日曜日",
      "祝日"
    ],
    "openDaysNote": "利用者様の状態により、営業時間外の訪問も行います。"
  },
  {
    "id": "3270800166",
    "name": "益田市社会福祉協議会指定訪問介護事業所",
    "kana": "マスダシシャカイフクシキョウギカイシテイホウモンカイゴジギョウショ",
    "address": "益田市須子町3番1号",
    "lat": 34.6796970761637,
    "lng": 131.83118729577,
    "tel": "0856-22-7256",
    "url": "http://masuda-shakyou.or.jp/",
    "pref": "島根県",
    "city": "益田市",
    "category": "home_help",
    "serviceType": "訪問介護",
    "capacity": 160,
    "openDays": [
      "平日",
      "土曜日",
      "日曜日",
      "祝日"
    ],
    "openDaysNote": "なし"
  },
  {
    "id": "3270800216",
    "name": "社会福祉法人西益田福祉会清流苑訪問介護事業所",
    "kana": "ニシマスダフクシカイセイリュウエンホウモンカイゴジギョウショ",
    "address": "島根県益田市神田町イ197-2",
    "lat": 34.6111849,
    "lng": 131.7989761,
    "tel": "0856-25-1666",
    "url": "http://www.seiryuen-care.jp/",
    "pref": "島根県",
    "city": "益田市",
    "category": "home_help",
    "serviceType": "訪問介護",
    "capacity": 0,
    "openDays": [
      "平日",
      "土曜日",
      "日曜日",
      "祝日"
    ],
    "openDaysNote": "電話等により、24時間常時連絡が可能な体制となっている。"
  },
  {
    "id": "3272000088",
    "name": "美都町ホームヘルパーステーション",
    "kana": "ミトチョウホームヘルパーステーション",
    "address": "益田市美都町都茂1871番地9美寿苑内 美寿苑内",
    "lat": 34.6666874,
    "lng": 131.9835996,
    "tel": "0856-52-3203",
    "url": "http://masuda-shakyou.or.jp",
    "pref": "島根県",
    "city": "益田市",
    "category": "home_help",
    "serviceType": "訪問介護",
    "capacity": 0,
    "openDays": [
      "平日",
      "土曜日",
      "日曜日",
      "祝日"
    ],
    "openDaysNote": "電話等により24時間常時連絡が可能な体制をする"
  },
  {
    "id": "3270801149",
    "name": "訪問介護むすび",
    "kana": "ホウモンカイゴムスビ",
    "address": "島根県益田市乙吉町イ342-1第一ビル206 第一ビル206",
    "lat": 34.6786022,
    "lng": 131.8464946,
    "tel": "0856-32-3000",
    "url": "",
    "pref": "島根県",
    "city": "益田市",
    "category": "home_help",
    "serviceType": "訪問介護",
    "capacity": null,
    "openDays": [
      "平日",
      "土曜日",
      "日曜日",
      "祝日"
    ],
    "openDaysNote": "他の時間帯は相談しながら実施。"
  },
  {
    "id": "3271300059",
    "name": "ヘルパーステーション　たんぽぽ",
    "kana": "ヘルパーステーション　タンポポ",
    "address": "奥出雲町稲原57番地6",
    "lat": 35.1758698,
    "lng": 133.0978522,
    "tel": "0854-52-2940",
    "url": "http://www.yokota.or.jp",
    "pref": "島根県",
    "city": "奥出雲町",
    "category": "home_help",
    "serviceType": "訪問介護",
    "capacity": 0,
    "openDays": [
      "平日"
    ],
    "openDaysNote": "なし。"
  },
  {
    "id": "3271300109",
    "name": "仁多ヘルパーステーション",
    "kana": "ニタヘルパーステーション",
    "address": "奥出雲町三成226番地",
    "lat": 35.1990182,
    "lng": 133.000357,
    "tel": "0854-54-2200",
    "url": "http://www.nitafukushikai.or.jp",
    "pref": "島根県",
    "city": "奥出雲町",
    "category": "home_help",
    "serviceType": "訪問介護",
    "capacity": 30,
    "openDays": [
      "平日",
      "土曜日",
      "日曜日",
      "祝日"
    ],
    "openDaysNote": "電話での相談は可能です。"
  },
  {
    "id": "3272200076",
    "name": "社会福祉法人海士町社会福祉協議会",
    "kana": "シャカイフクシホウジンアマチョウシャカイフクシキョウギカイ",
    "address": "海士町大字海士3969-1海士町保健福祉センターひまわり内 海士町保健福祉センターひまわり内",
    "lat": 36.0986543,
    "lng": 133.0947591,
    "tel": "08514-2-0010",
    "url": "http://www.amasyakyo.com",
    "pref": "島根県",
    "city": "海士町",
    "category": "home_help",
    "serviceType": "訪問介護",
    "capacity": 0,
    "openDays": [
      "平日",
      "土曜日",
      "日曜日",
      "祝日"
    ],
    "openDaysNote": ""
  },
  {
    "id": "3272100128",
    "name": "吉賀町ホームヘルパーステーション",
    "kana": "ヨシカチョウホームヘルパーステーション",
    "address": "島根県鹿足郡吉賀町六日市580-4福祉センター 福祉センター",
    "lat": 34.3549223,
    "lng": 131.9374783,
    "tel": "0856-77-0995",
    "url": "help0995@yoshika-shakyo.jp",
    "pref": "島根県",
    "city": "吉賀町",
    "category": "home_help",
    "serviceType": "訪問介護",
    "capacity": 0,
    "openDays": [
      "平日",
      "土曜日",
      "日曜日",
      "祝日"
    ],
    "openDaysNote": "なし"
  },
  {
    "id": "3270600384",
    "name": "ケアパートナー　楽生",
    "kana": "ケアパートナー　ラクイキ",
    "address": "江津市都野津町2393-4",
    "lat": 34.986931,
    "lng": 132.1851231,
    "tel": "0855-54-3180",
    "url": "",
    "pref": "島根県",
    "city": "江津市",
    "category": "home_help",
    "serviceType": "訪問介護",
    "capacity": 0,
    "openDays": [
      "平日",
      "土曜日",
      "祝日"
    ],
    "openDaysNote": "早朝・延長等相談に応じます。"
  },
  {
    "id": "3270600590",
    "name": "ながれぼし江津",
    "kana": "ナガレボシゴウツ",
    "address": "都野津町2363-7",
    "lat": 34.986423,
    "lng": 132.1884224,
    "tel": "0855-52-7614",
    "url": "https://choraku.co.jp",
    "pref": "島根県",
    "city": "江津市",
    "category": "home_help",
    "serviceType": "訪問介護",
    "capacity": null,
    "openDays": [
      "平日",
      "祝日"
    ],
    "openDaysNote": "時間については、応相談。"
  },
  {
    "id": "3270600095",
    "name": "ヘルパーステーション　合歓の郷",
    "kana": "ヘルパーステーション　ネムノサト",
    "address": "江津市後地町821番地",
    "lat": 35.0376203,
    "lng": 132.3010733,
    "tel": "0855-55-3131",
    "url": "http://www.hana-mura.net",
    "pref": "島根県",
    "city": "江津市",
    "category": "home_help",
    "serviceType": "訪問介護",
    "capacity": 100,
    "openDays": [
      "平日",
      "土曜日",
      "日曜日",
      "祝日"
    ],
    "openDaysNote": "なし"
  },
  {
    "id": "3270600277",
    "name": "よろこぼう屋ヘルパーズ",
    "kana": "ヨロコボウヤヘルパーズ",
    "address": "江津市和木町1173-3",
    "lat": 35.0044653154923,
    "lng": 132.203089461516,
    "tel": "0855-52-0817",
    "url": "http://www.yorokobouya.jp/",
    "pref": "島根県",
    "city": "江津市",
    "category": "home_help",
    "serviceType": "訪問介護",
    "capacity": 5,
    "openDays": [
      "平日",
      "土曜日",
      "日曜日",
      "祝日"
    ],
    "openDaysNote": "なし。"
  },
  {
    "id": "3270600137",
    "name": "青山ヘルパーステーション",
    "kana": "アオヤマヘルパーステーション",
    "address": "江津市二宮町神主1964番地31",
    "lat": 34.9764742598434,
    "lng": 132.185426469312,
    "tel": "0855-54-3140",
    "url": "http://www.iwamifukushikai.or.jp/",
    "pref": "島根県",
    "city": "江津市",
    "category": "home_help",
    "serviceType": "訪問介護",
    "capacity": 0,
    "openDays": [
      "平日",
      "土曜日",
      "日曜日",
      "祝日"
    ],
    "openDaysNote": "必要に応じ24時間の対応も可能。"
  },
  {
    "id": "3270690013",
    "name": "白寿園",
    "kana": "ハクジュエン",
    "address": "江津市江津町1110",
    "lat": 35.0132312,
    "lng": 132.2177278,
    "tel": "0855-52-0006",
    "url": "http://hakujyuen.jp",
    "pref": "島根県",
    "city": "江津市",
    "category": "home_help",
    "serviceType": "訪問介護",
    "capacity": 0,
    "openDays": [
      "平日",
      "土曜日",
      "日曜日",
      "祝日"
    ],
    "openDaysNote": "利用者の要望があれば、午前7時00分から午前8時00分及び午後6時00分から午後7時00分の間訪問介護のサービスを提供することができる。"
  },
  {
    "id": "3271800330",
    "name": "訪問介護センターさくらえ",
    "kana": "ホウモンカイゴセンターサクラエ",
    "address": "江津市桜江町小田138番地1社会福祉法人桜江福祉会　　桜寿園 社会福祉法人桜江福祉会　　桜寿園",
    "lat": 34.9503748,
    "lng": 132.3297357,
    "tel": "0855-92-1441",
    "url": "",
    "pref": "島根県",
    "city": "江津市",
    "category": "home_help",
    "serviceType": "訪問介護",
    "capacity": 0,
    "openDays": [
      "平日",
      "土曜日",
      "日曜日",
      "祝日"
    ],
    "openDaysNote": "1月1日～1月3日は不可"
  },
  {
    "id": "3270600558",
    "name": "訪問介護事業所　SmileGardenつのづ",
    "kana": "ホウモンカイゴジギョウショ　スマイルガーデンツノヅ",
    "address": "島根県江津市都野津町2372‐6",
    "lat": 34.9846812,
    "lng": 132.1841816,
    "tel": "0855‐52‐7222",
    "url": "http://smilegarden-tsunodu.com/",
    "pref": "島根県",
    "city": "江津市",
    "category": "home_help",
    "serviceType": "訪問介護",
    "capacity": 0,
    "openDays": [
      "平日",
      "土曜日",
      "日曜日",
      "祝日"
    ],
    "openDaysNote": "24時間対応可能"
  },
  {
    "id": "3210610857",
    "name": "訪問介護事業所　むりょうじゅ",
    "kana": "ホウモンカイゴジギョウショ　ムリョウジュ",
    "address": "島根県江津市敬川町２９６番地６グランエスポワールむりょうじゅ グランエスポワールむりょうじゅ",
    "lat": 34.9706768,
    "lng": 132.171092,
    "tel": "０８５５－５３－１１２１",
    "url": "https://www.muryoujyu.jp",
    "pref": "島根県",
    "city": "江津市",
    "category": "home_help",
    "serviceType": "訪問介護",
    "capacity": null,
    "openDays": [
      "平日",
      "土曜日",
      "日曜日",
      "祝日"
    ],
    "openDaysNote": "特になし"
  },
  {
    "id": "3270600327",
    "name": "有福ホームヘルパーステーション",
    "kana": "アリフクホームヘルパーステーション",
    "address": "島根県江津市有福温泉町546",
    "lat": 34.9450495,
    "lng": 132.198428,
    "tel": "0855-56-0234",
    "url": "http://www.arifuku-home.jp/",
    "pref": "島根県",
    "city": "江津市",
    "category": "home_help",
    "serviceType": "訪問介護",
    "capacity": 0,
    "openDays": [
      "平日",
      "土曜日",
      "日曜日",
      "祝日"
    ],
    "openDaysNote": "なし"
  },
  {
    "id": "3270400496",
    "name": "CSいずも訪問介護事業所",
    "kana": "シーエスイズモホウモンカイゴジギョウショ",
    "address": "出雲市大津朝倉3-10-3",
    "lat": 35.3759668028705,
    "lng": 132.761004928183,
    "tel": "0853-31-4165",
    "url": "cs-izumo.jp",
    "pref": "島根県",
    "city": "出雲市",
    "category": "home_help",
    "serviceType": "訪問介護",
    "capacity": 0,
    "openDays": [
      "平日",
      "土曜日",
      "日曜日",
      "祝日"
    ],
    "openDaysNote": "なし"
  },
  {
    "id": "3270403136",
    "name": "CSいずも訪問介護事業所碧",
    "kana": "シーエスイズモホウモンカイゴジギョウショアオイ",
    "address": "島根県出雲市大社町入南80-1",
    "lat": 35.3911408708858,
    "lng": 132.718793247478,
    "tel": "0853-31-7010",
    "url": "http://cs-izumo.jp/",
    "pref": "島根県",
    "city": "出雲市",
    "category": "home_help",
    "serviceType": "訪問介護",
    "capacity": 0,
    "openDays": [
      "平日",
      "土曜日",
      "日曜日",
      "祝日"
    ],
    "openDaysNote": "なし"
  },
  {
    "id": "3270402591",
    "name": "ＪＡしまね斐川介護センター",
    "kana": "ジェイエイシマネヒカワカイゴセンター",
    "address": "島根県出雲市斐川町荘原2172番地3",
    "lat": 35.3933681301143,
    "lng": 132.844318598811,
    "tel": "0853-73-9635",
    "url": "http://ja-shimane.jp/",
    "pref": "島根県",
    "city": "出雲市",
    "category": "home_help",
    "serviceType": "訪問介護",
    "capacity": 0,
    "openDays": [
      "平日",
      "土曜日",
      "日曜日",
      "祝日"
    ],
    "openDaysNote": ""
  },
  {
    "id": "3270300118",
    "name": "ＮＰＯ法人たすけあい平田",
    "kana": "エヌピーオーホウジンタスケアイヒラタ",
    "address": "島根県出雲市西代町１０３２-４",
    "lat": 35.422256928604,
    "lng": 132.817986567151,
    "tel": "0853-62-0257",
    "url": "https://tasukeai-hirata.jp",
    "pref": "島根県",
    "city": "出雲市",
    "category": "home_help",
    "serviceType": "訪問介護",
    "capacity": 0,
    "openDays": [
      "平日",
      "土曜日"
    ],
    "openDaysNote": "営業時間外でも、希望に応じて対応（現在も土、日、夜間のサービス対応をしています。）"
  },
  {
    "id": "3270401486",
    "name": "あおぞら介護センター出雲",
    "kana": "アオゾラカイゴセンターイズモ",
    "address": "出雲市下古志町627-2",
    "lat": 35.3434847305988,
    "lng": 132.737312509787,
    "tel": "0853-22-0228",
    "url": "",
    "pref": "島根県",
    "city": "出雲市",
    "category": "home_help",
    "serviceType": "訪問介護",
    "capacity": 5,
    "openDays": [
      "平日",
      "土曜日",
      "日曜日",
      "祝日"
    ],
    "openDaysNote": "早朝・深夜の時間帯は、従業員の状況等で変動する場合があります。"
  },
  {
    "id": "3270402112",
    "name": "あんのんの里川跡",
    "kana": "アンノンノサトカワト",
    "address": "島根県出雲市荻杼町666-1",
    "lat": 35.3823587620922,
    "lng": 132.76328344418,
    "tel": "0853-31-4600",
    "url": "",
    "pref": "島根県",
    "city": "出雲市",
    "category": "home_help",
    "serviceType": "訪問介護",
    "capacity": 24,
    "openDays": [
      "平日",
      "土曜日",
      "日曜日",
      "祝日"
    ],
    "openDaysNote": ""
  },
  {
    "id": "3270403318",
    "name": "クレド訪問介護ステーション",
    "kana": "クレドホウモンカイゴステーション",
    "address": "島根県出雲市今市町北本町１丁目１番地セントラルビル２階 セントラルビル２階",
    "lat": 35.3682126091456,
    "lng": 132.75566901891,
    "tel": "0853-25-7234",
    "url": "http://hp.kaipoke.biz/hr1/169499/base_0003.html",
    "pref": "島根県",
    "city": "出雲市",
    "category": "home_help",
    "serviceType": "訪問介護",
    "capacity": 0,
    "openDays": [
      "平日",
      "土曜日",
      "日曜日",
      "祝日"
    ],
    "openDaysNote": "緊急の場合は、電話等により24時間常時連絡が可能な体制をとるものとします。"
  },
  {
    "id": "3270402054",
    "name": "ケア・ステーション　ピース",
    "kana": "ケア・ステーション　ピース",
    "address": "出雲市塩冶町2078-1A102号ララポート ララポート",
    "lat": 35.3546639661447,
    "lng": 132.745993343764,
    "tel": "０８５３－２５－７９１９",
    "url": "http://www13.plala.or.jp/hidamarisou/",
    "pref": "島根県",
    "city": "出雲市",
    "category": "home_help",
    "serviceType": "訪問介護",
    "capacity": 19,
    "openDays": [
      "平日",
      "祝日"
    ],
    "openDaysNote": "相談要"
  },
  {
    "id": "3270400652",
    "name": "ケアサポートやわらぎ",
    "kana": "ケアサポートヤワラギ",
    "address": "島根県出雲市知井宮町1192-9",
    "lat": 35.3363505357972,
    "lng": 132.716886616568,
    "tel": "0853-21-4820",
    "url": "",
    "pref": "島根県",
    "city": "出雲市",
    "category": "home_help",
    "serviceType": "訪問介護",
    "capacity": 0,
    "openDays": [
      "平日",
      "土曜日",
      "日曜日",
      "祝日"
    ],
    "openDaysNote": "上記時間以外でも対応いたします。"
  },
  {
    "id": "3270403276",
    "name": "ケアステーションにこる",
    "kana": "ケアステーションニコル",
    "address": "島根県出雲市渡橋町100",
    "lat": 35.3698445,
    "lng": 132.7530808,
    "tel": "0853－27－9196",
    "url": "",
    "pref": "島根県",
    "city": "出雲市",
    "category": "home_help",
    "serviceType": "訪問介護",
    "capacity": null,
    "openDays": [
      "平日",
      "土曜日",
      "日曜日",
      "祝日"
    ],
    "openDaysNote": ""
  },
  {
    "id": "3270403284",
    "name": "けあビジョンホーム出雲訪問介護",
    "kana": "ケアビジョンホームイズモホウモンカイゴ",
    "address": "島根県出雲市斐川町荘原2320-1",
    "lat": 35.4011228,
    "lng": 132.8609321,
    "tel": "0853-73-7111",
    "url": "",
    "pref": "島根県",
    "city": "出雲市",
    "category": "home_help",
    "serviceType": "訪問介護",
    "capacity": null,
    "openDays": [
      "平日"
    ],
    "openDaysNote": ""
  },
  {
    "id": "3270402831",
    "name": "こうじや訪問介護事業所",
    "kana": "コウジヤホウモンカイゴジギョウショ",
    "address": "島根県出雲市平田町7429",
    "lat": 53.41291,
    "lng": -8.24388999999996,
    "tel": "0853-31-4829",
    "url": "",
    "pref": "島根県",
    "city": "出雲市",
    "category": "home_help",
    "serviceType": "訪問介護",
    "capacity": 0,
    "openDays": [
      "平日",
      "土曜日",
      "日曜日",
      "祝日"
    ],
    "openDaysNote": "365日24時間対応"
  },
  {
    "id": "3270403219",
    "name": "こころねヘルパーステーション塩冶有原町",
    "kana": "ココロネヘルパーステーションエンヤアリハラチョウ",
    "address": "島根県出雲市塩冶有原町5丁目61番地シニアコート塩冶有原町 シニアコート塩冶有原町",
    "lat": 35.358062,
    "lng": 132.7460888,
    "tel": "0853-27-9156",
    "url": "",
    "pref": "島根県",
    "city": "出雲市",
    "category": "home_help",
    "serviceType": "訪問介護",
    "capacity": null,
    "openDays": [
      "平日",
      "土曜日",
      "日曜日",
      "祝日"
    ],
    "openDaysNote": ""
  },
  {
    "id": "32A0400028",
    "name": "こころねヘルパーステーション今市町",
    "kana": "ココロネヘルパーステーションイマイチチョウ",
    "address": "島根県出雲市今市町330-5シニアコート今市町・１階 シニアコート今市町・１階",
    "lat": 35.367504,
    "lng": 132.7609223,
    "tel": "0853-25-7911",
    "url": "",
    "pref": "島根県",
    "city": "出雲市",
    "category": "home_help",
    "serviceType": "訪問介護",
    "capacity": 65,
    "openDays": [
      "平日",
      "土曜日",
      "日曜日",
      "祝日"
    ],
    "openDaysNote": ""
  },
  {
    "id": "3270403391",
    "name": "こころねヘルパーステーション小山町",
    "kana": "ココロネヘルパーステーションオヤマチョウ",
    "address": "出雲市小山町503-1",
    "lat": 35.3759721478201,
    "lng": 132.743868135375,
    "tel": "0853-31-5563",
    "url": "https://region-design.co.jp/search/contents/oyama-ss/index.html#pic",
    "pref": "島根県",
    "city": "出雲市",
    "category": "home_help",
    "serviceType": "訪問介護",
    "capacity": null,
    "openDays": [
      "平日",
      "土曜日",
      "日曜日",
      "祝日"
    ],
    "openDaysNote": ""
  },
  {
    "id": "3270402849",
    "name": "こころねヘルパーステーション大津新崎",
    "kana": "ココロネヘルパーステーションオオツシンザキ",
    "address": "島根県出雲市大津新崎町3丁目18番地サービス付き高齢者住宅シニアステージ大津新崎内に併設 サービス付き高齢者住宅シニアステージ大津新崎内に併設",
    "lat": 35.3700352,
    "lng": 132.7702351,
    "tel": "0853-31-8112",
    "url": "",
    "pref": "島根県",
    "city": "出雲市",
    "category": "home_help",
    "serviceType": "訪問介護",
    "capacity": 0,
    "openDays": [
      "平日",
      "土曜日",
      "日曜日",
      "祝日"
    ],
    "openDaysNote": ""
  },
  {
    "id": "3270402211",
    "name": "こころねヘルパーステーション渡橋町",
    "kana": "ココロネヘルパーステーションワタリハシチョウ",
    "address": "島根県出雲市渡橋町346番地シニアコート渡橋町 シニアコート渡橋町",
    "lat": 35.3688022051448,
    "lng": 132.746705757633,
    "tel": "0853-25-8039",
    "url": "http://medicalcare-westjapan.jp/elderly/seniorwatarihashi.html",
    "pref": "島根県",
    "city": "出雲市",
    "category": "home_help",
    "serviceType": "訪問介護",
    "capacity": 77,
    "openDays": [
      "平日",
      "土曜日",
      "日曜日",
      "祝日"
    ],
    "openDaysNote": ""
  },
  {
    "id": "3270400454",
    "name": "サンキ・ウエルビィ介護センター出雲",
    "kana": "サンキ・ウエルビィカイゴセンターイズモ",
    "address": "島根県出雲市浜町96-1",
    "lat": 35.3767529372684,
    "lng": 132.726901027935,
    "tel": "0853-20-7495",
    "url": "",
    "pref": "島根県",
    "city": "出雲市",
    "category": "home_help",
    "serviceType": "訪問介護",
    "capacity": 100,
    "openDays": [
      "平日",
      "土曜日",
      "日曜日",
      "祝日"
    ],
    "openDaysNote": "ただし、ケアプランに沿ったサービス提供とする。"
  },
  {
    "id": "3270402401",
    "name": "デイサービス金太郎の家（訪問介護）",
    "kana": "デイサービスキンタロウノイエ",
    "address": "島根県出雲市斐川町学頭1510番地2",
    "lat": 35.3900865632797,
    "lng": 132.872233260763,
    "tel": "0853-31-4832",
    "url": "http://www.kintarounoie.jp/",
    "pref": "島根県",
    "city": "出雲市",
    "category": "home_help",
    "serviceType": "訪問介護",
    "capacity": 0,
    "openDays": [
      "平日",
      "土曜日",
      "祝日"
    ],
    "openDaysNote": "ご利用者の要望がある場合には上記時間外もご相談ください。"
  },
  {
    "id": "3270402872",
    "name": "ナカヤ寿楽訪問介護事業所",
    "kana": "ナカヤジュラクホウモンカイゴジギョウショ",
    "address": "島根県出雲市松寄下町212-3サンフラワー101号室 サンフラワー101号室",
    "lat": 35.3690891496457,
    "lng": 132.726531801705,
    "tel": "070-7564-3711",
    "url": "http://nakaya-juraku.jp",
    "pref": "島根県",
    "city": "出雲市",
    "category": "home_help",
    "serviceType": "訪問介護",
    "capacity": 0,
    "openDays": [
      "平日",
      "土曜日",
      "日曜日",
      "祝日"
    ],
    "openDaysNote": ""
  },
  {
    "id": "3270402070",
    "name": "ﾆﾁｲｹｱｾﾝﾀｰ出雲みなみ",
    "kana": "ニチイケアセンターイズモミナミ",
    "address": "島根県出雲市天神町869番地天神ﾋﾞﾙ3Ｆ　303号室 天神ﾋﾞﾙ3Ｆ　303号室",
    "lat": 35.3528115,
    "lng": 132.7448467,
    "tel": "0853-24-7671",
    "url": "http://www.nichiigakkan.co.jp",
    "pref": "島根県",
    "city": "出雲市",
    "category": "home_help",
    "serviceType": "訪問介護",
    "capacity": 0,
    "openDays": [
      "平日",
      "土曜日",
      "日曜日",
      "祝日"
    ],
    "openDaysNote": "なし"
  },
  {
    "id": "3270400199",
    "name": "ニチイケアセンター出雲",
    "kana": "ニチイケアセンターイズモ",
    "address": "出雲市大津朝倉3丁目4-5",
    "lat": 35.3766563,
    "lng": 132.7591888,
    "tel": "0853-20-7377",
    "url": "http://www.nichiigakkan.co.jp",
    "pref": "島根県",
    "city": "出雲市",
    "category": "home_help",
    "serviceType": "訪問介護",
    "capacity": 0,
    "openDays": [
      "平日",
      "土曜日",
      "日曜日",
      "祝日"
    ],
    "openDaysNote": "居宅サービス計画により営業時間以外でもサービス提供を行う場合がある。"
  },
  {
    "id": "3270403128",
    "name": "ニチイケアセンター斐川",
    "kana": "ニチイケアセンターヒカワ",
    "address": "島根県出雲市斐川町直江4914-7小澤ビル2Ｆ東 小澤ビル2Ｆ東",
    "lat": 35.3907407,
    "lng": 132.8235495,
    "tel": "0853-73-7025",
    "url": "http://www.nichiigakkan.co,jp",
    "pref": "島根県",
    "city": "出雲市",
    "category": "home_help",
    "serviceType": "訪問介護",
    "capacity": 0,
    "openDays": [
      "平日",
      "土曜日",
      "日曜日",
      "祝日"
    ],
    "openDaysNote": "なし"
  },
  {
    "id": "3271600375",
    "name": "ひかわ生協ヘルパーステーション　あおぞら",
    "kana": "ヒカワセイキョウヘルパーステーション　アオゾラ",
    "address": "島根県出雲市斐川町美南1505番地1",
    "lat": 35.3936325995081,
    "lng": 132.823500996959,
    "tel": "0853-73-3555",
    "url": "http://www.hikawa-hp.com",
    "pref": "島根県",
    "city": "出雲市",
    "category": "home_help",
    "serviceType": "訪問介護",
    "capacity": 40,
    "openDays": [
      "平日",
      "土曜日",
      "日曜日",
      "祝日"
    ],
    "openDaysNote": "電話等により、24時間常時連絡が可能な体制とする"
  },
  {
    "id": "3270400272",
    "name": "ひまわり園ホームヘルプステーション",
    "kana": "ヒマワリエンホームヘルプステーション",
    "address": "出雲市神西沖町2513-8",
    "lat": 35.3368256,
    "lng": 132.6813928,
    "tel": "0853-43-3528",
    "url": "",
    "pref": "島根県",
    "city": "出雲市",
    "category": "home_help",
    "serviceType": "訪問介護",
    "capacity": 0,
    "openDays": [
      "平日",
      "土曜日",
      "祝日"
    ],
    "openDaysNote": "なし"
  },
  {
    "id": "3270400918",
    "name": "ふれあいサービスごうばら訪問介護事業所",
    "kana": "フレアイサービスゴウバラホウモンカイゴジギョウショ",
    "address": "出雲市平田町1816-15",
    "lat": 35.4281302613603,
    "lng": 132.817085058785,
    "tel": "0853-62-9901",
    "url": "",
    "pref": "島根県",
    "city": "出雲市",
    "category": "home_help",
    "serviceType": "訪問介護",
    "capacity": 0,
    "openDays": [
      "平日",
      "土曜日",
      "日曜日",
      "祝日"
    ],
    "openDaysNote": "なし"
  },
  {
    "id": "3270402930",
    "name": "ヘルパーステーション　ひまり",
    "kana": "ヘルパーステーション　ヒマリ",
    "address": "島根県出雲市馬木町２２４－１",
    "lat": 35.3331756,
    "lng": 132.7658145,
    "tel": "０８５３－４８－９０５８",
    "url": "",
    "pref": "島根県",
    "city": "出雲市",
    "category": "home_help",
    "serviceType": "訪問介護",
    "capacity": null,
    "openDays": [
      "平日",
      "土曜日",
      "日曜日",
      "祝日"
    ],
    "openDaysNote": "緊急時訪問の対応可"
  },
  {
    "id": "3271600276",
    "name": "ヘルパーステーション　ふるさと苑",
    "kana": "ヘルパーステーション　フルサトエン",
    "address": "出雲市大社町中荒木1745-2",
    "lat": 35.3792909,
    "lng": 132.6873427,
    "tel": "0853-53-6703",
    "url": "https://www.sunlight.or.jp",
    "pref": "島根県",
    "city": "出雲市",
    "category": "home_help",
    "serviceType": "訪問介護",
    "capacity": 0,
    "openDays": [
      "平日",
      "土曜日",
      "日曜日",
      "祝日"
    ],
    "openDaysNote": "なし"
  },
  {
    "id": "3270401726",
    "name": "ヘルパーステーションすずらん",
    "kana": "ヘルパーステーションスズラン",
    "address": "島根県出雲市塩冶神前６丁目１番８号Ａ－１０２",
    "lat": 35.3483096,
    "lng": 132.7583289,
    "tel": "0853-24-7717",
    "url": "",
    "pref": "島根県",
    "city": "出雲市",
    "category": "home_help",
    "serviceType": "訪問介護",
    "capacity": 0,
    "openDays": [
      "平日",
      "土曜日",
      "日曜日",
      "祝日"
    ],
    "openDaysNote": "上記の時間の他、電話等により２４時間連絡が可能な体制とします。"
  },
  {
    "id": "3270403268",
    "name": "ヘルパーステーションパーパス",
    "kana": "ヘルパーステーションパーパス",
    "address": "出雲市姫原2-3-13かねつきマンション102 かねつきマンション102",
    "lat": 35.3722604,
    "lng": 132.7569819,
    "tel": "0853-25-7835",
    "url": "https://pur-pose.jp/",
    "pref": "島根県",
    "city": "出雲市",
    "category": "home_help",
    "serviceType": "訪問介護",
    "capacity": 0,
    "openDays": [
      "平日",
      "土曜日",
      "日曜日",
      "祝日"
    ],
    "openDaysNote": ""
  },
  {
    "id": "3270403151",
    "name": "ヘルパステーション花鈴",
    "kana": "ヘルパーステーションカリン",
    "address": "島根県出雲市美野町504",
    "lat": 35.4625903,
    "lng": 132.9003841,
    "tel": "0583-67-0222",
    "url": "http://inohonjin.jp/",
    "pref": "島根県",
    "city": "出雲市",
    "category": "home_help",
    "serviceType": "訪問介護",
    "capacity": 0,
    "openDays": [
      "平日"
    ],
    "openDaysNote": "定休日は設けていますが、利用者の要望や状態に応じて対応できる場合もあり。"
  },
  {
    "id": "3271600045",
    "name": "みどりの郷湖陵",
    "kana": "ミドリノサトコリョウ",
    "address": "出雲市湖陵町三部1231-1",
    "lat": 35.3166586,
    "lng": 132.6740526,
    "tel": "0853-43-3930",
    "url": "",
    "pref": "島根県",
    "city": "出雲市",
    "category": "home_help",
    "serviceType": "訪問介護",
    "capacity": 0,
    "openDays": [
      "平日",
      "土曜日",
      "日曜日",
      "祝日"
    ],
    "openDaysNote": "３６５日24時間"
  },
  {
    "id": "3270400157",
    "name": "みどりの郷出雲",
    "kana": "ミドリノサトイズモ",
    "address": "出雲市所原町2715-1",
    "lat": 35.2988943,
    "lng": 132.7618015,
    "tel": "0853-48-2300",
    "url": "",
    "pref": "島根県",
    "city": "出雲市",
    "category": "home_help",
    "serviceType": "訪問介護",
    "capacity": null,
    "openDays": [
      "平日",
      "土曜日",
      "日曜日",
      "祝日"
    ],
    "openDaysNote": "なし"
  },
  {
    "id": "3270400991",
    "name": "みどりの郷大社",
    "kana": "ミドリノサトタイシャ",
    "address": "出雲市大社町北荒木483",
    "lat": 35.3877202671804,
    "lng": 132.689042400594,
    "tel": "0853-53-1333",
    "url": "http://jaizumo-fukushikai.jp",
    "pref": "島根県",
    "city": "出雲市",
    "category": "home_help",
    "serviceType": "訪問介護",
    "capacity": 0,
    "openDays": [
      "平日",
      "土曜日",
      "日曜日",
      "祝日"
    ],
    "openDaysNote": "なし"
  },
  {
    "id": "3270300126",
    "name": "みどりの郷平田",
    "kana": "ミドリノサトヒラタ",
    "address": "出雲市平田町２３０８番地９",
    "lat": 35.434715,
    "lng": 132.8248379,
    "tel": "0853-62-9060",
    "url": "http://www.jaizumo.or.jp/welfare",
    "pref": "島根県",
    "city": "出雲市",
    "category": "home_help",
    "serviceType": "訪問介護",
    "capacity": 0,
    "openDays": [
      "平日",
      "土曜日",
      "日曜日",
      "祝日"
    ],
    "openDaysNote": "なし"
  },
  {
    "id": "3270401346",
    "name": "やまゆり訪問介護事業所",
    "kana": "ヤマユリホウモンカイゴジギョウショ",
    "address": "島根県出雲市佐田町一窪田1961-5",
    "lat": 35.2339983068286,
    "lng": 132.671508787273,
    "tel": "0853-85-8006",
    "url": "http://www.izumo-yamayuri.or.jp",
    "pref": "島根県",
    "city": "出雲市",
    "category": "home_help",
    "serviceType": "訪問介護",
    "capacity": 0,
    "openDays": [
      "平日",
      "土曜日",
      "日曜日",
      "祝日"
    ],
    "openDaysNote": "24時間対応"
  },
  {
    "id": "3270402153",
    "name": "ライラック訪問介護事業所",
    "kana": "ライラックホウモンカイゴジギョウショ",
    "address": "島根県出雲市中野町757-3",
    "lat": 35.3752123,
    "lng": 132.7696461,
    "tel": "0853-24-7570",
    "url": "",
    "pref": "島根県",
    "city": "出雲市",
    "category": "home_help",
    "serviceType": "訪問介護",
    "capacity": 0,
    "openDays": [
      "平日",
      "土曜日",
      "日曜日",
      "祝日"
    ],
    "openDaysNote": ""
  },
  {
    "id": "3270401569",
    "name": "花水木",
    "kana": "ハナミズキ",
    "address": "島根県出雲市灘分町７８６番地１",
    "lat": 35.4308758730949,
    "lng": 132.825219235613,
    "tel": "0853-63-5031",
    "url": "",
    "pref": "島根県",
    "city": "出雲市",
    "category": "home_help",
    "serviceType": "訪問介護",
    "capacity": 0,
    "openDays": [
      "平日",
      "土曜日",
      "日曜日",
      "祝日"
    ],
    "openDaysNote": ""
  },
  {
    "id": "3270401593",
    "name": "介護ステーション　さくら",
    "kana": "カイゴステーション　サクラ",
    "address": "矢尾町２７３番地プライム有限会社内 プライム有限会社内",
    "lat": 35.3955927,
    "lng": 132.7409644,
    "tel": "0853-25-0021",
    "url": "http://prime-company.jp",
    "pref": "島根県",
    "city": "出雲市",
    "category": "home_help",
    "serviceType": "訪問介護",
    "capacity": 0,
    "openDays": [
      "平日",
      "土曜日",
      "日曜日",
      "祝日"
    ],
    "openDaysNote": ""
  },
  {
    "id": "3270402799",
    "name": "寿生訪問介護",
    "kana": "ジュセイホウモンカイゴ",
    "address": "島根県出雲市大津町3627番地22",
    "lat": 35.356562,
    "lng": 132.7761959,
    "tel": "0853-25-9222",
    "url": "https://www.izumo-minami.jp/",
    "pref": "島根県",
    "city": "出雲市",
    "category": "home_help",
    "serviceType": "訪問介護",
    "capacity": 0,
    "openDays": [
      "平日",
      "土曜日",
      "日曜日",
      "祝日"
    ],
    "openDaysNote": ""
  },
  {
    "id": "3270400793",
    "name": "出雲一畑交通指定訪問介護事業所",
    "kana": "イズモイチバタコウツウシテイホウモンカイゴジギョウショ",
    "address": "出雲市常松町353-3",
    "lat": 35.3874406,
    "lng": 132.7294937,
    "tel": "0853-21-1149",
    "url": "http://www.jchibata.co.jp/t-izumo",
    "pref": "島根県",
    "city": "出雲市",
    "category": "home_help",
    "serviceType": "訪問介護",
    "capacity": 0,
    "openDays": [
      "平日",
      "土曜日"
    ],
    "openDaysNote": "なし"
  },
  {
    "id": "3270400066",
    "name": "清流園訪問介護事業所",
    "kana": "セイリュウエンホウモンカイゴジギョウショ",
    "address": "出雲市大津町3529番地",
    "lat": 35.3592841,
    "lng": 132.7837394,
    "tel": "0853-21-6600",
    "url": "",
    "pref": "島根県",
    "city": "出雲市",
    "category": "home_help",
    "serviceType": "訪問介護",
    "capacity": 5,
    "openDays": [
      "平日",
      "土曜日",
      "日曜日",
      "祝日"
    ],
    "openDaysNote": "電話等により、24時間常時連絡が可能な体制とする。"
  },
  {
    "id": "3270402724",
    "name": "西出雲ヘルパーステーション",
    "kana": "ニシイズモヘルパーステーション",
    "address": "島根県　出雲市　東園町725-3サービス付き高齢者向け住宅ふりーぷらす東園内 サービス付き高齢者向け住宅ふりーぷらす東園内",
    "lat": 35.3532004381275,
    "lng": 132.705032590924,
    "tel": "0853-25-8781",
    "url": "",
    "pref": "島根県",
    "city": "出雲市",
    "category": "home_help",
    "serviceType": "訪問介護",
    "capacity": 0,
    "openDays": [
      "平日",
      "土曜日",
      "日曜日",
      "祝日"
    ],
    "openDaysNote": ""
  },
  {
    "id": "3270400116",
    "name": "第二ことぶき園訪問介護事業所",
    "kana": "ダイニコトブキエンホウモンカイゴジギョウショ",
    "address": "出雲市古志町2105－1",
    "lat": 35.3358834972411,
    "lng": 132.743613993105,
    "tel": "0853-20-2686",
    "url": "https://kotobuki1071.jimdofree.com",
    "pref": "島根県",
    "city": "出雲市",
    "category": "home_help",
    "serviceType": "訪問介護",
    "capacity": 0,
    "openDays": [
      "平日",
      "土曜日",
      "日曜日",
      "祝日"
    ],
    "openDaysNote": "24時間365日対応可能"
  },
  {
    "id": "3270402161",
    "name": "訪問介護　グッドライフ",
    "kana": "ホウモンカイゴ　グッドライフ",
    "address": "塩冶善行町14-3",
    "lat": 35.3582639,
    "lng": 132.7539041,
    "tel": "0853-27-9991",
    "url": "http://www.cosmos-izumo.jp",
    "pref": "島根県",
    "city": "出雲市",
    "category": "home_help",
    "serviceType": "訪問介護",
    "capacity": 0,
    "openDays": [
      "平日",
      "土曜日",
      "日曜日",
      "祝日"
    ],
    "openDaysNote": "住宅型有料老人ホーム併設の事業所であります。住宅型有料老人ホーム内のみではなく、市内の在宅への訪問も行っています。保険外ヘルパーでの対応もあり、幅広いニーズに対しての対応が可能な限り行える様に介護支援専門員との連携を図り調整しています。"
  },
  {
    "id": "3270403201",
    "name": "訪問介護ステーション　和ごころ　しまね",
    "kana": "ホウモンカイゴステーション　ワゴコロ　シマネ",
    "address": "島根県出雲市塩冶原町1丁目6-26ヴァイデⅡ203 ヴァイデⅡ203",
    "lat": 35.3484315,
    "lng": 132.7473861,
    "tel": "050-5211-2754",
    "url": "",
    "pref": "島根県",
    "city": "出雲市",
    "category": "home_help",
    "serviceType": "訪問介護",
    "capacity": null,
    "openDays": [
      "平日"
    ],
    "openDaysNote": ""
  },
  {
    "id": "3270402187",
    "name": "訪問介護ステーションはる",
    "kana": "ホウモンカイゴステーションハル",
    "address": "島根県出雲市大津町455-14",
    "lat": 35.3700688,
    "lng": 132.7791174,
    "tel": "0853-25-8065",
    "url": "http://hp.kaipoke.biz/lushlifeharu/",
    "pref": "島根県",
    "city": "出雲市",
    "category": "home_help",
    "serviceType": "訪問介護",
    "capacity": 5,
    "openDays": [
      "平日",
      "土曜日",
      "日曜日",
      "祝日"
    ],
    "openDaysNote": "ただし、利用者の希望に応じてサービス提供について対応します。"
  },
  {
    "id": "3270402922",
    "name": "訪問介護事業所　たんぽぽ",
    "kana": "ホウモンカイゴジギョウショ　タンポポ",
    "address": "荒茅町２７８０－２８",
    "lat": 35.3611294495876,
    "lng": 132.6999423,
    "tel": "０８５３－２８－３６６６",
    "url": "",
    "pref": "島根県",
    "city": "出雲市",
    "category": "home_help",
    "serviceType": "訪問介護",
    "capacity": 0,
    "openDays": [
      "平日",
      "土曜日",
      "日曜日",
      "祝日"
    ],
    "openDaysNote": ""
  },
  {
    "id": "3270402625",
    "name": "訪問介護事業所　わごころ",
    "kana": "ホウモンカイゴジギョウショ　ワゴコロ",
    "address": "島根県出雲市灘分町1064-8住宅型有料老人ホ－ム　一休庵 住宅型有料老人ホ－ム　一休庵",
    "lat": 35.4352261,
    "lng": 132.8295735,
    "tel": "0853-25-7636",
    "url": "",
    "pref": "島根県",
    "city": "出雲市",
    "category": "home_help",
    "serviceType": "訪問介護",
    "capacity": 0,
    "openDays": [
      "平日",
      "土曜日",
      "日曜日",
      "祝日"
    ],
    "openDaysNote": ""
  },
  {
    "id": "3270403409",
    "name": "訪問介護事業所バディ",
    "kana": "ホウモンカイゴジギョウショ　バディ",
    "address": "島根県出雲市斐川町鳥井691",
    "lat": 35.3953865,
    "lng": 132.792583,
    "tel": "0853-77-2433",
    "url": "",
    "pref": "島根県",
    "city": "出雲市",
    "category": "home_help",
    "serviceType": "訪問介護",
    "capacity": 0,
    "openDays": [
      "平日",
      "祝日"
    ],
    "openDaysNote": "但し、利用者の状況によってはこの限りではない。"
  },
  {
    "id": "3270402328",
    "name": "訪問介護事業所みずほの里",
    "kana": "ホウモンカイゴジギョウショミズホノサト",
    "address": "島根県出雲市灘分町239番地2",
    "lat": 35.4291696221203,
    "lng": 132.82982814841,
    "tel": "0853－31－4815",
    "url": "https://mizuhonoie.com",
    "pref": "島根県",
    "city": "出雲市",
    "category": "home_help",
    "serviceType": "訪問介護",
    "capacity": 0,
    "openDays": [
      "平日",
      "土曜日",
      "日曜日",
      "祝日"
    ],
    "openDaysNote": ""
  },
  {
    "id": "3270400769",
    "name": "有限会社　えるだー",
    "kana": "ユウゲンカイシャ　エルダー",
    "address": "出雲市駅南町3丁目12番地１",
    "lat": 35.3586695,
    "lng": 132.7578481,
    "tel": "0853-24-9688",
    "url": "elder-fa@icv.ne.jp",
    "pref": "島根県",
    "city": "出雲市",
    "category": "home_help",
    "serviceType": "訪問介護",
    "capacity": 3,
    "openDays": [
      "平日",
      "土曜日",
      "日曜日",
      "祝日"
    ],
    "openDaysNote": "なし"
  },
  {
    "id": "3270400165",
    "name": "有限会社　ケアサービス出雲",
    "kana": "ユウゲンガイシャ　ケアサービスイズモ",
    "address": "出雲市塩冶町980-3",
    "lat": 35.3549169241348,
    "lng": 132.755879895089,
    "tel": "0853-21-0986",
    "url": "https://care-service-izumo.biz",
    "pref": "島根県",
    "city": "出雲市",
    "category": "home_help",
    "serviceType": "訪問介護",
    "capacity": 0,
    "openDays": [
      "平日",
      "土曜日",
      "祝日"
    ],
    "openDaysNote": "介護サービスの提供曜日や時間はあくまでも目安であり、個々の利用者の要望等を踏まえ、訪問介護員の勤務体制の状況により、指定の時間外においても検討のうえ対応します。"
  },
  {
    "id": "3270400462",
    "name": "有限会社　谷本ハイヤー",
    "kana": "ユウゲンガイシャ　タニモトハイヤー",
    "address": "出雲市矢野町１２３－１",
    "lat": 35.378934910304,
    "lng": 132.743538042992,
    "tel": "0853-22-5411",
    "url": "http://www2.crosstalk.orjp/tanimoto/",
    "pref": "島根県",
    "city": "出雲市",
    "category": "home_help",
    "serviceType": "訪問介護",
    "capacity": 0,
    "openDays": [
      "平日",
      "土曜日",
      "日曜日",
      "祝日"
    ],
    "openDaysNote": "介護支援専門員の依頼があった場合に限り。（改行）（改行）またヘルパーの体制により対応出来ない場合もある。"
  },
  {
    "id": "3270102225",
    "name": "アースサポート松江",
    "kana": "アースサポートマツエ",
    "address": "島根県松江市古原町1丁目6番1号",
    "lat": 35.4456598,
    "lng": 133.0722211,
    "tel": "0852-28-6311",
    "url": "http://www.earthsupport.co.jp",
    "pref": "島根県",
    "city": "松江市",
    "category": "home_help",
    "serviceType": "訪問介護",
    "capacity": 0,
    "openDays": [
      "平日",
      "土曜日",
      "日曜日",
      "祝日"
    ],
    "openDaysNote": "年中無休"
  },
  {
    "id": "3270102266",
    "name": "いつつぼし",
    "kana": "イツツボシ",
    "address": "松江市法吉町５０番地１２",
    "lat": 35.4868382,
    "lng": 133.059479,
    "tel": "0852-25-5907",
    "url": "",
    "pref": "島根県",
    "city": "松江市",
    "category": "home_help",
    "serviceType": "訪問介護",
    "capacity": 0,
    "openDays": [
      "平日",
      "土曜日",
      "祝日"
    ],
    "openDaysNote": ""
  },
  {
    "id": "3270104452",
    "name": "カラフルヘルパーステーション",
    "kana": "カラフルヘルパーステーション",
    "address": "島根県松江市大輪町420番地40",
    "lat": 35.4793519,
    "lng": 133.059877,
    "tel": "0852-67-1008",
    "url": "http://www.houshinkai-s.or.jp",
    "pref": "島根県",
    "city": "松江市",
    "category": "home_help",
    "serviceType": "訪問介護",
    "capacity": null,
    "openDays": [
      "平日",
      "土曜日",
      "祝日"
    ],
    "openDaysNote": "上記以外でも、ご希望があれば相談に応じて対応します。"
  },
  {
    "id": "3270102183",
    "name": "ケア・サポート　コスモス",
    "kana": "ケア・サポート　コスモス",
    "address": "松江市上乃木2丁目7-17",
    "lat": 35.4505674,
    "lng": 133.0587747,
    "tel": "0852-24-1516",
    "url": "",
    "pref": "島根県",
    "city": "松江市",
    "category": "home_help",
    "serviceType": "訪問介護",
    "capacity": 0,
    "openDays": [
      "平日",
      "土曜日",
      "日曜日",
      "祝日"
    ],
    "openDaysNote": ""
  },
  {
    "id": "3270104445",
    "name": "ケアセンター　ポプリ",
    "kana": "ケアセンター　ポプリ",
    "address": "西川津町3080番地14",
    "lat": 35.4835122,
    "lng": 133.0789252,
    "tel": "0852-78-0179",
    "url": "https://carepopuri.com",
    "pref": "島根県",
    "city": "松江市",
    "category": "home_help",
    "serviceType": "訪問介護",
    "capacity": null,
    "openDays": [
      "平日",
      "土曜日",
      "日曜日",
      "祝日"
    ],
    "openDaysNote": ""
  },
  {
    "id": "3270104353",
    "name": "ケアセンター大空",
    "kana": "ケアセンターオオゾラ",
    "address": "島根県松江市下東川津町63-5リービングケアセンターひまわり リービングケアセンターひまわり",
    "lat": 35.4974516,
    "lng": 133.0823107,
    "tel": "0852-24-8501",
    "url": "http://www.tidori.org/",
    "pref": "島根県",
    "city": "松江市",
    "category": "home_help",
    "serviceType": "訪問介護",
    "capacity": 0,
    "openDays": [
      "平日",
      "土曜日",
      "日曜日",
      "祝日"
    ],
    "openDaysNote": "必要時は上記以外でも対応いたします。"
  },
  {
    "id": "3270102449",
    "name": "こころねヘルパーステーション",
    "kana": "ココロネヘルパーステーション",
    "address": "島根県松江市東朝日町３７番地１シニアコート東朝日町 シニアコート東朝日町",
    "lat": 35.4618665,
    "lng": 133.0731537,
    "tel": "0852-67-1566",
    "url": "https://region-design.co.jp/content/company.html",
    "pref": "島根県",
    "city": "松江市",
    "category": "home_help",
    "serviceType": "訪問介護",
    "capacity": 52,
    "openDays": [
      "平日",
      "土曜日",
      "日曜日",
      "祝日"
    ],
    "openDaysNote": "営業時間外のサービス提供については、必要に応じてサービスの提供を行う。"
  },
  {
    "id": "3270103082",
    "name": "こころねヘルパーステーション嫁島町",
    "kana": "ココロネヘルパーステーションヨメシマチョウ",
    "address": "松江市嫁島町11番5号シニアコート嫁島町 シニアコート嫁島町",
    "lat": 35.4502061,
    "lng": 133.0486007,
    "tel": "0852-25-5001",
    "url": "https://region-design.co.jp",
    "pref": "島根県",
    "city": "松江市",
    "category": "home_help",
    "serviceType": "訪問介護",
    "capacity": 70,
    "openDays": [
      "平日",
      "土曜日",
      "日曜日",
      "祝日"
    ],
    "openDaysNote": ""
  },
  {
    "id": "3270104015",
    "name": "こころねヘルパーステーション春日町",
    "kana": "ココロネヘルパーステーションカスガチョウ",
    "address": "島根県松江市春日町157番地4シニアコート春日町 シニアコート春日町",
    "lat": 35.4862183503115,
    "lng": 133.046676061501,
    "tel": "0852-67-1275",
    "url": "http://www.medicalcare-westjapan.jp/",
    "pref": "島根県",
    "city": "松江市",
    "category": "home_help",
    "serviceType": "訪問介護",
    "capacity": 0,
    "openDays": [
      "平日",
      "土曜日",
      "日曜日",
      "祝日"
    ],
    "openDaysNote": "早朝・夜間・深夜は必要に応じて対応します。"
  },
  {
    "id": "3270104320",
    "name": "こころねヘルパーステーション上乃木",
    "kana": "ココロネヘルパーステーションアゲノギ",
    "address": "上乃木七丁目2番22号シニアコート上乃木七丁目 シニアコート上乃木七丁目",
    "lat": 35.4462959,
    "lng": 133.0691867,
    "tel": "0852-67-7565",
    "url": "http://www.medicalcare-westjapan.jp/",
    "pref": "島根県",
    "city": "松江市",
    "category": "home_help",
    "serviceType": "訪問介護",
    "capacity": 0,
    "openDays": [
      "平日",
      "土曜日",
      "日曜日",
      "祝日"
    ],
    "openDaysNote": ""
  },
  {
    "id": "3270102670",
    "name": "こころねヘルパーステーション西津田",
    "kana": "ココロネヘルパーステーションニシツダ",
    "address": "松江市西津田３丁目１３－３",
    "lat": 35.4571282,
    "lng": 133.0805366,
    "tel": "０８５２－６７－２００３",
    "url": "http://www.medicalcare-westjapan.jp/",
    "pref": "島根県",
    "city": "松江市",
    "category": "home_help",
    "serviceType": "訪問介護",
    "capacity": 0,
    "openDays": [
      "平日",
      "土曜日",
      "日曜日",
      "祝日"
    ],
    "openDaysNote": "サービス計画により、休業日・営業時間外であってもサービスを提供する場合があります。（改行）早朝、夜間、深夜は割増料金がかかります。"
  },
  {
    "id": "3270103165",
    "name": "こころねヘルパーステーション石橋町",
    "kana": "ココロネヘルパーステーションイシバシチョウ",
    "address": "島根県松江市石橋町３１－１シニアコート石橋町 シニアコート石橋町",
    "lat": 35.4795568102073,
    "lng": 133.05596755582,
    "tel": "0852-67-1061",
    "url": "http://medicalcare-westjapan.jp/index.php",
    "pref": "島根県",
    "city": "松江市",
    "category": "home_help",
    "serviceType": "訪問介護",
    "capacity": 52,
    "openDays": [
      "平日",
      "土曜日",
      "日曜日",
      "祝日"
    ],
    "openDaysNote": "営業時間外のサービス提供については、必要に応じてサービスの提供を行う。"
  },
  {
    "id": "3270104346",
    "name": "こころねヘルパーステーション津田",
    "kana": "ココロネヘルパーステーションツダ",
    "address": "島根県松江市東津田町1080シニアステージ東津田 シニアステージ東津田",
    "lat": 35.4564598,
    "lng": 133.0872704,
    "tel": "0852-67-1501",
    "url": "http://www.medicalcare-westjapan.jp/",
    "pref": "島根県",
    "city": "松江市",
    "category": "home_help",
    "serviceType": "訪問介護",
    "capacity": 0,
    "openDays": [
      "平日",
      "土曜日",
      "日曜日",
      "祝日"
    ],
    "openDaysNote": "営業時間外のサービス提供については、必要に応じてサービスの提供を行う。"
  },
  {
    "id": "3270104296",
    "name": "こころねヘルパーステーション東津田",
    "kana": "ココロネヘルパーステーションヒガシツダ",
    "address": "島根県松江市東津田1136番地1",
    "lat": 35.4582836,
    "lng": 133.0830902,
    "tel": "0852-67-7575",
    "url": "http://www.medicalcare-westjapan.jp/",
    "pref": "島根県",
    "city": "松江市",
    "category": "home_help",
    "serviceType": "訪問介護",
    "capacity": 0,
    "openDays": [
      "平日",
      "土曜日",
      "日曜日",
      "祝日"
    ],
    "openDaysNote": "緊急時等24時間連絡が可能な体制です。（改行）また、サービス計画により、営業時間外であってもサービスを提供する場合があります。（改行）早朝、夜間、深夜は割増料金がかかります。"
  },
  {
    "id": "3270103793",
    "name": "こころねヘルパーステーション内中原",
    "kana": "ココロネヘルパーステーションウチナカバラ",
    "address": "島根県松江市内中原町200-2",
    "lat": 35.475268433979,
    "lng": 133.047690859525,
    "tel": "0852-67-2797",
    "url": "http：//region-desige.co.jp/",
    "pref": "島根県",
    "city": "松江市",
    "category": "home_help",
    "serviceType": "訪問介護",
    "capacity": 0,
    "openDays": [
      "平日",
      "土曜日",
      "日曜日",
      "祝日"
    ],
    "openDaysNote": "営業時間外のサービス提供については必要に応じてサービスの提供を行う。"
  },
  {
    "id": "3270104239",
    "name": "こころねヘルパーステーション北田町",
    "kana": "ココロネヘルパーステーションキタタマチ",
    "address": "島根県松江市北田町71番地１シニアコート北田町 シニアコート北田町",
    "lat": 35.4774492,
    "lng": 133.0605027,
    "tel": "０８５２－６１－５５６１",
    "url": "https://region-design.co.jp/",
    "pref": "島根県",
    "city": "松江市",
    "category": "home_help",
    "serviceType": "訪問介護",
    "capacity": null,
    "openDays": [
      "平日",
      "土曜日",
      "日曜日",
      "祝日"
    ],
    "openDaysNote": ""
  },
  {
    "id": "3270100633",
    "name": "サンキ・ウエルビィ介護センター松江",
    "kana": "サンキウエルビィカイゴセンターマツエ",
    "address": "島根県松江市東津田町１７８７番地サンキ・ウエルビィ介護センター松江 サンキ・ウエルビィ介護センター松江",
    "lat": 35.4490624,
    "lng": 133.0868755,
    "tel": "0852-20-6310",
    "url": "",
    "pref": "島根県",
    "city": "松江市",
    "category": "home_help",
    "serviceType": "訪問介護",
    "capacity": 0,
    "openDays": [
      "平日",
      "土曜日",
      "日曜日",
      "祝日"
    ],
    "openDaysNote": "ただし、ケアプランに沿ったサービス提供とする。"
  },
  {
    "id": "3270102696",
    "name": "サンキウェルビィ　介護センター秋鹿",
    "kana": "サンキウェルビィ　カイゴセンターアイカ",
    "address": "島根県松江市岡本町1041-1",
    "lat": 35.4758446,
    "lng": 132.950946,
    "tel": "0852-88-3337",
    "url": "",
    "pref": "島根県",
    "city": "松江市",
    "category": "home_help",
    "serviceType": "訪問介護",
    "capacity": 0,
    "openDays": [
      "平日",
      "土曜日",
      "日曜日",
      "祝日"
    ],
    "openDaysNote": "ただし、ケアプランに沿ったサービス提供とする。"
  },
  {
    "id": "3270102076",
    "name": "にこにこヘルパーさん",
    "kana": "ニコニコヘルパーサン",
    "address": "西津田二丁目９番９号",
    "lat": 35.4609173918628,
    "lng": 133.077220606746,
    "tel": "0852-25-8011",
    "url": "",
    "pref": "島根県",
    "city": "松江市",
    "category": "home_help",
    "serviceType": "訪問介護",
    "capacity": 0,
    "openDays": [
      "平日",
      "土曜日",
      "日曜日",
      "祝日"
    ],
    "openDaysNote": ""
  },
  {
    "id": "3270104122",
    "name": "ニチイケアセンタ－松江北",
    "kana": "ニチイケアセンタ－マツエキタ",
    "address": "島根県松江市春日町161",
    "lat": 35.485709,
    "lng": 133.0448676,
    "tel": "0852-20-7220",
    "url": "http://www.nichiigakkan.co.jp",
    "pref": "島根県",
    "city": "松江市",
    "category": "home_help",
    "serviceType": "訪問介護",
    "capacity": null,
    "openDays": [
      "平日"
    ],
    "openDaysNote": "居宅サ－ビス計画により、営業時間以外でも、サ－ビスの提供を行う場合がある。"
  },
  {
    "id": "3270100096",
    "name": "ニチイケアセンター浜乃木",
    "kana": "ニチイケアセンターハマノギ",
    "address": "松江市浜乃木六丁目６番２３号",
    "lat": 35.4440765,
    "lng": 133.0564612,
    "tel": "0852-55-6433",
    "url": "http://www.nichiigakkan.co.jp",
    "pref": "島根県",
    "city": "松江市",
    "category": "home_help",
    "serviceType": "訪問介護",
    "capacity": 0,
    "openDays": [
      "平日",
      "土曜日",
      "日曜日",
      "祝日"
    ],
    "openDaysNote": "居宅サービス計画により、営業時間以外でも、サービスの提供を行う場合がある。"
  },
  {
    "id": "3270104486",
    "name": "ひなた訪問介護事業所",
    "kana": "ヒナタホウモンカイゴジギョウショ",
    "address": "島根県松江市古志原5丁目13－27",
    "lat": 35.4430366,
    "lng": 133.0824487,
    "tel": "852400522",
    "url": "",
    "pref": "島根県",
    "city": "松江市",
    "category": "home_help",
    "serviceType": "訪問介護",
    "capacity": 0,
    "openDays": [
      "平日",
      "土曜日",
      "日曜日",
      "祝日"
    ],
    "openDaysNote": "なし"
  },
  {
    "id": "3270100773",
    "name": "ふれあいヘルパーステーション",
    "kana": "フレアイヘルパーステーション",
    "address": "松江市西津田7-14-21",
    "lat": 35.4551365,
    "lng": 133.0675044,
    "tel": "0852-26-7608",
    "url": "http://www.min-iren.com",
    "pref": "島根県",
    "city": "松江市",
    "category": "home_help",
    "serviceType": "訪問介護",
    "capacity": 0,
    "openDays": [
      "平日",
      "土曜日"
    ],
    "openDaysNote": "事情により相談に応じます"
  },
  {
    "id": "3270103470",
    "name": "ヘルパーステーション　なかよし",
    "kana": "ヘルパーステーション　ナカヨシ",
    "address": "島根県松江市古志原4-19-43ケアハウス古志原ヒルズ内 ケアハウス古志原ヒルズ内",
    "lat": 35.4421427,
    "lng": 133.0785895,
    "tel": "0852-24-7537",
    "url": "http://kamiguchifukushikai.jp/",
    "pref": "島根県",
    "city": "松江市",
    "category": "home_help",
    "serviceType": "訪問介護",
    "capacity": 60,
    "openDays": [
      "平日",
      "土曜日",
      "日曜日",
      "祝日"
    ],
    "openDaysNote": ""
  },
  {
    "id": "3270103033",
    "name": "ヘルパーステーション　彩りテラス～東朝日町～",
    "kana": "ヘルパーステーションイロドリテラスヒガシアサヒマチ",
    "address": "東朝日町２７８－１０",
    "lat": 35.4639413,
    "lng": 133.0762783,
    "tel": "０８５２－２３－０３８８",
    "url": "",
    "pref": "島根県",
    "city": "松江市",
    "category": "home_help",
    "serviceType": "訪問介護",
    "capacity": 0,
    "openDays": [
      "平日",
      "土曜日",
      "日曜日",
      "祝日"
    ],
    "openDaysNote": ""
  },
  {
    "id": "3270104049",
    "name": "ヘルパーステーションいちばた",
    "kana": "ヘルパーステーション　イチバタ",
    "address": "松江市中原町38－4ホームいちばた ホームいちばた",
    "lat": 35.4683718,
    "lng": 133.0443822,
    "tel": "0852-21-5212",
    "url": "http://www.ichibata.co.jp/home/",
    "pref": "島根県",
    "city": "松江市",
    "category": "home_help",
    "serviceType": "訪問介護",
    "capacity": null,
    "openDays": [
      "平日",
      "土曜日",
      "日曜日",
      "祝日"
    ],
    "openDaysNote": ""
  },
  {
    "id": "3270103819",
    "name": "ヘルパーステーションしるし",
    "kana": "ヘルパーステーションシルシ",
    "address": "島根県松江市東出雲町意宇東１丁目６番地３",
    "lat": 35.4358327815522,
    "lng": 133.135475614017,
    "tel": "0852-61-6300",
    "url": "https://signpost-llc.com/",
    "pref": "島根県",
    "city": "松江市",
    "category": "home_help",
    "serviceType": "訪問介護",
    "capacity": 40,
    "openDays": [
      "平日"
    ],
    "openDaysNote": ""
  },
  {
    "id": "3270101359",
    "name": "ヘルパーステーションしんじ",
    "kana": "ヘルパーステーションシンジ",
    "address": "松江市宍道町佐々布２１４５－１７２",
    "lat": 35.3989082,
    "lng": 132.8874898,
    "tel": "0852-66-7170",
    "url": "",
    "pref": "島根県",
    "city": "松江市",
    "category": "home_help",
    "serviceType": "訪問介護",
    "capacity": 4,
    "openDays": [
      "平日",
      "土曜日",
      "日曜日",
      "祝日"
    ],
    "openDaysNote": ""
  },
  {
    "id": "3270100369",
    "name": "ヘルパーステーションすみれ",
    "kana": "ヘルパーステーションスミレ",
    "address": "松江市中原町３１３－１",
    "lat": 35.4684621009025,
    "lng": 133.044554160192,
    "tel": "0852-24-4002",
    "url": "",
    "pref": "島根県",
    "city": "松江市",
    "category": "home_help",
    "serviceType": "訪問介護",
    "capacity": 4,
    "openDays": [
      "平日",
      "土曜日",
      "日曜日",
      "祝日"
    ],
    "openDaysNote": ""
  },
  {
    "id": "3270103637",
    "name": "ヘルパーステーションなずな",
    "kana": "ヘルパーステーションナズナ",
    "address": "島根県松江市黒田町60",
    "lat": 35.4791386,
    "lng": 133.0438862,
    "tel": "0852-67-6444",
    "url": "",
    "pref": "島根県",
    "city": "松江市",
    "category": "home_help",
    "serviceType": "訪問介護",
    "capacity": 5,
    "openDays": [
      "平日",
      "土曜日",
      "日曜日",
      "祝日"
    ],
    "openDaysNote": ""
  },
  {
    "id": "3270100831",
    "name": "ヘルパーステーションふれあい",
    "kana": "ヘルパーステーションフレアイ",
    "address": "島根県松江市野原町585番地",
    "lat": 35.5188022,
    "lng": 133.1364616,
    "tel": "0852-34-1870",
    "url": "",
    "pref": "島根県",
    "city": "松江市",
    "category": "home_help",
    "serviceType": "訪問介護",
    "capacity": 0,
    "openDays": [
      "平日",
      "土曜日",
      "日曜日",
      "祝日"
    ],
    "openDaysNote": "苑外在宅サービス利用時間　　　9：00～18：00"
  },
  {
    "id": "3270103934",
    "name": "ヘルパーステーションらいふ嫁島",
    "kana": "ヘルパーステーションライフヨメシマ",
    "address": "島根県松江市西嫁島1丁目3-3",
    "lat": 35.4484758,
    "lng": 133.048473,
    "tel": "0852-61-8868",
    "url": "https：//www.matsue-newyork.com/",
    "pref": "島根県",
    "city": "松江市",
    "category": "home_help",
    "serviceType": "訪問介護",
    "capacity": null,
    "openDays": [
      "平日"
    ],
    "openDaysNote": ""
  },
  {
    "id": "3270102563",
    "name": "ヘルパーステーション心暖",
    "kana": "ヘルパーステーション　コハル",
    "address": "島根県松江市玉湯町湯町190番地1",
    "lat": 35.433821,
    "lng": 133.0149495,
    "tel": "0852-62-1166",
    "url": "http://koharu-unity.com/",
    "pref": "島根県",
    "city": "松江市",
    "category": "home_help",
    "serviceType": "訪問介護",
    "capacity": 37,
    "openDays": [
      "平日",
      "土曜日",
      "日曜日",
      "祝日"
    ],
    "openDaysNote": ""
  },
  {
    "id": "3270103652",
    "name": "ヘルパーステーション八重の郷",
    "kana": "ヘルパーステーションヤエノサト",
    "address": "上乃木二丁目21番10号",
    "lat": 35.4493898,
    "lng": 133.0594052,
    "tel": "0852-33-7532",
    "url": "",
    "pref": "島根県",
    "city": "松江市",
    "category": "home_help",
    "serviceType": "訪問介護",
    "capacity": 20,
    "openDays": [
      "平日",
      "土曜日",
      "日曜日",
      "祝日"
    ],
    "openDaysNote": ""
  },
  {
    "id": "3270401866",
    "name": "ヘルパーステーション優樹",
    "kana": "ヘルパーステーションユウジュ",
    "address": "島根県松江市宍道町伊志見４１０番地",
    "lat": 35.3669037,
    "lng": 132.7273006,
    "tel": "0852-66-9333",
    "url": "",
    "pref": "島根県",
    "city": "松江市",
    "category": "home_help",
    "serviceType": "訪問介護",
    "capacity": 0,
    "openDays": [
      "平日",
      "土曜日",
      "日曜日",
      "祝日"
    ],
    "openDaysNote": "年中無休　24時間営業"
  },
  {
    "id": "3270104361",
    "name": "マースィ介護センター",
    "kana": "マースィカイゴセンター",
    "address": "西川津町１２０６－５ロイヤルクレドール１０５ ロイヤルクレドール１０５",
    "lat": 35.4872051,
    "lng": 133.073604,
    "tel": "0852-67-5537",
    "url": "",
    "pref": "島根県",
    "city": "松江市",
    "category": "home_help",
    "serviceType": "訪問介護",
    "capacity": 0,
    "openDays": [
      "平日",
      "土曜日",
      "日曜日",
      "祝日"
    ],
    "openDaysNote": ""
  },
  {
    "id": "3270103371",
    "name": "まつえ24",
    "kana": "マツエニジュウヨン",
    "address": "島根県松江市竪町40-1キャッスルコーポ1階 キャッスルコーポ1階",
    "lat": 35.4583067,
    "lng": 133.0566627,
    "tel": "0852-25-9291",
    "url": "",
    "pref": "島根県",
    "city": "松江市",
    "category": "home_help",
    "serviceType": "訪問介護",
    "capacity": 0,
    "openDays": [],
    "openDaysNote": ""
  },
  {
    "id": "3270102993",
    "name": "ライブアシスト松江訪問介護事業所",
    "kana": "ライブアシストマツエホウモンカイゴジギョウショ",
    "address": "東出雲町錦新町6丁目4-1",
    "lat": 35.4309505,
    "lng": 133.1402876,
    "tel": "０８５２－６７－２５４４",
    "url": "http://y-liveassist.com/",
    "pref": "島根県",
    "city": "松江市",
    "category": "home_help",
    "serviceType": "訪問介護",
    "capacity": 54,
    "openDays": [
      "平日",
      "土曜日",
      "日曜日",
      "祝日"
    ],
    "openDaysNote": ""
  },
  {
    "id": "3270104395",
    "name": "リベラル訪問介護事業所",
    "kana": "リベラルホウモンカイゴジギョウショ",
    "address": "島根県松江市北田町70番地2",
    "lat": 35.4776756,
    "lng": 133.0609009,
    "tel": "0852-27-7085",
    "url": "",
    "pref": "島根県",
    "city": "松江市",
    "category": "home_help",
    "serviceType": "訪問介護",
    "capacity": null,
    "openDays": [
      "平日"
    ],
    "openDaysNote": ""
  },
  {
    "id": "3270103884",
    "name": "介護派遣センターあくしゅ",
    "kana": "カイゴハケンセンターアクシュ",
    "address": "島根県松江市大輪町392番地24",
    "lat": 35.4801279,
    "lng": 133.0595125,
    "tel": "0852-25-7797",
    "url": "http://fc24800220182801.web4.blks.jp/",
    "pref": "島根県",
    "city": "松江市",
    "category": "home_help",
    "serviceType": "訪問介護",
    "capacity": 0,
    "openDays": [
      "平日",
      "土曜日",
      "日曜日",
      "祝日"
    ],
    "openDaysNote": "介護派遣サービスは、24時間・365日行っています。"
  },
  {
    "id": "3270102001",
    "name": "学園ヘルパーステーション",
    "kana": "ガクエンヘルパーステーション",
    "address": "島根県松江市学園２丁目７－１６",
    "lat": 35.4829444,
    "lng": 133.0653424,
    "tel": "0852-26-9906",
    "url": "",
    "pref": "島根県",
    "city": "松江市",
    "category": "home_help",
    "serviceType": "訪問介護",
    "capacity": 0,
    "openDays": [
      "平日",
      "土曜日",
      "日曜日",
      "祝日"
    ],
    "openDaysNote": "利用者、事業所間で、相談の上対応する"
  },
  {
    "id": "3270103298",
    "name": "株式会社　まつえ福祉会　もみの木苑",
    "kana": "カブシキガイシャ　マツエフクシカイ　　モミノキエン",
    "address": "島根県松江市東出雲町出雲郷771-4",
    "lat": 35.4264619,
    "lng": 133.136877,
    "tel": "0852-67-1158",
    "url": "https://lit.link/mominokien",
    "pref": "島根県",
    "city": "松江市",
    "category": "home_help",
    "serviceType": "訪問介護",
    "capacity": 0,
    "openDays": [
      "平日",
      "土曜日",
      "日曜日",
      "祝日"
    ],
    "openDaysNote": "もみの木苑住宅内でのサービス利用時間"
  },
  {
    "id": "3270104155",
    "name": "株式会社訪問介護事業所よいとこ２４",
    "kana": "カブシキガイシャホウモンカイゴジギョウショヨイトコニジュウヨン",
    "address": "島根県松江市砂子町205-6",
    "lat": 35.4734422139126,
    "lng": 133.043245683466,
    "tel": "0852-67-2725",
    "url": "https://yoitoko24.com/",
    "pref": "島根県",
    "city": "松江市",
    "category": "home_help",
    "serviceType": "訪問介護",
    "capacity": null,
    "openDays": [
      "平日",
      "土曜日",
      "日曜日",
      "祝日"
    ],
    "openDaysNote": ""
  },
  {
    "id": "3270101029",
    "name": "湖北ふれあい　しんじ湖温泉ヘルパーステーション",
    "kana": "コホクフレアイ　シンジコオンセンヘルパーステーション",
    "address": "松江市国屋町498-6",
    "lat": 35.4691719801462,
    "lng": 133.037608634502,
    "tel": "0852-67-2252",
    "url": "http://kohoku-aikanosato.jp",
    "pref": "島根県",
    "city": "松江市",
    "category": "home_help",
    "serviceType": "訪問介護",
    "capacity": 0,
    "openDays": [
      "平日",
      "土曜日",
      "日曜日",
      "祝日"
    ],
    "openDaysNote": "・上記以外の時間帯は要相談（改行）・年始（1日～3日）は休業"
  },
  {
    "id": "3270100476",
    "name": "持田ヘルパーステーション",
    "kana": "モチダヘルパーステーション",
    "address": "松江市川原町２９２－２",
    "lat": 35.5027013,
    "lng": 133.0928746,
    "tel": "0852-34-1515",
    "url": "",
    "pref": "島根県",
    "city": "松江市",
    "category": "home_help",
    "serviceType": "訪問介護",
    "capacity": 0,
    "openDays": [
      "平日",
      "土曜日",
      "日曜日",
      "祝日"
    ],
    "openDaysNote": "緊急時対応可等契約外事項については、介護保険法令その他の定めるところを尊重し、協議により定める。"
  },
  {
    "id": "3270100013",
    "name": "社会福祉法人　松江市社会福祉協議会　松江社協介護センター",
    "kana": "フク）　マツエシシャカイフクシキョウギカイ　マツエシャキョウカイゴセンター",
    "address": "松江市鹿島町佐陀本郷640番地1松江市役所鹿島支所３階 松江市役所鹿島支所３階",
    "lat": 35.5221098,
    "lng": 132.9957793,
    "tel": "0852-82-3180",
    "url": "",
    "pref": "島根県",
    "city": "松江市",
    "category": "home_help",
    "serviceType": "訪問介護",
    "capacity": 0,
    "openDays": [
      "平日",
      "土曜日",
      "日曜日",
      "祝日"
    ],
    "openDaysNote": "なし"
  },
  {
    "id": "3271100145",
    "name": "社会福祉法人山陰家庭学院ゆうなぎ訪問介護事業所",
    "kana": "サンインカテイガクインユウナギホウモンカイゴジギョウショ",
    "address": "松江市島根町野波２３１８番地３",
    "lat": 35.5861527513762,
    "lng": 133.100610010786,
    "tel": "0852-85-3700",
    "url": "http://www.sanin-kateigakuin.jp/establishment/sener-yunagi.html",
    "pref": "島根県",
    "city": "松江市",
    "category": "home_help",
    "serviceType": "訪問介護",
    "capacity": 0,
    "openDays": [
      "平日",
      "土曜日",
      "日曜日",
      "祝日"
    ],
    "openDaysNote": "年中無休"
  },
  {
    "id": "3271100244",
    "name": "社会福祉法人松江市社会福祉協議会宍道介護センター",
    "kana": "フク）　マツエシシャカイフクシキョウギカイシンジカイゴセンター",
    "address": "松江市宍道町上来待213-1",
    "lat": 35.4029323,
    "lng": 132.9607876,
    "tel": "0852-66-7311",
    "url": "",
    "pref": "島根県",
    "city": "松江市",
    "category": "home_help",
    "serviceType": "訪問介護",
    "capacity": 0,
    "openDays": [
      "平日",
      "土曜日",
      "日曜日",
      "祝日"
    ],
    "openDaysNote": "なし"
  },
  {
    "id": "3271100111",
    "name": "社会福祉法人松江市社会福祉協議会松南介護センター",
    "kana": "フク）　マツエシシャカイフクシキョウギカイショウナンカイゴセンター",
    "address": "松江市八雲町西岩坂355-1松江市八雲公民館　松江市役所八雲支所　松江市アルバホール 松江市八雲公民館　松江市役所八雲支所　松江市アルバホール",
    "lat": 35.4054531664797,
    "lng": 133.09113717686,
    "tel": "0852-54-1485",
    "url": "",
    "pref": "島根県",
    "city": "松江市",
    "category": "home_help",
    "serviceType": "訪問介護",
    "capacity": 0,
    "openDays": [
      "平日",
      "土曜日",
      "日曜日",
      "祝日"
    ],
    "openDaysNote": "なし"
  },
  {
    "id": "3271100343",
    "name": "社会福祉法人松江市社会福祉協議会美保関介護センター",
    "kana": "フク）　シャカイフクシホウジンマツエシシャカイフクシキョウギカイミホノセキカイゴセンター",
    "address": "松江市美保関町片江２２６８番８",
    "lat": 35.5592852,
    "lng": 133.1844268,
    "tel": "0852-72-3335",
    "url": "",
    "pref": "島根県",
    "city": "松江市",
    "category": "home_help",
    "serviceType": "訪問介護",
    "capacity": 0,
    "openDays": [
      "平日",
      "土曜日",
      "日曜日",
      "祝日"
    ],
    "openDaysNote": "なし"
  },
  {
    "id": "3270102332",
    "name": "松江24時間介護センター",
    "kana": "マツエ24ジカンカイゴセンター",
    "address": "島根県松江市西持田町341番地1フェリーチェ持田 フェリーチェ持田",
    "lat": 35.497417754306,
    "lng": 133.073885755881,
    "tel": "0852-25-8023",
    "url": "http://www.orangeroad.co.jp/",
    "pref": "島根県",
    "city": "松江市",
    "category": "home_help",
    "serviceType": "訪問介護",
    "capacity": 0,
    "openDays": [
      "平日",
      "土曜日",
      "日曜日",
      "祝日"
    ],
    "openDaysNote": "なし"
  },
  {
    "id": "3270102910",
    "name": "嵩の杜訪問介護事業所",
    "kana": "ダケノモリホウモンカイゴジギョウショ",
    "address": "島根県松江市西川津町533-1",
    "lat": 35.4863280074235,
    "lng": 133.075284415231,
    "tel": "0852-60-0808",
    "url": "https://www.hokuyo-iryo.com/",
    "pref": "島根県",
    "city": "松江市",
    "category": "home_help",
    "serviceType": "訪問介護",
    "capacity": 0,
    "openDays": [
      "平日",
      "土曜日",
      "日曜日",
      "祝日"
    ],
    "openDaysNote": "年中無休。但し、年末年始（12月29日から1月3日）はお休みします。必要に応じて対応する場合もありますのでご相談下さい。"
  },
  {
    "id": "3270100401",
    "name": "生協ヘルパーステーション",
    "kana": "セイキョウヘルパーステーション",
    "address": "松江市佐草町456-1",
    "lat": 35.4316252,
    "lng": 133.0720578,
    "tel": "0852-20-7655",
    "url": "http://roken-niji.jp",
    "pref": "島根県",
    "city": "松江市",
    "category": "home_help",
    "serviceType": "訪問介護",
    "capacity": 0,
    "openDays": [
      "平日",
      "土曜日",
      "祝日"
    ],
    "openDaysNote": "深夜以外の時間帯は、利用者の要望に応じて訪問を行う。"
  },
  {
    "id": "3270103264",
    "name": "千鳥訪問介護事業所",
    "kana": "チドリホウモンカイゴジギョウショ",
    "address": "島根県松江市東出雲町揖屋1196ふれあいハウス五反田 ふれあいハウス五反田",
    "lat": 35.42661,
    "lng": 133.1530223,
    "tel": "0852-52-6517",
    "url": "http://www.rouken-chidori.jp/",
    "pref": "島根県",
    "city": "松江市",
    "category": "home_help",
    "serviceType": "訪問介護",
    "capacity": 27,
    "openDays": [
      "平日",
      "土曜日",
      "日曜日",
      "祝日"
    ],
    "openDaysNote": ""
  },
  {
    "id": "3270102845",
    "name": "全労済在宅介護サービスセンターほほえみ",
    "kana": "ゼンロウサイザイタクカイゴサービスセンターホホエミ",
    "address": "松江市東出雲町錦新町８丁目１番１号",
    "lat": 35.4320478,
    "lng": 133.1428067,
    "tel": "0852-52-6310",
    "url": "http://www.zenrosai-wic.co.jp/",
    "pref": "島根県",
    "city": "松江市",
    "category": "home_help",
    "serviceType": "訪問介護",
    "capacity": 0,
    "openDays": [
      "平日",
      "土曜日",
      "日曜日",
      "祝日"
    ],
    "openDaysNote": ""
  },
  {
    "id": "3270100161",
    "name": "津田訪問介護センター",
    "kana": "ツダホウモンカイゴセンター",
    "address": "松江市西津田十丁目１９－５０",
    "lat": 35.4528508,
    "lng": 133.0797147,
    "tel": "0852-28-3101",
    "url": "http://www.tsudanosato.jp",
    "pref": "島根県",
    "city": "松江市",
    "category": "home_help",
    "serviceType": "訪問介護",
    "capacity": 0,
    "openDays": [
      "平日",
      "土曜日",
      "日曜日",
      "祝日"
    ],
    "openDaysNote": "なし"
  },
  {
    "id": "3271100236",
    "name": "東寿苑ホームヘルパーステーション",
    "kana": "トウジュエンホームヘルパーステーション",
    "address": "島根県松江市東出雲町出雲郷４９３",
    "lat": 35.4322969,
    "lng": 133.127614,
    "tel": "0852-52-5998",
    "url": "http://www.so‐unkai.jp/",
    "pref": "島根県",
    "city": "松江市",
    "category": "home_help",
    "serviceType": "訪問介護",
    "capacity": 0,
    "openDays": [
      "平日",
      "土曜日",
      "日曜日",
      "祝日"
    ],
    "openDaysNote": "なし"
  },
  {
    "id": "3270100922",
    "name": "特定非営利活動法人はっぴいライフ",
    "kana": "トクテイヒエイリカツドウホウジンハッピイライフ",
    "address": "島根県松江市灘町１－３５白潟トーケンレジデンス５０２ 白潟トーケンレジデンス５０２",
    "lat": 35.4627661466951,
    "lng": 133.054435044197,
    "tel": "0852-28-6266",
    "url": "",
    "pref": "島根県",
    "city": "松江市",
    "category": "home_help",
    "serviceType": "訪問介護",
    "capacity": 7,
    "openDays": [
      "平日",
      "土曜日",
      "日曜日",
      "祝日"
    ],
    "openDaysNote": "なし"
  },
  {
    "id": "3270100518",
    "name": "法吉ヘルパーステーション",
    "kana": "ホッキヘルパーステーション",
    "address": "松江市法吉町629-2",
    "lat": 35.4916002381481,
    "lng": 133.046262936663,
    "tel": "0852-25-5403",
    "url": "http://www.mizuumi.jp",
    "pref": "島根県",
    "city": "松江市",
    "category": "home_help",
    "serviceType": "訪問介護",
    "capacity": 0,
    "openDays": [
      "平日",
      "土曜日",
      "日曜日",
      "祝日"
    ],
    "openDaysNote": "上記以外でも、ご希望あれば相談に応じます。"
  },
  {
    "id": "3270102282",
    "name": "訪問介護ステーションアゼリア",
    "kana": "ホウモンカイゴステーション　アゼリア",
    "address": "島根県松江市黒田町１９９１ブランチアゼリア　2階 ブランチアゼリア　2階",
    "lat": 35.4799670605693,
    "lng": 133.041761901714,
    "tel": "0852-60-5865",
    "url": "https://mizusumikai.or.jp/",
    "pref": "島根県",
    "city": "松江市",
    "category": "home_help",
    "serviceType": "訪問介護",
    "capacity": 40,
    "openDays": [
      "平日",
      "土曜日",
      "日曜日",
      "祝日"
    ],
    "openDaysNote": "緊急時など居宅支援事業所や利用者・家族が訪問介護の支援が必要と判断した場合営業時間内で対応します。"
  },
  {
    "id": "3270103959",
    "name": "訪問介護ステーションあやめ",
    "kana": "ホウモンカイゴステーションアヤメ",
    "address": "島根県松江市西尾町936番地21",
    "lat": 35.4662147076414,
    "lng": 133.093428466329,
    "tel": "0852-39-9003",
    "url": "http://www.toukou-g.com/",
    "pref": "島根県",
    "city": "松江市",
    "category": "home_help",
    "serviceType": "訪問介護",
    "capacity": 0,
    "openDays": [
      "平日",
      "土曜日",
      "日曜日",
      "祝日"
    ],
    "openDaysNote": "早朝6：00～8：00、夜間18：00～22：00、深夜22：00～6：00（改行）場合により利用可能ですので、ご相談いただくこととしております。"
  },
  {
    "id": "3270103207",
    "name": "訪問介護ステーションまちびと",
    "kana": "ホウモンカイゴステーションマチビト",
    "address": "島根県松江市馬潟町98番1",
    "lat": 35.4452726,
    "lng": 133.1144549,
    "tel": "0852-67-1837",
    "url": "",
    "pref": "島根県",
    "city": "松江市",
    "category": "home_help",
    "serviceType": "訪問介護",
    "capacity": 0,
    "openDays": [
      "平日",
      "土曜日",
      "日曜日",
      "祝日"
    ],
    "openDaysNote": ""
  },
  {
    "id": "3270103108",
    "name": "訪問介護ステーション花穏",
    "kana": "ホウモンカイゴステーションカノン",
    "address": "島根県松江市東出雲町春日33-1有料老人ホーム花穏 有料老人ホーム花穏",
    "lat": 35.4216695,
    "lng": 133.1129554,
    "tel": "0852-61-6501",
    "url": "",
    "pref": "島根県",
    "city": "松江市",
    "category": "home_help",
    "serviceType": "訪問介護",
    "capacity": 28,
    "openDays": [
      "平日",
      "土曜日",
      "日曜日",
      "祝日"
    ],
    "openDaysNote": "年中無休／24時間体制"
  },
  {
    "id": "3270104023",
    "name": "訪問介護ステーション蓮香",
    "kana": "ホウモンカイゴステーション　レンカ",
    "address": "島根県松江市東津田町1357番地有料老人ホーム心の蓮 有料老人ホーム心の蓮",
    "lat": 35.4528678,
    "lng": 133.0916692,
    "tel": "0852-28-8112",
    "url": "https://lifeterrace.blogspot.com/",
    "pref": "島根県",
    "city": "松江市",
    "category": "home_help",
    "serviceType": "訪問介護",
    "capacity": 0,
    "openDays": [
      "平日",
      "土曜日",
      "日曜日",
      "祝日"
    ],
    "openDaysNote": ""
  },
  {
    "id": "3270102746",
    "name": "訪問介護のコクア",
    "kana": "ホウモンカイゴノコクア",
    "address": "島根県松江市国屋町字池代り378番地24",
    "lat": 35.4744172073824,
    "lng": 133.031504950063,
    "tel": "0852-36-7207",
    "url": "",
    "pref": "島根県",
    "city": "松江市",
    "category": "home_help",
    "serviceType": "訪問介護",
    "capacity": 0,
    "openDays": [
      "平日",
      "土曜日",
      "日曜日",
      "祝日"
    ],
    "openDaysNote": ""
  },
  {
    "id": "3270100211",
    "name": "訪問介護事業所　ケアサービス松江",
    "kana": "ホウモンカイゴジギョウショ　ケアサービスマツエ",
    "address": "島根県松江市北堀町211番地",
    "lat": 35.4763698,
    "lng": 133.0536215,
    "tel": "0852-55-7168",
    "url": "http://www.web-sanin.co.jp/co/cs-matue/",
    "pref": "島根県",
    "city": "松江市",
    "category": "home_help",
    "serviceType": "訪問介護",
    "capacity": 0,
    "openDays": [
      "平日",
      "土曜日",
      "日曜日",
      "祝日"
    ],
    "openDaysNote": "なし"
  },
  {
    "id": "3270103926",
    "name": "訪問介護事業所　はくいし",
    "kana": "ホウモンカイゴジギョウショ　ハクイシ",
    "address": "島根県松江市宍道町白石184番地3住宅型有料老人ホームはくいしの里 住宅型有料老人ホームはくいしの里",
    "lat": 35.413419,
    "lng": 132.924436,
    "tel": "0852-61-8350",
    "url": "https://m-care.themedia.jp/",
    "pref": "島根県",
    "city": "松江市",
    "category": "home_help",
    "serviceType": "訪問介護",
    "capacity": 71,
    "openDays": [
      "平日",
      "土曜日",
      "日曜日",
      "祝日"
    ],
    "openDaysNote": ""
  },
  {
    "id": "3270104429",
    "name": "訪問介護事業所　玉湯すずかけの樹",
    "kana": "ホウモンカイゴジギョウショ　タマユスズカケノキ",
    "address": "島根県松江市玉湯町湯町1186番地1",
    "lat": 35.4358628,
    "lng": 133.0121638,
    "tel": "0852-62-8150",
    "url": "",
    "pref": "島根県",
    "city": "松江市",
    "category": "home_help",
    "serviceType": "訪問介護",
    "capacity": null,
    "openDays": [
      "平日",
      "土曜日",
      "日曜日",
      "祝日"
    ],
    "openDaysNote": ""
  },
  {
    "id": "3270104403",
    "name": "訪問介護事業所　千本すずかけの樹",
    "kana": "ホウモンカイゴジギョウショ　センボンスズカケノキ",
    "address": "松江市東忌部町183番地7",
    "lat": 35.41389,
    "lng": 133.038938,
    "tel": "0852-33-9110",
    "url": "ｈｔｔｐ：・・ｗｗｗ.matuetsuts.com",
    "pref": "島根県",
    "city": "松江市",
    "category": "home_help",
    "serviceType": "訪問介護",
    "capacity": 0,
    "openDays": [
      "平日",
      "土曜日",
      "日曜日",
      "祝日"
    ],
    "openDaysNote": "サービスの提供は、２４時間３６５日行う"
  },
  {
    "id": "3270104262",
    "name": "訪問介護事業所あおぞら",
    "kana": "ホウモンカイゴジギョウショアオゾラ",
    "address": "島根県松江市大庭町1811-3サービス付き高齢者向け住宅あかつき　1階事務所内 サービス付き高齢者向け住宅あかつき　1階事務所内",
    "lat": 35.4352364996531,
    "lng": 133.085841944237,
    "tel": "0852-20-2123",
    "url": "https://lush-care.jp/",
    "pref": "島根県",
    "city": "松江市",
    "category": "home_help",
    "serviceType": "訪問介護",
    "capacity": 100,
    "openDays": [
      "平日",
      "土曜日",
      "日曜日",
      "祝日"
    ],
    "openDaysNote": ""
  },
  {
    "id": "3270103579",
    "name": "訪問介護事業所かがやき",
    "kana": "ホウモンカイゴジギョウショカガヤキ",
    "address": "島根県松江市大庭町１８１２－２住宅型有料老人ホームかがやき 住宅型有料老人ホームかがやき",
    "lat": 35.4370859240866,
    "lng": 133.085211985358,
    "tel": "０８５２－２５－３８５５",
    "url": "https://lush-care.jp",
    "pref": "島根県",
    "city": "松江市",
    "category": "home_help",
    "serviceType": "訪問介護",
    "capacity": 0,
    "openDays": [
      "平日",
      "土曜日",
      "日曜日",
      "祝日"
    ],
    "openDaysNote": "必要に応じて夜間のサービスも対応します。"
  },
  {
    "id": "3270104411",
    "name": "訪問介護事業所すずかけの樹",
    "kana": "ホウモンカイゴジギョウショ　スズカケノキ",
    "address": "島根県松江市上乃木10丁目2-14",
    "lat": 35.4379789,
    "lng": 133.0687696,
    "tel": "0852-20-6730",
    "url": "http://www.matsuets.com/company",
    "pref": "島根県",
    "city": "松江市",
    "category": "home_help",
    "serviceType": "訪問介護",
    "capacity": 0,
    "openDays": [
      "平日",
      "土曜日",
      "日曜日",
      "祝日"
    ],
    "openDaysNote": ""
  },
  {
    "id": "3270102043",
    "name": "訪問介護事業所たまゆの杜",
    "kana": "ホウモンカイゴジギョウショタマユノモリ",
    "address": "松江市玉湯町湯町１９２４－１",
    "lat": 35.4267631,
    "lng": 133.0065698,
    "tel": "0852-62-8502",
    "url": "https://www.tamayunomori.com",
    "pref": "島根県",
    "city": "松江市",
    "category": "home_help",
    "serviceType": "訪問介護",
    "capacity": 45,
    "openDays": [
      "平日",
      "土曜日",
      "日曜日",
      "祝日"
    ],
    "openDaysNote": ""
  },
  {
    "id": "3270104130",
    "name": "訪問介護事業所わかば",
    "kana": "ホウモンカイゴジギョウショワカバ",
    "address": "島根県松江市雑賀町221番地",
    "lat": 35.4587935,
    "lng": 133.0620766,
    "tel": "0852-22-0787",
    "url": "http://s-ysupport.co.jp",
    "pref": "島根県",
    "city": "松江市",
    "category": "home_help",
    "serviceType": "訪問介護",
    "capacity": null,
    "openDays": [
      "平日",
      "土曜日",
      "日曜日",
      "祝日"
    ],
    "openDaysNote": ""
  },
  {
    "id": "3270101912",
    "name": "訪問介護事業所花きりん",
    "kana": "ホウモンカイゴジギョウショハナキリン",
    "address": "島根県松江市古志原2丁目18-23-202",
    "lat": 35.4490405590277,
    "lng": 133.0807170295,
    "tel": "0852-61-5757",
    "url": "http://hanakirin.net",
    "pref": "島根県",
    "city": "松江市",
    "category": "home_help",
    "serviceType": "訪問介護",
    "capacity": 5,
    "openDays": [
      "平日",
      "土曜日",
      "日曜日",
      "祝日"
    ],
    "openDaysNote": "24時間365日"
  },
  {
    "id": "3260190081",
    "name": "訪問看護・介護ステーションすずらん",
    "kana": "ホウモンカンゴ・カイゴステーションスズラン",
    "address": "島根県松江市上乃木七丁目6－1かもと整形外科クリニック2階 かもと整形外科クリニック2階",
    "lat": 35.445941612531,
    "lng": 133.071303793918,
    "tel": "0852-22-0739",
    "url": "http://fu-su-no.jp/",
    "pref": "島根県",
    "city": "松江市",
    "category": "home_help",
    "serviceType": "訪問介護",
    "capacity": 0,
    "openDays": [
      "平日",
      "土曜日",
      "日曜日",
      "祝日"
    ],
    "openDaysNote": "なし"
  },
  {
    "id": "3270102167",
    "name": "北陽マイズホームヘルパー",
    "kana": "ホクヨウマイズホームヘルパー",
    "address": "松江市袖師町9-35",
    "lat": 35.4535697,
    "lng": 133.0509309,
    "tel": "0852-28-3316",
    "url": "http://www.hokuyo-mys.co.jp/",
    "pref": "島根県",
    "city": "松江市",
    "category": "home_help",
    "serviceType": "訪問介護",
    "capacity": 0,
    "openDays": [
      "平日",
      "土曜日",
      "日曜日",
      "祝日"
    ],
    "openDaysNote": ""
  },
  {
    "id": "3270100468",
    "name": "老人ホームヘルプサービス事業ねぎらい",
    "kana": "ロウジンホームヘルプサービスジギョウネギライ",
    "address": "松江市山代町９３４－５",
    "lat": 35.4399581,
    "lng": 133.0953609,
    "tel": "0852-31-3328",
    "url": "http://www.sirayurikai.or.jp/",
    "pref": "島根県",
    "city": "松江市",
    "category": "home_help",
    "serviceType": "訪問介護",
    "capacity": 0,
    "openDays": [
      "平日",
      "土曜日",
      "祝日"
    ],
    "openDaysNote": "なし"
  },
  {
    "id": "3272200159",
    "name": "社会福祉法人西ノ島町社会福祉協議会",
    "kana": "ニシノシマチョウシャカイフクシキョウギカイ",
    "address": "島根県隠岐郡西ノ島町大字美田２４８５",
    "lat": 36.0971325,
    "lng": 133.0131016,
    "tel": "08514-6-1470",
    "url": "http://nishi-shakyo.sakura.ne.jp/",
    "pref": "島根県",
    "city": "西ノ島町",
    "category": "home_help",
    "serviceType": "訪問介護",
    "capacity": 0,
    "openDays": [
      "平日",
      "土曜日",
      "日曜日",
      "祝日"
    ],
    "openDaysNote": "なし"
  },
  {
    "id": "3271800249",
    "name": "ホームヘルパーステーション　かわもと",
    "kana": "ホームヘルパーステーション　カワモト",
    "address": "邑智郡川本町川本383-1",
    "lat": 34.9916423,
    "lng": 132.4960374,
    "tel": "0855-72-2636",
    "url": "http://www.k-jinju.or.jp",
    "pref": "島根県",
    "city": "川本町",
    "category": "home_help",
    "serviceType": "訪問介護",
    "capacity": 0,
    "openDays": [
      "平日",
      "土曜日"
    ],
    "openDaysNote": "利用者の状況によってはこの限りではない。"
  },
  {
    "id": "3271800306",
    "name": "川本福祉会訪問介護事業所",
    "kana": "カワモトフクシカイホウモンカイゴジギョウショ",
    "address": "島根県邑智郡川本町大字因原５１８－１",
    "lat": 34.965130855811,
    "lng": 132.473034876057,
    "tel": "0855-72-1316",
    "url": "https://www.kawamotofukushikai.jp",
    "pref": "島根県",
    "city": "川本町",
    "category": "home_help",
    "serviceType": "訪問介護",
    "capacity": 0,
    "openDays": [
      "平日",
      "土曜日",
      "日曜日",
      "祝日"
    ],
    "openDaysNote": "２４時間体制"
  },
  {
    "id": "3270500477",
    "name": "しろがねの里訪問介護事業所",
    "kana": "シロガネノサトホウモンカイゴジギョウショ",
    "address": "島根県大田市大田町大田ロ９８５－４",
    "lat": 35.1895066,
    "lng": 132.5009236,
    "tel": "0854-83-1887",
    "url": "https://ｓｈｉｒｏｇａｎｅ．ｉｎ/",
    "pref": "島根県",
    "city": "大田市",
    "category": "home_help",
    "serviceType": "訪問介護",
    "capacity": null,
    "openDays": [
      "平日",
      "土曜日",
      "日曜日",
      "祝日"
    ],
    "openDaysNote": ""
  },
  {
    "id": "3270500584",
    "name": "ヘルパーステーション　きれんげ",
    "kana": "ヘルパーステーション　キレンゲ",
    "address": "島根県大田市鳥井町鳥井1204番地",
    "lat": 35.2127317,
    "lng": 132.4793255,
    "tel": "0854-82-0233",
    "url": "http://kirenge.jp/",
    "pref": "島根県",
    "city": "大田市",
    "category": "home_help",
    "serviceType": "訪問介護",
    "capacity": 0,
    "openDays": [
      "平日",
      "土曜日",
      "日曜日",
      "祝日"
    ],
    "openDaysNote": "人員の配置等により、ご希望の時間にご利用できない場合もございますのでご了承ください。"
  },
  {
    "id": "3270500774",
    "name": "ホームヘルパーステーション　ながひさ",
    "kana": "ホームヘルパーステーション　ナガヒサ",
    "address": "大田市長久町長久ハ24-2",
    "lat": 35.20131798547,
    "lng": 132.492835300664,
    "tel": "080-8980-2537",
    "url": "http://www.k-jinju.or.jp",
    "pref": "島根県",
    "city": "大田市",
    "category": "home_help",
    "serviceType": "訪問介護",
    "capacity": 0,
    "openDays": [
      "平日",
      "土曜日",
      "日曜日",
      "祝日"
    ],
    "openDaysNote": "提供時間は　２４時間　（電話等により２４時間連絡が可能な体制である。）"
  },
  {
    "id": "3270500360",
    "name": "幸久の家ヘルパーステーション",
    "kana": "コウキュウノイエヘルパーステーション",
    "address": "大田市久利町久利691",
    "lat": 35.1509838,
    "lng": 132.4748848,
    "tel": "0854-84-7392",
    "url": "http://www.koukyunoie@co.jp",
    "pref": "島根県",
    "city": "大田市",
    "category": "home_help",
    "serviceType": "訪問介護",
    "capacity": 0,
    "openDays": [
      "平日",
      "土曜日",
      "祝日"
    ],
    "openDaysNote": "日曜日、年末年始（12/30～1/3）"
  },
  {
    "id": "3270500022",
    "name": "福寿園ヘルパーステーション",
    "kana": "フクジュエンホームヘルパーステーション",
    "address": "大田市川合町川合1085-1養護老人ホーム　福寿園 養護老人ホーム　福寿園",
    "lat": 35.1520364,
    "lng": 132.5068455,
    "tel": "0854-84-9218",
    "url": "http://www.ooda-sj.jp/",
    "pref": "島根県",
    "city": "大田市",
    "category": "home_help",
    "serviceType": "訪問介護",
    "capacity": 0,
    "openDays": [
      "平日",
      "土曜日",
      "日曜日",
      "祝日"
    ],
    "openDaysNote": ""
  },
  {
    "id": "3270500675",
    "name": "訪問介護ステーション　さつか",
    "kana": "ホウモンカイゴステーション　サツカ",
    "address": "久手町刺鹿1902番地2サンライズさつか サンライズさつか",
    "lat": 35.2238187453967,
    "lng": 132.516585848363,
    "tel": "0854-83-7222",
    "url": "http://www.sunrise-satsuka.com",
    "pref": "島根県",
    "city": "大田市",
    "category": "home_help",
    "serviceType": "訪問介護",
    "capacity": 65,
    "openDays": [
      "平日",
      "土曜日",
      "日曜日",
      "祝日"
    ],
    "openDaysNote": "（１）契約を締結した後、サービスの提供を開始します。（改行）（２）サービス提供を行う介護員（改行）　　　サービス提供時に、担当の訪問介護員を決定します。但し、実際のサービス提供にあたっては、複数の訪問介護員が交替してサービスを提供します。（改行）（３）サービス実施時の留意事項（改行）　　①定められた業務以外の禁止（改行）　　　ご利用者は、当事業所が提供するサービスで定められたサービス以外の業務を事業者に依頼することはできません。（改行）　　②訪問介護サービス又は介護予防訪問介護サービスの実施に関する指示等は、すべて事業者が行います。但し、事業者は訪問介護サービス又は介護予防訪問介護サービスの実施にあたってご利用者の事情・意向等に十分に配慮するものとします。（改行）　　③備品等の使用（改行）　　　訪問介護サービス又は介護予防訪問介護サービス実施のために必要な備品等（水道・ガス・電気を含む）は無償で使用させていただきます。訪問介護員が事業所に連絡する場合の電話等も使用させていただきます。（改行）（４）サービス内容の変更（改行）　　　サービス利用当日に、ご利用者等の理由で予定されていたサービスの実施ができない場合には、サービス内容の変更を行います。その場合、変更したサービスの内容と時間に応じたサービス利用料金を請求します。（改行）（５）訪問介護員の禁止事項（改行）　　　訪問介護員は、ご利用者に対する訪問介護サービス又は介護予防訪問介護サービスの提供にあたって、次に該当する行為は行いません。（改行）　　①医療行為（改行）　　②ご利用者もしくはその家族等からの高価な物品等の授受（改行）　　③ご利用者の家族等に対する訪問介護サービス又は介護予防訪問介護サービスの提供（改行）　　④飲酒及びご利用者もしくはその家族等の同意なしに行う喫煙（改行）　　⑤ご利用者もしくはその家族等に対して行う宗教活動、政治活動、営利行動（改行）　　⑥その他ご利用者もしくはその家族等に行う迷惑行為"
  },
  {
    "id": "3271700068",
    "name": "訪問介護事業所しおさい",
    "kana": "ホウモンカイゴジギョウショシオサイ",
    "address": "大田市仁摩町仁万843",
    "lat": 35.1537329,
    "lng": 132.4032198,
    "tel": "0854-88-9139",
    "url": "http://www.shiosai.or.jp",
    "pref": "島根県",
    "city": "大田市",
    "category": "home_help",
    "serviceType": "訪問介護",
    "capacity": 65,
    "openDays": [
      "平日",
      "土曜日",
      "日曜日",
      "祝日"
    ],
    "openDaysNote": "夜間対応はいたしません"
  },
  {
    "id": "3272200241",
    "name": "知夫村社協指定訪問介護事業所",
    "kana": "チブムラシャキョウシテイホウモンカイゴジギョウショ",
    "address": "知夫村６６４番地",
    "lat": 36.0128982,
    "lng": 133.0385774,
    "tel": "08514-8-2270",
    "url": "",
    "pref": "島根県",
    "city": "知夫村",
    "category": "home_help",
    "serviceType": "訪問介護",
    "capacity": 23,
    "openDays": [
      "平日",
      "土曜日",
      "日曜日",
      "祝日"
    ],
    "openDaysNote": "なし"
  },
  {
    "id": "3272100136",
    "name": "津和野訪問介護事業所",
    "kana": "ツワノホウモンカイゴジギョウショ",
    "address": "津和野町森村イ1025番地",
    "lat": 34.4666076,
    "lng": 131.7759964,
    "tel": "0856-72-1494",
    "url": "http:/www.sun-net.jp/~syakyo/",
    "pref": "島根県",
    "city": "津和野町",
    "category": "home_help",
    "serviceType": "訪問介護",
    "capacity": 15,
    "openDays": [
      "平日",
      "土曜日",
      "日曜日",
      "祝日"
    ],
    "openDaysNote": "なし"
  },
  {
    "id": "3272100052",
    "name": "日原訪問介護事業所",
    "kana": "ニチハラホウモンカイゴジギョウショ",
    "address": "鹿足郡津和野町日原14番地",
    "lat": 34.54144,
    "lng": 131.8391301,
    "tel": "0856-74-1617",
    "url": "http://www.sun-net.jp/~syakyo/",
    "pref": "島根県",
    "city": "津和野町",
    "category": "home_help",
    "serviceType": "訪問介護",
    "capacity": 100,
    "openDays": [
      "平日",
      "土曜日",
      "日曜日",
      "祝日"
    ],
    "openDaysNote": "年中無休。（改行）ただし、利用者の希望に応じてサービス提供については、２４時間対応可能。"
  },
  {
    "id": "3271500104",
    "name": "飯南町社会福祉協議会　訪問介護事業所",
    "kana": "イイナンチョウシャカイフクシキョウギカイ　ホウモンカイゴジギョウショ",
    "address": "飯石郡飯南町野萱１８２６－２",
    "lat": 35.029532,
    "lng": 132.7428073,
    "tel": "0854-76-2299",
    "url": "syakyo-h@iinansyakyo.com",
    "pref": "島根県",
    "city": "飯南町",
    "category": "home_help",
    "serviceType": "訪問介護",
    "capacity": 0,
    "openDays": [
      "平日",
      "土曜日",
      "日曜日",
      "祝日"
    ],
    "openDaysNote": "上記以外の時間でも必要によりサービスを提供する事は可能"
  },
  {
    "id": "3271800199",
    "name": "美郷町社会福祉協議会　訪問介護事業所",
    "kana": "ミサトチョウシャカイフクシキョウギカイ　ホウモンカイゴジギョウショ",
    "address": "島根県邑智郡美郷町粕渕195番地1美郷町保健福祉センター 美郷町保健福祉センター",
    "lat": 35.0758794,
    "lng": 132.5909147,
    "tel": "0855-75-1353",
    "url": "",
    "pref": "島根県",
    "city": "美郷町",
    "category": "home_help",
    "serviceType": "訪問介護",
    "capacity": 0,
    "openDays": [
      "平日",
      "土曜日",
      "日曜日",
      "祝日"
    ],
    "openDaysNote": "その他の時間は相談に応じます。"
  },
  {
    "id": "3271900262",
    "name": "あいの会",
    "kana": "アイノカイ",
    "address": "浜田市三隅町三隅370-3",
    "lat": 34.7948953947247,
    "lng": 131.958244267459,
    "tel": "0855-32-2763",
    "url": "",
    "pref": "島根県",
    "city": "浜田市",
    "category": "home_help",
    "serviceType": "訪問介護",
    "capacity": 0,
    "openDays": [
      "平日",
      "土曜日",
      "祝日"
    ],
    "openDaysNote": "12/30～1/3は冬期休暇を頂いています。"
  },
  {
    "id": "3270700739",
    "name": "サンキ・ウエルビィ介護センター浜田",
    "kana": "サンキ・ウエルビィカイゴセンターハマダ",
    "address": "島根県浜田市下府町821番地7",
    "lat": 34.9268166945648,
    "lng": 132.11045198876,
    "tel": "0855-28-0377",
    "url": "",
    "pref": "島根県",
    "city": "浜田市",
    "category": "home_help",
    "serviceType": "訪問介護",
    "capacity": 5,
    "openDays": [
      "平日",
      "土曜日",
      "日曜日",
      "祝日"
    ],
    "openDaysNote": "ただし、ケアプランに沿ったサービス提供とする。"
  },
  {
    "id": "3270700309",
    "name": "スマイルヘルパーステーション",
    "kana": "スマイルヘルパーステーション",
    "address": "浜田市港町294-11番地",
    "lat": 34.9043341810913,
    "lng": 132.070255195245,
    "tel": "0855-23-5596",
    "url": "",
    "pref": "島根県",
    "city": "浜田市",
    "category": "home_help",
    "serviceType": "訪問介護",
    "capacity": 0,
    "openDays": [
      "平日"
    ],
    "openDaysNote": "定休日または利用できる時間帯以外においても、状況に応じ訪問体制を取っています。"
  },
  {
    "id": "3270700937",
    "name": "ハート介護センター",
    "kana": "ハートカイゴセンター",
    "address": "浜田市田町1466-1",
    "lat": 34.9013060977595,
    "lng": 132.084642332294,
    "tel": "0855-23-1186",
    "url": "",
    "pref": "島根県",
    "city": "浜田市",
    "category": "home_help",
    "serviceType": "訪問介護",
    "capacity": 0,
    "openDays": [
      "平日",
      "土曜日",
      "日曜日",
      "祝日"
    ],
    "openDaysNote": "電話等により24時間常時連絡が可能な体制"
  },
  {
    "id": "3270701406",
    "name": "はちどり介護",
    "kana": "ハチドリカイゴ",
    "address": "殿町62-5",
    "lat": 35.5397391,
    "lng": 139.7537082,
    "tel": "0855-22-2001",
    "url": "http://kotonoha.infomation.jp/",
    "pref": "島根県",
    "city": "浜田市",
    "category": "home_help",
    "serviceType": "訪問介護",
    "capacity": 0,
    "openDays": [
      "平日"
    ],
    "openDaysNote": "通院等乗降介助においては時間外で対応する事も可能。"
  },
  {
    "id": "3271900403",
    "name": "ヘルパーあさひ",
    "kana": "ヘルパーアサヒ",
    "address": "浜田市旭町今市616番地",
    "lat": 34.8623887,
    "lng": 132.2567213,
    "tel": "0855-45-0330",
    "url": "",
    "pref": "島根県",
    "city": "浜田市",
    "category": "home_help",
    "serviceType": "訪問介護",
    "capacity": 0,
    "openDays": [
      "平日",
      "土曜日",
      "祝日"
    ],
    "openDaysNote": "要望毎に検討の上で対応"
  },
  {
    "id": "3270701018",
    "name": "ヘルパーあんず",
    "kana": "ヘルパーアンズ",
    "address": "島根県浜田市長沢町3131番地1",
    "lat": 34.9114876,
    "lng": 132.1004811,
    "tel": "0855-28-7373",
    "url": "",
    "pref": "島根県",
    "city": "浜田市",
    "category": "home_help",
    "serviceType": "訪問介護",
    "capacity": 0,
    "openDays": [
      "平日",
      "土曜日",
      "日曜日",
      "祝日"
    ],
    "openDaysNote": "上記時間以外でも相談により対応可能。"
  },
  {
    "id": "3270701125",
    "name": "ヘルパーステーション　心の里　はるにれ",
    "kana": "ヘルパーステーションココロノサトハルニレ",
    "address": "島根県浜田市三隅町三隅382番地1",
    "lat": 34.7947506391758,
    "lng": 131.956550482217,
    "tel": "0855-25-8804",
    "url": "http://www.harunire-tms.jp/",
    "pref": "島根県",
    "city": "浜田市",
    "category": "home_help",
    "serviceType": "訪問介護",
    "capacity": 0,
    "openDays": [
      "平日",
      "土曜日",
      "日曜日",
      "祝日"
    ],
    "openDaysNote": "なし"
  },
  {
    "id": "3270701356",
    "name": "ヘルパーステーション　真",
    "kana": "ヘルパーステーション　マコト",
    "address": "島根県浜田市殿町79番地44",
    "lat": 34.9008042,
    "lng": 132.078443,
    "tel": "0855-28-7154",
    "url": "http://hp.kaipoke.biz/6ae/",
    "pref": "島根県",
    "city": "浜田市",
    "category": "home_help",
    "serviceType": "訪問介護",
    "capacity": 0,
    "openDays": [
      "平日",
      "土曜日",
      "日曜日",
      "祝日"
    ],
    "openDaysNote": "8時～17時以外は要相談"
  },
  {
    "id": "3270701323",
    "name": "ヘルパーステーションそうえん",
    "kana": "ヘルパーステーションソウエン",
    "address": "島根県浜田市相生町4219-1",
    "lat": 34.8962142,
    "lng": 132.0976623,
    "tel": "0855-25-5922",
    "url": "",
    "pref": "島根県",
    "city": "浜田市",
    "category": "home_help",
    "serviceType": "訪問介護",
    "capacity": 0,
    "openDays": [
      "平日",
      "土曜日",
      "日曜日",
      "祝日"
    ],
    "openDaysNote": "ご利用者を担当する介護支援専門員が必要と認めた場合、サービス提供時間外に訪問介護サービスを提供する場合があります。"
  },
  {
    "id": "3270701372",
    "name": "ヘルパーステーション花笑み",
    "kana": "ヘルパーステーションハナエミ",
    "address": "島根県浜田市長沢町455-4",
    "lat": 34.907374,
    "lng": 132.0971326,
    "tel": "0855-25-5241",
    "url": "",
    "pref": "島根県",
    "city": "浜田市",
    "category": "home_help",
    "serviceType": "訪問介護",
    "capacity": null,
    "openDays": [
      "平日",
      "土曜日",
      "日曜日",
      "祝日"
    ],
    "openDaysNote": ""
  },
  {
    "id": "3270701083",
    "name": "ヘルパーステーション絆",
    "kana": "ヘルパーステーション　キズナ",
    "address": "黒川町108番地49",
    "lat": 34.9019748,
    "lng": 132.0916738,
    "tel": "0855-28-7572",
    "url": "",
    "pref": "島根県",
    "city": "浜田市",
    "category": "home_help",
    "serviceType": "訪問介護",
    "capacity": 4,
    "openDays": [
      "平日",
      "祝日"
    ],
    "openDaysNote": ""
  },
  {
    "id": "3270700614",
    "name": "ほのぼのヘルパーステーション",
    "kana": "ホノボノヘルパーステーション",
    "address": "浜田市国分町1981番地39",
    "lat": 34.9355030777839,
    "lng": 132.109965698672,
    "tel": "0855-28-0183",
    "url": "",
    "pref": "島根県",
    "city": "浜田市",
    "category": "home_help",
    "serviceType": "訪問介護",
    "capacity": 0,
    "openDays": [
      "平日",
      "土曜日",
      "日曜日",
      "祝日"
    ],
    "openDaysNote": "年中無休。（改行）サービス提供時間外の対応については相談に応じます。"
  },
  {
    "id": "3270701034",
    "name": "ローズ　ヘルパーステーション",
    "kana": "ローズ　ヘルパーステーション",
    "address": "浜田市熱田町1023－7",
    "lat": 34.8684296,
    "lng": 132.0559947,
    "tel": "090ー9731ー8508",
    "url": "",
    "pref": "島根県",
    "city": "浜田市",
    "category": "home_help",
    "serviceType": "訪問介護",
    "capacity": 0,
    "openDays": [
      "平日",
      "祝日"
    ],
    "openDaysNote": "但し、土日については訪問計画に準じサービスを実施する場合があります。"
  },
  {
    "id": "3270700556",
    "name": "介護屋さん　ほっと",
    "kana": "カイゴヤサン　ホット",
    "address": "島根県浜田市熱田町705番地1",
    "lat": 34.8713109257856,
    "lng": 132.058357866721,
    "tel": "0855-25-5439",
    "url": "https://hottokeasenta.hp.gogo.jp/pc/index.html",
    "pref": "島根県",
    "city": "浜田市",
    "category": "home_help",
    "serviceType": "訪問介護",
    "capacity": 0,
    "openDays": [
      "平日",
      "土曜日",
      "日曜日",
      "祝日"
    ],
    "openDaysNote": "なし"
  },
  {
    "id": "3270701257",
    "name": "株式会社　輪",
    "kana": "カブシキカイシャ　リン",
    "address": "島根県浜田市竹迫町2901番地",
    "lat": 34.8973444997249,
    "lng": 132.085568165641,
    "tel": "0855-25-5810",
    "url": "http://rinhoumon.wix.com/rinhoumon",
    "pref": "島根県",
    "city": "浜田市",
    "category": "home_help",
    "serviceType": "訪問介護",
    "capacity": 50,
    "openDays": [
      "平日",
      "土曜日",
      "日曜日",
      "祝日"
    ],
    "openDaysNote": ""
  },
  {
    "id": "3240740823",
    "name": "輝らら☆タクシー",
    "kana": "キララタクシー",
    "address": "三隅町三隅387-5",
    "lat": 34.7942274,
    "lng": 131.9570267,
    "tel": "070-1510-9317",
    "url": "takamura-sunsun.jp",
    "pref": "島根県",
    "city": "浜田市",
    "category": "home_help",
    "serviceType": "訪問介護",
    "capacity": 0,
    "openDays": [
      "平日"
    ],
    "openDaysNote": ""
  },
  {
    "id": "3270700135",
    "name": "指定訪問介護事業所・美川",
    "kana": "シテイホウモンカイゴジギョウショ・ミカワ",
    "address": "浜田市内村町567番地（ケアハウス美川内）ケアハウス美川 ケアハウス美川",
    "lat": 34.8993025,
    "lng": 132.0797833,
    "tel": "0855-27-5005",
    "url": "https://mikawaen.com",
    "pref": "島根県",
    "city": "浜田市",
    "category": "home_help",
    "serviceType": "訪問介護",
    "capacity": 0,
    "openDays": [
      "平日",
      "土曜日",
      "日曜日",
      "祝日"
    ],
    "openDaysNote": "利用者の状況により、上記時間外も対応可能。要相談としている。"
  },
  {
    "id": "3270700101",
    "name": "浜田市社会福祉協議会　指定訪問介護事業所",
    "kana": "ハマダシシャカイフクシキョウギカイ　シテイホウモンカイゴジギョウショ",
    "address": "浜田市野原町859－1",
    "lat": 34.8862536,
    "lng": 132.07687,
    "tel": "0855-22-9595",
    "url": "http://www.hamada-shakyo.com/",
    "pref": "島根県",
    "city": "浜田市",
    "category": "home_help",
    "serviceType": "訪問介護",
    "capacity": 4,
    "openDays": [
      "平日",
      "土曜日",
      "日曜日",
      "祝日"
    ],
    "openDaysNote": "なし"
  },
  {
    "id": "3270700580",
    "name": "弥栄ヘルパーひだまり",
    "kana": "ヤサカヘルパーヒダマリ",
    "address": "浜田市弥栄町木都賀イ５３９－１",
    "lat": 34.7664513,
    "lng": 132.0721758,
    "tel": "0855-48-2740",
    "url": "http://www.yasaka-fukushi.com/",
    "pref": "島根県",
    "city": "浜田市",
    "category": "home_help",
    "serviceType": "訪問介護",
    "capacity": 0,
    "openDays": [
      "平日",
      "土曜日",
      "日曜日",
      "祝日"
    ],
    "openDaysNote": "ご本人・ご家族から訪問を希望された場合や、ケアマネージャーが必要とした場合に対応する。"
  },
  {
    "id": "3270700390",
    "name": "有限会社　三晃",
    "kana": "ユウゲンガイシャ　サンコウ",
    "address": "浜田市下府町1579-2",
    "lat": 34.9321328,
    "lng": 132.1087325,
    "tel": "0855-24-8582",
    "url": "",
    "pref": "島根県",
    "city": "浜田市",
    "category": "home_help",
    "serviceType": "訪問介護",
    "capacity": 0,
    "openDays": [
      "平日",
      "土曜日",
      "日曜日",
      "祝日"
    ],
    "openDaysNote": "なし"
  },
  {
    "id": "3271800264",
    "name": "ヘルパーステーションすみれ",
    "kana": "ヘルパーステーションスミレ",
    "address": "邑智郡邑南町山田33番地６",
    "lat": 34.8607047,
    "lng": 132.5399714,
    "tel": "0855-83-1820",
    "url": "",
    "pref": "島根県",
    "city": "邑南町",
    "category": "home_help",
    "serviceType": "訪問介護",
    "capacity": 0,
    "openDays": [
      "平日",
      "土曜日",
      "日曜日",
      "祝日"
    ],
    "openDaysNote": "なし"
  },
  {
    "id": "3271800280",
    "name": "瑞穂西訪問介護事業所",
    "kana": "ミズホニシホウモンカイゴジギョウショ",
    "address": "邑智郡邑南町上亀谷２１８１-１",
    "lat": 34.8458531,
    "lng": 132.5159264,
    "tel": "0855-83-2010",
    "url": "http://oonanfukushikai.jp/",
    "pref": "島根県",
    "city": "邑南町",
    "category": "home_help",
    "serviceType": "訪問介護",
    "capacity": 30,
    "openDays": [
      "平日",
      "土曜日"
    ],
    "openDaysNote": ""
  },
  {
    "id": "3271800421",
    "name": "邑南社協西部訪問介護事業所",
    "kana": "オオナンシャキョウセイブホウモンカイゴジギョウショ",
    "address": "島根県邑智郡邑南町中野3848番地2",
    "lat": 34.8960358,
    "lng": 132.4528324,
    "tel": "0855-95-0090",
    "url": "ohnan-shakyo.or.jp",
    "pref": "島根県",
    "city": "邑南町",
    "category": "home_help",
    "serviceType": "訪問介護",
    "capacity": 50,
    "openDays": [
      "平日",
      "土曜日",
      "日曜日",
      "祝日"
    ],
    "openDaysNote": "上記の時間外についても御希望の方は検討させて頂きます。"
  },
  {
    "id": "3271800405",
    "name": "邑南社協東部事業所（訪問介護）",
    "kana": "オオナンシャキョウトウブジギョウショ（ホウモンカイゴ）",
    "address": "島根県邑智郡邑南町下口羽384番地",
    "lat": 34.8808262,
    "lng": 132.664865,
    "tel": "0855-87-0843",
    "url": "",
    "pref": "島根県",
    "city": "邑南町",
    "category": "home_help",
    "serviceType": "訪問介護",
    "capacity": 25,
    "openDays": [
      "平日",
      "土曜日",
      "日曜日",
      "祝日"
    ],
    "openDaysNote": "上記の時間外についてもご希望の方は検討させていただきます。"
  }
]