[
  {
    "id": "3671800633",
    "name": "ゆうゆう屋",
    "kana": "ユウユウヤ",
    "address": "徳島県美馬郡つるぎ町一宇字赤松1317-6",
    "lat": 33.9630151,
    "lng": 134.0812559,
    "tel": "080-2988-2255",
    "url": "https://www.youyou-web.com",
    "pref": "徳島県",
    "city": "つるぎ町",
    "category": "home_help",
    "serviceType": "訪問介護",
    "capacity": 0,
    "openDays": [],
    "openDaysNote": "居宅サービス計画（ケアプラン）により、365日、24時間とします。"
  },
  {
    "id": "3671800583",
    "name": "社会福祉法人　つるぎ町社会福祉協議会",
    "kana": "シャカイフクシホウジン　ツルギチョウシャカイフクシキョウギカイ",
    "address": "徳島県美馬郡つるぎ町貞光字江ノ脇２３０番地１６",
    "lat": 34.0428724979684,
    "lng": 134.067517063858,
    "tel": "０８８３－６２－５０７３",
    "url": "http://www.tsurugi-shakyo.jp/index.html",
    "pref": "徳島県",
    "city": "つるぎ町",
    "category": "home_help",
    "serviceType": "訪問介護",
    "capacity": 0,
    "openDays": [
      "平日",
      "土曜日",
      "日曜日",
      "祝日"
    ],
    "openDaysNote": ""
  },
  {
    "id": "3671800625",
    "name": "訪問介護ステーション　こまち",
    "kana": "ホウモンカイゴステーション　コマチ",
    "address": "徳島県美馬郡つるぎ町貞光字太田西296-3",
    "lat": 34.0451593,
    "lng": 134.0743258,
    "tel": "0883-62-3155",
    "url": "",
    "pref": "徳島県",
    "city": "つるぎ町",
    "category": "home_help",
    "serviceType": "訪問介護",
    "capacity": null,
    "openDays": [
      "平日"
    ],
    "openDaysNote": "ケアプランに応じて対応する。"
  },
  {
    "id": "3671300303",
    "name": "あすみ訪問介護事業所",
    "kana": "アスミホウモンカイゴジギョウショ",
    "address": "徳島県阿南市羽ノ浦町中庄蔵ノホケ43番地１",
    "lat": 33.955811810212,
    "lng": 134.627276597849,
    "tel": "0884-44-6374",
    "url": "http://www.asumikaigo.com",
    "pref": "徳島県",
    "city": "阿南市",
    "category": "home_help",
    "serviceType": "訪問介護",
    "capacity": 0,
    "openDays": [],
    "openDaysNote": ""
  },
  {
    "id": "3670400146",
    "name": "シルバー介護阿南",
    "kana": "シルバーカイゴアナン",
    "address": "徳島県阿南市富岡町西新町8-1",
    "lat": 33.9225812,
    "lng": 134.6511915,
    "tel": "0884-23-6313",
    "url": "http://silver-kaigo.jimdo.com/",
    "pref": "徳島県",
    "city": "阿南市",
    "category": "home_help",
    "serviceType": "訪問介護",
    "capacity": 0,
    "openDays": [
      "平日",
      "土曜日",
      "日曜日",
      "祝日"
    ],
    "openDaysNote": "とみおかの里有料老人ホーム内のサービスは年中無休で24時間体制"
  },
  {
    "id": "3670400641",
    "name": "セントケア阿南",
    "kana": "セントケアアナン",
    "address": "徳島県阿南市津乃峰町東分100-7ペイシャトー1階 ペイシャトー1階",
    "lat": 33.8869676,
    "lng": 134.6520797,
    "tel": "0884-28-0561",
    "url": "http://www.saint-care.com/",
    "pref": "徳島県",
    "city": "阿南市",
    "category": "home_help",
    "serviceType": "訪問介護",
    "capacity": 0,
    "openDays": [
      "平日",
      "土曜日",
      "日曜日",
      "祝日"
    ],
    "openDaysNote": "24時間365日"
  },
  {
    "id": "3671300238",
    "name": "デイセンターカルメン",
    "kana": "デイセンターカルメン",
    "address": "徳島県阿南市羽ノ浦町中庄大知渕８番地１",
    "lat": 33.9544408,
    "lng": 134.6361732,
    "tel": "0884-44-6831",
    "url": "http://www.kenshokai.group",
    "pref": "徳島県",
    "city": "阿南市",
    "category": "home_help",
    "serviceType": "訪問介護",
    "capacity": 0,
    "openDays": [
      "平日",
      "土曜日",
      "日曜日",
      "祝日"
    ],
    "openDaysNote": ""
  },
  {
    "id": "3670400872",
    "name": "ニチイケアセンター阿南",
    "kana": "ニチイケアセンターアナン",
    "address": "徳島県阿南市富岡町西石塚18-3西田ビル2F 西田ビル2F",
    "lat": 33.918701,
    "lng": 134.654066311639,
    "tel": "0884-23-2330",
    "url": "https://www.nichiigakkan.co.jp",
    "pref": "徳島県",
    "city": "阿南市",
    "category": "home_help",
    "serviceType": "訪問介護",
    "capacity": 0,
    "openDays": [
      "平日"
    ],
    "openDaysNote": "居宅サービス計画により、営業時間外でもサービスの提供を行う場合がある。"
  },
  {
    "id": "3670400856",
    "name": "ヘルパーステーション　まりん",
    "kana": "ヘルパーステーション　マリン",
    "address": "富岡町佃町571-3",
    "lat": 33.9223199,
    "lng": 134.6604121,
    "tel": "0884-49-5058",
    "url": "",
    "pref": "徳島県",
    "city": "阿南市",
    "category": "home_help",
    "serviceType": "訪問介護",
    "capacity": 8,
    "openDays": [
      "平日",
      "祝日"
    ],
    "openDaysNote": "営業時間外のご希望に関しては柔軟に対応させていただきます。"
  },
  {
    "id": "3670400690",
    "name": "ヘルパーステーションあゆむ",
    "kana": "ヘルパーステーションアユム",
    "address": "徳島県阿南市見能林町清水山ノ東7-1",
    "lat": 33.9037272488293,
    "lng": 134.668046373541,
    "tel": "０８８４－４９－１３５３",
    "url": "http://hs-ayumu.com",
    "pref": "徳島県",
    "city": "阿南市",
    "category": "home_help",
    "serviceType": "訪問介護",
    "capacity": 0,
    "openDays": [
      "平日",
      "土曜日",
      "日曜日",
      "祝日"
    ],
    "openDaysNote": "365日無休にてサービス提供実施。"
  },
  {
    "id": "3651380440",
    "name": "ヘルパーステーションはまゆう",
    "kana": "ヘルパーステーションハマユウ",
    "address": "阿南市羽ノ浦町中庄池ノ上55-1",
    "lat": 33.9579035064123,
    "lng": 134.635611695387,
    "tel": "0884-24-8828",
    "url": "",
    "pref": "徳島県",
    "city": "阿南市",
    "category": "home_help",
    "serviceType": "訪問介護",
    "capacity": 0,
    "openDays": [
      "平日",
      "土曜日",
      "祝日"
    ],
    "openDaysNote": "但し、利用者様の状況に応じ対応する。"
  },
  {
    "id": "3670400815",
    "name": "ヘルパーステーションひなた",
    "kana": "ヘルパーステーションヒナタ",
    "address": "徳島県阿南市羽ノ浦町中庄蔵ノホケ31-7タウンハウスIZUMIーF棟 タウンハウスIZUMIーF棟",
    "lat": 33.9202705,
    "lng": 134.6435089,
    "tel": "０８８４－４９－２３５７",
    "url": "",
    "pref": "徳島県",
    "city": "阿南市",
    "category": "home_help",
    "serviceType": "訪問介護",
    "capacity": 0,
    "openDays": [
      "平日",
      "祝日"
    ],
    "openDaysNote": "土・日・祝・年末年始（12/30～1/3）や8時30分～17時30分のそれ以外も相談に応じる。"
  },
  {
    "id": "3670400732",
    "name": "ヘルパーステーションほっとピース",
    "kana": "ヘルパーステーションホットピース",
    "address": "徳島県阿南市羽ノ浦町宮倉橋ノ本20番地6メゾン春日野Ⅰ　１０１ メゾン春日野Ⅰ　１０１",
    "lat": 33.9563936,
    "lng": 134.6152006,
    "tel": "0884-24-9881",
    "url": "",
    "pref": "徳島県",
    "city": "阿南市",
    "category": "home_help",
    "serviceType": "訪問介護",
    "capacity": 0,
    "openDays": [
      "平日",
      "土曜日",
      "祝日"
    ],
    "openDaysNote": "ただし、電話等により24時間連絡が可能な体制を整えるものとし、必要に応じて上記以外にも対応します。"
  },
  {
    "id": "3670400989",
    "name": "ヘルパーステーション陽海",
    "kana": "ヘルパ－ステ－ションハルミ",
    "address": "畭町新はり179番地１２",
    "lat": 33.9264523,
    "lng": 134.6865029,
    "tel": "088-449-5340",
    "url": "sora-harumi.com",
    "pref": "徳島県",
    "city": "阿南市",
    "category": "home_help",
    "serviceType": "訪問介護",
    "capacity": 40,
    "openDays": [
      "平日",
      "土曜日",
      "祝日"
    ],
    "openDaysNote": "（なお、利用者さんの要望及び、状態により、変更になる場合がある。）"
  },
  {
    "id": "3670400070",
    "name": "ホームヘルプサービス阿南市社協",
    "kana": "ホームヘルプサービスアナンシシャキョウ",
    "address": "徳島県阿南市富岡町北通３３番地１阿南市ひまわり会館内 阿南市ひまわり会館内",
    "lat": 33.9206408485454,
    "lng": 134.662173226984,
    "tel": "0884-23-7280",
    "url": "https://shakyo-anan.e-tokushima.or.jp/",
    "pref": "徳島県",
    "city": "阿南市",
    "category": "home_help",
    "serviceType": "訪問介護",
    "capacity": 0,
    "openDays": [
      "平日"
    ],
    "openDaysNote": "利用者との相談により提供時間帯以外でも対応可能。"
  },
  {
    "id": "3670101124",
    "name": "ライフサポートさくら",
    "kana": "ライフサポートサクラ",
    "address": "徳島県阿南市那賀川町芳崎146-2",
    "lat": 33.9583009,
    "lng": 134.6640924,
    "tel": "0884-21-2055",
    "url": "",
    "pref": "徳島県",
    "city": "阿南市",
    "category": "home_help",
    "serviceType": "訪問介護",
    "capacity": 0,
    "openDays": [
      "平日",
      "土曜日",
      "日曜日",
      "祝日"
    ],
    "openDaysNote": ""
  },
  {
    "id": "3670400021",
    "name": "阿南荘ホームヘルプサービス",
    "kana": "アナンソウホームヘルプサービス",
    "address": "徳島県阿南市宝田町今市金剛地４３",
    "lat": 33.9220841,
    "lng": 134.6463253,
    "tel": "0884-22-5118",
    "url": "http://anan-hukushikai.com",
    "pref": "徳島県",
    "city": "阿南市",
    "category": "home_help",
    "serviceType": "訪問介護",
    "capacity": 4,
    "openDays": [
      "平日",
      "土曜日",
      "日曜日",
      "祝日"
    ],
    "openDaysNote": ""
  },
  {
    "id": "3670400047",
    "name": "琴江荘訪問介護事業所",
    "kana": "キンコウソウホウモンカイゴジギョウショ",
    "address": "徳島県阿南市宝田町今市金剛寺３８番地１",
    "lat": 33.9251475,
    "lng": 134.6473502,
    "tel": "0884-23-1200",
    "url": "http://anan-hukushikai.com/",
    "pref": "徳島県",
    "city": "阿南市",
    "category": "home_help",
    "serviceType": "訪問介護",
    "capacity": 0,
    "openDays": [
      "平日",
      "土曜日",
      "日曜日",
      "祝日"
    ],
    "openDaysNote": ""
  },
  {
    "id": "3670400054",
    "name": "心和会　ホームヘルパーステーション悠和",
    "kana": "シンワカイ　ホームヘルパーステーション　ユウワ",
    "address": "徳島県阿南市新野町信里65ケアハウス悠和館 ケアハウス悠和館",
    "lat": 33.8466009982523,
    "lng": 134.599450201852,
    "tel": "0884-36-3822",
    "url": "https://maharahospital.jp/",
    "pref": "徳島県",
    "city": "阿南市",
    "category": "home_help",
    "serviceType": "訪問介護",
    "capacity": 0,
    "openDays": [
      "平日",
      "土曜日",
      "日曜日",
      "祝日"
    ],
    "openDaysNote": ""
  },
  {
    "id": "3670400757",
    "name": "特定非営利活動法人つなぐ手たけのこ",
    "kana": "トクテイヒエイリカツドウホウジンツナグテタケノコ",
    "address": "徳島県阿南市羽ノ浦町宮倉太田34-7",
    "lat": 33.9634037,
    "lng": 134.6174142,
    "tel": "0884-24-9824",
    "url": "",
    "pref": "徳島県",
    "city": "阿南市",
    "category": "home_help",
    "serviceType": "訪問介護",
    "capacity": 0,
    "openDays": [
      "平日"
    ],
    "openDaysNote": ""
  },
  {
    "id": "3670400583",
    "name": "訪問介護ステーションなかがわ苑",
    "kana": "ホウモンカイゴステーションナカガワエン",
    "address": "徳島県阿南市那賀川町大京原393-1",
    "lat": 33.9444919,
    "lng": 134.6495831,
    "tel": "884495862",
    "url": "",
    "pref": "徳島県",
    "city": "阿南市",
    "category": "home_help",
    "serviceType": "訪問介護",
    "capacity": 0,
    "openDays": [
      "平日",
      "土曜日",
      "日曜日",
      "祝日"
    ],
    "openDaysNote": ""
  },
  {
    "id": "3670400609",
    "name": "訪問介護事業所　なごみ",
    "kana": "ホウモンカイゴジギョウショナゴミ",
    "address": "徳島県阿南市羽ノ浦町中庄なかれ5番地2",
    "lat": 33.9554325,
    "lng": 134.6281518,
    "tel": "0884-21-8555",
    "url": "http//fujino.ezdns.jp",
    "pref": "徳島県",
    "city": "阿南市",
    "category": "home_help",
    "serviceType": "訪問介護",
    "capacity": 0,
    "openDays": [
      "平日",
      "土曜日",
      "日曜日",
      "祝日"
    ],
    "openDaysNote": ""
  },
  {
    "id": "3670400591",
    "name": "訪問介護事業所　ゆとり",
    "kana": "ホウモンカイゴジギョウショユトリ",
    "address": "徳島県阿南市那賀川町日向3-7",
    "lat": 33.9588592,
    "lng": 134.6486579,
    "tel": "0884-49-4260",
    "url": "",
    "pref": "徳島県",
    "city": "阿南市",
    "category": "home_help",
    "serviceType": "訪問介護",
    "capacity": 0,
    "openDays": [
      "平日",
      "土曜日",
      "日曜日",
      "祝日"
    ],
    "openDaysNote": "営業時間外は電話連絡可能。"
  },
  {
    "id": "3670400708",
    "name": "訪問介護事業所りん",
    "kana": "ホウモンカイゴジギョウショリン",
    "address": "阿南市那賀川町手島はり4番地3",
    "lat": 33.9542703397037,
    "lng": 134.652117317197,
    "tel": "0884-21-2267",
    "url": "",
    "pref": "徳島県",
    "city": "阿南市",
    "category": "home_help",
    "serviceType": "訪問介護",
    "capacity": null,
    "openDays": [
      "平日",
      "土曜日"
    ],
    "openDaysNote": ""
  },
  {
    "id": "3670400203",
    "name": "有限会社ライフサポートキムラ訪問介護事業部",
    "kana": "ユウゲンガイシャ　ライフサポートキムラホウモンカイゴジギョウブ",
    "address": "徳島県阿南市横見町高川原29番地",
    "lat": 33.9273415,
    "lng": 134.6542662,
    "tel": "0884-23-5031",
    "url": "https://www.lifesupportkimura.net",
    "pref": "徳島県",
    "city": "阿南市",
    "category": "home_help",
    "serviceType": "訪問介護",
    "capacity": 0,
    "openDays": [
      "平日",
      "土曜日",
      "日曜日",
      "祝日"
    ],
    "openDaysNote": "定休日以外は、上記の営業を実施しますが訪問介護員が確保できない場合は、協議の上、調整します。"
  },
  {
    "id": "3671600140",
    "name": "（有）訪問介護ステーションほほえみ",
    "kana": "ホウモンカイゴステーションホホエミ",
    "address": "徳島県阿波市阿波町善地１３３",
    "lat": 34.0830906,
    "lng": 134.2077827,
    "tel": "883352290",
    "url": "",
    "pref": "徳島県",
    "city": "阿波市",
    "category": "home_help",
    "serviceType": "訪問介護",
    "capacity": null,
    "openDays": [
      "平日",
      "土曜日",
      "日曜日",
      "祝日"
    ],
    "openDaysNote": ""
  },
  {
    "id": "3671600553",
    "name": "ＡＷＡ介護サービス",
    "kana": "アワカイゴサービス",
    "address": "阿波町勝命453-4",
    "lat": 34.0817842,
    "lng": 134.2633235,
    "tel": "0883-35-6030",
    "url": "",
    "pref": "徳島県",
    "city": "阿波市",
    "category": "home_help",
    "serviceType": "訪問介護",
    "capacity": 0,
    "openDays": [
      "平日",
      "土曜日",
      "祝日"
    ],
    "openDaysNote": ""
  },
  {
    "id": "3671600645",
    "name": "ウィズユーヘルパステーション",
    "kana": "ウィズユーヘルパーステーション",
    "address": "徳島県阿波市阿波町居屋敷４１番地１",
    "lat": 34.0754626,
    "lng": 134.2156733,
    "tel": "０８８３－３５－５６５０",
    "url": "ｋｏｈａｒａ４９４９@gmail.com",
    "pref": "徳島県",
    "city": "阿波市",
    "category": "home_help",
    "serviceType": "訪問介護",
    "capacity": 0,
    "openDays": [
      "平日",
      "土曜日",
      "日曜日",
      "祝日"
    ],
    "openDaysNote": ""
  },
  {
    "id": "3671600298",
    "name": "ノヴィルケアサービス株式会社",
    "kana": "ノビィルケアサービスカブシキガイシャ",
    "address": "阿波町南整理１４４－２",
    "lat": 34.0730789,
    "lng": 134.2020765,
    "tel": "0883-35-2343",
    "url": "",
    "pref": "徳島県",
    "city": "阿波市",
    "category": "home_help",
    "serviceType": "訪問介護",
    "capacity": 0,
    "openDays": [
      "平日",
      "土曜日",
      "日曜日",
      "祝日"
    ],
    "openDaysNote": ""
  },
  {
    "id": "3671600470",
    "name": "ヘルパーステーションシンシア",
    "kana": "ヘルパーステーションシンシア",
    "address": "吉野町西条字西大竹66-1",
    "lat": 34.1060168,
    "lng": 134.3800186,
    "tel": "088-696-5860",
    "url": "",
    "pref": "徳島県",
    "city": "阿波市",
    "category": "home_help",
    "serviceType": "訪問介護",
    "capacity": 0,
    "openDays": [
      "平日",
      "土曜日",
      "日曜日",
      "祝日"
    ],
    "openDaysNote": ""
  },
  {
    "id": "3671600629",
    "name": "ヘルパーステーションなせな",
    "kana": "ヘルパーステーションナセナ",
    "address": "徳島県阿波市土成町吉田字御所屋敷の二３４番地",
    "lat": 34.1071487317961,
    "lng": 134.354809582665,
    "tel": "088-678-5626",
    "url": "",
    "pref": "徳島県",
    "city": "阿波市",
    "category": "home_help",
    "serviceType": "訪問介護",
    "capacity": null,
    "openDays": [
      "平日"
    ],
    "openDaysNote": ""
  },
  {
    "id": "3671600116",
    "name": "ヘルパーステーションみどり",
    "kana": "ヘルパーステーションミドリ",
    "address": "徳島県阿波市市場町香美字秋葉本80番地1",
    "lat": 34.0852602,
    "lng": 134.2838688,
    "tel": "0883-36-7771",
    "url": "http://www.yotsubakai-midori.jp",
    "pref": "徳島県",
    "city": "阿波市",
    "category": "home_help",
    "serviceType": "訪問介護",
    "capacity": null,
    "openDays": [
      "平日",
      "土曜日",
      "日曜日",
      "祝日"
    ],
    "openDaysNote": ""
  },
  {
    "id": "3671600371",
    "name": "ヘルパーステーション安樹",
    "kana": "ヘルパーステーションアンジュ",
    "address": "徳島県阿波市土成町吉田字原田市の一63番地4",
    "lat": 34.1050225,
    "lng": 134.3535147,
    "tel": "088-637-8855",
    "url": "https://shinohara-shoji.com/",
    "pref": "徳島県",
    "city": "阿波市",
    "category": "home_help",
    "serviceType": "訪問介護",
    "capacity": 0,
    "openDays": [
      "平日",
      "土曜日",
      "日曜日",
      "祝日"
    ],
    "openDaysNote": ""
  },
  {
    "id": "3671500399",
    "name": "ヘルパーステーション御所",
    "kana": "ヘルパーステーションゴショ",
    "address": "徳島県阿波市土成町宮川内字神田133番地1",
    "lat": 34.1248455081764,
    "lng": 134.353757744041,
    "tel": "088-695-5533",
    "url": "",
    "pref": "徳島県",
    "city": "阿波市",
    "category": "home_help",
    "serviceType": "訪問介護",
    "capacity": 0,
    "openDays": [
      "平日",
      "土曜日",
      "日曜日",
      "祝日"
    ],
    "openDaysNote": "但しサービス提供時間は、6：00～22：00まで（改行）電話等で24時間常時連絡が可能な体制とする。"
  },
  {
    "id": "3671600355",
    "name": "阿波すだち",
    "kana": "アワスダチ",
    "address": "阿波町南五味知104-2",
    "lat": 34.0898337870262,
    "lng": 134.236541557672,
    "tel": "0883-35-2011",
    "url": "http://awasudachi.net/",
    "pref": "徳島県",
    "city": "阿波市",
    "category": "home_help",
    "serviceType": "訪問介護",
    "capacity": 10,
    "openDays": [
      "平日"
    ],
    "openDaysNote": "但し、利用者様の利便を考慮し上記の限りでない。"
  },
  {
    "id": "3671600546",
    "name": "阿波伊月ヘルパーステーション",
    "kana": "アワイツキヘルパーステーション",
    "address": "徳島県阿波市阿波町大原107-1サービス付き高齢者向け住宅　久千田 サービス付き高齢者向け住宅　久千田",
    "lat": 34.0794891,
    "lng": 134.2471225,
    "tel": "0883-35-2161",
    "url": "",
    "pref": "徳島県",
    "city": "阿波市",
    "category": "home_help",
    "serviceType": "訪問介護",
    "capacity": null,
    "openDays": [
      "平日",
      "土曜日",
      "日曜日"
    ],
    "openDaysNote": "相談により営業日時外の営業も利用可能"
  },
  {
    "id": "3671600223",
    "name": "阿波市社協ホームヘルプ事業所",
    "kana": "アワシシャキョウホームヘルプジギョウショ",
    "address": "徳島県阿波市市場町興崎字北分６０番地市場総合福祉センター 市場総合福祉センター",
    "lat": 34.0987203,
    "lng": 134.2889679,
    "tel": "０８８３－３６－５５１１",
    "url": "https://www.awasishakyo.com",
    "pref": "徳島県",
    "city": "阿波市",
    "category": "home_help",
    "serviceType": "訪問介護",
    "capacity": 0,
    "openDays": [
      "平日",
      "土曜日",
      "日曜日",
      "祝日"
    ],
    "openDaysNote": ""
  },
  {
    "id": "3671600397",
    "name": "青空訪問介護事業所",
    "kana": "アオゾラホウモンカイゴジギョウショ",
    "address": "徳島県阿波市阿波町平川原49番地",
    "lat": 34.0855211,
    "lng": 134.2750557,
    "tel": "0883-26-6133",
    "url": "",
    "pref": "徳島県",
    "city": "阿波市",
    "category": "home_help",
    "serviceType": "訪問介護",
    "capacity": 0,
    "openDays": [
      "平日",
      "土曜日",
      "日曜日",
      "祝日"
    ],
    "openDaysNote": ""
  },
  {
    "id": "3671600363",
    "name": "双葉訪問介護事業所",
    "kana": "フタバホウモンカイゴジギョウショ",
    "address": "徳島県阿波市市場町山野上字大西172-1",
    "lat": 34.088424,
    "lng": 134.2973146,
    "tel": "0883-36-2244",
    "url": "",
    "pref": "徳島県",
    "city": "阿波市",
    "category": "home_help",
    "serviceType": "訪問介護",
    "capacity": 0,
    "openDays": [
      "平日",
      "土曜日",
      "日曜日",
      "祝日"
    ],
    "openDaysNote": "利用者から希望がありそれに対応可能な場合はこの限りではありません"
  },
  {
    "id": "3671600207",
    "name": "福祉センターエコサポート",
    "kana": "フクシセンターエコサポート",
    "address": "徳島県阿波市土成町水田字月成184番地",
    "lat": 34.0951258812092,
    "lng": 134.31530374318,
    "tel": "088-679-7652",
    "url": "",
    "pref": "徳島県",
    "city": "阿波市",
    "category": "home_help",
    "serviceType": "訪問介護",
    "capacity": 0,
    "openDays": [
      "平日",
      "土曜日",
      "日曜日",
      "祝日"
    ],
    "openDaysNote": "休日も電話対応しています。"
  },
  {
    "id": "3671600421",
    "name": "訪問介護ステーションみらい",
    "kana": "ホウモンカイゴステーションミライ",
    "address": "徳島県阿波市吉野町柿原1丁目358番地1",
    "lat": 34.0903545,
    "lng": 134.3369246,
    "tel": "088-696-4002",
    "url": "",
    "pref": "徳島県",
    "city": "阿波市",
    "category": "home_help",
    "serviceType": "訪問介護",
    "capacity": 0,
    "openDays": [
      "平日",
      "土曜日",
      "日曜日",
      "祝日"
    ],
    "openDaysNote": ""
  },
  {
    "id": "3671600504",
    "name": "訪問介護はな",
    "kana": "ホウモンカイゴハナ",
    "address": "徳島県阿波市阿波町東原146-1",
    "lat": 34.0817136487859,
    "lng": 134.234194288578,
    "tel": "０８８３－３５－２２０２",
    "url": "",
    "pref": "徳島県",
    "city": "阿波市",
    "category": "home_help",
    "serviceType": "訪問介護",
    "capacity": 0,
    "openDays": [
      "平日",
      "土曜日"
    ],
    "openDaysNote": ""
  },
  {
    "id": "3671600033",
    "name": "有限会社　ケアセンター藤崎",
    "kana": "ユウゲンガイシャ　ケアセンターフジサキ",
    "address": "徳島県阿波市阿波町平川原北65-10",
    "lat": 34.083874,
    "lng": 134.2754196,
    "tel": "0883-36-6577",
    "url": "",
    "pref": "徳島県",
    "city": "阿波市",
    "category": "home_help",
    "serviceType": "訪問介護",
    "capacity": 0,
    "openDays": [
      "平日",
      "土曜日",
      "日曜日",
      "祝日"
    ],
    "openDaysNote": "電話等により24時間、常時連絡が可能な体制とする。"
  },
  {
    "id": "3671600157",
    "name": "有限会社アイサービス",
    "kana": "ユウゲンガイシャアイサービス",
    "address": "徳島県阿波市阿波町山ノ神61-1",
    "lat": 34.0988775,
    "lng": 134.2273346,
    "tel": "0883-35-7567",
    "url": "harada888@mb.pikara.ne.jp",
    "pref": "徳島県",
    "city": "阿波市",
    "category": "home_help",
    "serviceType": "訪問介護",
    "capacity": 2,
    "openDays": [
      "平日",
      "土曜日",
      "日曜日",
      "祝日"
    ],
    "openDaysNote": "ただし利用者からの要望があれば随時対応する。なお、電話等により常時連絡が可能な体制とする。"
  },
  {
    "id": "3671600264",
    "name": "有限会社ゆうあい",
    "kana": "ユウゲンカイシャユウアイ",
    "address": "徳島県阿波市阿波町南整理２５３－１",
    "lat": 34.0678378,
    "lng": 134.1925247,
    "tel": "0883-35-2925",
    "url": "",
    "pref": "徳島県",
    "city": "阿波市",
    "category": "home_help",
    "serviceType": "訪問介護",
    "capacity": 0,
    "openDays": [
      "平日",
      "土曜日",
      "祝日"
    ],
    "openDaysNote": ""
  },
  {
    "id": "3671600215",
    "name": "有限会社優しい介護",
    "kana": "ユウゲンカイシャヤサシイカイゴ",
    "address": "市場町上喜来字南久保752",
    "lat": 34.1010585,
    "lng": 134.2716472,
    "tel": "0883-36-2914",
    "url": "",
    "pref": "徳島県",
    "city": "阿波市",
    "category": "home_help",
    "serviceType": "訪問介護",
    "capacity": 0,
    "openDays": [
      "平日"
    ],
    "openDaysNote": "利用者様のケアープランによるので時間は決められませんが通常の時間範囲は7時より19時頃位。"
  },
  {
    "id": "3671400475",
    "name": "セントケア海陽",
    "kana": "セントケアカイヨウ",
    "address": "徳島県海部郡海陽町奥浦字一宇谷1番17徳島県海部郡海陽町奥浦字一宇谷1番17 徳島県海部郡海陽町奥浦字一宇谷1番17",
    "lat": 33.5932744721768,
    "lng": 134.3523783885,
    "tel": "0884-74-3611",
    "url": "",
    "pref": "徳島県",
    "city": "海陽町",
    "category": "home_help",
    "serviceType": "訪問介護",
    "capacity": 0,
    "openDays": [
      "平日",
      "祝日"
    ],
    "openDaysNote": "サービス提供時間は、事前に居宅介護支援等により、計画された居宅サービス計画に基づくものとし、原則として近況に依頼された訪問介護の提供は行わないものとする。"
  },
  {
    "id": "3671400350",
    "name": "ヘルパーステーション　笑顔",
    "kana": "ヘルパーステーション　エガオ",
    "address": "徳島県海部郡海陽町久保字板取１２-４",
    "lat": 33.5695046,
    "lng": 134.3053041,
    "tel": "0884-74-6601",
    "url": "http://orino.jp",
    "pref": "徳島県",
    "city": "海陽町",
    "category": "home_help",
    "serviceType": "訪問介護",
    "capacity": 0,
    "openDays": [
      "平日",
      "土曜日",
      "日曜日",
      "祝日"
    ],
    "openDaysNote": "ケアプランの内容に応じて上記時間外のサービスを提供することもある。"
  },
  {
    "id": "3671400392",
    "name": "海陽町訪問介護事業所",
    "kana": "カイヨウチョウホウモンカイゴジギョウショ",
    "address": "徳島県海部郡海陽町奥浦字新町４４番地海陽町役場海部庁舎　２階 海陽町役場海部庁舎　２階",
    "lat": 33.596188,
    "lng": 134.3527077,
    "tel": "0884-73-2738",
    "url": "https://www.kaiyo-shakyo.jp/",
    "pref": "徳島県",
    "city": "海陽町",
    "category": "home_help",
    "serviceType": "訪問介護",
    "capacity": 0,
    "openDays": [
      "平日"
    ],
    "openDaysNote": ""
  },
  {
    "id": "3671700551",
    "name": "セントケア吉野川",
    "kana": "セントケアヨシノガワ",
    "address": "徳島県吉野川市川島町三ツ島字北新田482",
    "lat": 34.063852396813,
    "lng": 134.278652919797,
    "tel": "0883-26-3120",
    "url": "",
    "pref": "徳島県",
    "city": "吉野川市",
    "category": "home_help",
    "serviceType": "訪問介護",
    "capacity": 0,
    "openDays": [
      "平日",
      "土曜日",
      "日曜日",
      "祝日"
    ],
    "openDaysNote": "サービス提供時間は、事前に居宅介護支援等により、計画されて居宅サービス計画に基づくものとし、原則として緊急に依頼された訪問介護の提供は行わないものとする。"
  },
  {
    "id": "3671700098",
    "name": "デイセンターアルル",
    "kana": "デイセンターアルル",
    "address": "徳島県吉野川市鴨島町内原46番地3健祥会プロバンス 健祥会プロバンス",
    "lat": 34.0687962,
    "lng": 134.3732107,
    "tel": "0883-24-3888",
    "url": "http://www.kenshokai.group/",
    "pref": "徳島県",
    "city": "吉野川市",
    "category": "home_help",
    "serviceType": "訪問介護",
    "capacity": 40,
    "openDays": [
      "平日",
      "土曜日",
      "日曜日",
      "祝日"
    ],
    "openDaysNote": "通常の営業時間外については、居宅介護支援事業者・介護予防支援事業所（地域包括支援センター）の要請があり、訪問介護員の調整がつく場合は実施しています。"
  },
  {
    "id": "3671700429",
    "name": "ふたごケア株式会社",
    "kana": "フタゴケアカブシキガイシャ",
    "address": "徳島県吉野川市鴨島町西麻植字檀ノ原98番地19",
    "lat": 34.0610522,
    "lng": 134.3389412,
    "tel": "0883－26－0667",
    "url": "",
    "pref": "徳島県",
    "city": "吉野川市",
    "category": "home_help",
    "serviceType": "訪問介護",
    "capacity": 6,
    "openDays": [
      "平日",
      "土曜日",
      "日曜日",
      "祝日"
    ],
    "openDaysNote": "事前に希望する日時を利用者より聴き取りし、それに対応致します。"
  },
  {
    "id": "3671700726",
    "name": "ヘルパーステーション　ぽっかぽか",
    "kana": "ヘルパーステーション　ポッカポカ",
    "address": "徳島県吉野川市川島町山田字中須賀２５－１７",
    "lat": 34.0648681445213,
    "lng": 134.329630037365,
    "tel": "0883-26-9696",
    "url": "",
    "pref": "徳島県",
    "city": "吉野川市",
    "category": "home_help",
    "serviceType": "訪問介護",
    "capacity": 12,
    "openDays": [
      "平日",
      "土曜日",
      "祝日"
    ],
    "openDaysNote": "利用者の希望に応じて、サービスの提供については、２４時間対応可能な体制を整えるものとします。"
  },
  {
    "id": "3671700411",
    "name": "ヘルパーステーションあわ",
    "kana": "ヘルパーステーションアワ",
    "address": "徳島県吉野川市鴨島町鴨島５３８番の８",
    "lat": 34.0732679,
    "lng": 134.3555868,
    "tel": "0883-26-1100",
    "url": "http://itokawa-akewa.jp/",
    "pref": "徳島県",
    "city": "吉野川市",
    "category": "home_help",
    "serviceType": "訪問介護",
    "capacity": 0,
    "openDays": [
      "平日",
      "祝日"
    ],
    "openDaysNote": "電話等により常時連絡が可能な体制とする。"
  },
  {
    "id": "3671700379",
    "name": "ヘルパーステーションゆず",
    "kana": "ヘルパーステーションユズ",
    "address": "徳島県吉野川市鴨島町敷地３６４番地１０",
    "lat": 34.0571192903408,
    "lng": 134.34448872782,
    "tel": "0883－26－0884",
    "url": "http://yuzu-kaigo.info/",
    "pref": "徳島県",
    "city": "吉野川市",
    "category": "home_help",
    "serviceType": "訪問介護",
    "capacity": 0,
    "openDays": [
      "平日"
    ],
    "openDaysNote": "利用者の状況に応じ、介護支援専門員と相談の上、時間外の訪問の相談を受けている。"
  },
  {
    "id": "3671700841",
    "name": "ヘルパーステーション菜花",
    "kana": "ヘルパーステーションナノハ",
    "address": "徳島県吉野川市川島町学字西出目106-3",
    "lat": 34.0577193,
    "lng": 134.2741406,
    "tel": "0883-38-9560",
    "url": "",
    "pref": "徳島県",
    "city": "吉野川市",
    "category": "home_help",
    "serviceType": "訪問介護",
    "capacity": 0,
    "openDays": [
      "平日",
      "祝日"
    ],
    "openDaysNote": "但し、12月29日～1月3日年末年始休業"
  },
  {
    "id": "3671700171",
    "name": "ヘルパーステーション和紙のさと",
    "kana": "ヘルパーステーションワシノサト",
    "address": "山川町川田８９８－１",
    "lat": 34.0583059,
    "lng": 134.2166756,
    "tel": "0883-26-4141",
    "url": "http://www.hakuyuu.com",
    "pref": "徳島県",
    "city": "吉野川市",
    "category": "home_help",
    "serviceType": "訪問介護",
    "capacity": 35,
    "openDays": [
      "平日",
      "土曜日",
      "祝日"
    ],
    "openDaysNote": "基本的な時間は上記のとおりであるが、早朝、夜間の対応も可能。"
  },
  {
    "id": "3671700924",
    "name": "ホームヘルパーステーションみま",
    "kana": "ホームヘルパーステーションミマ",
    "address": "徳島県吉野川市鴨島町上下島421番地ー1",
    "lat": 34.070905327593,
    "lng": 134.350082540337,
    "tel": "0883-26-0850",
    "url": "http//www.mima-gr.jp/",
    "pref": "徳島県",
    "city": "吉野川市",
    "category": "home_help",
    "serviceType": "訪問介護",
    "capacity": null,
    "openDays": [
      "平日",
      "土曜日",
      "日曜日",
      "祝日"
    ],
    "openDaysNote": "利用者様の必要に応じて8：00～18：00迄、相談のうえ対応させていただきます。"
  },
  {
    "id": "3671700361",
    "name": "ヤマセ介護サービス",
    "kana": "ヤマセカイゴサービス",
    "address": "徳島県吉野川市山川町前川１６７－２",
    "lat": 34.0594182,
    "lng": 134.23739,
    "tel": "０８８３－４２－７７７７",
    "url": "https://www.yamasekanko.net/",
    "pref": "徳島県",
    "city": "吉野川市",
    "category": "home_help",
    "serviceType": "訪問介護",
    "capacity": 11,
    "openDays": [
      "平日"
    ],
    "openDaysNote": ""
  },
  {
    "id": "3611713102",
    "name": "医療法人　中西内科クリニック",
    "kana": "イリョウホウジン　ナカニシナイカクリニック",
    "address": "徳島県吉野川市山川町川東88-1",
    "lat": 34.0447775,
    "lng": 134.2289721,
    "tel": "0883-42-6755",
    "url": "http://koutukai.com",
    "pref": "徳島県",
    "city": "吉野川市",
    "category": "home_help",
    "serviceType": "訪問介護",
    "capacity": 0,
    "openDays": [
      "平日",
      "土曜日",
      "祝日"
    ],
    "openDaysNote": ""
  },
  {
    "id": "3671700023",
    "name": "菊美荘ホームヘルパーステーション",
    "kana": "キクミソウホームヘルパーステーション",
    "address": "徳島県吉野川市鴨島町上下島字大北443番地2",
    "lat": 34.0720219645466,
    "lng": 134.349668722784,
    "tel": "0883-24-6137",
    "url": "",
    "pref": "徳島県",
    "city": "吉野川市",
    "category": "home_help",
    "serviceType": "訪問介護",
    "capacity": 0,
    "openDays": [
      "平日",
      "土曜日",
      "日曜日",
      "祝日"
    ],
    "openDaysNote": "必要に応じ、午前7時～午後8時まで延長可能。"
  },
  {
    "id": "3671700304",
    "name": "社会福祉法人吉野川市社会福祉協議会訪問介護事業所",
    "kana": "シャカイフクシホウジンヨシノガワシシャカイフクシキョウギカイホウモンカイゴジギョウショ",
    "address": "徳島県吉野川市鴨島町鴨島252番地１吉野川市民プラザ内 吉野川市民プラザ内",
    "lat": 34.0702743854382,
    "lng": 134.356336916533,
    "tel": "０８８３－２２－２７４２",
    "url": "http://www.yossya.jp",
    "pref": "徳島県",
    "city": "吉野川市",
    "category": "home_help",
    "serviceType": "訪問介護",
    "capacity": 0,
    "openDays": [
      "平日",
      "祝日"
    ],
    "openDaysNote": ""
  },
  {
    "id": "3671700403",
    "name": "特定非営利活動法人　ハートこあら",
    "kana": "トクテイヒエイリカツドウホウジン　ハートコアラ",
    "address": "山川町湯立320番地5",
    "lat": 34.0557804914258,
    "lng": 134.233000241738,
    "tel": "0883-42-6341",
    "url": "http://heart-koala.com",
    "pref": "徳島県",
    "city": "吉野川市",
    "category": "home_help",
    "serviceType": "訪問介護",
    "capacity": 60,
    "openDays": [
      "平日",
      "土曜日"
    ],
    "openDaysNote": "※急を要する場合はこの限りではありません。"
  },
  {
    "id": "3611713136",
    "name": "訪問介護さくら",
    "kana": "ホウモンカイゴサクラ",
    "address": "徳島県吉野川市山川町前川212-6",
    "lat": 34.0568304078742,
    "lng": 134.239279777379,
    "tel": "0883-42-6703",
    "url": "",
    "pref": "徳島県",
    "city": "吉野川市",
    "category": "home_help",
    "serviceType": "訪問介護",
    "capacity": 0,
    "openDays": [
      "平日"
    ],
    "openDaysNote": "居宅サービス計画に基づきサービス提供を行う。"
  },
  {
    "id": "3671700700",
    "name": "訪問介護ステーションあわふじ",
    "kana": "ホウモンカイゴステーションアワフジ",
    "address": "徳島県吉野川市山川町村雲196",
    "lat": 34.0557700086908,
    "lng": 134.225740839565,
    "tel": "0883-42-6522",
    "url": "",
    "pref": "徳島県",
    "city": "吉野川市",
    "category": "home_help",
    "serviceType": "訪問介護",
    "capacity": 0,
    "openDays": [],
    "openDaysNote": "利用者の状況相談により、24時間ｻｰﾋﾞｽを提供する。"
  },
  {
    "id": "3671700387",
    "name": "有限会社　真商事",
    "kana": "ユウゲンガイシャ　マコトショウジ",
    "address": "徳島県吉野川市鴨島町敷地514番地1",
    "lat": 34.055506,
    "lng": 134.3485347,
    "tel": "0883-26-1088",
    "url": "http://care-net.biz/36/makoto/",
    "pref": "徳島県",
    "city": "吉野川市",
    "category": "home_help",
    "serviceType": "訪問介護",
    "capacity": 0,
    "openDays": [
      "平日",
      "土曜日",
      "日曜日",
      "祝日"
    ],
    "openDaysNote": "緊急時及び、利用者の要望があれば対応させて頂きます。"
  },
  {
    "id": "3670600265",
    "name": "そよかぜ訪問介護ステーション",
    "kana": "ソヨカゼ　ホウモンカイゴ　ステーション",
    "address": "徳島県三好市池田町中西西原209-1",
    "lat": 34.0090121,
    "lng": 133.7867579,
    "tel": "0883-74-1250",
    "url": "https://uchida-kai.jp/kaigo-homes/soyokaze/",
    "pref": "徳島県",
    "city": "三好市",
    "category": "home_help",
    "serviceType": "訪問介護",
    "capacity": 20,
    "openDays": [
      "平日",
      "土曜日",
      "日曜日",
      "祝日"
    ],
    "openDaysNote": "365日対応の上、利用者の希望に応じて24時間対応可能な体制を整えるものとする。"
  },
  {
    "id": "3671900243",
    "name": "永楽荘在宅介護支援センター",
    "kana": "エイラクソウザイタクカイゴシエンセンター",
    "address": "徳島県三好市池田町州津西ノ久保２７３－１永楽荘在宅介護支援センター 永楽荘在宅介護支援センター",
    "lat": 34.0346411,
    "lng": 133.8400817,
    "tel": "０８８３－７２－６００３",
    "url": "",
    "pref": "徳島県",
    "city": "三好市",
    "category": "home_help",
    "serviceType": "訪問介護",
    "capacity": 0,
    "openDays": [
      "平日",
      "土曜日",
      "日曜日",
      "祝日"
    ],
    "openDaysNote": "３６５日２４時間対応させて頂いています。"
  },
  {
    "id": "3670600133",
    "name": "株式会社　幸の和",
    "kana": "カブシキガイシャサイワイノワ",
    "address": "徳島県三好市三野町芝生1098-1",
    "lat": 34.0412118207768,
    "lng": 133.972372197931,
    "tel": "0883-76-2877",
    "url": "",
    "pref": "徳島県",
    "city": "三好市",
    "category": "home_help",
    "serviceType": "訪問介護",
    "capacity": null,
    "openDays": [
      "平日",
      "土曜日",
      "日曜日",
      "祝日"
    ],
    "openDaysNote": ""
  },
  {
    "id": "3670600372",
    "name": "三好市ヘルパーステーション",
    "kana": "ミヨシシヘルパーステーション",
    "address": "徳島県三好市池田町サラダ1884番地4三好市社会福祉協議会 三好市社会福祉協議会",
    "lat": 34.0259366,
    "lng": 133.8032137,
    "tel": "0883-72-5745",
    "url": "",
    "pref": "徳島県",
    "city": "三好市",
    "category": "home_help",
    "serviceType": "訪問介護",
    "capacity": 0,
    "openDays": [
      "平日",
      "土曜日",
      "日曜日",
      "祝日"
    ],
    "openDaysNote": ""
  },
  {
    "id": "3670600059",
    "name": "三好市西部ヘルパーステーション",
    "kana": "ミヨシシセイブヘルパーステーション",
    "address": "徳島県三好市西祖谷山村一宇343-4西祖谷老人福祉センター 西祖谷老人福祉センター",
    "lat": 33.8931374050882,
    "lng": 133.816995250297,
    "tel": "0883-87-2088",
    "url": "http：//miyoshicity-shakyo-jp/",
    "pref": "徳島県",
    "city": "三好市",
    "category": "home_help",
    "serviceType": "訪問介護",
    "capacity": 0,
    "openDays": [
      "平日",
      "土曜日",
      "日曜日",
      "祝日"
    ],
    "openDaysNote": "土曜、日曜、祝日のみの訪問はしておりません。（改行）山間部での介護サービスなので移動に時間がかかる場合があります。"
  },
  {
    "id": "3671900037",
    "name": "山城会ホームヘルパーステーション",
    "kana": "ヤマシロカイホームヘルパーステーション",
    "address": "徳島県三好市山城町西宇1227-4",
    "lat": 33.9132442,
    "lng": 133.7589249,
    "tel": "0883-84-1171",
    "url": "http://yamashirokai.or.jp/",
    "pref": "徳島県",
    "city": "三好市",
    "category": "home_help",
    "serviceType": "訪問介護",
    "capacity": null,
    "openDays": [
      "平日",
      "土曜日",
      "祝日"
    ],
    "openDaysNote": "電話などにより、２４時間常時連絡が可能な体制となっております。"
  },
  {
    "id": "3671900136",
    "name": "特別養護老人ホーム健祥会清盛",
    "kana": "トクベツヨウゴロウジンホームケンショウカイキヨモリ",
    "address": "徳島県三好市東祖谷古味36番地1",
    "lat": 33.8382284,
    "lng": 133.8942426,
    "tel": "0883-88-5615",
    "url": "http://www.kenshokai.group",
    "pref": "徳島県",
    "city": "三好市",
    "category": "home_help",
    "serviceType": "訪問介護",
    "capacity": 40,
    "openDays": [
      "平日",
      "土曜日",
      "日曜日",
      "祝日"
    ],
    "openDaysNote": "電話等で24時間常時連絡が可能な体制となっています。また、居宅介護支援事業所によるケアプランの内容により上記時間以外でもサービス対応が可能な場合がある。"
  },
  {
    "id": "3670600398",
    "name": "有限会社マダムエイド",
    "kana": "ユウゲンガイシャマダムエイド",
    "address": "徳島県三好市池田町ウエノ2671-11",
    "lat": 34.0297297,
    "lng": 133.7999474,
    "tel": "0883-72-2770",
    "url": "",
    "pref": "徳島県",
    "city": "三好市",
    "category": "home_help",
    "serviceType": "訪問介護",
    "capacity": 0,
    "openDays": [
      "平日",
      "土曜日",
      "祝日"
    ],
    "openDaysNote": "身体介護、生活援助はもとより、個々の利用者のメンタルケアや状況に応じた要望等に応え良質なサービス提供に心がけている。"
  },
  {
    "id": "3671000085",
    "name": "特別養護老人ホーム喜楽苑",
    "kana": "トクベツヨウゴロウジンホームキラクエン",
    "address": "徳島県勝浦郡勝浦町大字棚野字竹国１０番１",
    "lat": 33.9319361,
    "lng": 134.5046571,
    "tel": "0885-42-3700",
    "url": "http://syoujukai.or.jp",
    "pref": "徳島県",
    "city": "勝浦町",
    "category": "home_help",
    "serviceType": "訪問介護",
    "capacity": null,
    "openDays": [
      "平日",
      "土曜日",
      "日曜日",
      "祝日"
    ],
    "openDaysNote": "緊急の場合を除きます。"
  },
  {
    "id": "3670101801",
    "name": "ヘルパーステーション　ぱーとなー",
    "kana": "ヘルパーステーション　パートナー",
    "address": "徳島県小松島市中郷町字加藤152番地の１",
    "lat": 34.0068612,
    "lng": 134.5697707,
    "tel": "0885-35-3699",
    "url": "www.pa-tona-kids.com",
    "pref": "徳島県",
    "city": "小松島市",
    "category": "home_help",
    "serviceType": "訪問介護",
    "capacity": 0,
    "openDays": [
      "平日",
      "土曜日",
      "日曜日",
      "祝日"
    ],
    "openDaysNote": "電話は２４時間対応可"
  },
  {
    "id": "3670300098",
    "name": "ヘルパーステーション　ひまわり",
    "kana": "ヘルパーステーション　ヒマワリ",
    "address": "小松島市中田町字新開58番地",
    "lat": 34.0137687,
    "lng": 134.5824857,
    "tel": "0885-32-2277",
    "url": "ｈｔｔｐ：∥ｗｗｗ13．ｐｌａｌａ．ｏｒ．ｊｐ/ｒｏｙａｌ-ｈｐ/",
    "pref": "徳島県",
    "city": "小松島市",
    "category": "home_help",
    "serviceType": "訪問介護",
    "capacity": 0,
    "openDays": [
      "平日",
      "土曜日",
      "祝日"
    ],
    "openDaysNote": "台風、豪雪、洪水など訪問に支障を起たす場合に於いては訪問を変更、中止する事があります。"
  },
  {
    "id": "3671300386",
    "name": "ヘルパーステーション　ぽっかぽか",
    "kana": "ヘルパーステーション　ポッカポカ",
    "address": "徳島県小松島市田野町字高田53-3",
    "lat": 33.9831368,
    "lng": 134.5969508,
    "tel": "0885-35-2170",
    "url": "",
    "pref": "徳島県",
    "city": "小松島市",
    "category": "home_help",
    "serviceType": "訪問介護",
    "capacity": 0,
    "openDays": [
      "平日",
      "土曜日",
      "日曜日",
      "祝日"
    ],
    "openDaysNote": "ヘルパーの空き状況により変動します。ご了承下さい。"
  },
  {
    "id": "3670300551",
    "name": "ヘルパーステーションくろーばー",
    "kana": "ヘルパーステーションクローバー",
    "address": "徳島県小松島市横須町１３番７７号",
    "lat": 34.0017322325102,
    "lng": 134.59581132209,
    "tel": "0885-34-9594",
    "url": "",
    "pref": "徳島県",
    "city": "小松島市",
    "category": "home_help",
    "serviceType": "訪問介護",
    "capacity": null,
    "openDays": [
      "平日"
    ],
    "openDaysNote": "上記営業日、及び営業時間外のサービス提供については応相談。"
  },
  {
    "id": "3670300254",
    "name": "ヘルパーステーションライフ",
    "kana": "ヘルパーステーションライフ",
    "address": "徳島県小松島市赤石町14番27号",
    "lat": 33.980108951564,
    "lng": 134.611072526355,
    "tel": "0885-38-2706",
    "url": "http://www.jiyukai.jp/",
    "pref": "徳島県",
    "city": "小松島市",
    "category": "home_help",
    "serviceType": "訪問介護",
    "capacity": 0,
    "openDays": [
      "平日",
      "土曜日",
      "日曜日",
      "祝日"
    ],
    "openDaysNote": ""
  },
  {
    "id": "3670300064",
    "name": "小松島ヘルパーステーション",
    "kana": "コマツシマヘルパーステーション",
    "address": "徳島県小松島市田浦町字近里85番2",
    "lat": 34.00307,
    "lng": 134.5692042,
    "tel": "0885-32-1237",
    "url": "http://www.sudachikai.jp",
    "pref": "徳島県",
    "city": "小松島市",
    "category": "home_help",
    "serviceType": "訪問介護",
    "capacity": 0,
    "openDays": [
      "平日",
      "土曜日",
      "日曜日",
      "祝日"
    ],
    "openDaysNote": ""
  },
  {
    "id": "3670300056",
    "name": "千歳苑指定訪問介護事業所",
    "kana": "チトセエンシテイホウモンカイゴジギョウショ",
    "address": "徳島県小松島市小松島町字元根井54番地1",
    "lat": 34.0153574,
    "lng": 134.5911596,
    "tel": "0885-33-2040",
    "url": "https://aishinkai-t.com/titoseen/",
    "pref": "徳島県",
    "city": "小松島市",
    "category": "home_help",
    "serviceType": "訪問介護",
    "capacity": 0,
    "openDays": [
      "平日",
      "土曜日",
      "日曜日",
      "祝日"
    ],
    "openDaysNote": "介護タクシー：営業時間　8：00～17：00（日曜定休日）"
  },
  {
    "id": "3670100118",
    "name": "平成ヘルパーステーション",
    "kana": "ヘイセイヘルパーステーション",
    "address": "徳島県小松島市大林町字北浦20番地1",
    "lat": 33.9764000123082,
    "lng": 134.619700818904,
    "tel": "0885-37-2911",
    "url": "",
    "pref": "徳島県",
    "city": "小松島市",
    "category": "home_help",
    "serviceType": "訪問介護",
    "capacity": 0,
    "openDays": [
      "平日",
      "土曜日",
      "日曜日",
      "祝日"
    ],
    "openDaysNote": "利用の申し出がある場合は時間外の対応も行います。"
  },
  {
    "id": "3670300387",
    "name": "訪問介護サービス青い鳥",
    "kana": "ホウモンカイゴサービスアオイトリ",
    "address": "徳島県小松島市田浦町近里83番地1ケントパレス徳島南703号 ケントパレス徳島南703号",
    "lat": 34.0027938,
    "lng": 134.5683974,
    "tel": "0885-38-6015",
    "url": "https://care-net.biz/36/aoitori-support/",
    "pref": "徳島県",
    "city": "小松島市",
    "category": "home_help",
    "serviceType": "訪問介護",
    "capacity": 0,
    "openDays": [
      "平日",
      "土曜日",
      "祝日"
    ],
    "openDaysNote": "上記利用可能時間帯以外や、定休日においても、利用者のニーズに（改行）添える様、できる限り対応しております。"
  },
  {
    "id": "3650380094",
    "name": "訪問介護ステーションゆう",
    "kana": "ホウモンカイゴステーションユウ",
    "address": "徳島県小松島市中田町字狭間48",
    "lat": 34.0152656,
    "lng": 134.5706537,
    "tel": "0885-33-1828",
    "url": "http://www.seiyukai.com",
    "pref": "徳島県",
    "city": "小松島市",
    "category": "home_help",
    "serviceType": "訪問介護",
    "capacity": 0,
    "openDays": [
      "平日"
    ],
    "openDaysNote": ""
  },
  {
    "id": "3670300585",
    "name": "訪問介護ステーションゆう",
    "kana": "ホウモンカイゴステーションユウ",
    "address": "徳島県小松島市中田町字狭間47番地",
    "lat": 34.0150962,
    "lng": 134.5705882,
    "tel": "0885-35-1260",
    "url": "http://tenma-hpg.com/",
    "pref": "徳島県",
    "city": "小松島市",
    "category": "home_help",
    "serviceType": "訪問介護",
    "capacity": 0,
    "openDays": [
      "平日",
      "土曜日",
      "日曜日",
      "祝日"
    ],
    "openDaysNote": "第5条　事業所の営業日及び営業時間、サービス提供時間は次のとおりとする。（改行）サービス提供時間：24時間対応"
  },
  {
    "id": "3671500134",
    "name": "えんじゅホームヘルパーステーション",
    "kana": "エンジュホームヘルパーステーション",
    "address": "徳島県板野郡松茂町広島字四番越５番地１",
    "lat": 34.1366623,
    "lng": 134.5836892,
    "tel": "088-699-8388",
    "url": "http://www.yujoukai.jp/",
    "pref": "徳島県",
    "city": "松茂町",
    "category": "home_help",
    "serviceType": "訪問介護",
    "capacity": 0,
    "openDays": [
      "平日",
      "土曜日",
      "祝日"
    ],
    "openDaysNote": ""
  },
  {
    "id": "3671502171",
    "name": "ケアステーション・エール",
    "kana": "ケアステーション・エール",
    "address": "笹木野字八下２３番地１１",
    "lat": 34.1320807,
    "lng": 134.5857712,
    "tel": "088-661-6664",
    "url": "",
    "pref": "徳島県",
    "city": "松茂町",
    "category": "home_help",
    "serviceType": "訪問介護",
    "capacity": 0,
    "openDays": [
      "平日"
    ],
    "openDaysNote": "必要に応じて土曜日、日曜日も対応します。"
  },
  {
    "id": "3671501561",
    "name": "ふくゆうヘルパーステーション",
    "kana": "フクユウヘルパーステーション",
    "address": "徳島県板野郡松茂町笹木野字八北開拓175番地1",
    "lat": 34.1434952,
    "lng": 134.5945188,
    "tel": "088-678-7633",
    "url": "https://www.yujoukai.jp",
    "pref": "徳島県",
    "city": "松茂町",
    "category": "home_help",
    "serviceType": "訪問介護",
    "capacity": 0,
    "openDays": [
      "平日",
      "土曜日",
      "日曜日",
      "祝日"
    ],
    "openDaysNote": ""
  },
  {
    "id": "3670102775",
    "name": "ヘルパーステーション　員",
    "kana": "ヘルパーステーション　カズ",
    "address": "徳島県板野郡松茂町中喜来字稲本２２７－２カーサセレーノB202 カーサセレーノB202",
    "lat": 34.1445923,
    "lng": 134.5946409,
    "tel": "０８８－６７９－６２７５",
    "url": "",
    "pref": "徳島県",
    "city": "松茂町",
    "category": "home_help",
    "serviceType": "訪問介護",
    "capacity": 0,
    "openDays": [
      "平日",
      "土曜日",
      "日曜日",
      "祝日"
    ],
    "openDaysNote": ""
  },
  {
    "id": "3671502221",
    "name": "ヘルパーステーション「長生苑」",
    "kana": "ヘルパーステーション「チョウセイエン」",
    "address": "徳島県板野郡松茂町満穂字満穂開拓７９番地１",
    "lat": 34.1402964,
    "lng": 134.600241,
    "tel": "088-624-8212",
    "url": "",
    "pref": "徳島県",
    "city": "松茂町",
    "category": "home_help",
    "serviceType": "訪問介護",
    "capacity": 0,
    "openDays": [
      "平日",
      "土曜日",
      "日曜日",
      "祝日"
    ],
    "openDaysNote": ""
  },
  {
    "id": "3671502130",
    "name": "住宅型有料老人ホーム　わたつみ",
    "kana": "ジュウタクガタユウリョウロウジンホーム　ワタツミ",
    "address": "徳島県板野郡松茂町笹木野字八北開拓25番地",
    "lat": 34.135932,
    "lng": 134.5862768,
    "tel": "088-624-7361",
    "url": "",
    "pref": "徳島県",
    "city": "松茂町",
    "category": "home_help",
    "serviceType": "訪問介護",
    "capacity": 0,
    "openDays": [
      "平日",
      "土曜日",
      "日曜日",
      "祝日"
    ],
    "openDaysNote": "利用者様の状態、希望に合わせ提供時間の相談受け付け、対応可能"
  },
  {
    "id": "3671501413",
    "name": "訪問介護　はる",
    "kana": "ホウモンカイゴ　ハル",
    "address": "板野郡松茂町満穂字満穂開拓36-1",
    "lat": 34.139229,
    "lng": 134.5985295,
    "tel": "088-678-4390",
    "url": "",
    "pref": "徳島県",
    "city": "松茂町",
    "category": "home_help",
    "serviceType": "訪問介護",
    "capacity": 0,
    "openDays": [
      "平日",
      "土曜日",
      "日曜日",
      "祝日"
    ],
    "openDaysNote": "緊急時は必要に応じて対応可能な体制を整えます。（改行）連絡体制は２４時間電話にて対応いたします。"
  },
  {
    "id": "3671500761",
    "name": "有限会社大輪",
    "kana": "ユウゲンカイシャダイリン",
    "address": "徳島県板野郡松茂町長原246-1パープルハウス101号室 パープルハウス101号室",
    "lat": 34.1101825,
    "lng": 134.6009471,
    "tel": "088-699-0077",
    "url": "",
    "pref": "徳島県",
    "city": "松茂町",
    "category": "home_help",
    "serviceType": "訪問介護",
    "capacity": 0,
    "openDays": [
      "平日",
      "土曜日",
      "日曜日",
      "祝日"
    ],
    "openDaysNote": "体調不良時・緊急時は時間外も対応する。"
  },
  {
    "id": "3671000028",
    "name": "特別養護老人ホーム健祥会ピーター",
    "kana": "トクベツヨウゴロウジンホームケンショウカイピーター",
    "address": "徳島県勝浦郡上勝町大字正木字西浦111番地7",
    "lat": 33.9243288,
    "lng": 134.4204064,
    "tel": "0885-44-5111",
    "url": "https://www.kenshokai.group/institution/tokuyou/peter/",
    "pref": "徳島県",
    "city": "上勝町",
    "category": "home_help",
    "serviceType": "訪問介護",
    "capacity": 0,
    "openDays": [
      "平日",
      "土曜日",
      "日曜日",
      "祝日"
    ],
    "openDaysNote": ""
  },
  {
    "id": "3671501579",
    "name": "こだま訪問介護事業所",
    "kana": "コダマホウモンカイゴジギョウショ",
    "address": "徳島県板野郡上板町西分字滝ノ宮南50番1",
    "lat": 34.1327247,
    "lng": 134.4235381,
    "tel": "088⁻694-5603",
    "url": "",
    "pref": "徳島県",
    "city": "上板町",
    "category": "home_help",
    "serviceType": "訪問介護",
    "capacity": 0,
    "openDays": [
      "平日",
      "祝日"
    ],
    "openDaysNote": ""
  },
  {
    "id": "3671600587",
    "name": "ファミリー介護サービス",
    "kana": "ファミリーカイゴサービス",
    "address": "徳島県板野郡上板町七條字山神30-3",
    "lat": 34.1250954440477,
    "lng": 134.405523324882,
    "tel": "088-679-7783",
    "url": "",
    "pref": "徳島県",
    "city": "上板町",
    "category": "home_help",
    "serviceType": "訪問介護",
    "capacity": 0,
    "openDays": [
      "平日",
      "土曜日"
    ],
    "openDaysNote": ""
  },
  {
    "id": "3671500449",
    "name": "在宅介護夢サービス",
    "kana": "ザイタクカイゴユメサービス",
    "address": "徳島県板野郡上板町高瀬１１２３番地の９",
    "lat": 34.1041114,
    "lng": 134.4196644,
    "tel": "０８８－６９４－６４７６",
    "url": "",
    "pref": "徳島県",
    "city": "上板町",
    "category": "home_help",
    "serviceType": "訪問介護",
    "capacity": null,
    "openDays": [
      "平日",
      "土曜日",
      "日曜日",
      "祝日"
    ],
    "openDaysNote": "※利用者の状況又は、要望により上記の限りではない。"
  },
  {
    "id": "3671200081",
    "name": "神山町社会福祉協議会　訪問介護事業所",
    "kana": "カミヤマチョウシャカイフクシキョウギカイホウモンカイゴジギョウショ",
    "address": "徳島県名西郡神山町神領字本上角９３番地１神山町高齢者生産活動センター 神山町高齢者生産活動センター",
    "lat": 33.9723628,
    "lng": 134.3702222,
    "tel": "088-676-1166",
    "url": "https://shakyo.ict-tokushima.jp/kamiyama/?page_id=15",
    "pref": "徳島県",
    "city": "神山町",
    "category": "home_help",
    "serviceType": "訪問介護",
    "capacity": 0,
    "openDays": [
      "平日",
      "土曜日",
      "日曜日",
      "祝日"
    ],
    "openDaysNote": ""
  },
  {
    "id": "3671200198",
    "name": "あい介護福祉サービス有限会社",
    "kana": "アイカイゴフクシサービスユウゲンカイシャ",
    "address": "徳島県名西郡石井町石井字重松680番地の１",
    "lat": 34.0733096,
    "lng": 134.4350157,
    "tel": "088-675-3530",
    "url": "http://www.ai-kaigo.jo/",
    "pref": "徳島県",
    "city": "石井町",
    "category": "home_help",
    "serviceType": "訪問介護",
    "capacity": 0,
    "openDays": [
      "平日",
      "土曜日",
      "日曜日",
      "祝日"
    ],
    "openDaysNote": "緊急時は対応しています"
  },
  {
    "id": "3671200362",
    "name": "まことホームヘルプサービスステーション",
    "kana": "マコトホームヘルプサービスステーション",
    "address": "徳島県名西郡石井町藍畑字東覚円103番地3",
    "lat": 34.0958819,
    "lng": 134.4353879,
    "tel": "088-674-7292",
    "url": "http://www.yuseikai.net/makoto-g/hs/",
    "pref": "徳島県",
    "city": "石井町",
    "category": "home_help",
    "serviceType": "訪問介護",
    "capacity": 0,
    "openDays": [
      "平日",
      "土曜日",
      "祝日"
    ],
    "openDaysNote": ""
  },
  {
    "id": "3671200347",
    "name": "合同会社徳島県ふれあい介護支援センター　訪問介護事業所",
    "kana": "ゴウドウガイシャトクシマケンフレアイカイゴシエンセンター　ホウモンカイゴジギョウショ",
    "address": "徳島県名西郡石井町高川原字天神671-3",
    "lat": 34.0823113,
    "lng": 134.4424262,
    "tel": "088-674-7915",
    "url": "",
    "pref": "徳島県",
    "city": "石井町",
    "category": "home_help",
    "serviceType": "訪問介護",
    "capacity": 0,
    "openDays": [
      "平日",
      "土曜日",
      "日曜日",
      "祝日"
    ],
    "openDaysNote": "早朝加算（6：00～8：00）25％増し（改行）夜間加算（18：00～22：00）25％増し"
  },
  {
    "id": "3671200313",
    "name": "青藍訪問介護事業所",
    "kana": "セイランホウモンカイゴジギョウショ",
    "address": "徳島県名西郡石井町浦庄字上浦１５７番地１１",
    "lat": 34.0709793,
    "lng": 134.4046468,
    "tel": "０８８－６７５－３６３６",
    "url": "http://www.seiranso.com",
    "pref": "徳島県",
    "city": "石井町",
    "category": "home_help",
    "serviceType": "訪問介護",
    "capacity": 0,
    "openDays": [
      "平日",
      "土曜日",
      "日曜日",
      "祝日"
    ],
    "openDaysNote": ""
  },
  {
    "id": "3671200453",
    "name": "訪問介護ステーション和来",
    "kana": "ホウモンカイゴステーション　ワク",
    "address": "徳島県名西郡石井町高原字中島473番地1",
    "lat": 34.0900854,
    "lng": 134.4359351,
    "tel": "088-635-2128",
    "url": "",
    "pref": "徳島県",
    "city": "石井町",
    "category": "home_help",
    "serviceType": "訪問介護",
    "capacity": 2,
    "openDays": [
      "平日",
      "土曜日",
      "日曜日",
      "祝日"
    ],
    "openDaysNote": "時間外での対応も相談可能。"
  },
  {
    "id": "3671200172",
    "name": "有限会社　明日香ライフケア",
    "kana": "ユウゲンガイシャ　アスカ　ライフケア",
    "address": "徳島県名西郡石井町浦庄字下浦339番地3",
    "lat": 34.0688796,
    "lng": 134.4118237,
    "tel": "088-675-3701",
    "url": "https://www.asuka-lifecare.com",
    "pref": "徳島県",
    "city": "石井町",
    "category": "home_help",
    "serviceType": "訪問介護",
    "capacity": 0,
    "openDays": [
      "平日",
      "土曜日",
      "日曜日",
      "祝日"
    ],
    "openDaysNote": "訪問時間の変更、延長（早朝・夜間対応）は電話等での連絡のつく限り対応する。（改行）サービス計画書により時間外サービスを行う事もある。"
  },
  {
    "id": "3671900458",
    "name": "ケアセンターひばり",
    "kana": "ケアセンターヒバリ",
    "address": "徳島県三好郡東みよし町西庄字末石97番地6",
    "lat": 34.0404601354181,
    "lng": 133.944742304883,
    "tel": "0883-82-1028",
    "url": "",
    "pref": "徳島県",
    "city": "東みよし町",
    "category": "home_help",
    "serviceType": "訪問介護",
    "capacity": 0,
    "openDays": [
      "平日",
      "土曜日",
      "祝日"
    ],
    "openDaysNote": "利用者から依頼があった場合は営業日以外にも利用可能。"
  },
  {
    "id": "3671900557",
    "name": "すだち介護センター",
    "kana": "スダチカイゴセンター",
    "address": "中庄837-1",
    "lat": 34.6205875,
    "lng": 133.7980201,
    "tel": "9021411150",
    "url": "",
    "pref": "徳島県",
    "city": "東みよし町",
    "category": "home_help",
    "serviceType": "訪問介護",
    "capacity": null,
    "openDays": [
      "平日"
    ],
    "openDaysNote": ""
  },
  {
    "id": "3671900524",
    "name": "株式会社ドレミ",
    "kana": "カブシキガイシャドレミ",
    "address": "加茂2735-2陽明台",
    "lat": 34.0352726920671,
    "lng": 133.923283632938,
    "tel": "8098331003",
    "url": "",
    "pref": "徳島県",
    "city": "東みよし町",
    "category": "home_help",
    "serviceType": "訪問介護",
    "capacity": 0,
    "openDays": [
      "平日"
    ],
    "openDaysNote": ""
  },
  {
    "id": "3671900425",
    "name": "東みよし町ホームヘルプセンター",
    "kana": "ヒガシミヨシチョウホームヘルプセンター",
    "address": "徳島県三好郡東みよし町西庄字横手70",
    "lat": 34.043435,
    "lng": 133.9397872,
    "tel": "0883-82-2020",
    "url": "http://shakyo.ict-tokushima.jp/higashimiyoshi/",
    "pref": "徳島県",
    "city": "東みよし町",
    "category": "home_help",
    "serviceType": "訪問介護",
    "capacity": 0,
    "openDays": [
      "平日"
    ],
    "openDaysNote": ""
  },
  {
    "id": "3671900094",
    "name": "特別養護老人ホーム　健祥会たんぽぽ",
    "kana": "トクベツヨウゴロウジンホーム　ケンショウカイ　タンポポ",
    "address": "徳島県三好郡東みよし町中庄１６４１番地４",
    "lat": 34.0340418,
    "lng": 133.9615854,
    "tel": "０８８３－８２－３７６０",
    "url": "https://www.kenshokai.group",
    "pref": "徳島県",
    "city": "東みよし町",
    "category": "home_help",
    "serviceType": "訪問介護",
    "capacity": 0,
    "openDays": [
      "平日",
      "土曜日",
      "日曜日",
      "祝日"
    ],
    "openDaysNote": "天災その他やむを得ず業務を遂行できない日を除く"
  },
  {
    "id": "3671900383",
    "name": "有限会社　ケアサービス優心　三好営業所",
    "kana": "ユウゲンガイシャ　ケアサービスユウシン　ミヨシエイギョウショ",
    "address": "徳島県三好郡東みよし町足代４５９０番地３住宅型有料老人ホーム　ふるさとの和内 住宅型有料老人ホーム　ふるさとの和内",
    "lat": 34.0384573232524,
    "lng": 133.896135929952,
    "tel": "0883-79-5772",
    "url": "http://care-net.biz/36/yuushin/",
    "pref": "徳島県",
    "city": "東みよし町",
    "category": "home_help",
    "serviceType": "訪問介護",
    "capacity": 0,
    "openDays": [
      "平日",
      "土曜日",
      "日曜日",
      "祝日"
    ],
    "openDaysNote": "サービスの実施に関しては、スタッフの空状況にもより対応できない場合もありますので、必ず事前に事業所に連絡の上、スタッフの空状況をご確認下さい。"
  },
  {
    "id": "3670100241",
    "name": "（有）ケアサービス木村指定訪問介護事業所",
    "kana": "ユウゲンガイシャケアサービスキムラシテイホウモンカイゴジギョウショ",
    "address": "徳島県徳島市北田宮３丁目３－４１",
    "lat": 34.0874038,
    "lng": 134.5364894,
    "tel": "088-631-8280",
    "url": "",
    "pref": "徳島県",
    "city": "徳島市",
    "category": "home_help",
    "serviceType": "訪問介護",
    "capacity": 0,
    "openDays": [
      "平日",
      "土曜日",
      "日曜日",
      "祝日"
    ],
    "openDaysNote": "上記以外は応相談"
  },
  {
    "id": "3670106149",
    "name": "KAHOHOMECARE",
    "kana": "カホホームケア",
    "address": "徳島県徳島市八万町馬場山33番地",
    "lat": 34.0476189,
    "lng": 134.5220964,
    "tel": "088-660-7481",
    "url": "https://kaho-home-care.jp/",
    "pref": "徳島県",
    "city": "徳島市",
    "category": "home_help",
    "serviceType": "訪問介護",
    "capacity": 20,
    "openDays": [
      "平日",
      "土曜日",
      "祝日"
    ],
    "openDaysNote": ""
  },
  {
    "id": "3670101959",
    "name": "TAOKAヘルパーステーション山手",
    "kana": "タオカヘルパーステーションヤマテ",
    "address": "徳島県徳島市東山手町1丁目5",
    "lat": 34.0697867732643,
    "lng": 134.545694365871,
    "tel": "０８８－６０２－０３７１",
    "url": "https://taoka-zaitaku.jp/",
    "pref": "徳島県",
    "city": "徳島市",
    "category": "home_help",
    "serviceType": "訪問介護",
    "capacity": 0,
    "openDays": [
      "平日",
      "土曜日"
    ],
    "openDaysNote": ""
  },
  {
    "id": "3670104581",
    "name": "アイワヘルパーステーション",
    "kana": "アイワヘルパーステーション",
    "address": "徳島県徳島市北矢三町四丁目６－６１メゾニティ北矢三Ｂ－１０１ メゾニティ北矢三Ｂ－１０１",
    "lat": 34.0853748512824,
    "lng": 134.519073803996,
    "tel": "088-634-1771",
    "url": "",
    "pref": "徳島県",
    "city": "徳島市",
    "category": "home_help",
    "serviceType": "訪問介護",
    "capacity": 20,
    "openDays": [
      "平日",
      "土曜日",
      "日曜日",
      "祝日"
    ],
    "openDaysNote": "利用者様のご希望により、時間外サービスの提供についても相談に応じます。"
  },
  {
    "id": "3670103039",
    "name": "あおい　ケアサポート",
    "kana": "アオイ　ケアサポート",
    "address": "徳島県徳島市大谷町野見松２２－１",
    "lat": 34.0330238628506,
    "lng": 134.537456663322,
    "tel": "088-679-6119",
    "url": "",
    "pref": "徳島県",
    "city": "徳島市",
    "category": "home_help",
    "serviceType": "訪問介護",
    "capacity": 0,
    "openDays": [
      "平日"
    ],
    "openDaysNote": "日曜祝日又は、定休日内であって、依頼や緊急に応じ相談の上にてサービス利用の提供を行う。"
  },
  {
    "id": "3670105778",
    "name": "あおみ訪問介護事業所",
    "kana": "アオミホウモンカイゴジギョウショ",
    "address": "徳島県徳島市新浜本町一丁目１番４３号",
    "lat": 34.0456644212776,
    "lng": 134.572313742708,
    "tel": "088-661-7422",
    "url": "http://hp.kaipoke.biz/1kh/",
    "pref": "徳島県",
    "city": "徳島市",
    "category": "home_help",
    "serviceType": "訪問介護",
    "capacity": 0,
    "openDays": [
      "平日",
      "土曜日",
      "日曜日",
      "祝日"
    ],
    "openDaysNote": ""
  },
  {
    "id": "3670105240",
    "name": "あじさいのもり徳島",
    "kana": "アジサイノモリトクシマ",
    "address": "徳島県徳島市北矢三町３丁目2-55",
    "lat": 34.0855129,
    "lng": 134.5198746,
    "tel": "088-634-3066",
    "url": "",
    "pref": "徳島県",
    "city": "徳島市",
    "category": "home_help",
    "serviceType": "訪問介護",
    "capacity": 160,
    "openDays": [
      "平日",
      "土曜日",
      "日曜日",
      "祝日"
    ],
    "openDaysNote": ""
  },
  {
    "id": "3670105232",
    "name": "あじさいのもり徳島東",
    "kana": "アジサイノモリトクシマヒガシ",
    "address": "徳島県徳島市末広1丁目4-12コーポ斎藤102号室 コーポ斎藤102号室",
    "lat": 34.0661832728831,
    "lng": 134.571730594582,
    "tel": "088-611-5066",
    "url": "https://www.senior-life.jp",
    "pref": "徳島県",
    "city": "徳島市",
    "category": "home_help",
    "serviceType": "訪問介護",
    "capacity": 0,
    "openDays": [
      "平日"
    ],
    "openDaysNote": "電話などに、24時間連絡が可能な体制とする"
  },
  {
    "id": "3670102791",
    "name": "あんじゅケアセンター",
    "kana": "アンジュケアセンター",
    "address": "川内町平石夷野４１５－１０",
    "lat": 34.1165564,
    "lng": 134.588545,
    "tel": "０８８－６６５－２５５６",
    "url": "",
    "pref": "徳島県",
    "city": "徳島市",
    "category": "home_help",
    "serviceType": "訪問介護",
    "capacity": 0,
    "openDays": [
      "平日",
      "土曜日"
    ],
    "openDaysNote": "定休日及び営業時間外でも、利用者からの要望があればサービスを提供することもある。"
  },
  {
    "id": "3670104540",
    "name": "アンヘルパーステーション",
    "kana": "アンヘルパーステーション",
    "address": "徳島県徳島市川内町加賀須野600－1",
    "lat": 34.1272996,
    "lng": 134.5807759,
    "tel": "088－665-4643",
    "url": "hp.kaipoke.biz/bx7/",
    "pref": "徳島県",
    "city": "徳島市",
    "category": "home_help",
    "serviceType": "訪問介護",
    "capacity": 30,
    "openDays": [
      "平日",
      "土曜日",
      "日曜日",
      "祝日"
    ],
    "openDaysNote": "サービス利用時間外も要相談。"
  },
  {
    "id": "3670103229",
    "name": "いちごヘルパーステーション",
    "kana": "イチゴヘルパーステーション",
    "address": "徳島県徳島市昭和町８丁目４８番地３０",
    "lat": 34.0569000569728,
    "lng": 134.569669022754,
    "tel": "０８８－６２６－７２８０",
    "url": "ichie-kizuna.or.jp",
    "pref": "徳島県",
    "city": "徳島市",
    "category": "home_help",
    "serviceType": "訪問介護",
    "capacity": 120,
    "openDays": [
      "平日",
      "土曜日",
      "日曜日",
      "祝日"
    ],
    "openDaysNote": ""
  },
  {
    "id": "3670105315",
    "name": "エクラ訪問介護サービス",
    "kana": "エクラホウモンカイゴサービス",
    "address": "徳島県徳島市新浜本町２丁目３番３８号",
    "lat": 34.0430974,
    "lng": 134.5684894,
    "tel": "088-661-2586",
    "url": "",
    "pref": "徳島県",
    "city": "徳島市",
    "category": "home_help",
    "serviceType": "訪問介護",
    "capacity": 0,
    "openDays": [
      "平日",
      "土曜日",
      "日曜日",
      "祝日"
    ],
    "openDaysNote": "営業時間外も電話等により､常時連絡が可能な体制とする。"
  },
  {
    "id": "3670101231",
    "name": "おおぎ訪問介護サービス",
    "kana": "オオギホウモンカイゴサービス",
    "address": "徳島県徳島市上八万町樋口246番地1",
    "lat": 34.0365951,
    "lng": 134.5079953,
    "tel": "088-668-0033",
    "url": "http://www.oogi-taxi.com",
    "pref": "徳島県",
    "city": "徳島市",
    "category": "home_help",
    "serviceType": "訪問介護",
    "capacity": 0,
    "openDays": [
      "平日",
      "土曜日",
      "日曜日",
      "祝日"
    ],
    "openDaysNote": "利用者のご依頼があれば随時"
  },
  {
    "id": "3670103104",
    "name": "きらら訪問介護サービス",
    "kana": "キララホウモンカイゴサービス",
    "address": "徳島県徳島市北山町岩崎11番地3",
    "lat": 34.024125,
    "lng": 134.5355624,
    "tel": "088-669-3328",
    "url": "",
    "pref": "徳島県",
    "city": "徳島市",
    "category": "home_help",
    "serviceType": "訪問介護",
    "capacity": 0,
    "openDays": [
      "平日",
      "土曜日",
      "祝日"
    ],
    "openDaysNote": "特になし。"
  },
  {
    "id": "3670103203",
    "name": "クレア城南訪問介護サービス",
    "kana": "クレアジョウナンホウモンカイゴサービス",
    "address": "徳島市八万町上福万170-30",
    "lat": 34.0541585961273,
    "lng": 134.528395215332,
    "tel": "088-679-8511",
    "url": "www.crea-care.com",
    "pref": "徳島県",
    "city": "徳島市",
    "category": "home_help",
    "serviceType": "訪問介護",
    "capacity": null,
    "openDays": [
      "平日",
      "土曜日",
      "日曜日",
      "祝日"
    ],
    "openDaysNote": "電話にて24時間対応"
  },
  {
    "id": "3670102460",
    "name": "ケアサービス　のぞみ",
    "kana": "ケアサービス　ノゾミ",
    "address": "徳島県徳島市丈六町八万免64-1",
    "lat": 34.0097689,
    "lng": 134.5488006,
    "tel": "088-679-6227",
    "url": "http://kidsnozomi.jimdo.com",
    "pref": "徳島県",
    "city": "徳島市",
    "category": "home_help",
    "serviceType": "訪問介護",
    "capacity": 0,
    "openDays": [
      "平日",
      "土曜日",
      "日曜日",
      "祝日"
    ],
    "openDaysNote": "応談"
  },
  {
    "id": "3670103690",
    "name": "ケアサービス　ゆうき",
    "kana": "ケアサービス　ユウキ",
    "address": "徳島県徳島市国府町中425-1",
    "lat": 34.059489,
    "lng": 134.4779646,
    "tel": "088-624-7117",
    "url": "nagae-group.jp",
    "pref": "徳島県",
    "city": "徳島市",
    "category": "home_help",
    "serviceType": "訪問介護",
    "capacity": 0,
    "openDays": [
      "平日",
      "土曜日",
      "日曜日",
      "祝日"
    ],
    "openDaysNote": "緊急の場合は上記の限りではありません。（改行）営業時間外も電話連絡対応いたします。"
  },
  {
    "id": "3670104664",
    "name": "ケアサポートＡＬＬはぁーと",
    "kana": "ケアサポートオールハァート",
    "address": "徳島県徳島市春日3丁目2-7",
    "lat": 34.0895272,
    "lng": 134.5258921,
    "tel": "088-679-1591",
    "url": "",
    "pref": "徳島県",
    "city": "徳島市",
    "category": "home_help",
    "serviceType": "訪問介護",
    "capacity": 0,
    "openDays": [
      "平日",
      "土曜日",
      "日曜日",
      "祝日"
    ],
    "openDaysNote": "サービス提供時間外相談可能です。"
  },
  {
    "id": "3670106057",
    "name": "ケアサポート喜楽",
    "kana": "ケアサポート　キラク",
    "address": "徳島県徳島市末広5丁目1番57-5号",
    "lat": 34.0633906,
    "lng": 134.5771977,
    "tel": "088-653-8228",
    "url": "",
    "pref": "徳島県",
    "city": "徳島市",
    "category": "home_help",
    "serviceType": "訪問介護",
    "capacity": 0,
    "openDays": [
      "平日"
    ],
    "openDaysNote": "土曜日は依頼や緊急に応じ相談の上対応を行う"
  },
  {
    "id": "3670104557",
    "name": "ケアステーション　未来",
    "kana": "ケアステーション　ミライ",
    "address": "徳島県徳島市名東町3丁目332番地の66自宅 自宅",
    "lat": 34.0499374,
    "lng": 134.4875999,
    "tel": "088-633-6784",
    "url": "",
    "pref": "徳島県",
    "city": "徳島市",
    "category": "home_help",
    "serviceType": "訪問介護",
    "capacity": 0,
    "openDays": [
      "平日",
      "土曜日",
      "日曜日",
      "祝日"
    ],
    "openDaysNote": ""
  },
  {
    "id": "3670103005",
    "name": "ケアステーション風見鶏　徳島支社",
    "kana": "ケアステーションカザミドリ　トクシマシシャ",
    "address": "徳島県徳島市佐古5番町5-3",
    "lat": 34.0776354,
    "lng": 134.5319012,
    "tel": "088-677-5252",
    "url": "http://www.mediwell-m.com",
    "pref": "徳島県",
    "city": "徳島市",
    "category": "home_help",
    "serviceType": "訪問介護",
    "capacity": 0,
    "openDays": [
      "平日",
      "土曜日",
      "日曜日",
      "祝日"
    ],
    "openDaysNote": "ただし、調整が必要な場合があるので相談に応ず"
  },
  {
    "id": "3670105653",
    "name": "ケアセンターぷらす",
    "kana": "ケアセンタープラス",
    "address": "徳島市蔵本町二丁目11番地ダイバーシティビル605号 ダイバーシティビル605号",
    "lat": 34.0787839,
    "lng": 134.5190677,
    "tel": "070-1910-8212",
    "url": "",
    "pref": "徳島県",
    "city": "徳島市",
    "category": "home_help",
    "serviceType": "訪問介護",
    "capacity": 0,
    "openDays": [
      "平日",
      "土曜日",
      "日曜日",
      "祝日"
    ],
    "openDaysNote": "早朝、深夜については対応可の場合あり。"
  },
  {
    "id": "3670103823",
    "name": "しあわせサポート",
    "kana": "シアワセサポート",
    "address": "南沖洲４丁目300番地1",
    "lat": 34.0576298614293,
    "lng": 134.588110350087,
    "tel": "088-624-8530",
    "url": "www.48kb80.biz",
    "pref": "徳島県",
    "city": "徳島市",
    "category": "home_help",
    "serviceType": "訪問介護",
    "capacity": null,
    "openDays": [
      "平日",
      "土曜日",
      "日曜日",
      "祝日"
    ],
    "openDaysNote": "ただし、対象者の状況によってはこの限りではない。"
  },
  {
    "id": "3670103575",
    "name": "すえひろヘルパーステーション",
    "kana": "スエヒロヘルパーステイション",
    "address": "徳島市南末広町3番45-8号",
    "lat": 34.0632949,
    "lng": 134.5735999,
    "tel": "088-661-0551",
    "url": "",
    "pref": "徳島県",
    "city": "徳島市",
    "category": "home_help",
    "serviceType": "訪問介護",
    "capacity": 0,
    "openDays": [
      "平日",
      "土曜日"
    ],
    "openDaysNote": "電話等により24時間365日連絡可能な体制とする。"
  },
  {
    "id": "3670103146",
    "name": "すこやかヘルパーステーション",
    "kana": "スコヤカヘルパーステーション",
    "address": "徳島県徳島市北沖洲２丁目３番４４号タウンパレス１０１号 タウンパレス１０１号",
    "lat": 34.0666367,
    "lng": 134.58619,
    "tel": "088-679-6330",
    "url": "",
    "pref": "徳島県",
    "city": "徳島市",
    "category": "home_help",
    "serviceType": "訪問介護",
    "capacity": 0,
    "openDays": [
      "平日",
      "土曜日",
      "日曜日",
      "祝日"
    ],
    "openDaysNote": "訪問時間は上記に縛られることなく、相談の上決めさせて頂きます。"
  },
  {
    "id": "3670105596",
    "name": "すずな訪問介護ステーション",
    "kana": "スズナホウモンカイゴステーション",
    "address": "徳島県徳島市山城西3丁目19番地",
    "lat": 34.0501427,
    "lng": 134.5566579,
    "tel": "088-602-3520",
    "url": "",
    "pref": "徳島県",
    "city": "徳島市",
    "category": "home_help",
    "serviceType": "訪問介護",
    "capacity": 25,
    "openDays": [
      "平日",
      "土曜日",
      "日曜日",
      "祝日"
    ],
    "openDaysNote": "上記以外の時間の訪問は相談"
  },
  {
    "id": "3670103310",
    "name": "セントケア城ノ内",
    "kana": "セントケアジョウノウチ",
    "address": "南田宮１丁目4-41",
    "lat": 36.204824,
    "lng": 138.252924,
    "tel": "088-634-3910",
    "url": "http://www.saint-care.com/",
    "pref": "徳島県",
    "city": "徳島市",
    "category": "home_help",
    "serviceType": "訪問介護",
    "capacity": 70,
    "openDays": [
      "平日",
      "土曜日",
      "日曜日",
      "祝日"
    ],
    "openDaysNote": ""
  },
  {
    "id": "3670103286",
    "name": "セントケア徳島",
    "kana": "セントケア　トクシマ",
    "address": "徳島市山城西3丁目41-2",
    "lat": 34.0478474,
    "lng": 134.5581268,
    "tel": "088-611-2120",
    "url": "https://www.saint-care.com/center/874/",
    "pref": "徳島県",
    "city": "徳島市",
    "category": "home_help",
    "serviceType": "訪問介護",
    "capacity": 0,
    "openDays": [
      "平日",
      "土曜日",
      "日曜日",
      "祝日"
    ],
    "openDaysNote": ""
  },
  {
    "id": "3670101405",
    "name": "つだ訪問介護サービス",
    "kana": "ツダホウモンカイゴサービス",
    "address": "徳島県徳島市津田浜之町１番３２号",
    "lat": 34.0533749,
    "lng": 134.5760138,
    "tel": "088-663-5277",
    "url": "",
    "pref": "徳島県",
    "city": "徳島市",
    "category": "home_help",
    "serviceType": "訪問介護",
    "capacity": 0,
    "openDays": [
      "平日",
      "土曜日"
    ],
    "openDaysNote": "ご依頼があれば時間外または営業日以外でも出来うる限り対応します"
  },
  {
    "id": "3670100597",
    "name": "とくしま健生ヘルパーステーション",
    "kana": "トクシマケンセイヘルパーステーション",
    "address": "徳島県徳島市吉野本町６丁目３０－４健生在宅ケアセンター2階 健生在宅ケアセンター2階",
    "lat": 34.0868015,
    "lng": 134.5524741,
    "tel": "088-622-0371",
    "url": "http:／／www2.tch.ne.jp/～ｈcoopt",
    "pref": "徳島県",
    "city": "徳島市",
    "category": "home_help",
    "serviceType": "訪問介護",
    "capacity": 0,
    "openDays": [
      "平日"
    ],
    "openDaysNote": "相談に応じて利用可"
  },
  {
    "id": "3670105992",
    "name": "なのはな訪問介護事業所",
    "kana": "ナノハナホウモンカイゴジギョウショ",
    "address": "徳島県徳島市大原町内開８４番地の７",
    "lat": 34.0289444,
    "lng": 134.5665038,
    "tel": "088-624-7620",
    "url": "",
    "pref": "徳島県",
    "city": "徳島市",
    "category": "home_help",
    "serviceType": "訪問介護",
    "capacity": null,
    "openDays": [
      "平日",
      "土曜日",
      "日曜日",
      "祝日"
    ],
    "openDaysNote": "利用者の都合により、時間は相談に応じております。"
  },
  {
    "id": "3670103138",
    "name": "ニチイケアセンターおきのす",
    "kana": "ニチイケアセンターオキノス",
    "address": "徳島県徳島市北沖洲3丁目8番7-5号",
    "lat": 34.0700398,
    "lng": 134.5897101,
    "tel": "088-664-8233",
    "url": "http://nichiigakkan.co.jp",
    "pref": "徳島県",
    "city": "徳島市",
    "category": "home_help",
    "serviceType": "訪問介護",
    "capacity": 0,
    "openDays": [
      "平日"
    ],
    "openDaysNote": "居宅サービス計画により、休業日であってもサービスの提供を行う場合がある"
  },
  {
    "id": "3670100456",
    "name": "ニチイケアセンター徳島西",
    "kana": "ニチイケアセンタートクシマニシ",
    "address": "徳島県徳島市国府町府中字市ノ窪588番地6",
    "lat": 34.0734617,
    "lng": 134.4806961,
    "tel": "088-642-1750",
    "url": "http://ｗｗｗ.nichiigakkan.co.jp",
    "pref": "徳島県",
    "city": "徳島市",
    "category": "home_help",
    "serviceType": "訪問介護",
    "capacity": 0,
    "openDays": [
      "平日"
    ],
    "openDaysNote": "居宅サービス計画により、営業時間以外でもサービスの提供を行う場合がある。"
  },
  {
    "id": "3670100092",
    "name": "ニチイケアセンター二軒屋",
    "kana": "ニチイケアセンターニケンヤ",
    "address": "徳島県徳島市南二軒屋町2-1176-1豊田ビル1階 豊田ビル1階",
    "lat": 34.0527189,
    "lng": 134.5449031,
    "tel": "088-611-1876",
    "url": "http://www.nichiigakkan.co.jp",
    "pref": "徳島県",
    "city": "徳島市",
    "category": "home_help",
    "serviceType": "訪問介護",
    "capacity": 0,
    "openDays": [
      "平日"
    ],
    "openDaysNote": "居宅サービス計画により、営業時間外でもサービスの提供を行う場合がある。"
  },
  {
    "id": "3670105323",
    "name": "ニチイケアセンター矢三",
    "kana": "ニチイケアセンターヤソ",
    "address": "徳島県徳島市南矢三町3丁目2-38",
    "lat": 34.0836861,
    "lng": 134.5226903,
    "tel": "088-634-4140",
    "url": "http://www.nichiigakkan.co.jp",
    "pref": "徳島県",
    "city": "徳島市",
    "category": "home_help",
    "serviceType": "訪問介護",
    "capacity": 0,
    "openDays": [
      "平日"
    ],
    "openDaysNote": "居宅サービス計画により、休業日であってもサービスの提供を行う場合がある"
  },
  {
    "id": "3670106032",
    "name": "ハウスヘルパーステーション",
    "kana": "ハウスヘルパーステーション",
    "address": "徳島市大原町東千代ヶ丸１９番地５２ハウス大原 ハウス大原",
    "lat": 34.0251295501655,
    "lng": 134.570757672901,
    "tel": "088-663-8188",
    "url": "",
    "pref": "徳島県",
    "city": "徳島市",
    "category": "home_help",
    "serviceType": "訪問介護",
    "capacity": null,
    "openDays": [
      "平日"
    ],
    "openDaysNote": ""
  },
  {
    "id": "3670102148",
    "name": "フクシス",
    "kana": "フクシス",
    "address": "徳島県徳島市新蔵町３丁目８番ロイヤルハイツ１０１号 ロイヤルハイツ１０１号",
    "lat": 34.0704925,
    "lng": 134.5609155,
    "tel": "088-691-5666",
    "url": "",
    "pref": "徳島県",
    "city": "徳島市",
    "category": "home_help",
    "serviceType": "訪問介護",
    "capacity": 60,
    "openDays": [
      "平日",
      "土曜日"
    ],
    "openDaysNote": "担当ヘルパーと相談の上で日祝や上記時間外でも対応しております（改行）一度ご相談ください"
  },
  {
    "id": "3670200678",
    "name": "プチトマト介護サービス",
    "kana": "プチトマトカイゴサービス",
    "address": "安宅２丁目７番２２号",
    "lat": 34.0704869,
    "lng": 134.5763919,
    "tel": "０８８－６２６－３９９５",
    "url": "",
    "pref": "徳島県",
    "city": "徳島市",
    "category": "home_help",
    "serviceType": "訪問介護",
    "capacity": null,
    "openDays": [
      "平日",
      "土曜日",
      "祝日"
    ],
    "openDaysNote": "必要に応じて時間外も対応する。"
  },
  {
    "id": "3670104300",
    "name": "ﾍﾙﾊﾟｰｽﾃｰｼｮﾝ一華",
    "kana": "ヘルパーステーションイチゲ",
    "address": "徳島県徳島市東吉野町２丁目29-4コーポクリエイト101号 コーポクリエイト101号",
    "lat": 34.0842378366886,
    "lng": 134.564831206786,
    "tel": "０８８－６７８－４２２５",
    "url": "",
    "pref": "徳島県",
    "city": "徳島市",
    "category": "home_help",
    "serviceType": "訪問介護",
    "capacity": 40,
    "openDays": [
      "平日",
      "土曜日"
    ],
    "openDaysNote": ""
  },
  {
    "id": "3670104482",
    "name": "ヘルパーステーション　おりぃぶ",
    "kana": "ヘルパーステーション　オリィブ",
    "address": "徳島県徳島市八万町下福万１５７番地",
    "lat": 34.0508412,
    "lng": 134.5337541,
    "tel": "088-635-4436",
    "url": "",
    "pref": "徳島県",
    "city": "徳島市",
    "category": "home_help",
    "serviceType": "訪問介護",
    "capacity": 0,
    "openDays": [
      "平日",
      "土曜日",
      "日曜日",
      "祝日"
    ],
    "openDaysNote": "介護居宅計画に応じて随時サービスの提供を行う"
  },
  {
    "id": "3670105984",
    "name": "ヘルパーステーション　きずな",
    "kana": "ヘルパーステーション　キズナ",
    "address": "丈六町小谷46番地1",
    "lat": 34.0141533931264,
    "lng": 134.547725097762,
    "tel": "088-676-3325",
    "url": "https://www.jonanh.com/kizuna/",
    "pref": "徳島県",
    "city": "徳島市",
    "category": "home_help",
    "serviceType": "訪問介護",
    "capacity": 40,
    "openDays": [
      "平日",
      "土曜日",
      "祝日"
    ],
    "openDaysNote": ""
  },
  {
    "id": "3670103781",
    "name": "ヘルパーステーション　とまと",
    "kana": "ヘルパーステーション　トマト",
    "address": "徳島市富田橋11-4プチメゾン富田橋102 プチメゾン富田橋102",
    "lat": 34.0593501626053,
    "lng": 134.550995397971,
    "tel": "088-623-1156",
    "url": "tomato1156@globe.ocn.ne.jp",
    "pref": "徳島県",
    "city": "徳島市",
    "category": "home_help",
    "serviceType": "訪問介護",
    "capacity": 0,
    "openDays": [
      "平日",
      "土曜日",
      "日曜日",
      "祝日"
    ],
    "openDaysNote": ""
  },
  {
    "id": "3670102676",
    "name": "ヘルパーステーション　ハーモニー",
    "kana": "ヘルパーステーション　ハーモニー",
    "address": "徳島県徳島市八万町下福万１６１－６",
    "lat": 34.0514967,
    "lng": 134.5334485,
    "tel": "088-679-6611",
    "url": "",
    "pref": "徳島県",
    "city": "徳島市",
    "category": "home_help",
    "serviceType": "訪問介護",
    "capacity": 0,
    "openDays": [
      "平日",
      "土曜日",
      "祝日"
    ],
    "openDaysNote": "但し、利用者のやむを得ない事情がある場合はこの限りではありません。"
  },
  {
    "id": "3650180015",
    "name": "ヘルパーステーション　パンジー",
    "kana": "ヘルパーステーション　パンジー",
    "address": "徳島県徳島市西新浜町2丁目3-33",
    "lat": 34.0419007,
    "lng": 134.5596627,
    "tel": "088-663-8811",
    "url": "https://www.royal-hc.com/",
    "pref": "徳島県",
    "city": "徳島市",
    "category": "home_help",
    "serviceType": "訪問介護",
    "capacity": null,
    "openDays": [
      "平日",
      "土曜日",
      "祝日"
    ],
    "openDaysNote": "休日日及び営業時間外においても緊急時の相談等に対応できるよう、併設施設との協力体制を確保する。"
  },
  {
    "id": "3670103880",
    "name": "ヘルパーステーション　遊",
    "kana": "ヘルパーステーション　ユウ",
    "address": "徳島県徳島市佐古六番町9番3号サービス付き高齢者向け住宅　遊 サービス付き高齢者向け住宅　遊",
    "lat": 34.079349,
    "lng": 134.5294931,
    "tel": "088-624-8880",
    "url": "http://yoshinari-kai.jp",
    "pref": "徳島県",
    "city": "徳島市",
    "category": "home_help",
    "serviceType": "訪問介護",
    "capacity": 0,
    "openDays": [
      "平日",
      "土曜日",
      "日曜日",
      "祝日"
    ],
    "openDaysNote": ""
  },
  {
    "id": "3670105273",
    "name": "ヘルパーステーションＢｅｅ",
    "kana": "ヘルパーステーション　ビー",
    "address": "徳島市一宮町西丁８９３番地",
    "lat": 34.0459665,
    "lng": 134.4721399,
    "tel": "088-635-6530",
    "url": "",
    "pref": "徳島県",
    "city": "徳島市",
    "category": "home_help",
    "serviceType": "訪問介護",
    "capacity": 15,
    "openDays": [
      "平日",
      "土曜日",
      "日曜日",
      "祝日"
    ],
    "openDaysNote": "上記の他、時間外・休日のサービスの提供は相談に応じる。また、電話等による連絡は２４時間可能とする。"
  },
  {
    "id": "3670105927",
    "name": "ヘルパーステーションＫＯＫＵＡ",
    "kana": "ヘルパーステーションコクア",
    "address": "徳島市佐古八番町５－１５杉田ビル２０３杉田ビル２０３ 杉田ビル２０３",
    "lat": 34.0787169,
    "lng": 134.5218253,
    "tel": "088-661-4000",
    "url": "",
    "pref": "徳島県",
    "city": "徳島市",
    "category": "home_help",
    "serviceType": "訪問介護",
    "capacity": null,
    "openDays": [],
    "openDaysNote": ""
  },
  {
    "id": "3670104458",
    "name": "ヘルパーステーションＲａｃｕ",
    "kana": "ヘルパーステーションラク",
    "address": "徳島県徳島市かちどき橋6丁目4番地の1サービス付き高齢者向け住宅　洛Ｋａｃｈｉｄｏｋｉ サービス付き高齢者向け住宅　洛Ｋａｃｈｉｄｏｋｉ",
    "lat": 34.057652,
    "lng": 134.5534634,
    "tel": "088-679-6656",
    "url": "",
    "pref": "徳島県",
    "city": "徳島市",
    "category": "home_help",
    "serviceType": "訪問介護",
    "capacity": 0,
    "openDays": [
      "平日",
      "土曜日",
      "日曜日",
      "祝日"
    ],
    "openDaysNote": "時間外、休日は応相談。（改行）電話等により２４時間連絡が可能な体制とする。"
  },
  {
    "id": "3670103351",
    "name": "ヘルパーステーションあいじつ",
    "kana": "ヘルパーステーションアイジツ",
    "address": "徳島県徳島市佐古四番町6-11愛日ビル3・4階 愛日ビル3・4階",
    "lat": 34.0776854,
    "lng": 134.5323067,
    "tel": "088-624-9988",
    "url": "http://www.youaijitu.com/",
    "pref": "徳島県",
    "city": "徳島市",
    "category": "home_help",
    "serviceType": "訪問介護",
    "capacity": 40,
    "openDays": [
      "平日"
    ],
    "openDaysNote": "利用者に必要なサービスがある場合はこの限りではありません。"
  },
  {
    "id": "3670104102",
    "name": "ヘルパーステーションアイナ",
    "kana": "ヘルパーステーションアイナ",
    "address": "徳島市大原町千代ヶ丸146番地",
    "lat": 34.0282268396061,
    "lng": 134.569019089024,
    "tel": "088-663-0761",
    "url": "https://www.doushisha.jp",
    "pref": "徳島県",
    "city": "徳島市",
    "category": "home_help",
    "serviceType": "訪問介護",
    "capacity": 0,
    "openDays": [
      "平日",
      "土曜日",
      "日曜日",
      "祝日"
    ],
    "openDaysNote": ""
  },
  {
    "id": "3670105224",
    "name": "ヘルパーステーションあじさいのもり",
    "kana": "ヘルパーステーションアジサイノモリ",
    "address": "徳島県徳島市南矢三町３丁目３番47号ヘルパーステーションあじさいのもり ヘルパーステーションあじさいのもり",
    "lat": 34.0841847594002,
    "lng": 134.521820686508,
    "tel": "088-634-2055",
    "url": "",
    "pref": "徳島県",
    "city": "徳島市",
    "category": "home_help",
    "serviceType": "訪問介護",
    "capacity": 0,
    "openDays": [
      "平日",
      "土曜日",
      "日曜日",
      "祝日"
    ],
    "openDaysNote": ""
  },
  {
    "id": "3670105299",
    "name": "ヘルパーステーションイツモ",
    "kana": "ヘルパーステーションイツモ",
    "address": "徳島県徳島市西須賀町又新堤2-1",
    "lat": 34.0352431,
    "lng": 134.5427995,
    "tel": "088-602-7931",
    "url": "http://itsumosmile.jp/",
    "pref": "徳島県",
    "city": "徳島市",
    "category": "home_help",
    "serviceType": "訪問介護",
    "capacity": 0,
    "openDays": [
      "平日",
      "土曜日",
      "日曜日",
      "祝日"
    ],
    "openDaysNote": "※365日24時間連絡対応可能"
  },
  {
    "id": "3670104839",
    "name": "ヘルパーステーションえがお",
    "kana": "ヘルパーステーションエガオ",
    "address": "徳島県徳島市国府町中408番地の4",
    "lat": 34.0613832,
    "lng": 134.4767592,
    "tel": "088-642-4569",
    "url": "",
    "pref": "徳島県",
    "city": "徳島市",
    "category": "home_help",
    "serviceType": "訪問介護",
    "capacity": 0,
    "openDays": [
      "平日",
      "土曜日",
      "日曜日",
      "祝日"
    ],
    "openDaysNote": ""
  },
  {
    "id": "3670103948",
    "name": "ヘルパーステーションエクセレント城南",
    "kana": "ヘルパーステーションエクセレントジョウナン",
    "address": "徳島県徳島市八万町川南62-1",
    "lat": 34.0444003,
    "lng": 134.5400702,
    "tel": "088-668-3359",
    "url": "http://www.excare.co.jp",
    "pref": "徳島県",
    "city": "徳島市",
    "category": "home_help",
    "serviceType": "訪問介護",
    "capacity": null,
    "openDays": [
      "平日",
      "土曜日",
      "日曜日",
      "祝日"
    ],
    "openDaysNote": "時間外も対応させていただきます"
  },
  {
    "id": "3670102932",
    "name": "ヘルパーステーションエクセレント城北",
    "kana": "ヘルパーステーションエクセレントジョウホク",
    "address": "徳島県徳島市南矢三町１丁目４０３－５ＯＨＫＡＷＡビル１Ｆ ＯＨＫＡＷＡビル１Ｆ",
    "lat": 34.0829264,
    "lng": 134.532576,
    "tel": "０８８－６３５－０２１６",
    "url": "http://www.excare.co.jp/",
    "pref": "徳島県",
    "city": "徳島市",
    "category": "home_help",
    "serviceType": "訪問介護",
    "capacity": null,
    "openDays": [
      "平日",
      "土曜日",
      "日曜日",
      "祝日"
    ],
    "openDaysNote": "夜間等は状況により相談に応じる。"
  },
  {
    "id": "3670103716",
    "name": "ヘルパーステーションおーぷんはーと",
    "kana": "ヘルパーステーションオープンハート",
    "address": "徳島県徳島市末広五丁目4番16号",
    "lat": 34.0649514,
    "lng": 134.5770973,
    "tel": "088-623-3565",
    "url": "",
    "pref": "徳島県",
    "city": "徳島市",
    "category": "home_help",
    "serviceType": "訪問介護",
    "capacity": 0,
    "openDays": [
      "平日",
      "土曜日",
      "祝日"
    ],
    "openDaysNote": "ご利用者の必要に応じて時間外及び休日営業にも対応する。"
  },
  {
    "id": "3670105125",
    "name": "ヘルパーステーションおかがわ",
    "kana": "ヘルパーステーションオカガワ",
    "address": "徳島県徳島市住吉一丁目4番33号",
    "lat": 34.0743910990758,
    "lng": 134.56465398031,
    "tel": "088-622-5005",
    "url": "http:www.okagawa-g.com",
    "pref": "徳島県",
    "city": "徳島市",
    "category": "home_help",
    "serviceType": "訪問介護",
    "capacity": 0,
    "openDays": [
      "平日",
      "土曜日",
      "日曜日",
      "祝日"
    ],
    "openDaysNote": "営業時間帯外・定休日については、調整がつく範囲内で適宜対応します。"
  },
  {
    "id": "3670100035",
    "name": "ヘルパーステーションかもな",
    "kana": "ヘルパーステーションカモナ",
    "address": "徳島市名東町2丁目456",
    "lat": 34.0592393,
    "lng": 134.4958103,
    "tel": "088-633-6567",
    "url": "http://www.sawarabikai.or.jp/",
    "pref": "徳島県",
    "city": "徳島市",
    "category": "home_help",
    "serviceType": "訪問介護",
    "capacity": 0,
    "openDays": [
      "平日",
      "土曜日",
      "日曜日",
      "祝日"
    ],
    "openDaysNote": ""
  },
  {
    "id": "3670105059",
    "name": "ヘルパーステーションキョーワ",
    "kana": "ヘルパーステーションキョーワ",
    "address": "徳島県徳島市川内町北原170",
    "lat": 34.1042468,
    "lng": 134.5598979,
    "tel": "088-665-7010",
    "url": "",
    "pref": "徳島県",
    "city": "徳島市",
    "category": "home_help",
    "serviceType": "訪問介護",
    "capacity": 0,
    "openDays": [
      "平日",
      "土曜日",
      "日曜日",
      "祝日"
    ],
    "openDaysNote": ""
  },
  {
    "id": "3670102312",
    "name": "ヘルパーステーションげんき",
    "kana": "ヘルパーステーションゲンキ",
    "address": "徳島県徳島市応神町東貞方字諏訪ノ市172-2デイサービスセンターげんき デイサービスセンターげんき",
    "lat": 34.111456,
    "lng": 134.5121912,
    "tel": "088-641-1156",
    "url": "http://daysevice-genki.net",
    "pref": "徳島県",
    "city": "徳島市",
    "category": "home_help",
    "serviceType": "訪問介護",
    "capacity": 15,
    "openDays": [
      "平日",
      "土曜日",
      "日曜日",
      "祝日"
    ],
    "openDaysNote": "ケアプランに沿って24時間対応。"
  },
  {
    "id": "3670104946",
    "name": "ヘルパーステーションこころ",
    "kana": "ヘルパーステーションココロ",
    "address": "徳島県徳島市雑賀町西開２４－５３",
    "lat": 34.0399841,
    "lng": 134.5557743,
    "tel": "088-635-4938",
    "url": "http://takurousho-kokoro.net",
    "pref": "徳島県",
    "city": "徳島市",
    "category": "home_help",
    "serviceType": "訪問介護",
    "capacity": null,
    "openDays": [
      "平日",
      "土曜日",
      "日曜日",
      "祝日"
    ],
    "openDaysNote": "・上記の営業時間以外は、利用者ニーズにより、対応します。(早朝・夜間等)（改行）・訪問中などにより、連絡が取れない時は、併設施設との連携により、２４時間体制を敷いています。(電話　等対応)"
  },
  {
    "id": "3660190350",
    "name": "ヘルパーステーションこばと",
    "kana": "ヘルパーステーションコバト",
    "address": "徳島県徳島市栄町４丁目１０番地",
    "lat": 34.0620516964842,
    "lng": 134.548838257672,
    "tel": "088-624-5789",
    "url": "",
    "pref": "徳島県",
    "city": "徳島市",
    "category": "home_help",
    "serviceType": "訪問介護",
    "capacity": 0,
    "openDays": [
      "平日",
      "土曜日"
    ],
    "openDaysNote": ""
  },
  {
    "id": "3610127122",
    "name": "ヘルパーステーションジラソーレ大松",
    "kana": "ヘルパーステーションジラソーレオオマツ",
    "address": "徳島県徳島市大松町榎原外50-1ジラソーレ大松 ジラソーレ大松",
    "lat": 34.0247537169603,
    "lng": 134.555985661902,
    "tel": "088-636-3535",
    "url": "http://himawari-gi.com",
    "pref": "徳島県",
    "city": "徳島市",
    "category": "home_help",
    "serviceType": "訪問介護",
    "capacity": 0,
    "openDays": [
      "平日",
      "土曜日",
      "日曜日",
      "祝日"
    ],
    "openDaysNote": "上記営業日、営業時間のほか、居宅サービス計画により、サービスを行うものとする。"
  },
  {
    "id": "3670300403",
    "name": "ヘルパーステーションそれいゆ",
    "kana": "ヘルパーステーションソレイユ",
    "address": "徳島県徳島市西新町１丁目５－５０　ハミングタウン２棟１０５号ハミングタウン２棟１０５号 ハミングタウン２棟１０５号",
    "lat": 34.0439587551453,
    "lng": 134.560904533169,
    "tel": "０８８－６７７－９６６１",
    "url": "",
    "pref": "徳島県",
    "city": "徳島市",
    "category": "home_help",
    "serviceType": "訪問介護",
    "capacity": 0,
    "openDays": [
      "平日",
      "土曜日",
      "日曜日",
      "祝日"
    ],
    "openDaysNote": "必要に応じて対応しています。"
  },
  {
    "id": "3670100068",
    "name": "ヘルパーステーションたすけあい",
    "kana": "ヘルパーステーションタスケアイ",
    "address": "徳島県徳島市末広二丁目1番80号",
    "lat": 34.0642404,
    "lng": 134.5739392,
    "tel": "088-626-3237",
    "url": "http://dreamer-service.org",
    "pref": "徳島県",
    "city": "徳島市",
    "category": "home_help",
    "serviceType": "訪問介護",
    "capacity": 0,
    "openDays": [
      "平日",
      "土曜日",
      "日曜日",
      "祝日"
    ],
    "openDaysNote": ""
  },
  {
    "id": "3670104284",
    "name": "ヘルパーステーションたすけあい沖洲",
    "kana": "ヘルパーステーションタスケアイオキノス",
    "address": "徳島県徳島市北沖洲4丁目14番38",
    "lat": 34.0714970399667,
    "lng": 134.596625323848,
    "tel": "088-678-8161",
    "url": "http://dreamer-service.org",
    "pref": "徳島県",
    "city": "徳島市",
    "category": "home_help",
    "serviceType": "訪問介護",
    "capacity": 24,
    "openDays": [
      "平日",
      "土曜日",
      "日曜日",
      "祝日"
    ],
    "openDaysNote": "必要に応じてサービスを利用できる時間のほか、利用者等からの相談及び居宅サービス計画によりサービス提供を行うものとする。"
  },
  {
    "id": "3670103989",
    "name": "ヘルパーステーションたすけあい川内",
    "kana": "ヘルパーステーションタスケアイカワウチ",
    "address": "徳島県徳島市川内町榎瀬８２４－１号",
    "lat": 34.1067341,
    "lng": 134.5528785,
    "tel": "０８８－６２４－８７４１",
    "url": "http://dreamer-service.org",
    "pref": "徳島県",
    "city": "徳島市",
    "category": "home_help",
    "serviceType": "訪問介護",
    "capacity": 28,
    "openDays": [
      "平日",
      "土曜日",
      "日曜日",
      "祝日"
    ],
    "openDaysNote": "必要に応じて上記営業時間のほか、利用者等からの相談及び居宅サービス計画によりサービス提供を行うものとする。"
  },
  {
    "id": "3670105885",
    "name": "ヘルパーステーションつくし",
    "kana": "ヘルパーステーションツクシ",
    "address": "徳島県徳島市南昭和町五丁目68-2",
    "lat": 34.0557781,
    "lng": 134.5625322,
    "tel": "088-635-5437",
    "url": "",
    "pref": "徳島県",
    "city": "徳島市",
    "category": "home_help",
    "serviceType": "訪問介護",
    "capacity": 8,
    "openDays": [
      "平日",
      "土曜日",
      "日曜日",
      "祝日"
    ],
    "openDaysNote": "土・日・祝日（正月・お盆）訪問可能"
  },
  {
    "id": "3610124772",
    "name": "ヘルパーステーションとみだ",
    "kana": "ヘルパーステーショントミダ",
    "address": "徳島市中昭和町２丁目９４",
    "lat": 34.0617405,
    "lng": 134.5586074,
    "tel": "０８８－６２４－０００４",
    "url": "http://hayashikai.or.jp/helperstation/",
    "pref": "徳島県",
    "city": "徳島市",
    "category": "home_help",
    "serviceType": "訪問介護",
    "capacity": 0,
    "openDays": [
      "平日",
      "土曜日",
      "祝日"
    ],
    "openDaysNote": "但し、利用者のやむを得ない事情がある場合はこの限りではありません。"
  },
  {
    "id": "3670100944",
    "name": "ヘルパーステーションなかよし",
    "kana": "ヘルパーステーションナカヨシ",
    "address": "徳島県徳島市春日２丁目2-47セジュール春日A１０５号 セジュール春日A１０５号",
    "lat": 34.0907506619375,
    "lng": 134.527689868352,
    "tel": "０８８－６７９－８３８０",
    "url": "",
    "pref": "徳島県",
    "city": "徳島市",
    "category": "home_help",
    "serviceType": "訪問介護",
    "capacity": 0,
    "openDays": [
      "平日",
      "土曜日",
      "日曜日",
      "祝日"
    ],
    "openDaysNote": "日曜日は、出勤者が少ないため、ご希望に応じかねる場合もあります。"
  },
  {
    "id": "3670102718",
    "name": "ヘルパーステーションなないろ",
    "kana": "ヘルパーステーションナナイロ",
    "address": "徳島県徳島市中島田町４丁目５番地９",
    "lat": 34.0815148,
    "lng": 134.5088561,
    "tel": "（０８８）６３１－７７１６",
    "url": "",
    "pref": "徳島県",
    "city": "徳島市",
    "category": "home_help",
    "serviceType": "訪問介護",
    "capacity": 4,
    "openDays": [
      "平日",
      "土曜日",
      "日曜日",
      "祝日"
    ],
    "openDaysNote": "・電話等により２４時間連絡可能な体制とする。（改行）・居宅サービス計画（ケアプラン）により、休業日及び営業時間外であってもサービスを提供致します。"
  },
  {
    "id": "3670101561",
    "name": "ヘルパーステーションなのはな徳島",
    "kana": "ヘルパーステーションナノハナトクシマ",
    "address": "徳島県徳島市上八万町西山１４３０-２",
    "lat": 34.0314895739953,
    "lng": 134.490472508598,
    "tel": "088-644-3508",
    "url": "https://www.npo-nanohana.or.jp/",
    "pref": "徳島県",
    "city": "徳島市",
    "category": "home_help",
    "serviceType": "訪問介護",
    "capacity": 60,
    "openDays": [
      "平日",
      "土曜日",
      "日曜日",
      "祝日"
    ],
    "openDaysNote": "お客様の要望により　相談し対応する"
  },
  {
    "id": "3670106180",
    "name": "ヘルパーステーションぱーとなー徳島",
    "kana": "ヘルパーステーションパートナートクシマ",
    "address": "徳島県徳島市北矢三町3丁目3－27グランドハイツ矢三203号室 グランドハイツ矢三203号室",
    "lat": 34.0883779,
    "lng": 134.5197625,
    "tel": "088-624-7479",
    "url": "",
    "pref": "徳島県",
    "city": "徳島市",
    "category": "home_help",
    "serviceType": "訪問介護",
    "capacity": null,
    "openDays": [
      "平日",
      "土曜日",
      "日曜日",
      "祝日"
    ],
    "openDaysNote": "電話は24時間対応可"
  },
  {
    "id": "3670105893",
    "name": "ヘルパーステーションビオラ",
    "kana": "ヘルパーステーションビオラ",
    "address": "徳島県徳島市八万町内浜130番地1森住宅C棟C-1 森住宅C棟C-1",
    "lat": 34.0514483152906,
    "lng": 134.540490973016,
    "tel": "090-9826-8190",
    "url": "",
    "pref": "徳島県",
    "city": "徳島市",
    "category": "home_help",
    "serviceType": "訪問介護",
    "capacity": 0,
    "openDays": [
      "平日"
    ],
    "openDaysNote": "訪問曜日、時間は御希望により相談に応じます。"
  },
  {
    "id": "3670104656",
    "name": "ヘルパーステーションひなた",
    "kana": "ヘルパーステーションヒナタ",
    "address": "徳島県徳島市名東町３丁目３３２番地の７０",
    "lat": 34.0502874,
    "lng": 134.4881248,
    "tel": "０９０－４９７９－３８３２",
    "url": "",
    "pref": "徳島県",
    "city": "徳島市",
    "category": "home_help",
    "serviceType": "訪問介護",
    "capacity": 10,
    "openDays": [
      "平日"
    ],
    "openDaysNote": ""
  },
  {
    "id": "3670100688",
    "name": "ヘルパーステーションふれあい",
    "kana": "ヘルパーステーションフレアイ",
    "address": "徳島県徳島市中央通一丁目27番地水落ビル2階 水落ビル2階",
    "lat": 34.0638513,
    "lng": 134.5501165,
    "tel": "088-611-2880",
    "url": "",
    "pref": "徳島県",
    "city": "徳島市",
    "category": "home_help",
    "serviceType": "訪問介護",
    "capacity": 0,
    "openDays": [
      "平日",
      "土曜日",
      "日曜日",
      "祝日"
    ],
    "openDaysNote": "転送電話にて常時連絡は取れる体制をとっている。"
  },
  {
    "id": "3670101488",
    "name": "ヘルパーステーションみつば",
    "kana": "ヘルパーステーションミツバ",
    "address": "徳島県徳島市八万町上福万２２０番地１３",
    "lat": 34.0503636560814,
    "lng": 134.529701295089,
    "tel": "088-678-6773",
    "url": "",
    "pref": "徳島県",
    "city": "徳島市",
    "category": "home_help",
    "serviceType": "訪問介護",
    "capacity": 0,
    "openDays": [
      "平日",
      "土曜日"
    ],
    "openDaysNote": "ケアプランに応じて随時サービス提供を行うものとする。"
  },
  {
    "id": "3671502080",
    "name": "ヘルパーステーションミント",
    "kana": "ヘルパーステーションミント",
    "address": "徳島県徳島市川内町北原78番地2",
    "lat": 34.1024335491445,
    "lng": 134.565206753911,
    "tel": "088-602-7901",
    "url": "",
    "pref": "徳島県",
    "city": "徳島市",
    "category": "home_help",
    "serviceType": "訪問介護",
    "capacity": null,
    "openDays": [
      "平日",
      "土曜日",
      "日曜日",
      "祝日"
    ],
    "openDaysNote": ""
  },
  {
    "id": "3670104292",
    "name": "ヘルパーステーションゆいまーる",
    "kana": "ヘルパーステーションユイマール",
    "address": "徳島県徳島市南蔵本町３丁目３５－２",
    "lat": 34.0715079,
    "lng": 134.5172472,
    "tel": "088-679-7905",
    "url": "",
    "pref": "徳島県",
    "city": "徳島市",
    "category": "home_help",
    "serviceType": "訪問介護",
    "capacity": 0,
    "openDays": [
      "平日",
      "土曜日",
      "日曜日",
      "祝日"
    ],
    "openDaysNote": "利用者の要望によりこの限りではない。"
  },
  {
    "id": "3660190541",
    "name": "ヘルパーステーションゆめ",
    "kana": "ヘルパーステーションユメ",
    "address": "徳島県徳島市名東町１丁目９９－２",
    "lat": 36.204824,
    "lng": 138.252924,
    "tel": "０８８－６３５－０１０２",
    "url": "https;//minnanoouti-mtk.com",
    "pref": "徳島県",
    "city": "徳島市",
    "category": "home_help",
    "serviceType": "訪問介護",
    "capacity": 5,
    "openDays": [
      "平日",
      "土曜日",
      "日曜日",
      "祝日"
    ],
    "openDaysNote": ""
  },
  {
    "id": "3670105661",
    "name": "ヘルパーステーションレインボー",
    "kana": "ヘルパーステーションレインボー",
    "address": "徳島県徳島市仲之町1丁目35-1アシャルネ601号室 アシャルネ601号室",
    "lat": 34.0730153,
    "lng": 134.5505081,
    "tel": "088-678-8732",
    "url": "https://nijinohashikaigo.com/",
    "pref": "徳島県",
    "city": "徳島市",
    "category": "home_help",
    "serviceType": "訪問介護",
    "capacity": 0,
    "openDays": [
      "平日",
      "土曜日",
      "日曜日",
      "祝日"
    ],
    "openDaysNote": ""
  },
  {
    "id": "3670103344",
    "name": "ヘルパーステーション阿波っ子",
    "kana": "ヘルパーステーションアワッコ",
    "address": "徳島県徳島市国府町和田字居内１０７番地",
    "lat": 34.0747872,
    "lng": 134.4908357,
    "tel": "088-678-5553",
    "url": "tamaki-aozora.ne.jp",
    "pref": "徳島県",
    "city": "徳島市",
    "category": "home_help",
    "serviceType": "訪問介護",
    "capacity": 10,
    "openDays": [
      "平日",
      "土曜日",
      "日曜日",
      "祝日"
    ],
    "openDaysNote": "時間外も要相談"
  },
  {
    "id": "3670104680",
    "name": "ヘルパーステーション秋桜",
    "kana": "ヘルパーステーションコスモス",
    "address": "徳島県徳島市金沢２丁目５－７６",
    "lat": 34.0743822392782,
    "lng": 134.585535757616,
    "tel": "088-660-1755",
    "url": "",
    "pref": "徳島県",
    "city": "徳島市",
    "category": "home_help",
    "serviceType": "訪問介護",
    "capacity": 0,
    "openDays": [
      "平日",
      "土曜日",
      "祝日"
    ],
    "openDaysNote": "訪問時間については要相談となります。"
  },
  {
    "id": "3670103070",
    "name": "ヘルパーステーション春水",
    "kana": "ヘルパーステーションシュンスイ",
    "address": "徳島県徳島市名東町３丁目１３高齢者住宅春水 高齢者住宅春水",
    "lat": 34.0587365,
    "lng": 134.495102,
    "tel": "088-634-2023",
    "url": "https://kawauchi-clinic.jp/shunsui",
    "pref": "徳島県",
    "city": "徳島市",
    "category": "home_help",
    "serviceType": "訪問介護",
    "capacity": 0,
    "openDays": [
      "平日",
      "土曜日",
      "日曜日",
      "祝日"
    ],
    "openDaysNote": ""
  },
  {
    "id": "3670106024",
    "name": "ヘルパーステーション心残りゼロ",
    "kana": "ヘルパーステーションココロノコリゼロ",
    "address": "徳島市中昭和町２丁目１０７",
    "lat": 34.0612104,
    "lng": 134.5583134,
    "tel": "088-676-3727",
    "url": "",
    "pref": "徳島県",
    "city": "徳島市",
    "category": "home_help",
    "serviceType": "訪問介護",
    "capacity": 0,
    "openDays": [
      "平日"
    ],
    "openDaysNote": "但し利用者の希望がある場合、提供日・時間ともにこの限りではない。"
  },
  {
    "id": "3670106172",
    "name": "ヘルパーステーション晴れの日",
    "kana": "ヘルパーステーション　ハレノヒ",
    "address": "徳島市住吉一丁目４番３３号",
    "lat": 34.0744001,
    "lng": 134.5646653,
    "tel": "088-622-5005",
    "url": "",
    "pref": "徳島県",
    "city": "徳島市",
    "category": "home_help",
    "serviceType": "訪問介護",
    "capacity": 0,
    "openDays": [
      "平日",
      "土曜日",
      "日曜日",
      "祝日"
    ],
    "openDaysNote": "営業時間帯外・定休日については、調整がつく範囲内で適宜対応します。"
  },
  {
    "id": "3670105281",
    "name": "ヘルパーステーション然",
    "kana": "ヘルパーステーションゼン",
    "address": "徳島県徳島市南矢三町一丁目3-51",
    "lat": 34.0856901706679,
    "lng": 134.5273734,
    "tel": "088-679-7220",
    "url": "",
    "pref": "徳島県",
    "city": "徳島市",
    "category": "home_help",
    "serviceType": "訪問介護",
    "capacity": null,
    "openDays": [
      "平日",
      "土曜日",
      "日曜日",
      "祝日"
    ],
    "openDaysNote": "年末年始（12月31日から1月3日）及びお盆（8月12日から8月15日）を除きます。（改行）ご利用者様の必要に応じて、時間外及び休日営業にも対応させていただきます。"
  },
  {
    "id": "3670103583",
    "name": "ヘルパーステーション虹の橋",
    "kana": "ヘルパーステーションニジノハシ",
    "address": "徳島県徳島市仲之町1丁目35-1アシャルネ601号室 アシャルネ601号室",
    "lat": 34.0730583766657,
    "lng": 134.550452264746,
    "tel": "088-633-3211",
    "url": "https://nijinohashikaigo.com/",
    "pref": "徳島県",
    "city": "徳島市",
    "category": "home_help",
    "serviceType": "訪問介護",
    "capacity": 0,
    "openDays": [
      "平日",
      "土曜日",
      "日曜日",
      "祝日"
    ],
    "openDaysNote": ""
  },
  {
    "id": "3670102700",
    "name": "ヘルパーステーション夢",
    "kana": "ヘルパーステーションユメ",
    "address": "徳島県徳島市西新浜町一丁目２番６－２号",
    "lat": 34.0462558,
    "lng": 134.5634886,
    "tel": "０８８－６６１－１６９０",
    "url": "",
    "pref": "徳島県",
    "city": "徳島市",
    "category": "home_help",
    "serviceType": "訪問介護",
    "capacity": 0,
    "openDays": [
      "平日",
      "土曜日",
      "日曜日",
      "祝日"
    ],
    "openDaysNote": "営業時間外のサービス提供については、相談に応じます。"
  },
  {
    "id": "3670104409",
    "name": "ヘルパーステーション悠和ライフ",
    "kana": "ヘルパーステーションユウワライフ",
    "address": "徳島県徳島市佐古四番町3番17号",
    "lat": 34.0778061573813,
    "lng": 134.532099370877,
    "tel": "088-624-7940",
    "url": "http://ashikabikai.jp/",
    "pref": "徳島県",
    "city": "徳島市",
    "category": "home_help",
    "serviceType": "訪問介護",
    "capacity": 3,
    "openDays": [
      "平日",
      "祝日"
    ],
    "openDaysNote": "上記の時間外でも利用者様の要望があれば対応します。"
  },
  {
    "id": "3670106065",
    "name": "ヘルパーステーション和ごころ",
    "kana": "ヘルパーステーションワゴコロ",
    "address": "徳島県徳島市昭和町八丁目87-21101 101",
    "lat": 34.0556528,
    "lng": 134.568232,
    "tel": "088-660-3830",
    "url": "",
    "pref": "徳島県",
    "city": "徳島市",
    "category": "home_help",
    "serviceType": "訪問介護",
    "capacity": 35,
    "openDays": [
      "平日",
      "土曜日",
      "日曜日",
      "祝日"
    ],
    "openDaysNote": "その他ご希望があれば相談させていただきます。"
  },
  {
    "id": "3670104888",
    "name": "ヘルパーステーション來のこ",
    "kana": "ヘルパーステーションキノコ",
    "address": "徳島県徳島市佐古4番町7-15",
    "lat": 34.0784152615478,
    "lng": 134.532057881615,
    "tel": "088-626-0051",
    "url": "https://kinoko.kutsurogiya.com/",
    "pref": "徳島県",
    "city": "徳島市",
    "category": "home_help",
    "serviceType": "訪問介護",
    "capacity": 5,
    "openDays": [
      "平日",
      "土曜日",
      "日曜日",
      "祝日"
    ],
    "openDaysNote": "状況によりサービス提供時間はこの限りではありません。"
  },
  {
    "id": "3670100357",
    "name": "ホームケアべんり堂　ヘルパーステーション",
    "kana": "ホームケアベンリドウ　ヘルパーステーション",
    "address": "徳島県徳島市北矢三町1丁目１番１５号べんり堂ビル べんり堂ビル",
    "lat": 34.0864814,
    "lng": 134.5289179,
    "tel": "088-634-1801",
    "url": "http://www.benrido.net/",
    "pref": "徳島県",
    "city": "徳島市",
    "category": "home_help",
    "serviceType": "訪問介護",
    "capacity": 5,
    "openDays": [
      "平日",
      "土曜日",
      "祝日"
    ],
    "openDaysNote": "状況によっては担当介護支援専門員と担当者会議で検討の上時間外も対応しています。"
  },
  {
    "id": "3670103567",
    "name": "ホームケア茶々",
    "kana": "ホームケアチャチャ",
    "address": "川内町旭野226-3-2Ｆ",
    "lat": 34.0937677,
    "lng": 134.6010558,
    "tel": "088-679-9575",
    "url": "",
    "pref": "徳島県",
    "city": "徳島市",
    "category": "home_help",
    "serviceType": "訪問介護",
    "capacity": null,
    "openDays": [
      "平日"
    ],
    "openDaysNote": "サービス提供時間においては、利用者等からのご相談をお聞きしたうえで決定させて頂きます"
  },
  {
    "id": "3670105612",
    "name": "ホームケア土屋　徳島",
    "kana": "ホームケアツチヤトクシマ",
    "address": "徳島県徳島市末広1丁目5番地11PinoⅡ605号室 PinoⅡ605号室",
    "lat": 34.064721,
    "lng": 134.5708241,
    "tel": "050-3138-5659",
    "url": "https://tcy.com",
    "pref": "徳島県",
    "city": "徳島市",
    "category": "home_help",
    "serviceType": "訪問介護",
    "capacity": 0,
    "openDays": [
      "平日",
      "土曜日",
      "日曜日",
      "祝日"
    ],
    "openDaysNote": "休日のサービス提供は相談に応じる。"
  },
  {
    "id": "3670105000",
    "name": "ホームヘルパーステーションあさがお",
    "kana": "ホームヘルパーステーションアサガオ",
    "address": "徳島県徳島市大原町外籠47番地の４",
    "lat": 34.0341730767976,
    "lng": 134.568526614156,
    "tel": "088-663-3113",
    "url": "http://www.asagao-fukushikai.jp",
    "pref": "徳島県",
    "city": "徳島市",
    "category": "home_help",
    "serviceType": "訪問介護",
    "capacity": 0,
    "openDays": [
      "平日",
      "土曜日",
      "祝日"
    ],
    "openDaysNote": "日曜日。ただし、ご利用者の状態や要望により、例外的かつ一時的に稼働する場合がある。（改行）現在土曜日のサービス提供時間は13時30分－17時30分。"
  },
  {
    "id": "3670101082",
    "name": "ホームヘルパーステーションたんぽぽ",
    "kana": "ホームヘルパーステーションタンポポ",
    "address": "徳島市南昭和町三丁目40番地の4",
    "lat": 34.0579265546183,
    "lng": 134.558090194248,
    "tel": "088-655-5440",
    "url": "",
    "pref": "徳島県",
    "city": "徳島市",
    "category": "home_help",
    "serviceType": "訪問介護",
    "capacity": null,
    "openDays": [
      "平日",
      "土曜日"
    ],
    "openDaysNote": ""
  },
  {
    "id": "3670100050",
    "name": "ホームヘルパーステーションピア",
    "kana": "ホウムヘルパーステーションピア",
    "address": "徳島市八万町大野5-5特別養護老人ホームピア 特別養護老人ホームピア",
    "lat": 34.0438341,
    "lng": 134.5499855,
    "tel": "088-669-3339",
    "url": "https://keirou-group.jp/",
    "pref": "徳島県",
    "city": "徳島市",
    "category": "home_help",
    "serviceType": "訪問介護",
    "capacity": 0,
    "openDays": [
      "平日",
      "土曜日",
      "祝日"
    ],
    "openDaysNote": "年末年始は、利用者の状況に応じて訪問。"
  },
  {
    "id": "3670104268",
    "name": "みつばちケア",
    "kana": "ミツバチケア",
    "address": "徳島県徳島市南島田町二丁目１２０番地１０",
    "lat": 34.0816259,
    "lng": 134.5102448,
    "tel": "088-633-9677",
    "url": "",
    "pref": "徳島県",
    "city": "徳島市",
    "category": "home_help",
    "serviceType": "訪問介護",
    "capacity": 0,
    "openDays": [
      "平日",
      "土曜日",
      "日曜日",
      "祝日"
    ],
    "openDaysNote": "電話等により24時間常時連絡可能な体制とする"
  },
  {
    "id": "3670104235",
    "name": "メビウス訪問介護事業所",
    "kana": "メビウスホウモンカイゴジギョウショ",
    "address": "徳島県徳島市国府町府中７１３番地の１７",
    "lat": 34.0703791,
    "lng": 134.4771412,
    "tel": "088-643-2075",
    "url": "",
    "pref": "徳島県",
    "city": "徳島市",
    "category": "home_help",
    "serviceType": "訪問介護",
    "capacity": 0,
    "openDays": [
      "平日"
    ],
    "openDaysNote": "利用者がいる場合は、優先する。"
  },
  {
    "id": "3670100829",
    "name": "ライフアシスタント　こもれび",
    "kana": "ライフアシスタント　コモレビ",
    "address": "徳島県徳島市南佐古八番町４－８",
    "lat": 34.0731078438094,
    "lng": 134.522661122541,
    "tel": "088-661-3294",
    "url": "",
    "pref": "徳島県",
    "city": "徳島市",
    "category": "home_help",
    "serviceType": "訪問介護",
    "capacity": 0,
    "openDays": [
      "平日",
      "祝日"
    ],
    "openDaysNote": "介護が必要とされる場合は、時間外であっても柔軟に対応する。"
  },
  {
    "id": "3670102486",
    "name": "ライフサポート　しんくら",
    "kana": "ライフサポート　シンクラ",
    "address": "徳島市新蔵町一丁目19番地坪井ビル4Ｆ 坪井ビル4Ｆ",
    "lat": 34.0706091,
    "lng": 134.5581491,
    "tel": "088-652-7629",
    "url": "",
    "pref": "徳島県",
    "city": "徳島市",
    "category": "home_help",
    "serviceType": "訪問介護",
    "capacity": 15,
    "openDays": [
      "平日",
      "土曜日",
      "祝日"
    ],
    "openDaysNote": "基本的に定休日を指定しているが、利用者様の状況と希望に応じて、日曜日と夜間時間の対応もしている。"
  },
  {
    "id": "3670101058",
    "name": "鮎喰川介護タクシー",
    "kana": "アクイガワカイゴタクシー",
    "address": "徳島県徳島市国府町井戸字堂ノ裏５１−１",
    "lat": 34.0857199,
    "lng": 134.4842139,
    "tel": "088-642-1050",
    "url": "",
    "pref": "徳島県",
    "city": "徳島市",
    "category": "home_help",
    "serviceType": "訪問介護",
    "capacity": 0,
    "openDays": [
      "平日",
      "土曜日",
      "日曜日",
      "祝日"
    ],
    "openDaysNote": ""
  },
  {
    "id": "3670101116",
    "name": "安全タクシー有限会社",
    "kana": "アンゼンタクシーユウゲンガイシャ",
    "address": "徳島県徳島市鮎喰町２丁目７７",
    "lat": 34.0722545,
    "lng": 134.5002515,
    "tel": "088-631-4988",
    "url": "anzen4988@violin.ocn.ne.jp",
    "pref": "徳島県",
    "city": "徳島市",
    "category": "home_help",
    "serviceType": "訪問介護",
    "capacity": 0,
    "openDays": [],
    "openDaysNote": "２４時間営業　受付（午前９時～午後３時）"
  },
  {
    "id": "3670105117",
    "name": "医療法人　成悠会　訪問介護ステーション藍",
    "kana": "イリョウホウジン　セイユウカイ　ホウモンカイゴステーションアイ",
    "address": "徳島県徳島市名東町1丁目91番地",
    "lat": 34.0659176,
    "lng": 134.5048736,
    "tel": "090-8693-9383",
    "url": "http://tenma-hpg.com/kaigo/kaigo-ai/",
    "pref": "徳島県",
    "city": "徳島市",
    "category": "home_help",
    "serviceType": "訪問介護",
    "capacity": 0,
    "openDays": [],
    "openDaysNote": "年中無休　24時間営業"
  },
  {
    "id": "3660190087",
    "name": "医療法人慈成会ホームヘルプサービスてらさわ",
    "kana": "イリョウホウジンジセイカイホームヘルプサービステラサワ",
    "address": "徳島県徳島市津田西町1丁目３－９",
    "lat": 34.0511252,
    "lng": 134.5766026,
    "tel": "０８８－６７８－９５５２",
    "url": "",
    "pref": "徳島県",
    "city": "徳島市",
    "category": "home_help",
    "serviceType": "訪問介護",
    "capacity": 0,
    "openDays": [
      "平日",
      "土曜日",
      "日曜日",
      "祝日"
    ],
    "openDaysNote": "夜間等は、状況により相談に応じる事とする。"
  },
  {
    "id": "3670102833",
    "name": "花乃苑訪問介護センター",
    "kana": "ハナノエンホウモンカイゴセンター",
    "address": "徳島市北沖洲2丁目9番55号",
    "lat": 34.0702009,
    "lng": 134.5883714,
    "tel": "088-664-8382",
    "url": "https://hananoen-group.com/",
    "pref": "徳島県",
    "city": "徳島市",
    "category": "home_help",
    "serviceType": "訪問介護",
    "capacity": 40,
    "openDays": [
      "平日",
      "土曜日",
      "日曜日",
      "祝日"
    ],
    "openDaysNote": ""
  },
  {
    "id": "3650180163",
    "name": "介護老人保健施設エルダリーガーデン",
    "kana": "カイゴロウジンホケンシセツエルダリーガーデン",
    "address": "徳島県徳島市南庄町4丁目60番地2",
    "lat": 34.072277,
    "lng": 134.5082341,
    "tel": "088-632-3393",
    "url": "http://www.matsunaga-hp.jp/elderlygarden",
    "pref": "徳島県",
    "city": "徳島市",
    "category": "home_help",
    "serviceType": "訪問介護",
    "capacity": 0,
    "openDays": [
      "平日",
      "土曜日",
      "祝日"
    ],
    "openDaysNote": "ケースにより個別対応"
  },
  {
    "id": "3670102767",
    "name": "株式会社YOU介護サービス",
    "kana": "カブシキカイシャ　ユウカイゴサービス",
    "address": "徳島市八万町千鳥２４－２",
    "lat": 34.050333,
    "lng": 134.5357622,
    "tel": "088-668-2735",
    "url": "",
    "pref": "徳島県",
    "city": "徳島市",
    "category": "home_help",
    "serviceType": "訪問介護",
    "capacity": 0,
    "openDays": [
      "平日",
      "土曜日",
      "祝日"
    ],
    "openDaysNote": ""
  },
  {
    "id": "3670102684",
    "name": "株式会社介護サービスロイヤルライフ・あい",
    "kana": "カブシキカイシャカイゴサービスロイヤルライフ・アイ",
    "address": "徳島県徳島市川内町上別宮北51-1スカイステージ701号 スカイステージ701号",
    "lat": 34.1021576414257,
    "lng": 134.56655493853,
    "tel": "088-666-0076",
    "url": "",
    "pref": "徳島県",
    "city": "徳島市",
    "category": "home_help",
    "serviceType": "訪問介護",
    "capacity": 0,
    "openDays": [
      "平日",
      "土曜日",
      "日曜日",
      "祝日"
    ],
    "openDaysNote": "相談に応じる。"
  },
  {
    "id": "3670100233",
    "name": "健祥会ヘルパーステーション徳島",
    "kana": "ケンショウカイヘルパーステーショントクシマ",
    "address": "徳島県徳島市国府町東高輪字天満347番地1健祥会ひまわり内 健祥会ひまわり内",
    "lat": 34.0905147997966,
    "lng": 134.481402280812,
    "tel": "088-642-9222",
    "url": "https://www.kenshokai.group/",
    "pref": "徳島県",
    "city": "徳島市",
    "category": "home_help",
    "serviceType": "訪問介護",
    "capacity": 120,
    "openDays": [
      "平日",
      "土曜日",
      "日曜日",
      "祝日"
    ],
    "openDaysNote": ""
  },
  {
    "id": "3670105463",
    "name": "光の園ヘルパーステーション",
    "kana": "ヒカリノソノヘルパーステーション",
    "address": "徳島県徳島市渋野町西池27-1光の園 光の園",
    "lat": 34.0037471,
    "lng": 134.5364025,
    "tel": "886362050",
    "url": "http://seiyohkai.jp/",
    "pref": "徳島県",
    "city": "徳島市",
    "category": "home_help",
    "serviceType": "訪問介護",
    "capacity": 0,
    "openDays": [
      "平日",
      "土曜日",
      "日曜日",
      "祝日"
    ],
    "openDaysNote": ""
  },
  {
    "id": "3670100027",
    "name": "光風会ホームヘルプサービス",
    "kana": "コウフウカイホームヘルプサービス",
    "address": "徳島県徳島市下的本丁61-9",
    "lat": 34.0361347,
    "lng": 134.4857312,
    "tel": "088-644-0011",
    "url": "kouhuukai@tk2.nmt.ne.jp",
    "pref": "徳島県",
    "city": "徳島市",
    "category": "home_help",
    "serviceType": "訪問介護",
    "capacity": 0,
    "openDays": [
      "平日"
    ],
    "openDaysNote": "年中無休・24時間"
  },
  {
    "id": "3670106214",
    "name": "高杉訪問介護事業所",
    "kana": "タカスギホウモンガイゴジギョウショ",
    "address": "徳島県徳島市国府町芝原字天満24-15",
    "lat": 34.100029,
    "lng": 134.463589,
    "tel": "088-642-7473",
    "url": "",
    "pref": "徳島県",
    "city": "徳島市",
    "category": "home_help",
    "serviceType": "訪問介護",
    "capacity": null,
    "openDays": [
      "平日",
      "土曜日",
      "日曜日",
      "祝日"
    ],
    "openDaysNote": ""
  },
  {
    "id": "3670106115",
    "name": "合同会社　プリム",
    "kana": "ゴウドウガイシャ　プリム",
    "address": "徳島県徳島市秋田町６丁目15-2",
    "lat": 34.058624,
    "lng": 134.5492801,
    "tel": "088-603-8140",
    "url": "",
    "pref": "徳島県",
    "city": "徳島市",
    "category": "home_help",
    "serviceType": "訪問介護",
    "capacity": 0,
    "openDays": [
      "平日"
    ],
    "openDaysNote": ""
  },
  {
    "id": "3670102643",
    "name": "合同会社ケアサポートはーと",
    "kana": "ゴウドウガイシャケアサポートハート",
    "address": "徳島県徳島市佐古二番町12－11",
    "lat": 34.0790669977886,
    "lng": 134.537933283432,
    "tel": "886357645",
    "url": "",
    "pref": "徳島県",
    "city": "徳島市",
    "category": "home_help",
    "serviceType": "訪問介護",
    "capacity": 0,
    "openDays": [
      "平日"
    ],
    "openDaysNote": ""
  },
  {
    "id": "3670101991",
    "name": "国府介護サービス",
    "kana": "コクフカイゴサービス",
    "address": "徳島県徳島市国府町敷地１２１",
    "lat": 34.0760265976921,
    "lng": 134.467503166148,
    "tel": "０８８－６４２－１１６３",
    "url": "",
    "pref": "徳島県",
    "city": "徳島市",
    "category": "home_help",
    "serviceType": "訪問介護",
    "capacity": 0,
    "openDays": [
      "平日",
      "土曜日",
      "祝日"
    ],
    "openDaysNote": "利用者の状況等に合わせて対応しています。必要に応じてご相談ください。"
  },
  {
    "id": "3670104391",
    "name": "在宅ケア支援センター凌雲津田",
    "kana": "ザイタクケアシエンセンターリョウウンツダ",
    "address": "徳島県徳島市津田町三丁目7-9",
    "lat": 34.0470057,
    "lng": 134.5827166,
    "tel": "088-678-2409",
    "url": "http://www.ryoun.com",
    "pref": "徳島県",
    "city": "徳島市",
    "category": "home_help",
    "serviceType": "訪問介護",
    "capacity": 0,
    "openDays": [
      "平日",
      "土曜日",
      "祝日"
    ],
    "openDaysNote": "上記時間以外は、要相談。"
  },
  {
    "id": "3670103237",
    "name": "山城ヘルパーステーション",
    "kana": "ヤマシロヘルパーステーション",
    "address": "徳島県徳島市南昭和町2丁目4－7",
    "lat": 53.41291,
    "lng": -8.24388999999996,
    "tel": "088－655－8074",
    "url": "",
    "pref": "徳島県",
    "city": "徳島市",
    "category": "home_help",
    "serviceType": "訪問介護",
    "capacity": 0,
    "openDays": [
      "平日",
      "土曜日",
      "日曜日",
      "祝日"
    ],
    "openDaysNote": "なし"
  },
  {
    "id": "3670100654",
    "name": "指定居宅介護サービス事業所　エンジェル",
    "kana": "シテイキョタクカイゴサービスジギョウショ　エンジェル",
    "address": "徳島市佐古二番町11番6号",
    "lat": 34.0788132,
    "lng": 134.5374201,
    "tel": "088-654-8554",
    "url": "",
    "pref": "徳島県",
    "city": "徳島市",
    "category": "home_help",
    "serviceType": "訪問介護",
    "capacity": 0,
    "openDays": [
      "平日",
      "土曜日",
      "日曜日",
      "祝日"
    ],
    "openDaysNote": "上記の時間は基本的な時間です。"
  },
  {
    "id": "3670102726",
    "name": "社会福祉法人　すだち会　大神子ヘルパーステーション",
    "kana": "シャカイフクシホウジン　スダチカイ　オオミコヘルパーステーション",
    "address": "徳島県徳島市新浜本町1丁目7番70号特別養護老人ホーム　なつめ荘２階 特別養護老人ホーム　なつめ荘２階",
    "lat": 34.0440842,
    "lng": 134.5724863,
    "tel": "088－663－5212",
    "url": "",
    "pref": "徳島県",
    "city": "徳島市",
    "category": "home_help",
    "serviceType": "訪問介護",
    "capacity": 5,
    "openDays": [
      "平日",
      "土曜日",
      "日曜日",
      "祝日"
    ],
    "openDaysNote": ""
  },
  {
    "id": "3670105406",
    "name": "社会福祉法人飛鳥ヘルパーステーション",
    "kana": "シャカイフクシホウジンアスカヘルパーステーション",
    "address": "徳島県徳島市北佐古一番町1番6号",
    "lat": 34.079404,
    "lng": 134.5415573,
    "tel": "088-624-7755",
    "url": "http://asuka.khg.or.jp/helper.html",
    "pref": "徳島県",
    "city": "徳島市",
    "category": "home_help",
    "serviceType": "訪問介護",
    "capacity": 0,
    "openDays": [
      "平日",
      "土曜日",
      "日曜日",
      "祝日"
    ],
    "openDaysNote": "但し、12月30日から翌年1月3日までをの除く。"
  },
  {
    "id": "3610125076",
    "name": "松村病院　訪問介護事業所",
    "kana": "マツムラ　ビョウインホウモンカイゴジギョウショ",
    "address": "徳島県徳島市川内町鶴島162サービス付き高齢者向け住宅わかくさ サービス付き高齢者向け住宅わかくさ",
    "lat": 34.1166194,
    "lng": 134.5780965,
    "tel": "088-677-3373",
    "url": "http://www.wakakusakai.com",
    "pref": "徳島県",
    "city": "徳島市",
    "category": "home_help",
    "serviceType": "訪問介護",
    "capacity": 0,
    "openDays": [],
    "openDaysNote": "土日祝日２４時間対応"
  },
  {
    "id": "3670102601",
    "name": "常三島ヘルパーステーション",
    "kana": "ジョウサンジマヘルパーステーション",
    "address": "徳島県徳島市中常三島町1丁目3-3スタンフォード常三島302号室 スタンフォード常三島302号室",
    "lat": 34.0796219,
    "lng": 134.559732,
    "tel": "088-655-2888",
    "url": "",
    "pref": "徳島県",
    "city": "徳島市",
    "category": "home_help",
    "serviceType": "訪問介護",
    "capacity": 0,
    "openDays": [
      "平日",
      "土曜日",
      "日曜日",
      "祝日"
    ],
    "openDaysNote": ""
  },
  {
    "id": "3670101942",
    "name": "心愛介護サービス",
    "kana": "シンアイカイゴサービス",
    "address": "徳島県徳島市多家良町北地１５番地",
    "lat": 33.9952529,
    "lng": 134.5319162,
    "tel": "088-645-2634",
    "url": "",
    "pref": "徳島県",
    "city": "徳島市",
    "category": "home_help",
    "serviceType": "訪問介護",
    "capacity": 15,
    "openDays": [
      "平日",
      "土曜日",
      "祝日"
    ],
    "openDaysNote": ""
  },
  {
    "id": "3670100209",
    "name": "青香福祉会ホームヘルプ事業所",
    "kana": "セイカフクシカイホームヘルプジギョウショ",
    "address": "徳島県徳島市川内町平石住吉183番地",
    "lat": 34.1140428,
    "lng": 134.5859258,
    "tel": "088-665-5511",
    "url": "http://seikahukushikai.jp/",
    "pref": "徳島県",
    "city": "徳島市",
    "category": "home_help",
    "serviceType": "訪問介護",
    "capacity": 60,
    "openDays": [
      "平日",
      "土曜日"
    ],
    "openDaysNote": "営業日及び営業時間については、契約者から要請があった場合は、そのニーズに柔軟に対応するように努めるものとする。"
  },
  {
    "id": "3670106073",
    "name": "天満ウェルネス名東",
    "kana": "テンマウェルネスミョウドウ",
    "address": "徳島市蔵本町1丁目25-11",
    "lat": 34.078696,
    "lng": 134.5194281,
    "tel": "088-676-2805",
    "url": "http://tenma-hpg.com/",
    "pref": "徳島県",
    "city": "徳島市",
    "category": "home_help",
    "serviceType": "訪問介護",
    "capacity": 0,
    "openDays": [
      "平日",
      "土曜日",
      "日曜日",
      "祝日"
    ],
    "openDaysNote": "24時間営業"
  },
  {
    "id": "3660190004",
    "name": "徳島市医師会ヘルパーステーション",
    "kana": "トクシマシイシカイヘルパーステーション",
    "address": "徳島県徳島市幸町３丁目７７番地徳島市医師会館３階 徳島市医師会館３階",
    "lat": 34.0688236755677,
    "lng": 134.555803730302,
    "tel": "088－611－4555",
    "url": "http://www.tokushimashi-med.or.jp/",
    "pref": "徳島県",
    "city": "徳島市",
    "category": "home_help",
    "serviceType": "訪問介護",
    "capacity": 100,
    "openDays": [
      "平日",
      "土曜日"
    ],
    "openDaysNote": "上記以外の時間も相談に応じます。"
  },
  {
    "id": "3670102288",
    "name": "特定非営利活動法人　あいの里",
    "kana": "トクテイヒエイリカツドウホウジン　アイノサト",
    "address": "徳島市国府町和田字居内５５番地の１",
    "lat": 34.0734152,
    "lng": 134.4911301,
    "tel": "088-643-1538",
    "url": "",
    "pref": "徳島県",
    "city": "徳島市",
    "category": "home_help",
    "serviceType": "訪問介護",
    "capacity": 0,
    "openDays": [
      "平日",
      "土曜日",
      "日曜日",
      "祝日"
    ],
    "openDaysNote": "ただし、利用者の希望に応じて、サービスの提供については、２４時間対応可能な体制を整えるものとします。"
  },
  {
    "id": "3670100316",
    "name": "白さぎサービスセンター",
    "kana": "シラサギサービスセンター",
    "address": "徳島県徳島市川内町榎瀬112",
    "lat": 34.1138484,
    "lng": 134.566247,
    "tel": "088-665-4455",
    "url": "suikouen@mb.pikara.ne.jp",
    "pref": "徳島県",
    "city": "徳島市",
    "category": "home_help",
    "serviceType": "訪問介護",
    "capacity": 0,
    "openDays": [
      "平日"
    ],
    "openDaysNote": ""
  },
  {
    "id": "3670100175",
    "name": "白寿会ヘルパーステーション",
    "kana": "ハクジュカイヘルパーステーション",
    "address": "徳島県徳島市住吉四丁目12番10号",
    "lat": 34.0827271,
    "lng": 134.5690172,
    "tel": "088-626-1080",
    "url": "http://hakuju-kai.or.jp/",
    "pref": "徳島県",
    "city": "徳島市",
    "category": "home_help",
    "serviceType": "訪問介護",
    "capacity": null,
    "openDays": [
      "平日",
      "土曜日",
      "日曜日",
      "祝日"
    ],
    "openDaysNote": "年末年始は利用者の状況に応じて訪問"
  },
  {
    "id": "3670103468",
    "name": "飛鳥指定訪問介護事業所",
    "kana": "アスカシテイホウモンカイゴジギョウショ",
    "address": "徳島県徳島市北佐古一番町6番1号社会医療法人川島会川島病院 社会医療法人川島会川島病院",
    "lat": 34.0811601,
    "lng": 134.5389338,
    "tel": "088-631-0505",
    "url": "http://khg.or.jp/",
    "pref": "徳島県",
    "city": "徳島市",
    "category": "home_help",
    "serviceType": "訪問介護",
    "capacity": 0,
    "openDays": [
      "平日",
      "土曜日",
      "祝日"
    ],
    "openDaysNote": ""
  },
  {
    "id": "3670104706",
    "name": "富久ヘルパーステーション",
    "kana": "フクヘルパーステーション",
    "address": "徳島県徳島市川内町富久102－4",
    "lat": 34.1046801,
    "lng": 134.5914146,
    "tel": "088-666-2300",
    "url": "",
    "pref": "徳島県",
    "city": "徳島市",
    "category": "home_help",
    "serviceType": "訪問介護",
    "capacity": 0,
    "openDays": [
      "平日",
      "土曜日",
      "日曜日",
      "祝日"
    ],
    "openDaysNote": ""
  },
  {
    "id": "3670101041",
    "name": "宝タクシー株式会社",
    "kana": "タカラタクシーカブシキガイシャ",
    "address": "徳島市寺島本町西２丁目6番地",
    "lat": 34.0749612,
    "lng": 134.5478721,
    "tel": "088-654-8132",
    "url": "http://www.takara-taxi.com/",
    "pref": "徳島県",
    "city": "徳島市",
    "category": "home_help",
    "serviceType": "訪問介護",
    "capacity": 0,
    "openDays": [
      "平日",
      "土曜日",
      "日曜日",
      "祝日"
    ],
    "openDaysNote": "２４時間年中無休"
  },
  {
    "id": "3670102437",
    "name": "訪問介護ゲンキ丸",
    "kana": "ホウモンカイゴゲンキマル",
    "address": "徳島県徳島市大原町千代ヶ丸５番地",
    "lat": 34.0230616,
    "lng": 134.5650375,
    "tel": "080-3924-2799",
    "url": "",
    "pref": "徳島県",
    "city": "徳島市",
    "category": "home_help",
    "serviceType": "訪問介護",
    "capacity": 0,
    "openDays": [
      "平日",
      "祝日"
    ],
    "openDaysNote": "利用者の希望がある場合この限りではない。"
  },
  {
    "id": "3670101934",
    "name": "訪問介護サービスすずめ",
    "kana": "ホウモンカイゴサービススズメ",
    "address": "徳島県徳島市川内町大松804番地",
    "lat": 34.1166194,
    "lng": 134.5780965,
    "tel": "088-665-6903",
    "url": "",
    "pref": "徳島県",
    "city": "徳島市",
    "category": "home_help",
    "serviceType": "訪問介護",
    "capacity": 15,
    "openDays": [
      "平日",
      "土曜日",
      "日曜日",
      "祝日"
    ],
    "openDaysNote": "上記の営業日、営業時間、サービス提供時間の他電話等により、２４時間常時連絡が可能な体制とする。。（改行）サービス提供（提供時間、提供曜日、は利用者等の状況に応じて希望がある場合は（改行）時間外提供に応じる。）"
  },
  {
    "id": "3670105935",
    "name": "訪問介護ステーション　とうか",
    "kana": "ホウモンカイゴステーション　トウカ",
    "address": "徳島県徳島市北沖洲2丁目8-41パレスフェアリーⅡ　202 パレスフェアリーⅡ　202",
    "lat": 34.0690406,
    "lng": 134.5883195,
    "tel": "088-679-6028",
    "url": "",
    "pref": "徳島県",
    "city": "徳島市",
    "category": "home_help",
    "serviceType": "訪問介護",
    "capacity": 0,
    "openDays": [
      "平日",
      "土曜日"
    ],
    "openDaysNote": ""
  },
  {
    "id": "3670105729",
    "name": "訪問介護ステーション　ブルーベル",
    "kana": "ホウモンカイゴステーションブルーベル",
    "address": "徳島県徳島市川内町鈴江北１９番地リッチド川内５０５号 リッチド川内５０５号",
    "lat": 34.0984130833166,
    "lng": 134.572591527556,
    "tel": "088-678-8770",
    "url": "",
    "pref": "徳島県",
    "city": "徳島市",
    "category": "home_help",
    "serviceType": "訪問介護",
    "capacity": 0,
    "openDays": [
      "平日",
      "土曜日",
      "日曜日",
      "祝日"
    ],
    "openDaysNote": ""
  },
  {
    "id": "3670106206",
    "name": "訪問介護ステーションBaton",
    "kana": "ホウモンカイゴステーションバトン",
    "address": "徳島県徳島市新浜町4丁目3番34号プレジール四丁目101 プレジール四丁目101",
    "lat": 34.0490618,
    "lng": 134.5655252,
    "tel": "088-661-4336",
    "url": "https://www.yabe-care.com",
    "pref": "徳島県",
    "city": "徳島市",
    "category": "home_help",
    "serviceType": "訪問介護",
    "capacity": null,
    "openDays": [
      "平日",
      "土曜日",
      "日曜日",
      "祝日"
    ],
    "openDaysNote": "特記なし"
  },
  {
    "id": "3670102585",
    "name": "訪問介護ステーション彩とり",
    "kana": "ホウモンカイゴステーションアヤトリ",
    "address": "徳島県徳島市方上町中須賀31番地1",
    "lat": 34.0271274,
    "lng": 134.5391759,
    "tel": "088-678-7112",
    "url": "grandforest.co.jp",
    "pref": "徳島県",
    "city": "徳島市",
    "category": "home_help",
    "serviceType": "訪問介護",
    "capacity": 0,
    "openDays": [
      "平日",
      "土曜日",
      "日曜日",
      "祝日"
    ],
    "openDaysNote": ""
  },
  {
    "id": "3670105208",
    "name": "訪問介護ステーション暖",
    "kana": "ホウモンカイゴステーションダン",
    "address": "徳島県徳島市勝占町中須92-1大松ジョリカ　B101 大松ジョリカ　B101",
    "lat": 34.0223534657929,
    "lng": 134.554543012632,
    "tel": "080-6390-3647",
    "url": "www.ahh-npo.org/",
    "pref": "徳島県",
    "city": "徳島市",
    "category": "home_help",
    "serviceType": "訪問介護",
    "capacity": 20,
    "openDays": [
      "平日",
      "土曜日",
      "祝日"
    ],
    "openDaysNote": ""
  },
  {
    "id": "3670105794",
    "name": "訪問介護はいさい",
    "kana": "ホウモンカイゴハイサイ",
    "address": "徳島県徳島市国府町早淵245-2橋本マンション202 橋本マンション202",
    "lat": 34.0703652,
    "lng": 134.5549537,
    "tel": "088-661-6575",
    "url": "https://first-18.jimdosite.com",
    "pref": "徳島県",
    "city": "徳島市",
    "category": "home_help",
    "serviceType": "訪問介護",
    "capacity": 0,
    "openDays": [
      "平日",
      "土曜日",
      "日曜日",
      "祝日"
    ],
    "openDaysNote": "土曜日・日曜日に介護が必要な場合は上記時間にとらわれず訪問させていただいています。"
  },
  {
    "id": "3670103088",
    "name": "訪問介護事業所　ハートフル",
    "kana": "ホウモンカイゴジギョウショハートフル",
    "address": "川内町平石流通団地３８",
    "lat": 34.1065548,
    "lng": 134.5850595,
    "tel": "088－624－7205",
    "url": "",
    "pref": "徳島県",
    "city": "徳島市",
    "category": "home_help",
    "serviceType": "訪問介護",
    "capacity": 0,
    "openDays": [
      "平日"
    ],
    "openDaysNote": ""
  },
  {
    "id": "3670105091",
    "name": "訪問介護事業所　八万苑",
    "kana": "ホウモンカイゴジギョウショ　ハチマンエン",
    "address": "徳島県徳島市八万町下長谷251番地",
    "lat": 34.0449942,
    "lng": 134.5136907,
    "tel": "080-2985-0420",
    "url": "",
    "pref": "徳島県",
    "city": "徳島市",
    "category": "home_help",
    "serviceType": "訪問介護",
    "capacity": null,
    "openDays": [
      "平日",
      "祝日"
    ],
    "openDaysNote": ""
  },
  {
    "id": "3670102379",
    "name": "訪問介護大きなエプロン",
    "kana": "ホウモンカイゴオオキナエプロン",
    "address": "徳島県徳島市南佐古七番町１－２４",
    "lat": 34.0761520304063,
    "lng": 134.525151378479,
    "tel": "088-624-0786",
    "url": "http://ookina-apron.jp/wordpress/",
    "pref": "徳島県",
    "city": "徳島市",
    "category": "home_help",
    "serviceType": "訪問介護",
    "capacity": 0,
    "openDays": [
      "平日",
      "土曜日",
      "祝日"
    ],
    "openDaysNote": "利用者の要望等時間外利用についてはこの限りでない。"
  },
  {
    "id": "3670104029",
    "name": "末広ヘルパーステーション",
    "kana": "スエヒロヘルパーステーション",
    "address": "徳島県徳島市南末広町1-12",
    "lat": 34.0639321,
    "lng": 134.5711534,
    "tel": "088-611-1518",
    "url": "https://ichie-kizuna.or.jp/",
    "pref": "徳島県",
    "city": "徳島市",
    "category": "home_help",
    "serviceType": "訪問介護",
    "capacity": 0,
    "openDays": [
      "平日",
      "土曜日",
      "日曜日",
      "祝日"
    ],
    "openDaysNote": "相談により、営業時間外の利用も可能。"
  },
  {
    "id": "3670105638",
    "name": "夢心",
    "kana": "ドリームハート",
    "address": "徳島県徳島市川内町北原167番地1ユーハイツ101 ユーハイツ101",
    "lat": 34.1166194,
    "lng": 134.5780965,
    "tel": "088-602-7582",
    "url": "",
    "pref": "徳島県",
    "city": "徳島市",
    "category": "home_help",
    "serviceType": "訪問介護",
    "capacity": 0,
    "openDays": [
      "平日"
    ],
    "openDaysNote": ""
  },
  {
    "id": "3671500571",
    "name": "有限会社　ケアサービス和",
    "kana": "ユウゲンガイシャ　ケアサービスカズ",
    "address": "徳島県徳島市新浜町1丁目4番４１号",
    "lat": 34.0517681,
    "lng": 134.5695778,
    "tel": "088-662-6050",
    "url": "",
    "pref": "徳島県",
    "city": "徳島市",
    "category": "home_help",
    "serviceType": "訪問介護",
    "capacity": 2,
    "openDays": [
      "平日"
    ],
    "openDaysNote": "ただし、必要に応じて常時対応する。"
  },
  {
    "id": "3670100159",
    "name": "有限会社　ケアセンター北浜",
    "kana": "ユウゲンガイシャ　ケアセンターキタハマ",
    "address": "徳島県徳島市蔵本町２－２３",
    "lat": 34.0779876804957,
    "lng": 134.518560159525,
    "tel": "088-631-6529",
    "url": "",
    "pref": "徳島県",
    "city": "徳島市",
    "category": "home_help",
    "serviceType": "訪問介護",
    "capacity": 0,
    "openDays": [
      "平日",
      "土曜日",
      "日曜日",
      "祝日"
    ],
    "openDaysNote": "上記時間外でも相談に常時応じる"
  },
  {
    "id": "3670102205",
    "name": "有限会社　めぐみ",
    "kana": "ユウゲンカイシャ　メグミ",
    "address": "南庄町一丁目3-1リバティ216 リバティ216",
    "lat": 34.0719578,
    "lng": 134.5162,
    "tel": "088-634-1828",
    "url": "",
    "pref": "徳島県",
    "city": "徳島市",
    "category": "home_help",
    "serviceType": "訪問介護",
    "capacity": 0,
    "openDays": [
      "平日",
      "土曜日",
      "祝日"
    ],
    "openDaysNote": ""
  },
  {
    "id": "3670105760",
    "name": "有限会社　金比羅タクシー",
    "kana": "ユウゲンガイシャ　コンピラタクシー",
    "address": "徳島県徳島市鷹匠町2丁目23番地",
    "lat": 34.0640514,
    "lng": 134.5478694,
    "tel": "088-602-0901",
    "url": "https://www.konpira-taxi.com",
    "pref": "徳島県",
    "city": "徳島市",
    "category": "home_help",
    "serviceType": "訪問介護",
    "capacity": 0,
    "openDays": [
      "平日"
    ],
    "openDaysNote": ""
  },
  {
    "id": "3670100514",
    "name": "有限会社ケアサービス工藤",
    "kana": "ユウゲンガイシャケアサービスクドウ",
    "address": "徳島県徳島市福島１丁目５－１",
    "lat": 34.0723339,
    "lng": 134.5635902,
    "tel": "088-653-6450",
    "url": "",
    "pref": "徳島県",
    "city": "徳島市",
    "category": "home_help",
    "serviceType": "訪問介護",
    "capacity": 0,
    "openDays": [
      "平日",
      "土曜日",
      "祝日"
    ],
    "openDaysNote": ""
  },
  {
    "id": "3670400336",
    "name": "有限会社コスモス",
    "kana": "ユウゲンガイシャコスモス",
    "address": "徳島県徳島市大原町内開25番地",
    "lat": 34.0275043026238,
    "lng": 134.569659553807,
    "tel": "088-624-8755",
    "url": "",
    "pref": "徳島県",
    "city": "徳島市",
    "category": "home_help",
    "serviceType": "訪問介護",
    "capacity": 0,
    "openDays": [
      "平日",
      "土曜日",
      "日曜日",
      "祝日"
    ],
    "openDaysNote": "利用者の希望により利用できる時間は、相談可能。希望に沿えるように対応致します."
  },
  {
    "id": "3670100365",
    "name": "有限会社セリアスホーム訪問介護事業所",
    "kana": "ユウゲンガイシャセリアスホームホウモンカイゴジギョウショ",
    "address": "徳島県徳島市一宮町片山33番地19",
    "lat": 34.035653,
    "lng": 134.4804894,
    "tel": "088-644-4077",
    "url": "https://www.serious-home.com",
    "pref": "徳島県",
    "city": "徳島市",
    "category": "home_help",
    "serviceType": "訪問介護",
    "capacity": 30,
    "openDays": [
      "平日",
      "土曜日"
    ],
    "openDaysNote": ""
  },
  {
    "id": "3670100761",
    "name": "有限会社東丸タクシー指定訪問介護事業所",
    "kana": "ユウゲンカイシャトウマルタクシーシテイホウモンカイゴジギョウショ",
    "address": "徳島県徳島市西須賀町中開３７－２",
    "lat": 34.0278052,
    "lng": 134.5495529,
    "tel": "088-669-3505",
    "url": "",
    "pref": "徳島県",
    "city": "徳島市",
    "category": "home_help",
    "serviceType": "訪問介護",
    "capacity": 0,
    "openDays": [
      "平日",
      "土曜日",
      "日曜日",
      "祝日"
    ],
    "openDaysNote": "通常営業時間外については、要相談"
  },
  {
    "id": "3670100621",
    "name": "労福協　なのはなヘルパーステーション",
    "kana": "ロウフクキョウナノハナヘルパーステーション",
    "address": "徳島市昭和町3丁目35-1",
    "lat": 34.0628782638117,
    "lng": 134.560775556483,
    "tel": "０８８－６１１－７０８７",
    "url": "http://tokushima-rofuku.net/",
    "pref": "徳島県",
    "city": "徳島市",
    "category": "home_help",
    "serviceType": "訪問介護",
    "capacity": 0,
    "openDays": [
      "平日",
      "土曜日",
      "日曜日",
      "祝日"
    ],
    "openDaysNote": "上記以外の時間帯については、要相談。"
  },
  {
    "id": "3671300121",
    "name": "特別養護老人ホーム緑風会チロル",
    "kana": "トクベツヨウゴロウジンホームリョクフウカイチロル",
    "address": "徳島県那賀郡那賀町成瀬字小谷口２番地",
    "lat": 33.7828668,
    "lng": 134.2849835,
    "tel": "０８８４－６７－０８８８",
    "url": "http://www.ryokufu1984.or.jp/",
    "pref": "徳島県",
    "city": "那賀町",
    "category": "home_help",
    "serviceType": "訪問介護",
    "capacity": 0,
    "openDays": [
      "平日",
      "土曜日",
      "日曜日",
      "祝日"
    ],
    "openDaysNote": "通常の営業時間外については、居宅介護支援事業所の要請があり、訪問介護員の調整がつく場合は実施するものとする。"
  },
  {
    "id": "3671300709",
    "name": "那賀町に光を照らすヘルパーステーション",
    "kana": "ナカチョウニヒカリヲテラスヘルパーステーション",
    "address": "徳島県那賀郡那賀町百合字石橋500番地3那賀町に光を照らす高齢者住宅 那賀町に光を照らす高齢者住宅",
    "lat": 33.84622,
    "lng": 134.4876593,
    "tel": "0884-63-0138",
    "url": "naka_hikarioterasu@yahoo.co.jp",
    "pref": "徳島県",
    "city": "那賀町",
    "category": "home_help",
    "serviceType": "訪問介護",
    "capacity": 0,
    "openDays": [
      "平日"
    ],
    "openDaysNote": ""
  },
  {
    "id": "3671300667",
    "name": "那賀町訪問介護事業所",
    "kana": "ナカチョウホウモンカイゴジギョウショ",
    "address": "徳島県那賀郡那賀町延野字王子原31番地1",
    "lat": 33.8206475,
    "lng": 134.4788128,
    "tel": "0884-64-0026",
    "url": "http://shakyo-naka.e-tokushima.or.jp",
    "pref": "徳島県",
    "city": "那賀町",
    "category": "home_help",
    "serviceType": "訪問介護",
    "capacity": 0,
    "openDays": [
      "平日",
      "土曜日",
      "日曜日",
      "祝日"
    ],
    "openDaysNote": ""
  },
  {
    "id": "3671300691",
    "name": "訪問介護　　こだま",
    "kana": "ホウモンカイゴ　　コダマ",
    "address": "徳島県那賀郡那賀町仁宇字王子前78-3",
    "lat": 33.8543414549159,
    "lng": 134.476343989549,
    "tel": "0884-62-3260",
    "url": "",
    "pref": "徳島県",
    "city": "那賀町",
    "category": "home_help",
    "serviceType": "訪問介護",
    "capacity": 30,
    "openDays": [
      "平日",
      "土曜日",
      "日曜日",
      "祝日"
    ],
    "openDaysNote": "緊急通報にて支援を希望された方に対しては緊急に応じて支援を行っている"
  },
  {
    "id": "3671500621",
    "name": "アイダックヘルパステーション",
    "kana": "アイダックヘルパーステーション",
    "address": "徳島県板野郡板野町川端字若王寺50番地3",
    "lat": 34.148085,
    "lng": 134.4789469,
    "tel": "088－672－7885",
    "url": "",
    "pref": "徳島県",
    "city": "板野町",
    "category": "home_help",
    "serviceType": "訪問介護",
    "capacity": 5,
    "openDays": [
      "平日",
      "土曜日",
      "日曜日",
      "祝日"
    ],
    "openDaysNote": ""
  },
  {
    "id": "3671501488",
    "name": "オアシス",
    "kana": "オアシス",
    "address": "徳島県板野郡板野町中久保字中須賀19番地",
    "lat": 34.1182524032131,
    "lng": 134.451483741139,
    "tel": "088-678-4021",
    "url": "",
    "pref": "徳島県",
    "city": "板野町",
    "category": "home_help",
    "serviceType": "訪問介護",
    "capacity": 0,
    "openDays": [
      "平日",
      "土曜日"
    ],
    "openDaysNote": "利用者の状態によりサービスが必要な場合は営業日及び営業時間はこの限りではない。"
  },
  {
    "id": "3671500944",
    "name": "ハートフル介護サービス",
    "kana": "ハートフルカイゴサービス",
    "address": "徳島県板野郡板野町大寺字楠ノ本138番地2",
    "lat": 34.1319026,
    "lng": 134.4585489,
    "tel": "088-672-2986",
    "url": "",
    "pref": "徳島県",
    "city": "板野町",
    "category": "home_help",
    "serviceType": "訪問介護",
    "capacity": 0,
    "openDays": [
      "平日",
      "土曜日",
      "日曜日",
      "祝日"
    ],
    "openDaysNote": ""
  },
  {
    "id": "3671501884",
    "name": "はるかぜ訪問介護ステーション",
    "kana": "ハルカゼホウモンカイゴステーション",
    "address": "徳島県板野郡板野町那東字楠木2番地1",
    "lat": 34.1353611,
    "lng": 134.4391886,
    "tel": "088-672-3630",
    "url": "http://kondo-naika.jp/",
    "pref": "徳島県",
    "city": "板野町",
    "category": "home_help",
    "serviceType": "訪問介護",
    "capacity": 0,
    "openDays": [
      "平日",
      "土曜日",
      "日曜日",
      "祝日"
    ],
    "openDaysNote": ""
  },
  {
    "id": "3671501926",
    "name": "ヘルパーステーションアイリス",
    "kana": "ヘルパーステーションアイリス",
    "address": "徳島県板野郡板野町犬伏字東川岸2番地2サービス付き高齢者向け住宅アイリス サービス付き高齢者向け住宅アイリス",
    "lat": 34.1377205,
    "lng": 134.4510696,
    "tel": "088-672-1151",
    "url": "http://www.juzenkai-inoue.awk.jp/",
    "pref": "徳島県",
    "city": "板野町",
    "category": "home_help",
    "serviceType": "訪問介護",
    "capacity": 0,
    "openDays": [
      "平日",
      "土曜日",
      "日曜日",
      "祝日"
    ],
    "openDaysNote": "緊急な場合は電話等により連絡可能にして利用者へのサービスに不便の無いよう確実な体制をとる。"
  },
  {
    "id": "3671501132",
    "name": "幸福サポート",
    "kana": "シアワセサポート",
    "address": "徳島県板野郡板野町西中富字菅生310番地5",
    "lat": 34.1210234,
    "lng": 134.4625238,
    "tel": "886724344",
    "url": "",
    "pref": "徳島県",
    "city": "板野町",
    "category": "home_help",
    "serviceType": "訪問介護",
    "capacity": null,
    "openDays": [
      "平日"
    ],
    "openDaysNote": "夜間等時間外においても、ご利用者または介護支援専門員よりの要望があれば、勤務体制等を考慮の上、管理者の判断でヘルパー派遣を行います。"
  },
  {
    "id": "3671500084",
    "name": "穂波園指定訪問介護事業所",
    "kana": "ホナミエンシテイホウモンカイゴジギョウショ",
    "address": "徳島県板野郡板野町吹田字西山68番地10",
    "lat": 34.1460011,
    "lng": 134.4554712,
    "tel": "088-637-5156",
    "url": "https://lumiere-tokushima.com/",
    "pref": "徳島県",
    "city": "板野町",
    "category": "home_help",
    "serviceType": "訪問介護",
    "capacity": 0,
    "openDays": [
      "平日",
      "土曜日",
      "日曜日",
      "祝日"
    ],
    "openDaysNote": "常時電話連絡対応可（改行）穂波園指定訪問介護事業所　TEL088－637－5165（改行）24時間365日対応可"
  },
  {
    "id": "3671400467",
    "name": "セントケア日和佐",
    "kana": "セントケアヒワサ",
    "address": "徳島県海部郡美波町奥河内字弁才天107-3",
    "lat": 33.7277648,
    "lng": 134.5296721,
    "tel": "0884-74-7395",
    "url": "",
    "pref": "徳島県",
    "city": "美波町",
    "category": "home_help",
    "serviceType": "訪問介護",
    "capacity": 0,
    "openDays": [
      "平日",
      "土曜日",
      "日曜日",
      "祝日"
    ],
    "openDaysNote": "サービス提供時間は、事前に居宅介護支援などにより、計画された居宅サービス計画に基づくものとし、原則として近況に依頼された訪問介護の提供は行わないものとする。"
  },
  {
    "id": "3671400541",
    "name": "ヘルパーステーション笑歩",
    "kana": "ヘルパーステーションエフ",
    "address": "徳島県海部郡美波町西の地魚呑２番地",
    "lat": 33.7782742,
    "lng": 134.5980541,
    "tel": "0884-70-1889",
    "url": "",
    "pref": "徳島県",
    "city": "美波町",
    "category": "home_help",
    "serviceType": "訪問介護",
    "capacity": null,
    "openDays": [
      "平日",
      "土曜日",
      "日曜日",
      "祝日"
    ],
    "openDaysNote": "日曜・祝日において、サービス利用がある場合は定休日であるが提供可能。"
  },
  {
    "id": "3671400301",
    "name": "美波町社会福祉協議会ホームヘルプサービス派遣事業",
    "kana": "ミナミチョウシャカイフクシキョウギカイホームヘルプサービスハケンジギョウショ",
    "address": "徳島県海部郡美波町奥河内字井ノ上15番地１美波町デイサービスセンター竜宮 美波町デイサービスセンター竜宮",
    "lat": 33.7341069318413,
    "lng": 134.532229442371,
    "tel": "00884-77-1231",
    "url": "http://shakyo.ict-tokushima.jp/minami/",
    "pref": "徳島県",
    "city": "美波町",
    "category": "home_help",
    "serviceType": "訪問介護",
    "capacity": null,
    "openDays": [
      "平日",
      "土曜日",
      "日曜日",
      "祝日"
    ],
    "openDaysNote": "必要に応じて、早朝・夜間も提供できます。"
  },
  {
    "id": "3671400053",
    "name": "訪問介護ステーションヒワサ",
    "kana": "ホウモンカイゴステーションヒワサ",
    "address": "徳島県海部郡美波町奥河内字寺前１１０番地４",
    "lat": 33.73227,
    "lng": 134.5313442,
    "tel": "0884-77-3021",
    "url": "toukoukai.com",
    "pref": "徳島県",
    "city": "美波町",
    "category": "home_help",
    "serviceType": "訪問介護",
    "capacity": 0,
    "openDays": [
      "平日",
      "土曜日",
      "日曜日",
      "祝日"
    ],
    "openDaysNote": ""
  },
  {
    "id": "3671400483",
    "name": "訪問介護ステーションヒワサ",
    "kana": "ホウモンカイゴステーションヒワサ",
    "address": "徳島県海部郡美波町西河内字丹前99番地",
    "lat": 33.73227,
    "lng": 134.5313442,
    "tel": "0884-77-3021",
    "url": "http://toukoukai.com/",
    "pref": "徳島県",
    "city": "美波町",
    "category": "home_help",
    "serviceType": "訪問介護",
    "capacity": 0,
    "openDays": [
      "平日",
      "土曜日",
      "日曜日",
      "祝日"
    ],
    "openDaysNote": ""
  },
  {
    "id": "3670500358",
    "name": "うだつ介護センター",
    "kana": "ウダツカイゴセンター",
    "address": "徳島県美馬市脇町字曽江名３５９－１８",
    "lat": 34.0873797,
    "lng": 134.1724901,
    "tel": "0883-52-2117",
    "url": "udatsu@ruby.plala.or.jp",
    "pref": "徳島県",
    "city": "美馬市",
    "category": "home_help",
    "serviceType": "訪問介護",
    "capacity": null,
    "openDays": [
      "平日",
      "土曜日",
      "日曜日",
      "祝日"
    ],
    "openDaysNote": "介護サービスの時間は、ご本人の状況に応じて設定いたします。"
  },
  {
    "id": "3671800377",
    "name": "ケアサービス光",
    "kana": "ケアサービスヒカリ",
    "address": "徳島県美馬市美馬町字柿木１６番地の3",
    "lat": 34.0570521,
    "lng": 134.0605799,
    "tel": "0883－63－3584",
    "url": "長江グループ",
    "pref": "徳島県",
    "city": "美馬市",
    "category": "home_help",
    "serviceType": "訪問介護",
    "capacity": 0,
    "openDays": [
      "平日",
      "土曜日",
      "日曜日",
      "祝日"
    ],
    "openDaysNote": "緊急時は、いつでも対応します。"
  },
  {
    "id": "3670500101",
    "name": "ケアセンターことぶき",
    "kana": "ケアセンターコトブキ",
    "address": "徳島県美馬市脇町木ノ内3677番地3",
    "lat": 34.057586,
    "lng": 134.102507,
    "tel": "0883-52-3378",
    "url": "",
    "pref": "徳島県",
    "city": "美馬市",
    "category": "home_help",
    "serviceType": "訪問介護",
    "capacity": null,
    "openDays": [
      "平日",
      "土曜日",
      "祝日"
    ],
    "openDaysNote": "利用者により時間外、定休日などもサービスが必要であれば行います。"
  },
  {
    "id": "3670500523",
    "name": "ケアセンター大和",
    "kana": "ケアセンターヤマト",
    "address": "徳島県美馬市美馬町字ノリコヘ18番地",
    "lat": 34.0708785,
    "lng": 134.0829387,
    "tel": "090-1575-4160",
    "url": "https://yamato-care.com",
    "pref": "徳島県",
    "city": "美馬市",
    "category": "home_help",
    "serviceType": "訪問介護",
    "capacity": 0,
    "openDays": [
      "平日"
    ],
    "openDaysNote": "サービス日・サービス時間は、ケアプランによって対応する。"
  },
  {
    "id": "3670500457",
    "name": "医療法人　恵愛会　訪問介護はるか",
    "kana": "イリョウホウジン　ケイアイカイ　ホウモンカイゴハルカ",
    "address": "美馬町字沼田28番地",
    "lat": 34.049711643934,
    "lng": 134.037902130302,
    "tel": "０８８３－６３－３９８０",
    "url": "",
    "pref": "徳島県",
    "city": "美馬市",
    "category": "home_help",
    "serviceType": "訪問介護",
    "capacity": 41,
    "openDays": [],
    "openDaysNote": "介護支援専門員のプランに基づいて訪問します。"
  },
  {
    "id": "3671800294",
    "name": "健祥会デイサービスセンターうだつ",
    "kana": "ケンショウカイデイサービスセンターウダツ",
    "address": "徳島県美馬市脇町大字脇町962番地1",
    "lat": 34.0723178,
    "lng": 134.1376144,
    "tel": "０８８３－５３－７７０３",
    "url": "http://www.kenshokai.group/",
    "pref": "徳島県",
    "city": "美馬市",
    "category": "home_help",
    "serviceType": "訪問介護",
    "capacity": 0,
    "openDays": [
      "平日",
      "土曜日",
      "日曜日",
      "祝日"
    ],
    "openDaysNote": "２４時間受付体制を整えています。"
  },
  {
    "id": "3670500408",
    "name": "若宮の里ﾍﾙﾊﾟｰｽﾃｰｼｮﾝ",
    "kana": "ワカミヤノサトヘルパーステーション",
    "address": "徳島県美馬市脇町大字猪尻字若宮南80-1",
    "lat": 34.0645465,
    "lng": 134.1579704,
    "tel": "0883-52-5456",
    "url": "http://www.houetsu.com/",
    "pref": "徳島県",
    "city": "美馬市",
    "category": "home_help",
    "serviceType": "訪問介護",
    "capacity": 0,
    "openDays": [
      "平日",
      "土曜日",
      "日曜日",
      "祝日"
    ],
    "openDaysNote": "ただし併設のサービス付き高齢者向け住宅にお住まいの利用者様には24時間随時の対応可"
  },
  {
    "id": "3670500168",
    "name": "若宮の里ヘルパーステーション",
    "kana": "ワカミヤノサトヘルパーステーション",
    "address": "徳島県美馬市脇町大字猪尻字若宮南80-1",
    "lat": 34.0645465,
    "lng": 134.1579704,
    "tel": "0883-52-5456",
    "url": "",
    "pref": "徳島県",
    "city": "美馬市",
    "category": "home_help",
    "serviceType": "訪問介護",
    "capacity": 0,
    "openDays": [
      "平日",
      "土曜日",
      "日曜日",
      "祝日"
    ],
    "openDaysNote": "但し、併設のサービス付き高齢者向け住宅にお住まいの利用者様には24時間随時の対応可"
  },
  {
    "id": "3670500069",
    "name": "美馬市社協脇町ホームヘルパーステーション",
    "kana": "ミマシシャキョウワキマチホームヘルパーステーション",
    "address": "徳島県美馬市脇町大字脇町1265番地1",
    "lat": 34.0705502737171,
    "lng": 134.147407721812,
    "tel": "0883-55-0211",
    "url": "https://shakyo.ict-tokushima.jp/mima/",
    "pref": "徳島県",
    "city": "美馬市",
    "category": "home_help",
    "serviceType": "訪問介護",
    "capacity": 0,
    "openDays": [
      "平日",
      "土曜日",
      "日曜日",
      "祝日"
    ],
    "openDaysNote": ""
  },
  {
    "id": "3670500374",
    "name": "訪問介護事業所スミセ",
    "kana": "ホウモンカイゴジギョウショスミセ",
    "address": "徳島県美馬市脇町字拝原1584番地秦ビル105 秦ビル105",
    "lat": 34.0638938,
    "lng": 134.1640363,
    "tel": "0883-53-7566",
    "url": "",
    "pref": "徳島県",
    "city": "美馬市",
    "category": "home_help",
    "serviceType": "訪問介護",
    "capacity": 0,
    "openDays": [
      "平日",
      "土曜日",
      "日曜日",
      "祝日"
    ],
    "openDaysNote": ""
  },
  {
    "id": "3670500440",
    "name": "訪問介護事業所悠優徳",
    "kana": "ホウモンカイゴジギョウショユウトク",
    "address": "徳島県美馬市穴吹町穴吹字盤若１００番地１１",
    "lat": 34.0485179,
    "lng": 134.165214,
    "tel": "０８８３－５３－０４３６",
    "url": "",
    "pref": "徳島県",
    "city": "美馬市",
    "category": "home_help",
    "serviceType": "訪問介護",
    "capacity": 0,
    "openDays": [
      "平日",
      "土曜日",
      "日曜日",
      "祝日"
    ],
    "openDaysNote": ""
  },
  {
    "id": "3671800476",
    "name": "有限会社コスモス",
    "kana": "ユウゲンガイシャコスモス",
    "address": "徳島県美馬市脇町野村４２２４番地６",
    "lat": 34.0588728663835,
    "lng": 134.097166181677,
    "tel": "0883-53-5559",
    "url": "",
    "pref": "徳島県",
    "city": "美馬市",
    "category": "home_help",
    "serviceType": "訪問介護",
    "capacity": 0,
    "openDays": [
      "平日",
      "土曜日",
      "日曜日",
      "祝日"
    ],
    "openDaysNote": "時間外も転送電話にて対応しています。"
  },
  {
    "id": "3671501371",
    "name": "かぐや姫介護サービス",
    "kana": "カグヤヒメカイゴサービス",
    "address": "徳島県板野郡北島町高房字堤下２１－４ひかりＢＬＤ ひかりＢＬＤ",
    "lat": 34.127441,
    "lng": 134.5324775,
    "tel": "088-697-3628",
    "url": "",
    "pref": "徳島県",
    "city": "北島町",
    "category": "home_help",
    "serviceType": "訪問介護",
    "capacity": null,
    "openDays": [
      "平日",
      "土曜日",
      "日曜日",
      "祝日"
    ],
    "openDaysNote": "サービスについては土・日・祝日もサービスの提供は行っておりますが，上記の時間以外のサービス提供をご希望の方は１度ご連絡下さい。個別にご相談させて頂きます。"
  },
  {
    "id": "3671501215",
    "name": "きたじまヘルパーステーション",
    "kana": "キタジマヘルパーステーション",
    "address": "徳島県板野郡北島町鯛浜字外野34番地",
    "lat": 34.1107844129194,
    "lng": 134.553681165746,
    "tel": "088-698-1254",
    "url": "http://www.kitajima-taoka.or.jp/",
    "pref": "徳島県",
    "city": "北島町",
    "category": "home_help",
    "serviceType": "訪問介護",
    "capacity": 0,
    "openDays": [
      "平日",
      "土曜日"
    ],
    "openDaysNote": "上記の営業日以外、営業時間以外も相談に応じる。（改行）また電話等により24時間常時連絡が可能な体制とする。"
  },
  {
    "id": "3671502114",
    "name": "ニチイケアセンター徳島北",
    "kana": "ニチイケアセンタートクシマキタ",
    "address": "徳島県板野郡北島町高房字堤下１２－６",
    "lat": 34.1267969,
    "lng": 134.5310625,
    "tel": "088-698-6025",
    "url": "http://www.nichiigakkan.co.jp",
    "pref": "徳島県",
    "city": "北島町",
    "category": "home_help",
    "serviceType": "訪問介護",
    "capacity": 0,
    "openDays": [
      "平日"
    ],
    "openDaysNote": "居宅サービス計画により、時間外及び休業日であってもサービスの提供を行う場合あり"
  },
  {
    "id": "3671502056",
    "name": "ヘルパーステーションまとり",
    "kana": "ヘルパーステーションマトリ",
    "address": "徳島県板野郡北島町江尻妙蛇池36－2ロイヤルハイツ北島３０８ ロイヤルハイツ北島３０８",
    "lat": 34.1195627,
    "lng": 134.5493115,
    "tel": "088－661－2652",
    "url": "",
    "pref": "徳島県",
    "city": "北島町",
    "category": "home_help",
    "serviceType": "訪問介護",
    "capacity": null,
    "openDays": [
      "平日"
    ],
    "openDaysNote": "利用者の希望に応じて、常時対応可能な体制とする"
  },
  {
    "id": "3671500514",
    "name": "ホームヘルパーステーション歩の里",
    "kana": "ホームヘルパーステーションアユミノサト",
    "address": "徳島県板野郡北島町太郎八須字鍋川9番地の１１",
    "lat": 34.1356115111881,
    "lng": 134.565144844209,
    "tel": "０８８－６９８－７３３６",
    "url": "",
    "pref": "徳島県",
    "city": "北島町",
    "category": "home_help",
    "serviceType": "訪問介護",
    "capacity": 50,
    "openDays": [
      "平日",
      "土曜日"
    ],
    "openDaysNote": "上記に限らず（ケアープランに準じサービス提供させていただきます）（改行）日曜、祝日のご利用についてはご相談ください。介護保険外サービスも行っています。"
  },
  {
    "id": "3611510045",
    "name": "吉野川病院訪問介護事業所",
    "kana": "ヨシノガワビョウインホウモンカイゴジギョウショ",
    "address": "徳島県板野郡北島町高房字八丁野西36-13",
    "lat": 34.1319045,
    "lng": 134.5377491,
    "tel": "088－698－6111",
    "url": "http://syuseikai.net/",
    "pref": "徳島県",
    "city": "北島町",
    "category": "home_help",
    "serviceType": "訪問介護",
    "capacity": 0,
    "openDays": [
      "平日",
      "土曜日",
      "日曜日",
      "祝日"
    ],
    "openDaysNote": ""
  },
  {
    "id": "3671502239",
    "name": "訪問介護ステーション彩都",
    "kana": "ホウモンカイゴステーションサイト",
    "address": "徳島県板野郡北島町中村字岸ノ上1番地236",
    "lat": 34.1295753,
    "lng": 134.5692063,
    "tel": "088-676-3711",
    "url": "https://naruto-saito.co.jp/",
    "pref": "徳島県",
    "city": "北島町",
    "category": "home_help",
    "serviceType": "訪問介護",
    "capacity": null,
    "openDays": [
      "平日",
      "土曜日",
      "祝日"
    ],
    "openDaysNote": ""
  },
  {
    "id": "3670103641",
    "name": "訪問介護事業所ＯＨＡＮＡ",
    "kana": "ホウモンカイゴジギョウショオハナ",
    "address": "徳島県板野郡北島町鯛浜字川久保４６番地１",
    "lat": 34.1116094,
    "lng": 134.5503557,
    "tel": "０８８－６７９－４０１０",
    "url": "",
    "pref": "徳島県",
    "city": "北島町",
    "category": "home_help",
    "serviceType": "訪問介護",
    "capacity": 0,
    "openDays": [
      "平日",
      "土曜日"
    ],
    "openDaysNote": "時間外及び日曜日のサービスについては適宜相談にて対応"
  },
  {
    "id": "3671502189",
    "name": "訪問介護事業所ゆうゆう",
    "kana": "ホウモンカイゴジギョウショユウユウ",
    "address": "江尻字柳池12-1",
    "lat": 34.1230102,
    "lng": 134.5488469,
    "tel": "088-678-5638",
    "url": "producekk.wixsite.com",
    "pref": "徳島県",
    "city": "北島町",
    "category": "home_help",
    "serviceType": "訪問介護",
    "capacity": 0,
    "openDays": [
      "平日",
      "土曜日",
      "祝日"
    ],
    "openDaysNote": ""
  },
  {
    "id": "3671500811",
    "name": "北島えんじゅヘルパーステーション",
    "kana": "キタジマエンジュヘルパーステーション",
    "address": "徳島県板野郡北島町北村字大開５番７",
    "lat": 34.1335849,
    "lng": 134.5636106,
    "tel": "088-697-0757",
    "url": "http://www.yujoukai.jp/",
    "pref": "徳島県",
    "city": "北島町",
    "category": "home_help",
    "serviceType": "訪問介護",
    "capacity": 0,
    "openDays": [
      "平日",
      "土曜日",
      "祝日"
    ],
    "openDaysNote": ""
  },
  {
    "id": "3671500563",
    "name": "有限会社JIタクシー",
    "kana": "ユウゲンガイシャジェイアイタクシー",
    "address": "徳島県板野郡北島町鯛浜字かや133番地の3",
    "lat": 34.1180936,
    "lng": 134.5506506,
    "tel": "088-697-3457",
    "url": "",
    "pref": "徳島県",
    "city": "北島町",
    "category": "home_help",
    "serviceType": "訪問介護",
    "capacity": 0,
    "openDays": [
      "平日",
      "土曜日",
      "祝日"
    ],
    "openDaysNote": ""
  },
  {
    "id": "3671400160",
    "name": "ヘルパーステーション遊楽",
    "kana": "ヘルパーステーションユウラク",
    "address": "徳島県海部郡牟岐町大字川長字山戸４５番地",
    "lat": 33.6755584,
    "lng": 134.4231884,
    "tel": "0884-72-3531",
    "url": "http://www.wakahokai.com",
    "pref": "徳島県",
    "city": "牟岐町",
    "category": "home_help",
    "serviceType": "訪問介護",
    "capacity": 0,
    "openDays": [
      "平日",
      "土曜日",
      "日曜日",
      "祝日"
    ],
    "openDaysNote": "特になし"
  },
  {
    "id": "3671400095",
    "name": "特別養護老人ホーム緑風荘",
    "kana": "トクベツヨウゴロウジンホームリョクフウソウ",
    "address": "徳島県海部郡牟岐町大字中村字山田30番地特別養護老人ホーム　緑風荘 特別養護老人ホーム　緑風荘",
    "lat": 33.6684733,
    "lng": 134.4131397,
    "tel": "0884-72-3155",
    "url": "http://www.kenshokai.group",
    "pref": "徳島県",
    "city": "牟岐町",
    "category": "home_help",
    "serviceType": "訪問介護",
    "capacity": 0,
    "openDays": [
      "平日",
      "土曜日",
      "日曜日",
      "祝日"
    ],
    "openDaysNote": "通常の営業時間外については、居宅介護支援事業所の要請があり、訪問介護員の調整がつく場合は実施するものとする。"
  },
  {
    "id": "3670201130",
    "name": "COCOサポートOTOMO",
    "kana": "ココサポートオトモ",
    "address": "大麻町桧字ダンノ上24番地",
    "lat": 34.1546238,
    "lng": 134.4915803,
    "tel": "886786366",
    "url": "https://kokohana-kaigo.net/",
    "pref": "徳島県",
    "city": "鳴門市",
    "category": "home_help",
    "serviceType": "訪問介護",
    "capacity": null,
    "openDays": [
      "平日",
      "土曜日",
      "日曜日",
      "祝日"
    ],
    "openDaysNote": ""
  },
  {
    "id": "3670200603",
    "name": "ケアサポートゆとり",
    "kana": "ケアサポートユトリ",
    "address": "徳島県鳴門市鳴門町高島字竹島363-１",
    "lat": 34.1720483,
    "lng": 134.6022923,
    "tel": "088-678-3338",
    "url": "",
    "pref": "徳島県",
    "city": "鳴門市",
    "category": "home_help",
    "serviceType": "訪問介護",
    "capacity": null,
    "openDays": [
      "平日",
      "土曜日",
      "祝日"
    ],
    "openDaysNote": "日曜日など利用者様の状況に応じサービス対応可能"
  },
  {
    "id": "3670200686",
    "name": "すみれヘルパーステーション",
    "kana": "スミレヘルパーステーション",
    "address": "徳島県鳴門市大津町吉永字三石野777番地",
    "lat": 34.1657430070518,
    "lng": 134.605688678326,
    "tel": "088-683-1231",
    "url": "http://www.hashimoto-clinic.jp",
    "pref": "徳島県",
    "city": "鳴門市",
    "category": "home_help",
    "serviceType": "訪問介護",
    "capacity": 0,
    "openDays": [
      "平日",
      "土曜日",
      "日曜日",
      "祝日"
    ],
    "openDaysNote": "ただし、ケアプランの内容に応じて上記時間外のサービスを提供する事もある。"
  },
  {
    "id": "3670200736",
    "name": "セントケア鳴門",
    "kana": "セントケアナルト",
    "address": "徳島県鳴門市撫養町南浜字東浜31-31土江事務所 土江事務所",
    "lat": 34.172979,
    "lng": 134.6108633,
    "tel": "088-683-1071",
    "url": "http://www.saint-care.com/",
    "pref": "徳島県",
    "city": "鳴門市",
    "category": "home_help",
    "serviceType": "訪問介護",
    "capacity": 0,
    "openDays": [
      "平日",
      "土曜日",
      "日曜日",
      "祝日"
    ],
    "openDaysNote": "２４時間３６５日訪問"
  },
  {
    "id": "3670200611",
    "name": "ファミーユ愛",
    "kana": "ファミーユアイ",
    "address": "徳島県鳴門市撫養町木津７９８番地3リッチde鳴門Ⅱ105号 リッチde鳴門Ⅱ105号",
    "lat": 34.1674701622226,
    "lng": 134.582897782278,
    "tel": "088-685-3858",
    "url": "",
    "pref": "徳島県",
    "city": "鳴門市",
    "category": "home_help",
    "serviceType": "訪問介護",
    "capacity": null,
    "openDays": [
      "平日",
      "土曜日",
      "日曜日",
      "祝日"
    ],
    "openDaysNote": "必要に応じて相談させていただき、随時サービス提供を行います。"
  },
  {
    "id": "3671501058",
    "name": "ヘルパーステーション　いろは",
    "kana": "ヘルパーステーション　イロハ",
    "address": "徳島県鳴門市大麻町姫田字久保ノ内２６－１８",
    "lat": 34.1649626,
    "lng": 134.5577194,
    "tel": "088-684-4150",
    "url": "",
    "pref": "徳島県",
    "city": "鳴門市",
    "category": "home_help",
    "serviceType": "訪問介護",
    "capacity": 0,
    "openDays": [
      "平日",
      "土曜日",
      "日曜日",
      "祝日"
    ],
    "openDaysNote": "電話等により、常時連絡が可能な体制とする。定休日、営業時間についても可能な限り相談に応ず。"
  },
  {
    "id": "3670201148",
    "name": "ヘルパーステーション　こだぬき",
    "kana": "ヘルパーステーション　コダヌキ",
    "address": "徳島県鳴門市鳴門町高島南370",
    "lat": 34.2013408,
    "lng": 134.5936874,
    "tel": "088-678-4530",
    "url": "http://www13.plala.or.jp/tanukideikoi/index.html",
    "pref": "徳島県",
    "city": "鳴門市",
    "category": "home_help",
    "serviceType": "訪問介護",
    "capacity": null,
    "openDays": [
      "平日",
      "祝日"
    ],
    "openDaysNote": "ご要望、ご相談により対応いたします。"
  },
  {
    "id": "3670201163",
    "name": "ヘルパーステーションぴいぷる",
    "kana": "ヘルパーステーションピイプル",
    "address": "徳島県鳴門市撫養町斎田字見白12-7",
    "lat": 34.1827771,
    "lng": 134.5979107,
    "tel": "088-602-7711",
    "url": "",
    "pref": "徳島県",
    "city": "鳴門市",
    "category": "home_help",
    "serviceType": "訪問介護",
    "capacity": 60,
    "openDays": [
      "平日",
      "土曜日",
      "祝日"
    ],
    "openDaysNote": "電話等により24時間常時連絡が可能です。利用者及びご家族等、当該利用者の担当介護支援専門員からの要請があった場合は時間調整の上、対応が可能であれば上記時間以外も対応いたします。"
  },
  {
    "id": "3670200033",
    "name": "ホームヘルパーステーション　おおあさ",
    "kana": "ホームヘルパーステーションオオアサ",
    "address": "徳島県鳴門市大麻町桧字東山田５８－６",
    "lat": 34.1675533,
    "lng": 134.5004307,
    "tel": "088-689-3788",
    "url": "http//ryokujyukai.com",
    "pref": "徳島県",
    "city": "鳴門市",
    "category": "home_help",
    "serviceType": "訪問介護",
    "capacity": 0,
    "openDays": [
      "平日",
      "土曜日",
      "祝日"
    ],
    "openDaysNote": ""
  },
  {
    "id": "3670200454",
    "name": "ホームヘルパーステーションおおつ",
    "kana": "ホームヘルパーステーションオオツ",
    "address": "徳島県鳴門市大津町大代字戎野472番地",
    "lat": 34.159638,
    "lng": 134.573879,
    "tel": "（088）684-3788",
    "url": "http://www.ryokujyukai.com",
    "pref": "徳島県",
    "city": "鳴門市",
    "category": "home_help",
    "serviceType": "訪問介護",
    "capacity": 0,
    "openDays": [
      "平日",
      "土曜日",
      "祝日"
    ],
    "openDaysNote": ""
  },
  {
    "id": "3670200553",
    "name": "ほっとサービス株式会社",
    "kana": "ホットサービスカブシキガイシャ",
    "address": "徳島県鳴門市鳴門町高島字中島599ニッセキマンション101 ニッセキマンション101",
    "lat": 34.1989318,
    "lng": 134.6027083,
    "tel": "090-6286-2744",
    "url": "",
    "pref": "徳島県",
    "city": "鳴門市",
    "category": "home_help",
    "serviceType": "訪問介護",
    "capacity": 0,
    "openDays": [
      "平日",
      "土曜日"
    ],
    "openDaysNote": "日曜、祝日は必要に応じて対応する。"
  },
  {
    "id": "3670200579",
    "name": "ライフサポート・コラボ",
    "kana": "ライフサポート・コラボ",
    "address": "徳島県鳴門市大津町大代672-1",
    "lat": 34.1662291,
    "lng": 134.5701988,
    "tel": "088-686-1883",
    "url": "",
    "pref": "徳島県",
    "city": "鳴門市",
    "category": "home_help",
    "serviceType": "訪問介護",
    "capacity": 3,
    "openDays": [
      "平日",
      "土曜日"
    ],
    "openDaysNote": "日曜日に関しては応相談。（改行）上記の営業日、営業時間、サービス提供時間の他、電話等により24時間常時連絡が可能になるように本事業が対応にあたる体制とする。"
  },
  {
    "id": "3670200926",
    "name": "株式会社　花雲",
    "kana": "カブシキガイシャ　カウン",
    "address": "徳島県鳴門市撫養町小桑島字前浜197番地",
    "lat": 34.1819388,
    "lng": 134.6059584,
    "tel": "088-685-1266",
    "url": "http://www.kaun-shiawase.com",
    "pref": "徳島県",
    "city": "鳴門市",
    "category": "home_help",
    "serviceType": "訪問介護",
    "capacity": 0,
    "openDays": [
      "平日",
      "土曜日",
      "日曜日",
      "祝日"
    ],
    "openDaysNote": "利用者の希望に応じて、サービスの提供については、24時間対応可能な体制を整えるものとします。"
  },
  {
    "id": "3670200058",
    "name": "貴洋会在宅介護支援センター",
    "kana": "キヨウカイザイタクカイゴシエンセンター",
    "address": "徳島県鳴門市撫養町立岩字5枚146",
    "lat": 34.1665106,
    "lng": 134.6207425,
    "tel": "088-686-2080",
    "url": "ｈｔｔｐ：//ｓｙｕｎｃｈｏｅｎ．ｊｐ",
    "pref": "徳島県",
    "city": "鳴門市",
    "category": "home_help",
    "serviceType": "訪問介護",
    "capacity": 0,
    "openDays": [
      "平日",
      "土曜日",
      "祝日"
    ],
    "openDaysNote": "ただし利用者様の求めに応じる（改行）電話等により常時連絡が可能な体制"
  },
  {
    "id": "3670201049",
    "name": "京訪問介護サービス",
    "kana": "ミヤコホウモンカイゴサービス",
    "address": "徳島県鳴門市里浦町里浦字坂田４３２－１５５ビィラフェニックス岡崎海岸４０９ ビィラフェニックス岡崎海岸４０９",
    "lat": 34.1809912638311,
    "lng": 134.631184217096,
    "tel": "088-685-1833",
    "url": "",
    "pref": "徳島県",
    "city": "鳴門市",
    "category": "home_help",
    "serviceType": "訪問介護",
    "capacity": 0,
    "openDays": [
      "平日",
      "土曜日",
      "日曜日",
      "祝日"
    ],
    "openDaysNote": ""
  },
  {
    "id": "3670200660",
    "name": "合同会社ＣｏＣｏヘルパースーション",
    "kana": "ゴウドウガイシャココヘルパーステーション",
    "address": "徳島県鳴門市大津町矢倉字裏15番地９",
    "lat": 34.1583753,
    "lng": 134.592787,
    "tel": "088-686-5587",
    "url": "",
    "pref": "徳島県",
    "city": "鳴門市",
    "category": "home_help",
    "serviceType": "訪問介護",
    "capacity": 0,
    "openDays": [
      "平日",
      "土曜日"
    ],
    "openDaysNote": ""
  },
  {
    "id": "3670201023",
    "name": "合同会社ヘルパーステーションかなた訪問介護事業所",
    "kana": "ゴウドウガイシャヘルパーステーションカナタホウモンカイゴジギョウショ",
    "address": "徳島県鳴門市鳴門町高島字中島２６８番地",
    "lat": 34.2020721,
    "lng": 134.6018757,
    "tel": "088-687-0037",
    "url": "",
    "pref": "徳島県",
    "city": "鳴門市",
    "category": "home_help",
    "serviceType": "訪問介護",
    "capacity": 0,
    "openDays": [
      "平日",
      "土曜日",
      "祝日"
    ],
    "openDaysNote": ""
  },
  {
    "id": "3670200173",
    "name": "山びこへるぷケアセンター",
    "kana": "ヤマビコヘルプケアセンター",
    "address": "徳島県鳴門市大津町木津野字仲ノ越84-2",
    "lat": 34.1674607587711,
    "lng": 134.591295582786,
    "tel": "088-684-4730",
    "url": "houmonkaigo@yamabikohelp.com",
    "pref": "徳島県",
    "city": "鳴門市",
    "category": "home_help",
    "serviceType": "訪問介護",
    "capacity": 30,
    "openDays": [
      "平日",
      "土曜日",
      "日曜日",
      "祝日"
    ],
    "openDaysNote": "上記期間外にも電話対応できるような体制をとっています。"
  },
  {
    "id": "3670200090",
    "name": "社会福祉法人鳴門市社会福祉協議会訪問介護事業所",
    "kana": "シャカイフクシホウジンナルトシシャカイフクシキョウギカイホウモンカイゴジギョウショ",
    "address": "徳島県鳴門市撫養町南浜字東浜24番地の2鳴門市健康福祉交流センター 鳴門市健康福祉交流センター",
    "lat": 34.1701933,
    "lng": 134.6103217,
    "tel": "088-686-4073",
    "url": "http://www.narutoshi.-shakyo.com",
    "pref": "徳島県",
    "city": "鳴門市",
    "category": "home_help",
    "serviceType": "訪問介護",
    "capacity": 0,
    "openDays": [
      "平日",
      "土曜日"
    ],
    "openDaysNote": "日曜・年末年始は要望に応じて対応する。"
  },
  {
    "id": "3670200181",
    "name": "第一介護サービス",
    "kana": "ダイイチカイゴサービス",
    "address": "徳島県鳴門市撫養町南浜字東浜512番地",
    "lat": 34.175973,
    "lng": 134.6084719,
    "tel": "088-684-5678",
    "url": "",
    "pref": "徳島県",
    "city": "鳴門市",
    "category": "home_help",
    "serviceType": "訪問介護",
    "capacity": 0,
    "openDays": [
      "平日",
      "土曜日",
      "日曜日",
      "祝日"
    ],
    "openDaysNote": "利用者のご依頼があればサービスは随時行います。"
  },
  {
    "id": "3670200819",
    "name": "訪問介護サービス　ふるさと",
    "kana": "ホウモンカイゴサービス　フルサト",
    "address": "徳島県鳴門市大麻町大谷字森崎44-10",
    "lat": 34.1584131,
    "lng": 134.5447622,
    "tel": "088-689-2385",
    "url": "",
    "pref": "徳島県",
    "city": "鳴門市",
    "category": "home_help",
    "serviceType": "訪問介護",
    "capacity": 0,
    "openDays": [
      "平日",
      "土曜日",
      "日曜日",
      "祝日"
    ],
    "openDaysNote": ""
  },
  {
    "id": "3670200868",
    "name": "訪問介護センターたなごころ",
    "kana": "ホウモンカイゴセンタータナゴコロ",
    "address": "徳島県鳴門市撫養町斎田字西発47-10",
    "lat": 34.1695515,
    "lng": 134.6033533,
    "tel": "088-679-4292",
    "url": "https://npoyamayaku.main.jp/訪問介護センターたなごころ/",
    "pref": "徳島県",
    "city": "鳴門市",
    "category": "home_help",
    "serviceType": "訪問介護",
    "capacity": 3,
    "openDays": [
      "平日",
      "土曜日",
      "祝日"
    ],
    "openDaysNote": ""
  },
  {
    "id": "3670201007",
    "name": "訪問介護事業所ここしあわせ",
    "kana": "ホウモンカイゴジギョウショココシアワセ",
    "address": "徳島県鳴門市瀬戸町明神字丸山２５７番地",
    "lat": 34.2069324925887,
    "lng": 134.582460510329,
    "tel": "０８８－６７７－８５００",
    "url": "",
    "pref": "徳島県",
    "city": "鳴門市",
    "category": "home_help",
    "serviceType": "訪問介護",
    "capacity": 0,
    "openDays": [
      "平日",
      "祝日"
    ],
    "openDaysNote": "定休日やサービスを利用できる時間外であっても居宅介護支援事業所等からの要請があり、訪問介護員の調整がつく場合は対応させていただきます。"
  },
  {
    "id": "3671500597",
    "name": "有限会社　ほほえみ",
    "kana": "ユウゲンガイシャ　ホホエミ",
    "address": "徳島県鳴門市撫養町立岩字五枚220-1",
    "lat": 34.1640219,
    "lng": 134.6204455,
    "tel": "088-679-4165",
    "url": "",
    "pref": "徳島県",
    "city": "鳴門市",
    "category": "home_help",
    "serviceType": "訪問介護",
    "capacity": 0,
    "openDays": [
      "平日",
      "祝日"
    ],
    "openDaysNote": "電話等により24時間常時連絡が可能な体制とする。また、通常の営業時間外に、居宅介護支援事業所の要請があり、訪問介護員の調整がつく場合は実施するものとする。"
  },
  {
    "id": "3671500266",
    "name": "クレア訪問介護サービス",
    "kana": "クレアホウモンカイゴサービス",
    "address": "徳島県板野郡藍住町住吉字藤ノ木83番地3",
    "lat": 34.126196,
    "lng": 134.5024308,
    "tel": "088-677-6512",
    "url": "http://www.crea-care.com",
    "pref": "徳島県",
    "city": "藍住町",
    "category": "home_help",
    "serviceType": "訪問介護",
    "capacity": 0,
    "openDays": [
      "平日",
      "土曜日",
      "日曜日",
      "祝日"
    ],
    "openDaysNote": ""
  },
  {
    "id": "3671500233",
    "name": "さわやか徳島ヘルパーステーション",
    "kana": "サワヤカトクシマヘルパーステーション",
    "address": "徳島県板野郡藍住町富吉字地神60番3",
    "lat": 34.1374334,
    "lng": 134.4874489,
    "tel": "088-692-3457",
    "url": "http://55web.jp/sawayaka/",
    "pref": "徳島県",
    "city": "藍住町",
    "category": "home_help",
    "serviceType": "訪問介護",
    "capacity": null,
    "openDays": [
      "平日",
      "土曜日",
      "日曜日",
      "祝日"
    ],
    "openDaysNote": ""
  },
  {
    "id": "3611513445",
    "name": "ヘルパーステーション　あかり",
    "kana": "ヘルパーステーション　アカリ",
    "address": "徳島県板野郡藍住町勝瑞字成長62番地",
    "lat": 34.1290101,
    "lng": 134.5186399,
    "tel": "088-641-6477",
    "url": "",
    "pref": "徳島県",
    "city": "藍住町",
    "category": "home_help",
    "serviceType": "訪問介護",
    "capacity": 0,
    "openDays": [
      "平日",
      "土曜日"
    ],
    "openDaysNote": ""
  },
  {
    "id": "3671500472",
    "name": "ヘルパーステーション　ローズ",
    "kana": "ヘルパーステーション　ローズ",
    "address": "徳島県板野郡藍住町矢上字原127-2ケアハウス矢上 ケアハウス矢上",
    "lat": 34.1295346,
    "lng": 134.5012447,
    "tel": "088-693-3555",
    "url": "suncity@mxi.netwave.or.jp",
    "pref": "徳島県",
    "city": "藍住町",
    "category": "home_help",
    "serviceType": "訪問介護",
    "capacity": 0,
    "openDays": [
      "平日",
      "土曜日",
      "日曜日",
      "祝日"
    ],
    "openDaysNote": "サービス提供時間については、その都度、要望に沿えるよう努力していますので、随時ご相談下さい。"
  },
  {
    "id": "3671500316",
    "name": "ヘルパーステーションあい",
    "kana": "ヘルパーステーションアイ",
    "address": "徳島県板野郡藍住町東中富字敷地傍示５０番地１",
    "lat": 34.1321282,
    "lng": 134.4808052,
    "tel": "088-692-8589",
    "url": "http://いつもここから.com/",
    "pref": "徳島県",
    "city": "藍住町",
    "category": "home_help",
    "serviceType": "訪問介護",
    "capacity": 20,
    "openDays": [
      "平日",
      "土曜日",
      "日曜日",
      "祝日"
    ],
    "openDaysNote": ""
  },
  {
    "id": "3671501587",
    "name": "ヘルパーステーションあゆみ",
    "kana": "ヘルパーステーションアユミ",
    "address": "徳島県板野郡藍住町東中富字龍池傍示100番地31",
    "lat": 34.1126696,
    "lng": 134.4901466,
    "tel": "088-635-6495",
    "url": "",
    "pref": "徳島県",
    "city": "藍住町",
    "category": "home_help",
    "serviceType": "訪問介護",
    "capacity": 0,
    "openDays": [
      "平日"
    ],
    "openDaysNote": "事情のある場合は相談に応じる。"
  },
  {
    "id": "3671501629",
    "name": "ヘルパーステーションかのん",
    "kana": "ヘルパーステーションカノン",
    "address": "徳島県板野郡藍住町住吉字藤ノ木61番1",
    "lat": 34.126285009649,
    "lng": 134.504183179119,
    "tel": "088-692-2292",
    "url": "",
    "pref": "徳島県",
    "city": "藍住町",
    "category": "home_help",
    "serviceType": "訪問介護",
    "capacity": 10,
    "openDays": [
      "平日",
      "土曜日",
      "祝日"
    ],
    "openDaysNote": "電話等により、常時連絡が可能な体制とする。"
  },
  {
    "id": "3671501405",
    "name": "ヘルパーステーション彩",
    "kana": "ヘルパーステーションサイ",
    "address": "徳島県板野郡藍住町富吉字豊吉８６－１サービス付き高齢者向け住宅　ライフヴィライース徳島　１F サービス付き高齢者向け住宅　ライフヴィライース徳島　１F",
    "lat": 34.1330588,
    "lng": 134.4877906,
    "tel": "088-679-9500",
    "url": "http://www.seijyukai-med.jp/",
    "pref": "徳島県",
    "city": "藍住町",
    "category": "home_help",
    "serviceType": "訪問介護",
    "capacity": 0,
    "openDays": [
      "平日",
      "土曜日",
      "日曜日",
      "祝日"
    ],
    "openDaysNote": "夜間帯時間帯以外においても、ご利用者様または介護支援専門員より要望があれば、勤務体制等を考慮の上、管理者の判断でヘルパー派遣を行います。"
  },
  {
    "id": "3671501298",
    "name": "マー介護事業所",
    "kana": "マーカイゴジギョウショ",
    "address": "徳島県板野郡藍住町矢上字原190番地1",
    "lat": 34.1268653471172,
    "lng": 134.50115386423,
    "tel": "088-692-6002",
    "url": "https://nodoka-hinata.jp",
    "pref": "徳島県",
    "city": "藍住町",
    "category": "home_help",
    "serviceType": "訪問介護",
    "capacity": 24,
    "openDays": [
      "平日",
      "土曜日",
      "日曜日",
      "祝日"
    ],
    "openDaysNote": "早朝、夜間に関しては要相談。"
  },
  {
    "id": "3671502213",
    "name": "リニエ訪問介護ステーション藍住",
    "kana": "リニエホウモンカイゴステーションアイズミ",
    "address": "徳島県板野郡藍住町徳命字新居須77‐1",
    "lat": 34.1139693321552,
    "lng": 134.503609849074,
    "tel": "088-677-9927",
    "url": "https://linie-group.jp/office/houmonkaigo-aizumi/",
    "pref": "徳島県",
    "city": "藍住町",
    "category": "home_help",
    "serviceType": "訪問介護",
    "capacity": 0,
    "openDays": [
      "平日",
      "祝日"
    ],
    "openDaysNote": ""
  },
  {
    "id": "3671502262",
    "name": "株式会社森介護事業所",
    "kana": "カブシキカイシャモリカイゴジギョウショ",
    "address": "徳島県板野郡藍住町矢上字原190-1",
    "lat": 34.1268883009166,
    "lng": 134.501089079762,
    "tel": "088-692-6002",
    "url": "https://nodoka-hinata.jp/",
    "pref": "徳島県",
    "city": "藍住町",
    "category": "home_help",
    "serviceType": "訪問介護",
    "capacity": 0,
    "openDays": [
      "平日"
    ],
    "openDaysNote": ""
  },
  {
    "id": "3671502098",
    "name": "合同会社ホワイトベア",
    "kana": "ゴウドウガイシャホワイトベア",
    "address": "徳島県板野郡藍住町住吉江端14-11",
    "lat": 34.13227870938,
    "lng": 134.506897205804,
    "tel": "088-600-8469",
    "url": "",
    "pref": "徳島県",
    "city": "藍住町",
    "category": "home_help",
    "serviceType": "訪問介護",
    "capacity": 2,
    "openDays": [
      "平日"
    ],
    "openDaysNote": ""
  },
  {
    "id": "3670104920",
    "name": "清水内科ヘルパーステーション",
    "kana": "シミズナイカヘルパーステーション",
    "address": "徳島県板野郡藍住町東中富字慶長47-1",
    "lat": 34.1169046430879,
    "lng": 134.468569256895,
    "tel": "088-692-5553",
    "url": "http://www.seijukai-med.jp/",
    "pref": "徳島県",
    "city": "藍住町",
    "category": "home_help",
    "serviceType": "訪問介護",
    "capacity": 0,
    "openDays": [
      "平日",
      "土曜日",
      "日曜日",
      "祝日"
    ],
    "openDaysNote": "ご利用者様または介護支援専門員よりの要望があれば、勤務体制等を考慮の上、管理者の判断で夜間等時間外においてもヘルパー派遣を行います。"
  },
  {
    "id": "3671500480",
    "name": "有限会社みのりケアサービス",
    "kana": "ユウゲンガイシャ　ミノリケアサービス",
    "address": "徳島県板野郡藍住町勝瑞字幸島１１６番地３９",
    "lat": 36.204824,
    "lng": 138.252924,
    "tel": "088－641－2228",
    "url": "",
    "pref": "徳島県",
    "city": "藍住町",
    "category": "home_help",
    "serviceType": "訪問介護",
    "capacity": 0,
    "openDays": [
      "平日",
      "土曜日",
      "日曜日",
      "祝日"
    ],
    "openDaysNote": "居宅サービス計画により休日及び営業時間外であってもサービス提供をします"
  },
  {
    "id": "3671500050",
    "name": "凌雲ヘルパーステーション",
    "kana": "リョウウンヘルパーステーション",
    "address": "徳島県板野郡藍住町矢上字安任156-1",
    "lat": 34.1374337,
    "lng": 134.49742,
    "tel": "088-637-3355",
    "url": "http.//www.ryoun.com",
    "pref": "徳島県",
    "city": "藍住町",
    "category": "home_help",
    "serviceType": "訪問介護",
    "capacity": 175,
    "openDays": [
      "平日",
      "土曜日",
      "日曜日",
      "祝日"
    ],
    "openDaysNote": "サービスの提供は、３６５日、２４時間行う。"
  }
]