[
  {
    "id": "1575400294",
    "name": "ヘルパーステーション　大輪",
    "kana": "ヘルパーステーション　ダイリン",
    "address": "東蒲原郡阿賀町平堀１８５５番地",
    "lat": 37.6702196,
    "lng": 139.4689376,
    "tel": "0254-92-5507",
    "url": "",
    "pref": "新潟県",
    "city": "阿賀町",
    "category": "home_help",
    "serviceType": "訪問介護",
    "capacity": 0,
    "openDays": [
      "平日"
    ],
    "openDaysNote": "サービスの提供については利用者様の希望に応じて、上記外時間対応。"
  },
  {
    "id": "1575400401",
    "name": "御山リンドウ訪問介護サービス",
    "kana": "オヤマリンドウホウモンカイゴサービス",
    "address": "新潟県東蒲原郡阿賀町あが野南4324番地22",
    "lat": 37.7114599368179,
    "lng": 139.368134924676,
    "tel": "0254-92-7228",
    "url": "",
    "pref": "新潟県",
    "city": "阿賀町",
    "category": "home_help",
    "serviceType": "訪問介護",
    "capacity": 0,
    "openDays": [
      "平日",
      "祝日"
    ],
    "openDaysNote": "営業時間外の訪問希望は個別に対応する。また電話等により、24時間常時連絡が可能な体制とする。"
  },
  {
    "id": "1575400112",
    "name": "訪問介護事業所　とうかん福祉サービス",
    "kana": "ホウモンカイゴジギョウショトウカンフクシサービス",
    "address": "東蒲原郡阿賀町九島５５２５番地ケアセンター　どんぐり ケアセンター　どんぐり",
    "lat": 37.6430879761967,
    "lng": 139.469638329563,
    "tel": "0254-92-7800",
    "url": "http://www.toukan-fukushi.com",
    "pref": "新潟県",
    "city": "阿賀町",
    "category": "home_help",
    "serviceType": "訪問介護",
    "capacity": 0,
    "openDays": [
      "平日",
      "土曜日",
      "日曜日",
      "祝日"
    ],
    "openDaysNote": ""
  },
  {
    "id": "1572100046",
    "name": "ケアセンターウィング　訪問介護ステーション",
    "kana": "ケアセンターウィング　ホウモンカイゴステーション",
    "address": "新潟県阿賀野市岡山町１番２８号",
    "lat": 37.8347787,
    "lng": 139.2220279,
    "tel": "0250-61-2227",
    "url": "http://care-net.biz/15/carewing/",
    "pref": "新潟県",
    "city": "阿賀野市",
    "category": "home_help",
    "serviceType": "訪問介護",
    "capacity": 0,
    "openDays": [
      "平日",
      "土曜日",
      "日曜日",
      "祝日"
    ],
    "openDaysNote": "３６５日２４時間対応可能。　　　　　　　　　　　　　　　　　　　　　　　　　　　　　　　　　　　　　　　(対応できるヘルパーに限りがある為、日・時間等要相談。)"
  },
  {
    "id": "1572101010",
    "name": "ヘルパーステーションてまり",
    "kana": "ヘルパーステーションテマリ",
    "address": "新潟県阿賀野市庄ケ宮173番地2",
    "lat": 37.8190637564417,
    "lng": 139.231186076196,
    "tel": "0250-62-0465",
    "url": "https://seibu-life.com",
    "pref": "新潟県",
    "city": "阿賀野市",
    "category": "home_help",
    "serviceType": "訪問介護",
    "capacity": 0,
    "openDays": [
      "平日",
      "土曜日",
      "日曜日",
      "祝日"
    ],
    "openDaysNote": "ご希望に応じて、24時間365日対応致します。"
  },
  {
    "id": "1572100970",
    "name": "ヘルパーステーションにじいろ",
    "kana": "ヘルパーステーションニジイロ",
    "address": "新潟県阿賀野市保田4439番地",
    "lat": 37.7719888,
    "lng": 139.2379681,
    "tel": "0250-68-5757",
    "url": "https://gcs-5757.jp",
    "pref": "新潟県",
    "city": "阿賀野市",
    "category": "home_help",
    "serviceType": "訪問介護",
    "capacity": 0,
    "openDays": [
      "平日"
    ],
    "openDaysNote": "土.日.祝日　のサービス提供は、相談に応じて対応いたします。"
  },
  {
    "id": "1572100277",
    "name": "阿賀野市社協ヘルパーステーションぬくもり",
    "kana": "アガノシシャキョウヘルパーステーションヌクモリ",
    "address": "阿賀野市稲荷町11番地10号",
    "lat": 37.8325733,
    "lng": 139.2158815,
    "tel": "0250-63-9903",
    "url": "http://www.agano.net/shakyo/",
    "pref": "新潟県",
    "city": "阿賀野市",
    "category": "home_help",
    "serviceType": "訪問介護",
    "capacity": 0,
    "openDays": [
      "平日",
      "土曜日",
      "日曜日",
      "祝日"
    ],
    "openDaysNote": "特になし"
  },
  {
    "id": "1571301116",
    "name": "ニチイケアセンター燕西",
    "kana": "ニチイケアセンターツバメニシ",
    "address": "新潟県燕市新興野12番18号新興野㈱ﾕﾆｵﾝ総業貸事務所1階E号室 ㈱ﾕﾆｵﾝ総業貸事務所1階E号室",
    "lat": 37.6276172,
    "lng": 138.8566334,
    "tel": "0256-77-8974",
    "url": "http://www.nichiigakkan.co.jp",
    "pref": "新潟県",
    "city": "燕市",
    "category": "home_help",
    "serviceType": "訪問介護",
    "capacity": 0,
    "openDays": [
      "平日",
      "土曜日",
      "日曜日",
      "祝日"
    ],
    "openDaysNote": "居宅サービス計画により営業時間外でもサービスの提供を行う場合がある"
  },
  {
    "id": "1571301157",
    "name": "ヘルパーステーションさわやか苑燕",
    "kana": "ヘルパーステーションサワヤカエンツバメ",
    "address": "新潟県新潟市燕市東太田2863-2エステート7　１階 エステート7　１階",
    "lat": 37.6702965,
    "lng": 138.9160648,
    "tel": "0256-47-5877",
    "url": "http://www.nmi-net.com/creamedicaux/",
    "pref": "新潟県",
    "city": "燕市",
    "category": "home_help",
    "serviceType": "訪問介護",
    "capacity": 0,
    "openDays": [
      "平日",
      "土曜日",
      "日曜日",
      "祝日"
    ],
    "openDaysNote": ""
  },
  {
    "id": "1571300860",
    "name": "ヘルパーステーション光",
    "kana": "ヘルパーステーションヒカリ",
    "address": "燕市井土巻2－280キャメロット10棟102号 キャメロット10棟102号",
    "lat": 37.6519869204716,
    "lng": 138.93124057057,
    "tel": "0256-61-3866",
    "url": "",
    "pref": "新潟県",
    "city": "燕市",
    "category": "home_help",
    "serviceType": "訪問介護",
    "capacity": 0,
    "openDays": [
      "平日",
      "土曜日",
      "日曜日",
      "祝日"
    ],
    "openDaysNote": "ご希望に応じて、上記時間帯以外の時間帯も対応いたします。"
  },
  {
    "id": "1571300365",
    "name": "ホームヘルプサービスひまわりの園",
    "kana": "ホームヘルプサービスヒマワリノソノ",
    "address": "新潟県燕市吉田大保町25番15号ひまわりの園相談センター ひまわりの園相談センター",
    "lat": 37.6890361,
    "lng": 138.8834123,
    "tel": "0256-94-7490",
    "url": "https://yoshihuku.com/",
    "pref": "新潟県",
    "city": "燕市",
    "category": "home_help",
    "serviceType": "訪問介護",
    "capacity": 0,
    "openDays": [
      "平日",
      "土曜日",
      "日曜日",
      "祝日"
    ],
    "openDaysNote": "通常の計画訪問のほかに24時間ナースコールシステムによるサービスを提供。"
  },
  {
    "id": "1571301041",
    "name": "介護ステーションすみれ",
    "kana": "カイゴステーションスミレ",
    "address": "新潟県燕市道金473番地",
    "lat": 37.6355804,
    "lng": 138.9116865,
    "tel": "0256-46-0431",
    "url": "",
    "pref": "新潟県",
    "city": "燕市",
    "category": "home_help",
    "serviceType": "訪問介護",
    "capacity": 0,
    "openDays": [
      "平日",
      "土曜日",
      "日曜日",
      "祝日"
    ],
    "openDaysNote": "利用者の希望に応じて、実際のサービス提供に対応を行っています。"
  },
  {
    "id": "1571300530",
    "name": "介護老人保健施設　ぶんすい　ヘルパーステーション",
    "kana": "カイゴロウジンホケンシセツ　ブンスイ　ヘルパーステーション",
    "address": "新潟県燕市笈ヶ島104-5介護老人保健施設ぶんすい 介護老人保健施設ぶんすい",
    "lat": 37.6197971,
    "lng": 138.8470963,
    "tel": "0256-91-3330",
    "url": "https://www.roukenbunsui.jp",
    "pref": "新潟県",
    "city": "燕市",
    "category": "home_help",
    "serviceType": "訪問介護",
    "capacity": 0,
    "openDays": [
      "平日",
      "土曜日",
      "日曜日",
      "祝日"
    ],
    "openDaysNote": "必要時、緊急時対応可。"
  },
  {
    "id": "1571300191",
    "name": "株式会社中央タクシー　介護福祉事業部",
    "kana": "カブシキガイシャチュウオウタクシー　カイゴフクシジギョウブ",
    "address": "燕市道金663番地",
    "lat": 37.6369857,
    "lng": 138.908273,
    "tel": "0256-63-3949",
    "url": "",
    "pref": "新潟県",
    "city": "燕市",
    "category": "home_help",
    "serviceType": "訪問介護",
    "capacity": 0,
    "openDays": [
      "平日",
      "土曜日",
      "日曜日",
      "祝日"
    ],
    "openDaysNote": ""
  },
  {
    "id": "1571300647",
    "name": "社会福祉法人燕市社会福祉協議会　介護サービス室",
    "kana": "シャカイフクシホウジンツバメシシャカイフクシキョウギカイ　カイゴサービスシツ",
    "address": "新潟県燕市吉田日之出町1番1号",
    "lat": 37.6855392,
    "lng": 138.879749,
    "tel": "0256-78-8701",
    "url": "http://www.tbm-swc.jp/",
    "pref": "新潟県",
    "city": "燕市",
    "category": "home_help",
    "serviceType": "訪問介護",
    "capacity": 0,
    "openDays": [
      "平日",
      "土曜日",
      "日曜日",
      "祝日"
    ],
    "openDaysNote": "年末年始（12/29～1/3）は休業日としますが、状況に応じてはサービス提供しますのでご相談下さい。"
  },
  {
    "id": "1571300233",
    "name": "有限会社　介護サービスみどり園　訪問介護事業所",
    "kana": "ユウゲンガイシャ　カイゴサービス　ミドリエン　ホウモンカイゴジギョウショ",
    "address": "新潟県燕市杣木３００２－８",
    "lat": 37.676083,
    "lng": 138.9021466,
    "tel": "0256-66-4973",
    "url": "",
    "pref": "新潟県",
    "city": "燕市",
    "category": "home_help",
    "serviceType": "訪問介護",
    "capacity": 0,
    "openDays": [
      "平日",
      "土曜日",
      "日曜日",
      "祝日"
    ],
    "openDaysNote": ""
  },
  {
    "id": "1570900264",
    "name": "ＳＯＭＰＯケア　加茂　訪問介護",
    "kana": "ソンポケア　カモ　ホウモンカイゴ",
    "address": "新潟県加茂市幸町1丁目15番28号",
    "lat": 37.6646137,
    "lng": 139.0439783,
    "tel": "0256-57-7021",
    "url": "",
    "pref": "新潟県",
    "city": "加茂市",
    "category": "home_help",
    "serviceType": "訪問介護",
    "capacity": 0,
    "openDays": [
      "平日",
      "土曜日",
      "日曜日",
      "祝日"
    ],
    "openDaysNote": "原則として居宅サ－ビス計画書に基づくものとします。"
  },
  {
    "id": "1570900280",
    "name": "スマイルケア訪問介護事業部",
    "kana": "スマイルケアホウモンカイゴジギョウブ",
    "address": "新潟県加茂市陣ヶ峰13番37号",
    "lat": 37.6696876091184,
    "lng": 139.052069324073,
    "tel": "0256-55-4545",
    "url": "",
    "pref": "新潟県",
    "city": "加茂市",
    "category": "home_help",
    "serviceType": "訪問介護",
    "capacity": 0,
    "openDays": [
      "平日",
      "土曜日",
      "日曜日",
      "祝日"
    ],
    "openDaysNote": "休日及び時間外サービス提供は、利用者と要相談にて対応を行います。"
  },
  {
    "id": "1570900348",
    "name": "ヘルパーステーション加茂",
    "kana": "ヘルパーステーションカモ",
    "address": "新潟県加茂市石川２丁目２４７３番地１",
    "lat": 37.6704300772184,
    "lng": 139.044420839159,
    "tel": "0256-41-4031",
    "url": "https://kamo-fukushikai.com/",
    "pref": "新潟県",
    "city": "加茂市",
    "category": "home_help",
    "serviceType": "訪問介護",
    "capacity": null,
    "openDays": [
      "平日",
      "土曜日",
      "日曜日",
      "祝日"
    ],
    "openDaysNote": ""
  },
  {
    "id": "1570900355",
    "name": "訪問介護　ダイキョウ",
    "kana": "ホウモンカイゴ　ダイキョウ",
    "address": "新潟県加茂市学校町7番18号",
    "lat": 37.6715796,
    "lng": 139.055103,
    "tel": "0256-64-8622",
    "url": "http://www.daikyoyakuhin.co.jp",
    "pref": "新潟県",
    "city": "加茂市",
    "category": "home_help",
    "serviceType": "訪問介護",
    "capacity": 60,
    "openDays": [
      "平日",
      "土曜日",
      "日曜日",
      "祝日"
    ],
    "openDaysNote": "必要に応じて、サービス提供時間帯を検討させていただきます。"
  },
  {
    "id": "1576000317",
    "name": "ももの木ヘルパーステーションきらら",
    "kana": "モモノキヘルパーステーションキララ",
    "address": "新潟県刈羽郡刈羽村大字刈羽1365-2刈羽村高齢者福祉複合施設きらら内 刈羽村高齢者福祉複合施設きらら内",
    "lat": 37.425411,
    "lng": 138.6178033,
    "tel": "0257-45-3730",
    "url": "http://park7.wakwak.com/~momonoki/",
    "pref": "新潟県",
    "city": "刈羽村",
    "category": "home_help",
    "serviceType": "訪問介護",
    "capacity": 0,
    "openDays": [
      "平日",
      "土曜日",
      "日曜日",
      "祝日"
    ],
    "openDaysNote": "３６５日通年営業"
  },
  {
    "id": "1576400178",
    "name": "社会福祉法人　関川村社会福祉協議会",
    "kana": "シャカイフクシホウジン　セキカワムラシャカイフクシキョウギカイ",
    "address": "新潟県岩船郡関川村大字上関522番地38",
    "lat": 38.0892517915369,
    "lng": 139.567379530205,
    "tel": "0254-64-0150",
    "url": "http://www.fukuseki.or.jp/",
    "pref": "新潟県",
    "city": "関川村",
    "category": "home_help",
    "serviceType": "訪問介護",
    "capacity": 0,
    "openDays": [
      "平日",
      "土曜日",
      "日曜日",
      "祝日"
    ],
    "openDaysNote": ""
  },
  {
    "id": "1572300034",
    "name": "ヘルパーステーションコスモス",
    "kana": "ヘルパーステーションコスモス",
    "address": "新潟県魚沼市新保352",
    "lat": 37.2440574,
    "lng": 138.9729625,
    "tel": "025-793-1023",
    "url": "http://uofuku.net/",
    "pref": "新潟県",
    "city": "魚沼市",
    "category": "home_help",
    "serviceType": "訪問介護",
    "capacity": 0,
    "openDays": [
      "平日",
      "土曜日",
      "日曜日",
      "祝日"
    ],
    "openDaysNote": ""
  },
  {
    "id": "1572300455",
    "name": "魚沼社協訪問介護事業所",
    "kana": "ウオヌマシャキョウホウモンカイゴジギョウショ",
    "address": "魚沼市堀之内４３１５堀之内社会福祉センター 堀之内社会福祉センター",
    "lat": 37.245421,
    "lng": 138.9260331,
    "tel": "025-794-6207",
    "url": "",
    "pref": "新潟県",
    "city": "魚沼市",
    "category": "home_help",
    "serviceType": "訪問介護",
    "capacity": 0,
    "openDays": [
      "平日",
      "土曜日",
      "日曜日",
      "祝日"
    ],
    "openDaysNote": ""
  },
  {
    "id": "1571100435",
    "name": "ケアセンターこまち",
    "kana": "ケアセンター　コマチ",
    "address": "見附市市野坪町1230－2トミサビル東側３F トミサビル東側３F",
    "lat": 37.531179,
    "lng": 138.9102973,
    "tel": "0258-63-0007",
    "url": "",
    "pref": "新潟県",
    "city": "見附市",
    "category": "home_help",
    "serviceType": "訪問介護",
    "capacity": 0,
    "openDays": [
      "平日"
    ],
    "openDaysNote": "利用者のご希望により随時対応いたします。"
  },
  {
    "id": "1571100252",
    "name": "たんぽぽ介護センター",
    "kana": "タンポポカイゴセンター",
    "address": "新潟県見附市学校町1-5-25",
    "lat": 37.5325968331477,
    "lng": 138.920012854631,
    "tel": "0258-61-1163",
    "url": "",
    "pref": "新潟県",
    "city": "見附市",
    "category": "home_help",
    "serviceType": "訪問介護",
    "capacity": 0,
    "openDays": [
      "平日",
      "土曜日",
      "日曜日",
      "祝日"
    ],
    "openDaysNote": ""
  },
  {
    "id": "1571100062",
    "name": "ふるまい訪問介護",
    "kana": "フルマイホウモンカイゴ",
    "address": "見附市新幸町７－１１ふるまい訪問介護 ふるまい訪問介護",
    "lat": 37.5391435236916,
    "lng": 138.892798047798,
    "tel": "0258-86-8009",
    "url": "http://www.hurumai.com/",
    "pref": "新潟県",
    "city": "見附市",
    "category": "home_help",
    "serviceType": "訪問介護",
    "capacity": 0,
    "openDays": [
      "平日",
      "土曜日",
      "日曜日",
      "祝日"
    ],
    "openDaysNote": "職員の勤務状況により、提供できない時間帯もあります。"
  },
  {
    "id": "1571100203",
    "name": "ヘルパーステーション　古志乃里",
    "kana": "ヘルパーステーション　コシノサト",
    "address": "新潟県見附市緑町20番１号",
    "lat": 37.512652,
    "lng": 138.9193106,
    "tel": "0258-84-7330",
    "url": "http://suzuran-sono.or.jp",
    "pref": "新潟県",
    "city": "見附市",
    "category": "home_help",
    "serviceType": "訪問介護",
    "capacity": 0,
    "openDays": [
      "平日",
      "土曜日",
      "日曜日",
      "祝日"
    ],
    "openDaysNote": "希望によっては相談で対応も可能な場合もあり。"
  },
  {
    "id": "1571100542",
    "name": "ヘルパーステーションさわやか苑見附柳橋",
    "kana": "ヘルパーステーションサワヤカエンミツケヤナギバシ",
    "address": "新潟県見附市柳橋町295番地2",
    "lat": 37.5428551,
    "lng": 138.8988982,
    "tel": "0258-61-5100",
    "url": "http://www.nmi-net.com/creamedicaux/",
    "pref": "新潟県",
    "city": "見附市",
    "category": "home_help",
    "serviceType": "訪問介護",
    "capacity": 85,
    "openDays": [
      "平日",
      "土曜日",
      "日曜日",
      "祝日"
    ],
    "openDaysNote": "ただし、利用者からの要望があった場合は、相談に応じる"
  },
  {
    "id": "1570800530",
    "name": "ホームヘルプ春日和見附",
    "kana": "ホームヘルプハルビヨリミツケ",
    "address": "新潟県見附市本町４丁目２番３３号",
    "lat": 37.5299397072467,
    "lng": 138.924969546176,
    "tel": "0258-62-3622",
    "url": "",
    "pref": "新潟県",
    "city": "見附市",
    "category": "home_help",
    "serviceType": "訪問介護",
    "capacity": null,
    "openDays": [
      "平日",
      "土曜日",
      "日曜日",
      "祝日"
    ],
    "openDaysNote": "利用者の希望に応じて、24時間365日対応する。"
  },
  {
    "id": "1571100187",
    "name": "株式会社みつけタクシー介護福祉事業部",
    "kana": "カブシキカイシャミツケタクシーカイゴフクシジギョウブ",
    "address": "見附市学校町1-8-50",
    "lat": 37.5293574,
    "lng": 138.9222516,
    "tel": "0258-62-1500",
    "url": "",
    "pref": "新潟県",
    "city": "見附市",
    "category": "home_help",
    "serviceType": "訪問介護",
    "capacity": 0,
    "openDays": [
      "平日",
      "土曜日",
      "日曜日",
      "祝日"
    ],
    "openDaysNote": ""
  },
  {
    "id": "1571100641",
    "name": "訪問介護ステーションみつけ",
    "kana": "ホウモンカイゴステーションミツケ",
    "address": "新潟県見附市庄川町852-1",
    "lat": 37.5231105,
    "lng": 138.9397162,
    "tel": "0258-62-5505",
    "url": "",
    "pref": "新潟県",
    "city": "見附市",
    "category": "home_help",
    "serviceType": "訪問介護",
    "capacity": 20,
    "openDays": [
      "平日",
      "土曜日",
      "日曜日",
      "祝日"
    ],
    "openDaysNote": "お客様のご希望によりサービス時間以外にもご相談に対応いたします。"
  },
  {
    "id": "1571700622",
    "name": "ケアステーション　こんぺいとう",
    "kana": "ケアステーション　コンペイトウ",
    "address": "新潟県五泉市宮町４番１０号",
    "lat": 37.7430609,
    "lng": 139.1738017,
    "tel": "0250-47-3261",
    "url": "",
    "pref": "新潟県",
    "city": "五泉市",
    "category": "home_help",
    "serviceType": "訪問介護",
    "capacity": 0,
    "openDays": [
      "平日"
    ],
    "openDaysNote": "サービス計画により、随時対応いたします。"
  },
  {
    "id": "1571700267",
    "name": "ニチイケアセンター五泉",
    "kana": "ニチイケアセンターゴセン",
    "address": "五泉市吉沢1-6-20",
    "lat": 37.7375366,
    "lng": 139.1801151,
    "tel": "0250-58-9456",
    "url": "",
    "pref": "新潟県",
    "city": "五泉市",
    "category": "home_help",
    "serviceType": "訪問介護",
    "capacity": 0,
    "openDays": [
      "平日",
      "土曜日",
      "日曜日",
      "祝日"
    ],
    "openDaysNote": "サービス計画により、営業時間外でも、サービスの提供を行う場合もある。"
  },
  {
    "id": "1571700671",
    "name": "ニチイケアセンター村松",
    "kana": "ニチイケアセンタームラマツ",
    "address": "新潟県五泉市村松甲2958番地3",
    "lat": 37.6955747,
    "lng": 139.1864807,
    "tel": "0250-58-0021",
    "url": "",
    "pref": "新潟県",
    "city": "五泉市",
    "category": "home_help",
    "serviceType": "訪問介護",
    "capacity": 0,
    "openDays": [
      "平日",
      "土曜日",
      "日曜日",
      "祝日"
    ],
    "openDaysNote": "サービス計画により、営業時間外でもサービスの提供を行う場合もあります。"
  },
  {
    "id": "1571700333",
    "name": "五泉社協ヘルパーステーション",
    "kana": "ゴセンシャキョウヘルパーステーション",
    "address": "五泉市愛宕甲7211番地1五泉市村松デイサービスセンター 五泉市村松デイサービスセンター",
    "lat": 37.6875256,
    "lng": 139.1921582,
    "tel": "0250-58-1112",
    "url": "http://www.gosen-syakyo.ecnet.jp",
    "pref": "新潟県",
    "city": "五泉市",
    "category": "home_help",
    "serviceType": "訪問介護",
    "capacity": 0,
    "openDays": [
      "平日",
      "土曜日",
      "日曜日"
    ],
    "openDaysNote": "祝祭日・年末年始12月30日～1月3日まで休業。（改行）但し、休業日でも利用者から要望があれば訪問する。"
  },
  {
    "id": "1571700523",
    "name": "新潟かがやき農業協同組合　訪問介護センター",
    "kana": "ニイガタカガヤキノウギョウキョウドウクミアイ　ホウモンカイゴセンター",
    "address": "五泉市旭町7番8号",
    "lat": 37.7464355,
    "lng": 139.1811593,
    "tel": "0250-43-5856",
    "url": "",
    "pref": "新潟県",
    "city": "五泉市",
    "category": "home_help",
    "serviceType": "訪問介護",
    "capacity": 0,
    "openDays": [
      "平日"
    ],
    "openDaysNote": "上記営業日及び営業時間以外のサービス提供は可能。"
  },
  {
    "id": "1571700820",
    "name": "渡辺プロ",
    "kana": "ワタナベプロ",
    "address": "新潟県五泉市横町1丁目4番7号",
    "lat": 37.7368891480628,
    "lng": 139.173931971952,
    "tel": "070-3641-6270",
    "url": "",
    "pref": "新潟県",
    "city": "五泉市",
    "category": "home_help",
    "serviceType": "訪問介護",
    "capacity": 0,
    "openDays": [
      "平日",
      "土曜日",
      "日曜日",
      "祝日"
    ],
    "openDaysNote": ""
  },
  {
    "id": "1572201349",
    "name": "けあビジョンホーム佐渡訪問介護",
    "kana": "ケアビジョンホームサドホウモンカイゴ",
    "address": "新潟県佐渡市吉井本郷576-6けあビジョンホーム佐渡訪問介護 けあビジョンホーム佐渡訪問介護",
    "lat": 38.053614763652,
    "lng": 138.392861392486,
    "tel": "0259-61-1000",
    "url": "",
    "pref": "新潟県",
    "city": "佐渡市",
    "category": "home_help",
    "serviceType": "訪問介護",
    "capacity": 0,
    "openDays": [
      "平日",
      "土曜日",
      "日曜日",
      "祝日"
    ],
    "openDaysNote": "365日、24時間サービス対応"
  },
  {
    "id": "1572200069",
    "name": "ツクイ佐渡中央",
    "kana": "ツクイサドチュウオウ",
    "address": "新潟県佐渡市泉918-1",
    "lat": 38.0127560096257,
    "lng": 138.350239692783,
    "tel": "0259-61-1717",
    "url": "",
    "pref": "新潟県",
    "city": "佐渡市",
    "category": "home_help",
    "serviceType": "訪問介護",
    "capacity": 0,
    "openDays": [
      "平日",
      "土曜日",
      "日曜日",
      "祝日"
    ],
    "openDaysNote": "上記以外の時間帯のサービスは、ご相談の上実施致します。"
  },
  {
    "id": "1572201372",
    "name": "ヘルパーステーション十季のあかり佐渡",
    "kana": "ヘルパーステーショントキノアカリサド",
    "address": "新潟県佐渡市青野334番地8",
    "lat": 38.0154890643966,
    "lng": 138.303872840475,
    "tel": "0259-67-7355",
    "url": "http://care-net.biz/15/kuro-ba-sado/",
    "pref": "新潟県",
    "city": "佐渡市",
    "category": "home_help",
    "serviceType": "訪問介護",
    "capacity": 40,
    "openDays": [
      "平日",
      "土曜日",
      "日曜日",
      "祝日"
    ],
    "openDaysNote": ""
  },
  {
    "id": "1572201364",
    "name": "介護サービスセンターあすかの郷",
    "kana": "カイゴサービスセンターアスカノサト",
    "address": "新潟県佐渡市真野新町63番地",
    "lat": 37.9660198,
    "lng": 138.345395,
    "tel": "0259-58-7223",
    "url": "http://www.e-sadonet.tv/fureai99/index.html",
    "pref": "新潟県",
    "city": "佐渡市",
    "category": "home_help",
    "serviceType": "訪問介護",
    "capacity": 0,
    "openDays": [
      "平日",
      "土曜日",
      "日曜日",
      "祝日"
    ],
    "openDaysNote": "ケアプランにより時間外も対応します。"
  },
  {
    "id": "1572200853",
    "name": "介護サービスセンターふれあい館",
    "kana": "カイゴサービスセンターフレアイカン",
    "address": "新潟県佐渡市千種58番地1",
    "lat": 38.0213937,
    "lng": 138.3646628,
    "tel": "0259-63-2300",
    "url": "http://www.e-sadonet.tv/~fureai99/",
    "pref": "新潟県",
    "city": "佐渡市",
    "category": "home_help",
    "serviceType": "訪問介護",
    "capacity": 0,
    "openDays": [
      "平日",
      "土曜日",
      "日曜日",
      "祝日"
    ],
    "openDaysNote": ""
  },
  {
    "id": "1572200713",
    "name": "社協ヘルパーステーションまごころ",
    "kana": "シャキョウヘルパーステーションマゴコロ",
    "address": "新潟県佐渡市栗野江１８３７番地畑野デイサービスセンターやわらぎの里　併設 畑野デイサービスセンターやわらぎの里　併設",
    "lat": 37.9974962552973,
    "lng": 138.401725106053,
    "tel": "0259-81-1621",
    "url": "http://care-net.biz/15/sado-shakyo/b11.php",
    "pref": "新潟県",
    "city": "佐渡市",
    "category": "home_help",
    "serviceType": "訪問介護",
    "capacity": 0,
    "openDays": [
      "平日",
      "土曜日",
      "日曜日",
      "祝日"
    ],
    "openDaysNote": ""
  },
  {
    "id": "1572200077",
    "name": "老介護ときヘルパーステーション",
    "kana": "ロウカイゴトキヘルパーステーション",
    "address": "新潟県佐渡市下長木４６６番地１",
    "lat": 38.0091664,
    "lng": 138.3316354,
    "tel": "0259-51-0097",
    "url": "",
    "pref": "新潟県",
    "city": "佐渡市",
    "category": "home_help",
    "serviceType": "訪問介護",
    "capacity": 0,
    "openDays": [
      "平日",
      "土曜日",
      "日曜日",
      "祝日"
    ],
    "openDaysNote": "年中無休。利用者の希望に応じて対応可能"
  },
  {
    "id": "1570400901",
    "name": "(公益社団法人）三条市シルバー人材センター",
    "kana": "コウエキシャダンホウジン　サンジョウシシルバージンザイセンター",
    "address": "新潟県三条市旭町２－６－１１",
    "lat": 37.636068,
    "lng": 138.9621751,
    "tel": "0256-34-2526",
    "url": "http://www.sjc.ne.jp/sanjou/",
    "pref": "新潟県",
    "city": "三条市",
    "category": "home_help",
    "serviceType": "訪問介護",
    "capacity": 0,
    "openDays": [
      "平日",
      "土曜日",
      "日曜日",
      "祝日"
    ],
    "openDaysNote": "相談の上、できるだけ利用者の希望に応じる"
  },
  {
    "id": "1570401321",
    "name": "ＳＯＭＰＯケア　三条　訪問介護",
    "kana": "ソンポケア　サンジョウ　ホウモンカイゴ",
    "address": "三条市月岡3-1-20　皆川ビル1F",
    "lat": 37.6132602027285,
    "lng": 138.975130210759,
    "tel": "0256-36-7102",
    "url": "",
    "pref": "新潟県",
    "city": "三条市",
    "category": "home_help",
    "serviceType": "訪問介護",
    "capacity": 0,
    "openDays": [
      "平日",
      "土曜日",
      "日曜日",
      "祝日"
    ],
    "openDaysNote": "原則として居宅サービス計画に基づくものとします。"
  },
  {
    "id": "1570401917",
    "name": "エミテラス",
    "kana": "エミテラス",
    "address": "新潟県三条市西裏館２丁目７番１３号",
    "lat": 37.6367001027974,
    "lng": 138.954067194443,
    "tel": "0256-33-7777",
    "url": "",
    "pref": "新潟県",
    "city": "三条市",
    "category": "home_help",
    "serviceType": "訪問介護",
    "capacity": 0,
    "openDays": [
      "平日"
    ],
    "openDaysNote": "ただし、お客様の必要に応じて24時間365日対応可能"
  },
  {
    "id": "1570400430",
    "name": "ツクイ三条",
    "kana": "ツクイサンジョウ",
    "address": "新潟県三条市東三条１－１１－１１",
    "lat": 37.6305302,
    "lng": 138.9719272,
    "tel": "0256-36-7775",
    "url": "http://www.tsukui.net",
    "pref": "新潟県",
    "city": "三条市",
    "category": "home_help",
    "serviceType": "訪問介護",
    "capacity": 0,
    "openDays": [
      "平日",
      "土曜日",
      "日曜日",
      "祝日"
    ],
    "openDaysNote": "上記以外の早朝、夜間の時間はご相談の上実施いたします。"
  },
  {
    "id": "1570400604",
    "name": "ニチイケアセンターいしがみ",
    "kana": "ニチイケアセンターイシガミ",
    "address": "新潟県三条市石上２丁目１番２５号",
    "lat": 37.6430613,
    "lng": 138.9518676,
    "tel": "0256-36-6701",
    "url": "http://www.nichiigakkan.co.jp",
    "pref": "新潟県",
    "city": "三条市",
    "category": "home_help",
    "serviceType": "訪問介護",
    "capacity": 0,
    "openDays": [
      "平日",
      "土曜日",
      "日曜日",
      "祝日"
    ],
    "openDaysNote": "居宅サービス計画により営業時間外でもサービスの提供を行う場合がある"
  },
  {
    "id": "1570402006",
    "name": "ヘルパーステーション　TENDA・POPO",
    "kana": "ヘルパーステーション　テンダーポポ",
    "address": "新潟県三条市笹岡３６２２番地１",
    "lat": 37.5503935,
    "lng": 139.0650338,
    "tel": "080-4727-1218",
    "url": "https://tenda-popo.com",
    "pref": "新潟県",
    "city": "三条市",
    "category": "home_help",
    "serviceType": "訪問介護",
    "capacity": null,
    "openDays": [
      "平日",
      "土曜日",
      "日曜日",
      "祝日"
    ],
    "openDaysNote": "年末年始　12月28日～1月10日"
  },
  {
    "id": "1570400638",
    "name": "ヘルパーステーション　サンホーム",
    "kana": "ヘルパーステーション　サンホーム",
    "address": "三条市曲渕3丁目3番7号ケアハウス　サンホーム内 ケアハウス　サンホーム内",
    "lat": 37.6170232,
    "lng": 138.9632506,
    "tel": "0256-36-7560",
    "url": "http://care-net.biz/15/taiyo/",
    "pref": "新潟県",
    "city": "三条市",
    "category": "home_help",
    "serviceType": "訪問介護",
    "capacity": 0,
    "openDays": [
      "平日",
      "土曜日",
      "日曜日",
      "祝日"
    ],
    "openDaysNote": ""
  },
  {
    "id": "1570401065",
    "name": "ヘルパーステーションさかえの里",
    "kana": "ヘルパーステーションサカエノサト",
    "address": "新潟県三条市福島新田丁1481番地1",
    "lat": 37.5876031,
    "lng": 138.91852,
    "tel": "0256-45-0500",
    "url": "http://care-net.biz/15/sakaenosato/",
    "pref": "新潟県",
    "city": "三条市",
    "category": "home_help",
    "serviceType": "訪問介護",
    "capacity": 0,
    "openDays": [
      "平日",
      "土曜日",
      "日曜日",
      "祝日"
    ],
    "openDaysNote": "12月31日～1月3日は休業ですが、ご利用者様の都合に合わせてご相談に応じます。"
  },
  {
    "id": "1570401776",
    "name": "ヘルパーステーションさわやか苑三条東",
    "kana": "ヘルパーステーションサワヤカエンサンジョウヒガシ",
    "address": "新潟県三条市北入蔵2-7-14",
    "lat": 37.6356854,
    "lng": 138.9854953,
    "tel": "0256-39-0700",
    "url": "http://nmi-net.com/creamedicaux/",
    "pref": "新潟県",
    "city": "三条市",
    "category": "home_help",
    "serviceType": "訪問介護",
    "capacity": 0,
    "openDays": [
      "平日",
      "土曜日",
      "日曜日",
      "祝日"
    ],
    "openDaysNote": ""
  },
  {
    "id": "1570400976",
    "name": "ヘルパーステーションさんじょう社協",
    "kana": "ヘルパーステーションサンジョウシャキョウ",
    "address": "新潟県三条市東本成寺２番１号三条市総合福祉センター 三条市総合福祉センター",
    "lat": 37.6125678,
    "lng": 138.9533156,
    "tel": "0256-33-9520",
    "url": "https://sanjo-syakyo.jp/",
    "pref": "新潟県",
    "city": "三条市",
    "category": "home_help",
    "serviceType": "訪問介護",
    "capacity": 0,
    "openDays": [
      "平日",
      "土曜日",
      "日曜日",
      "祝日"
    ],
    "openDaysNote": "営業日外、営業時間外においても利用者の便宜を考慮する。"
  },
  {
    "id": "1570400919",
    "name": "ヘルパーステーションにこにこ",
    "kana": "ヘルパーステーションニコニコ",
    "address": "新潟県三条市西潟3-25",
    "lat": 37.6423072,
    "lng": 138.9956021,
    "tel": "0256-39-1600",
    "url": "",
    "pref": "新潟県",
    "city": "三条市",
    "category": "home_help",
    "serviceType": "訪問介護",
    "capacity": 0,
    "openDays": [
      "平日",
      "土曜日",
      "日曜日",
      "祝日"
    ],
    "openDaysNote": "利用者の希望に応じて、定休日及び平日を24時間対応可能な体制"
  },
  {
    "id": "1570401958",
    "name": "ヘルパーステーションひまたみ",
    "kana": "ヘルパーステーションヒマタミ",
    "address": "新潟県三条市本町６丁目14番4号",
    "lat": 37.6346606,
    "lng": 138.9499668,
    "tel": "0256-55-6371",
    "url": "http://hp.kaipoke.biz/wxk/",
    "pref": "新潟県",
    "city": "三条市",
    "category": "home_help",
    "serviceType": "訪問介護",
    "capacity": null,
    "openDays": [
      "平日",
      "土曜日",
      "日曜日",
      "祝日"
    ],
    "openDaysNote": "利用者の希望に応じて、サービスの提供については、24時間対応可能な体制を整える。"
  },
  {
    "id": "1570400281",
    "name": "ホームヘルパーステーションうらだての里",
    "kana": "ホームヘルパーステーションウラダテノサト",
    "address": "三条市田島2丁目22-16-3",
    "lat": 37.6245090242313,
    "lng": 138.972117336218,
    "tel": "0256-36-7277",
    "url": "http://www.kenfuku.jp/",
    "pref": "新潟県",
    "city": "三条市",
    "category": "home_help",
    "serviceType": "訪問介護",
    "capacity": 65,
    "openDays": [
      "平日",
      "土曜日",
      "日曜日",
      "祝日"
    ],
    "openDaysNote": ""
  },
  {
    "id": "1570401412",
    "name": "リーブルライフサポートステーション",
    "kana": "リーブルライフサポートステーション",
    "address": "三条市今井野新田962-3",
    "lat": 37.6256547,
    "lng": 138.9388308,
    "tel": "0256-36-8911",
    "url": "http://nursing-h-sanjo.jp/",
    "pref": "新潟県",
    "city": "三条市",
    "category": "home_help",
    "serviceType": "訪問介護",
    "capacity": 0,
    "openDays": [],
    "openDaysNote": "お客様の必要に応じて24時間365日"
  },
  {
    "id": "1570400190",
    "name": "三条市ホームヘルプサービス",
    "kana": "サンジョウシホームヘルプサービス",
    "address": "三条市南四日町３丁目７番３８－５",
    "lat": 37.6157203,
    "lng": 138.9557458,
    "tel": "0256-36-7189",
    "url": "http://www.tyouwaen.com/",
    "pref": "新潟県",
    "city": "三条市",
    "category": "home_help",
    "serviceType": "訪問介護",
    "capacity": 130,
    "openDays": [
      "平日",
      "土曜日",
      "日曜日",
      "祝日"
    ],
    "openDaysNote": ""
  },
  {
    "id": "1570401677",
    "name": "新潟県三条市直江町2-5-48",
    "kana": "ニイガタケンサンジョウシスグエチョウ",
    "address": "新潟県三条市直江町2-5-48",
    "lat": 37.6243048,
    "lng": 138.9374783,
    "tel": "0256-46-0847",
    "url": "http://www.asahicommons.co.jp",
    "pref": "新潟県",
    "city": "三条市",
    "category": "home_help",
    "serviceType": "訪問介護",
    "capacity": 0,
    "openDays": [
      "平日",
      "土曜日",
      "日曜日",
      "祝日"
    ],
    "openDaysNote": ""
  },
  {
    "id": "1570400620",
    "name": "特定非営利活動法人　地域たすけあいネットワーク",
    "kana": "トクテイヒエイリカツドウホウジン　チイキタスケアイネットワーク",
    "address": "三条市本町6丁目3番76号",
    "lat": 37.6318682,
    "lng": 138.9505487,
    "tel": "0256-34-2448",
    "url": "https://www.tasukeai-network.com/",
    "pref": "新潟県",
    "city": "三条市",
    "category": "home_help",
    "serviceType": "訪問介護",
    "capacity": 12,
    "openDays": [
      "平日",
      "土曜日",
      "日曜日",
      "祝日"
    ],
    "openDaysNote": "上記以外でも相談の上、利用者の希望に応じます"
  },
  {
    "id": "1570400497",
    "name": "日の丸観光タクシー株式会社　介護福祉事業部",
    "kana": "ヒノマルカンコウタクシーカブシキガイシャ　カイゴフクシジギョウブ",
    "address": "新潟県三条市東三条１丁目6番１４号",
    "lat": 37.6306802,
    "lng": 138.9733743,
    "tel": "0256-32-9895",
    "url": "",
    "pref": "新潟県",
    "city": "三条市",
    "category": "home_help",
    "serviceType": "訪問介護",
    "capacity": 0,
    "openDays": [
      "平日",
      "土曜日"
    ],
    "openDaysNote": "利用者の希望があり、当事業所が可能と判断した場合に限り、上記日時以外でも対応する。"
  },
  {
    "id": "1570401263",
    "name": "訪問介護ステーションみるら",
    "kana": "ホウモンカイゴステーションミルラ",
    "address": "新潟県三条市新光町29番54号",
    "lat": 37.6440837,
    "lng": 138.9628109,
    "tel": "0256-32-8127",
    "url": "",
    "pref": "新潟県",
    "city": "三条市",
    "category": "home_help",
    "serviceType": "訪問介護",
    "capacity": 39,
    "openDays": [
      "平日",
      "土曜日",
      "日曜日",
      "祝日"
    ],
    "openDaysNote": "サービスの提供については利用者の希望に応じて、２４時間対応可能な体制をとるものとする。"
  },
  {
    "id": "1570400588",
    "name": "有限会社　三条看護婦家政婦紹介所ハイデイ",
    "kana": "ユウゲンガイシャ　サンジョウカンゴフカセイフショウカイジョハイデイ",
    "address": "新潟県三条市井栗１丁目２８番１０号",
    "lat": 37.6459679,
    "lng": 138.9996569,
    "tel": "0256-38-0238",
    "url": "",
    "pref": "新潟県",
    "city": "三条市",
    "category": "home_help",
    "serviceType": "訪問介護",
    "capacity": 0,
    "openDays": [
      "平日",
      "土曜日",
      "日曜日",
      "祝日"
    ],
    "openDaysNote": ""
  },
  {
    "id": "1571500238",
    "name": "あ・うんの心ホームヘルパーステーション",
    "kana": "ア・ウンノココロホームヘルパーステーション",
    "address": "新潟県糸魚川市大野７３",
    "lat": 37.0262991,
    "lng": 137.8607945,
    "tel": "025-552-5297",
    "url": "",
    "pref": "新潟県",
    "city": "糸魚川市",
    "category": "home_help",
    "serviceType": "訪問介護",
    "capacity": 0,
    "openDays": [
      "平日",
      "土曜日",
      "日曜日",
      "祝日"
    ],
    "openDaysNote": "利用者の求めがあればその限りではありません。"
  },
  {
    "id": "1571500683",
    "name": "ライフケアおれんじ",
    "kana": "ライフケアオレンジ",
    "address": "新潟県糸魚川市中央2-3-35",
    "lat": 37.040301275502,
    "lng": 137.861241652642,
    "tel": "025-553-1122",
    "url": "https://www.lifecare-orange.com/",
    "pref": "新潟県",
    "city": "糸魚川市",
    "category": "home_help",
    "serviceType": "訪問介護",
    "capacity": 0,
    "openDays": [
      "平日",
      "土曜日",
      "日曜日",
      "祝日"
    ],
    "openDaysNote": ""
  },
  {
    "id": "1571500675",
    "name": "介護サービスひろはた",
    "kana": "カイゴサービスヒロハタ",
    "address": "新潟県糸魚川市横町４丁目８番１９号",
    "lat": 37.0371784,
    "lng": 137.8471398,
    "tel": "025-553-1044",
    "url": "",
    "pref": "新潟県",
    "city": "糸魚川市",
    "category": "home_help",
    "serviceType": "訪問介護",
    "capacity": 0,
    "openDays": [
      "平日"
    ],
    "openDaysNote": "希望に応じて、営業日や営業時間に限らず対応いたします。"
  },
  {
    "id": "1571500444",
    "name": "糸魚川市社会福祉協議会　介護センターにじ",
    "kana": "イトイガワシシャカイフクシキョウギカイ　カイゴセンターニジ",
    "address": "糸魚川市押上2-9-65",
    "lat": 37.0500133,
    "lng": 137.8824081,
    "tel": "025-550-1025",
    "url": "https://www.i-shakyo.jp/",
    "pref": "新潟県",
    "city": "糸魚川市",
    "category": "home_help",
    "serviceType": "訪問介護",
    "capacity": 0,
    "openDays": [
      "平日",
      "土曜日",
      "日曜日",
      "祝日"
    ],
    "openDaysNote": ""
  },
  {
    "id": "1571500329",
    "name": "訪問介護おしあげ",
    "kana": "ホウモンカイゴオシアゲ",
    "address": "新潟県糸魚川市南押上1丁目3番11号スローライフおしあげ スローライフおしあげ",
    "lat": 37.047259641729,
    "lng": 137.877768686508,
    "tel": "025-550-1915",
    "url": "http://www.riborn.co.jp",
    "pref": "新潟県",
    "city": "糸魚川市",
    "category": "home_help",
    "serviceType": "訪問介護",
    "capacity": 0,
    "openDays": [
      "平日",
      "土曜日",
      "日曜日",
      "祝日"
    ],
    "openDaysNote": "必要に応じて２４時間３６５日サービス提供可能"
  },
  {
    "id": "1571500766",
    "name": "訪問介護事業所　みどり",
    "kana": "ホウモンカイゴジギョウショ　ミドリ",
    "address": "新潟県糸魚川市一の宮２丁目８番１９号",
    "lat": 37.039555972595,
    "lng": 137.868436803789,
    "tel": "025-550-0055",
    "url": "",
    "pref": "新潟県",
    "city": "糸魚川市",
    "category": "home_help",
    "serviceType": "訪問介護",
    "capacity": 0,
    "openDays": [
      "平日",
      "土曜日",
      "日曜日",
      "祝日"
    ],
    "openDaysNote": "時間外には携帯電話への転送により対応する"
  },
  {
    "id": "1571500626",
    "name": "訪問介護事業所おうみ",
    "kana": "ホウモンカイゴジギョウショオウミ",
    "address": "糸魚川市大字田海５６００番地",
    "lat": 37.0291763,
    "lng": 137.820934,
    "tel": "025-561-7317",
    "url": "http://www.hisui-fukushi.com",
    "pref": "新潟県",
    "city": "糸魚川市",
    "category": "home_help",
    "serviceType": "訪問介護",
    "capacity": 0,
    "openDays": [
      "平日",
      "土曜日",
      "日曜日",
      "祝日"
    ],
    "openDaysNote": "電話等により24時間常時連絡が可能な体制とする。"
  },
  {
    "id": "1571000742",
    "name": "ヘルパーステーションなえば",
    "kana": "ヘルパーステーションナエバ",
    "address": "新潟県十日町市四日町1332番地健康倶楽部十日町 健康倶楽部十日町",
    "lat": 37.1490779841025,
    "lng": 138.761806871905,
    "tel": "025-752-7295",
    "url": "http://www.naebafukushikai.com",
    "pref": "新潟県",
    "city": "十日町市",
    "category": "home_help",
    "serviceType": "訪問介護",
    "capacity": 0,
    "openDays": [
      "平日",
      "土曜日",
      "日曜日",
      "祝日"
    ],
    "openDaysNote": "ご相談に応じます。"
  },
  {
    "id": "1571000478",
    "name": "ヘルパーステーション十日町",
    "kana": "ヘルパーステーショントオカマチ",
    "address": "新潟県十日町市山野田３７０－１",
    "lat": 37.1574694,
    "lng": 138.740147,
    "tel": "025-755-5971",
    "url": "http://fuku-tokamachi.or.jp/",
    "pref": "新潟県",
    "city": "十日町市",
    "category": "home_help",
    "serviceType": "訪問介護",
    "capacity": 0,
    "openDays": [
      "平日",
      "土曜日",
      "日曜日",
      "祝日"
    ],
    "openDaysNote": "上記以外の時間については、利用者の希望に応じて対応します。"
  },
  {
    "id": "1571001070",
    "name": "ヘルパーセンターコロネットとおかまち",
    "kana": "ヘルパーセンターコロネットトオカマチ",
    "address": "新潟県十日町市高田町2丁目279番地21",
    "lat": 37.1316317,
    "lng": 138.7561519,
    "tel": "025-755-8330",
    "url": "http://care-net.biz/15/coronet/",
    "pref": "新潟県",
    "city": "十日町市",
    "category": "home_help",
    "serviceType": "訪問介護",
    "capacity": 0,
    "openDays": [
      "平日",
      "土曜日",
      "日曜日",
      "祝日"
    ],
    "openDaysNote": "時間外も要請に応じて対応"
  },
  {
    "id": "1571000619",
    "name": "ほのぼの園ヘルパーステーション",
    "kana": "ホノボノエンヘルパーステーション",
    "address": "十日町市松代3559-6",
    "lat": 37.1354921198904,
    "lng": 138.612765810423,
    "tel": "025-597-2390",
    "url": "http://matsudaifukushikai.webes.jp/",
    "pref": "新潟県",
    "city": "十日町市",
    "category": "home_help",
    "serviceType": "訪問介護",
    "capacity": 0,
    "openDays": [
      "平日",
      "土曜日",
      "日曜日",
      "祝日"
    ],
    "openDaysNote": "土、日、祝日は、サービス依頼に応じて職員を配置します。（12：00～13：00は昼食休憩）"
  },
  {
    "id": "1571000247",
    "name": "株式会社　クリーンセキュリテイー",
    "kana": "カブシキガイシャ　クリーンセキュリティー",
    "address": "十日町市本町2丁目4番地1アップルとおかまち2階 アップルとおかまち2階",
    "lat": 37.1299839383512,
    "lng": 138.760238407935,
    "tel": "025-750-1288（",
    "url": "",
    "pref": "新潟県",
    "city": "十日町市",
    "category": "home_help",
    "serviceType": "訪問介護",
    "capacity": 0,
    "openDays": [
      "平日",
      "土曜日",
      "日曜日",
      "祝日"
    ],
    "openDaysNote": "特になし"
  },
  {
    "id": "1571000429",
    "name": "社会福祉法人　十日町市社会福祉協議会　十日町訪問介護事業所",
    "kana": "シャカイフクシホウジン　トオカマチシシャカイフクシキョウギカイ　トオカマチホウモンカイゴジギョウショ",
    "address": "新潟県十日町市本町２丁目２２６番地１",
    "lat": 37.1320427,
    "lng": 138.7605598,
    "tel": "025-750-5012",
    "url": "http://www.tkm-shakyo.or.jp/",
    "pref": "新潟県",
    "city": "十日町市",
    "category": "home_help",
    "serviceType": "訪問介護",
    "capacity": 0,
    "openDays": [
      "平日",
      "土曜日",
      "日曜日",
      "祝日"
    ],
    "openDaysNote": ""
  },
  {
    "id": "1571000411",
    "name": "社会福祉法人　十日町市社会福祉協議会　松之山訪問介護事業所",
    "kana": "シャカイフクシホウジン　トオカマチシシャカイフクシキョウギカイ　マツノヤマホウモンカイゴジギョウショ",
    "address": "新潟県十日町市松之山１５９６番地１松之山診療所３階 松之山診療所３階",
    "lat": 37.0868836036121,
    "lng": 138.608949763229,
    "tel": "025-596-3705",
    "url": "http://www.tkm-shakyo.or.jp/",
    "pref": "新潟県",
    "city": "十日町市",
    "category": "home_help",
    "serviceType": "訪問介護",
    "capacity": 0,
    "openDays": [
      "平日",
      "土曜日",
      "日曜日",
      "祝日"
    ],
    "openDaysNote": "ただし、概ね介護計画に従い営業時間外の派遣を行う事が出来る。"
  },
  {
    "id": "1571000353",
    "name": "十交介護センター",
    "kana": "ジッコウカイゴセンター",
    "address": "新潟県十日町市本町２丁目２２０番地",
    "lat": 37.1315310011647,
    "lng": 138.760490504369,
    "tel": "025-757-0503",
    "url": "",
    "pref": "新潟県",
    "city": "十日町市",
    "category": "home_help",
    "serviceType": "訪問介護",
    "capacity": 0,
    "openDays": [
      "平日",
      "祝日"
    ],
    "openDaysNote": "サービスの提供については利用者の希望に応じて、営業時間外も対応可能とする。"
  },
  {
    "id": "1571000114",
    "name": "老人デイサービスセンターつまりの里",
    "kana": "ロウジンデイサービスセンターツマリノサト",
    "address": "十日町市新宮乙１９５番地３",
    "lat": 37.0951437732545,
    "lng": 138.720468488885,
    "tel": "025-758-2050",
    "url": "https://www.tumari.jp/",
    "pref": "新潟県",
    "city": "十日町市",
    "category": "home_help",
    "serviceType": "訪問介護",
    "capacity": null,
    "openDays": [
      "平日",
      "土曜日",
      "日曜日",
      "祝日"
    ],
    "openDaysNote": ""
  },
  {
    "id": "1571000205",
    "name": "老人デイサービスセンターやまびこ",
    "kana": "ロウジンデイサービスセンターヤマビコ",
    "address": "新潟県十日町市寿町1丁目1番地12",
    "lat": 37.126140055021,
    "lng": 138.753244689507,
    "tel": "025-750-1517",
    "url": "http://www.tokamachi-yamabiko.com",
    "pref": "新潟県",
    "city": "十日町市",
    "category": "home_help",
    "serviceType": "訪問介護",
    "capacity": 0,
    "openDays": [
      "平日",
      "土曜日",
      "日曜日",
      "祝日"
    ],
    "openDaysNote": "上記以外の時間帯であっても、要望に応じ実施可能とする。"
  },
  {
    "id": "1575500549",
    "name": "ヘルパーステーションハピネス",
    "kana": "ヘルパーステーションハピネス",
    "address": "新潟県三島郡出雲崎町大字上中条15-2",
    "lat": 37.5462109,
    "lng": 138.714515,
    "tel": "0258-84-7819",
    "url": "",
    "pref": "新潟県",
    "city": "出雲崎町",
    "category": "home_help",
    "serviceType": "訪問介護",
    "capacity": null,
    "openDays": [
      "平日",
      "土曜日",
      "日曜日",
      "祝日"
    ],
    "openDaysNote": ""
  },
  {
    "id": "1570800571",
    "name": "ニチイケアセンターおぢや",
    "kana": "ニチイケアセンターオヂヤ",
    "address": "新潟県小千谷市本町1丁目３－１新栄ビル1階 新栄ビル1階",
    "lat": 37.3110056,
    "lng": 138.800435,
    "tel": "0258-86-5091",
    "url": "https://www.nichiigakkan.co.jp",
    "pref": "新潟県",
    "city": "小千谷市",
    "category": "home_help",
    "serviceType": "訪問介護",
    "capacity": 0,
    "openDays": [
      "平日",
      "土曜日",
      "日曜日",
      "祝日"
    ],
    "openDaysNote": ""
  },
  {
    "id": "1570800449",
    "name": "ハイハイネット中越",
    "kana": "ハイハイネットチュウエツ",
    "address": "新潟県小千谷市桜町５１４５番地１",
    "lat": 37.3133569379516,
    "lng": 138.780957155837,
    "tel": "0258-83-0038",
    "url": "https://www.haihainet.biz",
    "pref": "新潟県",
    "city": "小千谷市",
    "category": "home_help",
    "serviceType": "訪問介護",
    "capacity": 0,
    "openDays": [
      "平日",
      "祝日"
    ],
    "openDaysNote": ""
  },
  {
    "id": "1570800548",
    "name": "ヘルパーステーションさわやか苑小千谷",
    "kana": "ヘルパーステーションサワヤカエンオヂヤ",
    "address": "新潟県小千谷市本町1丁目6番13号",
    "lat": 37.3103949334493,
    "lng": 138.799777150401,
    "tel": "0258-94-4890",
    "url": "http://www.nmi-net.com",
    "pref": "新潟県",
    "city": "小千谷市",
    "category": "home_help",
    "serviceType": "訪問介護",
    "capacity": 0,
    "openDays": [
      "平日",
      "土曜日",
      "日曜日",
      "祝日"
    ],
    "openDaysNote": "但し、利用者からの要望があった場合は、365日24時間対応する。"
  },
  {
    "id": "1570800290",
    "name": "ヘルパーステーション中子の森",
    "kana": "ヘルパーステーションナカゴノモリ",
    "address": "小千谷市大字薭生乙１４６０－１",
    "lat": 37.3069977,
    "lng": 138.8074093,
    "tel": "0258-82-0880",
    "url": "http://www.naebafukushikai.com",
    "pref": "新潟県",
    "city": "小千谷市",
    "category": "home_help",
    "serviceType": "訪問介護",
    "capacity": 0,
    "openDays": [
      "平日",
      "土曜日",
      "日曜日",
      "祝日"
    ],
    "openDaysNote": ""
  },
  {
    "id": "1570800084",
    "name": "社会福祉法人　小千谷市社会福祉協議会",
    "kana": "シャカイフクシホウジン　オヂヤシシャカイフクシキョウギカイ",
    "address": "新潟県小千谷市大字桜町５１４０番地小千谷市総合福祉センター 小千谷市総合福祉センター",
    "lat": 37.3134192,
    "lng": 138.7817069,
    "tel": "0258-83-1039",
    "url": "http://oj-shakyo.jp/",
    "pref": "新潟県",
    "city": "小千谷市",
    "category": "home_help",
    "serviceType": "訪問介護",
    "capacity": 0,
    "openDays": [
      "平日",
      "土曜日",
      "日曜日",
      "祝日"
    ],
    "openDaysNote": "年末年始１２月３１日～１月２日休み"
  },
  {
    "id": "1570800332",
    "name": "小粟田の里ヘルパーステーションりぼん",
    "kana": "コワダノサトヘルパーステーションリボン",
    "address": "新潟県小千谷市大字小粟田2732番地7",
    "lat": 37.3403908,
    "lng": 138.7957038,
    "tel": "0258-83-2100",
    "url": "http://ok-fukushikai.com/",
    "pref": "新潟県",
    "city": "小千谷市",
    "category": "home_help",
    "serviceType": "訪問介護",
    "capacity": 0,
    "openDays": [
      "平日",
      "土曜日",
      "日曜日",
      "祝日"
    ],
    "openDaysNote": "サービス提供については、利用者の希望により相談に応じます。（夜間・早朝）"
  },
  {
    "id": "1570303105",
    "name": "アースサポート上越",
    "kana": "アースサポートジョウエツ",
    "address": "新潟県上越市とよば127番",
    "lat": 37.1039196301375,
    "lng": 138.273934215827,
    "tel": "025-527-2311",
    "url": "http://www.earthsupport.co.jp/",
    "pref": "新潟県",
    "city": "上越市",
    "category": "home_help",
    "serviceType": "訪問介護",
    "capacity": 0,
    "openDays": [
      "平日",
      "土曜日",
      "日曜日",
      "祝日"
    ],
    "openDaysNote": "年中無休"
  },
  {
    "id": "1570300762",
    "name": "アイエムタクシー株式会社介護福祉事業部",
    "kana": "アイエムタクシーカブシキガイシャカイゴフクシジギョウブ",
    "address": "新潟県上越市大和6-3-16",
    "lat": 37.0833343,
    "lng": 138.2438515,
    "tel": "025-523-4795",
    "url": "http://www.imtaxi.com/",
    "pref": "新潟県",
    "city": "上越市",
    "category": "home_help",
    "serviceType": "訪問介護",
    "capacity": 0,
    "openDays": [
      "平日",
      "土曜日",
      "日曜日",
      "祝日"
    ],
    "openDaysNote": "17時以降及び土・日・祝は当日申し込みが不可の場合あり事前予約をお願い致します。"
  },
  {
    "id": "1570304160",
    "name": "あおい訪問介護事業所",
    "kana": "アオイホウモンカイゴジギョウショ",
    "address": "新潟県上越市春日山町２丁目1-33サニービレッジ1-A サニービレッジ1-A",
    "lat": 37.1463487,
    "lng": 138.2235787,
    "tel": "025-520-5291",
    "url": "",
    "pref": "新潟県",
    "city": "上越市",
    "category": "home_help",
    "serviceType": "訪問介護",
    "capacity": 0,
    "openDays": [
      "平日",
      "土曜日",
      "祝日"
    ],
    "openDaysNote": ""
  },
  {
    "id": "1570303535",
    "name": "エフビー訪問介護かすが",
    "kana": "エフビーホウモンカイゴカスガ",
    "address": "新潟県上越市木田2丁目16番50号ケアライフ春日 ケアライフ春日",
    "lat": 37.14474,
    "lng": 138.2434906,
    "tel": "025-521-0362",
    "url": "http://www.fb-kaigo.co.jp/",
    "pref": "新潟県",
    "city": "上越市",
    "category": "home_help",
    "serviceType": "訪問介護",
    "capacity": 0,
    "openDays": [
      "平日",
      "土曜日",
      "日曜日",
      "祝日"
    ],
    "openDaysNote": "２４時間３６５日（改行）２４時間常時連絡が可能な体制"
  },
  {
    "id": "1570303485",
    "name": "ケアサービス絆",
    "kana": "ケアサービスキズナ",
    "address": "新潟県上越市大字今泉1310番地2",
    "lat": 37.0930336256986,
    "lng": 138.248154611639,
    "tel": "025－520－7610",
    "url": "http://jyouetsu-kizunanoie.jimdo.com",
    "pref": "新潟県",
    "city": "上越市",
    "category": "home_help",
    "serviceType": "訪問介護",
    "capacity": 50,
    "openDays": [
      "平日",
      "土曜日",
      "日曜日",
      "祝日"
    ],
    "openDaysNote": "休日のサービス提供は、利用者の希望に応じて３６５日対応する"
  },
  {
    "id": "1570300143",
    "name": "さくらメディカル株式会社　高田訪問介護事業所",
    "kana": "サクラメディカルカブシキガイシャ　タカダホウモンカイゴジギョウショ",
    "address": "新潟県上越市鴨島2-1-9",
    "lat": 37.1112396,
    "lng": 138.2695925,
    "tel": "025-522-8739",
    "url": "http://www.sakura-medical.com/",
    "pref": "新潟県",
    "city": "上越市",
    "category": "home_help",
    "serviceType": "訪問介護",
    "capacity": 0,
    "openDays": [
      "平日",
      "土曜日",
      "日曜日",
      "祝日"
    ],
    "openDaysNote": ""
  },
  {
    "id": "1570302644",
    "name": "さくらメディカル株式会社　直江津訪問介護事業所",
    "kana": "サクラメディカルカブシキガイシャ　ナオエツホウモンカイゴジギョウショ",
    "address": "新潟県上越市西本町3-8-12",
    "lat": 37.1713143229284,
    "lng": 138.237325080412,
    "tel": "025-539-0866",
    "url": "http://www.sakura-medical.com/",
    "pref": "新潟県",
    "city": "上越市",
    "category": "home_help",
    "serviceType": "訪問介護",
    "capacity": 0,
    "openDays": [
      "平日",
      "土曜日",
      "日曜日",
      "祝日"
    ],
    "openDaysNote": ""
  },
  {
    "id": "1570304129",
    "name": "さくらメディカル株式会社　本町訪問介護事業所",
    "kana": "サクラメディカルカブシキガイシャ　ホンチョウホウモンカイゴジギョウショ",
    "address": "新潟県上越市本町3丁目1-13",
    "lat": 37.1098401,
    "lng": 138.2442008,
    "tel": "025-520-8151",
    "url": "https://www.sakura-medical.com/",
    "pref": "新潟県",
    "city": "上越市",
    "category": "home_help",
    "serviceType": "訪問介護",
    "capacity": 0,
    "openDays": [
      "平日",
      "土曜日",
      "日曜日",
      "祝日"
    ],
    "openDaysNote": ""
  },
  {
    "id": "1570300267",
    "name": "ツクイ上越つちはし",
    "kana": "ツクイジョウエツツチハシ",
    "address": "上越市土橋８２８－２",
    "lat": 37.1334997,
    "lng": 138.2438383,
    "tel": "025-526-1890",
    "url": "http://www.tsukui.net",
    "pref": "新潟県",
    "city": "上越市",
    "category": "home_help",
    "serviceType": "訪問介護",
    "capacity": 240,
    "openDays": [
      "平日",
      "土曜日",
      "日曜日",
      "祝日"
    ],
    "openDaysNote": ""
  },
  {
    "id": "1570303436",
    "name": "ニチイケアセンター柿崎",
    "kana": "ニチイケアセンターカキザキ",
    "address": "新潟県上越市柿崎区柿崎675番地5スペース・ビュー2F スペース・ビュー2F",
    "lat": 37.2733426601981,
    "lng": 138.391576432085,
    "tel": "025-535-2950",
    "url": "http://www.nichiigakkan.co.jp",
    "pref": "新潟県",
    "city": "上越市",
    "category": "home_help",
    "serviceType": "訪問介護",
    "capacity": 40,
    "openDays": [
      "平日",
      "土曜日",
      "日曜日",
      "祝日"
    ],
    "openDaysNote": "居宅サービス計画により営業時間外でもサービス提供を行う場合もある。"
  },
  {
    "id": "1570303931",
    "name": "ニチイケアセンター上越たかだ",
    "kana": "ニチイケアセンター　ジョウエツタカダ",
    "address": "新潟県上越市北城町4丁目13番8号北城センタービル1階南 北城センタービル1階南",
    "lat": 37.1180265,
    "lng": 138.2577922,
    "tel": "025-520-4380",
    "url": "https://www.nichiigakkan.co.jp/",
    "pref": "新潟県",
    "city": "上越市",
    "category": "home_help",
    "serviceType": "訪問介護",
    "capacity": 0,
    "openDays": [
      "平日",
      "土曜日",
      "日曜日",
      "祝日"
    ],
    "openDaysNote": "通常時間帯以外にサービスを提供する際には、次のとおり割り増しされます。（改行）（改行）早朝（午前6時00分～午前8時00分）　　　加算率　25％（改行）夜間（午後6時00分～午後10時00分）　　　加算率　25％"
  },
  {
    "id": "1570300382",
    "name": "ニチイケアセンター直江津",
    "kana": "ニチイケアセンターナオエツ",
    "address": "上越市五智新町1-24",
    "lat": 37.1673702,
    "lng": 138.2311103,
    "tel": "025-531-3060",
    "url": "http://www.nichiigakkan.co.jp",
    "pref": "新潟県",
    "city": "上越市",
    "category": "home_help",
    "serviceType": "訪問介護",
    "capacity": 0,
    "openDays": [
      "平日"
    ],
    "openDaysNote": ""
  },
  {
    "id": "1570303295",
    "name": "ヘルパーステーションきずな",
    "kana": "ヘルパーステーションキズナ",
    "address": "新潟県上越市木田３丁目８番４４号",
    "lat": 37.1395048,
    "lng": 138.2425278,
    "tel": "025-520-8807",
    "url": "http://www.kizuna-i.com/",
    "pref": "新潟県",
    "city": "上越市",
    "category": "home_help",
    "serviceType": "訪問介護",
    "capacity": 0,
    "openDays": [
      "平日",
      "土曜日",
      "日曜日",
      "祝日"
    ],
    "openDaysNote": "・営業時間外の時間帯については人員体制などを踏まえてのうえでご相談に応じます。"
  },
  {
    "id": "1570301737",
    "name": "ヘルパーステーション安塚",
    "kana": "ヘルパーステーションヤスヅカ",
    "address": "新潟県上越市安塚区安塚2549-5",
    "lat": 37.1282424,
    "lng": 138.4435625,
    "tel": "025-592-3002",
    "url": "https://www.jouetushisyakyo.jp/",
    "pref": "新潟県",
    "city": "上越市",
    "category": "home_help",
    "serviceType": "訪問介護",
    "capacity": 0,
    "openDays": [
      "平日",
      "土曜日",
      "日曜日",
      "祝日"
    ],
    "openDaysNote": "営業時間外であっても、24時間連絡ができる体制を取っている。"
  },
  {
    "id": "1570303469",
    "name": "ヘルパーステーション柿崎",
    "kana": "ヘルパーステーションカキザキ",
    "address": "新潟県上越市柿崎区柿崎558番地1かきざき福祉センター かきざき福祉センター",
    "lat": 37.2754512,
    "lng": 138.3882853,
    "tel": "025-536-6755",
    "url": "https://www.jouetushisyakyo.jp",
    "pref": "新潟県",
    "city": "上越市",
    "category": "home_help",
    "serviceType": "訪問介護",
    "capacity": 0,
    "openDays": [
      "平日",
      "土曜日",
      "日曜日",
      "祝日"
    ],
    "openDaysNote": "但し、利用者の希望及び必要性に応じ、営業時間外であっても、事業所における可能な範囲でサービスを提供致します。"
  },
  {
    "id": "1570300457",
    "name": "ヘルパーステーション上越",
    "kana": "ヘルパーステーションジョウエツ",
    "address": "新潟県上越市木田新田1丁目1番3号",
    "lat": 37.1395709446162,
    "lng": 138.238836434827,
    "tel": "025-526-1666",
    "url": "http://www.jouetushisyakyo.jp/",
    "pref": "新潟県",
    "city": "上越市",
    "category": "home_help",
    "serviceType": "訪問介護",
    "capacity": 0,
    "openDays": [
      "平日",
      "土曜日",
      "日曜日",
      "祝日"
    ],
    "openDaysNote": "利用者の希望や必要性に応じて上記時間外であっても事業所における可能な範囲でサービスを提供いたします。また、24時間電話での連絡は可能です。"
  },
  {
    "id": "1570301729",
    "name": "ヘルパーステーション上越南",
    "kana": "ヘルパーステーションジョウエツミナミ",
    "address": "新潟県上越市清里区岡野町1618番地",
    "lat": 37.0789915325757,
    "lng": 138.331692540992,
    "tel": "025-530-7637",
    "url": "https://www.jouetushisyakyo.jp/",
    "pref": "新潟県",
    "city": "上越市",
    "category": "home_help",
    "serviceType": "訪問介護",
    "capacity": 0,
    "openDays": [
      "平日",
      "土曜日",
      "日曜日",
      "祝日"
    ],
    "openDaysNote": "ご利用者様の希望及び必要性に応じ、営業時間外であっても事業所における可能な範囲でサービスを提供いたします。"
  },
  {
    "id": "1570301687",
    "name": "ヘルパーステーション上越北",
    "kana": "ヘルパーステーションジョウエツキタ",
    "address": "新潟県上越市頸城区百間町６１５番地２",
    "lat": 37.1867598,
    "lng": 138.3312013,
    "tel": "025-530-4361",
    "url": "https://www.jouetushisyakyo.jp",
    "pref": "新潟県",
    "city": "上越市",
    "category": "home_help",
    "serviceType": "訪問介護",
    "capacity": 0,
    "openDays": [
      "平日",
      "土曜日",
      "日曜日",
      "祝日"
    ],
    "openDaysNote": "午前6時から午後10時とする。但し、利用者の希望及び必要に応じ、営業時間外であっても、事業所における可能な範囲でサービスを提供する。（24時間連絡は可能）"
  },
  {
    "id": "1570303618",
    "name": "ヘルパーステーション府中会",
    "kana": "ヘルパーステーションフチュウカイ",
    "address": "新潟県上越市東雲町2丁目11番6号",
    "lat": 37.1686898,
    "lng": 138.240901,
    "tel": "025-539-6250",
    "url": "",
    "pref": "新潟県",
    "city": "上越市",
    "category": "home_help",
    "serviceType": "訪問介護",
    "capacity": 20,
    "openDays": [
      "平日",
      "土曜日",
      "日曜日",
      "祝日"
    ],
    "openDaysNote": "利用者のご希望に応じて、可能な限り24時間対応可能な体制をとります。"
  },
  {
    "id": "1570303006",
    "name": "ホームケアプラス訪問介護事業所",
    "kana": "ホームケアプラスホウモンカイゴジギョウショ",
    "address": "新潟県上越市中田原80-28",
    "lat": 37.0947365641872,
    "lng": 138.234295017708,
    "tel": "025-520-8510",
    "url": "http://homecareplus.web.fc2.com/",
    "pref": "新潟県",
    "city": "上越市",
    "category": "home_help",
    "serviceType": "訪問介護",
    "capacity": 0,
    "openDays": [
      "平日"
    ],
    "openDaysNote": "訪問介護事業所につきましては２４時間３６５日サービスを提供するものとする。"
  },
  {
    "id": "1570302826",
    "name": "まちなか訪問介護　サンクス",
    "kana": "マチナカホウモンカイゴ　サンクス",
    "address": "新潟県上越市寺町３－１０－１５",
    "lat": 37.1177768,
    "lng": 138.2417587,
    "tel": "025-521-2755",
    "url": "https://sankusu.net",
    "pref": "新潟県",
    "city": "上越市",
    "category": "home_help",
    "serviceType": "訪問介護",
    "capacity": 0,
    "openDays": [
      "平日",
      "土曜日",
      "日曜日",
      "祝日"
    ],
    "openDaysNote": ""
  },
  {
    "id": "1570300911",
    "name": "めぐみ",
    "kana": "メグミ",
    "address": "新潟県上越市西城町1-1-20",
    "lat": 37.1155248,
    "lng": 138.2511829,
    "tel": "025-521-5313",
    "url": "",
    "pref": "新潟県",
    "city": "上越市",
    "category": "home_help",
    "serviceType": "訪問介護",
    "capacity": 0,
    "openDays": [
      "平日",
      "土曜日",
      "日曜日",
      "祝日"
    ],
    "openDaysNote": ""
  },
  {
    "id": "1570303188",
    "name": "やさしい手上越訪問介護事業所",
    "kana": "ヤサシイテジョウエツホウモンカイゴジギョウショ",
    "address": "新潟県上越市木田１－１－１５",
    "lat": 37.1430206660986,
    "lng": 138.235616735582,
    "tel": "050-1752-0256",
    "url": "http://www.yasashiite.com",
    "pref": "新潟県",
    "city": "上越市",
    "category": "home_help",
    "serviceType": "訪問介護",
    "capacity": 0,
    "openDays": [
      "平日",
      "土曜日",
      "日曜日",
      "祝日"
    ],
    "openDaysNote": ""
  },
  {
    "id": "1570304004",
    "name": "やさしい手東城訪問介護",
    "kana": "ヤサシイテヒガシシロホウモンカイゴ",
    "address": "新潟県上越市東城町２丁目３番７７号やさしえ東城 やさしえ東城",
    "lat": 37.1073605934341,
    "lng": 138.262845980812,
    "tel": "050-1753-4259",
    "url": "https://www.yasashiite.com/subdomains/section/324/",
    "pref": "新潟県",
    "city": "上越市",
    "category": "home_help",
    "serviceType": "訪問介護",
    "capacity": 10,
    "openDays": [
      "平日",
      "土曜日",
      "日曜日",
      "祝日"
    ],
    "openDaysNote": ""
  },
  {
    "id": "1570304020",
    "name": "医心館訪問介護ステーション上越",
    "kana": "イシンカンホウモンカイゴステーションジョウエツ",
    "address": "新潟県上越市下門前1698番",
    "lat": 37.1554177,
    "lng": 138.2578205,
    "tel": "025-520-8162",
    "url": "",
    "pref": "新潟県",
    "city": "上越市",
    "category": "home_help",
    "serviceType": "訪問介護",
    "capacity": 0,
    "openDays": [
      "平日",
      "土曜日",
      "日曜日",
      "祝日"
    ],
    "openDaysNote": "24時間対応"
  },
  {
    "id": "1570301430",
    "name": "特別養護老人ホームよねやまの里",
    "kana": "トクベツヨウゴロウジンホームヨネヤマノサト",
    "address": "新潟県上越市柿崎区柿崎６４１４－１",
    "lat": 37.2778513,
    "lng": 138.3938847,
    "tel": "025-536-6673",
    "url": "http://matunami-fukushi.com",
    "pref": "新潟県",
    "city": "上越市",
    "category": "home_help",
    "serviceType": "訪問介護",
    "capacity": 0,
    "openDays": [
      "平日",
      "土曜日",
      "日曜日",
      "祝日"
    ],
    "openDaysNote": ""
  },
  {
    "id": "1570300432",
    "name": "二幸介護サービス　訪問高田",
    "kana": "ニコウカイゴサービスホウモンタカダ",
    "address": "上越市大貫３丁目３番１２号",
    "lat": 37.1118848103765,
    "lng": 138.234480895049,
    "tel": "025-522-8205",
    "url": "",
    "pref": "新潟県",
    "city": "上越市",
    "category": "home_help",
    "serviceType": "訪問介護",
    "capacity": 0,
    "openDays": [
      "平日",
      "土曜日",
      "日曜日",
      "祝日"
    ],
    "openDaysNote": ""
  },
  {
    "id": "1570303626",
    "name": "訪問介護きらめき",
    "kana": "ホウモンカイゴキラメキ",
    "address": "新潟県上越市下門前２２７６番地ロングライフきらめき ロングライフきらめき",
    "lat": 37.1617687,
    "lng": 138.2511308,
    "tel": "０２５－５４５－２５２５",
    "url": "",
    "pref": "新潟県",
    "city": "上越市",
    "category": "home_help",
    "serviceType": "訪問介護",
    "capacity": 0,
    "openDays": [
      "平日"
    ],
    "openDaysNote": ""
  },
  {
    "id": "1570300093",
    "name": "訪問介護だいにち",
    "kana": "ホウモンカイゴダイニチ",
    "address": "新潟県上越市大字大日34番地5株式会社リボーン　本社 株式会社リボーン　本社",
    "lat": 37.1322755,
    "lng": 138.2645778,
    "tel": "025-523-0700",
    "url": "http://riborn.co.jp",
    "pref": "新潟県",
    "city": "上越市",
    "category": "home_help",
    "serviceType": "訪問介護",
    "capacity": 0,
    "openDays": [
      "平日",
      "土曜日",
      "日曜日",
      "祝日"
    ],
    "openDaysNote": "必要に応じて24時間365日サービス提供可能"
  },
  {
    "id": "1570113686",
    "name": "アースサポート新潟江南",
    "kana": "アースサポートニイガタコウナン",
    "address": "新潟県新潟市江南区萩曽根3丁目1番6号",
    "lat": 37.8681357878824,
    "lng": 139.098381669497,
    "tel": "025-383-1700",
    "url": "http://www.earthsupport.co.jp",
    "pref": "新潟県",
    "city": "新潟市江南区",
    "category": "home_help",
    "serviceType": "訪問介護",
    "capacity": 0,
    "openDays": [
      "平日",
      "土曜日",
      "日曜日",
      "祝日"
    ],
    "openDaysNote": "年中無休"
  },
  {
    "id": "1570108108",
    "name": "ニチイケアセンター新潟東",
    "kana": "ニチイケアセンターニイガタヒガシ",
    "address": "新潟県新潟市江南区横越川根町4－1－41",
    "lat": 37.8585214,
    "lng": 139.1352768,
    "tel": "025-383-2006",
    "url": "http://www.nichiigakkan.co.jp",
    "pref": "新潟県",
    "city": "新潟市江南区",
    "category": "home_help",
    "serviceType": "訪問介護",
    "capacity": 0,
    "openDays": [
      "平日",
      "土曜日",
      "日曜日",
      "祝日"
    ],
    "openDaysNote": "居宅サービス計画により、休業日および営業時間外であってもサービスを提供する場合があります。"
  },
  {
    "id": "1570103539",
    "name": "ヘルパーステーション向陽の里",
    "kana": "ヘルパーステーションコウヨウノサト",
    "address": "新潟県新潟市江南区亀田本町１-４-１４特別養護老人ホームかめだ本町の里 特別養護老人ホームかめだ本町の里",
    "lat": 37.8724601,
    "lng": 139.107498,
    "tel": "025-385-8380",
    "url": "kouyou-helper@wine.ocn.ne.jp",
    "pref": "新潟県",
    "city": "新潟市江南区",
    "category": "home_help",
    "serviceType": "訪問介護",
    "capacity": 0,
    "openDays": [
      "平日",
      "土曜日",
      "日曜日",
      "祝日"
    ],
    "openDaysNote": ""
  },
  {
    "id": "1570109593",
    "name": "ホームヘルプ春日和新潟",
    "kana": "ホームヘルプハルビヨリニイガタ",
    "address": "新潟県新潟市江南区曙町3丁目2番18号ワールドステイ新潟支社 ワールドステイ新潟支社",
    "lat": 37.8609219407233,
    "lng": 139.125059870675,
    "tel": "025-383-8222",
    "url": "http://www.worldstay.jp",
    "pref": "新潟県",
    "city": "新潟市江南区",
    "category": "home_help",
    "serviceType": "訪問介護",
    "capacity": 170,
    "openDays": [
      "平日",
      "土曜日",
      "日曜日",
      "祝日"
    ],
    "openDaysNote": "利用者の希望に応じて、２４時間３６５日対応する。"
  },
  {
    "id": "1570115848",
    "name": "学研ココファンガーデン新潟亀田ヘルパーセンター",
    "kana": "ガッケンココファンガーデンニイガタカメダヘルパーセンター",
    "address": "新潟県新潟市江南区早通４丁目２番５号ココファンガーデン新潟亀田 ココファンガーデン新潟亀田",
    "lat": 37.8592131200943,
    "lng": 139.087177955721,
    "tel": "025-382-5772",
    "url": "https://www.cocofump.co.jp/facilities/detail/niigatakameda/",
    "pref": "新潟県",
    "city": "新潟市江南区",
    "category": "home_help",
    "serviceType": "訪問介護",
    "capacity": 0,
    "openDays": [
      "平日",
      "土曜日",
      "日曜日",
      "祝日"
    ],
    "openDaysNote": "24時間365日対応"
  },
  {
    "id": "1570108033",
    "name": "江南ケアプラザ",
    "kana": "コウナンケアプラザ",
    "address": "新潟県新潟市江南区亀田中島2-5-17サービス付き高齢者向け住宅　リーシェ亀田中島　内 サービス付き高齢者向け住宅　リーシェ亀田中島　内",
    "lat": 37.8836466538058,
    "lng": 139.104385005676,
    "tel": "025-382-1217",
    "url": "http://www.ej-welfare.jp",
    "pref": "新潟県",
    "city": "新潟市江南区",
    "category": "home_help",
    "serviceType": "訪問介護",
    "capacity": 0,
    "openDays": [
      "平日",
      "土曜日",
      "日曜日",
      "祝日"
    ],
    "openDaysNote": "但し、利用者の希望に応じてサービスの提供については、24時間対応可能な体勢を整えるものとします。"
  },
  {
    "id": "1570102846",
    "name": "常陽会訪問介護ステーション",
    "kana": "ジョウヨウカイホウモンカイゴステーション",
    "address": "新潟県新潟市江南区亀田中島4-6-28",
    "lat": 37.8893971,
    "lng": 139.1009369,
    "tel": "025-385-8530",
    "url": "http://www.jyouyoukai.or.jp",
    "pref": "新潟県",
    "city": "新潟市江南区",
    "category": "home_help",
    "serviceType": "訪問介護",
    "capacity": 0,
    "openDays": [
      "平日",
      "土曜日",
      "日曜日",
      "祝日"
    ],
    "openDaysNote": "時間外でのサービス提供は利用者の希望に応じて365日24時間対応する。"
  },
  {
    "id": "1570112852",
    "name": "訪問介護ステーション　スマイルケアいなほ",
    "kana": "ホウモンカイゴステーション　スマイルケアイナホ",
    "address": "新潟県新潟市江南区大淵1177番地",
    "lat": 37.8953564,
    "lng": 139.1480986,
    "tel": "025-250-7347",
    "url": "http://www.inahonosato.jp/",
    "pref": "新潟県",
    "city": "新潟市江南区",
    "category": "home_help",
    "serviceType": "訪問介護",
    "capacity": 0,
    "openDays": [
      "平日",
      "土曜日",
      "祝日"
    ],
    "openDaysNote": "利用者の希望に応じ365日24時間対応可能です。"
  },
  {
    "id": "1570111698",
    "name": "アースサポート新潟秋葉",
    "kana": "アースサポートニイガタアキハ",
    "address": "新潟県新潟市秋葉区善道町２丁目１３番５号",
    "lat": 37.8042212,
    "lng": 139.1262245,
    "tel": "0250-23-4455",
    "url": "http://www.earthsupport.co.jp",
    "pref": "新潟県",
    "city": "新潟市秋葉区",
    "category": "home_help",
    "serviceType": "訪問介護",
    "capacity": 0,
    "openDays": [
      "平日",
      "土曜日",
      "日曜日",
      "祝日"
    ],
    "openDaysNote": "年中無休"
  },
  {
    "id": "1570103414",
    "name": "アレック北栄　新津",
    "kana": "アレックホクエイ　ニイツ",
    "address": "新潟県新潟市秋葉区金沢町３－１－９",
    "lat": 37.7971723,
    "lng": 139.1364683,
    "tel": "0250-23-1808",
    "url": "http://www.alec-hokuei.co.jp",
    "pref": "新潟県",
    "city": "新潟市秋葉区",
    "category": "home_help",
    "serviceType": "訪問介護",
    "capacity": 0,
    "openDays": [
      "平日",
      "土曜日",
      "日曜日",
      "祝日"
    ],
    "openDaysNote": ""
  },
  {
    "id": "1570114171",
    "name": "アレック北栄東金沢",
    "kana": "アレックホクエイヒガシカナザワ",
    "address": "新潟県新潟市秋葉区東金沢1690番地1",
    "lat": 37.8023969,
    "lng": 139.1437397,
    "tel": "0250-21-1800",
    "url": "http://www.alec-hokuei.co.jp",
    "pref": "新潟県",
    "city": "新潟市秋葉区",
    "category": "home_help",
    "serviceType": "訪問介護",
    "capacity": 50,
    "openDays": [
      "平日",
      "土曜日",
      "日曜日",
      "祝日"
    ],
    "openDaysNote": ""
  },
  {
    "id": "1570109106",
    "name": "ウェルケア新津訪問介護ステーション",
    "kana": "ウェルケアニイツホウモンカイゴステーション",
    "address": "新潟県新潟市秋葉区美幸町1丁目3番2号",
    "lat": 37.7998659,
    "lng": 139.1177781,
    "tel": "0250-25-7761",
    "url": "http://www.wellcare.jp/",
    "pref": "新潟県",
    "city": "新潟市秋葉区",
    "category": "home_help",
    "serviceType": "訪問介護",
    "capacity": 0,
    "openDays": [
      "平日",
      "土曜日",
      "日曜日",
      "祝日"
    ],
    "openDaysNote": "上記営業時間外においても、利用者の状況や希望によりサービスの提供を行うことができるものとする。"
  },
  {
    "id": "1570103406",
    "name": "ニチイケアセンターかわぐち",
    "kana": "ニチイケアセンターカワグチ",
    "address": "新潟県新潟市秋葉区川口138-1",
    "lat": 37.8164449,
    "lng": 139.1179717,
    "tel": "0250-21-6303",
    "url": "http://www.nichiigakkan.co.jp",
    "pref": "新潟県",
    "city": "新潟市秋葉区",
    "category": "home_help",
    "serviceType": "訪問介護",
    "capacity": 0,
    "openDays": [
      "平日",
      "土曜日",
      "日曜日",
      "祝日"
    ],
    "openDaysNote": "但し、居宅サービス計画により、営業時間以外でも、サービスの提供を行う場合がある。"
  },
  {
    "id": "1570115061",
    "name": "ニチイケアセンターこすど",
    "kana": "ニチイケアセンター　コスド",
    "address": "新潟県新潟市秋葉区新保1227番地17",
    "lat": 37.7567265,
    "lng": 139.0772548,
    "tel": "0250-47-3653",
    "url": "http://www.nichiigakkan.co.jp",
    "pref": "新潟県",
    "city": "新潟市秋葉区",
    "category": "home_help",
    "serviceType": "訪問介護",
    "capacity": 0,
    "openDays": [
      "平日",
      "土曜日",
      "日曜日",
      "祝日"
    ],
    "openDaysNote": "居宅サービス計画により営業時間外でもサービス提供を行う場合もあります。"
  },
  {
    "id": "1570103398",
    "name": "ニチイケアセンター新津",
    "kana": "ニチイケアセンターニイツ",
    "address": "新潟県新潟市秋葉区新津本町3-7-38",
    "lat": 37.7962725807491,
    "lng": 139.124437807825,
    "tel": "0250-21-1018",
    "url": "http://www.nichiigakkan.co.jp",
    "pref": "新潟県",
    "city": "新潟市秋葉区",
    "category": "home_help",
    "serviceType": "訪問介護",
    "capacity": 0,
    "openDays": [
      "平日",
      "土曜日",
      "日曜日",
      "祝日"
    ],
    "openDaysNote": "居宅サービス計画により、営業時間外でも､サービスを提供する場合もあります。"
  },
  {
    "id": "1570103455",
    "name": "ヘルパーステーション　ほっと新津",
    "kana": "ヘルパーステーション　ホットニイツ",
    "address": "新潟県新潟市秋葉区古田３丁目２番７号",
    "lat": 37.794694868332,
    "lng": 139.106783015344,
    "tel": "0250-23-2252",
    "url": "",
    "pref": "新潟県",
    "city": "新潟市秋葉区",
    "category": "home_help",
    "serviceType": "訪問介護",
    "capacity": 0,
    "openDays": [
      "平日",
      "土曜日",
      "日曜日",
      "祝日"
    ],
    "openDaysNote": "営業時間外の訪問は相談に応じます。"
  },
  {
    "id": "1570114106",
    "name": "ヘルパーステーションあいおいの里",
    "kana": "ヘルパーステーションアイオイノサト",
    "address": "新潟県新潟市秋葉区覚路津1267-1あいおいの里三枚潟 あいおいの里三枚潟",
    "lat": 37.81727285232,
    "lng": 139.068781003014,
    "tel": "025-288-6040",
    "url": "http://aioihome.jp/",
    "pref": "新潟県",
    "city": "新潟市秋葉区",
    "category": "home_help",
    "serviceType": "訪問介護",
    "capacity": 0,
    "openDays": [
      "平日",
      "土曜日",
      "日曜日",
      "祝日"
    ],
    "openDaysNote": ""
  },
  {
    "id": "1570103422",
    "name": "ヘルパーステーションはさぎの里",
    "kana": "ヘルパーステーションハサギノサト",
    "address": "新潟県新潟市秋葉区七日町2186-9",
    "lat": 37.8168509965749,
    "lng": 139.144760063052,
    "tel": "0250-23-6511",
    "url": "https://akiha.or.jp",
    "pref": "新潟県",
    "city": "新潟市秋葉区",
    "category": "home_help",
    "serviceType": "訪問介護",
    "capacity": 0,
    "openDays": [
      "平日",
      "土曜日",
      "日曜日",
      "祝日"
    ],
    "openDaysNote": "ただし、上記時間帯以外の利用については、応相談"
  },
  {
    "id": "1570105005",
    "name": "社会福祉法人新潟市社会福祉協議会秋葉区訪問介護センター",
    "kana": "シャカイフクシホウジンニイガタシシャカイフクシキョウギカイアキハクホウモンカイゴセンター",
    "address": "新潟県新潟市秋葉区日宝町６番１３号",
    "lat": 37.7967209560778,
    "lng": 139.1280829,
    "tel": "0250-24-0120",
    "url": "https://www.syakyo-niigatacity.or.jp",
    "pref": "新潟県",
    "city": "新潟市秋葉区",
    "category": "home_help",
    "serviceType": "訪問介護",
    "capacity": 0,
    "openDays": [
      "平日",
      "土曜日",
      "日曜日",
      "祝日"
    ],
    "openDaysNote": ""
  },
  {
    "id": "1570109288",
    "name": "訪問介護すずらん",
    "kana": "ホウモンカイゴスズラン",
    "address": "新潟県新潟市秋葉区中野５丁目２番２７号",
    "lat": 37.8328597,
    "lng": 139.1057301,
    "tel": "0250-25-7603",
    "url": "",
    "pref": "新潟県",
    "city": "新潟市秋葉区",
    "category": "home_help",
    "serviceType": "訪問介護",
    "capacity": 0,
    "openDays": [
      "平日"
    ],
    "openDaysNote": "休日のサービス提供は、利用者の希望に応じて３６５日２４時間対応する。"
  },
  {
    "id": "1570109825",
    "name": "訪問介護ステーションリビングハウス荻川",
    "kana": "ホウモンカイゴステーションリビングハウスオギカワ",
    "address": "新潟県新潟市秋葉区中野１丁目１９－３",
    "lat": 37.8345459,
    "lng": 139.1142599,
    "tel": "0250-25-6000",
    "url": "",
    "pref": "新潟県",
    "city": "新潟市秋葉区",
    "category": "home_help",
    "serviceType": "訪問介護",
    "capacity": 0,
    "openDays": [
      "平日"
    ],
    "openDaysNote": "利用者様の希望に応じて、サービス提供については３６５日２４時間対応可能な体制を整えるものとします。"
  },
  {
    "id": "1570114890",
    "name": "訪問介護事業所メディクオール秋葉",
    "kana": "ホウモンカイゴジギョウショメディクオールアキハ",
    "address": "新潟県新潟市秋葉区新町１丁目５番１８号",
    "lat": 37.7992876,
    "lng": 139.1288091,
    "tel": "0250-25-7640",
    "url": "",
    "pref": "新潟県",
    "city": "新潟市秋葉区",
    "category": "home_help",
    "serviceType": "訪問介護",
    "capacity": null,
    "openDays": [
      "平日",
      "土曜日",
      "日曜日",
      "祝日"
    ],
    "openDaysNote": "上記記載時間以外も検討可能"
  },
  {
    "id": "1570116028",
    "name": "訪問生活介護事業所アネロ",
    "kana": "ホウモンセイカツカイゴジギョウショアネロ",
    "address": "新潟県新潟市秋葉区滝谷町4番26号",
    "lat": 37.7881110062241,
    "lng": 139.144015640601,
    "tel": "0250－47－4993",
    "url": "",
    "pref": "新潟県",
    "city": "新潟市秋葉区",
    "category": "home_help",
    "serviceType": "訪問介護",
    "capacity": null,
    "openDays": [],
    "openDaysNote": ""
  },
  {
    "id": "1570114270",
    "name": "アースサポート新潟西蒲",
    "kana": "アースサポートニイガタニシカン",
    "address": "新潟県新潟市西蒲区巻甲3054-6コーポリーリン102 コーポリーリン102",
    "lat": 37.764484780199,
    "lng": 138.889308368717,
    "tel": "0256-73-5200",
    "url": "http://www.earthsupport.co.jp",
    "pref": "新潟県",
    "city": "新潟市西蒲区",
    "category": "home_help",
    "serviceType": "訪問介護",
    "capacity": 0,
    "openDays": [
      "平日",
      "土曜日",
      "日曜日",
      "祝日"
    ],
    "openDaysNote": "年中無休"
  },
  {
    "id": "1570105542",
    "name": "ニチイケアセンター巻",
    "kana": "ニチイケアセンターマキ",
    "address": "新潟県新潟市西蒲区巻甲422",
    "lat": 37.7581100133524,
    "lng": 138.883205914372,
    "tel": "0256-70-1661",
    "url": "http://www.nichiigakkan.co.jp",
    "pref": "新潟県",
    "city": "新潟市西蒲区",
    "category": "home_help",
    "serviceType": "訪問介護",
    "capacity": 0,
    "openDays": [
      "平日",
      "土曜日",
      "日曜日",
      "祝日"
    ],
    "openDaysNote": ""
  },
  {
    "id": "1570115053",
    "name": "ニチイケアセンター岩室",
    "kana": "ニチイケアセンターイワムロ",
    "address": "新潟県新潟市西蒲区和納1401-11",
    "lat": 37.7233463,
    "lng": 138.8807849,
    "tel": "0256-77-5040",
    "url": "https://www.nichiigakkan.co.jp",
    "pref": "新潟県",
    "city": "新潟市西蒲区",
    "category": "home_help",
    "serviceType": "訪問介護",
    "capacity": 0,
    "openDays": [
      "平日",
      "土曜日",
      "日曜日",
      "祝日"
    ],
    "openDaysNote": "居宅サービス計画により営業時間外でもサービスの提供を行う場合もあります。"
  },
  {
    "id": "1570105534",
    "name": "ヘルパーステーション　まるっとまき",
    "kana": "ヘルパーステーション　マルットマキ",
    "address": "新潟県新潟市西蒲区巻甲5465-4",
    "lat": 37.7544536588464,
    "lng": 138.898347044399,
    "tel": "0256-77-5310",
    "url": "http://www.hakujyusou.jp/",
    "pref": "新潟県",
    "city": "新潟市西蒲区",
    "category": "home_help",
    "serviceType": "訪問介護",
    "capacity": 0,
    "openDays": [
      "平日",
      "土曜日",
      "日曜日",
      "祝日"
    ],
    "openDaysNote": "但し、早朝６時～、夜間２２時以降など、相談に応じます。"
  },
  {
    "id": "1570110336",
    "name": "ヘルパーステーションまき",
    "kana": "ヘルパーステーションマキ",
    "address": "新潟県新潟市西蒲区巻甲2908番地3",
    "lat": 37.7570354896433,
    "lng": 138.885460491698,
    "tel": "0256-73-0311",
    "url": "http://www.atago.or.jp",
    "pref": "新潟県",
    "city": "新潟市西蒲区",
    "category": "home_help",
    "serviceType": "訪問介護",
    "capacity": 0,
    "openDays": [
      "平日",
      "土曜日",
      "日曜日",
      "祝日"
    ],
    "openDaysNote": "サービス提供については、利用者の希望に応じて24時間対応する。"
  },
  {
    "id": "1570115525",
    "name": "ヘルパーステーションり・ぷらすLife",
    "kana": "ヘルパーステーションリ・プラスライフ",
    "address": "新潟県新潟市西蒲区越前浜6731番地",
    "lat": 37.8160505,
    "lng": 138.849158,
    "tel": "0256-77-8090",
    "url": "",
    "pref": "新潟県",
    "city": "新潟市西蒲区",
    "category": "home_help",
    "serviceType": "訪問介護",
    "capacity": 1,
    "openDays": [
      "平日",
      "土曜日",
      "日曜日",
      "祝日"
    ],
    "openDaysNote": "利用者の要望により営業時間外のサービス提供を行う。"
  },
  {
    "id": "1570112191",
    "name": "ヘルパーステーション悠々の杜岩室",
    "kana": "ヘルパーステーションユウユウノモリイワムロ",
    "address": "新潟県新潟市西蒲区石瀬１１００番地",
    "lat": 37.7247169,
    "lng": 138.8401538,
    "tel": "0256－78－8675",
    "url": "",
    "pref": "新潟県",
    "city": "新潟市西蒲区",
    "category": "home_help",
    "serviceType": "訪問介護",
    "capacity": 40,
    "openDays": [
      "平日",
      "土曜日",
      "日曜日",
      "祝日"
    ],
    "openDaysNote": ""
  },
  {
    "id": "1570106680",
    "name": "ホームヘルプステーション優友",
    "kana": "ホームヘルプステーションユウユウ",
    "address": "新潟県新潟市西蒲区熊谷1053番地１",
    "lat": 37.7694957,
    "lng": 138.9719938,
    "tel": "0256-86-2524",
    "url": "http://www.care-yuyu.or.jp/",
    "pref": "新潟県",
    "city": "新潟市西蒲区",
    "category": "home_help",
    "serviceType": "訪問介護",
    "capacity": 0,
    "openDays": [
      "平日",
      "土曜日",
      "日曜日",
      "祝日"
    ],
    "openDaysNote": ""
  },
  {
    "id": "1570105765",
    "name": "社会福祉法人新潟市社会福祉協議会西蒲区訪問介護センター",
    "kana": "シャカイフクシホウジンニイガタシシャカイフクシキョウギカイニシカンクホウモンカイゴセンター",
    "address": "新潟県新潟市西蒲区巻甲４３６３番地巻ふれあい福祉センター内 巻ふれあい福祉センター内",
    "lat": 37.7547000706709,
    "lng": 138.892030382031,
    "tel": "0256-73-3622",
    "url": "https://www.syakyo-niigatacity.or.jp",
    "pref": "新潟県",
    "city": "新潟市西蒲区",
    "category": "home_help",
    "serviceType": "訪問介護",
    "capacity": 0,
    "openDays": [
      "平日",
      "土曜日",
      "日曜日",
      "祝日"
    ],
    "openDaysNote": "全身性障がい者で自薦ヘルパー利用者には24時間派遣可能"
  },
  {
    "id": "1570115699",
    "name": "訪問介護　ふたば",
    "kana": "ホウモンカイゴ　フタバ",
    "address": "新潟県新潟市西蒲区升潟2828番地",
    "lat": 37.8067366,
    "lng": 138.9375995,
    "tel": "0256-77-5059",
    "url": "https://r.goope.jp/himayuta1/",
    "pref": "新潟県",
    "city": "新潟市西蒲区",
    "category": "home_help",
    "serviceType": "訪問介護",
    "capacity": 0,
    "openDays": [
      "平日",
      "土曜日",
      "日曜日",
      "祝日"
    ],
    "openDaysNote": "年末年始　１２月３１日～１月２日（改行）（改行）上記休日、時間以外のサービス提供は利用者様の希望に応じて２４時間対応いたします。"
  },
  {
    "id": "1570112795",
    "name": "訪問介護事業所　こころはす西蒲",
    "kana": "ホウモンカイゴジギョウショ　ココロハスニシカン",
    "address": "新潟県新潟市西蒲区善光寺900番地有料老人ホーム　こころはす西蒲 有料老人ホーム　こころはす西蒲",
    "lat": 37.8010934025933,
    "lng": 138.92247713484,
    "tel": "0256-88-3113",
    "url": "http://misatokai.or.jp/n.kokorohasu/",
    "pref": "新潟県",
    "city": "新潟市西蒲区",
    "category": "home_help",
    "serviceType": "訪問介護",
    "capacity": 0,
    "openDays": [
      "平日",
      "土曜日",
      "日曜日",
      "祝日"
    ],
    "openDaysNote": "21：00～5：00は訪問介護サービスの提供を行っておりません。（改行）有料老人ホーム内の入居者には上記の時間帯はホーム対応にて介助を行っております。"
  },
  {
    "id": "1570110112",
    "name": "アースサポート新潟西",
    "kana": "アースサポートニイガタニシ",
    "address": "新潟県新潟市西区坂井８３１番地３",
    "lat": 37.8671537193152,
    "lng": 138.956780636912,
    "tel": "025-269-8411",
    "url": "http://www.earthsupport.co.jp/",
    "pref": "新潟県",
    "city": "新潟市西区",
    "category": "home_help",
    "serviceType": "訪問介護",
    "capacity": 0,
    "openDays": [
      "平日",
      "土曜日",
      "日曜日",
      "祝日"
    ],
    "openDaysNote": "年中無休"
  },
  {
    "id": "1570108215",
    "name": "さくら・介護ステーション新潟",
    "kana": "サクラ・カイゴステーションニイガタ",
    "address": "新潟県新潟市西区小針6-61-13ウェルズ21　小針6B ウェルズ21　小針6B",
    "lat": 37.8818144,
    "lng": 138.9907229,
    "tel": "025-232-9233",
    "url": "http://www.sakurakaigo.co.jp/",
    "pref": "新潟県",
    "city": "新潟市西区",
    "category": "home_help",
    "serviceType": "訪問介護",
    "capacity": 0,
    "openDays": [
      "平日",
      "土曜日",
      "日曜日",
      "祝日"
    ],
    "openDaysNote": "電話等により24時間常時連絡が可能な体制とし、サービス提供は365日、24時間対応可能な体制をとるものとする。"
  },
  {
    "id": "1570108538",
    "name": "ときめきケアプラザ",
    "kana": "トキメキケアプラザ",
    "address": "新潟県新潟市西区山田3398-1サービス付き高齢者向け住宅　リーシェ黒埼山田　内 サービス付き高齢者向け住宅　リーシェ黒埼山田　内",
    "lat": 37.8711630039057,
    "lng": 139.011994093254,
    "tel": "025-370-1217",
    "url": "http://www.ej-welfare.jp/",
    "pref": "新潟県",
    "city": "新潟市西区",
    "category": "home_help",
    "serviceType": "訪問介護",
    "capacity": 0,
    "openDays": [
      "平日",
      "土曜日",
      "日曜日",
      "祝日"
    ],
    "openDaysNote": "但し、利用者の希望に応じて、サービス提供については、24時間対応可能な体制を整えるものとする。"
  },
  {
    "id": "1570102374",
    "name": "ニチイケアセンターこばり",
    "kana": "ニチイケアセンターコバリ",
    "address": "新潟県新潟市西区小針4-33-1",
    "lat": 37.8837755898907,
    "lng": 138.995668692221,
    "tel": "025-234-5678",
    "url": "http://www.nichiigakkan.co.jp",
    "pref": "新潟県",
    "city": "新潟市西区",
    "category": "home_help",
    "serviceType": "訪問介護",
    "capacity": 0,
    "openDays": [
      "平日",
      "土曜日",
      "日曜日",
      "祝日"
    ],
    "openDaysNote": ""
  },
  {
    "id": "1570101806",
    "name": "ニチイケアセンター内野",
    "kana": "ニチイケアセンターウチノ",
    "address": "新潟県新潟市西区内野山手2丁目17番3号",
    "lat": 37.8573995904898,
    "lng": 138.9344254134,
    "tel": "025-264-2550",
    "url": "http://www.nichiigakkan.co.jp",
    "pref": "新潟県",
    "city": "新潟市西区",
    "category": "home_help",
    "serviceType": "訪問介護",
    "capacity": 0,
    "openDays": [
      "平日",
      "土曜日",
      "日曜日",
      "祝日"
    ],
    "openDaysNote": "居宅サービス計画により営業時間外でもサービスの提供を行う場合がある。"
  },
  {
    "id": "1570116424",
    "name": "フレアスヘルパーステーション新潟大学前",
    "kana": "フレアスヘルパーステーションニイガタダイガクマエ",
    "address": "新潟県新潟市西区五十嵐一の町7229-2チェンバロ１階 チェンバロ１階",
    "lat": 37.874574,
    "lng": 138.9495977,
    "tel": "025-211-8983",
    "url": "https://fureasu.jp/",
    "pref": "新潟県",
    "city": "新潟市西区",
    "category": "home_help",
    "serviceType": "訪問介護",
    "capacity": null,
    "openDays": [
      "平日",
      "土曜日",
      "日曜日",
      "祝日"
    ],
    "openDaysNote": ""
  },
  {
    "id": "1570116515",
    "name": "ヘルパーステーション　グッドスマイル新潟西",
    "kana": "ヘルパーステーション　グッドスマイルニイガタニシ",
    "address": "新潟県新潟市西区寺尾台3丁目14番1号1ロサブランカ103号室 ロサブランカ103号室",
    "lat": 37.8822250379989,
    "lng": 138.972380973016,
    "tel": "025-311-6726",
    "url": "https://www.gs-ni.com/",
    "pref": "新潟県",
    "city": "新潟市西区",
    "category": "home_help",
    "serviceType": "訪問介護",
    "capacity": 30,
    "openDays": [
      "平日",
      "土曜日",
      "祝日"
    ],
    "openDaysNote": "利用者の希望に応じて、サービスの提供については、365日24時間対応可能な体制を整えるものとする。"
  },
  {
    "id": "1570100964",
    "name": "ヘルパーステーションあいご",
    "kana": "ヘルパーステーションアイゴ",
    "address": "新潟県新潟市西区青山8-2-32",
    "lat": 37.8984641520177,
    "lng": 138.995252039881,
    "tel": "025-231-1294",
    "url": "http://aigo-care.com/",
    "pref": "新潟県",
    "city": "新潟市西区",
    "category": "home_help",
    "serviceType": "訪問介護",
    "capacity": 0,
    "openDays": [
      "平日",
      "土曜日",
      "日曜日",
      "祝日"
    ],
    "openDaysNote": ""
  },
  {
    "id": "1570110989",
    "name": "ヘルパーステーションボヌール寺尾",
    "kana": "ヘルパーステーションボヌールテラオ",
    "address": "新潟県新潟市西区寺尾東3丁目14番46号住宅型有料老人ホーム　ボヌール寺尾 住宅型有料老人ホーム　ボヌール寺尾",
    "lat": 37.8746588,
    "lng": 138.9721346,
    "tel": "025-264-1137",
    "url": "http://www.n-bonheur.jp/",
    "pref": "新潟県",
    "city": "新潟市西区",
    "category": "home_help",
    "serviceType": "訪問介護",
    "capacity": 39,
    "openDays": [
      "平日",
      "土曜日",
      "日曜日",
      "祝日"
    ],
    "openDaysNote": "利用者の希望に応じて、サービスの提供については、24時間対応可能な体制を整えるものとする。"
  },
  {
    "id": "1570114528",
    "name": "ヘルパーステーション笑",
    "kana": "ヘルパーステーションエミ",
    "address": "新潟県新潟市西区坂井東4丁目6番14号",
    "lat": 37.8692669022444,
    "lng": 138.975647710219,
    "tel": "025-201-9911",
    "url": "http://care-create.com",
    "pref": "新潟県",
    "city": "新潟市西区",
    "category": "home_help",
    "serviceType": "訪問介護",
    "capacity": 0,
    "openDays": [
      "平日",
      "土曜日",
      "日曜日",
      "祝日"
    ],
    "openDaysNote": "時間外・休日のサービス提供は、利用者のご希望により対応"
  },
  {
    "id": "1570100568",
    "name": "ホームヘルプサービス　穂波の里",
    "kana": "ホームヘルプサービス　ホナミノサト",
    "address": "新潟県新潟市西区新通4727",
    "lat": 37.8626072,
    "lng": 138.9723829,
    "tel": "025-269-0287",
    "url": "http://niigata-min.or.jp/honami/",
    "pref": "新潟県",
    "city": "新潟市西区",
    "category": "home_help",
    "serviceType": "訪問介護",
    "capacity": 0,
    "openDays": [
      "平日",
      "土曜日",
      "祝日"
    ],
    "openDaysNote": "日曜と１月１日～１月３日は定休。　電話により24時間常時連絡が可能。"
  },
  {
    "id": "1570115129",
    "name": "ホームヘルプ春日和新潟西",
    "kana": "ホームヘルプ　ハルビヨリニイガタニシ",
    "address": "新潟県新潟市西区寺地677-1",
    "lat": 37.8806625,
    "lng": 139.0066522,
    "tel": "025-201-7068",
    "url": "",
    "pref": "新潟県",
    "city": "新潟市西区",
    "category": "home_help",
    "serviceType": "訪問介護",
    "capacity": 1,
    "openDays": [
      "平日",
      "土曜日",
      "日曜日",
      "祝日"
    ],
    "openDaysNote": "利用者の希望に応じて24時間対応可能です。"
  },
  {
    "id": "1570109155",
    "name": "介護センター　ほほえみ",
    "kana": "カイゴセンター　ホホエミ",
    "address": "新潟県新潟市西区新通2740番地",
    "lat": 37.8597330214433,
    "lng": 138.956499871617,
    "tel": "025-264-1055",
    "url": "",
    "pref": "新潟県",
    "city": "新潟市西区",
    "category": "home_help",
    "serviceType": "訪問介護",
    "capacity": 0,
    "openDays": [
      "平日",
      "土曜日",
      "日曜日",
      "祝日"
    ],
    "openDaysNote": "サービス提供は、ご利用者様の希望に応じて365日24時間対応する。"
  },
  {
    "id": "1570105310",
    "name": "株式会社　エヌ介護サービス　新潟西センター",
    "kana": "カブシキガイシャエヌカイゴサービスニイガタニシセンター",
    "address": "新潟県新潟市西区寺尾前通２丁目１３番地7",
    "lat": 37.8793211027837,
    "lng": 138.982970390182,
    "tel": "025-201-3330",
    "url": "https://n-kaigo.jp",
    "pref": "新潟県",
    "city": "新潟市西区",
    "category": "home_help",
    "serviceType": "訪問介護",
    "capacity": 280,
    "openDays": [
      "平日",
      "土曜日",
      "日曜日",
      "祝日"
    ],
    "openDaysNote": "サービス提供は、365日24時間無休で提供します。但し、深夜の場合は、時間について相談することがあります。"
  },
  {
    "id": "1570104966",
    "name": "社会福祉法人新潟市社会福祉協議会　西区訪問介護センター",
    "kana": "シャカイフクシホウジンニイガタシシャカイフクシキョウギカイ　ニシクホウモンカイゴセンター",
    "address": "新潟県新潟市　西区　小針　5丁目7番5号",
    "lat": 37.8868802367526,
    "lng": 138.995656272675,
    "tel": "025-378-3130",
    "url": "https://www.syakyo-niigatacity.or.jp",
    "pref": "新潟県",
    "city": "新潟市西区",
    "category": "home_help",
    "serviceType": "訪問介護",
    "capacity": 0,
    "openDays": [
      "平日",
      "土曜日",
      "日曜日",
      "祝日"
    ],
    "openDaysNote": ""
  },
  {
    "id": "1570116432",
    "name": "新潟ホスピスひばりヶ丘",
    "kana": "ニイガタホスピスヒバリガオカ",
    "address": "新潟県新潟市西区小新3791-3新潟ホスピスひばりヶ丘 新潟ホスピスひばりヶ丘",
    "lat": 37.8658779980511,
    "lng": 138.999825398811,
    "tel": "（代）025-211-20",
    "url": "https://oac-kikaku.co.jp/",
    "pref": "新潟県",
    "city": "新潟市西区",
    "category": "home_help",
    "serviceType": "訪問介護",
    "capacity": 0,
    "openDays": [
      "平日",
      "土曜日",
      "日曜日",
      "祝日"
    ],
    "openDaysNote": ""
  },
  {
    "id": "1570109304",
    "name": "千草の舎",
    "kana": "チグサノシャ",
    "address": "新潟県新潟市西区大学南2丁目19-34-1",
    "lat": 37.8687651949296,
    "lng": 138.955083281482,
    "tel": "025-201-9634",
    "url": "",
    "pref": "新潟県",
    "city": "新潟市西区",
    "category": "home_help",
    "serviceType": "訪問介護",
    "capacity": 0,
    "openDays": [
      "平日",
      "土曜日",
      "日曜日",
      "祝日"
    ],
    "openDaysNote": "利用者の希望に応じて、サービスの提供については、24時間常時対応が可能な体制を整えるものとする。"
  },
  {
    "id": "1570114023",
    "name": "訪問介護ステーションケアライフ",
    "kana": "ホウモンカイゴステーションケアライフ",
    "address": "新潟県新潟市西区小針6丁目6番6号福舞ビル102 福舞ビル102",
    "lat": 37.8847503,
    "lng": 138.9927067,
    "tel": "025-201-7961",
    "url": "https://h-kango.wixsite.com/carelife-niigata",
    "pref": "新潟県",
    "city": "新潟市西区",
    "category": "home_help",
    "serviceType": "訪問介護",
    "capacity": 0,
    "openDays": [
      "平日",
      "土曜日",
      "日曜日",
      "祝日"
    ],
    "openDaysNote": ""
  },
  {
    "id": "1570102721",
    "name": "訪問介護ステーションて～あん",
    "kana": "ホウモンカイゴステーションテ～アン",
    "address": "新潟県新潟市西区小新西３丁目１０番７号",
    "lat": 37.8750403,
    "lng": 138.9916657,
    "tel": "025-267-0100",
    "url": "",
    "pref": "新潟県",
    "city": "新潟市西区",
    "category": "home_help",
    "serviceType": "訪問介護",
    "capacity": 0,
    "openDays": [
      "平日",
      "土曜日",
      "日曜日",
      "祝日"
    ],
    "openDaysNote": "サービス時間につきましては利用者様の希望により相談に応じさせて頂きます。"
  },
  {
    "id": "1570109171",
    "name": "訪問介護センター　リーベ善久",
    "kana": "ホウモンカイゴセンター　リーベゼンク",
    "address": "新潟県新潟市西区善久７３０－１",
    "lat": 37.86262,
    "lng": 139.0190007,
    "tel": "025-201-6493",
    "url": "https://www.care-umbrella.com",
    "pref": "新潟県",
    "city": "新潟市西区",
    "category": "home_help",
    "serviceType": "訪問介護",
    "capacity": 0,
    "openDays": [
      "平日",
      "土曜日",
      "日曜日",
      "祝日"
    ],
    "openDaysNote": "利用者の要望により営業時間外のサービス提供を行う。"
  },
  {
    "id": "1570115707",
    "name": "訪問介護事業所　ライフサポート満笑",
    "kana": "ホウモンカイゴジギョウショ　ライフサポートマンショウ",
    "address": "新潟県新潟市西区五十嵐中島５丁目１９番２７号ミツクラ来夢館Ⅱ　３０６号 ミツクラ来夢館Ⅱ　３０６号",
    "lat": 37.8473335,
    "lng": 138.9155042,
    "tel": "025-264-2135",
    "url": "",
    "pref": "新潟県",
    "city": "新潟市西区",
    "category": "home_help",
    "serviceType": "訪問介護",
    "capacity": 0,
    "openDays": [
      "平日",
      "土曜日",
      "日曜日",
      "祝日"
    ],
    "openDaysNote": ""
  },
  {
    "id": "1570109775",
    "name": "訪問介護事業所こころはす小針",
    "kana": "ホウモンカイゴジギョウショココロハスコバリ",
    "address": "新潟県新潟市西区小針４丁目３９ー２８",
    "lat": 37.8830535,
    "lng": 138.9972342,
    "tel": "025-234-3800",
    "url": "http://www.misatokai.or.jp/kokorohasu/",
    "pref": "新潟県",
    "city": "新潟市西区",
    "category": "home_help",
    "serviceType": "訪問介護",
    "capacity": 0,
    "openDays": [
      "平日"
    ],
    "openDaysNote": "但し、利用者の状態によっては上記時間以外でも対応致しております。"
  },
  {
    "id": "1570108926",
    "name": "訪問介護事業所なでしこケアセンターみずき野",
    "kana": "ホウモンカイゴジギョウショナデシコケアセンターミズキノ",
    "address": "新潟県新潟市西区みずき野6丁目5番1号",
    "lat": 37.8191239,
    "lng": 138.8976608,
    "tel": "025-264-3305",
    "url": "http://www.hirose-kaigo.com/",
    "pref": "新潟県",
    "city": "新潟市西区",
    "category": "home_help",
    "serviceType": "訪問介護",
    "capacity": 0,
    "openDays": [
      "平日",
      "土曜日",
      "日曜日",
      "祝日"
    ],
    "openDaysNote": "24時間対応　　0時00分～23時59分"
  },
  {
    "id": "1570116440",
    "name": "PDハウス新潟紫竹山ヘルパーステーション",
    "kana": "ピーディーハウスニイガタシチクヤマヘルパーステーション",
    "address": "新潟県新潟市中央区紫竹山１丁目２番１６号",
    "lat": 37.9011675,
    "lng": 139.0649985,
    "tel": "025-212-9352",
    "url": "https://sunwels.jp/pdh/",
    "pref": "新潟県",
    "city": "新潟市中央区",
    "category": "home_help",
    "serviceType": "訪問介護",
    "capacity": null,
    "openDays": [
      "平日",
      "土曜日",
      "日曜日",
      "祝日"
    ],
    "openDaysNote": "ただし、要望があれば24時間対応します。また、電話等により24時間常時連絡が可能な体制とします。"
  },
  {
    "id": "1570102556",
    "name": "アースサポート新潟",
    "kana": "アースサポートニイガタ",
    "address": "新潟県新潟市中央区鐙一丁目4番28号",
    "lat": 37.9041167,
    "lng": 139.0660919,
    "tel": "025-248-7200",
    "url": "http://www.earthsupport.co.jp",
    "pref": "新潟県",
    "city": "新潟市中央区",
    "category": "home_help",
    "serviceType": "訪問介護",
    "capacity": 0,
    "openDays": [
      "平日",
      "土曜日",
      "日曜日",
      "祝日"
    ],
    "openDaysNote": "年中無休"
  },
  {
    "id": "1570100980",
    "name": "アレック北栄　新潟",
    "kana": "アレックホクエイ　ニイガタ",
    "address": "新潟県新潟市中央区愛宕２丁目１０番地２",
    "lat": 37.8867625,
    "lng": 139.0254037,
    "tel": "025-285-8866",
    "url": "http://www.alec-hokuei.co.jp",
    "pref": "新潟県",
    "city": "新潟市中央区",
    "category": "home_help",
    "serviceType": "訪問介護",
    "capacity": 0,
    "openDays": [
      "平日",
      "土曜日",
      "日曜日",
      "祝日"
    ],
    "openDaysNote": ""
  },
  {
    "id": "1570109221",
    "name": "ウイング関屋訪問介護ステーション",
    "kana": "ウイングセキヤホウモンカイゴステーション",
    "address": "新潟県新潟市中央区関屋田町１－６－２ＭＤ関屋ビル２階 ＭＤ関屋ビル２階",
    "lat": 37.9151018036773,
    "lng": 139.025971059525,
    "tel": "025-266-7718",
    "url": "http://www.maj.co.jp/houmon.html",
    "pref": "新潟県",
    "city": "新潟市中央区",
    "category": "home_help",
    "serviceType": "訪問介護",
    "capacity": 220,
    "openDays": [
      "平日",
      "土曜日",
      "日曜日",
      "祝日"
    ],
    "openDaysNote": "サービス提供については、利用者の希望に応じて24時間常時連絡が可能な体制をとる。"
  },
  {
    "id": "1570113652",
    "name": "グレイス・ヘルパーステーション",
    "kana": "グレイス・ヘルパーステーション",
    "address": "新潟県新潟市中央区紫竹山6-2-26",
    "lat": 37.8979479,
    "lng": 139.066288,
    "tel": "025-240-1600",
    "url": "http://on-grace.co.jp",
    "pref": "新潟県",
    "city": "新潟市中央区",
    "category": "home_help",
    "serviceType": "訪問介護",
    "capacity": 52,
    "openDays": [
      "平日",
      "土曜日",
      "日曜日",
      "祝日"
    ],
    "openDaysNote": "ただし、利用者の希望に応じて、サービスの提供については、24時間対応可能な体制を整えるものとします。"
  },
  {
    "id": "1570116333",
    "name": "ココファン新潟とやの",
    "kana": "ココファンニイガタトヤノ",
    "address": "新潟県新潟市中央区鳥屋野南３丁目２５番１６号",
    "lat": 37.8840195,
    "lng": 139.0289156,
    "tel": "252843535",
    "url": "https://www.cocofump.co.jp/facilities/niigatatoyano/",
    "pref": "新潟県",
    "city": "新潟市中央区",
    "category": "home_help",
    "serviceType": "訪問介護",
    "capacity": null,
    "openDays": [],
    "openDaysNote": ""
  },
  {
    "id": "1570110351",
    "name": "さわやかヘルパーステーション栗の木",
    "kana": "サワヤカヘルパーステーションクリノキ",
    "address": "新潟県新潟市中央区日の出２丁目２番４３号",
    "lat": 37.9191822637473,
    "lng": 139.075572979168,
    "tel": "025-255-5515",
    "url": "http://www.sawayakaclub.jp",
    "pref": "新潟県",
    "city": "新潟市中央区",
    "category": "home_help",
    "serviceType": "訪問介護",
    "capacity": 0,
    "openDays": [
      "平日",
      "土曜日",
      "日曜日",
      "祝日"
    ],
    "openDaysNote": "営業日、サービス提供時間以外について電話等により、相談に応ずる旨や連絡が24時間常時可能な（改行）体制とする。"
  },
  {
    "id": "1570115301",
    "name": "ツクイ・サンフォレスト新潟山潟",
    "kana": "ツクイサンフォレストニイガタヤマガタ",
    "address": "新潟県新潟市中央区長潟1204番地１",
    "lat": 37.8836343,
    "lng": 139.0662942,
    "tel": "025-286-0900",
    "url": "https://corp.tsukui.net",
    "pref": "新潟県",
    "city": "新潟市中央区",
    "category": "home_help",
    "serviceType": "訪問介護",
    "capacity": 0,
    "openDays": [
      "平日",
      "土曜日",
      "日曜日",
      "祝日"
    ],
    "openDaysNote": "サービス提供時間は午前８時３０分から午後６時００分までとする。但し、早朝、夜間、深夜帯の時間は利用者の申し込みにより相談の上、実施する。"
  },
  {
    "id": "1570102127",
    "name": "ツクイ新潟関屋",
    "kana": "ツクイニイガタセキヤ",
    "address": "新潟県新潟市中央区堀割町2-37",
    "lat": 37.9042812,
    "lng": 139.0097414,
    "tel": "025-201-3600",
    "url": "https://www.tsukui.net",
    "pref": "新潟県",
    "city": "新潟市中央区",
    "category": "home_help",
    "serviceType": "訪問介護",
    "capacity": null,
    "openDays": [
      "平日",
      "土曜日",
      "日曜日",
      "祝日"
    ],
    "openDaysNote": "早朝、夜間帯の時間は利用者の申し込みにより要相談。"
  },
  {
    "id": "1570100543",
    "name": "ツクイ新潟女池",
    "kana": "ツクイニイガタメイケ",
    "address": "新潟県新潟市中央区鳥屋野南3-2-5",
    "lat": 37.8859216,
    "lng": 139.0297575,
    "tel": "025-288-0162",
    "url": "https://www.tsukui.net/",
    "pref": "新潟県",
    "city": "新潟市中央区",
    "category": "home_help",
    "serviceType": "訪問介護",
    "capacity": null,
    "openDays": [
      "平日",
      "土曜日",
      "日曜日",
      "祝日"
    ],
    "openDaysNote": "24時間対応可能"
  },
  {
    "id": "1570114981",
    "name": "ニチイケアセンター古町",
    "kana": "ニチイケアセンターフルマチ",
    "address": "新潟県新潟市中央区寄居町697番地1マンション北陸106号 マンション北陸106号",
    "lat": 37.922972,
    "lng": 139.0402309,
    "tel": "025-226-6041",
    "url": "http://www.nichiigakkan.co.jp",
    "pref": "新潟県",
    "city": "新潟市中央区",
    "category": "home_help",
    "serviceType": "訪問介護",
    "capacity": 0,
    "openDays": [
      "平日",
      "土曜日",
      "日曜日",
      "祝日"
    ],
    "openDaysNote": ""
  },
  {
    "id": "1570101178",
    "name": "ニチイケアセンター新潟中央",
    "kana": "ニチイケアセンターニイガタチュウオウ",
    "address": "新潟県新潟市中央区沼垂東6-9-3",
    "lat": 37.9253784,
    "lng": 139.0685041,
    "tel": "025-290-2731",
    "url": "http://www.nichiigakkan.co.jp",
    "pref": "新潟県",
    "city": "新潟市中央区",
    "category": "home_help",
    "serviceType": "訪問介護",
    "capacity": 0,
    "openDays": [
      "平日",
      "土曜日",
      "日曜日",
      "祝日"
    ],
    "openDaysNote": "居宅サービス計画により、営業時間以外でもサービス提供を行う場合がある。"
  },
  {
    "id": "1570105161",
    "name": "ニチイケアセンター新潟南",
    "kana": "ニチイケアセンターニイガタミナミ",
    "address": "新潟県新潟市中央区鐙2-14-21",
    "lat": 37.9040391,
    "lng": 139.069975,
    "tel": "025-290-4711",
    "url": "http://www.nichiigakkan.co.jp",
    "pref": "新潟県",
    "city": "新潟市中央区",
    "category": "home_help",
    "serviceType": "訪問介護",
    "capacity": 0,
    "openDays": [
      "平日",
      "土曜日",
      "日曜日",
      "祝日"
    ],
    "openDaysNote": "ただし、居宅サービス計画により、営業時間以外でも、サービス提供を行う場合がある"
  },
  {
    "id": "1570102630",
    "name": "はあとふるあたご　訪問介護ステーション柳都大橋",
    "kana": "ハアトフルアタゴ　ホウモンカイゴステーションリュウトオオハシ",
    "address": "新潟県新潟市中央区新島町通三ノ町2284番地",
    "lat": 37.9246980476435,
    "lng": 139.052351616434,
    "tel": "025-228-5004",
    "url": "http://www.heartfull.jp",
    "pref": "新潟県",
    "city": "新潟市中央区",
    "category": "home_help",
    "serviceType": "訪問介護",
    "capacity": 0,
    "openDays": [
      "平日",
      "土曜日",
      "日曜日",
      "祝日"
    ],
    "openDaysNote": "サービス利用できる時間内、転送電話にて応相談。"
  },
  {
    "id": "1570111177",
    "name": "ヘルパーステーション　グッドスマイル",
    "kana": "ヘルパーステーション　グッドスマイル",
    "address": "新潟県新潟市中央区出来島2丁目7番21号",
    "lat": 37.9002926681504,
    "lng": 139.025060818097,
    "tel": "025-367-2238",
    "url": "https://gs-ni.com",
    "pref": "新潟県",
    "city": "新潟市中央区",
    "category": "home_help",
    "serviceType": "訪問介護",
    "capacity": 5,
    "openDays": [
      "平日",
      "土曜日",
      "祝日"
    ],
    "openDaysNote": "サービス提供時間外は、利用者の希望に応じて、相談するものとする。"
  },
  {
    "id": "1570110864",
    "name": "ヘルパーステーション　さわやか苑鳥屋野",
    "kana": "ヘルパーステーション　サワヤカエントヤノ",
    "address": "新潟県新潟市中央区小張木3丁目9番79号",
    "lat": 37.8856423113306,
    "lng": 139.042681413492,
    "tel": "025-280-1100",
    "url": "http://www.nmi-net.com/creamedicaux/",
    "pref": "新潟県",
    "city": "新潟市中央区",
    "category": "home_help",
    "serviceType": "訪問介護",
    "capacity": 85,
    "openDays": [
      "平日",
      "土曜日",
      "日曜日",
      "祝日"
    ],
    "openDaysNote": "ご利用者様の要望により時間外でも対応する。"
  },
  {
    "id": "1570101293",
    "name": "ヘルパーステーション　ほっと新潟",
    "kana": "ヘルパーステーション　ホットニイガタ",
    "address": "新潟県新潟市中央区附船町1丁目4417-17",
    "lat": 37.9347433,
    "lng": 139.0558407,
    "tel": "025-228-4731",
    "url": "",
    "pref": "新潟県",
    "city": "新潟市中央区",
    "category": "home_help",
    "serviceType": "訪問介護",
    "capacity": 0,
    "openDays": [
      "平日",
      "土曜日",
      "祝日"
    ],
    "openDaysNote": "営業時間外の訪問は相談に応じます。（改行）上記時間以外は携帯対応。携帯番号　090-8018-1977"
  },
  {
    "id": "1570114882",
    "name": "ヘルパーステーションあいのわ",
    "kana": "ヘルパーステーションアイノワ",
    "address": "新潟県新潟市中央区姥ヶ山１丁目３－６",
    "lat": 37.888139134542,
    "lng": 139.07260406376,
    "tel": "025-288-5708",
    "url": "http://hp.kaipoke.biz/19k/",
    "pref": "新潟県",
    "city": "新潟市中央区",
    "category": "home_help",
    "serviceType": "訪問介護",
    "capacity": 3,
    "openDays": [
      "平日",
      "土曜日",
      "日曜日",
      "祝日"
    ],
    "openDaysNote": "時間外・休日のサービス提供時間は、ご利用者様の希望に応じて365日24時間対応致します。"
  },
  {
    "id": "1570113595",
    "name": "ヘルパーステーションあたたか",
    "kana": "ヘルパーステーションアタタカ",
    "address": "新潟県新潟市中央区小張木2-16-56有料老人ホーム　はなことば新潟2号館内 有料老人ホーム　はなことば新潟2号館内",
    "lat": 37.8863879636885,
    "lng": 139.040496130688,
    "tel": "025-284-2228",
    "url": "",
    "pref": "新潟県",
    "city": "新潟市中央区",
    "category": "home_help",
    "serviceType": "訪問介護",
    "capacity": 62,
    "openDays": [
      "平日",
      "土曜日",
      "日曜日",
      "祝日"
    ],
    "openDaysNote": ""
  },
  {
    "id": "1570113835",
    "name": "ヘルパーステーションあたたか湖南",
    "kana": "ヘルパーステーションアタタカコナン",
    "address": "新潟県新潟市中央区湖南5-2有料老人ホームはなことば新潟館内 有料老人ホームはなことば新潟館内",
    "lat": 37.8784694,
    "lng": 139.0390864,
    "tel": "025-288-6500",
    "url": "",
    "pref": "新潟県",
    "city": "新潟市中央区",
    "category": "home_help",
    "serviceType": "訪問介護",
    "capacity": 1,
    "openDays": [
      "平日",
      "土曜日",
      "日曜日",
      "祝日"
    ],
    "openDaysNote": "24時間対応"
  },
  {
    "id": "1570108546",
    "name": "ヘルパーステーションじゅのーび",
    "kana": "ヘルパーステーションジュノービ",
    "address": "新潟市中央区古町通５番町５８８番地１じゅのーび じゅのーび",
    "lat": 37.9190755,
    "lng": 139.0438509,
    "tel": "025-226-8372",
    "url": "http://www.jyuno-bi-care.com",
    "pref": "新潟県",
    "city": "新潟市中央区",
    "category": "home_help",
    "serviceType": "訪問介護",
    "capacity": 1,
    "openDays": [
      "平日",
      "土曜日",
      "日曜日",
      "祝日"
    ],
    "openDaysNote": "時間外のサービスは別途ご相談ください。"
  },
  {
    "id": "1570113199",
    "name": "ヘルパーステーションたのしえ",
    "kana": "ヘルパーステーションタノシエ",
    "address": "新潟県新潟市中央区山二ツ5丁目2番11号",
    "lat": 37.8942823,
    "lng": 139.0902213,
    "tel": "025-282-5236",
    "url": "http://tanoshie.co.jp/",
    "pref": "新潟県",
    "city": "新潟市中央区",
    "category": "home_help",
    "serviceType": "訪問介護",
    "capacity": 0,
    "openDays": [
      "平日",
      "祝日"
    ],
    "openDaysNote": "営業時間外のご利用に関してはご相談ください。（改行）人員配置等で可能な場合は、対応いたします。"
  },
  {
    "id": "1570108595",
    "name": "ヘルパーステーションとやの",
    "kana": "ヘルパーステーション　トヤノ",
    "address": "新潟県新潟市中央区小張木1丁目4番5号",
    "lat": 37.8876321,
    "lng": 139.0470909,
    "tel": "025-281-6800",
    "url": "http://www.naebafukushikai.com",
    "pref": "新潟県",
    "city": "新潟市中央区",
    "category": "home_help",
    "serviceType": "訪問介護",
    "capacity": 0,
    "openDays": [
      "平日",
      "土曜日",
      "日曜日",
      "祝日"
    ],
    "openDaysNote": "サービス提供時間については、利用者の希望に応じて、24時間対応の相談をさせていただく。"
  },
  {
    "id": "1570109809",
    "name": "ヘルパーステーション和実",
    "kana": "ヘルパーステーションナゴミ",
    "address": "新潟県新潟市中央区文京町27番1号文京ドミトリー305号 文京ドミトリー305号",
    "lat": 37.9092202,
    "lng": 139.0092788,
    "tel": "025-265-3833",
    "url": "",
    "pref": "新潟県",
    "city": "新潟市中央区",
    "category": "home_help",
    "serviceType": "訪問介護",
    "capacity": 0,
    "openDays": [
      "平日"
    ],
    "openDaysNote": "利用者の希望に応じて、サービスの提供については対応可能な体制を整えるものとします。"
  },
  {
    "id": "1570114684",
    "name": "ヘルパーセンタージョイ",
    "kana": "ヘルパーセンタージョイ",
    "address": "新潟県新潟市中央区女池北1丁目15番1号しんえい館2Ｆ しんえい館2Ｆ",
    "lat": 37.895167,
    "lng": 139.0336499,
    "tel": "025-282-1007",
    "url": "http://www.welfile.co.jp",
    "pref": "新潟県",
    "city": "新潟市中央区",
    "category": "home_help",
    "serviceType": "訪問介護",
    "capacity": 40,
    "openDays": [
      "平日"
    ],
    "openDaysNote": "ご利用者の希望に応じて、24時間対応可能な体制を整えるものとする。"
  },
  {
    "id": "1570113785",
    "name": "ヘルパーセンターファースト･ステップ",
    "kana": "ヘルパーセンターファースト・ステップ",
    "address": "新潟県新潟市中央区紫竹1丁目16番6号パーソンビル2F201 パーソンビル2F201",
    "lat": 37.91011,
    "lng": 139.0761828,
    "tel": "025ｰ384ｰ4320",
    "url": "https://www.welfile.co.jp/homehelp/",
    "pref": "新潟県",
    "city": "新潟市中央区",
    "category": "home_help",
    "serviceType": "訪問介護",
    "capacity": 50,
    "openDays": [
      "平日"
    ],
    "openDaysNote": "ご利用者の希望に応じて、サービスの提供については、24時間対応可能な体制を整えるものとする。"
  },
  {
    "id": "1570109130",
    "name": "ロングライフ　介護サポート",
    "kana": "ロングライフ　カイゴサポート",
    "address": "新潟県新潟市中央区有明大橋町3番25号NIC有明ビル2階 NIC有明ビル2階",
    "lat": 37.9046776668246,
    "lng": 139.011532705102,
    "tel": "025-233-8600",
    "url": "http://www.longlife-niigata.com/",
    "pref": "新潟県",
    "city": "新潟市中央区",
    "category": "home_help",
    "serviceType": "訪問介護",
    "capacity": 0,
    "openDays": [
      "平日",
      "土曜日",
      "日曜日",
      "祝日"
    ],
    "openDaysNote": "上記以外は要相談"
  },
  {
    "id": "1570114668",
    "name": "医心館訪問介護ステーション新潟",
    "kana": "イシンカンホウモンカイゴステーションニイガタ",
    "address": "新潟県新潟市中央区女池上山2丁目13-32",
    "lat": 37.8907966728895,
    "lng": 139.028606353485,
    "tel": "025-385-7835",
    "url": "",
    "pref": "新潟県",
    "city": "新潟市中央区",
    "category": "home_help",
    "serviceType": "訪問介護",
    "capacity": 0,
    "openDays": [
      "平日",
      "土曜日",
      "日曜日",
      "祝日"
    ],
    "openDaysNote": "24時間対応"
  },
  {
    "id": "1570115293",
    "name": "医心館訪問介護ステーション新潟Ⅱ",
    "kana": "イシンカンホウモンカイゴステーションニイガタニ",
    "address": "新潟県新潟市中央区鐙西1丁目10番24号",
    "lat": 37.9021323,
    "lng": 139.065285,
    "tel": "025-385-6438",
    "url": "",
    "pref": "新潟県",
    "city": "新潟市中央区",
    "category": "home_help",
    "serviceType": "訪問介護",
    "capacity": 0,
    "openDays": [
      "平日",
      "土曜日",
      "日曜日",
      "祝日"
    ],
    "openDaysNote": "24時間対応"
  },
  {
    "id": "1570115533",
    "name": "学研ココファン新潟あぶみヘルパーセンター",
    "kana": "ガッケンココファンニイガタアブミヘルパーセンター",
    "address": "新潟県新潟市中央区鐙3丁目１０番３６号ココファン新潟あぶみ ココファン新潟あぶみ",
    "lat": 37.9050975,
    "lng": 139.0725958,
    "tel": "025-247-7890",
    "url": "https://www.cocofump.co.jp/facilities/detail/niigataabumi/",
    "pref": "新潟県",
    "city": "新潟市中央区",
    "category": "home_help",
    "serviceType": "訪問介護",
    "capacity": 0,
    "openDays": [
      "平日",
      "土曜日",
      "日曜日",
      "祝日"
    ],
    "openDaysNote": "24時間365日対応"
  },
  {
    "id": "1570115624",
    "name": "学研ココファン新潟関屋ヘルパーセンター",
    "kana": "ガッケンココファンニイガタセキヤヘルパーセンター",
    "address": "新潟県新潟市中央区有明大橋町３番３０号ココファン新潟関屋 ココファン新潟関屋",
    "lat": 37.9050424,
    "lng": 139.0119759,
    "tel": "025-232-1156",
    "url": "https://www.cocofump.co.jp/facilities/detail/niigatasekiya/",
    "pref": "新潟県",
    "city": "新潟市中央区",
    "category": "home_help",
    "serviceType": "訪問介護",
    "capacity": 0,
    "openDays": [
      "平日",
      "土曜日",
      "日曜日",
      "祝日"
    ],
    "openDaysNote": "24時間365日対応"
  },
  {
    "id": "1570115830",
    "name": "学研ココファン新潟本馬越ヘルパーセンター",
    "kana": "ガッケンココファンニイガタモトウマコシヘルパーセンター",
    "address": "新潟県新潟市中央区本馬越1丁目3番16号ココファン新潟本馬越 ココファン新潟本馬越",
    "lat": 37.9122212709063,
    "lng": 139.074111730025,
    "tel": "025-247-1031",
    "url": "https://www.cocofump.co.jp/facilities/detail/niigatamotoumakoshi/",
    "pref": "新潟県",
    "city": "新潟市中央区",
    "category": "home_help",
    "serviceType": "訪問介護",
    "capacity": 0,
    "openDays": [
      "平日",
      "土曜日",
      "日曜日",
      "祝日"
    ],
    "openDaysNote": "24時間365日対応"
  },
  {
    "id": "1570101699",
    "name": "株式会社　エヌ介護サービス　新潟センター",
    "kana": "カブシキガイシャエヌカイゴサービスニイガタセンター",
    "address": "新潟県新潟市中央区鳥屋野４６２番地２",
    "lat": 37.8870543,
    "lng": 139.0379222,
    "tel": "025-283-3126",
    "url": "https://n-kaigo.jp",
    "pref": "新潟県",
    "city": "新潟市中央区",
    "category": "home_help",
    "serviceType": "訪問介護",
    "capacity": 0,
    "openDays": [
      "平日",
      "土曜日",
      "日曜日",
      "祝日"
    ],
    "openDaysNote": "サービス提供は、365日24時間無休で提供します。但し、深夜の場合は、時間について相談することがあります。"
  },
  {
    "id": "1570102028",
    "name": "公益社団法人　新潟市シルバー人材センター",
    "kana": "コウエキシャダンホウジンニイガタシシルバージンザイセンター",
    "address": "新潟県新潟市中央区上所１丁目１１番４号",
    "lat": 37.9096821,
    "lng": 139.0416487,
    "tel": "025-241-3541",
    "url": "http://webc.sjc.ne.jp/niigatashi/index",
    "pref": "新潟県",
    "city": "新潟市中央区",
    "category": "home_help",
    "serviceType": "訪問介護",
    "capacity": 50,
    "openDays": [
      "平日"
    ],
    "openDaysNote": "利用者の希望等により上記時間以外にも対応可能な体制をとるものとする。"
  },
  {
    "id": "1570104933",
    "name": "社会福祉法人新潟市社会福祉協議会　中央区第2訪問介護センター",
    "kana": "シャカイフクシホウジン　ニイガタシシャカイフクシキョウギカイ　チュウオウクダイ2ホウモンカイゴセンター",
    "address": "新潟県新潟市中央区八千代1丁目3番1号新潟市総合福祉会館3F 新潟市総合福祉会館3F",
    "lat": 37.9133292301137,
    "lng": 139.053608249754,
    "tel": "025-248-6555",
    "url": "https://www.syakyo-niigatacity.or.jp/",
    "pref": "新潟県",
    "city": "新潟市中央区",
    "category": "home_help",
    "serviceType": "訪問介護",
    "capacity": 0,
    "openDays": [
      "平日",
      "土曜日",
      "日曜日",
      "祝日"
    ],
    "openDaysNote": "全身性障がい者で自薦ヘルパー利用者には24時間派遣可能"
  },
  {
    "id": "1570104917",
    "name": "社会福祉法人新潟市社会福祉協議会中央区訪問介護センター",
    "kana": "シャカイフクシホウジンニイガタシシャカイフクシキョウギカイチュウオウクホウモンカイゴセンター",
    "address": "新潟県新潟市中央区白山浦2丁目180番地3",
    "lat": 37.9146221132416,
    "lng": 139.029731504938,
    "tel": "025-234-0533",
    "url": "https://www.syakyo-niigatacity.or.jp",
    "pref": "新潟県",
    "city": "新潟市中央区",
    "category": "home_help",
    "serviceType": "訪問介護",
    "capacity": 0,
    "openDays": [
      "平日",
      "土曜日",
      "日曜日",
      "祝日"
    ],
    "openDaysNote": "全身性障がい者で自薦ヘルパー利用者には２４時間派遣可能"
  },
  {
    "id": "1570112233",
    "name": "出来島ケアプラザ",
    "kana": "デキジマケアプラザ",
    "address": "新潟県新潟市中央区出来島1丁目6番3号",
    "lat": 37.9003854,
    "lng": 139.0237697,
    "tel": "025-280-1565",
    "url": "http://www.ej-welfare.jp/",
    "pref": "新潟県",
    "city": "新潟市中央区",
    "category": "home_help",
    "serviceType": "訪問介護",
    "capacity": 0,
    "openDays": [
      "平日"
    ],
    "openDaysNote": "職員の配置状況によりますのでご相談ください。"
  },
  {
    "id": "1570115988",
    "name": "新潟紫竹山やわらぎ",
    "kana": "ニイガタシチクヤマヤワラギ",
    "address": "新潟県新潟市中央区紫竹山5丁目9番16号",
    "lat": 37.8994925,
    "lng": 139.0702193,
    "tel": "025-243-3600",
    "url": "http://www.sunnylife-group.co.jp",
    "pref": "新潟県",
    "city": "新潟市中央区",
    "category": "home_help",
    "serviceType": "訪問介護",
    "capacity": 0,
    "openDays": [
      "平日",
      "土曜日",
      "日曜日",
      "祝日"
    ],
    "openDaysNote": "年中無休（改行）電話等により２４時間常時連絡が可能な体制です。（改行）サービスを利用できる時間は24時間体制です。"
  },
  {
    "id": "1570106938",
    "name": "青山訪問介護ステーション",
    "kana": "アオヤマホウモンカイゴステーション",
    "address": "新潟県新潟市中央区文京町27番30号",
    "lat": 37.9088952,
    "lng": 139.0085178,
    "tel": "025-234-5311",
    "url": "http://n-nhn.com/",
    "pref": "新潟県",
    "city": "新潟市中央区",
    "category": "home_help",
    "serviceType": "訪問介護",
    "capacity": 0,
    "openDays": [
      "平日",
      "土曜日",
      "日曜日",
      "祝日"
    ],
    "openDaysNote": "365日　24時間"
  },
  {
    "id": "1570114262",
    "name": "長潟スワンの里",
    "kana": "ナガタスワンノサト",
    "address": "新潟県新潟市中央区長潟856番地長潟スワンの里分室 長潟スワンの里分室",
    "lat": 37.887041,
    "lng": 139.0706866,
    "tel": "025-290-7706",
    "url": "https://swan-partners.com/",
    "pref": "新潟県",
    "city": "新潟市中央区",
    "category": "home_help",
    "serviceType": "訪問介護",
    "capacity": 0,
    "openDays": [
      "平日"
    ],
    "openDaysNote": "時間外・休日のサービス提供時間は、利用者の希望に応じて365日24時間対応致します。"
  },
  {
    "id": "1570116127",
    "name": "浜浦みどり訪問介護ステーション",
    "kana": "ハマウラミドリホウモンカイゴステーション",
    "address": "新潟県新潟市中央区浜浦町２丁目47番地2",
    "lat": 37.9088282,
    "lng": 139.0066008,
    "tel": "025-231-3555",
    "url": "https://www.hamaura-club.com",
    "pref": "新潟県",
    "city": "新潟市中央区",
    "category": "home_help",
    "serviceType": "訪問介護",
    "capacity": 0,
    "openDays": [
      "平日",
      "土曜日",
      "日曜日",
      "祝日"
    ],
    "openDaysNote": "利用者の希望に応じて365日24時間対応しています。"
  },
  {
    "id": "1570106458",
    "name": "訪問介護ステーションて～あん中央",
    "kana": "ホウモンカイゴステーションテ～アンチュウオウ",
    "address": "新潟県新潟市中央区礎町通５ノ町２２６４高政ビル３Ｆ 高政ビル３Ｆ",
    "lat": 37.9238731160472,
    "lng": 139.052667284656,
    "tel": "025-201-9188",
    "url": "",
    "pref": "新潟県",
    "city": "新潟市中央区",
    "category": "home_help",
    "serviceType": "訪問介護",
    "capacity": 0,
    "openDays": [
      "平日",
      "土曜日",
      "日曜日",
      "祝日"
    ],
    "openDaysNote": "サービス時間につきましては利用者様の希望により相談に応じさせて頂きます。"
  },
  {
    "id": "1570113348",
    "name": "訪問介護ステーションねこの手",
    "kana": "ホウモンカイゴステーションネコノテ",
    "address": "新潟県新潟市中央区弁天橋通1丁目36番17号",
    "lat": 37.8945940247653,
    "lng": 139.072194839299,
    "tel": "025-287-5130",
    "url": "",
    "pref": "新潟県",
    "city": "新潟市中央区",
    "category": "home_help",
    "serviceType": "訪問介護",
    "capacity": 30,
    "openDays": [
      "平日",
      "土曜日",
      "日曜日",
      "祝日"
    ],
    "openDaysNote": "時間外・休日のサービス提供は希望に応じて２４時間３６５日対応する。"
  },
  {
    "id": "1570115228",
    "name": "訪問介護ステーション心音",
    "kana": "ホウモンカイゴステーションココネ",
    "address": "新潟県新潟市中央区弁天橋通１丁目16番9号コーポM1階 コーポM1階",
    "lat": 37.8947319,
    "lng": 139.0705394,
    "tel": "025-288-6006",
    "url": "http://hp.kaipoke.biz/d61/index.html",
    "pref": "新潟県",
    "city": "新潟市中央区",
    "category": "home_help",
    "serviceType": "訪問介護",
    "capacity": 30,
    "openDays": [
      "平日",
      "土曜日"
    ],
    "openDaysNote": "ご利用者様の希望に応じて、24時間対応可能な体制を整えます。"
  },
  {
    "id": "1570101343",
    "name": "有限会社　愛冨岡看護婦ケアホームヘルパー紹介所",
    "kana": "ユウゲンガイシャ　アイトミオカカンゴフケアホームヘルパーショウカイジョ",
    "address": "新潟県新潟市中央区幸町12番11号",
    "lat": 37.9077717979008,
    "lng": 139.046556690178,
    "tel": "025-247-5014",
    "url": "https://i-tomioka.amebaownd.com/",
    "pref": "新潟県",
    "city": "新潟市中央区",
    "category": "home_help",
    "serviceType": "訪問介護",
    "capacity": 80,
    "openDays": [
      "平日",
      "土曜日",
      "日曜日",
      "祝日"
    ],
    "openDaysNote": "上記時間以外でも人員が手配できれば対応致します。"
  },
  {
    "id": "1570107423",
    "name": "萬代やすらぎ　ヘルパーステーション",
    "kana": "バンダイヤスラギ　ヘルパーステーション",
    "address": "新潟県新潟市中央区東大通1-8-10",
    "lat": 37.9156693481948,
    "lng": 139.062915987838,
    "tel": "025-249-8111",
    "url": "http://www.niigata-jikeikai.jp",
    "pref": "新潟県",
    "city": "新潟市中央区",
    "category": "home_help",
    "serviceType": "訪問介護",
    "capacity": 0,
    "openDays": [
      "平日",
      "土曜日",
      "日曜日",
      "祝日"
    ],
    "openDaysNote": "利用時間外のサービス提供については、応相談。"
  },
  {
    "id": "1570114403",
    "name": "ＳＯＭＰＯケア　新潟　訪問介護",
    "kana": "ソンポケアニイガタホウモンカイゴ",
    "address": "新潟県新潟市東区紫竹5丁目26番1号２Ｆ",
    "lat": 37.9062192811367,
    "lng": 139.081241835283,
    "tel": "025-240-4030",
    "url": "https://www.sompocare.com",
    "pref": "新潟県",
    "city": "新潟市東区",
    "category": "home_help",
    "serviceType": "訪問介護",
    "capacity": 0,
    "openDays": [
      "平日",
      "土曜日",
      "日曜日",
      "祝日"
    ],
    "openDaysNote": "原則として居宅サービス計画に基づくものとします"
  },
  {
    "id": "1570115608",
    "name": "ケアサポートＳＫＹ",
    "kana": "ケアサポートスカイ",
    "address": "新潟県新潟市東区東明8丁目1番23号メゾン東山104号 メゾン東山104号",
    "lat": 37.8983648,
    "lng": 139.0848085,
    "tel": "025-278-8975",
    "url": "",
    "pref": "新潟県",
    "city": "新潟市東区",
    "category": "home_help",
    "serviceType": "訪問介護",
    "capacity": 10,
    "openDays": [
      "平日",
      "土曜日",
      "祝日"
    ],
    "openDaysNote": "平日のサービス提供時間に関しては、相談可能"
  },
  {
    "id": "1570115970",
    "name": "ご近所ホーム山木戸",
    "kana": "ゴキンジョホームヤマキド",
    "address": "新潟県新潟市東区山木戸5丁目11番4号",
    "lat": 37.9188645,
    "lng": 139.0875305,
    "tel": "025-250-1240",
    "url": "https://yamakido.gokinjo-home.jp",
    "pref": "新潟県",
    "city": "新潟市東区",
    "category": "home_help",
    "serviceType": "訪問介護",
    "capacity": 0,
    "openDays": [
      "平日",
      "土曜日",
      "日曜日",
      "祝日"
    ],
    "openDaysNote": "24時間，365日体制で介護（及び看護）サービスを提供します。"
  },
  {
    "id": "1570100527",
    "name": "セコムケアセンター新潟",
    "kana": "セコムケアセンターニイガタ",
    "address": "新潟県新潟市東区秋葉１丁目１番１５号",
    "lat": 37.9400278252014,
    "lng": 139.079337959383,
    "tel": "025-250-0211",
    "url": "",
    "pref": "新潟県",
    "city": "新潟市東区",
    "category": "home_help",
    "serviceType": "訪問介護",
    "capacity": 250,
    "openDays": [
      "平日",
      "土曜日",
      "日曜日",
      "祝日"
    ],
    "openDaysNote": "サービス提供については、利用者の希望に応じて、可能な範囲で対応致します。"
  },
  {
    "id": "1570102218",
    "name": "ツクイ新潟山木戸東",
    "kana": "ツクイニイガタヤマキドヒガシ",
    "address": "新潟県新潟市東区山木戸4丁目12番32号",
    "lat": 37.9219077,
    "lng": 139.0857974,
    "tel": "025-250-8680",
    "url": "http://www.tsukui.net",
    "pref": "新潟県",
    "city": "新潟市東区",
    "category": "home_help",
    "serviceType": "訪問介護",
    "capacity": 0,
    "openDays": [
      "平日",
      "土曜日",
      "日曜日",
      "祝日"
    ],
    "openDaysNote": ""
  },
  {
    "id": "1570102523",
    "name": "テクノワークス訪問介護",
    "kana": "テクノワークスホウモンカイゴ",
    "address": "新潟市東区下木戸２丁目１５番７号２",
    "lat": 37.9266046365664,
    "lng": 139.094082295716,
    "tel": "025-385-6804",
    "url": "http://www.technoworks.biz/",
    "pref": "新潟県",
    "city": "新潟市東区",
    "category": "home_help",
    "serviceType": "訪問介護",
    "capacity": 0,
    "openDays": [
      "平日",
      "土曜日",
      "日曜日",
      "祝日"
    ],
    "openDaysNote": "利用者の状況により、休日においてもサービス対応は可能です。"
  },
  {
    "id": "1570115251",
    "name": "ニチイケアセンター花かいどう",
    "kana": "ニチイケアセンターハナカイドウ",
    "address": "新潟県新潟市東区空港西１丁目４番２０号",
    "lat": 37.9470201329976,
    "lng": 139.09361192209,
    "tel": "025-279-4711",
    "url": "http://www.nichiigakkan.co.jp",
    "pref": "新潟県",
    "city": "新潟市東区",
    "category": "home_help",
    "serviceType": "訪問介護",
    "capacity": null,
    "openDays": [
      "平日",
      "土曜日",
      "日曜日",
      "祝日"
    ],
    "openDaysNote": "ただし、居宅サービス計画により、営業時間以外でも、サービス提供を行う場合がある。"
  },
  {
    "id": "1570115335",
    "name": "はあとふるあたご訪問介護ステーション新潟東",
    "kana": "ハアトフルアタゴホウモンカイゴステーションニイガタヒガシ",
    "address": "新潟県新潟市東区木工新町1066番地1新潟光商事ビル2階 新潟光商事ビル2階",
    "lat": 37.9350759,
    "lng": 139.1260366,
    "tel": "025-250-5919",
    "url": "https://heartfull.jp/facility/houmon_kaigo_niigatahigashi",
    "pref": "新潟県",
    "city": "新潟市東区",
    "category": "home_help",
    "serviceType": "訪問介護",
    "capacity": 90,
    "openDays": [
      "平日",
      "土曜日",
      "日曜日",
      "祝日"
    ],
    "openDaysNote": "お盆お正月祝祭日　訪問時間の変更や曜日の変更をお願いすることがあります。（改行）ご希望の訪問時間に稼働人員が揃わない場合ご相談をお願いすることがあります。"
  },
  {
    "id": "1570108850",
    "name": "ヘルパーステーション　杜",
    "kana": "ヘルパーステーション　モリ",
    "address": "新潟県新潟市東区中野山４－８－２５",
    "lat": 37.9021740072496,
    "lng": 139.101443486508,
    "tel": "025-278-7177",
    "url": "",
    "pref": "新潟県",
    "city": "新潟市東区",
    "category": "home_help",
    "serviceType": "訪問介護",
    "capacity": 0,
    "openDays": [
      "平日",
      "土曜日",
      "日曜日",
      "祝日"
    ],
    "openDaysNote": "ただしサービスの提供時間については、利用者様の御希望に応じます。"
  },
  {
    "id": "1570115277",
    "name": "ヘルパーステーションルアナ",
    "kana": "ヘルパーステーションルアナ",
    "address": "新潟県新潟市東区逢谷内４丁目２番２号",
    "lat": 37.9221068146636,
    "lng": 139.11617863684,
    "tel": "025-278-7540",
    "url": "http://sunlife-mai.co.jp",
    "pref": "新潟県",
    "city": "新潟市東区",
    "category": "home_help",
    "serviceType": "訪問介護",
    "capacity": 0,
    "openDays": [
      "平日",
      "土曜日",
      "日曜日",
      "祝日"
    ],
    "openDaysNote": "利用者の希望に応じて24時間対応可能です。"
  },
  {
    "id": "1570107167",
    "name": "ヘルパーステーション河渡の郷",
    "kana": "ヘルパーステーションコウドノサト",
    "address": "新潟県新潟市東区河渡2丁目4番65号",
    "lat": 37.9364232,
    "lng": 139.098662,
    "tel": "025-270-1471",
    "url": "http://www.koudonosato.or.jp",
    "pref": "新潟県",
    "city": "新潟市東区",
    "category": "home_help",
    "serviceType": "訪問介護",
    "capacity": 0,
    "openDays": [
      "平日",
      "土曜日",
      "日曜日",
      "祝日"
    ],
    "openDaysNote": "ご家族等の希望により延長・早朝・夜間対応あり"
  },
  {
    "id": "1570113983",
    "name": "ヘルパーステーション守庵良寛上木戸",
    "kana": "ヘルパーステーションマモリアンリョウカンカミキド",
    "address": "新潟県新潟市東区上木戸3丁目3番24号",
    "lat": 37.9233356,
    "lng": 139.1023932,
    "tel": "025-278-3935",
    "url": "http://niigata-fukushi.com",
    "pref": "新潟県",
    "city": "新潟市東区",
    "category": "home_help",
    "serviceType": "訪問介護",
    "capacity": 0,
    "openDays": [
      "平日",
      "土曜日",
      "日曜日",
      "祝日"
    ],
    "openDaysNote": "時間外のサービス提供は、利用者の希望に応じて365日24時間対応する。"
  },
  {
    "id": "1570115590",
    "name": "ヘルパーセンターハーツ",
    "kana": "ヘルパーセンターハーツ",
    "address": "新潟県新潟市東区船江町2丁目23番22号",
    "lat": 37.9538260872882,
    "lng": 139.104645779762,
    "tel": "025-384-0286",
    "url": "https://www.welfile.co.jp/homehelp/",
    "pref": "新潟県",
    "city": "新潟市東区",
    "category": "home_help",
    "serviceType": "訪問介護",
    "capacity": 0,
    "openDays": [
      "平日",
      "土曜日",
      "日曜日",
      "祝日"
    ],
    "openDaysNote": "ご利用者の希望に応じて、サービスの提供については、365日24時間対応可能な体制を整えるものとする。"
  },
  {
    "id": "1570115772",
    "name": "ヘルパーセンターリ･バース",
    "kana": "ヘルパーセンターリ・バース",
    "address": "新潟県新潟市東区中山3丁目7番9号",
    "lat": 37.9178882479221,
    "lng": 139.087489193254,
    "tel": "025-250-6798",
    "url": "https://www.welfile.co.jp/homehelp/",
    "pref": "新潟県",
    "city": "新潟市東区",
    "category": "home_help",
    "serviceType": "訪問介護",
    "capacity": 0,
    "openDays": [
      "平日"
    ],
    "openDaysNote": "ご利用者の希望に応じて、サービスの提供については、365日24時間対応可能な体制を整えるものとする。"
  },
  {
    "id": "1570114809",
    "name": "ホームケアサポート　GROW",
    "kana": "ホームケアサポート　グロウ",
    "address": "新潟県新潟市東区竹尾２丁目１番１５号",
    "lat": 37.9120863582612,
    "lng": 139.087962250926,
    "tel": "025ｰ256ｰ8469",
    "url": "http://www.rakuda-grow.com",
    "pref": "新潟県",
    "city": "新潟市東区",
    "category": "home_help",
    "serviceType": "訪問介護",
    "capacity": 20,
    "openDays": [
      "平日",
      "土曜日",
      "祝日"
    ],
    "openDaysNote": "時間外のサービス提供については、利用者の希望に応じて対応いたします。"
  },
  {
    "id": "1570115798",
    "name": "ホームヘルプ春日和新潟東",
    "kana": "ホームヘルプハルビヨリニイガタヒガシ",
    "address": "新潟県新潟市東区津島屋3丁目193番地1ワールドステイ津島屋内 ワールドステイ津島屋内",
    "lat": 37.9420591403871,
    "lng": 139.129185296017,
    "tel": "025-275-5587",
    "url": "https://www.worldstay.jp/list/kanto/",
    "pref": "新潟県",
    "city": "新潟市東区",
    "category": "home_help",
    "serviceType": "訪問介護",
    "capacity": 0,
    "openDays": [
      "平日",
      "土曜日",
      "日曜日",
      "祝日"
    ],
    "openDaysNote": "サービスの提供については、24時間365日対応可能な体制を整えるものとします。"
  },
  {
    "id": "1570103190",
    "name": "まごころ介護支援センター木戸",
    "kana": "マゴコロカイゴシエンセンターキド",
    "address": "新潟県新潟市東区上木戸４－７－１１",
    "lat": 37.9185943,
    "lng": 139.101613,
    "tel": "025-384-0238",
    "url": "",
    "pref": "新潟県",
    "city": "新潟市東区",
    "category": "home_help",
    "serviceType": "訪問介護",
    "capacity": 0,
    "openDays": [
      "平日",
      "土曜日",
      "日曜日",
      "祝日"
    ],
    "openDaysNote": "事業所の営業時間外のサービスは事前相談させていただきます。"
  },
  {
    "id": "1570116416",
    "name": "ユースタイルケア新潟東センター",
    "kana": "ユースタイルケアニイガタヒガシセンター",
    "address": "新潟県新潟市東区船江町１丁目４２番２２号光ハイツFUNAE　１階 光ハイツFUNAE　１階",
    "lat": 37.9514703,
    "lng": 139.0988195,
    "tel": "025-212-9432",
    "url": "",
    "pref": "新潟県",
    "city": "新潟市東区",
    "category": "home_help",
    "serviceType": "訪問介護",
    "capacity": null,
    "openDays": [
      "平日"
    ],
    "openDaysNote": ""
  },
  {
    "id": "1570115822",
    "name": "医心館訪問介護ステーション新潟Ⅲ",
    "kana": "イシンカンホウモンカイゴステーションニイガタサン",
    "address": "新潟県新潟市東区はなみずき３丁目１番２３号",
    "lat": 37.9140834,
    "lng": 139.1011316,
    "tel": "025-385-7825",
    "url": "",
    "pref": "新潟県",
    "city": "新潟市東区",
    "category": "home_help",
    "serviceType": "訪問介護",
    "capacity": 0,
    "openDays": [
      "平日",
      "土曜日",
      "日曜日",
      "祝日"
    ],
    "openDaysNote": "24時間対応"
  },
  {
    "id": "1570116481",
    "name": "介護・福祉事業所　KIZUNA",
    "kana": "カイゴ・フクシジギョウショキズナ",
    "address": "新潟県新潟市東区粟山４丁目３番８号",
    "lat": 37.8991150758873,
    "lng": 139.10181730685,
    "tel": "025-250-7673",
    "url": "",
    "pref": "新潟県",
    "city": "新潟市東区",
    "category": "home_help",
    "serviceType": "訪問介護",
    "capacity": 0,
    "openDays": [
      "平日"
    ],
    "openDaysNote": "利用者の要望に留意してサ－ビスに努める、又利用者の信頼を損寝ないよう品質及び謝罪にも留意する。"
  },
  {
    "id": "1570115384",
    "name": "学研ココファン新潟東ヘルパーセンター",
    "kana": "ガッケンココファンニイガタヒガシヘルパーセンター",
    "address": "新潟県新潟市東区牡丹山2丁目1番3号ココファン新潟東 ココファン新潟東",
    "lat": 37.9185889,
    "lng": 139.0896272,
    "tel": "025-270-8177",
    "url": "https://www.cocofump.co.jp/facilities/detail/niigatahigashi/",
    "pref": "新潟県",
    "city": "新潟市東区",
    "category": "home_help",
    "serviceType": "訪問介護",
    "capacity": 0,
    "openDays": [
      "平日",
      "土曜日",
      "日曜日",
      "祝日"
    ],
    "openDaysNote": "24時間365日対応"
  },
  {
    "id": "1570107415",
    "name": "株式会社　エヌ介護サービス　新潟東センター",
    "kana": "カブシキガイシャエヌカイゴサービスニイガタヒガシセンター",
    "address": "新潟県新潟市東区太平3丁目１４番地１１",
    "lat": 37.94482042392,
    "lng": 139.113229876335,
    "tel": "025-274-1801",
    "url": "https://n-kaigo.jp",
    "pref": "新潟県",
    "city": "新潟市東区",
    "category": "home_help",
    "serviceType": "訪問介護",
    "capacity": 0,
    "openDays": [
      "平日",
      "土曜日",
      "日曜日",
      "祝日"
    ],
    "openDaysNote": "サービスは３６５日、２４時間提供します。但し、深夜、早朝夜間の時間帯については、訪問介護員等の配置等の都合上、時間について相談することがあります。"
  },
  {
    "id": "1570104941",
    "name": "社会福祉法人　新潟市社会福祉協議会　東区訪問介護センター",
    "kana": "シャカイフクシホウジン　ニイガタシシャカイフクシキョウギカイ　ヒガシクホウモンカイゴセンター",
    "address": "新潟県新潟市東区下木戸1丁目4番1号東区役所内 東区役所内",
    "lat": 37.9249935,
    "lng": 139.0926966,
    "tel": "025-272-1754",
    "url": "https：//www.syakyo-niigatacity.or.jp/",
    "pref": "新潟県",
    "city": "新潟市東区",
    "category": "home_help",
    "serviceType": "訪問介護",
    "capacity": 0,
    "openDays": [
      "平日",
      "土曜日",
      "日曜日",
      "祝日"
    ],
    "openDaysNote": "全身障がい者で、自薦ヘルパー利用者は24時間派遣可能"
  },
  {
    "id": "1570114676",
    "name": "清篤苑ケアセンター",
    "kana": "セイトクエンケアセンター",
    "address": "新潟県新潟市東区秋葉１丁目１９番３号",
    "lat": 37.9386806,
    "lng": 139.0807744,
    "tel": "025-278-3001",
    "url": "",
    "pref": "新潟県",
    "city": "新潟市東区",
    "category": "home_help",
    "serviceType": "訪問介護",
    "capacity": 0,
    "openDays": [
      "平日",
      "土曜日",
      "日曜日",
      "祝日"
    ],
    "openDaysNote": ""
  },
  {
    "id": "1570115897",
    "name": "特定非営利活動法人いいすまいる",
    "kana": "トクテイヒエイリカツドウホウジンイイスマイル",
    "address": "新潟県新潟市東区上木戸２丁目７番１３号",
    "lat": 37.9238757,
    "lng": 139.1064794,
    "tel": "025-364-1890",
    "url": "",
    "pref": "新潟県",
    "city": "新潟市東区",
    "category": "home_help",
    "serviceType": "訪問介護",
    "capacity": 0,
    "openDays": [
      "平日",
      "土曜日",
      "日曜日",
      "祝日"
    ],
    "openDaysNote": "利用者の希望に応じて３６５日２４時間対応"
  },
  {
    "id": "1570111490",
    "name": "訪問介護センターなじょも",
    "kana": "ホウモンカイゴセンターナジョモ",
    "address": "新潟県新潟市東区上木戸5-2-1",
    "lat": 37.920370273151,
    "lng": 139.103216041139,
    "tel": "025-250-6483",
    "url": "http://najomo.iryo-coop.com",
    "pref": "新潟県",
    "city": "新潟市東区",
    "category": "home_help",
    "serviceType": "訪問介護",
    "capacity": 0,
    "openDays": [
      "平日",
      "土曜日",
      "日曜日",
      "祝日"
    ],
    "openDaysNote": "担当者会議等で必要と認められれば、上記時間以外でもサービス提供をできる限り致します。"
  },
  {
    "id": "1570115723",
    "name": "訪問介護事業所ケアププ新潟東",
    "kana": "ホウモンカイゴジギョウショケアププニイガタヒガシ",
    "address": "新潟県新潟市東区寺山２丁目１３番５号メンバーズタウンカーメルⅡC204 メンバーズタウンカーメルⅡC204",
    "lat": 37.920791958907,
    "lng": 139.110150067598,
    "tel": "025-250-0601",
    "url": "https://carevanguard.biz/",
    "pref": "新潟県",
    "city": "新潟市東区",
    "category": "home_help",
    "serviceType": "訪問介護",
    "capacity": 0,
    "openDays": [
      "平日"
    ],
    "openDaysNote": "ご利用のニーズに合わせ、曜日や時間などご相談ください。（改行）※利用者の希望に応じて24時間365日対応可能です"
  },
  {
    "id": "1570116473",
    "name": "訪問介護事業所章医館",
    "kana": "ホウモンカイゴジギョウショショウイカン",
    "address": "新潟県新潟市東区中野山4丁目9番20号サービス付き高齢者向け住宅章医館 サービス付き高齢者向け住宅章医館",
    "lat": 37.9027238,
    "lng": 139.1023925,
    "tel": "025-257-2033",
    "url": "",
    "pref": "新潟県",
    "city": "新潟市東区",
    "category": "home_help",
    "serviceType": "訪問介護",
    "capacity": null,
    "openDays": [
      "平日",
      "土曜日",
      "日曜日",
      "祝日"
    ],
    "openDaysNote": "希望により24時間365日対応可"
  },
  {
    "id": "1570101897",
    "name": "有限会社きゃすと",
    "kana": "ユウゲンガイシャ　キャスト",
    "address": "新潟県新潟市東区有楽２－３－２",
    "lat": 37.9385983,
    "lng": 139.1080864,
    "tel": "025-271-1777",
    "url": "",
    "pref": "新潟県",
    "city": "新潟市東区",
    "category": "home_help",
    "serviceType": "訪問介護",
    "capacity": 0,
    "openDays": [
      "平日",
      "土曜日",
      "日曜日",
      "祝日"
    ],
    "openDaysNote": "上記以外の時間につきましては可能な限りご利用者の意向に合わせ対応する。"
  },
  {
    "id": "1570115079",
    "name": "ニチイケアセンターこがね",
    "kana": "ニチイケアセンターコガネ",
    "address": "新潟県新潟市南区大通黄金3丁目1-18-201号",
    "lat": 37.8251609,
    "lng": 139.0197114,
    "tel": "025-362-0017",
    "url": "https://www.nichiigakkan.co.jp/",
    "pref": "新潟県",
    "city": "新潟市南区",
    "category": "home_help",
    "serviceType": "訪問介護",
    "capacity": 0,
    "openDays": [
      "平日",
      "土曜日",
      "日曜日",
      "祝日"
    ],
    "openDaysNote": "居宅サービス計画により、休業日及び営業時間外であってもサービスを提供する場合があります。"
  },
  {
    "id": "1570110427",
    "name": "ニチイケアセンターしろね",
    "kana": "ニチイケアセンターシロネ",
    "address": "新潟県新潟市南区親和町4-23",
    "lat": 37.7672233,
    "lng": 139.018991,
    "tel": "025-371-5122",
    "url": "http://www.nichiigakkan.co.jp/service/care/",
    "pref": "新潟県",
    "city": "新潟市南区",
    "category": "home_help",
    "serviceType": "訪問介護",
    "capacity": 3,
    "openDays": [
      "平日",
      "土曜日",
      "日曜日",
      "祝日"
    ],
    "openDaysNote": ""
  },
  {
    "id": "1570111664",
    "name": "ヘルパーステーション十季のあかり白根",
    "kana": "ヘルパーステーショントキノアカリシロネ",
    "address": "新潟県新潟市南区下塩俵855-1住宅型有料老人ホーム十季のあかり白根 住宅型有料老人ホーム十季のあかり白根",
    "lat": 37.840342923645,
    "lng": 139.017588431244,
    "tel": "025-378-4165",
    "url": "http://careswitch.jp/",
    "pref": "新潟県",
    "city": "新潟市南区",
    "category": "home_help",
    "serviceType": "訪問介護",
    "capacity": 22,
    "openDays": [
      "平日",
      "土曜日",
      "日曜日",
      "祝日"
    ],
    "openDaysNote": "サービス提供は、利用者の希望に応じ365日24時間対応とする。"
  },
  {
    "id": "1570103471",
    "name": "ヘルパーステーション翠風園",
    "kana": "ヘルパーステーション　スイフウエン",
    "address": "新潟県新潟市南区高井東2丁目13番33号",
    "lat": 37.799838,
    "lng": 139.0182123,
    "tel": "025-362-7600",
    "url": "http://www.suifuuen.jp/",
    "pref": "新潟県",
    "city": "新潟市南区",
    "category": "home_help",
    "serviceType": "訪問介護",
    "capacity": 0,
    "openDays": [
      "平日",
      "祝日"
    ],
    "openDaysNote": "但し12月29日.30日.31日.1月1日.2日.3日は原則として休みます。（改行）（どうしても困る方には相談に応じます。）（改行）土・日のサービス提供は、利用者の希望に応じて対応します。"
  },
  {
    "id": "1570115681",
    "name": "ホームヘルプ春日和新潟南",
    "kana": "ホームヘルプハルビヨリニイガタミナミ",
    "address": "新潟県新潟市南区白根1219番地2",
    "lat": 37.7643275,
    "lng": 139.0187559,
    "tel": "025-201-7086",
    "url": "https://www.worldstay.jp/",
    "pref": "新潟県",
    "city": "新潟市南区",
    "category": "home_help",
    "serviceType": "訪問介護",
    "capacity": null,
    "openDays": [
      "平日",
      "土曜日",
      "日曜日",
      "祝日"
    ],
    "openDaysNote": "利用者の希望に応じて、サービスの提供については、24時間365日対応可能な体制を整えるものとします。"
  },
  {
    "id": "1570112241",
    "name": "訪問介護オードリー",
    "kana": "ホウモンカイゴオードリー",
    "address": "新潟県新潟市南区大通黄金７丁目１４番地１４訪問介護オードリー 訪問介護オードリー",
    "lat": 37.8205944,
    "lng": 139.0209775,
    "tel": "０２５－２０１－８６２７",
    "url": "http://yashiroaudrey.web.fc2.com/",
    "pref": "新潟県",
    "city": "新潟市南区",
    "category": "home_help",
    "serviceType": "訪問介護",
    "capacity": 0,
    "openDays": [
      "平日",
      "土曜日",
      "日曜日",
      "祝日"
    ],
    "openDaysNote": "時間外・休日のサービス提供は、利用者の希望に応じて対応する。"
  },
  {
    "id": "1570115632",
    "name": "訪問介護ねんりん",
    "kana": "ホウモンカイゴネンリン",
    "address": "新潟県新潟市南区戸石1081番地７グリーンハイツ6号棟102号室 グリーンハイツ6号棟102号室",
    "lat": 37.7510618,
    "lng": 139.0554434,
    "tel": "025-378-4718",
    "url": "",
    "pref": "新潟県",
    "city": "新潟市南区",
    "category": "home_help",
    "serviceType": "訪問介護",
    "capacity": 0,
    "openDays": [
      "平日",
      "土曜日",
      "祝日"
    ],
    "openDaysNote": ""
  },
  {
    "id": "1570115780",
    "name": "けあビジョンホーム新潟太郎代訪問介護",
    "kana": "ケアビジョンホームニイガタタロウダイホウモンカイゴ",
    "address": "新潟県新潟市北区太郎代2874-3",
    "lat": 37.9791459634571,
    "lng": 139.2178482059,
    "tel": "025-278-6060",
    "url": "",
    "pref": "新潟県",
    "city": "新潟市北区",
    "category": "home_help",
    "serviceType": "訪問介護",
    "capacity": 0,
    "openDays": [
      "平日",
      "土曜日",
      "日曜日",
      "祝日"
    ],
    "openDaysNote": "時間外でも対応可能です。但し、深夜帯に関しては対応できない場合があります。"
  },
  {
    "id": "1570115202",
    "name": "はーと+ぷらす",
    "kana": "ハートプラス",
    "address": "新潟県新潟市北区木崎603番地1",
    "lat": 37.9351288,
    "lng": 139.1856324,
    "tel": "025-288-5063",
    "url": "https://revactive.co.jp",
    "pref": "新潟県",
    "city": "新潟市北区",
    "category": "home_help",
    "serviceType": "訪問介護",
    "capacity": 0,
    "openDays": [
      "平日",
      "土曜日",
      "日曜日",
      "祝日"
    ],
    "openDaysNote": "24時間対応可能"
  },
  {
    "id": "1570103497",
    "name": "ヘルパーステーション　おやま",
    "kana": "ヘルパーステーション　オヤマ",
    "address": "新潟県新潟市北区木崎1811-3",
    "lat": 37.9322299,
    "lng": 139.1729896,
    "tel": "025-388-2555",
    "url": "http://www.aiko.or.jp",
    "pref": "新潟県",
    "city": "新潟市北区",
    "category": "home_help",
    "serviceType": "訪問介護",
    "capacity": 0,
    "openDays": [
      "平日",
      "土曜日",
      "日曜日",
      "祝日"
    ],
    "openDaysNote": "上記以外の時間も必要に応じて訪問いたします。"
  },
  {
    "id": "1570114643",
    "name": "ヘルパーステーション五郎右衛門ノ家",
    "kana": "ヘルパーステーションゴロウエモンノイエ",
    "address": "新潟県新潟市北区松浜東町２－１０－１５",
    "lat": 37.9544167,
    "lng": 139.1528929,
    "tel": "０２５－３８４－８０８６",
    "url": "https://www.gorouemonnoie.com/",
    "pref": "新潟県",
    "city": "新潟市北区",
    "category": "home_help",
    "serviceType": "訪問介護",
    "capacity": 13,
    "openDays": [
      "平日",
      "土曜日",
      "日曜日",
      "祝日"
    ],
    "openDaysNote": "早朝深夜割増あり、早朝・深夜はサ高住住居者に限る。（改行）緊急時は別対応あり。"
  },
  {
    "id": "1570106953",
    "name": "株式会社　ねむの木介護支援センター",
    "kana": "カブシキガイシャ　ネムノキカイゴシエンセンター",
    "address": "新潟県新潟市北区嘉山5丁目2番12号",
    "lat": 37.9061105,
    "lng": 139.2205096,
    "tel": "025-387-3188",
    "url": "",
    "pref": "新潟県",
    "city": "新潟市北区",
    "category": "home_help",
    "serviceType": "訪問介護",
    "capacity": 0,
    "openDays": [
      "平日",
      "土曜日",
      "日曜日",
      "祝日"
    ],
    "openDaysNote": "365日24時間体制でサービスを行っています。"
  },
  {
    "id": "1570105021",
    "name": "社会福祉法人新潟市社会福祉協議会　北区訪問介護センター",
    "kana": "シャカイフクシホウジンニイガタシシャカイフクシキョウギカイ　キタクホウモンカイゴセンター",
    "address": "新潟県新潟市北区東栄町１丁目１番３５号",
    "lat": 37.9140408,
    "lng": 139.2211382,
    "tel": "025-384-6699",
    "url": "https://www.syakyo-niigatacity.or.jp",
    "pref": "新潟県",
    "city": "新潟市北区",
    "category": "home_help",
    "serviceType": "訪問介護",
    "capacity": 0,
    "openDays": [
      "平日",
      "土曜日",
      "日曜日",
      "祝日"
    ],
    "openDaysNote": ""
  },
  {
    "id": "1570114585",
    "name": "訪問介護しあわせ",
    "kana": "ホウモンカイゴシアワセ",
    "address": "新潟県新潟市北区松浜みなと42番37号",
    "lat": 37.9613904752201,
    "lng": 139.139724414611,
    "tel": "025-369-5125",
    "url": "",
    "pref": "新潟県",
    "city": "新潟市北区",
    "category": "home_help",
    "serviceType": "訪問介護",
    "capacity": 0,
    "openDays": [
      "平日",
      "土曜日",
      "日曜日",
      "祝日"
    ],
    "openDaysNote": "利用者さんの希望に応じて365日24時間対応する"
  },
  {
    "id": "1570110377",
    "name": "訪問介護セカンドライフ",
    "kana": "ホウモンカイゴセカンドライフ",
    "address": "新潟県新潟市北区松浜東町１丁目１０番３３",
    "lat": 37.9519256684441,
    "lng": 139.153037864073,
    "tel": "025-288-1088",
    "url": "",
    "pref": "新潟県",
    "city": "新潟市北区",
    "category": "home_help",
    "serviceType": "訪問介護",
    "capacity": 0,
    "openDays": [
      "平日"
    ],
    "openDaysNote": "利用者の希望に応じて、サービスの提供については、長時間対応可能な体制を整えるものとする"
  },
  {
    "id": "1570107704",
    "name": "訪問介護事業所なでしこケアセンター",
    "kana": "ホウモンカイゴジギョウショナデシコケアセンター",
    "address": "新潟県新潟市北区北陽2丁目770-72",
    "lat": 37.9429027932282,
    "lng": 139.186404762427,
    "tel": "025-387-0010",
    "url": "http://www.hirose-kaigo.com/",
    "pref": "新潟県",
    "city": "新潟市北区",
    "category": "home_help",
    "serviceType": "訪問介護",
    "capacity": 0,
    "openDays": [
      "平日",
      "土曜日",
      "日曜日",
      "祝日"
    ],
    "openDaysNote": "24時間対応"
  },
  {
    "id": "1570101996",
    "name": "有限会社　まごころ介護支援センター",
    "kana": "ユウゲンカイシャ　マゴコロカイゴシエンセンター",
    "address": "新潟県新潟市北区神谷内５４－２",
    "lat": 37.951878,
    "lng": 139.157862,
    "tel": "025-259-3339",
    "url": "",
    "pref": "新潟県",
    "city": "新潟市北区",
    "category": "home_help",
    "serviceType": "訪問介護",
    "capacity": 0,
    "openDays": [
      "平日",
      "土曜日",
      "日曜日",
      "祝日"
    ],
    "openDaysNote": "通常営業時間帯以外のサービスは要相談"
  },
  {
    "id": "1570601706",
    "name": "ＳＯＭＰＯケア　新発田　訪問介護",
    "kana": "ソンポケアシバタホウモンカイゴ",
    "address": "新潟県新発田市住吉町四丁目１４番３３号",
    "lat": 37.9431609,
    "lng": 139.3141221,
    "tel": "0254-27-9235",
    "url": "",
    "pref": "新潟県",
    "city": "新発田市",
    "category": "home_help",
    "serviceType": "訪問介護",
    "capacity": 0,
    "openDays": [
      "平日",
      "土曜日",
      "日曜日",
      "祝日"
    ],
    "openDaysNote": "原則として居宅サービス計画に基づくものとします。"
  },
  {
    "id": "1570600179",
    "name": "ツクイ新発田",
    "kana": "ツクイシバタ",
    "address": "新潟県新発田市新富町2丁目6-20タートル新富1F タートル新富1F",
    "lat": 37.9565281,
    "lng": 139.3419257,
    "tel": "0254-27-9898",
    "url": "http://www.tsukui.net/",
    "pref": "新潟県",
    "city": "新発田市",
    "category": "home_help",
    "serviceType": "訪問介護",
    "capacity": 0,
    "openDays": [
      "平日",
      "土曜日",
      "日曜日",
      "祝日"
    ],
    "openDaysNote": "ケアプランに基づき、上記以外の時間帯もご利用いただけます。（改行）お客様と相談の上、お受けする事もできます。"
  },
  {
    "id": "1570600112",
    "name": "ニチイケアセンター　新発田",
    "kana": "ニチイケアセンター　シバタ",
    "address": "新潟県新発田市富塚町3-4-27",
    "lat": 37.9511282,
    "lng": 139.2939607,
    "tel": "0254-27-3798",
    "url": "http://www.nichiigakkan.co.jp",
    "pref": "新潟県",
    "city": "新発田市",
    "category": "home_help",
    "serviceType": "訪問介護",
    "capacity": 0,
    "openDays": [
      "平日",
      "土曜日",
      "日曜日",
      "祝日"
    ],
    "openDaysNote": "但し、居宅サービス計画により、営業時間以外でも、サービスの提供を行う場合があります。また、曜日、時間帯によってはサービス利用時間等ご相談調整させていただく場合があります。"
  },
  {
    "id": "1570600229",
    "name": "ベルセゾン新発田ホームヘルパーステーション",
    "kana": "ベルセゾンシバタホームヘルパーステーション",
    "address": "新発田市下石川７１３ベルセゾン新発田 ベルセゾン新発田",
    "lat": 37.9660508676684,
    "lng": 139.410429780567,
    "tel": "0254-31-2444",
    "url": "http://miyukikai.net/",
    "pref": "新潟県",
    "city": "新発田市",
    "category": "home_help",
    "serviceType": "訪問介護",
    "capacity": 0,
    "openDays": [
      "平日",
      "土曜日",
      "祝日"
    ],
    "openDaysNote": "特になし"
  },
  {
    "id": "1570601433",
    "name": "ヘルパーステーションコンフィ陽だまり苑",
    "kana": "ヘルパーステーションコンフィヒダマリエン",
    "address": "新潟県新発田市諏訪町１丁目１０番３８号",
    "lat": 37.9434978,
    "lng": 139.3339809,
    "tel": "0254-24-1111",
    "url": "http://hidamarien.ne.jp/",
    "pref": "新潟県",
    "city": "新発田市",
    "category": "home_help",
    "serviceType": "訪問介護",
    "capacity": 0,
    "openDays": [
      "平日",
      "土曜日",
      "日曜日",
      "祝日"
    ],
    "openDaysNote": "営業時間外の利用要望については、職員の対応可能な範囲でご要望に応じます。"
  },
  {
    "id": "1570601508",
    "name": "ヘルパーステーションとようら",
    "kana": "ヘルパーステーショントヨウラ",
    "address": "新潟県新発田市荒町甲1611番地51",
    "lat": 37.9368327016837,
    "lng": 139.32280396073,
    "tel": "0254-21-1777",
    "url": "http://www.atago.or.jp/",
    "pref": "新潟県",
    "city": "新発田市",
    "category": "home_help",
    "serviceType": "訪問介護",
    "capacity": 0,
    "openDays": [
      "平日",
      "土曜日",
      "日曜日",
      "祝日"
    ],
    "openDaysNote": "提供時間については要相談"
  },
  {
    "id": "1570600765",
    "name": "ホームヘルプサービスしうんじ",
    "kana": "ホームヘルプサービスシウンジ",
    "address": "新発田市真野原外3331番地2",
    "lat": 38.0181429,
    "lng": 139.3180801,
    "tel": "0254-41-4700",
    "url": "http://shiunji.or.jp/wordpress/",
    "pref": "新潟県",
    "city": "新発田市",
    "category": "home_help",
    "serviceType": "訪問介護",
    "capacity": 0,
    "openDays": [
      "平日",
      "土曜日",
      "日曜日",
      "祝日"
    ],
    "openDaysNote": ""
  },
  {
    "id": "1570601789",
    "name": "ホームヘルプ春日和新発田",
    "kana": "ホームヘルプハルビヨリシバタ",
    "address": "新潟県新発田市荒町字妻ノ神甲272番1",
    "lat": 37.9296639,
    "lng": 139.3254965,
    "tel": "0254－20－8205",
    "url": "",
    "pref": "新潟県",
    "city": "新発田市",
    "category": "home_help",
    "serviceType": "訪問介護",
    "capacity": null,
    "openDays": [
      "平日",
      "土曜日",
      "日曜日",
      "祝日"
    ],
    "openDaysNote": "365日24時間対応"
  },
  {
    "id": "1570600443",
    "name": "株式会社エヌ介護サービス新発田センター",
    "kana": "カブシキガイシャエヌカイゴサービスシバタセンター",
    "address": "新潟県新発田市大手町1丁目14番16号",
    "lat": 37.9496534344444,
    "lng": 139.324435932619,
    "tel": "0254-20-5155",
    "url": "https://n-kaigo.jp/",
    "pref": "新潟県",
    "city": "新発田市",
    "category": "home_help",
    "serviceType": "訪問介護",
    "capacity": 0,
    "openDays": [
      "平日",
      "土曜日",
      "日曜日",
      "祝日"
    ],
    "openDaysNote": "３６５日、２４時間サービス提供を行います。但し、深夜については、時間について相談することがあります。"
  },
  {
    "id": "1575001191",
    "name": "ＳＯＭＰＯケア　聖籠　訪問介護",
    "kana": "ソンポケア　セイロウ　ホウモンカイゴ",
    "address": "新潟県北蒲原郡聖籠町大字諏訪山1559番地30",
    "lat": 37.9720017738635,
    "lng": 139.272160163863,
    "tel": "0254-27-6481",
    "url": "",
    "pref": "新潟県",
    "city": "聖籠町",
    "category": "home_help",
    "serviceType": "訪問介護",
    "capacity": 0,
    "openDays": [
      "平日",
      "土曜日",
      "日曜日",
      "祝日"
    ],
    "openDaysNote": "原則として居宅サービス計画に基づくものとします。"
  },
  {
    "id": "1575001134",
    "name": "訪問介護センターはまなす",
    "kana": "ホウモンカイゴセンターハマナス",
    "address": "新潟県北蒲原郡聖籠町大字蓮潟２２４９番地特別養護老人ホームはすがた園内 特別養護老人ホームはすがた園内",
    "lat": 37.978831202373,
    "lng": 139.265826964496,
    "tel": "0254-27-7060",
    "url": "https://seiro-hukushikai.or.jp/",
    "pref": "新潟県",
    "city": "聖籠町",
    "category": "home_help",
    "serviceType": "訪問介護",
    "capacity": 0,
    "openDays": [
      "平日",
      "土曜日",
      "日曜日",
      "祝日"
    ],
    "openDaysNote": "定休日のサービス利用希望応相談"
  },
  {
    "id": "1571200219",
    "name": "ケアサービス　まごの手",
    "kana": "ケアサービス　マゴノテ",
    "address": "村上市塩町12番19号",
    "lat": 38.2272533,
    "lng": 139.4738296,
    "tel": "0254-53-3102",
    "url": "http://kaigo-magonote.net/",
    "pref": "新潟県",
    "city": "村上市",
    "category": "home_help",
    "serviceType": "訪問介護",
    "capacity": 0,
    "openDays": [
      "平日",
      "土曜日",
      "日曜日",
      "祝日"
    ],
    "openDaysNote": "但し、サービスの提供については利用者様の希望に応じて365日対応しています。深夜、夜間、早朝については訪問介護員の配置の都合により相談させていただいてます。"
  },
  {
    "id": "1571201118",
    "name": "ケアパートナーよろこび",
    "kana": "ケアパートナーヨロコビ",
    "address": "新潟県村上市九日市98番地1",
    "lat": 38.1787733544271,
    "lng": 139.459630206776,
    "tel": "0254-62-7713",
    "url": "http://fxdwg1977.wixsite.com/yorokobi",
    "pref": "新潟県",
    "city": "村上市",
    "category": "home_help",
    "serviceType": "訪問介護",
    "capacity": 0,
    "openDays": [
      "平日",
      "土曜日",
      "日曜日",
      "祝日"
    ],
    "openDaysNote": "利用者様の希望に応じて24時間365日対応可能な体制を整えるものとします。"
  },
  {
    "id": "1571200227",
    "name": "ツクイ　村上飯野",
    "kana": "ツクイ　ムラカミイイノ",
    "address": "村上市飯野2-8-20",
    "lat": 38.2206432,
    "lng": 139.471922,
    "tel": "0254-50-1655",
    "url": "http://www.tsukui.net/search/2247/detail.html",
    "pref": "新潟県",
    "city": "村上市",
    "category": "home_help",
    "serviceType": "訪問介護",
    "capacity": 0,
    "openDays": [
      "平日",
      "土曜日",
      "日曜日",
      "祝日"
    ],
    "openDaysNote": "ケアプランに基づき、上記以外の時間帯もご利用いただけます。"
  },
  {
    "id": "1571201068",
    "name": "ヘルパーステーションあおぞら",
    "kana": "ヘルパーステーションアオゾラ",
    "address": "新潟県村上市坂町2465番地1角中第二ビルマンションA-2 角中第二ビルマンションA-2",
    "lat": 38.1198033430626,
    "lng": 139.447281796295,
    "tel": "0254-75-5181",
    "url": "",
    "pref": "新潟県",
    "city": "村上市",
    "category": "home_help",
    "serviceType": "訪問介護",
    "capacity": null,
    "openDays": [
      "平日",
      "土曜日",
      "日曜日",
      "祝日"
    ],
    "openDaysNote": "希望に応じて、時間外も対応可能な体制を整えます。"
  },
  {
    "id": "1571201233",
    "name": "ヘルパーステーションさかまち",
    "kana": "ヘルパーステーションサカマチ",
    "address": "新潟県村上市坂町１８６０番地27",
    "lat": 38.1176000904249,
    "lng": 139.445833634918,
    "tel": "0254-75-5026",
    "url": "",
    "pref": "新潟県",
    "city": "村上市",
    "category": "home_help",
    "serviceType": "訪問介護",
    "capacity": 0,
    "openDays": [
      "平日",
      "土曜日",
      "日曜日",
      "祝日"
    ],
    "openDaysNote": "提供時間については要相談"
  },
  {
    "id": "1571200680",
    "name": "ヘルパーステーションひまわり",
    "kana": "ヘルパーステーションヒマワリ",
    "address": "新潟県村上市猿沢2220",
    "lat": 38.2862686,
    "lng": 139.5268119,
    "tel": "0254-60-2050",
    "url": "http://satomed.or.jp/",
    "pref": "新潟県",
    "city": "村上市",
    "category": "home_help",
    "serviceType": "訪問介護",
    "capacity": 0,
    "openDays": [
      "平日",
      "土曜日",
      "日曜日",
      "祝日"
    ],
    "openDaysNote": "ケアプラン（利用者の希望）に応じて、営業時間外であってもサービスの提供を行う。"
  },
  {
    "id": "1571201241",
    "name": "ヘルパーステーションぽらいと",
    "kana": "ヘルパーステーションポライト",
    "address": "新潟県村上市瀬波温泉２丁目３番２８号",
    "lat": 38.2153376,
    "lng": 139.4433009,
    "tel": "0254-67-4040",
    "url": "",
    "pref": "新潟県",
    "city": "村上市",
    "category": "home_help",
    "serviceType": "訪問介護",
    "capacity": 0,
    "openDays": [
      "平日",
      "土曜日",
      "日曜日",
      "祝日"
    ],
    "openDaysNote": ""
  },
  {
    "id": "1571200185",
    "name": "ヘルパーステーションゆめ",
    "kana": "ヘルパーステーションユメ",
    "address": "新潟県村上市瀬波中町11-6",
    "lat": 38.230319,
    "lng": 139.4527343,
    "tel": "0254-53-6960",
    "url": "",
    "pref": "新潟県",
    "city": "村上市",
    "category": "home_help",
    "serviceType": "訪問介護",
    "capacity": 0,
    "openDays": [
      "平日",
      "土曜日",
      "日曜日",
      "祝日"
    ],
    "openDaysNote": "年中無休（ただし利用者の希望に応じて24時間対応とする。）"
  },
  {
    "id": "1571200151",
    "name": "株式会社慎鍋",
    "kana": "カブシキガイシャマナベ",
    "address": "新潟県村上市山居町２丁目５番４４号",
    "lat": 38.2150272,
    "lng": 139.4666868,
    "tel": "0254-50-7655",
    "url": "",
    "pref": "新潟県",
    "city": "村上市",
    "category": "home_help",
    "serviceType": "訪問介護",
    "capacity": 0,
    "openDays": [
      "平日",
      "土曜日",
      "日曜日",
      "祝日"
    ],
    "openDaysNote": "利用時間によっては、早朝・夜間・深夜料金を頂きます。"
  },
  {
    "id": "1571200516",
    "name": "山北徳新会介護センター",
    "kana": "サンポクトクシンカイカイゴセンター",
    "address": "村上市勝木1340-1",
    "lat": 38.4905512,
    "lng": 139.5164429,
    "tel": "0254-60-5555",
    "url": "http://sanpoku-hp.or.jp",
    "pref": "新潟県",
    "city": "村上市",
    "category": "home_help",
    "serviceType": "訪問介護",
    "capacity": 0,
    "openDays": [
      "平日",
      "土曜日",
      "日曜日",
      "祝日"
    ],
    "openDaysNote": "但し、営業時間以外であっても、利用者の要望がある場合、別途検討の上対応。"
  },
  {
    "id": "1571201258",
    "name": "想いやりサポートみちしるべ",
    "kana": "オモイヤリサポートミチシルベ",
    "address": "新潟県村上市下鍛冶屋字村下509番地5",
    "lat": 38.1122443496694,
    "lng": 139.450631014156,
    "tel": "0254（75）5257",
    "url": "",
    "pref": "新潟県",
    "city": "村上市",
    "category": "home_help",
    "serviceType": "訪問介護",
    "capacity": 0,
    "openDays": [
      "平日"
    ],
    "openDaysNote": "訪問の希望の際、サービス提供時間外でも対応可能である。"
  },
  {
    "id": "1571200847",
    "name": "村上市社会福祉協議会　ヘルパーステーションあさひ",
    "kana": "ムラカミシシャカイフクシキョウギカイ　ヘルパーステーションアサヒ",
    "address": "新潟県村上市岩沢５６１１番地村上市役所朝日支所１階 村上市役所朝日支所１階",
    "lat": 38.2685248105373,
    "lng": 139.538521,
    "tel": "0254-75-5180",
    "url": "",
    "pref": "新潟県",
    "city": "村上市",
    "category": "home_help",
    "serviceType": "訪問介護",
    "capacity": 0,
    "openDays": [
      "平日",
      "土曜日",
      "日曜日",
      "祝日"
    ],
    "openDaysNote": "利用者の希望がある場合は時間外のサービスの利用が可能です。"
  },
  {
    "id": "1571200813",
    "name": "村上市社会福祉協議会　ヘルパーステーションさんぽく",
    "kana": "ムラカミシシャカイフクシキョウギカイ　ヘルパーステーションサンポク",
    "address": "新潟県村上市勝木862番地1",
    "lat": 38.4912288,
    "lng": 139.5213676,
    "tel": "0254-77-3045",
    "url": "",
    "pref": "新潟県",
    "city": "村上市",
    "category": "home_help",
    "serviceType": "訪問介護",
    "capacity": 0,
    "openDays": [
      "平日",
      "土曜日",
      "日曜日",
      "祝日"
    ],
    "openDaysNote": "上記時間以外でも、要望に対応できる場合は、相談に応じることができます。"
  },
  {
    "id": "1571200821",
    "name": "村上市社会福祉協議会ヘルパーステーションかみはやし",
    "kana": "ムラカミシシャカイフクシキョウギカイヘルパーステーションカミハヤシ",
    "address": "新潟県村上市九日市５１０番地",
    "lat": 38.1765191619865,
    "lng": 139.459047183467,
    "tel": "0254-66-8211",
    "url": "http://www.murakamisyakyou.com/",
    "pref": "新潟県",
    "city": "村上市",
    "category": "home_help",
    "serviceType": "訪問介護",
    "capacity": 0,
    "openDays": [
      "平日",
      "土曜日",
      "日曜日",
      "祝日"
    ],
    "openDaysNote": "上記の時間以外も相談に応じます。"
  },
  {
    "id": "1571200037",
    "name": "村上市社会福祉協議会ヘルパーステーションむらかみ",
    "kana": "ムラカミシシャカイフクシキョウギカイヘルパーステーションムラカミ",
    "address": "新潟県村上市下相川３１６番地２",
    "lat": 38.226243060691,
    "lng": 139.503793946795,
    "tel": "0254-53-0113",
    "url": "",
    "pref": "新潟県",
    "city": "村上市",
    "category": "home_help",
    "serviceType": "訪問介護",
    "capacity": 0,
    "openDays": [
      "平日",
      "土曜日",
      "日曜日",
      "祝日"
    ],
    "openDaysNote": "但し、利用者から要請があった場合には必要に応じ、可能な限り24時間体制とする。"
  },
  {
    "id": "1571200128",
    "name": "有限会社　村上シルバーかんきち堂",
    "kana": "ユウゲンガイシャ　ムラカミシルバーカンキチドウ",
    "address": "新潟県村上市泉町9番25号",
    "lat": 38.2281818129441,
    "lng": 139.475641389155,
    "tel": "0254-50-1611",
    "url": "http://www.kankichido.com/",
    "pref": "新潟県",
    "city": "村上市",
    "category": "home_help",
    "serviceType": "訪問介護",
    "capacity": 55,
    "openDays": [
      "平日",
      "土曜日",
      "日曜日",
      "祝日"
    ],
    "openDaysNote": ""
  },
  {
    "id": "1572500088",
    "name": "ヘルパーステーションなかじょう",
    "kana": "ヘルパーステーションナカジョウ",
    "address": "胎内市十二天91-1",
    "lat": 38.0920596,
    "lng": 139.408751,
    "tel": "0254-46-5607",
    "url": "http://www.aiko.or.jp",
    "pref": "新潟県",
    "city": "胎内市",
    "category": "home_help",
    "serviceType": "訪問介護",
    "capacity": 0,
    "openDays": [
      "平日",
      "土曜日",
      "日曜日"
    ],
    "openDaysNote": "上記以外の営業日、営業時間も利用者の状況により、サービス提供する"
  },
  {
    "id": "1572500187",
    "name": "社会福祉法人　胎内市社会福祉協議会",
    "kana": "シャカイフクシホウジン　タイナイシシャカイフクシキョウギカイ",
    "address": "新潟県胎内市西本町11番11号「ほっとHOT・中条」内 「ほっとHOT・中条」内",
    "lat": 38.0526965861628,
    "lng": 139.395349058861,
    "tel": "0254-44-8682",
    "url": "http://tainai-syakyo.com/",
    "pref": "新潟県",
    "city": "胎内市",
    "category": "home_help",
    "serviceType": "訪問介護",
    "capacity": 120,
    "openDays": [
      "平日",
      "土曜日",
      "日曜日",
      "祝日"
    ],
    "openDaysNote": ""
  },
  {
    "id": "1570202901",
    "name": "アースサポート長岡",
    "kana": "アースサポートナガオカ",
    "address": "新潟県長岡市山田3丁目3番19号片桐ビル1階 片桐ビル1階",
    "lat": 37.4469787,
    "lng": 138.8390674,
    "tel": "0258-32-2200",
    "url": "http://www.earthsupport.co.jp",
    "pref": "新潟県",
    "city": "長岡市",
    "category": "home_help",
    "serviceType": "訪問介護",
    "capacity": 5,
    "openDays": [
      "平日",
      "土曜日",
      "日曜日",
      "祝日"
    ],
    "openDaysNote": "年中無休"
  },
  {
    "id": "1570203966",
    "name": "あさひガーデン長岡水道町",
    "kana": "アサヒガーデンナガオカスイドウチョウ",
    "address": "新潟県長岡市水道町2丁目6-16あさひガーデン長岡水道町 あさひガーデン長岡水道町",
    "lat": 37.4559536,
    "lng": 138.8436372,
    "tel": "0258-89-7285",
    "url": "http://asahicommons.co.jp",
    "pref": "新潟県",
    "city": "長岡市",
    "category": "home_help",
    "serviceType": "訪問介護",
    "capacity": 0,
    "openDays": [
      "平日",
      "土曜日",
      "日曜日",
      "祝日"
    ],
    "openDaysNote": "但し、利用者の希望に応じて、サービスの提供については24時間対応可能な体制を整えるものとします。"
  },
  {
    "id": "1570200236",
    "name": "アレック北栄長岡",
    "kana": "アレックホクエイ　ナガオカ",
    "address": "長岡市雨池町44-5",
    "lat": 37.4679284,
    "lng": 138.8173825,
    "tel": "0258-28-0629",
    "url": "http://www.alec-hokuei.co.jp/",
    "pref": "新潟県",
    "city": "長岡市",
    "category": "home_help",
    "serviceType": "訪問介護",
    "capacity": 0,
    "openDays": [
      "平日",
      "土曜日",
      "日曜日",
      "祝日"
    ],
    "openDaysNote": "年中無休"
  },
  {
    "id": "1570203867",
    "name": "グッドタイムサポート・長岡",
    "kana": "グッドタイムサポート・ナガオカ",
    "address": "新潟県長岡市下々条2丁目1373-1グッドタイムホーム・長岡 グッドタイムホーム・長岡",
    "lat": 37.4846623,
    "lng": 138.8634537,
    "tel": "0258-25-1294",
    "url": "",
    "pref": "新潟県",
    "city": "長岡市",
    "category": "home_help",
    "serviceType": "訪問介護",
    "capacity": 52,
    "openDays": [
      "平日",
      "土曜日",
      "日曜日",
      "祝日"
    ],
    "openDaysNote": "ただし、サービス提供はご利用者の希望に応じて365日24時間対応いたします。"
  },
  {
    "id": "1570201374",
    "name": "ケアセンターＢＥ",
    "kana": "ケアセンタービー",
    "address": "新潟県長岡市今朝白１丁目１６番１５号",
    "lat": 37.4477968588481,
    "lng": 138.861059756647,
    "tel": "0258-37-7106",
    "url": "http://npobelife.hp.gogo.jp/",
    "pref": "新潟県",
    "city": "長岡市",
    "category": "home_help",
    "serviceType": "訪問介護",
    "capacity": 0,
    "openDays": [
      "平日",
      "土曜日",
      "祝日"
    ],
    "openDaysNote": "ただし、利用者の希望に応じて２４時間対応可能な体制をとるものとする。"
  },
  {
    "id": "1570201853",
    "name": "こぶし24時間ケアサービスステーション",
    "kana": "コブシニジュウヨジカンケアサービスステーション",
    "address": "長岡市信濃２丁目６番１８号",
    "lat": 37.4506449,
    "lng": 138.8378257,
    "tel": "0258-31-7836",
    "url": "http://www.kobushien.com",
    "pref": "新潟県",
    "city": "長岡市",
    "category": "home_help",
    "serviceType": "訪問介護",
    "capacity": 0,
    "openDays": [
      "平日",
      "土曜日",
      "日曜日",
      "祝日"
    ],
    "openDaysNote": "特になし"
  },
  {
    "id": "1570203669",
    "name": "こぶし２４時間ケアサービスステーション喜多町",
    "kana": "コブシニジュウヨジカンケアサービスステーションキタマチ",
    "address": "新潟県長岡市喜多町2900番地",
    "lat": 37.4530009,
    "lng": 138.8052233,
    "tel": "０２５８－８４－７０１５",
    "url": "",
    "pref": "新潟県",
    "city": "長岡市",
    "category": "home_help",
    "serviceType": "訪問介護",
    "capacity": 0,
    "openDays": [
      "平日",
      "土曜日",
      "日曜日",
      "祝日"
    ],
    "openDaysNote": ""
  },
  {
    "id": "1570203784",
    "name": "こぶし24時間ケアサービスステーション三和",
    "kana": "コブシ24ジカンケアサービスステーションサンワ",
    "address": "新潟県長岡市三和3-138-2サポートセンター三和 サポートセンター三和",
    "lat": 37.4324256,
    "lng": 138.836919,
    "tel": "0258-36-8350",
    "url": "",
    "pref": "新潟県",
    "city": "長岡市",
    "category": "home_help",
    "serviceType": "訪問介護",
    "capacity": 0,
    "openDays": [
      "平日",
      "土曜日",
      "日曜日",
      "祝日"
    ],
    "openDaysNote": "24時間365日営業"
  },
  {
    "id": "1570203248",
    "name": "こぶし２４時間ケアサービスステーション美沢",
    "kana": "コブシニジュウヨジカンケアサービスステーションミサワ",
    "address": "新潟県長岡市美沢４丁目２１１番地６サポートセンター美沢 サポートセンター美沢",
    "lat": 37.443274,
    "lng": 138.8637647,
    "tel": "０２５８－３０－１７３０",
    "url": "http://www.nagaokafukusi.com/",
    "pref": "新潟県",
    "city": "長岡市",
    "category": "home_help",
    "serviceType": "訪問介護",
    "capacity": 0,
    "openDays": [
      "平日",
      "土曜日",
      "日曜日",
      "祝日"
    ],
    "openDaysNote": "特になし"
  },
  {
    "id": "1570200194",
    "name": "ツクイ長岡三和",
    "kana": "ツクイナガオカサンワ",
    "address": "長岡市三和２丁目１０－１７",
    "lat": 37.4349941,
    "lng": 138.8415149,
    "tel": "0258-37-6100",
    "url": "http://www.tsukui.net",
    "pref": "新潟県",
    "city": "長岡市",
    "category": "home_help",
    "serviceType": "訪問介護",
    "capacity": 80,
    "openDays": [
      "平日",
      "土曜日",
      "日曜日",
      "祝日"
    ],
    "openDaysNote": "上記以外の日程及び時間の介護サービスは随時ご相談に応じております。"
  },
  {
    "id": "1570202117",
    "name": "てまり訪問介護ステーション",
    "kana": "テマリホウモンカイゴステーション",
    "address": "新潟県長岡市平1-3-60",
    "lat": 37.4714871,
    "lng": 139.004985,
    "tel": "0258-89-6615",
    "url": "http://www.temari-care.com",
    "pref": "新潟県",
    "city": "長岡市",
    "category": "home_help",
    "serviceType": "訪問介護",
    "capacity": 0,
    "openDays": [
      "平日",
      "土曜日",
      "日曜日",
      "祝日"
    ],
    "openDaysNote": "特になし"
  },
  {
    "id": "1570200913",
    "name": "にじの手かいご",
    "kana": "ニジノテカイゴ",
    "address": "長岡市千歳1-3-27",
    "lat": 37.4353525,
    "lng": 138.8460254,
    "tel": "0258-31-2771",
    "url": "",
    "pref": "新潟県",
    "city": "長岡市",
    "category": "home_help",
    "serviceType": "訪問介護",
    "capacity": 0,
    "openDays": [
      "平日",
      "土曜日",
      "日曜日",
      "祝日"
    ],
    "openDaysNote": "ただし、サービス提供については、利用者の希望に応じて３６５日、２４時間対応する。"
  },
  {
    "id": "1570200491",
    "name": "ニチイケアセンター長岡",
    "kana": "ニチイケアセンターナガオカ",
    "address": "新潟県長岡市喜多町1107-1",
    "lat": 37.4494556,
    "lng": 138.8086846,
    "tel": "0258-20-5811",
    "url": "http://www.nichiigakkan.co.jp",
    "pref": "新潟県",
    "city": "長岡市",
    "category": "home_help",
    "serviceType": "訪問介護",
    "capacity": 0,
    "openDays": [
      "平日",
      "土曜日",
      "日曜日",
      "祝日"
    ],
    "openDaysNote": "居宅サービス計画により営業時間外であってもサービスを提供する場合があります。"
  },
  {
    "id": "1570203883",
    "name": "ニチイケアセンター長岡江陽",
    "kana": "ニチイケアセンターナガオカコウヨウ",
    "address": "新潟県長岡市江陽2丁目11番4号ライフデザインビル2階 ライフデザインビル2階",
    "lat": 37.4789218,
    "lng": 138.8379369,
    "tel": "0258-22-5105",
    "url": "",
    "pref": "新潟県",
    "city": "長岡市",
    "category": "home_help",
    "serviceType": "訪問介護",
    "capacity": 0,
    "openDays": [
      "平日",
      "土曜日",
      "日曜日",
      "祝日"
    ],
    "openDaysNote": ""
  },
  {
    "id": "1570203313",
    "name": "ニチイケアセンター長岡末広",
    "kana": "ニチイケアセンターナガオカスエヒロ",
    "address": "新潟県長岡市末広1丁目1番7号",
    "lat": 37.430635,
    "lng": 138.8551371,
    "tel": "0258-31-8711",
    "url": "http://www.nichiigakkan.co.jp",
    "pref": "新潟県",
    "city": "長岡市",
    "category": "home_help",
    "serviceType": "訪問介護",
    "capacity": 0,
    "openDays": [
      "平日",
      "土曜日",
      "日曜日",
      "祝日"
    ],
    "openDaysNote": ""
  },
  {
    "id": "1570200962",
    "name": "ヘルパーステーションおひさま",
    "kana": "ヘルパーステーションオヒサマ",
    "address": "新潟県長岡市泉1-7-22",
    "lat": 37.4646677215586,
    "lng": 138.854461247746,
    "tel": "0258-38-6326",
    "url": "http://www.nagaoka-iryou-seikyou.jp/",
    "pref": "新潟県",
    "city": "長岡市",
    "category": "home_help",
    "serviceType": "訪問介護",
    "capacity": 0,
    "openDays": [
      "平日",
      "土曜日",
      "日曜日",
      "祝日"
    ],
    "openDaysNote": "ただし、ケアプランに応じて可能な限り他の時間も対応する。まずはご相談ください。"
  },
  {
    "id": "1570204014",
    "name": "ヘルパーステーションさわやか苑旭岡",
    "kana": "ヘルパーステーションサワヤカエンアサヒオカ",
    "address": "新潟県長岡市旭岡2丁目207番地シルバーハウスさわやか苑旭岡 シルバーハウスさわやか苑旭岡",
    "lat": 37.426078,
    "lng": 138.8569874,
    "tel": "0258-94-6332",
    "url": "https://nmi-net.com/",
    "pref": "新潟県",
    "city": "長岡市",
    "category": "home_help",
    "serviceType": "訪問介護",
    "capacity": 0,
    "openDays": [
      "平日",
      "土曜日",
      "日曜日",
      "祝日"
    ],
    "openDaysNote": ""
  },
  {
    "id": "1570203941",
    "name": "ヘルパーステーションさわやか苑長岡藤沢",
    "kana": "ヘルパーステーションサワヤカエンナガオカフジサワ",
    "address": "新潟県長岡市荻野1丁目7番14ヘルパーステーションさわやか苑長岡藤沢 ヘルパーステーションさわやか苑長岡藤沢",
    "lat": 37.4727123615339,
    "lng": 138.835578079762,
    "tel": "0258-86-8585",
    "url": "",
    "pref": "新潟県",
    "city": "長岡市",
    "category": "home_help",
    "serviceType": "訪問介護",
    "capacity": 0,
    "openDays": [
      "平日",
      "土曜日",
      "日曜日",
      "祝日"
    ],
    "openDaysNote": "但し、ご利用者様からの要望があった場合は、365日24時間対応する。"
  },
  {
    "id": "1570202968",
    "name": "ヘルパーステーションさわやか苑長倉",
    "kana": "ヘルパーステーションサワヤカエンナガクラ",
    "address": "長岡市長倉4丁目101番地",
    "lat": 37.4377914,
    "lng": 138.8689754,
    "tel": "0258-31-0050",
    "url": "",
    "pref": "新潟県",
    "city": "長岡市",
    "category": "home_help",
    "serviceType": "訪問介護",
    "capacity": 80,
    "openDays": [
      "平日",
      "土曜日",
      "日曜日",
      "祝日"
    ],
    "openDaysNote": "但し、利用者からの要望があった場合は365日24時間対応する。"
  },
  {
    "id": "1570201119",
    "name": "ホームヘルプステーション　縄文の杜関原",
    "kana": "ホームヘルプステーション　ジョウモンノモリセキハラ",
    "address": "新潟県長岡市関原町1丁目１０７２番地１",
    "lat": 37.4522466,
    "lng": 138.7748018,
    "tel": "0258-21-5055",
    "url": "http://www.nagaokasanko.or.jp/group/joumon",
    "pref": "新潟県",
    "city": "長岡市",
    "category": "home_help",
    "serviceType": "訪問介護",
    "capacity": 0,
    "openDays": [
      "平日",
      "土曜日",
      "日曜日",
      "祝日"
    ],
    "openDaysNote": "午前８：００から午後８：００まで。（利用者の希望に応じ随時相談に応じます。）"
  },
  {
    "id": "1570202075",
    "name": "ホームヘルプステーションいろは",
    "kana": "ホームヘルプステーションイロハ",
    "address": "新潟県長岡市与板町蔦都683番地",
    "lat": 37.5254871430013,
    "lng": 138.824295321288,
    "tel": "0258-72-3975",
    "url": "",
    "pref": "新潟県",
    "city": "長岡市",
    "category": "home_help",
    "serviceType": "訪問介護",
    "capacity": 0,
    "openDays": [
      "平日",
      "土曜日",
      "日曜日",
      "祝日"
    ],
    "openDaysNote": "サービスの提供時間については、ご利用者の希望に応じ、上記以外の365日/24時間対応可能（事前調整必要）です。"
  },
  {
    "id": "1570203255",
    "name": "ホームヘルプステーションまきやま",
    "kana": "ホームヘルプステーションマキヤマ",
    "address": "新潟県長岡市槇山1592番地-1",
    "lat": 37.4808634,
    "lng": 138.8367771,
    "tel": "0258-29-6320",
    "url": "http://www.nagaokasanko.or.jp/group/keyakien/",
    "pref": "新潟県",
    "city": "長岡市",
    "category": "home_help",
    "serviceType": "訪問介護",
    "capacity": 0,
    "openDays": [
      "平日",
      "土曜日",
      "日曜日",
      "祝日"
    ],
    "openDaysNote": ""
  },
  {
    "id": "1570201788",
    "name": "ホームヘルプステーション福住",
    "kana": "ホームヘルプステーションフクズミ",
    "address": "新潟県長岡市福住１丁目７番２１号",
    "lat": 37.4502315,
    "lng": 138.8571681,
    "tel": "0258-31-2615",
    "url": "http://www.nagaokasanko.com",
    "pref": "新潟県",
    "city": "長岡市",
    "category": "home_help",
    "serviceType": "訪問介護",
    "capacity": 0,
    "openDays": [
      "平日",
      "土曜日",
      "日曜日",
      "祝日"
    ],
    "openDaysNote": "利用者の希望に応じて、サービスの提供については、24時間連絡対応が可能な体制を整えるものとする。"
  },
  {
    "id": "1570202984",
    "name": "メッツ川崎ヘルパーステーション",
    "kana": "メッツカワサキヘルパーステーション",
    "address": "新潟県長岡市川崎２丁目２４７８番地１",
    "lat": 37.4515592,
    "lng": 138.867589,
    "tel": "0258-37-5533",
    "url": "https://mets-taiyo-holdings.jp/medicare-service/",
    "pref": "新潟県",
    "city": "長岡市",
    "category": "home_help",
    "serviceType": "訪問介護",
    "capacity": 0,
    "openDays": [
      "平日",
      "土曜日",
      "日曜日",
      "祝日"
    ],
    "openDaysNote": "なし"
  },
  {
    "id": "1570203990",
    "name": "やさしい手　長岡訪問介護事業所",
    "kana": "ヤサシイテナガオカホウモンカイゴジギョウショ",
    "address": "新潟県長岡市中島７－１－８",
    "lat": 37.4577397,
    "lng": 138.851022,
    "tel": "050-1753-6379",
    "url": "https://search.yasashiite.com/detail/homonkaigo_nagaoka/",
    "pref": "新潟県",
    "city": "長岡市",
    "category": "home_help",
    "serviceType": "訪問介護",
    "capacity": 0,
    "openDays": [
      "平日",
      "土曜日",
      "日曜日",
      "祝日"
    ],
    "openDaysNote": ""
  },
  {
    "id": "1570203628",
    "name": "わくわく長岡",
    "kana": "ワクワクナガオカ",
    "address": "新潟県長岡市城岡2-7-18",
    "lat": 37.4727066,
    "lng": 138.8622973,
    "tel": "0258-24-8888",
    "url": "http://www.waku-waku.jp",
    "pref": "新潟県",
    "city": "長岡市",
    "category": "home_help",
    "serviceType": "訪問介護",
    "capacity": null,
    "openDays": [
      "平日",
      "土曜日"
    ],
    "openDaysNote": "利用者の希望があり、当事業所が可能と判断した場合に限り、上記日時以外でも対応"
  },
  {
    "id": "1570200517",
    "name": "介護老人保健施設　桃李園",
    "kana": "カイゴロウジンホケンシセツ　トウリエン",
    "address": "新潟県長岡市西津町４６３０番地",
    "lat": 37.4265689,
    "lng": 138.772453,
    "tel": "0258-47-4770",
    "url": "http://www.tourien.jp",
    "pref": "新潟県",
    "city": "長岡市",
    "category": "home_help",
    "serviceType": "訪問介護",
    "capacity": 40,
    "openDays": [
      "平日",
      "土曜日",
      "日曜日",
      "祝日"
    ],
    "openDaysNote": ""
  },
  {
    "id": "1570202059",
    "name": "介護老人保健施設てらどまり　訪問介護事業所",
    "kana": "カイゴロウジンホケンシセツテラドマリ　ホウモンカイゴジギョウショ",
    "address": "新潟県長岡市寺泊下桐850番地1",
    "lat": 37.6120385,
    "lng": 138.8097145,
    "tel": "0256-97-3200",
    "url": "http://nagaokasanko.or.jp/",
    "pref": "新潟県",
    "city": "長岡市",
    "category": "home_help",
    "serviceType": "訪問介護",
    "capacity": 0,
    "openDays": [
      "平日",
      "土曜日",
      "日曜日",
      "祝日"
    ],
    "openDaysNote": "随時相談に応じます。"
  },
  {
    "id": "1570200301",
    "name": "株式会社　エヌ介護サービス　長岡センター",
    "kana": "カブシキガイシャ　エヌカイゴサービス　ナガオカセンター",
    "address": "新潟県長岡市中島5丁目6-29",
    "lat": 37.4544169,
    "lng": 138.8478106,
    "tel": "0258-39-1223",
    "url": "http://n-kaigo.jp",
    "pref": "新潟県",
    "city": "長岡市",
    "category": "home_help",
    "serviceType": "訪問介護",
    "capacity": 225,
    "openDays": [
      "平日",
      "土曜日",
      "日曜日",
      "祝日"
    ],
    "openDaysNote": "但し、深夜・早朝夜間の時間帯については訪問介護員の配置の都合上、利用時間について相談することがあります。"
  },
  {
    "id": "1570201481",
    "name": "軽費老人ホーム（ケアハウス）ケアハウスわらび園訪問介護",
    "kana": "ケイヒロウジンホーム（ケアハウス）ケアハウスワラビエンホウモンカイゴ",
    "address": "新潟県長岡市浦３０６０軽費老人ホーム（ケアハウス）ケアハウスわらび園 軽費老人ホーム（ケアハウス）ケアハウスわらび園",
    "lat": 37.3886346,
    "lng": 138.8041319,
    "tel": "0258-41-3170",
    "url": "https://warabien.jp",
    "pref": "新潟県",
    "city": "長岡市",
    "category": "home_help",
    "serviceType": "訪問介護",
    "capacity": 0,
    "openDays": [
      "平日",
      "土曜日",
      "日曜日",
      "祝日"
    ],
    "openDaysNote": "管理者が必要と認めた場合は営業時間外でも訪問可"
  },
  {
    "id": "1570201507",
    "name": "在宅介護サービス・カネコ有限会社",
    "kana": "ザイタクカイゴサービス　カネコ　ユウゲンガイシャ",
    "address": "長岡市浦5041-4",
    "lat": 37.3883734,
    "lng": 138.7999935,
    "tel": "0258-92-6178",
    "url": "",
    "pref": "新潟県",
    "city": "長岡市",
    "category": "home_help",
    "serviceType": "訪問介護",
    "capacity": 0,
    "openDays": [
      "平日",
      "土曜日",
      "祝日"
    ],
    "openDaysNote": "ただし、サービスの提供については利用者の希望に応じ２４時間対応するものとする。"
  },
  {
    "id": "1570203545",
    "name": "相互の家訪問介護事業所",
    "kana": "ソウゴノイエホウモンカイゴジギョウショ",
    "address": "新潟県長岡市今朝白３丁目３番２号相互の家＠今朝白 相互の家＠今朝白",
    "lat": 37.4497431596467,
    "lng": 138.861568663172,
    "tel": "0258-86-4510",
    "url": "http://www.nct9.ne.jp/sogotaxi/",
    "pref": "新潟県",
    "city": "長岡市",
    "category": "home_help",
    "serviceType": "訪問介護",
    "capacity": 65,
    "openDays": [
      "平日"
    ],
    "openDaysNote": "ただし、サービス提供は、ご利用者の希望に応じて365日24時間対応します。"
  },
  {
    "id": "1570200228",
    "name": "中越介護支援センター株式会社",
    "kana": "チュウエツカイゴシエンセンターカブシキガイシャ",
    "address": "新潟県長岡市三ッ郷屋2丁目1-11",
    "lat": 37.4476558,
    "lng": 138.8166421,
    "tel": "0258-28-8181",
    "url": "",
    "pref": "新潟県",
    "city": "長岡市",
    "category": "home_help",
    "serviceType": "訪問介護",
    "capacity": 40,
    "openDays": [
      "平日",
      "土曜日",
      "日曜日",
      "祝日"
    ],
    "openDaysNote": ""
  },
  {
    "id": "1570201937",
    "name": "長岡市社会福祉協議会　訪問介護とちお",
    "kana": "ナガオカシシャカイフクシキョウギカイホウモンカイゴトチオ",
    "address": "新潟県長岡市新栄町2丁目2番23号　栃尾保健福祉センター内長岡市社会福祉協議会　栃尾支所 長岡市社会福祉協議会　栃尾支所",
    "lat": 37.4886852,
    "lng": 138.9966655,
    "tel": "0258-53-6255",
    "url": "http://www.nagaoka-shakyo.or.jp/",
    "pref": "新潟県",
    "city": "長岡市",
    "category": "home_help",
    "serviceType": "訪問介護",
    "capacity": 0,
    "openDays": [
      "平日",
      "土曜日",
      "日曜日",
      "祝日"
    ],
    "openDaysNote": ""
  },
  {
    "id": "1570200293",
    "name": "長岡市社会福祉協議会　訪問介護ながおか",
    "kana": "ナガオカシシャカイフクシキョウギカイ　ホウモンカイゴナガオカ",
    "address": "長岡市水道町3丁目5番30号",
    "lat": 37.4571709417941,
    "lng": 138.846761577896,
    "tel": "0258-39-2247",
    "url": "http://www.nagaoka-shakyo.or.jp/",
    "pref": "新潟県",
    "city": "長岡市",
    "category": "home_help",
    "serviceType": "訪問介護",
    "capacity": 0,
    "openDays": [
      "平日",
      "土曜日",
      "日曜日",
      "祝日"
    ],
    "openDaysNote": "特別な事由や希望に応じて上記に関わらずサービスを提供します。"
  },
  {
    "id": "1575700115",
    "name": "長岡市社会福祉協議会訪問介護かわぐち",
    "kana": "ナガオカシシャカイフクシキョウギカイホウモンカイゴカワグチ",
    "address": "新潟県長岡市西川口１１６８",
    "lat": 37.2650419,
    "lng": 138.8611475,
    "tel": "0258-89-3117",
    "url": "",
    "pref": "新潟県",
    "city": "長岡市",
    "category": "home_help",
    "serviceType": "訪問介護",
    "capacity": 0,
    "openDays": [
      "平日",
      "土曜日",
      "祝日"
    ],
    "openDaysNote": ""
  },
  {
    "id": "1570202646",
    "name": "特別養護老人ホーム　おごしの里",
    "kana": "トクベツヨウゴロウジンホーム　オゴシノサト",
    "address": "新潟県長岡市小国町楢沢90番地",
    "lat": 37.2878797,
    "lng": 138.7070425,
    "tel": "0258-95-3110",
    "url": "http://care-net.biz/15/ogoshi/",
    "pref": "新潟県",
    "city": "長岡市",
    "category": "home_help",
    "serviceType": "訪問介護",
    "capacity": 0,
    "openDays": [
      "平日",
      "土曜日",
      "祝日"
    ],
    "openDaysNote": "ご利用者の希望に応じて、サービスの提供については、時間外及び休日であっても２４時間対応可能な体制を整えるものとします。"
  },
  {
    "id": "1570201473",
    "name": "特別養護老人ホームこしじの里",
    "kana": "トクベツヨウゴロウジンホームコシジノサト",
    "address": "長岡市不動沢２２１９番地５",
    "lat": 37.3710029,
    "lng": 138.7460658,
    "tel": "0258-41-0801",
    "url": "http://care-net.biz/15/ogoshi/",
    "pref": "新潟県",
    "city": "長岡市",
    "category": "home_help",
    "serviceType": "訪問介護",
    "capacity": 3,
    "openDays": [
      "平日",
      "土曜日",
      "祝日"
    ],
    "openDaysNote": "但し、利用者の希望に応じて、サービスの調整については、可能な限り体制を整えるものとする。"
  },
  {
    "id": "1570202109",
    "name": "栃尾タクシー有限会社介護福祉事業部",
    "kana": "トチオタクシーユウゲンガイシャカイゴフクシジギョウブ",
    "address": "新潟県長岡市栃尾大町2-13",
    "lat": 37.4759613,
    "lng": 138.9923168,
    "tel": "0258-52-1212",
    "url": "",
    "pref": "新潟県",
    "city": "長岡市",
    "category": "home_help",
    "serviceType": "訪問介護",
    "capacity": 0,
    "openDays": [
      "平日",
      "土曜日",
      "日曜日",
      "祝日"
    ],
    "openDaysNote": ""
  },
  {
    "id": "1570200848",
    "name": "訪問介護ステーションみつごうや",
    "kana": "ホウモンカイゴステーションミツゴウヤ",
    "address": "新潟県長岡市三ツ郷屋町２９３番地１１",
    "lat": 37.4499907474066,
    "lng": 138.814783594361,
    "tel": "0258-27-7330",
    "url": "http://www.sutokukai.or.jp/cssc/facilities/zaitaku/facilities_zaitaku03.html",
    "pref": "新潟県",
    "city": "長岡市",
    "category": "home_help",
    "serviceType": "訪問介護",
    "capacity": 0,
    "openDays": [
      "平日",
      "土曜日",
      "祝日"
    ],
    "openDaysNote": "上記休日は要相談にて対応いたします。"
  },
  {
    "id": "1575900061",
    "name": "津南町在宅介護支援センター",
    "kana": "ツナンマチザイタクカイゴシエンセンター",
    "address": "新潟県中魚沼郡津南町大字下船渡丁２６８２番地３",
    "lat": 37.0154851,
    "lng": 138.6491057,
    "tel": "025-765-4858",
    "url": "http://keifukuen.or.jp",
    "pref": "新潟県",
    "city": "津南町",
    "category": "home_help",
    "serviceType": "訪問介護",
    "capacity": 0,
    "openDays": [
      "平日",
      "土曜日",
      "日曜日",
      "祝日"
    ],
    "openDaysNote": "なし"
  },
  {
    "id": "1575300064",
    "name": "社会福祉法人田上町社会福祉協議会",
    "kana": "シャカイフクシホウジンタガミマチシャカイフクシキョウギカイ",
    "address": "新潟県南蒲原郡田上町大字原ヶ崎新田3071番地",
    "lat": 37.6982541,
    "lng": 139.0576514,
    "tel": "0256-57-6271",
    "url": "https://care-net.biz/15/tagami-shakyo/",
    "pref": "新潟県",
    "city": "田上町",
    "category": "home_help",
    "serviceType": "訪問介護",
    "capacity": 0,
    "openDays": [
      "平日",
      "土曜日",
      "日曜日",
      "祝日"
    ],
    "openDaysNote": ""
  },
  {
    "id": "1575800287",
    "name": "湯沢町社会福祉協議会訪問介護事業所",
    "kana": "ユザワマチシャカイフクシキョウギカイホウモンカイゴジギョウショ",
    "address": "新潟県南魚沼郡湯沢町大字湯沢２８７７番地１　湯沢町総合福祉センター内",
    "lat": 36.9386598106553,
    "lng": 138.813186216502,
    "tel": "025-784-4111",
    "url": "http://www.syakyo-yuzawa.org/",
    "pref": "新潟県",
    "city": "湯沢町",
    "category": "home_help",
    "serviceType": "訪問介護",
    "capacity": 0,
    "openDays": [
      "平日",
      "土曜日",
      "日曜日",
      "祝日"
    ],
    "openDaysNote": "上記以外の時間帯で　お客様の要望があり対応が必要な場合につきましては、ご相談に応じます。"
  },
  {
    "id": "1572400487",
    "name": "南魚沼市社会福祉協議会訪問介護事業所",
    "kana": "ミナミウオヌマシシャカイフクシキョウギカイ　ホウモンカイゴジギョウショ",
    "address": "新潟県南魚沼市泉甲154-1",
    "lat": 37.0950249,
    "lng": 138.9187115,
    "tel": "025-788-1040",
    "url": "https://www.mu-shakyo.or.jp/",
    "pref": "新潟県",
    "city": "南魚沼市",
    "category": "home_help",
    "serviceType": "訪問介護",
    "capacity": 0,
    "openDays": [
      "平日",
      "土曜日",
      "祝日"
    ],
    "openDaysNote": "利用者から要請があった場合には営業時間以外でも訪問を行う。"
  },
  {
    "id": "1572401261",
    "name": "南魚沼市民病院訪問介護事業所",
    "kana": "ミナミウオヌマシミンビョウインホウモンカイゴジギョウショ",
    "address": "新潟県南魚沼市六日町2643番地1",
    "lat": 37.0567759,
    "lng": 138.8654636,
    "tel": "025-788-1222",
    "url": "http://www.minamiuonumahp.jp/",
    "pref": "新潟県",
    "city": "南魚沼市",
    "category": "home_help",
    "serviceType": "訪問介護",
    "capacity": null,
    "openDays": [
      "平日"
    ],
    "openDaysNote": "※利用者の希望に応じて、必要な場合は、相談の上対応します"
  },
  {
    "id": "1572400826",
    "name": "萌気園浦佐ヘルパーステーション",
    "kana": "モエギエンウラサヘルパーステーション",
    "address": "新潟県南魚沼市浦佐211-1",
    "lat": 37.1647659,
    "lng": 138.9178318,
    "tel": "025-777-5001",
    "url": "http://www.moegien.jp",
    "pref": "新潟県",
    "city": "南魚沼市",
    "category": "home_help",
    "serviceType": "訪問介護",
    "capacity": 0,
    "openDays": [
      "平日",
      "土曜日",
      "日曜日",
      "祝日"
    ],
    "openDaysNote": "24時期間（改行）365日"
  },
  {
    "id": "1572400024",
    "name": "鈴懸おはようヘルプ",
    "kana": "スズカケオハヨウヘルプ",
    "address": "新潟県南魚沼市浦佐５１４２－１",
    "lat": 37.1667772,
    "lng": 138.9353495,
    "tel": "025-780-4512",
    "url": "http://www.toureikai.com/",
    "pref": "新潟県",
    "city": "南魚沼市",
    "category": "home_help",
    "serviceType": "訪問介護",
    "capacity": 40,
    "openDays": [
      "平日",
      "土曜日",
      "日曜日",
      "祝日"
    ],
    "openDaysNote": "ただし、提供するサービス内容によって訪問時間の相談に応じます。"
  },
  {
    "id": "1570501385",
    "name": "SOMPOケア　柏崎松波　訪問介護",
    "kana": "ソンポケア　カシワザキマツナミ　ホウモンカイゴ",
    "address": "新潟県柏崎市松波２丁目４番２０号",
    "lat": 37.3912449,
    "lng": 138.5739591,
    "tel": "0257-20-6835",
    "url": "",
    "pref": "新潟県",
    "city": "柏崎市",
    "category": "home_help",
    "serviceType": "訪問介護",
    "capacity": 0,
    "openDays": [
      "平日",
      "土曜日",
      "日曜日",
      "祝日"
    ],
    "openDaysNote": "原則として、居宅サービス計画に基づくものとします。"
  },
  {
    "id": "1570501419",
    "name": "いろどり訪問介護",
    "kana": "イロドリ　ホウモンカイゴ",
    "address": "新潟県柏崎市西港町11番31号",
    "lat": 37.3704570525775,
    "lng": 138.546901242853,
    "tel": "0257-41-5408",
    "url": "",
    "pref": "新潟県",
    "city": "柏崎市",
    "category": "home_help",
    "serviceType": "訪問介護",
    "capacity": 0,
    "openDays": [
      "平日",
      "祝日"
    ],
    "openDaysNote": ""
  },
  {
    "id": "1570500247",
    "name": "えちご中越農業協同組合　訪問介護事業所",
    "kana": "エチゴチュウエツノウギョウキョウドウクミアイ　ホウモンカイゴジギョウショ",
    "address": "新潟県柏崎市大字曽地102番地",
    "lat": 37.4034304,
    "lng": 138.6356433,
    "tel": "0257-47-7600",
    "url": "",
    "pref": "新潟県",
    "city": "柏崎市",
    "category": "home_help",
    "serviceType": "訪問介護",
    "capacity": 0,
    "openDays": [
      "平日",
      "土曜日",
      "日曜日",
      "祝日"
    ],
    "openDaysNote": "上記営業時間以外のサービス提供は相談により対応"
  },
  {
    "id": "1570501260",
    "name": "エフビー訪問介護かしわざき",
    "kana": "エフビーホウモンカイゴカシワザキ",
    "address": "新潟県柏崎市北半田2丁目2番27号ケアライフ柏崎 ケアライフ柏崎",
    "lat": 37.364840674373,
    "lng": 138.576307743517,
    "tel": "0257-28-1811",
    "url": "http://www.fb-kaigo.co.jp/",
    "pref": "新潟県",
    "city": "柏崎市",
    "category": "home_help",
    "serviceType": "訪問介護",
    "capacity": 30,
    "openDays": [
      "平日",
      "土曜日",
      "日曜日",
      "祝日"
    ],
    "openDaysNote": "サービス提供は、利用者の希望に応じて365日24時間対応します。"
  },
  {
    "id": "1570501484",
    "name": "ニチイケアセンター柏崎長浜",
    "kana": "ニチイケアセンターカシワザキナガハマ",
    "address": "新潟県柏崎市長浜町6-43西江ビル202号室 西江ビル202号室",
    "lat": 37.3702019,
    "lng": 138.5770662,
    "tel": "0257-28-1866",
    "url": "",
    "pref": "新潟県",
    "city": "柏崎市",
    "category": "home_help",
    "serviceType": "訪問介護",
    "capacity": 0,
    "openDays": [
      "平日",
      "土曜日",
      "日曜日",
      "祝日"
    ],
    "openDaysNote": "上記以外の時間でも相談下さい。"
  },
  {
    "id": "1570501344",
    "name": "ヘルパーステーションあたたか柏崎",
    "kana": "ヘルパーステーションアタタカカシワザキ",
    "address": "新潟県柏崎市松美2-5-38有料老人ホームはなことば柏崎2号館内 有料老人ホームはなことば柏崎2号館内",
    "lat": 37.3773929,
    "lng": 138.5774636,
    "tel": "0257-47-7881",
    "url": "http://www.hanakotoba.co.jp/",
    "pref": "新潟県",
    "city": "柏崎市",
    "category": "home_help",
    "serviceType": "訪問介護",
    "capacity": 0,
    "openDays": [
      "平日",
      "土曜日",
      "日曜日",
      "祝日"
    ],
    "openDaysNote": ""
  },
  {
    "id": "1570501401",
    "name": "ヘルパーステーションこまめ",
    "kana": "ヘルパーステイションコマメ",
    "address": "新潟県柏崎市半田2-6-19セイワビル202 セイワビル202",
    "lat": 37.3573045,
    "lng": 138.5780156,
    "tel": "0257-47-7089",
    "url": "",
    "pref": "新潟県",
    "city": "柏崎市",
    "category": "home_help",
    "serviceType": "訪問介護",
    "capacity": 0,
    "openDays": [
      "平日",
      "祝日"
    ],
    "openDaysNote": "※1定休日は上記のように定めてますが、利用者の生活やサービス状況によっては要相談によって訪問を行うこともある。（改行）（改行）※2利用時間は営業時間外でも要望があった際に、利用者の生活やサービス状況によっては要相談によって訪問を行うこともある。"
  },
  {
    "id": "1570500908",
    "name": "ヘルパーステーションさわやか苑柏崎春日",
    "kana": "ヘルパーステーションサワヤカエンカシワザキカスガ",
    "address": "新潟県柏崎市春日1丁目2番51号",
    "lat": 37.3790743,
    "lng": 138.569421,
    "tel": "0257-22-3300",
    "url": "http://www.nmi-net.com/creamedicaux/",
    "pref": "新潟県",
    "city": "柏崎市",
    "category": "home_help",
    "serviceType": "訪問介護",
    "capacity": 0,
    "openDays": [
      "平日",
      "土曜日",
      "日曜日",
      "祝日"
    ],
    "openDaysNote": "ただし、利用者からの要望があった場合は、365日24時間対応する。"
  },
  {
    "id": "1570501518",
    "name": "やさしい手柏崎訪問介護事業所",
    "kana": "ヤサシイテカシワザキホウモンカイゴジギョウショ",
    "address": "新潟県柏崎市田中13－14",
    "lat": 37.3610789,
    "lng": 138.5671159,
    "tel": "０５０－１７５３－８６８９",
    "url": "https://www.yasashiite.com/",
    "pref": "新潟県",
    "city": "柏崎市",
    "category": "home_help",
    "serviceType": "訪問介護",
    "capacity": null,
    "openDays": [
      "平日",
      "土曜日",
      "日曜日",
      "祝日"
    ],
    "openDaysNote": ""
  },
  {
    "id": "1570500239",
    "name": "公益社団法人　柏崎市シルバー人材センター",
    "kana": "コウエキシャダンホウジン　カシワザキシシルバージンザイセンター",
    "address": "新潟県柏崎市田塚三丁目１１番３０号",
    "lat": 37.3672512,
    "lng": 138.5809811,
    "tel": "0257-24-2148",
    "url": "http://www.k-silver.jp/",
    "pref": "新潟県",
    "city": "柏崎市",
    "category": "home_help",
    "serviceType": "訪問介護",
    "capacity": 0,
    "openDays": [
      "平日",
      "土曜日",
      "日曜日",
      "祝日"
    ],
    "openDaysNote": ""
  },
  {
    "id": "1570500163",
    "name": "二幸介護サービス柏崎センター",
    "kana": "ニコウカイゴサービスカシワザキセンター",
    "address": "新潟県柏崎市茨目1522-1",
    "lat": 37.3567705490176,
    "lng": 138.582928587449,
    "tel": "0257-21-0828",
    "url": "",
    "pref": "新潟県",
    "city": "柏崎市",
    "category": "home_help",
    "serviceType": "訪問介護",
    "capacity": 0,
    "openDays": [
      "平日",
      "土曜日",
      "日曜日"
    ],
    "openDaysNote": "上記提供時間外、祝日におけるサービス提供は相談により対応可能です。"
  },
  {
    "id": "1570500205",
    "name": "柏崎市社会福祉協議会訪問介護事業所",
    "kana": "カシワザキシシャカイフクシキョウギカイホウモンカイゴジギョウショ",
    "address": "柏崎市扇町3-37扇町介護保険事業センター 扇町介護保険事業センター",
    "lat": 37.3655538,
    "lng": 138.5708184,
    "tel": "0257-41-4827",
    "url": "http://www.syakyou.jp/",
    "pref": "新潟県",
    "city": "柏崎市",
    "category": "home_help",
    "serviceType": "訪問介護",
    "capacity": 0,
    "openDays": [
      "平日",
      "土曜日",
      "日曜日",
      "祝日"
    ],
    "openDaysNote": ""
  },
  {
    "id": "1570501310",
    "name": "訪問介護の桜寿",
    "kana": "ホウモンカイゴノオウジュ",
    "address": "新潟県柏崎市日石町1-12",
    "lat": 37.364355089363,
    "lng": 138.557589533271,
    "tel": "0257-23-0170",
    "url": "http://www.oujyu.jp/",
    "pref": "新潟県",
    "city": "柏崎市",
    "category": "home_help",
    "serviceType": "訪問介護",
    "capacity": null,
    "openDays": [
      "平日"
    ],
    "openDaysNote": "営業日、営業時間外は、利用者の希望に応じて対応します。"
  },
  {
    "id": "1570501492",
    "name": "訪問介護もとすわ",
    "kana": "ホウモンカイゴ　モトスワ",
    "address": "新潟県柏崎市松波２丁目５番２５号",
    "lat": 37.3920014,
    "lng": 138.5746848,
    "tel": "0257-24-9057",
    "url": "https://motosuwa.com",
    "pref": "新潟県",
    "city": "柏崎市",
    "category": "home_help",
    "serviceType": "訪問介護",
    "capacity": 10,
    "openDays": [
      "平日",
      "土曜日",
      "祝日"
    ],
    "openDaysNote": ""
  },
  {
    "id": "1571600210",
    "name": "(株)てるてるぼうず訪問介護事業部",
    "kana": "カブシキガイシャテルテルボウズホウモンカイゴジギョウブ",
    "address": "新潟県妙高市柳井田町４丁目1４番１号",
    "lat": 37.057907,
    "lng": 138.2582652,
    "tel": "0255-75-1221",
    "url": "http://park15.wakwak.com/~teruteru/",
    "pref": "新潟県",
    "city": "妙高市",
    "category": "home_help",
    "serviceType": "訪問介護",
    "capacity": 0,
    "openDays": [
      "平日",
      "土曜日",
      "日曜日",
      "祝日"
    ],
    "openDaysNote": "営業時間外でも相談に応じサービスを提供いたします。"
  },
  {
    "id": "1571600772",
    "name": "さくらメディカル株式会社　あらい訪問介護事業所",
    "kana": "サクラメディカルカブシキガイシャ　アライホウモンカイゴジギョウショ",
    "address": "新潟県妙高市朝日町1-10-3",
    "lat": 37.0272927172907,
    "lng": 138.253080728836,
    "tel": "0255-70-1100",
    "url": "http://www.sakura-medical.com/",
    "pref": "新潟県",
    "city": "妙高市",
    "category": "home_help",
    "serviceType": "訪問介護",
    "capacity": 0,
    "openDays": [
      "平日",
      "土曜日",
      "日曜日",
      "祝日"
    ],
    "openDaysNote": ""
  },
  {
    "id": "1571600301",
    "name": "ヘルパーステーション新井",
    "kana": "ヘルパーステーションアライ",
    "address": "新潟県妙高市高柳2丁目6番2号",
    "lat": 37.0325707,
    "lng": 138.2637047,
    "tel": "0255-70-6574",
    "url": "http://www.joetsu-atago.or.jp",
    "pref": "新潟県",
    "city": "妙高市",
    "category": "home_help",
    "serviceType": "訪問介護",
    "capacity": 0,
    "openDays": [
      "平日",
      "土曜日",
      "日曜日",
      "祝日"
    ],
    "openDaysNote": "早朝6：00～8：00、夜間18：00～22：00、深夜はご相談に応じます。"
  },
  {
    "id": "1571600277",
    "name": "ヘルパーステーション北条",
    "kana": "ヘルパーステーションキタジョウ",
    "address": "新潟県妙高市大字北条５８５番地1",
    "lat": 37.0350513,
    "lng": 138.2746367,
    "tel": "0255-72-3226",
    "url": "http://www.araikeinanfukushikai.or.jp/",
    "pref": "新潟県",
    "city": "妙高市",
    "category": "home_help",
    "serviceType": "訪問介護",
    "capacity": 20,
    "openDays": [
      "平日",
      "土曜日",
      "日曜日",
      "祝日"
    ],
    "openDaysNote": "サービスの提供時間帯（通常８：００～１８：００、早朝６：００～８：００、夜間１８：００～２２：００）により料金が異なります。"
  },
  {
    "id": "1571600632",
    "name": "妙高みこころの家　みこころ訪問介護事業所",
    "kana": "ミョウコウミココロノイエミココロホウモンカイゴジギョウショ",
    "address": "新潟県妙高市大字田切字西原２１８番地３７妙高みこころの家 妙高みこころの家",
    "lat": 36.8872387760378,
    "lng": 138.18218854825,
    "tel": "0255-87-2780",
    "url": "http://www17.plala.or.jp/mikokoro/",
    "pref": "新潟県",
    "city": "妙高市",
    "category": "home_help",
    "serviceType": "訪問介護",
    "capacity": 18,
    "openDays": [
      "平日",
      "土曜日",
      "日曜日",
      "祝日"
    ],
    "openDaysNote": "年末年始（12月31日～1月3日）、お盆（8月13日～8月16日）"
  },
  {
    "id": "1571600046",
    "name": "妙高市社会福祉協議会　訪問介護事業所",
    "kana": "ミョウコウシシャカイフクシキョウギカイ　ホウモンカイゴジギョウショ",
    "address": "新潟県妙高市中町4-16いきいきプラザ　３階 いきいきプラザ　３階",
    "lat": 37.0261489,
    "lng": 138.2514841,
    "tel": "0255-70-6530",
    "url": "http://myoko-syakyo.jp/",
    "pref": "新潟県",
    "city": "妙高市",
    "category": "home_help",
    "serviceType": "訪問介護",
    "capacity": 0,
    "openDays": [
      "平日",
      "土曜日",
      "日曜日",
      "祝日"
    ],
    "openDaysNote": ""
  },
  {
    "id": "1575200389",
    "name": "社会福祉法人　弥彦村社会福祉協議会",
    "kana": "シャカイフクシホウジン　ヤヒコムラシャカイフクシキョウギカイ",
    "address": "新潟県西蒲原郡弥彦村大字矢作4622番地",
    "lat": 37.6978369,
    "lng": 138.8551405,
    "tel": "0256-94-4551",
    "url": "http://www.yahiko-shakyo.com",
    "pref": "新潟県",
    "city": "弥彦村",
    "category": "home_help",
    "serviceType": "訪問介護",
    "capacity": 0,
    "openDays": [
      "平日",
      "土曜日",
      "日曜日",
      "祝日"
    ],
    "openDaysNote": "希望に応じて、８時～１８時まで　サービス利用可能。"
  }
]