[
  {
    "id": "971400080",
    "name": "つきみ",
    "kana": "ツキミ",
    "address": "氏家３４８８－８１",
    "lat": 36.7100761,
    "lng": 139.9667292,
    "tel": "028-666-7695",
    "url": "",
    "pref": "栃木県",
    "city": "さくら市",
    "category": "home_help",
    "serviceType": "訪問介護",
    "capacity": null,
    "openDays": [],
    "openDaysNote": "12月29日から1月3日は年末年始の休業日になります。"
  },
  {
    "id": "971400445",
    "name": "ニチイケアセンター氏家",
    "kana": "ニチイケアセンタ－ウジイエ",
    "address": "栃木県さくら市櫻野1042-1",
    "lat": 36.683597,
    "lng": 139.975664,
    "tel": "028-612-7203",
    "url": "",
    "pref": "栃木県",
    "city": "さくら市",
    "category": "home_help",
    "serviceType": "訪問介護",
    "capacity": 0,
    "openDays": [
      "平日",
      "土曜日",
      "日曜日",
      "祝日"
    ],
    "openDaysNote": ""
  },
  {
    "id": "971400155",
    "name": "ヘルパーステーションインマイライフさくら氏家",
    "kana": "ヘルパーステーションインマイライフサクラウジイエ",
    "address": "栃木県さくら市氏家3205-1",
    "lat": 36.6938586,
    "lng": 139.969399,
    "tel": "028-681-7818",
    "url": "https://daruma-sakura.jp/",
    "pref": "栃木県",
    "city": "さくら市",
    "category": "home_help",
    "serviceType": "訪問介護",
    "capacity": 0,
    "openDays": [
      "平日",
      "土曜日",
      "日曜日",
      "祝日"
    ],
    "openDaysNote": ""
  },
  {
    "id": "971400312",
    "name": "家族の家ひまわり氏家",
    "kana": "カゾクノイエヒマワリウジイエ",
    "address": "卯の里4-52-1",
    "lat": 36.6799715,
    "lng": 139.9588225,
    "tel": "028-681-5850",
    "url": "www.sanneido.co,jp>ujiie>info>outline",
    "pref": "栃木県",
    "city": "さくら市",
    "category": "home_help",
    "serviceType": "訪問介護",
    "capacity": null,
    "openDays": [
      "平日",
      "土曜日",
      "日曜日",
      "祝日"
    ],
    "openDaysNote": "利用者の希望に応じて、サービスの提供については、24時間対応可能な体制を整えるものとします。"
  },
  {
    "id": "972600043",
    "name": "在宅介護支援センター　にこん",
    "kana": "ザイタクカイゴシエンセンター　ニコン",
    "address": "栃木県さくら市下河戸1942－2",
    "lat": 36.7722645,
    "lng": 140.0184457,
    "tel": "028-685-3130",
    "url": "",
    "pref": "栃木県",
    "city": "さくら市",
    "category": "home_help",
    "serviceType": "訪問介護",
    "capacity": 0,
    "openDays": [
      "平日",
      "土曜日",
      "日曜日",
      "祝日"
    ],
    "openDaysNote": ""
  },
  {
    "id": "970107827",
    "name": "ＳＯＭＰＯケア　宇都宮　訪問介護",
    "kana": "ソンポケア　ウツノミヤ　ホウモンカイゴ",
    "address": "栃木県宇都宮市中今泉五丁目２３番１２号ＫＹ事務所Ｃ号室 ＫＹ事務所Ｃ号室",
    "lat": 36.5707095,
    "lng": 139.9153558,
    "tel": "028-663-5731",
    "url": "",
    "pref": "栃木県",
    "city": "宇都宮市",
    "category": "home_help",
    "serviceType": "訪問介護",
    "capacity": 0,
    "openDays": [
      "平日",
      "土曜日",
      "日曜日",
      "祝日"
    ],
    "openDaysNote": "ケアプランに応じて24時間365日のサービス提供（改行）人員体制により利用時間の変更あり"
  },
  {
    "id": "970107819",
    "name": "ＳＯＭＰＯケア　雀宮　訪問介護",
    "kana": "ソンポケア　スズメノミヤ　ホウモンカイゴ",
    "address": "栃木県宇都宮市雀の宮四丁目26番9号百目鬼事務所103号室 百目鬼事務所103号室",
    "lat": 36.495827,
    "lng": 139.8711828,
    "tel": "028-688-3551",
    "url": "",
    "pref": "栃木県",
    "city": "宇都宮市",
    "category": "home_help",
    "serviceType": "訪問介護",
    "capacity": 0,
    "openDays": [
      "平日",
      "土曜日",
      "日曜日",
      "祝日"
    ],
    "openDaysNote": "ケアプランに応じて24時間365日のサービス提供"
  },
  {
    "id": "970103131",
    "name": "ＴＢＣ宇都宮ケアセンター",
    "kana": "ティビィシィウツノミヤケアセンター",
    "address": "栃木県宇都宮市南大通り2-1-2ＴＢＣ学院ビル７階 ＴＢＣ学院ビル７階",
    "lat": 36.5557626,
    "lng": 139.8922591,
    "tel": "028-651-2171",
    "url": "http://fkc-fukusi.info/fukusi/utunomiyacenter/",
    "pref": "栃木県",
    "city": "宇都宮市",
    "category": "home_help",
    "serviceType": "訪問介護",
    "capacity": 20,
    "openDays": [
      "平日",
      "土曜日",
      "日曜日",
      "祝日"
    ],
    "openDaysNote": "時間外でも利用者のニーズに即したサービスを提供する。"
  },
  {
    "id": "970108924",
    "name": "アインスケア訪問介護事務所",
    "kana": "アインスケアホウモンカイゴジムショ",
    "address": "陽南2丁目14－14",
    "lat": 36.5345541,
    "lng": 139.8749469,
    "tel": "070-2666-9464",
    "url": "",
    "pref": "栃木県",
    "city": "宇都宮市",
    "category": "home_help",
    "serviceType": "訪問介護",
    "capacity": null,
    "openDays": [
      "平日",
      "土曜日",
      "日曜日",
      "祝日"
    ],
    "openDaysNote": ""
  },
  {
    "id": "970104345",
    "name": "アシスト・ケア",
    "kana": "アシスト・ケア",
    "address": "栃木県宇都宮市中岡本町2919-188　ラドパルク102",
    "lat": 36.608971,
    "lng": 139.939984,
    "tel": "028-616-3579",
    "url": "",
    "pref": "栃木県",
    "city": "宇都宮市",
    "category": "home_help",
    "serviceType": "訪問介護",
    "capacity": 0,
    "openDays": [
      "平日",
      "土曜日",
      "日曜日",
      "祝日"
    ],
    "openDaysNote": ""
  },
  {
    "id": "970107983",
    "name": "あったか訪問介護ステーション",
    "kana": "アッタカホウモンカイゴステーション",
    "address": "栃木県宇都宮市元今泉７丁目２６番３号ニューフォレスト２０６ ニューフォレスト２０６",
    "lat": 36.5657041,
    "lng": 139.9122052,
    "tel": "０２８－６６０－７５７６",
    "url": "",
    "pref": "栃木県",
    "city": "宇都宮市",
    "category": "home_help",
    "serviceType": "訪問介護",
    "capacity": 0,
    "openDays": [
      "平日",
      "土曜日",
      "祝日"
    ],
    "openDaysNote": ""
  },
  {
    "id": "970104204",
    "name": "いちごケアサポート",
    "kana": "イチゴケアサポート",
    "address": "栃木県宇都宮市上戸祭町3021－19",
    "lat": 36.5423635,
    "lng": 139.8709197,
    "tel": "028-636-6048",
    "url": "",
    "pref": "栃木県",
    "city": "宇都宮市",
    "category": "home_help",
    "serviceType": "訪問介護",
    "capacity": 4,
    "openDays": [
      "平日",
      "土曜日",
      "日曜日",
      "祝日"
    ],
    "openDaysNote": "12月29日～1月3日を除く"
  },
  {
    "id": "970108551",
    "name": "うつのみや訪問介護ステーションにこっと",
    "kana": "ウツノミヤホウモンカイゴステーションニコット",
    "address": "栃木県宇都宮市平出町１７７７−３",
    "lat": 36.5598973,
    "lng": 139.9437811,
    "tel": "028-660-2510",
    "url": "http://houmonkango-nicot.com/",
    "pref": "栃木県",
    "city": "宇都宮市",
    "category": "home_help",
    "serviceType": "訪問介護",
    "capacity": 0,
    "openDays": [
      "平日",
      "土曜日",
      "日曜日",
      "祝日"
    ],
    "openDaysNote": "年末年始（12月30日～1月3日）、お盆（8月13日～8月15日）は応相談。"
  },
  {
    "id": "970108395",
    "name": "きみはな　訪問介護",
    "kana": "キミハナ　ホウモンカイゴ",
    "address": "栃木県宇都宮市御幸ケ原町131-10メゾンド・ユリA101 メゾンド・ユリA101",
    "lat": 36.5899315,
    "lng": 139.9215335,
    "tel": "028-612-7905",
    "url": "https://www.kimihana-care.com/",
    "pref": "栃木県",
    "city": "宇都宮市",
    "category": "home_help",
    "serviceType": "訪問介護",
    "capacity": 10,
    "openDays": [
      "平日",
      "祝日"
    ],
    "openDaysNote": "上記以外のサービス提供については、要相談とする。（改行）（但し、時間帯においては料金が異なる）"
  },
  {
    "id": "970103206",
    "name": "ケアサービスうつのみやファミリー",
    "kana": "ケアサービスウツノミヤファミリー",
    "address": "栃木県宇都宮市一ノ沢町２６５番地１０",
    "lat": 36.5761619,
    "lng": 139.8588579,
    "tel": "028-650-5361",
    "url": "",
    "pref": "栃木県",
    "city": "宇都宮市",
    "category": "home_help",
    "serviceType": "訪問介護",
    "capacity": 0,
    "openDays": [
      "平日",
      "土曜日",
      "日曜日",
      "祝日"
    ],
    "openDaysNote": "必要に応じて早朝・夜間・深夜の訪問介護も実施します。"
  },
  {
    "id": "970102943",
    "name": "ケアサービス咲さく",
    "kana": "ケアサービス　サクサク",
    "address": "宇都宮市宝木町1－3402－1",
    "lat": 36.5830339322545,
    "lng": 139.851914598064,
    "tel": "028-666-7528",
    "url": "hs.takaragi@gmail.com",
    "pref": "栃木県",
    "city": "宇都宮市",
    "category": "home_help",
    "serviceType": "訪問介護",
    "capacity": 0,
    "openDays": [
      "平日",
      "土曜日",
      "日曜日",
      "祝日"
    ],
    "openDaysNote": ""
  },
  {
    "id": "970101986",
    "name": "ケアステーションひまわり",
    "kana": "ケアステーションヒマワリ",
    "address": "宇都宮市錦２丁目５－２",
    "lat": 36.5718583,
    "lng": 139.8972329,
    "tel": "028-650-4555",
    "url": "",
    "pref": "栃木県",
    "city": "宇都宮市",
    "category": "home_help",
    "serviceType": "訪問介護",
    "capacity": 5,
    "openDays": [
      "平日",
      "土曜日",
      "日曜日",
      "祝日"
    ],
    "openDaysNote": "-"
  },
  {
    "id": "970104246",
    "name": "ケアセンター木の実",
    "kana": "ケアセンターコノミ",
    "address": "栃木県宇都宮市一番町3番17号シロアムマンション花 シロアムマンション花",
    "lat": 36.5588121028422,
    "lng": 139.891475005032,
    "tel": "028-635-0870",
    "url": "konomi-houmonkaigo@roadcn.ne.jp",
    "pref": "栃木県",
    "city": "宇都宮市",
    "category": "home_help",
    "serviceType": "訪問介護",
    "capacity": 0,
    "openDays": [
      "平日",
      "土曜日",
      "日曜日",
      "祝日"
    ],
    "openDaysNote": ""
  },
  {
    "id": "970105730",
    "name": "ケアメイトてまり",
    "kana": "ケアメイトテマリ",
    "address": "栃木県宇都宮市細谷町574番地5サンハイツアーデルⅡ101 サンハイツアーデルⅡ101",
    "lat": 36.5992893,
    "lng": 139.8520671,
    "tel": "028－611－1520",
    "url": "http://fukinotou.cu.com/",
    "pref": "栃木県",
    "city": "宇都宮市",
    "category": "home_help",
    "serviceType": "訪問介護",
    "capacity": 30,
    "openDays": [
      "平日",
      "土曜日",
      "日曜日",
      "祝日"
    ],
    "openDaysNote": "状況に応じて対応できないこともあります。"
  },
  {
    "id": "970104360",
    "name": "コープヘルパーステーション江曽島",
    "kana": "コープヘルパーステーションエソシマ",
    "address": "宇都宮市緑5-13-8",
    "lat": 36.5140772226848,
    "lng": 139.860010073886,
    "tel": "028-616-6501",
    "url": "http://www.fureai-coop.com/",
    "pref": "栃木県",
    "city": "宇都宮市",
    "category": "home_help",
    "serviceType": "訪問介護",
    "capacity": 0,
    "openDays": [
      "平日",
      "祝日"
    ],
    "openDaysNote": ""
  },
  {
    "id": "970108452",
    "name": "ココファン元今泉",
    "kana": "ココファンモトイマイズミ",
    "address": "栃木県宇都宮市元今泉5-8-19ココファン元今泉 ココファン元今泉",
    "lat": 36.5601683,
    "lng": 139.9109589,
    "tel": "028-660-2250",
    "url": "",
    "pref": "栃木県",
    "city": "宇都宮市",
    "category": "home_help",
    "serviceType": "訪問介護",
    "capacity": 0,
    "openDays": [
      "平日",
      "土曜日",
      "日曜日",
      "祝日"
    ],
    "openDaysNote": ""
  },
  {
    "id": "970107496",
    "name": "ご長寿くらぶ宇都宮ビオス",
    "kana": "ゴチョウジュクラブウツノミヤビオス",
    "address": "栃木県宇都宮市下岡本町2108-60",
    "lat": 36.6011513,
    "lng": 139.9461822,
    "tel": "028-673-4107",
    "url": "http://gotyoujyuclub.com",
    "pref": "栃木県",
    "city": "宇都宮市",
    "category": "home_help",
    "serviceType": "訪問介護",
    "capacity": 0,
    "openDays": [
      "平日"
    ],
    "openDaysNote": ""
  },
  {
    "id": "960190239",
    "name": "さくらがおかケアセンター",
    "kana": "サクラガオカケアセンター",
    "address": "栃木県宇都宮市宝木町2-2570-12",
    "lat": 36.5869716,
    "lng": 139.8461722,
    "tel": "028-680-5492",
    "url": "sakuragaoka0476@yahoo.co.jp",
    "pref": "栃木県",
    "city": "宇都宮市",
    "category": "home_help",
    "serviceType": "訪問介護",
    "capacity": 120,
    "openDays": [
      "平日",
      "土曜日",
      "日曜日",
      "祝日"
    ],
    "openDaysNote": "電話等により24時間常時連絡可能な体制とする。（改行）必要に応じて、提供時間２４時間。"
  },
  {
    "id": "970103305",
    "name": "さくらがおかケアセンター氷室",
    "kana": "サクラガオカケアセンターヒムロ",
    "address": "栃木県宇都宮市氷室町1,014-1",
    "lat": 36.5406219782014,
    "lng": 140.000848528281,
    "tel": "028-67-3131",
    "url": "",
    "pref": "栃木県",
    "city": "宇都宮市",
    "category": "home_help",
    "serviceType": "訪問介護",
    "capacity": 0,
    "openDays": [
      "平日"
    ],
    "openDaysNote": "他時間、ご相談下さい。対応いたします。"
  },
  {
    "id": "970108890",
    "name": "サン・ブリッジ訪問介護",
    "kana": "サン・ブリッジホウモンカイゴ",
    "address": "栃木県宇都宮市峰2丁目3-12コンフォート峰１０３ コンフォート峰１０３",
    "lat": 36.5567329,
    "lng": 139.9158304,
    "tel": "028-680-4472",
    "url": "https://www.sunny-staff.com",
    "pref": "栃木県",
    "city": "宇都宮市",
    "category": "home_help",
    "serviceType": "訪問介護",
    "capacity": 0,
    "openDays": [
      "平日",
      "土曜日",
      "祝日"
    ],
    "openDaysNote": "事業所の営業時間は午前８：３０分～１７：３０分まで"
  },
  {
    "id": "970108361",
    "name": "ツクイ・サンフォレスト宇都宮",
    "kana": "ツクイ・サンフォレストウツノミヤ",
    "address": "栃木県宇都宮市簗瀬4-4-7",
    "lat": 36.5536934,
    "lng": 139.899547,
    "tel": "028-614-8017",
    "url": "",
    "pref": "栃木県",
    "city": "宇都宮市",
    "category": "home_help",
    "serviceType": "訪問介護",
    "capacity": 20,
    "openDays": [
      "平日",
      "土曜日",
      "日曜日",
      "祝日"
    ],
    "openDaysNote": "24時間体制"
  },
  {
    "id": "970103990",
    "name": "トゥルーサポート　ぴゅあ",
    "kana": "トゥルーサポート　ピュア",
    "address": "宇都宮市問屋町3426-46",
    "lat": 36.5350992,
    "lng": 139.921971,
    "tel": "028-611-1771",
    "url": "",
    "pref": "栃木県",
    "city": "宇都宮市",
    "category": "home_help",
    "serviceType": "訪問介護",
    "capacity": 0,
    "openDays": [
      "平日",
      "土曜日",
      "日曜日",
      "祝日"
    ],
    "openDaysNote": ""
  },
  {
    "id": "970106753",
    "name": "トレモンテ　ケアサービス",
    "kana": "トレモンテ　ケアサービス",
    "address": "宇都宮市石井町2972番地1",
    "lat": 36.5398352869832,
    "lng": 139.92671817981,
    "tel": "028-662-7733",
    "url": "http://tremonte.net",
    "pref": "栃木県",
    "city": "宇都宮市",
    "category": "home_help",
    "serviceType": "訪問介護",
    "capacity": 100,
    "openDays": [
      "平日",
      "土曜日",
      "日曜日",
      "祝日"
    ],
    "openDaysNote": "※居宅サービス計画により、営業時間以外であってもサービスを提供する場合があります。"
  },
  {
    "id": "970101473",
    "name": "にこにこヘルパーズ",
    "kana": "ニコニコヘルパーズ",
    "address": "栃木県宇都宮市大通り3-5-18宮リバーハイツ407 宮リバーハイツ407",
    "lat": 36.5589155951798,
    "lng": 139.892824893918,
    "tel": "028-632-0025",
    "url": "",
    "pref": "栃木県",
    "city": "宇都宮市",
    "category": "home_help",
    "serviceType": "訪問介護",
    "capacity": 30,
    "openDays": [
      "平日",
      "土曜日",
      "日曜日",
      "祝日"
    ],
    "openDaysNote": "上記以外の時間についてもご相談に応じて対応させていただきます。"
  },
  {
    "id": "970100020",
    "name": "ニチイケアセンター宇都宮",
    "kana": "ニチイケアセンターウツノミヤ",
    "address": "栃木県宇都宮市城東2丁目26‐40ニチイケアセンター宇都宮 ニチイケアセンター宇都宮",
    "lat": 36.5516721,
    "lng": 139.9060939,
    "tel": "028-651-3322",
    "url": "http://www.nichiigakkan.co.jp",
    "pref": "栃木県",
    "city": "宇都宮市",
    "category": "home_help",
    "serviceType": "訪問介護",
    "capacity": 0,
    "openDays": [
      "平日"
    ],
    "openDaysNote": "※居宅サービス計画により、休業日および営業時間外であってもサービスを提供する場合があります。"
  },
  {
    "id": "970108791",
    "name": "ネオステップ宇都宮",
    "kana": "ネオステップウツノミヤ",
    "address": "栃木県宇都宮市鶴田町３３５３番地４９",
    "lat": 36.5425126,
    "lng": 139.8598979,
    "tel": "286789196",
    "url": "https://neostep-utsunomiya.com",
    "pref": "栃木県",
    "city": "宇都宮市",
    "category": "home_help",
    "serviceType": "訪問介護",
    "capacity": null,
    "openDays": [
      "平日",
      "土曜日",
      "日曜日",
      "祝日"
    ],
    "openDaysNote": ""
  },
  {
    "id": "970104279",
    "name": "ハートフルサポートとちぎ",
    "kana": "ハートフルサポートトチギ",
    "address": "栃木県宇都宮市柳田町1771-1",
    "lat": 36.5688728900763,
    "lng": 139.957801443469,
    "tel": "028-683-6039",
    "url": "http://hs-tochigi.com",
    "pref": "栃木県",
    "city": "宇都宮市",
    "category": "home_help",
    "serviceType": "訪問介護",
    "capacity": 0,
    "openDays": [
      "平日",
      "祝日"
    ],
    "openDaysNote": "平日・祝日時間外、土曜日、日曜日であってもサービス提供可能な場合は、サービス提供を行っている。"
  },
  {
    "id": "970100327",
    "name": "ハートポイント宇都宮",
    "kana": "ハートポイントウツノミヤ",
    "address": "栃木県宇都宮市今泉町134番地3",
    "lat": 36.567595,
    "lng": 139.8986857,
    "tel": "028-623-5521",
    "url": "",
    "pref": "栃木県",
    "city": "宇都宮市",
    "category": "home_help",
    "serviceType": "訪問介護",
    "capacity": 0,
    "openDays": [
      "平日",
      "土曜日"
    ],
    "openDaysNote": ""
  },
  {
    "id": "970106548",
    "name": "ハートポート宇都宮",
    "kana": "ハートポートウツノミヤ",
    "address": "宇都宮市鶴田町3353-44ロイヤルマンション野口203",
    "lat": 36.5420222720031,
    "lng": 139.858675355088,
    "tel": "028-666-6-57",
    "url": "",
    "pref": "栃木県",
    "city": "宇都宮市",
    "category": "home_help",
    "serviceType": "訪問介護",
    "capacity": 0,
    "openDays": [
      "平日",
      "土曜日",
      "日曜日",
      "祝日"
    ],
    "openDaysNote": ""
  },
  {
    "id": "970102976",
    "name": "ハッピーライフめばえ",
    "kana": "ハッピーライフメバエ",
    "address": "栃木県宇都宮市陽東1-3-2吉田ハイツ1階 吉田ハイツ1階",
    "lat": 36.5514951586669,
    "lng": 139.923483458197,
    "tel": "028-660-5220",
    "url": "mebaespirits.wixsite.com",
    "pref": "栃木県",
    "city": "宇都宮市",
    "category": "home_help",
    "serviceType": "訪問介護",
    "capacity": 0,
    "openDays": [
      "平日",
      "土曜日",
      "日曜日",
      "祝日"
    ],
    "openDaysNote": "-"
  },
  {
    "id": "970108593",
    "name": "ひまわりケアサービス",
    "kana": "ヒマワリケアサービス",
    "address": "栃木県宇都宮市下栗町2278-2フレールシャポー泉B206 フレールシャポー泉B206",
    "lat": 36.5283155,
    "lng": 139.9174791,
    "tel": "0285-37-8322",
    "url": "",
    "pref": "栃木県",
    "city": "宇都宮市",
    "category": "home_help",
    "serviceType": "訪問介護",
    "capacity": 0,
    "openDays": [
      "平日"
    ],
    "openDaysNote": ""
  },
  {
    "id": "970106993",
    "name": "プレシャス",
    "kana": "プレシャス",
    "address": "栃木県宇都宮市明保野町4－10アーバンドルミ201 アーバンドルミ201",
    "lat": 36.5497305,
    "lng": 139.8672148,
    "tel": "028‐680-4563",
    "url": "",
    "pref": "栃木県",
    "city": "宇都宮市",
    "category": "home_help",
    "serviceType": "訪問介護",
    "capacity": 0,
    "openDays": [
      "平日"
    ],
    "openDaysNote": ""
  },
  {
    "id": "970107306",
    "name": "ふれんどヘルパーステーション",
    "kana": "フレンドヘルパーステーション",
    "address": "栃木県宇都宮市下岡本町２１７５－１０プルミエール・アミ岡本 プルミエール・アミ岡本",
    "lat": 36.5977081479048,
    "lng": 139.939073968809,
    "tel": "０２８－６６６－６５２６",
    "url": "http://www.f-pw.jp/",
    "pref": "栃木県",
    "city": "宇都宮市",
    "category": "home_help",
    "serviceType": "訪問介護",
    "capacity": 0,
    "openDays": [
      "平日",
      "土曜日",
      "日曜日",
      "祝日"
    ],
    "openDaysNote": "17：00～翌9：00まではサービス付き高齢者住宅「プルミエール・アミ岡本」入居者様のみ、サービス利用可能。（改行）※上記時間内での訪問をご希望の場合はご相談ください。"
  },
  {
    "id": "970105128",
    "name": "ヘルパーステーション　キガ",
    "kana": "ヘルパーステーションキガ",
    "address": "栃木県宇都宮市平出町1043-3",
    "lat": 36.5768068,
    "lng": 139.9375117,
    "tel": "028-613-5133",
    "url": "",
    "pref": "栃木県",
    "city": "宇都宮市",
    "category": "home_help",
    "serviceType": "訪問介護",
    "capacity": 0,
    "openDays": [
      "平日",
      "土曜日",
      "日曜日",
      "祝日"
    ],
    "openDaysNote": "なし"
  },
  {
    "id": "970101507",
    "name": "ヘルパーステーション　ぬまお",
    "kana": "ヘルパーステーション　ヌマオ",
    "address": "栃木県宇都宮市星が丘1-7-38",
    "lat": 36.568005,
    "lng": 139.8752572,
    "tel": "028-600-3288",
    "url": "http://numaog.or.jp/",
    "pref": "栃木県",
    "city": "宇都宮市",
    "category": "home_help",
    "serviceType": "訪問介護",
    "capacity": 0,
    "openDays": [
      "平日",
      "土曜日"
    ],
    "openDaysNote": "上記時間帯以外の利用希望があった場合には要相談"
  },
  {
    "id": "970106399",
    "name": "ヘルパーステーションえがお",
    "kana": "ヘルパーステーションエガオ",
    "address": "栃木県宇都宮市宝木本町2062-2サービス付き高齢者向け住宅えがお サービス付き高齢者向け住宅えがお",
    "lat": 36.6190427,
    "lng": 139.8509904,
    "tel": "028-612-7811",
    "url": "",
    "pref": "栃木県",
    "city": "宇都宮市",
    "category": "home_help",
    "serviceType": "訪問介護",
    "capacity": 0,
    "openDays": [
      "平日",
      "土曜日",
      "日曜日",
      "祝日"
    ],
    "openDaysNote": ""
  },
  {
    "id": "970108189",
    "name": "ヘルパーステーションサンクス雀の宮",
    "kana": "ヘルパーステーションサンクススズメノミヤ",
    "address": "栃木県宇都宮市雀の宮２丁目８番８号リビングサンクス雀の宮 リビングサンクス雀の宮",
    "lat": 36.4964884,
    "lng": 139.8727085,
    "tel": "028-688-8414",
    "url": "http://living-thanks.co.jp/",
    "pref": "栃木県",
    "city": "宇都宮市",
    "category": "home_help",
    "serviceType": "訪問介護",
    "capacity": 30,
    "openDays": [
      "平日",
      "土曜日",
      "日曜日",
      "祝日"
    ],
    "openDaysNote": ""
  },
  {
    "id": "970108510",
    "name": "ヘルパーステーション赤とんぼ",
    "kana": "ヘルパーステーションアカトンボ",
    "address": "栃木県宇都宮市細谷町５７９番地５",
    "lat": 36.5997959,
    "lng": 139.8509474,
    "tel": "０７０（２２７５）３０９０",
    "url": "",
    "pref": "栃木県",
    "city": "宇都宮市",
    "category": "home_help",
    "serviceType": "訪問介護",
    "capacity": null,
    "openDays": [
      "平日"
    ],
    "openDaysNote": ""
  },
  {
    "id": "960190056",
    "name": "ヘルパーステーション虹",
    "kana": "ヘルパーステーションニジ",
    "address": "宇都宮市宝木町2丁目1028-17",
    "lat": 36.5923535279078,
    "lng": 139.845531310451,
    "tel": "028-600-1602",
    "url": "http://www.seikyo-niji.jp",
    "pref": "栃木県",
    "city": "宇都宮市",
    "category": "home_help",
    "serviceType": "訪問介護",
    "capacity": 0,
    "openDays": [
      "平日",
      "土曜日",
      "日曜日",
      "祝日"
    ],
    "openDaysNote": "年末年始（12/29～1/3）は休業になります。（応相談）"
  },
  {
    "id": "970108767",
    "name": "ヘルパーステーション良心",
    "kana": "ヘルパーステーションリョウシン",
    "address": "栃木県宇都宮市御幸ヶ原町62-20",
    "lat": 36.593853,
    "lng": 139.9264184,
    "tel": "028-678-9995",
    "url": "",
    "pref": "栃木県",
    "city": "宇都宮市",
    "category": "home_help",
    "serviceType": "訪問介護",
    "capacity": 0,
    "openDays": [
      "平日"
    ],
    "openDaysNote": "8/13～8/14、12/29～1/3除く"
  },
  {
    "id": "970109013",
    "name": "ヘルパステーション猫の手",
    "kana": "ヘルパーステーションネコノテ",
    "address": "栃木県宇都宮市簗瀬3-15-112階 2階",
    "lat": 36.5488456,
    "lng": 139.8952415,
    "tel": "028-611-1116",
    "url": "https://www.cocoa-st.jp/",
    "pref": "栃木県",
    "city": "宇都宮市",
    "category": "home_help",
    "serviceType": "訪問介護",
    "capacity": 0,
    "openDays": [
      "平日",
      "祝日"
    ],
    "openDaysNote": ""
  },
  {
    "id": "970100566",
    "name": "ホームヘルプサービス　はりがや",
    "kana": "ホームヘルプサービスハリガヤ",
    "address": "栃木県宇都宮市針ヶ谷町６５５",
    "lat": 36.4897915,
    "lng": 139.8518009,
    "tel": "028-688-3375",
    "url": "http://www.fukushi-asahikai.or.jp",
    "pref": "栃木県",
    "city": "宇都宮市",
    "category": "home_help",
    "serviceType": "訪問介護",
    "capacity": 0,
    "openDays": [
      "平日",
      "土曜日",
      "日曜日",
      "祝日"
    ],
    "openDaysNote": ""
  },
  {
    "id": "970108973",
    "name": "ホームヘルプサービスみどり野",
    "kana": "ホームヘルプサービスミドリノ",
    "address": "栃木県宇都宮市瑞穂2-1-1",
    "lat": 36.5103021,
    "lng": 139.918169,
    "tel": "028-678-8166",
    "url": "",
    "pref": "栃木県",
    "city": "宇都宮市",
    "category": "home_help",
    "serviceType": "訪問介護",
    "capacity": null,
    "openDays": [
      "平日",
      "土曜日",
      "祝日"
    ],
    "openDaysNote": "年末年始（12/30～1/3）は休業"
  },
  {
    "id": "970107272",
    "name": "みずほホームケアサービス",
    "kana": "ミズホホームケアサービス",
    "address": "栃木県宇都宮市瑞穂２丁目１４番地７",
    "lat": 36.5082849,
    "lng": 139.9184444,
    "tel": "０２８－６８０－７７０５",
    "url": "http//kamikomoriya.or.jp",
    "pref": "栃木県",
    "city": "宇都宮市",
    "category": "home_help",
    "serviceType": "訪問介護",
    "capacity": null,
    "openDays": [
      "平日",
      "土曜日",
      "日曜日",
      "祝日"
    ],
    "openDaysNote": "緊急性の高いケースについては、定休日で有ってもご相談に応じます。"
  },
  {
    "id": "970103289",
    "name": "みやフレンド",
    "kana": "ミヤフレンド",
    "address": "栃木県宇都宮市西川田町906番地",
    "lat": 36.5236089696101,
    "lng": 139.850615776127,
    "tel": "028-658-3777",
    "url": "http://utsunomiya-kaigo.com",
    "pref": "栃木県",
    "city": "宇都宮市",
    "category": "home_help",
    "serviceType": "訪問介護",
    "capacity": 0,
    "openDays": [
      "平日",
      "土曜日",
      "日曜日",
      "祝日"
    ],
    "openDaysNote": "訪問介護計画に沿って介護サービスを実施します。事業所の人員体制等により行えない場合もあります。"
  },
  {
    "id": "970104915",
    "name": "らいとケア上戸祭（平成22年度新規指定事業所）",
    "kana": "ライトケアカミトマツリ",
    "address": "栃木県宇都宮市上戸祭町3004－2とちのき上戸祭 とちのき上戸祭",
    "lat": 36.5916189,
    "lng": 139.8685399,
    "tel": "028-623-7082",
    "url": "http://www.raito-care.jp",
    "pref": "栃木県",
    "city": "宇都宮市",
    "category": "home_help",
    "serviceType": "訪問介護",
    "capacity": 0,
    "openDays": [
      "平日",
      "土曜日",
      "日曜日",
      "祝日"
    ],
    "openDaysNote": "365日24時間対応"
  },
  {
    "id": "970105557",
    "name": "らいとケア鶴田",
    "kana": "ライトケアツルタ",
    "address": "栃木県宇都宮市鶴田町231-20とちのき鶴田 とちのき鶴田",
    "lat": 36.5492457,
    "lng": 139.8582399,
    "tel": "028-680-5871",
    "url": "http://www.raito-care.jp/",
    "pref": "栃木県",
    "city": "宇都宮市",
    "category": "home_help",
    "serviceType": "訪問介護",
    "capacity": 50,
    "openDays": [
      "平日",
      "土曜日",
      "日曜日",
      "祝日"
    ],
    "openDaysNote": ""
  },
  {
    "id": "970107025",
    "name": "ライフケアＲｏｓｅ",
    "kana": "ライフケアローズ",
    "address": "栃木県宇都宮市中戸祭町768-1クリーンハイツ中妻201 クリーンハイツ中妻201",
    "lat": 36.5821424,
    "lng": 139.8731817,
    "tel": "028-615-7160",
    "url": "",
    "pref": "栃木県",
    "city": "宇都宮市",
    "category": "home_help",
    "serviceType": "訪問介護",
    "capacity": null,
    "openDays": [
      "平日"
    ],
    "openDaysNote": "定休日の日でも要相談にてサービス利用することもある"
  },
  {
    "id": "970107769",
    "name": "医心館訪問介護ステーション宇都宮",
    "kana": "イシンカンホウモンカイゴステーションウツノミヤ",
    "address": "栃木県宇都宮市西一の沢町12-22",
    "lat": 36.5639245,
    "lng": 139.8590723,
    "tel": "028-611-3428",
    "url": "",
    "pref": "栃木県",
    "city": "宇都宮市",
    "category": "home_help",
    "serviceType": "訪問介護",
    "capacity": 0,
    "openDays": [
      "平日",
      "土曜日",
      "日曜日",
      "祝日"
    ],
    "openDaysNote": "24時間対応"
  },
  {
    "id": "970108056",
    "name": "医心館訪問介護ステーション宇都宮Ⅱ",
    "kana": "イシンカンホウモンカイゴステーションウツノミヤニ",
    "address": "栃木県宇都宮市鶴田町552",
    "lat": 36.5587882924726,
    "lng": 139.857012138373,
    "tel": "028-612-2101",
    "url": "",
    "pref": "栃木県",
    "city": "宇都宮市",
    "category": "home_help",
    "serviceType": "訪問介護",
    "capacity": 0,
    "openDays": [
      "平日",
      "土曜日",
      "日曜日",
      "祝日"
    ],
    "openDaysNote": "24時間対応"
  },
  {
    "id": "970105474",
    "name": "宇都宮やわらぎ",
    "kana": "ウツノミヤヤワラギ",
    "address": "栃木県宇都宮市元今泉7丁目1番16号",
    "lat": 36.562971104153,
    "lng": 139.912592461902,
    "tel": "028-689-3600",
    "url": "",
    "pref": "栃木県",
    "city": "宇都宮市",
    "category": "home_help",
    "serviceType": "訪問介護",
    "capacity": 0,
    "openDays": [
      "平日",
      "土曜日",
      "日曜日",
      "祝日"
    ],
    "openDaysNote": "サービス提供は24時間対応可。"
  },
  {
    "id": "970107231",
    "name": "宇都宮今泉やわらぎ",
    "kana": "ウツノミヤイマイズミヤワラギ",
    "address": "栃木県宇都宮市今泉町395番地",
    "lat": 36.5731281,
    "lng": 139.904818,
    "tel": "028-346-3600",
    "url": "",
    "pref": "栃木県",
    "city": "宇都宮市",
    "category": "home_help",
    "serviceType": "訪問介護",
    "capacity": null,
    "openDays": [
      "平日",
      "土曜日",
      "日曜日",
      "祝日"
    ],
    "openDaysNote": "サービス提供は24時間対応可。"
  },
  {
    "id": "970107199",
    "name": "家族の家ひまわり宇都宮ゆいの杜訪問介護事業所",
    "kana": "カゾクノイエヒマワリウツノミヤユイノモリホウモンカイゴジギョウショ",
    "address": "栃木県宇都宮市ゆいの杜6-13-8",
    "lat": 36.569662,
    "lng": 139.9953354,
    "tel": "028-670-0831",
    "url": "http://www.saneido.co.jp/kaigo/yuinomori/",
    "pref": "栃木県",
    "city": "宇都宮市",
    "category": "home_help",
    "serviceType": "訪問介護",
    "capacity": null,
    "openDays": [
      "平日",
      "土曜日",
      "日曜日",
      "祝日"
    ],
    "openDaysNote": ""
  },
  {
    "id": "970107660",
    "name": "家族の家ひまわり宇都宮富屋訪問介護事業所",
    "kana": "カゾクノイエヒマワリウツノミヤトミヤホウモンカイゴジギョウショ",
    "address": "栃木県宇都宮市下金井町字金井696-1",
    "lat": 36.6293899,
    "lng": 139.8516372,
    "tel": "028-666-2100",
    "url": "http://www.saneido.co.jp/kaigo/ashikaga/",
    "pref": "栃木県",
    "city": "宇都宮市",
    "category": "home_help",
    "serviceType": "訪問介護",
    "capacity": 0,
    "openDays": [
      "平日",
      "土曜日",
      "日曜日",
      "祝日"
    ],
    "openDaysNote": ""
  },
  {
    "id": "970106878",
    "name": "家族の家ひまわり宇都宮豊郷台訪問介護事業所",
    "kana": "カゾクノイエヒマワリウツノミヤトヨサトダイホウモンカイゴジギョウショ",
    "address": "栃木県宇都宮市豊郷台二丁目92番地1",
    "lat": 36.6024996,
    "lng": 139.8917039,
    "tel": "028-650-3001",
    "url": "http://www.saneido.co.jp/",
    "pref": "栃木県",
    "city": "宇都宮市",
    "category": "home_help",
    "serviceType": "訪問介護",
    "capacity": null,
    "openDays": [
      "平日",
      "土曜日",
      "日曜日"
    ],
    "openDaysNote": "利用者の希望に応じて、サービスの提供については24時間対応可能な体制を整えるものとする。"
  },
  {
    "id": "970105326",
    "name": "介護２４・宇都宮",
    "kana": "カイゴニジュウヨン・ウツノミヤ",
    "address": "栃木県宇都宮市南大通り3-6-9南大通りイステートハイツ302 南大通りイステートハイツ302",
    "lat": 36.5533825,
    "lng": 139.8954977,
    "tel": "028-614-3203",
    "url": "https://kaigo24.care-i.jp/",
    "pref": "栃木県",
    "city": "宇都宮市",
    "category": "home_help",
    "serviceType": "訪問介護",
    "capacity": 40,
    "openDays": [
      "平日",
      "土曜日",
      "日曜日",
      "祝日"
    ],
    "openDaysNote": "介護サービスの提供は365日24時間実施しています。（改行）利用者様の緊急連絡窓口も24時間365日受付です。（改行）TEL:028-614-3203"
  },
  {
    "id": "970104014",
    "name": "株式会社ヘルパーステーションすずらん",
    "kana": "カブシキガイシャヘルパーステーションスズラン",
    "address": "栃木県宇都宮市宝木本町１１４５－４１",
    "lat": 36.6013782,
    "lng": 139.8512409,
    "tel": "028-665-6306",
    "url": "",
    "pref": "栃木県",
    "city": "宇都宮市",
    "category": "home_help",
    "serviceType": "訪問介護",
    "capacity": 0,
    "openDays": [
      "平日",
      "土曜日",
      "日曜日",
      "祝日"
    ],
    "openDaysNote": "土、日、祝日はヘルパーの人数が少なく対応出来ないことがあります。"
  },
  {
    "id": "970106621",
    "name": "合同会社　彩介護",
    "kana": "ゴウドウガイシャ　イロドリカイゴ",
    "address": "栃木県宇都宮市御幸本町4861-7宇賀田貸家東側 宇賀田貸家東側",
    "lat": 36.5829019378529,
    "lng": 139.922489028815,
    "tel": "028-666-8566",
    "url": "",
    "pref": "栃木県",
    "city": "宇都宮市",
    "category": "home_help",
    "serviceType": "訪問介護",
    "capacity": 80,
    "openDays": [
      "平日",
      "土曜日",
      "日曜日",
      "祝日"
    ],
    "openDaysNote": "上記以外の時間に関しては利用者の要望に応じ対応をする。"
  },
  {
    "id": "970108429",
    "name": "在宅ケア晴れ晴れ",
    "kana": "ザイタクケアハレバレ",
    "address": "栃木県宇都宮市3178番地１０シティハイツ鶴田１０１号室 シティハイツ鶴田１０１号室",
    "lat": 36.5493055699392,
    "lng": 139.863144854119,
    "tel": "028-688-0652",
    "url": "https://peraichi.com/landing_pages/view/goodbridge/",
    "pref": "栃木県",
    "city": "宇都宮市",
    "category": "home_help",
    "serviceType": "訪問介護",
    "capacity": null,
    "openDays": [
      "平日",
      "土曜日",
      "祝日"
    ],
    "openDaysNote": ""
  },
  {
    "id": "970102463",
    "name": "在宅サポートこころ",
    "kana": "ザイタクサポートココロ",
    "address": "栃木県宇都宮市材木町4-24",
    "lat": 36.5617795994967,
    "lng": 139.873248163599,
    "tel": "028-651-0780",
    "url": "",
    "pref": "栃木県",
    "city": "宇都宮市",
    "category": "home_help",
    "serviceType": "訪問介護",
    "capacity": 0,
    "openDays": [
      "平日",
      "土曜日",
      "日曜日",
      "祝日"
    ],
    "openDaysNote": "利用者の希望により対応"
  },
  {
    "id": "970100111",
    "name": "在宅介護支援センターケアプラザ而今",
    "kana": "ザイタクカイゴシエンセンターケアプラザニコン",
    "address": "栃木県宇都宮市砥上町５４－１",
    "lat": 36.544146,
    "lng": 139.8452966,
    "tel": "028-649-2941",
    "url": "http://ｗｗｗ.ｈｏａｉｋａｉ.ｏｒ.ｊｐ",
    "pref": "栃木県",
    "city": "宇都宮市",
    "category": "home_help",
    "serviceType": "訪問介護",
    "capacity": null,
    "openDays": [
      "平日",
      "土曜日",
      "日曜日",
      "祝日"
    ],
    "openDaysNote": "-"
  },
  {
    "id": "970103123",
    "name": "指定訪問介護事業所オータス",
    "kana": "シテイホウモンカイゴジギョウショオータス",
    "address": "栃木県宇都宮市東浦町１４番９号",
    "lat": 36.5239597,
    "lng": 139.8538497,
    "tel": "028-659-1908",
    "url": "http://www.ucatv.ne.jp/~otas_sa.sun/",
    "pref": "栃木県",
    "city": "宇都宮市",
    "category": "home_help",
    "serviceType": "訪問介護",
    "capacity": 3,
    "openDays": [
      "平日",
      "土曜日",
      "日曜日",
      "祝日"
    ],
    "openDaysNote": "上記利用時間外でも、ご利用者の希望時間に合わせた利用時間になる場合がある。"
  },
  {
    "id": "970100137",
    "name": "社会福祉法人　宇都宮市社会福祉協議会",
    "kana": "シャカイフクシホウジンウツノミヤシシャカイフクシキョウギカイ",
    "address": "宇都宮市中央1丁目1番15号宇都宮市総合福祉センター内",
    "lat": 36.5591917,
    "lng": 139.8822853,
    "tel": "028-636-1210",
    "url": "http://www.utsunomiya-syakyo.or.jp",
    "pref": "栃木県",
    "city": "宇都宮市",
    "category": "home_help",
    "serviceType": "訪問介護",
    "capacity": 0,
    "openDays": [
      "平日"
    ],
    "openDaysNote": ""
  },
  {
    "id": "970100681",
    "name": "社会福祉法人梨一会　豊幸の郷石井",
    "kana": "シャカイフクシホウジンリイチカイ　ホウコウノサトイシイ",
    "address": "栃木県宇都宮市石井町2580-1",
    "lat": 36.5443184,
    "lng": 139.9391467,
    "tel": "028-683-3312",
    "url": "http://www.houkounosatoishii.com/",
    "pref": "栃木県",
    "city": "宇都宮市",
    "category": "home_help",
    "serviceType": "訪問介護",
    "capacity": 0,
    "openDays": [
      "平日",
      "祝日"
    ],
    "openDaysNote": "但し、12月29日から1月3日は休業"
  },
  {
    "id": "972100531",
    "name": "上河内ヘルパーステーション",
    "kana": "カミカワチヘルパーステーション",
    "address": "栃木県宇都宮市下小倉町1313-26",
    "lat": 36.6873864,
    "lng": 139.9163761,
    "tel": "028-674-8815",
    "url": "http://www.seikeikai.jp",
    "pref": "栃木県",
    "city": "宇都宮市",
    "category": "home_help",
    "serviceType": "訪問介護",
    "capacity": 0,
    "openDays": [
      "平日",
      "土曜日",
      "日曜日",
      "祝日"
    ],
    "openDaysNote": "派遣は、365日とする"
  },
  {
    "id": "970106563",
    "name": "真心",
    "kana": "マゴコロ",
    "address": "栃木県宇都宮市鶴田町９６７番地",
    "lat": 36.5590618213931,
    "lng": 139.853513889311,
    "tel": "028-601-0505",
    "url": "https://recruit-magokoro.com/",
    "pref": "栃木県",
    "city": "宇都宮市",
    "category": "home_help",
    "serviceType": "訪問介護",
    "capacity": 0,
    "openDays": [
      "平日",
      "土曜日",
      "日曜日",
      "祝日"
    ],
    "openDaysNote": ""
  },
  {
    "id": "970108296",
    "name": "青りんごヘルパーステーション",
    "kana": "アオリンゴヘルパーステーション",
    "address": "栃木県宇都宮市白沢町2017-72",
    "lat": 36.6220724,
    "lng": 139.9335862,
    "tel": "028-673-1256",
    "url": "",
    "pref": "栃木県",
    "city": "宇都宮市",
    "category": "home_help",
    "serviceType": "訪問介護",
    "capacity": null,
    "openDays": [
      "平日",
      "祝日"
    ],
    "openDaysNote": "休日：12/30～1/4（改行）土・日曜日は場合によっては対応可能"
  },
  {
    "id": "970100368",
    "name": "徳次郎ホームヘルプサービス",
    "kana": "トクジラホームヘルプサービス",
    "address": "栃木県宇都宮市徳次郎町６５－８",
    "lat": 36.6433692553684,
    "lng": 139.848865720377,
    "tel": "028-665-6514（",
    "url": "",
    "pref": "栃木県",
    "city": "宇都宮市",
    "category": "home_help",
    "serviceType": "訪問介護",
    "capacity": 40,
    "openDays": [
      "平日",
      "土曜日",
      "祝日"
    ],
    "openDaysNote": "但し緊急を要する場合や事情等によっては、この限りではない。"
  },
  {
    "id": "970107942",
    "name": "特定非営利活動法人コアラうつのみや",
    "kana": "トクテイヒエイリカツドウホウジンコアラウツノミヤ",
    "address": "栃木県宇都宮市針ヶ谷町380-4",
    "lat": 36.4866982,
    "lng": 139.8548673,
    "tel": "028-666-0124",
    "url": "",
    "pref": "栃木県",
    "city": "宇都宮市",
    "category": "home_help",
    "serviceType": "訪問介護",
    "capacity": null,
    "openDays": [
      "平日"
    ],
    "openDaysNote": ""
  },
  {
    "id": "970100723",
    "name": "特別養護老人ホーム敬祥苑",
    "kana": "トクベツヨウゴロウジンホームケイショウエン",
    "address": "栃木県宇都宮市宝木本町2141番地",
    "lat": 36.6296692,
    "lng": 139.8431986,
    "tel": "028-665-5633",
    "url": "http://www.numaog.or.jp/index.html",
    "pref": "栃木県",
    "city": "宇都宮市",
    "category": "home_help",
    "serviceType": "訪問介護",
    "capacity": 0,
    "openDays": [
      "平日",
      "土曜日",
      "祝日"
    ],
    "openDaysNote": ""
  },
  {
    "id": "970100590",
    "name": "宝寿苑ヘルパーステーション",
    "kana": "ホウジュエンヘルパーステーション",
    "address": "栃木県宇都宮市宝木本町1768",
    "lat": 36.6082274,
    "lng": 139.8352027,
    "tel": "028-665-6999",
    "url": "http://www.seikeikai.jp",
    "pref": "栃木県",
    "city": "宇都宮市",
    "category": "home_help",
    "serviceType": "訪問介護",
    "capacity": 0,
    "openDays": [
      "平日",
      "土曜日",
      "日曜日",
      "祝日"
    ],
    "openDaysNote": "派遣は365日　（お正月・お盆期間は派遣の都合により曜日変更またはキャンセルをお願いする場合があります）"
  },
  {
    "id": "970105920",
    "name": "訪問介護　きらら",
    "kana": "ホウモンカイゴ　キララ",
    "address": "栃木県宇都宮市鶴田町2561番地2",
    "lat": 36.5565866,
    "lng": 139.8647223,
    "tel": "028-638-1650",
    "url": "http://www.helpercall.com/",
    "pref": "栃木県",
    "city": "宇都宮市",
    "category": "home_help",
    "serviceType": "訪問介護",
    "capacity": 0,
    "openDays": [
      "平日",
      "土曜日",
      "日曜日",
      "祝日"
    ],
    "openDaysNote": "２４時間体制（改行）※介護予防は８：００～１８：００（８／１３～８／１５、１２／２９～１／４は除く）"
  },
  {
    "id": "970105565",
    "name": "訪問介護　フォレスト",
    "kana": "ホウモンカイゴ　フォレスト",
    "address": "栃木県宇都宮市川田町１０２０－９",
    "lat": 36.5382784,
    "lng": 139.8884295,
    "tel": "０２８－６８０－６６３０",
    "url": "http://www.forestikoi.co.jp/",
    "pref": "栃木県",
    "city": "宇都宮市",
    "category": "home_help",
    "serviceType": "訪問介護",
    "capacity": 0,
    "openDays": [
      "平日",
      "土曜日",
      "日曜日",
      "祝日"
    ],
    "openDaysNote": ""
  },
  {
    "id": "970106720",
    "name": "訪問介護　みなみ",
    "kana": "ホウモンカイゴ　ミナミ",
    "address": "栃木県宇都宮市西原町４３５番地１",
    "lat": 36.5401409065387,
    "lng": 139.881473255789,
    "tel": "028－689－8893",
    "url": "",
    "pref": "栃木県",
    "city": "宇都宮市",
    "category": "home_help",
    "serviceType": "訪問介護",
    "capacity": 0,
    "openDays": [
      "平日"
    ],
    "openDaysNote": "ご利用者がサービスを必要とする場合は時間外でも応じます。"
  },
  {
    "id": "970102679",
    "name": "訪問介護　やすらぎ",
    "kana": "ホウモンカイゴヤスラギ",
    "address": "栃木県宇都宮市富士見が丘3-19-20",
    "lat": 36.5867953,
    "lng": 139.8866554,
    "tel": "028-650-7727",
    "url": "",
    "pref": "栃木県",
    "city": "宇都宮市",
    "category": "home_help",
    "serviceType": "訪問介護",
    "capacity": 0,
    "openDays": [
      "平日",
      "土曜日",
      "日曜日",
      "祝日"
    ],
    "openDaysNote": ""
  },
  {
    "id": "970107520",
    "name": "訪問介護　リアンの家",
    "kana": "ホウモンカイゴ　リアンノイエ",
    "address": "栃木県宇都宮市下栗町764-4",
    "lat": 36.5270846,
    "lng": 139.9172802,
    "tel": "028-656-8110",
    "url": "https://www.lien-co.jp/liennoie.html",
    "pref": "栃木県",
    "city": "宇都宮市",
    "category": "home_help",
    "serviceType": "訪問介護",
    "capacity": null,
    "openDays": [
      "平日"
    ],
    "openDaysNote": ""
  },
  {
    "id": "970109153",
    "name": "訪問介護　リアンの家",
    "kana": "ホウモンカイゴ　リアンノイエ",
    "address": "栃木県宇都宮市下栗町764-4",
    "lat": 36.5270961,
    "lng": 139.9173227,
    "tel": "028-656-8110",
    "url": "https://www.lien-co.jp/liennoie.html",
    "pref": "栃木県",
    "city": "宇都宮市",
    "category": "home_help",
    "serviceType": "訪問介護",
    "capacity": null,
    "openDays": [
      "平日"
    ],
    "openDaysNote": ""
  },
  {
    "id": "970104311",
    "name": "訪問介護あおい",
    "kana": "ホウモンカイゴアオイ",
    "address": "栃木県宇都宮市下岡本町2493-47",
    "lat": 36.6022841,
    "lng": 139.9290694,
    "tel": "028-616-6051",
    "url": "http://www.l-one-co.com/",
    "pref": "栃木県",
    "city": "宇都宮市",
    "category": "home_help",
    "serviceType": "訪問介護",
    "capacity": 0,
    "openDays": [
      "平日",
      "土曜日",
      "日曜日",
      "祝日"
    ],
    "openDaysNote": ""
  },
  {
    "id": "970106639",
    "name": "訪問介護あかり",
    "kana": "ホウモンカイゴアカリ",
    "address": "栃木県宇都宮市駒生町1224",
    "lat": 36.5761646,
    "lng": 139.8406979,
    "tel": "028-902-1124",
    "url": "",
    "pref": "栃木県",
    "city": "宇都宮市",
    "category": "home_help",
    "serviceType": "訪問介護",
    "capacity": 0,
    "openDays": [
      "平日",
      "土曜日",
      "日曜日",
      "祝日"
    ],
    "openDaysNote": ""
  },
  {
    "id": "970108403",
    "name": "訪問介護アソシエ",
    "kana": "ホウモンカイゴアソシエ",
    "address": "栃木県宇都宮市東塙田1丁目6-27",
    "lat": 36.5641688,
    "lng": 139.8903117,
    "tel": "028-601-8251",
    "url": "",
    "pref": "栃木県",
    "city": "宇都宮市",
    "category": "home_help",
    "serviceType": "訪問介護",
    "capacity": 0,
    "openDays": [
      "平日"
    ],
    "openDaysNote": "利用時間については8：30以前・17：30以降は要相談。土日祝日についても要相談。"
  },
  {
    "id": "970107371",
    "name": "訪問介護イマシンWelfareStation",
    "kana": "ホウモンカイゴイマシンウェルフェアステーション",
    "address": "栃木県宇都宮市戸祭町3005-5",
    "lat": 36.574722782252,
    "lng": 139.875126911183,
    "tel": "028-689-8961",
    "url": "http://www.imashin.co.jp",
    "pref": "栃木県",
    "city": "宇都宮市",
    "category": "home_help",
    "serviceType": "訪問介護",
    "capacity": 0,
    "openDays": [
      "平日"
    ],
    "openDaysNote": "訪問介護計画書に沿って定休日であってもサービスの提供にあたります。事前の予約、利用者の状況によってはこの限りではありません。"
  },
  {
    "id": "970108171",
    "name": "訪問介護さくら",
    "kana": "ホウモンカイゴサクラ",
    "address": "栃木県宇都宮市駒生町3358-24",
    "lat": 36.5784865788409,
    "lng": 139.849349493185,
    "tel": "028-688-7102",
    "url": "http://www.l-one-co.com/",
    "pref": "栃木県",
    "city": "宇都宮市",
    "category": "home_help",
    "serviceType": "訪問介護",
    "capacity": 0,
    "openDays": [
      "平日"
    ],
    "openDaysNote": ""
  },
  {
    "id": "970105466",
    "name": "訪問介護ステーションおひさま",
    "kana": "ホウモンカイゴステーションオヒサマ",
    "address": "栃木県宇都宮市岩曽町1392-45",
    "lat": 36.585914585289,
    "lng": 139.912982994159,
    "tel": "028-612-8816",
    "url": "http://kyodofukushitochigi.hp.gogo.jp/pc/",
    "pref": "栃木県",
    "city": "宇都宮市",
    "category": "home_help",
    "serviceType": "訪問介護",
    "capacity": 0,
    "openDays": [
      "平日",
      "土曜日",
      "日曜日",
      "祝日"
    ],
    "openDaysNote": ""
  },
  {
    "id": "970106456",
    "name": "訪問介護ハートランド宇都宮",
    "kana": "ホウモンカイゴハートランドウツノミヤ",
    "address": "栃木県宇都宮市鶴田町1039-1",
    "lat": 36.5583197865738,
    "lng": 139.851629913492,
    "tel": "028-649-2612",
    "url": "https://ygood.jp/",
    "pref": "栃木県",
    "city": "宇都宮市",
    "category": "home_help",
    "serviceType": "訪問介護",
    "capacity": 40,
    "openDays": [
      "平日",
      "土曜日",
      "日曜日",
      "祝日"
    ],
    "openDaysNote": ""
  },
  {
    "id": "970109161",
    "name": "訪問介護ハートランド宇都宮Ⅱ",
    "kana": "ホウモンカイゴハートランドウツノミヤニ",
    "address": "宝木本町1253-12",
    "lat": 36.6062493,
    "lng": 139.8511665,
    "tel": "028-688-8242",
    "url": "https://ygood.jp/",
    "pref": "栃木県",
    "city": "宇都宮市",
    "category": "home_help",
    "serviceType": "訪問介護",
    "capacity": 49,
    "openDays": [
      "平日",
      "土曜日",
      "日曜日",
      "祝日"
    ],
    "openDaysNote": ""
  },
  {
    "id": "970108684",
    "name": "訪問介護事業所　Niu",
    "kana": "ホウモンカイゴジギョウショニウ",
    "address": "栃木県宇都宮市吉野１丁目１０番４サクラトカワト４－B サクラトカワト４－B",
    "lat": 36.5463503,
    "lng": 139.8742255,
    "tel": "028-689-8550",
    "url": "https://buddies-inc.com/company/",
    "pref": "栃木県",
    "city": "宇都宮市",
    "category": "home_help",
    "serviceType": "訪問介護",
    "capacity": 0,
    "openDays": [
      "平日"
    ],
    "openDaysNote": ""
  },
  {
    "id": "970107751",
    "name": "訪問介護事業所　まごころの手　宇都宮",
    "kana": "ホウモンカイゴジギョウショ　マゴコロノテ　宇都宮",
    "address": "栃木県宇都宮市東塙田2-4-4プラムハイツ１Ｆ プラムハイツ１Ｆ",
    "lat": 36.5640869,
    "lng": 139.8866702,
    "tel": "028-666-6767",
    "url": "",
    "pref": "栃木県",
    "city": "宇都宮市",
    "category": "home_help",
    "serviceType": "訪問介護",
    "capacity": 0,
    "openDays": [
      "平日",
      "土曜日",
      "日曜日",
      "祝日"
    ],
    "openDaysNote": ""
  },
  {
    "id": "970108825",
    "name": "訪問介護事業所うらら",
    "kana": "ホウモンカイゴジギョウショウララ",
    "address": "さつき2丁目3番5号",
    "lat": 36.4869146,
    "lng": 139.8622059,
    "tel": "028-623-1177",
    "url": "https://hidamarino-sato.jp",
    "pref": "栃木県",
    "city": "宇都宮市",
    "category": "home_help",
    "serviceType": "訪問介護",
    "capacity": 0,
    "openDays": [],
    "openDaysNote": "24時間営業"
  },
  {
    "id": "970107967",
    "name": "訪問介護事業所鈴光",
    "kana": "ホウモンカイゴジギョウショスズコウ",
    "address": "栃木県宇都宮市越戸町１１１番地１サポネット越戸 サポネット越戸",
    "lat": 36.5717811,
    "lng": 139.9245164,
    "tel": "028-680-7690",
    "url": "",
    "pref": "栃木県",
    "city": "宇都宮市",
    "category": "home_help",
    "serviceType": "訪問介護",
    "capacity": 0,
    "openDays": [
      "平日",
      "土曜日",
      "日曜日",
      "祝日"
    ],
    "openDaysNote": ""
  },
  {
    "id": "970106233",
    "name": "明和ケアサービス",
    "kana": "メイワケアサービス",
    "address": "栃木県宇都宮市緑１－３－１",
    "lat": 36.5231012086275,
    "lng": 139.863642485181,
    "tel": "028-612-6339",
    "url": "",
    "pref": "栃木県",
    "city": "宇都宮市",
    "category": "home_help",
    "serviceType": "訪問介護",
    "capacity": 0,
    "openDays": [
      "平日"
    ],
    "openDaysNote": ""
  },
  {
    "id": "970101101",
    "name": "有限会社ケアメイトやまぐちヘルパーステーション",
    "kana": "ケアメイトヤマグチヘルパーステーション",
    "address": "宇都宮市伝馬町3-2",
    "lat": 36.5614448,
    "lng": 139.8774018,
    "tel": "028-633-2536",
    "url": "",
    "pref": "栃木県",
    "city": "宇都宮市",
    "category": "home_help",
    "serviceType": "訪問介護",
    "capacity": null,
    "openDays": [
      "平日",
      "土曜日"
    ],
    "openDaysNote": ""
  },
  {
    "id": "970101283",
    "name": "有限会社佐瀬敏雄商店ライフサポート宮の原",
    "kana": "サセトシオショウテンライフサポートミヤノハラ",
    "address": "宇都宮市宮原4-2-3",
    "lat": 36.5413665,
    "lng": 139.8737362,
    "tel": "028-634-4736",
    "url": "",
    "pref": "栃木県",
    "city": "宇都宮市",
    "category": "home_help",
    "serviceType": "訪問介護",
    "capacity": null,
    "openDays": [
      "平日"
    ],
    "openDaysNote": "特になし"
  },
  {
    "id": "972700579",
    "name": "ニチイケアセンター益子",
    "kana": "ニチイケアセンターマシコ",
    "address": "栃木県芳賀郡益子町大字七井2402-1",
    "lat": 36.4971021,
    "lng": 140.0807775,
    "tel": "0285-70-1551",
    "url": "",
    "pref": "栃木県",
    "city": "益子町",
    "category": "home_help",
    "serviceType": "訪問介護",
    "capacity": 0,
    "openDays": [
      "平日"
    ],
    "openDaysNote": "但し、居宅サービス計画により、営業時間以外でも、サービスの提供を行なう場合がある。"
  },
  {
    "id": "972700058",
    "name": "益子町社会福祉協議会　とまとサービス",
    "kana": "マシコマチシャカイフクシキョウギカイ　トマトサービス",
    "address": "栃木県芳賀郡益子町大字益子1532-5",
    "lat": 36.4627397,
    "lng": 140.088773,
    "tel": "0285-70-1112",
    "url": "http://www.mashikoshakyo.com",
    "pref": "栃木県",
    "city": "益子町",
    "category": "home_help",
    "serviceType": "訪問介護",
    "capacity": 0,
    "openDays": [
      "平日",
      "土曜日",
      "日曜日",
      "祝日"
    ],
    "openDaysNote": "1月1日～1月3日を除く"
  },
  {
    "id": "972600662",
    "name": "グラディールコーポレーション株式会社",
    "kana": "カブシキカイシャ",
    "address": "熊ノ木1162-122",
    "lat": 36.7957774,
    "lng": 139.8650097,
    "tel": "0287-45-1008",
    "url": "",
    "pref": "栃木県",
    "city": "塩谷町",
    "category": "home_help",
    "serviceType": "訪問介護",
    "capacity": 0,
    "openDays": [
      "平日",
      "土曜日",
      "日曜日",
      "祝日"
    ],
    "openDaysNote": ""
  },
  {
    "id": "972600878",
    "name": "訪問介護事業所　ホームヘルプ",
    "kana": "ホウモンカイゴジギョウショ　ホームヘルプニジ",
    "address": "栃木県塩谷郡塩谷町大字玉生838-1",
    "lat": 36.7782889,
    "lng": 139.8537868,
    "tel": "080-4150-2373",
    "url": "",
    "pref": "栃木県",
    "city": "塩谷町",
    "category": "home_help",
    "serviceType": "訪問介護",
    "capacity": null,
    "openDays": [
      "平日",
      "土曜日",
      "日曜日",
      "祝日"
    ],
    "openDaysNote": "緊急時対応、早朝・夜間・深夜"
  },
  {
    "id": "971600754",
    "name": "ヘルパーステーションサンクス石橋",
    "kana": "ヘルパーステーションサンクスイシバシ",
    "address": "栃木県下野市上大領３００番地５朝日ハイツ２０１号室 朝日ハイツ２０１号室",
    "lat": 36.4356810566954,
    "lng": 139.852564367419,
    "tel": "0285-38-8741",
    "url": "http://living-thanks.co.jp/",
    "pref": "栃木県",
    "city": "下野市",
    "category": "home_help",
    "serviceType": "訪問介護",
    "capacity": 30,
    "openDays": [
      "平日",
      "土曜日",
      "日曜日",
      "祝日"
    ],
    "openDaysNote": ""
  },
  {
    "id": "971600499",
    "name": "家族の家ひまわり石橋　訪問介護事業所",
    "kana": "カゾクノイエヒマワリイシバシホウモンカイゴジギョウショ",
    "address": "栃木県下野市文教一丁目20番23号",
    "lat": 36.4434521,
    "lng": 139.8625383,
    "tel": "0285-51-1751",
    "url": "http://www.saneido.co.jp/kaigo/ishibashi/",
    "pref": "栃木県",
    "city": "下野市",
    "category": "home_help",
    "serviceType": "訪問介護",
    "capacity": null,
    "openDays": [
      "平日",
      "土曜日",
      "日曜日",
      "祝日"
    ],
    "openDaysNote": "営業時間は午前7時から午後8時まで。（改行）ただし利用者の希望に応じて、サービスの提供については24時間対応可能な体制を整えるものとします。"
  },
  {
    "id": "962390050",
    "name": "訪問介護ぬくもり",
    "kana": "ホウモンカイゴヌクモリ",
    "address": "栃木県下野市小金井1丁目14番3",
    "lat": 36.3848014552261,
    "lng": 139.841605904605,
    "tel": "0285-40-7770",
    "url": "http://www.koganei-chuo-hp.com/",
    "pref": "栃木県",
    "city": "下野市",
    "category": "home_help",
    "serviceType": "訪問介護",
    "capacity": 0,
    "openDays": [
      "平日",
      "土曜日",
      "日曜日",
      "祝日"
    ],
    "openDaysNote": ""
  },
  {
    "id": "971600713",
    "name": "訪問介護事業所くわくわ",
    "kana": "ホウモンカイゴジギョウショクワクワ",
    "address": "栃木県下野市小金井１２２４番地1",
    "lat": 36.3878093500501,
    "lng": 139.846731245152,
    "tel": "0285-39-6855",
    "url": "",
    "pref": "栃木県",
    "city": "下野市",
    "category": "home_help",
    "serviceType": "訪問介護",
    "capacity": 0,
    "openDays": [
      "平日",
      "土曜日",
      "日曜日",
      "祝日"
    ],
    "openDaysNote": ""
  },
  {
    "id": "972300438",
    "name": "有限会社　南栃木支援センター",
    "kana": "ユウゲンガイシャ　ミナミトチギシエンセンター",
    "address": "栃木県下野市柴１４３２番地１０５",
    "lat": 36.3756494,
    "lng": 139.8509089,
    "tel": "0285-44-6118",
    "url": "",
    "pref": "栃木県",
    "city": "下野市",
    "category": "home_help",
    "serviceType": "訪問介護",
    "capacity": 0,
    "openDays": [
      "平日",
      "土曜日",
      "日曜日",
      "祝日"
    ],
    "openDaysNote": "要相談"
  },
  {
    "id": "971600812",
    "name": "有限会社さくら福祉サービスしもつけ営業所",
    "kana": "ユウゲンガイシャサクラフクシサービスシモツケエイギョウショ",
    "address": "栃木県下野市仁良川1494－13",
    "lat": 36.3801072943387,
    "lng": 139.87586301784,
    "tel": "0285－39－8680",
    "url": "",
    "pref": "栃木県",
    "city": "下野市",
    "category": "home_help",
    "serviceType": "訪問介護",
    "capacity": 0,
    "openDays": [
      "平日",
      "土曜日",
      "日曜日",
      "祝日"
    ],
    "openDaysNote": "12月31日～1月3日まで基本的にお休み"
  },
  {
    "id": "972600035",
    "name": "グループたすけあいエプロン",
    "kana": "グループタスケアイエプロン",
    "address": "栃木県塩谷郡高根沢町花岡1503-3",
    "lat": 36.655379,
    "lng": 140.0252037,
    "tel": "028-676-1100",
    "url": "https://r.goope.jp/epron-npo/",
    "pref": "栃木県",
    "city": "高根沢町",
    "category": "home_help",
    "serviceType": "訪問介護",
    "capacity": 120,
    "openDays": [
      "平日",
      "土曜日",
      "日曜日",
      "祝日"
    ],
    "openDaysNote": "土日祝祭日、年末年始、早朝夜間は要相談"
  },
  {
    "id": "972600050",
    "name": "ケアハウスフローラ",
    "kana": "ケアハウスフローラ",
    "address": "栃木県塩谷郡高根沢町上柏崎５５１－１",
    "lat": 36.6349051,
    "lng": 140.0537579,
    "tel": "028-676-3300",
    "url": "http://flora.tochigi.com/",
    "pref": "栃木県",
    "city": "高根沢町",
    "category": "home_help",
    "serviceType": "訪問介護",
    "capacity": 0,
    "openDays": [
      "平日",
      "土曜日",
      "日曜日",
      "祝日"
    ],
    "openDaysNote": ""
  },
  {
    "id": "972600738",
    "name": "家族の家ひまわり宝積寺訪問介護事業所",
    "kana": "カゾクノイエヒマワリホウシャクジホウモンカイゴジギョウショ",
    "address": "栃木県塩谷郡高根沢町大字宝積寺1375-6",
    "lat": 36.622574,
    "lng": 139.9812009,
    "tel": "028-680-1021",
    "url": "http://www.saneido.co.jp/kaigo/hoshakuji/",
    "pref": "栃木県",
    "city": "高根沢町",
    "category": "home_help",
    "serviceType": "訪問介護",
    "capacity": null,
    "openDays": [
      "平日",
      "土曜日",
      "日曜日",
      "祝日"
    ],
    "openDaysNote": ""
  },
  {
    "id": "972600852",
    "name": "照和の訪問介護",
    "kana": "ショウワノホウモンカイゴ",
    "address": "栃木県塩谷郡高根沢町光陽台1丁目2-12",
    "lat": 36.623783980167,
    "lng": 139.99133410423,
    "tel": "028-680-6620",
    "url": "http://teamshowa.com",
    "pref": "栃木県",
    "city": "高根沢町",
    "category": "home_help",
    "serviceType": "訪問介護",
    "capacity": 40,
    "openDays": [
      "平日",
      "祝日"
    ],
    "openDaysNote": ""
  },
  {
    "id": "972600787",
    "name": "訪問看護ステーションひだまり",
    "kana": "ホウモンカンゴステーションヒダマリ",
    "address": "栃木県塩谷郡高根沢町石末２８０６－８",
    "lat": 36.6363587433885,
    "lng": 139.982712076016,
    "tel": "8042056074",
    "url": "http://hp.kaipoke.biz/t3s/",
    "pref": "栃木県",
    "city": "高根沢町",
    "category": "home_help",
    "serviceType": "訪問介護",
    "capacity": null,
    "openDays": [
      "平日"
    ],
    "openDaysNote": ""
  },
  {
    "id": "970402285",
    "name": "SOMPOケア　佐野　訪問介護",
    "kana": "ソンポケア　サノ　ホウモンカイゴ",
    "address": "浅沼町836番地",
    "lat": 36.312336,
    "lng": 139.5933787,
    "tel": "0283-20-5158",
    "url": "",
    "pref": "栃木県",
    "city": "佐野市",
    "category": "home_help",
    "serviceType": "訪問介護",
    "capacity": 0,
    "openDays": [
      "平日",
      "土曜日",
      "日曜日",
      "祝日"
    ],
    "openDaysNote": "ケアプランに応じて、24時間365日のサービス提供。（改行）時間帯によってはご相談させていただきます。"
  },
  {
    "id": "970401188",
    "name": "エスケーマルス介護サービス",
    "kana": "エスケーマルスカイゴサービス",
    "address": "栃木県佐野市天神町８９３番地５",
    "lat": 36.3213927,
    "lng": 139.571919,
    "tel": "0283-22-6256",
    "url": "",
    "pref": "栃木県",
    "city": "佐野市",
    "category": "home_help",
    "serviceType": "訪問介護",
    "capacity": 0,
    "openDays": [
      "平日",
      "土曜日",
      "日曜日",
      "祝日"
    ],
    "openDaysNote": "利用者の需要により相談の上時間外でもサービスを提供します。尚、電話等により２４時間連絡が可能な体制をとる。（改行）日曜祝日は基本は休業ですが、利用者の需要により対応可。"
  },
  {
    "id": "970401535",
    "name": "ケアサポート愛",
    "kana": "ケアサポートアイ",
    "address": "栃木県佐野市葛生東３丁目２番６",
    "lat": 36.4073744216463,
    "lng": 139.611977798148,
    "tel": "0283-84-3227",
    "url": "",
    "pref": "栃木県",
    "city": "佐野市",
    "category": "home_help",
    "serviceType": "訪問介護",
    "capacity": 0,
    "openDays": [
      "平日",
      "土曜日",
      "日曜日",
      "祝日"
    ],
    "openDaysNote": "年始(1/1～1/3)は、休み。"
  },
  {
    "id": "970402350",
    "name": "ご長寿くらぶ佐野・植上",
    "kana": "ゴチョウジュクラブサノ・ウエカミ",
    "address": "栃木県佐野市植上町１７８５",
    "lat": 36.3016242,
    "lng": 139.5797617,
    "tel": "0283-86-7222",
    "url": "",
    "pref": "栃木県",
    "city": "佐野市",
    "category": "home_help",
    "serviceType": "訪問介護",
    "capacity": 25,
    "openDays": [
      "平日",
      "土曜日",
      "日曜日",
      "祝日"
    ],
    "openDaysNote": ""
  },
  {
    "id": "970400479",
    "name": "しあわせ介護",
    "kana": "シアワセカイゴ",
    "address": "栃木県佐野市大橋町2175-2",
    "lat": 36.310102,
    "lng": 139.5693336,
    "tel": "0283-24-3416",
    "url": "",
    "pref": "栃木県",
    "city": "佐野市",
    "category": "home_help",
    "serviceType": "訪問介護",
    "capacity": 0,
    "openDays": [
      "平日",
      "土曜日",
      "祝日"
    ],
    "openDaysNote": "-"
  },
  {
    "id": "970401832",
    "name": "とちのみホームヘルプサービス",
    "kana": "トチノミホームヘルプサービス",
    "address": "栃木県佐野市浅沼町146-5",
    "lat": 36.3064466376482,
    "lng": 139.587975434583,
    "tel": "0283-20-6225",
    "url": "www.tochinomi.or.jp",
    "pref": "栃木県",
    "city": "佐野市",
    "category": "home_help",
    "serviceType": "訪問介護",
    "capacity": 40,
    "openDays": [
      "平日"
    ],
    "openDaysNote": "利用者の希望に応じて、サービスの提供については、24時間対応可能な体制を整えるものとします。"
  },
  {
    "id": "970400685",
    "name": "トライ介護センター",
    "kana": "トライカイゴセンター",
    "address": "栃木県佐野市堀米町６１７－１２",
    "lat": 36.3339536720341,
    "lng": 139.581621679762,
    "tel": "0283-27-2717",
    "url": "",
    "pref": "栃木県",
    "city": "佐野市",
    "category": "home_help",
    "serviceType": "訪問介護",
    "capacity": 0,
    "openDays": [
      "平日",
      "土曜日",
      "日曜日",
      "祝日"
    ],
    "openDaysNote": ""
  },
  {
    "id": "970400164",
    "name": "ニチイケアセンター佐野",
    "kana": "ニチイケアセンターサノ",
    "address": "栃木県佐野市堀米町3195リバーフロント　1Ｆ リバーフロント　1Ｆ",
    "lat": 36.3303379,
    "lng": 139.5678063,
    "tel": "0283-20-6215",
    "url": "http://www.nichiigakkan.co.jp",
    "pref": "栃木県",
    "city": "佐野市",
    "category": "home_help",
    "serviceType": "訪問介護",
    "capacity": 0,
    "openDays": [
      "平日",
      "土曜日",
      "日曜日",
      "祝日"
    ],
    "openDaysNote": "ー"
  },
  {
    "id": "970402541",
    "name": "ファルコンケア訪問介護センター",
    "kana": "ファルコンケアホウモンカイゴセンター",
    "address": "栃木県佐野市犬伏新町1306-8",
    "lat": 36.3239515320538,
    "lng": 139.604141831877,
    "tel": "0283-85-9550",
    "url": "https://www.ibis-forest.com/",
    "pref": "栃木県",
    "city": "佐野市",
    "category": "home_help",
    "serviceType": "訪問介護",
    "capacity": 29,
    "openDays": [
      "平日",
      "土曜日"
    ],
    "openDaysNote": ""
  },
  {
    "id": "970400420",
    "name": "ヘルパーステーション　いちごの里",
    "kana": "ヘルパーステーションイチゴノサト",
    "address": "栃木県佐野市田島町213番地",
    "lat": 36.294148,
    "lng": 139.5646041,
    "tel": "0283-27-0115",
    "url": "http://tokuchikai.com/",
    "pref": "栃木県",
    "city": "佐野市",
    "category": "home_help",
    "serviceType": "訪問介護",
    "capacity": 55,
    "openDays": [
      "平日",
      "土曜日",
      "日曜日",
      "祝日"
    ],
    "openDaysNote": ""
  },
  {
    "id": "970401816",
    "name": "ヘルパーステーション　ふわり",
    "kana": "ヘルパーステーション　フワリ",
    "address": "栃木県佐野市小中町1255-1",
    "lat": 36.3427344,
    "lng": 139.5586728,
    "tel": "0283-20-8872",
    "url": "https://huwari.net/",
    "pref": "栃木県",
    "city": "佐野市",
    "category": "home_help",
    "serviceType": "訪問介護",
    "capacity": 2,
    "openDays": [
      "平日",
      "土曜日",
      "日曜日",
      "祝日"
    ],
    "openDaysNote": ""
  },
  {
    "id": "970400487",
    "name": "ヘルパーステーション　ももの里",
    "kana": "ヘルパーステーション　モモノサト",
    "address": "栃木県佐野市村上町337－1",
    "lat": 36.3053909,
    "lng": 139.5427719,
    "tel": "0283-21-0833",
    "url": "http://www.momono-sato.jp",
    "pref": "栃木県",
    "city": "佐野市",
    "category": "home_help",
    "serviceType": "訪問介護",
    "capacity": null,
    "openDays": [
      "平日",
      "土曜日",
      "祝日"
    ],
    "openDaysNote": "日曜日は原則として休日とするが次に該当する場合は営業いたします。（改行）【緊急時・必要時】（改行）時間外のご利用もご相談に応じます。"
  },
  {
    "id": "970402111",
    "name": "ヘルパーステーション　美と健康",
    "kana": "ヘルパーステーション　ビトケンコウ",
    "address": "栃木県佐野市田沼町64",
    "lat": 36.3624172776486,
    "lng": 139.572487271368,
    "tel": "0283-55-6564",
    "url": "",
    "pref": "栃木県",
    "city": "佐野市",
    "category": "home_help",
    "serviceType": "訪問介護",
    "capacity": 0,
    "openDays": [
      "平日",
      "土曜日",
      "祝日"
    ],
    "openDaysNote": ""
  },
  {
    "id": "970400735",
    "name": "ヘルパーステーション　万葉",
    "kana": "ヘルパーステーション　マンヨウ",
    "address": "栃木県佐野市堀米町１３４８－５",
    "lat": 36.3292506,
    "lng": 139.5794126,
    "tel": "0283-27-1687",
    "url": "",
    "pref": "栃木県",
    "city": "佐野市",
    "category": "home_help",
    "serviceType": "訪問介護",
    "capacity": 0,
    "openDays": [
      "平日"
    ],
    "openDaysNote": "土、日曜日は必要に応じてサービスを提供する。"
  },
  {
    "id": "970402525",
    "name": "ヘルパーステーション・アニマート佐野",
    "kana": "ヘルパーステーション・アニマートサノ",
    "address": "栃木県佐野市高砂町２８６５－１佐野ビジネスセンタービル東館７階 佐野ビジネスセンタービル東館７階",
    "lat": 36.3134817774113,
    "lng": 139.580410155854,
    "tel": "０２８３－８６－９９８０",
    "url": "https://www.animato-llc.net/",
    "pref": "栃木県",
    "city": "佐野市",
    "category": "home_help",
    "serviceType": "訪問介護",
    "capacity": 0,
    "openDays": [
      "平日"
    ],
    "openDaysNote": ""
  },
  {
    "id": "970401089",
    "name": "ヘルパーステーションほほえみ",
    "kana": "ヘルパーステーションホホエミ",
    "address": "栃木県佐野市富岡町１４５４番地",
    "lat": 36.3161331895549,
    "lng": 139.592901309756,
    "tel": "0283-27-0861",
    "url": "http://www.hohoemi-care.co.jp",
    "pref": "栃木県",
    "city": "佐野市",
    "category": "home_help",
    "serviceType": "訪問介護",
    "capacity": 0,
    "openDays": [
      "平日",
      "土曜日",
      "日曜日",
      "祝日"
    ],
    "openDaysNote": ""
  },
  {
    "id": "970402236",
    "name": "ヘルパーステーション京の華",
    "kana": "ヘルパーステーションキョウノハナ",
    "address": "栃木県佐野市田島町149番地2",
    "lat": 36.2942776,
    "lng": 139.5659556,
    "tel": "0283-23-4187",
    "url": "http://kyonohana-sano.jp/",
    "pref": "栃木県",
    "city": "佐野市",
    "category": "home_help",
    "serviceType": "訪問介護",
    "capacity": 30,
    "openDays": [
      "平日",
      "土曜日",
      "日曜日",
      "祝日"
    ],
    "openDaysNote": ""
  },
  {
    "id": "970402533",
    "name": "ほうもんかいごわきあいあい",
    "kana": "訪問介護ワキアイアイ",
    "address": "栃木県佐野市船越町38番地",
    "lat": 36.3994272,
    "lng": 139.5743737,
    "tel": "0283-62-9083",
    "url": "",
    "pref": "栃木県",
    "city": "佐野市",
    "category": "home_help",
    "serviceType": "訪問介護",
    "capacity": null,
    "openDays": [
      "平日",
      "土曜日"
    ],
    "openDaysNote": "特になし"
  },
  {
    "id": "970400131",
    "name": "ホームヘルパーサービスステーション　ゆうゆう",
    "kana": "ホームヘルパーサービスステーション　ユウユウ",
    "address": "栃木県佐野市高砂町2800-1",
    "lat": 36.3130548,
    "lng": 139.5792993,
    "tel": "0283-21-5333",
    "url": "",
    "pref": "栃木県",
    "city": "佐野市",
    "category": "home_help",
    "serviceType": "訪問介護",
    "capacity": 0,
    "openDays": [
      "平日",
      "土曜日",
      "日曜日",
      "祝日"
    ],
    "openDaysNote": "365日24時間利用可能"
  },
  {
    "id": "970401022",
    "name": "ホームヘルパーサービスステーション悠生園",
    "kana": "ホームヘルパーサービスステーションユウセイエン",
    "address": "栃木県佐野市寺久保町松場２３８番地",
    "lat": 36.3747973,
    "lng": 139.5259986,
    "tel": "0283-25-0540",
    "url": "https://yusei.s-y.gr.com/",
    "pref": "栃木県",
    "city": "佐野市",
    "category": "home_help",
    "serviceType": "訪問介護",
    "capacity": 40,
    "openDays": [
      "平日",
      "土曜日",
      "日曜日",
      "祝日"
    ],
    "openDaysNote": ""
  },
  {
    "id": "970401386",
    "name": "ラ・テラス堀米",
    "kana": "ラ・テラスホリゴメ",
    "address": "栃木県佐野市堀米町3143ラ・テラス堀米 ラ・テラス堀米",
    "lat": 36.3280781,
    "lng": 139.5667857,
    "tel": "0283-20-4021",
    "url": "www.azumien.jp/",
    "pref": "栃木県",
    "city": "佐野市",
    "category": "home_help",
    "serviceType": "訪問介護",
    "capacity": 0,
    "openDays": [
      "平日",
      "土曜日",
      "日曜日",
      "祝日"
    ],
    "openDaysNote": "サービス提供日は年中無休"
  },
  {
    "id": "970402038",
    "name": "花の器",
    "kana": "ハナノキ",
    "address": "栃木県佐野市堀米町617番地6",
    "lat": 36.3333504,
    "lng": 139.5822954,
    "tel": "0283-23-6000",
    "url": "http://www.stream.tochigi.jp/",
    "pref": "栃木県",
    "city": "佐野市",
    "category": "home_help",
    "serviceType": "訪問介護",
    "capacity": null,
    "openDays": [
      "平日",
      "土曜日",
      "日曜日",
      "祝日"
    ],
    "openDaysNote": "上記時間を原則としますが、ニーズにより調整が可能です"
  },
  {
    "id": "970400891",
    "name": "介護サービスグリーン",
    "kana": "カイゴサービスグリーン",
    "address": "栃木県佐野市大橋町１５４２番地１グリーンハウス グリーンハウス",
    "lat": 36.3041078,
    "lng": 139.5584404,
    "tel": "0283-24-1551",
    "url": "",
    "pref": "栃木県",
    "city": "佐野市",
    "category": "home_help",
    "serviceType": "訪問介護",
    "capacity": 0,
    "openDays": [
      "平日",
      "土曜日",
      "日曜日",
      "祝日"
    ],
    "openDaysNote": "上記時間外であっても、あらかじめ相談いただければ対応可能な場合もある。"
  },
  {
    "id": "970401261",
    "name": "株式会社　竹と森",
    "kana": "カブシキガイシャ　タケトモリ",
    "address": "栃木県佐野市吉水町１４０８－２",
    "lat": 36.3496344,
    "lng": 139.5814694,
    "tel": "0283-62-5622・",
    "url": "",
    "pref": "栃木県",
    "city": "佐野市",
    "category": "home_help",
    "serviceType": "訪問介護",
    "capacity": 0,
    "openDays": [
      "平日",
      "土曜日",
      "日曜日",
      "祝日"
    ],
    "openDaysNote": "その他の時間を希望の場合は相談・調整して対応いたします。"
  },
  {
    "id": "970400255",
    "name": "丸光ケアサービス株式会社　丸光ケアホームヘルプ佐野",
    "kana": "マルミツケアサービスカブシキカイシャ　マルミツケアホームヘルプサノ",
    "address": "栃木県佐野市富岡町２２９番地１２",
    "lat": 36.3174742,
    "lng": 139.5899844,
    "tel": "0283-20-6262",
    "url": "http://www.marumitsu.co.jp/company/",
    "pref": "栃木県",
    "city": "佐野市",
    "category": "home_help",
    "serviceType": "訪問介護",
    "capacity": 3,
    "openDays": [
      "平日",
      "土曜日",
      "日曜日",
      "祝日"
    ],
    "openDaysNote": "年中無休、24時間"
  },
  {
    "id": "970402574",
    "name": "合同会社訪問介護ステーション言の葉",
    "kana": "ゴウドウガイシャホウモンカイゴステーションコトノハ",
    "address": "栃木県佐野市小中町2015-1",
    "lat": 36.3393299,
    "lng": 139.5579665,
    "tel": "0283-55-9207",
    "url": "kotonoha2022(インスタグラム)",
    "pref": "栃木県",
    "city": "佐野市",
    "category": "home_help",
    "serviceType": "訪問介護",
    "capacity": 0,
    "openDays": [
      "平日",
      "土曜日",
      "日曜日",
      "祝日"
    ],
    "openDaysNote": "ケアプランに応じて土日祝日もサービス提供可能です。早朝・夜間も対応しております。"
  },
  {
    "id": "970401774",
    "name": "特定非営利活動法人ケアフラッグ幸",
    "kana": "トクテイヒエイリカツドウホウジンケアフラッグサイワイ",
    "address": "栃木県佐野市葛生東2丁目8番15号",
    "lat": 36.4064054,
    "lng": 139.6123835,
    "tel": "0283－86－4561",
    "url": "http://www.careflag-saiwai.com/",
    "pref": "栃木県",
    "city": "佐野市",
    "category": "home_help",
    "serviceType": "訪問介護",
    "capacity": 0,
    "openDays": [
      "平日",
      "土曜日",
      "祝日"
    ],
    "openDaysNote": "お盆・年末年始は完全休日の扱いとなります。（改行）お盆(8月13日～16日)（改行）年末年始(12月31日～1月3日)"
  },
  {
    "id": "970402194",
    "name": "訪問介護すずらん",
    "kana": "ホウモンカイゴスズラン",
    "address": "栃木県佐野市小中町1248-1",
    "lat": 36.3428821,
    "lng": 139.5597801,
    "tel": "0283-25-8133",
    "url": "",
    "pref": "栃木県",
    "city": "佐野市",
    "category": "home_help",
    "serviceType": "訪問介護",
    "capacity": 0,
    "openDays": [
      "平日",
      "土曜日",
      "日曜日",
      "祝日"
    ],
    "openDaysNote": "利用者の都合に合わせて訪問時間の変動あり。"
  },
  {
    "id": "970402590",
    "name": "訪問介護事業所エール佐野",
    "kana": "ホウモンカイゴジギョウショエールサノ",
    "address": "栃木県佐野市堀米町3511コーポM　F号棟 コーポM　F号棟",
    "lat": 36.3264754,
    "lng": 139.5687715,
    "tel": "0283-85-9620",
    "url": "",
    "pref": "栃木県",
    "city": "佐野市",
    "category": "home_help",
    "serviceType": "訪問介護",
    "capacity": null,
    "openDays": [
      "平日",
      "土曜日",
      "日曜日",
      "祝日"
    ],
    "openDaysNote": ""
  },
  {
    "id": "970402616",
    "name": "訪問介護桃梨",
    "kana": "ホウモンカイゴトウリ",
    "address": "栃木県佐野市下羽田町９８２－１",
    "lat": 36.2852221033812,
    "lng": 139.545183941734,
    "tel": "0283-55-9836",
    "url": "https://hvns.39touri.jp/",
    "pref": "栃木県",
    "city": "佐野市",
    "category": "home_help",
    "serviceType": "訪問介護",
    "capacity": 40,
    "openDays": [
      "平日"
    ],
    "openDaysNote": ""
  },
  {
    "id": "972701080",
    "name": "ヘルパーステーションなごみ",
    "kana": "ヘルパーステーションナゴミ",
    "address": "栃木県芳賀郡市貝町椎谷219-1サービス付き高齢者向け住宅　市貝の里なごみ内 サービス付き高齢者向け住宅　市貝の里なごみ内",
    "lat": 36.5618687,
    "lng": 140.0863169,
    "tel": "0285-68-3323",
    "url": "nagomi@ichikai-nagomi.jp",
    "pref": "栃木県",
    "city": "市貝町",
    "category": "home_help",
    "serviceType": "訪問介護",
    "capacity": 25,
    "openDays": [
      "平日",
      "土曜日",
      "日曜日",
      "祝日"
    ],
    "openDaysNote": ""
  },
  {
    "id": "970500138",
    "name": "さつき荘ヘルパーセンター",
    "kana": "サツキソウヘルパーセンター",
    "address": "鹿沼市白桑田２５４－７",
    "lat": 36.5501948,
    "lng": 139.8130596,
    "tel": "0289-76-2959",
    "url": "http://www.tudafukushi.com",
    "pref": "栃木県",
    "city": "鹿沼市",
    "category": "home_help",
    "serviceType": "訪問介護",
    "capacity": 0,
    "openDays": [
      "平日",
      "土曜日",
      "日曜日",
      "祝日"
    ],
    "openDaysNote": ""
  },
  {
    "id": "970500906",
    "name": "すまいる鹿沼",
    "kana": "スマイルカヌマ",
    "address": "栃木県鹿沼市茂呂2525-6すまいる鹿沼 すまいる鹿沼",
    "lat": 36.5496029,
    "lng": 139.793806,
    "tel": "0289-76-3100",
    "url": "http://www.smilekanuma.life",
    "pref": "栃木県",
    "city": "鹿沼市",
    "category": "home_help",
    "serviceType": "訪問介護",
    "capacity": 35,
    "openDays": [
      "平日",
      "土曜日",
      "日曜日",
      "祝日"
    ],
    "openDaysNote": "同一建物内"
  },
  {
    "id": "970500120",
    "name": "ニチイケアセンター　鹿沼",
    "kana": "ニチイケアセンターカヌマ",
    "address": "栃木県鹿沼市上野町320-3高橋ビル1階103号 高橋ビル1階103号",
    "lat": 36.5655891,
    "lng": 139.7655026,
    "tel": "0289-60-1685",
    "url": "http://www.nichiigakkan.co.jp",
    "pref": "栃木県",
    "city": "鹿沼市",
    "category": "home_help",
    "serviceType": "訪問介護",
    "capacity": null,
    "openDays": [
      "平日",
      "土曜日",
      "日曜日",
      "祝日"
    ],
    "openDaysNote": "但し、居宅サービス計画により、営業時間外でもサービスの提供を行なう場合もあります。"
  },
  {
    "id": "970501532",
    "name": "ニチイケアセンター下田町",
    "kana": "ニチイケアセンターシモタマチ",
    "address": "下田町1-874-3トロア・ポルトA号室 トロア・ポルトA号室",
    "lat": 31.6269562,
    "lng": 130.5558596,
    "tel": "0289-74-5378",
    "url": "",
    "pref": "栃木県",
    "city": "鹿沼市",
    "category": "home_help",
    "serviceType": "訪問介護",
    "capacity": 0,
    "openDays": [
      "平日",
      "土曜日",
      "日曜日",
      "祝日"
    ],
    "openDaysNote": ""
  },
  {
    "id": "970500757",
    "name": "ハートフルサポートとちぎ鹿沼事業所",
    "kana": "ハートフルサポートトチギ　カヌマジギョウショ",
    "address": "栃木県鹿沼市貝島町630-1クレドール貝島1Ｆ クレドール貝島1Ｆ",
    "lat": 36.5591054,
    "lng": 139.7622929,
    "tel": "0289-60-5356",
    "url": "hs-tochigi.com",
    "pref": "栃木県",
    "city": "鹿沼市",
    "category": "home_help",
    "serviceType": "訪問介護",
    "capacity": 80,
    "openDays": [
      "平日",
      "祝日"
    ],
    "openDaysNote": "平日時間外、土曜日、日曜日もサービス提供可能な場合は、サービス提供を行っています。"
  },
  {
    "id": "970500179",
    "name": "ハーモニーホームヘルパーステーション",
    "kana": "ハーモニーホームヘルパーステーション",
    "address": "栃木県鹿沼市村井町１４６－６",
    "lat": 36.5483071,
    "lng": 139.7460047,
    "tel": "0289-60-2345",
    "url": "ｈｔｔｐ：//ｗｗｗ．ｋｙｕｕｊｙｕ．ｃｏｍ/",
    "pref": "栃木県",
    "city": "鹿沼市",
    "category": "home_help",
    "serviceType": "訪問介護",
    "capacity": 0,
    "openDays": [
      "平日",
      "土曜日",
      "日曜日",
      "祝日"
    ],
    "openDaysNote": "訪問時間は、訪問介護員の体制により、御希望にそえないこともあります。"
  },
  {
    "id": "970501102",
    "name": "ヘルパーステーション　たけむらクローバー館",
    "kana": "ヘルパーステーション　タケムラクローバーカン",
    "address": "栃木県鹿沼市茂呂1858-147",
    "lat": 36.5366567,
    "lng": 139.7717363,
    "tel": "0289-63-6023",
    "url": "http://takemuracloverkan.com/",
    "pref": "栃木県",
    "city": "鹿沼市",
    "category": "home_help",
    "serviceType": "訪問介護",
    "capacity": 35,
    "openDays": [
      "平日",
      "土曜日",
      "祝日"
    ],
    "openDaysNote": "曜日、時間は相談に応じます。"
  },
  {
    "id": "970500450",
    "name": "ヘルパーステーションこころ",
    "kana": "ヘルパーステーション　ココロ",
    "address": "鹿沼市石橋町１６００－１橋田第一ビル８階",
    "lat": 36.5632601,
    "lng": 139.7467415,
    "tel": "0289-60-1040",
    "url": "",
    "pref": "栃木県",
    "city": "鹿沼市",
    "category": "home_help",
    "serviceType": "訪問介護",
    "capacity": 0,
    "openDays": [
      "平日",
      "土曜日",
      "日曜日",
      "祝日"
    ],
    "openDaysNote": ""
  },
  {
    "id": "970501631",
    "name": "みらいケア鹿沼",
    "kana": "ミライケアカヌマ",
    "address": "栃木県鹿沼市上田町2337",
    "lat": 36.567777977431,
    "lng": 139.749766910976,
    "tel": "7043337197",
    "url": "http://www.karaki-kaseifu.com",
    "pref": "栃木県",
    "city": "鹿沼市",
    "category": "home_help",
    "serviceType": "訪問介護",
    "capacity": null,
    "openDays": [
      "平日",
      "土曜日",
      "日曜日",
      "祝日"
    ],
    "openDaysNote": ""
  },
  {
    "id": "970501334",
    "name": "やさしい手かぬま訪問介護事業所",
    "kana": "ヤサシイテカヌマホウモンカイゴジギョウショ",
    "address": "栃木県鹿沼市上野町410－1",
    "lat": 36.5646695,
    "lng": 139.7641734,
    "tel": "0289‐60‐7265",
    "url": "https://yasashiite-tochigi.co.jp/",
    "pref": "栃木県",
    "city": "鹿沼市",
    "category": "home_help",
    "serviceType": "訪問介護",
    "capacity": 0,
    "openDays": [
      "平日",
      "土曜日",
      "日曜日",
      "祝日"
    ],
    "openDaysNote": ""
  },
  {
    "id": "970501243",
    "name": "家族の家ひまわり鹿沼訪問介護事業所",
    "kana": "カゾクノイエヒマワリカヌマホウモンカイゴジギョウショ",
    "address": "栃木県鹿沼市千渡2326-10",
    "lat": 36.5593239,
    "lng": 139.786862,
    "tel": "0289-60-6933",
    "url": "http://www.saneido.co.jp/kaigo/kanuma/",
    "pref": "栃木県",
    "city": "鹿沼市",
    "category": "home_help",
    "serviceType": "訪問介護",
    "capacity": 40,
    "openDays": [
      "平日",
      "土曜日",
      "日曜日",
      "祝日"
    ],
    "openDaysNote": ""
  },
  {
    "id": "970500419",
    "name": "丸光ケアホームヘルプ鹿沼",
    "kana": "マルミツケア　ホームヘルプカヌマ",
    "address": "千渡1893番地1",
    "lat": 36.5673280403886,
    "lng": 139.775211780426,
    "tel": "0289-60-3327",
    "url": "",
    "pref": "栃木県",
    "city": "鹿沼市",
    "category": "home_help",
    "serviceType": "訪問介護",
    "capacity": 0,
    "openDays": [
      "平日",
      "土曜日",
      "日曜日",
      "祝日"
    ],
    "openDaysNote": ""
  },
  {
    "id": "970501599",
    "name": "訪問介護　ケアガーデン",
    "kana": "ホウモンカイゴケアガーデン",
    "address": "栃木県鹿沼市千渡後田1963番地36",
    "lat": 36.5707483682296,
    "lng": 139.767943012177,
    "tel": "0289-77-7583",
    "url": "",
    "pref": "栃木県",
    "city": "鹿沼市",
    "category": "home_help",
    "serviceType": "訪問介護",
    "capacity": 0,
    "openDays": [
      "平日",
      "土曜日",
      "日曜日",
      "祝日"
    ],
    "openDaysNote": ""
  },
  {
    "id": "970501706",
    "name": "訪問介護　ケアガーデン",
    "kana": "ホウモンカイゴ　ケアガーデン",
    "address": "栃木県鹿沼市千渡1963番36ケアガーデン　鹿沼 ケアガーデン　鹿沼",
    "lat": 36.5708666,
    "lng": 139.7685046,
    "tel": "0289-77-7581",
    "url": "",
    "pref": "栃木県",
    "city": "鹿沼市",
    "category": "home_help",
    "serviceType": "訪問介護",
    "capacity": 0,
    "openDays": [],
    "openDaysNote": ""
  },
  {
    "id": "970501342",
    "name": "訪問介護事業所　めぐり",
    "kana": "ホウモンカイゴジギョウショ　メグリ",
    "address": "栃木県鹿沼市上永野502-1",
    "lat": 36.4991161580173,
    "lng": 139.595242884378,
    "tel": "0289-84-0180",
    "url": "",
    "pref": "栃木県",
    "city": "鹿沼市",
    "category": "home_help",
    "serviceType": "訪問介護",
    "capacity": 0,
    "openDays": [
      "平日",
      "土曜日",
      "祝日"
    ],
    "openDaysNote": "8/13～8/16、12/29～1/3は休みとなります。"
  },
  {
    "id": "970501052",
    "name": "訪問介護事業所　暖らいふ",
    "kana": "ホウモンカイゴジギョウショ　ダンライフ",
    "address": "栃木県鹿沼市北半田１４８９番地１",
    "lat": 36.4960056502153,
    "lng": 139.720064808459,
    "tel": "0289-75-2800",
    "url": "https://www.fukushiya.jp/",
    "pref": "栃木県",
    "city": "鹿沼市",
    "category": "home_help",
    "serviceType": "訪問介護",
    "capacity": 0,
    "openDays": [
      "平日",
      "土曜日",
      "日曜日",
      "祝日"
    ],
    "openDaysNote": ""
  },
  {
    "id": "970500989",
    "name": "万葉かぬま",
    "kana": "マンヨウカヌマ",
    "address": "栃木県鹿沼市茂呂216－1",
    "lat": 36.5366902880346,
    "lng": 139.796128056345,
    "tel": "0289-74-5697",
    "url": "http://manyohkanuma.com",
    "pref": "栃木県",
    "city": "鹿沼市",
    "category": "home_help",
    "serviceType": "訪問介護",
    "capacity": 0,
    "openDays": [
      "平日",
      "土曜日",
      "日曜日",
      "祝日"
    ],
    "openDaysNote": "電話により、２４時間連絡が可能です。"
  },
  {
    "id": "970802732",
    "name": "ＳＯＭＰＯケア　小山　訪問介護",
    "kana": "ソンポケア　オヤマ　ホウモンカイゴ",
    "address": "栃木県小山市天神町一丁目4番３１号前沢第3ビル 前沢第3ビル",
    "lat": 36.306939,
    "lng": 139.8001006,
    "tel": "0285-20-5372",
    "url": "http://sompocare.com/",
    "pref": "栃木県",
    "city": "小山市",
    "category": "home_help",
    "serviceType": "訪問介護",
    "capacity": 0,
    "openDays": [
      "平日",
      "土曜日",
      "日曜日",
      "祝日"
    ],
    "openDaysNote": "ケアプランに応じて24時間365日のサービス提供（改行）時間帯によっては相談させて頂きます"
  },
  {
    "id": "970800439",
    "name": "あいあいケアサービス",
    "kana": "アイアイケアサービス",
    "address": "栃木県小山市千駄塚350-1",
    "lat": 36.2802883,
    "lng": 139.7753651,
    "tel": "0285-41-2151",
    "url": "http://www.aiaitown.com",
    "pref": "栃木県",
    "city": "小山市",
    "category": "home_help",
    "serviceType": "訪問介護",
    "capacity": 0,
    "openDays": [
      "平日",
      "土曜日",
      "日曜日",
      "祝日"
    ],
    "openDaysNote": "基本時間外は相談に応じます"
  },
  {
    "id": "970801809",
    "name": "あじさい訪問介護",
    "kana": "アジサイホウモンカイゴ",
    "address": "栃木県小山市土塔２４７－３０サービス付高齢者住宅アナベル土塔 サービス付高齢者住宅アナベル土塔",
    "lat": 36.3015133,
    "lng": 139.8257035,
    "tel": "０２８５－２７－００７０",
    "url": "https://www.npoajisai.org/",
    "pref": "栃木県",
    "city": "小山市",
    "category": "home_help",
    "serviceType": "訪問介護",
    "capacity": null,
    "openDays": [
      "平日",
      "土曜日",
      "日曜日",
      "祝日"
    ],
    "openDaysNote": "年末年始（12/29～1/3）は休みとなります。"
  },
  {
    "id": "970301073",
    "name": "えいこう（永光）ケアーズ（平成22年度新規指定事業所）",
    "kana": "エイコウ（エイコウ）ケアーズ",
    "address": "栃木県小山市南乙女１丁目16-22",
    "lat": 36.2545887808813,
    "lng": 139.757774620901,
    "tel": "0285-45-6605",
    "url": "",
    "pref": "栃木県",
    "city": "小山市",
    "category": "home_help",
    "serviceType": "訪問介護",
    "capacity": 0,
    "openDays": [
      "平日",
      "土曜日",
      "日曜日",
      "祝日"
    ],
    "openDaysNote": "ご利用時間については、相談させていただき営業時間外でもご利用可能です。"
  },
  {
    "id": "970800280",
    "name": "きぬの里ヘルパーステーション",
    "kana": "キヌノサトヘルパーステーション",
    "address": "栃木県小山市大字高椅132－1",
    "lat": 36.3390218,
    "lng": 139.8881403,
    "tel": "0285-49-3662",
    "url": "http://kusu-noki.or.jp",
    "pref": "栃木県",
    "city": "小山市",
    "category": "home_help",
    "serviceType": "訪問介護",
    "capacity": null,
    "openDays": [
      "平日",
      "土曜日",
      "日曜日",
      "祝日"
    ],
    "openDaysNote": ""
  },
  {
    "id": "970802880",
    "name": "ケアセンターりぼん",
    "kana": "ケアセンターリボン",
    "address": "栃木県小山市神鳥谷1-3-4",
    "lat": 36.3030612,
    "lng": 139.7938686,
    "tel": "0285-38-6261",
    "url": "",
    "pref": "栃木県",
    "city": "小山市",
    "category": "home_help",
    "serviceType": "訪問介護",
    "capacity": 0,
    "openDays": [
      "平日",
      "土曜日",
      "日曜日",
      "祝日"
    ],
    "openDaysNote": "時間外も対応可能な場合あり（応相談）"
  },
  {
    "id": "970800579",
    "name": "ケアネット小山サービスセンター",
    "kana": "ケアネットオヤマサービスセンター",
    "address": "栃木県小山市城東５丁目８番１０号",
    "lat": 36.3149004,
    "lng": 139.8212509,
    "tel": "0285-32-7077",
    "url": "http://www.carenet.fujitsu.com/",
    "pref": "栃木県",
    "city": "小山市",
    "category": "home_help",
    "serviceType": "訪問介護",
    "capacity": 0,
    "openDays": [
      "平日",
      "土曜日",
      "日曜日",
      "祝日"
    ],
    "openDaysNote": ""
  },
  {
    "id": "970802492",
    "name": "コープヘルパーステーション喜沢",
    "kana": "コープヘルパーステーションキザワ",
    "address": "栃木県小山市大字喜沢1475－98",
    "lat": 36.3301003,
    "lng": 139.8024249,
    "tel": "0285－38－7746",
    "url": "coop-fukushitochigi.jp",
    "pref": "栃木県",
    "city": "小山市",
    "category": "home_help",
    "serviceType": "訪問介護",
    "capacity": 0,
    "openDays": [
      "平日",
      "土曜日",
      "日曜日",
      "祝日"
    ],
    "openDaysNote": ""
  },
  {
    "id": "970802799",
    "name": "サンスマイル小山",
    "kana": "サンスマイルオヤマ",
    "address": "犬塚6-17-1",
    "lat": 36.3003595,
    "lng": 139.8340621,
    "tel": "0285-28-3215",
    "url": "http://www.sunsmile-oyama.jp/",
    "pref": "栃木県",
    "city": "小山市",
    "category": "home_help",
    "serviceType": "訪問介護",
    "capacity": 0,
    "openDays": [
      "平日",
      "土曜日",
      "日曜日",
      "祝日"
    ],
    "openDaysNote": "早朝・夜間・深夜については、介護スタッフの状況により対応します。"
  },
  {
    "id": "970800801",
    "name": "サンフラワーヘルパーステーション",
    "kana": "サンフラワーヘルパーステーション",
    "address": "栃木県小山市大字出井１９３８",
    "lat": 36.3345264,
    "lng": 139.8369833,
    "tel": "0285-22-6644",
    "url": "http://www.sensinkai.or.jp/",
    "pref": "栃木県",
    "city": "小山市",
    "category": "home_help",
    "serviceType": "訪問介護",
    "capacity": 0,
    "openDays": [
      "平日",
      "土曜日",
      "日曜日",
      "祝日"
    ],
    "openDaysNote": "なし"
  },
  {
    "id": "970802690",
    "name": "サンフレンズ小山",
    "kana": "サンフレンズオヤマ",
    "address": "栃木県小山市羽川76番地",
    "lat": 36.3517323,
    "lng": 139.8268473,
    "tel": "0285-37-6581",
    "url": "https://taiyougroup.jp/",
    "pref": "栃木県",
    "city": "小山市",
    "category": "home_help",
    "serviceType": "訪問介護",
    "capacity": 0,
    "openDays": [
      "平日",
      "土曜日",
      "日曜日",
      "祝日"
    ],
    "openDaysNote": "早朝・夜間・深夜については、介護スタッフの状況により対応します。"
  },
  {
    "id": "970800025",
    "name": "ニチイケアセンターおやま",
    "kana": "ニチイケアセンターオヤマ",
    "address": "小山市神鳥谷2丁目13番14号",
    "lat": 36.3010366,
    "lng": 139.7949319,
    "tel": "0285-30-5620",
    "url": "http://www.nichiigakkan.co.jp",
    "pref": "栃木県",
    "city": "小山市",
    "category": "home_help",
    "serviceType": "訪問介護",
    "capacity": 0,
    "openDays": [
      "平日",
      "土曜日",
      "日曜日",
      "祝日"
    ],
    "openDaysNote": "―"
  },
  {
    "id": "970802864",
    "name": "ニチイケアセンターままだ",
    "kana": "ニチイケアセンターママダ",
    "address": "東間々田2-29-11タグチハイツ202号 タグチハイツ202号",
    "lat": 36.2635988,
    "lng": 139.7691416,
    "tel": "0285-41-7015",
    "url": "",
    "pref": "栃木県",
    "city": "小山市",
    "category": "home_help",
    "serviceType": "訪問介護",
    "capacity": 0,
    "openDays": [
      "平日",
      "土曜日",
      "日曜日",
      "祝日"
    ],
    "openDaysNote": ""
  },
  {
    "id": "970800884",
    "name": "ニチイケアセンター小山城東",
    "kana": "ニチイケアセンターオヤマジョウトウ",
    "address": "栃木県小山市城東1丁目6番42号第３高岩ビル１階 第３高岩ビル１階",
    "lat": 36.3099303,
    "lng": 139.8130078,
    "tel": "0285-30-6118",
    "url": "http://www.nichiigakkan.co.jp",
    "pref": "栃木県",
    "city": "小山市",
    "category": "home_help",
    "serviceType": "訪問介護",
    "capacity": 0,
    "openDays": [
      "平日",
      "土曜日",
      "日曜日",
      "祝日"
    ],
    "openDaysNote": "－"
  },
  {
    "id": "970803052",
    "name": "ホームケアみやび",
    "kana": "ホームケアミヤビ",
    "address": "栃木県小山市宮本町２丁目3-12",
    "lat": 36.3115538,
    "lng": 139.8026209,
    "tel": "0285-21-5010",
    "url": "",
    "pref": "栃木県",
    "city": "小山市",
    "category": "home_help",
    "serviceType": "訪問介護",
    "capacity": 0,
    "openDays": [
      "平日",
      "土曜日",
      "祝日"
    ],
    "openDaysNote": "利用者の希望に応じて、上記時間外でもサービス提供可能な体制をとります。"
  },
  {
    "id": "970800298",
    "name": "ホームヘルパーステーション　ラ・カータ",
    "kana": "ホームヘルパーステーション　ラ・カータ",
    "address": "栃木県小山市中久喜1273-1",
    "lat": 36.3236804,
    "lng": 139.8344057,
    "tel": "0285-23-0582",
    "url": "",
    "pref": "栃木県",
    "city": "小山市",
    "category": "home_help",
    "serviceType": "訪問介護",
    "capacity": 0,
    "openDays": [
      "平日",
      "土曜日",
      "日曜日",
      "祝日"
    ],
    "openDaysNote": ""
  },
  {
    "id": "970800371",
    "name": "ホームヘルパー穂の香苑",
    "kana": "ホームヘルパーホノカエン",
    "address": "小山市間々田１４４２番地",
    "lat": 36.2680657034892,
    "lng": 139.762846276351,
    "tel": "0285-45-1517",
    "url": "https://www.honokaen.jp/",
    "pref": "栃木県",
    "city": "小山市",
    "category": "home_help",
    "serviceType": "訪問介護",
    "capacity": null,
    "openDays": [
      "平日"
    ],
    "openDaysNote": "相談に応じます。"
  },
  {
    "id": "970803136",
    "name": "やさしい手小山訪問介護事業所",
    "kana": "ヤサシイテオヤマホウモンカイゴジギョウショ",
    "address": "駅南町２－１７－２",
    "lat": 36.301388,
    "lng": 139.8086383,
    "tel": "050-1753-5621",
    "url": "https://search.yasashiite.com/detail/homonkaigo_oyama/",
    "pref": "栃木県",
    "city": "小山市",
    "category": "home_help",
    "serviceType": "訪問介護",
    "capacity": 175,
    "openDays": [
      "平日",
      "土曜日",
      "日曜日",
      "祝日"
    ],
    "openDaysNote": "定休日（9：00～18：00）は、本社コールセンターへ転送し対応致します。"
  },
  {
    "id": "970802989",
    "name": "ライフサポートpalprime",
    "kana": "ライフサポートパルプライム",
    "address": "栃木県小山市城山町3-9-10",
    "lat": 36.3165867,
    "lng": 139.805665,
    "tel": "0285-32-6873",
    "url": "",
    "pref": "栃木県",
    "city": "小山市",
    "category": "home_help",
    "serviceType": "訪問介護",
    "capacity": null,
    "openDays": [
      "平日",
      "土曜日"
    ],
    "openDaysNote": ""
  },
  {
    "id": "970802245",
    "name": "家族の家ひまわり小山訪問介護事業所",
    "kana": "カゾクノイエヒマワリオヤマホウモンカイゴジギョウショ",
    "address": "栃木県小山市駅東通り1-22-28",
    "lat": 36.3094392,
    "lng": 139.8088107,
    "tel": "0285-20-3215",
    "url": "http://www.saneido.co.jp/kaigo/",
    "pref": "栃木県",
    "city": "小山市",
    "category": "home_help",
    "serviceType": "訪問介護",
    "capacity": null,
    "openDays": [
      "平日",
      "土曜日",
      "日曜日",
      "祝日"
    ],
    "openDaysNote": ""
  },
  {
    "id": "970802021",
    "name": "株式会社ケアサービス大沼　訪問介護",
    "kana": "カブシキカイシャ　ケアサービス　ホウモンカイゴ",
    "address": "小山市大字羽川11番地１",
    "lat": 36.3520905,
    "lng": 139.823317,
    "tel": "0285-30-2941",
    "url": "",
    "pref": "栃木県",
    "city": "小山市",
    "category": "home_help",
    "serviceType": "訪問介護",
    "capacity": 0,
    "openDays": [
      "平日",
      "土曜日",
      "日曜日",
      "祝日"
    ],
    "openDaysNote": ""
  },
  {
    "id": "970800785",
    "name": "株式会社ほほえみ倶楽部　ヘルパーステーションほほえみ倶楽部",
    "kana": "カブシキガイシャホホエミクラブ　ヘルパーステーションホホエミクラブ",
    "address": "栃木県小山市乙女3丁目27-31",
    "lat": 36.2559491,
    "lng": 139.7579757,
    "tel": "0285-41-2122",
    "url": "http://www.mk-hc.jp/",
    "pref": "栃木県",
    "city": "小山市",
    "category": "home_help",
    "serviceType": "訪問介護",
    "capacity": 0,
    "openDays": [
      "平日",
      "土曜日",
      "日曜日",
      "祝日"
    ],
    "openDaysNote": "提供表による支援予定者につき稼動"
  },
  {
    "id": "970801007",
    "name": "県南サポートセンター",
    "kana": "ケンナンサポートセンター",
    "address": "栃木県小山市神鳥谷1012-1",
    "lat": 36.3029453,
    "lng": 139.7962345,
    "tel": "0285-25-1129",
    "url": "http://www.kennan-support.co.jp",
    "pref": "栃木県",
    "city": "小山市",
    "category": "home_help",
    "serviceType": "訪問介護",
    "capacity": 8,
    "openDays": [
      "平日",
      "土曜日",
      "日曜日",
      "祝日"
    ],
    "openDaysNote": "ー"
  },
  {
    "id": "970800173",
    "name": "小山市社会福祉協議会　訪問介護事業所",
    "kana": "オヤマシシャカイフクシキョウギカイ　ホウモンカイゴジギョウショ",
    "address": "栃木県小山市中央町2丁目2番21号",
    "lat": 36.3137876536954,
    "lng": 139.801727537446,
    "tel": "0285-22-9503",
    "url": "d-syakyo@city.oyama.tochigi.jp",
    "pref": "栃木県",
    "city": "小山市",
    "category": "home_help",
    "serviceType": "訪問介護",
    "capacity": 0,
    "openDays": [
      "平日",
      "土曜日",
      "日曜日",
      "祝日"
    ],
    "openDaysNote": "特になし"
  },
  {
    "id": "970800629",
    "name": "訪問介護　ぱーとなあ",
    "kana": "ホウモンカイゴ　パートナア",
    "address": "栃木県小山市乙女786番地1",
    "lat": 36.2510346477549,
    "lng": 139.745942528829,
    "tel": "0285-45-8375",
    "url": "http://care-net.biz/09/partner/",
    "pref": "栃木県",
    "city": "小山市",
    "category": "home_help",
    "serviceType": "訪問介護",
    "capacity": null,
    "openDays": [
      "平日",
      "土曜日",
      "日曜日",
      "祝日"
    ],
    "openDaysNote": "ー"
  },
  {
    "id": "970802955",
    "name": "訪問介護ステーション　小山整形外科の郷",
    "kana": "ホウモンカイゴステーション　オヤマセイケイゲカノサト",
    "address": "栃木県小山市雨ヶ谷712番地1サービス付き高齢者向け住宅　小山整形外科の郷 サービス付き高齢者向け住宅　小山整形外科の郷",
    "lat": 36.278449,
    "lng": 139.8112293,
    "tel": "0285-31-1165",
    "url": "https://www.oyamaseikeigekanaika.jp/",
    "pref": "栃木県",
    "city": "小山市",
    "category": "home_help",
    "serviceType": "訪問介護",
    "capacity": 47,
    "openDays": [
      "平日",
      "土曜日",
      "日曜日",
      "祝日"
    ],
    "openDaysNote": ""
  },
  {
    "id": "970801890",
    "name": "訪問介護ハートランド小山",
    "kana": "ホウモンカイゴハートランドオヤマ",
    "address": "城北6-2-7",
    "lat": 36.317638576156,
    "lng": 139.814426494891,
    "tel": "0285-32-6920",
    "url": "https://ygood.jp/",
    "pref": "栃木県",
    "city": "小山市",
    "category": "home_help",
    "serviceType": "訪問介護",
    "capacity": 40,
    "openDays": [
      "平日",
      "土曜日",
      "日曜日",
      "祝日"
    ],
    "openDaysNote": "上記の営業日、営業時間、サービス提供時間のほか、電話等により24時間常時連絡が可能な体制をとっています。"
  },
  {
    "id": "970803144",
    "name": "訪問介護和",
    "kana": "ホウモンカイゴノドカ",
    "address": "栃木県小山市土塔252番地1サンビレッジ小山C-102 サンビレッジ小山C-102",
    "lat": 36.3030621,
    "lng": 139.8236476,
    "tel": "0285-38-7498",
    "url": "http://hp.kaipoke.biz/s4x/",
    "pref": "栃木県",
    "city": "小山市",
    "category": "home_help",
    "serviceType": "訪問介護",
    "capacity": 0,
    "openDays": [
      "平日",
      "祝日"
    ],
    "openDaysNote": "必要に応じて土・日曜日も営業する。ただし、12月31日から1月3日までを除く。"
  },
  {
    "id": "970800793",
    "name": "友井タクシー介護ステーションふれあい",
    "kana": "トモイタクシーカイゴステーションフレアイ",
    "address": "栃木県小山市城山町二丁目12番25号",
    "lat": 36.316085,
    "lng": 139.8046432,
    "tel": "0285-30-0840",
    "url": "http://www.tomoi.jp",
    "pref": "栃木県",
    "city": "小山市",
    "category": "home_help",
    "serviceType": "訪問介護",
    "capacity": 0,
    "openDays": [
      "平日",
      "土曜日",
      "日曜日",
      "祝日"
    ],
    "openDaysNote": ""
  },
  {
    "id": "970800256",
    "name": "有限会社　ニーズ",
    "kana": "ユウゲンカイシャ　ニーズ",
    "address": "栃木県小山市神鳥谷6-8-23",
    "lat": 36.2951547036298,
    "lng": 139.792655533621,
    "tel": "0285-30-5081",
    "url": "http://www.kaigoservice-needs.co.jp",
    "pref": "栃木県",
    "city": "小山市",
    "category": "home_help",
    "serviceType": "訪問介護",
    "capacity": 0,
    "openDays": [
      "平日",
      "土曜日",
      "日曜日",
      "祝日"
    ],
    "openDaysNote": "6：00～9：00、18：00～22：00、土・日・祭日については相談の上サービスを提供させて頂きます。"
  },
  {
    "id": "972100341",
    "name": "ポプラ",
    "kana": "ポプラ",
    "address": "栃木県河内郡上三川町大字石田１２３１番地１",
    "lat": 36.4687028,
    "lng": 139.9002371,
    "tel": "0285-56-0099",
    "url": "http://sakura-popura.jp",
    "pref": "栃木県",
    "city": "上三川町",
    "category": "home_help",
    "serviceType": "訪問介護",
    "capacity": 0,
    "openDays": [
      "平日"
    ],
    "openDaysNote": ""
  },
  {
    "id": "972100705",
    "name": "やさしい手上三川訪問介護事業所",
    "kana": "ヤサシイテカミノカワホウモンカイゴジギョウショ",
    "address": "栃木県河内郡上三川町しらさぎ2-13-18やさしえ上三川 やさしえ上三川",
    "lat": 36.4443143,
    "lng": 139.9084204,
    "tel": "0285-32-6024",
    "url": "http://www.yasashiite.com/subdomains/section/517/",
    "pref": "栃木県",
    "city": "上三川町",
    "category": "home_help",
    "serviceType": "訪問介護",
    "capacity": 0,
    "openDays": [
      "平日",
      "土曜日",
      "日曜日",
      "祝日"
    ],
    "openDaysNote": "なし"
  },
  {
    "id": "970900890",
    "name": "コンフォート真岡",
    "kana": "コンフォートモオカ",
    "address": "熊倉1-34-1",
    "lat": 36.4504829,
    "lng": 139.9900783,
    "tel": "0285-81-6338",
    "url": "https://comfort-kaigo.jp/",
    "pref": "栃木県",
    "city": "真岡市",
    "category": "home_help",
    "serviceType": "訪問介護",
    "capacity": 28,
    "openDays": [
      "平日",
      "土曜日",
      "日曜日",
      "祝日"
    ],
    "openDaysNote": ""
  },
  {
    "id": "970900106",
    "name": "ニチイケアセンター真岡",
    "kana": "ニチイケアセンターモオカ",
    "address": "栃木県真岡市東光寺1-16-5",
    "lat": 36.441877,
    "lng": 140.0119139,
    "tel": "0285-80-5151",
    "url": "http://www.nichiigakkan.co.jp",
    "pref": "栃木県",
    "city": "真岡市",
    "category": "home_help",
    "serviceType": "訪問介護",
    "capacity": 0,
    "openDays": [
      "平日",
      "土曜日",
      "日曜日",
      "祝日"
    ],
    "openDaysNote": "但し、居宅サービス計画により、休業日・営業時間以外であっても、サービスの提供を行う場合がある。"
  },
  {
    "id": "970900023",
    "name": "はが野農業協同組合",
    "kana": "ハガノノウギョウキョウドウクミアイ",
    "address": "栃木県真岡市飯貝５５９番地２",
    "lat": 36.4775674,
    "lng": 140.018665,
    "tel": "0285-80-6294",
    "url": "http://www.ja-hagano.or.jp/",
    "pref": "栃木県",
    "city": "真岡市",
    "category": "home_help",
    "serviceType": "訪問介護",
    "capacity": 0,
    "openDays": [
      "平日"
    ],
    "openDaysNote": ""
  },
  {
    "id": "970900213",
    "name": "ホームヘルプサービスきたはら",
    "kana": "ホームヘルプサービスキタハラ",
    "address": "栃木県真岡市若旅656番地",
    "lat": 36.4023594,
    "lng": 139.9484327,
    "tel": "0285-83-7662",
    "url": "https://keikoukai.or.jp/",
    "pref": "栃木県",
    "city": "真岡市",
    "category": "home_help",
    "serviceType": "訪問介護",
    "capacity": 0,
    "openDays": [
      "平日",
      "土曜日",
      "日曜日",
      "祝日"
    ],
    "openDaysNote": ""
  },
  {
    "id": "970900767",
    "name": "家族の家ひまわり真岡　訪問介護事業所",
    "kana": "カゾクノイエ　ヒマワリモオカ　ホウモンカイゴジギョウショ",
    "address": "栃木県真岡市荒町3-25-6",
    "lat": 36.442891,
    "lng": 140.017605,
    "tel": "0285-80-3715",
    "url": "http://www.saneido.co.jp/",
    "pref": "栃木県",
    "city": "真岡市",
    "category": "home_help",
    "serviceType": "訪問介護",
    "capacity": 40,
    "openDays": [
      "平日",
      "土曜日",
      "日曜日",
      "祝日"
    ],
    "openDaysNote": ""
  },
  {
    "id": "970900791",
    "name": "家族の家ひまわり真岡二宮訪問介護事業所",
    "kana": "カゾクノイエヒマワリモオカニノミヤホウモンカイゴジギョウショ",
    "address": "栃木県真岡市久下田西2-7家族の家ひまわり真岡二宮 家族の家ひまわり真岡二宮",
    "lat": 36.3762512154588,
    "lng": 139.967407279901,
    "tel": "0285-73-1515",
    "url": "",
    "pref": "栃木県",
    "city": "真岡市",
    "category": "home_help",
    "serviceType": "訪問介護",
    "capacity": null,
    "openDays": [
      "平日",
      "土曜日",
      "日曜日",
      "祝日"
    ],
    "openDaysNote": ""
  },
  {
    "id": "970900338",
    "name": "株式会社メディカルソフト",
    "kana": "カブシキガイシャメディカルソフト",
    "address": "栃木県真岡市さくら2丁目4-4",
    "lat": 36.4423034,
    "lng": 140.008169,
    "tel": "0285-81-1616",
    "url": "",
    "pref": "栃木県",
    "city": "真岡市",
    "category": "home_help",
    "serviceType": "訪問介護",
    "capacity": null,
    "openDays": [
      "平日",
      "土曜日",
      "日曜日",
      "祝日"
    ],
    "openDaysNote": "訪問介護サービス利用者（契約者）との契約内容により、営業日または営業時間を越えてサービスの提供を行うことがある。あらかじめ訪問介護員等の勤務計画を基に24時間体制でのサービス提供計画を立てるとともに、職員間で、常時連絡がとれる体制を敷く。"
  },
  {
    "id": "970900312",
    "name": "真岡介護センター",
    "kana": "モオカカイゴ　センター",
    "address": "栃木県真岡市並木町１－８－１シティ並木102 シティ並木102",
    "lat": 36.4387104000001,
    "lng": 140.0012566,
    "tel": "0285-80-5200",
    "url": "https://www.mokai.info",
    "pref": "栃木県",
    "city": "真岡市",
    "category": "home_help",
    "serviceType": "訪問介護",
    "capacity": 0,
    "openDays": [
      "平日",
      "土曜日",
      "日曜日",
      "祝日"
    ],
    "openDaysNote": "提供時間については、スタッフの空き具合もありますので、相談調整しながら対応いたします。なるべく必要な時間帯に沿うよう調整いたします。"
  },
  {
    "id": "970900817",
    "name": "真岡熊倉鶴の里訪問介護事業所",
    "kana": "モオカクマクラツルノサトホウモンカイゴジギョウショ",
    "address": "栃木県真岡市熊倉1-34-1",
    "lat": 36.450332167505,
    "lng": 139.990162834393,
    "tel": "0285-81-6338",
    "url": "",
    "pref": "栃木県",
    "city": "真岡市",
    "category": "home_help",
    "serviceType": "訪問介護",
    "capacity": 0,
    "openDays": [
      "平日"
    ],
    "openDaysNote": ""
  },
  {
    "id": "970900841",
    "name": "栃木県真岡市上高間木2-25-8",
    "kana": "ニチイケアセンター上高間木",
    "address": "上高間木2-25-8中島アパート 中島アパート",
    "lat": 36.4414625228515,
    "lng": 139.985782663008,
    "tel": "0285-81-7124",
    "url": "www.nichigakkan.co.jp",
    "pref": "栃木県",
    "city": "真岡市",
    "category": "home_help",
    "serviceType": "訪問介護",
    "capacity": 0,
    "openDays": [
      "平日",
      "土曜日",
      "日曜日",
      "祝日"
    ],
    "openDaysNote": ""
  },
  {
    "id": "972700876",
    "name": "二宮中央クリニック介護センター",
    "kana": "ニノミヤチュウオウクリニックカイゴセンター",
    "address": "栃木県真岡市久下田712-2",
    "lat": 36.3743964,
    "lng": 139.9684233,
    "tel": "0285-73-1325",
    "url": "",
    "pref": "栃木県",
    "city": "真岡市",
    "category": "home_help",
    "serviceType": "訪問介護",
    "capacity": null,
    "openDays": [
      "平日",
      "土曜日",
      "日曜日",
      "祝日"
    ],
    "openDaysNote": "日曜日他定休日の訪問は相談に応じます。"
  },
  {
    "id": "970900387",
    "name": "訪問介護センター　たんぽぽ",
    "kana": "ホウモンカイゴセンター　タンポポ",
    "address": "栃木県真岡市上高間木2-24-3",
    "lat": 36.441729,
    "lng": 139.985433,
    "tel": "0285-80-5055",
    "url": "http://www.i-souseikai.com/",
    "pref": "栃木県",
    "city": "真岡市",
    "category": "home_help",
    "serviceType": "訪問介護",
    "capacity": 0,
    "openDays": [
      "平日",
      "土曜日"
    ],
    "openDaysNote": ""
  },
  {
    "id": "970900924",
    "name": "訪問介護みはなや",
    "kana": "ホウモンカイゴミハナヤ",
    "address": "栃木県真岡市田町1629－2",
    "lat": 36.4355524,
    "lng": 140.0119315,
    "tel": "080－5812－0185",
    "url": "",
    "pref": "栃木県",
    "city": "真岡市",
    "category": "home_help",
    "serviceType": "訪問介護",
    "capacity": null,
    "openDays": [
      "平日"
    ],
    "openDaysNote": ""
  },
  {
    "id": "970900296",
    "name": "有限会社ケアワーカー出野",
    "kana": "ユウゲンガイシャケアワーカーイデノ",
    "address": "栃木県真岡市荒町四丁目22番地4",
    "lat": 36.4472895,
    "lng": 140.0167201,
    "tel": "0285-84-1097",
    "url": "http://www.carerworker.com/",
    "pref": "栃木県",
    "city": "真岡市",
    "category": "home_help",
    "serviceType": "訪問介護",
    "capacity": 0,
    "openDays": [
      "平日",
      "土曜日",
      "日曜日",
      "祝日"
    ],
    "openDaysNote": "時間外については相談に応ず"
  },
  {
    "id": "972301410",
    "name": "グランセーロ恵喜",
    "kana": "グランセーロケイキ",
    "address": "栃木県下都賀郡壬生町本丸2-22-5グランセーロ恵喜 グランセーロ恵喜",
    "lat": 36.4216389333468,
    "lng": 139.797752507358,
    "tel": "0282-81-0877",
    "url": "ｈｔｔｐ：//www.gransero.com",
    "pref": "栃木県",
    "city": "壬生町",
    "category": "home_help",
    "serviceType": "訪問介護",
    "capacity": null,
    "openDays": [
      "平日",
      "土曜日",
      "日曜日",
      "祝日"
    ],
    "openDaysNote": ""
  },
  {
    "id": "972301568",
    "name": "ニチイケアセンター本丸",
    "kana": "ニチイケアセンターホンマル",
    "address": "栃木県下都賀郡壬生町本丸2丁目4-12アメニティーハイツF201号 アメニティーハイツF201号",
    "lat": 36.4265254,
    "lng": 139.7971035,
    "tel": "0282-21-7913",
    "url": "",
    "pref": "栃木県",
    "city": "壬生町",
    "category": "home_help",
    "serviceType": "訪問介護",
    "capacity": 0,
    "openDays": [
      "平日"
    ],
    "openDaysNote": ""
  },
  {
    "id": "972300800",
    "name": "はっぴーらいふ",
    "kana": "ハッピーライフ",
    "address": "栃木県下都賀郡壬生町壬生甲３７４５－２",
    "lat": 36.4465727,
    "lng": 139.8187385,
    "tel": "0282-81-2622",
    "url": "",
    "pref": "栃木県",
    "city": "壬生町",
    "category": "home_help",
    "serviceType": "訪問介護",
    "capacity": 0,
    "openDays": [
      "平日",
      "祝日"
    ],
    "openDaysNote": "営業時間外は相談に応じ、対応可能"
  },
  {
    "id": "972301659",
    "name": "みぶケアーズ",
    "kana": "ミブケアーズ",
    "address": "栃木県下都賀郡壬生町安塚888みぶケアーズ みぶケアーズ",
    "lat": 36.4857641,
    "lng": 139.8281798,
    "tel": "0282-85-0560",
    "url": "https://mibu-cares.com/",
    "pref": "栃木県",
    "city": "壬生町",
    "category": "home_help",
    "serviceType": "訪問介護",
    "capacity": 0,
    "openDays": [
      "平日",
      "土曜日",
      "日曜日",
      "祝日"
    ],
    "openDaysNote": ""
  },
  {
    "id": "972301048",
    "name": "株式会社シルバーライフネットワーク栃木営業所",
    "kana": "カブシキガイシャシルバーライフネットワークトチギエイギョウショ",
    "address": "下都賀郡壬生町通町５番１号サンフレンズ壬生１階",
    "lat": 36.4304308,
    "lng": 139.8013589,
    "tel": "0282-81-2230",
    "url": "http//www.silverlife.co.jp/",
    "pref": "栃木県",
    "city": "壬生町",
    "category": "home_help",
    "serviceType": "訪問介護",
    "capacity": 85,
    "openDays": [
      "平日",
      "土曜日",
      "日曜日",
      "祝日"
    ],
    "openDaysNote": "早朝・夜間・深夜については、介護スタッフの状況により対応。"
  },
  {
    "id": "972300032",
    "name": "社会福祉法人壬生町社会福祉協議会",
    "kana": "シャカイフクシホウジンミブマチシャカイフクシキョウギカイ",
    "address": "栃木県下都賀郡壬生町大字壬生甲３８４３番地１",
    "lat": 36.4428756,
    "lng": 139.8124836,
    "tel": "0282-81-0808",
    "url": "http://www.mibu-shakyo.net",
    "pref": "栃木県",
    "city": "壬生町",
    "category": "home_help",
    "serviceType": "訪問介護",
    "capacity": 0,
    "openDays": [
      "平日",
      "土曜日",
      "日曜日",
      "祝日"
    ],
    "openDaysNote": "年末年始（１２／２９～１／３）は休業"
  },
  {
    "id": "972301618",
    "name": "有限会社さくら福祉サービスみぶ営業所",
    "kana": "ユウゲンガイシャサクラフクシサービスミブエイギョウショ",
    "address": "栃木県壬生町緑町1丁目19番5号",
    "lat": 36.4663463,
    "lng": 139.8280268,
    "tel": "0282-28-7603",
    "url": "",
    "pref": "栃木県",
    "city": "壬生町",
    "category": "home_help",
    "serviceType": "訪問介護",
    "capacity": 0,
    "openDays": [
      "平日",
      "土曜日"
    ],
    "openDaysNote": ""
  },
  {
    "id": "970203352",
    "name": "SOMPOケア　足利　訪問介護",
    "kana": "ソンポケア　アシカガ　ホウモンカイゴ",
    "address": "栃木県足利市有楽町841番地3岩崎ビル２階 岩崎ビル２階",
    "lat": 36.3416604,
    "lng": 139.456074,
    "tel": "0284-44-6091",
    "url": "",
    "pref": "栃木県",
    "city": "足利市",
    "category": "home_help",
    "serviceType": "訪問介護",
    "capacity": 0,
    "openDays": [
      "平日",
      "土曜日",
      "日曜日",
      "祝日"
    ],
    "openDaysNote": "ケアプランに応じて24時間365日のサービス提供"
  },
  {
    "id": "970202230",
    "name": "あゆみヘルパーステーション",
    "kana": "アユミヘルパーステーション",
    "address": "栃木県足利市鹿島町709番地4",
    "lat": 36.343483971945,
    "lng": 139.41241572547,
    "tel": "0284-64-7331",
    "url": "",
    "pref": "栃木県",
    "city": "足利市",
    "category": "home_help",
    "serviceType": "訪問介護",
    "capacity": 0,
    "openDays": [
      "平日",
      "土曜日",
      "日曜日",
      "祝日"
    ],
    "openDaysNote": ""
  },
  {
    "id": "970201620",
    "name": "オアシスケアサービス",
    "kana": "オアシスケアサービス",
    "address": "栃木県足利市大久保町753番地",
    "lat": 36.3148474,
    "lng": 139.5001307,
    "tel": "0284-90-1037",
    "url": "http://www.hsc-group.jp/",
    "pref": "栃木県",
    "city": "足利市",
    "category": "home_help",
    "serviceType": "訪問介護",
    "capacity": 0,
    "openDays": [
      "平日",
      "土曜日",
      "日曜日",
      "祝日"
    ],
    "openDaysNote": "設定の時間外対応可"
  },
  {
    "id": "970203048",
    "name": "ケア　フレックス",
    "kana": "ケア　フレックス",
    "address": "栃木県足利市寺岡町603-3",
    "lat": 36.3133395,
    "lng": 139.5380828,
    "tel": "0284-64-8500",
    "url": "",
    "pref": "栃木県",
    "city": "足利市",
    "category": "home_help",
    "serviceType": "訪問介護",
    "capacity": 0,
    "openDays": [
      "平日",
      "土曜日",
      "日曜日",
      "祝日"
    ],
    "openDaysNote": "上記以外の時間のサービスも相談に応じます。"
  },
  {
    "id": "970203808",
    "name": "ケアセンター足利",
    "kana": "ケアセンターアシカガ",
    "address": "栃木県足利市芳町42-1",
    "lat": 36.335308,
    "lng": 139.4701182,
    "tel": "0284-64-7303",
    "url": "https://www.c-human.co.jp/index.html",
    "pref": "栃木県",
    "city": "足利市",
    "category": "home_help",
    "serviceType": "訪問介護",
    "capacity": null,
    "openDays": [
      "平日",
      "土曜日",
      "日曜日",
      "祝日"
    ],
    "openDaysNote": ""
  },
  {
    "id": "970203725",
    "name": "けあビジョン足利",
    "kana": "ケアビジョンアシカガ",
    "address": "堀込町2956-6グランドコーポ泰 グランドコーポ泰",
    "lat": 36.3164735,
    "lng": 139.4368108,
    "tel": "0284-70-7007",
    "url": "https://www.saiyo-carevision.com",
    "pref": "栃木県",
    "city": "足利市",
    "category": "home_help",
    "serviceType": "訪問介護",
    "capacity": 0,
    "openDays": [
      "平日",
      "土曜日",
      "日曜日",
      "祝日"
    ],
    "openDaysNote": "深夜応相談"
  },
  {
    "id": "970200788",
    "name": "ケアフレンド三和",
    "kana": "ケアフレンドミワ",
    "address": "栃木県足利市板倉町214番地3",
    "lat": 36.3737192726223,
    "lng": 139.399419317058,
    "tel": "0284-65-4115",
    "url": "",
    "pref": "栃木県",
    "city": "足利市",
    "category": "home_help",
    "serviceType": "訪問介護",
    "capacity": 0,
    "openDays": [
      "平日",
      "土曜日",
      "日曜日",
      "祝日"
    ],
    "openDaysNote": "緊急時24時間対応可能"
  },
  {
    "id": "970203501",
    "name": "ニチイケアセンター　ひこぼし",
    "kana": "ニチイケアセンター　ヒコボシ",
    "address": "栃木県足利市利保町1丁目11-13グリーンサイド103号 グリーンサイド103号",
    "lat": 36.3499736,
    "lng": 139.4687872,
    "tel": "0284-40-2150",
    "url": "http://www.nichiigakkan.co.jp",
    "pref": "栃木県",
    "city": "足利市",
    "category": "home_help",
    "serviceType": "訪問介護",
    "capacity": 0,
    "openDays": [
      "平日",
      "土曜日",
      "日曜日",
      "祝日"
    ],
    "openDaysNote": "不在時は、留守番電話対応"
  },
  {
    "id": "970201083",
    "name": "ニチイケアセンターおりひめ",
    "kana": "ニチイケアセンターオリヒメ",
    "address": "栃木県足利市本城3-2008ラフェスタ足利本城102～103 ラフェスタ足利本城102～103",
    "lat": 36.3409651,
    "lng": 139.4495568,
    "tel": "0284-20-2862",
    "url": "http://www.nichiigakkan.co.jp",
    "pref": "栃木県",
    "city": "足利市",
    "category": "home_help",
    "serviceType": "訪問介護",
    "capacity": 0,
    "openDays": [
      "平日",
      "土曜日",
      "日曜日",
      "祝日"
    ],
    "openDaysNote": ""
  },
  {
    "id": "970200143",
    "name": "ニチイケアセンター足利",
    "kana": "ニチイケアセンターアシカガ",
    "address": "栃木県足利市田中町946-5高雄ハイツ101～102 高雄ハイツ101～102",
    "lat": 36.3247533,
    "lng": 139.4471764,
    "tel": "0284-70-3483",
    "url": "http://www.nichiigakkan.co.jp",
    "pref": "栃木県",
    "city": "足利市",
    "category": "home_help",
    "serviceType": "訪問介護",
    "capacity": 0,
    "openDays": [
      "平日",
      "土曜日",
      "日曜日",
      "祝日"
    ],
    "openDaysNote": "-"
  },
  {
    "id": "970202362",
    "name": "ニチイケアセンター足利東山",
    "kana": "ニチイケアセンターアシカガヒガシヤマ",
    "address": "栃木県足利市助戸東山町865-2",
    "lat": 36.3398852,
    "lng": 139.4688997,
    "tel": "0284-44-6480",
    "url": "ｈｔｔｐ//ｓｐ.chizumaru.com./dbh/nichii/detailmap.aspx?account＝nichii&accmd=o&bid=015410P27",
    "pref": "栃木県",
    "city": "足利市",
    "category": "home_help",
    "serviceType": "訪問介護",
    "capacity": 0,
    "openDays": [
      "平日",
      "土曜日",
      "日曜日",
      "祝日"
    ],
    "openDaysNote": "留守番電話対応"
  },
  {
    "id": "970203519",
    "name": "ニチイケアセンター問屋町",
    "kana": "ニチイケアセンタートンヤマチ",
    "address": "栃木県足利市上渋垂町236-1プチ・フレーズ1号室 プチ・フレーズ1号室",
    "lat": 36.3028094,
    "lng": 139.462907,
    "tel": "0284-22-3780",
    "url": "https://www.nichiigakkan.co.jp/",
    "pref": "栃木県",
    "city": "足利市",
    "category": "home_help",
    "serviceType": "訪問介護",
    "capacity": 0,
    "openDays": [
      "平日",
      "土曜日",
      "日曜日",
      "祝日"
    ],
    "openDaysNote": ""
  },
  {
    "id": "970202966",
    "name": "はまやケアサービス",
    "kana": "ハマヤケアサービス",
    "address": "栃木県足利市若草町8－50",
    "lat": 36.3204572,
    "lng": 139.4724825,
    "tel": "0284－64－8855",
    "url": "http://hp.kaipoke.biz/y7f/",
    "pref": "栃木県",
    "city": "足利市",
    "category": "home_help",
    "serviceType": "訪問介護",
    "capacity": null,
    "openDays": [
      "平日",
      "土曜日",
      "日曜日",
      "祝日"
    ],
    "openDaysNote": ""
  },
  {
    "id": "970203709",
    "name": "ヘルパーステーションこころケア足利",
    "kana": "ヘルパーステーションココロケアアシカガ",
    "address": "栃木県足利市五十部町618-2",
    "lat": 36.3487229,
    "lng": 139.4237274,
    "tel": "0284-64-9575",
    "url": "",
    "pref": "栃木県",
    "city": "足利市",
    "category": "home_help",
    "serviceType": "訪問介護",
    "capacity": 0,
    "openDays": [],
    "openDaysNote": "24時間利用可能"
  },
  {
    "id": "970203154",
    "name": "ヘルパーステーションシニア俱楽部",
    "kana": "ヘルパーステーションシニアクラブ",
    "address": "栃木県足利市通5丁目2822番1",
    "lat": 36.3380263,
    "lng": 139.4435936,
    "tel": "0284-22-0400",
    "url": "",
    "pref": "栃木県",
    "city": "足利市",
    "category": "home_help",
    "serviceType": "訪問介護",
    "capacity": 0,
    "openDays": [
      "平日",
      "土曜日",
      "日曜日",
      "祝日"
    ],
    "openDaysNote": "24時間連絡が可能な体制としています。"
  },
  {
    "id": "970200671",
    "name": "ホームヘルパーステーションたんぽぽ",
    "kana": "ホームヘルパーステーションタンポポ",
    "address": "栃木県足利市通5丁目3435番地3",
    "lat": 36.3360125,
    "lng": 139.4420882,
    "tel": "0284-22-1155",
    "url": "www.tanpopo-net.or.jp",
    "pref": "栃木県",
    "city": "足利市",
    "category": "home_help",
    "serviceType": "訪問介護",
    "capacity": null,
    "openDays": [
      "平日",
      "土曜日",
      "日曜日",
      "祝日"
    ],
    "openDaysNote": "-"
  },
  {
    "id": "970200390",
    "name": "ホームヘルパーステーション天王",
    "kana": "ホームヘルパーステーションテンノウ",
    "address": "栃木県足利市福居町750-1",
    "lat": 36.3123872,
    "lng": 139.4513905,
    "tel": "080-3938-6853",
    "url": "https://toyooka-fukushi.com/",
    "pref": "栃木県",
    "city": "足利市",
    "category": "home_help",
    "serviceType": "訪問介護",
    "capacity": 0,
    "openDays": [
      "平日",
      "土曜日",
      "日曜日",
      "祝日"
    ],
    "openDaysNote": ""
  },
  {
    "id": "970201935",
    "name": "ほほえみ介護",
    "kana": "ホホエミカイゴ",
    "address": "栃木県足利市大前町1398番地6",
    "lat": 36.3599655163759,
    "lng": 139.39453008427,
    "tel": "0284-22-8815",
    "url": "",
    "pref": "栃木県",
    "city": "足利市",
    "category": "home_help",
    "serviceType": "訪問介護",
    "capacity": 0,
    "openDays": [
      "平日",
      "土曜日",
      "日曜日",
      "祝日"
    ],
    "openDaysNote": "休日：年末年始（12月31日～1月3日）　　　　　　　　　　　　　　　　　　　　　　　　　　　　　　　　（改行）利用時間はご相談ください"
  },
  {
    "id": "970203006",
    "name": "家族の家ひまわり足利訪問介護事業所",
    "kana": "カゾクノイエヒマワリアシカガホウモンカイゴジギョウショ",
    "address": "栃木県足利市福居町399",
    "lat": 36.3061295,
    "lng": 139.4549792,
    "tel": "0284-74-2036",
    "url": "http://www.saneido.co.jp/kaigo/ashikaga/",
    "pref": "栃木県",
    "city": "足利市",
    "category": "home_help",
    "serviceType": "訪問介護",
    "capacity": null,
    "openDays": [
      "平日",
      "土曜日",
      "日曜日",
      "祝日"
    ],
    "openDaysNote": ""
  },
  {
    "id": "950280016",
    "name": "介護老人保健施設　グリーンホーム",
    "kana": "カイゴロウジンホケンシセツ　グリーンホーム",
    "address": "足利市福居町１２１０",
    "lat": 36.3067159,
    "lng": 139.4602232,
    "tel": "0284-71-3170",
    "url": "http://www.koueikai.com/",
    "pref": "栃木県",
    "city": "足利市",
    "category": "home_help",
    "serviceType": "訪問介護",
    "capacity": null,
    "openDays": [
      "平日",
      "土曜日",
      "日曜日",
      "祝日"
    ],
    "openDaysNote": "-"
  },
  {
    "id": "970200242",
    "name": "坂西ホームヘルプサービス",
    "kana": "サカニシホームヘルプサービス",
    "address": "足利市葉鹿町　７５１",
    "lat": 36.3669749,
    "lng": 139.3824885,
    "tel": "0284-62-8005",
    "url": "",
    "pref": "栃木県",
    "city": "足利市",
    "category": "home_help",
    "serviceType": "訪問介護",
    "capacity": null,
    "openDays": [
      "平日",
      "土曜日",
      "祝日"
    ],
    "openDaysNote": ""
  },
  {
    "id": "970200440",
    "name": "足利ケアサービス",
    "kana": "アシカガケアサービス",
    "address": "栃木県足利市五十部町８０９番地３",
    "lat": 36.3465277342552,
    "lng": 139.423550925131,
    "tel": "0284-21-7630",
    "url": "",
    "pref": "栃木県",
    "city": "足利市",
    "category": "home_help",
    "serviceType": "訪問介護",
    "capacity": 120,
    "openDays": [
      "平日",
      "土曜日",
      "日曜日",
      "祝日"
    ],
    "openDaysNote": "24時間可能です。"
  },
  {
    "id": "970201984",
    "name": "足利介護センターK&K",
    "kana": "アシカガカイゴセンターケイアンドケイ",
    "address": "栃木県足利市名草上町3204-1",
    "lat": 36.4020065,
    "lng": 139.4717231,
    "tel": "0284-41-9738",
    "url": "",
    "pref": "栃木県",
    "city": "足利市",
    "category": "home_help",
    "serviceType": "訪問介護",
    "capacity": null,
    "openDays": [
      "平日",
      "土曜日",
      "日曜日",
      "祝日"
    ],
    "openDaysNote": "年中無休"
  },
  {
    "id": "970200580",
    "name": "中央ケアサポート　ホームヘルプサービス",
    "kana": "チュウオウケアサポート　ホームヘルプサービス",
    "address": "栃木県足利市五十部町499-3",
    "lat": 36.3426604238545,
    "lng": 139.421710931769,
    "tel": "0284-21-9320",
    "url": "",
    "pref": "栃木県",
    "city": "足利市",
    "category": "home_help",
    "serviceType": "訪問介護",
    "capacity": 0,
    "openDays": [
      "平日",
      "土曜日",
      "日曜日",
      "祝日"
    ],
    "openDaysNote": "休日、及び時間外　電話対応可能"
  },
  {
    "id": "970200135",
    "name": "特定非営利活動法人　両毛ケアサービス",
    "kana": "トクテイヒエイリカツドウホウジン　リョウモウケアサービス",
    "address": "栃木県足利市駒場町568-1",
    "lat": 36.3166507,
    "lng": 139.5285224,
    "tel": "0284-90-2299",
    "url": "https://n-p-o.or.jp",
    "pref": "栃木県",
    "city": "足利市",
    "category": "home_help",
    "serviceType": "訪問介護",
    "capacity": 25,
    "openDays": [
      "平日",
      "土曜日",
      "日曜日",
      "祝日"
    ],
    "openDaysNote": ""
  },
  {
    "id": "970201554",
    "name": "特別養護老人ホーム　こはく苑",
    "kana": "トクベツヨウゴロウジンホーム　　コハクエン",
    "address": "栃木県足利市堀込町2006番地1",
    "lat": 36.3078265,
    "lng": 139.4372253,
    "tel": "0284-73-5890",
    "url": "",
    "pref": "栃木県",
    "city": "足利市",
    "category": "home_help",
    "serviceType": "訪問介護",
    "capacity": 0,
    "openDays": [
      "平日",
      "土曜日",
      "日曜日",
      "祝日"
    ],
    "openDaysNote": "但し、要望があれば上記以外の時間帯でも利用可能"
  },
  {
    "id": "970200218",
    "name": "特別養護老人ホーム　義明苑",
    "kana": "トクベツヨウゴロウジンホーム　ギメイエン",
    "address": "栃木県足利市久保田町１２２３番地",
    "lat": 36.2956188,
    "lng": 139.494951,
    "tel": "0284-73-8060",
    "url": "https://www.mimeikai.com/",
    "pref": "栃木県",
    "city": "足利市",
    "category": "home_help",
    "serviceType": "訪問介護",
    "capacity": 160,
    "openDays": [
      "平日",
      "土曜日",
      "祝日"
    ],
    "openDaysNote": "-"
  },
  {
    "id": "970200168",
    "name": "特別養護老人ホームプロムナードひこや",
    "kana": "トクベツヨウゴロウジンホームプロムナードヒコヤ",
    "address": "栃木県足利市葉鹿町２０１９－１",
    "lat": 36.3742186,
    "lng": 139.3851797,
    "tel": "0284-64-0266",
    "url": "",
    "pref": "栃木県",
    "city": "足利市",
    "category": "home_help",
    "serviceType": "訪問介護",
    "capacity": 0,
    "openDays": [
      "平日",
      "土曜日",
      "祝日"
    ],
    "openDaysNote": "状況によっては提供時間の延長可能"
  },
  {
    "id": "970202701",
    "name": "訪問介護ステーション　はっち",
    "kana": "ホウモンカイゴステーション　ハッチ",
    "address": "栃木県足利市八幡町2丁目11-5",
    "lat": 36.321960616454,
    "lng": 139.438250736608,
    "tel": "0284-70-5775",
    "url": "http://goodcare78.jp",
    "pref": "栃木県",
    "city": "足利市",
    "category": "home_help",
    "serviceType": "訪問介護",
    "capacity": 0,
    "openDays": [
      "平日",
      "土曜日",
      "日曜日",
      "祝日"
    ],
    "openDaysNote": "要支援のご利用者様は祝日はお休みになります。"
  },
  {
    "id": "970203642",
    "name": "訪問介護ステーション　天の川きらら",
    "kana": "ホウモンカイゴステーション　アマノガワキララ",
    "address": "栃木県足利市江川町3丁目5-4",
    "lat": 36.3544626221051,
    "lng": 139.466014479762,
    "tel": "0284-22-3662",
    "url": "https://amanogawa-kaigo.com",
    "pref": "栃木県",
    "city": "足利市",
    "category": "home_help",
    "serviceType": "訪問介護",
    "capacity": 0,
    "openDays": [
      "平日",
      "土曜日",
      "日曜日",
      "祝日"
    ],
    "openDaysNote": ""
  },
  {
    "id": "970202248",
    "name": "訪問介護ステーションひよこ",
    "kana": "ホウモンカイゴステーションヒヨコ",
    "address": "葉鹿町1丁目16番地4",
    "lat": 36.367014,
    "lng": 139.3908036,
    "tel": "0284-64-7019",
    "url": "http://hp.kaipoke.biz/mob/",
    "pref": "栃木県",
    "city": "足利市",
    "category": "home_help",
    "serviceType": "訪問介護",
    "capacity": 20,
    "openDays": [
      "平日",
      "土曜日",
      "日曜日",
      "祝日"
    ],
    "openDaysNote": "早朝・夜間・深夜時間帯のサービスは要相談"
  },
  {
    "id": "970200739",
    "name": "訪問介護ホームヘルプ春日和",
    "kana": "ホウモンカイゴホームヘルプハルビヨリ",
    "address": "栃木県足利市福居町979-1",
    "lat": 36.3135309465752,
    "lng": 139.452801084555,
    "tel": "0284-70-6200",
    "url": "http://www.worldstay.jp/",
    "pref": "栃木県",
    "city": "足利市",
    "category": "home_help",
    "serviceType": "訪問介護",
    "capacity": 0,
    "openDays": [
      "平日",
      "土曜日",
      "日曜日",
      "祝日"
    ],
    "openDaysNote": ""
  },
  {
    "id": "970203782",
    "name": "訪問介護事業所エール足利",
    "kana": "ホウモンカイゴジギョウショエールアシカガ",
    "address": "朝倉町23-1クレッセント・ヴィラD103 クレッセント・ヴィラD103",
    "lat": 36.3194599,
    "lng": 139.4383747,
    "tel": "0284-64-9501",
    "url": "",
    "pref": "栃木県",
    "city": "足利市",
    "category": "home_help",
    "serviceType": "訪問介護",
    "capacity": null,
    "openDays": [
      "平日",
      "土曜日",
      "日曜日",
      "祝日"
    ],
    "openDaysNote": ""
  },
  {
    "id": "970200077",
    "name": "訪問介護事業所清明苑",
    "kana": "ホウモンカイゴジギョウショセイメイエン",
    "address": "栃木県足利市大月町８１１－１",
    "lat": 36.3486681334851,
    "lng": 139.475827398373,
    "tel": "0284-43-8868",
    "url": "",
    "pref": "栃木県",
    "city": "足利市",
    "category": "home_help",
    "serviceType": "訪問介護",
    "capacity": 25,
    "openDays": [
      "平日",
      "土曜日",
      "日曜日",
      "祝日"
    ],
    "openDaysNote": "-"
  },
  {
    "id": "971000351",
    "name": "ＴＢＣ大田原ケアセンター",
    "kana": "テイビシイオオタワラケアセンター",
    "address": "栃木県大田原市中央２丁目１５－２５",
    "lat": 36.8663877,
    "lng": 140.0206703,
    "tel": "0287-20-2551",
    "url": "http://fkc-fukusi.info/fukusi/",
    "pref": "栃木県",
    "city": "大田原市",
    "category": "home_help",
    "serviceType": "訪問介護",
    "capacity": 0,
    "openDays": [
      "平日",
      "土曜日",
      "日曜日",
      "祝日"
    ],
    "openDaysNote": "時間外でも利用者のニーズに即したサービス提供を行います。特に制限はなし。"
  },
  {
    "id": "971000872",
    "name": "ゴールドエイジ株式会社　栃木営業所",
    "kana": "ゴールドエイジカブシキガイシャ　トチギエイギョウショ",
    "address": "栃木県大田原市浅香３丁目３７３１番地９",
    "lat": 36.8550971,
    "lng": 140.0171418,
    "tel": "0287-20-0900",
    "url": "",
    "pref": "栃木県",
    "city": "大田原市",
    "category": "home_help",
    "serviceType": "訪問介護",
    "capacity": 0,
    "openDays": [
      "平日",
      "土曜日",
      "日曜日",
      "祝日"
    ],
    "openDaysNote": "但し　24時間対応可能"
  },
  {
    "id": "971001425",
    "name": "すまいるケア",
    "kana": "スマイルケア",
    "address": "栃木県大田原市美原3丁目3330-72シティコーポマイアミ2-105号 シティコーポマイアミ2-105号",
    "lat": 36.8621229,
    "lng": 139.998677,
    "tel": "0287-47-5232",
    "url": "",
    "pref": "栃木県",
    "city": "大田原市",
    "category": "home_help",
    "serviceType": "訪問介護",
    "capacity": null,
    "openDays": [
      "平日",
      "土曜日",
      "祝日"
    ],
    "openDaysNote": ""
  },
  {
    "id": "971000740",
    "name": "だいな若草訪問介護サ－ビス",
    "kana": "ダイナワカクサホウモンカイゴサービス",
    "address": "栃木県大田原市紫塚3-2633-10",
    "lat": 36.8777814155407,
    "lng": 140.021613943753,
    "tel": "050-8885-1132",
    "url": "http://dyna.gotdns.com",
    "pref": "栃木県",
    "city": "大田原市",
    "category": "home_help",
    "serviceType": "訪問介護",
    "capacity": 0,
    "openDays": [
      "平日",
      "土曜日",
      "祝日"
    ],
    "openDaysNote": ""
  },
  {
    "id": "971001433",
    "name": "ナイスケアリング大田原かじや",
    "kana": "ナイスケアリングオオタワラカジヤ",
    "address": "加治屋94-106コーポ吉崎101 コーポ吉崎101",
    "lat": 36.8537941,
    "lng": 139.9978192,
    "tel": "0287-47-4171",
    "url": "https://nicecaring.com/",
    "pref": "栃木県",
    "city": "大田原市",
    "category": "home_help",
    "serviceType": "訪問介護",
    "capacity": null,
    "openDays": [
      "平日"
    ],
    "openDaysNote": "上記の時間以外においても可能な限り相談に応じるものとする。"
  },
  {
    "id": "971000104",
    "name": "ニチイケアセンター大田原",
    "kana": "ニチイケアセンターオオタワラ",
    "address": "大田原市佐久山3227",
    "lat": 36.8085096,
    "lng": 140.0002461,
    "tel": "0287-28-7066",
    "url": "http://www.nichiigakkan.co.jp",
    "pref": "栃木県",
    "city": "大田原市",
    "category": "home_help",
    "serviceType": "訪問介護",
    "capacity": 0,
    "openDays": [
      "平日"
    ],
    "openDaysNote": "但し、居宅サービス計画により、営業時間外でも、サービスの提供を行う場合がある。"
  },
  {
    "id": "971000427",
    "name": "ニチイケアセンター大田原中央",
    "kana": "ニチイケアセンターオオタワラチュウオウ",
    "address": "栃木県大田原市城山1丁目５-23",
    "lat": 36.8645407,
    "lng": 140.0303347,
    "tel": "0287-20-2133",
    "url": "http://www.nichiigakkan.co.jp",
    "pref": "栃木県",
    "city": "大田原市",
    "category": "home_help",
    "serviceType": "訪問介護",
    "capacity": 0,
    "openDays": [
      "平日",
      "土曜日",
      "日曜日",
      "祝日"
    ],
    "openDaysNote": ""
  },
  {
    "id": "971001029",
    "name": "ヘルパーステーション　こすもす",
    "kana": "ヘルパーステーション　コスモス",
    "address": "栃木県大田原市本町２丁目2829番地91",
    "lat": 36.8689952,
    "lng": 140.0119305,
    "tel": "0287－48－7004",
    "url": "",
    "pref": "栃木県",
    "city": "大田原市",
    "category": "home_help",
    "serviceType": "訪問介護",
    "capacity": 0,
    "openDays": [
      "平日",
      "土曜日",
      "日曜日",
      "祝日"
    ],
    "openDaysNote": "電話等により、２４時間常時連絡が可能な体制とする。"
  },
  {
    "id": "971000187",
    "name": "ホームヘルパーステーション　椿寿荘",
    "kana": "ホームヘルパーステーション　チンジュソウ",
    "address": "栃木県大田原市末広１丁目２番５号",
    "lat": 36.8605882,
    "lng": 140.0206189,
    "tel": "0287-23-6234",
    "url": "http://www.tinjyusoh.jp/",
    "pref": "栃木県",
    "city": "大田原市",
    "category": "home_help",
    "serviceType": "訪問介護",
    "capacity": 30,
    "openDays": [
      "平日",
      "土曜日",
      "日曜日",
      "祝日"
    ],
    "openDaysNote": "なし"
  },
  {
    "id": "971000138",
    "name": "ホームヘルプサービスやすらぎ舎",
    "kana": "ホームヘルプサービス　ヤスラギシャ",
    "address": "栃木県大田原市北大和久１番地３",
    "lat": 36.8451681,
    "lng": 140.0514707,
    "tel": "0287-47-7735",
    "url": "",
    "pref": "栃木県",
    "city": "大田原市",
    "category": "home_help",
    "serviceType": "訪問介護",
    "capacity": 0,
    "openDays": [
      "平日",
      "土曜日",
      "日曜日",
      "祝日"
    ],
    "openDaysNote": ""
  },
  {
    "id": "971001284",
    "name": "家族の家ひまわり大田原",
    "kana": "カゾクノイエヒマワリオオタワラ",
    "address": "栃木県大田原市加治屋83-11",
    "lat": 36.8558269,
    "lng": 139.9965082,
    "tel": "0287-20-0005",
    "url": "http://www.saneido.co.jp/",
    "pref": "栃木県",
    "city": "大田原市",
    "category": "home_help",
    "serviceType": "訪問介護",
    "capacity": null,
    "openDays": [
      "平日",
      "土曜日",
      "日曜日",
      "祝日"
    ],
    "openDaysNote": ""
  },
  {
    "id": "971001177",
    "name": "株式会社　槐工務店　福祉事業部　だんらんランヘルパーステーション",
    "kana": "カブシキカイシャ　サイカチコウムテン　フクシジギョウブ",
    "address": "栃木県大田原市紫塚2丁目2580-1",
    "lat": 36.8731534,
    "lng": 140.0192823,
    "tel": "0287-22-5512",
    "url": "http://watabousi.com/",
    "pref": "栃木県",
    "city": "大田原市",
    "category": "home_help",
    "serviceType": "訪問介護",
    "capacity": 80,
    "openDays": [
      "平日",
      "土曜日",
      "日曜日",
      "祝日"
    ],
    "openDaysNote": "時間外でも相談に応じます。"
  },
  {
    "id": "971000716",
    "name": "高館の森訪問介護センター",
    "kana": "タカダテノモリホウモンカイゴセンター",
    "address": "栃木県大田原市川田５７０－１",
    "lat": 36.9136743,
    "lng": 140.1310647,
    "tel": "0287-59-1355",
    "url": "",
    "pref": "栃木県",
    "city": "大田原市",
    "category": "home_help",
    "serviceType": "訪問介護",
    "capacity": 0,
    "openDays": [
      "平日",
      "土曜日",
      "日曜日",
      "祝日"
    ],
    "openDaysNote": "-"
  },
  {
    "id": "971000047",
    "name": "在宅介護支援センター　藍",
    "kana": "ザイタクカイゴシエンセンター　アイ",
    "address": "大田原市小滝１７－２２",
    "lat": 36.8965225,
    "lng": 140.0790162,
    "tel": "0287-20-5252",
    "url": "doai-ai@dream.ocn.ne.jp",
    "pref": "栃木県",
    "city": "大田原市",
    "category": "home_help",
    "serviceType": "訪問介護",
    "capacity": 5,
    "openDays": [
      "平日",
      "土曜日",
      "祝日"
    ],
    "openDaysNote": "利用時間は利用者のニーズにより相談に応じ対応する。"
  },
  {
    "id": "971000203",
    "name": "晴風園ホームヘルプサービス",
    "kana": "セイフウエンホームヘルプサービス",
    "address": "大田原市下石上１２５８",
    "lat": 36.8519763,
    "lng": 139.9453826,
    "tel": "0287-29-2220",
    "url": "shiseikai-seifuen.com",
    "pref": "栃木県",
    "city": "大田原市",
    "category": "home_help",
    "serviceType": "訪問介護",
    "capacity": 0,
    "openDays": [
      "平日",
      "土曜日",
      "日曜日",
      "祝日"
    ],
    "openDaysNote": "-"
  },
  {
    "id": "971000013",
    "name": "大田原市社会福祉協議会",
    "kana": "オオタワラシシャカイフクシキョウギカイ",
    "address": "栃木県大田原市黒羽田町848番地",
    "lat": 36.8558191,
    "lng": 140.0149087,
    "tel": "0287-54-1849",
    "url": "http://homepage3.nifty.com/ootawarashakyou/",
    "pref": "栃木県",
    "city": "大田原市",
    "category": "home_help",
    "serviceType": "訪問介護",
    "capacity": 0,
    "openDays": [
      "平日",
      "土曜日",
      "日曜日",
      "祝日"
    ],
    "openDaysNote": "転送電話により常時連絡が可能な体制になっている。"
  },
  {
    "id": "971001466",
    "name": "虹の里訪問介護センター",
    "kana": "ニジノサトホウモンカイゴセンター",
    "address": "栃木県大田原市川田５７０－１",
    "lat": 36.9134140424051,
    "lng": 140.131708520377,
    "tel": "0287-59-7101",
    "url": "",
    "pref": "栃木県",
    "city": "大田原市",
    "category": "home_help",
    "serviceType": "訪問介護",
    "capacity": 0,
    "openDays": [
      "平日",
      "土曜日",
      "日曜日",
      "祝日"
    ],
    "openDaysNote": ""
  },
  {
    "id": "971001441",
    "name": "訪問介護事業所ケアシス",
    "kana": "ホウモンカイゴジギョウショケアシス",
    "address": "栃木県大田原市山の手2-11-8",
    "lat": 36.8703569,
    "lng": 140.0288822,
    "tel": "0287-53-7792",
    "url": "http://hp.kaipoke.biz/c9t/",
    "pref": "栃木県",
    "city": "大田原市",
    "category": "home_help",
    "serviceType": "訪問介護",
    "capacity": 0,
    "openDays": [
      "平日",
      "土曜日",
      "日曜日",
      "祝日"
    ],
    "openDaysNote": ""
  },
  {
    "id": "970302329",
    "name": "OUR合同会社　アワーケア栃木",
    "kana": "アワーゴウドウガイシャ　アワーケアトチギ",
    "address": "栃木県栃木市都賀町合戦場33-1合戦場南ハイツB203 合戦場南ハイツB203",
    "lat": 36.4012888,
    "lng": 139.740115,
    "tel": "0282-28-6863",
    "url": "",
    "pref": "栃木県",
    "city": "栃木市",
    "category": "home_help",
    "serviceType": "訪問介護",
    "capacity": null,
    "openDays": [
      "平日"
    ],
    "openDaysNote": "土日祝日、時間外応相談"
  },
  {
    "id": "970302105",
    "name": "ＳＯＭＰＯケア　栃木吹上　訪問介護",
    "kana": "ソンポケア　トチギフキアゲ　ホウモンカイゴ",
    "address": "栃木県栃木市吹上町１６６番地１",
    "lat": 36.4132289,
    "lng": 139.7154676,
    "tel": "0282-30-1381",
    "url": "",
    "pref": "栃木県",
    "city": "栃木市",
    "category": "home_help",
    "serviceType": "訪問介護",
    "capacity": 0,
    "openDays": [
      "平日",
      "土曜日",
      "日曜日",
      "祝日"
    ],
    "openDaysNote": "ケアプランに応じて24時間365日のサービス提供"
  },
  {
    "id": "970300679",
    "name": "あいケアステーション",
    "kana": "アイケアステーション",
    "address": "栃木県栃木市薗部町二丁目５番９号",
    "lat": 36.3745503,
    "lng": 139.7163499,
    "tel": "0282-23-6221",
    "url": "https//:www.i-care.co.jp",
    "pref": "栃木県",
    "city": "栃木市",
    "category": "home_help",
    "serviceType": "訪問介護",
    "capacity": null,
    "openDays": [
      "平日",
      "土曜日",
      "日曜日",
      "祝日"
    ],
    "openDaysNote": ""
  },
  {
    "id": "970300356",
    "name": "いづるの里",
    "kana": "イヅルノサト",
    "address": "栃木市錦町5-26",
    "lat": 36.3853494,
    "lng": 139.7296646,
    "tel": "0282-24-5964",
    "url": "",
    "pref": "栃木県",
    "city": "栃木市",
    "category": "home_help",
    "serviceType": "訪問介護",
    "capacity": 0,
    "openDays": [
      "平日",
      "土曜日",
      "日曜日",
      "祝日"
    ],
    "openDaysNote": ""
  },
  {
    "id": "972301030",
    "name": "にこぐさ訪問介護事業所",
    "kana": "ニコグサホウモンカイゴジギョウショ",
    "address": "栃木県栃木市都賀町富張９９９-１",
    "lat": 36.4516195,
    "lng": 139.7273511,
    "tel": "0282-91-1160",
    "url": "http://www7b.biglobe.ne.jp/~waidonikogusa/",
    "pref": "栃木県",
    "city": "栃木市",
    "category": "home_help",
    "serviceType": "訪問介護",
    "capacity": 3,
    "openDays": [
      "平日",
      "土曜日",
      "日曜日",
      "祝日"
    ],
    "openDaysNote": "事情により時間外のサービスもできます。"
  },
  {
    "id": "970300133",
    "name": "ニチイケアセンター栃木",
    "kana": "ニチイケアセンタートチギ",
    "address": "栃木県栃木市平柳町３－３８－１０",
    "lat": 36.3971484,
    "lng": 139.7442181,
    "tel": "0282-29-3081",
    "url": "http://www.nichiigakkan.co.jp",
    "pref": "栃木県",
    "city": "栃木市",
    "category": "home_help",
    "serviceType": "訪問介護",
    "capacity": 0,
    "openDays": [
      "平日",
      "土曜日",
      "日曜日",
      "祝日"
    ],
    "openDaysNote": ""
  },
  {
    "id": "970301743",
    "name": "ヘルパーステーションみどりの杜",
    "kana": "ヘルパーステーション　ミドリノモリ",
    "address": "栃木県栃木市大平町下皆川１３２－３",
    "lat": 36.3507725,
    "lng": 139.7020802,
    "tel": "０２８２－４５－１９２０",
    "url": "https://midorinomori1920.com",
    "pref": "栃木県",
    "city": "栃木市",
    "category": "home_help",
    "serviceType": "訪問介護",
    "capacity": 50,
    "openDays": [
      "平日",
      "日曜日",
      "祝日"
    ],
    "openDaysNote": "サービス提供日は、日曜日から金曜日まで"
  },
  {
    "id": "972301071",
    "name": "ヘルパーステーションわかば",
    "kana": "ヘルパーステーションワカバ",
    "address": "栃木県栃木市大平町富田590-1ルネス・プランドール101号室 ルネス・プランドール101号室",
    "lat": 36.3377308,
    "lng": 139.7002915,
    "tel": "0282-43-1481",
    "url": "",
    "pref": "栃木県",
    "city": "栃木市",
    "category": "home_help",
    "serviceType": "訪問介護",
    "capacity": 0,
    "openDays": [
      "平日",
      "土曜日",
      "日曜日",
      "祝日"
    ],
    "openDaysNote": "その他の時間については、相談により対応いたします。"
  },
  {
    "id": "972300842",
    "name": "ホームヘルパーステーション八州苑",
    "kana": "ホームヘルパーステーションハッシュウエン",
    "address": "栃木県栃木市藤岡町太田1386－1",
    "lat": 36.3083617240034,
    "lng": 139.648326234885,
    "tel": "0282-61₋1233",
    "url": "https://www.mokusuikai.com/",
    "pref": "栃木県",
    "city": "栃木市",
    "category": "home_help",
    "serviceType": "訪問介護",
    "capacity": null,
    "openDays": [
      "平日",
      "土曜日",
      "日曜日",
      "祝日"
    ],
    "openDaysNote": "営業時間外は応相談となります。"
  },
  {
    "id": "970300141",
    "name": "丸光ケア　ホームヘルプ栃木",
    "kana": "マルミツケア　ホームヘルプトチギ",
    "address": "栃木県栃木市箱森町50-15",
    "lat": 36.3971938309866,
    "lng": 139.727124112628,
    "tel": "0282-20-6175",
    "url": "https://marumitsu-care.co.jp",
    "pref": "栃木県",
    "city": "栃木市",
    "category": "home_help",
    "serviceType": "訪問介護",
    "capacity": 5,
    "openDays": [
      "平日",
      "土曜日",
      "日曜日",
      "祝日"
    ],
    "openDaysNote": "年中無休"
  },
  {
    "id": "970301156",
    "name": "丸光ケアホームヘルプ大平",
    "kana": "マルミツケアホームヘルプオオヒラ",
    "address": "栃木県栃木市大平町富田376番地8",
    "lat": 36.3370132,
    "lng": 139.6990671,
    "tel": "0282-28-6197",
    "url": "http://marumitsu-care.co.jp/",
    "pref": "栃木県",
    "city": "栃木市",
    "category": "home_help",
    "serviceType": "訪問介護",
    "capacity": 10,
    "openDays": [
      "平日",
      "土曜日",
      "日曜日",
      "祝日"
    ],
    "openDaysNote": ""
  },
  {
    "id": "970302121",
    "name": "在宅ケア　グランツ　こむぎ",
    "kana": "ザイタクケア　グランツ　コムギ",
    "address": "栃木県栃木市万町6-11栃木グランドホテル3階八汐の間 栃木グランドホテル3階八汐の間",
    "lat": 36.3817457,
    "lng": 139.7347464,
    "tel": "0282-25-7388",
    "url": "",
    "pref": "栃木県",
    "city": "栃木市",
    "category": "home_help",
    "serviceType": "訪問介護",
    "capacity": 0,
    "openDays": [
      "平日",
      "土曜日",
      "日曜日",
      "祝日"
    ],
    "openDaysNote": ""
  },
  {
    "id": "972301246",
    "name": "支援センターすぎのこ",
    "kana": "シエンセンタースギノコ",
    "address": "栃木県栃木市大平町西山田1198もくせいいの里・支援センターすぎのこ もくせいいの里・支援センターすぎのこ",
    "lat": 36.3396891492803,
    "lng": 139.677566253442,
    "tel": "282256926",
    "url": "",
    "pref": "栃木県",
    "city": "栃木市",
    "category": "home_help",
    "serviceType": "訪問介護",
    "capacity": 0,
    "openDays": [
      "平日",
      "土曜日",
      "日曜日",
      "祝日"
    ],
    "openDaysNote": ""
  },
  {
    "id": "972300628",
    "name": "社会福祉法人スイートホームひまわり",
    "kana": "シャカイフクシホウジンスイートホームヒマワリ",
    "address": "栃木県栃木市都賀町原宿１４２４－１",
    "lat": 36.4381208,
    "lng": 139.7291903,
    "tel": "0282-29-3232",
    "url": "http://www.tochigi-himawari.jp",
    "pref": "栃木県",
    "city": "栃木市",
    "category": "home_help",
    "serviceType": "訪問介護",
    "capacity": 15,
    "openDays": [
      "平日",
      "土曜日",
      "日曜日",
      "祝日"
    ],
    "openDaysNote": ""
  },
  {
    "id": "972300313",
    "name": "特別養護老人ホーム緑風苑",
    "kana": "トクベツヨウゴロウジンホームリョクフウエン",
    "address": "栃木県栃木市藤岡町中根355-2",
    "lat": 36.2845769066776,
    "lng": 139.689067883628,
    "tel": "0282-67-2300",
    "url": "http://www.ryokufuen.or.jp/",
    "pref": "栃木県",
    "city": "栃木市",
    "category": "home_help",
    "serviceType": "訪問介護",
    "capacity": 3,
    "openDays": [
      "平日",
      "土曜日",
      "祝日"
    ],
    "openDaysNote": ""
  },
  {
    "id": "970300463",
    "name": "栃木ケアサポートひまわり",
    "kana": "トチギケアサポートヒマワリ",
    "address": "栃木市祝町12-9",
    "lat": 36.3818969,
    "lng": 139.7274205,
    "tel": "0282-20-5006",
    "url": "",
    "pref": "栃木県",
    "city": "栃木市",
    "category": "home_help",
    "serviceType": "訪問介護",
    "capacity": 115,
    "openDays": [
      "平日",
      "土曜日",
      "日曜日",
      "祝日"
    ],
    "openDaysNote": "２４時間連絡が取れる体制"
  },
  {
    "id": "970300984",
    "name": "栃木市社協南部ヘルパーステーション（平成22年度新規指定事業所）",
    "kana": "トチギシシャキョウナンブヘルパーステーション",
    "address": "栃木市大平町真弓1396",
    "lat": 36.3362892971832,
    "lng": 139.71926009723,
    "tel": "0282-45-2941",
    "url": "http://www.tochigishi-shakyo.or.jp/",
    "pref": "栃木県",
    "city": "栃木市",
    "category": "home_help",
    "serviceType": "訪問介護",
    "capacity": 0,
    "openDays": [
      "平日",
      "土曜日",
      "日曜日",
      "祝日"
    ],
    "openDaysNote": "記載以外の時間については要相談"
  },
  {
    "id": "970300935",
    "name": "栃木市社協北部ヘルパーステーション",
    "kana": "トチギシシャキョウホクブヘルパーステーション",
    "address": "栃木県栃木市今泉町２－１－４０",
    "lat": 36.3809754,
    "lng": 139.7458856,
    "tel": "0282-51-2188",
    "url": "http://www.tochigishi-shakyo.or.jp/",
    "pref": "栃木県",
    "city": "栃木市",
    "category": "home_help",
    "serviceType": "訪問介護",
    "capacity": 0,
    "openDays": [
      "平日",
      "土曜日",
      "日曜日",
      "祝日"
    ],
    "openDaysNote": "特になし。"
  },
  {
    "id": "970300430",
    "name": "訪問介護サービス　フローラー",
    "kana": "ホウモンカイゴサービス　フローラー",
    "address": "栃木市沼和田町42番28号",
    "lat": 36.3811279,
    "lng": 139.7389862,
    "tel": "0282-22-1362",
    "url": "https://www.kouwacares.com/",
    "pref": "栃木県",
    "city": "栃木市",
    "category": "home_help",
    "serviceType": "訪問介護",
    "capacity": 0,
    "openDays": [
      "平日",
      "土曜日",
      "日曜日",
      "祝日"
    ],
    "openDaysNote": "時間外の対応も可能です。"
  },
  {
    "id": "970302386",
    "name": "訪問介護ステーション　安心ネットとちぎ",
    "kana": "ホウモンカイゴステーション　アンシンネットトチギ",
    "address": "栃木県栃木市城内町２丁目１７判１７番",
    "lat": 36.3707682580985,
    "lng": 139.751769109787,
    "tel": "0282-21-8488",
    "url": "attaka@snow.ocn.ne.jp",
    "pref": "栃木県",
    "city": "栃木市",
    "category": "home_help",
    "serviceType": "訪問介護",
    "capacity": 20,
    "openDays": [
      "平日"
    ],
    "openDaysNote": ""
  },
  {
    "id": "970300158",
    "name": "有限会社　ケアサポート石川",
    "kana": "ユウゲンガイシャ　ケアサポートイシカワ",
    "address": "栃木県栃木市日ノ出町９－２７",
    "lat": 36.3846467,
    "lng": 139.7419412,
    "tel": "0282-22-0902",
    "url": "",
    "pref": "栃木県",
    "city": "栃木市",
    "category": "home_help",
    "serviceType": "訪問介護",
    "capacity": 0,
    "openDays": [
      "平日",
      "土曜日",
      "日曜日",
      "祝日"
    ],
    "openDaysNote": "電話による連絡が２４時間可能"
  },
  {
    "id": "972500078",
    "name": "在宅介護支援センター　リヴレット",
    "kana": "ザイタクカイゴシエンセンター　リゔレット",
    "address": "栃木県那須郡那珂川町芳井８４０－４",
    "lat": 36.77546,
    "lng": 140.0701076,
    "tel": "0287-96-5555",
    "url": "",
    "pref": "栃木県",
    "city": "那珂川町",
    "category": "home_help",
    "serviceType": "訪問介護",
    "capacity": 5,
    "openDays": [
      "平日",
      "祝日"
    ],
    "openDaysNote": "利用時間は利用者のニーズにより相談に応じ対応する。"
  },
  {
    "id": "972501076",
    "name": "那珂川町社協介護サービス事業所",
    "kana": "ナカガワマチシャキョウカイゴサービスジギョウショ",
    "address": "栃木県那須郡那珂川町馬頭５６０－１",
    "lat": 36.7361756,
    "lng": 140.1736232,
    "tel": "0287-92-1273",
    "url": "http://nakagawa.syakyo.com",
    "pref": "栃木県",
    "city": "那珂川町",
    "category": "home_help",
    "serviceType": "訪問介護",
    "capacity": 0,
    "openDays": [
      "平日"
    ],
    "openDaysNote": "-"
  },
  {
    "id": "972500201",
    "name": "那須南農業協同組合",
    "kana": "ナスミナミノウギョウキョウドウクミアイ",
    "address": "栃木県那須郡那珂川町白久１０番地",
    "lat": 36.7227908,
    "lng": 140.1474395,
    "tel": "0287-96-6176",
    "url": "http://www.ja-nasuminami.or.jp",
    "pref": "栃木県",
    "city": "那珂川町",
    "category": "home_help",
    "serviceType": "訪問介護",
    "capacity": 0,
    "openDays": [
      "平日",
      "土曜日",
      "日曜日",
      "祝日"
    ],
    "openDaysNote": "居宅サービス計画により、営業時間外もサービスを提供することができます。"
  },
  {
    "id": "971100540",
    "name": "訪問介護ショウゴ",
    "kana": "ホウモンカイゴ　ショウゴ",
    "address": "栃木県那珂川町馬頭38-6",
    "lat": 36.7414719289973,
    "lng": 140.17703035209,
    "tel": "0287－82-7781",
    "url": "",
    "pref": "栃木県",
    "city": "那珂川町",
    "category": "home_help",
    "serviceType": "訪問介護",
    "capacity": 39,
    "openDays": [
      "平日",
      "土曜日",
      "日曜日",
      "祝日"
    ],
    "openDaysNote": ""
  },
  {
    "id": "972501415",
    "name": "訪問介護プルメリア",
    "kana": "ホウモンカイゴプルメリア",
    "address": "栃木県那珂川町馬頭1877番地1サービス付き高齢者向け住宅　LUANASAKAMOTO サービス付き高齢者向け住宅　LUANASAKAMOTO",
    "lat": 36.7332482,
    "lng": 140.1647683,
    "tel": "0287－92－7200",
    "url": "http://luana-sakamoto.com/",
    "pref": "栃木県",
    "city": "那珂川町",
    "category": "home_help",
    "serviceType": "訪問介護",
    "capacity": 11,
    "openDays": [
      "平日",
      "土曜日"
    ],
    "openDaysNote": ""
  },
  {
    "id": "971500012",
    "name": "那須烏山市社会福祉協議会　訪問介護事業所",
    "kana": "ナスカラスヤマシシャカイフクシキョウギカイ　ホウモンカイゴジギョウショ",
    "address": "栃木県那須烏山市中央2-17-13",
    "lat": 36.6596615466461,
    "lng": 140.155807986301,
    "tel": "0287-83-8178",
    "url": "http://www.nasukarasuyama-shakyo.or.jp/",
    "pref": "栃木県",
    "city": "那須烏山市",
    "category": "home_help",
    "serviceType": "訪問介護",
    "capacity": 0,
    "openDays": [
      "平日"
    ],
    "openDaysNote": "希望により相談可"
  },
  {
    "id": "972501498",
    "name": "訪問介護事業所　とちのき",
    "kana": "ホウモンカイゴジギョウショ　トチノキ",
    "address": "栃木県那須烏山市神長467－1レジデンス神長　１号室 レジデンス神長　１号室",
    "lat": 36.6642168371523,
    "lng": 140.134037580967,
    "tel": "0287－80－0818",
    "url": "https://karasuyama-tochinoki.jimdofree.com/",
    "pref": "栃木県",
    "city": "那須烏山市",
    "category": "home_help",
    "serviceType": "訪問介護",
    "capacity": null,
    "openDays": [
      "平日",
      "土曜日",
      "日曜日",
      "祝日"
    ],
    "openDaysNote": ""
  },
  {
    "id": "971301247",
    "name": "ケアサービス　那須",
    "kana": "ケアサービス　ナス",
    "address": "石林700-24ｸﾞﾘｰﾝｺｰﾎﾟ乃木202号 ｸﾞﾘｰﾝｺｰﾎﾟ乃木202号",
    "lat": 36.8848765,
    "lng": 140.0001006,
    "tel": "0287-47-7603",
    "url": "",
    "pref": "栃木県",
    "city": "那須塩原市",
    "category": "home_help",
    "serviceType": "訪問介護",
    "capacity": 0,
    "openDays": [
      "平日",
      "土曜日",
      "日曜日",
      "祝日"
    ],
    "openDaysNote": "なし"
  },
  {
    "id": "971301213",
    "name": "ケアサービス乃木",
    "kana": "ケアサービスノギ",
    "address": "栃木県那須塩原市石林700-24グリーンコーポ乃木２０２号 グリーンコーポ乃木２０２号",
    "lat": 36.8848765,
    "lng": 140.0001006,
    "tel": "0287-47-7603",
    "url": "",
    "pref": "栃木県",
    "city": "那須塩原市",
    "category": "home_help",
    "serviceType": "訪問介護",
    "capacity": 0,
    "openDays": [
      "平日"
    ],
    "openDaysNote": "なし"
  },
  {
    "id": "971301700",
    "name": "ケアサポ那花",
    "kana": "ケアサポナバナ",
    "address": "栃木県那須塩原市接骨木452-166",
    "lat": 36.9274923,
    "lng": 139.9579762,
    "tel": "0287-46-5342",
    "url": "",
    "pref": "栃木県",
    "city": "那須塩原市",
    "category": "home_help",
    "serviceType": "訪問介護",
    "capacity": 0,
    "openDays": [
      "平日"
    ],
    "openDaysNote": ""
  },
  {
    "id": "971300801",
    "name": "サクラケアラーくろいそ",
    "kana": "サクラケアラークロイソ",
    "address": "栃木県那須塩原市橋本町８番５０号",
    "lat": 36.977079,
    "lng": 140.055748,
    "tel": "0287-60-3636",
    "url": "bigone-works.com",
    "pref": "栃木県",
    "city": "那須塩原市",
    "category": "home_help",
    "serviceType": "訪問介護",
    "capacity": 0,
    "openDays": [
      "平日",
      "土曜日",
      "祝日"
    ],
    "openDaysNote": ""
  },
  {
    "id": "971301221",
    "name": "サクラケアラーにしなすの",
    "kana": "サクラケアラーニシナスノ",
    "address": "栃木県那須塩原市井口1173番地8",
    "lat": 36.9159695228304,
    "lng": 139.97820121514,
    "tel": "0287-39-2626",
    "url": "bigone-works.com",
    "pref": "栃木県",
    "city": "那須塩原市",
    "category": "home_help",
    "serviceType": "訪問介護",
    "capacity": 0,
    "openDays": [
      "平日",
      "土曜日"
    ],
    "openDaysNote": "営業時間については、時間外も連絡可能な体制をとっております。時間外については、利用者様のご希望により相談に応じます。"
  },
  {
    "id": "971301460",
    "name": "なすのケアステーション",
    "kana": "ナスノケアステーション",
    "address": "栃木県那須塩原市緑1丁目8番43号坂本事務所1 坂本事務所1",
    "lat": 36.8696229317431,
    "lng": 140.006587822931,
    "tel": "0287-46-5770",
    "url": "https://www.one-or-eight.jp",
    "pref": "栃木県",
    "city": "那須塩原市",
    "category": "home_help",
    "serviceType": "訪問介護",
    "capacity": 0,
    "openDays": [
      "平日",
      "祝日"
    ],
    "openDaysNote": ""
  },
  {
    "id": "971300116",
    "name": "ヘルパーステーション　けやき",
    "kana": "ヘルパーステーションケヤキ",
    "address": "栃木県那須塩原市西三島６丁目１２９－２",
    "lat": 36.8964045,
    "lng": 139.9688979,
    "tel": "0287-36-8835",
    "url": "",
    "pref": "栃木県",
    "city": "那須塩原市",
    "category": "home_help",
    "serviceType": "訪問介護",
    "capacity": null,
    "openDays": [
      "平日",
      "土曜日",
      "日曜日",
      "祝日"
    ],
    "openDaysNote": "ご相談いただければ、２４時間体制はできます。"
  },
  {
    "id": "971200183",
    "name": "ヘルパーステーション　秋桜の家",
    "kana": "ヘルパーステーション　コスモスノイエ",
    "address": "栃木県那須塩原市大原間81",
    "lat": 36.9250009,
    "lng": 140.0207111,
    "tel": "0287-65-0800",
    "url": "",
    "pref": "栃木県",
    "city": "那須塩原市",
    "category": "home_help",
    "serviceType": "訪問介護",
    "capacity": 0,
    "openDays": [
      "平日",
      "土曜日",
      "日曜日",
      "祝日"
    ],
    "openDaysNote": ""
  },
  {
    "id": "971300561",
    "name": "ヘルパーステーション「スズラン」",
    "kana": "ヘルパーステーション「スズラン」",
    "address": "栃木県那須塩原市関谷２０５９－１",
    "lat": 36.9446342,
    "lng": 139.9043576,
    "tel": "0287-35-2520",
    "url": "",
    "pref": "栃木県",
    "city": "那須塩原市",
    "category": "home_help",
    "serviceType": "訪問介護",
    "capacity": null,
    "openDays": [
      "平日",
      "土曜日",
      "日曜日",
      "祝日"
    ],
    "openDaysNote": ""
  },
  {
    "id": "971301791",
    "name": "ヘルパーステーションてあし",
    "kana": "ヘルパーステーションテアシ",
    "address": "那須塩原市中央町4番17号",
    "lat": 36.9719741,
    "lng": 140.0546182,
    "tel": "0287-74-5730",
    "url": "",
    "pref": "栃木県",
    "city": "那須塩原市",
    "category": "home_help",
    "serviceType": "訪問介護",
    "capacity": 0,
    "openDays": [
      "平日",
      "土曜日",
      "日曜日",
      "祝日"
    ],
    "openDaysNote": "利用者様のご都合により、定休日の出勤もあり。"
  },
  {
    "id": "971301833",
    "name": "ヘルパーステーションぽかぽか",
    "kana": "ヘルパーステーションポカポカ",
    "address": "栃木県那須塩原市湯宮６３０",
    "lat": 36.9907596,
    "lng": 139.9101636,
    "tel": "０８０-８９９９－４４４７",
    "url": "",
    "pref": "栃木県",
    "city": "那須塩原市",
    "category": "home_help",
    "serviceType": "訪問介護",
    "capacity": 0,
    "openDays": [
      "平日",
      "祝日"
    ],
    "openDaysNote": "営業時間帯については要相談可能"
  },
  {
    "id": "971301619",
    "name": "ヘルパーステーション茉莉花",
    "kana": "ヘルパーステーションマリカ",
    "address": "栃木県那須塩原市石林837番地36",
    "lat": 36.8877481,
    "lng": 140.0113691,
    "tel": "0287-48-7868",
    "url": "",
    "pref": "栃木県",
    "city": "那須塩原市",
    "category": "home_help",
    "serviceType": "訪問介護",
    "capacity": 0,
    "openDays": [
      "平日",
      "土曜日",
      "日曜日",
      "祝日"
    ],
    "openDaysNote": "土曜日、日曜日、祝日、時間については要相談"
  },
  {
    "id": "971301015",
    "name": "みんなの介護ふうりん館",
    "kana": "ミンナノカイゴフウリンカン",
    "address": "栃木県那須塩原市下田野４４８－１４",
    "lat": 36.9380811417764,
    "lng": 139.9053088,
    "tel": "0287-35-3067",
    "url": "info@fu-rinkan.net",
    "pref": "栃木県",
    "city": "那須塩原市",
    "category": "home_help",
    "serviceType": "訪問介護",
    "capacity": 0,
    "openDays": [
      "平日"
    ],
    "openDaysNote": ""
  },
  {
    "id": "971301429",
    "name": "介護センターこころ",
    "kana": "カイゴセンターココロ",
    "address": "栃木県那須塩原市4-30",
    "lat": 36.8985326,
    "lng": 139.9704804,
    "tel": "0287-74-2601",
    "url": "",
    "pref": "栃木県",
    "city": "那須塩原市",
    "category": "home_help",
    "serviceType": "訪問介護",
    "capacity": 0,
    "openDays": [
      "平日",
      "土曜日",
      "日曜日",
      "祝日"
    ],
    "openDaysNote": "時間外の訪問も相談に応じます。"
  },
  {
    "id": "971200423",
    "name": "関東ケア移送サービス訪問介護事業所",
    "kana": "カントウケアイソウサービスホウモンカイゴジギョウショ",
    "address": "栃木県那須塩原市鍋掛1087-165",
    "lat": 36.9551852,
    "lng": 140.0751309,
    "tel": "0287-62-1165",
    "url": "http://www.nasuinfo.or.jp/fukusi-yusou/",
    "pref": "栃木県",
    "city": "那須塩原市",
    "category": "home_help",
    "serviceType": "訪問介護",
    "capacity": 0,
    "openDays": [
      "平日",
      "土曜日",
      "日曜日",
      "祝日"
    ],
    "openDaysNote": "但し、利用者のやむを得ない事情にあたってはこの限りではない。"
  },
  {
    "id": "971200258",
    "name": "丸光産業株式会社　丸光ケアサービス　黒磯支店",
    "kana": "マルミツサンギョウカブシキカイシャ　マルミツケアサービス　クロイソシテン",
    "address": "栃木県那須塩原市錦町６－６",
    "lat": 36.9654201,
    "lng": 140.0536763,
    "tel": "0287-73-2203",
    "url": "http://marumitsu-care.jp/",
    "pref": "栃木県",
    "city": "那須塩原市",
    "category": "home_help",
    "serviceType": "訪問介護",
    "capacity": 0,
    "openDays": [
      "平日",
      "土曜日",
      "日曜日",
      "祝日"
    ],
    "openDaysNote": "サービス提供は３６５日（年中無休）"
  },
  {
    "id": "971301809",
    "name": "協和苑訪問介護センター",
    "kana": "キョウワエンホウモンカイゴセンター",
    "address": "栃木県那須塩原市埼玉２０１－２グレートシティ那須 グレートシティ那須",
    "lat": 36.9691223,
    "lng": 140.0114269,
    "tel": "0287-62-7565",
    "url": "",
    "pref": "栃木県",
    "city": "那須塩原市",
    "category": "home_help",
    "serviceType": "訪問介護",
    "capacity": null,
    "openDays": [
      "平日",
      "土曜日",
      "日曜日",
      "祝日"
    ],
    "openDaysNote": ""
  },
  {
    "id": "971100680",
    "name": "訪問介護ホームヘルプ春日和那須塩原",
    "kana": "ホウモンカイゴホームヘルプハルビヨリナスシオバラ",
    "address": "栃木県那須塩原市埼玉13-110",
    "lat": 36.9715091090759,
    "lng": 140.021074596133,
    "tel": "0287-43-2080",
    "url": "http://www.worldstay.jp",
    "pref": "栃木県",
    "city": "那須塩原市",
    "category": "home_help",
    "serviceType": "訪問介護",
    "capacity": 0,
    "openDays": [
      "平日"
    ],
    "openDaysNote": ""
  },
  {
    "id": "971301072",
    "name": "訪問介護事業所　縁（ゆかり）",
    "kana": "ホウモンカイゴジギョウショ　ユカリ（ユカリ）",
    "address": "西大和1番8号そすいスクエアAQUAS２０９号 そすいスクエアAQUAS２０９号",
    "lat": 36.8866243240182,
    "lng": 139.982341608073,
    "tel": "0287-47-4944",
    "url": "",
    "pref": "栃木県",
    "city": "那須塩原市",
    "category": "home_help",
    "serviceType": "訪問介護",
    "capacity": 65,
    "openDays": [
      "平日"
    ],
    "openDaysNote": ""
  },
  {
    "id": "971301536",
    "name": "訪問介護事業所えがお",
    "kana": "ホウモンカイゴジギョウショエガオ",
    "address": "栃木県那須塩原市埼玉1−1619",
    "lat": 36.9804382451957,
    "lng": 140.023259881305,
    "tel": "0287-74-2049",
    "url": "",
    "pref": "栃木県",
    "city": "那須塩原市",
    "category": "home_help",
    "serviceType": "訪問介護",
    "capacity": 25,
    "openDays": [
      "平日",
      "土曜日",
      "日曜日",
      "祝日"
    ],
    "openDaysNote": ""
  },
  {
    "id": "972501431",
    "name": "ヘルパーステーションえにし",
    "kana": "ヘルパーステーションエニシ",
    "address": "栃木県那須郡那須町大字睦家266-2",
    "lat": 36.952871,
    "lng": 140.154654,
    "tel": "0287-74-5035",
    "url": "",
    "pref": "栃木県",
    "city": "那須町",
    "category": "home_help",
    "serviceType": "訪問介護",
    "capacity": 0,
    "openDays": [
      "平日",
      "土曜日",
      "日曜日",
      "祝日"
    ],
    "openDaysNote": "時間は状況に応じて上記時間外でも対応します。"
  },
  {
    "id": "972501423",
    "name": "愛燦燦ケアステーション",
    "kana": "アイサンサンケアステーション",
    "address": "栃木県那須郡那須町大字富岡778-87",
    "lat": 37.0192055851397,
    "lng": 140.148725460188,
    "tel": "0287-74-0775",
    "url": "http://www.ai33.co.jp/",
    "pref": "栃木県",
    "city": "那須町",
    "category": "home_help",
    "serviceType": "訪問介護",
    "capacity": 0,
    "openDays": [
      "平日",
      "土曜日",
      "日曜日",
      "祝日"
    ],
    "openDaysNote": ""
  },
  {
    "id": "972500037",
    "name": "社会福祉法人　那須町社会福祉協議会　訪問介護事業所",
    "kana": "シャカイフクシホウジン　ナスマチシャカイフクシキョウギカイ　ホウモンカイゴジギョウショ",
    "address": "栃木県那須郡那須町大字寺子乙２５６６－１ゆめプラザ・那須 ゆめプラザ・那須",
    "lat": 37.016476,
    "lng": 140.1093569,
    "tel": "0287-72-5133",
    "url": "http://www.nasu-shakyo.jp/",
    "pref": "栃木県",
    "city": "那須町",
    "category": "home_help",
    "serviceType": "訪問介護",
    "capacity": 0,
    "openDays": [
      "平日",
      "土曜日",
      "日曜日",
      "祝日"
    ],
    "openDaysNote": "-"
  },
  {
    "id": "970700340",
    "name": "ヘルパーステーション　　見龍堂メディケアユニッツ",
    "kana": "ヘルパーステーション　　ケンリュウドウメディケアユニッツ",
    "address": "栃木県日光市木和田島3008-8",
    "lat": 36.681261,
    "lng": 139.7529119,
    "tel": "0288-32-2132",
    "url": "http://yaoitakinenkai.or.jp/",
    "pref": "栃木県",
    "city": "日光市",
    "category": "home_help",
    "serviceType": "訪問介護",
    "capacity": 0,
    "openDays": [
      "平日",
      "土曜日",
      "日曜日",
      "祝日"
    ],
    "openDaysNote": "利用者からご依頼が生じた場合夜間訪問も行う(１８時以降)"
  },
  {
    "id": "970600680",
    "name": "ヘルパーステーションたんぽぽ",
    "kana": "ヘルパーステーションタンポポ",
    "address": "栃木県日光市土沢201－1",
    "lat": 36.6992477,
    "lng": 139.7233894,
    "tel": "0288－25－5280",
    "url": "",
    "pref": "栃木県",
    "city": "日光市",
    "category": "home_help",
    "serviceType": "訪問介護",
    "capacity": 0,
    "openDays": [
      "平日"
    ],
    "openDaysNote": "年末年始休み（12月31日～1月3日）"
  },
  {
    "id": "972600373",
    "name": "ヘルパーセンター愛泉",
    "kana": "ヘルパーセンターアイセン",
    "address": "栃木県日光市高徳６１９番地３",
    "lat": 36.7825631794111,
    "lng": 139.706773703674,
    "tel": "0288-70-3122",
    "url": "http://kinugawaen.com/",
    "pref": "栃木県",
    "city": "日光市",
    "category": "home_help",
    "serviceType": "訪問介護",
    "capacity": 0,
    "openDays": [
      "平日",
      "祝日"
    ],
    "openDaysNote": ""
  },
  {
    "id": "970700100",
    "name": "ホームヘルパーステーション　誠心園",
    "kana": "ホームヘルパーステーション　セイシンエン",
    "address": "栃木県日光市倉ケ崎６０５番地７",
    "lat": 36.7550186,
    "lng": 139.7127239,
    "tel": "0288-21-7471",
    "url": "http://www.sankokai.com",
    "pref": "栃木県",
    "city": "日光市",
    "category": "home_help",
    "serviceType": "訪問介護",
    "capacity": 80,
    "openDays": [
      "平日",
      "土曜日",
      "日曜日",
      "祝日"
    ],
    "openDaysNote": "訪問介護員の調整がつく場合２４時間対応いたします。"
  },
  {
    "id": "970600771",
    "name": "家族の家ひまわり日光　訪問介護事業所",
    "kana": "カゾクノイエヒマワリニッコウ　ホウモンカイゴジギョウショ",
    "address": "栃木県日光市瀬川40-1",
    "lat": 36.7261185,
    "lng": 139.6940774,
    "tel": "0288-30-5055",
    "url": "http://www.saneido.co.jp/kaigo/nikko/info/outline/",
    "pref": "栃木県",
    "city": "日光市",
    "category": "home_help",
    "serviceType": "訪問介護",
    "capacity": 0,
    "openDays": [
      "平日",
      "土曜日",
      "日曜日",
      "祝日"
    ],
    "openDaysNote": "（１）サービス提供の際、訪問介護職員等は以下の業務を行うことができませんので、あらかじめご了承ください。　（改行）　①医療行為及び医療補助行為（改行）　②各種支払いや年金等の管理、金銭の賃借など、金銭に関する取扱い（改行）　③他の家族の方に対する食事の準備など（改行）（２）訪問介護職員等に対し、贈り物や飲食物の提供などはお断りいたします。（改行）（３）体調や様態の急変などによりサービスを利用できなくなったときは、できる限り早めに担当の介護支援専門員（又は地域包括支援センター）または当事業所の担当者へご連絡ください。"
  },
  {
    "id": "970600102",
    "name": "介護保険事業所ひかり",
    "kana": "カイゴホケンジギョウショヒカリ",
    "address": "栃木県日光市花石町1942番地1",
    "lat": 36.7519462,
    "lng": 139.5858455,
    "tel": "0288-50-3310",
    "url": "http://www.shakyo-nikko.or.jp",
    "pref": "栃木県",
    "city": "日光市",
    "category": "home_help",
    "serviceType": "訪問介護",
    "capacity": 0,
    "openDays": [
      "平日"
    ],
    "openDaysNote": ""
  },
  {
    "id": "970600151",
    "name": "介護保険事業所ふじの郷",
    "kana": "カイゴホケンジギョウショフジノサト",
    "address": "栃木県日光市鬼怒川温泉大原2番地6",
    "lat": 36.7990686,
    "lng": 139.7047514,
    "tel": "0288-77-2777",
    "url": "https://www.shakyo-nikko.or.jp/",
    "pref": "栃木県",
    "city": "日光市",
    "category": "home_help",
    "serviceType": "訪問介護",
    "capacity": 0,
    "openDays": [
      "平日"
    ],
    "openDaysNote": "土曜・日曜・祝日・年末年始（12/29～１/3）休業"
  },
  {
    "id": "970700019",
    "name": "在宅介護支援センター　おちあい",
    "kana": "ザイタクカイゴシエンセンターオチアイ",
    "address": "栃木県日光市板橋2190-2",
    "lat": 36.6492286,
    "lng": 139.7351187,
    "tel": "0288-27-3001",
    "url": "",
    "pref": "栃木県",
    "city": "日光市",
    "category": "home_help",
    "serviceType": "訪問介護",
    "capacity": 0,
    "openDays": [
      "平日",
      "土曜日",
      "祝日"
    ],
    "openDaysNote": ""
  },
  {
    "id": "970700449",
    "name": "社会福祉法人　真珠会　ヘルパーステーション　さくら",
    "kana": "シャカイフクシホウジン　シンジュカイ　ヘルパーステーション　サクラ",
    "address": "日光市大室863-7",
    "lat": 36.7227061,
    "lng": 139.750338,
    "tel": "0288-26-4141",
    "url": "http://oomurosakuraen.jp",
    "pref": "栃木県",
    "city": "日光市",
    "category": "home_help",
    "serviceType": "訪問介護",
    "capacity": 0,
    "openDays": [
      "平日",
      "土曜日"
    ],
    "openDaysNote": "日曜・祝日・時間外は内容により活動可能である。"
  },
  {
    "id": "970700126",
    "name": "特定非営利活動法人　ウエーブ",
    "kana": "トクテイヒエイリカツドウホウジン　ウエーブ",
    "address": "栃木県日光市瀬川95番地1",
    "lat": 36.7277404,
    "lng": 139.6895834,
    "tel": "0288-21-5330",
    "url": "http://npowave.jimdo.com/",
    "pref": "栃木県",
    "city": "日光市",
    "category": "home_help",
    "serviceType": "訪問介護",
    "capacity": 0,
    "openDays": [
      "平日",
      "土曜日",
      "日曜日",
      "祝日"
    ],
    "openDaysNote": "時間外の訪問介護については事前相談による"
  },
  {
    "id": "970600896",
    "name": "訪問介護ステーションみのり",
    "kana": "ホウモンカイゴステーションミノリ",
    "address": "栃木県日光市土沢1356番地",
    "lat": 36.6968407,
    "lng": 139.7268841,
    "tel": "0288-25--6585",
    "url": "https//www.nikko-breeze.com",
    "pref": "栃木県",
    "city": "日光市",
    "category": "home_help",
    "serviceType": "訪問介護",
    "capacity": 0,
    "openDays": [
      "平日",
      "土曜日",
      "日曜日",
      "祝日"
    ],
    "openDaysNote": ""
  },
  {
    "id": "972700041",
    "name": "在宅介護支援センター　而今荘",
    "kana": "ザイタクカイゴシエンセンター　ニコンソウ",
    "address": "栃木県芳賀郡芳賀町大字稲毛田１８８７－４",
    "lat": 36.5506206,
    "lng": 140.0718313,
    "tel": "028-677-6008",
    "url": "http://www.hoaikai.or.jp/",
    "pref": "栃木県",
    "city": "芳賀町",
    "category": "home_help",
    "serviceType": "訪問介護",
    "capacity": 0,
    "openDays": [
      "平日",
      "土曜日",
      "日曜日",
      "祝日"
    ],
    "openDaysNote": "－"
  },
  {
    "id": "972700033",
    "name": "芳賀町社会福祉協議会",
    "kana": "ハガマチシャカイフクシキョウギカイ",
    "address": "栃木県芳賀郡芳賀町祖母井南1丁目6番地１芳賀町農業者トレーニングセンター 芳賀町農業者トレーニングセンター",
    "lat": 36.5471179,
    "lng": 140.0596296,
    "tel": "028-677-4711",
    "url": "http://schit.net/hagamachi-shakyo/",
    "pref": "栃木県",
    "city": "芳賀町",
    "category": "home_help",
    "serviceType": "訪問介護",
    "capacity": 2,
    "openDays": [
      "平日",
      "土曜日",
      "日曜日",
      "祝日"
    ],
    "openDaysNote": "年末年始（１２月２９日～１月３日）は休み"
  },
  {
    "id": "972300727",
    "name": "さわやか",
    "kana": "サワヤカ",
    "address": "栃木県野木町大字南赤塚１１４５－１",
    "lat": 36.2168091,
    "lng": 139.7499614,
    "tel": "0280-57-4884",
    "url": "http://www.sawayaka-kaigo.co.jp",
    "pref": "栃木県",
    "city": "野木町",
    "category": "home_help",
    "serviceType": "訪問介護",
    "capacity": 0,
    "openDays": [
      "平日",
      "土曜日",
      "日曜日",
      "祝日"
    ],
    "openDaysNote": "12月30日～1月3日を除く。（改行）ただし事前に予約のあった場合はこの限りではない。"
  },
  {
    "id": "972300834",
    "name": "ヘルパーステーション　菜の花",
    "kana": "ヘルパーステーション　ナノハナ",
    "address": "栃木県下都賀郡野木町南赤塚1200-10",
    "lat": 36.2173979,
    "lng": 139.7484615,
    "tel": "0280-56-0500",
    "url": "",
    "pref": "栃木県",
    "city": "野木町",
    "category": "home_help",
    "serviceType": "訪問介護",
    "capacity": 0,
    "openDays": [
      "平日",
      "土曜日",
      "日曜日",
      "祝日"
    ],
    "openDaysNote": ""
  },
  {
    "id": "972301113",
    "name": "株式会社レオパレス21　あずみ苑　ラ・テラス野木",
    "kana": "カブシキガイシャ　レオパレスニジュウイチ　アズミエン　ラ・テラスノギ",
    "address": "栃木県下都賀郡野木町丸林566-4",
    "lat": 36.232164,
    "lng": 139.7410245,
    "tel": "0280-54-4165",
    "url": "https://www.azumien.jp/",
    "pref": "栃木県",
    "city": "野木町",
    "category": "home_help",
    "serviceType": "訪問介護",
    "capacity": 0,
    "openDays": [
      "平日",
      "土曜日",
      "日曜日",
      "祝日"
    ],
    "openDaysNote": "営業時間外であっても、居宅サービス計画によりサービスの提供を行う場合があります。"
  },
  {
    "id": "971100607",
    "name": "ＳＯＭＰＯケア　矢板　訪問介護",
    "kana": "ソンポケア　ヤイタ　ホウモンカイゴ",
    "address": "栃木県矢板市東町１２５０番地１",
    "lat": 36.7940827,
    "lng": 139.9422835,
    "tel": "0287-40-3130",
    "url": "",
    "pref": "栃木県",
    "city": "矢板市",
    "category": "home_help",
    "serviceType": "訪問介護",
    "capacity": 0,
    "openDays": [
      "平日",
      "土曜日",
      "日曜日",
      "祝日"
    ],
    "openDaysNote": "ケアプランに応じて２４時間３６５日サービス提供。"
  },
  {
    "id": "971100557",
    "name": "ケアステーション　ゆあい",
    "kana": "ケアステーション　ユアイ",
    "address": "東町１２５３番６",
    "lat": 36.7940688,
    "lng": 139.9415975,
    "tel": "0287-53-7523",
    "url": "http://hp.kaipoke.biz/39r/index.html",
    "pref": "栃木県",
    "city": "矢板市",
    "category": "home_help",
    "serviceType": "訪問介護",
    "capacity": 150,
    "openDays": [
      "平日"
    ],
    "openDaysNote": "営業時間外でも状況に応じてサービスを提供する。"
  },
  {
    "id": "971100623",
    "name": "サクラケアラーやいた",
    "kana": "サクラケアラーヤイタ",
    "address": "矢板市鹿島町１３番１４号",
    "lat": 36.8014047,
    "lng": 139.9256157,
    "tel": "0287-53-7000",
    "url": "bignoe-works.com",
    "pref": "栃木県",
    "city": "矢板市",
    "category": "home_help",
    "serviceType": "訪問介護",
    "capacity": null,
    "openDays": [
      "平日",
      "土曜日",
      "祝日"
    ],
    "openDaysNote": "営業時間外の支援に関しては要相談にて配慮します。"
  },
  {
    "id": "971100169",
    "name": "さくら苑訪問介護ステーション",
    "kana": "サクラエンホウモンカイゴステーション",
    "address": "栃木県矢板市東泉226-1",
    "lat": 36.8290693,
    "lng": 139.9145703,
    "tel": "0287-44-3337",
    "url": "",
    "pref": "栃木県",
    "city": "矢板市",
    "category": "home_help",
    "serviceType": "訪問介護",
    "capacity": 0,
    "openDays": [
      "平日",
      "土曜日",
      "日曜日",
      "祝日"
    ],
    "openDaysNote": ""
  },
  {
    "id": "971100201",
    "name": "ハ－トポイント矢板",
    "kana": "ハ-トポイントヤイタ",
    "address": "栃木県矢板市富田548-8",
    "lat": 36.7981125,
    "lng": 139.9346063,
    "tel": "0287-40-0008",
    "url": "",
    "pref": "栃木県",
    "city": "矢板市",
    "category": "home_help",
    "serviceType": "訪問介護",
    "capacity": 0,
    "openDays": [
      "平日",
      "土曜日",
      "日曜日",
      "祝日"
    ],
    "openDaysNote": "・営業時間以外でも状況に応じて、対応する事ができる。"
  },
  {
    "id": "971100581",
    "name": "家族の家ひまわり矢板　訪問介護事業所",
    "kana": "カゾクノイエヒマワリヤイタホウモンカイゴジギョウショ",
    "address": "栃木県矢板市扇町2丁目13番39号",
    "lat": 36.8137994,
    "lng": 139.9287754,
    "tel": "0287-40-0130",
    "url": "http://www.saneido.co.jp/",
    "pref": "栃木県",
    "city": "矢板市",
    "category": "home_help",
    "serviceType": "訪問介護",
    "capacity": null,
    "openDays": [
      "平日",
      "土曜日",
      "日曜日",
      "祝日"
    ],
    "openDaysNote": ""
  },
  {
    "id": "971100011",
    "name": "矢板市在宅介護支援センターアゼリア",
    "kana": "ヤイタシザイタクカイゴシエンセンターアゼリア",
    "address": "矢板市中2011番地4",
    "lat": 36.8053578418429,
    "lng": 139.940572806143,
    "tel": "0287-44-2108",
    "url": "http://www.ogata-cl.or.jp/ioukai/index.html",
    "pref": "栃木県",
    "city": "矢板市",
    "category": "home_help",
    "serviceType": "訪問介護",
    "capacity": 0,
    "openDays": [
      "平日",
      "土曜日",
      "祝日"
    ],
    "openDaysNote": ""
  }
]