[
  {
    "id": "4770300632",
    "name": "アイズケアサービス",
    "kana": "アイズケアサービス",
    "address": "具志川1321番地1",
    "lat": 26.3440443,
    "lng": 127.8761012,
    "tel": "098-973-0755",
    "url": "",
    "pref": "沖縄県",
    "city": "うるま市",
    "category": "home_help",
    "serviceType": "訪問介護",
    "capacity": 0,
    "openDays": [
      "平日",
      "土曜日",
      "日曜日",
      "祝日"
    ],
    "openDaysNote": ""
  },
  {
    "id": "4770301796",
    "name": "あかねぐもケアセンター",
    "kana": "アカネグモケアセンター",
    "address": "沖縄県うるま市与那城38番地はなまるハウス101号室 はなまるハウス101号室",
    "lat": 26.3256954,
    "lng": 127.893539,
    "tel": "8058331458",
    "url": "",
    "pref": "沖縄県",
    "city": "うるま市",
    "category": "home_help",
    "serviceType": "訪問介護",
    "capacity": 0,
    "openDays": [
      "平日",
      "土曜日",
      "日曜日",
      "祝日"
    ],
    "openDaysNote": "24時間365日対応します。"
  },
  {
    "id": "4770300970",
    "name": "イリーゼうるま訪問介護センター",
    "kana": "イリーゼウルマホウモンカイゴセンター",
    "address": "沖縄県うるま市喜屋武546-1",
    "lat": 26.3601695,
    "lng": 127.8432929,
    "tel": "098-973-7801",
    "url": "http://www.hitowa.com/sare-service/",
    "pref": "沖縄県",
    "city": "うるま市",
    "category": "home_help",
    "serviceType": "訪問介護",
    "capacity": 57,
    "openDays": [],
    "openDaysNote": "サービス提供時間：24時間体制"
  },
  {
    "id": "4770300426",
    "name": "うるまケアセンター",
    "kana": "ウルマケアセンター",
    "address": "沖縄県うるま市みどり町五丁目１４番７号",
    "lat": 26.376783,
    "lng": 127.8527691,
    "tel": "098-972-3661",
    "url": "http://carenet.okinawa",
    "pref": "沖縄県",
    "city": "うるま市",
    "category": "home_help",
    "serviceType": "訪問介護",
    "capacity": 0,
    "openDays": [
      "平日",
      "土曜日",
      "日曜日",
      "祝日"
    ],
    "openDaysNote": "ケアプランに応じて２４時間３６５日サービス提供"
  },
  {
    "id": "4770200089",
    "name": "ケアサービスうるま",
    "kana": "ケアサービスウルマ",
    "address": "沖縄県うるま市石川東山本町二丁目12番19号",
    "lat": 26.4384222696626,
    "lng": 127.832079606003,
    "tel": "098-982-5008",
    "url": "http://careservice-uruna.com",
    "pref": "沖縄県",
    "city": "うるま市",
    "category": "home_help",
    "serviceType": "訪問介護",
    "capacity": null,
    "openDays": [
      "平日",
      "土曜日",
      "日曜日",
      "祝日"
    ],
    "openDaysNote": "但し、営業時間以外でも、電話等により24時間常時連絡が可能な体制とする"
  },
  {
    "id": "4770300368",
    "name": "さくらケアステーションホームヘルプサービス",
    "kana": "サクラケアステーションホームヘルプサービス",
    "address": "沖縄県うるま市字田場1927番地2",
    "lat": 26.3676605,
    "lng": 127.8602996,
    "tel": "098-974-2230",
    "url": "http://www.",
    "pref": "沖縄県",
    "city": "うるま市",
    "category": "home_help",
    "serviceType": "訪問介護",
    "capacity": 0,
    "openDays": [
      "平日",
      "土曜日",
      "日曜日",
      "祝日"
    ],
    "openDaysNote": "事業所の休日であっても、利用者の介護計画に基づき、日曜、祝祭日の（改行）訪問介護サービスの提供を実施中。"
  },
  {
    "id": "4770301333",
    "name": "ニチイケアセンターうるま",
    "kana": "ニチイケアセンターウルマ",
    "address": "沖縄県うるま市宮里201-6又吉アパート102 又吉アパート102",
    "lat": 26.3535579,
    "lng": 127.8347511,
    "tel": "098-979-2828",
    "url": "http://www.nichiigakkan.co.jp",
    "pref": "沖縄県",
    "city": "うるま市",
    "category": "home_help",
    "serviceType": "訪問介護",
    "capacity": 1,
    "openDays": [
      "平日",
      "土曜日",
      "日曜日",
      "祝日"
    ],
    "openDaysNote": "※365日24時間サービス提供実施　※台風、災害時は状況に応じ連絡、調整を行う。（改行）※居宅サービス計画により、休業日および営業時間外であってもサービスを提供する場合があります。"
  },
  {
    "id": "4772000016",
    "name": "ﾍﾙﾊﾟｰｽﾃｰｼｮﾝ　あやはし苑",
    "kana": "ヘルパーステーション　アヤハシエン",
    "address": "沖縄県与那城屋慶名1410",
    "lat": 26.3270275,
    "lng": 127.9089652,
    "tel": "098-978-5566",
    "url": "http://ayahashien.com/",
    "pref": "沖縄県",
    "city": "うるま市",
    "category": "home_help",
    "serviceType": "訪問介護",
    "capacity": 0,
    "openDays": [
      "平日",
      "土曜日",
      "日曜日",
      "祝日"
    ],
    "openDaysNote": "暴風時等やむを得ず、訪問介護員を派遣できない場合を除く。"
  },
  {
    "id": "4770301473",
    "name": "ﾍﾙﾊﾟｰｽﾃｰｼｮﾝ　愛の花",
    "kana": "ヘルパーステーション　アイノハナ",
    "address": "沖縄県うるま市昆布676-2徳田アパート101号 徳田アパート101号",
    "lat": 26.3916069,
    "lng": 127.8478938,
    "tel": "098-962-8248",
    "url": "",
    "pref": "沖縄県",
    "city": "うるま市",
    "category": "home_help",
    "serviceType": "訪問介護",
    "capacity": null,
    "openDays": [
      "平日",
      "土曜日",
      "日曜日",
      "祝日"
    ],
    "openDaysNote": "年中無休で対応しております。"
  },
  {
    "id": "4770300608",
    "name": "ヘルパーサービスSYM",
    "kana": "ヘルパーサービスエスワイエム",
    "address": "具志川2436番地",
    "lat": 26.361417,
    "lng": 127.8681019,
    "tel": "098-989-8592",
    "url": "",
    "pref": "沖縄県",
    "city": "うるま市",
    "category": "home_help",
    "serviceType": "訪問介護",
    "capacity": null,
    "openDays": [
      "平日",
      "土曜日",
      "日曜日",
      "祝日"
    ],
    "openDaysNote": ""
  },
  {
    "id": "4770301549",
    "name": "ヘルパーステーションA&S",
    "kana": "ヘルパーステーションエーアンドエス",
    "address": "沖縄県うるま市字具志川1931番地34",
    "lat": 26.3538154,
    "lng": 127.8701933,
    "tel": "989733660",
    "url": "https://www.a-and-s.okinawa",
    "pref": "沖縄県",
    "city": "うるま市",
    "category": "home_help",
    "serviceType": "訪問介護",
    "capacity": null,
    "openDays": [
      "平日",
      "土曜日",
      "日曜日",
      "祝日"
    ],
    "openDaysNote": ""
  },
  {
    "id": "4760390015",
    "name": "ヘルパーステーションいずみ介護会",
    "kana": "ヘルパーステーションイズミカイゴカイ",
    "address": "沖縄県うるま市字栄野比1151番地1",
    "lat": 26.3964931,
    "lng": 127.8278517,
    "tel": "098-972-7123",
    "url": "http://www.izumihospital1985.or.jp",
    "pref": "沖縄県",
    "city": "うるま市",
    "category": "home_help",
    "serviceType": "訪問介護",
    "capacity": 0,
    "openDays": [
      "平日",
      "土曜日",
      "日曜日",
      "祝日"
    ],
    "openDaysNote": "年末年始（12月31日～1月1日）休み"
  },
  {
    "id": "4770301275",
    "name": "ヘルパーステーションうるま",
    "kana": "ヘルパーステーションウルマ",
    "address": "沖縄県うるま市勝連平安名2470番地1　1階",
    "lat": 26.3185635,
    "lng": 127.8936494,
    "tel": "098‐983‐1165",
    "url": "",
    "pref": "沖縄県",
    "city": "うるま市",
    "category": "home_help",
    "serviceType": "訪問介護",
    "capacity": 0,
    "openDays": [
      "平日"
    ],
    "openDaysNote": "電話等で24時間対応（改行）12/31～1/3は、独居、認知症、家族対応困難な方に限る"
  },
  {
    "id": "4770301853",
    "name": "ヘルパーステーションえのび",
    "kana": "ヘルパーステーションエノビ",
    "address": "沖縄県うるま市字栄野比９３９番地",
    "lat": 26.3851042,
    "lng": 127.8331238,
    "tel": "098-972-6029",
    "url": "http：//ryokuwakai.com",
    "pref": "沖縄県",
    "city": "うるま市",
    "category": "home_help",
    "serviceType": "訪問介護",
    "capacity": 20,
    "openDays": [
      "平日",
      "土曜日",
      "祝日"
    ],
    "openDaysNote": ""
  },
  {
    "id": "4770301101",
    "name": "ヘルパーステーションおもろの郷",
    "kana": "ヘルパーステーションオモロノサト",
    "address": "沖縄県うるま市安慶名三丁目４番２３号",
    "lat": 26.37604,
    "lng": 127.854174,
    "tel": "０９８-９７２-７２２０",
    "url": "",
    "pref": "沖縄県",
    "city": "うるま市",
    "category": "home_help",
    "serviceType": "訪問介護",
    "capacity": 0,
    "openDays": [
      "平日",
      "土曜日",
      "日曜日",
      "祝日"
    ],
    "openDaysNote": ""
  },
  {
    "id": "4770301770",
    "name": "ヘルパーステーションまつぼっくり",
    "kana": "ヘルパーステーション　マツボックリ",
    "address": "沖縄県うるま市栄野比155-5",
    "lat": 26.3931506,
    "lng": 127.8321552,
    "tel": "989230680",
    "url": "",
    "pref": "沖縄県",
    "city": "うるま市",
    "category": "home_help",
    "serviceType": "訪問介護",
    "capacity": null,
    "openDays": [
      "平日",
      "土曜日",
      "日曜日",
      "祝日"
    ],
    "openDaysNote": "24時間対応。（年中無休　対応）"
  },
  {
    "id": "4770301895",
    "name": "ヘルパーステーション愛（かなさ）",
    "kana": "ヘルパーステーションカナサ",
    "address": "沖縄県うるま市塩屋401-1psalm27　B号室 psalm27　B号室",
    "lat": 26.34823,
    "lng": 127.8615427,
    "tel": "098-989-3922",
    "url": "https://hp.kaipoke.biz/84t/",
    "pref": "沖縄県",
    "city": "うるま市",
    "category": "home_help",
    "serviceType": "訪問介護",
    "capacity": null,
    "openDays": [
      "平日",
      "土曜日",
      "日曜日",
      "祝日"
    ],
    "openDaysNote": ""
  },
  {
    "id": "4770301887",
    "name": "ヘルパーステーション慶",
    "kana": "ヘルパーステーションヨロコビ",
    "address": "沖縄県うるま市字兼箇段362番地16",
    "lat": 26.3739756,
    "lng": 127.8382301,
    "tel": "090-9650-9311",
    "url": "",
    "pref": "沖縄県",
    "city": "うるま市",
    "category": "home_help",
    "serviceType": "訪問介護",
    "capacity": 0,
    "openDays": [
      "平日",
      "土曜日",
      "日曜日",
      "祝日"
    ],
    "openDaysNote": ""
  },
  {
    "id": "4760290009",
    "name": "ホームヘルパーステーション願寿ぬ森",
    "kana": "ホームヘルパーステーションガンジュヌムイ",
    "address": "沖縄県うるま市石川３２７３番地２",
    "lat": 26.4472331,
    "lng": 127.8287469,
    "tel": "098-964-6528",
    "url": "https://ganjukouhou.wixsite.com/mysite-1",
    "pref": "沖縄県",
    "city": "うるま市",
    "category": "home_help",
    "serviceType": "訪問介護",
    "capacity": 25,
    "openDays": [
      "平日",
      "土曜日",
      "日曜日",
      "祝日"
    ],
    "openDaysNote": ""
  },
  {
    "id": "4770301184",
    "name": "ホームヘルプサービスセンター陽光館",
    "kana": "ホームヘルプサービスセンターヨウコウカン",
    "address": "沖縄県うるま市字江州661番地",
    "lat": 26.3581855554684,
    "lng": 127.859693336421,
    "tel": "098-974-8000",
    "url": "http://www5.ocn.ne.jp/~heiwahsp",
    "pref": "沖縄県",
    "city": "うるま市",
    "category": "home_help",
    "serviceType": "訪問介護",
    "capacity": 40,
    "openDays": [
      "平日",
      "土曜日",
      "日曜日",
      "祝日"
    ],
    "openDaysNote": ""
  },
  {
    "id": "4770301564",
    "name": "らいおんハート訪問介護平敷屋",
    "kana": "ライオンハートホウモンカイゴヘシキヤ",
    "address": "赤道2-15",
    "lat": 26.2720207,
    "lng": 127.774416,
    "tel": "098-923-1942",
    "url": "",
    "pref": "沖縄県",
    "city": "うるま市",
    "category": "home_help",
    "serviceType": "訪問介護",
    "capacity": 0,
    "openDays": [
      "平日",
      "土曜日",
      "日曜日",
      "祝日"
    ],
    "openDaysNote": ""
  },
  {
    "id": "4770200014",
    "name": "楽寿園指定訪問介護事業所",
    "kana": "ラクジュエンシテイホウモンカイゴジギョウショ",
    "address": "沖縄県うるま市石川嘉手苅９６１番地１７",
    "lat": 26.4254036,
    "lng": 127.7975895,
    "tel": "098-965-6306",
    "url": "http://www.ikusan-k.com",
    "pref": "沖縄県",
    "city": "うるま市",
    "category": "home_help",
    "serviceType": "訪問介護",
    "capacity": 2,
    "openDays": [
      "平日",
      "土曜日",
      "日曜日",
      "祝日"
    ],
    "openDaysNote": ""
  },
  {
    "id": "4770300319",
    "name": "具志川厚生園　指定訪問介護事業所",
    "kana": "グシカワコウセイエン　シテイホウモンカイゴジギョウショ",
    "address": "沖縄県うるま市字天願１９８３番地具志川厚生園 具志川厚生園",
    "lat": 26.3832893,
    "lng": 127.8508752,
    "tel": "098-972-7494",
    "url": "http://www.okinawa-j.jp",
    "pref": "沖縄県",
    "city": "うるま市",
    "category": "home_help",
    "serviceType": "訪問介護",
    "capacity": 0,
    "openDays": [
      "平日",
      "土曜日",
      "日曜日",
      "祝日"
    ],
    "openDaysNote": ""
  },
  {
    "id": "4770300210",
    "name": "指定訪問介護事業所コロニーヘルパーステーションうるま",
    "kana": "シテイホウモンカイゴジギョウショコロニーヘルパーステーションウルマ",
    "address": "沖縄県うるま市みどり町５丁目２７番９号",
    "lat": 26.3777177,
    "lng": 127.8513613,
    "tel": "098-972-6577",
    "url": "http://www.okicolo.or.jp",
    "pref": "沖縄県",
    "city": "うるま市",
    "category": "home_help",
    "serviceType": "訪問介護",
    "capacity": null,
    "openDays": [
      "平日",
      "土曜日",
      "日曜日",
      "祝日"
    ],
    "openDaysNote": "特になし"
  },
  {
    "id": "4770301226",
    "name": "指定訪問介護事業所ゆいわ",
    "kana": "シテイホウモンカイゴジギョウショユイワ",
    "address": "沖縄県うるま市安慶名二丁目９番６号",
    "lat": 26.3763346029938,
    "lng": 127.852017250041,
    "tel": "０９８－８００－２４７０",
    "url": "",
    "pref": "沖縄県",
    "city": "うるま市",
    "category": "home_help",
    "serviceType": "訪問介護",
    "capacity": 80,
    "openDays": [
      "平日",
      "土曜日",
      "日曜日"
    ],
    "openDaysNote": "サービス提供日は日曜日から土曜日までとする。ただし、年末年始休みを除く。（要相談）（改行）サービス提供可能日以外の日、時間帯に関しても２４時間常時連絡が可能な体制とする。"
  },
  {
    "id": "4770402156",
    "name": "訪問介護　あやかいの城",
    "kana": "ホウモンカイゴ　アヤカイノシロ",
    "address": "沖縄県うるま市字江洲392番地諸見里店舗101号 諸見里店舗101号",
    "lat": 26.3510365,
    "lng": 127.8267897,
    "tel": "098-974-3241",
    "url": "https://www.curagusuku.com",
    "pref": "沖縄県",
    "city": "うるま市",
    "category": "home_help",
    "serviceType": "訪問介護",
    "capacity": 8,
    "openDays": [
      "平日",
      "土曜日",
      "祝日"
    ],
    "openDaysNote": "日曜日・年末年始はご要望等があれば相談にて対応させていたします。"
  },
  {
    "id": "4770301788",
    "name": "訪問介護ＴＲＥＥうるま",
    "kana": "ホウモンカイゴツリーウルマ",
    "address": "安慶名２丁目2番25号",
    "lat": 26.3762710801834,
    "lng": 127.852740080549,
    "tel": "098-989-3650",
    "url": "https://treeokinawa.com/",
    "pref": "沖縄県",
    "city": "うるま市",
    "category": "home_help",
    "serviceType": "訪問介護",
    "capacity": 120,
    "openDays": [
      "平日",
      "土曜日",
      "日曜日",
      "祝日"
    ],
    "openDaysNote": "その他、時間帯についても状況より対応可。365日対応。"
  },
  {
    "id": "4770301481",
    "name": "訪問介護あろは江洲",
    "kana": "ホウモンカイゴアロハエス",
    "address": "沖縄県うるま市江洲38-7オアシス江洲1F オアシス江洲1F",
    "lat": 26.3478541,
    "lng": 127.8330104,
    "tel": "098-989-7382",
    "url": "http://aloha-kaigo.okinawa",
    "pref": "沖縄県",
    "city": "うるま市",
    "category": "home_help",
    "serviceType": "訪問介護",
    "capacity": null,
    "openDays": [
      "平日",
      "土曜日",
      "日曜日",
      "祝日"
    ],
    "openDaysNote": "サービス提供は24時間365日"
  },
  {
    "id": "4770300665",
    "name": "訪問介護いっしんうるま",
    "kana": "ホウモンカイゴイッシンウルマ",
    "address": "沖縄県うるま市石川東恩納133-1ここいちうるま ここいちうるま",
    "lat": 26.4116778,
    "lng": 127.8328842,
    "tel": "098-963-0273",
    "url": "https://isshin.gr.jp/index.php",
    "pref": "沖縄県",
    "city": "うるま市",
    "category": "home_help",
    "serviceType": "訪問介護",
    "capacity": 0,
    "openDays": [
      "平日",
      "土曜日",
      "日曜日",
      "祝日"
    ],
    "openDaysNote": "なし"
  },
  {
    "id": "4770300863",
    "name": "訪問介護いっしん上江洲",
    "kana": "ホウモンカイゴイッシンウエズ",
    "address": "沖縄県うるま市字上江洲466-1",
    "lat": 26.355948,
    "lng": 127.8614609,
    "tel": "098-979-0010",
    "url": "https://isshin.gr.jp/index.php",
    "pref": "沖縄県",
    "city": "うるま市",
    "category": "home_help",
    "serviceType": "訪問介護",
    "capacity": 0,
    "openDays": [
      "平日",
      "土曜日",
      "日曜日",
      "祝日"
    ],
    "openDaysNote": "なし"
  },
  {
    "id": "4770300954",
    "name": "訪問介護ステーション　志",
    "kana": "ホウモンカイゴステーション　ココロザシ",
    "address": "沖縄県うるま市勝連平敷屋３８７番地１Ｆ",
    "lat": 26.3084902754579,
    "lng": 127.910156723227,
    "tel": "098-978-0556",
    "url": "",
    "pref": "沖縄県",
    "city": "うるま市",
    "category": "home_help",
    "serviceType": "訪問介護",
    "capacity": 0,
    "openDays": [
      "平日",
      "土曜日",
      "日曜日",
      "祝日"
    ],
    "openDaysNote": "１２月２９日から１月３日の営業は独居、認知症、家族対応が困難な方に限る。"
  },
  {
    "id": "4772100022",
    "name": "訪問介護事業所　与勝の里",
    "kana": "ホウモンカイゴジギョウショ　ヨカツノサト",
    "address": "沖縄県うるま市勝連南風原４９０２番地",
    "lat": 26.3421501,
    "lng": 127.8770789,
    "tel": "098-978-2629",
    "url": "https//www.yokatsu.okinawa",
    "pref": "沖縄県",
    "city": "うるま市",
    "category": "home_help",
    "serviceType": "訪問介護",
    "capacity": 0,
    "openDays": [
      "平日",
      "土曜日",
      "日曜日",
      "祝日"
    ],
    "openDaysNote": ""
  },
  {
    "id": "4770301689",
    "name": "訪問介護事業所だいじょうぶよ～うるま事業所",
    "kana": "ホウモンカイゴジギョウショダイジョウブヨ～ウルマジギョウショ",
    "address": "沖縄県うるま市みどり町５丁目３番地１",
    "lat": 26.3766554,
    "lng": 127.8543709,
    "tel": "098-989-4860",
    "url": "",
    "pref": "沖縄県",
    "city": "うるま市",
    "category": "home_help",
    "serviceType": "訪問介護",
    "capacity": 0,
    "openDays": [
      "平日",
      "土曜日",
      "祝日"
    ],
    "openDaysNote": ""
  },
  {
    "id": "4710310709",
    "name": "与勝病院訪問介護事業所",
    "kana": "ヨカツビョウインホウモンカイゴジギョウショ",
    "address": "沖縄県うるま市勝連南風原3584番地",
    "lat": 26.3271015,
    "lng": 127.8822533,
    "tel": "098-978-1182",
    "url": "http://www.jkknet.or.jp/yokatsu",
    "pref": "沖縄県",
    "city": "うるま市",
    "category": "home_help",
    "serviceType": "訪問介護",
    "capacity": 1,
    "openDays": [
      "平日",
      "土曜日",
      "日曜日",
      "祝日"
    ],
    "openDaysNote": "電話連絡は24時間対応（改行）感染対策を徹底し新型コロナ陽性者、濃厚接触者へのサービス継続"
  },
  {
    "id": "4771900059",
    "name": "ココいーじま",
    "kana": "ココイージマ",
    "address": "沖縄県国頭郡伊江村字川平３１４番地1 1",
    "lat": 26.7073119,
    "lng": 127.8046782,
    "tel": "0980-49-3331",
    "url": "",
    "pref": "沖縄県",
    "city": "伊江村",
    "category": "home_help",
    "serviceType": "訪問介護",
    "capacity": null,
    "openDays": [
      "平日",
      "土曜日",
      "日曜日",
      "祝日"
    ],
    "openDaysNote": ""
  },
  {
    "id": "4771900067",
    "name": "ヘルパーステーション昴",
    "kana": "ヘルパーステーションスバル",
    "address": "沖縄県国頭郡伊江村字西江前271番地1",
    "lat": 26.7146281,
    "lng": 127.766584,
    "tel": "0980-49-5915",
    "url": "subaru-iejima.com",
    "pref": "沖縄県",
    "city": "伊江村",
    "category": "home_help",
    "serviceType": "訪問介護",
    "capacity": null,
    "openDays": [
      "平日",
      "土曜日",
      "日曜日",
      "祝日"
    ],
    "openDaysNote": ""
  },
  {
    "id": "4771900026",
    "name": "伊江村社協　ホームヘルプセンター",
    "kana": "イエソンシャキョウ　ホームヘルプセンター",
    "address": "沖縄県国頭郡伊江村字川平３６４番地１",
    "lat": 26.7117948161578,
    "lng": 127.802181028836,
    "tel": "0980-49-5104",
    "url": "",
    "pref": "沖縄県",
    "city": "伊江村",
    "category": "home_help",
    "serviceType": "訪問介護",
    "capacity": 0,
    "openDays": [
      "平日",
      "土曜日",
      "日曜日",
      "祝日"
    ],
    "openDaysNote": "サービス提供日は天災その他やむを得ず業務を遂行できない日を除き毎日"
  },
  {
    "id": "4774500013",
    "name": "伊平屋村訪問介護事業所",
    "kana": "イヘヤソンホウモンカイゴジギョウショ",
    "address": "沖縄県島尻郡伊平屋村字我喜屋３００番地",
    "lat": 27.0387239,
    "lng": 127.9656495,
    "tel": "0980-46-2339",
    "url": "http://www.",
    "pref": "沖縄県",
    "city": "伊平屋村",
    "category": "home_help",
    "serviceType": "訪問介護",
    "capacity": 0,
    "openDays": [
      "平日",
      "土曜日",
      "日曜日",
      "祝日"
    ],
    "openDaysNote": ""
  },
  {
    "id": "4770800219",
    "name": "ＮＰＯ法人ライフサポートてだこ　ヘルパーステーションりん",
    "kana": "ＮＰＯホウジン　ライフサポートテダコ　ヘルパーステーションリン",
    "address": "沖縄県浦添市宮城3-13-12仲西マンション　1F 仲西マンション　1F",
    "lat": 26.2470805226431,
    "lng": 127.704345972414,
    "tel": "098-875-3557",
    "url": "http://www.lstedako.com/",
    "pref": "沖縄県",
    "city": "浦添市",
    "category": "home_help",
    "serviceType": "訪問介護",
    "capacity": 0,
    "openDays": [
      "平日",
      "土曜日",
      "日曜日",
      "祝日"
    ],
    "openDaysNote": ""
  },
  {
    "id": "4770801597",
    "name": "ウーバーケア浦添店",
    "kana": "ウーバーケアウラソエテン",
    "address": "沖縄県浦添市屋富祖一丁目4番8号フレッグハイム1階102号室 フレッグハイム1階102号室",
    "lat": 26.2503277,
    "lng": 127.7115497,
    "tel": "098-943-7555",
    "url": "",
    "pref": "沖縄県",
    "city": "浦添市",
    "category": "home_help",
    "serviceType": "訪問介護",
    "capacity": 100,
    "openDays": [
      "平日",
      "土曜日",
      "日曜日",
      "祝日"
    ],
    "openDaysNote": ""
  },
  {
    "id": "4770801886",
    "name": "おうちでくらせる訪問介護　浦添",
    "kana": "オウチデクラセルホウモンカイゴ　ウラソエ",
    "address": "安波茶2-6-13奥村貸店舗１階 奥村貸店舗１階",
    "lat": 26.2487226,
    "lng": 127.7253483,
    "tel": "098-917-2527",
    "url": "https://www.big-advance.site/s/187/2008",
    "pref": "沖縄県",
    "city": "浦添市",
    "category": "home_help",
    "serviceType": "訪問介護",
    "capacity": 0,
    "openDays": [
      "平日",
      "土曜日"
    ],
    "openDaysNote": "※早朝および夜間〔通常料金の２５％増し〕、深夜〔通常料金の５０％増し〕となります"
  },
  {
    "id": "4770801563",
    "name": "ケアセンターココロすまいる",
    "kana": "ケアセンターココロスマイル",
    "address": "沖縄県浦添市当山2丁目17番11",
    "lat": 26.2504325,
    "lng": 127.7350008,
    "tel": "098－943－3026",
    "url": "",
    "pref": "沖縄県",
    "city": "浦添市",
    "category": "home_help",
    "serviceType": "訪問介護",
    "capacity": 0,
    "openDays": [
      "平日",
      "土曜日",
      "日曜日",
      "祝日"
    ],
    "openDaysNote": ""
  },
  {
    "id": "4770801290",
    "name": "ヘルパーステーション　にじ",
    "kana": "ヘルパーステーション　ニジ",
    "address": "沖縄県浦添市仲西３丁目１５番１号　１階",
    "lat": 26.2455495209701,
    "lng": 127.696836671017,
    "tel": "０９８－９８８－４５４１",
    "url": "",
    "pref": "沖縄県",
    "city": "浦添市",
    "category": "home_help",
    "serviceType": "訪問介護",
    "capacity": 0,
    "openDays": [
      "平日",
      "土曜日",
      "日曜日",
      "祝日"
    ],
    "openDaysNote": "休日はなし（但し、１２月３１日～１月３日と旧盆旧暦７月１５日の営業は独居、認知症、家族対応困難な方に限る）。自然現象による災害（風水害、地震など）、その他やむ得ず業務を遂行できない場合を除く。"
  },
  {
    "id": "4770801779",
    "name": "ヘルパーステーション　はな",
    "kana": "ヘルパーステーション　ハナ",
    "address": "沖縄県浦添市勢理客1丁目23番16号",
    "lat": 26.2420113562163,
    "lng": 127.696206730895,
    "tel": "098-917-0580",
    "url": "",
    "pref": "沖縄県",
    "city": "浦添市",
    "category": "home_help",
    "serviceType": "訪問介護",
    "capacity": null,
    "openDays": [
      "平日",
      "土曜日",
      "日曜日",
      "祝日"
    ],
    "openDaysNote": ""
  },
  {
    "id": "4770801746",
    "name": "ヘルパーステーション　りん",
    "kana": "ヘルパーステーション　リン",
    "address": "沖縄県浦添市宮城３－１３－１２　１F",
    "lat": 26.2476788,
    "lng": 127.7031451,
    "tel": "098-875-3557",
    "url": "http://www.lstedako.com",
    "pref": "沖縄県",
    "city": "浦添市",
    "category": "home_help",
    "serviceType": "訪問介護",
    "capacity": null,
    "openDays": [
      "平日",
      "土曜日",
      "日曜日",
      "祝日"
    ],
    "openDaysNote": ""
  },
  {
    "id": "4770801324",
    "name": "ヘルパーステーション　咲き",
    "kana": "ヘルパーステーション　サキ",
    "address": "宮城3丁目9番14号パティオB'sⅡ101号 パティオB'sⅡ101号",
    "lat": 38.2584801,
    "lng": 140.8769777,
    "tel": "098-875-8202",
    "url": "",
    "pref": "沖縄県",
    "city": "浦添市",
    "category": "home_help",
    "serviceType": "訪問介護",
    "capacity": 3,
    "openDays": [
      "平日",
      "土曜日",
      "日曜日",
      "祝日"
    ],
    "openDaysNote": "年中無休、24時間　（台風時は利用者の状況に応じて対応）"
  },
  {
    "id": "4770101022",
    "name": "ヘルパーステーション　福寿",
    "kana": "ヘルパーステーション　フクジュ",
    "address": "沖縄県浦添市当山２丁目１０番１０号",
    "lat": 26.2489776,
    "lng": 127.7378528,
    "tel": "098-871-1544",
    "url": "",
    "pref": "沖縄県",
    "city": "浦添市",
    "category": "home_help",
    "serviceType": "訪問介護",
    "capacity": 0,
    "openDays": [
      "平日",
      "土曜日",
      "日曜日",
      "祝日"
    ],
    "openDaysNote": "但し、利用者からの要望がある場合は、時間外でも対応できる。"
  },
  {
    "id": "4770801688",
    "name": "ヘルパーステーションうんてん",
    "kana": "ヘルパーステーションウンテン",
    "address": "沖縄県浦添市西原5丁目23-5　パティオンハイツ102号室",
    "lat": 26.2463616,
    "lng": 127.7420995,
    "tel": "098-988-9936",
    "url": "https://www.unten.okinawa/",
    "pref": "沖縄県",
    "city": "浦添市",
    "category": "home_help",
    "serviceType": "訪問介護",
    "capacity": null,
    "openDays": [
      "平日"
    ],
    "openDaysNote": ""
  },
  {
    "id": "4770801514",
    "name": "ヘルパーステーションこころ",
    "kana": "ヘルパーステーションココロ",
    "address": "沖縄県浦添市字前田５９５－４K氏店舗１０２号 K氏店舗１０２号",
    "lat": 26.2403613159835,
    "lng": 127.731976492667,
    "tel": "989434265",
    "url": "",
    "pref": "沖縄県",
    "city": "浦添市",
    "category": "home_help",
    "serviceType": "訪問介護",
    "capacity": 0,
    "openDays": [
      "平日",
      "土曜日",
      "日曜日",
      "祝日"
    ],
    "openDaysNote": "12/29～1/3の営業は独居、認知症、家族対応困難な方に限る"
  },
  {
    "id": "4770801910",
    "name": "ヘルパーステーションしんらい浦添",
    "kana": "ヘルパーステーションシンライウラソエ",
    "address": "前田２丁目３番地９PREGIO、M、１階 PREGIO、M、１階",
    "lat": 26.2441921,
    "lng": 127.7322117,
    "tel": "098-975-9165",
    "url": "",
    "pref": "沖縄県",
    "city": "浦添市",
    "category": "home_help",
    "serviceType": "訪問介護",
    "capacity": 0,
    "openDays": [
      "平日",
      "土曜日",
      "日曜日",
      "祝日"
    ],
    "openDaysNote": ""
  },
  {
    "id": "4770801738",
    "name": "ヘルパーステーションてーしち",
    "kana": "テーシチ",
    "address": "沖縄県浦添市西原１丁目４１番６号丸雄荘201 丸雄荘201",
    "lat": 26.2534797,
    "lng": 127.7443845,
    "tel": "098-943-6351",
    "url": "",
    "pref": "沖縄県",
    "city": "浦添市",
    "category": "home_help",
    "serviceType": "訪問介護",
    "capacity": null,
    "openDays": [
      "平日",
      "土曜日"
    ],
    "openDaysNote": ""
  },
  {
    "id": "4770801589",
    "name": "ヘルパーステーションらくだ",
    "kana": "ヘルパーステーションラクダ",
    "address": "沖縄県浦添市伊祖4-16-1",
    "lat": 26.2547805019904,
    "lng": 127.723018926073,
    "tel": "(098)870-1026",
    "url": "https://jin-aikai.com/zaitaku/about-zaitaku/rakuda/",
    "pref": "沖縄県",
    "city": "浦添市",
    "category": "home_help",
    "serviceType": "訪問介護",
    "capacity": 125,
    "openDays": [
      "平日",
      "土曜日",
      "日曜日",
      "祝日"
    ],
    "openDaysNote": ""
  },
  {
    "id": "4770801845",
    "name": "ヘルパーステーション花はな",
    "kana": "ヘルパーステーションハナハナ",
    "address": "沖縄県浦添市牧港2丁目9番5号",
    "lat": 26.2598665532601,
    "lng": 127.723317828242,
    "tel": "989170580",
    "url": "",
    "pref": "沖縄県",
    "city": "浦添市",
    "category": "home_help",
    "serviceType": "訪問介護",
    "capacity": 0,
    "openDays": [
      "平日",
      "土曜日",
      "日曜日",
      "祝日"
    ],
    "openDaysNote": ""
  },
  {
    "id": "4770801613",
    "name": "ヘルパーステーション小枝",
    "kana": "ヘルパーステーション　コエダ",
    "address": "沖縄県浦添市字経塚350番地",
    "lat": 26.2341101,
    "lng": 127.7238924,
    "tel": "098-870-5551",
    "url": "https://www.care-and-service.com/",
    "pref": "沖縄県",
    "city": "浦添市",
    "category": "home_help",
    "serviceType": "訪問介護",
    "capacity": 0,
    "openDays": [
      "平日",
      "土曜日",
      "祝日"
    ],
    "openDaysNote": ""
  },
  {
    "id": "4770801837",
    "name": "ヘルパステーションＯＣＣ",
    "kana": "ヘルパーステーションオーシーシー",
    "address": "沖縄県浦添市宮城五丁目３番７号１階 １階",
    "lat": 26.2420257886721,
    "lng": 127.704275660119,
    "tel": "098-943-8466",
    "url": "http://hs-occ.com/",
    "pref": "沖縄県",
    "city": "浦添市",
    "category": "home_help",
    "serviceType": "訪問介護",
    "capacity": null,
    "openDays": [
      "平日",
      "土曜日",
      "日曜日",
      "祝日"
    ],
    "openDaysNote": "休日はなし（但し、天災・その他やむを得ず業務を遂行できない日を除く。12/31～1/3のサービス提供は独居、認知症、家族対応困難な方は相談に応じる。）"
  },
  {
    "id": "4770801811",
    "name": "ホームケアおねっと",
    "kana": "ホームケアオネット",
    "address": "沖縄県浦添市内間２丁目７番６号玉正アパート１０３号室 玉正アパート１０３号室",
    "lat": 26.2364691,
    "lng": 127.7066622,
    "tel": "098-963-9524",
    "url": "ezonsu.com",
    "pref": "沖縄県",
    "city": "浦添市",
    "category": "home_help",
    "serviceType": "訪問介護",
    "capacity": null,
    "openDays": [
      "平日",
      "土曜日",
      "日曜日",
      "祝日"
    ],
    "openDaysNote": ""
  },
  {
    "id": "4760890063",
    "name": "浦添中央ケアセンター",
    "kana": "ウラソエチュウオウケアセンター",
    "address": "沖縄県浦添市西原1丁目13番地1号",
    "lat": 26.2539882,
    "lng": 127.7400135,
    "tel": "098-874-6631",
    "url": "https://carenet.okinawa/",
    "pref": "沖縄県",
    "city": "浦添市",
    "category": "home_help",
    "serviceType": "訪問介護",
    "capacity": 0,
    "openDays": [
      "平日",
      "土曜日",
      "日曜日",
      "祝日"
    ],
    "openDaysNote": "ケアプランに応じて24時間365のサービスの提供"
  },
  {
    "id": "4770801852",
    "name": "訪問介護あろは　うちま",
    "kana": "ホウモンカイゴアロハ　ウチマ",
    "address": "沖縄県浦添市内間3-1-10清流マンション　106号 清流マンション　106号",
    "lat": 26.2364127,
    "lng": 127.7040224,
    "tel": "098-943-7184",
    "url": "https://mahalo-tami.com/",
    "pref": "沖縄県",
    "city": "浦添市",
    "category": "home_help",
    "serviceType": "訪問介護",
    "capacity": null,
    "openDays": [
      "平日",
      "土曜日",
      "日曜日",
      "祝日"
    ],
    "openDaysNote": "※早朝および夜間〔通常料金の25％増し〕、深夜〔通常料金の50％増し〕となります"
  },
  {
    "id": "4770800961",
    "name": "訪問介護サービス　かなさ",
    "kana": "ホウモンカイゴサービス　カナサ",
    "address": "沖縄県浦添市伊祖4丁目18番2号B-1 B-1",
    "lat": 26.2557602438486,
    "lng": 127.722460986508,
    "tel": "098-943-7645",
    "url": "",
    "pref": "沖縄県",
    "city": "浦添市",
    "category": "home_help",
    "serviceType": "訪問介護",
    "capacity": 0,
    "openDays": [
      "平日",
      "土曜日",
      "日曜日",
      "祝日"
    ],
    "openDaysNote": "台風時においてはバスが運休した場合、お休みとなります。"
  },
  {
    "id": "4770800532",
    "name": "訪問介護ステーションみらい",
    "kana": "ホウモンカイゴステーションミライ",
    "address": "沖縄県浦添市宮城４－２０－７",
    "lat": 26.2445432,
    "lng": 127.7019223,
    "tel": "098-877-2966",
    "url": "https://www.mirai-okinawa.net/",
    "pref": "沖縄県",
    "city": "浦添市",
    "category": "home_help",
    "serviceType": "訪問介護",
    "capacity": 0,
    "openDays": [
      "平日",
      "土曜日",
      "日曜日",
      "祝日"
    ],
    "openDaysNote": ""
  },
  {
    "id": "4770801498",
    "name": "訪問介護事業所満天",
    "kana": "ホウモンカイゴジギョウショマンテン",
    "address": "沖縄県浦添市仲西二丁目３番８号",
    "lat": 26.2463859157588,
    "lng": 127.700573943378,
    "tel": "098-960-2751",
    "url": "",
    "pref": "沖縄県",
    "city": "浦添市",
    "category": "home_help",
    "serviceType": "訪問介護",
    "capacity": 0,
    "openDays": [
      "平日",
      "土曜日",
      "日曜日",
      "祝日"
    ],
    "openDaysNote": ""
  },
  {
    "id": "4770400937",
    "name": "ＪＡおきなわ中部介護福祉センター　訪問介護事業所",
    "kana": "ジェイエイ　　　　チュウブカイゴフクシ　　　　　ホウモンカイゴジギョウショ",
    "address": "沖縄県沖縄市美里1-27-6",
    "lat": 26.3420009,
    "lng": 127.818454,
    "tel": "098-921-0206",
    "url": "",
    "pref": "沖縄県",
    "city": "沖縄市",
    "category": "home_help",
    "serviceType": "訪問介護",
    "capacity": 0,
    "openDays": [
      "平日",
      "土曜日",
      "日曜日",
      "祝日"
    ],
    "openDaysNote": ""
  },
  {
    "id": "4770400606",
    "name": "あわせヘルパーステーション",
    "kana": "アワセヘルパーステーション",
    "address": "沖縄県沖縄市泡瀬４丁目４１番１号",
    "lat": 26.315065,
    "lng": 127.8275846,
    "tel": "098-934-7727",
    "url": "",
    "pref": "沖縄県",
    "city": "沖縄市",
    "category": "home_help",
    "serviceType": "訪問介護",
    "capacity": 0,
    "openDays": [
      "平日",
      "土曜日",
      "日曜日",
      "祝日"
    ],
    "openDaysNote": "３６５日年中無休（但し、ヘルパーの稼働状況等により提供できない場合あり）"
  },
  {
    "id": "4770402875",
    "name": "あわせヘルパーステーション",
    "kana": "アワセヘルパーステーション",
    "address": "比屋根２丁目１番２２号",
    "lat": 26.3164312,
    "lng": 127.8248614,
    "tel": "098-989-7271",
    "url": "",
    "pref": "沖縄県",
    "city": "沖縄市",
    "category": "home_help",
    "serviceType": "訪問介護",
    "capacity": 0,
    "openDays": [
      "平日",
      "土曜日",
      "日曜日",
      "祝日"
    ],
    "openDaysNote": ""
  },
  {
    "id": "4770402214",
    "name": "いきがいヘルパーステーション",
    "kana": "イキガイヘルパーステーション",
    "address": "沖縄県沖縄市美里6丁目15番16号1F 1F",
    "lat": 26.3530737,
    "lng": 127.8063427,
    "tel": "098-989-9367",
    "url": "http://www.ikigai-days.com",
    "pref": "沖縄県",
    "city": "沖縄市",
    "category": "home_help",
    "serviceType": "訪問介護",
    "capacity": 0,
    "openDays": [
      "平日",
      "土曜日",
      "日曜日",
      "祝日"
    ],
    "openDaysNote": "台風接近時、災害時は従業者の安全を優先として休む場合がある。"
  },
  {
    "id": "4770400283",
    "name": "きづき訪問介護事業所",
    "kana": "キヅキホウモンカイゴジギョウショ",
    "address": "沖縄県沖縄市泡瀬一丁目21番15号",
    "lat": 26.3200904,
    "lng": 127.8375132,
    "tel": "098-937-5512",
    "url": "",
    "pref": "沖縄県",
    "city": "沖縄市",
    "category": "home_help",
    "serviceType": "訪問介護",
    "capacity": 22,
    "openDays": [
      "平日",
      "土曜日",
      "日曜日",
      "祝日"
    ],
    "openDaysNote": ""
  },
  {
    "id": "4770403170",
    "name": "きづき訪問介護事業所",
    "kana": "キヅキホウモンカイゴジギョウショ",
    "address": "沖縄市泡瀬1丁目21番15号",
    "lat": 26.3200785,
    "lng": 127.8375395,
    "tel": "098ー937ー5512",
    "url": "",
    "pref": "沖縄県",
    "city": "沖縄市",
    "category": "home_help",
    "serviceType": "訪問介護",
    "capacity": 0,
    "openDays": [
      "平日",
      "土曜日",
      "祝日"
    ],
    "openDaysNote": ""
  },
  {
    "id": "4770400366",
    "name": "ケアサービス　かりゆし",
    "kana": "ケアサービス　カリユシ",
    "address": "沖縄県沖縄市比屋根6-22-3",
    "lat": 26.3161758,
    "lng": 127.815519,
    "tel": "098-931-1950",
    "url": "",
    "pref": "沖縄県",
    "city": "沖縄市",
    "category": "home_help",
    "serviceType": "訪問介護",
    "capacity": 0,
    "openDays": [
      "平日",
      "土曜日",
      "日曜日",
      "祝日"
    ],
    "openDaysNote": ""
  },
  {
    "id": "4770402560",
    "name": "ケアサービス笑福亭",
    "kana": "ケアサービスショウフクテイ",
    "address": "沖縄県沖縄市嘉間良2-1-51真喜志第2アパート102 真喜志第2アパート102",
    "lat": 26.3401221,
    "lng": 127.8072553,
    "tel": "098-938-8584",
    "url": "https://llceifuku.amebaownd.com/",
    "pref": "沖縄県",
    "city": "沖縄市",
    "category": "home_help",
    "serviceType": "訪問介護",
    "capacity": 0,
    "openDays": [
      "平日",
      "土曜日",
      "日曜日",
      "祝日"
    ],
    "openDaysNote": "台風、災害時は状況に応じ連絡、調整を行なう。"
  },
  {
    "id": "4770401885",
    "name": "ケアサポートセンターうみそら",
    "kana": "ケアサポートセンターウミソラ",
    "address": "沖縄県沖縄市高原6-15-6ハートピアG4103号 ハートピアG4103号",
    "lat": 26.3174093,
    "lng": 127.8267929,
    "tel": "098-923-3086",
    "url": "",
    "pref": "沖縄県",
    "city": "沖縄市",
    "category": "home_help",
    "serviceType": "訪問介護",
    "capacity": 0,
    "openDays": [
      "平日",
      "土曜日",
      "日曜日",
      "祝日"
    ],
    "openDaysNote": "年末年始12月31日～1月3日(休業)（必要に応じ訪問できる体制等を持つ）"
  },
  {
    "id": "4770400481",
    "name": "ケアステーションだるま",
    "kana": "ケアステーションダルマ",
    "address": "沖縄県沖縄市美里仲原町コーポエルソール102",
    "lat": 26.3451938,
    "lng": 127.828946,
    "tel": "098-929-3368",
    "url": "http://www.",
    "pref": "沖縄県",
    "city": "沖縄市",
    "category": "home_help",
    "serviceType": "訪問介護",
    "capacity": 5,
    "openDays": [
      "平日",
      "土曜日",
      "日曜日",
      "祝日"
    ],
    "openDaysNote": ""
  },
  {
    "id": "4770401380",
    "name": "コロニーヘルパーステーションみなみとうばる",
    "kana": "コロニーヘルパーステーションミナミトウバル",
    "address": "沖縄県沖縄市南桃原三丁目４番１１号",
    "lat": 26.3201219,
    "lng": 127.7819105,
    "tel": "０９８－９８９－１２４２",
    "url": "http:/www.okicolo.or.jp",
    "pref": "沖縄県",
    "city": "沖縄市",
    "category": "home_help",
    "serviceType": "訪問介護",
    "capacity": 0,
    "openDays": [
      "平日",
      "土曜日",
      "日曜日",
      "祝日"
    ],
    "openDaysNote": "特になし"
  },
  {
    "id": "4770402842",
    "name": "さくらスマイルケアサービス",
    "kana": "サクラスマイルケアサービス",
    "address": "沖縄市比屋根３丁目14-3",
    "lat": 26.3121795,
    "lng": 127.8262236,
    "tel": "098-923-2686",
    "url": "",
    "pref": "沖縄県",
    "city": "沖縄市",
    "category": "home_help",
    "serviceType": "訪問介護",
    "capacity": null,
    "openDays": [
      "平日",
      "祝日"
    ],
    "openDaysNote": "12/31～1/3は除く(ただし対応日以外にも相談に応じる)"
  },
  {
    "id": "4770402230",
    "name": "サポートセンターうさぎ",
    "kana": "サポートセンターウサギ",
    "address": "沖縄県沖縄市泡瀬四丁目38番7号YAMAITIビル1F YAMAITIビル1F",
    "lat": 26.3145263,
    "lng": 127.8293192,
    "tel": "098-911-4530",
    "url": "https:/supportusagi.com",
    "pref": "沖縄県",
    "city": "沖縄市",
    "category": "home_help",
    "serviceType": "訪問介護",
    "capacity": 0,
    "openDays": [
      "平日",
      "土曜日",
      "日曜日",
      "祝日"
    ],
    "openDaysNote": "利用者の要介護状況に応じて24時間対応。"
  },
  {
    "id": "4770400044",
    "name": "ニチイケアセンター沖縄",
    "kana": "ニチイケアセンターオキナワ",
    "address": "沖縄県沖縄市久保田3-1-12プラザハウスフェアモール3F プラザハウスフェアモール3F",
    "lat": 26.3197637,
    "lng": 127.7940153,
    "tel": "098-982-2761",
    "url": "http://www.nichiigakkan.co.jp",
    "pref": "沖縄県",
    "city": "沖縄市",
    "category": "home_help",
    "serviceType": "訪問介護",
    "capacity": 0,
    "openDays": [
      "平日",
      "土曜日",
      "日曜日",
      "祝日"
    ],
    "openDaysNote": "※365日24時間サービス提供実施　※台風、災害時は状況に応じ連絡、調整を行う。※居宅サービス計画により、休業日および営業時間外であってもサービスを提供する場合があります。"
  },
  {
    "id": "4770402883",
    "name": "ヘルパーステーション　わくわくの森登川",
    "kana": "ヘルパーステーション　ワクワクノモリノボリカワ",
    "address": "沖縄県沖縄市登川695番地1",
    "lat": 26.3701148041148,
    "lng": 127.826001334879,
    "tel": "080-9851-3214",
    "url": "https://bestlife-okinawa.co.jp",
    "pref": "沖縄県",
    "city": "沖縄市",
    "category": "home_help",
    "serviceType": "訪問介護",
    "capacity": 0,
    "openDays": [
      "平日",
      "土曜日",
      "日曜日",
      "祝日"
    ],
    "openDaysNote": ""
  },
  {
    "id": "4770403097",
    "name": "ヘルパーステーションＬａｎａ‐ラナ‐",
    "kana": "ヘルパーステーションラナ",
    "address": "沖縄県沖縄市明道1丁目23番15号ともアパート102号室 ともアパート102号室",
    "lat": 26.3537603,
    "lng": 127.8234306,
    "tel": "098-979-8286",
    "url": "",
    "pref": "沖縄県",
    "city": "沖縄市",
    "category": "home_help",
    "serviceType": "訪問介護",
    "capacity": null,
    "openDays": [
      "平日",
      "土曜日",
      "日曜日",
      "祝日"
    ],
    "openDaysNote": ""
  },
  {
    "id": "4770402396",
    "name": "ヘルパーステーションアップ",
    "kana": "ヘルパーステーションアップ",
    "address": "沖縄県沖縄市桃原三丁目3番21号",
    "lat": 26.3347754500734,
    "lng": 127.82741979607,
    "tel": "098-989-4873",
    "url": "",
    "pref": "沖縄県",
    "city": "沖縄市",
    "category": "home_help",
    "serviceType": "訪問介護",
    "capacity": null,
    "openDays": [
      "平日",
      "土曜日",
      "日曜日",
      "祝日"
    ],
    "openDaysNote": "・自然災害等により公共交通機関が停止した場合を除く。（改行）・上記の時間帯で対応出来る訪問介護員が居る場合に限る。"
  },
  {
    "id": "4770402545",
    "name": "ヘルパーステーションエール",
    "kana": "ヘルパーステーションエール",
    "address": "沖縄県沖縄市泡瀬5丁目26番23号",
    "lat": 26.324744,
    "lng": 127.8303973,
    "tel": "098-800-2088",
    "url": "",
    "pref": "沖縄県",
    "city": "沖縄市",
    "category": "home_help",
    "serviceType": "訪問介護",
    "capacity": 0,
    "openDays": [
      "平日",
      "土曜日",
      "日曜日",
      "祝日"
    ],
    "openDaysNote": "電話等により、24時間常時連絡が可能。"
  },
  {
    "id": "4770402800",
    "name": "ヘルパーステーションスイート宮里",
    "kana": "ヘルパーステーションスイートミヤザト",
    "address": "沖縄県沖縄市宮里四丁目３２‐１９",
    "lat": 26.3384594051698,
    "lng": 127.82619442209,
    "tel": "098-989-7941",
    "url": "",
    "pref": "沖縄県",
    "city": "沖縄市",
    "category": "home_help",
    "serviceType": "訪問介護",
    "capacity": 0,
    "openDays": [
      "平日",
      "土曜日",
      "日曜日",
      "祝日"
    ],
    "openDaysNote": "サービス提供にあたっては営業時間に関わらず、相談に応じます。"
  },
  {
    "id": "4770401026",
    "name": "ヘルパーステーションふれ愛",
    "kana": "ヘルパーステーション　フレアイ",
    "address": "沖縄県沖縄市仲宗根町19番1号",
    "lat": 26.3344461067984,
    "lng": 127.803069795599,
    "tel": "098-938-1038",
    "url": "h.fureai@basil.ocn.ne.jp",
    "pref": "沖縄県",
    "city": "沖縄市",
    "category": "home_help",
    "serviceType": "訪問介護",
    "capacity": 15,
    "openDays": [
      "平日",
      "土曜日",
      "日曜日",
      "祝日"
    ],
    "openDaysNote": "年中無休・２４時間対応"
  },
  {
    "id": "4770401943",
    "name": "ヘルパーステーションりんご",
    "kana": "ヘルパーステーションリンゴ",
    "address": "沖縄県沖縄市与儀3-3-2",
    "lat": 26.3105652,
    "lng": 127.8172357,
    "tel": "098-989-0713",
    "url": "https://www.jun-ringo.com/",
    "pref": "沖縄県",
    "city": "沖縄市",
    "category": "home_help",
    "serviceType": "訪問介護",
    "capacity": 0,
    "openDays": [
      "平日",
      "土曜日",
      "日曜日",
      "祝日"
    ],
    "openDaysNote": ""
  },
  {
    "id": "4770801894",
    "name": "ヘルパーステーションわくわくの森登川",
    "kana": "ヘルパーステーションワクワクノモリノボリカワ",
    "address": "沖縄県沖縄市登川695番地1",
    "lat": 26.3698451724296,
    "lng": 127.826111383772,
    "tel": "080-9851-3214",
    "url": "https://bestlife-okinawa.co.jp/",
    "pref": "沖縄県",
    "city": "沖縄市",
    "category": "home_help",
    "serviceType": "訪問介護",
    "capacity": 0,
    "openDays": [
      "平日",
      "土曜日",
      "日曜日",
      "祝日"
    ],
    "openDaysNote": ""
  },
  {
    "id": "4770402818",
    "name": "ヘルパーステーション信愛の丘",
    "kana": "ヘルパーステーションシンアイノオカ",
    "address": "沖縄県沖縄市池原3丁目3番8号",
    "lat": 26.38691,
    "lng": 127.8273909,
    "tel": "098-937-1165",
    "url": "https://shinaikai.com",
    "pref": "沖縄県",
    "city": "沖縄市",
    "category": "home_help",
    "serviceType": "訪問介護",
    "capacity": null,
    "openDays": [
      "平日",
      "土曜日",
      "日曜日",
      "祝日"
    ],
    "openDaysNote": "・深夜、早朝加算あり（改行）・一部、訪問介護同一建物減算1対象事業所あり。"
  },
  {
    "id": "4770401463",
    "name": "ヘルパーステーション宙伸",
    "kana": "ヘルパーステーションチュウシン",
    "address": "沖縄県沖縄市照屋1丁目10番4号",
    "lat": 26.3381654,
    "lng": 127.8149656,
    "tel": "098-989-0095",
    "url": "",
    "pref": "沖縄県",
    "city": "沖縄市",
    "category": "home_help",
    "serviceType": "訪問介護",
    "capacity": 0,
    "openDays": [
      "平日",
      "土曜日",
      "日曜日",
      "祝日"
    ],
    "openDaysNote": ""
  },
  {
    "id": "4770402636",
    "name": "ホウモンカイゴジギョウショシンカ",
    "kana": "訪問介護事業所シンカ",
    "address": "沖縄県沖縄市中央1-6-18根路銘店舗１階右 根路銘店舗１階右",
    "lat": 26.3370323,
    "lng": 127.8008671,
    "tel": "098-921-3251",
    "url": "https://shinka-okinawa.com/",
    "pref": "沖縄県",
    "city": "沖縄市",
    "category": "home_help",
    "serviceType": "訪問介護",
    "capacity": 0,
    "openDays": [
      "平日",
      "土曜日",
      "日曜日",
      "祝日"
    ],
    "openDaysNote": ""
  },
  {
    "id": "4770401331",
    "name": "ホームヘルプ　元氣のたね",
    "kana": "ホームヘルプ　ゲンキノタネ",
    "address": "古謝２丁目27-17",
    "lat": 26.3353781611708,
    "lng": 127.834760274072,
    "tel": "０９８－９８９－７３４５",
    "url": "http://www.fertile-soil.okinawa/",
    "pref": "沖縄県",
    "city": "沖縄市",
    "category": "home_help",
    "serviceType": "訪問介護",
    "capacity": 0,
    "openDays": [
      "平日",
      "土曜日",
      "日曜日",
      "祝日"
    ],
    "openDaysNote": "休日／年始（１月１日～２日）（改行）（改行）※必要性が高い場合には相談可"
  },
  {
    "id": "4770401828",
    "name": "ゆいまーる沖縄美里",
    "kana": "ユイマールオキナワミサト",
    "address": "沖縄県沖縄市美里二丁目28番5号ナーシングホーム沖縄美里 ナーシングホーム沖縄美里",
    "lat": 26.3443066491988,
    "lng": 127.816562431877,
    "tel": "098-934-7711",
    "url": "",
    "pref": "沖縄県",
    "city": "沖縄市",
    "category": "home_help",
    "serviceType": "訪問介護",
    "capacity": 60,
    "openDays": [
      "平日",
      "土曜日",
      "日曜日",
      "祝日"
    ],
    "openDaysNote": ""
  },
  {
    "id": "4770400127",
    "name": "ゆがふ在宅介護事業所",
    "kana": "ユガフザイタクカイゴジギョウショ",
    "address": "沖縄県沖縄市園田　二丁目-19番-6号",
    "lat": 26.3271049,
    "lng": 127.8018504,
    "tel": "098-932-0766",
    "url": "http://www.",
    "pref": "沖縄県",
    "city": "沖縄市",
    "category": "home_help",
    "serviceType": "訪問介護",
    "capacity": 0,
    "openDays": [
      "平日",
      "土曜日",
      "日曜日",
      "祝日"
    ],
    "openDaysNote": ""
  },
  {
    "id": "4770402339",
    "name": "ゆくりヘルパーステーション",
    "kana": "ユクリヘルパーステーション",
    "address": "沖縄県沖縄市上地1-13-28",
    "lat": 26.332997,
    "lng": 127.7978283,
    "tel": "098-989-5689",
    "url": "",
    "pref": "沖縄県",
    "city": "沖縄市",
    "category": "home_help",
    "serviceType": "訪問介護",
    "capacity": 0,
    "openDays": [
      "平日",
      "土曜日",
      "日曜日",
      "祝日"
    ],
    "openDaysNote": "時間外のサービスについては要相談"
  },
  {
    "id": "4770402602",
    "name": "よりそい訪問介護事業所",
    "kana": "ヨリソイホウモンカイゴジギョウショ",
    "address": "沖縄県沖縄市松本３丁目１７番３８号Ａ－２号 Ａ－２号",
    "lat": 26.356408,
    "lng": 127.8184125,
    "tel": "9094954591",
    "url": "",
    "pref": "沖縄県",
    "city": "沖縄市",
    "category": "home_help",
    "serviceType": "訪問介護",
    "capacity": 0,
    "openDays": [
      "平日",
      "土曜日",
      "日曜日",
      "祝日"
    ],
    "openDaysNote": ""
  },
  {
    "id": "4770402628",
    "name": "医療法人安心会　愛聖ヘルパーステーション",
    "kana": "イリョウホウジンアンシンカイ　アイセイヘルパーステーション",
    "address": "沖縄県沖縄市海邦1-16-29102号室 102号室",
    "lat": 26.3287169,
    "lng": 127.834145,
    "tel": "098-937-0659",
    "url": "http://anshinkai,jp",
    "pref": "沖縄県",
    "city": "沖縄市",
    "category": "home_help",
    "serviceType": "訪問介護",
    "capacity": 0,
    "openDays": [
      "平日",
      "土曜日",
      "日曜日",
      "祝日"
    ],
    "openDaysNote": "サービス提供時間、24時間（365日）"
  },
  {
    "id": "4760490187",
    "name": "一般社団法人中部地区医師会　ヘルパーステーション",
    "kana": "イッパンシャダンホウジンチュウブチクイシカイ　ヘルパーステーション",
    "address": "沖縄県沖縄市八重島２丁目１１番１２号",
    "lat": 26.3504754,
    "lng": 127.8049907,
    "tel": "098-921-2434",
    "url": "https://www.chubu-ishikai.or.jp/cma_public/home_healthcare/Default.aspx",
    "pref": "沖縄県",
    "city": "沖縄市",
    "category": "home_help",
    "serviceType": "訪問介護",
    "capacity": null,
    "openDays": [
      "平日"
    ],
    "openDaysNote": ""
  },
  {
    "id": "4770402578",
    "name": "沖縄市松本三丁目19-11",
    "kana": "オキナワシマツモトサンチョウメ19-11",
    "address": "沖縄県沖縄市松本三丁目19-11グリンーンライフ松本三丁目 グリンーンライフ松本三丁目",
    "lat": 26.3561307,
    "lng": 127.8201111,
    "tel": "098-939-6140",
    "url": "https://care-c-3tyoume.com",
    "pref": "沖縄県",
    "city": "沖縄市",
    "category": "home_help",
    "serviceType": "訪問介護",
    "capacity": 0,
    "openDays": [
      "平日",
      "土曜日",
      "日曜日",
      "祝日"
    ],
    "openDaysNote": ""
  },
  {
    "id": "4770400036",
    "name": "介護支援センター中部",
    "kana": "カイゴシエンセンターチュウブ",
    "address": "沖縄県沖縄市室川２丁目７－４９",
    "lat": 26.3378611092613,
    "lng": 127.809158306746,
    "tel": "098-921-0670",
    "url": "http://www.",
    "pref": "沖縄県",
    "city": "沖縄市",
    "category": "home_help",
    "serviceType": "訪問介護",
    "capacity": 60,
    "openDays": [
      "平日",
      "土曜日",
      "日曜日",
      "祝日"
    ],
    "openDaysNote": "転送サービスにより、２４時間電話連絡はとれる状態である。"
  },
  {
    "id": "4770400184",
    "name": "公益社団法人沖縄市シルバー人材センター",
    "kana": "コウエキシャダンホウジンオキナワシシルバージンザイセンター",
    "address": "沖縄県沖縄市美原三丁目1番1号",
    "lat": 26.3473594,
    "lng": 127.8169755,
    "tel": "098-929-1361",
    "url": "http://www.okinawasisi.com",
    "pref": "沖縄県",
    "city": "沖縄市",
    "category": "home_help",
    "serviceType": "訪問介護",
    "capacity": 0,
    "openDays": [
      "平日",
      "土曜日",
      "祝日"
    ],
    "openDaysNote": ""
  },
  {
    "id": "4770402040",
    "name": "中部サンケアネット訪問介護事業所",
    "kana": "チュウブサンケアネットホウモンカイゴジギョウショ",
    "address": "沖縄県沖縄市古謝津嘉山町24番3号原アパート101",
    "lat": 26.3575558,
    "lng": 127.8129209,
    "tel": "098-929-3900、",
    "url": "sun.sun.101@globe.ocn.ne.jp",
    "pref": "沖縄県",
    "city": "沖縄市",
    "category": "home_help",
    "serviceType": "訪問介護",
    "capacity": 0,
    "openDays": [
      "平日",
      "土曜日",
      "日曜日",
      "祝日"
    ],
    "openDaysNote": "台風、地震等の天災が発生し公共機関が運休の場合、サービス提供はお休みさせていただきます。"
  },
  {
    "id": "4750480032",
    "name": "中部徳洲会病院訪問介護事業所",
    "kana": "チュウブトクシュウカイビョウインホウモンカイゴジギョウショ",
    "address": "沖縄県沖縄市胡屋６丁目４番１９号",
    "lat": 26.3268951,
    "lng": 127.8100137,
    "tel": "098-933-3701",
    "url": "",
    "pref": "沖縄県",
    "city": "沖縄市",
    "category": "home_help",
    "serviceType": "訪問介護",
    "capacity": null,
    "openDays": [
      "平日",
      "土曜日",
      "日曜日",
      "祝日"
    ],
    "openDaysNote": ""
  },
  {
    "id": "4770402552",
    "name": "訪問介護　ConnectPLUS",
    "kana": "ホウモンカイゴ　コネクト　プラス",
    "address": "住吉一丁目３番１２号池田店舗・101 池田店舗・101",
    "lat": 35.6880278,
    "lng": 139.8106598,
    "tel": "098-989-6140",
    "url": "http://hp.kaipoke.biz",
    "pref": "沖縄県",
    "city": "沖縄市",
    "category": "home_help",
    "serviceType": "訪問介護",
    "capacity": 0,
    "openDays": [
      "平日",
      "土曜日"
    ],
    "openDaysNote": "土曜日はサービスのみ一部稼働（改行）祝日、年末年始はケアの必要性の高い方は要相談にて一部サービス稼働"
  },
  {
    "id": "4770402974",
    "name": "訪問介護　office　グッピー",
    "kana": "ホウモンカイゴ　オフィス　グッピー",
    "address": "沖縄県沖縄市大里1丁目9番30号",
    "lat": 26.326336,
    "lng": 127.8220932,
    "tel": "098-938-8030",
    "url": "",
    "pref": "沖縄県",
    "city": "沖縄市",
    "category": "home_help",
    "serviceType": "訪問介護",
    "capacity": null,
    "openDays": [
      "平日",
      "土曜日",
      "祝日"
    ],
    "openDaysNote": ""
  },
  {
    "id": "4770401562",
    "name": "訪問介護　えくぼ",
    "kana": "ホウモンカイゴ　エクボ",
    "address": "沖縄市池原五丁目３番２９号",
    "lat": 26.3833252,
    "lng": 127.8310212,
    "tel": "098-923-2581",
    "url": "http://www.oyadogrp.com/",
    "pref": "沖縄県",
    "city": "沖縄市",
    "category": "home_help",
    "serviceType": "訪問介護",
    "capacity": 0,
    "openDays": [
      "平日",
      "土曜日",
      "日曜日",
      "祝日"
    ],
    "openDaysNote": "ｻｰﾋﾞｽ提供日365日（改行）ｻｰﾋﾞｽ提供時間24時間"
  },
  {
    "id": "4770402719",
    "name": "訪問介護あろは　もろみざと",
    "kana": "ホウモンカイゴアロハ　モロミザト",
    "address": "沖縄県沖縄市諸見里3-24-4アリエッタ1F アリエッタ1F",
    "lat": 26.3251681,
    "lng": 127.7928084,
    "tel": "098-989-5136",
    "url": "https://life-design.okinawa/",
    "pref": "沖縄県",
    "city": "沖縄市",
    "category": "home_help",
    "serviceType": "訪問介護",
    "capacity": 100,
    "openDays": [
      "平日",
      "土曜日",
      "日曜日",
      "祝日"
    ],
    "openDaysNote": "サービス提供は24時間365日"
  },
  {
    "id": "4770401687",
    "name": "訪問介護いっしん池原",
    "kana": "ホウモンカイゴイッシンイケハラ",
    "address": "沖縄県沖縄市池原2-7-25",
    "lat": 26.3802255,
    "lng": 127.8245746,
    "tel": "098-929-2030",
    "url": "https://isshin.gr.jp/index.php",
    "pref": "沖縄県",
    "city": "沖縄市",
    "category": "home_help",
    "serviceType": "訪問介護",
    "capacity": 0,
    "openDays": [
      "平日",
      "土曜日",
      "日曜日",
      "祝日"
    ],
    "openDaysNote": ""
  },
  {
    "id": "4770400861",
    "name": "訪問介護カシータPlus",
    "kana": "ホウモンカイゴカシータプラス",
    "address": "沖縄県沖縄市松本一丁目11番1号美里の杜カシータ 美里の杜カシータ",
    "lat": 26.354862582213,
    "lng": 127.814212662427,
    "tel": "098-979-7777",
    "url": "https://tls-lab.com/",
    "pref": "沖縄県",
    "city": "沖縄市",
    "category": "home_help",
    "serviceType": "訪問介護",
    "capacity": 0,
    "openDays": [
      "平日"
    ],
    "openDaysNote": "営業日、営業時間、サービス提供時間のはか、電話等により24時間常時連絡が可能な体勢とする。"
  },
  {
    "id": "4770400465",
    "name": "訪問介護ステーション　ニヘーデービル",
    "kana": "ホウモンカイゴステーション　ニヘーデービル",
    "address": "沖縄県沖縄市大里3丁目12番9号",
    "lat": 26.325907753181,
    "lng": 127.825010323926,
    "tel": "098-989-5670",
    "url": "http://www.arigatou-okinawa.com/",
    "pref": "沖縄県",
    "city": "沖縄市",
    "category": "home_help",
    "serviceType": "訪問介護",
    "capacity": 0,
    "openDays": [
      "平日",
      "土曜日",
      "日曜日",
      "祝日"
    ],
    "openDaysNote": ""
  },
  {
    "id": "4770403055",
    "name": "訪問介護ステーションあみゅ～ず",
    "kana": "ホウモンカイゴステーションアミュ～ズ",
    "address": "海邦2丁目22－15海邦店舗１階左 海邦店舗１階左",
    "lat": 26.332994,
    "lng": 127.837351,
    "tel": "098-989-0600",
    "url": "https://care-station-amuse.com/",
    "pref": "沖縄県",
    "city": "沖縄市",
    "category": "home_help",
    "serviceType": "訪問介護",
    "capacity": 40,
    "openDays": [
      "平日",
      "土曜日",
      "日曜日",
      "祝日"
    ],
    "openDaysNote": "当施設の介護サービスは、利用者様の安心と快適な暮らしを最優先に考え、24時間365日対応しています。これにより、日中はもちろん、夜間や緊急時にも安心してサービスをご利用いただけます。"
  },
  {
    "id": "4770401174",
    "name": "訪問介護事業所　つわぶき",
    "kana": "ホウモンカイゴジギョウショ　ツワブキ",
    "address": "沖縄県沖縄市久保田1丁目10番3号",
    "lat": 26.3220302,
    "lng": 127.793943,
    "tel": "098-932-7898",
    "url": "",
    "pref": "沖縄県",
    "city": "沖縄市",
    "category": "home_help",
    "serviceType": "訪問介護",
    "capacity": 12,
    "openDays": [
      "平日",
      "土曜日",
      "日曜日",
      "祝日"
    ],
    "openDaysNote": "特になし"
  },
  {
    "id": "4770402255",
    "name": "訪問介護事業所　樹",
    "kana": "ホウモンカイゴジギョウショ　イツキ",
    "address": "沖縄県沖縄市大里２丁目６番６号ホーム樹 ホーム樹",
    "lat": 26.3266084,
    "lng": 127.8243373,
    "tel": "098-923-1002",
    "url": "",
    "pref": "沖縄県",
    "city": "沖縄市",
    "category": "home_help",
    "serviceType": "訪問介護",
    "capacity": 0,
    "openDays": [
      "平日",
      "土曜日",
      "日曜日",
      "祝日"
    ],
    "openDaysNote": ""
  },
  {
    "id": "4770401489",
    "name": "訪問介護事業所　心・和",
    "kana": "ホウモンカイゴジギョウショ　シンワ",
    "address": "美里3丁目17番16号",
    "lat": 26.3487753102973,
    "lng": 127.81400210423,
    "tel": "098-921-1127",
    "url": "",
    "pref": "沖縄県",
    "city": "沖縄市",
    "category": "home_help",
    "serviceType": "訪問介護",
    "capacity": 0,
    "openDays": [
      "平日",
      "土曜日",
      "日曜日",
      "祝日"
    ],
    "openDaysNote": "休日：年始休日（1月1日～1月3日）相談に応ず"
  },
  {
    "id": "4770401307",
    "name": "訪問介護事業所あおい",
    "kana": "ホウモンカイゴジギョウショアオイ",
    "address": "沖縄市高原４丁目２４番２５号",
    "lat": 26.321317,
    "lng": 127.8175325,
    "tel": "０９８－９３１－９２２０",
    "url": "",
    "pref": "沖縄県",
    "city": "沖縄市",
    "category": "home_help",
    "serviceType": "訪問介護",
    "capacity": 18,
    "openDays": [
      "平日",
      "土曜日",
      "日曜日",
      "祝日"
    ],
    "openDaysNote": "提供は。年中無休。ただし、台風暴風圏や天災、緊急事故等で介護者の身の危険回避のためお休み。年末年始２日間はお休み。ただし独居で、身寄りなく家族の協力得られない場合や他サービス等で対応出来ずやむ得ない場合は安否確認のため提供。コロナ過の為、従業員利用者安全のため、両方感染、濃厚接触疑いや、不要不急のサービスと判断した場合、提供をお休みする場合あります。"
  },
  {
    "id": "4770402073",
    "name": "訪問介護事業所エルスリー沖縄",
    "kana": "ホウモンカイゴジギョウショエルスリーオキナワ",
    "address": "沖縄県沖縄市高原７丁目１５番14号",
    "lat": 26.3188249578893,
    "lng": 127.823260707935,
    "tel": "098-989-0920",
    "url": "http://yuimaru-home.com/",
    "pref": "沖縄県",
    "city": "沖縄市",
    "category": "home_help",
    "serviceType": "訪問介護",
    "capacity": 40,
    "openDays": [
      "平日",
      "土曜日",
      "日曜日",
      "祝日"
    ],
    "openDaysNote": ""
  },
  {
    "id": "4770402081",
    "name": "訪問介護事業所ちゃーびらさい",
    "kana": "ホウモンカイゴジギョウショチャービラサイ",
    "address": "沖縄県沖縄市美里一丁目28番12号",
    "lat": 26.3426096,
    "lng": 127.8173791,
    "tel": "098-988-7255",
    "url": "https://marru.jp/",
    "pref": "沖縄県",
    "city": "沖縄市",
    "category": "home_help",
    "serviceType": "訪問介護",
    "capacity": null,
    "openDays": [
      "平日",
      "土曜日",
      "日曜日",
      "祝日"
    ],
    "openDaysNote": ""
  },
  {
    "id": "4770403006",
    "name": "訪問介護事業所ペンタスOP",
    "kana": "ホウモンカイゴジギョウショペンタスオーピー",
    "address": "沖縄県沖縄市高原6-2-6",
    "lat": 26.3217305,
    "lng": 127.8287784,
    "tel": "098-955-9147",
    "url": "http://sta-pentas.com/",
    "pref": "沖縄県",
    "city": "沖縄市",
    "category": "home_help",
    "serviceType": "訪問介護",
    "capacity": null,
    "openDays": [
      "平日",
      "土曜日",
      "日曜日",
      "祝日"
    ],
    "openDaysNote": "（看取り等必要に応じて24時間対応可能）"
  },
  {
    "id": "4770402420",
    "name": "訪問介護事業所積善会",
    "kana": "ホウモンカイゴジギョウショセキゼンカイ",
    "address": "沖縄県沖縄市胡屋７丁目１番２号喜屋武アパート１０１号室 喜屋武アパート１０１号室",
    "lat": 26.3248006,
    "lng": 127.8099758,
    "tel": "098-989-3215",
    "url": "",
    "pref": "沖縄県",
    "city": "沖縄市",
    "category": "home_help",
    "serviceType": "訪問介護",
    "capacity": null,
    "openDays": [
      "平日",
      "土曜日",
      "日曜日",
      "祝日"
    ],
    "openDaysNote": "サービス提供は年中無休・２４時間対応"
  },
  {
    "id": "4770402750",
    "name": "訪問介護事業所凪",
    "kana": "ホウモンカイゴジギョウショナギ",
    "address": "沖縄県沖縄市高原七丁目25−9",
    "lat": 26.3189273,
    "lng": 127.8237313,
    "tel": "098−923−4410",
    "url": "https://www.kokorosapoto.com/",
    "pref": "沖縄県",
    "city": "沖縄市",
    "category": "home_help",
    "serviceType": "訪問介護",
    "capacity": 0,
    "openDays": [
      "平日",
      "土曜日",
      "祝日"
    ],
    "openDaysNote": "ご利用者様から希望があればその他時間も対応"
  },
  {
    "id": "4770400028",
    "name": "緑樹苑居宅サービス事業所",
    "kana": "リョクジュエンキョタクサービスジギョウショ",
    "address": "沖縄県沖縄市胡屋7丁目2番10号",
    "lat": 26.3258331,
    "lng": 127.8113829,
    "tel": "098-933-3280",
    "url": "http://www.ryokujukai.or.jp",
    "pref": "沖縄県",
    "city": "沖縄市",
    "category": "home_help",
    "serviceType": "訪問介護",
    "capacity": 0,
    "openDays": [
      "平日",
      "土曜日",
      "日曜日",
      "祝日"
    ],
    "openDaysNote": "24時間対応。但し職員の体制状況により対応をお断りする場合もございます。"
  },
  {
    "id": "4771600022",
    "name": "恩納村社会福祉協議会指定訪問介護事業所",
    "kana": "オンナソンシャカイフクシキョウギカイシテイホウモンカイゴジギョウショ",
    "address": "沖縄県国頭郡恩納村字恩納6302番地恩納村総合保健福祉センター内 恩納村総合保健福祉センター内",
    "lat": 26.4877946,
    "lng": 127.8476523,
    "tel": "098-966-1150",
    "url": "http://www.onna-syakyo.com",
    "pref": "沖縄県",
    "city": "恩納村",
    "category": "home_help",
    "serviceType": "訪問介護",
    "capacity": 0,
    "openDays": [
      "平日",
      "土曜日",
      "日曜日",
      "祝日"
    ],
    "openDaysNote": ""
  },
  {
    "id": "4761190018",
    "name": "訪問介護ステーションうんな",
    "kana": "ホウモンカイゴステーションウンナ",
    "address": "沖縄県国頭郡恩納村字恩納2405番地",
    "lat": 26.4972275694883,
    "lng": 127.851158382874,
    "tel": "098-966-2560",
    "url": "",
    "pref": "沖縄県",
    "city": "恩納村",
    "category": "home_help",
    "serviceType": "訪問介護",
    "capacity": 0,
    "openDays": [
      "平日",
      "土曜日",
      "日曜日",
      "祝日"
    ],
    "openDaysNote": ""
  },
  {
    "id": "4772300119",
    "name": "ヘルパーステーション　サンハート",
    "kana": "ヘルパーステーション　サンハート",
    "address": "沖縄県中頭郡嘉手納町屋良１丁目21-1住宅型有料老人ホーム　サンハート 住宅型有料老人ホーム　サンハート",
    "lat": 26.3647100095181,
    "lng": 127.762616739812,
    "tel": "098-956-8101",
    "url": "http://www.sunheart-kadena.com/",
    "pref": "沖縄県",
    "city": "嘉手納町",
    "category": "home_help",
    "serviceType": "訪問介護",
    "capacity": null,
    "openDays": [
      "平日",
      "土曜日",
      "日曜日",
      "祝日"
    ],
    "openDaysNote": "電話等により、２４時間対応可"
  },
  {
    "id": "4772300135",
    "name": "訪問介護事業所　かたちゅむり",
    "kana": "ホウモンカイゴジギョウショ　カタチュムリ",
    "address": "沖縄県中頭郡嘉手納町字水釜477ハウスナンバー7256 ハウスナンバー7256",
    "lat": 26.3612507,
    "lng": 127.7477779,
    "tel": "098-989-1345",
    "url": "",
    "pref": "沖縄県",
    "city": "嘉手納町",
    "category": "home_help",
    "serviceType": "訪問介護",
    "capacity": 0,
    "openDays": [
      "平日",
      "土曜日",
      "日曜日",
      "祝日"
    ],
    "openDaysNote": "1月1日・旧暦7月15日・災害時（台風）は休みとします。"
  },
  {
    "id": "4771700012",
    "name": "宜野座村訪問介護事業所",
    "kana": "ギノザソンホウモンカイゴジギョウショ",
    "address": "沖縄県国頭郡宜野座村字惣慶１８９８番地宜野座村地域福祉センター内 宜野座村地域福祉センター内",
    "lat": 26.4831725,
    "lng": 127.9716396,
    "tel": "098-923-0770",
    "url": "http://www.ginoza-shakyo.or.jp",
    "pref": "沖縄県",
    "city": "宜野座村",
    "category": "home_help",
    "serviceType": "訪問介護",
    "capacity": 0,
    "openDays": [
      "平日",
      "土曜日",
      "日曜日",
      "祝日"
    ],
    "openDaysNote": "天災やその他やむを得ず業務を遂行できない日を除き毎日とする。"
  },
  {
    "id": "4761190075",
    "name": "訪問介護ステーションかんなの里",
    "kana": "ホウモンカイゴステーションカンナノサト",
    "address": "沖縄県国頭郡宜野座村字惣慶1771-7",
    "lat": 26.4809093223464,
    "lng": 127.970996366915,
    "tel": "098-979-6817",
    "url": "http://okinawa-kanna.or.jp/kannano-sato/",
    "pref": "沖縄県",
    "city": "宜野座村",
    "category": "home_help",
    "serviceType": "訪問介護",
    "capacity": 48,
    "openDays": [
      "平日",
      "土曜日",
      "日曜日",
      "祝日"
    ],
    "openDaysNote": "併設事業所提供時間"
  },
  {
    "id": "4771700061",
    "name": "訪問介護事業所　えがお",
    "kana": "ホウモンカイゴジギョウショ　エガオ",
    "address": "字漢那2287-6上原アパート102号 上原アパート102号",
    "lat": 26.4713048896914,
    "lng": 127.944304347038,
    "tel": "098-968-5682",
    "url": "",
    "pref": "沖縄県",
    "city": "宜野座村",
    "category": "home_help",
    "serviceType": "訪問介護",
    "capacity": 40,
    "openDays": [
      "平日",
      "土曜日",
      "日曜日",
      "祝日"
    ],
    "openDaysNote": "年中無休・24時間（改行）連絡体制：電話等により24時間常時連絡が可能な体制とする。"
  },
  {
    "id": "4770500173",
    "name": "ＰＡＩおきなわ",
    "kana": "ピーエーアイオキナワ",
    "address": "沖縄県宜野湾市伊佐4丁目4番1号",
    "lat": 26.2898591,
    "lng": 127.7530404,
    "tel": "098-890-1895",
    "url": "http://www.pai-okinawa.com/",
    "pref": "沖縄県",
    "city": "宜野湾市",
    "category": "home_help",
    "serviceType": "訪問介護",
    "capacity": null,
    "openDays": [
      "平日",
      "土曜日",
      "日曜日",
      "祝日"
    ],
    "openDaysNote": "訪問介護員は午前０時から午後２４時の２４時間対応でサービスを提供する。"
  },
  {
    "id": "4770500751",
    "name": "ケアーコミュニティ結び",
    "kana": "ケアーコニュニティムスビ",
    "address": "沖縄県宜野湾市宇地泊751-15ライオンズ宜野湾マリンシティ902 ライオンズ宜野湾マリンシティ902",
    "lat": 26.2747267,
    "lng": 127.7309105,
    "tel": "098-870-9155",
    "url": "",
    "pref": "沖縄県",
    "city": "宜野湾市",
    "category": "home_help",
    "serviceType": "訪問介護",
    "capacity": 0,
    "openDays": [
      "平日",
      "土曜日",
      "日曜日",
      "祝日"
    ],
    "openDaysNote": ""
  },
  {
    "id": "4770500801",
    "name": "トータルサポートセンターよつ葉　訪問介護ステーション",
    "kana": "トータルサポートセンターヨツバ　ホウモンカイゴステーション",
    "address": "志真志4-2-2　2F",
    "lat": 26.261646,
    "lng": 127.76072,
    "tel": "098-917-6323",
    "url": "https://www.uera.co.jp/",
    "pref": "沖縄県",
    "city": "宜野湾市",
    "category": "home_help",
    "serviceType": "訪問介護",
    "capacity": null,
    "openDays": [
      "平日",
      "土曜日",
      "日曜日",
      "祝日"
    ],
    "openDaysNote": "24時間連絡が取れる体制で取り組んでおります"
  },
  {
    "id": "4770501114",
    "name": "ニチイケアセンターぎのわん",
    "kana": "ニチイケアセンターギノワン",
    "address": "沖縄県宜野湾市赤道1-4-29コーポ喜屋武Ⅲ105号室 コーポ喜屋武Ⅲ105号室",
    "lat": 26.27319,
    "lng": 127.7711306,
    "tel": "098-896-2010",
    "url": "http://www.nichiigakkan.co.jp",
    "pref": "沖縄県",
    "city": "宜野湾市",
    "category": "home_help",
    "serviceType": "訪問介護",
    "capacity": null,
    "openDays": [
      "平日",
      "土曜日",
      "日曜日",
      "祝日"
    ],
    "openDaysNote": "サービス計画により休業日　及び営業時間外であってもサービス提供する場合もあります。"
  },
  {
    "id": "4770501262",
    "name": "ヘルパーステーションにぎやか",
    "kana": "ヘルパーステーションニギヤカ",
    "address": "沖縄県宜野湾市真栄原1-4-15KNCOURT　105号 KNCOURT　105号",
    "lat": 26.25829,
    "lng": 127.7469689,
    "tel": "098-975-5022",
    "url": "https://hp.kaipoke.biz/xkm/170049/base_0003.html",
    "pref": "沖縄県",
    "city": "宜野湾市",
    "category": "home_help",
    "serviceType": "訪問介護",
    "capacity": 0,
    "openDays": [
      "平日"
    ],
    "openDaysNote": "休日はなし（改行）（但し、天災・その他やむを得ず業務を遂行できない日を除く。12/31～1/3のサービス提供は独居、認知症、家族対応困難な方は相談に応じる。）"
  },
  {
    "id": "4760590028",
    "name": "ヘルパーステーションはごろも",
    "kana": "ヘルパーステーションハゴロモ",
    "address": "沖縄県宜野湾市野嵩1丁目11番14号",
    "lat": 26.2804767,
    "lng": 127.7801534,
    "tel": "098-892-2708",
    "url": "",
    "pref": "沖縄県",
    "city": "宜野湾市",
    "category": "home_help",
    "serviceType": "訪問介護",
    "capacity": null,
    "openDays": [
      "平日",
      "土曜日",
      "日曜日",
      "祝日"
    ],
    "openDaysNote": "事前の申し込みにより、夜間・休日に訪問できる。"
  },
  {
    "id": "4770500793",
    "name": "ヘルパーステーションプルメリア",
    "kana": "ヘルパーステーションプルメリア",
    "address": "大山５－３－１",
    "lat": 26.2794415,
    "lng": 127.7475451,
    "tel": "０９８－８９０－７７００",
    "url": "",
    "pref": "沖縄県",
    "city": "宜野湾市",
    "category": "home_help",
    "serviceType": "訪問介護",
    "capacity": 0,
    "openDays": [
      "平日",
      "土曜日",
      "日曜日",
      "祝日"
    ],
    "openDaysNote": ""
  },
  {
    "id": "4770501098",
    "name": "ヘルパーステーションむげん",
    "kana": "ヘルパーステーション　ムゲン",
    "address": "沖縄県宜野湾市嘉数3-28-7",
    "lat": 26.2584867681651,
    "lng": 127.732984836181,
    "tel": "098-943-6320",
    "url": "",
    "pref": "沖縄県",
    "city": "宜野湾市",
    "category": "home_help",
    "serviceType": "訪問介護",
    "capacity": 0,
    "openDays": [
      "平日",
      "土曜日",
      "日曜日",
      "祝日"
    ],
    "openDaysNote": ""
  },
  {
    "id": "4770501197",
    "name": "ヘルパーステーション逢華晴",
    "kana": "ヘルパーステーションアゲハ",
    "address": "沖縄県宜野湾市志真志３丁目７番１２号ハッピーライフイン１１０号 ハッピーライフイン１１０号",
    "lat": 26.2560069,
    "lng": 127.7626084,
    "tel": "098-870-9887",
    "url": "hana10702@gmail.com",
    "pref": "沖縄県",
    "city": "宜野湾市",
    "category": "home_help",
    "serviceType": "訪問介護",
    "capacity": 25,
    "openDays": [
      "平日",
      "土曜日",
      "日曜日",
      "祝日"
    ],
    "openDaysNote": "事業所は２４時間体制としておりますが、必要とする時間帯に訪問ヘルパーの空きのない場合もあります。"
  },
  {
    "id": "4770501239",
    "name": "ヘルパーステーション子ぶた",
    "kana": "ヘルパーステーションコブタ",
    "address": "沖縄県宜野湾市我如古4-3-7グッピーハウス201号室 グッピーハウス201号室",
    "lat": 26.2566709,
    "lng": 127.7514133,
    "tel": "080-6481-0094",
    "url": "",
    "pref": "沖縄県",
    "city": "宜野湾市",
    "category": "home_help",
    "serviceType": "訪問介護",
    "capacity": null,
    "openDays": [
      "平日",
      "土曜日",
      "日曜日",
      "祝日"
    ],
    "openDaysNote": "天災・その他やむを得ず業務を遂行できない日を除く。（改行）1/1～1/2のサービス提供は独居、認知症、家族対応困難な方に限る。"
  },
  {
    "id": "4770501254",
    "name": "リハケア訪問介護ステーションぎのわん",
    "kana": "リハケアホウモンカイゴステーションギノワン",
    "address": "沖縄県宜野湾市志真志3‐7‐12ハッピーライフイン208 ハッピーライフイン208",
    "lat": 26.2560077,
    "lng": 127.7626104,
    "tel": "080‐8363‐5743",
    "url": "",
    "pref": "沖縄県",
    "city": "宜野湾市",
    "category": "home_help",
    "serviceType": "訪問介護",
    "capacity": null,
    "openDays": [
      "平日",
      "土曜日",
      "祝日"
    ],
    "openDaysNote": "サービス提供日・時間外であっても相談可能である。（改行）12月30日から1月3日要相談。"
  },
  {
    "id": "4770500017",
    "name": "在宅介護サービス　きずな",
    "kana": "ザイタクカイゴサービス　キズナ",
    "address": "沖縄県宜野湾市普天間２丁目３１番７号",
    "lat": 26.2899744,
    "lng": 127.7730705,
    "tel": "098-896-1165",
    "url": "",
    "pref": "沖縄県",
    "city": "宜野湾市",
    "category": "home_help",
    "serviceType": "訪問介護",
    "capacity": 0,
    "openDays": [
      "平日",
      "土曜日",
      "日曜日",
      "祝日"
    ],
    "openDaysNote": "相談により援助時間外利用の調整可"
  },
  {
    "id": "4770501155",
    "name": "訪問介護ＴＲＥＥ宜野湾",
    "kana": "ホウモンカイゴツリーギノワン",
    "address": "沖縄県宜野湾市大謝名90-3Link58302号室 Link58302号室",
    "lat": 26.2688807,
    "lng": 127.7324196,
    "tel": "098-898-7280",
    "url": "http://www.treeokinawa.com",
    "pref": "沖縄県",
    "city": "宜野湾市",
    "category": "home_help",
    "serviceType": "訪問介護",
    "capacity": 60,
    "openDays": [
      "平日",
      "土曜日",
      "日曜日",
      "祝日"
    ],
    "openDaysNote": ""
  },
  {
    "id": "4770501148",
    "name": "訪問介護あろは　うちどまり",
    "kana": "ホウモンカイゴアロハウチドマリ",
    "address": "沖縄県宜野湾市宇地泊505松門氏店舗１０２ 松門氏店舗１０２",
    "lat": 26.2694436,
    "lng": 127.7279415,
    "tel": "989171662",
    "url": "https://life-design.okinawa/",
    "pref": "沖縄県",
    "city": "宜野湾市",
    "category": "home_help",
    "serviceType": "訪問介護",
    "capacity": 200,
    "openDays": [],
    "openDaysNote": "24時間365日対応"
  },
  {
    "id": "4770501049",
    "name": "訪問介護あろはぎのわん",
    "kana": "ホウモンカイゴアロハギノワン",
    "address": "沖縄県宜野湾市上原2-1-8",
    "lat": 26.2748364689064,
    "lng": 127.774777823106,
    "tel": "098-894-9881",
    "url": "http://aloha-kaigo.net",
    "pref": "沖縄県",
    "city": "宜野湾市",
    "category": "home_help",
    "serviceType": "訪問介護",
    "capacity": 150,
    "openDays": [
      "平日",
      "土曜日",
      "日曜日",
      "祝日"
    ],
    "openDaysNote": "サービス提供は24時間365日"
  },
  {
    "id": "4760590002",
    "name": "訪問介護ステーションかいほう",
    "kana": "ホウモンカイゴステーション　カイホウ",
    "address": "沖縄県宜野湾市真志喜2丁目22番2号",
    "lat": 26.2766722,
    "lng": 127.7375903,
    "tel": "098-942-8263",
    "url": "https://www.kaiho.or.jp/riha/houmonkaigo.html",
    "pref": "沖縄県",
    "city": "宜野湾市",
    "category": "home_help",
    "serviceType": "訪問介護",
    "capacity": 0,
    "openDays": [
      "平日",
      "土曜日",
      "日曜日",
      "祝日"
    ],
    "openDaysNote": ""
  },
  {
    "id": "4770500702",
    "name": "訪問介護ステーションふれあい",
    "kana": "ホウモンカイゴステーションフレアイ",
    "address": "沖縄県宜野湾市字我如古402番地",
    "lat": 26.2602927710251,
    "lng": 127.746622171751,
    "tel": "098-897-4990",
    "url": "http://fureai-kaigo.com",
    "pref": "沖縄県",
    "city": "宜野湾市",
    "category": "home_help",
    "serviceType": "訪問介護",
    "capacity": 0,
    "openDays": [
      "平日",
      "土曜日",
      "祝日"
    ],
    "openDaysNote": "利用可能時間は設定しているが、ヘルパー派遣は相談に応じて可能ならば行う。"
  },
  {
    "id": "4770500926",
    "name": "訪問介護センター彩風の杜",
    "kana": "ホウモンカイゴセンターアヤカゼノモリ",
    "address": "沖縄県宜野湾市上原１丁目8番５号1F",
    "lat": 26.2789142,
    "lng": 127.7782011,
    "tel": "098-896-1103",
    "url": "https://www.okichuen.jp/",
    "pref": "沖縄県",
    "city": "宜野湾市",
    "category": "home_help",
    "serviceType": "訪問介護",
    "capacity": 0,
    "openDays": [
      "平日",
      "土曜日",
      "日曜日",
      "祝日"
    ],
    "openDaysNote": ""
  },
  {
    "id": "4770501247",
    "name": "訪問介護トータルサポート",
    "kana": "ホウモンカイゴトータルサポート",
    "address": "沖縄県宜野湾市野嵩１－１０－１１浩陽野嵩アパート201号室 浩陽野嵩アパート201号室",
    "lat": 26.2803224,
    "lng": 127.7806615,
    "tel": "098-917-4902",
    "url": "https://fujikaigo-agrearms.webagre.com/",
    "pref": "沖縄県",
    "city": "宜野湾市",
    "category": "home_help",
    "serviceType": "訪問介護",
    "capacity": 20250204,
    "openDays": [
      "平日",
      "土曜日",
      "日曜日",
      "祝日"
    ],
    "openDaysNote": "※年末年始　12/30～1/3　及び　夏季休暇　8/13～8/15　は、原則休暇となりますが、身体介護を必要とされるご利用者様へのサービス提供はご相談させていただきます。（改行）※終末期対応時、夜間対応ご相談可能。"
  },
  {
    "id": "4770500041",
    "name": "訪問介護事業所愛誠園",
    "kana": "ホウモンカイゴジギョウショアイセイエン",
    "address": "沖縄県宜野湾市伊佐3丁目26番8号",
    "lat": 26.2920634945596,
    "lng": 127.757828936029,
    "tel": "098-943-1080",
    "url": "aiseien-okinawa.com",
    "pref": "沖縄県",
    "city": "宜野湾市",
    "category": "home_help",
    "serviceType": "訪問介護",
    "capacity": 0,
    "openDays": [
      "平日",
      "土曜日",
      "日曜日",
      "祝日"
    ],
    "openDaysNote": "年中無休"
  },
  {
    "id": "4770501163",
    "name": "訪問介護事業所愛誠園",
    "kana": "ホウモンカイゴジギョウショアイセイエン",
    "address": "沖縄県宜野湾市伊佐3丁目9番－19号高齢者住宅「あやなすの杜」２階 高齢者住宅「あやなすの杜」２階",
    "lat": 26.2906869,
    "lng": 127.755199,
    "tel": "098-943-1080",
    "url": "aiseien-okinawa.com",
    "pref": "沖縄県",
    "city": "宜野湾市",
    "category": "home_help",
    "serviceType": "訪問介護",
    "capacity": 0,
    "openDays": [],
    "openDaysNote": "年中無休で対応は可能。（状況に応じて調整可）"
  },
  {
    "id": "4773800018",
    "name": "ヘルパーステーションわかみず",
    "kana": "ヘルパーステーションワカミズ",
    "address": "沖縄県島尻久米島町字仲泊５８７番地",
    "lat": 26.3473805,
    "lng": 126.7468954,
    "tel": "098-896-7188",
    "url": "https://www.kume-syakyo.com/",
    "pref": "沖縄県",
    "city": "久米島町",
    "category": "home_help",
    "serviceType": "訪問介護",
    "capacity": 0,
    "openDays": [
      "平日",
      "土曜日",
      "日曜日",
      "祝日"
    ],
    "openDaysNote": ""
  },
  {
    "id": "4775800040",
    "name": "ヘルパーホーム　家福みー家",
    "kana": "ヘルパーホーム　イーフミーヤ",
    "address": "沖縄県島尻郡久米島町比嘉160-73",
    "lat": 26.3293532076135,
    "lng": 126.806721004863,
    "tel": "098-985-7715",
    "url": "",
    "pref": "沖縄県",
    "city": "久米島町",
    "category": "home_help",
    "serviceType": "訪問介護",
    "capacity": 0,
    "openDays": [
      "平日",
      "土曜日",
      "日曜日",
      "祝日"
    ],
    "openDaysNote": ""
  },
  {
    "id": "4775800073",
    "name": "一般社団法人　福志士会",
    "kana": "イッパンシャダンホウジン　フクシシカイ",
    "address": "沖縄県島尻郡久米島町真我里599番地",
    "lat": 26.3322385,
    "lng": 126.794795,
    "tel": "098-985-7770",
    "url": "",
    "pref": "沖縄県",
    "city": "久米島町",
    "category": "home_help",
    "serviceType": "訪問介護",
    "capacity": 0,
    "openDays": [
      "平日",
      "土曜日",
      "日曜日",
      "祝日"
    ],
    "openDaysNote": ""
  },
  {
    "id": "4775500590",
    "name": "あい支援センター",
    "kana": "アイシエンセンター",
    "address": "沖縄県宮古島市平良字久貝865番地4",
    "lat": 24.7975213852082,
    "lng": 125.274653185896,
    "tel": "0980-73-5400",
    "url": "",
    "pref": "沖縄県",
    "city": "宮古島市",
    "category": "home_help",
    "serviceType": "訪問介護",
    "capacity": 0,
    "openDays": [
      "平日",
      "土曜日",
      "祝日"
    ],
    "openDaysNote": "早朝・夜間のサービスは相談に応じる。"
  },
  {
    "id": "4775500368",
    "name": "ケアサービスえがお訪問介護事業所",
    "kana": "ケアサービスエガオホウモンカイゴジギョウショ",
    "address": "宮古島市伊良部字佐和田１５３９番地",
    "lat": 24.84035,
    "lng": 125.1623333,
    "tel": "0980-78-5123",
    "url": "",
    "pref": "沖縄県",
    "city": "宮古島市",
    "category": "home_help",
    "serviceType": "訪問介護",
    "capacity": 0,
    "openDays": [],
    "openDaysNote": ""
  },
  {
    "id": "4775500061",
    "name": "ケアセンターうるまじま",
    "kana": "ケアセンターウルマジマ",
    "address": "沖縄県宮古島市平良字西仲宗根520-3　1階北",
    "lat": 24.8093370259324,
    "lng": 125.290868057569,
    "tel": "0980-75-0610",
    "url": "",
    "pref": "沖縄県",
    "city": "宮古島市",
    "category": "home_help",
    "serviceType": "訪問介護",
    "capacity": 120,
    "openDays": [
      "平日",
      "土曜日",
      "日曜日",
      "祝日"
    ],
    "openDaysNote": ""
  },
  {
    "id": "4775500806",
    "name": "ささ・エール訪問介護事業所",
    "kana": "ササ・エールホウモンカイゴジギョウ",
    "address": "平良字東仲宗根899-13",
    "lat": 24.8011741,
    "lng": 125.2978796,
    "tel": "0980-72-0326",
    "url": "",
    "pref": "沖縄県",
    "city": "宮古島市",
    "category": "home_help",
    "serviceType": "訪問介護",
    "capacity": 10,
    "openDays": [
      "平日",
      "土曜日",
      "日曜日",
      "祝日"
    ],
    "openDaysNote": ""
  },
  {
    "id": "4775500392",
    "name": "さらはま　ヘルパーステーション",
    "kana": "サラハマ　ヘルパーステーション",
    "address": "宮古島市伊良部字前里添４６７番地ー１",
    "lat": 24.8429979,
    "lng": 125.209177,
    "tel": "０９８０－７４－５６６０",
    "url": "",
    "pref": "沖縄県",
    "city": "宮古島市",
    "category": "home_help",
    "serviceType": "訪問介護",
    "capacity": 0,
    "openDays": [
      "平日",
      "土曜日",
      "日曜日",
      "祝日"
    ],
    "openDaysNote": ""
  },
  {
    "id": "4775000047",
    "name": "すこやかヘルパーステーション",
    "kana": "スコヤカヘルパーステーション",
    "address": "沖縄県宮古島市伊良部字長浜217",
    "lat": 24.8393955565166,
    "lng": 125.164410402228,
    "tel": "0980-78-6133",
    "url": "http://care-net.biz/47/sukoyaka/",
    "pref": "沖縄県",
    "city": "宮古島市",
    "category": "home_help",
    "serviceType": "訪問介護",
    "capacity": 0,
    "openDays": [
      "平日",
      "土曜日",
      "日曜日",
      "祝日"
    ],
    "openDaysNote": "緊急時は上記以外でも対応は可能（改行）暴風警報発令時は休み"
  },
  {
    "id": "4775500814",
    "name": "スタイルケアサービス",
    "kana": "スタイルケアサービス",
    "address": "沖縄県宮古島市平良字下里216-１サザンハイツアグニⅢ201 サザンハイツアグニⅢ201",
    "lat": 24.8027439,
    "lng": 125.2729978,
    "tel": "0980-79-6678",
    "url": "https://www.style-care.jp/",
    "pref": "沖縄県",
    "city": "宮古島市",
    "category": "home_help",
    "serviceType": "訪問介護",
    "capacity": 0,
    "openDays": [
      "平日"
    ],
    "openDaysNote": ""
  },
  {
    "id": "4770600080",
    "name": "にこにこヘルパー",
    "kana": "ニコニコヘルパー",
    "address": "沖縄県宮古島市平良字東仲宗根２１７番地",
    "lat": 24.8053263,
    "lng": 125.2854871,
    "tel": "0980-72-0840",
    "url": "http://www.",
    "pref": "沖縄県",
    "city": "宮古島市",
    "category": "home_help",
    "serviceType": "訪問介護",
    "capacity": 0,
    "openDays": [
      "平日",
      "土曜日",
      "日曜日",
      "祝日"
    ],
    "openDaysNote": ""
  },
  {
    "id": "4775500103",
    "name": "ヘルパーステーション　あかり",
    "kana": "ヘルパーステーション　アカリ",
    "address": "沖縄県宮古島市平良字松原２８２番地３",
    "lat": 24.7873551,
    "lng": 125.2659164,
    "tel": "0980-74-2222",
    "url": "http://www.",
    "pref": "沖縄県",
    "city": "宮古島市",
    "category": "home_help",
    "serviceType": "訪問介護",
    "capacity": 0,
    "openDays": [
      "平日",
      "土曜日",
      "日曜日",
      "祝日"
    ],
    "openDaysNote": "２４時間営業にて夜間は電話対応可能となっている。"
  },
  {
    "id": "4775500129",
    "name": "ヘルパーステーションみつば",
    "kana": "ヘルパーステーションミツバ",
    "address": "沖縄県宮古島市平良字下里1035番地4-A",
    "lat": 24.7927193308266,
    "lng": 125.281120159525,
    "tel": "0980-75-3043",
    "url": "http://www1a.biglobe.ne.jp/mituba/index.html",
    "pref": "沖縄県",
    "city": "宮古島市",
    "category": "home_help",
    "serviceType": "訪問介護",
    "capacity": 0,
    "openDays": [
      "平日",
      "土曜日",
      "日曜日",
      "祝日"
    ],
    "openDaysNote": ""
  },
  {
    "id": "4775500178",
    "name": "ヘルパーステーション花",
    "kana": "ヘルパーステーションハナ",
    "address": "沖縄県宮古島市平良字西里984-3平良マンション102",
    "lat": 24.7984139794724,
    "lng": 125.290943049246,
    "tel": "0980-79-0587",
    "url": "",
    "pref": "沖縄県",
    "city": "宮古島市",
    "category": "home_help",
    "serviceType": "訪問介護",
    "capacity": 0,
    "openDays": [
      "平日",
      "土曜日",
      "日曜日",
      "祝日"
    ],
    "openDaysNote": ""
  },
  {
    "id": "4775500525",
    "name": "ヘルパーステーション心音",
    "kana": "ヘルパーステーションココネ",
    "address": "沖縄県宮古島市平良字西原３３３番地",
    "lat": 24.8316707,
    "lng": 125.2958409,
    "tel": "0980-75-6331",
    "url": "",
    "pref": "沖縄県",
    "city": "宮古島市",
    "category": "home_help",
    "serviceType": "訪問介護",
    "capacity": 0,
    "openDays": [
      "平日",
      "土曜日",
      "日曜日",
      "祝日"
    ],
    "openDaysNote": "休日はなし（但し、12月31日～1月3日の営業は独居、認知症、家族対応型困難な方に限る）"
  },
  {
    "id": "4775500418",
    "name": "ヘルパステーションみらい",
    "kana": "ヘルパーステーションミライ",
    "address": "沖縄県宮古島市平良字下里1355番地2",
    "lat": 24.7876253,
    "lng": 125.2900618,
    "tel": "0980-72-3739",
    "url": "",
    "pref": "沖縄県",
    "city": "宮古島市",
    "category": "home_help",
    "serviceType": "訪問介護",
    "capacity": 0,
    "openDays": [
      "平日",
      "土曜日",
      "日曜日",
      "祝日"
    ],
    "openDaysNote": "随時対応。24時間対応"
  },
  {
    "id": "4770600148",
    "name": "ホームケアサービス訪問介護事業所",
    "kana": "ホームケアサービスホウモンカイゴジギョウショ",
    "address": "沖縄県宮古島市平良字下里1248番地の10",
    "lat": 24.7930108,
    "lng": 125.288298,
    "tel": "0980-75-0677",
    "url": "",
    "pref": "沖縄県",
    "city": "宮古島市",
    "category": "home_help",
    "serviceType": "訪問介護",
    "capacity": 10,
    "openDays": [
      "平日",
      "土曜日",
      "日曜日",
      "祝日"
    ],
    "openDaysNote": "平常の時間帯（午前８時から午後６時）以外の時間帯のサービスを行なう場合は割増料金が加算されます。夜間（午後６時から午後１０時まで）：25％早朝（午前６時から午前８時まで）：25％深夜（午後１０時から午前６時まで）：50％"
  },
  {
    "id": "4775500681",
    "name": "らいくゆー訪問介護事業所",
    "kana": "ライクユーホウモンカイゴジギョウショ",
    "address": "沖縄県宮古島市城辺福里567番地6",
    "lat": 24.7575873939076,
    "lng": 125.385411440662,
    "tel": "0980-79-9235",
    "url": "https://likeyou-kango-kaigo.com/",
    "pref": "沖縄県",
    "city": "宮古島市",
    "category": "home_help",
    "serviceType": "訪問介護",
    "capacity": 0,
    "openDays": [
      "平日",
      "土曜日",
      "日曜日",
      "祝日"
    ],
    "openDaysNote": ""
  },
  {
    "id": "4775500095",
    "name": "株式会社介護保険事業所わが家",
    "kana": "カブシキガイシャカイゴホケンジギョウショワガヤ",
    "address": "沖縄県宮古島市城辺字比嘉1050-6",
    "lat": 24.7592115,
    "lng": 125.383612,
    "tel": "0980-74-4447",
    "url": "",
    "pref": "沖縄県",
    "city": "宮古島市",
    "category": "home_help",
    "serviceType": "訪問介護",
    "capacity": 0,
    "openDays": [
      "平日",
      "土曜日",
      "日曜日",
      "祝日"
    ],
    "openDaysNote": ""
  },
  {
    "id": "4775500111",
    "name": "宮古ケアセンター",
    "kana": "ミヤコケアセンター",
    "address": "沖縄県宮古島市平良字下里1153-3OKマンション103 OKマンション103",
    "lat": 24.7957161,
    "lng": 125.2866732,
    "tel": "0980-74-1160",
    "url": "https://www.carenet.okinawa/",
    "pref": "沖縄県",
    "city": "宮古島市",
    "category": "home_help",
    "serviceType": "訪問介護",
    "capacity": 0,
    "openDays": [
      "平日",
      "土曜日",
      "日曜日",
      "祝日"
    ],
    "openDaysNote": "ヘルパー訪問に関しては２４時間、３６５日訪問対応可能"
  },
  {
    "id": "4775500574",
    "name": "宮古厚生園指定訪問介護事業所",
    "kana": "ミヤココウセイエンシテイホウモンカイゴジギョウショ",
    "address": "沖縄県宮古島市平良字東仲宗根742番地2オアシティ丸三　西1F オアシティ丸三　西1F",
    "lat": 24.8055904,
    "lng": 125.2937918,
    "tel": "0980-79-5522",
    "url": "https://www.okinawa-j.jp/",
    "pref": "沖縄県",
    "city": "宮古島市",
    "category": "home_help",
    "serviceType": "訪問介護",
    "capacity": 0,
    "openDays": [
      "平日",
      "土曜日",
      "日曜日",
      "祝日"
    ],
    "openDaysNote": ""
  },
  {
    "id": "4774800041",
    "name": "宮古島市社協指定訪問介護事業所しゃきょう",
    "kana": "ミヤコジマシシャキョウシテイホウモンカイゴジギョウショシャキョウ",
    "address": "沖縄県宮古島市上野字新里420番地2宮古島市上野老人福祉センター 宮古島市上野老人福祉センター",
    "lat": 24.7410181964563,
    "lng": 125.32805565976,
    "tel": "0980-76-2540",
    "url": "http://www.miyashakyo.jp/",
    "pref": "沖縄県",
    "city": "宮古島市",
    "category": "home_help",
    "serviceType": "訪問介護",
    "capacity": 0,
    "openDays": [
      "平日",
      "土曜日",
      "日曜日",
      "祝日"
    ],
    "openDaysNote": "毎日０時~24時までとする"
  },
  {
    "id": "4710610918",
    "name": "宮古島徳洲会　訪問介護事業所",
    "kana": "ミヤコジマトクシュウカイ　ホウモンカイゴジギョウショ",
    "address": "沖縄県宮古島市平良字松原552-1",
    "lat": 24.788811,
    "lng": 125.2793626,
    "tel": "0980-73-1100",
    "url": "http://www.miyatoku.jp",
    "pref": "沖縄県",
    "city": "宮古島市",
    "category": "home_help",
    "serviceType": "訪問介護",
    "capacity": 0,
    "openDays": [
      "平日",
      "土曜日",
      "日曜日",
      "祝日"
    ],
    "openDaysNote": "年末年始は本人、ご家族と相談の上サービスを行う事も可能。（改行）台風接近時の暴風警報発令時は安全確保の為サービス提供はお休みとし、日時の変更等で対応します。"
  },
  {
    "id": "4775500145",
    "name": "指定訪問介護事業所　つむかぎ",
    "kana": "シテイホウモンカイゴジギョウショ　ツムカギ",
    "address": "沖縄県宮古島市平良字西里709-1（１０６号）",
    "lat": 24.7975358,
    "lng": 125.2883533,
    "tel": "0980-72-9788",
    "url": "https://tsumukagi.com/",
    "pref": "沖縄県",
    "city": "宮古島市",
    "category": "home_help",
    "serviceType": "訪問介護",
    "capacity": 3,
    "openDays": [
      "平日",
      "土曜日",
      "日曜日",
      "祝日"
    ],
    "openDaysNote": "天災・その他やむを得ずにサービス提供が行えない日を除き毎日とする。原則として午前８時から午後６時迄とする。但し、利用者の要望に応じ相談の上時間延長も出来る事とする。"
  },
  {
    "id": "4775500434",
    "name": "指定訪問介護事業所ケイコ",
    "kana": "シテイホウモンカイゴジギョウショケイコ",
    "address": "沖縄県宮古島市城辺字福里５６２番地１",
    "lat": 24.758645,
    "lng": 125.3845397,
    "tel": "０９８０－７７－８８８０",
    "url": "",
    "pref": "沖縄県",
    "city": "宮古島市",
    "category": "home_help",
    "serviceType": "訪問介護",
    "capacity": 0,
    "openDays": [
      "平日",
      "土曜日",
      "日曜日",
      "祝日"
    ],
    "openDaysNote": "３６５日　　０時～２４時"
  },
  {
    "id": "4775500673",
    "name": "訪問介護　ハピネス",
    "kana": "ホウモンカイゴ　ハピネス",
    "address": "沖縄県宮古島市平良字東仲宗根3431階北側 1階北側",
    "lat": 24.8065589,
    "lng": 125.2861029,
    "tel": "0980-79-5597",
    "url": "",
    "pref": "沖縄県",
    "city": "宮古島市",
    "category": "home_help",
    "serviceType": "訪問介護",
    "capacity": 0,
    "openDays": [
      "平日",
      "土曜日",
      "日曜日",
      "祝日"
    ],
    "openDaysNote": ""
  },
  {
    "id": "4775500137",
    "name": "訪問介護　ひなた",
    "kana": "ホウモンカイゴ　ヒナタ",
    "address": "沖縄県宮古島市平良字西里３９６番地　１F南",
    "lat": 24.8039938718042,
    "lng": 125.283902356422,
    "tel": "0980-72-7007",
    "url": "",
    "pref": "沖縄県",
    "city": "宮古島市",
    "category": "home_help",
    "serviceType": "訪問介護",
    "capacity": 0,
    "openDays": [
      "平日",
      "土曜日",
      "日曜日",
      "祝日"
    ],
    "openDaysNote": "訪問介護を利用できる時間については利用者の要望に基づき早朝・夜間・深夜２４時間の対応を行うことが可能です。（改行）台風等の気象警報発令時は休日とする。"
  },
  {
    "id": "4775500038",
    "name": "訪問介護　ゆいまーる",
    "kana": "ホウモンカイゴ　ユイマール",
    "address": "沖縄県宮古島市平良字西里978番地２",
    "lat": 24.7983049,
    "lng": 125.2917505,
    "tel": "0980-73-5838",
    "url": "",
    "pref": "沖縄県",
    "city": "宮古島市",
    "category": "home_help",
    "serviceType": "訪問介護",
    "capacity": 0,
    "openDays": [
      "平日",
      "土曜日",
      "日曜日",
      "祝日"
    ],
    "openDaysNote": "利用者の要望に基づき、早朝、夜間、深夜、休日の対応を行う。"
  },
  {
    "id": "4775500830",
    "name": "訪問介護369",
    "kana": "ホウモンカイゴミロク",
    "address": "宮古島市平良字西里505-6メゾン富永１階 メゾン富永１階",
    "lat": 24.8002072,
    "lng": 125.2856605,
    "tel": "0980-79-6963",
    "url": "369norimi@gmail.com",
    "pref": "沖縄県",
    "city": "宮古島市",
    "category": "home_help",
    "serviceType": "訪問介護",
    "capacity": 0,
    "openDays": [
      "平日",
      "土曜日",
      "日曜日",
      "祝日"
    ],
    "openDaysNote": ""
  },
  {
    "id": "4770600023",
    "name": "訪問介護ステーション　らいふもあ",
    "kana": "ホウモンカイゴステーション　ライフモア",
    "address": "沖縄県宮古島市平良字東仲宗根895-1",
    "lat": 24.8012687,
    "lng": 125.2966027,
    "tel": "0980-72-8677",
    "url": "https://smile-miyako.com/",
    "pref": "沖縄県",
    "city": "宮古島市",
    "category": "home_help",
    "serviceType": "訪問介護",
    "capacity": 0,
    "openDays": [
      "平日",
      "土曜日",
      "日曜日",
      "祝日"
    ],
    "openDaysNote": ""
  },
  {
    "id": "4775500053",
    "name": "訪問介護みのり",
    "kana": "ホウモンカイゴミノリ",
    "address": "沖縄県宮古島市伊良部字池間添723番地60",
    "lat": 24.8382205,
    "lng": 125.2087603,
    "tel": "0980-74-5411",
    "url": "minori@miyako-ma.jp",
    "pref": "沖縄県",
    "city": "宮古島市",
    "category": "home_help",
    "serviceType": "訪問介護",
    "capacity": 0,
    "openDays": [
      "平日",
      "土曜日",
      "日曜日",
      "祝日"
    ],
    "openDaysNote": ""
  },
  {
    "id": "4770600098",
    "name": "訪問介護事業所　ケアセンターたんぽぽ",
    "kana": "ホウモンカイゴジギョウショ　ケアセンタータンポポ",
    "address": "沖縄県宮古島市平良字西仲宗根５６８番地１３　ライフマンション１０３ライフマンション１０３ ライフマンション１０３",
    "lat": 24.8104248915827,
    "lng": 125.295044352644,
    "tel": "0980-74-2190",
    "url": "http://wwwtanpopoz@abelia.ocn.ne.jp",
    "pref": "沖縄県",
    "city": "宮古島市",
    "category": "home_help",
    "serviceType": "訪問介護",
    "capacity": 0,
    "openDays": [
      "平日",
      "土曜日",
      "日曜日",
      "祝日"
    ],
    "openDaysNote": "年中無休"
  },
  {
    "id": "4775500343",
    "name": "訪問介護事業所　結心",
    "kana": "ホウモンカイゴジギョウショ　ユウシン",
    "address": "平良字西里１０９０－１２",
    "lat": 24.7908918,
    "lng": 125.2953001,
    "tel": "0980-75-5527",
    "url": "",
    "pref": "沖縄県",
    "city": "宮古島市",
    "category": "home_help",
    "serviceType": "訪問介護",
    "capacity": 31,
    "openDays": [
      "平日",
      "土曜日",
      "日曜日",
      "祝日"
    ],
    "openDaysNote": "年中無休で２４時間体制"
  },
  {
    "id": "4775500269",
    "name": "訪問介護事業所いこい",
    "kana": "ホウモンカイゴジギョウショイコイ",
    "address": "沖縄県宮古島市平良字前里２３６番地",
    "lat": 24.9251594724365,
    "lng": 125.242253887137,
    "tel": "0980-75-2300",
    "url": "",
    "pref": "沖縄県",
    "city": "宮古島市",
    "category": "home_help",
    "serviceType": "訪問介護",
    "capacity": 35,
    "openDays": [
      "平日",
      "土曜日",
      "日曜日",
      "祝日"
    ],
    "openDaysNote": "上記以外のサービス提供時間のご利用については、ご相談に応じます。"
  },
  {
    "id": "4775500459",
    "name": "訪問介護事業所きら。きら",
    "kana": "ホウモンカイゴジギョウショキラ・キラ",
    "address": "沖縄県宮古島市平良字東仲宗根43－1番地",
    "lat": 24.806876,
    "lng": 125.2825596,
    "tel": "0980－79－5090",
    "url": "",
    "pref": "沖縄県",
    "city": "宮古島市",
    "category": "home_help",
    "serviceType": "訪問介護",
    "capacity": 0,
    "openDays": [
      "平日",
      "土曜日",
      "日曜日",
      "祝日"
    ],
    "openDaysNote": "サービス提供時間　365日　24時間とする。（改行）上記の営業日、営業時間、サービス提供時間のほか、電話等により24時間常時連絡が可能な体制とする。"
  },
  {
    "id": "4760690109",
    "name": "訪問介護事業所サンライズ",
    "kana": "ホウモンカイゴジギョウショ　サンライズ",
    "address": "沖縄県宮古島市平良字下里1541番地2サンヒルズオオハマⅡ101号室 サンヒルズオオハマⅡ101号室",
    "lat": 24.7910103,
    "lng": 125.2831968,
    "tel": "0980-72-3556",
    "url": "",
    "pref": "沖縄県",
    "city": "宮古島市",
    "category": "home_help",
    "serviceType": "訪問介護",
    "capacity": 0,
    "openDays": [
      "平日",
      "土曜日",
      "日曜日",
      "祝日"
    ],
    "openDaysNote": "天災・その他やむを得ず業務を遂行できない日を除く（改行）休日はなし(但し、12/31～1/3の営業は独居、認知症、家族対応困難な方に限る)"
  },
  {
    "id": "4775500558",
    "name": "訪問介護事業所ともり",
    "kana": "ホウモンカイゴジギョウショトモリ",
    "address": "沖縄県宮古島市平良字東仲宗根345番地1",
    "lat": 24.8067706,
    "lng": 125.2866481,
    "tel": "0980-79-0503",
    "url": "",
    "pref": "沖縄県",
    "city": "宮古島市",
    "category": "home_help",
    "serviceType": "訪問介護",
    "capacity": 0,
    "openDays": [
      "平日",
      "土曜日",
      "日曜日",
      "祝日"
    ],
    "openDaysNote": "台風時（警報発令）等自然災害発生時はサービスの休止があります。"
  },
  {
    "id": "4775500533",
    "name": "訪問介護事業所にじ",
    "kana": "ホウモンカイゴジギョウショニジ",
    "address": "沖縄県宮古島市平良字下里914番地新崎邸１階 新崎邸１階",
    "lat": 24.7984474823761,
    "lng": 125.280972371641,
    "tel": "0980-79-5780",
    "url": "",
    "pref": "沖縄県",
    "city": "宮古島市",
    "category": "home_help",
    "serviceType": "訪問介護",
    "capacity": 2,
    "openDays": [
      "平日",
      "土曜日",
      "日曜日",
      "祝日"
    ],
    "openDaysNote": "・サービス提供時間については、職員配置状況によりサービス提供が困難な場合があります。（改行）・地震、台風、大雨等の自然災害発生時（気象庁による警報、注意報、避難指示等の発令時）等において、訪問介護員の交通手段及び生命に危険が及ぶ事態が予測される場合は、サービスを中止させていただきます。（改行）・感染症の発生を予防または感染のリスクを防ぐ為、入出時の手洗い、マスク、使い捨て手袋等を使用させていただく場合があります。"
  },
  {
    "id": "4775500202",
    "name": "訪問介護事業所園",
    "kana": "ホウモンカイゴジギョウショエン",
    "address": "沖縄県宮古島市平良字下里1097-5",
    "lat": 24.8029119912005,
    "lng": 125.293050860731,
    "tel": "0980-79-0271",
    "url": "",
    "pref": "沖縄県",
    "city": "宮古島市",
    "category": "home_help",
    "serviceType": "訪問介護",
    "capacity": 0,
    "openDays": [
      "平日",
      "土曜日",
      "日曜日",
      "祝日"
    ],
    "openDaysNote": "利用者の要望やプランに基づき24時間対応とする"
  },
  {
    "id": "4770600130",
    "name": "有限会社　介護保険事業所　デイゴ",
    "kana": "ユウゲンカイシャ　カイゴホケンジギョウショ　デイゴ",
    "address": "沖縄県宮古島市平良字西里７４５番地1",
    "lat": 24.8000379,
    "lng": 125.2858705,
    "tel": "0980-73-5173",
    "url": "http://www.",
    "pref": "沖縄県",
    "city": "宮古島市",
    "category": "home_help",
    "serviceType": "訪問介護",
    "capacity": 0,
    "openDays": [
      "平日",
      "土曜日",
      "日曜日",
      "祝日"
    ],
    "openDaysNote": "なし"
  },
  {
    "id": "4771800051",
    "name": "どりーむ訪問介護ステーション",
    "kana": "ドリームホウモンカイゴステーション",
    "address": "金武10805",
    "lat": 26.4632205116143,
    "lng": 127.938381162094,
    "tel": "098-968-8904",
    "url": "https://dream-kin.net/",
    "pref": "沖縄県",
    "city": "金武町",
    "category": "home_help",
    "serviceType": "訪問介護",
    "capacity": 2,
    "openDays": [
      "平日",
      "土曜日"
    ],
    "openDaysNote": "ご相談の上、24時間対応しております。"
  },
  {
    "id": "4771800135",
    "name": "ヘルパーステーション　アシスト",
    "kana": "ヘルパーステーション　アシスト",
    "address": "沖縄県国頭郡金武町金武389番地101号 101号",
    "lat": 26.4534318,
    "lng": 127.9228951,
    "tel": "098-968-6987",
    "url": "http://www.okumacl.jp",
    "pref": "沖縄県",
    "city": "金武町",
    "category": "home_help",
    "serviceType": "訪問介護",
    "capacity": 19,
    "openDays": [
      "平日",
      "土曜日",
      "日曜日",
      "祝日"
    ],
    "openDaysNote": "台風及び緊急時を除く"
  },
  {
    "id": "4771800119",
    "name": "ヘルパーステーション　スマイル",
    "kana": "ヘルパーステーション　スマイル",
    "address": "沖縄県金武町字金武７９０６番地",
    "lat": 26.452076,
    "lng": 127.9125403,
    "tel": "098-968-6464",
    "url": "",
    "pref": "沖縄県",
    "city": "金武町",
    "category": "home_help",
    "serviceType": "訪問介護",
    "capacity": 0,
    "openDays": [
      "平日",
      "土曜日",
      "祝日"
    ],
    "openDaysNote": "但し、１２月３１日から１月３日の営業は独居、認知症、家族対応が困難な方に限ります。（天災、その他やむを得ず業務を遂行できない日を除く）"
  },
  {
    "id": "4771800143",
    "name": "ヘルパーステーション　ひらめき",
    "kana": "ヘルパーステーション　ヒラメキ",
    "address": "沖縄県国頭郡金武町字伊芸93番地",
    "lat": 26.4567162,
    "lng": 127.8795126,
    "tel": "098‐923‐2758",
    "url": "",
    "pref": "沖縄県",
    "city": "金武町",
    "category": "home_help",
    "serviceType": "訪問介護",
    "capacity": 0,
    "openDays": [
      "平日",
      "土曜日",
      "日曜日",
      "祝日"
    ],
    "openDaysNote": ""
  },
  {
    "id": "4771100080",
    "name": "楚洲あさひの丘ヘルパーステーション",
    "kana": "ソスアサヒノオカヘルパーステーション",
    "address": "沖縄県国頭郡国頭村字辺土名1443番地11",
    "lat": 26.7461165,
    "lng": 128.1757594,
    "tel": "0980-43-1425",
    "url": "",
    "pref": "沖縄県",
    "city": "国頭村",
    "category": "home_help",
    "serviceType": "訪問介護",
    "capacity": 0,
    "openDays": [
      "平日",
      "土曜日",
      "日曜日",
      "祝日"
    ],
    "openDaysNote": ""
  },
  {
    "id": "4771100015",
    "name": "北斗園ホームヘルプサービス事業所",
    "kana": "ホクトエンホームヘルプサービスジギョウショ",
    "address": "沖縄県国頭郡国頭村字辺土名1692番地",
    "lat": 26.7407936,
    "lng": 128.1749745,
    "tel": "0980-41-5252",
    "url": "https://hokutoen.org/",
    "pref": "沖縄県",
    "city": "国頭村",
    "category": "home_help",
    "serviceType": "訪問介護",
    "capacity": 0,
    "openDays": [
      "平日",
      "土曜日",
      "日曜日",
      "祝日"
    ],
    "openDaysNote": ""
  },
  {
    "id": "4771400092",
    "name": "イリーゼ今帰仁訪問介護センター",
    "kana": "イリーゼナキジンホウモンカイゴセンター",
    "address": "沖縄県国頭郡今帰仁村字湧川571-1イリーゼ今帰仁 イリーゼ今帰仁",
    "lat": 26.6563748,
    "lng": 127.9895108,
    "tel": "0980-56-1245",
    "url": "http://www.irs.jp/facility/nakijin/",
    "pref": "沖縄県",
    "city": "今帰仁村",
    "category": "home_help",
    "serviceType": "訪問介護",
    "capacity": 0,
    "openDays": [
      "平日",
      "土曜日",
      "日曜日",
      "祝日"
    ],
    "openDaysNote": ""
  },
  {
    "id": "4751180003",
    "name": "なきじん指定訪問介護事業所",
    "kana": "ナキジンシテイホウモンカイゴジギョウショ",
    "address": "沖縄県国頭郡今帰仁村字今泊307番地",
    "lat": 26.6991955,
    "lng": 127.92518,
    "tel": "0980-56-5702",
    "url": "http://www.oki-ｋｏｆｕｋａｉ.ｏｒ.ｊｐ",
    "pref": "沖縄県",
    "city": "今帰仁村",
    "category": "home_help",
    "serviceType": "訪問介護",
    "capacity": 0,
    "openDays": [
      "平日",
      "土曜日",
      "日曜日",
      "祝日"
    ],
    "openDaysNote": "暴風警報が発令され、当該当地域において路線バスの運行が停止、または停止することが明らかな場合には、訪問介護員の派遣を中止します。"
  },
  {
    "id": "4771400027",
    "name": "今帰仁村社協指定訪問介護事業所",
    "kana": "ナキジンソンシャキョウシテイホウモンカイゴジギョウショ",
    "address": "沖縄県国頭郡今帰仁村字天底６２番地社会福祉会館 社会福祉会館",
    "lat": 26.6813662,
    "lng": 127.9804464,
    "tel": "0980-56-4812",
    "url": "",
    "pref": "沖縄県",
    "city": "今帰仁村",
    "category": "home_help",
    "serviceType": "訪問介護",
    "capacity": 0,
    "openDays": [
      "平日",
      "土曜日",
      "日曜日",
      "祝日"
    ],
    "openDaysNote": "天災その他、やむを得ず営業できない日を除く"
  },
  {
    "id": "4771400100",
    "name": "訪問介護ステーション山宗",
    "kana": "ホウモンカイゴステーションヤマソウ",
    "address": "天底335番地訪問介護ステーション 訪問介護ステーション",
    "lat": 26.6755079813157,
    "lng": 127.978833664487,
    "tel": "0980－56－3889",
    "url": "info@yamaso-okinawa.com",
    "pref": "沖縄県",
    "city": "今帰仁村",
    "category": "home_help",
    "serviceType": "訪問介護",
    "capacity": 0,
    "openDays": [
      "平日",
      "土曜日",
      "日曜日",
      "祝日"
    ],
    "openDaysNote": ""
  },
  {
    "id": "4771400118",
    "name": "訪問介護ステーション美ら里",
    "kana": "ホウモンカイゴステーションチュラリ",
    "address": "沖縄県国頭郡今帰仁村字諸志101番地",
    "lat": 26.6972268,
    "lng": 127.9419152,
    "tel": "０９８０－４３－６５１７",
    "url": "",
    "pref": "沖縄県",
    "city": "今帰仁村",
    "category": "home_help",
    "serviceType": "訪問介護",
    "capacity": 0,
    "openDays": [
      "平日",
      "土曜日",
      "日曜日",
      "祝日"
    ],
    "openDaysNote": "年末年始(12月31日～1月3日の営業は独居、認知症、家族対応困難な方に限る)（改行）台風時、暴風警報が発令し、バスが運休の場合は、訪問介護サービスはヘルパーの安全確保の為、中止とさせていただきます。"
  },
  {
    "id": "4771000033",
    "name": "いとまんシャトー指定訪問介護センター",
    "kana": "イトマンシャトーシテイホウモンカイゴセンター",
    "address": "沖縄県糸満市字大里927番地の2",
    "lat": 26.1353393,
    "lng": 127.6917292,
    "tel": "098-995-2208",
    "url": "http://www.itoman3.com/",
    "pref": "沖縄県",
    "city": "糸満市",
    "category": "home_help",
    "serviceType": "訪問介護",
    "capacity": null,
    "openDays": [
      "平日",
      "土曜日",
      "日曜日",
      "祝日"
    ],
    "openDaysNote": "天災その他やむを得ず業務を遂行できない日を除き、毎日とする。"
  },
  {
    "id": "4771000587",
    "name": "ケアステーションえがお",
    "kana": "ケアステーション　エガオ",
    "address": "沖縄県糸満市真栄里2055番地の1プランドール蒼 プランドール蒼",
    "lat": 26.1205529,
    "lng": 127.6691589,
    "tel": "098-987-0757",
    "url": "https://www.akanekai-okinawa.com/",
    "pref": "沖縄県",
    "city": "糸満市",
    "category": "home_help",
    "serviceType": "訪問介護",
    "capacity": 0,
    "openDays": [
      "平日",
      "土曜日",
      "日曜日",
      "祝日"
    ],
    "openDaysNote": ""
  },
  {
    "id": "4771000462",
    "name": "ヘルパーステーション　みなみ",
    "kana": "ヘルパーステーション　ミナミ",
    "address": "沖縄県糸満市字糸満1796番地の2",
    "lat": 26.1265564,
    "lng": 127.6788803,
    "tel": "098-995-1709",
    "url": "（検索）ネットワークくくる",
    "pref": "沖縄県",
    "city": "糸満市",
    "category": "home_help",
    "serviceType": "訪問介護",
    "capacity": 3,
    "openDays": [
      "平日",
      "土曜日",
      "日曜日",
      "祝日"
    ],
    "openDaysNote": ""
  },
  {
    "id": "4771000579",
    "name": "ヘルパーステーションみぃちゃん",
    "kana": "ヘルパーステーションミィチャン",
    "address": "沖縄県糸満市糸満1094番地1階 1階",
    "lat": 26.1277193,
    "lng": 127.6714825,
    "tel": "098-994-5548",
    "url": "https://www.homehelper-mi-chan.com/",
    "pref": "沖縄県",
    "city": "糸満市",
    "category": "home_help",
    "serviceType": "訪問介護",
    "capacity": 0,
    "openDays": [
      "平日",
      "土曜日",
      "日曜日",
      "祝日"
    ],
    "openDaysNote": "介護訪問員は24時間体制とする（但し、12/29～1/3日の営業は独居・認知症・家族対応困難な方は相談に応じる）台風時・暴風域・天災・その他やむを得ず業務を遂行できない日を除く"
  },
  {
    "id": "4771000710",
    "name": "ヘルパーステーション心夢愛",
    "kana": "ヘルパーステーションコムア",
    "address": "沖縄県糸満市西崎６丁目１２－５パイオニアビル５０２ パイオニアビル５０２",
    "lat": 26.1434739,
    "lng": 127.6684069,
    "tel": "098-994-5680",
    "url": "",
    "pref": "沖縄県",
    "city": "糸満市",
    "category": "home_help",
    "serviceType": "訪問介護",
    "capacity": 0,
    "openDays": [
      "平日",
      "土曜日",
      "日曜日",
      "祝日"
    ],
    "openDaysNote": "電話等により、24時間常時連絡が可能な体制をとる。"
  },
  {
    "id": "4771000207",
    "name": "ヘルパーステーション西崎",
    "kana": "ヘルパーステーションニシザキ",
    "address": "沖縄県糸満市西崎町3丁目379番地",
    "lat": 26.1455045,
    "lng": 127.6701387,
    "tel": "098-994-4418",
    "url": "http://www.iwakikai.net",
    "pref": "沖縄県",
    "city": "糸満市",
    "category": "home_help",
    "serviceType": "訪問介護",
    "capacity": null,
    "openDays": [
      "平日",
      "土曜日",
      "日曜日",
      "祝日"
    ],
    "openDaysNote": ""
  },
  {
    "id": "4771000520",
    "name": "ヘルパーステーション里のガーデン",
    "kana": "ヘルパーステーションサトノガーデン",
    "address": "沖縄県糸満市字大里623番7",
    "lat": 26.1299481,
    "lng": 127.6896434,
    "tel": "098-996-2832",
    "url": "https://www.m-sc.co.jp/",
    "pref": "沖縄県",
    "city": "糸満市",
    "category": "home_help",
    "serviceType": "訪問介護",
    "capacity": 0,
    "openDays": [
      "平日",
      "土曜日",
      "日曜日",
      "祝日"
    ],
    "openDaysNote": "携帯電話等により常時連絡可能な体制をとる"
  },
  {
    "id": "4773600434",
    "name": "ヘルパーステーション琉新の風",
    "kana": "ヘルパーステーションリュウシンノカゼ",
    "address": "大度515-1株式会社琉新の風糸満 株式会社琉新の風糸満",
    "lat": 26.0975895,
    "lng": 127.707737,
    "tel": "098-851-8588",
    "url": "http://www.ryushinnokaze.com",
    "pref": "沖縄県",
    "city": "糸満市",
    "category": "home_help",
    "serviceType": "訪問介護",
    "capacity": 35,
    "openDays": [
      "平日",
      "土曜日",
      "日曜日",
      "祝日"
    ],
    "openDaysNote": "・提供プランに従い介護サービスを行う。（改行）・利用者様の体調不良時にもサービス提供行う。"
  },
  {
    "id": "4771000694",
    "name": "太陽ケアセンター糸満",
    "kana": "タイヨウケアセンターイトマン",
    "address": "沖縄県糸満市兼城483",
    "lat": 26.1374292,
    "lng": 127.673145,
    "tel": "098-996-5494",
    "url": "",
    "pref": "沖縄県",
    "city": "糸満市",
    "category": "home_help",
    "serviceType": "訪問介護",
    "capacity": null,
    "openDays": [
      "平日",
      "土曜日",
      "日曜日",
      "祝日"
    ],
    "openDaysNote": ""
  },
  {
    "id": "4771000652",
    "name": "訪問介護　えいえいおー",
    "kana": "ホウモンカイゴ　エイエイオー",
    "address": "沖縄県糸満市字兼城296-2",
    "lat": 26.1375219,
    "lng": 127.6745788,
    "tel": "098-987-4894",
    "url": "",
    "pref": "沖縄県",
    "city": "糸満市",
    "category": "home_help",
    "serviceType": "訪問介護",
    "capacity": null,
    "openDays": [
      "平日",
      "土曜日",
      "日曜日",
      "祝日"
    ],
    "openDaysNote": "訪問介護員は24時間体制とする。天災・その他やむを得ず業務を遂行できない日を除く。"
  },
  {
    "id": "4771000405",
    "name": "訪問介護事業所　珊瑚",
    "kana": "ホウモンカイゴジギョウショ　サンゴ",
    "address": "糸満市潮崎町4丁目8-13",
    "lat": 26.1164485,
    "lng": 127.663626,
    "tel": "098-840-3535",
    "url": "",
    "pref": "沖縄県",
    "city": "糸満市",
    "category": "home_help",
    "serviceType": "訪問介護",
    "capacity": 0,
    "openDays": [
      "平日",
      "土曜日",
      "日曜日",
      "祝日"
    ],
    "openDaysNote": ""
  },
  {
    "id": "4771000637",
    "name": "訪問介護琉新の風糸満",
    "kana": "ホウモンカイゴリュウシンノカゼイトマン",
    "address": "沖縄県糸満市潮崎町3丁目8-10OceanLife102 OceanLife102",
    "lat": 26.1190973,
    "lng": 127.6657198,
    "tel": "098-851-8555",
    "url": "http://www.ryushinnokaze.com/",
    "pref": "沖縄県",
    "city": "糸満市",
    "category": "home_help",
    "serviceType": "訪問介護",
    "capacity": 0,
    "openDays": [
      "平日",
      "土曜日",
      "日曜日",
      "祝日"
    ],
    "openDaysNote": ""
  },
  {
    "id": "4772700391",
    "name": "ヘルパーステーションおおきな輪",
    "kana": "ヘルパーステーションオオキナワ",
    "address": "沖縄県中頭郡西原町東崎22番地3ムーンテラス東崎C棟205号室 ムーンテラス東崎C棟205号室",
    "lat": 26.2125785,
    "lng": 127.7689794,
    "tel": "989432201",
    "url": "https://www.ookinawa.jp",
    "pref": "沖縄県",
    "city": "西原町",
    "category": "home_help",
    "serviceType": "訪問介護",
    "capacity": null,
    "openDays": [
      "平日"
    ],
    "openDaysNote": ""
  },
  {
    "id": "4772700185",
    "name": "ヘルパーステーションはーとらいふ",
    "kana": "ヘルパーステーションハートライフ",
    "address": "沖縄県中頭郡西原町字小那覇1606番地ハートライフ地域包括ケアセンター１F ハートライフ地域包括ケアセンター１F",
    "lat": 26.2374371480991,
    "lng": 127.772692402516,
    "tel": "098-944-3300",
    "url": "http://www.heartlife.or.jp/care/",
    "pref": "沖縄県",
    "city": "西原町",
    "category": "home_help",
    "serviceType": "訪問介護",
    "capacity": 0,
    "openDays": [
      "平日",
      "土曜日",
      "日曜日",
      "祝日"
    ],
    "openDaysNote": "土日祝祭日にヘルパー調整ができる場合はサービスを受け入れる場合もあります。"
  },
  {
    "id": "4772700326",
    "name": "ヘルパーステーションもりのはな",
    "kana": "ヘルパーステーションモリノハナ",
    "address": "沖縄県中頭郡西原町字兼久171-1宮平アパート105号 宮平アパート105号",
    "lat": 26.2197383,
    "lng": 127.7657769,
    "tel": "050-1720-7341",
    "url": "http://www.morinohana.okinawa",
    "pref": "沖縄県",
    "city": "西原町",
    "category": "home_help",
    "serviceType": "訪問介護",
    "capacity": 0,
    "openDays": [
      "平日",
      "土曜日",
      "日曜日",
      "祝日"
    ],
    "openDaysNote": ""
  },
  {
    "id": "4772700383",
    "name": "りぼん訪問介護ステ－ション",
    "kana": "リボンホウモンカイゴステ-ション",
    "address": "沖縄県中頭郡西原町字翁長２４０番４号こ-ぽこはつ１０１ こ-ぽこはつ１０１",
    "lat": 26.2282774,
    "lng": 127.7542235,
    "tel": "098-963-5662",
    "url": "",
    "pref": "沖縄県",
    "city": "西原町",
    "category": "home_help",
    "serviceType": "訪問介護",
    "capacity": null,
    "openDays": [
      "平日",
      "土曜日",
      "祝日"
    ],
    "openDaysNote": "利用できる時間以外でも必要（ニーズ）に応じて２４時間対応しています。"
  },
  {
    "id": "4772700334",
    "name": "訪問介護琉新の風西原",
    "kana": "ホウモンカイゴリュウシンノカゼニシハラ",
    "address": "沖縄県中頭郡西原町字幸地1008-1　1F",
    "lat": 26.2251906,
    "lng": 127.7356412,
    "tel": "098-998-8234",
    "url": "ryushinnokaze.com",
    "pref": "沖縄県",
    "city": "西原町",
    "category": "home_help",
    "serviceType": "訪問介護",
    "capacity": null,
    "openDays": [
      "平日",
      "土曜日",
      "日曜日",
      "祝日"
    ],
    "openDaysNote": ""
  },