[
  {
    "id": "4770300632",
    "name": "アイズケアサービス",
    "kana": "アイズケアサービス",
    "address": "具志川1321番地1",
    "lat": 26.3440443,
    "lng": 127.8761012,
    "tel": "098-973-0755",
    "url": "",
    "pref": "沖縄県",
    "city": "うるま市",
    "category": "home_help",
    "serviceType": "訪問介護",
    "capacity": 0,
    "openDays": [
      "平日",
      "土曜日",
      "日曜日",
      "祝日"
    ],
    "openDaysNote": ""
  },
  {
    "id": "4770301796",
    "name": "あかねぐもケアセンター",
    "kana": "アカネグモケアセンター",
    "address": "沖縄県うるま市与那城38番地はなまるハウス101号室 はなまるハウス101号室",
    "lat": 26.3256954,
    "lng": 127.893539,
    "tel": "8058331458",
    "url": "",
    "pref": "沖縄県",
    "city": "うるま市",
    "category": "home_help",
    "serviceType": "訪問介護",
    "capacity": 0,
    "openDays": [
      "平日",
      "土曜日",
      "日曜日",
      "祝日"
    ],
    "openDaysNote": "24時間365日対応します。"
  },
  {
    "id": "4770300970",
    "name": "イリーゼうるま訪問介護センター",
    "kana": "イリーゼウルマホウモンカイゴセンター",
    "address": "沖縄県うるま市喜屋武546-1",
    "lat": 26.3601695,
    "lng": 127.8432929,
    "tel": "098-973-7801",
    "url": "http://www.hitowa.com/sare-service/",
    "pref": "沖縄県",
    "city": "うるま市",
    "category": "home_help",
    "serviceType": "訪問介護",
    "capacity": 57,
    "openDays": [],
    "openDaysNote": "サービス提供時間：24時間体制"
  },
  {
    "id": "4770300426",
    "name": "うるまケアセンター",
    "kana": "ウルマケアセンター",
    "address": "沖縄県うるま市みどり町五丁目１４番７号",
    "lat": 26.376783,
    "lng": 127.8527691,
    "tel": "098-972-3661",
    "url": "http://carenet.okinawa",
    "pref": "沖縄県",
    "city": "うるま市",
    "category": "home_help",
    "serviceType": "訪問介護",
    "capacity": 0,
    "openDays": [
      "平日",
      "土曜日",
      "日曜日",
      "祝日"
    ],
    "openDaysNote": "ケアプランに応じて２４時間３６５日サービス提供"
  },
  {
    "id": "4770200089",
    "name": "ケアサービスうるま",
    "kana": "ケアサービスウルマ",
    "address": "沖縄県うるま市石川東山本町二丁目12番19号",
    "lat": 26.4384222696626,
    "lng": 127.832079606003,
    "tel": "098-982-5008",
    "url": "http://careservice-uruna.com",
    "pref": "沖縄県",
    "city": "うるま市",
    "category": "home_help",
    "serviceType": "訪問介護",
    "capacity": null,
    "openDays": [
      "平日",
      "土曜日",
      "日曜日",
      "祝日"
    ],
    "openDaysNote": "但し、営業時間以外でも、電話等により24時間常時連絡が可能な体制とする"
  },
  {
    "id": "4770300368",
    "name": "さくらケアステーションホームヘルプサービス",
    "kana": "サクラケアステーションホームヘルプサービス",
    "address": "沖縄県うるま市字田場1927番地2",
    "lat": 26.3676605,
    "lng": 127.8602996,
    "tel": "098-974-2230",
    "url": "http://www.",
    "pref": "沖縄県",
    "city": "うるま市",
    "category": "home_help",
    "serviceType": "訪問介護",
    "capacity": 0,
    "openDays": [
      "平日",
      "土曜日",
      "日曜日",
      "祝日"
    ],
    "openDaysNote": "事業所の休日であっても、利用者の介護計画に基づき、日曜、祝祭日の（改行）訪問介護サービスの提供を実施中。"
  },
  {
    "id": "4770301333",
    "name": "ニチイケアセンターうるま",
    "kana": "ニチイケアセンターウルマ",
    "address": "沖縄県うるま市宮里201-6又吉アパート102 又吉アパート102",
    "lat": 26.3535579,
    "lng": 127.8347511,
    "tel": "098-979-2828",
    "url": "http://www.nichiigakkan.co.jp",
    "pref": "沖縄県",
    "city": "うるま市",
    "category": "home_help",
    "serviceType": "訪問介護",
    "capacity": 1,
    "openDays": [
      "平日",
      "土曜日",
      "日曜日",
      "祝日"
    ],
    "openDaysNote": "※365日24時間サービス提供実施　※台風、災害時は状況に応じ連絡、調整を行う。（改行）※居宅サービス計画により、休業日および営業時間外であってもサービスを提供する場合があります。"
  },
  {
    "id": "4772000016",
    "name": "ﾍﾙﾊﾟｰｽﾃｰｼｮﾝ　あやはし苑",
    "kana": "ヘルパーステーション　アヤハシエン",
    "address": "沖縄県与那城屋慶名1410",
    "lat": 26.3270275,
    "lng": 127.9089652,
    "tel": "098-978-5566",
    "url": "http://ayahashien.com/",
    "pref": "沖縄県",
    "city": "うるま市",
    "category": "home_help",
    "serviceType": "訪問介護",
    "capacity": 0,
    "openDays": [
      "平日",
      "土曜日",
      "日曜日",
      "祝日"
    ],
    "openDaysNote": "暴風時等やむを得ず、訪問介護員を派遣できない場合を除く。"
  },
  {
    "id": "4770301473",
    "name": "ﾍﾙﾊﾟｰｽﾃｰｼｮﾝ　愛の花",
    "kana": "ヘルパーステーション　アイノハナ",
    "address": "沖縄県うるま市昆布676-2徳田アパート101号 徳田アパート101号",
    "lat": 26.3916069,
    "lng": 127.8478938,
    "tel": "098-962-8248",
    "url": "",
    "pref": "沖縄県",
    "city": "うるま市",
    "category": "home_help",
    "serviceType": "訪問介護",
    "capacity": null,
    "openDays": [
      "平日",
      "土曜日",
      "日曜日",
      "祝日"
    ],
    "openDaysNote": "年中無休で対応しております。"
  },
  {
    "id": "4770300608",
    "name": "ヘルパーサービスSYM",
    "kana": "ヘルパーサービスエスワイエム",
    "address": "具志川2436番地",
    "lat": 26.361417,
    "lng": 127.8681019,
    "tel": "098-989-8592",
    "url": "",
    "pref": "沖縄県",
    "city": "うるま市",
    "category": "home_help",
    "serviceType": "訪問介護",
    "capacity": null,
    "openDays": [
      "平日",
      "土曜日",
      "日曜日",
      "祝日"
    ],
    "openDaysNote": ""
  },
  {
    "id": "4770301549",
    "name": "ヘルパーステーションA&S",
    "kana": "ヘルパーステーションエーアンドエス",
    "address": "沖縄県うるま市字具志川1931番地34",
    "lat": 26.3538154,
    "lng": 127.8701933,
    "tel": "989733660",
    "url": "https://www.a-and-s.okinawa",
    "pref": "沖縄県",
    "city": "うるま市",
    "category": "home_help",
    "serviceType": "訪問介護",
    "capacity": null,
    "openDays": [
      "平日",
      "土曜日",
      "日曜日",
      "祝日"
    ],
    "openDaysNote": ""
  },
  {
    "id": "4760390015",
    "name": "ヘルパーステーションいずみ介護会",
    "kana": "ヘルパーステーションイズミカイゴカイ",
    "address": "沖縄県うるま市字栄野比1151番地1",
    "lat": 26.3964931,
    "lng": 127.8278517,
    "tel": "098-972-7123",
    "url": "http://www.izumihospital1985.or.jp",
    "pref": "沖縄県",
    "city": "うるま市",
    "category": "home_help",
    "serviceType": "訪問介護",
    "capacity": 0,
    "openDays": [
      "平日",
      "土曜日",
      "日曜日",
      "祝日"
    ],
    "openDaysNote": "年末年始（12月31日～1月1日）休み"
  },
  {
    "id": "4770301275",
    "name": "ヘルパーステーションうるま",
    "kana": "ヘルパーステーションウルマ",
    "address": "沖縄県うるま市勝連平安名2470番地1　1階",
    "lat": 26.3185635,
    "lng": 127.8936494,
    "tel": "098‐983‐1165",
    "url": "",
    "pref": "沖縄県",
    "city": "うるま市",
    "category": "home_help",
    "serviceType": "訪問介護",
    "capacity": 0,
    "openDays": [
      "平日"
    ],
    "openDaysNote": "電話等で24時間対応（改行）12/31～1/3は、独居、認知症、家族対応困難な方に限る"
  },
  {
    "id": "4770301853",
    "name": "ヘルパーステーションえのび",
    "kana": "ヘルパーステーションエノビ",
    "address": "沖縄県うるま市字栄野比９３９番地",
    "lat": 26.3851042,
    "lng": 127.8331238,
    "tel": "098-972-6029",
    "url": "http：//ryokuwakai.com",
    "pref": "沖縄県",
    "city": "うるま市",
    "category": "home_help",
    "serviceType": "訪問介護",
    "capacity": 20,
    "openDays": [
      "平日",
      "土曜日",
      "祝日"
    ],
    "openDaysNote": ""
  },
  {
    "id": "4770301101",
    "name": "ヘルパーステーションおもろの郷",
    "kana": "ヘルパーステーションオモロノサト",
    "address": "沖縄県うるま市安慶名三丁目４番２３号",
    "lat": 26.37604,
    "lng": 127.854174,
    "tel": "０９８-９７２-７２２０",
    "url": "",
    "pref": "沖縄県",
    "city": "うるま市",
    "category": "home_help",
    "serviceType": "訪問介護",
    "capacity": 0,
    "openDays": [
      "平日",
      "土曜日",
      "日曜日",
      "祝日"
    ],
    "openDaysNote": ""
  },
  {
    "id": "4770301770",
    "name": "ヘルパーステーションまつぼっくり",
    "kana": "ヘルパーステーション　マツボックリ",
    "address": "沖縄県うるま市栄野比155-5",
    "lat": 26.3931506,
    "lng": 127.8321552,
    "tel": "989230680",
    "url": "",
    "pref": "沖縄県",
    "city": "うるま市",
    "category": "home_help",
    "serviceType": "訪問介護",
    "capacity": null,
    "openDays": [
      "平日",
      "土曜日",
      "日曜日",
      "祝日"
    ],
    "openDaysNote": "24時間対応。（年中無休　対応）"
  },
  {
    "id": "4770301895",
    "name": "ヘルパーステーション愛（かなさ）",
    "kana": "ヘルパーステーションカナサ",
    "address": "沖縄県うるま市塩屋401-1psalm27　B号室 psalm27　B号室",
    "lat": 26.34823,
    "lng": 127.8615427,
    "tel": "098-989-3922",
    "url": "https://hp.kaipoke.biz/84t/",
    "pref": "沖縄県",
    "city": "うるま市",
    "category": "home_help",
    "serviceType": "訪問介護",
    "capacity": null,
    "openDays": [
      "平日",
      "土曜日",
      "日曜日",
      "祝日"
    ],
    "openDaysNote": ""
  },
  {
    "id": "4770301887",
    "name": "ヘルパーステーション慶",
    "kana": "ヘルパーステーションヨロコビ",
    "address": "沖縄県うるま市字兼箇段362番地16",
    "lat": 26.3739756,
    "lng": 127.8382301,
    "tel": "090-9650-9311",
    "url": "",
    "pref": "沖縄県",
    "city": "うるま市",
    "category": "home_help",
    "serviceType": "訪問介護",
    "capacity": 0,
    "openDays": [
      "平日",
      "土曜日",
      "日曜日",
      "祝日"
    ],
    "openDaysNote": ""
  },
  {
    "id": "4760290009",
    "name": "ホームヘルパーステーション願寿ぬ森",
    "kana": "ホームヘルパーステーションガンジュヌムイ",
    "address": "沖縄県うるま市石川３２７３番地２",
    "lat": 26.4472331,
    "lng": 127.8287469,
    "tel": "098-964-6528",
    "url": "https://ganjukouhou.wixsite.com/mysite-1",
    "pref": "沖縄県",
    "city": "うるま市",
    "category": "home_help",
    "serviceType": "訪問介護",
    "capacity": 25,
    "openDays": [
      "平日",
      "土曜日",
      "日曜日",
      "祝日"
    ],
    "openDaysNote": ""
  },
  {
    "id": "4770301184",
    "name": "ホームヘルプサービスセンター陽光館",
    "kana": "ホームヘルプサービスセンターヨウコウカン",
    "address": "沖縄県うるま市字江州661番地",
    "lat": 26.3581855554684,
    "lng": 127.859693336421,
    "tel": "098-974-8000",
    "url": "http://www5.ocn.ne.jp/~heiwahsp",
    "pref": "沖縄県",
    "city": "うるま市",
    "category": "home_help",
    "serviceType": "訪問介護",
    "capacity": 40,
    "openDays": [
      "平日",
      "土曜日",
      "日曜日",
      "祝日"
    ],
    "openDaysNote": ""
  },
  {
    "id": "4770301564",
    "name": "らいおんハート訪問介護平敷屋",
    "kana": "ライオンハートホウモンカイゴヘシキヤ",
    "address": "赤道2-15",
    "lat": 26.2720207,
    "lng": 127.774416,
    "tel": "098-923-1942",
    "url": "",
    "pref": "沖縄県",
    "city": "うるま市",
    "category": "home_help",
    "serviceType": "訪問介護",
    "capacity": 0,
    "openDays": [
      "平日",
      "土曜日",
      "日曜日",
      "祝日"
    ],
    "openDaysNote": ""
  },
  {
    "id": "4770200014",
    "name": "楽寿園指定訪問介護事業所",
    "kana": "ラクジュエンシテイホウモンカイゴジギョウショ",
    "address": "沖縄県うるま市石川嘉手苅９６１番地１７",
    "lat": 26.4254036,
    "lng": 127.7975895,
    "tel": "098-965-6306",
    "url": "http://www.ikusan-k.com",
    "pref": "沖縄県",
    "city": "うるま市",
    "category": "home_help",
    "serviceType": "訪問介護",
    "capacity": 2,
    "openDays": [
      "平日",
      "土曜日",
      "日曜日",
      "祝日"
    ],
    "openDaysNote": ""
  },
  {
    "id": "4770300319",
    "name": "具志川厚生園　指定訪問介護事業所",
    "kana": "グシカワコウセイエン　シテイホウモンカイゴジギョウショ",
    "address": "沖縄県うるま市字天願１９８３番地具志川厚生園 具志川厚生園",
    "lat": 26.3832893,
    "lng": 127.8508752,
    "tel": "098-972-7494",
    "url": "http://www.okinawa-j.jp",
    "pref": "沖縄県",
    "city": "うるま市",
    "category": "home_help",
    "serviceType": "訪問介護",
    "capacity": 0,
    "openDays": [
      "平日",
      "土曜日",
      "日曜日",
      "祝日"
    ],
    "openDaysNote": ""
  },
  {
    "id": "4770300210",
    "name": "指定訪問介護事業所コロニーヘルパーステーションうるま",
    "kana": "シテイホウモンカイゴジギョウショコロニーヘルパーステーションウルマ",
    "address": "沖縄県うるま市みどり町５丁目２７番９号",
    "lat": 26.3777177,
    "lng": 127.8513613,
    "tel": "098-972-6577",
    "url": "http://www.okicolo.or.jp",
    "pref": "沖縄県",
    "city": "うるま市",
    "category": "home_help",
    "serviceType": "訪問介護",
    "capacity": null,
    "openDays": [
      "平日",
      "土曜日",
      "日曜日",
      "祝日"
    ],
    "openDaysNote": "特になし"
  },
  {
    "id": "4770301226",
    "name": "指定訪問介護事業所ゆいわ",
    "kana": "シテイホウモンカイゴジギョウショユイワ",
    "address": "沖縄県うるま市安慶名二丁目９番６号",
    "lat": 26.3763346029938,
    "lng": 127.852017250041,
    "tel": "０９８－８００－２４７０",
    "url": "",
    "pref": "沖縄県",
    "city": "うるま市",
    "category": "home_help",
    "serviceType": "訪問介護",
    "capacity": 80,
    "openDays": [
      "平日",
      "土曜日",
      "日曜日"
    ],
    "openDaysNote": "サービス提供日は日曜日から土曜日までとする。ただし、年末年始休みを除く。（要相談）（改行）サービス提供可能日以外の日、時間帯に関しても２４時間常時連絡が可能な体制とする。"
  },
  {
    "id": "4770402156",
    "name": "訪問介護　あやかいの城",
    "kana": "ホウモンカイゴ　アヤカイノシロ",
    "address": "沖縄県うるま市字江洲392番地諸見里店舗101号 諸見里店舗101号",
    "lat": 26.3510365,
    "lng": 127.8267897,
    "tel": "098-974-3241",
    "url": "https://www.curagusuku.com",
    "pref": "沖縄県",
    "city": "うるま市",
    "category": "home_help",
    "serviceType": "訪問介護",
    "capacity": 8,
    "openDays": [
      "平日",
      "土曜日",
      "祝日"
    ],
    "openDaysNote": "日曜日・年末年始はご要望等があれば相談にて対応させていたします。"
  },
  {
    "id": "4770301788",
    "name": "訪問介護ＴＲＥＥうるま",
    "kana": "ホウモンカイゴツリーウルマ",
    "address": "安慶名２丁目2番25号",
    "lat": 26.3762710801834,
    "lng": 127.852740080549,
    "tel": "098-989-3650",
    "url": "https://treeokinawa.com/",
    "pref": "沖縄県",
    "city": "うるま市",
    "category": "home_help",
    "serviceType": "訪問介護",
    "capacity": 120,
    "openDays": [
      "平日",
      "土曜日",
      "日曜日",
      "祝日"
    ],
    "openDaysNote": "その他、時間帯についても状況より対応可。365日対応。"
  },
  {
    "id": "4770301481",
    "name": "訪問介護あろは江洲",
    "kana": "ホウモンカイゴアロハエス",
    "address": "沖縄県うるま市江洲38-7オアシス江洲1F オアシス江洲1F",
    "lat": 26.3478541,
    "lng": 127.8330104,
    "tel": "098-989-7382",
    "url": "http://aloha-kaigo.okinawa",
    "pref": "沖縄県",
    "city": "うるま市",
    "category": "home_help",
    "serviceType": "訪問介護",
    "capacity": null,
    "openDays": [
      "平日",
      "土曜日",
      "日曜日",
      "祝日"
    ],
    "openDaysNote": "サービス提供は24時間365日"
  },
  {
    "id": "4770300665",
    "name": "訪問介護いっしんうるま",
    "kana": "ホウモンカイゴイッシンウルマ",
    "address": "沖縄県うるま市石川東恩納133-1ここいちうるま ここいちうるま",
    "lat": 26.4116778,
    "lng": 127.8328842,
    "tel": "098-963-0273",
    "url": "https://isshin.gr.jp/index.php",
    "pref": "沖縄県",
    "city": "うるま市",
    "category": "home_help",
    "serviceType": "訪問介護",
    "capacity": 0,
    "openDays": [
      "平日",
      "土曜日",
      "日曜日",
      "祝日"
    ],
    "openDaysNote": "なし"
  },
  {
    "id": "4770300863",
    "name": "訪問介護いっしん上江洲",
    "kana": "ホウモンカイゴイッシンウエズ",
    "address": "沖縄県うるま市字上江洲466-1",
    "lat": 26.355948,
    "lng": 127.8614609,
    "tel": "098-979-0010",
    "url": "https://isshin.gr.jp/index.php",
    "pref": "沖縄県",
    "city": "うるま市",
    "category": "home_help",
    "serviceType": "訪問介護",
    "capacity": 0,
    "openDays": [
      "平日",
      "土曜日",
      "日曜日",
      "祝日"
    ],
    "openDaysNote": "なし"
  },
  {
    "id": "4770300954",
    "name": "訪問介護ステーション　志",
    "kana": "ホウモンカイゴステーション　ココロザシ",
    "address": "沖縄県うるま市勝連平敷屋３８７番地１Ｆ",
    "lat": 26.3084902754579,
    "lng": 127.910156723227,
    "tel": "098-978-0556",
    "url": "",
    "pref": "沖縄県",
    "city": "うるま市",
    "category": "home_help",
    "serviceType": "訪問介護",
    "capacity": 0,
    "openDays": [
      "平日",
      "土曜日",
      "日曜日",
      "祝日"
    ],
    "openDaysNote": "１２月２９日から１月３日の営業は独居、認知症、家族対応が困難な方に限る。"
  },
  {
    "id": "4772100022",
    "name": "訪問介護事業所　与勝の里",
    "kana": "ホウモンカイゴジギョウショ　ヨカツノサト",
    "address": "沖縄県うるま市勝連南風原４９０２番地",
    "lat": 26.3421501,
    "lng": 127.8770789,
    "tel": "098-978-2629",
    "url": "https//www.yokatsu.okinawa",
    "pref": "沖縄県",
    "city": "うるま市",
    "category": "home_help",
    "serviceType": "訪問介護",
    "capacity": 0,
    "openDays": [
      "平日",
      "土曜日",
      "日曜日",
      "祝日"
    ],
    "openDaysNote": ""
  },
  {
    "id": "4770301689",
    "name": "訪問介護事業所だいじょうぶよ～うるま事業所",
    "kana": "ホウモンカイゴジギョウショダイジョウブヨ～ウルマジギョウショ",
    "address": "沖縄県うるま市みどり町５丁目３番地１",
    "lat": 26.3766554,
    "lng": 127.8543709,
    "tel": "098-989-4860",
    "url": "",
    "pref": "沖縄県",
    "city": "うるま市",
    "category": "home_help",
    "serviceType": "訪問介護",
    "capacity": 0,
    "openDays": [
      "平日",
      "土曜日",
      "祝日"
    ],
    "openDaysNote": ""
  },
  {
    "id": "4710310709",
    "name": "与勝病院訪問介護事業所",
    "kana": "ヨカツビョウインホウモンカイゴジギョウショ",
    "address": "沖縄県うるま市勝連南風原3584番地",
    "lat": 26.3271015,
    "lng": 127.8822533,
    "tel": "098-978-1182",
    "url": "http://www.jkknet.or.jp/yokatsu",
    "pref": "沖縄県",
    "city": "うるま市",
    "category": "home_help",
    "serviceType": "訪問介護",
    "capacity": 1,
    "openDays": [
      "平日",
      "土曜日",
      "日曜日",
      "祝日"
    ],
    "openDaysNote": "電話連絡は24時間対応（改行）感染対策を徹底し新型コロナ陽性者、濃厚接触者へのサービス継続"
  },
  {
    "id": "4771900059",
    "name": "ココいーじま",
    "kana": "ココイージマ",
    "address": "沖縄県国頭郡伊江村字川平３１４番地1 1",
    "lat": 26.7073119,
    "lng": 127.8046782,
    "tel": "0980-49-3331",
    "url": "",
    "pref": "沖縄県",
    "city": "伊江村",
    "category": "home_help",
    "serviceType": "訪問介護",
    "capacity": null,
    "openDays": [
      "平日",
      "土曜日",
      "日曜日",
      "祝日"
    ],
    "openDaysNote": ""
  },
  {
    "id": "4771900067",
    "name": "ヘルパーステーション昴",
    "kana": "ヘルパーステーションスバル",
    "address": "沖縄県国頭郡伊江村字西江前271番地1",
    "lat": 26.7146281,
    "lng": 127.766584,
    "tel": "0980-49-5915",
    "url": "subaru-iejima.com",
    "pref": "沖縄県",
    "city": "伊江村",
    "category": "home_help",
    "serviceType": "訪問介護",
    "capacity": null,
    "openDays": [
      "平日",
      "土曜日",
      "日曜日",
      "祝日"
    ],
    "openDaysNote": ""
  },
  {
    "id": "4771900026",
    "name": "伊江村社協　ホームヘルプセンター",
    "kana": "イエソンシャキョウ　ホームヘルプセンター",
    "address": "沖縄県国頭郡伊江村字川平３６４番地１",
    "lat": 26.7117948161578,
    "lng": 127.802181028836,
    "tel": "0980-49-5104",
    "url": "",
    "pref": "沖縄県",
    "city": "伊江村",
    "category": "home_help",
    "serviceType": "訪問介護",
    "capacity": 0,
    "openDays": [
      "平日",
      "土曜日",
      "日曜日",
      "祝日"
    ],
    "openDaysNote": "サービス提供日は天災その他やむを得ず業務を遂行できない日を除き毎日"
  },
  {
    "id": "4774500013",
    "name": "伊平屋村訪問介護事業所",
    "kana": "イヘヤソンホウモンカイゴジギョウショ",
    "address": "沖縄県島尻郡伊平屋村字我喜屋３００番地",
    "lat": 27.0387239,
    "lng": 127.9656495,
    "tel": "0980-46-2339",
    "url": "http://www.",
    "pref": "沖縄県",
    "city": "伊平屋村",
    "category": "home_help",
    "serviceType": "訪問介護",
    "capacity": 0,
    "openDays": [
      "平日",
      "土曜日",
      "日曜日",
      "祝日"
    ],
    "openDaysNote": ""
  },
  {
    "id": "4770800219",
    "name": "ＮＰＯ法人ライフサポートてだこ　ヘルパーステーションりん",
    "kana": "ＮＰＯホウジン　ライフサポートテダコ　ヘルパーステーションリン",
    "address": "沖縄県浦添市宮城3-13-12仲西マンション　1F 仲西マンション　1F",
    "lat": 26.2470805226431,
    "lng": 127.704345972414,
    "tel": "098-875-3557",
    "url": "http://www.lstedako.com/",
    "pref": "沖縄県",
    "city": "浦添市",
    "category": "home_help",
    "serviceType": "訪問介護",
    "capacity": 0,
    "openDays": [
      "平日",
      "土曜日",
      "日曜日",
      "祝日"
    ],
    "openDaysNote": ""
  },
  {
    "id": "4770801597",
    "name": "ウーバーケア浦添店",
    "kana": "ウーバーケアウラソエテン",
    "address": "沖縄県浦添市屋富祖一丁目4番8号フレッグハイム1階102号室 フレッグハイム1階102号室",
    "lat": 26.2503277,
    "lng": 127.7115497,
    "tel": "098-943-7555",
    "url": "",
    "pref": "沖縄県",
    "city": "浦添市",
    "category": "home_help",
    "serviceType": "訪問介護",
    "capacity": 100,
    "openDays": [
      "平日",
      "土曜日",
      "日曜日",
      "祝日"
    ],
    "openDaysNote": ""
  },
  {
    "id": "4770801886",
    "name": "おうちでくらせる訪問介護　浦添",
    "kana": "オウチデクラセルホウモンカイゴ　ウラソエ",
    "address": "安波茶2-6-13奥村貸店舗１階 奥村貸店舗１階",
    "lat": 26.2487226,
    "lng": 127.7253483,
    "tel": "098-917-2527",
    "url": "https://www.big-advance.site/s/187/2008",
    "pref": "沖縄県",
    "city": "浦添市",
    "category": "home_help",
    "serviceType": "訪問介護",
    "capacity": 0,
    "openDays": [
      "平日",
      "土曜日"
    ],
    "openDaysNote": "※早朝および夜間〔通常料金の２５％増し〕、深夜〔通常料金の５０％増し〕となります"
  },
  {
    "id": "4770801563",
    "name": "ケアセンターココロすまいる",
    "kana": "ケアセンターココロスマイル",
    "address": "沖縄県浦添市当山2丁目17番11",
    "lat": 26.2504325,
    "lng": 127.7350008,
    "tel": "098－943－3026",
    "url": "",
    "pref": "沖縄県",
    "city": "浦添市",
    "category": "home_help",
    "serviceType": "訪問介護",
    "capacity": 0,
    "openDays": [
      "平日",
      "土曜日",
      "日曜日",
      "祝日"
    ],
    "openDaysNote": ""
  },
  {
    "id": "4770801290",
    "name": "ヘルパーステーション　にじ",
    "kana": "ヘルパーステーション　ニジ",
    "address": "沖縄県浦添市仲西３丁目１５番１号　１階",
    "lat": 26.2455495209701,
    "lng": 127.696836671017,
    "tel": "０９８－９８８－４５４１",
    "url": "",
    "pref": "沖縄県",
    "city": "浦添市",
    "category": "home_help",
    "serviceType": "訪問介護",
    "capacity": 0,
    "openDays": [
      "平日",
      "土曜日",
      "日曜日",
      "祝日"
    ],
    "openDaysNote": "休日はなし（但し、１２月３１日～１月３日と旧盆旧暦７月１５日の営業は独居、認知症、家族対応困難な方に限る）。自然現象による災害（風水害、地震など）、その他やむ得ず業務を遂行できない場合を除く。"
  },
  {
    "id": "4770801779",
    "name": "ヘルパーステーション　はな",
    "kana": "ヘルパーステーション　ハナ",
    "address": "沖縄県浦添市勢理客1丁目23番16号",
    "lat": 26.2420113562163,
    "lng": 127.696206730895,
    "tel": "098-917-0580",
    "url": "",
    "pref": "沖縄県",
    "city": "浦添市",
    "category": "home_help",
    "serviceType": "訪問介護",
    "capacity": null,
    "openDays": [
      "平日",
      "土曜日",
      "日曜日",
      "祝日"
    ],
    "openDaysNote": ""
  },
  {
    "id": "4770801746",
    "name": "ヘルパーステーション　りん",
    "kana": "ヘルパーステーション　リン",
    "address": "沖縄県浦添市宮城３－１３－１２　１F",
    "lat": 26.2476788,
    "lng": 127.7031451,
    "tel": "098-875-3557",
    "url": "http://www.lstedako.com",
    "pref": "沖縄県",
    "city": "浦添市",
    "category": "home_help",
    "serviceType": "訪問介護",
    "capacity": null,
    "openDays": [
      "平日",
      "土曜日",
      "日曜日",
      "祝日"
    ],
    "openDaysNote": ""
  },
  {
    "id": "4770801324",
    "name": "ヘルパーステーション　咲き",
    "kana": "ヘルパーステーション　サキ",
    "address": "宮城3丁目9番14号パティオB'sⅡ101号 パティオB'sⅡ101号",
    "lat": 38.2584801,
    "lng": 140.8769777,
    "tel": "098-875-8202",
    "url": "",
    "pref": "沖縄県",
    "city": "浦添市",
    "category": "home_help",
    "serviceType": "訪問介護",
    "capacity": 3,
    "openDays": [
      "平日",
      "土曜日",
      "日曜日",
      "祝日"
    ],
    "openDaysNote": "年中無休、24時間　（台風時は利用者の状況に応じて対応）"
  },
  {
    "id": "4770101022",
    "name": "ヘルパーステーション　福寿",
    "kana": "ヘルパーステーション　フクジュ",
    "address": "沖縄県浦添市当山２丁目１０番１０号",
    "lat": 26.2489776,
    "lng": 127.7378528,
    "tel": "098-871-1544",
    "url": "",
    "pref": "沖縄県",
    "city": "浦添市",
    "category": "home_help",
    "serviceType": "訪問介護",
    "capacity": 0,
    "openDays": [
      "平日",
      "土曜日",
      "日曜日",
      "祝日"
    ],
    "openDaysNote": "但し、利用者からの要望がある場合は、時間外でも対応できる。"
  },
  {
    "id": "4770801688",
    "name": "ヘルパーステーションうんてん",
    "kana": "ヘルパーステーションウンテン",
    "address": "沖縄県浦添市西原5丁目23-5　パティオンハイツ102号室",
    "lat": 26.2463616,
    "lng": 127.7420995,
    "tel": "098-988-9936",
    "url": "https://www.unten.okinawa/",
    "pref": "沖縄県",
    "city": "浦添市",
    "category": "home_help",
    "serviceType": "訪問介護",
    "capacity": null,
    "openDays": [
      "平日"
    ],
    "openDaysNote": ""
  },
  {
    "id": "4770801514",
    "name": "ヘルパーステーションこころ",
    "kana": "ヘルパーステーションココロ",
    "address": "沖縄県浦添市字前田５９５－４K氏店舗１０２号 K氏店舗１０２号",
    "lat": 26.2403613159835,
    "lng": 127.731976492667,
    "tel": "989434265",
    "url": "",
    "pref": "沖縄県",
    "city": "浦添市",
    "category": "home_help",
    "serviceType": "訪問介護",
    "capacity": 0,
    "openDays": [
      "平日",
      "土曜日",
      "日曜日",
      "祝日"
    ],
    "openDaysNote": "12/29～1/3の営業は独居、認知症、家族対応困難な方に限る"
  },
  {
    "id": "4770801910",
    "name": "ヘルパーステーションしんらい浦添",
    "kana": "ヘルパーステーションシンライウラソエ",
    "address": "前田２丁目３番地９PREGIO、M、１階 PREGIO、M、１階",
    "lat": 26.2441921,
    "lng": 127.7322117,
    "tel": "098-975-9165",
    "url": "",
    "pref": "沖縄県",
    "city": "浦添市",
    "category": "home_help",
    "serviceType": "訪問介護",
    "capacity": 0,
    "openDays": [
      "平日",
      "土曜日",
      "日曜日",
      "祝日"
    ],
    "openDaysNote": ""
  },
  {
    "id": "4770801738",
    "name": "ヘルパーステーションてーしち",
    "kana": "テーシチ",
    "address": "沖縄県浦添市西原１丁目４１番６号丸雄荘201 丸雄荘201",
    "lat": 26.2534797,
    "lng": 127.7443845,
    "tel": "098-943-6351",
    "url": "",
    "pref": "沖縄県",
    "city": "浦添市",
    "category": "home_help",
    "serviceType": "訪問介護",
    "capacity": null,
    "openDays": [
      "平日",
      "土曜日"
    ],
    "openDaysNote": ""
  },
  {
    "id": "4770801589",
    "name": "ヘルパーステーションらくだ",
    "kana": "ヘルパーステーションラクダ",
    "address": "沖縄県浦添市伊祖4-16-1",
    "lat": 26.2547805019904,
    "lng": 127.723018926073,
    "tel": "(098)870-1026",
    "url": "https://jin-aikai.com/zaitaku/about-zaitaku/rakuda/",
    "pref": "沖縄県",
    "city": "浦添市",
    "category": "home_help",
    "serviceType": "訪問介護",
    "capacity": 125,
    "openDays": [
      "平日",
      "土曜日",
      "日曜日",
      "祝日"
    ],
    "openDaysNote": ""
  },
  {
    "id": "4770801845",
    "name": "ヘルパーステーション花はな",
    "kana": "ヘルパーステーションハナハナ",
    "address": "沖縄県浦添市牧港2丁目9番5号",
    "lat": 26.2598665532601,
    "lng": 127.723317828242,
    "tel": "989170580",
    "url": "",
    "pref": "沖縄県",
    "city": "浦添市",
    "category": "home_help",
    "serviceType": "訪問介護",
    "capacity": 0,
    "openDays": [
      "平日",
      "土曜日",
      "日曜日",
      "祝日"
    ],
    "openDaysNote": ""
  },
  {
    "id": "4770801613",
    "name": "ヘルパーステーション小枝",
    "kana": "ヘルパーステーション　コエダ",
    "address": "沖縄県浦添市字経塚350番地",
    "lat": 26.2341101,
    "lng": 127.7238924,
    "tel": "098-870-5551",
    "url": "https://www.care-and-service.com/",
    "pref": "沖縄県",
    "city": "浦添市",
    "category": "home_help",
    "serviceType": "訪問介護",
    "capacity": 0,
    "openDays": [
      "平日",
      "土曜日",
      "祝日"
    ],
    "openDaysNote": ""
  },
  {
    "id": "4770801837",
    "name": "ヘルパステーションＯＣＣ",
    "kana": "ヘルパーステーションオーシーシー",
    "address": "沖縄県浦添市宮城五丁目３番７号１階 １階",
    "lat": 26.2420257886721,
    "lng": 127.704275660119,
    "tel": "098-943-8466",
    "url": "http://hs-occ.com/",
    "pref": "沖縄県",
    "city": "浦添市",
    "category": "home_help",
    "serviceType": "訪問介護",
    "capacity": null,
    "openDays": [
      "平日",
      "土曜日",
      "日曜日",
      "祝日"
    ],
    "openDaysNote": "休日はなし（但し、天災・その他やむを得ず業務を遂行できない日を除く。12/31～1/3のサービス提供は独居、認知症、家族対応困難な方は相談に応じる。）"
  },
  {
    "id": "4770801811",
    "name": "ホームケアおねっと",
    "kana": "ホームケアオネット",
    "address": "沖縄県浦添市内間２丁目７番６号玉正アパート１０３号室 玉正アパート１０３号室",
    "lat": 26.2364691,
    "lng": 127.7066622,
    "tel": "098-963-9524",
    "url": "ezonsu.com",
    "pref": "沖縄県",
    "city": "浦添市",
    "category": "home_help",
    "serviceType": "訪問介護",
    "capacity": null,
    "openDays": [
      "平日",
      "土曜日",
      "日曜日",
      "祝日"
    ],
    "openDaysNote": ""
  },
  {
    "id": "4760890063",
    "name": "浦添中央ケアセンター",
    "kana": "ウラソエチュウオウケアセンター",
    "address": "沖縄県浦添市西原1丁目13番地1号",
    "lat": 26.2539882,
    "lng": 127.7400135,
    "tel": "098-874-6631",
    "url": "https://carenet.okinawa/",
    "pref": "沖縄県",
    "city": "浦添市",
    "category": "home_help",
    "serviceType": "訪問介護",
    "capacity": 0,
    "openDays": [
      "平日",
      "土曜日",
      "日曜日",
      "祝日"
    ],
    "openDaysNote": "ケアプランに応じて24時間365のサービスの提供"
  },
  {
    "id": "4770801852",
    "name": "訪問介護あろは　うちま",
    "kana": "ホウモンカイゴアロハ　ウチマ",
    "address": "沖縄県浦添市内間3-1-10清流マンション　106号 清流マンション　106号",
    "lat": 26.2364127,
    "lng": 127.7040224,
    "tel": "098-943-7184",
    "url": "https://mahalo-tami.com/",
    "pref": "沖縄県",
    "city": "浦添市",
    "category": "home_help",
    "serviceType": "訪問介護",
    "capacity": null,
    "openDays": [
      "平日",
      "土曜日",
      "日曜日",
      "祝日"
    ],
    "openDaysNote": "※早朝および夜間〔通常料金の25％増し〕、深夜〔通常料金の50％増し〕となります"
  },
  {
    "id": "4770800961",
    "name": "訪問介護サービス　かなさ",
    "kana": "ホウモンカイゴサービス　カナサ",
    "address": "沖縄県浦添市伊祖4丁目18番2号B-1 B-1",
    "lat": 26.2557602438486,
    "lng": 127.722460986508,
    "tel": "098-943-7645",
    "url": "",
    "pref": "沖縄県",
    "city": "浦添市",
    "category": "home_help",
    "serviceType": "訪問介護",
    "capacity": 0,
    "openDays": [
      "平日",
      "土曜日",
      "日曜日",
      "祝日"
    ],
    "openDaysNote": "台風時においてはバスが運休した場合、お休みとなります。"
  },
  {
    "id": "4770800532",
    "name": "訪問介護ステーションみらい",
    "kana": "ホウモンカイゴステーションミライ",
    "address": "沖縄県浦添市宮城４－２０－７",
    "lat": 26.2445432,
    "lng": 127.7019223,
    "tel": "098-877-2966",
    "url": "https://www.mirai-okinawa.net/",
    "pref": "沖縄県",
    "city": "浦添市",
    "category": "home_help",
    "serviceType": "訪問介護",
    "capacity": 0,
    "openDays": [
      "平日",
      "土曜日",
      "日曜日",
      "祝日"
    ],
    "openDaysNote": ""
  },
  {
    "id": "4770801498",
    "name": "訪問介護事業所満天",
    "kana": "ホウモンカイゴジギョウショマンテン",
    "address": "沖縄県浦添市仲西二丁目３番８号",
    "lat": 26.2463859157588,
    "lng": 127.700573943378,
    "tel": "098-960-2751",
    "url": "",
    "pref": "沖縄県",
    "city": "浦添市",
    "category": "home_help",
    "serviceType": "訪問介護",
    "capacity": 0,
    "openDays": [
      "平日",
      "土曜日",
      "日曜日",
      "祝日"
    ],
    "openDaysNote": ""
  },
  {
    "id": "4770400937",
    "name": "ＪＡおきなわ中部介護福祉センター　訪問介護事業所",
    "kana": "ジェイエイ　　　　チュウブカイゴフクシ　　　　　ホウモンカイゴジギョウショ",
    "address": "沖縄県沖縄市美里1-27-6",
    "lat": 26.3420009,
    "lng": 127.818454,
    "tel": "098-921-0206",
    "url": "",
    "pref": "沖縄県",
    "city": "沖縄市",
    "category": "home_help",
    "serviceType": "訪問介護",
    "capacity": 0,
    "openDays": [
      "平日",
      "土曜日",
      "日曜日",
      "祝日"
    ],
    "openDaysNote": ""
  },
  {
    "id": "4770400606",
    "name": "あわせヘルパーステーション",
    "kana": "アワセヘルパーステーション",
    "address": "沖縄県沖縄市泡瀬４丁目４１番１号",
    "lat": 26.315065,
    "lng": 127.8275846,
    "tel": "098-934-7727",
    "url": "",
    "pref": "沖縄県",
    "city": "沖縄市",
    "category": "home_help",
    "serviceType": "訪問介護",
    "capacity": 0,
    "openDays": [
      "平日",
      "土曜日",
      "日曜日",
      "祝日"
    ],
    "openDaysNote": "３６５日年中無休（但し、ヘルパーの稼働状況等により提供できない場合あり）"
  },
  {
    "id": "4770402875",
    "name": "あわせヘルパーステーション",
    "kana": "アワセヘルパーステーション",
    "address": "比屋根２丁目１番２２号",
    "lat": 26.3164312,
    "lng": 127.8248614,
    "tel": "098-989-7271",
    "url": "",
    "pref": "沖縄県",
    "city": "沖縄市",
    "category": "home_help",
    "serviceType": "訪問介護",
    "capacity": 0,
    "openDays": [
      "平日",
      "土曜日",
      "日曜日",
      "祝日"
    ],
    "openDaysNote": ""
  },
  {
    "id": "4770402214",
    "name": "いきがいヘルパーステーション",
    "kana": "イキガイヘルパーステーション",
    "address": "沖縄県沖縄市美里6丁目15番16号1F 1F",
    "lat": 26.3530737,
    "lng": 127.8063427,
    "tel": "098-989-9367",
    "url": "http://www.ikigai-days.com",
    "pref": "沖縄県",
    "city": "沖縄市",
    "category": "home_help",
    "serviceType": "訪問介護",
    "capacity": 0,
    "openDays": [
      "平日",
      "土曜日",
      "日曜日",
      "祝日"
    ],
    "openDaysNote": "台風接近時、災害時は従業者の安全を優先として休む場合がある。"
  },
  {
    "id": "4770400283",
    "name": "きづき訪問介護事業所",
    "kana": "キヅキホウモンカイゴジギョウショ",
    "address": "沖縄県沖縄市泡瀬一丁目21番15号",
    "lat": 26.3200904,
    "lng": 127.8375132,
    "tel": "098-937-5512",
    "url": "",
    "pref": "沖縄県",
    "city": "沖縄市",
    "category": "home_help",
    "serviceType": "訪問介護",
    "capacity": 22,
    "openDays": [
      "平日",
      "土曜日",
      "日曜日",
      "祝日"
    ],
    "openDaysNote": ""
  },
  {
    "id": "4770403170",
    "name": "きづき訪問介護事業所",
    "kana": "キヅキホウモンカイゴジギョウショ",
    "address": "沖縄市泡瀬1丁目21番15号",
    "lat": 26.3200785,
    "lng": 127.8375395,
    "tel": "098ー937ー5512",
    "url": "",
    "pref": "沖縄県",
    "city": "沖縄市",
    "category": "home_help",
    "serviceType": "訪問介護",
    "capacity": 0,
    "openDays": [
      "平日",
      "土曜日",
      "祝日"
    ],
    "openDaysNote": ""
  },
  {
    "id": "4770400366",
    "name": "ケアサービス　かりゆし",
    "kana": "ケアサービス　カリユシ",
    "address": "沖縄県沖縄市比屋根6-22-3",
    "lat": 26.3161758,
    "lng": 127.815519,
    "tel": "098-931-1950",
    "url": "",
    "pref": "沖縄県",
    "city": "沖縄市",
    "category": "home_help",
    "serviceType": "訪問介護",
    "capacity": 0,
    "openDays": [
      "平日",
      "土曜日",
      "日曜日",
      "祝日"
    ],
    "openDaysNote": ""
  },
  {
    "id": "4770402560",
    "name": "ケアサービス笑福亭",
    "kana": "ケアサービスショウフクテイ",
    "address": "沖縄県沖縄市嘉間良2-1-51真喜志第2アパート102 真喜志第2アパート102",
    "lat": 26.3401221,
    "lng": 127.8072553,
    "tel": "098-938-8584",
    "url": "https://llceifuku.amebaownd.com/",
    "pref": "沖縄県",
    "city": "沖縄市",
    "category": "home_help",
    "serviceType": "訪問介護",
    "capacity": 0,
    "openDays": [
      "平日",
      "土曜日",
      "日曜日",
      "祝日"
    ],
    "openDaysNote": "台風、災害時は状況に応じ連絡、調整を行なう。"
  },
  {
    "id": "4770401885",
    "name": "ケアサポートセンターうみそら",
    "kana": "ケアサポートセンターウミソラ",
    "address": "沖縄県沖縄市高原6-15-6ハートピアG4103号 ハートピアG4103号",
    "lat": 26.3174093,
    "lng": 127.8267929,
    "tel": "098-923-3086",
    "url": "",
    "pref": "沖縄県",
    "city": "沖縄市",
    "category": "home_help",
    "serviceType": "訪問介護",
    "capacity": 0,
    "openDays": [
      "平日",
      "土曜日",
      "日曜日",
      "祝日"
    ],
    "openDaysNote": "年末年始12月31日～1月3日(休業)（必要に応じ訪問できる体制等を持つ）"
  },
  {
    "id": "4770400481",
    "name": "ケアステーションだるま",
    "kana": "ケアステーションダルマ",
    "address": "沖縄県沖縄市美里仲原町コーポエルソール102",
    "lat": 26.3451938,
    "lng": 127.828946,
    "tel": "098-929-3368",
    "url": "http://www.",
    "pref": "沖縄県",
    "city": "沖縄市",
    "category": "home_help",
    "serviceType": "訪問介護",
    "capacity": 5,
    "openDays": [
      "平日",
      "土曜日",
      "日曜日",
      "祝日"
    ],
    "openDaysNote": ""
  },
  {
    "id": "4770401380",
    "name": "コロニーヘルパーステーションみなみとうばる",
    "kana": "コロニーヘルパーステーションミナミトウバル",
    "address": "沖縄県沖縄市南桃原三丁目４番１１号",
    "lat": 26.3201219,
    "lng": 127.7819105,
    "tel": "０９８－９８９－１２４２",
    "url": "http:/www.okicolo.or.jp",
    "pref": "沖縄県",
    "city": "沖縄市",
    "category": "home_help",
    "serviceType": "訪問介護",
    "capacity": 0,
    "openDays": [
      "平日",
      "土曜日",
      "日曜日",
      "祝日"
    ],
    "openDaysNote": "特になし"
  },
  {
    "id": "4770402842",
    "name": "さくらスマイルケアサービス",
    "kana": "サクラスマイルケアサービス",
    "address": "沖縄市比屋根３丁目14-3",
    "lat": 26.3121795,
    "lng": 127.8262236,
    "tel": "098-923-2686",
    "url": "",
    "pref": "沖縄県",
    "city": "沖縄市",
    "category": "home_help",
    "serviceType": "訪問介護",
    "capacity": null,
    "openDays": [
      "平日",
      "祝日"
    ],
    "openDaysNote": "12/31～1/3は除く(ただし対応日以外にも相談に応じる)"
  },
  {
    "id": "4770402230",
    "name": "サポートセンターうさぎ",
    "kana": "サポートセンターウサギ",
    "address": "沖縄県沖縄市泡瀬四丁目38番7号YAMAITIビル1F YAMAITIビル1F",
    "lat": 26.3145263,
    "lng": 127.8293192,
    "tel": "098-911-4530",
    "url": "https:/supportusagi.com",
    "pref": "沖縄県",
    "city": "沖縄市",
    "category": "home_help",
    "serviceType": "訪問介護",
    "capacity": 0,
    "openDays": [
      "平日",
      "土曜日",
      "日曜日",
      "祝日"
    ],
    "openDaysNote": "利用者の要介護状況に応じて24時間対応。"
  },
  {
    "id": "4770400044",
    "name": "ニチイケアセンター沖縄",
    "kana": "ニチイケアセンターオキナワ",
    "address": "沖縄県沖縄市久保田3-1-12プラザハウスフェアモール3F プラザハウスフェアモール3F",
    "lat": 26.3197637,
    "lng": 127.7940153,
    "tel": "098-982-2761",
    "url": "http://www.nichiigakkan.co.jp",
    "pref": "沖縄県",
    "city": "沖縄市",
    "category": "home_help",
    "serviceType": "訪問介護",
    "capacity": 0,
    "openDays": [
      "平日",
      "土曜日",
      "日曜日",
      "祝日"
    ],
    "openDaysNote": "※365日24時間サービス提供実施　※台風、災害時は状況に応じ連絡、調整を行う。※居宅サービス計画により、休業日および営業時間外であってもサービスを提供する場合があります。"
  },
  {
    "id": "4770402883",
    "name": "ヘルパーステーション　わくわくの森登川",
    "kana": "ヘルパーステーション　ワクワクノモリノボリカワ",
    "address": "沖縄県沖縄市登川695番地1",
    "lat": 26.3701148041148,
    "lng": 127.826001334879,
    "tel": "080-9851-3214",
    "url": "https://bestlife-okinawa.co.jp",
    "pref": "沖縄県",
    "city": "沖縄市",
    "category": "home_help",
    "serviceType": "訪問介護",
    "capacity": 0,
    "openDays": [
      "平日",
      "土曜日",
      "日曜日",
      "祝日"
    ],
    "openDaysNote": ""
  },
  {
    "id": "4770403097",
    "name": "ヘルパーステーションＬａｎａ‐ラナ‐",
    "kana": "ヘルパーステーションラナ",
    "address": "沖縄県沖縄市明道1丁目23番15号ともアパート102号室 ともアパート102号室",
    "lat": 26.3537603,
    "lng": 127.8234306,
    "tel": "098-979-8286",
    "url": "",
    "pref": "沖縄県",
    "city": "沖縄市",
    "category": "home_help",
    "serviceType": "訪問介護",
    "capacity": null,
    "openDays": [
      "平日",
      "土曜日",
      "日曜日",
      "祝日"
    ],
    "openDaysNote": ""
  },
  {
    "id": "4770402396",
    "name": "ヘルパーステーションアップ",
    "kana": "ヘルパーステーションアップ",
    "address": "沖縄県沖縄市桃原三丁目3番21号",
    "lat": 26.3347754500734,
    "lng": 127.82741979607,
    "tel": "098-989-4873",
    "url": "",
    "pref": "沖縄県",
    "city": "沖縄市",
    "category": "home_help",
    "serviceType": "訪問介護",
    "capacity": null,
    "openDays": [
      "平日",
      "土曜日",
      "日曜日",
      "祝日"
    ],
    "openDaysNote": "・自然災害等により公共交通機関が停止した場合を除く。（改行）・上記の時間帯で対応出来る訪問介護員が居る場合に限る。"
  },
  {
    "id": "4770402545",
    "name": "ヘルパーステーションエール",
    "kana": "ヘルパーステーションエール",
    "address": "沖縄県沖縄市泡瀬5丁目26番23号",
    "lat": 26.324744,
    "lng": 127.8303973,
    "tel": "098-800-2088",
    "url": "",
    "pref": "沖縄県",
    "city": "沖縄市",
    "category": "home_help",
    "serviceType": "訪問介護",
    "capacity": 0,
    "openDays": [
      "平日",
      "土曜日",
      "日曜日",
      "祝日"
    ],
    "openDaysNote": "電話等により、24時間常時連絡が可能。"
  },
  {
    "id": "4770402800",
    "name": "ヘルパーステーションスイート宮里",
    "kana": "ヘルパーステーションスイートミヤザト",
    "address": "沖縄県沖縄市宮里四丁目３２‐１９",
    "lat": 26.3384594051698,
    "lng": 127.82619442209,
    "tel": "098-989-7941",
    "url": "",
    "pref": "沖縄県",
    "city": "沖縄市",
    "category": "home_help",
    "serviceType": "訪問介護",
    "capacity": 0,
    "openDays": [
      "平日",
      "土曜日",
      "日曜日",
      "祝日"
    ],
    "openDaysNote": "サービス提供にあたっては営業時間に関わらず、相談に応じます。"
  },
  {
    "id": "4770401026",
    "name": "ヘルパーステーションふれ愛",
    "kana": "ヘルパーステーション　フレアイ",
    "address": "沖縄県沖縄市仲宗根町19番1号",
    "lat": 26.3344461067984,
    "lng": 127.803069795599,
    "tel": "098-938-1038",
    "url": "h.fureai@basil.ocn.ne.jp",
    "pref": "沖縄県",
    "city": "沖縄市",
    "category": "home_help",
    "serviceType": "訪問介護",
    "capacity": 15,
    "openDays": [
      "平日",
      "土曜日",
      "日曜日",
      "祝日"
    ],
    "openDaysNote": "年中無休・２４時間対応"
  },
  {
    "id": "4770401943",
    "name": "ヘルパーステーションりんご",
    "kana": "ヘルパーステーションリンゴ",
    "address": "沖縄県沖縄市与儀3-3-2",
    "lat": 26.3105652,
    "lng": 127.8172357,
    "tel": "098-989-0713",
    "url": "https://www.jun-ringo.com/",
    "pref": "沖縄県",
    "city": "沖縄市",
    "category": "home_help",
    "serviceType": "訪問介護",
    "capacity": 0,
    "openDays": [
      "平日",
      "土曜日",
      "日曜日",
      "祝日"
    ],
    "openDaysNote": ""
  },
  {
    "id": "4770801894",
    "name": "ヘルパーステーションわくわくの森登川",
    "kana": "ヘルパーステーションワクワクノモリノボリカワ",
    "address": "沖縄県沖縄市登川695番地1",
    "lat": 26.3698451724296,
    "lng": 127.826111383772,
    "tel": "080-9851-3214",
    "url": "https://bestlife-okinawa.co.jp/",
    "pref": "沖縄県",
    "city": "沖縄市",
    "category": "home_help",
    "serviceType": "訪問介護",
    "capacity": 0,
    "openDays": [
      "平日",
      "土曜日",
      "日曜日",
      "祝日"
    ],
    "openDaysNote": ""
  },
  {
    "id": "4770402818",
    "name": "ヘルパーステーション信愛の丘",
    "kana": "ヘルパーステーションシンアイノオカ",
    "address": "沖縄県沖縄市池原3丁目3番8号",
    "lat": 26.38691,
    "lng": 127.8273909,
    "tel": "098-937-1165",
    "url": "https://shinaikai.com",
    "pref": "沖縄県",
    "city": "沖縄市",
    "category": "home_help",
    "serviceType": "訪問介護",
    "capacity": null,
    "openDays": [
      "平日",
      "土曜日",
      "日曜日",
      "祝日"
    ],
    "openDaysNote": "・深夜、早朝加算あり（改行）・一部、訪問介護同一建物減算1対象事業所あり。"
  },
  {
    "id": "4770401463",
    "name": "ヘルパーステーション宙伸",
    "kana": "ヘルパーステーションチュウシン",
    "address": "沖縄県沖縄市照屋1丁目10番4号",
    "lat": 26.3381654,
    "lng": 127.8149656,
    "tel": "098-989-0095",
    "url": "",
    "pref": "沖縄県",
    "city": "沖縄市",
    "category": "home_help",
    "serviceType": "訪問介護",
    "capacity": 0,
    "openDays": [
      "平日",
      "土曜日",
      "日曜日",
      "祝日"
    ],
    "openDaysNote": ""
  },
  {
    "id": "4770402636",
    "name": "ホウモンカイゴジギョウショシンカ",
    "kana": "訪問介護事業所シンカ",
    "address": "沖縄県沖縄市中央1-6-18根路銘店舗１階右 根路銘店舗１階右",
    "lat": 26.3370323,
    "lng": 127.8008671,
    "tel": "098-921-3251",
    "url": "https://shinka-okinawa.com/",
    "pref": "沖縄県",
    "city": "沖縄市",
    "category": "home_help",
    "serviceType": "訪問介護",
    "capacity": 0,
    "openDays": [
      "平日",
      "土曜日",
      "日曜日",
      "祝日"
    ],
    "openDaysNote": ""
  },
  {
    "id": "4770401331",
    "name": "ホームヘルプ　元氣のたね",
    "kana": "ホームヘルプ　ゲンキノタネ",
    "address": "古謝２丁目27-17",
    "lat": 26.3353781611708,
    "lng": 127.834760274072,
    "tel": "０９８－９８９－７３４５",
    "url": "http://www.fertile-soil.okinawa/",
    "pref": "沖縄県",
    "city": "沖縄市",
    "category": "home_help",
    "serviceType": "訪問介護",
    "capacity": 0,
    "openDays": [
      "平日",
      "土曜日",
      "日曜日",
      "祝日"
    ],
    "openDaysNote": "休日／年始（１月１日～２日）（改行）（改行）※必要性が高い場合には相談可"
  },
  {
    "id": "4770401828",
    "name": "ゆいまーる沖縄美里",
    "kana": "ユイマールオキナワミサト",
    "address": "沖縄県沖縄市美里二丁目28番5号ナーシングホーム沖縄美里 ナーシングホーム沖縄美里",
    "lat": 26.3443066491988,
    "lng": 127.816562431877,
    "tel": "098-934-7711",
    "url": "",
    "pref": "沖縄県",
    "city": "沖縄市",
    "category": "home_help",
    "serviceType": "訪問介護",
    "capacity": 60,
    "openDays": [
      "平日",
      "土曜日",
      "日曜日",
      "祝日"
    ],
    "openDaysNote": ""
  },
  {
    "id": "4770400127",
    "name": "ゆがふ在宅介護事業所",
    "kana": "ユガフザイタクカイゴジギョウショ",
    "address": "沖縄県沖縄市園田　二丁目-19番-6号",
    "lat": 26.3271049,
    "lng": 127.8018504,
    "tel": "098-932-0766",
    "url": "http://www.",
    "pref": "沖縄県",
    "city": "沖縄市",
    "category": "home_help",
    "serviceType": "訪問介護",
    "capacity": 0,
    "openDays": [
      "平日",
      "土曜日",
      "日曜日",
      "祝日"
    ],
    "openDaysNote": ""
  },
  {
    "id": "4770402339",
    "name": "ゆくりヘルパーステーション",
    "kana": "ユクリヘルパーステーション",
    "address": "沖縄県沖縄市上地1-13-28",
    "lat": 26.332997,
    "lng": 127.7978283,
    "tel": "098-989-5689",
    "url": "",
    "pref": "沖縄県",
    "city": "沖縄市",
    "category": "home_help",
    "serviceType": "訪問介護",
    "capacity": 0,
    "openDays": [
      "平日",
      "土曜日",
      "日曜日",
      "祝日"
    ],
    "openDaysNote": "時間外のサービスについては要相談"
  },
  {
    "id": "4770402602",
    "name": "よりそい訪問介護事業所",
    "kana": "ヨリソイホウモンカイゴジギョウショ",
    "address": "沖縄県沖縄市松本３丁目１７番３８号Ａ－２号 Ａ－２号",
    "lat": 26.356408,
    "lng": 127.8184125,
    "tel": "9094954591",
    "url": "",
    "pref": "沖縄県",
    "city": "沖縄市",
    "category": "home_help",
    "serviceType": "訪問介護",
    "capacity": 0,
    "openDays": [
      "平日",
      "土曜日",
      "日曜日",
      "祝日"
    ],
    "openDaysNote": ""
  },
  {
    "id": "4770402628",
    "name": "医療法人安心会　愛聖ヘルパーステーション",
    "kana": "イリョウホウジンアンシンカイ　アイセイヘルパーステーション",
    "address": "沖縄県沖縄市海邦1-16-29102号室 102号室",
    "lat": 26.3287169,
    "lng": 127.834145,
    "tel": "098-937-0659",
    "url": "http://anshinkai,jp",
    "pref": "沖縄県",
    "city": "沖縄市",
    "category": "home_help",
    "serviceType": "訪問介護",
    "capacity": 0,
    "openDays": [
      "平日",
      "土曜日",
      "日曜日",
      "祝日"
    ],
    "openDaysNote": "サービス提供時間、24時間（365日）"
  },
  {
    "id": "4760490187",
    "name": "一般社団法人中部地区医師会　ヘルパーステーション",
    "kana": "イッパンシャダンホウジンチュウブチクイシカイ　ヘルパーステーション",
    "address": "沖縄県沖縄市八重島２丁目１１番１２号",
    "lat": 26.3504754,
    "lng": 127.8049907,
    "tel": "098-921-2434",
    "url": "https://www.chubu-ishikai.or.jp/cma_public/home_healthcare/Default.aspx",
    "pref": "沖縄県",
    "city": "沖縄市",
    "category": "home_help",
    "serviceType": "訪問介護",
    "capacity": null,
    "openDays": [
      "平日"
    ],
    "openDaysNote": ""
  },
  {
    "id": "4770402578",
    "name": "沖縄市松本三丁目19-11",
    "kana": "オキナワシマツモトサンチョウメ19-11",
    "address": "沖縄県沖縄市松本三丁目19-11グリンーンライフ松本三丁目 グリンーンライフ松本三丁目",
    "lat": 26.3561307,
    "lng": 127.8201111,
    "tel": "098-939-6140",
    "url": "https://care-c-3tyoume.com",
    "pref": "沖縄県",
    "city": "沖縄市",
    "category": "home_help",
    "serviceType": "訪問介護",
    "capacity": 0,
    "openDays": [
      "平日",
      "土曜日",
      "日曜日",
      "祝日"
    ],
    "openDaysNote": ""
  },
  {
    "id": "4770400036",
    "name": "介護支援センター中部",
    "kana": "カイゴシエンセンターチュウブ",
    "address": "沖縄県沖縄市室川２丁目７－４９",
    "lat": 26.3378611092613,
    "lng": 127.809158306746,
    "tel": "098-921-0670",
    "url": "http://www.",
    "pref": "沖縄県",
    "city": "沖縄市",
    "category": "home_help",
    "serviceType": "訪問介護",
    "capacity": 60,
    "openDays": [
      "平日",
      "土曜日",
      "日曜日",
      "祝日"
    ],
    "openDaysNote": "転送サービスにより、２４時間電話連絡はとれる状態である。"
  },
  {
    "id": "4770400184",
    "name": "公益社団法人沖縄市シルバー人材センター",
    "kana": "コウエキシャダンホウジンオキナワシシルバージンザイセンター",
    "address": "沖縄県沖縄市美原三丁目1番1号",
    "lat": 26.3473594,
    "lng": 127.8169755,
    "tel": "098-929-1361",
    "url": "http://www.okinawasisi.com",
    "pref": "沖縄県",
    "city": "沖縄市",
    "category": "home_help",
    "serviceType": "訪問介護",
    "capacity": 0,
    "openDays": [
      "平日",
      "土曜日",
      "祝日"
    ],
    "openDaysNote": ""
  },
  {
    "id": "4770402040",
    "name": "中部サンケアネット訪問介護事業所",
    "kana": "チュウブサンケアネットホウモンカイゴジギョウショ",
    "address": "沖縄県沖縄市古謝津嘉山町24番3号原アパート101",
    "lat": 26.3575558,
    "lng": 127.8129209,
    "tel": "098-929-3900、",
    "url": "sun.sun.101@globe.ocn.ne.jp",
    "pref": "沖縄県",
    "city": "沖縄市",
    "category": "home_help",
    "serviceType": "訪問介護",
    "capacity": 0,
    "openDays": [
      "平日",
      "土曜日",
      "日曜日",
      "祝日"
    ],
    "openDaysNote": "台風、地震等の天災が発生し公共機関が運休の場合、サービス提供はお休みさせていただきます。"
  },
  {
    "id": "4750480032",
    "name": "中部徳洲会病院訪問介護事業所",
    "kana": "チュウブトクシュウカイビョウインホウモンカイゴジギョウショ",
    "address": "沖縄県沖縄市胡屋６丁目４番１９号",
    "lat": 26.3268951,
    "lng": 127.8100137,
    "tel": "098-933-3701",
    "url": "",
    "pref": "沖縄県",
    "city": "沖縄市",
    "category": "home_help",
    "serviceType": "訪問介護",
    "capacity": null,
    "openDays": [
      "平日",
      "土曜日",
      "日曜日",
      "祝日"
    ],
    "openDaysNote": ""
  },
  {
    "id": "4770402552",
    "name": "訪問介護　ConnectPLUS",
    "kana": "ホウモンカイゴ　コネクト　プラス",
    "address": "住吉一丁目３番１２号池田店舗・101 池田店舗・101",
    "lat": 35.6880278,
    "lng": 139.8106598,
    "tel": "098-989-6140",
    "url": "http://hp.kaipoke.biz",
    "pref": "沖縄県",
    "city": "沖縄市",
    "category": "home_help",
    "serviceType": "訪問介護",
    "capacity": 0,
    "openDays": [
      "平日",
      "土曜日"
    ],
    "openDaysNote": "土曜日はサービスのみ一部稼働（改行）祝日、年末年始はケアの必要性の高い方は要相談にて一部サービス稼働"
  },
  {
    "id": "4770402974",
    "name": "訪問介護　office　グッピー",
    "kana": "ホウモンカイゴ　オフィス　グッピー",
    "address": "沖縄県沖縄市大里1丁目9番30号",
    "lat": 26.326336,
    "lng": 127.8220932,
    "tel": "098-938-8030",
    "url": "",
    "pref": "沖縄県",
    "city": "沖縄市",
    "category": "home_help",
    "serviceType": "訪問介護",
    "capacity": null,
    "openDays": [
      "平日",
      "土曜日",
      "祝日"
    ],
    "openDaysNote": ""
  },
  {
    "id": "4770401562",
    "name": "訪問介護　えくぼ",
    "kana": "ホウモンカイゴ　エクボ",
    "address": "沖縄市池原五丁目３番２９号",
    "lat": 26.3833252,
    "lng": 127.8310212,
    "tel": "098-923-2581",
    "url": "http://www.oyadogrp.com/",
    "pref": "沖縄県",
    "city": "沖縄市",
    "category": "home_help",
    "serviceType": "訪問介護",
    "capacity": 0,
    "openDays": [
      "平日",
      "土曜日",
      "日曜日",
      "祝日"
    ],
    "openDaysNote": "ｻｰﾋﾞｽ提供日365日（改行）ｻｰﾋﾞｽ提供時間24時間"
  },
  {
    "id": "4770402719",
    "name": "訪問介護あろは　もろみざと",
    "kana": "ホウモンカイゴアロハ　モロミザト",
    "address": "沖縄県沖縄市諸見里3-24-4アリエッタ1F アリエッタ1F",
    "lat": 26.3251681,
    "lng": 127.7928084,
    "tel": "098-989-5136",
    "url": "https://life-design.okinawa/",
    "pref": "沖縄県",
    "city": "沖縄市",
    "category": "home_help",
    "serviceType": "訪問介護",
    "capacity": 100,
    "openDays": [
      "平日",
      "土曜日",
      "日曜日",
      "祝日"
    ],
    "openDaysNote": "サービス提供は24時間365日"
  },
  {
    "id": "4770401687",
    "name": "訪問介護いっしん池原",
    "kana": "ホウモンカイゴイッシンイケハラ",
    "address": "沖縄県沖縄市池原2-7-25",
    "lat": 26.3802255,
    "lng": 127.8245746,
    "tel": "098-929-2030",
    "url": "https://isshin.gr.jp/index.php",
    "pref": "沖縄県",
    "city": "沖縄市",
    "category": "home_help",
    "serviceType": "訪問介護",
    "capacity": 0,
    "openDays": [
      "平日",
      "土曜日",
      "日曜日",
      "祝日"
    ],
    "openDaysNote": ""
  },
  {
    "id": "4770400861",
    "name": "訪問介護カシータPlus",
    "kana": "ホウモンカイゴカシータプラス",
    "address": "沖縄県沖縄市松本一丁目11番1号美里の杜カシータ 美里の杜カシータ",
    "lat": 26.354862582213,
    "lng": 127.814212662427,
    "tel": "098-979-7777",
    "url": "https://tls-lab.com/",
    "pref": "沖縄県",
    "city": "沖縄市",
    "category": "home_help",
    "serviceType": "訪問介護",
    "capacity": 0,
    "openDays": [
      "平日"
    ],
    "openDaysNote": "営業日、営業時間、サービス提供時間のはか、電話等により24時間常時連絡が可能な体勢とする。"
  },
  {
    "id": "4770400465",
    "name": "訪問介護ステーション　ニヘーデービル",
    "kana": "ホウモンカイゴステーション　ニヘーデービル",
    "address": "沖縄県沖縄市大里3丁目12番9号",
    "lat": 26.325907753181,
    "lng": 127.825010323926,
    "tel": "098-989-5670",
    "url": "http://www.arigatou-okinawa.com/",
    "pref": "沖縄県",
    "city": "沖縄市",
    "category": "home_help",
    "serviceType": "訪問介護",
    "capacity": 0,
    "openDays": [
      "平日",
      "土曜日",
      "日曜日",
      "祝日"
    ],
    "openDaysNote": ""
  },
  {
    "id": "4770403055",
    "name": "訪問介護ステーションあみゅ～ず",
    "kana": "ホウモンカイゴステーションアミュ～ズ",
    "address": "海邦2丁目22－15海邦店舗１階左 海邦店舗１階左",
    "lat": 26.332994,
    "lng": 127.837351,
    "tel": "098-989-0600",
    "url": "https://care-station-amuse.com/",
    "pref": "沖縄県",
    "city": "沖縄市",
    "category": "home_help",
    "serviceType": "訪問介護",
    "capacity": 40,
    "openDays": [
      "平日",
      "土曜日",
      "日曜日",
      "祝日"
    ],
    "openDaysNote": "当施設の介護サービスは、利用者様の安心と快適な暮らしを最優先に考え、24時間365日対応しています。これにより、日中はもちろん、夜間や緊急時にも安心してサービスをご利用いただけます。"
  },
  {
    "id": "4770401174",
    "name": "訪問介護事業所　つわぶき",
    "kana": "ホウモンカイゴジギョウショ　ツワブキ",
    "address": "沖縄県沖縄市久保田1丁目10番3号",
    "lat": 26.3220302,
    "lng": 127.793943,
    "tel": "098-932-7898",
    "url": "",
    "pref": "沖縄県",
    "city": "沖縄市",
    "category": "home_help",
    "serviceType": "訪問介護",
    "capacity": 12,
    "openDays": [
      "平日",
      "土曜日",
      "日曜日",
      "祝日"
    ],
    "openDaysNote": "特になし"
  },
  {
    "id": "4770402255",
    "name": "訪問介護事業所　樹",
    "kana": "ホウモンカイゴジギョウショ　イツキ",
    "address": "沖縄県沖縄市大里２丁目６番６号ホーム樹 ホーム樹",
    "lat": 26.3266084,
    "lng": 127.8243373,
    "tel": "098-923-1002",
    "url": "",
    "pref": "沖縄県",
    "city": "沖縄市",
    "category": "home_help",
    "serviceType": "訪問介護",
    "capacity": 0,
    "openDays": [
      "平日",
      "土曜日",
      "日曜日",
      "祝日"
    ],
    "openDaysNote": ""
  },
  {
    "id": "4770401489",
    "name": "訪問介護事業所　心・和",
    "kana": "ホウモンカイゴジギョウショ　シンワ",
    "address": "美里3丁目17番16号",
    "lat": 26.3487753102973,
    "lng": 127.81400210423,
    "tel": "098-921-1127",
    "url": "",
    "pref": "沖縄県",
    "city": "沖縄市",
    "category": "home_help",
    "serviceType": "訪問介護",
    "capacity": 0,
    "openDays": [
      "平日",
      "土曜日",
      "日曜日",
      "祝日"
    ],
    "openDaysNote": "休日：年始休日（1月1日～1月3日）相談に応ず"
  },
  {
    "id": "4770401307",
    "name": "訪問介護事業所あおい",
    "kana": "ホウモンカイゴジギョウショアオイ",
    "address": "沖縄市高原４丁目２４番２５号",
    "lat": 26.321317,
    "lng": 127.8175325,
    "tel": "０９８－９３１－９２２０",
    "url": "",
    "pref": "沖縄県",
    "city": "沖縄市",
    "category": "home_help",
    "serviceType": "訪問介護",
    "capacity": 18,
    "openDays": [
      "平日",
      "土曜日",
      "日曜日",
      "祝日"
    ],
    "openDaysNote": "提供は。年中無休。ただし、台風暴風圏や天災、緊急事故等で介護者の身の危険回避のためお休み。年末年始２日間はお休み。ただし独居で、身寄りなく家族の協力得られない場合や他サービス等で対応出来ずやむ得ない場合は安否確認のため提供。コロナ過の為、従業員利用者安全のため、両方感染、濃厚接触疑いや、不要不急のサービスと判断した場合、提供をお休みする場合あります。"
  },
  {
    "id": "4770402073",
    "name": "訪問介護事業所エルスリー沖縄",
    "kana": "ホウモンカイゴジギョウショエルスリーオキナワ",
    "address": "沖縄県沖縄市高原７丁目１５番14号",
    "lat": 26.3188249578893,
    "lng": 127.823260707935,
    "tel": "098-989-0920",
    "url": "http://yuimaru-home.com/",
    "pref": "沖縄県",
    "city": "沖縄市",
    "category": "home_help",
    "serviceType": "訪問介護",
    "capacity": 40,
    "openDays": [
      "平日",
      "土曜日",
      "日曜日",
      "祝日"
    ],
    "openDaysNote": ""
  },
  {
    "id": "4770402081",
    "name": "訪問介護事業所ちゃーびらさい",
    "kana": "ホウモンカイゴジギョウショチャービラサイ",
    "address": "沖縄県沖縄市美里一丁目28番12号",
    "lat": 26.3426096,
    "lng": 127.8173791,
    "tel": "098-988-7255",
    "url": "https://marru.jp/",
    "pref": "沖縄県",
    "city": "沖縄市",
    "category": "home_help",
    "serviceType": "訪問介護",
    "capacity": null,
    "openDays": [
      "平日",
      "土曜日",
      "日曜日",
      "祝日"
    ],
    "openDaysNote": ""
  },
  {
    "id": "4770403006",
    "name": "訪問介護事業所ペンタスOP",
    "kana": "ホウモンカイゴジギョウショペンタスオーピー",
    "address": "沖縄県沖縄市高原6-2-6",
    "lat": 26.3217305,
    "lng": 127.8287784,
    "tel": "098-955-9147",
    "url": "http://sta-pentas.com/",
    "pref": "沖縄県",
    "city": "沖縄市",
    "category": "home_help",
    "serviceType": "訪問介護",
    "capacity": null,
    "openDays": [
      "平日",
      "土曜日",
      "日曜日",
      "祝日"
    ],
    "openDaysNote": "（看取り等必要に応じて24時間対応可能）"
  },
  {
    "id": "4770402420",
    "name": "訪問介護事業所積善会",
    "kana": "ホウモンカイゴジギョウショセキゼンカイ",
    "address": "沖縄県沖縄市胡屋７丁目１番２号喜屋武アパート１０１号室 喜屋武アパート１０１号室",
    "lat": 26.3248006,
    "lng": 127.8099758,
    "tel": "098-989-3215",
    "url": "",
    "pref": "沖縄県",
    "city": "沖縄市",
    "category": "home_help",
    "serviceType": "訪問介護",
    "capacity": null,
    "openDays": [
      "平日",
      "土曜日",
      "日曜日",
      "祝日"
    ],
    "openDaysNote": "サービス提供は年中無休・２４時間対応"
  },
  {
    "id": "4770402750",
    "name": "訪問介護事業所凪",
    "kana": "ホウモンカイゴジギョウショナギ",
    "address": "沖縄県沖縄市高原七丁目25−9",
    "lat": 26.3189273,
    "lng": 127.8237313,
    "tel": "098−923−4410",
    "url": "https://www.kokorosapoto.com/",
    "pref": "沖縄県",
    "city": "沖縄市",
    "category": "home_help",
    "serviceType": "訪問介護",
    "capacity": 0,
    "openDays": [
      "平日",
      "土曜日",
      "祝日"
    ],
    "openDaysNote": "ご利用者様から希望があればその他時間も対応"
  },
  {
    "id": "4770400028",
    "name": "緑樹苑居宅サービス事業所",
    "kana": "リョクジュエンキョタクサービスジギョウショ",
    "address": "沖縄県沖縄市胡屋7丁目2番10号",
    "lat": 26.3258331,
    "lng": 127.8113829,
    "tel": "098-933-3280",
    "url": "http://www.ryokujukai.or.jp",
    "pref": "沖縄県",
    "city": "沖縄市",
    "category": "home_help",
    "serviceType": "訪問介護",
    "capacity": 0,
    "openDays": [
      "平日",
      "土曜日",
      "日曜日",
      "祝日"
    ],
    "openDaysNote": "24時間対応。但し職員の体制状況により対応をお断りする場合もございます。"
  },
  {
    "id": "4771600022",
    "name": "恩納村社会福祉協議会指定訪問介護事業所",
    "kana": "オンナソンシャカイフクシキョウギカイシテイホウモンカイゴジギョウショ",
    "address": "沖縄県国頭郡恩納村字恩納6302番地恩納村総合保健福祉センター内 恩納村総合保健福祉センター内",
    "lat": 26.4877946,
    "lng": 127.8476523,
    "tel": "098-966-1150",
    "url": "http://www.onna-syakyo.com",
    "pref": "沖縄県",
    "city": "恩納村",
    "category": "home_help",
    "serviceType": "訪問介護",
    "capacity": 0,
    "openDays": [
      "平日",
      "土曜日",
      "日曜日",
      "祝日"
    ],
    "openDaysNote": ""
  },
  {
    "id": "4761190018",
    "name": "訪問介護ステーションうんな",
    "kana": "ホウモンカイゴステーションウンナ",
    "address": "沖縄県国頭郡恩納村字恩納2405番地",
    "lat": 26.4972275694883,
    "lng": 127.851158382874,
    "tel": "098-966-2560",
    "url": "",
    "pref": "沖縄県",
    "city": "恩納村",
    "category": "home_help",
    "serviceType": "訪問介護",
    "capacity": 0,
    "openDays": [
      "平日",
      "土曜日",
      "日曜日",
      "祝日"
    ],
    "openDaysNote": ""
  },
  {
    "id": "4772300119",
    "name": "ヘルパーステーション　サンハート",
    "kana": "ヘルパーステーション　サンハート",
    "address": "沖縄県中頭郡嘉手納町屋良１丁目21-1住宅型有料老人ホーム　サンハート 住宅型有料老人ホーム　サンハート",
    "lat": 26.3647100095181,
    "lng": 127.762616739812,
    "tel": "098-956-8101",
    "url": "http://www.sunheart-kadena.com/",
    "pref": "沖縄県",
    "city": "嘉手納町",
    "category": "home_help",
    "serviceType": "訪問介護",
    "capacity": null,
    "openDays": [
      "平日",
      "土曜日",
      "日曜日",
      "祝日"
    ],
    "openDaysNote": "電話等により、２４時間対応可"
  },
  {
    "id": "4772300135",
    "name": "訪問介護事業所　かたちゅむり",
    "kana": "ホウモンカイゴジギョウショ　カタチュムリ",
    "address": "沖縄県中頭郡嘉手納町字水釜477ハウスナンバー7256 ハウスナンバー7256",
    "lat": 26.3612507,
    "lng": 127.7477779,
    "tel": "098-989-1345",
    "url": "",
    "pref": "沖縄県",
    "city": "嘉手納町",
    "category": "home_help",
    "serviceType": "訪問介護",
    "capacity": 0,
    "openDays": [
      "平日",
      "土曜日",
      "日曜日",
      "祝日"
    ],
    "openDaysNote": "1月1日・旧暦7月15日・災害時（台風）は休みとします。"
  },
  {
    "id": "4771700012",
    "name": "宜野座村訪問介護事業所",
    "kana": "ギノザソンホウモンカイゴジギョウショ",
    "address": "沖縄県国頭郡宜野座村字惣慶１８９８番地宜野座村地域福祉センター内 宜野座村地域福祉センター内",
    "lat": 26.4831725,
    "lng": 127.9716396,
    "tel": "098-923-0770",
    "url": "http://www.ginoza-shakyo.or.jp",
    "pref": "沖縄県",
    "city": "宜野座村",
    "category": "home_help",
    "serviceType": "訪問介護",
    "capacity": 0,
    "openDays": [
      "平日",
      "土曜日",
      "日曜日",
      "祝日"
    ],
    "openDaysNote": "天災やその他やむを得ず業務を遂行できない日を除き毎日とする。"
  },
  {
    "id": "4761190075",
    "name": "訪問介護ステーションかんなの里",
    "kana": "ホウモンカイゴステーションカンナノサト",
    "address": "沖縄県国頭郡宜野座村字惣慶1771-7",
    "lat": 26.4809093223464,
    "lng": 127.970996366915,
    "tel": "098-979-6817",
    "url": "http://okinawa-kanna.or.jp/kannano-sato/",
    "pref": "沖縄県",
    "city": "宜野座村",
    "category": "home_help",
    "serviceType": "訪問介護",
    "capacity": 48,
    "openDays": [
      "平日",
      "土曜日",
      "日曜日",
      "祝日"
    ],
    "openDaysNote": "併設事業所提供時間"
  },
  {
    "id": "4771700061",
    "name": "訪問介護事業所　えがお",
    "kana": "ホウモンカイゴジギョウショ　エガオ",
    "address": "字漢那2287-6上原アパート102号 上原アパート102号",
    "lat": 26.4713048896914,
    "lng": 127.944304347038,
    "tel": "098-968-5682",
    "url": "",
    "pref": "沖縄県",
    "city": "宜野座村",
    "category": "home_help",
    "serviceType": "訪問介護",
    "capacity": 40,
    "openDays": [
      "平日",
      "土曜日",
      "日曜日",
      "祝日"
    ],
    "openDaysNote": "年中無休・24時間（改行）連絡体制：電話等により24時間常時連絡が可能な体制とする。"
  },
  {
    "id": "4770500173",
    "name": "ＰＡＩおきなわ",
    "kana": "ピーエーアイオキナワ",
    "address": "沖縄県宜野湾市伊佐4丁目4番1号",
    "lat": 26.2898591,
    "lng": 127.7530404,
    "tel": "098-890-1895",
    "url": "http://www.pai-okinawa.com/",
    "pref": "沖縄県",
    "city": "宜野湾市",
    "category": "home_help",
    "serviceType": "訪問介護",
    "capacity": null,
    "openDays": [
      "平日",
      "土曜日",
      "日曜日",
      "祝日"
    ],
    "openDaysNote": "訪問介護員は午前０時から午後２４時の２４時間対応でサービスを提供する。"
  },
  {
    "id": "4770500751",
    "name": "ケアーコミュニティ結び",
    "kana": "ケアーコニュニティムスビ",
    "address": "沖縄県宜野湾市宇地泊751-15ライオンズ宜野湾マリンシティ902 ライオンズ宜野湾マリンシティ902",
    "lat": 26.2747267,
    "lng": 127.7309105,
    "tel": "098-870-9155",
    "url": "",
    "pref": "沖縄県",
    "city": "宜野湾市",
    "category": "home_help",
    "serviceType": "訪問介護",
    "capacity": 0,
    "openDays": [
      "平日",
      "土曜日",
      "日曜日",
      "祝日"
    ],
    "openDaysNote": ""
  },
  {
    "id": "4770500801",
    "name": "トータルサポートセンターよつ葉　訪問介護ステーション",
    "kana": "トータルサポートセンターヨツバ　ホウモンカイゴステーション",
    "address": "志真志4-2-2　2F",
    "lat": 26.261646,
    "lng": 127.76072,
    "tel": "098-917-6323",
    "url": "https://www.uera.co.jp/",
    "pref": "沖縄県",
    "city": "宜野湾市",
    "category": "home_help",
    "serviceType": "訪問介護",
    "capacity": null,
    "openDays": [
      "平日",
      "土曜日",
      "日曜日",
      "祝日"
    ],
    "openDaysNote": "24時間連絡が取れる体制で取り組んでおります"
  },
  {
    "id": "4770501114",
    "name": "ニチイケアセンターぎのわん",
    "kana": "ニチイケアセンターギノワン",
    "address": "沖縄県宜野湾市赤道1-4-29コーポ喜屋武Ⅲ105号室 コーポ喜屋武Ⅲ105号室",
    "lat": 26.27319,
    "lng": 127.7711306,
    "tel": "098-896-2010",
    "url": "http://www.nichiigakkan.co.jp",
    "pref": "沖縄県",
    "city": "宜野湾市",
    "category": "home_help",
    "serviceType": "訪問介護",
    "capacity": null,
    "openDays": [
      "平日",
      "土曜日",
      "日曜日",
      "祝日"
    ],
    "openDaysNote": "サービス計画により休業日　及び営業時間外であってもサービス提供する場合もあります。"
  },
  {
    "id": "4770501262",
    "name": "ヘルパーステーションにぎやか",
    "kana": "ヘルパーステーションニギヤカ",
    "address": "沖縄県宜野湾市真栄原1-4-15KNCOURT　105号 KNCOURT　105号",
    "lat": 26.25829,
    "lng": 127.7469689,
    "tel": "098-975-5022",
    "url": "https://hp.kaipoke.biz/xkm/170049/base_0003.html",
    "pref": "沖縄県",
    "city": "宜野湾市",
    "category": "home_help",
    "serviceType": "訪問介護",
    "capacity": 0,
    "openDays": [
      "平日"
    ],
    "openDaysNote": "休日はなし（改行）（但し、天災・その他やむを得ず業務を遂行できない日を除く。12/31～1/3のサービス提供は独居、認知症、家族対応困難な方は相談に応じる。）"
  },
  {
    "id": "4760590028",
    "name": "ヘルパーステーションはごろも",
    "kana": "ヘルパーステーションハゴロモ",
    "address": "沖縄県宜野湾市野嵩1丁目11番14号",
    "lat": 26.2804767,
    "lng": 127.7801534,
    "tel": "098-892-2708",
    "url": "",
    "pref": "沖縄県",
    "city": "宜野湾市",
    "category": "home_help",
    "serviceType": "訪問介護",
    "capacity": null,
    "openDays": [
      "平日",
      "土曜日",
      "日曜日",
      "祝日"
    ],
    "openDaysNote": "事前の申し込みにより、夜間・休日に訪問できる。"
  },
  {
    "id": "4770500793",
    "name": "ヘルパーステーションプルメリア",
    "kana": "ヘルパーステーションプルメリア",
    "address": "大山５－３－１",
    "lat": 26.2794415,
    "lng": 127.7475451,
    "tel": "０９８－８９０－７７００",
    "url": "",
    "pref": "沖縄県",
    "city": "宜野湾市",
    "category": "home_help",
    "serviceType": "訪問介護",
    "capacity": 0,
    "openDays": [
      "平日",
      "土曜日",
      "日曜日",
      "祝日"
    ],
    "openDaysNote": ""
  },
  {
    "id": "4770501098",
    "name": "ヘルパーステーションむげん",
    "kana": "ヘルパーステーション　ムゲン",
    "address": "沖縄県宜野湾市嘉数3-28-7",
    "lat": 26.2584867681651,
    "lng": 127.732984836181,
    "tel": "098-943-6320",
    "url": "",
    "pref": "沖縄県",
    "city": "宜野湾市",
    "category": "home_help",
    "serviceType": "訪問介護",
    "capacity": 0,
    "openDays": [
      "平日",
      "土曜日",
      "日曜日",
      "祝日"
    ],
    "openDaysNote": ""
  },
  {
    "id": "4770501197",
    "name": "ヘルパーステーション逢華晴",
    "kana": "ヘルパーステーションアゲハ",
    "address": "沖縄県宜野湾市志真志３丁目７番１２号ハッピーライフイン１１０号 ハッピーライフイン１１０号",
    "lat": 26.2560069,
    "lng": 127.7626084,
    "tel": "098-870-9887",
    "url": "hana10702@gmail.com",
    "pref": "沖縄県",
    "city": "宜野湾市",
    "category": "home_help",
    "serviceType": "訪問介護",
    "capacity": 25,
    "openDays": [
      "平日",
      "土曜日",
      "日曜日",
      "祝日"
    ],
    "openDaysNote": "事業所は２４時間体制としておりますが、必要とする時間帯に訪問ヘルパーの空きのない場合もあります。"
  },
  {
    "id": "4770501239",
    "name": "ヘルパーステーション子ぶた",
    "kana": "ヘルパーステーションコブタ",
    "address": "沖縄県宜野湾市我如古4-3-7グッピーハウス201号室 グッピーハウス201号室",
    "lat": 26.2566709,
    "lng": 127.7514133,
    "tel": "080-6481-0094",
    "url": "",
    "pref": "沖縄県",
    "city": "宜野湾市",
    "category": "home_help",
    "serviceType": "訪問介護",
    "capacity": null,
    "openDays": [
      "平日",
      "土曜日",
      "日曜日",
      "祝日"
    ],
    "openDaysNote": "天災・その他やむを得ず業務を遂行できない日を除く。（改行）1/1～1/2のサービス提供は独居、認知症、家族対応困難な方に限る。"
  },
  {
    "id": "4770501254",
    "name": "リハケア訪問介護ステーションぎのわん",
    "kana": "リハケアホウモンカイゴステーションギノワン",
    "address": "沖縄県宜野湾市志真志3‐7‐12ハッピーライフイン208 ハッピーライフイン208",
    "lat": 26.2560077,
    "lng": 127.7626104,
    "tel": "080‐8363‐5743",
    "url": "",
    "pref": "沖縄県",
    "city": "宜野湾市",
    "category": "home_help",
    "serviceType": "訪問介護",
    "capacity": null,
    "openDays": [
      "平日",
      "土曜日",
      "祝日"
    ],
    "openDaysNote": "サービス提供日・時間外であっても相談可能である。（改行）12月30日から1月3日要相談。"
  },
  {
    "id": "4770500017",
    "name": "在宅介護サービス　きずな",
    "kana": "ザイタクカイゴサービス　キズナ",
    "address": "沖縄県宜野湾市普天間２丁目３１番７号",
    "lat": 26.2899744,
    "lng": 127.7730705,
    "tel": "098-896-1165",
    "url": "",
    "pref": "沖縄県",
    "city": "宜野湾市",
    "category": "home_help",
    "serviceType": "訪問介護",
    "capacity": 0,
    "openDays": [
      "平日",
      "土曜日",
      "日曜日",
      "祝日"
    ],
    "openDaysNote": "相談により援助時間外利用の調整可"
  },
  {
    "id": "4770501155",
    "name": "訪問介護ＴＲＥＥ宜野湾",
    "kana": "ホウモンカイゴツリーギノワン",
    "address": "沖縄県宜野湾市大謝名90-3Link58302号室 Link58302号室",
    "lat": 26.2688807,
    "lng": 127.7324196,
    "tel": "098-898-7280",
    "url": "http://www.treeokinawa.com",
    "pref": "沖縄県",
    "city": "宜野湾市",
    "category": "home_help",
    "serviceType": "訪問介護",
    "capacity": 60,
    "openDays": [
      "平日",
      "土曜日",
      "日曜日",
      "祝日"
    ],
    "openDaysNote": ""
  },
  {
    "id": "4770501148",
    "name": "訪問介護あろは　うちどまり",
    "kana": "ホウモンカイゴアロハウチドマリ",
    "address": "沖縄県宜野湾市宇地泊505松門氏店舗１０２ 松門氏店舗１０２",
    "lat": 26.2694436,
    "lng": 127.7279415,
    "tel": "989171662",
    "url": "https://life-design.okinawa/",
    "pref": "沖縄県",
    "city": "宜野湾市",
    "category": "home_help",
    "serviceType": "訪問介護",
    "capacity": 200,
    "openDays": [],
    "openDaysNote": "24時間365日対応"
  },
  {
    "id": "4770501049",
    "name": "訪問介護あろはぎのわん",
    "kana": "ホウモンカイゴアロハギノワン",
    "address": "沖縄県宜野湾市上原2-1-8",
    "lat": 26.2748364689064,
    "lng": 127.774777823106,
    "tel": "098-894-9881",
    "url": "http://aloha-kaigo.net",
    "pref": "沖縄県",
    "city": "宜野湾市",
    "category": "home_help",
    "serviceType": "訪問介護",
    "capacity": 150,
    "openDays": [
      "平日",
      "土曜日",
      "日曜日",
      "祝日"
    ],
    "openDaysNote": "サービス提供は24時間365日"
  },
  {
    "id": "4760590002",
    "name": "訪問介護ステーションかいほう",
    "kana": "ホウモンカイゴステーション　カイホウ",
    "address": "沖縄県宜野湾市真志喜2丁目22番2号",
    "lat": 26.2766722,
    "lng": 127.7375903,
    "tel": "098-942-8263",
    "url": "https://www.kaiho.or.jp/riha/houmonkaigo.html",
    "pref": "沖縄県",
    "city": "宜野湾市",
    "category": "home_help",
    "serviceType": "訪問介護",
    "capacity": 0,
    "openDays": [
      "平日",
      "土曜日",
      "日曜日",
      "祝日"
    ],
    "openDaysNote": ""
  },
  {
    "id": "4770500702",
    "name": "訪問介護ステーションふれあい",
    "kana": "ホウモンカイゴステーションフレアイ",
    "address": "沖縄県宜野湾市字我如古402番地",
    "lat": 26.2602927710251,
    "lng": 127.746622171751,
    "tel": "098-897-4990",
    "url": "http://fureai-kaigo.com",
    "pref": "沖縄県",
    "city": "宜野湾市",
    "category": "home_help",
    "serviceType": "訪問介護",
    "capacity": 0,
    "openDays": [
      "平日",
      "土曜日",
      "祝日"
    ],
    "openDaysNote": "利用可能時間は設定しているが、ヘルパー派遣は相談に応じて可能ならば行う。"
  },
  {
    "id": "4770500926",
    "name": "訪問介護センター彩風の杜",
    "kana": "ホウモンカイゴセンターアヤカゼノモリ",
    "address": "沖縄県宜野湾市上原１丁目8番５号1F",
    "lat": 26.2789142,
    "lng": 127.7782011,
    "tel": "098-896-1103",
    "url": "https://www.okichuen.jp/",
    "pref": "沖縄県",
    "city": "宜野湾市",
    "category": "home_help",
    "serviceType": "訪問介護",
    "capacity": 0,
    "openDays": [
      "平日",
      "土曜日",
      "日曜日",
      "祝日"
    ],
    "openDaysNote": ""
  },
  {
    "id": "4770501247",
    "name": "訪問介護トータルサポート",
    "kana": "ホウモンカイゴトータルサポート",
    "address": "沖縄県宜野湾市野嵩１－１０－１１浩陽野嵩アパート201号室 浩陽野嵩アパート201号室",
    "lat": 26.2803224,
    "lng": 127.7806615,
    "tel": "098-917-4902",
    "url": "https://fujikaigo-agrearms.webagre.com/",
    "pref": "沖縄県",
    "city": "宜野湾市",
    "category": "home_help",
    "serviceType": "訪問介護",
    "capacity": 20250204,
    "openDays": [
      "平日",
      "土曜日",
      "日曜日",
      "祝日"
    ],
    "openDaysNote": "※年末年始　12/30～1/3　及び　夏季休暇　8/13～8/15　は、原則休暇となりますが、身体介護を必要とされるご利用者様へのサービス提供はご相談させていただきます。（改行）※終末期対応時、夜間対応ご相談可能。"
  },
  {
    "id": "4770500041",
    "name": "訪問介護事業所愛誠園",
    "kana": "ホウモンカイゴジギョウショアイセイエン",
    "address": "沖縄県宜野湾市伊佐3丁目26番8号",
    "lat": 26.2920634945596,
    "lng": 127.757828936029,
    "tel": "098-943-1080",
    "url": "aiseien-okinawa.com",
    "pref": "沖縄県",
    "city": "宜野湾市",
    "category": "home_help",
    "serviceType": "訪問介護",
    "capacity": 0,
    "openDays": [
      "平日",
      "土曜日",
      "日曜日",
      "祝日"
    ],
    "openDaysNote": "年中無休"
  },
  {
    "id": "4770501163",
    "name": "訪問介護事業所愛誠園",
    "kana": "ホウモンカイゴジギョウショアイセイエン",
    "address": "沖縄県宜野湾市伊佐3丁目9番－19号高齢者住宅「あやなすの杜」２階 高齢者住宅「あやなすの杜」２階",
    "lat": 26.2906869,
    "lng": 127.755199,
    "tel": "098-943-1080",
    "url": "aiseien-okinawa.com",
    "pref": "沖縄県",
    "city": "宜野湾市",
    "category": "home_help",
    "serviceType": "訪問介護",
    "capacity": 0,
    "openDays": [],
    "openDaysNote": "年中無休で対応は可能。（状況に応じて調整可）"
  },
  {
    "id": "4773800018",
    "name": "ヘルパーステーションわかみず",
    "kana": "ヘルパーステーションワカミズ",
    "address": "沖縄県島尻久米島町字仲泊５８７番地",
    "lat": 26.3473805,
    "lng": 126.7468954,
    "tel": "098-896-7188",
    "url": "https://www.kume-syakyo.com/",
    "pref": "沖縄県",
    "city": "久米島町",
    "category": "home_help",
    "serviceType": "訪問介護",
    "capacity": 0,
    "openDays": [
      "平日",
      "土曜日",
      "日曜日",
      "祝日"
    ],
    "openDaysNote": ""
  },
  {
    "id": "4775800040",
    "name": "ヘルパーホーム　家福みー家",
    "kana": "ヘルパーホーム　イーフミーヤ",
    "address": "沖縄県島尻郡久米島町比嘉160-73",
    "lat": 26.3293532076135,
    "lng": 126.806721004863,
    "tel": "098-985-7715",
    "url": "",
    "pref": "沖縄県",
    "city": "久米島町",
    "category": "home_help",
    "serviceType": "訪問介護",
    "capacity": 0,
    "openDays": [
      "平日",
      "土曜日",
      "日曜日",
      "祝日"
    ],
    "openDaysNote": ""
  },
  {
    "id": "4775800073",
    "name": "一般社団法人　福志士会",
    "kana": "イッパンシャダンホウジン　フクシシカイ",
    "address": "沖縄県島尻郡久米島町真我里599番地",
    "lat": 26.3322385,
    "lng": 126.794795,
    "tel": "098-985-7770",
    "url": "",
    "pref": "沖縄県",
    "city": "久米島町",
    "category": "home_help",
    "serviceType": "訪問介護",
    "capacity": 0,
    "openDays": [
      "平日",
      "土曜日",
      "日曜日",
      "祝日"
    ],
    "openDaysNote": ""
  },
  {
    "id": "4775500590",
    "name": "あい支援センター",
    "kana": "アイシエンセンター",
    "address": "沖縄県宮古島市平良字久貝865番地4",
    "lat": 24.7975213852082,
    "lng": 125.274653185896,
    "tel": "0980-73-5400",
    "url": "",
    "pref": "沖縄県",
    "city": "宮古島市",
    "category": "home_help",
    "serviceType": "訪問介護",
    "capacity": 0,
    "openDays": [
      "平日",
      "土曜日",
      "祝日"
    ],
    "openDaysNote": "早朝・夜間のサービスは相談に応じる。"
  },
  {
    "id": "4775500368",
    "name": "ケアサービスえがお訪問介護事業所",
    "kana": "ケアサービスエガオホウモンカイゴジギョウショ",
    "address": "宮古島市伊良部字佐和田１５３９番地",
    "lat": 24.84035,
    "lng": 125.1623333,
    "tel": "0980-78-5123",
    "url": "",
    "pref": "沖縄県",
    "city": "宮古島市",
    "category": "home_help",
    "serviceType": "訪問介護",
    "capacity": 0,
    "openDays": [],
    "openDaysNote": ""
  },
  {
    "id": "4775500061",
    "name": "ケアセンターうるまじま",
    "kana": "ケアセンターウルマジマ",
    "address": "沖縄県宮古島市平良字西仲宗根520-3　1階北",
    "lat": 24.8093370259324,
    "lng": 125.290868057569,
    "tel": "0980-75-0610",
    "url": "",
    "pref": "沖縄県",
    "city": "宮古島市",
    "category": "home_help",
    "serviceType": "訪問介護",
    "capacity": 120,
    "openDays": [
      "平日",
      "土曜日",
      "日曜日",
      "祝日"
    ],
    "openDaysNote": ""
  },
  {
    "id": "4775500806",
    "name": "ささ・エール訪問介護事業所",
    "kana": "ササ・エールホウモンカイゴジギョウ",
    "address": "平良字東仲宗根899-13",
    "lat": 24.8011741,
    "lng": 125.2978796,
    "tel": "0980-72-0326",
    "url": "",
    "pref": "沖縄県",
    "city": "宮古島市",
    "category": "home_help",
    "serviceType": "訪問介護",
    "capacity": 10,
    "openDays": [
      "平日",
      "土曜日",
      "日曜日",
      "祝日"
    ],
    "openDaysNote": ""
  },
  {
    "id": "4775500392",
    "name": "さらはま　ヘルパーステーション",
    "kana": "サラハマ　ヘルパーステーション",
    "address": "宮古島市伊良部字前里添４６７番地ー１",
    "lat": 24.8429979,
    "lng": 125.209177,
    "tel": "０９８０－７４－５６６０",
    "url": "",
    "pref": "沖縄県",
    "city": "宮古島市",
    "category": "home_help",
    "serviceType": "訪問介護",
    "capacity": 0,
    "openDays": [
      "平日",
      "土曜日",
      "日曜日",
      "祝日"
    ],
    "openDaysNote": ""
  },
  {
    "id": "4775000047",
    "name": "すこやかヘルパーステーション",
    "kana": "スコヤカヘルパーステーション",
    "address": "沖縄県宮古島市伊良部字長浜217",
    "lat": 24.8393955565166,
    "lng": 125.164410402228,
    "tel": "0980-78-6133",
    "url": "http://care-net.biz/47/sukoyaka/",
    "pref": "沖縄県",
    "city": "宮古島市",
    "category": "home_help",
    "serviceType": "訪問介護",
    "capacity": 0,
    "openDays": [
      "平日",
      "土曜日",
      "日曜日",
      "祝日"
    ],
    "openDaysNote": "緊急時は上記以外でも対応は可能（改行）暴風警報発令時は休み"
  },
  {
    "id": "4775500814",
    "name": "スタイルケアサービス",
    "kana": "スタイルケアサービス",
    "address": "沖縄県宮古島市平良字下里216-１サザンハイツアグニⅢ201 サザンハイツアグニⅢ201",
    "lat": 24.8027439,
    "lng": 125.2729978,
    "tel": "0980-79-6678",
    "url": "https://www.style-care.jp/",
    "pref": "沖縄県",
    "city": "宮古島市",
    "category": "home_help",
    "serviceType": "訪問介護",
    "capacity": 0,
    "openDays": [
      "平日"
    ],
    "openDaysNote": ""
  },
  {
    "id": "4770600080",
    "name": "にこにこヘルパー",
    "kana": "ニコニコヘルパー",
    "address": "沖縄県宮古島市平良字東仲宗根２１７番地",
    "lat": 24.8053263,
    "lng": 125.2854871,
    "tel": "0980-72-0840",
    "url": "http://www.",
    "pref": "沖縄県",
    "city": "宮古島市",
    "category": "home_help",
    "serviceType": "訪問介護",
    "capacity": 0,
    "openDays": [
      "平日",
      "土曜日",
      "日曜日",
      "祝日"
    ],
    "openDaysNote": ""
  },
  {
    "id": "4775500103",
    "name": "ヘルパーステーション　あかり",
    "kana": "ヘルパーステーション　アカリ",
    "address": "沖縄県宮古島市平良字松原２８２番地３",
    "lat": 24.7873551,
    "lng": 125.2659164,
    "tel": "0980-74-2222",
    "url": "http://www.",
    "pref": "沖縄県",
    "city": "宮古島市",
    "category": "home_help",
    "serviceType": "訪問介護",
    "capacity": 0,
    "openDays": [
      "平日",
      "土曜日",
      "日曜日",
      "祝日"
    ],
    "openDaysNote": "２４時間営業にて夜間は電話対応可能となっている。"
  },
  {
    "id": "4775500129",
    "name": "ヘルパーステーションみつば",
    "kana": "ヘルパーステーションミツバ",
    "address": "沖縄県宮古島市平良字下里1035番地4-A",
    "lat": 24.7927193308266,
    "lng": 125.281120159525,
    "tel": "0980-75-3043",
    "url": "http://www1a.biglobe.ne.jp/mituba/index.html",
    "pref": "沖縄県",
    "city": "宮古島市",
    "category": "home_help",
    "serviceType": "訪問介護",
    "capacity": 0,
    "openDays": [
      "平日",
      "土曜日",
      "日曜日",
      "祝日"
    ],
    "openDaysNote": ""
  },
  {
    "id": "4775500178",
    "name": "ヘルパーステーション花",
    "kana": "ヘルパーステーションハナ",
    "address": "沖縄県宮古島市平良字西里984-3平良マンション102",
    "lat": 24.7984139794724,
    "lng": 125.290943049246,
    "tel": "0980-79-0587",
    "url": "",
    "pref": "沖縄県",
    "city": "宮古島市",
    "category": "home_help",
    "serviceType": "訪問介護",
    "capacity": 0,
    "openDays": [
      "平日",
      "土曜日",
      "日曜日",
      "祝日"
    ],
    "openDaysNote": ""
  },
  {
    "id": "4775500525",
    "name": "ヘルパーステーション心音",
    "kana": "ヘルパーステーションココネ",
    "address": "沖縄県宮古島市平良字西原３３３番地",
    "lat": 24.8316707,
    "lng": 125.2958409,
    "tel": "0980-75-6331",
    "url": "",
    "pref": "沖縄県",
    "city": "宮古島市",
    "category": "home_help",
    "serviceType": "訪問介護",
    "capacity": 0,
    "openDays": [
      "平日",
      "土曜日",
      "日曜日",
      "祝日"
    ],
    "openDaysNote": "休日はなし（但し、12月31日～1月3日の営業は独居、認知症、家族対応型困難な方に限る）"
  },
  {
    "id": "4775500418",
    "name": "ヘルパステーションみらい",
    "kana": "ヘルパーステーションミライ",
    "address": "沖縄県宮古島市平良字下里1355番地2",
    "lat": 24.7876253,
    "lng": 125.2900618,
    "tel": "0980-72-3739",
    "url": "",
    "pref": "沖縄県",
    "city": "宮古島市",
    "category": "home_help",
    "serviceType": "訪問介護",
    "capacity": 0,
    "openDays": [
      "平日",
      "土曜日",
      "日曜日",
      "祝日"
    ],
    "openDaysNote": "随時対応。24時間対応"
  },
  {
    "id": "4770600148",
    "name": "ホームケアサービス訪問介護事業所",
    "kana": "ホームケアサービスホウモンカイゴジギョウショ",
    "address": "沖縄県宮古島市平良字下里1248番地の10",
    "lat": 24.7930108,
    "lng": 125.288298,
    "tel": "0980-75-0677",
    "url": "",
    "pref": "沖縄県",
    "city": "宮古島市",
    "category": "home_help",
    "serviceType": "訪問介護",
    "capacity": 10,
    "openDays": [
      "平日",
      "土曜日",
      "日曜日",
      "祝日"
    ],
    "openDaysNote": "平常の時間帯（午前８時から午後６時）以外の時間帯のサービスを行なう場合は割増料金が加算されます。夜間（午後６時から午後１０時まで）：25％早朝（午前６時から午前８時まで）：25％深夜（午後１０時から午前６時まで）：50％"
  },
  {
    "id": "4775500681",
    "name": "らいくゆー訪問介護事業所",
    "kana": "ライクユーホウモンカイゴジギョウショ",
    "address": "沖縄県宮古島市城辺福里567番地6",
    "lat": 24.7575873939076,
    "lng": 125.385411440662,
    "tel": "0980-79-9235",
    "url": "https://likeyou-kango-kaigo.com/",
    "pref": "沖縄県",
    "city": "宮古島市",
    "category": "home_help",
    "serviceType": "訪問介護",
    "capacity": 0,
    "openDays": [
      "平日",
      "土曜日",
      "日曜日",
      "祝日"
    ],
    "openDaysNote": ""
  },
  {
    "id": "4775500095",
    "name": "株式会社介護保険事業所わが家",
    "kana": "カブシキガイシャカイゴホケンジギョウショワガヤ",
    "address": "沖縄県宮古島市城辺字比嘉1050-6",
    "lat": 24.7592115,
    "lng": 125.383612,
    "tel": "0980-74-4447",
    "url": "",
    "pref": "沖縄県",
    "city": "宮古島市",
    "category": "home_help",
    "serviceType": "訪問介護",
    "capacity": 0,
    "openDays": [
      "平日",
      "土曜日",
      "日曜日",
      "祝日"
    ],
    "openDaysNote": ""
  },
  {
    "id": "4775500111",
    "name": "宮古ケアセンター",
    "kana": "ミヤコケアセンター",
    "address": "沖縄県宮古島市平良字下里1153-3OKマンション103 OKマンション103",
    "lat": 24.7957161,
    "lng": 125.2866732,
    "tel": "0980-74-1160",
    "url": "https://www.carenet.okinawa/",
    "pref": "沖縄県",
    "city": "宮古島市",
    "category": "home_help",
    "serviceType": "訪問介護",
    "capacity": 0,
    "openDays": [
      "平日",
      "土曜日",
      "日曜日",
      "祝日"
    ],
    "openDaysNote": "ヘルパー訪問に関しては２４時間、３６５日訪問対応可能"
  },
  {
    "id": "4775500574",
    "name": "宮古厚生園指定訪問介護事業所",
    "kana": "ミヤココウセイエンシテイホウモンカイゴジギョウショ",
    "address": "沖縄県宮古島市平良字東仲宗根742番地2オアシティ丸三　西1F オアシティ丸三　西1F",
    "lat": 24.8055904,
    "lng": 125.2937918,
    "tel": "0980-79-5522",
    "url": "https://www.okinawa-j.jp/",
    "pref": "沖縄県",
    "city": "宮古島市",
    "category": "home_help",
    "serviceType": "訪問介護",
    "capacity": 0,
    "openDays": [
      "平日",
      "土曜日",
      "日曜日",
      "祝日"
    ],
    "openDaysNote": ""
  },
  {
    "id": "4774800041",
    "name": "宮古島市社協指定訪問介護事業所しゃきょう",
    "kana": "ミヤコジマシシャキョウシテイホウモンカイゴジギョウショシャキョウ",
    "address": "沖縄県宮古島市上野字新里420番地2宮古島市上野老人福祉センター 宮古島市上野老人福祉センター",
    "lat": 24.7410181964563,
    "lng": 125.32805565976,
    "tel": "0980-76-2540",
    "url": "http://www.miyashakyo.jp/",
    "pref": "沖縄県",
    "city": "宮古島市",
    "category": "home_help",
    "serviceType": "訪問介護",
    "capacity": 0,
    "openDays": [
      "平日",
      "土曜日",
      "日曜日",
      "祝日"
    ],
    "openDaysNote": "毎日０時~24時までとする"
  },
  {
    "id": "4710610918",
    "name": "宮古島徳洲会　訪問介護事業所",
    "kana": "ミヤコジマトクシュウカイ　ホウモンカイゴジギョウショ",
    "address": "沖縄県宮古島市平良字松原552-1",
    "lat": 24.788811,
    "lng": 125.2793626,
    "tel": "0980-73-1100",
    "url": "http://www.miyatoku.jp",
    "pref": "沖縄県",
    "city": "宮古島市",
    "category": "home_help",
    "serviceType": "訪問介護",
    "capacity": 0,
    "openDays": [
      "平日",
      "土曜日",
      "日曜日",
      "祝日"
    ],
    "openDaysNote": "年末年始は本人、ご家族と相談の上サービスを行う事も可能。（改行）台風接近時の暴風警報発令時は安全確保の為サービス提供はお休みとし、日時の変更等で対応します。"
  },
  {
    "id": "4775500145",
    "name": "指定訪問介護事業所　つむかぎ",
    "kana": "シテイホウモンカイゴジギョウショ　ツムカギ",
    "address": "沖縄県宮古島市平良字西里709-1（１０６号）",
    "lat": 24.7975358,
    "lng": 125.2883533,
    "tel": "0980-72-9788",
    "url": "https://tsumukagi.com/",
    "pref": "沖縄県",
    "city": "宮古島市",
    "category": "home_help",
    "serviceType": "訪問介護",
    "capacity": 3,
    "openDays": [
      "平日",
      "土曜日",
      "日曜日",
      "祝日"
    ],
    "openDaysNote": "天災・その他やむを得ずにサービス提供が行えない日を除き毎日とする。原則として午前８時から午後６時迄とする。但し、利用者の要望に応じ相談の上時間延長も出来る事とする。"
  },
  {
    "id": "4775500434",
    "name": "指定訪問介護事業所ケイコ",
    "kana": "シテイホウモンカイゴジギョウショケイコ",
    "address": "沖縄県宮古島市城辺字福里５６２番地１",
    "lat": 24.758645,
    "lng": 125.3845397,
    "tel": "０９８０－７７－８８８０",
    "url": "",
    "pref": "沖縄県",
    "city": "宮古島市",
    "category": "home_help",
    "serviceType": "訪問介護",
    "capacity": 0,
    "openDays": [
      "平日",
      "土曜日",
      "日曜日",
      "祝日"
    ],
    "openDaysNote": "３６５日　　０時～２４時"
  },
  {
    "id": "4775500673",
    "name": "訪問介護　ハピネス",
    "kana": "ホウモンカイゴ　ハピネス",
    "address": "沖縄県宮古島市平良字東仲宗根3431階北側 1階北側",
    "lat": 24.8065589,
    "lng": 125.2861029,
    "tel": "0980-79-5597",
    "url": "",
    "pref": "沖縄県",
    "city": "宮古島市",
    "category": "home_help",
    "serviceType": "訪問介護",
    "capacity": 0,
    "openDays": [
      "平日",
      "土曜日",
      "日曜日",
      "祝日"
    ],
    "openDaysNote": ""
  },
  {
    "id": "4775500137",
    "name": "訪問介護　ひなた",
    "kana": "ホウモンカイゴ　ヒナタ",
    "address": "沖縄県宮古島市平良字西里３９６番地　１F南",
    "lat": 24.8039938718042,
    "lng": 125.283902356422,
    "tel": "0980-72-7007",
    "url": "",
    "pref": "沖縄県",
    "city": "宮古島市",
    "category": "home_help",
    "serviceType": "訪問介護",
    "capacity": 0,
    "openDays": [
      "平日",
      "土曜日",
      "日曜日",
      "祝日"
    ],
    "openDaysNote": "訪問介護を利用できる時間については利用者の要望に基づき早朝・夜間・深夜２４時間の対応を行うことが可能です。（改行）台風等の気象警報発令時は休日とする。"
  },
  {
    "id": "4775500038",
    "name": "訪問介護　ゆいまーる",
    "kana": "ホウモンカイゴ　ユイマール",
    "address": "沖縄県宮古島市平良字西里978番地２",
    "lat": 24.7983049,
    "lng": 125.2917505,
    "tel": "0980-73-5838",
    "url": "",
    "pref": "沖縄県",
    "city": "宮古島市",
    "category": "home_help",
    "serviceType": "訪問介護",
    "capacity": 0,
    "openDays": [
      "平日",
      "土曜日",
      "日曜日",
      "祝日"
    ],
    "openDaysNote": "利用者の要望に基づき、早朝、夜間、深夜、休日の対応を行う。"
  },
  {
    "id": "4775500830",
    "name": "訪問介護369",
    "kana": "ホウモンカイゴミロク",
    "address": "宮古島市平良字西里505-6メゾン富永１階 メゾン富永１階",
    "lat": 24.8002072,
    "lng": 125.2856605,
    "tel": "0980-79-6963",
    "url": "369norimi@gmail.com",
    "pref": "沖縄県",
    "city": "宮古島市",
    "category": "home_help",
    "serviceType": "訪問介護",
    "capacity": 0,
    "openDays": [
      "平日",
      "土曜日",
      "日曜日",
      "祝日"
    ],
    "openDaysNote": ""
  },
  {
    "id": "4770600023",
    "name": "訪問介護ステーション　らいふもあ",
    "kana": "ホウモンカイゴステーション　ライフモア",
    "address": "沖縄県宮古島市平良字東仲宗根895-1",
    "lat": 24.8012687,
    "lng": 125.2966027,
    "tel": "0980-72-8677",
    "url": "https://smile-miyako.com/",
    "pref": "沖縄県",
    "city": "宮古島市",
    "category": "home_help",
    "serviceType": "訪問介護",
    "capacity": 0,
    "openDays": [
      "平日",
      "土曜日",
      "日曜日",
      "祝日"
    ],
    "openDaysNote": ""
  },
  {
    "id": "4775500053",
    "name": "訪問介護みのり",
    "kana": "ホウモンカイゴミノリ",
    "address": "沖縄県宮古島市伊良部字池間添723番地60",
    "lat": 24.8382205,
    "lng": 125.2087603,
    "tel": "0980-74-5411",
    "url": "minori@miyako-ma.jp",
    "pref": "沖縄県",
    "city": "宮古島市",
    "category": "home_help",
    "serviceType": "訪問介護",
    "capacity": 0,
    "openDays": [
      "平日",
      "土曜日",
      "日曜日",
      "祝日"
    ],
    "openDaysNote": ""
  },
  {
    "id": "4770600098",
    "name": "訪問介護事業所　ケアセンターたんぽぽ",
    "kana": "ホウモンカイゴジギョウショ　ケアセンタータンポポ",
    "address": "沖縄県宮古島市平良字西仲宗根５６８番地１３　ライフマンション１０３ライフマンション１０３ ライフマンション１０３",
    "lat": 24.8104248915827,
    "lng": 125.295044352644,
    "tel": "0980-74-2190",
    "url": "http://wwwtanpopoz@abelia.ocn.ne.jp",
    "pref": "沖縄県",
    "city": "宮古島市",
    "category": "home_help",
    "serviceType": "訪問介護",
    "capacity": 0,
    "openDays": [
      "平日",
      "土曜日",
      "日曜日",
      "祝日"
    ],
    "openDaysNote": "年中無休"
  },
  {
    "id": "4775500343",
    "name": "訪問介護事業所　結心",
    "kana": "ホウモンカイゴジギョウショ　ユウシン",
    "address": "平良字西里１０９０－１２",
    "lat": 24.7908918,
    "lng": 125.2953001,
    "tel": "0980-75-5527",
    "url": "",
    "pref": "沖縄県",
    "city": "宮古島市",
    "category": "home_help",
    "serviceType": "訪問介護",
    "capacity": 31,
    "openDays": [
      "平日",
      "土曜日",
      "日曜日",
      "祝日"
    ],
    "openDaysNote": "年中無休で２４時間体制"
  },
  {
    "id": "4775500269",
    "name": "訪問介護事業所いこい",
    "kana": "ホウモンカイゴジギョウショイコイ",
    "address": "沖縄県宮古島市平良字前里２３６番地",
    "lat": 24.9251594724365,
    "lng": 125.242253887137,
    "tel": "0980-75-2300",
    "url": "",
    "pref": "沖縄県",
    "city": "宮古島市",
    "category": "home_help",
    "serviceType": "訪問介護",
    "capacity": 35,
    "openDays": [
      "平日",
      "土曜日",
      "日曜日",
      "祝日"
    ],
    "openDaysNote": "上記以外のサービス提供時間のご利用については、ご相談に応じます。"
  },
  {
    "id": "4775500459",
    "name": "訪問介護事業所きら。きら",
    "kana": "ホウモンカイゴジギョウショキラ・キラ",
    "address": "沖縄県宮古島市平良字東仲宗根43－1番地",
    "lat": 24.806876,
    "lng": 125.2825596,
    "tel": "0980－79－5090",
    "url": "",
    "pref": "沖縄県",
    "city": "宮古島市",
    "category": "home_help",
    "serviceType": "訪問介護",
    "capacity": 0,
    "openDays": [
      "平日",
      "土曜日",
      "日曜日",
      "祝日"
    ],
    "openDaysNote": "サービス提供時間　365日　24時間とする。（改行）上記の営業日、営業時間、サービス提供時間のほか、電話等により24時間常時連絡が可能な体制とする。"
  },
  {
    "id": "4760690109",
    "name": "訪問介護事業所サンライズ",
    "kana": "ホウモンカイゴジギョウショ　サンライズ",
    "address": "沖縄県宮古島市平良字下里1541番地2サンヒルズオオハマⅡ101号室 サンヒルズオオハマⅡ101号室",
    "lat": 24.7910103,
    "lng": 125.2831968,
    "tel": "0980-72-3556",
    "url": "",
    "pref": "沖縄県",
    "city": "宮古島市",
    "category": "home_help",
    "serviceType": "訪問介護",
    "capacity": 0,
    "openDays": [
      "平日",
      "土曜日",
      "日曜日",
      "祝日"
    ],
    "openDaysNote": "天災・その他やむを得ず業務を遂行できない日を除く（改行）休日はなし(但し、12/31～1/3の営業は独居、認知症、家族対応困難な方に限る)"
  },
  {
    "id": "4775500558",
    "name": "訪問介護事業所ともり",
    "kana": "ホウモンカイゴジギョウショトモリ",
    "address": "沖縄県宮古島市平良字東仲宗根345番地1",
    "lat": 24.8067706,
    "lng": 125.2866481,
    "tel": "0980-79-0503",
    "url": "",
    "pref": "沖縄県",
    "city": "宮古島市",
    "category": "home_help",
    "serviceType": "訪問介護",
    "capacity": 0,
    "openDays": [
      "平日",
      "土曜日",
      "日曜日",
      "祝日"
    ],
    "openDaysNote": "台風時（警報発令）等自然災害発生時はサービスの休止があります。"
  },
  {
    "id": "4775500533",
    "name": "訪問介護事業所にじ",
    "kana": "ホウモンカイゴジギョウショニジ",
    "address": "沖縄県宮古島市平良字下里914番地新崎邸１階 新崎邸１階",
    "lat": 24.7984474823761,
    "lng": 125.280972371641,
    "tel": "0980-79-5780",
    "url": "",
    "pref": "沖縄県",
    "city": "宮古島市",
    "category": "home_help",
    "serviceType": "訪問介護",
    "capacity": 2,
    "openDays": [
      "平日",
      "土曜日",
      "日曜日",
      "祝日"
    ],
    "openDaysNote": "・サービス提供時間については、職員配置状況によりサービス提供が困難な場合があります。（改行）・地震、台風、大雨等の自然災害発生時（気象庁による警報、注意報、避難指示等の発令時）等において、訪問介護員の交通手段及び生命に危険が及ぶ事態が予測される場合は、サービスを中止させていただきます。（改行）・感染症の発生を予防または感染のリスクを防ぐ為、入出時の手洗い、マスク、使い捨て手袋等を使用させていただく場合があります。"
  },
  {
    "id": "4775500202",
    "name": "訪問介護事業所園",
    "kana": "ホウモンカイゴジギョウショエン",
    "address": "沖縄県宮古島市平良字下里1097-5",
    "lat": 24.8029119912005,
    "lng": 125.293050860731,
    "tel": "0980-79-0271",
    "url": "",
    "pref": "沖縄県",
    "city": "宮古島市",
    "category": "home_help",
    "serviceType": "訪問介護",
    "capacity": 0,
    "openDays": [
      "平日",
      "土曜日",
      "日曜日",
      "祝日"
    ],
    "openDaysNote": "利用者の要望やプランに基づき24時間対応とする"
  },
  {
    "id": "4770600130",
    "name": "有限会社　介護保険事業所　デイゴ",
    "kana": "ユウゲンカイシャ　カイゴホケンジギョウショ　デイゴ",
    "address": "沖縄県宮古島市平良字西里７４５番地1",
    "lat": 24.8000379,
    "lng": 125.2858705,
    "tel": "0980-73-5173",
    "url": "http://www.",
    "pref": "沖縄県",
    "city": "宮古島市",
    "category": "home_help",
    "serviceType": "訪問介護",
    "capacity": 0,
    "openDays": [
      "平日",
      "土曜日",
      "日曜日",
      "祝日"
    ],
    "openDaysNote": "なし"
  },
  {
    "id": "4771800051",
    "name": "どりーむ訪問介護ステーション",
    "kana": "ドリームホウモンカイゴステーション",
    "address": "金武10805",
    "lat": 26.4632205116143,
    "lng": 127.938381162094,
    "tel": "098-968-8904",
    "url": "https://dream-kin.net/",
    "pref": "沖縄県",
    "city": "金武町",
    "category": "home_help",
    "serviceType": "訪問介護",
    "capacity": 2,
    "openDays": [
      "平日",
      "土曜日"
    ],
    "openDaysNote": "ご相談の上、24時間対応しております。"
  },
  {
    "id": "4771800135",
    "name": "ヘルパーステーション　アシスト",
    "kana": "ヘルパーステーション　アシスト",
    "address": "沖縄県国頭郡金武町金武389番地101号 101号",
    "lat": 26.4534318,
    "lng": 127.9228951,
    "tel": "098-968-6987",
    "url": "http://www.okumacl.jp",
    "pref": "沖縄県",
    "city": "金武町",
    "category": "home_help",
    "serviceType": "訪問介護",
    "capacity": 19,
    "openDays": [
      "平日",
      "土曜日",
      "日曜日",
      "祝日"
    ],
    "openDaysNote": "台風及び緊急時を除く"
  },
  {
    "id": "4771800119",
    "name": "ヘルパーステーション　スマイル",
    "kana": "ヘルパーステーション　スマイル",
    "address": "沖縄県金武町字金武７９０６番地",
    "lat": 26.452076,
    "lng": 127.9125403,
    "tel": "098-968-6464",
    "url": "",
    "pref": "沖縄県",
    "city": "金武町",
    "category": "home_help",
    "serviceType": "訪問介護",
    "capacity": 0,
    "openDays": [
      "平日",
      "土曜日",
      "祝日"
    ],
    "openDaysNote": "但し、１２月３１日から１月３日の営業は独居、認知症、家族対応が困難な方に限ります。（天災、その他やむを得ず業務を遂行できない日を除く）"
  },
  {
    "id": "4771800143",
    "name": "ヘルパーステーション　ひらめき",
    "kana": "ヘルパーステーション　ヒラメキ",
    "address": "沖縄県国頭郡金武町字伊芸93番地",
    "lat": 26.4567162,
    "lng": 127.8795126,
    "tel": "098‐923‐2758",
    "url": "",
    "pref": "沖縄県",
    "city": "金武町",
    "category": "home_help",
    "serviceType": "訪問介護",
    "capacity": 0,
    "openDays": [
      "平日",
      "土曜日",
      "日曜日",
      "祝日"
    ],
    "openDaysNote": ""
  },
  {
    "id": "4771100080",
    "name": "楚洲あさひの丘ヘルパーステーション",
    "kana": "ソスアサヒノオカヘルパーステーション",
    "address": "沖縄県国頭郡国頭村字辺土名1443番地11",
    "lat": 26.7461165,
    "lng": 128.1757594,
    "tel": "0980-43-1425",
    "url": "",
    "pref": "沖縄県",
    "city": "国頭村",
    "category": "home_help",
    "serviceType": "訪問介護",
    "capacity": 0,
    "openDays": [
      "平日",
      "土曜日",
      "日曜日",
      "祝日"
    ],
    "openDaysNote": ""
  },
  {
    "id": "4771100015",
    "name": "北斗園ホームヘルプサービス事業所",
    "kana": "ホクトエンホームヘルプサービスジギョウショ",
    "address": "沖縄県国頭郡国頭村字辺土名1692番地",
    "lat": 26.7407936,
    "lng": 128.1749745,
    "tel": "0980-41-5252",
    "url": "https://hokutoen.org/",
    "pref": "沖縄県",
    "city": "国頭村",
    "category": "home_help",
    "serviceType": "訪問介護",
    "capacity": 0,
    "openDays": [
      "平日",
      "土曜日",
      "日曜日",
      "祝日"
    ],
    "openDaysNote": ""
  },
  {
    "id": "4771400092",
    "name": "イリーゼ今帰仁訪問介護センター",
    "kana": "イリーゼナキジンホウモンカイゴセンター",
    "address": "沖縄県国頭郡今帰仁村字湧川571-1イリーゼ今帰仁 イリーゼ今帰仁",
    "lat": 26.6563748,
    "lng": 127.9895108,
    "tel": "0980-56-1245",
    "url": "http://www.irs.jp/facility/nakijin/",
    "pref": "沖縄県",
    "city": "今帰仁村",
    "category": "home_help",
    "serviceType": "訪問介護",
    "capacity": 0,
    "openDays": [
      "平日",
      "土曜日",
      "日曜日",
      "祝日"
    ],
    "openDaysNote": ""
  },
  {
    "id": "4751180003",
    "name": "なきじん指定訪問介護事業所",
    "kana": "ナキジンシテイホウモンカイゴジギョウショ",
    "address": "沖縄県国頭郡今帰仁村字今泊307番地",
    "lat": 26.6991955,
    "lng": 127.92518,
    "tel": "0980-56-5702",
    "url": "http://www.oki-ｋｏｆｕｋａｉ.ｏｒ.ｊｐ",
    "pref": "沖縄県",
    "city": "今帰仁村",
    "category": "home_help",
    "serviceType": "訪問介護",
    "capacity": 0,
    "openDays": [
      "平日",
      "土曜日",
      "日曜日",
      "祝日"
    ],
    "openDaysNote": "暴風警報が発令され、当該当地域において路線バスの運行が停止、または停止することが明らかな場合には、訪問介護員の派遣を中止します。"
  },
  {
    "id": "4771400027",
    "name": "今帰仁村社協指定訪問介護事業所",
    "kana": "ナキジンソンシャキョウシテイホウモンカイゴジギョウショ",
    "address": "沖縄県国頭郡今帰仁村字天底６２番地社会福祉会館 社会福祉会館",
    "lat": 26.6813662,
    "lng": 127.9804464,
    "tel": "0980-56-4812",
    "url": "",
    "pref": "沖縄県",
    "city": "今帰仁村",
    "category": "home_help",
    "serviceType": "訪問介護",
    "capacity": 0,
    "openDays": [
      "平日",
      "土曜日",
      "日曜日",
      "祝日"
    ],
    "openDaysNote": "天災その他、やむを得ず営業できない日を除く"
  },
  {
    "id": "4771400100",
    "name": "訪問介護ステーション山宗",
    "kana": "ホウモンカイゴステーションヤマソウ",
    "address": "天底335番地訪問介護ステーション 訪問介護ステーション",
    "lat": 26.6755079813157,
    "lng": 127.978833664487,
    "tel": "0980－56－3889",
    "url": "info@yamaso-okinawa.com",
    "pref": "沖縄県",
    "city": "今帰仁村",
    "category": "home_help",
    "serviceType": "訪問介護",
    "capacity": 0,
    "openDays": [
      "平日",
      "土曜日",
      "日曜日",
      "祝日"
    ],
    "openDaysNote": ""
  },
  {
    "id": "4771400118",
    "name": "訪問介護ステーション美ら里",
    "kana": "ホウモンカイゴステーションチュラリ",
    "address": "沖縄県国頭郡今帰仁村字諸志101番地",
    "lat": 26.6972268,
    "lng": 127.9419152,
    "tel": "０９８０－４３－６５１７",
    "url": "",
    "pref": "沖縄県",
    "city": "今帰仁村",
    "category": "home_help",
    "serviceType": "訪問介護",
    "capacity": 0,
    "openDays": [
      "平日",
      "土曜日",
      "日曜日",
      "祝日"
    ],
    "openDaysNote": "年末年始(12月31日～1月3日の営業は独居、認知症、家族対応困難な方に限る)（改行）台風時、暴風警報が発令し、バスが運休の場合は、訪問介護サービスはヘルパーの安全確保の為、中止とさせていただきます。"
  },
  {
    "id": "4771000033",
    "name": "いとまんシャトー指定訪問介護センター",
    "kana": "イトマンシャトーシテイホウモンカイゴセンター",
    "address": "沖縄県糸満市字大里927番地の2",
    "lat": 26.1353393,
    "lng": 127.6917292,
    "tel": "098-995-2208",
    "url": "http://www.itoman3.com/",
    "pref": "沖縄県",
    "city": "糸満市",
    "category": "home_help",
    "serviceType": "訪問介護",
    "capacity": null,
    "openDays": [
      "平日",
      "土曜日",
      "日曜日",
      "祝日"
    ],
    "openDaysNote": "天災その他やむを得ず業務を遂行できない日を除き、毎日とする。"
  },
  {
    "id": "4771000587",
    "name": "ケアステーションえがお",
    "kana": "ケアステーション　エガオ",
    "address": "沖縄県糸満市真栄里2055番地の1プランドール蒼 プランドール蒼",
    "lat": 26.1205529,
    "lng": 127.6691589,
    "tel": "098-987-0757",
    "url": "https://www.akanekai-okinawa.com/",
    "pref": "沖縄県",
    "city": "糸満市",
    "category": "home_help",
    "serviceType": "訪問介護",
    "capacity": 0,
    "openDays": [
      "平日",
      "土曜日",
      "日曜日",
      "祝日"
    ],
    "openDaysNote": ""
  },
  {
    "id": "4771000462",
    "name": "ヘルパーステーション　みなみ",
    "kana": "ヘルパーステーション　ミナミ",
    "address": "沖縄県糸満市字糸満1796番地の2",
    "lat": 26.1265564,
    "lng": 127.6788803,
    "tel": "098-995-1709",
    "url": "（検索）ネットワークくくる",
    "pref": "沖縄県",
    "city": "糸満市",
    "category": "home_help",
    "serviceType": "訪問介護",
    "capacity": 3,
    "openDays": [
      "平日",
      "土曜日",
      "日曜日",
      "祝日"
    ],
    "openDaysNote": ""
  },
  {
    "id": "4771000579",
    "name": "ヘルパーステーションみぃちゃん",
    "kana": "ヘルパーステーションミィチャン",
    "address": "沖縄県糸満市糸満1094番地1階 1階",
    "lat": 26.1277193,
    "lng": 127.6714825,
    "tel": "098-994-5548",
    "url": "https://www.homehelper-mi-chan.com/",
    "pref": "沖縄県",
    "city": "糸満市",
    "category": "home_help",
    "serviceType": "訪問介護",
    "capacity": 0,
    "openDays": [
      "平日",
      "土曜日",
      "日曜日",
      "祝日"
    ],
    "openDaysNote": "介護訪問員は24時間体制とする（但し、12/29～1/3日の営業は独居・認知症・家族対応困難な方は相談に応じる）台風時・暴風域・天災・その他やむを得ず業務を遂行できない日を除く"
  },
  {
    "id": "4771000710",
    "name": "ヘルパーステーション心夢愛",
    "kana": "ヘルパーステーションコムア",
    "address": "沖縄県糸満市西崎６丁目１２－５パイオニアビル５０２ パイオニアビル５０２",
    "lat": 26.1434739,
    "lng": 127.6684069,
    "tel": "098-994-5680",
    "url": "",
    "pref": "沖縄県",
    "city": "糸満市",
    "category": "home_help",
    "serviceType": "訪問介護",
    "capacity": 0,
    "openDays": [
      "平日",
      "土曜日",
      "日曜日",
      "祝日"
    ],
    "openDaysNote": "電話等により、24時間常時連絡が可能な体制をとる。"
  },
  {
    "id": "4771000207",
    "name": "ヘルパーステーション西崎",
    "kana": "ヘルパーステーションニシザキ",
    "address": "沖縄県糸満市西崎町3丁目379番地",
    "lat": 26.1455045,
    "lng": 127.6701387,
    "tel": "098-994-4418",
    "url": "http://www.iwakikai.net",
    "pref": "沖縄県",
    "city": "糸満市",
    "category": "home_help",
    "serviceType": "訪問介護",
    "capacity": null,
    "openDays": [
      "平日",
      "土曜日",
      "日曜日",
      "祝日"
    ],
    "openDaysNote": ""
  },
  {
    "id": "4771000520",
    "name": "ヘルパーステーション里のガーデン",
    "kana": "ヘルパーステーションサトノガーデン",
    "address": "沖縄県糸満市字大里623番7",
    "lat": 26.1299481,
    "lng": 127.6896434,
    "tel": "098-996-2832",
    "url": "https://www.m-sc.co.jp/",
    "pref": "沖縄県",
    "city": "糸満市",
    "category": "home_help",
    "serviceType": "訪問介護",
    "capacity": 0,
    "openDays": [
      "平日",
      "土曜日",
      "日曜日",
      "祝日"
    ],
    "openDaysNote": "携帯電話等により常時連絡可能な体制をとる"
  },
  {
    "id": "4773600434",
    "name": "ヘルパーステーション琉新の風",
    "kana": "ヘルパーステーションリュウシンノカゼ",
    "address": "大度515-1株式会社琉新の風糸満 株式会社琉新の風糸満",
    "lat": 26.0975895,
    "lng": 127.707737,
    "tel": "098-851-8588",
    "url": "http://www.ryushinnokaze.com",
    "pref": "沖縄県",
    "city": "糸満市",
    "category": "home_help",
    "serviceType": "訪問介護",
    "capacity": 35,
    "openDays": [
      "平日",
      "土曜日",
      "日曜日",
      "祝日"
    ],
    "openDaysNote": "・提供プランに従い介護サービスを行う。（改行）・利用者様の体調不良時にもサービス提供行う。"
  },
  {
    "id": "4771000694",
    "name": "太陽ケアセンター糸満",
    "kana": "タイヨウケアセンターイトマン",
    "address": "沖縄県糸満市兼城483",
    "lat": 26.1374292,
    "lng": 127.673145,
    "tel": "098-996-5494",
    "url": "",
    "pref": "沖縄県",
    "city": "糸満市",
    "category": "home_help",
    "serviceType": "訪問介護",
    "capacity": null,
    "openDays": [
      "平日",
      "土曜日",
      "日曜日",
      "祝日"
    ],
    "openDaysNote": ""
  },
  {
    "id": "4771000652",
    "name": "訪問介護　えいえいおー",
    "kana": "ホウモンカイゴ　エイエイオー",
    "address": "沖縄県糸満市字兼城296-2",
    "lat": 26.1375219,
    "lng": 127.6745788,
    "tel": "098-987-4894",
    "url": "",
    "pref": "沖縄県",
    "city": "糸満市",
    "category": "home_help",
    "serviceType": "訪問介護",
    "capacity": null,
    "openDays": [
      "平日",
      "土曜日",
      "日曜日",
      "祝日"
    ],
    "openDaysNote": "訪問介護員は24時間体制とする。天災・その他やむを得ず業務を遂行できない日を除く。"
  },
  {
    "id": "4771000405",
    "name": "訪問介護事業所　珊瑚",
    "kana": "ホウモンカイゴジギョウショ　サンゴ",
    "address": "糸満市潮崎町4丁目8-13",
    "lat": 26.1164485,
    "lng": 127.663626,
    "tel": "098-840-3535",
    "url": "",
    "pref": "沖縄県",
    "city": "糸満市",
    "category": "home_help",
    "serviceType": "訪問介護",
    "capacity": 0,
    "openDays": [
      "平日",
      "土曜日",
      "日曜日",
      "祝日"
    ],
    "openDaysNote": ""
  },
  {
    "id": "4771000637",
    "name": "訪問介護琉新の風糸満",
    "kana": "ホウモンカイゴリュウシンノカゼイトマン",
    "address": "沖縄県糸満市潮崎町3丁目8-10OceanLife102 OceanLife102",
    "lat": 26.1190973,
    "lng": 127.6657198,
    "tel": "098-851-8555",
    "url": "http://www.ryushinnokaze.com/",
    "pref": "沖縄県",
    "city": "糸満市",
    "category": "home_help",
    "serviceType": "訪問介護",
    "capacity": 0,
    "openDays": [
      "平日",
      "土曜日",
      "日曜日",
      "祝日"
    ],
    "openDaysNote": ""
  },
  {
    "id": "4772700391",
    "name": "ヘルパーステーションおおきな輪",
    "kana": "ヘルパーステーションオオキナワ",
    "address": "沖縄県中頭郡西原町東崎22番地3ムーンテラス東崎C棟205号室 ムーンテラス東崎C棟205号室",
    "lat": 26.2125785,
    "lng": 127.7689794,
    "tel": "989432201",
    "url": "https://www.ookinawa.jp",
    "pref": "沖縄県",
    "city": "西原町",
    "category": "home_help",
    "serviceType": "訪問介護",
    "capacity": null,
    "openDays": [
      "平日"
    ],
    "openDaysNote": ""
  },
  {
    "id": "4772700185",
    "name": "ヘルパーステーションはーとらいふ",
    "kana": "ヘルパーステーションハートライフ",
    "address": "沖縄県中頭郡西原町字小那覇1606番地ハートライフ地域包括ケアセンター１F ハートライフ地域包括ケアセンター１F",
    "lat": 26.2374371480991,
    "lng": 127.772692402516,
    "tel": "098-944-3300",
    "url": "http://www.heartlife.or.jp/care/",
    "pref": "沖縄県",
    "city": "西原町",
    "category": "home_help",
    "serviceType": "訪問介護",
    "capacity": 0,
    "openDays": [
      "平日",
      "土曜日",
      "日曜日",
      "祝日"
    ],
    "openDaysNote": "土日祝祭日にヘルパー調整ができる場合はサービスを受け入れる場合もあります。"
  },
  {
    "id": "4772700326",
    "name": "ヘルパーステーションもりのはな",
    "kana": "ヘルパーステーションモリノハナ",
    "address": "沖縄県中頭郡西原町字兼久171-1宮平アパート105号 宮平アパート105号",
    "lat": 26.2197383,
    "lng": 127.7657769,
    "tel": "050-1720-7341",
    "url": "http://www.morinohana.okinawa",
    "pref": "沖縄県",
    "city": "西原町",
    "category": "home_help",
    "serviceType": "訪問介護",
    "capacity": 0,
    "openDays": [
      "平日",
      "土曜日",
      "日曜日",
      "祝日"
    ],
    "openDaysNote": ""
  },
  {
    "id": "4772700383",
    "name": "りぼん訪問介護ステ－ション",
    "kana": "リボンホウモンカイゴステ-ション",
    "address": "沖縄県中頭郡西原町字翁長２４０番４号こ-ぽこはつ１０１ こ-ぽこはつ１０１",
    "lat": 26.2282774,
    "lng": 127.7542235,
    "tel": "098-963-5662",
    "url": "",
    "pref": "沖縄県",
    "city": "西原町",
    "category": "home_help",
    "serviceType": "訪問介護",
    "capacity": null,
    "openDays": [
      "平日",
      "土曜日",
      "祝日"
    ],
    "openDaysNote": "利用できる時間以外でも必要（ニーズ）に応じて２４時間対応しています。"
  },
  {
    "id": "4772700334",
    "name": "訪問介護琉新の風西原",
    "kana": "ホウモンカイゴリュウシンノカゼニシハラ",
    "address": "沖縄県中頭郡西原町字幸地1008-1　1F",
    "lat": 26.2251906,
    "lng": 127.7356412,
    "tel": "098-998-8234",
    "url": "ryushinnokaze.com",
    "pref": "沖縄県",
    "city": "西原町",
    "category": "home_help",
    "serviceType": "訪問介護",
    "capacity": null,
    "openDays": [
      "平日",
      "土曜日",
      "日曜日",
      "祝日"
    ],
    "openDaysNote": ""
  },
  {
    "id": "4770700666",
    "name": "HomeLabカエル計画社",
    "kana": "ホームラボカエルケイカクシャ",
    "address": "石垣668-1",
    "lat": 24.3598235756394,
    "lng": 124.157104076249,
    "tel": "090-1362-6795",
    "url": "",
    "pref": "沖縄県",
    "city": "石垣市",
    "category": "home_help",
    "serviceType": "訪問介護",
    "capacity": null,
    "openDays": [
      "平日",
      "土曜日",
      "日曜日",
      "祝日"
    ],
    "openDaysNote": "電話等により２４時間常時連絡が可能な体制です"
  },
  {
    "id": "4770700294",
    "name": "ケアサービスさにしゃ訪問介護",
    "kana": "ケアサービスサニシャホウモンカイゴ",
    "address": "沖縄県石垣市石垣524番地の1",
    "lat": 24.3500776,
    "lng": 124.1595181,
    "tel": "0980-83-2326",
    "url": "",
    "pref": "沖縄県",
    "city": "石垣市",
    "category": "home_help",
    "serviceType": "訪問介護",
    "capacity": 0,
    "openDays": [
      "平日",
      "土曜日",
      "日曜日",
      "祝日"
    ],
    "openDaysNote": "訪問介護サービス対応時間：7:00～22:00迄"
  },
  {
    "id": "4770700112",
    "name": "ケアサービスセンターてふてふ",
    "kana": "ケアサービスセンターテフテフ",
    "address": "沖縄県石垣市登野城171-6",
    "lat": 24.3396712951096,
    "lng": 124.161202872158,
    "tel": "0980-83-7555",
    "url": "http://kibougaoka.or.jp",
    "pref": "沖縄県",
    "city": "石垣市",
    "category": "home_help",
    "serviceType": "訪問介護",
    "capacity": 0,
    "openDays": [
      "平日",
      "土曜日",
      "祝日"
    ],
    "openDaysNote": ""
  },
  {
    "id": "4770700245",
    "name": "ケアセンターむつみ",
    "kana": "ケアセンタ　ムツミ",
    "address": "沖縄県石垣市字大川５４１－１",
    "lat": 24.348968,
    "lng": 124.1633778,
    "tel": "0980-84-1725",
    "url": "",
    "pref": "沖縄県",
    "city": "石垣市",
    "category": "home_help",
    "serviceType": "訪問介護",
    "capacity": 0,
    "openDays": [
      "平日",
      "土曜日",
      "日曜日",
      "祝日"
    ],
    "openDaysNote": "電話等により２４時間連絡、対応が出来る"
  },
  {
    "id": "4770700708",
    "name": "こころと体のケアサービス　てぃなや",
    "kana": "ココロトカラダノケアサービス　ティナヤ",
    "address": "沖縄県石垣市石垣422-1国吉アパート101 国吉アパート101",
    "lat": 24.3498032,
    "lng": 124.1561283,
    "tel": "0980-87-7814",
    "url": "",
    "pref": "沖縄県",
    "city": "石垣市",
    "category": "home_help",
    "serviceType": "訪問介護",
    "capacity": 0,
    "openDays": [
      "平日",
      "土曜日"
    ],
    "openDaysNote": ""
  },
  {
    "id": "4770700633",
    "name": "スタイルケアサービス",
    "kana": "スタイルケアサービス",
    "address": "沖縄県石垣市浜崎町3丁目3番9コーラルケアガーデン コーラルケアガーデン",
    "lat": 24.3402012,
    "lng": 124.1484392,
    "tel": "0980-87-5683",
    "url": "http://style-care.jp",
    "pref": "沖縄県",
    "city": "石垣市",
    "category": "home_help",
    "serviceType": "訪問介護",
    "capacity": 2,
    "openDays": [
      "平日",
      "土曜日",
      "日曜日",
      "祝日"
    ],
    "openDaysNote": ""
  },
  {
    "id": "4770700641",
    "name": "ワイズケア",
    "kana": "ワイズケア",
    "address": "沖縄県石垣市字新川289プランドール103 プランドール103",
    "lat": 24.3447689,
    "lng": 124.1559001,
    "tel": "０９０－６８６１－０３９５",
    "url": "",
    "pref": "沖縄県",
    "city": "石垣市",
    "category": "home_help",
    "serviceType": "訪問介護",
    "capacity": 80,
    "openDays": [
      "平日",
      "土曜日",
      "祝日"
    ],
    "openDaysNote": ""
  },
  {
    "id": "4770700328",
    "name": "株式会社アカハチ　ヘルパーステーション大浜１番地",
    "kana": "カブシキガイシャアカハチ　ヘルパーステーションオオハマイチバンチ",
    "address": "沖縄県石垣市字大浜２番地３",
    "lat": 24.3433959375766,
    "lng": 124.196588850926,
    "tel": "0980-87-0531",
    "url": "",
    "pref": "沖縄県",
    "city": "石垣市",
    "category": "home_help",
    "serviceType": "訪問介護",
    "capacity": 0,
    "openDays": [
      "平日",
      "土曜日",
      "日曜日",
      "祝日"
    ],
    "openDaysNote": "３６５日可動いたします。"
  },
  {
    "id": "4770700385",
    "name": "指定訪問介護事業所　若夏の家",
    "kana": "シテイホウモンカイゴジギョウショ　ワカナツノイエ",
    "address": "石垣市字登野城９４３番地１",
    "lat": 24.3418198,
    "lng": 124.1678296,
    "tel": "0980-87-6458",
    "url": "",
    "pref": "沖縄県",
    "city": "石垣市",
    "category": "home_help",
    "serviceType": "訪問介護",
    "capacity": 0,
    "openDays": [
      "平日",
      "土曜日",
      "日曜日",
      "祝日"
    ],
    "openDaysNote": ""
  },
  {
    "id": "4710710650",
    "name": "石垣島徳洲会病院　訪問介護事業所",
    "kana": "イシガキジマトクシュウカイビョウイン　ホウモンカイゴジギョウショ",
    "address": "大浜字南大浜４４６－１",
    "lat": 34.7066626,
    "lng": 135.3880889,
    "tel": "0980-88-0123",
    "url": "http://www.tokushukai.or.jp/hsp/ishigakijima/",
    "pref": "沖縄県",
    "city": "石垣市",
    "category": "home_help",
    "serviceType": "訪問介護",
    "capacity": 0,
    "openDays": [
      "平日",
      "土曜日",
      "日曜日",
      "祝日"
    ],
    "openDaysNote": ""
  },
  {
    "id": "4770700062",
    "name": "石垣訪問介護センター",
    "kana": "イシガキホウモンカイゴセンター",
    "address": "沖縄県石垣市真栄里556番地の1",
    "lat": 24.3396299107827,
    "lng": 124.179927556097,
    "tel": "0980-84-3535",
    "url": "http://ishigaki-taiyounosato.com/",
    "pref": "沖縄県",
    "city": "石垣市",
    "category": "home_help",
    "serviceType": "訪問介護",
    "capacity": 2,
    "openDays": [
      "平日",
      "土曜日",
      "日曜日",
      "祝日"
    ],
    "openDaysNote": ""
  },
  {
    "id": "4770700237",
    "name": "八重山厚生園指定訪問介護事業所",
    "kana": "ヤエヤマコウセイエンシテイホウモンカイゴジギョウショ",
    "address": "沖縄県石垣市新川１７４０－２",
    "lat": 24.359491,
    "lng": 124.1230189,
    "tel": "0980-88-6430",
    "url": "https://www.okinawa-j.jp/",
    "pref": "沖縄県",
    "city": "石垣市",
    "category": "home_help",
    "serviceType": "訪問介護",
    "capacity": 0,
    "openDays": [
      "平日",
      "土曜日",
      "日曜日",
      "祝日"
    ],
    "openDaysNote": ""
  },
  {
    "id": "4770700070",
    "name": "訪問介護ステーションさみん",
    "kana": "ホウモンカイゴステーションサミン",
    "address": "沖縄県石垣市美崎町１６番地の６",
    "lat": 24.3413356,
    "lng": 124.1549304,
    "tel": "0980-84-3302",
    "url": "",
    "pref": "沖縄県",
    "city": "石垣市",
    "category": "home_help",
    "serviceType": "訪問介護",
    "capacity": 0,
    "openDays": [
      "平日",
      "土曜日",
      "日曜日",
      "祝日"
    ],
    "openDaysNote": "暴風警報が発令した場合、訪問介護は中止とする。また、高速船が波や風の影響で運行中止になった場合も、訪問介護員が居ない地区の場合は中止とする。しかし利用者の状態や状況によっては継続する場合がある。可能ならば、ほかの日に振替もできる。24時間訪問可能としているが、対応可能なヘルパーが島に居ないことや、船が24時間動いていない事から、出来ていない。"
  },
  {
    "id": "4770700658",
    "name": "訪問介護ステーションみらくる",
    "kana": "ホウモンカイゴステーションミラクル",
    "address": "大川４４８−９MMハウス101",
    "lat": null,
    "lng": null,
    "tel": "0980−87−9666",
    "url": "",
    "pref": "沖縄県",
    "city": "石垣市",
    "category": "home_help",
    "serviceType": "訪問介護",
    "capacity": 0,
    "openDays": [
      "平日"
    ],
    "openDaysNote": ""
  },
  {
    "id": "4770700690",
    "name": "訪問介護事業所ジャスミン",
    "kana": "ホウモンカイゴジギョウショジャスミン",
    "address": "沖縄県石垣市字登野城677番地1",
    "lat": 24.3390801,
    "lng": 124.1658194,
    "tel": "080-7294-5078",
    "url": "",
    "pref": "沖縄県",
    "city": "石垣市",
    "category": "home_help",
    "serviceType": "訪問介護",
    "capacity": 0,
    "openDays": [
      "平日",
      "土曜日",
      "日曜日",
      "祝日"
    ],
    "openDaysNote": "ご相談により、早朝や夜間でも対応可能。"
  },
  {
    "id": "4770700021",
    "name": "有限会社　ゆいケアサービス",
    "kana": "ユウゲンガイシャ　ユイケアサービス",
    "address": "沖縄県石垣市字登野城74-4",
    "lat": 24.3390466,
    "lng": 124.1594912,
    "tel": "0980-84-3939",
    "url": "http://www.",
    "pref": "沖縄県",
    "city": "石垣市",
    "category": "home_help",
    "serviceType": "訪問介護",
    "capacity": 0,
    "openDays": [
      "平日",
      "土曜日",
      "日曜日",
      "祝日"
    ],
    "openDaysNote": "365日24時間体制"
  },
  {
    "id": "4771200088",
    "name": "ヘルパーステーションいっしん",
    "kana": "ヘルパーステーションイッシン",
    "address": "沖縄県国頭郡大宜味村字津波418番地",
    "lat": 26.6603621403396,
    "lng": 128.098703853967,
    "tel": "0980-44-1919",
    "url": "isshinfukushikai.or.jp/heiper-station/",
    "pref": "沖縄県",
    "city": "大宜味村",
    "category": "home_help",
    "serviceType": "訪問介護",
    "capacity": 0,
    "openDays": [
      "平日",
      "土曜日",
      "祝日"
    ],
    "openDaysNote": ""
  },
  {
    "id": "4772600237",
    "name": "ヘルパーステーションあうる",
    "kana": "ヘルパーステーションアウル",
    "address": "沖縄県中頭郡中城村南上原955番地3",
    "lat": 26.2462589,
    "lng": 127.7693672,
    "tel": "098-988-1242",
    "url": "https://www.kindcare-owl.com/",
    "pref": "沖縄県",
    "city": "中城村",
    "category": "home_help",
    "serviceType": "訪問介護",
    "capacity": 0,
    "openDays": [
      "平日",
      "土曜日",
      "日曜日"
    ],
    "openDaysNote": ""
  },
  {
    "id": "4772600161",
    "name": "訪問介護事業所　みなみ",
    "kana": "ホウモンカイゴジギョウショ　ミナミ",
    "address": "中城村字南上原９６５番地２メゾンマルヤス1階 メゾンマルヤス1階",
    "lat": 26.2461062,
    "lng": 127.7696644,
    "tel": "０９８－８９５－２１２７",
    "url": "",
    "pref": "沖縄県",
    "city": "中城村",
    "category": "home_help",
    "serviceType": "訪問介護",
    "capacity": 0,
    "openDays": [
      "平日",
      "土曜日",
      "日曜日",
      "祝日"
    ],
    "openDaysNote": "休日はなし(但し、12月31日～1月3日の営業は独居、認知症、家族対応が困難な方に限る)（改行）24時間体制"
  },
  {
    "id": "4772600187",
    "name": "訪問介護事業所あじまぁー",
    "kana": "ホウモンカイゴジギョウショアジマァー",
    "address": "沖縄県中頭郡中城村南上原１３７－１Bellevue102号 Bellevue102号",
    "lat": 26.2568266549068,
    "lng": 127.776221117088,
    "tel": "098-895-4878",
    "url": "",
    "pref": "沖縄県",
    "city": "中城村",
    "category": "home_help",
    "serviceType": "訪問介護",
    "capacity": 35,
    "openDays": [
      "平日",
      "土曜日",
      "日曜日",
      "祝日"
    ],
    "openDaysNote": "【台風時の対応】暴風警報が発令しバスが運休の場合は、原則として訪問介護サービスはヘルパー安全確保の為、中止とさせて頂きます。但し例外にて家族の協力が得られない独居利用者に限り、状況に応じて対応する事もあります。"
  },
  {
    "id": "4772600104",
    "name": "訪問介護事業所みずほ",
    "kana": "ホウモンカイゴジギョウショミズホ",
    "address": "沖縄県中頭郡中城村字北上原879番地",
    "lat": 26.2617391555198,
    "lng": 127.777336573593,
    "tel": "098-895-3500",
    "url": "http://www.mizuho-okinawa.com",
    "pref": "沖縄県",
    "city": "中城村",
    "category": "home_help",
    "serviceType": "訪問介護",
    "capacity": 0,
    "openDays": [
      "平日",
      "土曜日",
      "日曜日",
      "祝日"
    ],
    "openDaysNote": "電話等により、２４時間常時連絡が可能な体制"
  },
  {
    "id": "4771300037",
    "name": "訪問介護ひがし",
    "kana": "ホウモンカイゴヒガシ",
    "address": "沖縄県国頭郡東村字宮城136番地",
    "lat": 26.6261452810343,
    "lng": 128.182975420746,
    "tel": "980437809",
    "url": "",
    "pref": "沖縄県",
    "city": "東村",
    "category": "home_help",
    "serviceType": "訪問介護",
    "capacity": null,
    "openDays": [
      "平日",
      "土曜日",
      "日曜日",
      "祝日"
    ],
    "openDaysNote": "ただし、１２月31日～１月２日を除く"
  },
  {
    "id": "4772200095",
    "name": "ヴィラージュせなはヘルパーステーション",
    "kana": "ゔィラージュセナハ　ヘルパーステーション",
    "address": "沖縄県中頭郡読谷村長浜１１１０",
    "lat": 26.4186308,
    "lng": 127.733866,
    "tel": "098-921-6333",
    "url": "http://www.village-senaha.jp",
    "pref": "沖縄県",
    "city": "読谷村",
    "category": "home_help",
    "serviceType": "訪問介護",
    "capacity": 0,
    "openDays": [
      "平日",
      "土曜日",
      "日曜日",
      "祝日"
    ],
    "openDaysNote": ""
  },
  {
    "id": "4772200541",
    "name": "ヘルパーステーションステラ",
    "kana": "ヘルパーステーションステラ",
    "address": "沖縄県中頭郡読谷村字大木４６８番地上原アパート１－３ 上原アパート１－３",
    "lat": 26.3826210284804,
    "lng": 127.746985125131,
    "tel": "989233639",
    "url": "",
    "pref": "沖縄県",
    "city": "読谷村",
    "category": "home_help",
    "serviceType": "訪問介護",
    "capacity": 12,
    "openDays": [
      "平日",
      "土曜日",
      "日曜日",
      "祝日"
    ],
    "openDaysNote": "なし。"
  },
  {
    "id": "4772200293",
    "name": "ヘルパーステーションまゆの里おおわん",
    "kana": "ヘルパーステーションマユノサトオオワン",
    "address": "沖縄県中頭郡読谷村字大湾669-2",
    "lat": 26.3731324956148,
    "lng": 127.750056938693,
    "tel": "098-923-1764",
    "url": "http://mayunosato.net/",
    "pref": "沖縄県",
    "city": "読谷村",
    "category": "home_help",
    "serviceType": "訪問介護",
    "capacity": 0,
    "openDays": [
      "平日",
      "土曜日",
      "日曜日",
      "祝日"
    ],
    "openDaysNote": "年中無休サービス提供24時間"
  },
  {
    "id": "4772200582",
    "name": "やすらぎ",
    "kana": "ヤスラギ",
    "address": "沖縄県中頭郡読谷村字大木９２番地糸村アパート１０１号室 糸村アパート１０１号室",
    "lat": 26.3762422,
    "lng": 127.7474982,
    "tel": "098-989-1077",
    "url": "",
    "pref": "沖縄県",
    "city": "読谷村",
    "category": "home_help",
    "serviceType": "訪問介護",
    "capacity": 20,
    "openDays": [
      "平日",
      "土曜日",
      "祝日"
    ],
    "openDaysNote": ""
  },
  {
    "id": "4772200053",
    "name": "よみたん社協ホームヘルプサービス",
    "kana": "ヨミタンシャキョウホームヘルプサービス",
    "address": "沖縄県中頭郡読谷村字都屋１６７番地２読谷村生き活き健康センター 読谷村生き活き健康センター",
    "lat": 26.3938608,
    "lng": 127.7260256,
    "tel": "０９８－９５７－１７６２",
    "url": "",
    "pref": "沖縄県",
    "city": "読谷村",
    "category": "home_help",
    "serviceType": "訪問介護",
    "capacity": 0,
    "openDays": [
      "平日",
      "土曜日",
      "日曜日",
      "祝日"
    ],
    "openDaysNote": "天災その他やむを得ず業務を遂行できない日を除き毎日とする。サービス提供責任者とは、携帯電話でいつでも連絡がとれるようにしている。"
  },
  {
    "id": "4772200442",
    "name": "株式会社ゆいあいネットワーク",
    "kana": "カブシキガイシャユイアイネットワーク",
    "address": "大湾363松田アパート 松田アパート",
    "lat": 26.3735244,
    "lng": 127.7551605,
    "tel": "098-989-8496",
    "url": "https://yuiainetwork.co.jp/",
    "pref": "沖縄県",
    "city": "読谷村",
    "category": "home_help",
    "serviceType": "訪問介護",
    "capacity": 0,
    "openDays": [
      "平日",
      "土曜日",
      "日曜日",
      "祝日"
    ],
    "openDaysNote": "日曜日は出勤する職員数が少ない為、日曜日支援は現在受け付けておりません。"
  },
  {
    "id": "4772200137",
    "name": "指定訪問介護事業所コロニーヘルパーステーション読谷",
    "kana": "シテイホウモンカイゴジギョウショコロニーヘルパーステーションヨミタン",
    "address": "沖縄県読谷村伊良皆３５２－４",
    "lat": 26.3816347,
    "lng": 127.7510772,
    "tel": "098-957-6511",
    "url": "http://www.okicolo.or.jp",
    "pref": "沖縄県",
    "city": "読谷村",
    "category": "home_help",
    "serviceType": "訪問介護",
    "capacity": 0,
    "openDays": [
      "平日",
      "土曜日",
      "日曜日",
      "祝日"
    ],
    "openDaysNote": "特になし"
  },
  {
    "id": "4772200160",
    "name": "読谷の里　指定訪問介護事業所",
    "kana": "ヨミタンノサト　シテイホウモンカイゴジギョウショ",
    "address": "沖縄県中頭郡読谷村字喜名2272番地4",
    "lat": 26.395364,
    "lng": 127.750188,
    "tel": "098-958-7772",
    "url": "http://www.yomisato.com",
    "pref": "沖縄県",
    "city": "読谷村",
    "category": "home_help",
    "serviceType": "訪問介護",
    "capacity": 0,
    "openDays": [
      "平日",
      "土曜日",
      "日曜日",
      "祝日"
    ],
    "openDaysNote": "24時間対応"
  },
  {
    "id": "4772200475",
    "name": "訪問介護あんねい",
    "kana": "ホウモンカイゴアンネイ",
    "address": "沖縄県中頭郡読谷村字古堅761番地２",
    "lat": 26.3693534,
    "lng": 127.7463565,
    "tel": "098-921-8075",
    "url": "http://www.fukujyusou.okinawa/",
    "pref": "沖縄県",
    "city": "読谷村",
    "category": "home_help",
    "serviceType": "訪問介護",
    "capacity": null,
    "openDays": [
      "平日",
      "土曜日",
      "日曜日",
      "祝日"
    ],
    "openDaysNote": "ご希望があれば365日・24時間対応の相談に応じる。"
  },
  {
    "id": "4770100594",
    "name": "（有）ユニバ－サルいきいき介護センタ－",
    "kana": "ユウゲンガイシャユニバ－サルイキイキカイゴセンタ－",
    "address": "沖縄県那覇市字仲井真２４０番地２",
    "lat": 26.195357,
    "lng": 127.7099001,
    "tel": "098-836-2755",
    "url": "",
    "pref": "沖縄県",
    "city": "那覇市",
    "category": "home_help",
    "serviceType": "訪問介護",
    "capacity": 0,
    "openDays": [
      "平日",
      "土曜日",
      "祝日"
    ],
    "openDaysNote": "必要に応じ常時対応。"
  },
  {
    "id": "4770104745",
    "name": "アネスト沖縄訪問介護サービス",
    "kana": "アネストオキナワホウモンカイゴサービス",
    "address": "沖縄県那覇市識名1-8-1玉商ビルⅡ602号 玉商ビルⅡ602号",
    "lat": 26.2055526,
    "lng": 127.7025799,
    "tel": "098-996-5473",
    "url": "",
    "pref": "沖縄県",
    "city": "那覇市",
    "category": "home_help",
    "serviceType": "訪問介護",
    "capacity": null,
    "openDays": [
      "平日"
    ],
    "openDaysNote": "24時間対応可能"
  },
  {
    "id": "4770104851",
    "name": "ウーバーケア首里店",
    "kana": "ウーバーケアシュリテン",
    "address": "沖縄県那覇市首里石嶺町3-111-10EST首里101 EST首里101",
    "lat": 26.2318773,
    "lng": 127.7282773,
    "tel": "098-943-8267",
    "url": "",
    "pref": "沖縄県",
    "city": "那覇市",
    "category": "home_help",
    "serviceType": "訪問介護",
    "capacity": null,
    "openDays": [
      "平日",
      "土曜日",
      "日曜日",
      "祝日"
    ],
    "openDaysNote": "ただし、ヘルパーの空きがある場合にサービス受け入れが可能である。（改行）深夜、日曜日、年末年始についてはヘルパーの空き状況が非常に少ない。"
  },
  {
    "id": "4770104596",
    "name": "ウェルスタイル那覇訪問介護事業所",
    "kana": "ウェルスタイルナハホウモンカイゴジギョウショ",
    "address": "沖縄県那覇市古島2-26-1コーポ長本103 コーポ長本103",
    "lat": 26.2300181,
    "lng": 127.7061776,
    "tel": "098-917-4511",
    "url": "",
    "pref": "沖縄県",
    "city": "那覇市",
    "category": "home_help",
    "serviceType": "訪問介護",
    "capacity": null,
    "openDays": [
      "平日",
      "土曜日",
      "日曜日",
      "祝日"
    ],
    "openDaysNote": ""
  },
  {
    "id": "4770102020",
    "name": "くるくまケアサービス",
    "kana": "クルクマケアサービス",
    "address": "沖縄県那覇市安謝１０１－１４",
    "lat": 26.2382269,
    "lng": 127.6885293,
    "tel": "098-943-1127",
    "url": "http://www.curcuma-care.com/",
    "pref": "沖縄県",
    "city": "那覇市",
    "category": "home_help",
    "serviceType": "訪問介護",
    "capacity": 0,
    "openDays": [
      "平日",
      "土曜日",
      "日曜日",
      "祝日"
    ],
    "openDaysNote": "サービス利用計画により、休業日および時間外であってもサービスを提供する場合あり。"
  },
  {
    "id": "4770100685",
    "name": "ケアステーション　マナ",
    "kana": "ケアステーション　マナ",
    "address": "沖縄県那覇市字天久1127番地5",
    "lat": 26.2305599672234,
    "lng": 127.685878337504,
    "tel": "098-863-3022",
    "url": "http://www.",
    "pref": "沖縄県",
    "city": "那覇市",
    "category": "home_help",
    "serviceType": "訪問介護",
    "capacity": 0,
    "openDays": [
      "平日",
      "土曜日",
      "日曜日",
      "祝日"
    ],
    "openDaysNote": ""
  },
  {
    "id": "4770104034",
    "name": "ケアステーション愛あい",
    "kana": "ケアステーションアイアイ",
    "address": "那覇市宇栄原１－１９－３具志さつき荘１０１ 具志さつき荘１０１",
    "lat": 26.1903517,
    "lng": 127.6642925,
    "tel": "098-996-5093",
    "url": "http://hp.kaipoke.biz/ur1/",
    "pref": "沖縄県",
    "city": "那覇市",
    "category": "home_help",
    "serviceType": "訪問介護",
    "capacity": null,
    "openDays": [
      "平日",
      "土曜日",
      "日曜日",
      "祝日"
    ],
    "openDaysNote": "注）緊急時の場合は、電話等により２４時間常時連絡が可能な体制。"
  },
  {
    "id": "4770100156",
    "name": "シルビアン指定訪問介護事業所",
    "kana": "シルビアンシテイホウモンカイゴジギョウショ",
    "address": "沖縄県那覇市真地４２６番地の１２１",
    "lat": 26.2047004,
    "lng": 127.7134908,
    "tel": "098-833-8837",
    "url": "",
    "pref": "沖縄県",
    "city": "那覇市",
    "category": "home_help",
    "serviceType": "訪問介護",
    "capacity": 0,
    "openDays": [
      "平日",
      "土曜日",
      "日曜日",
      "祝日"
    ],
    "openDaysNote": "営業時間外及び定休日のサービス提供は利用者の要望に応じるため適宜変更することを可能とする。"
  },
  {
    "id": "4770103994",
    "name": "ソフトケア三原店",
    "kana": "ソフトケアミハラテン",
    "address": "沖縄県那覇市三原２ー２ー４７",
    "lat": 26.2105022,
    "lng": 127.7007771,
    "tel": "０９８－９８７－０１６３",
    "url": "https://www.softcare-naha.jp",
    "pref": "沖縄県",
    "city": "那覇市",
    "category": "home_help",
    "serviceType": "訪問介護",
    "capacity": 0,
    "openDays": [
      "平日",
      "土曜日",
      "日曜日",
      "祝日"
    ],
    "openDaysNote": "※人員配置が困難な場合は要相談"
  },
  {
    "id": "4770104786",
    "name": "ツクイ沖縄新都心",
    "kana": "ツクイオキナワシントシン",
    "address": "銘苅1丁目11番3号新都心76ビル1階 新都心76ビル1階",
    "lat": 26.234738,
    "lng": 127.7001094,
    "tel": "098-863-8701",
    "url": "https://www.tsukui.net",
    "pref": "沖縄県",
    "city": "那覇市",
    "category": "home_help",
    "serviceType": "訪問介護",
    "capacity": 0,
    "openDays": [
      "平日"
    ],
    "openDaysNote": "日曜日は休み"
  },
  {
    "id": "4770100149",
    "name": "ニチイケアセンターまぁじ",
    "kana": "ニチイケアセンターマァジ",
    "address": "沖縄県那覇市識名1249-1",
    "lat": 26.2002954,
    "lng": 127.7154854,
    "tel": "098-835-4606",
    "url": "http://www.nichiigakkan.co.jp",
    "pref": "沖縄県",
    "city": "那覇市",
    "category": "home_help",
    "serviceType": "訪問介護",
    "capacity": 0,
    "openDays": [
      "平日",
      "土曜日",
      "日曜日",
      "祝日"
    ],
    "openDaysNote": "サービス計画により休業日　及び営業時間外であってもサービスを提供する場合もあります。"
  },
  {
    "id": "4770103085",
    "name": "ヘルパーステーション　Ｌｉｂ",
    "kana": "ヘルパーステーション　リブ",
    "address": "沖縄県那覇市辻2丁目24-12",
    "lat": 26.2192614875276,
    "lng": 127.670631157672,
    "tel": "098-917-4831",
    "url": "",
    "pref": "沖縄県",
    "city": "那覇市",
    "category": "home_help",
    "serviceType": "訪問介護",
    "capacity": null,
    "openDays": [
      "平日",
      "土曜日",
      "日曜日",
      "祝日"
    ],
    "openDaysNote": ""
  },
  {
    "id": "4770103960",
    "name": "ヘルパーステーション　イマジニア",
    "kana": "ヘルパーステーション　イマジニア",
    "address": "沖縄県那覇市首里石嶺町2丁目249番地",
    "lat": 26.2189276,
    "lng": 127.7358296,
    "tel": "098-882-1290",
    "url": "",
    "pref": "沖縄県",
    "city": "那覇市",
    "category": "home_help",
    "serviceType": "訪問介護",
    "capacity": 0,
    "openDays": [
      "平日",
      "土曜日",
      "日曜日",
      "祝日"
    ],
    "openDaysNote": ""
  },
  {
    "id": "4770103762",
    "name": "ヘルパーステーション　エスタジオ小禄",
    "kana": "ヘルパースティション　エスタジオ　オロク",
    "address": "宮城1丁目18番1号エスタジオ小禄2階 エスタジオ小禄2階",
    "lat": 26.187753,
    "lng": 127.657944,
    "tel": "098-858-8833",
    "url": "",
    "pref": "沖縄県",
    "city": "那覇市",
    "category": "home_help",
    "serviceType": "訪問介護",
    "capacity": null,
    "openDays": [
      "平日",
      "土曜日",
      "日曜日",
      "祝日"
    ],
    "openDaysNote": "24時間365日"
  },
  {
    "id": "4760190019",
    "name": "ヘルパーステーション　オリブ山",
    "kana": "ヘルパーステーション　オリブヤマ",
    "address": "那覇市首里石嶺町１丁目１５１番地５ネクスコート濱元１階",
    "lat": 26.2254135052104,
    "lng": 127.72821795743,
    "tel": "098-886-7983",
    "url": "http://www.oribuyama.jp",
    "pref": "沖縄県",
    "city": "那覇市",
    "category": "home_help",
    "serviceType": "訪問介護",
    "capacity": 0,
    "openDays": [
      "平日",
      "土曜日",
      "日曜日",
      "祝日"
    ],
    "openDaysNote": ""
  },
  {
    "id": "4770103630",
    "name": "ヘルパーステーション　きずな",
    "kana": "ヘルパーステーションキズナ",
    "address": "小禄１丁目8-16",
    "lat": 26.1944477,
    "lng": 127.6789361,
    "tel": "098-955-0438",
    "url": "",
    "pref": "沖縄県",
    "city": "那覇市",
    "category": "home_help",
    "serviceType": "訪問介護",
    "capacity": 3,
    "openDays": [
      "平日"
    ],
    "openDaysNote": "土曜日、祝祭日については利用者様との相談の上、利用可能。"
  },
  {
    "id": "4770103846",
    "name": "ヘルパーステーション　琉球の街",
    "kana": "ヘルパーステーション　リュウキュウノマチ",
    "address": "沖縄県那覇市国場872-4",
    "lat": 26.1991201,
    "lng": 127.6982565,
    "tel": "098-995-8875",
    "url": "https://www.ryukyunomachi.com/",
    "pref": "沖縄県",
    "city": "那覇市",
    "category": "home_help",
    "serviceType": "訪問介護",
    "capacity": 0,
    "openDays": [
      "平日"
    ],
    "openDaysNote": ""
  },
  {
    "id": "4770105007",
    "name": "ヘルパーステーションRico",
    "kana": "ヘルパーステーション　リコ",
    "address": "長田11-10-20　1階",
    "lat": null,
    "lng": null,
    "tel": "098-987-7287",
    "url": "",
    "pref": "沖縄県",
    "city": "那覇市",
    "category": "home_help",
    "serviceType": "訪問介護",
    "capacity": null,
    "openDays": [
      "平日",
      "土曜日",
      "日曜日",
      "祝日"
    ],
    "openDaysNote": ""
  },
  {
    "id": "4770104927",
    "name": "ヘルパーステーションいずみ",
    "kana": "ヘルパーステーションイズミ",
    "address": "那覇市繁多川2-14-7繁多川ハイツ301号",
    "lat": 26.2104851,
    "lng": 127.7110705,
    "tel": "080-9712-5503",
    "url": "",
    "pref": "沖縄県",
    "city": "那覇市",
    "category": "home_help",
    "serviceType": "訪問介護",
    "capacity": 0,
    "openDays": [
      "平日"
    ],
    "openDaysNote": "電話等で24時間対応可能（改行）12/31～1/3は、独居、認知症、家族対応困難な方に限る"
  },
  {
    "id": "4770104646",
    "name": "ヘルパーステーションおもろ",
    "kana": "ヘルパーステションオモロ",
    "address": "沖縄県那覇市おもろまち3-6-3愛和ビル501 愛和ビル501",
    "lat": 26.2299823,
    "lng": 127.694566,
    "tel": "098-917-4457",
    "url": "https://lien-okinawa.com/",
    "pref": "沖縄県",
    "city": "那覇市",
    "category": "home_help",
    "serviceType": "訪問介護",
    "capacity": 0,
    "openDays": [
      "平日",
      "土曜日",
      "日曜日",
      "祝日"
    ],
    "openDaysNote": "24時間体制"
  },
  {
    "id": "4770104679",
    "name": "ヘルパーステーションくもじ",
    "kana": "ヘルパーステーションクモジ",
    "address": "那覇市久茂地三丁目4番16号新垣ビル3-A 新垣ビル3-A",
    "lat": 26.2147365,
    "lng": 127.6830286,
    "tel": "098-988-1256",
    "url": "",
    "pref": "沖縄県",
    "city": "那覇市",
    "category": "home_help",
    "serviceType": "訪問介護",
    "capacity": 0,
    "openDays": [
      "平日",
      "土曜日",
      "日曜日",
      "祝日"
    ],
    "openDaysNote": "定休日・営業時間外も転送電話にて対応"
  },
  {
    "id": "4770104935",
    "name": "ヘルパーステーションくもじ",
    "kana": "ヘルパーステーションクモジ",
    "address": "那覇市繁多川2丁目14-7繁多川ハイツ301繁多川ハイツ301 繁多川ハイツ301",
    "lat": 26.2160851,
    "lng": 127.6820423,
    "tel": "080-9712-5583",
    "url": "",
    "pref": "沖縄県",
    "city": "那覇市",
    "category": "home_help",
    "serviceType": "訪問介護",
    "capacity": 0,
    "openDays": [
      "平日"
    ],
    "openDaysNote": "電話等で24時間対応可能（改行）12/31～1/3は、独居、認知症、家族対応困難な方に限る"
  },
  {
    "id": "4770104125",
    "name": "ヘルパーステーションしきな",
    "kana": "ヘルパーステーションシキナ",
    "address": "沖縄県那覇市寄宮３－３－５　１F分譲住宅　１階 分譲住宅　１階",
    "lat": 26.2076012018808,
    "lng": 127.70246860627,
    "tel": "080-9402-3125",
    "url": "",
    "pref": "沖縄県",
    "city": "那覇市",
    "category": "home_help",
    "serviceType": "訪問介護",
    "capacity": null,
    "openDays": [
      "平日",
      "土曜日",
      "日曜日",
      "祝日"
    ],
    "openDaysNote": "休日なし（但し、12月31日～1月3日の営業は独居、認知症、家族対応困難な方に限る）"
  },
  {
    "id": "4770104661",
    "name": "ヘルパーステーションしんらい那覇",
    "kana": "ヘルパーステーションシンライナハ",
    "address": "沖縄県那覇市壺川2丁目13-46かふうビル1階 かふうビル1階",
    "lat": 26.203068,
    "lng": 127.6830632,
    "tel": "098-987-4401",
    "url": "",
    "pref": "沖縄県",
    "city": "那覇市",
    "category": "home_help",
    "serviceType": "訪問介護",
    "capacity": null,
    "openDays": [
      "平日",
      "土曜日",
      "日曜日",
      "祝日"
    ],
    "openDaysNote": ""
  },
  {
    "id": "4770103374",
    "name": "ヘルパーステーションてるしの",
    "kana": "ヘルパーステーションテルシノ",
    "address": "沖縄県那覇市三原2-15-13ひかりビル1F ひかりビル1F",
    "lat": 26.2124322,
    "lng": 127.6998943,
    "tel": "098-927-6345",
    "url": "",
    "pref": "沖縄県",
    "city": "那覇市",
    "category": "home_help",
    "serviceType": "訪問介護",
    "capacity": null,
    "openDays": [
      "平日",
      "土曜日",
      "日曜日",
      "祝日"
    ],
    "openDaysNote": "サービスの提供時間は状況等により、利用者の相談に応じるものとします。"
  },
  {
    "id": "4770104109",
    "name": "ヘルパーステーションながた",
    "kana": "ヘルパーステーションナガタ",
    "address": "沖縄県那覇市寄宮3-3-5　１F",
    "lat": 26.207615734616,
    "lng": 127.702546253197,
    "tel": "080-4947-2075",
    "url": "",
    "pref": "沖縄県",
    "city": "那覇市",
    "category": "home_help",
    "serviceType": "訪問介護",
    "capacity": null,
    "openDays": [
      "平日",
      "土曜日",
      "日曜日",
      "祝日"
    ],
    "openDaysNote": "休日なし（但し、12月31日～1月3日の営業は独居、認知症、家族対応困難な方に限る）"
  },
  {
    "id": "4770103705",
    "name": "ヘルパーステーションめかる",
    "kana": "ヘルパーステーションメカル",
    "address": "沖縄県那覇市字銘苅303番地　メディカルヒルズめかる3Ｆメディカルヒルズめかる メディカルヒルズめかる",
    "lat": 26.2367367,
    "lng": 127.6973912,
    "tel": "865-3700",
    "url": "",
    "pref": "沖縄県",
    "city": "那覇市",
    "category": "home_help",
    "serviceType": "訪問介護",
    "capacity": 0,
    "openDays": [
      "平日",
      "土曜日",
      "日曜日",
      "祝日"
    ],
    "openDaysNote": "24時間体制"
  },
  {
    "id": "4770105106",
    "name": "ヘルパーステーションわくわくの森小禄",
    "kana": "ヘルパーステーションワクワクノモリオロク",
    "address": "小禄1-1-12",
    "lat": 26.1956765,
    "lng": 127.6772177,
    "tel": "070-1367-7630",
    "url": "https://bestlife-okinawa.co.jp/",
    "pref": "沖縄県",
    "city": "那覇市",
    "category": "home_help",
    "serviceType": "訪問介護",
    "capacity": 0,
    "openDays": [
      "平日"
    ],
    "openDaysNote": ""
  },
  {
    "id": "4760190043",
    "name": "ヘルパーステーション小禄",
    "kana": "ヘルパーステーションオロク",
    "address": "沖縄県那覇市字小禄５４７番地の１小禄病院２階 小禄病院２階",
    "lat": 26.1933342353498,
    "lng": 127.676246071985,
    "tel": "098-857-6205",
    "url": "http://www.rokuzyukai.or.jp",
    "pref": "沖縄県",
    "city": "那覇市",
    "category": "home_help",
    "serviceType": "訪問介護",
    "capacity": 0,
    "openDays": [
      "平日",
      "土曜日",
      "日曜日",
      "祝日"
    ],
    "openDaysNote": "☆２４時間、年中無休（改行）※沖縄県内、暴風域に入り公共の運行機関（バス）が運休の場合はサービス中止となる場合があります。（改行）利用者様・家族様等と訪問日時等を相談調整しサービスを提供致します。"
  },
  {
    "id": "4770104224",
    "name": "ヘルパーステーション那覇",
    "kana": "ヘルパーステーションナハ",
    "address": "沖縄県那覇市松川３丁目23-37有料老人ホーム介　松川 有料老人ホーム介　松川",
    "lat": 26.2155021,
    "lng": 127.7095589,
    "tel": "098-831-8800",
    "url": "",
    "pref": "沖縄県",
    "city": "那覇市",
    "category": "home_help",
    "serviceType": "訪問介護",
    "capacity": 0,
    "openDays": [
      "平日",
      "土曜日",
      "日曜日",
      "祝日"
    ],
    "openDaysNote": ""
  },
  {
    "id": "4770103820",
    "name": "ヘルパーステーション繁多川",
    "kana": "ヘルパーステーションハンタガワ",
    "address": "那覇市繁多川2-14-7繁多川ハイツ301号",
    "lat": 26.2104851,
    "lng": 127.7110705,
    "tel": "080-7502-5043",
    "url": "",
    "pref": "沖縄県",
    "city": "那覇市",
    "category": "home_help",
    "serviceType": "訪問介護",
    "capacity": 0,
    "openDays": [
      "平日"
    ],
    "openDaysNote": "電話等で24時間対応可能（改行）12/31～1/3は、独居、認知症、家族対応困難な方に限る"
  },
  {
    "id": "4770101089",
    "name": "ヘルパーステーション夢",
    "kana": "ヘルパーステーション　ユメ",
    "address": "沖縄県那覇市首里石嶺町二丁目70番地29JK石嶺ハイツ101 JK石嶺ハイツ101",
    "lat": 26.2245811619395,
    "lng": 127.733863795054,
    "tel": "098-886-5585",
    "url": "http://www.dayservice-yume.jp/index.html",
    "pref": "沖縄県",
    "city": "那覇市",
    "category": "home_help",
    "serviceType": "訪問介護",
    "capacity": 0,
    "openDays": [
      "平日",
      "土曜日",
      "日曜日",
      "祝日"
    ],
    "openDaysNote": "24時間対応"
  },
  {
    "id": "4770103929",
    "name": "ヘルパーステーション来夢",
    "kana": "ヘルパーステーションライム",
    "address": "長田２丁目３０番地３６号新里アパート101号室 新里アパート101号室",
    "lat": 26.2028888,
    "lng": 127.7044744,
    "tel": "098-960-4014",
    "url": "",
    "pref": "沖縄県",
    "city": "那覇市",
    "category": "home_help",
    "serviceType": "訪問介護",
    "capacity": 0,
    "openDays": [
      "平日",
      "土曜日",
      "日曜日",
      "祝日"
    ],
    "openDaysNote": "6時～8時まで25％増し（改行）18時～21時まで25％増し"
  },
  {
    "id": "4770103812",
    "name": "ヘルパーステーション壺屋",
    "kana": "ヘルパーステーションツボヤ",
    "address": "那覇市繁多川2-14-7繁多川ハイツ301号",
    "lat": 26.2104851,
    "lng": 127.7110705,
    "tel": "080-7949-1496",
    "url": "",
    "pref": "沖縄県",
    "city": "那覇市",
    "category": "home_help",
    "serviceType": "訪問介護",
    "capacity": 0,
    "openDays": [
      "平日"
    ],
    "openDaysNote": "電話等で24時間対応（改行）12/31～1/3は、独居、認知症、家族対応困難な方に限る"
  },
  {
    "id": "4770104174",
    "name": "ヘルパステーションうりずん",
    "kana": "ヘルパーステーションウリズン",
    "address": "長田1-23-19",
    "lat": 36.4368277,
    "lng": 139.9654793,
    "tel": "098-836-2731",
    "url": "",
    "pref": "沖縄県",
    "city": "那覇市",
    "category": "home_help",
    "serviceType": "訪問介護",
    "capacity": 0,
    "openDays": [
      "平日",
      "土曜日"
    ],
    "openDaysNote": ""
  },
  {
    "id": "4770104844",
    "name": "ほうもんかいごあろは　まえじま",
    "kana": "訪問介護アロハ　マエジマ",
    "address": "沖縄県那覇市前島一丁目11番12号テレホンビル1F テレホンビル1F",
    "lat": 26.2211636,
    "lng": 127.6864222,
    "tel": "098-987-6386",
    "url": "https://aloha-kaigo.net/",
    "pref": "沖縄県",
    "city": "那覇市",
    "category": "home_help",
    "serviceType": "訪問介護",
    "capacity": 0,
    "openDays": [
      "平日",
      "土曜日",
      "日曜日",
      "祝日"
    ],
    "openDaysNote": ""
  },
  {
    "id": "4770104737",
    "name": "ホームケアサービスEnjoy",
    "kana": "ホームケアサービスエンジョイ",
    "address": "沖縄県那覇市小禄781-5ＳＫパレス5-C ＳＫパレス5-C",
    "lat": 26.1926097,
    "lng": 127.6713794,
    "tel": "098-851-3294",
    "url": "",
    "pref": "沖縄県",
    "city": "那覇市",
    "category": "home_help",
    "serviceType": "訪問介護",
    "capacity": 0,
    "openDays": [
      "平日",
      "土曜日",
      "日曜日",
      "祝日"
    ],
    "openDaysNote": "ケアプランに応ず"
  },
  {
    "id": "4770100032",
    "name": "ホームヘルパーステーションおもと園",
    "kana": "ホームヘルパーステーションオモトエン",
    "address": "沖縄県那覇市安里１丁目７番３号　７階",
    "lat": 26.2191814,
    "lng": 127.6933469,
    "tel": "098-860-0507",
    "url": "http://www.omotokai.or.jp/",
    "pref": "沖縄県",
    "city": "那覇市",
    "category": "home_help",
    "serviceType": "訪問介護",
    "capacity": 0,
    "openDays": [
      "平日",
      "土曜日",
      "日曜日",
      "祝日"
    ],
    "openDaysNote": "原則として午前８時から午後６時のサービス提供とし、２４時間対応可能な体制をとるものとする。"
  },
  {
    "id": "4770104232",
    "name": "ホームヘルパーステーション寄宮",
    "kana": "ホームヘルパーステーション　ヨリミヤ",
    "address": "寄宮1丁目16番12号在宅総合ケアセンター寄宮（ケア・クロッシング寄宮） 在宅総合ケアセンター寄宮（ケア・クロッシング寄宮）",
    "lat": 26.209237,
    "lng": 127.6948658,
    "tel": "098-851-5336",
    "url": "https://www.omotokai.or.jp/",
    "pref": "沖縄県",
    "city": "那覇市",
    "category": "home_help",
    "serviceType": "訪問介護",
    "capacity": 0,
    "openDays": [
      "平日"
    ],
    "openDaysNote": ""
  },
  {
    "id": "4770100321",
    "name": "メディケア介護支援センター那覇",
    "kana": "メディケアカイゴシエンセンターナハ",
    "address": "沖縄県那覇市銘苅三丁目２０番２２号",
    "lat": 26.2335579,
    "lng": 127.700498,
    "tel": "098-951-1113",
    "url": "http://www.medicare-japan.com",
    "pref": "沖縄県",
    "city": "那覇市",
    "category": "home_help",
    "serviceType": "訪問介護",
    "capacity": 0,
    "openDays": [
      "平日",
      "土曜日",
      "日曜日",
      "祝日"
    ],
    "openDaysNote": "災害時（台風時含む）・地震災害時原則中止。台風（暴風域）時は原則中止。暴風域にて公共交通機関の運行が中止の場合原則中止。しかし、例外として独居利用者の食材確保や安否確認の必要があれば対応する。"
  },
  {
    "id": "4770101188",
    "name": "やさしい手国場訪問介護事業所",
    "kana": "ヤサシイテコクバホウモンカイゴジギョウショ",
    "address": "沖縄県那覇市字国場706-10サンテラスかかず２０１号 サンテラスかかず２０１号",
    "lat": 26.2029741,
    "lng": 127.6979105,
    "tel": "098-833-6801",
    "url": "http://www.yasashiite-okinawa.com/",
    "pref": "沖縄県",
    "city": "那覇市",
    "category": "home_help",
    "serviceType": "訪問介護",
    "capacity": 0,
    "openDays": [
      "平日",
      "土曜日",
      "日曜日",
      "祝日"
    ],
    "openDaysNote": "18時以降に何しては要相談"
  },
  {
    "id": "4770104315",
    "name": "ワタキュー訪問介護事業所",
    "kana": "ワタキューホウモンカイゴジギョウショ",
    "address": "沖縄県那覇市古島2丁目26-1コーポ長本103号室 コーポ長本103号室",
    "lat": 26.2300431,
    "lng": 127.7061911,
    "tel": "098-917-4511",
    "url": "",
    "pref": "沖縄県",
    "city": "那覇市",
    "category": "home_help",
    "serviceType": "訪問介護",
    "capacity": null,
    "openDays": [
      "平日",
      "土曜日",
      "日曜日",
      "祝日"
    ],
    "openDaysNote": ""
  },
  {
    "id": "4770101618",
    "name": "一日橋ケアセンター",
    "kana": "イチニチバシケアセンター",
    "address": "沖縄県那覇市上間344番地の1グレイスハイムうえま207 グレイスハイムうえま207",
    "lat": 26.1975811,
    "lng": 127.7141737,
    "tel": "098-835-9601",
    "url": "https://carenet.okinawa/",
    "pref": "沖縄県",
    "city": "那覇市",
    "category": "home_help",
    "serviceType": "訪問介護",
    "capacity": 0,
    "openDays": [
      "平日",
      "土曜日",
      "日曜日",
      "祝日"
    ],
    "openDaysNote": "ケアプランに基づく"
  },
  {
    "id": "4770100099",
    "name": "沖縄介護センター",
    "kana": "オキナワカイゴセンター",
    "address": "那覇市松川５３１－１",
    "lat": 26.2225556659424,
    "lng": 127.710732352917,
    "tel": "098-882-1156",
    "url": "http://okinawakaigo.co.jp",
    "pref": "沖縄県",
    "city": "那覇市",
    "category": "home_help",
    "serviceType": "訪問介護",
    "capacity": 0,
    "openDays": [
      "平日",
      "土曜日",
      "日曜日",
      "祝日"
    ],
    "openDaysNote": "介護保険訪問介護については年中無休"
  },
  {
    "id": "4770102806",
    "name": "沖縄偕生会ホームヘルパーステーション",
    "kana": "オキナワカイセイカイホームヘルパーステーション",
    "address": "沖縄県那覇市宮城1丁目18番1号エスタジオ小禄　2階 エスタジオ小禄　2階",
    "lat": 26.187939362387,
    "lng": 127.657527429588,
    "tel": "098-851-4113",
    "url": "http://www.kaiseikai.org/",
    "pref": "沖縄県",
    "city": "那覇市",
    "category": "home_help",
    "serviceType": "訪問介護",
    "capacity": 0,
    "openDays": [
      "平日",
      "土曜日",
      "日曜日",
      "祝日"
    ],
    "openDaysNote": ""
  },
  {
    "id": "4770100164",
    "name": "株式会社　ケアステーション沖縄",
    "kana": "カブシキカイシャケアステーションオキナワ",
    "address": "沖縄県那覇市古波蔵三丁目５番３５号",
    "lat": 26.2010527,
    "lng": 127.6835881,
    "tel": "098-835-4500",
    "url": "",
    "pref": "沖縄県",
    "city": "那覇市",
    "category": "home_help",
    "serviceType": "訪問介護",
    "capacity": 0,
    "openDays": [
      "平日",
      "土曜日",
      "日曜日",
      "祝日"
    ],
    "openDaysNote": "登録ヘルパーの勤務可能状況による"
  },
  {
    "id": "4770103242",
    "name": "株式会社　大翔",
    "kana": "カブシキカイシャ　オオショウ",
    "address": "沖縄県那覇市国場1179番地2ココアパート105号 ココアパート105号",
    "lat": 26.1981339,
    "lng": 127.6933237,
    "tel": "098-851-9312",
    "url": "https://www.oosho.okinawa/",
    "pref": "沖縄県",
    "city": "那覇市",
    "category": "home_help",
    "serviceType": "訪問介護",
    "capacity": 0,
    "openDays": [
      "平日",
      "土曜日",
      "日曜日",
      "祝日"
    ],
    "openDaysNote": ""
  },
  {
    "id": "4770103028",
    "name": "在宅総合ケアセンター大道(訪問介護事業所)",
    "kana": "ザイタクソウゴウケアセンター　ダイドウ（ホウモンカイゴジギョウショ）",
    "address": "沖縄県那覇市字大道１２８番地",
    "lat": 26.2175346,
    "lng": 127.6978773,
    "tel": "098-885-0033",
    "url": "",
    "pref": "沖縄県",
    "city": "那覇市",
    "category": "home_help",
    "serviceType": "訪問介護",
    "capacity": 0,
    "openDays": [
      "平日",
      "土曜日",
      "日曜日",
      "祝日"
    ],
    "openDaysNote": "天災その他やむを得ず業務を遂行できない日を除き毎日とする。"
  },
  {
    "id": "4770100065",
    "name": "社会福祉法人　那覇市社会福祉協議会　ホームヘルプステーション　わかば",
    "kana": "シャカイフクシホウジン　ナハシシャカイフクシキョウギカイ　ホームヘルプステーション　ワカバ",
    "address": "沖縄県那覇市金城３丁目５番地の４那覇市総合福祉センター２階 那覇市総合福祉センター２階",
    "lat": 26.2003577,
    "lng": 127.6639253,
    "tel": "098-859-8383",
    "url": "http://www.nahasyakyo.org",
    "pref": "沖縄県",
    "city": "那覇市",
    "category": "home_help",
    "serviceType": "訪問介護",
    "capacity": 0,
    "openDays": [
      "平日",
      "土曜日",
      "日曜日",
      "祝日"
    ],
    "openDaysNote": "年末年始（12月29日～１月3日）は休み。時間外対応については、相談に応じます。"
  },
  {
    "id": "4770104091",
    "name": "都古国際通訪問介護事業所",
    "kana": "ミヤココクサイドオリホウモンカイゴジギョウショ",
    "address": "沖縄県那覇市松尾2-16-31",
    "lat": 26.2118687,
    "lng": 127.6859548,
    "tel": "098-943-3856",
    "url": "http://www.4193.co.jp/500/",
    "pref": "沖縄県",
    "city": "那覇市",
    "category": "home_help",
    "serviceType": "訪問介護",
    "capacity": 10,
    "openDays": [
      "平日",
      "土曜日",
      "日曜日",
      "祝日"
    ],
    "openDaysNote": ""
  },
  {
    "id": "4760190639",
    "name": "訪問ヘルパー美ら",
    "kana": "ホウモンヘルパーチュラ",
    "address": "宇栄原1-19-3具志さつき荘101号 具志さつき荘101号",
    "lat": 26.1903544,
    "lng": 127.6642921,
    "tel": "098-996-5093",
    "url": "yukarigimumu@gmail.com",
    "pref": "沖縄県",
    "city": "那覇市",
    "category": "home_help",
    "serviceType": "訪問介護",
    "capacity": null,
    "openDays": [
      "平日",
      "土曜日",
      "日曜日",
      "祝日"
    ],
    "openDaysNote": ""
  },
  {
    "id": "4770104141",
    "name": "訪問介護　介巧",
    "kana": "ホウモンカイゴ　カイタク",
    "address": "壺屋2丁目18番1号",
    "lat": 26.2124832,
    "lng": 127.6954275,
    "tel": "098-831-7800",
    "url": "",
    "pref": "沖縄県",
    "city": "那覇市",
    "category": "home_help",
    "serviceType": "訪問介護",
    "capacity": null,
    "openDays": [
      "平日",
      "土曜日",
      "日曜日",
      "祝日"
    ],
    "openDaysNote": "連絡体制（改行）上記の営業日、営業時間、サービス提供時間のほか、電話等により、２４時間常時連絡が可能な体制とする。"
  },
  {
    "id": "4770104364",
    "name": "訪問介護あろは小禄",
    "kana": "ホウモンカイゴアロハオロク",
    "address": "沖縄県那覇市小禄381番地後原共同住宅１F 後原共同住宅１F",
    "lat": 26.1995722,
    "lng": 127.673127,
    "tel": "098-996-2095",
    "url": "http://www.your-smiles.net/",
    "pref": "沖縄県",
    "city": "那覇市",
    "category": "home_help",
    "serviceType": "訪問介護",
    "capacity": 0,
    "openDays": [
      "平日",
      "土曜日",
      "日曜日",
      "祝日"
    ],
    "openDaysNote": "24時間365日サービス提供"
  },
  {
    "id": "4770103416",
    "name": "訪問介護かんちゃんの手",
    "kana": "ホウモンカイゴカンチャンノテ",
    "address": "沖縄県那覇市松川三丁目１２番１号１階",
    "lat": 26.2172433,
    "lng": 127.7052823,
    "tel": "098-887-1529",
    "url": "https://kanchan-te.com/",
    "pref": "沖縄県",
    "city": "那覇市",
    "category": "home_help",
    "serviceType": "訪問介護",
    "capacity": 0,
    "openDays": [
      "平日",
      "土曜日",
      "日曜日",
      "祝日"
    ],
    "openDaysNote": "休日はなし。（改行）但し、12/29～1/3の営業と天災時（台風暴風警報発令時）においては、独居、認知症、家族対応困難な方に限る。"
  },
  {
    "id": "4770101162",
    "name": "訪問介護こくら",
    "kana": "ホウモンカイゴ　コクラ",
    "address": "沖縄県那覇市古波蔵4丁目13番12号",
    "lat": 26.1955562,
    "lng": 127.6935242,
    "tel": "098-831-6982",
    "url": "http://www.h-kokura.com/",
    "pref": "沖縄県",
    "city": "那覇市",
    "category": "home_help",
    "serviceType": "訪問介護",
    "capacity": 0,
    "openDays": [
      "平日",
      "土曜日",
      "日曜日",
      "祝日"
    ],
    "openDaysNote": "特になし"
  },
  {
    "id": "4770101469",
    "name": "訪問介護ステーション　かいごの森",
    "kana": "ホウモンカイゴステーション　カイゴノモリ",
    "address": "沖縄県那覇市繁多川1-1-39",
    "lat": 26.2112325375982,
    "lng": 127.704066252259,
    "tel": "098-851-3088",
    "url": "",
    "pref": "沖縄県",
    "city": "那覇市",
    "category": "home_help",
    "serviceType": "訪問介護",
    "capacity": 38,
    "openDays": [
      "平日",
      "土曜日",
      "日曜日",
      "祝日"
    ],
    "openDaysNote": ""
  },
  {
    "id": "4770102004",
    "name": "訪問介護ステーション　トリニータ",
    "kana": "ホウモンカイゴステーション　トリニータ",
    "address": "沖縄県那覇市寄宮２－１－１８ユートピア沖縄　2階 ユートピア沖縄　2階",
    "lat": 26.2065802,
    "lng": 127.6956506,
    "tel": "098-854-5532",
    "url": "",
    "pref": "沖縄県",
    "city": "那覇市",
    "category": "home_help",
    "serviceType": "訪問介護",
    "capacity": 0,
    "openDays": [
      "平日",
      "土曜日",
      "日曜日",
      "祝日"
    ],
    "openDaysNote": ""
  },
  {
    "id": "4770103358",
    "name": "訪問介護ステーショングリーンハウス長田",
    "kana": "ホウモンカイゴステーショングリーンハウスナガタ",
    "address": "沖縄県那覇市長田2-24-40",
    "lat": 26.2033895,
    "lng": 127.7048275,
    "tel": "098-894-6760",
    "url": "",
    "pref": "沖縄県",
    "city": "那覇市",
    "category": "home_help",
    "serviceType": "訪問介護",
    "capacity": 30,
    "openDays": [
      "平日",
      "土曜日",
      "日曜日",
      "祝日"
    ],
    "openDaysNote": "①12月30日から1月3日までを除く（改行）②サービス提供はケアプランの定める時間帯であれば、いつでも対応できるものとする（改行）③電話等により24時間常時連絡が可能な体制とする"
  },
  {
    "id": "4770100636",
    "name": "訪問介護ステーションマーガレット",
    "kana": "ホウモンカイゴステーションマーガレット",
    "address": "沖縄県那覇市識名2丁目13番57号SHIKINAGARDEN SHIKINAGARDEN",
    "lat": 26.2057502,
    "lng": 127.7091745,
    "tel": "098-835-9400",
    "url": "http://yuunanokai.or.jp",
    "pref": "沖縄県",
    "city": "那覇市",
    "category": "home_help",
    "serviceType": "訪問介護",
    "capacity": 0,
    "openDays": [
      "平日",
      "土曜日",
      "日曜日",
      "祝日"
    ],
    "openDaysNote": ""
  },
  {
    "id": "4770104836",
    "name": "訪問介護ステーションみごころ",
    "kana": "ホウモンカイゴステーションミゴコロ",
    "address": "沖縄県那覇市小禄1512−1コーポ比嘉103 コーポ比嘉103",
    "lat": 26.1875591,
    "lng": 127.6790878,
    "tel": "098−880−0189",
    "url": "",
    "pref": "沖縄県",
    "city": "那覇市",
    "category": "home_help",
    "serviceType": "訪問介護",
    "capacity": null,
    "openDays": [
      "平日",
      "土曜日",
      "日曜日",
      "祝日"
    ],
    "openDaysNote": ""
  },
  {
    "id": "4770104265",
    "name": "訪問介護ステーションゆいゆい",
    "kana": "ホウモンカイゴステーションユイユイ",
    "address": "沖縄県那覇市高良3-8-23眞浩商事ビル402号 眞浩商事ビル402号",
    "lat": 26.1893197,
    "lng": 127.6594646,
    "tel": "098-851-8175",
    "url": "http://www.yuiyui-okinawa.com/",
    "pref": "沖縄県",
    "city": "那覇市",
    "category": "home_help",
    "serviceType": "訪問介護",
    "capacity": null,
    "openDays": [
      "平日",
      "土曜日",
      "日曜日",
      "祝日"
    ],
    "openDaysNote": ""
  },
  {
    "id": "4760190084",
    "name": "訪問介護ステーション大名",
    "kana": "ホウモンカイゴステーションオオナ",
    "address": "沖縄県那覇市首里大名町1丁目43番地2",
    "lat": 26.2322253,
    "lng": 127.7110363,
    "tel": "098-886-5070",
    "url": "http://yuunanokai.or.jp",
    "pref": "沖縄県",
    "city": "那覇市",
    "category": "home_help",
    "serviceType": "訪問介護",
    "capacity": 0,
    "openDays": [
      "平日",
      "土曜日",
      "日曜日",
      "祝日"
    ],
    "openDaysNote": "年中無休"
  },
  {
    "id": "4770104026",
    "name": "訪問介護ステーション那覇かなぐすく",
    "kana": "ホウモンカイゴステーションナハカナグスク",
    "address": "那覇市金城５丁目１１番６号小禄ガーデンビル１階 小禄ガーデンビル１階",
    "lat": 26.1951606,
    "lng": 127.6649904,
    "tel": "988946382",
    "url": "",
    "pref": "沖縄県",
    "city": "那覇市",
    "category": "home_help",
    "serviceType": "訪問介護",
    "capacity": 0,
    "openDays": [
      "平日",
      "土曜日",
      "日曜日",
      "祝日"
    ],
    "openDaysNote": ""
  },
  {
    "id": "4770104356",
    "name": "訪問介護センター　相愛",
    "kana": "ホウモンカイゴセンター　アイアイ",
    "address": "沖縄県那覇市寄宮２丁目８−５コーポ栗間101号室 コーポ栗間101号室",
    "lat": 26.2063522,
    "lng": 127.6973169,
    "tel": "098-943-0092",
    "url": "",
    "pref": "沖縄県",
    "city": "那覇市",
    "category": "home_help",
    "serviceType": "訪問介護",
    "capacity": 0,
    "openDays": [
      "平日",
      "土曜日",
      "日曜日",
      "祝日"
    ],
    "openDaysNote": "時間外及び定休日に於いても事前の依頼及び緊急時には極力対応いたします。"
  },
  {
    "id": "4770100784",
    "name": "訪問介護事業所　なうら",
    "kana": "ホウモンカイゴジギョウショ　ナウラ",
    "address": "沖縄県那覇市字天久798番地11号　1階",
    "lat": 26.2374735622343,
    "lng": 127.685808467212,
    "tel": "098-864-0209",
    "url": "https://www.naura-okinawa.com/",
    "pref": "沖縄県",
    "city": "那覇市",
    "category": "home_help",
    "serviceType": "訪問介護",
    "capacity": 0,
    "openDays": [
      "平日",
      "土曜日",
      "日曜日",
      "祝日"
    ],
    "openDaysNote": "朝の早い時間帯（6：00～8：00）と夕方の遅い時間帯（18：00～21：00）は、人員不足で調整が難しい状況もあります。又、在籍している訪問介護員の状況により週末の対応は相談が必要な場合もある。"
  },
  {
    "id": "4770101931",
    "name": "訪問介護事業所　楽",
    "kana": "ホウモンカイゴジギョウショ　ラク",
    "address": "沖縄県那覇市識名１丁目４-１６",
    "lat": 26.2071443,
    "lng": 127.7034971,
    "tel": "098-987-4128",
    "url": "",
    "pref": "沖縄県",
    "city": "那覇市",
    "category": "home_help",
    "serviceType": "訪問介護",
    "capacity": 30,
    "openDays": [
      "平日",
      "土曜日",
      "日曜日",
      "祝日"
    ],
    "openDaysNote": ""
  },
  {
    "id": "4770100982",
    "name": "有限会社ヘルパーステーションわかさ",
    "kana": "ユウゲンガイシャヘルパーステーションワカサ",
    "address": "沖縄県那覇市若狭2-10-6",
    "lat": 26.221703,
    "lng": 127.6766257,
    "tel": "098-868-1348",
    "url": "",
    "pref": "沖縄県",
    "city": "那覇市",
    "category": "home_help",
    "serviceType": "訪問介護",
    "capacity": 40,
    "openDays": [
      "平日",
      "土曜日",
      "日曜日",
      "祝日"
    ],
    "openDaysNote": ""
  },
  {
    "id": "4775600556",
    "name": "ケアスリーサポート",
    "kana": "ケアスリーサポート",
    "address": "沖縄県南城市玉城字糸数396番地2F",
    "lat": 26.1546604,
    "lng": 127.7601179,
    "tel": "090-4378-4201",
    "url": "",
    "pref": "沖縄県",
    "city": "南城市",
    "category": "home_help",
    "serviceType": "訪問介護",
    "capacity": 0,
    "openDays": [
      "平日",
      "土曜日",
      "日曜日",
      "祝日"
    ],
    "openDaysNote": "年末年始(12月30日〜1月3日)休み（改行）随時対応可能"
  },
  {
    "id": "4775600572",
    "name": "ヘルパーステーション　Pilina",
    "kana": "ヘルパーステーション　ピリナ",
    "address": "沖縄県南城市大里仲間1176-1グリーンテラス大里１０３ グリーンテラス大里１０３",
    "lat": 26.1726118872241,
    "lng": 127.747830535582,
    "tel": "5088862385",
    "url": "https://llc-oil.com/",
    "pref": "沖縄県",
    "city": "南城市",
    "category": "home_help",
    "serviceType": "訪問介護",
    "capacity": null,
    "openDays": [
      "平日",
      "土曜日",
      "日曜日"
    ],
    "openDaysNote": ""
  },
  {
    "id": "4775600424",
    "name": "ヘルパーステーション　TRFはーと",
    "kana": "ヘルパーステーション　ティーアールエフハート",
    "address": "沖縄県南城市玉城字糸数271‐1スマイルハウス101 スマイルハウス101",
    "lat": 26.1539000632787,
    "lng": 127.763299175642,
    "tel": "098-852-6712",
    "url": "https://trfheart.com",
    "pref": "沖縄県",
    "city": "南城市",
    "category": "home_help",
    "serviceType": "訪問介護",
    "capacity": 0,
    "openDays": [
      "平日",
      "土曜日",
      "日曜日",
      "祝日"
    ],
    "openDaysNote": "２４時間対応"
  },
  {
    "id": "4775600531",
    "name": "ヘルパーステーションかりぃ（嘉例）",
    "kana": "ヘルパーステーションカリィ（カリィ）",
    "address": "沖縄県南城市大里字稲嶺1901-5",
    "lat": 26.1629902,
    "lng": 127.740108,
    "tel": "098-943-3022",
    "url": "",
    "pref": "沖縄県",
    "city": "南城市",
    "category": "home_help",
    "serviceType": "訪問介護",
    "capacity": null,
    "openDays": [
      "平日",
      "土曜日",
      "日曜日",
      "祝日"
    ],
    "openDaysNote": "電話等により24時間常時連絡が可能な体制とする"
  },
  {
    "id": "4775711114",
    "name": "ヘルパーステーションケアくる",
    "kana": "ヘルパーステーションケアクル",
    "address": "沖縄県南城市玉城字百名583-7",
    "lat": 26.1422081,
    "lng": 127.7944663,
    "tel": "090-9782-1333",
    "url": "",
    "pref": "沖縄県",
    "city": "南城市",
    "category": "home_help",
    "serviceType": "訪問介護",
    "capacity": null,
    "openDays": [
      "平日",
      "土曜日",
      "日曜日",
      "祝日"
    ],
    "openDaysNote": ""
  },
  {
    "id": "4775600432",
    "name": "ヘルパーステーション結ユイ",
    "kana": "ヘルパーステーションユイユイ",
    "address": "沖縄県南城市大里字仲間４６７－２",
    "lat": 26.1821224,
    "lng": 127.7380319,
    "tel": "098-917-1310",
    "url": "https://nanjyoen.com/",
    "pref": "沖縄県",
    "city": "南城市",
    "category": "home_help",
    "serviceType": "訪問介護",
    "capacity": null,
    "openDays": [
      "平日",
      "土曜日",
      "日曜日",
      "祝日"
    ],
    "openDaysNote": ""
  },
  {
    "id": "4775600408",
    "name": "ヘルパーステーション想い",
    "kana": "ヘルパーステーションオモイ",
    "address": "沖縄県南城市大里字平良2573番地3宮城店舗1階南側 宮城店舗1階南側",
    "lat": 26.1811954,
    "lng": 127.7475086,
    "tel": "098-917-5783",
    "url": "",
    "pref": "沖縄県",
    "city": "南城市",
    "category": "home_help",
    "serviceType": "訪問介護",
    "capacity": 12,
    "openDays": [
      "平日",
      "土曜日",
      "日曜日",
      "祝日"
    ],
    "openDaysNote": "電話等で24時間対応する（改行）但し、12/31～1/3の営業は独居、認知症、家族対応困難な方に限る。"
  },
  {
    "id": "4775600499",
    "name": "ヘルパー事業所　タンポポ",
    "kana": "ヘルパージギョショ　タンポポ",
    "address": "沖縄県南城市玉城船越1316－1",
    "lat": 26.1509812771784,
    "lng": 127.752387356345,
    "tel": "098-975-9931",
    "url": "https://www.omusubi-okinawa.com/",
    "pref": "沖縄県",
    "city": "南城市",
    "category": "home_help",
    "serviceType": "訪問介護",
    "capacity": null,
    "openDays": [
      "平日",
      "土曜日",
      "祝日"
    ],
    "openDaysNote": ""
  },
  {
    "id": "4775600184",
    "name": "ヘルパステーションえがお",
    "kana": "ヘルパステーションエガオ",
    "address": "沖縄県南城市大里字稲嶺1317ー1ケアビレッジえがお ケアビレッジえがお",
    "lat": 26.1590111,
    "lng": 127.7322776,
    "tel": "098-852-7840",
    "url": "https://www.egaocare.com",
    "pref": "沖縄県",
    "city": "南城市",
    "category": "home_help",
    "serviceType": "訪問介護",
    "capacity": 0,
    "openDays": [
      "平日",
      "土曜日",
      "日曜日",
      "祝日"
    ],
    "openDaysNote": ""
  },
  {
    "id": "4773300019",
    "name": "小谷園指定訪問介護センター",
    "kana": "オコクエンシテイホウモンカイゴセンター",
    "address": "沖縄県南城市佐敷字小谷238-1",
    "lat": 26.1734297,
    "lng": 127.763391,
    "tel": "098-947-0992",
    "url": "https://kijukai.com/",
    "pref": "沖縄県",
    "city": "南城市",
    "category": "home_help",
    "serviceType": "訪問介護",
    "capacity": 0,
    "openDays": [
      "平日",
      "土曜日",
      "日曜日",
      "祝日"
    ],
    "openDaysNote": "随時連絡対応可能"
  },
  {
    "id": "4775600044",
    "name": "南城市社協ヘルパーステーション",
    "kana": "ナンジョウシシャキョウヘルパーステーション",
    "address": "沖縄県南城市大里字仲間1124番地1",
    "lat": 26.1764156528178,
    "lng": 127.746541397762,
    "tel": "098-975-5728",
    "url": "http://info@nanjo-shakyo.com",
    "pref": "沖縄県",
    "city": "南城市",
    "category": "home_help",
    "serviceType": "訪問介護",
    "capacity": 0,
    "openDays": [
      "平日",
      "土曜日",
      "日曜日",
      "祝日"
    ],
    "openDaysNote": ""
  },
  {
    "id": "4775600150",
    "name": "訪問介護　ようき",
    "kana": "ホウモンカイゴ　ヨウキ",
    "address": "南城市佐敷字津波古1354番地1",
    "lat": 26.1850332045152,
    "lng": 127.773722983714,
    "tel": "098-852-5339",
    "url": "",
    "pref": "沖縄県",
    "city": "南城市",
    "category": "home_help",
    "serviceType": "訪問介護",
    "capacity": 30,
    "openDays": [
      "平日",
      "土曜日",
      "日曜日",
      "祝日"
    ],
    "openDaysNote": ""
  },
  {
    "id": "4775600119",
    "name": "訪問介護　百十",
    "kana": "ホウモンカイゴ　モモト",
    "address": "沖縄県南城市佐敷字新開1番地71",
    "lat": 26.1822597,
    "lng": 127.7714954,
    "tel": "０９８－９17－1862",
    "url": "toshihiro6610@gmail.com",
    "pref": "沖縄県",
    "city": "南城市",
    "category": "home_help",
    "serviceType": "訪問介護",
    "capacity": 0,
    "openDays": [
      "平日",
      "土曜日",
      "日曜日",
      "祝日"
    ],
    "openDaysNote": "尚、利用者からの要望がある場合は対応可能"
  },
  {
    "id": "4775600010",
    "name": "訪問介護事業所　栞",
    "kana": "ホウモンカイゴジギョウショ　シオリ",
    "address": "沖縄県南城市玉城字糸数672番地１",
    "lat": 26.1556175,
    "lng": 127.7645387,
    "tel": "098-948-1714",
    "url": "",
    "pref": "沖縄県",
    "city": "南城市",
    "category": "home_help",
    "serviceType": "訪問介護",
    "capacity": 0,
    "openDays": [
      "平日",
      "土曜日",
      "日曜日",
      "祝日"
    ],
    "openDaysNote": ""
  },
  {
    "id": "4773600137",
    "name": "ケアセンター野の花",
    "kana": "ケアセンターノノハナ",
    "address": "沖縄県島尻郡南風原町字兼城２６３番地の２３",
    "lat": 26.1965768,
    "lng": 127.7296593,
    "tel": "098-889-3184",
    "url": "http://www.",
    "pref": "沖縄県",
    "city": "南風原町",
    "category": "home_help",
    "serviceType": "訪問介護",
    "capacity": 0,
    "openDays": [
      "平日",
      "土曜日",
      "日曜日",
      "祝日"
    ],
    "openDaysNote": "天災、その他やむを得ず業務を遂行できない日を除く。"
  },
  {
    "id": "4773600558",
    "name": "ヘルパーｍ’ｊｕｎ",
    "kana": "ヘルパーマジュン",
    "address": "与那覇501-2",
    "lat": 26.2003709,
    "lng": 127.7433532,
    "tel": "098-996-1873",
    "url": "",
    "pref": "沖縄県",
    "city": "南風原町",
    "category": "home_help",
    "serviceType": "訪問介護",
    "capacity": null,
    "openDays": [
      "平日"
    ],
    "openDaysNote": "上記時間の他、可能な限りご利用者様の希望に添えるよう配慮。（改行）２４時間常時連絡可能な体制をとっている。"
  },
  {
    "id": "4761390212",
    "name": "ヘルパーステーション　ベストかねぐすく",
    "kana": "ヘルパーステーション　ベストカネグスク",
    "address": "沖縄県島尻郡南風原町字兼城265‐10住宅型有料老人ホームベストかねぐすく 住宅型有料老人ホームベストかねぐすく",
    "lat": 26.1962435,
    "lng": 127.7293629,
    "tel": "098‐888‐4151",
    "url": "https://www.best-tool.jp/",
    "pref": "沖縄県",
    "city": "南風原町",
    "category": "home_help",
    "serviceType": "訪問介護",
    "capacity": null,
    "openDays": [
      "平日",
      "土曜日",
      "祝日"
    ],
    "openDaysNote": "年末年始（12月31日～1月3日）"
  },
  {
    "id": "4773600202",
    "name": "ヘルパーステーションかなさ",
    "kana": "ヘルパーステーションカナサ",
    "address": "沖縄県島尻郡南風原町字照屋２５３番地の６東宝ビル19　　102号 東宝ビル19　　102号",
    "lat": 26.1830977,
    "lng": 127.7253494,
    "tel": "098-987-1925",
    "url": "",
    "pref": "沖縄県",
    "city": "南風原町",
    "category": "home_help",
    "serviceType": "訪問介護",
    "capacity": 0,
    "openDays": [
      "平日",
      "土曜日",
      "日曜日",
      "祝日"
    ],
    "openDaysNote": ""
  },
  {
    "id": "4773600509",
    "name": "ヘルパーステーション琉新の風",
    "kana": "ヘルパーステーションリュウシンノカゼ",
    "address": "沖縄県島尻郡南風原町照屋28-1琉新の風 琉新の風",
    "lat": 26.1880027,
    "lng": 127.7271803,
    "tel": "098-851-8380",
    "url": "ryushinnokaze.com",
    "pref": "沖縄県",
    "city": "南風原町",
    "category": "home_help",
    "serviceType": "訪問介護",
    "capacity": null,
    "openDays": [
      "平日",
      "土曜日",
      "日曜日",
      "祝日"
    ],
    "openDaysNote": "提供プランに従い介護サービスを行う。（改行）利用者様の体調不良時にもサービス提供行う。"
  },
  {
    "id": "4712310673",
    "name": "沖縄第一病院訪問介護サービス",
    "kana": "オキナワダイイチビョウインホウモンカイゴサービス",
    "address": "沖縄県島尻郡南風原町字兼城642番地の1",
    "lat": 26.1949075,
    "lng": 127.7259958,
    "tel": "098-889-8380",
    "url": "http://www.",
    "pref": "沖縄県",
    "city": "南風原町",
    "category": "home_help",
    "serviceType": "訪問介護",
    "capacity": 0,
    "openDays": [
      "平日",
      "土曜日",
      "日曜日",
      "祝日"
    ],
    "openDaysNote": "利用者の希望により時間外も対応します。"
  },
  {
    "id": "4773600038",
    "name": "南風原町社協指定訪問介護事業所",
    "kana": "ハエバルチョウシャキョウシテイホウモンカイゴジギョウショ",
    "address": "沖縄県島尻郡南風原町字宮平697番地10南風原町総合保健福祉防災センター 南風原町総合保健福祉防災センター",
    "lat": 26.1918135,
    "lng": 127.7326593,
    "tel": "098-889-3217",
    "url": "https://www.haebaru-shakyo.org",
    "pref": "沖縄県",
    "city": "南風原町",
    "category": "home_help",
    "serviceType": "訪問介護",
    "capacity": 0,
    "openDays": [
      "平日",
      "土曜日",
      "日曜日",
      "祝日"
    ],
    "openDaysNote": ""
  },
  {
    "id": "4773600087",
    "name": "訪問介護　はっぴー",
    "kana": "ホウモンカイゴ　ハッピー",
    "address": "沖縄県南風原町字照屋２９９番地１桃テラス102号室 桃テラス102号室",
    "lat": 26.1820604279388,
    "lng": 127.725834845586,
    "tel": "098-882-6170",
    "url": "",
    "pref": "沖縄県",
    "city": "南風原町",
    "category": "home_help",
    "serviceType": "訪問介護",
    "capacity": 5,
    "openDays": [
      "平日",
      "土曜日",
      "日曜日",
      "祝日"
    ],
    "openDaysNote": "18時以降は要相談"
  },
  {
    "id": "4773600491",
    "name": "訪問介護アペックスプラン",
    "kana": "ホウモンカイゴアペックスプラン",
    "address": "沖縄県島尻郡南風原町字津嘉山1765番地セレクション津嘉山２０２号室 セレクション津嘉山２０２号室",
    "lat": 26.181373,
    "lng": 127.7170092,
    "tel": "098-987-0901",
    "url": "http://www.apexplan-okinawa.co.jp/",
    "pref": "沖縄県",
    "city": "南風原町",
    "category": "home_help",
    "serviceType": "訪問介護",
    "capacity": 0,
    "openDays": [
      "平日",
      "土曜日",
      "祝日"
    ],
    "openDaysNote": ""
  },
  {
    "id": "4773600582",
    "name": "訪問介護ステーション　リアン",
    "kana": "ホウモンカイゴステーション　リアン",
    "address": "沖縄県島尻郡南風原町兼城298番地2F 2F",
    "lat": 26.1988251,
    "lng": 127.7271211,
    "tel": "098-996-7318",
    "url": "https://www.caresupport-kizuna.com/",
    "pref": "沖縄県",
    "city": "南風原町",
    "category": "home_help",
    "serviceType": "訪問介護",
    "capacity": null,
    "openDays": [
      "平日",
      "土曜日",
      "日曜日",
      "祝日"
    ],
    "openDaysNote": "通常営業日外・時間外も相談に応じ対応していきます。"
  },
  {
    "id": "4761390386",
    "name": "訪問介護ステーションゆいゆい",
    "kana": "ホウモンカイゴステーションユイユイ",
    "address": "野原店舗102号沖縄県島尻郡南風原町照屋20-5 沖縄県島尻郡南風原町照屋20-5",
    "lat": 26.1896094,
    "lng": 127.7283635,
    "tel": "098-851-8175",
    "url": "https://www.yuiyui-okinawa.com/",
    "pref": "沖縄県",
    "city": "南風原町",
    "category": "home_help",
    "serviceType": "訪問介護",
    "capacity": 61,
    "openDays": [
      "平日",
      "土曜日",
      "日曜日",
      "祝日"
    ],
    "openDaysNote": ""
  },
  {
    "id": "4773600525",
    "name": "訪問介護事業所　楓",
    "kana": "ホウモンカイゴジギョウショ　カエデ",
    "address": "沖縄県島尻郡南風原町字宮平451-21",
    "lat": 26.2068602968494,
    "lng": 127.731150766771,
    "tel": "098-889-2948",
    "url": "",
    "pref": "沖縄県",
    "city": "南風原町",
    "category": "home_help",
    "serviceType": "訪問介護",
    "capacity": 0,
    "openDays": [
      "平日"
    ],
    "openDaysNote": ""
  },
  {
    "id": "4775700109",
    "name": "イリーゼ八重瀬訪問介護センター",
    "kana": "イリーゼヤエセホウモンカイゴセンター",
    "address": "沖縄県島尻郡八重瀬町長毛159-1住宅型有料老人ホーム　イリーゼ八重瀬 住宅型有料老人ホーム　イリーゼ八重瀬",
    "lat": 26.1306249,
    "lng": 127.7591649,
    "tel": "098-840-7861",
    "url": "http://www.irs.jp",
    "pref": "沖縄県",
    "city": "八重瀬町",
    "category": "home_help",
    "serviceType": "訪問介護",
    "capacity": 0,
    "openDays": [
      "平日",
      "土曜日",
      "日曜日",
      "祝日"
    ],
    "openDaysNote": "２４時間の生活状況を把握しながら適切な介護サービスを提供させていただく事ができます。"
  },
  {
    "id": "4772900025",
    "name": "じーなの会訪問介護ステーション",
    "kana": "ジーナノカイホウモンカイゴステーション",
    "address": "沖縄県島尻郡八重瀬町字宜次６６４番地１",
    "lat": 26.1748264,
    "lng": 127.7187117,
    "tel": "098-998-9789",
    "url": "http://www.",
    "pref": "沖縄県",
    "city": "八重瀬町",
    "category": "home_help",
    "serviceType": "訪問介護",
    "capacity": 60,
    "openDays": [
      "平日",
      "土曜日",
      "日曜日",
      "祝日"
    ],
    "openDaysNote": "利用者の要望により年中無休、２４時間サービス提供できる体制とする。"
  },
  {
    "id": "4772900017",
    "name": "ときわ苑訪問介護ステーション",
    "kana": "トキワエンホウモンカイゴステーション",
    "address": "沖縄県島尻郡八重瀬町字当銘３７８番地1",
    "lat": 26.1516441,
    "lng": 127.6987229,
    "tel": "098-998-1200",
    "url": "http://kaigo@tokiwaen.or.jp",
    "pref": "沖縄県",
    "city": "八重瀬町",
    "category": "home_help",
    "serviceType": "訪問介護",
    "capacity": 0,
    "openDays": [
      "平日",
      "土曜日",
      "日曜日",
      "祝日"
    ],
    "openDaysNote": "台風・天災その他やむを得ず業務を遂行できない日を除く。"
  },
  {
    "id": "4761390428",
    "name": "ヘルパーステーションいこい",
    "kana": "ヘルパーステーションイコイ",
    "address": "沖縄県嶋尻郡八重瀬町字外間80介護棟　かふう　1階 介護棟　かふう　1階",
    "lat": 26.1778666,
    "lng": 127.7144541,
    "tel": "098-835-7671",
    "url": "http://www.nantoku.org",
    "pref": "沖縄県",
    "city": "八重瀬町",
    "category": "home_help",
    "serviceType": "訪問介護",
    "capacity": null,
    "openDays": [],
    "openDaysNote": "＊職員不足のため、日曜日のサービス提供は控えております。（改行）＊要介護…24時間、365日訪問介護員を派遣しております。（改行）＊要支援…開始時間Ａｍ8：00～終了時間Ｐｍ6：00"
  },
  {
    "id": "4773000015",
    "name": "転生園指定訪問介護事業所",
    "kana": "テンショウエンシテイホウモンカイゴジギョウショ",
    "address": "沖縄県島尻郡八重瀬町字安里670番地",
    "lat": 26.1226276,
    "lng": 127.7280176,
    "tel": "098-998-7652",
    "url": "http://www.tenshoen.or.jp",
    "pref": "沖縄県",
    "city": "八重瀬町",
    "category": "home_help",
    "serviceType": "訪問介護",
    "capacity": 0,
    "openDays": [
      "平日",
      "土曜日",
      "祝日"
    ],
    "openDaysNote": "居宅サービス計画に応じて対応する。"
  },
  {
    "id": "4775700208",
    "name": "訪問介護　新緑の里",
    "kana": "ホウモンカイゴ　シンリョクノサト",
    "address": "沖縄県島尻郡八重瀬町伊覇291番地1丸新コーポ103 丸新コーポ103",
    "lat": 26.1615123114469,
    "lng": 127.723243335582,
    "tel": "098-998-4165",
    "url": "",
    "pref": "沖縄県",
    "city": "八重瀬町",
    "category": "home_help",
    "serviceType": "訪問介護",
    "capacity": null,
    "openDays": [
      "平日"
    ],
    "openDaysNote": ""
  },
  {
    "id": "4773000049",
    "name": "訪問介護サービス　あしみじ",
    "kana": "ホウモンカイゴサービス　アシミジ",
    "address": "沖縄県島尻郡八重瀬町字具志頭1099-1",
    "lat": 26.1275944,
    "lng": 127.7511018,
    "tel": "098-998-6680",
    "url": "",
    "pref": "沖縄県",
    "city": "八重瀬町",
    "category": "home_help",
    "serviceType": "訪問介護",
    "capacity": 30,
    "openDays": [
      "平日",
      "土曜日",
      "日曜日",
      "祝日"
    ],
    "openDaysNote": "提供票のプランに基づく"
  },
  {
    "id": "4775407572",
    "name": "ケアステーション　オリビア",
    "kana": "ケアステーション　オリビア",
    "address": "沖縄県豊見城市豊見城598-2ビューテラスみなみ102 ビューテラスみなみ102",
    "lat": 26.1825288,
    "lng": 127.6822832,
    "tel": "080-7998-9630",
    "url": "",
    "pref": "沖縄県",
    "city": "豊見城市",
    "category": "home_help",
    "serviceType": "訪問介護",
    "capacity": null,
    "openDays": [
      "平日",
      "土曜日",
      "日曜日",
      "祝日"
    ],
    "openDaysNote": "ただし、営業時間外でも相談に応じサービス提供可能な体制をとる。"
  },
  {
    "id": "4775400759",
    "name": "ケアステーション　雅",
    "kana": "ケアステーション　ミヤビ",
    "address": "沖縄県豊見城市字翁長648番地コーポうりずん101 コーポうりずん101",
    "lat": 26.155762,
    "lng": 127.6713119,
    "tel": "098-996-1173",
    "url": "",
    "pref": "沖縄県",
    "city": "豊見城市",
    "category": "home_help",
    "serviceType": "訪問介護",
    "capacity": 2,
    "openDays": [
      "平日",
      "土曜日",
      "日曜日",
      "祝日"
    ],
    "openDaysNote": "上記時間のほか、可能な限りご利用者様のご希望に添えるように配慮する。（改行）電話により24時間連絡可能な体制とする。"
  },
  {
    "id": "4775400585",
    "name": "ヘルパ-ステ-ションちばる",
    "kana": "ヘルパ-ステ-ションチバル",
    "address": "沖縄県豊見城市饒波21番地",
    "lat": 26.1769547000001,
    "lng": 127.6935855,
    "tel": "090-996-5486",
    "url": "",
    "pref": "沖縄県",
    "city": "豊見城市",
    "category": "home_help",
    "serviceType": "訪問介護",
    "capacity": 5,
    "openDays": [
      "平日",
      "土曜日",
      "日曜日",
      "祝日"
    ],
    "openDaysNote": "休日は無し（但し、12月30日～1月3日の営業は独居　認知症　家族対応が困難な方のみに限る）"
  },
  {
    "id": "4775407556",
    "name": "ヘルパーステーション　ハートフルケア",
    "kana": "ヘルパーステーション　ハートフルケア",
    "address": "沖縄県豊見城市字長堂146番地",
    "lat": 26.1815957,
    "lng": 127.7069776,
    "tel": "988568051",
    "url": "",
    "pref": "沖縄県",
    "city": "豊見城市",
    "category": "home_help",
    "serviceType": "訪問介護",
    "capacity": 0,
    "openDays": [
      "平日",
      "土曜日",
      "日曜日",
      "祝日"
    ],
    "openDaysNote": ""
  },
  {
    "id": "4775400635",
    "name": "ヘルパーステーションいずみ",
    "kana": "ヘルパーステーションイズミ",
    "address": "字翁長87番地",
    "lat": 26.1597037,
    "lng": 127.6756854,
    "tel": "098-856-6500",
    "url": "",
    "pref": "沖縄県",
    "city": "豊見城市",
    "category": "home_help",
    "serviceType": "訪問介護",
    "capacity": 0,
    "openDays": [
      "平日",
      "土曜日",
      "日曜日",
      "祝日"
    ],
    "openDaysNote": "サービス提供時間：24時間（年中無休）"
  },
  {
    "id": "4775407523",
    "name": "ヘルパーステーションうらうら",
    "kana": "ヘルパーステーションウラウラ",
    "address": "沖縄県豊見城市字翁長３２０－３１０２号 １０２号",
    "lat": 26.1611539862683,
    "lng": 127.679338306189,
    "tel": "098-987-9885",
    "url": "https://ura-ura.jp/",
    "pref": "沖縄県",
    "city": "豊見城市",
    "category": "home_help",
    "serviceType": "訪問介護",
    "capacity": 0,
    "openDays": [
      "平日",
      "土曜日",
      "祝日"
    ],
    "openDaysNote": "12月30日から1月3日（年末年始）は休み"
  },
  {
    "id": "4775407473",
    "name": "ヘルパーステーションくくるとよさき",
    "kana": "ヘルパーステーションククルトヨサキ",
    "address": "翁長869番地",
    "lat": 26.234577,
    "lng": 127.7516704,
    "tel": "098-891-6191",
    "url": "https://kukuru.info/",
    "pref": "沖縄県",
    "city": "豊見城市",
    "category": "home_help",
    "serviceType": "訪問介護",
    "capacity": 0,
    "openDays": [
      "平日",
      "土曜日",
      "日曜日",
      "祝日"
    ],
    "openDaysNote": "24時間365日相談可能"
  },
  {
    "id": "4775407515",
    "name": "ヘルパーステーション愛千",
    "kana": "ヘルパーステーションアイチ",
    "address": "上田46－11メゾン上田1階090-8294-9163 メゾン上田1階090-8294-9163",
    "lat": 36.4019126,
    "lng": 138.249075,
    "tel": "090-8294-9163",
    "url": "",
    "pref": "沖縄県",
    "city": "豊見城市",
    "category": "home_help",
    "serviceType": "訪問介護",
    "capacity": 0,
    "openDays": [
      "平日",
      "土曜日",
      "日曜日",
      "祝日"
    ],
    "openDaysNote": "上記の営業日、営業時間、サービス時間のほか、電話等により２４時間常時連絡が可能な体制とする。"
  },
  {
    "id": "4775407481",
    "name": "ヘルパーステーション花苑",
    "kana": "ヘルパーステーションカエン",
    "address": "沖縄県豊見城市高安414番地4コーポミネハル103 コーポミネハル103",
    "lat": 26.176625,
    "lng": 127.6824523,
    "tel": "989176145",
    "url": "",
    "pref": "沖縄県",
    "city": "豊見城市",
    "category": "home_help",
    "serviceType": "訪問介護",
    "capacity": null,
    "openDays": [
      "平日",
      "土曜日",
      "日曜日",
      "祝日"
    ],
    "openDaysNote": ""
  },
  {
    "id": "4775407507",
    "name": "ヘルパーステーション虹",
    "kana": "ヘルパーステーションニジ",
    "address": "沖縄県豊見城市字289-38グランドゥール渡橋名105号 グランドゥール渡橋名105号",
    "lat": 26.1610648,
    "lng": 127.6689865,
    "tel": "090-6860-2901",
    "url": "",
    "pref": "沖縄県",
    "city": "豊見城市",
    "category": "home_help",
    "serviceType": "訪問介護",
    "capacity": null,
    "openDays": [
      "平日",
      "土曜日",
      "日曜日",
      "祝日"
    ],
    "openDaysNote": ""
  },
  {
    "id": "4775400742",
    "name": "ホームヘルパーステーション友愛",
    "kana": "ホームヘルパーステーションユウアイ",
    "address": "沖縄県豊見城市字上田２５番地豊見城中央病院内 豊見城中央病院内",
    "lat": 26.1760859131029,
    "lng": 127.676171768648,
    "tel": "０９８−８５１−９４１３",
    "url": "helper@yuuai.or.jp",
    "pref": "沖縄県",
    "city": "豊見城市",
    "category": "home_help",
    "serviceType": "訪問介護",
    "capacity": 0,
    "openDays": [
      "平日",
      "土曜日",
      "日曜日",
      "祝日"
    ],
    "openDaysNote": "台風時暴風警報が発令され公共交通機関（バス）が運休する場合は休業とします。（改行）感染症拡大（クラスター）及び非常災害時が発生した場合は、事業継続計画（BCP）に基づき、緊急時のサービス提供体制となります。"
  },
  {
    "id": "4770101352",
    "name": "桜山荘介護支援センター豊見城",
    "kana": "オウザンソウカイゴシエンセンタートミグスク",
    "address": "沖縄県豊見城市字平良188番地23桜山荘「共に生きる町」たいら 桜山荘「共に生きる町」たいら",
    "lat": 26.1693938444817,
    "lng": 127.694667534563,
    "tel": "098-840-5888",
    "url": "https://www.ozanso.org/",
    "pref": "沖縄県",
    "city": "豊見城市",
    "category": "home_help",
    "serviceType": "訪問介護",
    "capacity": 5,
    "openDays": [
      "平日",
      "土曜日",
      "日曜日",
      "祝日"
    ],
    "openDaysNote": "・サービス提供曜日：日曜日～土曜日（但し、１２月３1日から１月３日は除く・要相談）（改行）・サービス提供については、台風等によりバスの運行が停止なった時は、訪問はお休みさせて頂く事があります。その場合は事前にご相談させて頂いています。"
  },
  {
    "id": "4761390246",
    "name": "生協ケアセンター訪問介護ステーションにじ",
    "kana": "セイキョウケアセンターホウモンカイゴステーションニジ",
    "address": "沖縄県豊見城市字真玉橋593番地の43とよみ生協病院別館３階 とよみ生協病院別館３階",
    "lat": 26.1925565484401,
    "lng": 127.687458346033,
    "tel": "098-851-4716",
    "url": "",
    "pref": "沖縄県",
    "city": "豊見城市",
    "category": "home_help",
    "serviceType": "訪問介護",
    "capacity": 0,
    "openDays": [
      "平日",
      "土曜日",
      "日曜日",
      "祝日"
    ],
    "openDaysNote": "1月1日と旧盆（旧暦7月15日）を除く"
  },
  {
    "id": "4775407549",
    "name": "訪問ヘルパー美ら",
    "kana": "ホウモンヘルパーチュラ",
    "address": "高嶺３２１番地の1",
    "lat": null,
    "lng": null,
    "tel": "098-996-5093",
    "url": "https://hp.kaipoke.biz/ur1/133000/base_0003.html",
    "pref": "沖縄県",
    "city": "豊見城市",
    "category": "home_help",
    "serviceType": "訪問介護",
    "capacity": null,
    "openDays": [
      "平日",
      "土曜日",
      "日曜日",
      "祝日"
    ],
    "openDaysNote": ""
  },
  {
    "id": "4775400684",
    "name": "訪問介護　新緑の里よね",
    "kana": "ホウモンカイゴ　シンリョクノサトヨネ",
    "address": "沖縄県豊見城市字与根323番地サービス付き高齢者住宅　新緑の里よね　1階 サービス付き高齢者住宅　新緑の里よね　1階",
    "lat": 26.1646943,
    "lng": 127.6627636,
    "tel": "098-851-1165",
    "url": "",
    "pref": "沖縄県",
    "city": "豊見城市",
    "category": "home_help",
    "serviceType": "訪問介護",
    "capacity": null,
    "openDays": [
      "平日",
      "土曜日",
      "日曜日",
      "祝日"
    ],
    "openDaysNote": "24時間・365日とさせて頂きます。"
  },
  {
    "id": "4775400676",
    "name": "訪問介護あろは",
    "kana": "ホウモンカイゴアロハ",
    "address": "沖縄県豊見城市字根差部671-16マンションリーブラⅠ　B１０１ マンションリーブラⅠ　B１０１",
    "lat": 26.1932734,
    "lng": 127.6942657,
    "tel": "098-996-2905",
    "url": "https://mahalo-tami.com/",
    "pref": "沖縄県",
    "city": "豊見城市",
    "category": "home_help",
    "serviceType": "訪問介護",
    "capacity": 100,
    "openDays": [
      "平日",
      "土曜日",
      "日曜日",
      "祝日"
    ],
    "openDaysNote": "※早朝および夜間〔通常料金の２５％増し〕、深夜〔通常料金の５０％増し〕となります"
  },
  {
    "id": "4761390063",
    "name": "訪問介護ステーション　おもととよみの杜",
    "kana": "ホウモンカイゴステーション　オモトトヨミノモリ",
    "address": "沖縄県豊見城市渡嘉敷150おもととよみの杜 おもととよみの杜",
    "lat": 26.1727698,
    "lng": 127.683421,
    "tel": "098-851-0106",
    "url": "http://www.omotokai.or.jp",
    "pref": "沖縄県",
    "city": "豊見城市",
    "category": "home_help",
    "serviceType": "訪問介護",
    "capacity": 0,
    "openDays": [
      "平日",
      "土曜日",
      "日曜日",
      "祝日"
    ],
    "openDaysNote": "相談に応じます"
  },
  {
    "id": "4772400323",
    "name": "ヘルパーステーションスイート北谷砂辺",
    "kana": "ヘルパーステーション　スイートチャタンスナベ",
    "address": "沖縄県中頭郡北谷町砂辺301-7　1階",
    "lat": 26.3322073405591,
    "lng": 127.7486367331,
    "tel": "098-989-6312",
    "url": "",
    "pref": "沖縄県",
    "city": "北谷町",
    "category": "home_help",
    "serviceType": "訪問介護",
    "capacity": 0,
    "openDays": [
      "平日",
      "土曜日",
      "祝日"
    ],
    "openDaysNote": "サービス提供にあたっては営業時間に関わらす相談に応じる。"
  },
  {
    "id": "4772400307",
    "name": "訪問介護あろはちゃたん",
    "kana": "訪問介護アロハチャタン",
    "address": "沖縄県中頭郡北谷町桑江619-3メゾンシュシュ102 メゾンシュシュ102",
    "lat": 26.3224581,
    "lng": 127.7721543,
    "tel": "098-989-4252",
    "url": "https://life-design.okinawa/",
    "pref": "沖縄県",
    "city": "北谷町",
    "category": "home_help",
    "serviceType": "訪問介護",
    "capacity": null,
    "openDays": [
      "平日"
    ],
    "openDaysNote": ""
  },
  {
    "id": "4772400026",
    "name": "琉球メディカルズ訪問介護事業所",
    "kana": "リュウキュウメディカルズ　ホウモンカイゴジギョウショ",
    "address": "沖縄県中頭郡北谷町桑江４００－２",
    "lat": 26.3233947,
    "lng": 127.7659911,
    "tel": "098-926-2430",
    "url": "medicals@cyuzan.or.jphttp://www.",
    "pref": "沖縄県",
    "city": "北谷町",
    "category": "home_help",
    "serviceType": "訪問介護",
    "capacity": 5,
    "openDays": [
      "平日",
      "土曜日",
      "日曜日",
      "祝日"
    ],
    "openDaysNote": "6:00～20：00年中無休"
  },
  {
    "id": "4772500080",
    "name": "ヘルパーステーション　ふくとく",
    "kana": "ヘルパーステーション　フクトク",
    "address": "沖縄県中頭郡北中城村仲順375番地の1",
    "lat": 26.3022266,
    "lng": 127.801079,
    "tel": "098-935-4973",
    "url": "",
    "pref": "沖縄県",
    "city": "北中城村",
    "category": "home_help",
    "serviceType": "訪問介護",
    "capacity": 0,
    "openDays": [
      "平日",
      "土曜日",
      "日曜日",
      "祝日"
    ],
    "openDaysNote": "24時間体制"
  },
  {
    "id": "4761290008",
    "name": "ヘルパーステーション若松",
    "kana": "ヘルパーステーションワカマツ",
    "address": "沖縄県中頭郡北中城村字喜舎場３６０番地１",
    "lat": 26.3001378121432,
    "lng": 127.79371570318,
    "tel": "098-935-5202",
    "url": "http://www.agape-wakamatsu.or.jp",
    "pref": "沖縄県",
    "city": "北中城村",
    "category": "home_help",
    "serviceType": "訪問介護",
    "capacity": 0,
    "openDays": [
      "平日",
      "土曜日",
      "日曜日",
      "祝日"
    ],
    "openDaysNote": "上記以外の時間帯については、必要に応じて相談可能です。"
  },
  {
    "id": "4772500163",
    "name": "訪問介護ステーションゆーかり",
    "kana": "ホウモンカイゴステーションユーカリ",
    "address": "沖縄県中頭郡北中城村島袋1385-5コーポ雅101 コーポ雅101",
    "lat": 26.3203898,
    "lng": 127.8051735,
    "tel": "098-932-8668",
    "url": "https://oneunity.okinawa/",
    "pref": "沖縄県",
    "city": "北中城村",
    "category": "home_help",
    "serviceType": "訪問介護",
    "capacity": 0,
    "openDays": [
      "平日",
      "土曜日",
      "日曜日",
      "祝日"
    ],
    "openDaysNote": "サービス提供日は年中無休とする（改行）但し令和6年度末から令和7年年明けに係る12/31～1/3から今度後休みにする予定です。"
  },
  {
    "id": "4771500123",
    "name": "きずなエイジングけあ訪問介護事業所",
    "kana": "キズナエイジングケアホウモンカイゴジギョウショ",
    "address": "伊野波281番地仲田アパートB棟102号室 仲田アパートB棟102号室",
    "lat": 26.6572498425871,
    "lng": 127.905163978328,
    "tel": "0980-43-0381",
    "url": "",
    "pref": "沖縄県",
    "city": "本部町",
    "category": "home_help",
    "serviceType": "訪問介護",
    "capacity": 0,
    "openDays": [
      "平日",
      "土曜日",
      "日曜日",
      "祝日"
    ],
    "openDaysNote": "年中無休（改行）天災その他やむを得ず業務を遂行できない日を除き、毎日とする。"
  },
  {
    "id": "4771500164",
    "name": "指定訪問介護事業所あいらんど",
    "kana": "シテイホウモンカイゴジギョウショアイランド",
    "address": "沖縄県国頭郡本部町字山川638-1グリーンヒルヤマウチⅣ101 グリーンヒルヤマウチⅣ101",
    "lat": 26.6858159784648,
    "lng": 127.885647371921,
    "tel": "0980-43-7117",
    "url": "https://ailand.okinawa",
    "pref": "沖縄県",
    "city": "本部町",
    "category": "home_help",
    "serviceType": "訪問介護",
    "capacity": 0,
    "openDays": [
      "平日",
      "土曜日",
      "日曜日",
      "祝日"
    ],
    "openDaysNote": ""
  },
  {
    "id": "4771500024",
    "name": "指定訪問介護事業所本部園",
    "kana": "シテイホウモンカイゴジギョウショモトブエン",
    "address": "沖縄県国頭郡本部町字谷茶301番地地域福祉センター八重 地域福祉センター八重",
    "lat": 26.6558965988463,
    "lng": 127.890512502325,
    "tel": "0980-51-6422",
    "url": "http://www.motobuen.com/",
    "pref": "沖縄県",
    "city": "本部町",
    "category": "home_help",
    "serviceType": "訪問介護",
    "capacity": 0,
    "openDays": [
      "平日",
      "土曜日",
      "日曜日",
      "祝日"
    ],
    "openDaysNote": ""
  },
  {
    "id": "4771500016",
    "name": "本部町社協指定訪問介護事業所",
    "kana": "モトブチョウシャキョウシテイホウモンカイゴジギョウショ",
    "address": "沖縄県国頭郡本部町字大浜881番地の4",
    "lat": 26.658215,
    "lng": 127.8846987,
    "tel": "0980-47-6699",
    "url": "http://www.motobu-syakyo.com/",
    "pref": "沖縄県",
    "city": "本部町",
    "category": "home_help",
    "serviceType": "訪問介護",
    "capacity": 0,
    "openDays": [
      "平日",
      "土曜日",
      "日曜日",
      "祝日"
    ],
    "openDaysNote": "年中無休　　天災その他やむを得ず業務を遂行できない日を除く"
  },
  {
    "id": "4770900514",
    "name": "あかりヘルパーステーション",
    "kana": "アカリヘルパーステーション",
    "address": "沖縄県名護市大北三丁目３番１８号",
    "lat": 26.6023129,
    "lng": 127.995073,
    "tel": "0980-43-8733",
    "url": "",
    "pref": "沖縄県",
    "city": "名護市",
    "category": "home_help",
    "serviceType": "訪問介護",
    "capacity": 0,
    "openDays": [
      "平日",
      "土曜日",
      "日曜日",
      "祝日"
    ],
    "openDaysNote": ""
  },
  {
    "id": "4770900027",
    "name": "かりゆしぬ村指定訪問介護事業所",
    "kana": "カリユシヌムラシテイホウモンカイゴジギョウショ",
    "address": "沖縄県名護市字宇茂佐1873-1",
    "lat": 26.6125221,
    "lng": 127.9662052,
    "tel": "0980-52-2948",
    "url": "",
    "pref": "沖縄県",
    "city": "名護市",
    "category": "home_help",
    "serviceType": "訪問介護",
    "capacity": 0,
    "openDays": [
      "平日",
      "土曜日",
      "日曜日",
      "祝日"
    ],
    "openDaysNote": "上記時間外の訪問については相談に応じる。"
  },
  {
    "id": "4770900316",
    "name": "ケアパートナー　こころ",
    "kana": "ケアパートナー　ココロ",
    "address": "沖縄県伊差川１０５６番地３",
    "lat": 26.6104624701584,
    "lng": 128.006374965637,
    "tel": "0980-43-5440",
    "url": "",
    "pref": "沖縄県",
    "city": "名護市",
    "category": "home_help",
    "serviceType": "訪問介護",
    "capacity": 0,
    "openDays": [
      "平日",
      "土曜日",
      "日曜日",
      "祝日"
    ],
    "openDaysNote": "電話等により24時間常時連絡が可能な体制とする。"
  },
  {
    "id": "4770901140",
    "name": "さくらヘルパーステーション",
    "kana": "サクラヘルパーステーション",
    "address": "沖縄県名護市大北2丁目1-6砂川アパート101 砂川アパート101",
    "lat": 26.5985404,
    "lng": 127.992794,
    "tel": "0980-43-1918",
    "url": "",
    "pref": "沖縄県",
    "city": "名護市",
    "category": "home_help",
    "serviceType": "訪問介護",
    "capacity": 0,
    "openDays": [
      "平日",
      "土曜日",
      "日曜日",
      "祝日"
    ],
    "openDaysNote": ""
  },
  {
    "id": "4770900423",
    "name": "たんぽぽ訪問介護サービス",
    "kana": "タンポポホウモンカイゴサービス",
    "address": "沖縄県名護市為又1219-277",
    "lat": 26.6126033235414,
    "lng": 127.967608920169,
    "tel": "0980-43-7177",
    "url": "http://www.",
    "pref": "沖縄県",
    "city": "名護市",
    "category": "home_help",
    "serviceType": "訪問介護",
    "capacity": 20,
    "openDays": [
      "平日",
      "土曜日",
      "日曜日",
      "祝日"
    ],
    "openDaysNote": ""
  },
  {
    "id": "4770900308",
    "name": "トータルリハビリ・ケアサービス　ゆらぎ　訪問介護事業所",
    "kana": "トータルリハビリケアサービス　ユラギ　ホウモンカイゴジギョウショ",
    "address": "沖縄県名護市字川上424-1にらいビル１階 にらいビル１階",
    "lat": 26.6207565,
    "lng": 128.0178792,
    "tel": "0980-58-4730",
    "url": "",
    "pref": "沖縄県",
    "city": "名護市",
    "category": "home_help",
    "serviceType": "訪問介護",
    "capacity": 0,
    "openDays": [
      "平日",
      "土曜日",
      "日曜日",
      "祝日"
    ],
    "openDaysNote": ""
  },
  {
    "id": "4770901009",
    "name": "ヘルパーステーション　輝",
    "kana": "ヘルパーステーション　カガヤキ",
    "address": "沖縄県名護市大南4-8-31",
    "lat": 26.5995125,
    "lng": 127.9769243,
    "tel": "0980-43-6075",
    "url": "",
    "pref": "沖縄県",
    "city": "名護市",
    "category": "home_help",
    "serviceType": "訪問介護",
    "capacity": null,
    "openDays": [
      "平日",
      "土曜日",
      "日曜日",
      "祝日"
    ],
    "openDaysNote": "サービス提供時間：年中無休、24時間"
  },
  {
    "id": "4770901082",
    "name": "ヘルパーステーションうむさんどー",
    "kana": "ヘルパーステーションウムサンドー",
    "address": "沖縄県名護市港2丁目7番１マツダアパート101号 マツダアパート101号",
    "lat": 26.5900222,
    "lng": 127.9781068,
    "tel": "0980-43-7980",
    "url": "",
    "pref": "沖縄県",
    "city": "名護市",
    "category": "home_help",
    "serviceType": "訪問介護",
    "capacity": 0,
    "openDays": [],
    "openDaysNote": "365日、24時間"
  },
  {
    "id": "4770900506",
    "name": "ヘルパーステーションひびき",
    "kana": "ヘルパーステーションヒビキ",
    "address": "沖縄県名護市字川上292番地2",
    "lat": 26.6238657133142,
    "lng": 128.020213944597,
    "tel": "0980-58-3710",
    "url": "kyosin@blue.plala.or.jp",
    "pref": "沖縄県",
    "city": "名護市",
    "category": "home_help",
    "serviceType": "訪問介護",
    "capacity": 0,
    "openDays": [
      "平日",
      "土曜日",
      "日曜日",
      "祝日"
    ],
    "openDaysNote": ""
  },
  {
    "id": "4770900738",
    "name": "ヘルパーステーションふたみ",
    "kana": "ヘルパーステーションフタミ",
    "address": "沖縄県名護市名護4558-48",
    "lat": 26.6087898518525,
    "lng": 127.988545046051,
    "tel": "0980-54-8100",
    "url": "",
    "pref": "沖縄県",
    "city": "名護市",
    "category": "home_help",
    "serviceType": "訪問介護",
    "capacity": 100,
    "openDays": [
      "平日",
      "土曜日",
      "日曜日",
      "祝日"
    ],
    "openDaysNote": "6：00～8：00（早朝）・18：00～23：00（夜間）は25％の割増料金となります。"
  },
  {
    "id": "4770900829",
    "name": "ヘルパーステーションみやび",
    "kana": "ヘルパーステーションミヤビ",
    "address": "沖縄県名護市字親川430番地",
    "lat": 26.6217876,
    "lng": 128.016801,
    "tel": "０９８０－５８－１９３０",
    "url": "http://www.miyabi.okinawa/",
    "pref": "沖縄県",
    "city": "名護市",
    "category": "home_help",
    "serviceType": "訪問介護",
    "capacity": 25,
    "openDays": [
      "平日",
      "土曜日",
      "日曜日",
      "祝日"
    ],
    "openDaysNote": "時間変更・キャンセル等、前日までに電話連絡をお願いします。"
  },
  {
    "id": "4770900944",
    "name": "ヘルパーステーションゆいゆい",
    "kana": "ヘルパーステーションユイユイ",
    "address": "沖縄県名護市大南二丁目9番3号新田アパート101号 新田アパート101号",
    "lat": 26.5934241,
    "lng": 127.9750802,
    "tel": "0980-43-6818",
    "url": "",
    "pref": "沖縄県",
    "city": "名護市",
    "category": "home_help",
    "serviceType": "訪問介護",
    "capacity": 0,
    "openDays": [
      "平日",
      "土曜日",
      "日曜日",
      "祝日"
    ],
    "openDaysNote": "台風など、自然災害により公共交通機関が運航禁止になった場合にも、臨時でお休みします。（利用者と要相談）"
  },
  {
    "id": "4770901132",
    "name": "ヘルパーステーション喜色",
    "kana": "ヘルパーステーションキイロ",
    "address": "沖縄県名護市大北４丁目２５番９号新里貸事務所１０２号室 新里貸事務所１０２号室",
    "lat": 26.6063330489419,
    "lng": 127.989299486508,
    "tel": "0980-43-8935",
    "url": "",
    "pref": "沖縄県",
    "city": "名護市",
    "category": "home_help",
    "serviceType": "訪問介護",
    "capacity": null,
    "openDays": [
      "平日",
      "土曜日",
      "日曜日",
      "祝日"
    ],
    "openDaysNote": "年末年始（１２月３１日～１月３日）"
  },
  {
    "id": "4710910532",
    "name": "りゅうしん指定訪問介護事業所",
    "kana": "リュウシンシテイホウモンカイゴジギョウショ",
    "address": "沖縄県名護市屋部468-1",
    "lat": 26.6066081,
    "lng": 127.9458565,
    "tel": "0980-53-7732",
    "url": "http://www.mco.ne.jp/~katuyama",
    "pref": "沖縄県",
    "city": "名護市",
    "category": "home_help",
    "serviceType": "訪問介護",
    "capacity": 40,
    "openDays": [
      "平日",
      "土曜日",
      "日曜日",
      "祝日"
    ],
    "openDaysNote": ""
  },
  {
    "id": "4770900431",
    "name": "沖縄県農業協同組合　北部訪問介護事業所",
    "kana": "オキナワケンノウギョウキョウドウクミアイ　ホクブホウモンカイゴジギョウショ",
    "address": "沖縄県名護市字屋部1698-1",
    "lat": 26.6042253,
    "lng": 127.9575254,
    "tel": "0980-54-2940",
    "url": "http://www.ja-okinawa.or.jp/kurashi/kaigo/",
    "pref": "沖縄県",
    "city": "名護市",
    "category": "home_help",
    "serviceType": "訪問介護",
    "capacity": 0,
    "openDays": [
      "平日",
      "土曜日",
      "日曜日",
      "祝日"
    ],
    "openDaysNote": ""
  },
  {
    "id": "4770900274",
    "name": "居宅介護サービス事業所　愛センター",
    "kana": "キョタクカイゴサービスジギョウショ　アイセンター",
    "address": "沖縄県名護市宮里３－６－１６ラ・カサ屋嘉１０３ ラ・カサ屋嘉１０３",
    "lat": 26.5960922,
    "lng": 127.9699393,
    "tel": "0980-54-0202",
    "url": "",
    "pref": "沖縄県",
    "city": "名護市",
    "category": "home_help",
    "serviceType": "訪問介護",
    "capacity": 5,
    "openDays": [
      "平日",
      "土曜日",
      "日曜日",
      "祝日"
    ],
    "openDaysNote": ""
  },
  {
    "id": "4760990020",
    "name": "桃源の郷ヘルパーステーション",
    "kana": "トウゲンノサトヘルパーステーション",
    "address": "沖縄県名護市大西３丁目１９番２５号",
    "lat": 26.5976017,
    "lng": 127.9830824,
    "tel": "0980-54-5062",
    "url": "http://www.",
    "pref": "沖縄県",
    "city": "名護市",
    "category": "home_help",
    "serviceType": "訪問介護",
    "capacity": 0,
    "openDays": [
      "平日",
      "土曜日",
      "日曜日",
      "祝日"
    ],
    "openDaysNote": "台風発生時は状況応じ判断する。"
  },
  {
    "id": "4770901033",
    "name": "訪問介護けあさぽ",
    "kana": "ホウモンカイゴケアサポ",
    "address": "沖縄県名護市宇茂佐の森2丁目8番地4",
    "lat": 26.6011337,
    "lng": 127.9591291,
    "tel": "0980-43-9531",
    "url": "https://www.care-okinawa.com/",
    "pref": "沖縄県",
    "city": "名護市",
    "category": "home_help",
    "serviceType": "訪問介護",
    "capacity": 0,
    "openDays": [
      "平日",
      "土曜日",
      "日曜日",
      "祝日"
    ],
    "openDaysNote": "災害時は職員安全確保のため臨時休業する可能性がある。"
  },
  {
    "id": "4770901041",
    "name": "訪問介護事業所てぃだ",
    "kana": "ホウモンカイゴジギョウショティダ",
    "address": "沖縄県名護市大北5丁目2番7号我那覇氏店舗1F 我那覇氏店舗1F",
    "lat": 26.6038153,
    "lng": 127.9848095,
    "tel": "0980-43-0764",
    "url": "",
    "pref": "沖縄県",
    "city": "名護市",
    "category": "home_help",
    "serviceType": "訪問介護",
    "capacity": null,
    "openDays": [
      "平日",
      "土曜日",
      "日曜日",
      "祝日"
    ],
    "openDaysNote": ""
  },
  {
    "id": "4770900662",
    "name": "訪問介護日廻り",
    "kana": "ホウモンカイゴヒマワリ",
    "address": "沖縄県名護市大東二丁目６番11号",
    "lat": 26.5899370363828,
    "lng": 127.990284494477,
    "tel": "０９８０－４３－０５３１",
    "url": "",
    "pref": "沖縄県",
    "city": "名護市",
    "category": "home_help",
    "serviceType": "訪問介護",
    "capacity": 0,
    "openDays": [
      "平日",
      "土曜日",
      "日曜日",
      "祝日"
    ],
    "openDaysNote": ""
  },
  {
    "id": "4770900076",
    "name": "北部ケアサービス",
    "kana": "ホクブケアサービス",
    "address": "沖縄県名護市宇茂佐９１５－１０",
    "lat": 26.5965318,
    "lng": 127.9641308,
    "tel": "0980-52-7274",
    "url": "http://www.",
    "pref": "沖縄県",
    "city": "名護市",
    "category": "home_help",
    "serviceType": "訪問介護",
    "capacity": 0,
    "openDays": [
      "平日",
      "土曜日",
      "日曜日",
      "祝日"
    ],
    "openDaysNote": ""
  },
  {
    "id": "4770900381",
    "name": "名護厚生園指定訪問介護事業所",
    "kana": "ナゴコウセイエンシテイホウモンカイゴジギョウショ",
    "address": "沖縄県名護市宮里5-4-29",
    "lat": 26.5999567,
    "lng": 127.9713636,
    "tel": "0980-51-1644",
    "url": "http://www.okinawa-j.jp/index.html",
    "pref": "沖縄県",
    "city": "名護市",
    "category": "home_help",
    "serviceType": "訪問介護",
    "capacity": 39,
    "openDays": [
      "平日",
      "土曜日",
      "日曜日",
      "祝日"
    ],
    "openDaysNote": ""
  },
  {
    "id": "4773400264",
    "name": "ケアセンターちゅらら",
    "kana": "ケアセンターチュララ",
    "address": "沖縄県島尻郡与那原町字板良敷２５番地６（１階）",
    "lat": 26.1983115507382,
    "lng": 127.768821604369,
    "tel": "098-988-9251",
    "url": "https://www.churara-kaigo.com/",
    "pref": "沖縄県",
    "city": "与那原町",
    "category": "home_help",
    "serviceType": "訪問介護",
    "capacity": 0,
    "openDays": [
      "平日",
      "土曜日",
      "祝日"
    ],
    "openDaysNote": "その他年間の休日：年末年始（12月30日から1月2日）（改行）・営業時間帯以外でも、相談に応じ対応させて頂く場合がございます。"
  },
  {
    "id": "4773400322",
    "name": "ねこの手ヘルパーステーション",
    "kana": "ネコノテヘルパーステーション",
    "address": "沖縄県島尻郡与那原町字板良敷1423-1",
    "lat": 26.1938331111016,
    "lng": 127.767435849074,
    "tel": "098-988-4108",
    "url": "https://nekonotehelp.wordpress.com/",
    "pref": "沖縄県",
    "city": "与那原町",
    "category": "home_help",
    "serviceType": "訪問介護",
    "capacity": null,
    "openDays": [
      "平日",
      "土曜日",
      "祝日"
    ],
    "openDaysNote": ""
  },
  {
    "id": "4773400231",
    "name": "ヘルパーステーションひまわり",
    "kana": "ヘルパーステーションヒマワリ",
    "address": "沖縄県島尻郡与那原町字東浜78-5ディアフラッツ東浜101 ディアフラッツ東浜101",
    "lat": 26.2031326,
    "lng": 127.7633116,
    "tel": "098-943-7817",
    "url": "egao-hana.com",
    "pref": "沖縄県",
    "city": "与那原町",
    "category": "home_help",
    "serviceType": "訪問介護",
    "capacity": 0,
    "openDays": [
      "平日",
      "土曜日",
      "日曜日",
      "祝日"
    ],
    "openDaysNote": "緊急時の場合、事務所から電話が転送され連絡が取れるようになっています。"
  },
  {
    "id": "4761390329",
    "name": "ほがらかヘルパーステーション",
    "kana": "ホガラカヘルパーステーション",
    "address": "沖縄県島尻郡与那原町字与那原１１２２番地",
    "lat": 26.2105398,
    "lng": 127.7598273,
    "tel": "098-945-0556",
    "url": "",
    "pref": "沖縄県",
    "city": "与那原町",
    "category": "home_help",
    "serviceType": "訪問介護",
    "capacity": 0,
    "openDays": [
      "平日"
    ],
    "openDaysNote": ""
  },
  {
    "id": "4773400181",
    "name": "日の出園ヘルパーステーション",
    "kana": "ヒノデエンヘルパーステーション",
    "address": "島尻郡与那原町字与那原3782-1",
    "lat": 26.1978490139653,
    "lng": 127.764128217266,
    "tel": "098-946-5138",
    "url": "http://www.nantoukai.com",
    "pref": "沖縄県",
    "city": "与那原町",
    "category": "home_help",
    "serviceType": "訪問介護",
    "capacity": 15,
    "openDays": [
      "平日",
      "土曜日",
      "日曜日",
      "祝日"
    ],
    "openDaysNote": ""
  },
  {
    "id": "4751380108",
    "name": "訪問介護ステーション　うりずん",
    "kana": "ホウモンカイゴステーション　ウリズン",
    "address": "沖縄県島尻郡与那原町板1281番地の1",
    "lat": 26.1995771,
    "lng": 127.754768,
    "tel": "098-871-9555",
    "url": "http://urizunrouken.jp",
    "pref": "沖縄県",
    "city": "与那原町",
    "category": "home_help",
    "serviceType": "訪問介護",
    "capacity": 0,
    "openDays": [
      "平日",
      "土曜日",
      "日曜日",
      "祝日"
    ],
    "openDaysNote": ""
  },
  {
    "id": "4773400173",
    "name": "琉球ライフヘルパーステーション",
    "kana": "リュウキュウライフヘルパーステーション",
    "address": "沖縄県島尻郡与那原町与那原70番地峰アパート102号 峰アパート102号",
    "lat": 26.2004013,
    "lng": 127.7617782,
    "tel": "989881933",
    "url": "",
    "pref": "沖縄県",
    "city": "与那原町",
    "category": "home_help",
    "serviceType": "訪問介護",
    "capacity": 0,
    "openDays": [
      "平日",
      "土曜日",
      "日曜日",
      "祝日"
    ],
    "openDaysNote": ""
  }
]