[
  {
    "id": "2571700026",
    "name": "愛ユーケアサービス訪問介護事業所",
    "kana": "アイユーケアサービスホウモンカイゴジギョウショ",
    "address": "滋賀県愛知郡愛荘町石橋９０５番地",
    "lat": 35.1816639,
    "lng": 136.2208606,
    "tel": "0749-42-7158",
    "url": "",
    "pref": "滋賀県",
    "city": "愛荘町",
    "category": "home_help",
    "serviceType": "訪問介護",
    "capacity": 0,
    "openDays": [
      "平日",
      "土曜日",
      "日曜日",
      "祝日"
    ],
    "openDaysNote": "24時間対応できます"
  },
  {
    "id": "2571700307",
    "name": "愛荘町社会福祉協議会　訪問介護事業所",
    "kana": "アイショウチョウシャカイフクシキョウギカイ　ホウモンカイゴジギョウショ",
    "address": "愛知郡愛荘町安孫子1216番地-1愛荘町立福祉センターラポール秦荘　いきいきセンター 愛荘町立福祉センターラポール秦荘　いきいきセンター",
    "lat": 35.1728358,
    "lng": 136.2502171,
    "tel": "0749-37-8063",
    "url": "http://aisho-shakyo.or.jp/",
    "pref": "滋賀県",
    "city": "愛荘町",
    "category": "home_help",
    "serviceType": "訪問介護",
    "capacity": null,
    "openDays": [
      "平日",
      "土曜日",
      "日曜日",
      "祝日"
    ],
    "openDaysNote": "1/1～1/3はお休みです。"
  },
  {
    "id": "2571700406",
    "name": "訪問介護ステーションえがを",
    "kana": "ホウモンカイゴステーションエガヲ",
    "address": "滋賀県愛知郡愛荘町東円堂1806番地",
    "lat": 35.1557656,
    "lng": 136.2187134,
    "tel": "0749‐47‐3161",
    "url": "egawo-1220.hp.peraichi.com/rtl",
    "pref": "滋賀県",
    "city": "愛荘町",
    "category": "home_help",
    "serviceType": "訪問介護",
    "capacity": 40,
    "openDays": [
      "平日",
      "土曜日",
      "日曜日",
      "祝日"
    ],
    "openDaysNote": "年末年始(12月31日～1月3日)は定休日となっております。"
  },
  {
    "id": "2571700398",
    "name": "訪問介護ヘルパーステーション紬",
    "kana": "ホウモンカイゴヘルパーステーションツムギ",
    "address": "滋賀県愛知郡愛荘町愛知川1264ハイツリプルⅡ203 ハイツリプルⅡ203",
    "lat": 35.1694564,
    "lng": 136.20581,
    "tel": "0749-49-2888",
    "url": "",
    "pref": "滋賀県",
    "city": "愛荘町",
    "category": "home_help",
    "serviceType": "訪問介護",
    "capacity": 0,
    "openDays": [],
    "openDaysNote": ""
  },
  {
    "id": "2570400024",
    "name": "JAグリーン近江介護福祉課　訪問介護事業所",
    "kana": "ジェイエーグリーンオウミカイゴフクシカ　ホウモンカイゴジギョウショ",
    "address": "滋賀県近江八幡市中小森町1138番地",
    "lat": 35.1098301185805,
    "lng": 136.083132557672,
    "tel": "0748-33-7515",
    "url": "http://www.jagreenohmi.jashiga.co.jp/",
    "pref": "滋賀県",
    "city": "近江八幡市",
    "category": "home_help",
    "serviceType": "訪問介護",
    "capacity": 0,
    "openDays": [
      "平日",
      "土曜日",
      "日曜日",
      "祝日"
    ],
    "openDaysNote": ""
  },
  {
    "id": "2570400883",
    "name": "ケアコネクション株式会社",
    "kana": "ケアコネクションカブシキガイシャ",
    "address": "鷹飼町457-23-201",
    "lat": 35.1210499611126,
    "lng": 136.099540203041,
    "tel": "0748-29-3651",
    "url": "",
    "pref": "滋賀県",
    "city": "近江八幡市",
    "category": "home_help",
    "serviceType": "訪問介護",
    "capacity": 0,
    "openDays": [
      "平日",
      "土曜日",
      "日曜日",
      "祝日"
    ],
    "openDaysNote": ""
  },
  {
    "id": "2570400859",
    "name": "しみんふくし滋賀近江八幡訪問介護事業所",
    "kana": "シミンフクシシガオウミハチマンホウモンカイゴジギョウショ",
    "address": "滋賀県近江八幡市出町４１４-５フラワー１番館１０７号室 フラワー１番館１０７号室",
    "lat": 35.1281294158141,
    "lng": 136.099479887172,
    "tel": "0748-32-4872",
    "url": "http://www.shiminfukushi-shiga.jp/",
    "pref": "滋賀県",
    "city": "近江八幡市",
    "category": "home_help",
    "serviceType": "訪問介護",
    "capacity": 0,
    "openDays": [
      "平日",
      "土曜日",
      "日曜日",
      "祝日"
    ],
    "openDaysNote": "ヘルパーの稼働によりお引き受け出来ない場合があります。"
  },
  {
    "id": "2570400941",
    "name": "ツクイ近江八幡鷹飼",
    "kana": "ツクイオウミハチマンタカカイ",
    "address": "滋賀県近江八幡市鷹飼町北4-21-2",
    "lat": 35.1276746,
    "lng": 136.101774,
    "tel": "0748-31-2030",
    "url": "https://www.tsukui.net/home-care/2585/",
    "pref": "滋賀県",
    "city": "近江八幡市",
    "category": "home_help",
    "serviceType": "訪問介護",
    "capacity": null,
    "openDays": [
      "平日",
      "土曜日",
      "日曜日",
      "祝日"
    ],
    "openDaysNote": ""
  },
  {
    "id": "2570400099",
    "name": "ニチイケアセンター近江八幡",
    "kana": "ニチイケアセンターオウミハチマン",
    "address": "滋賀県近江八幡市中村町476",
    "lat": 35.1327629,
    "lng": 136.0919685,
    "tel": "0748-31-0071",
    "url": "http://www.nichiigakkan.co.jp",
    "pref": "滋賀県",
    "city": "近江八幡市",
    "category": "home_help",
    "serviceType": "訪問介護",
    "capacity": 0,
    "openDays": [
      "平日",
      "土曜日",
      "日曜日",
      "祝日"
    ],
    "openDaysNote": "ただし、居宅サービス計画により、休業時間以外でも、サービス提供を行う場合がある"
  },
  {
    "id": "2570400925",
    "name": "ニチイケアセンター八幡南",
    "kana": "ニチイケアセンターハチマンミナミ",
    "address": "滋賀県近江八幡市鷹飼町南４丁目1-4カルチャーコート1-C号室 カルチャーコート1-C号室",
    "lat": 35.1213449,
    "lng": 136.1020536,
    "tel": "0748-38-8113",
    "url": "http://www.nichiigakkan.co.jp/",
    "pref": "滋賀県",
    "city": "近江八幡市",
    "category": "home_help",
    "serviceType": "訪問介護",
    "capacity": 0,
    "openDays": [
      "平日",
      "土曜日",
      "日曜日",
      "祝日"
    ],
    "openDaysNote": "ただし、居宅サービス計画により、休業時間以外でも、サービス提供を行う場合がある。"
  },
  {
    "id": "2570400230",
    "name": "びわこ介護ユアナース株式会社近江八幡営業所",
    "kana": "ビワコカイゴユアナースカブシキカイシャオウミハチマンエイギョウショ",
    "address": "近江八幡市鷹飼町454－7　鳥井ビル2F",
    "lat": 35.1222358,
    "lng": 136.0986791,
    "tel": "0748-32-4545",
    "url": "hpps://biwakokaigo.jp/",
    "pref": "滋賀県",
    "city": "近江八幡市",
    "category": "home_help",
    "serviceType": "訪問介護",
    "capacity": 15,
    "openDays": [
      "平日",
      "土曜日",
      "日曜日",
      "祝日"
    ],
    "openDaysNote": "緊急時は転送電話にて対応します。"
  },
  {
    "id": "2570400461",
    "name": "ヘルパーステーションあづち",
    "kana": "ヘルパーステーションアヅチ",
    "address": "滋賀県近江八幡市安土町上出908番地1",
    "lat": 35.1317582,
    "lng": 136.141302,
    "tel": "0748-46-6321",
    "url": "",
    "pref": "滋賀県",
    "city": "近江八幡市",
    "category": "home_help",
    "serviceType": "訪問介護",
    "capacity": 0,
    "openDays": [
      "平日",
      "土曜日",
      "日曜日",
      "祝日"
    ],
    "openDaysNote": ""
  },
  {
    "id": "2510400068",
    "name": "公益財団法人近江兄弟社ホームヘルパーステーションヴォーリズ",
    "kana": "コウエキザイダンホウジンオウミキョウダイシャホームヘルパーステーションウ”ォーリズ",
    "address": "滋賀県近江八幡市北之庄町492",
    "lat": 35.1525517291856,
    "lng": 136.09081109577,
    "tel": "0748-32-7130",
    "url": "http://www.vories.or.jp",
    "pref": "滋賀県",
    "city": "近江八幡市",
    "category": "home_help",
    "serviceType": "訪問介護",
    "capacity": 0,
    "openDays": [
      "平日",
      "土曜日",
      "祝日"
    ],
    "openDaysNote": "日曜日、年末年始12/30～1/3は介護者不在時等相談に応じます。"
  },
  {
    "id": "2570401055",
    "name": "合同会社Ｔ．ＤＬＳ",
    "kana": "ゴウドウカイシャ　ティドラス",
    "address": "滋賀県近江八幡市末広町２００番地１１７",
    "lat": 35.1112141,
    "lng": 136.1527376,
    "tel": "0748-40-0408",
    "url": "",
    "pref": "滋賀県",
    "city": "近江八幡市",
    "category": "home_help",
    "serviceType": "訪問介護",
    "capacity": null,
    "openDays": [
      "平日",
      "土曜日",
      "日曜日",
      "祝日"
    ],
    "openDaysNote": "年末年始(12月29日～1月3日)"
  },
  {
    "id": "2560490027",
    "name": "訪問介護ヘルパーステーション　おうみ",
    "kana": "ホウモンカイゴヘルパーステーション　オウミ",
    "address": "滋賀県近江八幡市鷹飼町７４４番地　公益財団法人青樹会　滋賀八幡病院内",
    "lat": 35.1250087,
    "lng": 136.1041004,
    "tel": "0748-31-0139",
    "url": "http://www.seijyukai.jp",
    "pref": "滋賀県",
    "city": "近江八幡市",
    "category": "home_help",
    "serviceType": "訪問介護",
    "capacity": 2,
    "openDays": [
      "平日",
      "土曜日",
      "日曜日",
      "祝日"
    ],
    "openDaysNote": ""
  },
  {
    "id": "2570400974",
    "name": "訪問介護事業所　カイト",
    "kana": "ホウモンカイゴジギョウショ　カイト",
    "address": "滋賀県近江八幡市中小森町276-17",
    "lat": 35.1169031,
    "lng": 136.0879044,
    "tel": "0748-47-8179",
    "url": "",
    "pref": "滋賀県",
    "city": "近江八幡市",
    "category": "home_help",
    "serviceType": "訪問介護",
    "capacity": 0,
    "openDays": [
      "平日",
      "土曜日",
      "祝日"
    ],
    "openDaysNote": "要相談"
  },
  {
    "id": "2571200779",
    "name": "あうんホームヘルパー栗東",
    "kana": "アウンホームヘルパーリットウ",
    "address": "滋賀県栗東市出庭862-2名神栗東ビル４Ｆ 名神栗東ビル４Ｆ",
    "lat": 35.0383250058285,
    "lng": 136.001960683932,
    "tel": "077-584-5505",
    "url": "https://aun-shiga.co.jp/",
    "pref": "滋賀県",
    "city": "栗東市",
    "category": "home_help",
    "serviceType": "訪問介護",
    "capacity": 0,
    "openDays": [
      "平日",
      "土曜日",
      "日曜日",
      "祝日"
    ],
    "openDaysNote": ""
  },
  {
    "id": "2571200837",
    "name": "タック・ヘルパーステーション",
    "kana": "タックヘルパーステーション",
    "address": "滋賀県栗東市目川１３２５タック目川・サービス付き高齢者向け住宅 タック目川・サービス付き高齢者向け住宅",
    "lat": 35.0151604204168,
    "lng": 135.979337491154,
    "tel": "077-553-2602",
    "url": "http://tacktac.com/",
    "pref": "滋賀県",
    "city": "栗東市",
    "category": "home_help",
    "serviceType": "訪問介護",
    "capacity": 30,
    "openDays": [
      "平日",
      "土曜日",
      "日曜日",
      "祝日"
    ],
    "openDaysNote": ""
  },
  {
    "id": "2571200043",
    "name": "ニチイケアセンター栗東",
    "kana": "ニチイケアセンターリットウ",
    "address": "滋賀県栗東市綣７丁目15-2　ブルースカイビル2Ｆ",
    "lat": 35.0381293,
    "lng": 135.9777137,
    "tel": "077-552-8211",
    "url": "http://www.nichiigakkan.co.jp",
    "pref": "滋賀県",
    "city": "栗東市",
    "category": "home_help",
    "serviceType": "訪問介護",
    "capacity": 0,
    "openDays": [
      "平日"
    ],
    "openDaysNote": "営業時間外でもサービス提供あり"
  },
  {
    "id": "2561290020",
    "name": "ヘルパーステーション　なないろ",
    "kana": "ヘルパーステーション　ナナイロ",
    "address": "滋賀県栗東市小平井3丁目2番２７号GREEＮＡＷＡＹ1Ｆ GREEＮＡＷＡＹ1Ｆ",
    "lat": 35.0359782692196,
    "lng": 135.965051635582,
    "tel": "077-554-2841",
    "url": "",
    "pref": "滋賀県",
    "city": "栗東市",
    "category": "home_help",
    "serviceType": "訪問介護",
    "capacity": 0,
    "openDays": [
      "平日",
      "土曜日"
    ],
    "openDaysNote": "ケアプランならびに利用者様の必要に応じて休業日であっても訪問提供しています。"
  },
  {
    "id": "2571200555",
    "name": "ヘルパーステーションあかり",
    "kana": "ヘルパーステーションアカリ",
    "address": "滋賀県栗東市上鈎541-3",
    "lat": 35.0219,
    "lng": 135.9925076,
    "tel": "077-551-2221",
    "url": "",
    "pref": "滋賀県",
    "city": "栗東市",
    "category": "home_help",
    "serviceType": "訪問介護",
    "capacity": 0,
    "openDays": [
      "平日",
      "土曜日",
      "日曜日",
      "祝日"
    ],
    "openDaysNote": "訪問日時、ご相談させて頂きます。"
  },
  {
    "id": "2571200886",
    "name": "ヘルパーステーションあづき",
    "kana": "ヘルパーステーションアヅキ",
    "address": "滋賀県栗東市安養寺2丁目１２-７-104",
    "lat": 35.0209828,
    "lng": 136.0006827,
    "tel": "775991541",
    "url": "",
    "pref": "滋賀県",
    "city": "栗東市",
    "category": "home_help",
    "serviceType": "訪問介護",
    "capacity": null,
    "openDays": [
      "平日"
    ],
    "openDaysNote": ""
  },
  {
    "id": "2571200860",
    "name": "ヘルパーステーションまんぼう",
    "kana": "ヘルパーステーションマンボウ",
    "address": "滋賀県栗東市目川877番地1",
    "lat": 35.0191448322035,
    "lng": 135.98041813422,
    "tel": "775965921",
    "url": "https://www.helpermanbou.com",
    "pref": "滋賀県",
    "city": "栗東市",
    "category": "home_help",
    "serviceType": "訪問介護",
    "capacity": 2,
    "openDays": [
      "平日",
      "土曜日",
      "日曜日",
      "祝日"
    ],
    "openDaysNote": "24時間対応"
  },
  {
    "id": "2571201025",
    "name": "ヘルパーステーションよりみち",
    "kana": "ヘルパーシュテーションヨリミチ",
    "address": "滋賀県栗東市川辺620井口ハイツ１号 井口ハイツ１号",
    "lat": 35.0186323,
    "lng": 135.9869959,
    "tel": "077-599-0132",
    "url": "https://www.yorimichi.biz/",
    "pref": "滋賀県",
    "city": "栗東市",
    "category": "home_help",
    "serviceType": "訪問介護",
    "capacity": 0,
    "openDays": [
      "平日",
      "土曜日",
      "日曜日",
      "祝日"
    ],
    "openDaysNote": "年中無休"
  },
  {
    "id": "2571200969",
    "name": "ヘルパーステーション日昇",
    "kana": "ヘルパーステーションニッショウ",
    "address": "滋賀県栗東市綣6丁目6番4号",
    "lat": 35.0360353,
    "lng": 135.9775463,
    "tel": "077-599-1528",
    "url": "https://nissyou.hp.peraichi.com/0905",
    "pref": "滋賀県",
    "city": "栗東市",
    "category": "home_help",
    "serviceType": "訪問介護",
    "capacity": 3,
    "openDays": [
      "平日",
      "土曜日",
      "祝日"
    ],
    "openDaysNote": "ヘルパーステーション日昇の土日・年末年始の利用は応相談にて対応しております。"
  },
  {
    "id": "2571200951",
    "name": "リーガルヘルスケア栗東",
    "kana": "リーガルヘルケアリットウ",
    "address": "滋賀県栗東市綣5丁目1-15有料老人ホーム　サンライフ栗東 有料老人ホーム　サンライフ栗東",
    "lat": 35.0380408,
    "lng": 135.9759616,
    "tel": "077-554-5120",
    "url": "",
    "pref": "滋賀県",
    "city": "栗東市",
    "category": "home_help",
    "serviceType": "訪問介護",
    "capacity": null,
    "openDays": [
      "平日",
      "土曜日",
      "日曜日",
      "祝日"
    ],
    "openDaysNote": ""
  },
  {
    "id": "2571200209",
    "name": "栗東市訪問介護事業所",
    "kana": "リットウシホウモンカイゴジギョウショ",
    "address": "栗東市安養寺１９０",
    "lat": 35.0175813,
    "lng": 136.0040842,
    "tel": "077-554-6117",
    "url": "http://www.city.ritto.shiga.jp/",
    "pref": "滋賀県",
    "city": "栗東市",
    "category": "home_help",
    "serviceType": "訪問介護",
    "capacity": 0,
    "openDays": [
      "平日",
      "土曜日",
      "日曜日",
      "祝日"
    ],
    "openDaysNote": ""
  },
  {
    "id": "2571200126",
    "name": "田中ケアサービス株式会社　栗東支援センター",
    "kana": "タナカケアサービスカブシキガイシャリットウシエンセンター",
    "address": "滋賀県栗東市大橋7丁目7-7",
    "lat": 35.0288298,
    "lng": 136.0047476,
    "tel": "077-552-8913",
    "url": "http://www.tanakacare.co.jp/",
    "pref": "滋賀県",
    "city": "栗東市",
    "category": "home_help",
    "serviceType": "訪問介護",
    "capacity": 50,
    "openDays": [
      "平日",
      "土曜日",
      "祝日"
    ],
    "openDaysNote": ""
  },
  {
    "id": "2571200605",
    "name": "訪問介護センターなでしこ",
    "kana": "ホウモンカイゴセンターナデシコ",
    "address": "滋賀県栗東市小柿4丁目１－１",
    "lat": 35.0242744,
    "lng": 135.9764036,
    "tel": "０７７－５５２－9930",
    "url": "http://www.saiseikai-shiga.jp/tankaiso/",
    "pref": "滋賀県",
    "city": "栗東市",
    "category": "home_help",
    "serviceType": "訪問介護",
    "capacity": 0,
    "openDays": [
      "平日",
      "土曜日",
      "日曜日",
      "祝日"
    ],
    "openDaysNote": ""
  },
  {
    "id": "2572300461",
    "name": "ヘルパーステーションかふか湖南",
    "kana": "ヘルパーステーションカフカコナン",
    "address": "滋賀県湖南市水戸町４番地５",
    "lat": 35.0068732,
    "lng": 136.1216904,
    "tel": "0748-60-9450",
    "url": "http://hp.kaipoke.biz/enw/",
    "pref": "滋賀県",
    "city": "湖南市",
    "category": "home_help",
    "serviceType": "訪問介護",
    "capacity": null,
    "openDays": [
      "平日",
      "祝日"
    ],
    "openDaysNote": ""
  },
  {
    "id": "2572300438",
    "name": "ヘルパーステーション楓",
    "kana": "ヘルパーステーション　カエデ",
    "address": "菩提寺西二丁目10―45",
    "lat": 35.0335922,
    "lng": 136.0610069,
    "tel": "0748-74-8228",
    "url": "",
    "pref": "滋賀県",
    "city": "湖南市",
    "category": "home_help",
    "serviceType": "訪問介護",
    "capacity": 50,
    "openDays": [
      "平日",
      "土曜日",
      "日曜日",
      "祝日"
    ],
    "openDaysNote": ""
  },
  {
    "id": "2572300354",
    "name": "医療法人社団美松会　さつきヘルパーステーション",
    "kana": "イリョウホウジンシャダンビショウカイ　サツキヘルパーステーション",
    "address": "中央2丁目125番地サービス付き高齢者向け住宅サツキ サービス付き高齢者向け住宅サツキ",
    "lat": 35.0051474,
    "lng": 136.0829206,
    "tel": "０７４８－７１－３１５５",
    "url": "http:／／ikuta-hospital.com/satuki-ds",
    "pref": "滋賀県",
    "city": "湖南市",
    "category": "home_help",
    "serviceType": "訪問介護",
    "capacity": 0,
    "openDays": [
      "平日",
      "土曜日",
      "日曜日",
      "祝日"
    ],
    "openDaysNote": ""
  },
  {
    "id": "2572300420",
    "name": "株式会社レイクケア",
    "kana": "カブシキカイシャレイクケア",
    "address": "湖南市若竹町13-33",
    "lat": 35.0175852926523,
    "lng": 136.123106370493,
    "tel": "0748-43-2305",
    "url": "",
    "pref": "滋賀県",
    "city": "湖南市",
    "category": "home_help",
    "serviceType": "訪問介護",
    "capacity": 35,
    "openDays": [
      "平日",
      "土曜日",
      "日曜日",
      "祝日"
    ],
    "openDaysNote": ""
  },
  {
    "id": "2572300446",
    "name": "合同会社ヘルパーステーションつくし",
    "kana": "ゴウドウガイシャヘルパーステーションツクシ",
    "address": "滋賀県湖南市針304-1",
    "lat": 35.0009578,
    "lng": 136.0854813,
    "tel": "0748-60-7148",
    "url": "hs-tsukushi@iris.eonet.ne.jp",
    "pref": "滋賀県",
    "city": "湖南市",
    "category": "home_help",
    "serviceType": "訪問介護",
    "capacity": 0,
    "openDays": [
      "平日",
      "土曜日",
      "日曜日",
      "祝日"
    ],
    "openDaysNote": ""
  },
  {
    "id": "2572300370",
    "name": "社会福祉法人　近江ちいろば会　ぼだいじホームヘルパーステーション",
    "kana": "シャカイフクシホウジン　オウミチイロバカイ　ボダイジホームヘルパーステーション",
    "address": "滋賀県湖南市菩提寺東4丁目１－５",
    "lat": 35.0351994,
    "lng": 136.0635027,
    "tel": "0748-74-3904",
    "url": "http//chiiroba.jp/",
    "pref": "滋賀県",
    "city": "湖南市",
    "category": "home_help",
    "serviceType": "訪問介護",
    "capacity": 5,
    "openDays": [
      "平日",
      "土曜日",
      "日曜日",
      "祝日"
    ],
    "openDaysNote": "年末年始は生活援助はお断りしています。どうしてもの方はご相談ください。"
  },
  {
    "id": "2572300131",
    "name": "社会福祉法人　湖南市社会福祉協議会ホームヘルプセンター",
    "kana": "シャカイフクシホウジン　コナンシシャカイフクシキョウギカイホームヘルプセンター",
    "address": "滋賀県湖南市中央一丁目1番地湖南市社会福祉協議会ホームヘルプセンター 湖南市社会福祉協議会ホームヘルプセンター",
    "lat": 35.0043531,
    "lng": 136.0838732,
    "tel": "0748-71-4567",
    "url": "htt://shiga-konan-shakyo.or.jp",
    "pref": "滋賀県",
    "city": "湖南市",
    "category": "home_help",
    "serviceType": "訪問介護",
    "capacity": 0,
    "openDays": [
      "平日",
      "土曜日",
      "日曜日",
      "祝日"
    ],
    "openDaysNote": "12月31日　１月１日は運営規程上、休みであるが必要に応じて訪問している。"
  },
  {
    "id": "2571401252",
    "name": "社会福祉法人愛心会",
    "kana": "シャカイフクシホウジンアイシンカイ",
    "address": "滋賀県湖南市梅影町3番1",
    "lat": 35.0119442,
    "lng": 136.1257008,
    "tel": "0748-75-3725",
    "url": "https://r.goope.jp/shion/",
    "pref": "滋賀県",
    "city": "湖南市",
    "category": "home_help",
    "serviceType": "訪問介護",
    "capacity": null,
    "openDays": [
      "平日",
      "土曜日",
      "祝日"
    ],
    "openDaysNote": ""
  },
  {
    "id": "2552380012",
    "name": "八起会ホームヘルプステーション",
    "kana": "ハチキカイホームヘルプステーション",
    "address": "湖南市丸山四丁目5番1号",
    "lat": 34.9987899,
    "lng": 136.0461164,
    "tel": "0748-77-0051",
    "url": "http://www.hachikikai.com",
    "pref": "滋賀県",
    "city": "湖南市",
    "category": "home_help",
    "serviceType": "訪問介護",
    "capacity": 0,
    "openDays": [
      "平日",
      "土曜日",
      "日曜日",
      "祝日"
    ],
    "openDaysNote": ""
  },
  {
    "id": "2572300172",
    "name": "訪問介護事業所大空",
    "kana": "ホウモンカイゴジギョウショオオゾラ",
    "address": "滋賀県湖南市吉永１７０番地４",
    "lat": 34.9865332,
    "lng": 136.1029221,
    "tel": "0748-71-4330",
    "url": "https://www.oozora-konan.com/",
    "pref": "滋賀県",
    "city": "湖南市",
    "category": "home_help",
    "serviceType": "訪問介護",
    "capacity": 35,
    "openDays": [
      "平日",
      "土曜日",
      "祝日"
    ],
    "openDaysNote": ""
  },
  {
    "id": "2571400676",
    "name": "ＪＡゆうハート　水口ヘルパーステーション",
    "kana": "JAユウハート　ミナクチヘルパーステーション",
    "address": "滋賀県甲賀市水口町新城５２０番地",
    "lat": 34.9603429,
    "lng": 136.1976563,
    "tel": "0748-65-5650",
    "url": "http://www.ja-youheart.co.jp/",
    "pref": "滋賀県",
    "city": "甲賀市",
    "category": "home_help",
    "serviceType": "訪問介護",
    "capacity": 0,
    "openDays": [
      "平日",
      "土曜日",
      "日曜日",
      "祝日"
    ],
    "openDaysNote": ""
  },
  {
    "id": "2571400841",
    "name": "ＪＡゆうハート信楽ヘルパーステーション",
    "kana": "ＪＡユウハートシガラキヘルパーステーション",
    "address": "滋賀県甲賀市信楽町柞原793",
    "lat": 34.8614153157576,
    "lng": 136.026039849924,
    "tel": "0748-70-3396",
    "url": "http://www.ja-youheart.co.jp/",
    "pref": "滋賀県",
    "city": "甲賀市",
    "category": "home_help",
    "serviceType": "訪問介護",
    "capacity": 120,
    "openDays": [
      "平日",
      "土曜日",
      "日曜日",
      "祝日"
    ],
    "openDaysNote": ""
  },
  {
    "id": "2571400866",
    "name": "あいむ水口訪問介護",
    "kana": "アイムミナクチホウモンカイゴ",
    "address": "水口町北泉1丁目138",
    "lat": 34.9836174,
    "lng": 136.1425075,
    "tel": "0748-62-2811",
    "url": "http://k-aimu.co.jp",
    "pref": "滋賀県",
    "city": "甲賀市",
    "category": "home_help",
    "serviceType": "訪問介護",
    "capacity": 0,
    "openDays": [
      "平日",
      "土曜日",
      "日曜日",
      "祝日"
    ],
    "openDaysNote": "時間外のケアも要相談"
  },
  {
    "id": "2571400015",
    "name": "せせらぎ苑訪問介護サービス",
    "kana": "セセラギエン　ホウモンカイゴサービス",
    "address": "滋賀県甲賀市甲南町葛木８５５",
    "lat": 34.9321544,
    "lng": 136.1791334,
    "tel": "0748-86-1021",
    "url": "http://kohnankai.jp",
    "pref": "滋賀県",
    "city": "甲賀市",
    "category": "home_help",
    "serviceType": "訪問介護",
    "capacity": 0,
    "openDays": [
      "平日",
      "土曜日",
      "日曜日",
      "祝日"
    ],
    "openDaysNote": "12月31日～1月3日は休業"
  },
  {
    "id": "2571401005",
    "name": "ヘルパーステーションえがお",
    "kana": "ヘルパーステーションエガオ",
    "address": "滋賀県甲賀市甲南町稗谷1910-218",
    "lat": 34.9399451,
    "lng": 136.182069,
    "tel": "090-3926-1204",
    "url": "http://hp.kaipoke.biz/91z/",
    "pref": "滋賀県",
    "city": "甲賀市",
    "category": "home_help",
    "serviceType": "訪問介護",
    "capacity": 0,
    "openDays": [
      "平日",
      "土曜日",
      "日曜日",
      "祝日"
    ],
    "openDaysNote": ""
  },
  {
    "id": "2571401278",
    "name": "ヘルパーステーションてんりゅう",
    "kana": "ヘルパーステーションテンリュウ",
    "address": "滋賀県甲賀市水口町牛飼395－8",
    "lat": 34.9454225,
    "lng": 136.1494868,
    "tel": "0748‐63‐1009",
    "url": "",
    "pref": "滋賀県",
    "city": "甲賀市",
    "category": "home_help",
    "serviceType": "訪問介護",
    "capacity": 0,
    "openDays": [
      "平日"
    ],
    "openDaysNote": ""
  },
  {
    "id": "2571401062",
    "name": "株式会社オオマイトほねつぎ介護ヘルパーステーション希望ヶ丘",
    "kana": "カブシキガイシャオオマイトホネツギカイゴヘルパーステーションキボウガオカ",
    "address": "滋賀県甲賀市甲南町希望ヶ丘本町9丁目421-31",
    "lat": 34.9403562,
    "lng": 136.1737197,
    "tel": "0748-60-2371",
    "url": "",
    "pref": "滋賀県",
    "city": "甲賀市",
    "category": "home_help",
    "serviceType": "訪問介護",
    "capacity": 60,
    "openDays": [
      "平日",
      "土曜日",
      "日曜日",
      "祝日"
    ],
    "openDaysNote": ""
  },
  {
    "id": "2571400692",
    "name": "甲賀市社協　ヘルパーステーションつちやま",
    "kana": "コウカシシャキョウ　ヘルパーステーションツチヤマ",
    "address": "滋賀県甲賀市土山町北土山2171番地",
    "lat": 34.936430676471,
    "lng": 136.279078469455,
    "tel": "0748-66-2733",
    "url": "http://kokashakyo.jp",
    "pref": "滋賀県",
    "city": "甲賀市",
    "category": "home_help",
    "serviceType": "訪問介護",
    "capacity": 0,
    "openDays": [
      "平日",
      "土曜日",
      "日曜日",
      "祝日"
    ],
    "openDaysNote": ""
  },
  {
    "id": "2571400064",
    "name": "甲賀市社協　ヘルパーステーションみなくち",
    "kana": "コウカシシャキョウ　ヘルパーステーションミナクチ",
    "address": "滋賀県甲賀市水口町水口5609番地",
    "lat": 34.9665836,
    "lng": 136.1681864,
    "tel": "0748-63-7665",
    "url": "https://kokashakyo.jp/",
    "pref": "滋賀県",
    "city": "甲賀市",
    "category": "home_help",
    "serviceType": "訪問介護",
    "capacity": 0,
    "openDays": [
      "平日",
      "土曜日",
      "日曜日",
      "祝日"
    ],
    "openDaysNote": ""
  },
  {
    "id": "2571400239",
    "name": "甲賀市社協ヘルパーステーションこうか",
    "kana": "コウカシシャキョウヘルパーステーションコウカ",
    "address": "滋賀県甲賀市甲賀町大原中８８６番地",
    "lat": 34.9021638,
    "lng": 136.2307102,
    "tel": "0748-88-4633",
    "url": "http://kokashakyo.jp",
    "pref": "滋賀県",
    "city": "甲賀市",
    "category": "home_help",
    "serviceType": "訪問介護",
    "capacity": 0,
    "openDays": [
      "平日",
      "土曜日",
      "日曜日",
      "祝日"
    ],
    "openDaysNote": ""
  },
  {
    "id": "2571401179",
    "name": "甲賀市社協ヘルパーステーションしがらき",
    "kana": "コウカシシャキョウヘルパーステーションシガラキ",
    "address": "滋賀県甲賀市信楽町長野３７２番地１号棟 １号棟",
    "lat": 34.8758938293792,
    "lng": 136.057403281676,
    "tel": "0748-82-8055",
    "url": "https://kokashakyo.jp/",
    "pref": "滋賀県",
    "city": "甲賀市",
    "category": "home_help",
    "serviceType": "訪問介護",
    "capacity": 0,
    "openDays": [
      "平日",
      "土曜日",
      "日曜日",
      "祝日"
    ],
    "openDaysNote": ""
  },
  {
    "id": "2571401195",
    "name": "訪問介護事業所まごころ甲賀",
    "kana": "ホウモンカイゴジギョウショマゴコロコウガ",
    "address": "水口町牛飼395-4まごころ甲賀Ⅰ番館・Ⅱ番館 まごころ甲賀Ⅰ番館・Ⅱ番館",
    "lat": 34.9298695,
    "lng": 136.1088035,
    "tel": "0748-62-0868",
    "url": "http://www.dayservice-magokoro.com/",
    "pref": "滋賀県",
    "city": "甲賀市",
    "category": "home_help",
    "serviceType": "訪問介護",
    "capacity": null,
    "openDays": [
      "平日",
      "土曜日",
      "日曜日",
      "祝日"
    ],
    "openDaysNote": ""
  },
  {
    "id": "2571800313",
    "name": "こんきライフ・モビリティ",
    "kana": "コンキライフ・モビリティ",
    "address": "滋賀県犬上郡甲良町金屋823番地",
    "lat": 35.1996585,
    "lng": 136.2793175,
    "tel": "0749-38-3743",
    "url": "",
    "pref": "滋賀県",
    "city": "甲良町",
    "category": "home_help",
    "serviceType": "訪問介護",
    "capacity": 0,
    "openDays": [
      "平日",
      "土曜日",
      "日曜日",
      "祝日"
    ],
    "openDaysNote": ""
  },
  {
    "id": "2571800180",
    "name": "訪問介護ステーション　花水木",
    "kana": "ホウモンカイゴステーション　ハナミズキ",
    "address": "滋賀県犬上郡甲良町池寺1144-1",
    "lat": 35.1923453,
    "lng": 136.2798509,
    "tel": "0749-38-8139",
    "url": "https://hanamizuki-sakura.com",
    "pref": "滋賀県",
    "city": "甲良町",
    "category": "home_help",
    "serviceType": "訪問介護",
    "capacity": 0,
    "openDays": [
      "平日",
      "土曜日",
      "日曜日",
      "祝日"
    ],
    "openDaysNote": "時間外サービス提供については相談に応じるものとする。"
  },
  {
    "id": "2572200497",
    "name": "こころいちばんホームヘルプサービス",
    "kana": "ココロイチバンホームヘルプサービス",
    "address": "高島市今津町住吉2丁目11－２",
    "lat": 35.401544866658,
    "lng": 136.032519992912,
    "tel": "0740-22-5561",
    "url": "",
    "pref": "滋賀県",
    "city": "高島市",
    "category": "home_help",
    "serviceType": "訪問介護",
    "capacity": 0,
    "openDays": [
      "平日",
      "土曜日",
      "日曜日",
      "祝日"
    ],
    "openDaysNote": ""
  },
  {
    "id": "2572200745",
    "name": "ヘルパーステーション　リーチたかしま",
    "kana": "ヘルパーステーション　リーチタカシマ",
    "address": "滋賀県高島市新旭町新旭489-14グリーンハウス愛の鈴Ⅰ グリーンハウス愛の鈴Ⅰ",
    "lat": 35.3555147,
    "lng": 136.0355171,
    "tel": "0740-33-7780",
    "url": "",
    "pref": "滋賀県",
    "city": "高島市",
    "category": "home_help",
    "serviceType": "訪問介護",
    "capacity": null,
    "openDays": [
      "平日"
    ],
    "openDaysNote": ""
  },
  {
    "id": "2572200208",
    "name": "ヘルパーステーション　元気な仲間",
    "kana": "ヘルパーステーション　ゲンキナナカマ",
    "address": "滋賀県高島市新旭町針江２９１",
    "lat": 35.3567682,
    "lng": 136.0477674,
    "tel": "0740-25-8360",
    "url": "",
    "pref": "滋賀県",
    "city": "高島市",
    "category": "home_help",
    "serviceType": "訪問介護",
    "capacity": 0,
    "openDays": [
      "平日",
      "土曜日",
      "日曜日",
      "祝日"
    ],
    "openDaysNote": "上記時間外でも可能な限り対応します"
  },
  {
    "id": "2572200158",
    "name": "ヘルパーステーションじゃがいもの家",
    "kana": "ヘルパーステーションジャガイモノイエ",
    "address": "滋賀県高島市マキノ町浦３４５番地",
    "lat": 35.4881152,
    "lng": 136.0620488,
    "tel": "0740-28-8068",
    "url": "",
    "pref": "滋賀県",
    "city": "高島市",
    "category": "home_help",
    "serviceType": "訪問介護",
    "capacity": 0,
    "openDays": [
      "平日",
      "土曜日",
      "日曜日",
      "祝日"
    ],
    "openDaysNote": ""
  },
  {
    "id": "2572200646",
    "name": "ヘルパーステーションひより",
    "kana": "ヘルパーステーションヒヨリ",
    "address": "滋賀県高島市新旭町旭892-1",
    "lat": 35.3553851,
    "lng": 136.0498395,
    "tel": "740202185",
    "url": "",
    "pref": "滋賀県",
    "city": "高島市",
    "category": "home_help",
    "serviceType": "訪問介護",
    "capacity": 0,
    "openDays": [
      "平日",
      "祝日"
    ],
    "openDaysNote": "営業日及び営業時間以外にも相談に応じる。"
  },
  {
    "id": "2572200760",
    "name": "わになろう",
    "kana": "ワニナロウ",
    "address": "滋賀県高島市新旭町藁園2607番地",
    "lat": 35.3492177,
    "lng": 136.0460774,
    "tel": "0740-25-8276",
    "url": "https://www.shiganijinokai.net/",
    "pref": "滋賀県",
    "city": "高島市",
    "category": "home_help",
    "serviceType": "訪問介護",
    "capacity": null,
    "openDays": [
      "平日"
    ],
    "openDaysNote": ""
  },
  {
    "id": "2572200430",
    "name": "高島市社会福祉協議会　きらり今津北",
    "kana": "タカシマシシャカイフクシキョウギカイ　キラリイマヅキタ",
    "address": "滋賀県高島市今津町桂830-1",
    "lat": 35.4301739,
    "lng": 136.0255099,
    "tel": "0740-22-8211",
    "url": "",
    "pref": "滋賀県",
    "city": "高島市",
    "category": "home_help",
    "serviceType": "訪問介護",
    "capacity": 0,
    "openDays": [
      "平日",
      "土曜日",
      "日曜日",
      "祝日"
    ],
    "openDaysNote": "天災その他やむを得ず業務遂行できない日を除く。"
  },
  {
    "id": "2572200448",
    "name": "高島市社会福祉協議会きらり高島",
    "kana": "タカシマシシャカイフクシキョウギカイキラリタカシマ",
    "address": "高島市勝野680番地",
    "lat": 35.3001423175057,
    "lng": 136.011740500327,
    "tel": "0740-36-8222",
    "url": "",
    "pref": "滋賀県",
    "city": "高島市",
    "category": "home_help",
    "serviceType": "訪問介護",
    "capacity": 0,
    "openDays": [
      "平日",
      "土曜日",
      "日曜日",
      "祝日"
    ],
    "openDaysNote": ""
  },
  {
    "id": "2572200687",
    "name": "訪問介護事業所ハーブ",
    "kana": "ホウモンカイゴジギョウショ　ハーブ",
    "address": "滋賀県高島市新旭町旭462サービス付き高齢者向け住宅オアシス サービス付き高齢者向け住宅オアシス",
    "lat": 35.3529363257495,
    "lng": 136.046329792899,
    "tel": "0740-25-8155",
    "url": "http://shinasahi-minorikai.or.jp",
    "pref": "滋賀県",
    "city": "高島市",
    "category": "home_help",
    "serviceType": "訪問介護",
    "capacity": 0,
    "openDays": [
      "平日",
      "土曜日",
      "日曜日",
      "祝日"
    ],
    "openDaysNote": "サービスの提供については、営業日、営業時間外でもケアプランに（改行）応じて提供するものとする。"
  },
  {
    "id": "2570701124",
    "name": "JAレーク滋賀訪問介護事業所",
    "kana": "ジエイエイレークシガホウモンカイゴジギョウショ",
    "address": "滋賀県守山市吉身三丁目７番６号",
    "lat": 35.0602585158692,
    "lng": 135.994848416559,
    "tel": "077-582-2777",
    "url": "ｈｔｔｐｓ：//ｊａ-ｌａｋｅｓｈｉｇａ.ｏｒ.ｊｐ/",
    "pref": "滋賀県",
    "city": "守山市",
    "category": "home_help",
    "serviceType": "訪問介護",
    "capacity": 0,
    "openDays": [
      "平日",
      "土曜日",
      "日曜日",
      "祝日"
    ],
    "openDaysNote": "上記の時間以外も随時対応"
  },
  {
    "id": "2570701058",
    "name": "あいむ守山訪問介護",
    "kana": "アイムモリヤマホウモンカイゴ",
    "address": "滋賀県守山市守山６丁目９番２８号エルプラス元町 エルプラス元町",
    "lat": 35.0637481656916,
    "lng": 135.994581238432,
    "tel": "077-514-0584",
    "url": "http://k-aimu.co.jp/",
    "pref": "滋賀県",
    "city": "守山市",
    "category": "home_help",
    "serviceType": "訪問介護",
    "capacity": 5,
    "openDays": [
      "平日",
      "土曜日",
      "日曜日",
      "祝日"
    ],
    "openDaysNote": "上記時間外の対応も可能（要相談）、サービス提供時間は原則、8時30分から17時30分まで。"
  },
  {
    "id": "2570701181",
    "name": "アクア守山訪問介護",
    "kana": "アクアモリヤマホウモンカイゴ",
    "address": "滋賀県守山市水保町2891-214",
    "lat": 35.1113719,
    "lng": 135.9430525,
    "tel": "077-516-4377",
    "url": "",
    "pref": "滋賀県",
    "city": "守山市",
    "category": "home_help",
    "serviceType": "訪問介護",
    "capacity": null,
    "openDays": [
      "平日",
      "土曜日",
      "日曜日",
      "祝日"
    ],
    "openDaysNote": ""
  },
  {
    "id": "2570701215",
    "name": "ケア21守山",
    "kana": "ケア２１モリヤマ",
    "address": "滋賀県守山市勝部四丁目3-20Bu-Bu-BuSUN203号 Bu-Bu-BuSUN203号",
    "lat": 35.0435875,
    "lng": 135.9938753,
    "tel": "077-582-8021",
    "url": "https://career.care21.co.jp/2024/16637/",
    "pref": "滋賀県",
    "city": "守山市",
    "category": "home_help",
    "serviceType": "訪問介護",
    "capacity": 0,
    "openDays": [],
    "openDaysNote": "ヘルパー人員状況による"
  },
  {
    "id": "2570700910",
    "name": "ケアステーションあんじぇす守山",
    "kana": "ケアステーションアンジェスモリヤマ",
    "address": "滋賀県守山市古高町602番",
    "lat": 35.052003,
    "lng": 135.9759238,
    "tel": "077-582-7711",
    "url": "",
    "pref": "滋賀県",
    "city": "守山市",
    "category": "home_help",
    "serviceType": "訪問介護",
    "capacity": 31,
    "openDays": [
      "平日"
    ],
    "openDaysNote": ""
  },
  {
    "id": "2570701132",
    "name": "ケアステーションふたば",
    "kana": "ケアステーションフタバ",
    "address": "滋賀県守山市水保町2227番地の3",
    "lat": 35.1001441,
    "lng": 135.9565273,
    "tel": "077-585-1360",
    "url": "https://www.care-st-futaba.com",
    "pref": "滋賀県",
    "city": "守山市",
    "category": "home_help",
    "serviceType": "訪問介護",
    "capacity": 25,
    "openDays": [
      "平日"
    ],
    "openDaysNote": "営業日、営業時間以外のサービス利用に関してはご相談ください"
  },
  {
    "id": "2570700977",
    "name": "サポートセンターまはろ",
    "kana": "サポートセンターマハロ",
    "address": "滋賀県守山市守山３丁目20-46ハシモトビル2F ハシモトビル2F",
    "lat": 35.0576124,
    "lng": 135.9897853,
    "tel": "077-596-3565",
    "url": "",
    "pref": "滋賀県",
    "city": "守山市",
    "category": "home_help",
    "serviceType": "訪問介護",
    "capacity": null,
    "openDays": [],
    "openDaysNote": ""
  },
  {
    "id": "2570700993",
    "name": "しみんふくし滋賀守山訪問介護事業所",
    "kana": "シミンフクシシガモリヤマホウモンカイゴジギョウショ",
    "address": "滋賀県守山市守山6丁目1-44",
    "lat": 35.0610648,
    "lng": 135.993882,
    "tel": "077-514-3510",
    "url": "http://www.shiminfukushi-shiga.jp/",
    "pref": "滋賀県",
    "city": "守山市",
    "category": "home_help",
    "serviceType": "訪問介護",
    "capacity": 0,
    "openDays": [
      "平日",
      "土曜日",
      "日曜日",
      "祝日"
    ],
    "openDaysNote": "ヘルパーの稼働によりお引き受けできない場合があります。"
  },
  {
    "id": "2570701074",
    "name": "すこやか生活支援センター",
    "kana": "スコヤカセイカツシエンセンター",
    "address": "滋賀県守山市古高町98-9",
    "lat": 35.0522357658699,
    "lng": 135.98028037791,
    "tel": "077-574-8088",
    "url": "",
    "pref": "滋賀県",
    "city": "守山市",
    "category": "home_help",
    "serviceType": "訪問介護",
    "capacity": null,
    "openDays": [
      "平日",
      "土曜日",
      "日曜日",
      "祝日"
    ],
    "openDaysNote": "生活援助は12/29～1/3は休み"
  },
  {
    "id": "2570700746",
    "name": "ヘルパーステーションここあ勝部",
    "kana": "ヘルパーステーションココアカツベ",
    "address": "勝部3丁目10-34",
    "lat": 35.0471747,
    "lng": 135.9880605,
    "tel": "077-582-8556",
    "url": "http://www.kokoa.jp",
    "pref": "滋賀県",
    "city": "守山市",
    "category": "home_help",
    "serviceType": "訪問介護",
    "capacity": 0,
    "openDays": [
      "平日",
      "土曜日",
      "日曜日",
      "祝日"
    ],
    "openDaysNote": "年末年始・夜間・深夜・早朝は調整あり。"
  },
  {
    "id": "2570701173",
    "name": "ヘルパーステーションぽこ守山",
    "kana": "ヘルパーステーションポコモリヤマ",
    "address": "滋賀県守山市守山４丁目7-20辻田ビル105 辻田ビル105",
    "lat": 35.0612714,
    "lng": 135.9900204,
    "tel": "077-598-0510",
    "url": "https://www.pak2.com",
    "pref": "滋賀県",
    "city": "守山市",
    "category": "home_help",
    "serviceType": "訪問介護",
    "capacity": 0,
    "openDays": [
      "平日",
      "祝日"
    ],
    "openDaysNote": ""
  },
  {
    "id": "2570701082",
    "name": "ヘルパーステーション杜",
    "kana": "ヘルパーステーションモリ",
    "address": "滋賀県守山市今浜町2620－132",
    "lat": 35.1246768994621,
    "lng": 135.94694046627,
    "tel": "077－599－0120",
    "url": "https://tkk-kaigoservice.com/",
    "pref": "滋賀県",
    "city": "守山市",
    "category": "home_help",
    "serviceType": "訪問介護",
    "capacity": null,
    "openDays": [
      "平日",
      "土曜日",
      "日曜日",
      "祝日"
    ],
    "openDaysNote": ""
  },
  {
    "id": "2570700043",
    "name": "ゆいの里訪問介護ステーション",
    "kana": "ユイノサトホウモンカイゴステーション",
    "address": "滋賀県守山市洲本町１番地",
    "lat": 35.0951578,
    "lng": 135.9867237,
    "tel": "077-585-8345",
    "url": "http://www.yuinosato.or.jp",
    "pref": "滋賀県",
    "city": "守山市",
    "category": "home_help",
    "serviceType": "訪問介護",
    "capacity": 6,
    "openDays": [
      "平日",
      "土曜日",
      "祝日"
    ],
    "openDaysNote": "年末年始休業有"
  },
  {
    "id": "2570700688",
    "name": "ゆうらいふヘルパーステーション",
    "kana": "ユウライフヘルパーステーション",
    "address": "守山市石田町735-3",
    "lat": 35.0749039089554,
    "lng": 135.972591873566,
    "tel": "077-518-6335",
    "url": "http://www.youIife.ne.jp",
    "pref": "滋賀県",
    "city": "守山市",
    "category": "home_help",
    "serviceType": "訪問介護",
    "capacity": 0,
    "openDays": [
      "平日",
      "土曜日",
      "日曜日",
      "祝日"
    ],
    "openDaysNote": ""
  },
  {
    "id": "2570700373",
    "name": "ライフサポート「ナナ」訪問介護事業所",
    "kana": "ライフサポート「ナナ」ホウモンカイゴジギョウショ",
    "address": "滋賀県守山市今浜町2532-5",
    "lat": 35.118364287906,
    "lng": 135.946495227617,
    "tel": "077-584-2800",
    "url": "",
    "pref": "滋賀県",
    "city": "守山市",
    "category": "home_help",
    "serviceType": "訪問介護",
    "capacity": 10,
    "openDays": [
      "平日",
      "土曜日",
      "日曜日",
      "祝日"
    ],
    "openDaysNote": "土・日・祝日・年末年始・夜間・深夜・早朝は調整あり（改行）依頼に対し人員調整後にサービスを開始する。"
  },
  {
    "id": "2570700068",
    "name": "社会福祉法人守山市社会福祉協議会訪問介護事業所",
    "kana": "シャカイフクシホウジンモリヤマシシャカイフクシキョウギカイホウモンカイゴジギョウショ",
    "address": "滋賀県守山市石田町422番地社協石田ケアセンター 社協石田ケアセンター",
    "lat": 35.0693745,
    "lng": 135.979028,
    "tel": "077-585-8839",
    "url": "http://www.moriyama-shakyo.or.jp/",
    "pref": "滋賀県",
    "city": "守山市",
    "category": "home_help",
    "serviceType": "訪問介護",
    "capacity": 0,
    "openDays": [
      "平日",
      "土曜日",
      "日曜日",
      "祝日"
    ],
    "openDaysNote": "予防訪問介護は8:30~17:15（改行）時間外は携帯電話での連絡は可能"
  },
  {
    "id": "2570700407",
    "name": "訪問介護フィットケア守山",
    "kana": "ホウモンカイゴフィットケアモリヤマ",
    "address": "守山市水保町1390-4",
    "lat": 35.1152322,
    "lng": 135.9444684,
    "tel": "077-584-3623",
    "url": "",
    "pref": "滋賀県",
    "city": "守山市",
    "category": "home_help",
    "serviceType": "訪問介護",
    "capacity": 60,
    "openDays": [],
    "openDaysNote": "サービス提供は24時間提供可能とする"
  },
  {
    "id": "2570700332",
    "name": "有限会社ゆうすげ介護指定訪問介護事業所",
    "kana": "ユウゲンガイシャユウスゲカイゴシテイホウモンカイゴジギョウショ",
    "address": "滋賀県守山市下之郷1丁目2番32-301号 32-301号",
    "lat": 35.0636982456231,
    "lng": 135.995643171828,
    "tel": "077-583-2700",
    "url": "http://www.yuusuge.co.jp/",
    "pref": "滋賀県",
    "city": "守山市",
    "category": "home_help",
    "serviceType": "訪問介護",
    "capacity": 0,
    "openDays": [
      "平日",
      "土曜日",
      "日曜日",
      "祝日"
    ],
    "openDaysNote": "ご希望により24時間365日、可能な限りの体制を取っている（一度ご相談下さい）"
  },
  {
    "id": "2570600276",
    "name": "あいサポートセンター",
    "kana": "アイサポートセンター",
    "address": "草津市新浜町８－５",
    "lat": 34.9987964,
    "lng": 135.9278086,
    "tel": "077-564-0294",
    "url": "http://www2.plala.or.jp/ai-support/",
    "pref": "滋賀県",
    "city": "草津市",
    "category": "home_help",
    "serviceType": "訪問介護",
    "capacity": 0,
    "openDays": [
      "平日"
    ],
    "openDaysNote": "上記以外の時間帯(早朝、夜間、深夜)・曜日については要相談"
  },
  {
    "id": "2570600193",
    "name": "あやは訪問介護事業所　草津",
    "kana": "アヤハホウモンカイゴジギョウショ　クサツ",
    "address": "草津市西渋川1丁目17-25　綾羽企業年金基金会館内",
    "lat": 35.026927,
    "lng": 135.962735,
    "tel": "077-566-6230",
    "url": "http://www.ayaha.co.jp/care/",
    "pref": "滋賀県",
    "city": "草津市",
    "category": "home_help",
    "serviceType": "訪問介護",
    "capacity": 50,
    "openDays": [
      "平日",
      "土曜日",
      "祝日"
    ],
    "openDaysNote": ""
  },
  {
    "id": "2570601522",
    "name": "イリーゼ草津訪問介護センター",
    "kana": "イリーゼクサツホウモンカイゴセンター",
    "address": "滋賀県草津市野村6丁目17番36号イリーゼ草津 イリーゼ草津",
    "lat": 35.0293011,
    "lng": 135.9531083,
    "tel": "077-561-5282",
    "url": "http://www.hitowa.com/care-service/",
    "pref": "滋賀県",
    "city": "草津市",
    "category": "home_help",
    "serviceType": "訪問介護",
    "capacity": 75,
    "openDays": [
      "平日",
      "土曜日",
      "日曜日",
      "祝日"
    ],
    "openDaysNote": ""
  },
  {
    "id": "2570601845",
    "name": "エール訪問介護事業所",
    "kana": "エールホウモンカイゴジギョウショ",
    "address": "上笠二丁目24-1",
    "lat": 35.0303848,
    "lng": 135.9462675,
    "tel": "077-565-4348",
    "url": "",
    "pref": "滋賀県",
    "city": "草津市",
    "category": "home_help",
    "serviceType": "訪問介護",
    "capacity": 0,
    "openDays": [
      "平日",
      "土曜日",
      "日曜日",
      "祝日"
    ],
    "openDaysNote": "上記時間以外も相談に応じさせていただきます"
  },
  {
    "id": "2570601951",
    "name": "おたすけ家てんてん訪問介護事業所",
    "kana": "オタスケヤテンテンホウモンカイゴジギョウショ",
    "address": "滋賀県草津市片岡町559番地１",
    "lat": 35.0560898,
    "lng": 135.9445949,
    "tel": "077-584-5021",
    "url": "",
    "pref": "滋賀県",
    "city": "草津市",
    "category": "home_help",
    "serviceType": "訪問介護",
    "capacity": null,
    "openDays": [
      "平日"
    ],
    "openDaysNote": ""
  },
  {
    "id": "2570600011",
    "name": "オフィス豆の木　訪問介護事務所",
    "kana": "オフィスマメノキホウモンカイゴジムショ",
    "address": "滋賀県草津市大路1丁目7-1リーデンスタワー草津3103 リーデンスタワー草津3103",
    "lat": 35.0200998,
    "lng": 135.9617467,
    "tel": "077-567-2115",
    "url": "",
    "pref": "滋賀県",
    "city": "草津市",
    "category": "home_help",
    "serviceType": "訪問介護",
    "capacity": 0,
    "openDays": [
      "平日",
      "土曜日",
      "日曜日",
      "祝日"
    ],
    "openDaysNote": ""
  },
  {
    "id": "2570601852",
    "name": "ケア21草津",
    "kana": "ケアニジュウイチクサツ",
    "address": "滋賀県草津市平井1丁目7-1平井テナント 平井テナント",
    "lat": 35.0293068,
    "lng": 135.9611979,
    "tel": "077-562-2121",
    "url": "",
    "pref": "滋賀県",
    "city": "草津市",
    "category": "home_help",
    "serviceType": "訪問介護",
    "capacity": 0,
    "openDays": [
      "平日",
      "土曜日",
      "日曜日",
      "祝日"
    ],
    "openDaysNote": ""
  },
  {
    "id": "2570601928",
    "name": "ケアステーションつみき",
    "kana": "ケアステーションツミキ",
    "address": "滋賀県草津市大路一丁目4-12大丸ソイビル302号 大丸ソイビル302号",
    "lat": 35.0194549,
    "lng": 135.9611747,
    "tel": "077-516-4833",
    "url": "https://tsumiki0808.com",
    "pref": "滋賀県",
    "city": "草津市",
    "category": "home_help",
    "serviceType": "訪問介護",
    "capacity": null,
    "openDays": [
      "平日",
      "土曜日",
      "祝日"
    ],
    "openDaysNote": "早朝・夜間及び定休日におけるサービス提供は要相談。"
  },
  {
    "id": "2570600714",
    "name": "タンポポ訪問サービス",
    "kana": "タンポポホウモンサービス",
    "address": "追分町6丁目18-23",
    "lat": 35.5197488,
    "lng": 139.7150559,
    "tel": "077-562-9788",
    "url": "",
    "pref": "滋賀県",
    "city": "草津市",
    "category": "home_help",
    "serviceType": "訪問介護",
    "capacity": 0,
    "openDays": [
      "平日",
      "土曜日",
      "日曜日",
      "祝日"
    ],
    "openDaysNote": ""
  },
  {
    "id": "2570601746",
    "name": "ツクイ草津",
    "kana": "ツクイクサツ",
    "address": "滋賀県草津市岡本町1371-7フレール西鴻池205号 フレール西鴻池205号",
    "lat": 34.9906593,
    "lng": 135.9713261,
    "tel": "077-516-2552",
    "url": "https://www.tsukui.net/home-care/2745/",
    "pref": "滋賀県",
    "city": "草津市",
    "category": "home_help",
    "serviceType": "訪問介護",
    "capacity": 0,
    "openDays": [
      "平日",
      "土曜日",
      "日曜日",
      "祝日"
    ],
    "openDaysNote": "受け入れはヘルパーの空き状況次第となります。"
  },
  {
    "id": "2570600508",
    "name": "ニチイケアセンター草津",
    "kana": "ニチイケアセンタークサツ",
    "address": "滋賀県草津市矢倉1丁目2-19-15",
    "lat": 35.0109371,
    "lng": 135.9547587,
    "tel": "077-569-4971",
    "url": "http://www.nichiigakkann.co.jp",
    "pref": "滋賀県",
    "city": "草津市",
    "category": "home_help",
    "serviceType": "訪問介護",
    "capacity": 0,
    "openDays": [
      "平日",
      "土曜日",
      "日曜日",
      "祝日"
    ],
    "openDaysNote": "営業時間以外でもサービス提供あり"
  },
  {
    "id": "2570601720",
    "name": "はぴねすさぽーと滋賀支店",
    "kana": "ハピネスサポートシガシテン",
    "address": "草津市平井２丁目９－１１EspoirTakaya305 EspoirTakaya305",
    "lat": 35.0331171,
    "lng": 135.9576876,
    "tel": "077-563-0125",
    "url": "WWW.REGAROA.NET",
    "pref": "滋賀県",
    "city": "草津市",
    "category": "home_help",
    "serviceType": "訪問介護",
    "capacity": null,
    "openDays": [
      "平日",
      "土曜日",
      "日曜日",
      "祝日"
    ],
    "openDaysNote": ""
  },
  {
    "id": "2570601761",
    "name": "ヘルパーステーション　くじら",
    "kana": "ヘルパーステーション　クジラ",
    "address": "木川町922-50 922-50",
    "lat": 35.0222510337403,
    "lng": 135.9521051961,
    "tel": "077-566-2002",
    "url": "",
    "pref": "滋賀県",
    "city": "草津市",
    "category": "home_help",
    "serviceType": "訪問介護",
    "capacity": 0,
    "openDays": [
      "平日",
      "土曜日",
      "日曜日",
      "祝日"
    ],
    "openDaysNote": "8/13～8/16・12/29～1/4を除く"
  },
  {
    "id": "2570600441",
    "name": "ヘルパーステーション　よつば",
    "kana": "ヘルパーステーション　ヨツバ",
    "address": "滋賀県草津市矢橋町621",
    "lat": 35.0031347,
    "lng": 135.9270253,
    "tel": "077-562-1048",
    "url": "http://www.yotsuba-lcn.or.jp/",
    "pref": "滋賀県",
    "city": "草津市",
    "category": "home_help",
    "serviceType": "訪問介護",
    "capacity": 0,
    "openDays": [
      "平日",
      "土曜日",
      "日曜日",
      "祝日"
    ],
    "openDaysNote": ""
  },
  {
    "id": "2570601860",
    "name": "ヘルパーステーションCOCOそら",
    "kana": "ヘルパーステーションココソラ",
    "address": "滋賀県草津市野路8-15-8クラージュ21　101号 クラージュ21　101号",
    "lat": 35.0097978,
    "lng": 135.934115,
    "tel": "077⁻516⁻4537",
    "url": "",
    "pref": "滋賀県",
    "city": "草津市",
    "category": "home_help",
    "serviceType": "訪問介護",
    "capacity": 0,
    "openDays": [
      "平日",
      "土曜日",
      "祝日"
    ],
    "openDaysNote": "定休日及び年末年始のサービスは必要に応じてご相談に応じます。"
  },
  {
    "id": "2570601878",
    "name": "ヘルパーステーションアイズ",
    "kana": "ヘルパーステーションアイズ",
    "address": "草津市追分4丁目11-37",
    "lat": 35.0046621,
    "lng": 135.9615465,
    "tel": "077-599-1821",
    "url": "https://iz-life.com/",
    "pref": "滋賀県",
    "city": "草津市",
    "category": "home_help",
    "serviceType": "訪問介護",
    "capacity": 40,
    "openDays": [
      "平日",
      "土曜日",
      "日曜日",
      "祝日"
    ],
    "openDaysNote": ""
  },
  {
    "id": "2570601514",
    "name": "ヘルパーステーションここあ草津",
    "kana": "ヘルパーステーションココアクサツ",
    "address": "滋賀県草津市大路1丁目4-25",
    "lat": 35.0189551219198,
    "lng": 135.960955942328,
    "tel": "077-567-7021",
    "url": "http://kokoa.jp/service/kusatsu/",
    "pref": "滋賀県",
    "city": "草津市",
    "category": "home_help",
    "serviceType": "訪問介護",
    "capacity": 0,
    "openDays": [
      "平日",
      "土曜日",
      "日曜日",
      "祝日"
    ],
    "openDaysNote": ""
  },
  {
    "id": "2570601910",
    "name": "ヘルパーステーション彩",
    "kana": "ヘルパーステーション　サイ",
    "address": "滋賀県草津市平井２丁目８番１５号　２階",
    "lat": 35.0331759,
    "lng": 135.9581224,
    "tel": "077-584-4097",
    "url": "",
    "pref": "滋賀県",
    "city": "草津市",
    "category": "home_help",
    "serviceType": "訪問介護",
    "capacity": 0,
    "openDays": [
      "平日"
    ],
    "openDaysNote": ""
  },
  {
    "id": "2570600177",
    "name": "ムラセ介護サービス事業所",
    "kana": "ムラセカイゴサービスジギョウショ",
    "address": "滋賀県草津市野路１丁目１４番３８－２０１号",
    "lat": 35.0036103,
    "lng": 135.9479401,
    "tel": "077-566-7866",
    "url": "https://murase-group.jp/",
    "pref": "滋賀県",
    "city": "草津市",
    "category": "home_help",
    "serviceType": "訪問介護",
    "capacity": null,
    "openDays": [
      "平日",
      "土曜日",
      "日曜日",
      "祝日"
    ],
    "openDaysNote": ""
  },
  {
    "id": "2570601571",
    "name": "ライフケア向日葵",
    "kana": "ライフケアヒマワリ",
    "address": "滋賀県草津市若竹町10ー41　丸十ビル4階",
    "lat": 35.0203969694571,
    "lng": 135.968616842238,
    "tel": "077－518－8881",
    "url": "",
    "pref": "滋賀県",
    "city": "草津市",
    "category": "home_help",
    "serviceType": "訪問介護",
    "capacity": 0,
    "openDays": [
      "平日",
      "土曜日",
      "日曜日"
    ],
    "openDaysNote": "上記時間外でも必要なら、要相談。"
  },
  {
    "id": "2570601423",
    "name": "ライフパートナー",
    "kana": "ライフパートナー",
    "address": "滋賀県草津市若竹町7-10　Act213FAct213F Act213F",
    "lat": 35.0221135000001,
    "lng": 135.9682294,
    "tel": "077-561-2211",
    "url": "https://escarethegrand.jp/",
    "pref": "滋賀県",
    "city": "草津市",
    "category": "home_help",
    "serviceType": "訪問介護",
    "capacity": 0,
    "openDays": [
      "平日"
    ],
    "openDaysNote": "上記の営業日、営業時間、サービス提供時間のほか、電話等により２４時間常時連絡が可能な体制とする。"
  },
  {
    "id": "2570601886",
    "name": "リーガルヘルスケア南草津",
    "kana": "リーガルヘルスケアミナミクサツ",
    "address": "野路5丁目20－25リーガテラス南草津 リーガテラス南草津",
    "lat": 34.9986361,
    "lng": 135.9484131,
    "tel": "077ー561ー3428",
    "url": "",
    "pref": "滋賀県",
    "city": "草津市",
    "category": "home_help",
    "serviceType": "訪問介護",
    "capacity": null,
    "openDays": [
      "平日"
    ],
    "openDaysNote": ""
  },
  {
    "id": "2570602017",
    "name": "医心館訪問介護ステーション南草津",
    "kana": "イシンカンホウモンカイゴステーションミナミクサツ",
    "address": "滋賀県草津市追分南二丁目3番17号",
    "lat": 34.9950067,
    "lng": 135.964614,
    "tel": "077-516-6120",
    "url": "",
    "pref": "滋賀県",
    "city": "草津市",
    "category": "home_help",
    "serviceType": "訪問介護",
    "capacity": 0,
    "openDays": [
      "平日",
      "土曜日",
      "日曜日",
      "祝日"
    ],
    "openDaysNote": "24時間対応"
  },
  {
    "id": "2550680017",
    "name": "社会医療法人草津ケアセンター訪問介護ステーション",
    "kana": "シャカイイリョウホウジンクサツケアセンターホウモンカイゴステーション",
    "address": "滋賀県草津市野村2-13-13",
    "lat": 35.0253266,
    "lng": 135.9533251,
    "tel": "077-567-5300",
    "url": "https://www.seikoukai-sc.or.jp/care_center/facility/visit-nursing",
    "pref": "滋賀県",
    "city": "草津市",
    "category": "home_help",
    "serviceType": "訪問介護",
    "capacity": 0,
    "openDays": [
      "平日",
      "土曜日",
      "日曜日",
      "祝日"
    ],
    "openDaysNote": "電話などにより　24時間常時連絡が可能な体制とする"
  },
  {
    "id": "2570600748",
    "name": "菖蒲の郷訪問介護センター",
    "kana": "ショウブノサトホウモンカイゴセンター",
    "address": "滋賀県草津市追分南5丁目18番8号",
    "lat": 34.9925091,
    "lng": 135.9676496,
    "tel": "077-566-5373",
    "url": "http://shoubunosato.jp",
    "pref": "滋賀県",
    "city": "草津市",
    "category": "home_help",
    "serviceType": "訪問介護",
    "capacity": 0,
    "openDays": [
      "平日",
      "土曜日",
      "日曜日",
      "祝日"
    ],
    "openDaysNote": ""
  },
  {
    "id": "2570601688",
    "name": "訪問介護アザレアK.C",
    "kana": "ホウモンカイゴアザレアケイシイ",
    "address": "滋賀県草津市東矢倉3丁目34ー48",
    "lat": 35.0008575,
    "lng": 135.9575962,
    "tel": "077-585-9499",
    "url": "http://azaleakc.jimdo.com/",
    "pref": "滋賀県",
    "city": "草津市",
    "category": "home_help",
    "serviceType": "訪問介護",
    "capacity": 40,
    "openDays": [
      "平日",
      "土曜日",
      "日曜日",
      "祝日"
    ],
    "openDaysNote": ""
  },
  {
    "id": "2570601241",
    "name": "訪問介護かえで",
    "kana": "ホウモンカイゴカエデ",
    "address": "追分南1-7-3",
    "lat": 35.0000276,
    "lng": 135.9612056,
    "tel": "077-566-0011",
    "url": "https://maple-kohu.com",
    "pref": "滋賀県",
    "city": "草津市",
    "category": "home_help",
    "serviceType": "訪問介護",
    "capacity": 0,
    "openDays": [
      "平日",
      "土曜日",
      "日曜日",
      "祝日"
    ],
    "openDaysNote": "訪問介護の夜勤があるので、基本24時間体制である。"
  },
  {
    "id": "2570601357",
    "name": "訪問介護ステーション　ティエールみなみ草津",
    "kana": "ホウモンカイゴステーション　ティエールミナミクサツ",
    "address": "滋賀県草津市東矢倉二丁目２番３３号",
    "lat": 35.0073988,
    "lng": 135.9567725,
    "tel": "077-564-8877",
    "url": "",
    "pref": "滋賀県",
    "city": "草津市",
    "category": "home_help",
    "serviceType": "訪問介護",
    "capacity": 0,
    "openDays": [
      "平日",
      "土曜日",
      "日曜日",
      "祝日"
    ],
    "openDaysNote": "ただし、電話などにより常時２４時間連絡が可能な体制とする。"
  },
  {
    "id": "2570601449",
    "name": "訪問介護センターなでしこ草津",
    "kana": "ホウモンカイゴセンターナデシコクサツ",
    "address": "草津市西渋川2丁目９－４８－１１",
    "lat": 35.0295262,
    "lng": 135.9638962,
    "tel": "077-516-0387",
    "url": "http:/www.saiseikai-shiga.jp/tankaiso/",
    "pref": "滋賀県",
    "city": "草津市",
    "category": "home_help",
    "serviceType": "訪問介護",
    "capacity": 0,
    "openDays": [
      "平日",
      "土曜日",
      "日曜日",
      "祝日"
    ],
    "openDaysNote": ""
  },
  {
    "id": "2570601993",
    "name": "訪問介護フィットケア南草津",
    "kana": "ホウモンカイゴフィットケアミナミクサツ",
    "address": "南笠東1丁目16-24",
    "lat": 34.9929908,
    "lng": 135.9457937,
    "tel": "077-566-5167",
    "url": "",
    "pref": "滋賀県",
    "city": "草津市",
    "category": "home_help",
    "serviceType": "訪問介護",
    "capacity": null,
    "openDays": [
      "平日",
      "土曜日",
      "日曜日",
      "祝日"
    ],
    "openDaysNote": "サービス提供は24時間提供可能とする"
  },
  {
    "id": "2570601662",
    "name": "訪問介護事業所　よかよか",
    "kana": "ホウモンカイゴジギョウショ　ヨカヨカ",
    "address": "滋賀県草津市駒井沢町375-33",
    "lat": 35.0430397,
    "lng": 135.9593609,
    "tel": "077-568-0890",
    "url": "yokayoka0703@gmail.com",
    "pref": "滋賀県",
    "city": "草津市",
    "category": "home_help",
    "serviceType": "訪問介護",
    "capacity": 0,
    "openDays": [
      "平日",
      "土曜日",
      "日曜日",
      "祝日"
    ],
    "openDaysNote": "年中無休、24時間"
  },
  {
    "id": "2570601977",
    "name": "訪問介護事業所Mats",
    "kana": "ホウモンカイゴジギョウショ　マッツ",
    "address": "滋賀県草津市南草津5丁目4-7KNKレジデンス南草津203 KNKレジデンス南草津203",
    "lat": 35.0047103,
    "lng": 135.939383,
    "tel": "077-574-8824",
    "url": "",
    "pref": "滋賀県",
    "city": "草津市",
    "category": "home_help",
    "serviceType": "訪問介護",
    "capacity": null,
    "openDays": [
      "平日"
    ],
    "openDaysNote": ""
  },
  {
    "id": "2570601381",
    "name": "訪問介護事業所るぴな",
    "kana": "ホウモンカイゴジギョウショルピナ",
    "address": "滋賀県草津市東矢倉2丁目9-141F",
    "lat": 35.0039099905268,
    "lng": 135.95299692003,
    "tel": "077ｰ569-0531",
    "url": "https://dst48.jp/",
    "pref": "滋賀県",
    "city": "草津市",
    "category": "home_help",
    "serviceType": "訪問介護",
    "capacity": 150,
    "openDays": [
      "平日",
      "土曜日",
      "日曜日",
      "祝日"
    ],
    "openDaysNote": "22：00～翌6：00の時間帯は応相談。"
  },
  {
    "id": "2570600607",
    "name": "有限会社ヒューマンケアあゆみ",
    "kana": "ユウゲンガイシャヒューマンケアアユミ",
    "address": "滋賀県草津市野路町467-1ウイング21　202号室 ウイング21　202号室",
    "lat": 35.0070014,
    "lng": 135.9392709,
    "tel": "077-564-5588",
    "url": "human-care-ayumi.com",
    "pref": "滋賀県",
    "city": "草津市",
    "category": "home_help",
    "serviceType": "訪問介護",
    "capacity": 0,
    "openDays": [
      "平日",
      "土曜日",
      "日曜日",
      "祝日"
    ],
    "openDaysNote": "介護の内容により多少の時間は、前後応じます。ご相談下さい。"
  },
  {
    "id": "2570600359",
    "name": "労協センター事業団草津地域福祉事業所ヘルパーステーションみんなの家",
    "kana": "ロウキョウセンタージギョウダンクサツチイキフクシジギョウショヘルパーステーションミンナノイエ",
    "address": "草津市東草津1-2-35",
    "lat": 35.0153276,
    "lng": 135.9679421,
    "tel": "077-567-5579",
    "url": "http://minnanoie.roukyou.gr.jp/",
    "pref": "滋賀県",
    "city": "草津市",
    "category": "home_help",
    "serviceType": "訪問介護",
    "capacity": 0,
    "openDays": [
      "平日",
      "土曜日",
      "日曜日",
      "祝日"
    ],
    "openDaysNote": "8月14日～16日・12月29日～1月3日は休日"
  },
  {
    "id": "2570102372",
    "name": "NPO法人　花みずき　ヘルパーステーション花",
    "kana": "エヌピオホウジンハナミズキ　ヘルパーステーションハナ",
    "address": "大津市松が丘５丁目１３－５",
    "lat": 34.9732754,
    "lng": 135.9639486,
    "tel": "077-549-8060",
    "url": "",
    "pref": "滋賀県",
    "city": "大津市",
    "category": "home_help",
    "serviceType": "訪問介護",
    "capacity": null,
    "openDays": [
      "平日",
      "土曜日",
      "日曜日",
      "祝日"
    ],
    "openDaysNote": "上記以外の時間については相談に応じます"
  },
  {
    "id": "2570103057",
    "name": "アークケアステーション",
    "kana": "アークケアステーション",
    "address": "大津市神領２丁目３７－２６",
    "lat": 34.9713965,
    "lng": 135.915821,
    "tel": "077-544-3236",
    "url": "",
    "pref": "滋賀県",
    "city": "大津市",
    "category": "home_help",
    "serviceType": "訪問介護",
    "capacity": 0,
    "openDays": [
      "平日",
      "土曜日",
      "日曜日",
      "祝日"
    ],
    "openDaysNote": "ご希望に応じ相談可能"
  },
  {
    "id": "2570105490",
    "name": "アークス・ホームヘルプサービス",
    "kana": "アークスホームヘルプサービス",
    "address": "滋賀県大津市高砂町2-19ウェルドミール高砂A101 ウェルドミール高砂A101",
    "lat": 35.0398945,
    "lng": 135.8578488,
    "tel": "077-528-2265",
    "url": "",
    "pref": "滋賀県",
    "city": "大津市",
    "category": "home_help",
    "serviceType": "訪問介護",
    "capacity": 0,
    "openDays": [
      "平日",
      "土曜日",
      "日曜日",
      "祝日"
    ],
    "openDaysNote": ""
  },
  {
    "id": "2570102562",
    "name": "アーネストケアサービス",
    "kana": "アーネストケアサービス",
    "address": "松が丘7丁目12-1",
    "lat": 34.970384511108,
    "lng": 135.962062169516,
    "tel": "077-548-8203",
    "url": "",
    "pref": "滋賀県",
    "city": "大津市",
    "category": "home_help",
    "serviceType": "訪問介護",
    "capacity": 0,
    "openDays": [
      "平日",
      "土曜日",
      "日曜日",
      "祝日"
    ],
    "openDaysNote": "訪問時間はご相談に応じます"
  },
  {
    "id": "2570100566",
    "name": "あい・ネット訪問介護事業所",
    "kana": "アイネットホウモンカイゴジギョウショ",
    "address": "滋賀県大津市秋葉台７番２号",
    "lat": 34.9905573,
    "lng": 135.8859328,
    "tel": "077-511-3480",
    "url": "https://www.ainet-otsu.com/",
    "pref": "滋賀県",
    "city": "大津市",
    "category": "home_help",
    "serviceType": "訪問介護",
    "capacity": 0,
    "openDays": [
      "平日",
      "土曜日",
      "日曜日",
      "祝日"
    ],
    "openDaysNote": ""
  },
  {
    "id": "2570102703",
    "name": "あいサポートおおつ",
    "kana": "アイサポートオオツ",
    "address": "月輪三丁目29番4号",
    "lat": 34.9837319,
    "lng": 135.9407769,
    "tel": "077-575-3612",
    "url": "https://www.love-smile-happiness.co.jp/",
    "pref": "滋賀県",
    "city": "大津市",
    "category": "home_help",
    "serviceType": "訪問介護",
    "capacity": 0,
    "openDays": [
      "平日"
    ],
    "openDaysNote": "営業日及び営業時間以外も相談に応じる。"
  },
  {
    "id": "2570100830",
    "name": "あかねはうす",
    "kana": "アカネハウス",
    "address": "大津市唐崎1丁目30番10号",
    "lat": 35.0477828650738,
    "lng": 135.869580207571,
    "tel": "077-526-5501",
    "url": "http://www.akanehouse.com/",
    "pref": "滋賀県",
    "city": "大津市",
    "category": "home_help",
    "serviceType": "訪問介護",
    "capacity": 70,
    "openDays": [
      "平日",
      "土曜日",
      "日曜日",
      "祝日"
    ],
    "openDaysNote": "上記以外、相談に応じます。"
  },
  {
    "id": "2570106142",
    "name": "アトリエパンダヘルパーステーション",
    "kana": "アトリエパンダヘルパーステーション",
    "address": "滋賀県大津市大石東６丁目７番４５号",
    "lat": 34.9135911,
    "lng": 135.9168941,
    "tel": "077-526-7127",
    "url": "https://www.biwako-panda.com/",
    "pref": "滋賀県",
    "city": "大津市",
    "category": "home_help",
    "serviceType": "訪問介護",
    "capacity": 30,
    "openDays": [
      "平日"
    ],
    "openDaysNote": "※上記時間以外のサービスについては要相談ください。"
  },
  {
    "id": "2570105755",
    "name": "あんじぇす瀬田",
    "kana": "アンジェスセタ",
    "address": "大江2丁目3-1",
    "lat": 34.9801576,
    "lng": 135.9108489,
    "tel": "077-544-7777",
    "url": "https//www.t-s-i.jp/anges/seta/index.html",
    "pref": "滋賀県",
    "city": "大津市",
    "category": "home_help",
    "serviceType": "訪問介護",
    "capacity": 32,
    "openDays": [
      "平日"
    ],
    "openDaysNote": ""
  },
  {
    "id": "2570101937",
    "name": "うららホームヘルパーステーション",
    "kana": "ウララホームヘルパーステーション",
    "address": "大津市木下町7-39",
    "lat": 34.9986026104169,
    "lng": 135.891255487982,
    "tel": "077-525-7245",
    "url": "https://urara-kaigo.com",
    "pref": "滋賀県",
    "city": "大津市",
    "category": "home_help",
    "serviceType": "訪問介護",
    "capacity": 120,
    "openDays": [
      "平日",
      "土曜日",
      "日曜日",
      "祝日"
    ],
    "openDaysNote": "なし"
  },
  {
    "id": "2570106464",
    "name": "おまめ訪問介護ステーション",
    "kana": "オマメホウモンカイゴステーション",
    "address": "滋賀県大津市下阪本2-22-38-201",
    "lat": 35.058665,
    "lng": 135.8732536,
    "tel": "077-511-9305",
    "url": "",
    "pref": "滋賀県",
    "city": "大津市",
    "category": "home_help",
    "serviceType": "訪問介護",
    "capacity": null,
    "openDays": [
      "平日",
      "土曜日",
      "日曜日",
      "祝日"
    ],
    "openDaysNote": ""
  },
  {
    "id": "2570106415",
    "name": "オレンジケア",
    "kana": "オレンジケア",
    "address": "滋賀県大津市長等3丁目３番16号",
    "lat": 35.0106533,
    "lng": 135.8593978,
    "tel": "077-572-8937",
    "url": "",
    "pref": "滋賀県",
    "city": "大津市",
    "category": "home_help",
    "serviceType": "訪問介護",
    "capacity": 0,
    "openDays": [
      "平日",
      "土曜日",
      "日曜日",
      "祝日"
    ],
    "openDaysNote": "居宅サービス計画により、休業日及び営業時間外であってもサービス提供をする場合があります。"
  },
  {
    "id": "2570105532",
    "name": "かたた訪問介護ステーション",
    "kana": "カタタホウモンカイゴステーション",
    "address": "滋賀県大津市本堅田6丁目16-8かすがやま翔裕館Ⅰ号館 かすがやま翔裕館Ⅰ号館",
    "lat": 35.1178869,
    "lng": 135.9097625,
    "tel": "077-571-2510",
    "url": "",
    "pref": "滋賀県",
    "city": "大津市",
    "category": "home_help",
    "serviceType": "訪問介護",
    "capacity": 0,
    "openDays": [
      "平日",
      "土曜日",
      "日曜日",
      "祝日"
    ],
    "openDaysNote": "早朝、夜間、利用可能"
  },
  {
    "id": "2570105219",
    "name": "グランユニライフホームヘルパーステーション大津大将軍",
    "kana": "グランユニライフホームヘルパーステーションオオツタイショウグン",
    "address": "大津市大将軍3丁目19番5号",
    "lat": 34.9915038684713,
    "lng": 135.927608891402,
    "tel": "077-501-3686",
    "url": "gm⁻otsutaishogun⁻hc＠cocofump.co.jp",
    "pref": "滋賀県",
    "city": "大津市",
    "category": "home_help",
    "serviceType": "訪問介護",
    "capacity": 0,
    "openDays": [
      "平日",
      "土曜日",
      "日曜日",
      "祝日"
    ],
    "openDaysNote": "特になし"
  },
  {
    "id": "2570106159",
    "name": "ケア・サポートミモザ",
    "kana": "ケア・サポートミモザ",
    "address": "本堅田3丁目14番3号エステート堅田305号 エステート堅田305号",
    "lat": 35.1161697119737,
    "lng": 135.915725880357,
    "tel": "077-574-7853",
    "url": "",
    "pref": "滋賀県",
    "city": "大津市",
    "category": "home_help",
    "serviceType": "訪問介護",
    "capacity": 0,
    "openDays": [
      "平日",
      "土曜日",
      "日曜日"
    ],
    "openDaysNote": "※上記以外でも個別相談にてサービス提供する場合があります。"
  },
  {
    "id": "2570106084",
    "name": "ケア２１瀬田",
    "kana": "ケアニジュウイチセタ",
    "address": "滋賀県大津市大萱１丁目17-14松政ビル2-A 松政ビル2-A",
    "lat": 34.9869735,
    "lng": 135.9266381,
    "tel": "077-544-3021",
    "url": "",
    "pref": "滋賀県",
    "city": "大津市",
    "category": "home_help",
    "serviceType": "訪問介護",
    "capacity": 0,
    "openDays": [
      "平日",
      "土曜日",
      "日曜日",
      "祝日"
    ],
    "openDaysNote": ""
  },
  {
    "id": "2570105896",
    "name": "ケア21大津",
    "kana": "ケアニジュウイチオオツ",
    "address": "滋賀県大津市梅林2丁目3-16松風ビル1階 松風ビル1階",
    "lat": 35.0024269,
    "lng": 135.868287,
    "tel": "077-525-0521",
    "url": "",
    "pref": "滋賀県",
    "city": "大津市",
    "category": "home_help",
    "serviceType": "訪問介護",
    "capacity": 65,
    "openDays": [
      "平日",
      "土曜日",
      "日曜日",
      "祝日"
    ],
    "openDaysNote": "ヘルパーの派遣状況により相談"
  },
  {
    "id": "2570106480",
    "name": "ケア２１比叡山坂本",
    "kana": "ケアニジュウイチヒエイザンサカモト",
    "address": "滋賀県大津市比叡辻１－９－３比叡辻①テナントＡ号 比叡辻①テナントＡ号",
    "lat": 35.0706389,
    "lng": 135.8861121,
    "tel": "077-579-3021",
    "url": "",
    "pref": "滋賀県",
    "city": "大津市",
    "category": "home_help",
    "serviceType": "訪問介護",
    "capacity": 0,
    "openDays": [
      "平日"
    ],
    "openDaysNote": ""
  },
  {
    "id": "2570102463",
    "name": "ケアサポート　ソシア",
    "kana": "ケアサポート　ソシア",
    "address": "滋賀県大津市茶戸町18番10号",
    "lat": 34.994581,
    "lng": 135.8314314,
    "tel": "077-525-6822",
    "url": "http://caresupport-sosia.jimdo.com/",
    "pref": "滋賀県",
    "city": "大津市",
    "category": "home_help",
    "serviceType": "訪問介護",
    "capacity": 0,
    "openDays": [
      "平日",
      "祝日"
    ],
    "openDaysNote": "ただし、上記時間外でも必要に応じ、サービスの提供および電話等による連絡可能な体制とする。"
  },
  {
    "id": "2570103180",
    "name": "ケアサポート大海",
    "kana": "ケアサポートオウミ",
    "address": "滋賀県大津市皇子が丘2丁目10-13西大津ビル501号室 西大津ビル501号室",
    "lat": 35.0234839,
    "lng": 135.8573737,
    "tel": "077-524-0855",
    "url": "",
    "pref": "滋賀県",
    "city": "大津市",
    "category": "home_help",
    "serviceType": "訪問介護",
    "capacity": null,
    "openDays": [
      "平日",
      "土曜日",
      "日曜日",
      "祝日"
    ],
    "openDaysNote": "サービス提供は24時間対応。"
  },
  {
    "id": "2570105409",
    "name": "ケアステーション　そらいろ",
    "kana": "ケアステーション　ソライロ",
    "address": "滋賀県大津市におの浜3-4-40小堀マンション104 小堀マンション104",
    "lat": 35.0039237789444,
    "lng": 135.88489643497,
    "tel": "077-535-9190",
    "url": "https://carestation-sorairo.business.site/",
    "pref": "滋賀県",
    "city": "大津市",
    "category": "home_help",
    "serviceType": "訪問介護",
    "capacity": null,
    "openDays": [
      "平日",
      "土曜日",
      "日曜日",
      "祝日"
    ],
    "openDaysNote": "ただし、祝日・年末年始（12/31～1/3）を除く"
  },
  {
    "id": "2570104055",
    "name": "ケアステーションあんじぇす堅田",
    "kana": "ケアステーションアンジェスカタタ",
    "address": "滋賀県大津市今堅田1丁目10番7アンジェス堅田 アンジェス堅田",
    "lat": 35.1194694728624,
    "lng": 135.923081711115,
    "tel": "077-573-1777",
    "url": "http://www.tsi-ns.com/katata/",
    "pref": "滋賀県",
    "city": "大津市",
    "category": "home_help",
    "serviceType": "訪問介護",
    "capacity": 29,
    "openDays": [
      "平日",
      "土曜日",
      "日曜日",
      "祝日"
    ],
    "openDaysNote": ""
  },
  {
    "id": "2570104915",
    "name": "ケアステーションあんじぇす石山寺",
    "kana": "ケアステーションアンジェスイシヤマテラ",
    "address": "滋賀県大津市平津2丁目4番3号アンジェス石山寺 アンジェス石山寺",
    "lat": 34.9517646,
    "lng": 135.9039779,
    "tel": "077-533-7177",
    "url": "http://t-s-i.jp",
    "pref": "滋賀県",
    "city": "大津市",
    "category": "home_help",
    "serviceType": "訪問介護",
    "capacity": 0,
    "openDays": [
      "平日",
      "土曜日",
      "日曜日",
      "祝日"
    ],
    "openDaysNote": ""
  },
  {
    "id": "2570103495",
    "name": "ケアステーションえんじゅおごと",
    "kana": "ケアステーションアンジェスオゴト",
    "address": "苗鹿2丁目37番1号アンジェスおごと　事務室 アンジェスおごと　事務室",
    "lat": 35.0861348,
    "lng": 135.8921658,
    "tel": "077-526-5677",
    "url": "http://www.tsi-ns.com/anges/",
    "pref": "滋賀県",
    "city": "大津市",
    "category": "home_help",
    "serviceType": "訪問介護",
    "capacity": 28,
    "openDays": [],
    "openDaysNote": ""
  },
  {
    "id": "2570102653",
    "name": "ケアステーションゆめ",
    "kana": "ケアステーションユメ",
    "address": "大津市瀬田6丁目7-14",
    "lat": 34.9501979444125,
    "lng": 135.913389446127,
    "tel": "077-572-5532",
    "url": "",
    "pref": "滋賀県",
    "city": "大津市",
    "category": "home_help",
    "serviceType": "訪問介護",
    "capacity": 10,
    "openDays": [
      "平日",
      "土曜日",
      "日曜日",
      "祝日"
    ],
    "openDaysNote": "日曜日に働けるヘルパーが少ないので、要相談。（改行）年末年始（12月30日～1月3日）は、ヘルパーの稼働数が減るため、どうしても必要な方のみのご利用となります。"
  },
  {
    "id": "2570105086",
    "name": "ケアステーションリレア",
    "kana": "ケアステーションリレア",
    "address": "滋賀県大津市高砂町2番19号Ａ102 Ａ102",
    "lat": 35.0398945,
    "lng": 135.8578488,
    "tel": "077-525-3344",
    "url": "",
    "pref": "滋賀県",
    "city": "大津市",
    "category": "home_help",
    "serviceType": "訪問介護",
    "capacity": 0,
    "openDays": [
      "平日",
      "土曜日",
      "日曜日",
      "祝日"
    ],
    "openDaysNote": ""
  },
  {
    "id": "2570104261",
    "name": "ケアステーション琥珀",
    "kana": "ケアステーションコハク",
    "address": "栄町2-14-2F",
    "lat": 34.9765212861398,
    "lng": 135.900705567402,
    "tel": "077-537-8160",
    "url": "https://kaigo-kohaku.jimdo.com",
    "pref": "滋賀県",
    "city": "大津市",
    "category": "home_help",
    "serviceType": "訪問介護",
    "capacity": 0,
    "openDays": [
      "平日",
      "土曜日",
      "日曜日",
      "祝日"
    ],
    "openDaysNote": "基本9：00～18：00だが、やむを得ない環境の理由でサービスが必要な場合は可能な限り対応します。"
  },
  {
    "id": "2570100970",
    "name": "ケアタウンからさきヘルパーステーション",
    "kana": "ケアタウンカラサキヘルパーステーション",
    "address": "滋賀県大津市見世一丁目17番1号ケアタウンからさき ケアタウンからさき",
    "lat": 35.0406486,
    "lng": 135.8596313,
    "tel": "077-511-6222",
    "url": "http://www.kosei-f.jp/",
    "pref": "滋賀県",
    "city": "大津市",
    "category": "home_help",
    "serviceType": "訪問介護",
    "capacity": 0,
    "openDays": [
      "平日",
      "土曜日",
      "祝日"
    ],
    "openDaysNote": "限られた人員で、常勤1名以外は登録ヘルパーの為、対応できない曜日・時間帯があります。"
  },
  {
    "id": "2570104923",
    "name": "ケアフロンティア　大津ケアセンター",
    "kana": "ケアフロンティア　オオツケアセンター",
    "address": "滋賀県大津市松山町６番１号",
    "lat": 35.0271419,
    "lng": 135.8622037,
    "tel": "077-524-8626",
    "url": "http://carefrontier.co.jp/",
    "pref": "滋賀県",
    "city": "大津市",
    "category": "home_help",
    "serviceType": "訪問介護",
    "capacity": 100,
    "openDays": [
      "平日"
    ],
    "openDaysNote": ""
  },
  {
    "id": "2570105276",
    "name": "けいはんなヘルパーステーション瀬田",
    "kana": "ケイハンナヘルパーステーションセタ",
    "address": "滋賀県大津市大萱4丁目6-1トゥインクル瀬田 トゥインクル瀬田",
    "lat": 34.9862486,
    "lng": 135.9174885,
    "tel": "077-526-7377",
    "url": "khs91918.com",
    "pref": "滋賀県",
    "city": "大津市",
    "category": "home_help",
    "serviceType": "訪問介護",
    "capacity": null,
    "openDays": [
      "平日",
      "土曜日",
      "日曜日",
      "祝日"
    ],
    "openDaysNote": ""
  },
  {
    "id": "2570102331",
    "name": "こころケア・サポート",
    "kana": "ココロケア・サポート",
    "address": "大津市仰木の里東４－５",
    "lat": 35.1120495973214,
    "lng": 135.903625488281,
    "tel": "077-532-7798",
    "url": "kokorokea.my.canva.site",
    "pref": "滋賀県",
    "city": "大津市",
    "category": "home_help",
    "serviceType": "訪問介護",
    "capacity": 40,
    "openDays": [
      "平日",
      "土曜日",
      "祝日"
    ],
    "openDaysNote": ""
  },
  {
    "id": "2560190031",
    "name": "コスモスヘルパーステーション",
    "kana": "コスモスヘルパーステーション",
    "address": "大津市坂本6-6-31",
    "lat": 35.0746361,
    "lng": 135.8719903,
    "tel": "077-579-4061",
    "url": "https://www.shigahokenkai.jp",
    "pref": "滋賀県",
    "city": "大津市",
    "category": "home_help",
    "serviceType": "訪問介護",
    "capacity": 0,
    "openDays": [
      "平日",
      "土曜日"
    ],
    "openDaysNote": ""
  },
  {
    "id": "2570104386",
    "name": "コンソルテ訪問介護事業所",
    "kana": "コンソルテホウモンカイゴジギョウショ",
    "address": "滋賀県大津市瀬田4丁目1番3号",
    "lat": 34.964178101971,
    "lng": 135.907632017722,
    "tel": "077-545-6540",
    "url": "",
    "pref": "滋賀県",
    "city": "大津市",
    "category": "home_help",
    "serviceType": "訪問介護",
    "capacity": 0,
    "openDays": [
      "平日",
      "土曜日",
      "日曜日",
      "祝日"
    ],
    "openDaysNote": "上記はサービス提供可能時間帯であり、時間帯により料金が異なります。"
  },
  {
    "id": "2570104071",
    "name": "さくら会訪問介護事業所",
    "kana": "サクラカイホウモンカイゴジギョウショ",
    "address": "滋賀県大津市真野６丁目６－２１",
    "lat": 35.1336650519081,
    "lng": 135.920253076174,
    "tel": "０７７－５７４－５５７２",
    "url": "",
    "pref": "滋賀県",
    "city": "大津市",
    "category": "home_help",
    "serviceType": "訪問介護",
    "capacity": 0,
    "openDays": [
      "平日",
      "土曜日",
      "日曜日",
      "祝日"
    ],
    "openDaysNote": ""
  },
  {
    "id": "2570104816",
    "name": "しみんふくし滋賀大津訪問介護事業所",
    "kana": "シミンフクシシガオオツホウモンカイゴジギョウショ",
    "address": "滋賀県大津市柳川2丁目11-25",
    "lat": 35.0327341,
    "lng": 135.8616147,
    "tel": "077-523-0107",
    "url": "http://www.shiminfukushi-shiga.jp/",
    "pref": "滋賀県",
    "city": "大津市",
    "category": "home_help",
    "serviceType": "訪問介護",
    "capacity": 0,
    "openDays": [
      "平日",
      "土曜日",
      "日曜日",
      "祝日"
    ],
    "openDaysNote": "ヘルパーの稼働によりお引き受けできない場合がございます。"
  },
  {
    "id": "2570104824",
    "name": "しみんふくし滋賀北大津訪問介護事業所",
    "kana": "シミンフクシシガキタオオツホウモンカイゴジギョウショ",
    "address": "滋賀県大津市仰木の里東８丁目11-13",
    "lat": 35.1131235,
    "lng": 135.9015641,
    "tel": "077-574-2681",
    "url": "http://www.shiminfukushi-shiga.jp/",
    "pref": "滋賀県",
    "city": "大津市",
    "category": "home_help",
    "serviceType": "訪問介護",
    "capacity": 0,
    "openDays": [
      "平日",
      "土曜日",
      "日曜日",
      "祝日"
    ],
    "openDaysNote": "ヘルパーの稼動によりお引き受けできない場合があります。"
  },
  {
    "id": "2570102596",
    "name": "スマイルケア",
    "kana": "スマイルケア",
    "address": "滋賀県大津市島の関6-15衣笠ビル1F",
    "lat": 35.0083052,
    "lng": 135.8703535,
    "tel": "077-525-5775",
    "url": "https://smilelife-biwako.com/",
    "pref": "滋賀県",
    "city": "大津市",
    "category": "home_help",
    "serviceType": "訪問介護",
    "capacity": 0,
    "openDays": [
      "平日",
      "土曜日",
      "日曜日",
      "祝日"
    ],
    "openDaysNote": "営業時間外、早朝、夜間、深夜はご希望により相談できる。"
  },
  {
    "id": "2570105680",
    "name": "でいさーびすええわ",
    "kana": "デイサ－ビス笑輪",
    "address": "大平一丁目12番30号",
    "lat": 34.9535104755897,
    "lng": 135.894469780052,
    "tel": "077-526-6683",
    "url": "https://www.eewa.net/",
    "pref": "滋賀県",
    "city": "大津市",
    "category": "home_help",
    "serviceType": "訪問介護",
    "capacity": 5,
    "openDays": [
      "平日",
      "土曜日",
      "祝日"
    ],
    "openDaysNote": "延長サービス可能時間午前6時00分～8時30分、午後5時30分～午後10時00分"
  },
  {
    "id": "2570101770",
    "name": "ドリームヘルパーステーション",
    "kana": "ドリームヘルパーステーション",
    "address": "滋賀県大津市本堅田６丁目3－50",
    "lat": 35.1152714,
    "lng": 135.9076827,
    "tel": "077-536-5630",
    "url": "",
    "pref": "滋賀県",
    "city": "大津市",
    "category": "home_help",
    "serviceType": "訪問介護",
    "capacity": 0,
    "openDays": [
      "平日",
      "土曜日",
      "祝日"
    ],
    "openDaysNote": "営業時間外については相談の上対応出来る体制とする"
  },
  {
    "id": "2570100152",
    "name": "ニチイケアセンターながら",
    "kana": "ニチイケアセンターナガラ",
    "address": "滋賀県大津市大門通16-45",
    "lat": 35.0148016,
    "lng": 135.8575267,
    "tel": "077-510-1526",
    "url": "http://www.nichiigakkan.co.jp",
    "pref": "滋賀県",
    "city": "大津市",
    "category": "home_help",
    "serviceType": "訪問介護",
    "capacity": 0,
    "openDays": [
      "平日"
    ],
    "openDaysNote": "営業時間以外でもサービス提供あり"
  },
  {
    "id": "2570105193",
    "name": "ニチイケアセンターにおの浜",
    "kana": "ニチイケアセンターニオノハマ",
    "address": "滋賀県大津市木下町17-12芙蓉ビル5階 芙蓉ビル5階",
    "lat": 35.0016077,
    "lng": 135.8901975,
    "tel": "077-526-8812",
    "url": "www.nichiigakkan.co.jp",
    "pref": "滋賀県",
    "city": "大津市",
    "category": "home_help",
    "serviceType": "訪問介護",
    "capacity": 0,
    "openDays": [
      "平日"
    ],
    "openDaysNote": "居宅サービス計画により、休業日及び時間外であってもサービス提供する場合があります。"
  },
  {
    "id": "2570101309",
    "name": "ニチイケアセンター大津仰木の里",
    "kana": "ニチイケアセンターオオツオオギノサト",
    "address": "滋賀県大津市仰木の里3－5－20",
    "lat": 35.1049547,
    "lng": 135.8865437,
    "tel": "077-571-1426",
    "url": "http://www.nichiigakkan.co.jp",
    "pref": "滋賀県",
    "city": "大津市",
    "category": "home_help",
    "serviceType": "訪問介護",
    "capacity": 0,
    "openDays": [
      "平日"
    ],
    "openDaysNote": "居宅サービス計画により、休業日及び営業時間であってもサービス提供する場合があります。"
  },
  {
    "id": "2570105425",
    "name": "ニチイケアセンター唐崎",
    "kana": "ニチイケアセンターカラサキ",
    "address": "滋賀県大津市蓮池町13-13ファーストビル３Ｆ ファーストビル３Ｆ",
    "lat": 35.046826,
    "lng": 135.8636603,
    "tel": "077-526-8535",
    "url": "",
    "pref": "滋賀県",
    "city": "大津市",
    "category": "home_help",
    "serviceType": "訪問介護",
    "capacity": 0,
    "openDays": [
      "平日",
      "土曜日",
      "日曜日",
      "祝日"
    ],
    "openDaysNote": "営業時間以外でもサービス提供あり"
  },
  {
    "id": "2570106043",
    "name": "ニチイメゾン瀬田",
    "kana": "ニチイメゾンセタ",
    "address": "滋賀県大津市大将軍2丁目1－17ニチイメゾン瀬田 ニチイメゾン瀬田",
    "lat": 34.9921843,
    "lng": 135.9285285,
    "tel": "077-547-3531",
    "url": "",
    "pref": "滋賀県",
    "city": "大津市",
    "category": "home_help",
    "serviceType": "訪問介護",
    "capacity": 0,
    "openDays": [
      "平日",
      "土曜日",
      "日曜日",
      "祝日"
    ],
    "openDaysNote": ""
  },
  {
    "id": "2570103347",
    "name": "ハーネスト訪問介護事業所",
    "kana": "ハーネスト訪問介護事業所",
    "address": "大津市坂本1丁目13番12号",
    "lat": 35.0521001527904,
    "lng": 135.861511195462,
    "tel": "077-526-7077",
    "url": "ｈｔｔｐ://www.hernest.jp",
    "pref": "滋賀県",
    "city": "大津市",
    "category": "home_help",
    "serviceType": "訪問介護",
    "capacity": 50,
    "openDays": [
      "平日",
      "土曜日",
      "日曜日",
      "祝日"
    ],
    "openDaysNote": "上記以外の時間の利用についてはご相談ください。"
  },
  {
    "id": "2570103776",
    "name": "はなまる訪問介護",
    "kana": "ハナマルホウモンカイゴ",
    "address": "滋賀県大津市光が丘町4番77号",
    "lat": 34.9733069,
    "lng": 135.8981759,
    "tel": "077-533-5311",
    "url": "",
    "pref": "滋賀県",
    "city": "大津市",
    "category": "home_help",
    "serviceType": "訪問介護",
    "capacity": null,
    "openDays": [
      "平日",
      "土曜日",
      "日曜日",
      "祝日"
    ],
    "openDaysNote": "年末年始（12月30日～1月3日）は利用できません"
  },
  {
    "id": "2570100244",
    "name": "びわこ介護ユアナース株式会社大津営業所",
    "kana": "ビワコカイゴユアナースカブシキガイシャオオツエイギョウショ",
    "address": "大津市中央1丁目５－１０",
    "lat": 35.0081497,
    "lng": 135.8647123,
    "tel": "077-511-6111",
    "url": "http://www.biwakokaigo.jp",
    "pref": "滋賀県",
    "city": "大津市",
    "category": "home_help",
    "serviceType": "訪問介護",
    "capacity": 0,
    "openDays": [
      "平日",
      "土曜日",
      "日曜日",
      "祝日"
    ],
    "openDaysNote": ""
  },
  {
    "id": "2570106274",
    "name": "ふれあいサポート坂本ケアステーション",
    "kana": "フレアイサポートサカモトケアステーション",
    "address": "比叡辻二丁目17-3八景ビル3F",
    "lat": 35.0743085,
    "lng": 135.8820863,
    "tel": "775747969",
    "url": "http://furesuppo.com/",
    "pref": "滋賀県",
    "city": "大津市",
    "category": "home_help",
    "serviceType": "訪問介護",
    "capacity": 0,
    "openDays": [
      "平日",
      "土曜日"
    ],
    "openDaysNote": ""
  },
  {
    "id": "2570102190",
    "name": "ふれあいサポート小野ケアステーション",
    "kana": "フレアイサポートオノケアステーション",
    "address": "滋賀県大津市湖青1-1-20ローズプラザ小野内 ローズプラザ小野内",
    "lat": 35.1387377,
    "lng": 135.9220172,
    "tel": "077-592-3518",
    "url": "http://www.furesuppo.com/",
    "pref": "滋賀県",
    "city": "大津市",
    "category": "home_help",
    "serviceType": "訪問介護",
    "capacity": 0,
    "openDays": [
      "平日",
      "土曜日",
      "日曜日",
      "祝日"
    ],
    "openDaysNote": "年末年始（12/31～1/3）のみ休業とさせていただいております。"
  },
  {
    "id": "2570102216",
    "name": "ふれあいサポート西大津ケアステーション",
    "kana": "フレアイサポートニシオオツケアステーション",
    "address": "滋賀県大津市山上町5-37シャルム皇子山",
    "lat": 35.0215142,
    "lng": 135.8548067,
    "tel": "077-511-3518",
    "url": "http://www.furesuppo.com/",
    "pref": "滋賀県",
    "city": "大津市",
    "category": "home_help",
    "serviceType": "訪問介護",
    "capacity": 0,
    "openDays": [
      "平日",
      "土曜日",
      "日曜日",
      "祝日"
    ],
    "openDaysNote": ""
  },
  {
    "id": "2570102232",
    "name": "ふれあいサポート膳所ケアステーション",
    "kana": "フレアイサポートゼゼケアステーション",
    "address": "滋賀県大津市中庄一丁目１５－１４",
    "lat": 34.9915629,
    "lng": 135.8932653,
    "tel": "077-524-1448",
    "url": "http://www.furesuppo.com/",
    "pref": "滋賀県",
    "city": "大津市",
    "category": "home_help",
    "serviceType": "訪問介護",
    "capacity": 0,
    "openDays": [
      "平日",
      "土曜日",
      "日曜日",
      "祝日"
    ],
    "openDaysNote": "年末年始（12/31～1/3)のみ休業とさせていただいております。"
  },
  {
    "id": "2570104089",
    "name": "ヘルパーステーション　たなかみ",
    "kana": "ヘルパーステーション　タナカミ",
    "address": "黒津2丁目21番13号",
    "lat": 34.9424543422368,
    "lng": 135.916847174205,
    "tel": "077-515-4030",
    "url": "",
    "pref": "滋賀県",
    "city": "大津市",
    "category": "home_help",
    "serviceType": "訪問介護",
    "capacity": 40,
    "openDays": [
      "平日",
      "土曜日",
      "日曜日",
      "祝日"
    ],
    "openDaysNote": ""
  },
  {
    "id": "2570105482",
    "name": "ヘルパーステーション　リーチおおつ",
    "kana": "ヘルパーステーション　リーチオオツ",
    "address": "滋賀県大津市御殿浜2-30",
    "lat": 34.9876412,
    "lng": 135.8955953,
    "tel": "077-572-5932",
    "url": "",
    "pref": "滋賀県",
    "city": "大津市",
    "category": "home_help",
    "serviceType": "訪問介護",
    "capacity": null,
    "openDays": [
      "平日"
    ],
    "openDaysNote": ""
  },
  {
    "id": "2570104576",
    "name": "ヘルパーステーションここあ石山",
    "kana": "ヘルパーステーションココアイシヤマ",
    "address": "滋賀県大津市栄町2番5号",
    "lat": 34.9770843,
    "lng": 135.9005895,
    "tel": "077-533-0600",
    "url": "http://kokoa.jp/",
    "pref": "滋賀県",
    "city": "大津市",
    "category": "home_help",
    "serviceType": "訪問介護",
    "capacity": 0,
    "openDays": [
      "平日",
      "土曜日",
      "日曜日",
      "祝日"
    ],
    "openDaysNote": "年末年始（12月29日～1月3日）はサービス提供無し。"
  },
  {
    "id": "2570103636",
    "name": "ヘルパーステーションさんさん",
    "kana": "ヘルパーステーションサンサン",
    "address": "大津市朝日1丁目4-6",
    "lat": 35.1408800499921,
    "lng": 135.914722075174,
    "tel": "775727722",
    "url": "",
    "pref": "滋賀県",
    "city": "大津市",
    "category": "home_help",
    "serviceType": "訪問介護",
    "capacity": 0,
    "openDays": [
      "平日",
      "土曜日",
      "日曜日",
      "祝日"
    ],
    "openDaysNote": "早朝6：00～8：00（改行）通常時間帯8：00～18：00（改行）夜間18：00～22：00（改行）時間帯により料金が異なります。"
  },
  {
    "id": "2570104436",
    "name": "ヘルパーステーションまった里",
    "kana": "ヘルパーステーションマッタリ",
    "address": "滋賀県大津市瀬田5-14-1リバーサイドヒルズ107号室 リバーサイドヒルズ107号室",
    "lat": 34.9614038809271,
    "lng": 135.911242484656,
    "tel": "077-572-5815",
    "url": "",
    "pref": "滋賀県",
    "city": "大津市",
    "category": "home_help",
    "serviceType": "訪問介護",
    "capacity": null,
    "openDays": [
      "平日",
      "土曜日",
      "祝日"
    ],
    "openDaysNote": ""
  },
  {
    "id": "2570102968",
    "name": "ヘルパーステーション志賀",
    "kana": "ヘルパーステーション　シガ",
    "address": "滋賀県大津市和邇中浜３０３－１",
    "lat": 35.1629487,
    "lng": 135.9206979,
    "tel": "077-594-0118",
    "url": "http://www.kosei-f.jp/",
    "pref": "滋賀県",
    "city": "大津市",
    "category": "home_help",
    "serviceType": "訪問介護",
    "capacity": 0,
    "openDays": [
      "平日",
      "土曜日",
      "祝日"
    ],
    "openDaysNote": "土曜日・日曜日については相談に応じます。"
  },
  {
    "id": "2570102299",
    "name": "ホームサポートぶどうの木",
    "kana": "ホームサポートブドウノキ",
    "address": "滋賀県大津市皇子が丘１丁目２－２",
    "lat": 35.0245519187968,
    "lng": 135.85493611786,
    "tel": "077-510-7231",
    "url": "https://www.shoushukai.or.jp/",
    "pref": "滋賀県",
    "city": "大津市",
    "category": "home_help",
    "serviceType": "訪問介護",
    "capacity": 0,
    "openDays": [
      "平日",
      "土曜日",
      "日曜日",
      "祝日"
    ],
    "openDaysNote": ""
  },
  {
    "id": "2570101788",
    "name": "ホームヘルパーステーション　松の浦湯治の郷",
    "kana": "ホームヘルパーステーション　　マツノウラトウジノサト",
    "address": "滋賀県大津市大物６６５番地の９",
    "lat": 35.2089957018768,
    "lng": 135.933664431352,
    "tel": "077-592-2640",
    "url": "https://biwakoaiwakai.com",
    "pref": "滋賀県",
    "city": "大津市",
    "category": "home_help",
    "serviceType": "訪問介護",
    "capacity": 0,
    "openDays": [
      "平日",
      "土曜日",
      "祝日"
    ],
    "openDaysNote": ""
  },
  {
    "id": "2570103065",
    "name": "まごころはあとヘルパーステーション",
    "kana": "マゴコロハアトヘルパーステーション",
    "address": "桜野町1丁目17番15号",
    "lat": 35.0295138,
    "lng": 135.8605621,
    "tel": "077-527-5306",
    "url": "http://magokoro-ie.net/",
    "pref": "滋賀県",
    "city": "大津市",
    "category": "home_help",
    "serviceType": "訪問介護",
    "capacity": 0,
    "openDays": [
      "平日",
      "土曜日",
      "日曜日",
      "祝日"
    ],
    "openDaysNote": "１２月３０日から１月３日までは除きます。（改行）但し、上記営業日、時間以外も必要に応じて対応できる体制をとることができます。"
  },
  {
    "id": "2570100715",
    "name": "マザーレイク田上訪問介護事業所",
    "kana": "マザーレイクタナカミホウモンカイゴジギョウショ",
    "address": "滋賀県大津市黒津1-6-18",
    "lat": 34.9426074,
    "lng": 135.9136629,
    "tel": "077-536-3901",
    "url": "http://www.grouphome.jp/",
    "pref": "滋賀県",
    "city": "大津市",
    "category": "home_help",
    "serviceType": "訪問介護",
    "capacity": 0,
    "openDays": [
      "平日",
      "土曜日",
      "日曜日",
      "祝日"
    ],
    "openDaysNote": "緊急時の対応可能"
  },
  {
    "id": "2570100095",
    "name": "ラ・ケアながら",
    "kana": "ラ・ケアナガラ",
    "address": "大津市長等二丁目７－４",
    "lat": 35.0094384,
    "lng": 135.85901,
    "tel": "077-510-1760",
    "url": "http://www.la-care.jp",
    "pref": "滋賀県",
    "city": "大津市",
    "category": "home_help",
    "serviceType": "訪問介護",
    "capacity": 10,
    "openDays": [
      "平日",
      "土曜日",
      "日曜日",
      "祝日"
    ],
    "openDaysNote": "土曜日・日曜日・時間外については要相談可。"
  },
  {
    "id": "2570103800",
    "name": "ライフケアみき",
    "kana": "ライフケアミキ",
    "address": "滋賀県大津市あかね町14-7",
    "lat": 35.0446315,
    "lng": 135.8637197,
    "tel": "０７７－５７２－８８７３",
    "url": "http://www.miki-corporation.jp",
    "pref": "滋賀県",
    "city": "大津市",
    "category": "home_help",
    "serviceType": "訪問介護",
    "capacity": null,
    "openDays": [
      "平日",
      "土曜日",
      "日曜日",
      "祝日"
    ],
    "openDaysNote": ""
  },
  {
    "id": "2570105946",
    "name": "ライフケア瀬田",
    "kana": "ライフケアセタ",
    "address": "滋賀県大津市月輪１丁目13-10",
    "lat": 34.9915369,
    "lng": 135.935694,
    "tel": "077-547-3905",
    "url": "http://www.miki-corporation.ne.jp",
    "pref": "滋賀県",
    "city": "大津市",
    "category": "home_help",
    "serviceType": "訪問介護",
    "capacity": null,
    "openDays": [
      "平日",
      "土曜日",
      "日曜日"
    ],
    "openDaysNote": ""
  },
  {
    "id": "2570105912",
    "name": "リールヘルパーステーション大津坂本",
    "kana": "リールヘルパーステーションオオツサカモト",
    "address": "滋賀県大津市坂本1‐13‐8",
    "lat": 35.0593664,
    "lng": 135.8669771,
    "tel": "077‐548‐8305",
    "url": "https://rirestage.co.jp/",
    "pref": "滋賀県",
    "city": "大津市",
    "category": "home_help",
    "serviceType": "訪問介護",
    "capacity": 0,
    "openDays": [
      "平日",
      "土曜日",
      "日曜日",
      "祝日"
    ],
    "openDaysNote": ""
  },
  {
    "id": "2570106373",
    "name": "ロゼ共生型介護オフィス",
    "kana": "ロゼキョウセイガタカイゴオフィス",
    "address": "滋賀県大津市平津一丁目38番24号",
    "lat": 34.9533668,
    "lng": 135.9088928,
    "tel": "077-532-6599",
    "url": "",
    "pref": "滋賀県",
    "city": "大津市",
    "category": "home_help",
    "serviceType": "訪問介護",
    "capacity": 0,
    "openDays": [
      "平日",
      "土曜日",
      "日曜日",
      "祝日"
    ],
    "openDaysNote": "サービス提供日：年中無休（改行）サービス提供時間：24時間"
  },
  {
    "id": "2570101242",
    "name": "医療法人啓信会萌木の村ヘルパーステーションリエゾン大津",
    "kana": "イリョウホウジンケイシンカイモエギノムラヘルパーステーションリエゾンオオツ",
    "address": "滋賀県大津市尾花川11-31ロータリーマンション西大津III番館1F",
    "lat": 35.0215154,
    "lng": 135.8610953,
    "tel": "077-511-3083",
    "url": "http://www.kyoto-keishinkai.or.jp/",
    "pref": "滋賀県",
    "city": "大津市",
    "category": "home_help",
    "serviceType": "訪問介護",
    "capacity": 0,
    "openDays": [
      "平日"
    ],
    "openDaysNote": "定休日、時間外訪問介護対応可能　24時間連絡体制あり（相談）"
  },
  {
    "id": "2570105656",
    "name": "医療法人弘英会　ヘルパーステーション緑の癒",
    "kana": "イリョウホウジンコウエイカイ　ヘルパーステーションミドリノイエ",
    "address": "滋賀県大津市緑町6番27号",
    "lat": 35.1420109,
    "lng": 135.9094915,
    "tel": "077-536-5733",
    "url": "http://www.boh.or.jp/",
    "pref": "滋賀県",
    "city": "大津市",
    "category": "home_help",
    "serviceType": "訪問介護",
    "capacity": 0,
    "openDays": [
      "平日",
      "土曜日",
      "日曜日",
      "祝日"
    ],
    "openDaysNote": ""
  },
  {
    "id": "2570101010",
    "name": "医療法人弘英会琵琶湖大橋病院ヘルパーステーション",
    "kana": "イリョウホウジンコウエイカイビワコオオハシビョウインヘルパーステーション",
    "address": "滋賀県大津市本堅田５丁目２０番１０号アル・プラザ堅田２階 アル・プラザ堅田２階",
    "lat": 35.1192354121388,
    "lng": 135.915653135582,
    "tel": "077-573-7201",
    "url": "http://www.boh.or.jp/",
    "pref": "滋賀県",
    "city": "大津市",
    "category": "home_help",
    "serviceType": "訪問介護",
    "capacity": 0,
    "openDays": [
      "平日",
      "土曜日",
      "日曜日",
      "祝日"
    ],
    "openDaysNote": "希望により、上記時間以外も訪問"
  },
  {
    "id": "2510106152",
    "name": "医療法人良善会ひかり病院",
    "kana": "イリョウホウジンリョウゼンカイヒカリビョウイン",
    "address": "滋賀県大津市際川3丁目35-1５階 ５階",
    "lat": 35.0439511,
    "lng": 135.8664556,
    "tel": "077-522-1906",
    "url": "http://hikaribyouin.com/",
    "pref": "滋賀県",
    "city": "大津市",
    "category": "home_help",
    "serviceType": "訪問介護",
    "capacity": 10,
    "openDays": [
      "平日",
      "土曜日",
      "日曜日",
      "祝日"
    ],
    "openDaysNote": "ご利用は年中無休です"
  },
  {
    "id": "2570104584",
    "name": "華頂会訪問介護事業所",
    "kana": "カチョウカイホウモンカイゴジギョウショ",
    "address": "滋賀県大津市大萱六丁目4番16号",
    "lat": 34.993416,
    "lng": 135.9140767,
    "tel": "077-526-5282",
    "url": "http://fukuju-sou.com",
    "pref": "滋賀県",
    "city": "大津市",
    "category": "home_help",
    "serviceType": "訪問介護",
    "capacity": 0,
    "openDays": [
      "平日",
      "土曜日",
      "日曜日",
      "祝日"
    ],
    "openDaysNote": "特別な事情におけるサービス提供時間の変更などは、相談の上可能な限り対応させていただきます。"
  },
  {
    "id": "2570105227",
    "name": "介護サービス令和",
    "kana": "カイゴサービスレイワ",
    "address": "滋賀県大津市坂本7丁目28ｰ3ユニヴェール102 ユニヴェール102",
    "lat": 35.0723987,
    "lng": 135.8773073,
    "tel": "077-578-3877",
    "url": "",
    "pref": "滋賀県",
    "city": "大津市",
    "category": "home_help",
    "serviceType": "訪問介護",
    "capacity": null,
    "openDays": [
      "平日",
      "土曜日",
      "日曜日",
      "祝日"
    ],
    "openDaysNote": "年中無休"
  },
  {
    "id": "2570105177",
    "name": "株式会社アートケアステーション",
    "kana": "カブシキガイシャアートケアステーション",
    "address": "滋賀県大津市御殿浜12番14号ハイツ御殿浜１０２ ハイツ御殿浜１０２",
    "lat": 34.9857604,
    "lng": 135.8980468,
    "tel": "077-531-0891",
    "url": "https://artcare.online",
    "pref": "滋賀県",
    "city": "大津市",
    "category": "home_help",
    "serviceType": "訪問介護",
    "capacity": 0,
    "openDays": [
      "平日",
      "土曜日",
      "日曜日",
      "祝日"
    ],
    "openDaysNote": "２４時間対応致します。（改行）重複した際は対応出来ない場合がございます。"
  },
  {
    "id": "2570101127",
    "name": "桐生園訪問介護センター",
    "kana": "キリュウエンホウモンカイゴセンター",
    "address": "滋賀県大津市桐生一丁目２６番７号",
    "lat": 34.9708678,
    "lng": 135.9917284,
    "tel": "077-549-1816",
    "url": "http://www.kiryuen.jp/",
    "pref": "滋賀県",
    "city": "大津市",
    "category": "home_help",
    "serviceType": "訪問介護",
    "capacity": 0,
    "openDays": [
      "平日",
      "土曜日",
      "祝日"
    ],
    "openDaysNote": ""
  },
  {
    "id": "2570103677",
    "name": "近江訪問介護事業所",
    "kana": "オウミホウモンカイゴジギョウショ",
    "address": "萱野浦５－６１F １F",
    "lat": 34.9917356,
    "lng": 135.911677,
    "tel": "０７７－５４４－４４４９",
    "url": "",
    "pref": "滋賀県",
    "city": "大津市",
    "category": "home_help",
    "serviceType": "訪問介護",
    "capacity": 0,
    "openDays": [
      "平日",
      "土曜日",
      "日曜日",
      "祝日"
    ],
    "openDaysNote": "上記の時間以外でも、ご希望があればご相談ください。"
  },
  {
    "id": "2570106050",
    "name": "結びケア",
    "kana": "ムスビケア",
    "address": "滋賀県大津市坂本１丁目11-49",
    "lat": 35.0632016,
    "lng": 135.867287,
    "tel": "077-578-3669",
    "url": "",
    "pref": "滋賀県",
    "city": "大津市",
    "category": "home_help",
    "serviceType": "訪問介護",
    "capacity": 40,
    "openDays": [
      "平日",
      "土曜日",
      "日曜日",
      "祝日"
    ],
    "openDaysNote": ""
  },
  {
    "id": "2570100301",
    "name": "公益社団法人　大津市シルバー人材センター",
    "kana": "コウエキシャダンホウジン　オオツシシルバージンザイセンター",
    "address": "滋賀県大津市中央二丁目2番5号中央市民センター3階 中央市民センター3階",
    "lat": 35.0083896253758,
    "lng": 135.865516417197,
    "tel": "077-525-2528",
    "url": "http://otsu-sjc.or.jp/",
    "pref": "滋賀県",
    "city": "大津市",
    "category": "home_help",
    "serviceType": "訪問介護",
    "capacity": 200,
    "openDays": [
      "平日",
      "土曜日",
      "日曜日",
      "祝日"
    ],
    "openDaysNote": "但し、上記に限らない場合は相談の上によるものとする。"
  },
  {
    "id": "2570104931",
    "name": "合同会社　ななや",
    "kana": "ゴウドウガイシャ　ナナヤ",
    "address": "滋賀県大津市雄琴1丁目4-27",
    "lat": 35.0897108363476,
    "lng": 135.892941713492,
    "tel": "077-578-0456",
    "url": "",
    "pref": "滋賀県",
    "city": "大津市",
    "category": "home_help",
    "serviceType": "訪問介護",
    "capacity": 0,
    "openDays": [
      "平日",
      "土曜日",
      "日曜日",
      "祝日"
    ],
    "openDaysNote": "８時からのケアも要相談でお受けする事が出来ます。"
  },
  {
    "id": "2570103388",
    "name": "合同会社らいとはうす",
    "kana": "ゴウドウガイシャライトハウス",
    "address": "滋賀県大津市見世1丁目7-6",
    "lat": 35.0386086554658,
    "lng": 135.858143604091,
    "tel": "077-572-5611",
    "url": "ｒａｉｔｏｈａｕｓｕ＿７０５＠ｙａｈｏｏ．ｃｏｊｐ",
    "pref": "滋賀県",
    "city": "大津市",
    "category": "home_help",
    "serviceType": "訪問介護",
    "capacity": 10,
    "openDays": [
      "平日"
    ],
    "openDaysNote": "相談可"
  },
  {
    "id": "2570100541",
    "name": "在宅介護ファミールケア　堅田センター",
    "kana": "ザイタクカイゴファミールケアカタタセンター",
    "address": "滋賀県大津市今堅田2丁目26-8　サンユートラストビル３Ｆ",
    "lat": 35.1217071,
    "lng": 135.9208504,
    "tel": "077-571-0520",
    "url": "http://www.famille-care.co.jp",
    "pref": "滋賀県",
    "city": "大津市",
    "category": "home_help",
    "serviceType": "訪問介護",
    "capacity": 0,
    "openDays": [
      "平日",
      "土曜日",
      "日曜日",
      "祝日"
    ],
    "openDaysNote": ""
  },
  {
    "id": "2570105797",
    "name": "手と手訪問介護事業所",
    "kana": "テトテホウモンカイゴジギョウショ",
    "address": "大津市中庄2丁目1番55号アード膳所203号室 203号室",
    "lat": 34.9893094,
    "lng": 135.8876501,
    "tel": "077-572-9064",
    "url": "",
    "pref": "滋賀県",
    "city": "大津市",
    "category": "home_help",
    "serviceType": "訪問介護",
    "capacity": null,
    "openDays": [
      "平日",
      "土曜日",
      "日曜日",
      "祝日"
    ],
    "openDaysNote": "24時間体制"
  },
  {
    "id": "2570103172",
    "name": "善幸苑大津訪問介護",
    "kana": "ゼンコウエンオオツホウモンカイゴ",
    "address": "大津市横木二丁目2番17号",
    "lat": 34.9925479,
    "lng": 135.832634,
    "tel": "077-522-8600",
    "url": "https://medicalseed.jp/",
    "pref": "滋賀県",
    "city": "大津市",
    "category": "home_help",
    "serviceType": "訪問介護",
    "capacity": 0,
    "openDays": [
      "平日",
      "土曜日",
      "日曜日",
      "祝日"
    ],
    "openDaysNote": "相談によりサービス提供時間の延長可"
  },
  {
    "id": "2570103693",
    "name": "大喜多　株式会社　カメリア",
    "kana": "オオキタ　カブシキガイシャ　カメリア",
    "address": "滋賀県大津市膳所2丁目１０－３",
    "lat": 34.9953925,
    "lng": 135.8905459,
    "tel": "077-523-3060",
    "url": "http://www.amadocoro.com/",
    "pref": "滋賀県",
    "city": "大津市",
    "category": "home_help",
    "serviceType": "訪問介護",
    "capacity": 0,
    "openDays": [
      "平日"
    ],
    "openDaysNote": "その他の曜日、時間は要相談"
  },
  {
    "id": "2570101994",
    "name": "大津市社会福祉事業団真野ヘルパーステーション",
    "kana": "オオツシシャカイフクシジギョウダンマノヘルパーステーション",
    "address": "大津市真野四丁目２４番３８号",
    "lat": 35.1341462734886,
    "lng": 135.918810980914,
    "tel": "077-573-7814",
    "url": "",
    "pref": "滋賀県",
    "city": "大津市",
    "category": "home_help",
    "serviceType": "訪問介護",
    "capacity": 2,
    "openDays": [
      "平日",
      "土曜日",
      "日曜日",
      "祝日"
    ],
    "openDaysNote": ""
  },
  {
    "id": "2570102042",
    "name": "大津市社会福祉事業団瀬田すこやかヘルパーステーション",
    "kana": "オオツシシャカイフクシジギョウダンセタスコヤカヘルパーステーション",
    "address": "大津市三大寺８番D3－101",
    "lat": 34.9737692331027,
    "lng": 135.91694372101,
    "tel": "077-545-0301",
    "url": "",
    "pref": "滋賀県",
    "city": "大津市",
    "category": "home_help",
    "serviceType": "訪問介護",
    "capacity": 4,
    "openDays": [
      "平日",
      "土曜日",
      "日曜日",
      "祝日"
    ],
    "openDaysNote": ""
  },
  {
    "id": "2570102026",
    "name": "大津市社会福祉事業団膳所すこやかヘルパーステーション",
    "kana": "オオツシシャカイフクシジギョウダンゼゼスコヤカヘルパーステーション",
    "address": "大津市膳所二丁目５－５",
    "lat": 34.9972259,
    "lng": 135.8885715,
    "tel": "077-522-1304",
    "url": "",
    "pref": "滋賀県",
    "city": "大津市",
    "category": "home_help",
    "serviceType": "訪問介護",
    "capacity": 4,
    "openDays": [
      "平日",
      "土曜日",
      "日曜日",
      "祝日"
    ],
    "openDaysNote": ""
  },
  {
    "id": "2570102018",
    "name": "大津市社会福祉事業団中すこやかヘルパーステーション",
    "kana": "オオツシシャカイフクシジギョウダンナカスコヤカヘルパーステーション",
    "address": "大津市浜大津四丁目1-1明日都浜大津5階 明日都浜大津5階",
    "lat": 35.012095,
    "lng": 135.8626165,
    "tel": "077-527-1295",
    "url": "http://www.fukusi-otsu.or.jp/",
    "pref": "滋賀県",
    "city": "大津市",
    "category": "home_help",
    "serviceType": "訪問介護",
    "capacity": 4,
    "openDays": [
      "平日",
      "土曜日",
      "日曜日",
      "祝日"
    ],
    "openDaysNote": ""
  },
  {
    "id": "2570102034",
    "name": "大津市社会福祉事業団南すこやかヘルパーステーション",
    "kana": "オオツシシャカイフクシジギョウダンミナミスコヤカヘルパーステーション",
    "address": "大津市南郷一丁目14-30南老人福祉センター内 南老人福祉センター内",
    "lat": 34.941777,
    "lng": 135.908497,
    "tel": "077-534-0319",
    "url": "http://fukusi-otsu.or.jp/",
    "pref": "滋賀県",
    "city": "大津市",
    "category": "home_help",
    "serviceType": "訪問介護",
    "capacity": 0,
    "openDays": [
      "平日",
      "土曜日",
      "日曜日",
      "祝日"
    ],
    "openDaysNote": ""
  },
  {
    "id": "2570102000",
    "name": "大津市社会福祉事業団比叡すこやかヘルパーステーション",
    "kana": "オオツシシャカイフクシジギョウダンヒエイスコヤカヘルパーステーション",
    "address": "大津市坂本六丁目1-11",
    "lat": 35.0716726,
    "lng": 135.871421,
    "tel": "077-578-8330",
    "url": "http://www.fukusi-otsu.or.jp",
    "pref": "滋賀県",
    "city": "大津市",
    "category": "home_help",
    "serviceType": "訪問介護",
    "capacity": 4,
    "openDays": [
      "平日",
      "土曜日",
      "日曜日",
      "祝日"
    ],
    "openDaysNote": ""
  },
  {
    "id": "2570105102",
    "name": "地域生活サポートセンターじゅぷ",
    "kana": "チイキセイカツ　サポートセンター　ジュプ",
    "address": "滋賀県大津市一里山２丁目２番８号",
    "lat": 34.9823396,
    "lng": 135.929289,
    "tel": "077-5848-3511",
    "url": "http://www.je-peux.net/",
    "pref": "滋賀県",
    "city": "大津市",
    "category": "home_help",
    "serviceType": "訪問介護",
    "capacity": 1,
    "openDays": [
      "平日",
      "土曜日"
    ],
    "openDaysNote": ""
  },
  {
    "id": "2570100194",
    "name": "田中ケアサービス株式会社　大津支援センター",
    "kana": "タナカケアサービスカブシキガイシャ　オオツシエンセンター",
    "address": "滋賀県大津市鏡が浜１５－４１",
    "lat": 35.0326344577304,
    "lng": 135.865021701297,
    "tel": "077-510-1118",
    "url": "http://www.tanakacare.co.jp/",
    "pref": "滋賀県",
    "city": "大津市",
    "category": "home_help",
    "serviceType": "訪問介護",
    "capacity": 0,
    "openDays": [
      "平日",
      "土曜日",
      "日曜日",
      "祝日"
    ],
    "openDaysNote": ""
  },
  {
    "id": "2570102810",
    "name": "特定非営利活動法人ALSしがネット　訪問介護事業所もも",
    "kana": "トクテイヒエイリカツドウホウジンエイエルエスシガネット　ホウモンカイゴジギョウショモモ",
    "address": "滋賀県大津市浜大津3丁目2番31号",
    "lat": 35.0120391083864,
    "lng": 135.85998398241,
    "tel": "077-535-0055",
    "url": "https://als-shiga.net/",
    "pref": "滋賀県",
    "city": "大津市",
    "category": "home_help",
    "serviceType": "訪問介護",
    "capacity": 30,
    "openDays": [
      "平日",
      "土曜日",
      "日曜日",
      "祝日"
    ],
    "openDaysNote": "営業時間外については利用者の事情により24時間対応としています。"
  },
  {
    "id": "2570104600",
    "name": "琵琶湖大橋ヘルパーステーション椋の癒",
    "kana": "ビワコオオハシビョウインヘルパーステーションムクノイエ",
    "address": "滋賀県大津市真野５丁目1-33琵琶湖大橋椋の癒 琵琶湖大橋椋の癒",
    "lat": 35.1288222,
    "lng": 135.9231921,
    "tel": "077-571-1125",
    "url": "http://www.mukuno-ie.com/",
    "pref": "滋賀県",
    "city": "大津市",
    "category": "home_help",
    "serviceType": "訪問介護",
    "capacity": 46,
    "openDays": [
      "平日",
      "土曜日",
      "日曜日",
      "祝日"
    ],
    "openDaysNote": ""
  },
  {
    "id": "2570106332",
    "name": "訪問介護　一休堅田",
    "kana": "ホウモンカイゴ　イッキュウカタタ",
    "address": "滋賀県大津市本堅田６丁目６番２号住宅型有料老人ホームCareVilla堅田 住宅型有料老人ホームCareVilla堅田",
    "lat": 35.116440676934,
    "lng": 135.909911553304,
    "tel": "077-536-6018",
    "url": "",
    "pref": "滋賀県",
    "city": "大津市",
    "category": "home_help",
    "serviceType": "訪問介護",
    "capacity": 0,
    "openDays": [
      "平日",
      "土曜日",
      "日曜日",
      "祝日"
    ],
    "openDaysNote": ""
  },
  {
    "id": "2570106365",
    "name": "訪問介護RANOK大津",
    "kana": "ホウモンカイゴラノックオオツ",
    "address": "滋賀県大津市勧学1-5-18メゾンヤマギワ103号室 メゾンヤマギワ103号室",
    "lat": 35.033685,
    "lng": 135.858006,
    "tel": "077-548-6277",
    "url": "",
    "pref": "滋賀県",
    "city": "大津市",
    "category": "home_help",
    "serviceType": "訪問介護",
    "capacity": null,
    "openDays": [
      "平日",
      "土曜日",
      "日曜日",
      "祝日"
    ],
    "openDaysNote": "毎日/24時間"
  },
  {
    "id": "2570106019",
    "name": "訪問介護オアシス",
    "kana": "ホウモンカイゴオアシス",
    "address": "大津市島の関7-13レジデンス琵琶205号 レジデンス琵琶205号",
    "lat": 35.0083229,
    "lng": 135.8705993,
    "tel": "077-525-2600",
    "url": "",
    "pref": "滋賀県",
    "city": "大津市",
    "category": "home_help",
    "serviceType": "訪問介護",
    "capacity": 0,
    "openDays": [
      "平日",
      "土曜日",
      "祝日"
    ],
    "openDaysNote": "個別で依頼があった場合は日曜日も対応可。"
  },
  {
    "id": "2570103321",
    "name": "訪問介護さくらんぼヘルパーステーション",
    "kana": "ホウモンカイゴサクランボヘルパーステーション",
    "address": "滋賀県大津市長等3丁目4-26",
    "lat": 35.0106938,
    "lng": 135.85916,
    "tel": "077-527-0316",
    "url": "",
    "pref": "滋賀県",
    "city": "大津市",
    "category": "home_help",
    "serviceType": "訪問介護",
    "capacity": 0,
    "openDays": [
      "平日",
      "土曜日",
      "日曜日",
      "祝日"
    ],
    "openDaysNote": ""
  },
  {
    "id": "2570103107",
    "name": "訪問介護ステーション喜楽",
    "kana": "ホウモンカイゴステーションキラク",
    "address": "坂本８丁目１５－１２",
    "lat": 35.0826170987879,
    "lng": 135.86726092681,
    "tel": "077-532-1739",
    "url": "",
    "pref": "滋賀県",
    "city": "大津市",
    "category": "home_help",
    "serviceType": "訪問介護",
    "capacity": 15,
    "openDays": [
      "平日",
      "土曜日",
      "日曜日",
      "祝日"
    ],
    "openDaysNote": "ヘルパーの空き状況により提供できない場合があります。"
  },
  {
    "id": "2570104675",
    "name": "訪問介護ステーション太陽",
    "kana": "ホウモンカイゴステーションタイヨウ",
    "address": "滋賀県大津市神領三丁目20番9号名神瀬田ビル3階3-B 名神瀬田ビル3階3-B",
    "lat": 34.9711658,
    "lng": 135.910541,
    "tel": "077-547-2567",
    "url": "http://hp.kaipoke.biz/f5n/",
    "pref": "滋賀県",
    "city": "大津市",
    "category": "home_help",
    "serviceType": "訪問介護",
    "capacity": 0,
    "openDays": [
      "平日",
      "土曜日",
      "日曜日",
      "祝日"
    ],
    "openDaysNote": "年中無休"
  },
  {
    "id": "2570105342",
    "name": "訪問介護つむぎ",
    "kana": "ホウモンカイゴツムギ",
    "address": "滋賀県大津市衣川1丁目33番23号メゾン・ヴィヴレ105号室 メゾン・ヴィヴレ105号室",
    "lat": 35.1134916,
    "lng": 135.9114596,
    "tel": "077-572-6580",
    "url": "http://hp.kaipoke.biz/0mf/",
    "pref": "滋賀県",
    "city": "大津市",
    "category": "home_help",
    "serviceType": "訪問介護",
    "capacity": 40,
    "openDays": [
      "平日",
      "土曜日",
      "祝日"
    ],
    "openDaysNote": "上記の時間以外の時間帯におけるサービス提供についても、相談を受け付け、可能な場合はサービスの提供を行う。"
  },
  {
    "id": "2570103883",
    "name": "訪問介護ハートランド瀬田",
    "kana": "ホウモンカイゴハートランドセタ",
    "address": "滋賀県大津市大将軍１丁目9-7訪問介護ハートランド瀬田 訪問介護ハートランド瀬田",
    "lat": 34.9941531909939,
    "lng": 135.923677886079,
    "tel": "077-547-3792",
    "url": "",
    "pref": "滋賀県",
    "city": "大津市",
    "category": "home_help",
    "serviceType": "訪問介護",
    "capacity": 37,
    "openDays": [
      "平日",
      "土曜日",
      "日曜日",
      "祝日"
    ],
    "openDaysNote": ""
  },
  {
    "id": "2570103396",
    "name": "訪問介護ハートランド南志賀",
    "kana": "ホウモンカイゴハートランドミナミシガ",
    "address": "大津市南志賀3-20-1訪問介護　ハートランド南志賀 訪問介護　ハートランド南志賀",
    "lat": 35.036979137661,
    "lng": 135.860500309961,
    "tel": "077-525-8857",
    "url": "",
    "pref": "滋賀県",
    "city": "大津市",
    "category": "home_help",
    "serviceType": "訪問介護",
    "capacity": 0,
    "openDays": [
      "平日",
      "土曜日",
      "日曜日",
      "祝日"
    ],
    "openDaysNote": "上記のほかに、電話等により24時間常時連絡が可能な体制とする。"
  },
  {
    "id": "2570104238",
    "name": "訪問介護事業所　りんく大津浦の郷",
    "kana": "ホウモンカイゴジギョウショ　リンクオオツウラノサト",
    "address": "大津市本堅田2丁目1-12",
    "lat": 35.1126742,
    "lng": 135.9222922,
    "tel": "077-548-7330",
    "url": "http://link-otsu.jp/index.html",
    "pref": "滋賀県",
    "city": "大津市",
    "category": "home_help",
    "serviceType": "訪問介護",
    "capacity": 0,
    "openDays": [
      "平日",
      "土曜日",
      "日曜日",
      "祝日"
    ],
    "openDaysNote": ""
  },
  {
    "id": "2570102307",
    "name": "訪問介護事業所　百百",
    "kana": "ホウモンカイゴジギョウショ　モモ",
    "address": "大津市瀬田3丁目25-3",
    "lat": 34.9670579,
    "lng": 135.9107355,
    "tel": "077-545-8924",
    "url": "",
    "pref": "滋賀県",
    "city": "大津市",
    "category": "home_help",
    "serviceType": "訪問介護",
    "capacity": 0,
    "openDays": [
      "平日",
      "土曜日",
      "日曜日",
      "祝日"
    ],
    "openDaysNote": ""
  },
  {
    "id": "2570106001",
    "name": "訪問介護事業所　陽気の里　陽",
    "kana": "ホウモンカイゴジギョウショ　ヨウキノサト　ヒナタ",
    "address": "滋賀県大津市苗鹿2丁目14-12",
    "lat": 35.0875600443807,
    "lng": 135.889949292689,
    "tel": "077-572-8815",
    "url": "http:youkinosato.com",
    "pref": "滋賀県",
    "city": "大津市",
    "category": "home_help",
    "serviceType": "訪問介護",
    "capacity": 0,
    "openDays": [
      "平日",
      "土曜日",
      "祝日"
    ],
    "openDaysNote": "年末年始12/30～1/3要相談"
  },
  {
    "id": "2570105292",
    "name": "訪問介護事業所おかげさん",
    "kana": "ホウモンカイゴジギョウショオカゲサン",
    "address": "滋賀県大津市黒津2丁目1番11号",
    "lat": 34.944358,
    "lng": 135.9153154,
    "tel": "077₋526ｰ5900",
    "url": "http:s//www.okage-kaigo.com",
    "pref": "滋賀県",
    "city": "大津市",
    "category": "home_help",
    "serviceType": "訪問介護",
    "capacity": 85,
    "openDays": [
      "平日",
      "土曜日",
      "祝日"
    ],
    "openDaysNote": ""
  },
  {
    "id": "2570102737",
    "name": "訪問介護事業所すばる",
    "kana": "ホウモンカイゴジギョウショスバル",
    "address": "大津市秋葉台３－６",
    "lat": 34.992532,
    "lng": 135.8833774,
    "tel": "077-548-6323",
    "url": "",
    "pref": "滋賀県",
    "city": "大津市",
    "category": "home_help",
    "serviceType": "訪問介護",
    "capacity": 0,
    "openDays": [
      "平日"
    ],
    "openDaysNote": "上記以外の時間は要相談。"
  },
  {
    "id": "2570105250",
    "name": "訪問介護事業所たなごころ",
    "kana": "ホウモンカイゴジギョウショタナゴコロ",
    "address": "滋賀県大津市苗鹿二丁目31番地28アンソレイエ1001号室 アンソレイエ1001号室",
    "lat": 35.0877008,
    "lng": 135.8934604,
    "tel": "077-574-7937",
    "url": "https://tanagokoro-care.com/",
    "pref": "滋賀県",
    "city": "大津市",
    "category": "home_help",
    "serviceType": "訪問介護",
    "capacity": 10,
    "openDays": [
      "平日",
      "土曜日",
      "日曜日",
      "祝日"
    ],
    "openDaysNote": "24時間対応（改行）（ただし土曜・日曜・祝日　12月29日～1月3日、4月29日～5月5日、8月13日～8月16日は要相談）"
  },
  {
    "id": "2570106225",
    "name": "訪問介護事業所つるかめ介護",
    "kana": "ホウモンカイゴジギョウショツルカメカイゴ",
    "address": "滋賀県大津市国分二丁目１－２１",
    "lat": 34.9653709,
    "lng": 135.8920595,
    "tel": "077-536-5358",
    "url": "https://tsurukame-care.com/",
    "pref": "滋賀県",
    "city": "大津市",
    "category": "home_help",
    "serviceType": "訪問介護",
    "capacity": null,
    "openDays": [
      "平日",
      "土曜日",
      "祝日"
    ],
    "openDaysNote": ""
  },
  {
    "id": "2570104154",
    "name": "訪問介護事業所ともに",
    "kana": "ホウモンカイゴジギョウショトモニ",
    "address": "滋賀県大津市堅田一丁目5番19号",
    "lat": 35.1081049,
    "lng": 135.9084355,
    "tel": "077-574-2281",
    "url": "",
    "pref": "滋賀県",
    "city": "大津市",
    "category": "home_help",
    "serviceType": "訪問介護",
    "capacity": 0,
    "openDays": [
      "平日"
    ],
    "openDaysNote": "上記以外の時間帯でもご相談に応じます。"
  },
  {
    "id": "2570105854",
    "name": "訪問介護事業所ゆめ",
    "kana": "ホウモンカイゴジギョウショユメ",
    "address": "滋賀県大津市皇子が丘三丁目9番13号ハイツ紅葉202号室 ハイツ紅葉202号室",
    "lat": 35.0249144,
    "lng": 135.8611763,
    "tel": "077-599-4561",
    "url": "",
    "pref": "滋賀県",
    "city": "大津市",
    "category": "home_help",
    "serviceType": "訪問介護",
    "capacity": null,
    "openDays": [
      "平日",
      "土曜日",
      "日曜日",
      "祝日"
    ],
    "openDaysNote": ""
  },
  {
    "id": "2570100905",
    "name": "有限会社　さくらケアセンター",
    "kana": "ユウゲンガイシャ　サクラケアセンター",
    "address": "滋賀県大津市湖城が丘44番18号",
    "lat": 34.9970815,
    "lng": 135.8812026,
    "tel": "077-522-8686",
    "url": "http://sakura-carecenter.co.jp",
    "pref": "滋賀県",
    "city": "大津市",
    "category": "home_help",
    "serviceType": "訪問介護",
    "capacity": 0,
    "openDays": [
      "平日",
      "土曜日",
      "日曜日",
      "祝日"
    ],
    "openDaysNote": "時間外(相談可能)"
  },
  {
    "id": "2570105185",
    "name": "陽だまりヘルパーステーション",
    "kana": "ヒダマリヘルパーステーション",
    "address": "滋賀県大津市昭和町8-15",
    "lat": 34.997586,
    "lng": 135.8862766,
    "tel": "077--524-8161",
    "url": "医療法人滋賀勤労者保健会",
    "pref": "滋賀県",
    "city": "大津市",
    "category": "home_help",
    "serviceType": "訪問介護",
    "capacity": 0,
    "openDays": [
      "平日",
      "土曜日"
    ],
    "openDaysNote": "上記と同様"
  },
  {
    "id": "2570100863",
    "name": "洛和ヘルパーステーション坂本",
    "kana": "ラクワヘルパーステーションサカモト",
    "address": "大津市下阪本6丁目13-11",
    "lat": 35.0684693050771,
    "lng": 135.88530540954,
    "tel": "077-577-1127",
    "url": "http://www.rakuwa.or.jp",
    "pref": "滋賀県",
    "city": "大津市",
    "category": "home_help",
    "serviceType": "訪問介護",
    "capacity": 0,
    "openDays": [
      "平日",
      "土曜日"
    ],
    "openDaysNote": ""
  },
  {
    "id": "2570100731",
    "name": "洛和ヘルパーステーション石山寺",
    "kana": "ラクワ　ヘルパーステーション　イシヤマデラ",
    "address": "滋賀県大津市平津1-17-32",
    "lat": 34.9486991635005,
    "lng": 135.909124134254,
    "tel": "077-531-2022",
    "url": "www.rakuwa.or.jp",
    "pref": "滋賀県",
    "city": "大津市",
    "category": "home_help",
    "serviceType": "訪問介護",
    "capacity": 0,
    "openDays": [
      "平日",
      "土曜日",
      "日曜日",
      "祝日"
    ],
    "openDaysNote": ""
  },
  {
    "id": "2570300646",
    "name": "あおぞら介護サービス",
    "kana": "アオゾラカイゴサービス",
    "address": "長浜市地福寺町１４番２１号２",
    "lat": 35.3754389441144,
    "lng": 136.280017203427,
    "tel": "0749-65-6294",
    "url": "",
    "pref": "滋賀県",
    "city": "長浜市",
    "category": "home_help",
    "serviceType": "訪問介護",
    "capacity": 0,
    "openDays": [
      "平日",
      "土曜日"
    ],
    "openDaysNote": "サービス提供は年末年始、祝祭日、日曜日を除きます。"
  },
  {
    "id": "2570301289",
    "name": "アリエスけあ",
    "kana": "アリエスケア",
    "address": "滋賀県長浜市下八木町1654-1",
    "lat": 35.4301568,
    "lng": 136.2161536,
    "tel": "0749-50-9884",
    "url": "",
    "pref": "滋賀県",
    "city": "長浜市",
    "category": "home_help",
    "serviceType": "訪問介護",
    "capacity": 80,
    "openDays": [
      "平日",
      "土曜日",
      "日曜日",
      "祝日"
    ],
    "openDaysNote": "居宅サービス計画により休業日及び時間外であってもサービスを提供する場合があります。"
  },
  {
    "id": "2570300661",
    "name": "アンタレスホームヘルパーステーション",
    "kana": "アンタレスホームヘルパーステーション",
    "address": "滋賀県長浜市加田町3360",
    "lat": 35.3610679,
    "lng": 136.3049773,
    "tel": "0749-68-4110",
    "url": "https://www.seishokai.jp/antares",
    "pref": "滋賀県",
    "city": "長浜市",
    "category": "home_help",
    "serviceType": "訪問介護",
    "capacity": 0,
    "openDays": [
      "平日",
      "土曜日",
      "日曜日",
      "祝日"
    ],
    "openDaysNote": "年間を通して休日を設けない。営業時間は、24時間。また、電話での連絡が常時可能な体制。"
  },
  {
    "id": "2570301669",
    "name": "ケアステーション　あんじぇす神照",
    "kana": "ケアステーション　アンジェスカミテル",
    "address": "滋賀県長浜市神照町27-4",
    "lat": 35.398318755596,
    "lng": 136.280230962704,
    "tel": "0749-65-7707",
    "url": "",
    "pref": "滋賀県",
    "city": "長浜市",
    "category": "home_help",
    "serviceType": "訪問介護",
    "capacity": 0,
    "openDays": [
      "平日",
      "土曜日",
      "日曜日",
      "祝日"
    ],
    "openDaysNote": "上記時間以外のサービス提供は要相談ください。"
  },
  {
    "id": "2570301453",
    "name": "ケアステーションあんじぇす長浜",
    "kana": "ケアステーションアンジェスナガハマ",
    "address": "滋賀県長浜市室町410-1アンジェス長浜 アンジェス長浜",
    "lat": 35.3777077795052,
    "lng": 136.28857187774,
    "tel": "0749-63-7787",
    "url": "http://t-s-i.jp",
    "pref": "滋賀県",
    "city": "長浜市",
    "category": "home_help",
    "serviceType": "訪問介護",
    "capacity": 29,
    "openDays": [],
    "openDaysNote": ""
  },
  {
    "id": "2570301339",
    "name": "しゃきょうヘルパーステーションあとれ",
    "kana": "シャキョウヘルパーステーションアトレ",
    "address": "滋賀県長浜市木之本町黒田1221",
    "lat": 35.5046661,
    "lng": 136.2124065,
    "tel": "0749-82-5615",
    "url": "http://www.nagahama-shakyo.or.jp",
    "pref": "滋賀県",
    "city": "長浜市",
    "category": "home_help",
    "serviceType": "訪問介護",
    "capacity": 0,
    "openDays": [
      "平日"
    ],
    "openDaysNote": "サービス提供日以外のサービス提供は個別に相談に応じます。"
  },
  {
    "id": "2570300497",
    "name": "しゃきょうヘルパーステーションこくあ",
    "kana": "シャキョウヘルパーステーションコクア",
    "address": "長浜市内保町480-3",
    "lat": 35.4324452,
    "lng": 136.3006102,
    "tel": "0749-74-8200",
    "url": "http://www.nagahama-shakyo.or.jp",
    "pref": "滋賀県",
    "city": "長浜市",
    "category": "home_help",
    "serviceType": "訪問介護",
    "capacity": 0,
    "openDays": [
      "平日",
      "土曜日",
      "日曜日",
      "祝日"
    ],
    "openDaysNote": "サービス提供日以外のサービス提供は個別に応じます。"
  },
  {
    "id": "2570301602",
    "name": "シャトンケアサービス",
    "kana": "シャトンケアサービス",
    "address": "滋賀県長浜市平方町町1210番25リバティハイツ　1階　102号室 リバティハイツ　1階　102号室",
    "lat": 35.3771954,
    "lng": 136.2800813,
    "tel": "0749-53-2156",
    "url": "",
    "pref": "滋賀県",
    "city": "長浜市",
    "category": "home_help",
    "serviceType": "訪問介護",
    "capacity": 0,
    "openDays": [
      "平日"
    ],
    "openDaysNote": "相談の上、営業時間、営業日以外でもサービス提供可"
  },
  {
    "id": "2570301370",
    "name": "なないろヘルパーステーション",
    "kana": "ナナイロヘルパーステーション",
    "address": "滋賀県長浜市八島町1557-1",
    "lat": 35.4340973268093,
    "lng": 136.297845974707,
    "tel": "0749-53-4326",
    "url": "",
    "pref": "滋賀県",
    "city": "長浜市",
    "category": "home_help",
    "serviceType": "訪問介護",
    "capacity": 0,
    "openDays": [
      "平日",
      "土曜日",
      "日曜日",
      "祝日"
    ],
    "openDaysNote": ""
  },
  {
    "id": "2570300026",
    "name": "ニチイケアセンター湖北",
    "kana": "ニチイケアセンターコホク",
    "address": "滋賀県長浜市加納町上角田886",
    "lat": 35.394747,
    "lng": 136.3040381,
    "tel": "0749-68-1935",
    "url": "http://www.nichiigakkan.co.jp",
    "pref": "滋賀県",
    "city": "長浜市",
    "category": "home_help",
    "serviceType": "訪問介護",
    "capacity": 0,
    "openDays": [
      "平日",
      "土曜日",
      "日曜日",
      "祝日"
    ],
    "openDaysNote": "居宅サービス計画により営業時間外でも、サービスの提供を行う場合がある。"
  },
  {
    "id": "2570301586",
    "name": "ニチイケアセンター虎姫",
    "kana": "ニチイケアセンタートラヒメ",
    "address": "滋賀県長浜市酢268-3ﾏﾙﾀｶ建設2階 ﾏﾙﾀｶ建設2階",
    "lat": 35.4176351,
    "lng": 136.2540585,
    "tel": "0749-73-8200",
    "url": "www.nichiigakkan.co.jp",
    "pref": "滋賀県",
    "city": "長浜市",
    "category": "home_help",
    "serviceType": "訪問介護",
    "capacity": 0,
    "openDays": [
      "平日",
      "土曜日",
      "日曜日",
      "祝日"
    ],
    "openDaysNote": "居宅サービス計画により、休業日及び営業時間外であっても、サービスを提供する場合があります。"
  },
  {
    "id": "2570301578",
    "name": "ニチイケアセンター高月北",
    "kana": "ニチイケアセンタータカツキキタ",
    "address": "滋賀県長浜市高月町高月957-1",
    "lat": 35.4699483,
    "lng": 136.2337887,
    "tel": "0749-85-8000",
    "url": "",
    "pref": "滋賀県",
    "city": "長浜市",
    "category": "home_help",
    "serviceType": "訪問介護",
    "capacity": 15,
    "openDays": [
      "平日"
    ],
    "openDaysNote": "営業時間外でもサービスを行う場合あり。応相談。"
  },
  {
    "id": "2570301560",
    "name": "ニチイケアセンター浅井",
    "kana": "ニチイケアセンターアザイ",
    "address": "滋賀県長浜市内保町258-1",
    "lat": 35.4287012,
    "lng": 136.3064923,
    "tel": "0749-74-9190",
    "url": "http://www.nichiigakkan.co.jp",
    "pref": "滋賀県",
    "city": "長浜市",
    "category": "home_help",
    "serviceType": "訪問介護",
    "capacity": 0,
    "openDays": [
      "平日",
      "土曜日",
      "日曜日",
      "祝日"
    ],
    "openDaysNote": "居宅サービス計画により営業時間外でもサービスの提供を行う場合がある。"
  },
  {
    "id": "2570300851",
    "name": "ニチイケアセンター木之本",
    "kana": "ニチイケアセンターキノモト",
    "address": "滋賀県長浜市木之本町木之本1587-4",
    "lat": 35.5054888,
    "lng": 136.2241499,
    "tel": "0749-82-8121",
    "url": "http://www.nichiigakkan.co.jp",
    "pref": "滋賀県",
    "city": "長浜市",
    "category": "home_help",
    "serviceType": "訪問介護",
    "capacity": 0,
    "openDays": [
      "平日"
    ],
    "openDaysNote": "居宅サービス計画により、休業日及び営業時間外であってもサービスの提供を行う場合がある。"
  },
  {
    "id": "2570300240",
    "name": "ニチイケアセンター六荘",
    "kana": "ニチイケアセンターロクショウ",
    "address": "滋賀県長浜市勝町452",
    "lat": 35.3727408,
    "lng": 136.2870238,
    "tel": "0749-64-5022",
    "url": "http://www.hstI95@nichiigakkan.co.jp",
    "pref": "滋賀県",
    "city": "長浜市",
    "category": "home_help",
    "serviceType": "訪問介護",
    "capacity": 0,
    "openDays": [
      "平日",
      "土曜日",
      "日曜日",
      "祝日"
    ],
    "openDaysNote": "居宅サービス計画により、休業日及び営業時間外であってもサービスを提供する場合があります。"
  },
  {
    "id": "2570301271",
    "name": "ハートケアヘルパーゆとり",
    "kana": "ハートケアヘルパーユトリ",
    "address": "滋賀県長浜市西上坂町1235番地",
    "lat": 35.4082927639364,
    "lng": 136.308321225154,
    "tel": "0749-63-6633",
    "url": "",
    "pref": "滋賀県",
    "city": "長浜市",
    "category": "home_help",
    "serviceType": "訪問介護",
    "capacity": 3,
    "openDays": [
      "平日",
      "土曜日",
      "日曜日",
      "祝日"
    ],
    "openDaysNote": "居宅サービス計画により、時間外であってもサービスを提供します。"
  },
  {
    "id": "2570301503",
    "name": "ヘルパーステーションあすか",
    "kana": "ヘルパーステーションアスカ",
    "address": "滋賀県長浜市加田町1402",
    "lat": 35.3671428137634,
    "lng": 136.297718878887,
    "tel": "0749-68-3557",
    "url": "https://askacare.com/",
    "pref": "滋賀県",
    "city": "長浜市",
    "category": "home_help",
    "serviceType": "訪問介護",
    "capacity": 0,
    "openDays": [],
    "openDaysNote": ""
  },
  {
    "id": "2570301701",
    "name": "ほっとはーとケアサービス",
    "kana": "ホットハートケアサービス",
    "address": "高月町柳野中９１番地",
    "lat": 35.4681363,
    "lng": 136.211042,
    "tel": "0749-85-2226",
    "url": "https://hottoha-to0017.info",
    "pref": "滋賀県",
    "city": "長浜市",
    "category": "home_help",
    "serviceType": "訪問介護",
    "capacity": 7,
    "openDays": [
      "平日",
      "祝日"
    ],
    "openDaysNote": "上記は基本であり、居宅サービス計画により、休業日及び営業時間外であっても、サービスを提供する場合があります。"
  },
  {
    "id": "2570301115",
    "name": "株式会社訪問介護中井",
    "kana": "カブシキカイシャホウモンカイゴナカイ",
    "address": "滋賀県長浜市八幡東町316-6",
    "lat": 35.3866361,
    "lng": 136.2783107,
    "tel": "0749-50-3648",
    "url": "https://www.nakai-houmon.com/",
    "pref": "滋賀県",
    "city": "長浜市",
    "category": "home_help",
    "serviceType": "訪問介護",
    "capacity": 30,
    "openDays": [
      "平日",
      "土曜日",
      "日曜日",
      "祝日"
    ],
    "openDaysNote": "居宅サービス計画により休業日及び時間外であってもサービスを提供する場合があります。"
  },
  {
    "id": "2570300927",
    "name": "高齢者総合福祉施設余呉はごろも村　やまなみ訪問介護事業所",
    "kana": "コウレイシャソウゴウフクシシセツヨゴハゴロモムラ　ヤマナミホウモンカイゴジギョウショ",
    "address": "滋賀県長浜市余呉町中之郷2434番地",
    "lat": 35.5423889,
    "lng": 136.2041372,
    "tel": "0749-86-8051",
    "url": "",
    "pref": "滋賀県",
    "city": "長浜市",
    "category": "home_help",
    "serviceType": "訪問介護",
    "capacity": 0,
    "openDays": [
      "平日",
      "土曜日",
      "日曜日",
      "祝日"
    ],
    "openDaysNote": ""
  },
  {
    "id": "2570300802",
    "name": "社会福祉法人芳醇会　ケアステーションかけはし訪問介護事業所",
    "kana": "シャカイフクシホウジンホウジュンカイ　ケアステーションカケハシホウモンカイゴジギョウショ",
    "address": "滋賀県長浜市湖北町山本4290",
    "lat": 35.4420083,
    "lng": 136.2154399,
    "tel": "0749-79-8966",
    "url": "http://www.care-station-kakehashi.com/",
    "pref": "滋賀県",
    "city": "長浜市",
    "category": "home_help",
    "serviceType": "訪問介護",
    "capacity": 0,
    "openDays": [
      "平日",
      "土曜日",
      "祝日"
    ],
    "openDaysNote": "年末・年始は休み"
  },
  {
    "id": "2570300836",
    "name": "田中ケアサービス株式会社　高月支援センター",
    "kana": "タナカケアサービスカブシキガイシャ　タカツキシエンセンター",
    "address": "滋賀県長浜市高月町柏原418－1",
    "lat": 35.4775834,
    "lng": 136.2314471,
    "tel": "0749-85-3365",
    "url": "http://www.tanakacare.co.jp/",
    "pref": "滋賀県",
    "city": "長浜市",
    "category": "home_help",
    "serviceType": "訪問介護",
    "capacity": 0,
    "openDays": [
      "平日",
      "土曜日",
      "日曜日",
      "祝日"
    ],
    "openDaysNote": ""
  },
  {
    "id": "2570300224",
    "name": "田中ケアサービス株式会社　長浜支援センター",
    "kana": "タナカケアサービスカブシキカイシャ　ナガハマシエンセンター",
    "address": "滋賀県長浜市祇園町278-5",
    "lat": 35.3863401811356,
    "lng": 136.258624066132,
    "tel": "0749-68-2033",
    "url": "http://www.tanakacare.co.jp/",
    "pref": "滋賀県",
    "city": "長浜市",
    "category": "home_help",
    "serviceType": "訪問介護",
    "capacity": 0,
    "openDays": [
      "平日",
      "土曜日",
      "日曜日",
      "祝日"
    ],
    "openDaysNote": ""
  },
  {
    "id": "2570301479",
    "name": "訪問介護ステーションてらしあ",
    "kana": "ホウモンカイゴステーションテラシア",
    "address": "滋賀県長浜市南高田町372-1",
    "lat": 35.380799958873,
    "lng": 136.282083891057,
    "tel": "0749-50-1603",
    "url": "",
    "pref": "滋賀県",
    "city": "長浜市",
    "category": "home_help",
    "serviceType": "訪問介護",
    "capacity": 100,
    "openDays": [
      "平日",
      "土曜日",
      "日曜日",
      "祝日"
    ],
    "openDaysNote": "上記の時間以外はご相談下さい"
  },
  {
    "id": "2570301768",
    "name": "訪問介護ファミリオ長浜",
    "kana": "ホウモンカイゴファミリオナガハマ",
    "address": "滋賀県長浜市平方町238ワイエフビル２３　１階 ワイエフビル２３　１階",
    "lat": 35.3716794,
    "lng": 136.2781019,
    "tel": "0749-59-3003",
    "url": "",
    "pref": "滋賀県",
    "city": "長浜市",
    "category": "home_help",
    "serviceType": "訪問介護",
    "capacity": 0,
    "openDays": [
      "平日"
    ],
    "openDaysNote": ""
  },
  {
    "id": "2570300828",
    "name": "訪問介護事業所　　燦さん夢くらぶ",
    "kana": "ホウモンカイゴジギョウショ　サンサンユメクラブ",
    "address": "滋賀県長浜市湖北町山本2971－1",
    "lat": 35.4441413,
    "lng": 136.2127625,
    "tel": "0749-79-1114",
    "url": "",
    "pref": "滋賀県",
    "city": "長浜市",
    "category": "home_help",
    "serviceType": "訪問介護",
    "capacity": 40,
    "openDays": [
      "平日",
      "土曜日",
      "日曜日",
      "祝日"
    ],
    "openDaysNote": "訪問介護サービスは年末年始（12月31日〜1月3日）以外はいつでもご利用頂けます。"
  },
  {
    "id": "2570301081",
    "name": "訪問介護事業所　すずらん",
    "kana": "ホウモンカイゴジギョウショ　スズラン",
    "address": "長浜市三ツ矢町13-16",
    "lat": 35.3878884,
    "lng": 136.2684783,
    "tel": "0749-62-3630",
    "url": "",
    "pref": "滋賀県",
    "city": "長浜市",
    "category": "home_help",
    "serviceType": "訪問介護",
    "capacity": 0,
    "openDays": [
      "平日",
      "土曜日",
      "日曜日",
      "祝日"
    ],
    "openDaysNote": "年中無休です。"
  },
  {
    "id": "2570300141",
    "name": "有限会社　ホーム・ヘルパー人財センター",
    "kana": "ユウゲンガイシャ　ホーム・ヘルパージンザイセンター",
    "address": "長浜市山階町589-15",
    "lat": 35.3903248,
    "lng": 136.2877765,
    "tel": "0749-64-1097",
    "url": "",
    "pref": "滋賀県",
    "city": "長浜市",
    "category": "home_help",
    "serviceType": "訪問介護",
    "capacity": 0,
    "openDays": [
      "平日",
      "土曜日",
      "日曜日",
      "祝日"
    ],
    "openDaysNote": ""
  },
  {
    "id": "2570501300",
    "name": "あいケアステーション",
    "kana": "アイケアステーション",
    "address": "滋賀県東近江市蒲生堂町３３８-６８",
    "lat": 35.0395539,
    "lng": 136.1627351,
    "tel": "0748-34-2726",
    "url": "",
    "pref": "滋賀県",
    "city": "東近江市",
    "category": "home_help",
    "serviceType": "訪問介護",
    "capacity": null,
    "openDays": [
      "平日",
      "土曜日",
      "日曜日",
      "祝日"
    ],
    "openDaysNote": "サービス提供時間　年中無休　24時間"
  },
  {
    "id": "2570500724",
    "name": "いずみ介護サービスおがわ",
    "kana": "イズミカイゴサービスオガワ",
    "address": "滋賀県東近江市小川町3317番",
    "lat": 35.1925511,
    "lng": 136.1612566,
    "tel": "0748-42-3077",
    "url": "http://care-net.biz/25/izumikaigo/",
    "pref": "滋賀県",
    "city": "東近江市",
    "category": "home_help",
    "serviceType": "訪問介護",
    "capacity": 0,
    "openDays": [
      "平日",
      "土曜日",
      "日曜日",
      "祝日"
    ],
    "openDaysNote": "年末年始６日間（12/29～1/3）は原則として休み。但し、特段必要な場合のみ対応を検討。"
  },
  {
    "id": "2570500054",
    "name": "カルナホームヘルプサービス",
    "kana": "カルナホームヘルプサービス",
    "address": "東近江市建部下野町７９７",
    "lat": 35.1391892,
    "lng": 136.1971766,
    "tel": "0748-23-3250",
    "url": "http://www.jishoukai.or.jp",
    "pref": "滋賀県",
    "city": "東近江市",
    "category": "home_help",
    "serviceType": "訪問介護",
    "capacity": 0,
    "openDays": [
      "平日",
      "土曜日",
      "日曜日",
      "祝日"
    ],
    "openDaysNote": ""
  },
  {
    "id": "2570501151",
    "name": "きぬがさほうもんかいごじぎょうしょ",
    "kana": "キヌガサ訪問介護事業所",
    "address": "五個荘川並町322番地",
    "lat": 35.1451878,
    "lng": 136.1753375,
    "tel": "0748-48-8080",
    "url": "https://glow.or.jp",
    "pref": "滋賀県",
    "city": "東近江市",
    "category": "home_help",
    "serviceType": "訪問介護",
    "capacity": null,
    "openDays": [
      "平日",
      "土曜日",
      "日曜日",
      "祝日"
    ],
    "openDaysNote": "利用者の要請に基づき、時間の延長もある。"
  },
  {
    "id": "2570500120",
    "name": "しみんふくしの家八日市訪問介護事業所",
    "kana": "シミンフクシノイエヨウカイチホウモンカイゴジギョウショ",
    "address": "滋賀県東近江市東沖野２丁目５－５",
    "lat": 35.1026490660078,
    "lng": 136.210673698933,
    "tel": "0748-20-5457",
    "url": "http://shimin-yokaichi.net/",
    "pref": "滋賀県",
    "city": "東近江市",
    "category": "home_help",
    "serviceType": "訪問介護",
    "capacity": 32,
    "openDays": [
      "平日",
      "土曜日",
      "日曜日",
      "祝日"
    ],
    "openDaysNote": "上記は夜間加算のつかない訪問時間です。時間外でも相談に応じて対応しています。"
  },
  {
    "id": "2570501292",
    "name": "ナーシングホームまごころ",
    "kana": "ナーシングホームマゴコロ",
    "address": "滋賀県東近江市東沖野2丁目4-3",
    "lat": 35.1041755,
    "lng": 136.2094163,
    "tel": "0748-43-2951",
    "url": "dayservice-magokoro.com",
    "pref": "滋賀県",
    "city": "東近江市",
    "category": "home_help",
    "serviceType": "訪問介護",
    "capacity": 23,
    "openDays": [
      "平日"
    ],
    "openDaysNote": ""
  },
  {
    "id": "2570500864",
    "name": "ニチイケアセンター　東近江",
    "kana": "ニチイケアセンターヒガシオウミ",
    "address": "八日市上之町9-3グリーンＲＴ　Ｂ-1号室 グリーンＲＴ　Ｂ-1号室",
    "lat": 35.1116503,
    "lng": 136.2050929,
    "tel": "0748-20-3768",
    "url": "www.nichiigakkan.co.jp",
    "pref": "滋賀県",
    "city": "東近江市",
    "category": "home_help",
    "serviceType": "訪問介護",
    "capacity": 5,
    "openDays": [
      "平日"
    ],
    "openDaysNote": "ただし居宅サービス計画により休業時間以外でもサービス提供を行う場合がある。"
  },
  {
    "id": "2570501391",
    "name": "ヘルパーステーション　リーチ",
    "kana": "ヘルパーステーション　リーチ",
    "address": "滋賀県東近江市五個荘竜田町３５３－３",
    "lat": 35.1531005,
    "lng": 136.1857844,
    "tel": "0748-48-5688",
    "url": "",
    "pref": "滋賀県",
    "city": "東近江市",
    "category": "home_help",
    "serviceType": "訪問介護",
    "capacity": null,
    "openDays": [
      "平日"
    ],
    "openDaysNote": ""
  },
  {
    "id": "2570501516",
    "name": "ヘルパーステーションあい",
    "kana": "ヘルパーステーションアイ",
    "address": "滋賀県東近江市桜川東町４３１－３ラ・ナチュールあい ラ・ナチュールあい",
    "lat": 35.0625590706475,
    "lng": 136.189813497736,
    "tel": "0748-55-2517",
    "url": "http://www.eonet.ne.jp/~kkshiga-forusa/index.htm",
    "pref": "滋賀県",
    "city": "東近江市",
    "category": "home_help",
    "serviceType": "訪問介護",
    "capacity": null,
    "openDays": [
      "平日"
    ],
    "openDaysNote": ""
  },
  {
    "id": "2570501359",
    "name": "ヘルパーステーションうらら",
    "kana": "ヘルパーステーションウララ",
    "address": "滋賀県東近江市五個荘五位田町517番地2",
    "lat": 35.1593577,
    "lng": 136.192183,
    "tel": "0748-43-0557",
    "url": "",
    "pref": "滋賀県",
    "city": "東近江市",
    "category": "home_help",
    "serviceType": "訪問介護",
    "capacity": null,
    "openDays": [
      "平日",
      "土曜日",
      "日曜日",
      "祝日"
    ],
    "openDaysNote": ""
  },
  {
    "id": "2570501052",
    "name": "ヘルパーステーションスイッチオン五個荘",
    "kana": "ヘルパーステーションスイッチオンゴカショウ",
    "address": "滋賀県東近江市五個荘五位田町字辻堂592番地",
    "lat": 35.159582,
    "lng": 136.1933117,
    "tel": "0748-43-2111",
    "url": "",
    "pref": "滋賀県",
    "city": "東近江市",
    "category": "home_help",
    "serviceType": "訪問介護",
    "capacity": 0,
    "openDays": [
      "平日",
      "土曜日",
      "日曜日",
      "祝日"
    ],
    "openDaysNote": "上記を通常時間とする。（改行）早朝6時～8時、夜間18時～10時、深夜10時～6時は要相談"
  },
  {
    "id": "2570501169",
    "name": "ヘルパーステーションせいとく",
    "kana": "ヘルパーステーション　セイトク",
    "address": "滋賀県東近江市聖徳町1-21ハートフルコート東近江 ハートフルコート東近江",
    "lat": 35.1044471128307,
    "lng": 136.199515432541,
    "tel": "0748-20-5566",
    "url": "URL:http//soin-vie.co.jp",
    "pref": "滋賀県",
    "city": "東近江市",
    "category": "home_help",
    "serviceType": "訪問介護",
    "capacity": 0,
    "openDays": [
      "平日",
      "土曜日",
      "日曜日",
      "祝日"
    ],
    "openDaysNote": ""
  },
  {
    "id": "2570501086",
    "name": "ヘルパーステーションつくし",
    "kana": "ヘルパーステーション　ツクシ",
    "address": "横溝町308",
    "lat": 35.1322237,
    "lng": 136.2435299,
    "tel": "0749-45-0280",
    "url": "http://www.katogroup.jp/",
    "pref": "滋賀県",
    "city": "東近江市",
    "category": "home_help",
    "serviceType": "訪問介護",
    "capacity": 0,
    "openDays": [
      "平日",
      "土曜日",
      "日曜日",
      "祝日"
    ],
    "openDaysNote": ""
  },
  {
    "id": "2570501417",
    "name": "ヘルパーステーションてんまや",
    "kana": "ヘルパーステーションテンマヤ",
    "address": "滋賀県東近江市建部日吉町312番地",
    "lat": 35.1188864,
    "lng": 136.1975335,
    "tel": "748362112",
    "url": "",
    "pref": "滋賀県",
    "city": "東近江市",
    "category": "home_help",
    "serviceType": "訪問介護",
    "capacity": null,
    "openDays": [
      "平日",
      "土曜日"
    ],
    "openDaysNote": ""
  },
  {
    "id": "2570501045",
    "name": "ヘルパーステーションなぎさ",
    "kana": "ヘルパーステーション　ナギサ",
    "address": "滋賀県東近江市宮荘町835ジェルメフルール１０２ ジェルメフルール１０２",
    "lat": 35.1605613,
    "lng": 136.1885059,
    "tel": "0748-26-1084",
    "url": "",
    "pref": "滋賀県",
    "city": "東近江市",
    "category": "home_help",
    "serviceType": "訪問介護",
    "capacity": 0,
    "openDays": [
      "平日",
      "土曜日",
      "日曜日",
      "祝日"
    ],
    "openDaysNote": "曜日・時間等、応相談"
  },
  {
    "id": "2570500401",
    "name": "ヘルパーステーションぱーるラボ",
    "kana": "ヘルパーステーションパールラボ",
    "address": "滋賀県東近江市新宮町547番地",
    "lat": 35.2015354,
    "lng": 136.1496488,
    "tel": "0748-42-7036",
    "url": "https://shiga-shinjyukai.or.jp",
    "pref": "滋賀県",
    "city": "東近江市",
    "category": "home_help",
    "serviceType": "訪問介護",
    "capacity": null,
    "openDays": [
      "平日",
      "祝日"
    ],
    "openDaysNote": ""
  },
  {
    "id": "2570500591",
    "name": "ヘルパーステーション桜川",
    "kana": "ヘルパーステーションサクラガワ",
    "address": "滋賀県東近江市桜川西町８９１",
    "lat": 35.0608362,
    "lng": 136.1870294,
    "tel": "0748-55-8172",
    "url": "http://care-net.biz/25/nagaoka",
    "pref": "滋賀県",
    "city": "東近江市",
    "category": "home_help",
    "serviceType": "訪問介護",
    "capacity": 0,
    "openDays": [
      "平日",
      "土曜日",
      "日曜日",
      "祝日"
    ],
    "openDaysNote": "１２/３０～１/３のサービスについては、計画書に明記されたものに対応します"
  },
  {
    "id": "2570500799",
    "name": "もくれんの小径　訪問介護事業所",
    "kana": "モクレンノコミチ　ホウモンカイゴジギョウショ",
    "address": "滋賀県東近江市湯屋町1320-1",
    "lat": 35.1412365665289,
    "lng": 136.260787307765,
    "tel": "0749-45-3233",
    "url": "http://www.taijyukai.net/kizuna/index.html",
    "pref": "滋賀県",
    "city": "東近江市",
    "category": "home_help",
    "serviceType": "訪問介護",
    "capacity": 15,
    "openDays": [
      "平日",
      "土曜日",
      "日曜日",
      "祝日"
    ],
    "openDaysNote": ""
  },
  {
    "id": "2510500693",
    "name": "医療法人社団幸信会　ケアステーションあおば",
    "kana": "イリョウホウジンシャダンコウシンカイ　ケアステーションアオバ",
    "address": "滋賀県東近江市青葉町1-46",
    "lat": 35.1060311,
    "lng": 136.197524,
    "tel": "0748-24-3232",
    "url": "https://aoba-med.com",
    "pref": "滋賀県",
    "city": "東近江市",
    "category": "home_help",
    "serviceType": "訪問介護",
    "capacity": 40,
    "openDays": [
      "平日",
      "土曜日",
      "祝日"
    ],
    "openDaysNote": "その他の曜日・時間も相談に応じます。"
  },
  {
    "id": "2570500070",
    "name": "田中ケアサービス株式会社　八日市支援センター",
    "kana": "タナカケアサービスカブシキカイシャ　ヨウカイチシエンセンター",
    "address": "滋賀県東近江市八日市金屋２丁目２－７",
    "lat": 35.1112309,
    "lng": 136.1997566,
    "tel": "0748-20-1058",
    "url": "http://www.tanakacare.co.jp/",
    "pref": "滋賀県",
    "city": "東近江市",
    "category": "home_help",
    "serviceType": "訪問介護",
    "capacity": 5,
    "openDays": [
      "平日",
      "土曜日",
      "日曜日",
      "祝日"
    ],
    "openDaysNote": ""
  },
  {
    "id": "2570500310",
    "name": "東近江市社会福祉協会ヘルパーステーションゆうあいの家",
    "kana": "ヒガシオウミシシャカイフクシキョウギカイヘルパーステーションユウアイノイエ",
    "address": "東近江市永源寺高野町437番地",
    "lat": 35.0782614,
    "lng": 136.3090875,
    "tel": "0748-27-2066",
    "url": "http://www.higashiomi-shakyo.or.jp/",
    "pref": "滋賀県",
    "city": "東近江市",
    "category": "home_help",
    "serviceType": "訪問介護",
    "capacity": 0,
    "openDays": [
      "平日",
      "土曜日",
      "日曜日",
      "祝日"
    ],
    "openDaysNote": "サービス提供は年中無休。"
  },
  {
    "id": "2570500666",
    "name": "東近江市社会福祉協議会ヘルパーステーションせせらぎ",
    "kana": "ヒガシオウミシシャカイフクシキョウギカイヘルパーステーションセセラギ",
    "address": "東近江市市子川原町６７６番地",
    "lat": 35.0601335,
    "lng": 136.1820742,
    "tel": "0748-55-4895",
    "url": "http://www.higashiomi-shakyo.or.jp/",
    "pref": "滋賀県",
    "city": "東近江市",
    "category": "home_help",
    "serviceType": "訪問介護",
    "capacity": 0,
    "openDays": [
      "平日",
      "土曜日",
      "日曜日",
      "祝日"
    ],
    "openDaysNote": "サービス提供は年中無休"
  },
  {
    "id": "2570500468",
    "name": "東近江市社会福祉協議会ヘルパーステーションなごみ",
    "kana": "ヒガシオウミシシャカイフクシキョウギカイヘルパーステーションナゴミ",
    "address": "滋賀県東近江市乙女浜町1405番地",
    "lat": 35.1953913,
    "lng": 136.1421842,
    "tel": "0748-43-0597",
    "url": "http://www.higasiomi-shakyo.or.jp/",
    "pref": "滋賀県",
    "city": "東近江市",
    "category": "home_help",
    "serviceType": "訪問介護",
    "capacity": 0,
    "openDays": [
      "平日",
      "土曜日",
      "日曜日",
      "祝日"
    ],
    "openDaysNote": "サービス提供は年中無休。"
  },
  {
    "id": "2570501466",
    "name": "訪問介護　櫻の庭",
    "kana": "ホウモンカイゴ　サクラノニワ",
    "address": "滋賀県東近江市桜川西町142-5",
    "lat": 35.0631326,
    "lng": 136.1884739,
    "tel": "0748-56-1638",
    "url": "https://sites.google.com/view/sakuranoniwa",
    "pref": "滋賀県",
    "city": "東近江市",
    "category": "home_help",
    "serviceType": "訪問介護",
    "capacity": null,
    "openDays": [
      "平日"
    ],
    "openDaysNote": ""
  },
  {
    "id": "2570501474",
    "name": "訪問介護タイニー・ドリーム湖東",
    "kana": "ホウモンカイゴタイニー・ドリームコトウ",
    "address": "滋賀県東近江市垣見町1581",
    "lat": 35.1827822,
    "lng": 136.1638229,
    "tel": "0748-34-1123",
    "url": "https://www.tiny-dream.com/index.html",
    "pref": "滋賀県",
    "city": "東近江市",
    "category": "home_help",
    "serviceType": "訪問介護",
    "capacity": 0,
    "openDays": [
      "平日",
      "土曜日",
      "日曜日",
      "祝日"
    ],
    "openDaysNote": ""
  },
  {
    "id": "2570501524",
    "name": "訪問介護事業所みなと",
    "kana": "ホウモンカイゴジギョウショミナト",
    "address": "滋賀県東近江市沖野2丁目9-25",
    "lat": 35.1010003,
    "lng": 136.2053205,
    "tel": "0748-34-0657",
    "url": "",
    "pref": "滋賀県",
    "city": "東近江市",
    "category": "home_help",
    "serviceType": "訪問介護",
    "capacity": 40,
    "openDays": [
      "平日"
    ],
    "openDaysNote": ""
  },
  {
    "id": "2571500202",
    "name": "いずみ介護サービスひふみ訪問介護",
    "kana": "イズミカイゴサービスヒフミホウモンカイゴ",
    "address": "滋賀県蒲生郡日野町大字里口４８",
    "lat": 35.0148279,
    "lng": 136.2270953,
    "tel": "0748-53-8711",
    "url": "http://care-net.biz/25/izumikaigo/",
    "pref": "滋賀県",
    "city": "日野町",
    "category": "home_help",
    "serviceType": "訪問介護",
    "capacity": 0,
    "openDays": [
      "平日",
      "土曜日",
      "日曜日",
      "祝日"
    ],
    "openDaysNote": "時間によっては、訪問介護員の人数等によりご利用人数に限りがあります。"
  },
  {
    "id": "2571500251",
    "name": "日野町社会福祉協議会　ホームヘルパーステーションひだまり",
    "kana": "ヒノチョウシャカイフクシキョウギカイ　ホームヘルパーステーションヒダマリ",
    "address": "滋賀県蒲生郡日野町河原一丁目１番地",
    "lat": 35.0185724150477,
    "lng": 136.245548416459,
    "tel": "0748-52-5556",
    "url": "http://www.hinoshakyo.or.jp/",
    "pref": "滋賀県",
    "city": "日野町",
    "category": "home_help",
    "serviceType": "訪問介護",
    "capacity": 0,
    "openDays": [
      "平日",
      "土曜日",
      "日曜日",
      "祝日"
    ],
    "openDaysNote": ""
  },
  {
    "id": "2570201711",
    "name": "アクア彦根訪問介護",
    "kana": "アクアヒコネホウモンカイゴ",
    "address": "滋賀県彦根市野田山町918-1",
    "lat": 35.2469230697378,
    "lng": 136.275624727722,
    "tel": "0749-30-9822",
    "url": "",
    "pref": "滋賀県",
    "city": "彦根市",
    "category": "home_help",
    "serviceType": "訪問介護",
    "capacity": null,
    "openDays": [
      "平日",
      "土曜日",
      "日曜日",
      "祝日"
    ],
    "openDaysNote": ""
  },
  {
    "id": "2570201448",
    "name": "アリエスけあ彦根",
    "kana": "アリエスケアヒコネ",
    "address": "滋賀県彦根市西今町301番地1リヴハイツ104 リヴハイツ104",
    "lat": 35.2475734,
    "lng": 136.2426885,
    "tel": "0749-20-2244",
    "url": "",
    "pref": "滋賀県",
    "city": "彦根市",
    "category": "home_help",
    "serviceType": "訪問介護",
    "capacity": 0,
    "openDays": [
      "平日",
      "土曜日",
      "日曜日",
      "祝日"
    ],
    "openDaysNote": "居宅サービス計画により休業日及び時間外であってもサービスを提供する場合があります。"
  },
  {
    "id": "2570201190",
    "name": "ケアステーション　あんじぇす彦根城",
    "kana": "ケアステーション　アンジェスヒコネジョウ",
    "address": "滋賀県彦根市元町1番34号アンジェス彦根城 アンジェス彦根城",
    "lat": 35.2763421602283,
    "lng": 136.259448279237,
    "tel": "0749-27-7727",
    "url": "http://www.t-s-i.jp/",
    "pref": "滋賀県",
    "city": "彦根市",
    "category": "home_help",
    "serviceType": "訪問介護",
    "capacity": 0,
    "openDays": [
      "平日",
      "土曜日",
      "日曜日",
      "祝日"
    ],
    "openDaysNote": "午前4時30分～午前5時59分　割引率　16％"
  },
  {
    "id": "2570201109",
    "name": "ケアステーションあんじぇす彦根",
    "kana": "ケアステーションアンジェスヒコネ",
    "address": "滋賀県彦根市大藪町７３７－３アンジェス彦根 アンジェス彦根",
    "lat": 35.264524621873,
    "lng": 136.234865315344,
    "tel": "0479-27-7770",
    "url": "http://www.t-s-i.jp/index.html",
    "pref": "滋賀県",
    "city": "彦根市",
    "category": "home_help",
    "serviceType": "訪問介護",
    "capacity": 31,
    "openDays": [
      "平日",
      "祝日"
    ],
    "openDaysNote": "営業時間外もサービス提供を行います。"
  },
  {
    "id": "2570200986",
    "name": "サニープレイス河瀬ヘルパーステーション",
    "kana": "サニープレイスカワセヘルパーステーション",
    "address": "滋賀県彦根市川瀬馬場町９７１番地１サニープレイス河瀬 サニープレイス河瀬",
    "lat": 35.2277203,
    "lng": 136.2243325,
    "tel": "0749-28-7400",
    "url": "http://hinatakonon.jp/",
    "pref": "滋賀県",
    "city": "彦根市",
    "category": "home_help",
    "serviceType": "訪問介護",
    "capacity": 0,
    "openDays": [
      "平日",
      "土曜日",
      "日曜日",
      "祝日"
    ],
    "openDaysNote": ""
  },
  {
    "id": "2570201463",
    "name": "ニチイケアセンター稲枝",
    "kana": "ニチイケアセンターイナエ",
    "address": "滋賀県彦根市稲部町字六ノ坪79-3日東マンション１F 日東マンション１F",
    "lat": 35.2061352469792,
    "lng": 136.199255768044,
    "tel": "0749-43-8008",
    "url": "",
    "pref": "滋賀県",
    "city": "彦根市",
    "category": "home_help",
    "serviceType": "訪問介護",
    "capacity": 0,
    "openDays": [
      "平日",
      "土曜日",
      "日曜日",
      "祝日"
    ],
    "openDaysNote": "相談に応じ時間の変更あります。"
  },
  {
    "id": "2570200283",
    "name": "ニチイケアセンター大藪",
    "kana": "ニチイケアセンターオオヤブ",
    "address": "彦根市大藪町2505-1",
    "lat": 35.2624945,
    "lng": 136.2351002,
    "tel": "0749-21-2560",
    "url": "http://www.nichiigakkan.co.jp",
    "pref": "滋賀県",
    "city": "彦根市",
    "category": "home_help",
    "serviceType": "訪問介護",
    "capacity": 0,
    "openDays": [
      "平日",
      "土曜日",
      "日曜日",
      "祝日"
    ],
    "openDaysNote": "上記以外の時間帯（早朝、夜間、深夜）については応相談"
  },
  {
    "id": "2570200184",
    "name": "ニチイケアセンター彦根",
    "kana": "ニチイケアセンターヒコネ",
    "address": "彦根市西葛籠町311－6",
    "lat": 35.2256600050168,
    "lng": 136.240217201358,
    "tel": "0749-28－7118",
    "url": "http://www.nichiigakkan.co.jp/",
    "pref": "滋賀県",
    "city": "彦根市",
    "category": "home_help",
    "serviceType": "訪問介護",
    "capacity": 5,
    "openDays": [
      "平日",
      "土曜日",
      "日曜日",
      "祝日"
    ],
    "openDaysNote": "居宅サービス計画により、休業日及び、営業時間外であってもサービスを提供する場合があります。"
  },
  {
    "id": "2570201497",
    "name": "ニチイケアセンター彦根駅前",
    "kana": "ニチイケアセンターヒコネエキマエ",
    "address": "滋賀県彦根市旭町2-5",
    "lat": 35.2742985,
    "lng": 136.2603388,
    "tel": "0749-21-5072",
    "url": "",
    "pref": "滋賀県",
    "city": "彦根市",
    "category": "home_help",
    "serviceType": "訪問介護",
    "capacity": null,
    "openDays": [
      "平日"
    ],
    "openDaysNote": "居宅サービス計画により、休業日及び営業時間外であってもサービスを提供する場合があります。"
  },
  {
    "id": "2570201133",
    "name": "ヘルパーステーションひまわり",
    "kana": "ヘルパーステーションヒマワリ",
    "address": "滋賀県彦根市里根町191-1ハートフルヒルズ彦根 ハートフルヒルズ彦根",
    "lat": 35.2674261,
    "lng": 136.2678554,
    "tel": "0749-26-5520",
    "url": "http://www.soin-vie.co.jp",
    "pref": "滋賀県",
    "city": "彦根市",
    "category": "home_help",
    "serviceType": "訪問介護",
    "capacity": 0,
    "openDays": [
      "平日",
      "土曜日",
      "日曜日",
      "祝日"
    ],
    "openDaysNote": ""
  },
  {
    "id": "2560290120",
    "name": "ヘルパー事業所じゅう楽",
    "kana": "ヘルパージギョウショジュウラク",
    "address": "滋賀県彦根市稲部町100-4-4里西住宅4号棟 里西住宅4号棟",
    "lat": 35.2049000424485,
    "lng": 136.196432187766,
    "tel": "0749-49-3711",
    "url": "https://jyuraku-omi.localinfo.jp",
    "pref": "滋賀県",
    "city": "彦根市",
    "category": "home_help",
    "serviceType": "訪問介護",
    "capacity": 3,
    "openDays": [
      "平日",
      "土曜日",
      "日曜日",
      "祝日"
    ],
    "openDaysNote": "電話等により24時間常時連絡が可能な体制をとり、必要が有ると判断した場合緊急訪問を行う"
  },
  {
    "id": "2570201760",
    "name": "ホームケアらっこ",
    "kana": "ホームケアラッコ",
    "address": "滋賀県彦根市高宮町2073番地7",
    "lat": 35.2377706,
    "lng": 136.2530964,
    "tel": "080-2525-3470",
    "url": "",
    "pref": "滋賀県",
    "city": "彦根市",
    "category": "home_help",
    "serviceType": "訪問介護",
    "capacity": null,
    "openDays": [
      "平日",
      "土曜日",
      "祝日"
    ],
    "openDaysNote": "12月30日から1月3日及び、8月13日から８月15日を除く。"
  },
  {
    "id": "2570201331",
    "name": "まりいヘルパーステーション",
    "kana": "マリイヘルパーステーション",
    "address": "滋賀県彦根市肥田町981-2光タウン102号 光タウン102号",
    "lat": 35.204621,
    "lng": 136.199777,
    "tel": "0749-49-3121",
    "url": "https://marii.crayonsite.net/",
    "pref": "滋賀県",
    "city": "彦根市",
    "category": "home_help",
    "serviceType": "訪問介護",
    "capacity": null,
    "openDays": [
      "平日",
      "土曜日",
      "日曜日",
      "祝日"
    ],
    "openDaysNote": ""
  },
  {
    "id": "2570201059",
    "name": "みどりや訪問介護ステーション",
    "kana": "ミドリヤホウモンカイゴステーション",
    "address": "滋賀県彦根市肥田町1013-2",
    "lat": 35.2040429,
    "lng": 136.2001303,
    "tel": "0749-20-0001",
    "url": "https://www.kyoto-midoriya.co.jp/",
    "pref": "滋賀県",
    "city": "彦根市",
    "category": "home_help",
    "serviceType": "訪問介護",
    "capacity": null,
    "openDays": [
      "平日",
      "土曜日",
      "日曜日",
      "祝日"
    ],
    "openDaysNote": ""
  },
  {
    "id": "2570201216",
    "name": "るりあん彦根ケアサービス",
    "kana": "ルリアンヒコネケアサービス",
    "address": "滋賀県彦根市野口町字若松276番地",
    "lat": 35.2212572,
    "lng": 136.2368034,
    "tel": "0749-20-5062",
    "url": "http://lelien-hikone.com/",
    "pref": "滋賀県",
    "city": "彦根市",
    "category": "home_help",
    "serviceType": "訪問介護",
    "capacity": 0,
    "openDays": [
      "平日",
      "土曜日",
      "日曜日",
      "祝日"
    ],
    "openDaysNote": ""
  },
  {
    "id": "2570200663",
    "name": "社会福祉法人　千歳会",
    "kana": "シャカイフクシホウジン　チトセカイ",
    "address": "彦根市河原二丁目１番３号",
    "lat": 35.2661258,
    "lng": 136.2542845,
    "tel": "0749-27-2555",
    "url": "www.chitosekai.net.",
    "pref": "滋賀県",
    "city": "彦根市",
    "category": "home_help",
    "serviceType": "訪問介護",
    "capacity": 0,
    "openDays": [
      "平日",
      "土曜日",
      "日曜日",
      "祝日"
    ],
    "openDaysNote": ""
  },
  {
    "id": "2570200044",
    "name": "社会福祉法人彦根市社会福祉協議会ホームヘルパーステーション",
    "kana": "シャカイフクシホウジンヒコネシシャカイフクシキョウギカイ",
    "address": "彦根市平田町６７０番地福祉センター別館１階 福祉センター別館１階",
    "lat": 35.2557895,
    "lng": 136.2394911,
    "tel": "0749-21-4117",
    "url": "http://www.hikone-shakyou.or.jp",
    "pref": "滋賀県",
    "city": "彦根市",
    "category": "home_help",
    "serviceType": "訪問介護",
    "capacity": 0,
    "openDays": [
      "平日",
      "土曜日",
      "日曜日",
      "祝日"
    ],
    "openDaysNote": "12月31日と1月1.2.3日は休業"
  },
  {
    "id": "2570200580",
    "name": "障害者自立支援センター「葦の舟」",
    "kana": "ショウガイシャジリツシエンセンターアシノフネ",
    "address": "滋賀県彦根市高宮町1393-6ハイツスカイウィング102号 ハイツスカイウィング102号",
    "lat": 35.2409143,
    "lng": 136.2524495,
    "tel": "0749-23-8941",
    "url": "http://ashinohune.org/",
    "pref": "滋賀県",
    "city": "彦根市",
    "category": "home_help",
    "serviceType": "訪問介護",
    "capacity": 0,
    "openDays": [
      "平日",
      "土曜日",
      "日曜日",
      "祝日"
    ],
    "openDaysNote": "早朝・夜間は応相談"
  },
  {
    "id": "2570200606",
    "name": "信幸ケアサービスセンター",
    "kana": "シンコウ",
    "address": "彦根市賀田山町240-2",
    "lat": 35.2208331267652,
    "lng": 136.213730780334,
    "tel": "0749-28-0294",
    "url": "https://www.shinkohcare.com",
    "pref": "滋賀県",
    "city": "彦根市",
    "category": "home_help",
    "serviceType": "訪問介護",
    "capacity": 0,
    "openDays": [
      "平日",
      "土曜日",
      "日曜日",
      "祝日"
    ],
    "openDaysNote": "・12/29～1/3原則として利用できませんが、この期間及び時間外の利用については利用者の状況に応じて相談・対応します。"
  },
  {
    "id": "2570200010",
    "name": "田中ケアサービス株式会社　彦根支援センター",
    "kana": "タナカケアサービスカブシキガイシャ　ヒコネシエンセンター",
    "address": "滋賀県彦根市外町浄土129-2",
    "lat": 35.2670538,
    "lng": 136.2642836,
    "tel": "0749-21-1117",
    "url": "http://www.tanakacare.co.jp/",
    "pref": "滋賀県",
    "city": "彦根市",
    "category": "home_help",
    "serviceType": "訪問介護",
    "capacity": 0,
    "openDays": [
      "平日",
      "土曜日",
      "日曜日",
      "祝日"
    ],
    "openDaysNote": ""
  },
  {
    "id": "2570200838",
    "name": "特定非営利活動法人　滋賀リリースサポートセンター",
    "kana": "トクテイヒエイリカツドウホウジン　シガリリースサポートセンター",
    "address": "彦根市芹町１０番２８－５０２号",
    "lat": 35.2605517,
    "lng": 136.2590455,
    "tel": "0749-47-5471",
    "url": "https://www.shiga-release.com/",
    "pref": "滋賀県",
    "city": "彦根市",
    "category": "home_help",
    "serviceType": "訪問介護",
    "capacity": 0,
    "openDays": [
      "平日",
      "土曜日",
      "日曜日",
      "祝日"
    ],
    "openDaysNote": "早朝・夜間、日曜日は要相談"
  },
  {
    "id": "2570201554",
    "name": "平田訪問介護ステーション爽やかな風",
    "kana": "ヒラタホウモンカイゴステーションサワヤカナカゼ",
    "address": "滋賀県彦根市平田町788南ひこね翔裕館 南ひこね翔裕館",
    "lat": 35.2573209,
    "lng": 136.2438478,
    "tel": "0749-21-5530",
    "url": "https://www.sanga-kaigo.co.jp/",
    "pref": "滋賀県",
    "city": "彦根市",
    "category": "home_help",
    "serviceType": "訪問介護",
    "capacity": 0,
    "openDays": [
      "平日",
      "土曜日",
      "祝日"
    ],
    "openDaysNote": "早朝6：00～8：00　夜間18時以降　ご相談　（改行）深夜訪問は無し"
  },
  {
    "id": "2570200473",
    "name": "訪問介護　みずほ",
    "kana": "ホウモンカイゴ　ミズホ",
    "address": "日夏町２９０６番地５",
    "lat": 35.2350079,
    "lng": 136.2179304,
    "tel": "0749-28-8126",
    "url": "",
    "pref": "滋賀県",
    "city": "彦根市",
    "category": "home_help",
    "serviceType": "訪問介護",
    "capacity": 0,
    "openDays": [
      "平日",
      "土曜日",
      "日曜日",
      "祝日"
    ],
    "openDaysNote": ""
  },
  {
    "id": "2570201703",
    "name": "訪問介護ケアリー彦根宇尾",
    "kana": "ホウモンカイゴケアリーヒコネウオ",
    "address": "滋賀県彦根市宇尾町３１２番地",
    "lat": 35.2447286407814,
    "lng": 136.2338822,
    "tel": "0749-47-3210",
    "url": "https://carely-recruit.com/hikoneuo/",
    "pref": "滋賀県",
    "city": "彦根市",
    "category": "home_help",
    "serviceType": "訪問介護",
    "capacity": null,
    "openDays": [
      "平日",
      "土曜日",
      "日曜日",
      "祝日"
    ],
    "openDaysNote": ""
  },
  {
    "id": "2570201596",
    "name": "訪問介護ステーションりんく",
    "kana": "ホウモンカイゴステーションリンク",
    "address": "滋賀県彦根市正法寺町370－5",
    "lat": 35.2560522,
    "lng": 136.2749542,
    "tel": "0749－20－5106",
    "url": "",
    "pref": "滋賀県",
    "city": "彦根市",
    "category": "home_help",
    "serviceType": "訪問介護",
    "capacity": null,
    "openDays": [
      "平日",
      "土曜日",
      "日曜日",
      "祝日"
    ],
    "openDaysNote": ""
  },
  {
    "id": "2570200861",
    "name": "訪問介護はえみ",
    "kana": "ホウモンカイゴハエミ",
    "address": "彦根市田附町１２２７番地",
    "lat": 35.2090741,
    "lng": 136.1477467,
    "tel": "0749-20-4876",
    "url": "http://hp.kaipoke.biz/7c/",
    "pref": "滋賀県",
    "city": "彦根市",
    "category": "home_help",
    "serviceType": "訪問介護",
    "capacity": 60,
    "openDays": [
      "平日",
      "土曜日",
      "日曜日",
      "祝日"
    ],
    "openDaysNote": ""
  },
  {
    "id": "2570201067",
    "name": "訪問介護事業所えがお",
    "kana": "ホウモンカイゴジギョウショエガオ",
    "address": "滋賀県彦根市戸賀町５１－１",
    "lat": 35.254232,
    "lng": 136.2406002,
    "tel": "0749-47-5155",
    "url": "",
    "pref": "滋賀県",
    "city": "彦根市",
    "category": "home_help",
    "serviceType": "訪問介護",
    "capacity": 0,
    "openDays": [
      "平日",
      "土曜日",
      "日曜日",
      "祝日"
    ],
    "openDaysNote": ""
  },
  {
    "id": "2570201513",
    "name": "有限会社　フロルケア",
    "kana": "ユウゲンカイシャ　フロルケア",
    "address": "滋賀県彦根市日夏町3662-5",
    "lat": 35.2319702,
    "lng": 136.2179565,
    "tel": "0749-47-5241",
    "url": "https://synapsegroup.jp",
    "pref": "滋賀県",
    "city": "彦根市",
    "category": "home_help",
    "serviceType": "訪問介護",
    "capacity": null,
    "openDays": [
      "平日",
      "土曜日",
      "日曜日",
      "祝日"
    ],
    "openDaysNote": ""
  },
  {
    "id": "2570200523",
    "name": "有限会社めいせい訪問介護事業所",
    "kana": "有限会社メイセイ訪問介護事業所",
    "address": "滋賀県彦根市稲里町439番地",
    "lat": 35.216586,
    "lng": 136.194461,
    "tel": "0749-47-8058",
    "url": "http://www.",
    "pref": "滋賀県",
    "city": "彦根市",
    "category": "home_help",
    "serviceType": "訪問介護",
    "capacity": null,
    "openDays": [
      "平日",
      "土曜日",
      "日曜日",
      "祝日"
    ],
    "openDaysNote": "基本的に24時間営業のため上記以外の時間帯でのサービス提供も可能です。"
  },
  {
    "id": "2570200440",
    "name": "有限会社愛彩　あったまるケアサービス",
    "kana": "ユウゲンガイシャアイサイ　アッタマルケアサービス",
    "address": "滋賀県彦根市後三条町５９０－７",
    "lat": 35.2652726,
    "lng": 136.2460492,
    "tel": "0749-26-5517",
    "url": "",
    "pref": "滋賀県",
    "city": "彦根市",
    "category": "home_help",
    "serviceType": "訪問介護",
    "capacity": 0,
    "openDays": [
      "平日",
      "土曜日",
      "日曜日",
      "祝日"
    ],
    "openDaysNote": "時間帯については、できるだけ対応しています。"
  },
  {
    "id": "2570200465",
    "name": "鈴木ヘルスケアサービス",
    "kana": "スズキヘルスケアサービス",
    "address": "滋賀県彦根市後三条町350－3",
    "lat": 35.2628254,
    "lng": 136.248814,
    "tel": "0749-24-0656",
    "url": "http://www.suzukihltheare.co.jp",
    "pref": "滋賀県",
    "city": "彦根市",
    "category": "home_help",
    "serviceType": "訪問介護",
    "capacity": null,
    "openDays": [
      "平日",
      "土曜日",
      "祝日"
    ],
    "openDaysNote": "日曜日は要相談"
  },
  {
    "id": "2572400394",
    "name": "ニチイケアセンター　米原",
    "kana": "ニチイケアセンター　マイハラ",
    "address": "滋賀県米原市宇賀野206-7フォレストパーク1号室 フォレストパーク1号室",
    "lat": 35.3418371,
    "lng": 136.2904957,
    "tel": "0749-52-9010",
    "url": "www.nichiigakkan.co.jp",
    "pref": "滋賀県",
    "city": "米原市",
    "category": "home_help",
    "serviceType": "訪問介護",
    "capacity": 0,
    "openDays": [
      "平日",
      "土曜日",
      "日曜日",
      "祝日"
    ],
    "openDaysNote": "居宅サービス計画により、営業時間外でも、サービスの提供を行なう場合がある。"
  },
  {
    "id": "2572400576",
    "name": "ビジットケアあおば",
    "kana": "ビジットケアアオバ",
    "address": "滋賀県米原市顔戸1729番地1",
    "lat": 35.3369578,
    "lng": 136.3106865,
    "tel": "0749-51-9123",
    "url": "http://maibara-shakyo.or.jp/",
    "pref": "滋賀県",
    "city": "米原市",
    "category": "home_help",
    "serviceType": "訪問介護",
    "capacity": 0,
    "openDays": [
      "平日",
      "土曜日",
      "日曜日",
      "祝日"
    ],
    "openDaysNote": "上記の営業時間のほか、緊急時は受け入れ可能な体制や上記の時間に関わらず、相談に応じます。"
  },
  {
    "id": "2572400634",
    "name": "ヘルパーステーションみしま池",
    "kana": "ヘルパーステーションミシマイケ",
    "address": "滋賀県米原市池下520-1",
    "lat": 35.3705538,
    "lng": 136.3564895,
    "tel": "080-4882-6919",
    "url": "https://www.cs-mishimaike.com/",
    "pref": "滋賀県",
    "city": "米原市",
    "category": "home_help",
    "serviceType": "訪問介護",
    "capacity": 40,
    "openDays": [
      "平日",
      "土曜日"
    ],
    "openDaysNote": "サービス提供時間以外の希望は要相談、緊急時、相談等の電話問い合わせは24時間"
  },
  {
    "id": "2572400345",
    "name": "まごの手　ケアサービス",
    "kana": "マゴノテ　ケアサービス",
    "address": "滋賀県米原市坂口90番地70",
    "lat": 35.3972917,
    "lng": 136.3463215,
    "tel": "0749-55-3210",
    "url": "magonote@iaa.itkeeper.ne.jp",
    "pref": "滋賀県",
    "city": "米原市",
    "category": "home_help",
    "serviceType": "訪問介護",
    "capacity": null,
    "openDays": [
      "平日",
      "土曜日",
      "日曜日",
      "祝日"
    ],
    "openDaysNote": "営業時間以外は24時間相談対応"
  },
  {
    "id": "2572400022",
    "name": "ゆうゆうケアサービス",
    "kana": "ユウユウケアサービス",
    "address": "米原市磯1729-1",
    "lat": 35.3108144,
    "lng": 136.2620074,
    "tel": "0749-52-2512",
    "url": "http://yuyu-life.jp",
    "pref": "滋賀県",
    "city": "米原市",
    "category": "home_help",
    "serviceType": "訪問介護",
    "capacity": 0,
    "openDays": [
      "平日",
      "土曜日",
      "日曜日",
      "祝日"
    ],
    "openDaysNote": ""
  },
  {
    "id": "2572400121",
    "name": "レーク伊吹農業協同組合　訪問介護事業所",
    "kana": "レークイブキノウギョウキョウドウクミアイ　ホウモンカイゴジギョウシヨ",
    "address": "滋賀県米原市能登瀬1286-2",
    "lat": 35.3312413,
    "lng": 136.3157789,
    "tel": "0749-54-2112",
    "url": "https://www.ja-lakeibuki.or.jp",
    "pref": "滋賀県",
    "city": "米原市",
    "category": "home_help",
    "serviceType": "訪問介護",
    "capacity": 0,
    "openDays": [
      "平日",
      "土曜日",
      "日曜日",
      "祝日"
    ],
    "openDaysNote": "利用者の希望により、相談対応します。"
  },
  {
    "id": "2572400048",
    "name": "在宅介護ファミールケア　米原センター",
    "kana": "ザイタクカイゴファミールケアマイバラセンター",
    "address": "滋賀県米原市中多良1丁目17番",
    "lat": 35.3166954,
    "lng": 136.2810277,
    "tel": "0749-52-5665",
    "url": "https://www.famille-care.co.jp",
    "pref": "滋賀県",
    "city": "米原市",
    "category": "home_help",
    "serviceType": "訪問介護",
    "capacity": 10,
    "openDays": [
      "平日",
      "土曜日",
      "日曜日",
      "祝日"
    ],
    "openDaysNote": "12月31日～1月3日は事業所の定休日"
  },
  {
    "id": "2572400477",
    "name": "坂本ケアサービス",
    "kana": "サカモトケアサービス",
    "address": "米原市宇賀野２１９番地３２",
    "lat": 35.3395874,
    "lng": 136.2917705,
    "tel": "0749-52-4664",
    "url": "https://sakamotocare.com",
    "pref": "滋賀県",
    "city": "米原市",
    "category": "home_help",
    "serviceType": "訪問介護",
    "capacity": 40,
    "openDays": [
      "平日",
      "土曜日",
      "日曜日",
      "祝日"
    ],
    "openDaysNote": "年末年始（12/31～1/3）はサービスの提供は行っていません。"
  },
  {
    "id": "2572400402",
    "name": "水野ヘルパーステーション",
    "kana": "ミズノヘルパーステーション",
    "address": "長岡645番地",
    "lat": 35.0342568,
    "lng": 138.9294374,
    "tel": "749554119",
    "url": "http://www.ryokusenkai.com/ryokusenkan/helper.html",
    "pref": "滋賀県",
    "city": "米原市",
    "category": "home_help",
    "serviceType": "訪問介護",
    "capacity": 0,
    "openDays": [
      "平日",
      "土曜日",
      "日曜日"
    ],
    "openDaysNote": ""
  },
  {
    "id": "2572400626",
    "name": "訪問介護　ヘルパーステーションリーチまいばら",
    "kana": "ホウモンカイゴ　ヘルパーステーションリーチマイバラ",
    "address": "顔戸681-1201号室 201号室",
    "lat": 35.3377952442327,
    "lng": 136.298963901991,
    "tel": "0749-57-6301",
    "url": "",
    "pref": "滋賀県",
    "city": "米原市",
    "category": "home_help",
    "serviceType": "訪問介護",
    "capacity": null,
    "openDays": [
      "平日",
      "土曜日",
      "日曜日",
      "祝日"
    ],
    "openDaysNote": ""
  },
  {
    "id": "2571800362",
    "name": "株式会社天の川",
    "kana": "カブシキガイシャアマノガワ",
    "address": "滋賀県犬上郡豊郷町高野瀬678-17",
    "lat": 35.2019845,
    "lng": 136.2221559,
    "tel": "0749-20-4352",
    "url": "",
    "pref": "滋賀県",
    "city": "豊郷町",
    "category": "home_help",
    "serviceType": "訪問介護",
    "capacity": 3,
    "openDays": [
      "平日",
      "土曜日",
      "日曜日",
      "祝日"
    ],
    "openDaysNote": ""
  },
  {
    "id": "2571800305",
    "name": "幸せの扉　訪問介護事業所",
    "kana": "シアワセノトビラ　ホウモンカイゴジギョウショ",
    "address": "滋賀県犬上郡豊郷町下枝34‐5",
    "lat": 35.1932807196646,
    "lng": 136.220583530411,
    "tel": "0749-47-3810",
    "url": "",
    "pref": "滋賀県",
    "city": "豊郷町",
    "category": "home_help",
    "serviceType": "訪問介護",
    "capacity": 0,
    "openDays": [
      "平日",
      "土曜日",
      "祝日"
    ],
    "openDaysNote": "上記日程に加え、お盆(8/13～15日)、年末年始(12/30～1/4日)もサービスの提供は致しておりません。（改行）（改行）但し、上記のサービス提供時間以外であっても、要相談によりサービスの提供を可能としています。（改行）また、上記のサービス提供時間のほか、電話等により24時間常時連絡が可能な体制となってます。"
  },
  {
    "id": "2571300215",
    "name": "（株）青空訪問介護事業所",
    "kana": "（カブ）アオゾラホウモンカイゴジギョウショ",
    "address": "滋賀県野洲市冨波乙690-15",
    "lat": 35.0886707,
    "lng": 136.0315692,
    "tel": "077-586-3605",
    "url": "",
    "pref": "滋賀県",
    "city": "野洲市",
    "category": "home_help",
    "serviceType": "訪問介護",
    "capacity": 10,
    "openDays": [
      "平日",
      "土曜日",
      "日曜日",
      "祝日"
    ],
    "openDaysNote": "定休日、他時間外ケアに関してはケアプランに基づいて応相談。"
  },
  {
    "id": "2571300439",
    "name": "あいむ野洲訪問介護",
    "kana": "アイムヤスホウモンカイゴ",
    "address": "野洲市冨波乙190番地",
    "lat": 35.0760584,
    "lng": 136.032383,
    "tel": "077-587-2901",
    "url": "http://k-aimu.co.jp",
    "pref": "滋賀県",
    "city": "野洲市",
    "category": "home_help",
    "serviceType": "訪問介護",
    "capacity": 0,
    "openDays": [
      "平日",
      "土曜日",
      "日曜日",
      "祝日"
    ],
    "openDaysNote": "時間外も対応可能"
  },
  {
    "id": "2571300678",
    "name": "しみんふくし滋賀野洲訪問介護事業所",
    "kana": "シミンフクシシガヤスホウモンカイゴジギョウショ",
    "address": "滋賀県野洲市小篠原1111-1ロイヤルコーポヤス103号 ロイヤルコーポヤス103号",
    "lat": 35.0647596,
    "lng": 136.0227203,
    "tel": "077-586-2598",
    "url": "http://www.shiminfukushi-shiga.jp/",
    "pref": "滋賀県",
    "city": "野洲市",
    "category": "home_help",
    "serviceType": "訪問介護",
    "capacity": 0,
    "openDays": [
      "平日",
      "土曜日",
      "日曜日",
      "祝日"
    ],
    "openDaysNote": "ヘルパーの稼働によりお引き受け出来ない場合があります。"
  },
  {
    "id": "2571300702",
    "name": "トータルサポートいろ葉",
    "kana": "トータルサポートイロハ",
    "address": "滋賀県野洲市西河原252番地2",
    "lat": 35.1048214,
    "lng": 136.0173902,
    "tel": "077-576-8040",
    "url": "",
    "pref": "滋賀県",
    "city": "野洲市",
    "category": "home_help",
    "serviceType": "訪問介護",
    "capacity": 0,
    "openDays": [
      "平日",
      "土曜日"
    ],
    "openDaysNote": ""
  },
  {
    "id": "2571300819",
    "name": "ヘルパーステーションKOKORO",
    "kana": "ヘルパーステーションココロ",
    "address": "滋賀県野洲市小篠原1800番地30",
    "lat": 35.0709911,
    "lng": 136.0303789,
    "tel": "080-3842-6528",
    "url": "",
    "pref": "滋賀県",
    "city": "野洲市",
    "category": "home_help",
    "serviceType": "訪問介護",
    "capacity": 0,
    "openDays": [
      "平日",
      "土曜日",
      "日曜日",
      "祝日"
    ],
    "openDaysNote": "サービス提供日は年中無休とする。"
  },
  {
    "id": "2571300637",
    "name": "ヘルパーステーションぽこ野洲",
    "kana": "ヘルパーステーションポコヤス",
    "address": "滋賀県野洲市富波甲972ケアサポートセンターぽこ野洲 ケアサポートセンターぽこ野洲",
    "lat": 35.0817109090885,
    "lng": 136.035108280322,
    "tel": "077-588-6590",
    "url": "http://www.pak2.com/hukushi/yasu.html",
    "pref": "滋賀県",
    "city": "野洲市",
    "category": "home_help",
    "serviceType": "訪問介護",
    "capacity": 0,
    "openDays": [
      "平日",
      "土曜日",
      "日曜日",
      "祝日"
    ],
    "openDaysNote": ""
  },
  {
    "id": "2571300777",
    "name": "ラ・ステイト野洲ヘルパーステーション",
    "kana": "ラ・ステイトヤスヘルパーステーション",
    "address": "滋賀県野洲市野洲2053-1",
    "lat": 35.0652328907582,
    "lng": 136.015131471958,
    "tel": "077-599-0352",
    "url": "https://www.lastate.jp/",
    "pref": "滋賀県",
    "city": "野洲市",
    "category": "home_help",
    "serviceType": "訪問介護",
    "capacity": 39,
    "openDays": [
      "平日",
      "土曜日",
      "日曜日",
      "祝日"
    ],
    "openDaysNote": "年中無休。時間外についても対応可能"
  },
  {
    "id": "2571300561",
    "name": "株式会社　ルシエル",
    "kana": "カブシキガイシャ　ルシエル",
    "address": "滋賀県野洲市久野部200-1-101",
    "lat": 35.0703368,
    "lng": 136.0231619,
    "tel": "077-596-3150",
    "url": "info@leciel-g.co.jp",
    "pref": "滋賀県",
    "city": "野洲市",
    "category": "home_help",
    "serviceType": "訪問介護",
    "capacity": 0,
    "openDays": [
      "平日",
      "土曜日",
      "祝日"
    ],
    "openDaysNote": "時間外・土日曜日は、要相談"
  },
  {
    "id": "2571300504",
    "name": "訪問介護事業所　ふくろう",
    "kana": "ホウモンカイゴジギョウショ　フクロウ",
    "address": "滋賀県野洲市吉地1丁目1171番地",
    "lat": 35.1019858699145,
    "lng": 136.009899726831,
    "tel": "077－599－5820",
    "url": "http://www.kaigo-fukurou.com/",
    "pref": "滋賀県",
    "city": "野洲市",
    "category": "home_help",
    "serviceType": "訪問介護",
    "capacity": 30,
    "openDays": [],
    "openDaysNote": "サービス提供時間は1年365日24時間実施"
  },
  {
    "id": "2571500442",
    "name": "ヘルパーステーション桃の郷",
    "kana": "ヘルパーステーションモモノサト",
    "address": "滋賀県蒲生郡竜王町大字山之上5147-8",
    "lat": 35.0480183,
    "lng": 136.1436276,
    "tel": "0748-57-0890",
    "url": "",
    "pref": "滋賀県",
    "city": "竜王町",
    "category": "home_help",
    "serviceType": "訪問介護",
    "capacity": 0,
    "openDays": [
      "平日",
      "土曜日",
      "日曜日",
      "祝日"
    ],
    "openDaysNote": ""
  },
  {
    "id": "2571500020",
    "name": "ヘルパーステーション万葉の里",
    "kana": "ヘルパーステーションマンヨウノサト",
    "address": "滋賀県蒲生郡竜王町大字山之上６０６８",
    "lat": 35.0535787,
    "lng": 136.1458189,
    "tel": "0748-57-2106",
    "url": "https://care-net.biz/25/yukinokai/",
    "pref": "滋賀県",
    "city": "竜王町",
    "category": "home_help",
    "serviceType": "訪問介護",
    "capacity": 0,
    "openDays": [
      "平日",
      "土曜日",
      "日曜日",
      "祝日"
    ],
    "openDaysNote": "1月1日～3日"
  },
  {
    "id": "2511500650",
    "name": "弓削メディカルクリニック在宅医療部訪問介護",
    "kana": "ユゲメディカルクリニックザイタクイリョウブホウモンカイゴ",
    "address": "滋賀県蒲生郡竜王町弓削1825番地",
    "lat": 35.0882634,
    "lng": 136.11966,
    "tel": "0748-57-0584",
    "url": "http://www.biwa.ne.jp/~masa-ame",
    "pref": "滋賀県",
    "city": "竜王町",
    "category": "home_help",
    "serviceType": "訪問介護",
    "capacity": 0,
    "openDays": [
      "平日",
      "土曜日",
      "日曜日",
      "祝日"
    ],
    "openDaysNote": "12月30日から1月3日まで休み"
  }
]