[
  {
    "id": "1772100184",
    "name": "なぎさケアサービス",
    "kana": "ナギサケアサービス",
    "address": "石川県かほく市白尾タ１９番地１",
    "lat": 36.7161209,
    "lng": 136.6950533,
    "tel": "０７６－２８３－１０６０",
    "url": "hppt://hoyasakai1060nagisa.com/",
    "pref": "石川県",
    "city": "かほく市",
    "category": "home_help",
    "serviceType": "訪問介護",
    "capacity": 0,
    "openDays": [
      "平日"
    ],
    "openDaysNote": "365日24時間"
  },
  {
    "id": "1772100309",
    "name": "ひゃくまん星高松訪問介護事業所",
    "kana": "ヒャクマンボシタカマツホウモンカイゴジギョウショ",
    "address": "高松甲16番地10",
    "lat": 36.7613436,
    "lng": 136.7112457,
    "tel": "076-281-1008",
    "url": "",
    "pref": "石川県",
    "city": "かほく市",
    "category": "home_help",
    "serviceType": "訪問介護",
    "capacity": 0,
    "openDays": [
      "平日",
      "土曜日",
      "日曜日",
      "祝日"
    ],
    "openDaysNote": "月曜日から日曜日年中無休24時間"
  },
  {
    "id": "1772100143",
    "name": "社会福祉法人かほく市社会福祉協議会中央訪問介護事業所",
    "kana": "シャカイフクシホウジンカホクシシャカイフクシキョウギカイチュウオウホウモンカイゴジギョウショ",
    "address": "石川県かほく市遠塚ロ52番地10かほく市七塚健康福祉センター内 かほく市七塚健康福祉センター内",
    "lat": 36.7347602,
    "lng": 136.700727,
    "tel": "076-285-8886",
    "url": "http://www.kahoku-syakyo.or.jp/",
    "pref": "石川県",
    "city": "かほく市",
    "category": "home_help",
    "serviceType": "訪問介護",
    "capacity": 0,
    "openDays": [
      "平日",
      "土曜日",
      "日曜日",
      "祝日"
    ],
    "openDaysNote": "※午前8時から午後6時以外のご利用の場合は、割増料金有でのサービス利用可能ですので、ご契約時にはご希望、ケアプランに基づいて確認・対応させて頂いています。（改行）※上記以外の時間帯も24時間電話対応等可能な状態にしております。"
  },
  {
    "id": "1762191425",
    "name": "訪問介護ステーション蒼",
    "kana": "ホウモンカイゴステーションアオイ",
    "address": "石川県かほく市大崎5-10-2",
    "lat": 36.7043406,
    "lng": 136.6820603,
    "tel": "080-6360-2442",
    "url": "",
    "pref": "石川県",
    "city": "かほく市",
    "category": "home_help",
    "serviceType": "訪問介護",
    "capacity": null,
    "openDays": [
      "平日",
      "土曜日",
      "日曜日",
      "祝日"
    ],
    "openDaysNote": ""
  },
  {
    "id": "1770700373",
    "name": "ＳＯＭＰＯケア　羽咋　訪問介護",
    "kana": "ソンポケア　ハクイ　ホウモンカイゴ",
    "address": "石川県羽咋市南中央町キ154-14　和田ビル１階",
    "lat": 36.8920946099848,
    "lng": 136.778586659,
    "tel": "0767-22-2137",
    "url": "",
    "pref": "石川県",
    "city": "羽咋市",
    "category": "home_help",
    "serviceType": "訪問介護",
    "capacity": 0,
    "openDays": [
      "平日",
      "土曜日",
      "日曜日",
      "祝日"
    ],
    "openDaysNote": "サービス提供時間は、事前に居宅介護支援事業所により計画された居宅サービス計画書に基づくものとする。"
  },
  {
    "id": "1770700407",
    "name": "ヘルパーステーションあわら",
    "kana": "ヘルパーステーションアワラ",
    "address": "石川県羽咋市粟原町イ110番地",
    "lat": 36.8740373,
    "lng": 136.7850711,
    "tel": "0767-22-0107",
    "url": "ttps://awara-hakui.com.",
    "pref": "石川県",
    "city": "羽咋市",
    "category": "home_help",
    "serviceType": "訪問介護",
    "capacity": 0,
    "openDays": [
      "平日",
      "祝日"
    ],
    "openDaysNote": "土日および、サービス利用時間以外であっても計画的な訪問であれば利用可能"
  },
  {
    "id": "1760790566",
    "name": "羽咋市在宅総合サービスステーション",
    "kana": "ハクイシザイタクソウゴウサービスステーション",
    "address": "石川県羽咋市鶴多町亀田17番地羽咋すこやかセンター２階 羽咋すこやかセンター２階",
    "lat": 36.8980509,
    "lng": 136.7913642,
    "tel": "0767-22-9418",
    "url": "https://hakuisyakyo.jp/",
    "pref": "石川県",
    "city": "羽咋市",
    "category": "home_help",
    "serviceType": "訪問介護",
    "capacity": 0,
    "openDays": [
      "平日",
      "土曜日",
      "日曜日",
      "祝日"
    ],
    "openDaysNote": "24時間365日対応"
  },
  {
    "id": "1760790475",
    "name": "介護センターほのぼの",
    "kana": "カイゴセンターホノボノ",
    "address": "石川県羽咋市石野町ト40",
    "lat": 36.8944494,
    "lng": 136.7948302,
    "tel": "0767-22-8512",
    "url": "http://ishikawa-kinikyo.jp/hakui/",
    "pref": "石川県",
    "city": "羽咋市",
    "category": "home_help",
    "serviceType": "訪問介護",
    "capacity": 0,
    "openDays": [
      "平日"
    ],
    "openDaysNote": "365日サービス提供できる体制を確保しており、希望に応じて対応。"
  },
  {
    "id": "1770700233",
    "name": "眉丈園ホームヘルプサービスセンター",
    "kana": "ビジョウエンホームヘルプサービスセンター",
    "address": "羽咋市南中央町キ154番地13地域ケアセンター唐戸山 地域ケアセンター唐戸山",
    "lat": 36.8906714,
    "lng": 136.7788825,
    "tel": "0767-22-2550",
    "url": "www.bijyoukai.net/",
    "pref": "石川県",
    "city": "羽咋市",
    "category": "home_help",
    "serviceType": "訪問介護",
    "capacity": 0,
    "openDays": [
      "平日",
      "土曜日",
      "日曜日",
      "祝日"
    ],
    "openDaysNote": "緊急時は24時間連絡可能な体制です。"
  },
  {
    "id": "1770700332",
    "name": "訪問介護事業所悠和ウエルネス",
    "kana": "ホウモンカイゴジギョウショユウワウエルネス",
    "address": "石川県羽咋市寺家町セ２番１住宅型有料老人ホーム　能登和楽の里 住宅型有料老人ホーム　能登和楽の里",
    "lat": 36.9299213,
    "lng": 136.7635379,
    "tel": "０７６７－２２－７７３９",
    "url": "http://notowarakunosato.com",
    "pref": "石川県",
    "city": "羽咋市",
    "category": "home_help",
    "serviceType": "訪問介護",
    "capacity": 0,
    "openDays": [
      "平日",
      "土曜日",
      "日曜日",
      "祝日"
    ],
    "openDaysNote": "サービス提供日：３６５日、サービス提供時間：２４時間"
  },
  {
    "id": "1770700399",
    "name": "訪問介護事業所悠和ウエルネス東川原",
    "kana": "ホウモンカイゴジギョウショユウワウエルネスヒガシカワラ",
    "address": "石川県羽咋市東川原町砂田１１番地１住宅型有料老人ホーム　能登和楽の里東川原 住宅型有料老人ホーム　能登和楽の里東川原",
    "lat": 36.894252,
    "lng": 136.7849912,
    "tel": "０７６７ー２２ー７７３５",
    "url": "http://notowarakunosato.com",
    "pref": "石川県",
    "city": "羽咋市",
    "category": "home_help",
    "serviceType": "訪問介護",
    "capacity": 0,
    "openDays": [
      "平日",
      "土曜日",
      "日曜日",
      "祝日"
    ],
    "openDaysNote": "サービス提供日：３６５日、サービス提供時間：２４時間"
  },
  {
    "id": "1770600631",
    "name": "いまケア太陽",
    "kana": "イマケアタイヨウ",
    "address": "石川県加賀市作見町り７７",
    "lat": 36.3167299,
    "lng": 136.3502661,
    "tel": "0761-75-2101",
    "url": "https://suzuki-kenko.jp",
    "pref": "石川県",
    "city": "加賀市",
    "category": "home_help",
    "serviceType": "訪問介護",
    "capacity": 0,
    "openDays": [
      "平日",
      "土曜日",
      "日曜日",
      "祝日"
    ],
    "openDaysNote": ""
  },
  {
    "id": "1770600516",
    "name": "かがやきヘルパーステーション",
    "kana": "カガヤキヘルパーステーション",
    "address": "石川県加賀市山代温泉35の14番地の3",
    "lat": 36.2996426,
    "lng": 136.3586868,
    "tel": "0761-77-2310",
    "url": "",
    "pref": "石川県",
    "city": "加賀市",
    "category": "home_help",
    "serviceType": "訪問介護",
    "capacity": 0,
    "openDays": [
      "平日",
      "土曜日",
      "日曜日",
      "祝日"
    ],
    "openDaysNote": ""
  },
  {
    "id": "1770600680",
    "name": "ききょうが丘ヘルパーステーション",
    "kana": "キキョウガオカヘルパーステーション",
    "address": "石川県加賀市山代温泉桔梗丘４丁目１番１",
    "lat": 36.2839570913222,
    "lng": 136.357070884656,
    "tel": "0761-76-3640",
    "url": "https://chokyuhukushi.jp/",
    "pref": "石川県",
    "city": "加賀市",
    "category": "home_help",
    "serviceType": "訪問介護",
    "capacity": 0,
    "openDays": [
      "平日",
      "土曜日",
      "日曜日",
      "祝日"
    ],
    "openDaysNote": "午前8時30分から午後5時15分（改行）電話等により24時間対応可能"
  },
  {
    "id": "1760690717",
    "name": "さわらび訪問介護事業所",
    "kana": "サワラビホウモンカイゴジギョウショ",
    "address": "石川県加賀市山中温泉塚谷町ロ24番地1",
    "lat": 36.2590923,
    "lng": 136.3698288,
    "tel": "0761-78-0089",
    "url": "http://www.sawarabi-y.jp/",
    "pref": "石川県",
    "city": "加賀市",
    "category": "home_help",
    "serviceType": "訪問介護",
    "capacity": 0,
    "openDays": [
      "平日"
    ],
    "openDaysNote": "土曜　日曜　祝日のサービスには相談に応じます"
  },
  {
    "id": "1770600540",
    "name": "サンウェルズ河原ヘルパーステーション",
    "kana": "サンウェルズカワラヘルパーステーション",
    "address": "石川県加賀市河原町ホ36番",
    "lat": 36.3068652402863,
    "lng": 136.384714779237,
    "tel": "0761-77-0361",
    "url": "http://www.sunwels.jp",
    "pref": "石川県",
    "city": "加賀市",
    "category": "home_help",
    "serviceType": "訪問介護",
    "capacity": 0,
    "openDays": [
      "平日",
      "土曜日",
      "日曜日",
      "祝日"
    ],
    "openDaysNote": ""
  },
  {
    "id": "1770600722",
    "name": "ヘルパーステーションゆりのき",
    "kana": "ヘルパーステーションユリノキ",
    "address": "石川県加賀市松が丘３丁目１６－１０",
    "lat": 36.3246076,
    "lng": 136.3358187,
    "tel": "0761-76-9187",
    "url": "",
    "pref": "石川県",
    "city": "加賀市",
    "category": "home_help",
    "serviceType": "訪問介護",
    "capacity": 0,
    "openDays": [
      "平日",
      "土曜日",
      "日曜日",
      "祝日"
    ],
    "openDaysNote": ""
  },
  {
    "id": "1770600128",
    "name": "ヘルパー和",
    "kana": "ヘルパー　ヤワラギ",
    "address": "片山津町ム３０番",
    "lat": 36.3435314,
    "lng": 136.3727617,
    "tel": "０７６１（７５）３５００",
    "url": "https://yawaragi.ne.jp/",
    "pref": "石川県",
    "city": "加賀市",
    "category": "home_help",
    "serviceType": "訪問介護",
    "capacity": 0,
    "openDays": [
      "平日",
      "祝日"
    ],
    "openDaysNote": ""
  },
  {
    "id": "1750680041",
    "name": "加賀のぞみ園ホームヘルパーステーション",
    "kana": "カガノゾミエンホームヘルパーステーション",
    "address": "南郷町3乙4番地",
    "lat": 36.292387,
    "lng": 136.3263042,
    "tel": "0761－72－7003",
    "url": "http://www.kaganozomien.jp/",
    "pref": "石川県",
    "city": "加賀市",
    "category": "home_help",
    "serviceType": "訪問介護",
    "capacity": 0,
    "openDays": [
      "平日",
      "土曜日",
      "日曜日",
      "祝日"
    ],
    "openDaysNote": "24時間対応可能"
  },
  {
    "id": "1770600011",
    "name": "株式会社　加賀福祉サービス　ヘルパーステーションえがお",
    "kana": "カブシキガイシャ　カガフクシサービス　ヘルパーステーションエガオ",
    "address": "石川県加賀市作見町ホ56番地1",
    "lat": 36.3159156,
    "lng": 136.3579808,
    "tel": "0761-73-0294",
    "url": "http://www.kagafs.jp",
    "pref": "石川県",
    "city": "加賀市",
    "category": "home_help",
    "serviceType": "訪問介護",
    "capacity": 0,
    "openDays": [
      "平日",
      "土曜日",
      "日曜日",
      "祝日"
    ],
    "openDaysNote": "年中無休"
  },
  {
    "id": "1770600599",
    "name": "丘の上訪問介護事業所",
    "kana": "オカノウエホウモンカイゴジギョウショ",
    "address": "加賀市冨塚町中尾126-2",
    "lat": 36.3357132,
    "lng": 136.3618187,
    "tel": "0761-74-2232",
    "url": "http://www.aoikai.jp/",
    "pref": "石川県",
    "city": "加賀市",
    "category": "home_help",
    "serviceType": "訪問介護",
    "capacity": 0,
    "openDays": [
      "平日",
      "土曜日",
      "日曜日",
      "祝日"
    ],
    "openDaysNote": "年中無休"
  },
  {
    "id": "1770600730",
    "name": "訪問介護ステーションなのはな",
    "kana": "ホウモンカイゴステーションナノハナ",
    "address": "石川県加賀市大聖寺岡町ホ１６番地１",
    "lat": 36.3141502,
    "lng": 136.3173114,
    "tel": "0761-75-7963",
    "url": "https://hp.kaipoke.biz/6s2/",
    "pref": "石川県",
    "city": "加賀市",
    "category": "home_help",
    "serviceType": "訪問介護",
    "capacity": 0,
    "openDays": [
      "平日",
      "土曜日",
      "祝日"
    ],
    "openDaysNote": ""
  },
  {
    "id": "1770600672",
    "name": "訪問介護事業所　朗　加賀",
    "kana": "ホウモンカイゴジギョウショ　ホガラカ　カガ",
    "address": "石川県加賀市山代温泉桔梗丘３－２４－３",
    "lat": 36.28573,
    "lng": 136.357049,
    "tel": "0761-76-1060",
    "url": "https://hogaraka.care",
    "pref": "石川県",
    "city": "加賀市",
    "category": "home_help",
    "serviceType": "訪問介護",
    "capacity": 0,
    "openDays": [
      "平日",
      "土曜日",
      "日曜日",
      "祝日"
    ],
    "openDaysNote": "上記の時間も含め、それ以外の時間についても相談を受け付けます。"
  },
  {
    "id": "1770600326",
    "name": "野の花",
    "kana": "ノノカ",
    "address": "加賀市南郷町ト111番地3",
    "lat": 36.3023192,
    "lng": 136.3295089,
    "tel": "0716-76-6070",
    "url": "",
    "pref": "石川県",
    "city": "加賀市",
    "category": "home_help",
    "serviceType": "訪問介護",
    "capacity": 0,
    "openDays": [
      "平日",
      "土曜日",
      "日曜日",
      "祝日"
    ],
    "openDaysNote": "12月31から1月3日までの期間を除く"
  },
  {
    "id": "1770104782",
    "name": "（有）ケアサービス金沢",
    "kana": "ユウゲンガイシャケアサービスカナザワ",
    "address": "長町2丁目7番24号",
    "lat": 36.5654552,
    "lng": 136.6464028,
    "tel": "076-222-8855",
    "url": "http://careｰnet.biz/17/care.kanazawa/",
    "pref": "石川県",
    "city": "金沢市",
    "category": "home_help",
    "serviceType": "訪問介護",
    "capacity": 0,
    "openDays": [
      "平日",
      "土曜日",
      "日曜日",
      "祝日"
    ],
    "openDaysNote": ""
  },
  {
    "id": "1770103396",
    "name": "itosie荒屋",
    "kana": "イトシエアラヤ",
    "address": "石川県金沢市荒屋1丁目75番地1",
    "lat": 36.6161434,
    "lng": 136.6841176,
    "tel": "076-257-7000",
    "url": "https://www.itosie.jp/",
    "pref": "石川県",
    "city": "金沢市",
    "category": "home_help",
    "serviceType": "訪問介護",
    "capacity": 26,
    "openDays": [
      "平日",
      "土曜日",
      "日曜日",
      "祝日"
    ],
    "openDaysNote": "24時間のサービス提供可能"
  },
  {
    "id": "1770102166",
    "name": "NPO法人WAC「輝き」ヘルパーステーションかがやきの家",
    "kana": "エヌピーオーホウジンワックカガヤキヘルパーステーションカガヤキノイエ",
    "address": "石川県金沢市東力1丁目153番地",
    "lat": 36.5609636397729,
    "lng": 136.624475890634,
    "tel": "076-256-3642",
    "url": "",
    "pref": "石川県",
    "city": "金沢市",
    "category": "home_help",
    "serviceType": "訪問介護",
    "capacity": 3,
    "openDays": [
      "平日",
      "土曜日",
      "日曜日",
      "祝日"
    ],
    "openDaysNote": ""
  },
  {
    "id": "1770105136",
    "name": "Ｓｈａｒｅ金沢",
    "kana": "シェアカナザワ",
    "address": "石川県金沢市若松町セ１０４番1",
    "lat": 36.5472301,
    "lng": 136.6945028,
    "tel": "076-256-1010",
    "url": "http://share-kanazawa.com/index.html",
    "pref": "石川県",
    "city": "金沢市",
    "category": "home_help",
    "serviceType": "訪問介護",
    "capacity": 10,
    "openDays": [
      "平日",
      "土曜日",
      "日曜日",
      "祝日"
    ],
    "openDaysNote": "サービス時間はご相談に応じます。"
  },
  {
    "id": "1770103149",
    "name": "ＳＯＭＰＯケア　金沢笠舞　訪問介護",
    "kana": "ソンポケア　カナザワカサマイ　ホウモンカイゴ",
    "address": "石川県金沢市笠舞１丁目８番１８号",
    "lat": 36.5480881,
    "lng": 136.6726628,
    "tel": "076-221-2881",
    "url": "",
    "pref": "石川県",
    "city": "金沢市",
    "category": "home_help",
    "serviceType": "訪問介護",
    "capacity": 0,
    "openDays": [
      "平日",
      "土曜日",
      "日曜日",
      "祝日"
    ],
    "openDaysNote": "サービス提供時間は、事前に居宅介護支援事業所等により計画された居宅サービス計画書に基づくものとする。"
  },
  {
    "id": "1770103164",
    "name": "ＳＯＭＰＯケア　金沢金石　訪問介護",
    "kana": "ソンポケア　カナザワカナイワ　ホウモンカイゴ",
    "address": "石川県金沢市桂町ロ45番地1",
    "lat": 36.60301,
    "lng": 136.6036416,
    "tel": "076－268－1985",
    "url": "",
    "pref": "石川県",
    "city": "金沢市",
    "category": "home_help",
    "serviceType": "訪問介護",
    "capacity": 120,
    "openDays": [
      "平日",
      "土曜日",
      "日曜日",
      "祝日"
    ],
    "openDaysNote": "サ－ビス提供時間は、事前に居宅支援事業所等により、計画された居宅サ－ビス計画に基づくものとします。"
  },
  {
    "id": "1770104436",
    "name": "アースサポート金沢",
    "kana": "アースサポートカナザワ",
    "address": "石川県金沢市西念三丁目11番1号光オフィス1C 光オフィス1C",
    "lat": 36.58618,
    "lng": 136.6378277,
    "tel": "076-232-0700",
    "url": "http//:www.earthsupport.co.jp/",
    "pref": "石川県",
    "city": "金沢市",
    "category": "home_help",
    "serviceType": "訪問介護",
    "capacity": 0,
    "openDays": [
      "平日",
      "土曜日",
      "日曜日",
      "祝日"
    ],
    "openDaysNote": "年中無休"
  },
  {
    "id": "1770104527",
    "name": "アスモ介護サービス金沢",
    "kana": "アスモカイゴサービスカナザワ",
    "address": "金沢市新神田三丁目8番16号",
    "lat": 36.5603525,
    "lng": 136.6288653,
    "tel": "076-291-5056",
    "url": "",
    "pref": "石川県",
    "city": "金沢市",
    "category": "home_help",
    "serviceType": "訪問介護",
    "capacity": 0,
    "openDays": [
      "平日",
      "土曜日",
      "日曜日",
      "祝日"
    ],
    "openDaysNote": "相談により２４時間対応可能。"
  },
  {
    "id": "1770102307",
    "name": "あんず訪問介護サービス",
    "kana": "アンズホウモンカイゴサービス",
    "address": "石川県金沢市四十万町ﾘ202 ﾘ202",
    "lat": 36.5035619,
    "lng": 136.6141068,
    "tel": "０７６－２８７－３２８１",
    "url": "",
    "pref": "石川県",
    "city": "金沢市",
    "category": "home_help",
    "serviceType": "訪問介護",
    "capacity": null,
    "openDays": [
      "平日",
      "土曜日",
      "日曜日",
      "祝日"
    ],
    "openDaysNote": ""
  },
  {
    "id": "1770105953",
    "name": "いやし訪問介護支援事業所",
    "kana": "イヤシホウモンカイゴシエンジギョウショ",
    "address": "石川県金沢市高畠3-88",
    "lat": 36.5728112,
    "lng": 136.6156953,
    "tel": "076-205-4141",
    "url": "http://i-airu.weebly.com/",
    "pref": "石川県",
    "city": "金沢市",
    "category": "home_help",
    "serviceType": "訪問介護",
    "capacity": 0,
    "openDays": [
      "平日",
      "土曜日",
      "祝日"
    ],
    "openDaysNote": "利用者様のご希望より上記時間帯以外でも対応しております（要相談）。"
  },
  {
    "id": "1770107538",
    "name": "ウェルホーム+ヘルパーステーション金沢",
    "kana": "ウェルホームプラスヘルパーステーションカナザワ",
    "address": "石川県金沢市若宮町1丁目79",
    "lat": 36.57428,
    "lng": 136.6336954,
    "tel": "076-213-6750",
    "url": "",
    "pref": "石川県",
    "city": "金沢市",
    "category": "home_help",
    "serviceType": "訪問介護",
    "capacity": null,
    "openDays": [
      "平日",
      "土曜日",
      "日曜日",
      "祝日"
    ],
    "openDaysNote": ""
  },
  {
    "id": "1770106027",
    "name": "うちくるケア金沢",
    "kana": "ウチクルケアカナザワ",
    "address": "石川県金沢市大友2丁目71番地",
    "lat": 36.6010427,
    "lng": 136.6252689,
    "tel": "076-461-7765",
    "url": "http://www.uchikuru-k.co.jp",
    "pref": "石川県",
    "city": "金沢市",
    "category": "home_help",
    "serviceType": "訪問介護",
    "capacity": 0,
    "openDays": [
      "平日",
      "土曜日",
      "日曜日",
      "祝日"
    ],
    "openDaysNote": ""
  },
  {
    "id": "1770107389",
    "name": "うちくるケア金沢",
    "kana": "ウチクルケアカナザワ",
    "address": "石川県金沢市直江西1-24-1",
    "lat": 36.6112097,
    "lng": 136.6357192,
    "tel": "076-255-0856",
    "url": "https://www.uchikuru-k.co.jp/",
    "pref": "石川県",
    "city": "金沢市",
    "category": "home_help",
    "serviceType": "訪問介護",
    "capacity": 0,
    "openDays": [
      "平日",
      "土曜日",
      "日曜日",
      "祝日"
    ],
    "openDaysNote": ""
  },
  {
    "id": "1770104378",
    "name": "エミュ　ケアステーション",
    "kana": "エミュ　ケアステーション",
    "address": "石川県金沢市窪7-364　伏見台ガーデンコート西尾ビル506号室",
    "lat": 36.5318031313583,
    "lng": 136.638874557436,
    "tel": "076-287-6692",
    "url": "http://emu-consulting.com/",
    "pref": "石川県",
    "city": "金沢市",
    "category": "home_help",
    "serviceType": "訪問介護",
    "capacity": 50,
    "openDays": [
      "平日",
      "土曜日"
    ],
    "openDaysNote": "上記以外は要相談"
  },
  {
    "id": "1770100137",
    "name": "ケアサポート金沢　訪問介護事業所",
    "kana": "ケアサポートカナザワホウモンカイゴジギョウショ",
    "address": "長町2丁目７－２２",
    "lat": 36.5653275,
    "lng": 136.6462723,
    "tel": "076-221-4455",
    "url": "http://www.cs-kanazawa.com/",
    "pref": "石川県",
    "city": "金沢市",
    "category": "home_help",
    "serviceType": "訪問介護",
    "capacity": 10,
    "openDays": [
      "平日",
      "土曜日",
      "日曜日",
      "祝日"
    ],
    "openDaysNote": ""
  },
  {
    "id": "1770101770",
    "name": "ケアセンター・アヤカ",
    "kana": "ケアセンター・アヤカ",
    "address": "石川県金沢市二口町ハ３０番２",
    "lat": 36.5772882,
    "lng": 136.63439,
    "tel": "076-213-5177",
    "url": "ayaka06@mrg.biglobe.ne.jp",
    "pref": "石川県",
    "city": "金沢市",
    "category": "home_help",
    "serviceType": "訪問介護",
    "capacity": 0,
    "openDays": [
      "平日",
      "土曜日"
    ],
    "openDaysNote": "利用者希望要相談あり"
  },
  {
    "id": "1770102653",
    "name": "コープいしかわケアセンター金沢",
    "kana": "コープイシカワケアセンターカナザワ",
    "address": "入江2-384",
    "lat": 36.5681988,
    "lng": 136.6265734,
    "tel": "076-292-3390",
    "url": "http://www.ishikawa.coop/index.php",
    "pref": "石川県",
    "city": "金沢市",
    "category": "home_help",
    "serviceType": "訪問介護",
    "capacity": 140,
    "openDays": [
      "平日",
      "土曜日",
      "日曜日",
      "祝日"
    ],
    "openDaysNote": "早朝（6～9時）、夜間（17～22時）については、ご相談ください。"
  },
  {
    "id": "1770106563",
    "name": "ココファン金沢清川ヘルパーセンター",
    "kana": "ココファンカナザワキヨカワヘルパーセンター",
    "address": "石川県金沢市清川町10-12",
    "lat": 36.5496917,
    "lng": 136.6585923,
    "tel": "076-243-5255",
    "url": "http://www.cocofump.co.jp/",
    "pref": "石川県",
    "city": "金沢市",
    "category": "home_help",
    "serviceType": "訪問介護",
    "capacity": 0,
    "openDays": [
      "平日",
      "土曜日",
      "日曜日",
      "祝日"
    ],
    "openDaysNote": "24時間サービス可能（ケアプランの定める時間であれば対応する）"
  },
  {
    "id": "1770103420",
    "name": "こみけあヘルパーステーション光が丘",
    "kana": "コミケアヘルパーステーションヒカリガオカ",
    "address": "金沢市光が丘3丁目211番地2こみけあ光が丘（1番館） こみけあ光が丘（1番館）",
    "lat": 36.5121722,
    "lng": 136.6273223,
    "tel": "076-287-5688",
    "url": "http://www.komicare.co.jp",
    "pref": "石川県",
    "city": "金沢市",
    "category": "home_help",
    "serviceType": "訪問介護",
    "capacity": 0,
    "openDays": [
      "平日",
      "土曜日",
      "日曜日",
      "祝日"
    ],
    "openDaysNote": "利用時間帯は相談応需"
  },
  {
    "id": "1770104337",
    "name": "さくら・介護ステーションあかり",
    "kana": "サクラ・カイゴステーションアカリ",
    "address": "金沢市小橋町６番３号柴田ハイツ２０１号室 柴田ハイツ２０１号室",
    "lat": 36.5779094,
    "lng": 136.6639374,
    "tel": "０７６－２５５－３７０５",
    "url": "http://www.sakurakaigo.co.jp/",
    "pref": "石川県",
    "city": "金沢市",
    "category": "home_help",
    "serviceType": "訪問介護",
    "capacity": 0,
    "openDays": [
      "平日",
      "土曜日",
      "日曜日",
      "祝日"
    ],
    "openDaysNote": "３６５日２４時間"
  },
  {
    "id": "1770105037",
    "name": "サンウェルズ金沢訪問介護ステーション",
    "kana": "サンウェルズカナザワホウモンカイゴジギョウショ",
    "address": "石川県金沢市戸板1丁目92番地",
    "lat": 36.5788419460867,
    "lng": 136.626324837629,
    "tel": "076-256-1215",
    "url": "http://www.sunwels.jp/service/facilities/prism_fujie/index.html",
    "pref": "石川県",
    "city": "金沢市",
    "category": "home_help",
    "serviceType": "訪問介護",
    "capacity": 49,
    "openDays": [
      "平日",
      "土曜日",
      "日曜日",
      "祝日"
    ],
    "openDaysNote": ""
  },
  {
    "id": "1770105300",
    "name": "サンケア戸板　訪問介護事業所",
    "kana": "サンケアトイタ　ホウモンカイゴジギョウショ",
    "address": "石川県　金沢市　戸板１丁目２６番地サンケア戸板 サンケア戸板",
    "lat": 36.5791600424902,
    "lng": 136.624707025842,
    "tel": "０７６−２５４−１０１０",
    "url": "http://www.suncare-life.com/",
    "pref": "石川県",
    "city": "金沢市",
    "category": "home_help",
    "serviceType": "訪問介護",
    "capacity": 49,
    "openDays": [
      "平日",
      "土曜日",
      "日曜日",
      "祝日"
    ],
    "openDaysNote": "２４時間体制"
  },
  {
    "id": "1770104246",
    "name": "サンケア赤土",
    "kana": "サンケアアカツチ",
    "address": "金沢市赤土町カ１－２４",
    "lat": 36.5897676,
    "lng": 136.5837101,
    "tel": "076-266-8800",
    "url": "http://www.suncare-life.com",
    "pref": "石川県",
    "city": "金沢市",
    "category": "home_help",
    "serviceType": "訪問介護",
    "capacity": 0,
    "openDays": [],
    "openDaysNote": "２４時間サービス提供行っています。"
  },
  {
    "id": "1770107280",
    "name": "シャンティケア訪問介護ステーション",
    "kana": "シャンティケアホウモンカイゴステーション",
    "address": "石川県金沢市神宮寺1丁目15番27号シャンティケア金沢 シャンティケア金沢",
    "lat": 36.5833085,
    "lng": 136.6679323,
    "tel": "076-213-6303",
    "url": "",
    "pref": "石川県",
    "city": "金沢市",
    "category": "home_help",
    "serviceType": "訪問介護",
    "capacity": null,
    "openDays": [
      "平日"
    ],
    "openDaysNote": "必要に応じて夜間のサービス提供をする場合がある"
  },
  {
    "id": "1770103008",
    "name": "すずらんケアセンター",
    "kana": "スズランケアセンター",
    "address": "金沢市二口町イ109番地",
    "lat": 36.5735094212468,
    "lng": 136.636109007904,
    "tel": "076-222-2275",
    "url": "http://suzuran-kaigo12.bizcom-web.com/",
    "pref": "石川県",
    "city": "金沢市",
    "category": "home_help",
    "serviceType": "訪問介護",
    "capacity": 7,
    "openDays": [
      "平日",
      "土曜日",
      "日曜日",
      "祝日"
    ],
    "openDaysNote": "時間外においても24時間対応可能"
  },
  {
    "id": "1770104147",
    "name": "たけの子",
    "kana": "タケノコ",
    "address": "石川県金沢市馬替3丁目183番地5カルミアD カルミアD",
    "lat": 36.5219597,
    "lng": 136.6194841,
    "tel": "076-296-0502",
    "url": "",
    "pref": "石川県",
    "city": "金沢市",
    "category": "home_help",
    "serviceType": "訪問介護",
    "capacity": 50,
    "openDays": [
      "平日",
      "土曜日"
    ],
    "openDaysNote": "ご利用者の状況により日程及び時間は相談に応じます。"
  },
  {
    "id": "1770105847",
    "name": "ちきちき",
    "kana": "チキチキ",
    "address": "金沢市長坂３丁目１６番１１号",
    "lat": 36.5344509,
    "lng": 136.6554309,
    "tel": "０７６－２０７－７４５２",
    "url": "http://chiki0411.jimdo.com",
    "pref": "石川県",
    "city": "金沢市",
    "category": "home_help",
    "serviceType": "訪問介護",
    "capacity": 0,
    "openDays": [
      "平日",
      "土曜日",
      "祝日"
    ],
    "openDaysNote": "休日や時間外については相談に応じる。"
  },
  {
    "id": "1770106753",
    "name": "ツクイ金沢",
    "kana": "ツクイカナザワ",
    "address": "石川県金沢市八日市５丁目４６０",
    "lat": 36.5503333,
    "lng": 136.610432,
    "tel": "076-269-0052",
    "url": "https://www.tsukui.net/",
    "pref": "石川県",
    "city": "金沢市",
    "category": "home_help",
    "serviceType": "訪問介護",
    "capacity": 120,
    "openDays": [
      "平日",
      "土曜日",
      "日曜日",
      "祝日"
    ],
    "openDaysNote": ""
  },
  {
    "id": "1760191054",
    "name": "にじいろケアプラス",
    "kana": "ニジイロケアプラス",
    "address": "石川県金沢市近岡町３８８番地1",
    "lat": 36.61219,
    "lng": 136.6324473,
    "tel": "076-216-5188",
    "url": "https://nanairo-niji.net",
    "pref": "石川県",
    "city": "金沢市",
    "category": "home_help",
    "serviceType": "訪問介護",
    "capacity": 0,
    "openDays": [
      "平日",
      "祝日"
    ],
    "openDaysNote": "平日・祝日に関しては、時間外は応相談。"
  },
  {
    "id": "1770101044",
    "name": "ニチイケアセンターかないわ",
    "kana": "ニチイケアセンターカナイワ",
    "address": "石川県金沢市金石本町ロ－３１－１",
    "lat": 36.5979527,
    "lng": 136.5966306,
    "tel": "076-268-6268",
    "url": "http//www.nichiiakkann.co.jp",
    "pref": "石川県",
    "city": "金沢市",
    "category": "home_help",
    "serviceType": "訪問介護",
    "capacity": 0,
    "openDays": [
      "平日",
      "土曜日",
      "日曜日",
      "祝日"
    ],
    "openDaysNote": ""
  },
  {
    "id": "1770104618",
    "name": "ニチイケアセンターもろえ",
    "kana": "ニチイケアセンターモロエ",
    "address": "金沢市三口町火３７",
    "lat": 36.6092658,
    "lng": 136.6430989,
    "tel": "076-238-8288",
    "url": "http://www.nichiigakkan.co.jp",
    "pref": "石川県",
    "city": "金沢市",
    "category": "home_help",
    "serviceType": "訪問介護",
    "capacity": null,
    "openDays": [
      "平日"
    ],
    "openDaysNote": "但し、居宅ｻｰﾋﾞｽ計画書により定休日であってもｻｰﾋﾞｽ提供を行う場合があります。"
  },
  {
    "id": "1770106464",
    "name": "ニチイケアセンター横川",
    "kana": "ニチイケアセンターヨコガワ",
    "address": "横川5丁目445YSビル102号室 YSビル102号室",
    "lat": 36.5415676,
    "lng": 136.6289208,
    "tel": "076-201-2585",
    "url": "https://www.nichiigakkan.co.jp/",
    "pref": "石川県",
    "city": "金沢市",
    "category": "home_help",
    "serviceType": "訪問介護",
    "capacity": 0,
    "openDays": [
      "平日",
      "土曜日",
      "日曜日",
      "祝日"
    ],
    "openDaysNote": ""
  },
  {
    "id": "1770101234",
    "name": "ニチイケアセンター笠舞",
    "kana": "ニチイケアセンターカサマイ",
    "address": "石川県金沢市笠舞本町１－４－５",
    "lat": 36.5453933,
    "lng": 136.6750713,
    "tel": "076-233-7236",
    "url": "http://www.nichiigakkan.co.jp",
    "pref": "石川県",
    "city": "金沢市",
    "category": "home_help",
    "serviceType": "訪問介護",
    "capacity": 0,
    "openDays": [
      "平日"
    ],
    "openDaysNote": "土曜日・日曜日・国民の祝祭日・12/30～1/3休業日。但し、居宅サービス計画により、休業日でもｻｰﾋﾞｽ提供を行う場合がある。"
  },
  {
    "id": "1770100863",
    "name": "ニチイケアセンター大額",
    "kana": "ニチイケアセンターオオヌカ",
    "address": "大額３丁目２１３番地",
    "lat": 36.5122331,
    "lng": 136.622906,
    "tel": "076-296-8170",
    "url": "http://www/nichiigakkan/co/jp",
    "pref": "石川県",
    "city": "金沢市",
    "category": "home_help",
    "serviceType": "訪問介護",
    "capacity": 0,
    "openDays": [
      "平日",
      "土曜日",
      "日曜日",
      "祝日"
    ],
    "openDaysNote": "居宅サービス計画により、営業時間外であっても、サービス提供する場合があります。"
  },
  {
    "id": "1770106555",
    "name": "ニチイケアセンター長田本町",
    "kana": "ニチイケアセンターナガタホンマチ",
    "address": "石川県金沢市長田本町チ18番地3オフィス長田2階 オフィス長田2階",
    "lat": 36.5728092,
    "lng": 136.6396174,
    "tel": "076-210-5560",
    "url": "https://www.nichiigakkan.co.jp",
    "pref": "石川県",
    "city": "金沢市",
    "category": "home_help",
    "serviceType": "訪問介護",
    "capacity": null,
    "openDays": [
      "平日",
      "土曜日",
      "日曜日",
      "祝日"
    ],
    "openDaysNote": ""
  },
  {
    "id": "1770106456",
    "name": "ニチイケアセンター田上",
    "kana": "ニチイケアセンタータガミ",
    "address": "石川県金沢市田上本町3丁目80－1TK7　Ｅ号室 TK7　Ｅ号室",
    "lat": 36.5369650000001,
    "lng": 136.695815,
    "tel": "076－263－5035",
    "url": "",
    "pref": "石川県",
    "city": "金沢市",
    "category": "home_help",
    "serviceType": "訪問介護",
    "capacity": 0,
    "openDays": [
      "平日"
    ],
    "openDaysNote": ""
  },
  {
    "id": "1770101051",
    "name": "ニチイケアセンター不動寺",
    "kana": "ニチイケアセンターフドウジ",
    "address": "石川県金沢市堅田丙４８－１",
    "lat": 36.6092505,
    "lng": 136.7033771,
    "tel": "076-257-9655",
    "url": "http://www.nichiigakkan.co.jp",
    "pref": "石川県",
    "city": "金沢市",
    "category": "home_help",
    "serviceType": "訪問介護",
    "capacity": null,
    "openDays": [
      "平日"
    ],
    "openDaysNote": "但し、休業日、営業時間外でもサービス提供を行う場合があります。"
  },
  {
    "id": "1770103339",
    "name": "にっこり神宮寺",
    "kana": "ニッコリジングウジ",
    "address": "金沢市神宮寺１丁目１番１号",
    "lat": 36.5812451,
    "lng": 136.6690425,
    "tel": "076－251ー9500",
    "url": "",
    "pref": "石川県",
    "city": "金沢市",
    "category": "home_help",
    "serviceType": "訪問介護",
    "capacity": 0,
    "openDays": [
      "平日",
      "土曜日"
    ],
    "openDaysNote": "利用者様（契約完了）のご事情により訪問曜日や時間のご相談は承ります。（改行）また介護の必要性の高い方には臨機応変に対応いたします。"
  },
  {
    "id": "1770106423",
    "name": "パートナーズ金沢中央",
    "kana": "パートナーズ　カナザワチュウオウ",
    "address": "石川県金沢市糸田二丁目１８１番地　ヴィレーラ1階ヴィレーラ１階 ヴィレーラ１階",
    "lat": 36.5592063895505,
    "lng": 136.623471368123,
    "tel": "０７６－２１４－６２５７",
    "url": "",
    "pref": "石川県",
    "city": "金沢市",
    "category": "home_help",
    "serviceType": "訪問介護",
    "capacity": 100,
    "openDays": [
      "平日",
      "土曜日",
      "日曜日",
      "祝日"
    ],
    "openDaysNote": "事業所転送電話により、定休日、営業時間外であっても365日、24時間ご利用者様のサービスに対応しています。"
  },
  {
    "id": "1770105086",
    "name": "パートナーズ金沢南",
    "kana": "パートナーズカナザワミナミ",
    "address": "石川県金沢市高尾台１丁目１００番地2",
    "lat": 36.5242735543631,
    "lng": 136.634725495701,
    "tel": "076-287-3058",
    "url": "",
    "pref": "石川県",
    "city": "金沢市",
    "category": "home_help",
    "serviceType": "訪問介護",
    "capacity": 40,
    "openDays": [
      "平日",
      "土曜日",
      "日曜日",
      "祝日"
    ],
    "openDaysNote": "事業所転送電話により、定休日、営業時間外であっても365日、24時間緊急時の電話対応可能です。"
  },
  {
    "id": "1770107421",
    "name": "パートナーズ金沢北",
    "kana": "パートナーズカナザワキタ",
    "address": "石川県金沢市直江町ﾆ26番地１ナガイビル2階 ナガイビル2階",
    "lat": 36.6060374,
    "lng": 136.6344513,
    "tel": "076-213-6433",
    "url": "",
    "pref": "石川県",
    "city": "金沢市",
    "category": "home_help",
    "serviceType": "訪問介護",
    "capacity": 40,
    "openDays": [
      "平日",
      "土曜日",
      "日曜日"
    ],
    "openDaysNote": "事業所転送電話により、定休日、営業時間外であっても365日、24時間緊急時の電話対応は可能です。"
  },
  {
    "id": "1770107173",
    "name": "ひなの家訪問介護",
    "kana": "ヒナノイエホウモンカイゴ",
    "address": "石川県金沢市末町拾四字４５番地",
    "lat": 36.5176242,
    "lng": 136.6892606,
    "tel": "０７６－２５５－０００５",
    "url": "",
    "pref": "石川県",
    "city": "金沢市",
    "category": "home_help",
    "serviceType": "訪問介護",
    "capacity": null,
    "openDays": [],
    "openDaysNote": ""
  },
  {
    "id": "1770102422",
    "name": "ふきのとう",
    "kana": "フキノトウ",
    "address": "石川県金沢市額谷2丁目45番地",
    "lat": 36.5092058,
    "lng": 136.6252725,
    "tel": "０７６－２８７－０３３３",
    "url": "",
    "pref": "石川県",
    "city": "金沢市",
    "category": "home_help",
    "serviceType": "訪問介護",
    "capacity": 0,
    "openDays": [
      "平日",
      "土曜日",
      "祝日"
    ],
    "openDaysNote": ""
  },
  {
    "id": "1770107306",
    "name": "ふれあいタウン訪問介護事業所",
    "kana": "フレアイタウンホウモンカイゴジギョウショ",
    "address": "有松2丁目4番32号",
    "lat": 36.5426024,
    "lng": 136.6394595,
    "tel": "076-245-5601",
    "url": "http://fureai-town.com",
    "pref": "石川県",
    "city": "金沢市",
    "category": "home_help",
    "serviceType": "訪問介護",
    "capacity": null,
    "openDays": [
      "平日",
      "土曜日",
      "日曜日",
      "祝日"
    ],
    "openDaysNote": ""
  },
  {
    "id": "1770105144",
    "name": "ベルケア",
    "kana": "ベルケア",
    "address": "石川県金沢市元町１丁目１６番１９号",
    "lat": 36.5809809498008,
    "lng": 136.668854804389,
    "tel": "076-287-5722",
    "url": "http://nextbell.co.jp",
    "pref": "石川県",
    "city": "金沢市",
    "category": "home_help",
    "serviceType": "訪問介護",
    "capacity": 0,
    "openDays": [
      "平日",
      "土曜日",
      "日曜日",
      "祝日"
    ],
    "openDaysNote": "・サービス時間については、スタッフの人数によって変更いたします。（改行）・時間はご依頼に内容によって調整し対応いたします。"
  },
  {
    "id": "1770104048",
    "name": "ヘルパーステーション　アースケア",
    "kana": "ヘルパーステーション　　アースケア",
    "address": "金沢市高尾南１－９０",
    "lat": 36.5178023,
    "lng": 136.6344328,
    "tel": "076-255-7271",
    "url": "",
    "pref": "石川県",
    "city": "金沢市",
    "category": "home_help",
    "serviceType": "訪問介護",
    "capacity": 27,
    "openDays": [
      "平日",
      "土曜日",
      "日曜日",
      "祝日"
    ],
    "openDaysNote": ""
  },
  {
    "id": "1760190312",
    "name": "ヘルパーステーション　あおぞら",
    "kana": "ヘルパーステーション　アオゾラ",
    "address": "金沢市天神町1丁目18番37号",
    "lat": 36.557637,
    "lng": 136.6791844,
    "tel": "076-264-0698",
    "url": "http://www.kenroku-mcoop.com",
    "pref": "石川県",
    "city": "金沢市",
    "category": "home_help",
    "serviceType": "訪問介護",
    "capacity": 0,
    "openDays": [
      "平日"
    ],
    "openDaysNote": "特別に介護を要する場合は時間外、定休日であっても相談に応じます"
  },
  {
    "id": "1770103693",
    "name": "ヘルパーステーション　クレス",
    "kana": "ヘルパーステーション　クレス",
    "address": "石川県金沢市保古2丁目130-1",
    "lat": 36.5548255,
    "lng": 136.6176904,
    "tel": "076-269-0555",
    "url": "",
    "pref": "石川県",
    "city": "金沢市",
    "category": "home_help",
    "serviceType": "訪問介護",
    "capacity": 3,
    "openDays": [
      "平日",
      "土曜日",
      "日曜日",
      "祝日"
    ],
    "openDaysNote": ""
  },
  {
    "id": "1770101663",
    "name": "ヘルパーステーション　りんく",
    "kana": "ヘルパーステーション　リンク",
    "address": "額谷１丁目８１番",
    "lat": 36.5103950926836,
    "lng": 136.628300751729,
    "tel": "０７６－２９８－０３３３",
    "url": "http://www.feelcare.net",
    "pref": "石川県",
    "city": "金沢市",
    "category": "home_help",
    "serviceType": "訪問介護",
    "capacity": 0,
    "openDays": [
      "平日",
      "土曜日",
      "日曜日",
      "祝日"
    ],
    "openDaysNote": ""
  },
  {
    "id": "1770105714",
    "name": "ヘルパーステーション　れんげの郷",
    "kana": "ヘルパーステーション　レンゲノサト",
    "address": "石川県金沢市小立野3丁目24番13号",
    "lat": 36.548627,
    "lng": 136.6771459,
    "tel": "076-256-0862",
    "url": "",
    "pref": "石川県",
    "city": "金沢市",
    "category": "home_help",
    "serviceType": "訪問介護",
    "capacity": 0,
    "openDays": [
      "平日",
      "土曜日"
    ],
    "openDaysNote": "上記の営業日、営業時間のほか、居宅サービス計画によりサービスの提供を実施します。"
  },
  {
    "id": "1770106092",
    "name": "ヘルパーステーションあおぞら",
    "kana": "ヘルパーステーションアオゾラ",
    "address": "金沢市四十万北ヲ21番地1",
    "lat": 36.5036509,
    "lng": 136.6241391,
    "tel": "076-220-7456",
    "url": "",
    "pref": "石川県",
    "city": "金沢市",
    "category": "home_help",
    "serviceType": "訪問介護",
    "capacity": 73,
    "openDays": [
      "平日",
      "土曜日",
      "日曜日",
      "祝日"
    ],
    "openDaysNote": ""
  },
  {
    "id": "1770106886",
    "name": "ヘルパーステーションうららか",
    "kana": "ヘルパーステーションウララカ",
    "address": "石川県金沢市末町拾九字８７番地１",
    "lat": 36.5176242,
    "lng": 136.6892606,
    "tel": "076-255-3306",
    "url": "https://www.tscrew.co.jp",
    "pref": "石川県",
    "city": "金沢市",
    "category": "home_help",
    "serviceType": "訪問介護",
    "capacity": 0,
    "openDays": [],
    "openDaysNote": "24時間365日"
  },
  {
    "id": "1770103545",
    "name": "ヘルパーステーションかいてき",
    "kana": "ヘルパーステーションカイテキ",
    "address": "石川県金沢市間明町2丁目10番地かいてきビル かいてきビル",
    "lat": 36.5661064493808,
    "lng": 136.616734854037,
    "tel": "076-291-1565",
    "url": "",
    "pref": "石川県",
    "city": "金沢市",
    "category": "home_help",
    "serviceType": "訪問介護",
    "capacity": 0,
    "openDays": [
      "平日",
      "土曜日",
      "日曜日",
      "祝日"
    ],
    "openDaysNote": ""
  },
  {
    "id": "1710117688",
    "name": "ヘルパーステーションつくしんぼ",
    "kana": "ヘルパーステーションツクシンボ",
    "address": "石川県金沢市京町２０番５０号",
    "lat": 36.5829518885122,
    "lng": 136.656471868968,
    "tel": "076-252-0452",
    "url": "http://jouhoku-clinic.com/",
    "pref": "石川県",
    "city": "金沢市",
    "category": "home_help",
    "serviceType": "訪問介護",
    "capacity": 0,
    "openDays": [
      "平日"
    ],
    "openDaysNote": "定休日及び時間外は相談応需。"
  },
  {
    "id": "1710112846",
    "name": "ヘルパーステーションとびうめ",
    "kana": "ヘルパーステーショントビウメ",
    "address": "石川県金沢市飛梅町2番1号とびうめ館 とびうめ館",
    "lat": 36.5591035,
    "lng": 136.6675795,
    "tel": "076－231－4329",
    "url": "http://3.ocn.ne.jp.^matsu-hp",
    "pref": "石川県",
    "city": "金沢市",
    "category": "home_help",
    "serviceType": "訪問介護",
    "capacity": 0,
    "openDays": [
      "平日",
      "土曜日",
      "日曜日",
      "祝日"
    ],
    "openDaysNote": ""
  },
  {
    "id": "1770106308",
    "name": "ヘルパーステーションひまり",
    "kana": "ヘルパーステーションヒマリ",
    "address": "石川県金沢市額新保2丁目200番地",
    "lat": 36.5193897872666,
    "lng": 136.615400783467,
    "tel": "076-296-1822",
    "url": "https://houjikai.co.jp",
    "pref": "石川県",
    "city": "金沢市",
    "category": "home_help",
    "serviceType": "訪問介護",
    "capacity": 0,
    "openDays": [
      "平日",
      "土曜日",
      "日曜日",
      "祝日"
    ],
    "openDaysNote": ""
  },
  {
    "id": "1770104691",
    "name": "ヘルパーステーションボヌール",
    "kana": "ヘルパーステーションボヌール",
    "address": "朝霧台２丁目166番地住宅型有料老人ホーム　ボヌール 住宅型有料老人ホーム　ボヌール",
    "lat": 36.5363731,
    "lng": 136.6968779,
    "tel": "（076）256-0992",
    "url": "http://www.arche-kanazawa.co.jp",
    "pref": "石川県",
    "city": "金沢市",
    "category": "home_help",
    "serviceType": "訪問介護",
    "capacity": 19,
    "openDays": [],
    "openDaysNote": "365日　24時間"
  },
  {
    "id": "1770104477",
    "name": "ヘルパーステーションほのか",
    "kana": "ヘルパーステーションホノカ",
    "address": "金沢市南四十万1-222",
    "lat": 36.4974406,
    "lng": 136.6187175,
    "tel": "076-259-1515",
    "url": "https://houjikai.co.jp/",
    "pref": "石川県",
    "city": "金沢市",
    "category": "home_help",
    "serviceType": "訪問介護",
    "capacity": 0,
    "openDays": [
      "平日",
      "土曜日",
      "日曜日",
      "祝日"
    ],
    "openDaysNote": "２４時間連絡体制あり。"
  },
  {
    "id": "1770106720",
    "name": "ヘルパーステーションむぎ",
    "kana": "ヘルパーステーションムギ",
    "address": "石川県金沢市保古1丁目90番地フロール601号室 フロール601号室",
    "lat": 36.5575876,
    "lng": 136.6216432,
    "tel": "076-249-7702",
    "url": "",
    "pref": "石川県",
    "city": "金沢市",
    "category": "home_help",
    "serviceType": "訪問介護",
    "capacity": 0,
    "openDays": [
      "平日",
      "土曜日",
      "日曜日",
      "祝日"
    ],
    "openDaysNote": "上記以外の時間帯は応相談"
  },
  {
    "id": "1770100186",
    "name": "ヘルパーステーションやすらぎ",
    "kana": "ヘルパーステーションヤスラギ",
    "address": "金沢市上荒屋1-39",
    "lat": 36.5456846,
    "lng": 136.5930501,
    "tel": "076-269-6365",
    "url": "http://www.yasuragi39.com/",
    "pref": "石川県",
    "city": "金沢市",
    "category": "home_help",
    "serviceType": "訪問介護",
    "capacity": 0,
    "openDays": [
      "平日",
      "土曜日"
    ],
    "openDaysNote": "営業時間外でも、利用者の状況に応じて、必要な場合は介護支援専門員と相談しながら対応しています。"
  },
  {
    "id": "1770106597",
    "name": "ヘルパーステーション愛の風",
    "kana": "ヘルパーステーションアイノカゼ",
    "address": "石川県金沢市高畠1丁目368番地住宅型有料老人ホーム　愛の風1階 住宅型有料老人ホーム　愛の風1階",
    "lat": 36.571199,
    "lng": 136.6141123,
    "tel": "076-292-0885",
    "url": "",
    "pref": "石川県",
    "city": "金沢市",
    "category": "home_help",
    "serviceType": "訪問介護",
    "capacity": null,
    "openDays": [
      "平日",
      "土曜日",
      "日曜日",
      "祝日"
    ],
    "openDaysNote": "サービスの提供は年中無休です。"
  },
  {
    "id": "1770103115",
    "name": "ヘルパーステーション医王山",
    "kana": "ヘルパーステイションイオウザン",
    "address": "田上さくら1丁目36番地住宅型有料老人ホーム医王山 住宅型有料老人ホーム医王山",
    "lat": 36.5407318805606,
    "lng": 136.691390914681,
    "tel": "076-262-6688",
    "url": "http://www.seisen-dayservice.jp/iouzan/service02.php",
    "pref": "石川県",
    "city": "金沢市",
    "category": "home_help",
    "serviceType": "訪問介護",
    "capacity": 0,
    "openDays": [
      "平日",
      "土曜日",
      "日曜日",
      "祝日"
    ],
    "openDaysNote": "年中無休"
  },
  {
    "id": "1770105151",
    "name": "ヘルパーステーション四季の里・横川",
    "kana": "ヘルパーステーションシキノサト・ヨコガワ",
    "address": "石川県金沢市横川４－８８四季の里・横川 四季の里・横川",
    "lat": 36.5412756,
    "lng": 136.627916,
    "tel": "076-218-4808",
    "url": "",
    "pref": "石川県",
    "city": "金沢市",
    "category": "home_help",
    "serviceType": "訪問介護",
    "capacity": 0,
    "openDays": [
      "平日",
      "土曜日",
      "日曜日",
      "祝日"
    ],
    "openDaysNote": ""
  },
  {
    "id": "1770103123",
    "name": "ヘルパーステーション四季の里・神宮寺",
    "kana": "ヘルパーステーションシキノサト・ジングウジ",
    "address": "石川県金沢市田上さくら1-18",
    "lat": 36.5821866,
    "lng": 136.6663454,
    "tel": "076-204-7870",
    "url": "",
    "pref": "石川県",
    "city": "金沢市",
    "category": "home_help",
    "serviceType": "訪問介護",
    "capacity": 0,
    "openDays": [
      "平日",
      "土曜日",
      "日曜日",
      "祝日"
    ],
    "openDaysNote": ""
  },
  {
    "id": "1770104345",
    "name": "ヘルパーステーション住みよし２４",
    "kana": "ヘルパーステーションスミヨシニジュウヨン",
    "address": "金沢市寺中町ホ９番地１住みよし２４ 住みよし２４",
    "lat": 36.5972752,
    "lng": 136.6018913,
    "tel": "076-266-1124",
    "url": "",
    "pref": "石川県",
    "city": "金沢市",
    "category": "home_help",
    "serviceType": "訪問介護",
    "capacity": 24,
    "openDays": [
      "平日",
      "土曜日",
      "日曜日",
      "祝日"
    ],
    "openDaysNote": ""
  },
  {
    "id": "1770106480",
    "name": "ヘルパーステーション味噌蔵",
    "kana": "ヘルパーステーションミソグラ",
    "address": "石川県金沢市兼六元町15-33住宅型有料老人ホーム味噌蔵 住宅型有料老人ホーム味噌蔵",
    "lat": 36.5646028,
    "lng": 136.6669739,
    "tel": "076-231-3070",
    "url": "http://anshin-cares.com/misogura/",
    "pref": "石川県",
    "city": "金沢市",
    "category": "home_help",
    "serviceType": "訪問介護",
    "capacity": 0,
    "openDays": [
      "平日",
      "土曜日",
      "日曜日",
      "祝日"
    ],
    "openDaysNote": "24時間連絡及び対応可能"
  },
  {
    "id": "1770106829",
    "name": "ヘルパーセンター　るーと",
    "kana": "ヘルパーセンター　ルート",
    "address": "松島３丁目２０７番地",
    "lat": 35.7110783,
    "lng": 139.861766,
    "tel": "076-269-0065",
    "url": "",
    "pref": "石川県",
    "city": "金沢市",
    "category": "home_help",
    "serviceType": "訪問介護",
    "capacity": null,
    "openDays": [
      "平日",
      "土曜日",
      "日曜日",
      "祝日"
    ],
    "openDaysNote": ""
  },
  {
    "id": "1760190932",
    "name": "ヘルパーワークス",
    "kana": "ヘルパーワークス",
    "address": "石川県金沢市駅西本町６丁目１５番地８号藤江南ハイム５０６号室 藤江南ハイム５０６号室",
    "lat": 36.5854403,
    "lng": 136.624837,
    "tel": "076-221-3550",
    "url": "",
    "pref": "石川県",
    "city": "金沢市",
    "category": "home_help",
    "serviceType": "訪問介護",
    "capacity": 0,
    "openDays": [
      "平日",
      "土曜日",
      "日曜日",
      "祝日"
    ],
    "openDaysNote": ""
  },
  {
    "id": "1770105417",
    "name": "ホームヘルパーふくすけ",
    "kana": "ホームヘルパーフクスケ",
    "address": "石川県金沢市久安1丁目172番地",
    "lat": 36.531822,
    "lng": 136.6336078,
    "tel": "076-272-8854",
    "url": "http://www.hukusukeya.co.jp",
    "pref": "石川県",
    "city": "金沢市",
    "category": "home_help",
    "serviceType": "訪問介護",
    "capacity": null,
    "openDays": [
      "平日",
      "土曜日",
      "日曜日",
      "祝日"
    ],
    "openDaysNote": "居宅サービス計画により、休業日及び営業時間外であってもサービスを提供する場合があります。"
  },
  {
    "id": "1770104063",
    "name": "ホームヘルプサービス・ホクレア",
    "kana": "ホームヘルプサービス・ホクレア",
    "address": "石川県金沢市神野2丁目56番地BequemⅢ　101号 BequemⅢ　101号",
    "lat": 36.5655789173463,
    "lng": 136.594997445369,
    "tel": "076-272-8411",
    "url": "",
    "pref": "石川県",
    "city": "金沢市",
    "category": "home_help",
    "serviceType": "訪問介護",
    "capacity": 0,
    "openDays": [
      "平日",
      "土曜日",
      "祝日"
    ],
    "openDaysNote": "早朝　午前６時から午前８時　　　夜間　午後５時から午後１０時までとする。"
  },
  {
    "id": "1770106712",
    "name": "マーメイド訪問介護事業所",
    "kana": "マーメイドホウモンカイゴジギョウショ",
    "address": "石川県金沢市新神田2丁目6番21号",
    "lat": 36.5630771752196,
    "lng": 136.631787835276,
    "tel": "076-259-1882",
    "url": "http://hp.kaipoke.biz/mfm/",
    "pref": "石川県",
    "city": "金沢市",
    "category": "home_help",
    "serviceType": "訪問介護",
    "capacity": 5,
    "openDays": [
      "平日",
      "土曜日",
      "日曜日",
      "祝日"
    ],
    "openDaysNote": "但し、営業時間外であっても連絡可能な体制とし、又、利用者及びその家族の事情により、延長サービスを提供できるものとします。"
  },
  {
    "id": "1770104089",
    "name": "マザーシップ浅野本町",
    "kana": "マザーシップアサノホンマチ",
    "address": "金沢市浅野本町ニ172番1有料老人ホーム　マザーシップ浅野本町 有料老人ホーム　マザーシップ浅野本町",
    "lat": 36.589602,
    "lng": 136.6561014,
    "tel": "076-254-0738",
    "url": "https://celltonakamori.jimdo.com/",
    "pref": "石川県",
    "city": "金沢市",
    "category": "home_help",
    "serviceType": "訪問介護",
    "capacity": 32,
    "openDays": [
      "平日",
      "土曜日",
      "日曜日",
      "祝日"
    ],
    "openDaysNote": ""
  },
  {
    "id": "1770107074",
    "name": "やよい介護センター",
    "kana": "ヤヨイカイゴセンター",
    "address": "石川県金沢市泉本町4丁目41番地1スプリングホーム泉本町内 スプリングホーム泉本町内",
    "lat": 36.5515983,
    "lng": 136.6377724,
    "tel": "076-225-4165",
    "url": "yayoi-kanazawa.com/yayoikaigo",
    "pref": "石川県",
    "city": "金沢市",
    "category": "home_help",
    "serviceType": "訪問介護",
    "capacity": null,
    "openDays": [
      "平日"
    ],
    "openDaysNote": "上記以外についても応相談"
  },
  {
    "id": "1770107371",
    "name": "ユースタイルケア　金沢野々市センター",
    "kana": "ユースタイルケア　カナザワノノイチセンター",
    "address": "石川県金沢市米泉町9丁目1番地２１F １F",
    "lat": 36.553308,
    "lng": 136.6224476,
    "tel": "076-200-6200",
    "url": "https://l-hands.com/kaigo/",
    "pref": "石川県",
    "city": "金沢市",
    "category": "home_help",
    "serviceType": "訪問介護",
    "capacity": null,
    "openDays": [
      "平日",
      "土曜日",
      "日曜日",
      "祝日"
    ],
    "openDaysNote": ""
  },
  {
    "id": "1770106506",
    "name": "リアン",
    "kana": "リアン",
    "address": "石川県金沢市泉野町６丁目３番２０号Rect　Izuminodai　E棟 Rect　Izuminodai　E棟",
    "lat": 36.5431163456708,
    "lng": 136.650545873294,
    "tel": "０７６－２０７－４０３５",
    "url": "http://hp.kaipoke.biz/5ek/",
    "pref": "石川県",
    "city": "金沢市",
    "category": "home_help",
    "serviceType": "訪問介護",
    "capacity": null,
    "openDays": [
      "平日",
      "土曜日",
      "祝日"
    ],
    "openDaysNote": "休日や時間外については相談に応じる。"
  },
  {
    "id": "1770107207",
    "name": "医心館訪問介護ステーション金沢",
    "kana": "イシンカンホウモンカイゴステーションカナザワ",
    "address": "石川県金沢市戸板2丁目77番地",
    "lat": 36.5802327,
    "lng": 136.6236264,
    "tel": "076-208-3137",
    "url": "",
    "pref": "石川県",
    "city": "金沢市",
    "category": "home_help",
    "serviceType": "訪問介護",
    "capacity": 0,
    "openDays": [
      "平日",
      "土曜日",
      "日曜日",
      "祝日"
    ],
    "openDaysNote": "24時間対応"
  },
  {
    "id": "1770105649",
    "name": "学研ココファン金沢鞍月ヘルパーセンター",
    "kana": "ガッケンココファンカナザワクラツキヘルパーセンター",
    "address": "石川県金沢市鞍月町5丁目219番地",
    "lat": 36.6048953,
    "lng": 136.6280233,
    "tel": "076-254-6000",
    "url": "http://www.cocofump.co.jp",
    "pref": "石川県",
    "city": "金沢市",
    "category": "home_help",
    "serviceType": "訪問介護",
    "capacity": 0,
    "openDays": [
      "平日",
      "土曜日",
      "日曜日",
      "祝日"
    ],
    "openDaysNote": "24時間対応する。"
  },
  {
    "id": "1770107066",
    "name": "学研ココファン金沢鞍月弐番館ヘルパーセンター",
    "kana": "ガッケンココファンカナザワクラツキニバンカン",
    "address": "石川県金沢市大友1丁目238番地",
    "lat": 36.5979617,
    "lng": 136.6275859,
    "tel": "076-237-8606",
    "url": "",
    "pref": "石川県",
    "city": "金沢市",
    "category": "home_help",
    "serviceType": "訪問介護",
    "capacity": null,
    "openDays": [
      "平日"
    ],
    "openDaysNote": ""
  },
  {
    "id": "1770105987",
    "name": "学研ココファン金沢三ツ屋ヘルパーセンター",
    "kana": "ガッケンココファンカナザワミツヤヘルパーセンター",
    "address": "石川県金沢市三ツ屋町ロ38番地1ココファン金沢三ツ屋 ココファン金沢三ツ屋",
    "lat": 36.6115683,
    "lng": 136.6446515,
    "tel": "076-238-1230",
    "url": "http://www.cocofump.co.jp/",
    "pref": "石川県",
    "city": "金沢市",
    "category": "home_help",
    "serviceType": "訪問介護",
    "capacity": 0,
    "openDays": [
      "平日",
      "土曜日",
      "日曜日",
      "祝日"
    ],
    "openDaysNote": "24時間サービス可能（ケアプランの定める時間であれば対応する。（改行）年末年始（12/31～1/2）休業"
  },
  {
    "id": "1770107223",
    "name": "学研ココファン金沢七ツ屋ヘルパーセンター",
    "kana": "ガッケンココファンカナザワナナツヤヘルパーセンター",
    "address": "石川県金沢市北安江１丁目９番６４号学研ココファン金沢七ツ屋 学研ココファン金沢七ツ屋",
    "lat": 36.58342,
    "lng": 136.6520186,
    "tel": "762235080",
    "url": "https://www.cocofump.co.jp/facilities/kanazawa-nanatsuya/",
    "pref": "石川県",
    "city": "金沢市",
    "category": "home_help",
    "serviceType": "訪問介護",
    "capacity": null,
    "openDays": [
      "平日"
    ],
    "openDaysNote": ""
  },
  {
    "id": "1770105748",
    "name": "学研ココファン金沢泉が丘ヘルパーセンター",
    "kana": "ガッケンココファンカナザワイズミガオカヘルパーセンター",
    "address": "石川県金沢市泉が丘2-6-53学研ココファン金沢泉が丘 学研ココファン金沢泉が丘",
    "lat": 36.5409526,
    "lng": 136.6465009,
    "tel": "076-201-5580",
    "url": "http://www.cocofump.co.jp/",
    "pref": "石川県",
    "city": "金沢市",
    "category": "home_help",
    "serviceType": "訪問介護",
    "capacity": 68,
    "openDays": [
      "平日",
      "土曜日",
      "日曜日",
      "祝日"
    ],
    "openDaysNote": "24時間とする。"
  },
  {
    "id": "1770100582",
    "name": "株式会社　ほがらか",
    "kana": "カブシキガイシャ　ホガラカ",
    "address": "金沢粟崎町２丁目４１４",
    "lat": 36.6268521,
    "lng": 136.6280604,
    "tel": "076-237-3847",
    "url": "https://hogaraka.care/",
    "pref": "石川県",
    "city": "金沢市",
    "category": "home_help",
    "serviceType": "訪問介護",
    "capacity": 0,
    "openDays": [
      "平日",
      "土曜日",
      "日曜日",
      "祝日"
    ],
    "openDaysNote": ""
  },
  {
    "id": "1770101929",
    "name": "株式会社ふれあいタウン訪問介護事業所",
    "kana": "カブシキガイシャフレアイタウンホウモンカイゴジギョウショ",
    "address": "石川県金沢市有松2丁目4番32号",
    "lat": 36.5426105,
    "lng": 136.6394459,
    "tel": "076-245-5601",
    "url": "http://fureai-town.com/",
    "pref": "石川県",
    "city": "金沢市",
    "category": "home_help",
    "serviceType": "訪問介護",
    "capacity": 0,
    "openDays": [
      "平日",
      "土曜日",
      "日曜日",
      "祝日"
    ],
    "openDaysNote": ""
  },
  {
    "id": "1770106324",
    "name": "金沢健康福祉財団訪問介護事業所",
    "kana": "カナザワケンコウフクシザイダンホウモンカイゴジギョウショ",
    "address": "駅西本町2-12-22",
    "lat": 36.5720001,
    "lng": 136.6499896,
    "tel": "076-234-2948",
    "url": "https://www.kanazawa-kenko-plaza.or.jp/",
    "pref": "石川県",
    "city": "金沢市",
    "category": "home_help",
    "serviceType": "訪問介護",
    "capacity": 0,
    "openDays": [
      "平日",
      "土曜日",
      "日曜日",
      "祝日"
    ],
    "openDaysNote": ""
  },
  {
    "id": "1750180018",
    "name": "金沢春日ケアセンター",
    "kana": "カナザワカスガケアセンター",
    "address": "金沢市元菊町20番1号",
    "lat": 36.573679,
    "lng": 136.6422611,
    "tel": "076-262-3300",
    "url": "http://www.jintikai.com",
    "pref": "石川県",
    "city": "金沢市",
    "category": "home_help",
    "serviceType": "訪問介護",
    "capacity": 0,
    "openDays": [
      "平日",
      "土曜日",
      "日曜日",
      "祝日"
    ],
    "openDaysNote": "時間外の対応についてはご相談ください。"
  },
  {
    "id": "1710119791",
    "name": "公益社団法人石川勤労者医療協会　ヘルパーステーション　きらり",
    "kana": "コウエキシャダンホウジンイシカワキンロウシャイリョウキョウカイ　ヘルパーステーション　キラリ",
    "address": "石川県金沢市上荒屋１丁目７９番地",
    "lat": 36.5463401,
    "lng": 136.5922834,
    "tel": "076-249-6931",
    "url": "http://kamiaraya.jp/hidamari",
    "pref": "石川県",
    "city": "金沢市",
    "category": "home_help",
    "serviceType": "訪問介護",
    "capacity": 0,
    "openDays": [
      "平日",
      "土曜日",
      "日曜日",
      "祝日"
    ],
    "openDaysNote": ""
  },
  {
    "id": "1710118223",
    "name": "公益社団法人石川勤労者医療協会ヘルパーステーションたんぽぽ",
    "kana": "コウエキシャダンホウジンイシカワキンロウシャイリョウキョウカイヘルパーステーションタンポポ",
    "address": "石川県金沢市平和町３丁目５番２号",
    "lat": 36.5411501,
    "lng": 136.6609082,
    "tel": "076-241-8358",
    "url": "http://kensei-clinic.jp/",
    "pref": "石川県",
    "city": "金沢市",
    "category": "home_help",
    "serviceType": "訪問介護",
    "capacity": 0,
    "openDays": [
      "平日"
    ],
    "openDaysNote": "定休日および時間外のサービス提供可能（ご相談に応じます）"
  },
  {
    "id": "1770105029",
    "name": "香林苑泉野訪問介護センター",
    "kana": "コウリンエンイズミノホウモンカイゴセンター",
    "address": "泉野町4丁目20番2号",
    "lat": 36.5453465,
    "lng": 136.6492245,
    "tel": "076-245-0707",
    "url": "kourinkai-kanazawa.jp",
    "pref": "石川県",
    "city": "金沢市",
    "category": "home_help",
    "serviceType": "訪問介護",
    "capacity": 33,
    "openDays": [
      "平日",
      "土曜日",
      "日曜日",
      "祝日"
    ],
    "openDaysNote": "24時間365日サービスの提供を行っております。"
  },
  {
    "id": "1770103586",
    "name": "香林苑杜の里訪問介護センター",
    "kana": "コウリンエンモリノサトホウモンカイゴセンター",
    "address": "金沢市田上本町2丁目83番地1",
    "lat": 36.5344012,
    "lng": 136.6985916,
    "tel": "076-255-2221",
    "url": "https://kourinkai-kanazawa.jp/",
    "pref": "石川県",
    "city": "金沢市",
    "category": "home_help",
    "serviceType": "訪問介護",
    "capacity": 36,
    "openDays": [
      "平日",
      "土曜日",
      "日曜日",
      "祝日"
    ],
    "openDaysNote": "24時間365日サービスの提供を行っております。"
  },
  {
    "id": "1760191195",
    "name": "合同会社　インカロ－ズマリー",
    "kana": "ゴウドウガイシャ　インカローズマリー",
    "address": "石川県金沢市駅西新町1丁目39番14号リブロ－ゼ101号 リブロ－ゼ101号",
    "lat": 36.593344,
    "lng": 136.6408768,
    "tel": "076-256-5266",
    "url": "incarose@sky.plala.or.jp",
    "pref": "石川県",
    "city": "金沢市",
    "category": "home_help",
    "serviceType": "訪問介護",
    "capacity": null,
    "openDays": [
      "平日"
    ],
    "openDaysNote": ""
  },
  {
    "id": "1770105631",
    "name": "合同会社いえる",
    "kana": "ゴウドウガイシャイエル",
    "address": "石川県金沢市長田２丁目１４番４号",
    "lat": 36.5773585403663,
    "lng": 136.637931291882,
    "tel": "076-255-1009",
    "url": "http://goudougaisyaieru.bizcom-web.com/",
    "pref": "石川県",
    "city": "金沢市",
    "category": "home_help",
    "serviceType": "訪問介護",
    "capacity": 1,
    "openDays": [],
    "openDaysNote": "サービス提供においては、営業日以外、時間外においても対応可能な体制をとる。"
  },
  {
    "id": "1770103834",
    "name": "指定訪問介護事業所　サンケア杜の里",
    "kana": "シテイホウモンカイゴジギョウショ　サンケアモリノサト",
    "address": "金沢市もりの里2丁目138番地有料老人ホーム　サンケア杜の里 有料老人ホーム　サンケア杜の里",
    "lat": 36.5541485,
    "lng": 136.686409,
    "tel": "０７６－２５５－７８００",
    "url": "www.suncare-life.com",
    "pref": "石川県",
    "city": "金沢市",
    "category": "home_help",
    "serviceType": "訪問介護",
    "capacity": 0,
    "openDays": [
      "平日",
      "土曜日",
      "日曜日",
      "祝日"
    ],
    "openDaysNote": ""
  },
  {
    "id": "1770100228",
    "name": "社会福祉法人北伸福祉会　あいびす訪問介護事業所",
    "kana": "シャカイフクシホウジンホクシンフクシカイ　アイビスホウモンカイゴジギョウショ",
    "address": "石川県金沢市北塚町西４７５番地朱鷺の苑二塚デイサービス　２階 朱鷺の苑二塚デイサービス　２階",
    "lat": 36.569624233407,
    "lng": 136.594174136246,
    "tel": "076-236-2151",
    "url": "www.tokinoen.com",
    "pref": "石川県",
    "city": "金沢市",
    "category": "home_help",
    "serviceType": "訪問介護",
    "capacity": 90,
    "openDays": [
      "平日",
      "土曜日",
      "日曜日",
      "祝日"
    ],
    "openDaysNote": "利用者の要望に応じる"
  },
  {
    "id": "1770105284",
    "name": "寿リハ訪問介護",
    "kana": "ジュリハホウモンカイゴ",
    "address": "石川県金沢市駅西新町3‐18‐19",
    "lat": 36.5930497,
    "lng": 136.6373324,
    "tel": "076‐224-0270",
    "url": "http://aimkaigo.fitness-aim.com.",
    "pref": "石川県",
    "city": "金沢市",
    "category": "home_help",
    "serviceType": "訪問介護",
    "capacity": null,
    "openDays": [
      "平日"
    ],
    "openDaysNote": ""
  },
  {
    "id": "1770106415",
    "name": "住宅型有料老人ホームハート・ながえ",
    "kana": "ジュウタクガタユウリョウロウジンホームハートナガエ",
    "address": "東長江へ29-1住宅型有料老人ホームハート・ながえ 住宅型有料老人ホームハート・ながえ",
    "lat": 36.5633634,
    "lng": 136.7006426,
    "tel": "076-255-2296",
    "url": "www．heartlife‐gifu。co。jp",
    "pref": "石川県",
    "city": "金沢市",
    "category": "home_help",
    "serviceType": "訪問介護",
    "capacity": 0,
    "openDays": [
      "平日"
    ],
    "openDaysNote": "訪問介護は24時間体制"
  },
  {
    "id": "1770102323",
    "name": "清泉ヘルパーステーション　あんず館",
    "kana": "セイセンヘルパーステーションアンズカン",
    "address": "石川県金沢市泉本町1丁目107番地1号",
    "lat": 36.546235,
    "lng": 136.6369876,
    "tel": "076-245-7788",
    "url": "http://www.seisen-dayservice.jp/index.html",
    "pref": "石川県",
    "city": "金沢市",
    "category": "home_help",
    "serviceType": "訪問介護",
    "capacity": 0,
    "openDays": [
      "平日",
      "土曜日",
      "日曜日",
      "祝日"
    ],
    "openDaysNote": "年中無休　希望により２４時間対応"
  },
  {
    "id": "1770106951",
    "name": "石川県金沢市西金沢5丁目316番地",
    "kana": "イシカワケンカナザワシニシカナザワ",
    "address": "石川県金沢市西金沢5丁目316番地ファーストビル202 ファーストビル202",
    "lat": 36.5581399,
    "lng": 136.6153399,
    "tel": "076-259-5842",
    "url": "http://hp.kaipoke.biz/p1m/",
    "pref": "石川県",
    "city": "金沢市",
    "category": "home_help",
    "serviceType": "訪問介護",
    "capacity": 0,
    "openDays": [],
    "openDaysNote": "ご利用者様のご希望に応じ、サービスの提供については２４時間電話対応可能な体制をとっています。"
  },
  {
    "id": "1770101895",
    "name": "特定非営利活動法人　さわやかいいね金沢",
    "kana": "トクテイヒエイリカツドウホウジン　サワヤカイイネカナザワ",
    "address": "金沢市横川4丁目153番地1",
    "lat": 36.5400633,
    "lng": 136.6285775,
    "tel": "０７６－２４７－９１１７",
    "url": "",
    "pref": "石川県",
    "city": "金沢市",
    "category": "home_help",
    "serviceType": "訪問介護",
    "capacity": 80,
    "openDays": [
      "平日",
      "土曜日",
      "日曜日",
      "祝日"
    ],
    "openDaysNote": "サービスの日時は相談に応じています。"
  },
  {
    "id": "1770100673",
    "name": "特定非営利活動法人　金沢市ホームヘルプサービスひまわり",
    "kana": "トクテイヒエイリカツドウホウジン　カナザワシホームヘルプサービスヒマワリ",
    "address": "金沢市三社町1番４４号石川県女性センター　1階 石川県女性センター　1階",
    "lat": 36.5705768,
    "lng": 136.6453777,
    "tel": "076-261-0380",
    "url": "",
    "pref": "石川県",
    "city": "金沢市",
    "category": "home_help",
    "serviceType": "訪問介護",
    "capacity": null,
    "openDays": [
      "平日",
      "土曜日",
      "日曜日",
      "祝日"
    ],
    "openDaysNote": "携帯電話で24時間対応"
  },
  {
    "id": "1710118348",
    "name": "南ヶ丘ヘルパーステーション",
    "kana": "ミナミガオカヘルパーステーション",
    "address": "額新保１丁目351番地",
    "lat": 36.5220073507066,
    "lng": 136.61590820435,
    "tel": "076-298-5027",
    "url": "http://www.minamigaoka-hp.or.jp",
    "pref": "石川県",
    "city": "金沢市",
    "category": "home_help",
    "serviceType": "訪問介護",
    "capacity": 0,
    "openDays": [
      "平日",
      "土曜日"
    ],
    "openDaysNote": "利用者の状況により休日の相談に応じます。"
  },
  {
    "id": "1770106100",
    "name": "尾山互町ホームヘルプサービスセンター",
    "kana": "オヤマゴチョウホームヘルプサービスセンター",
    "address": "石川県金沢市下本多町五番丁23番地",
    "lat": 36.5569014008879,
    "lng": 136.657555515869,
    "tel": "076-256-0100",
    "url": "http://www.bijyoukai.net/",
    "pref": "石川県",
    "city": "金沢市",
    "category": "home_help",
    "serviceType": "訪問介護",
    "capacity": null,
    "openDays": [
      "平日",
      "土曜日",
      "祝日"
    ],
    "openDaysNote": "但し利用のご希望や必要がある場合は対応させていただきます。"
  },
  {
    "id": "1770100772",
    "name": "彦三きらく園訪問介護事業所",
    "kana": "ヒコソキラクエンホウモンカイゴジギョウショ",
    "address": "石川県金沢市彦三町1-8-8",
    "lat": 36.5730989,
    "lng": 136.6613016,
    "tel": "076-223-6608",
    "url": "http://www.kirakuen.net/",
    "pref": "石川県",
    "city": "金沢市",
    "category": "home_help",
    "serviceType": "訪問介護",
    "capacity": 55,
    "openDays": [
      "平日",
      "土曜日",
      "祝日"
    ],
    "openDaysNote": "平日の早朝・夜間帯については割増料金有"
  },
  {
    "id": "1770106605",
    "name": "訪問ヘルパーステーションささ百合",
    "kana": "ホウモンヘルパーステーションササユリ",
    "address": "石川県金沢市御所町２丁目３０６番有料老人ホームささ百合 有料老人ホームささ百合",
    "lat": 36.5794159715991,
    "lng": 136.7012577,
    "tel": "076-255-0361",
    "url": "",
    "pref": "石川県",
    "city": "金沢市",
    "category": "home_help",
    "serviceType": "訪問介護",
    "capacity": 0,
    "openDays": [
      "平日",
      "土曜日",
      "日曜日",
      "祝日"
    ],
    "openDaysNote": "電話等により、２４時間常時連絡が可能"
  },
  {
    "id": "1770106837",
    "name": "訪問介護　まごのて金沢",
    "kana": "ホウモンカイゴ　マゴノテカナザワ",
    "address": "石川県金沢市西念３丁目13−1Dune303 Dune303",
    "lat": 36.5875512,
    "lng": 136.6388835,
    "tel": "076-254-1006",
    "url": "",
    "pref": "石川県",
    "city": "金沢市",
    "category": "home_help",
    "serviceType": "訪問介護",
    "capacity": null,
    "openDays": [
      "平日"
    ],
    "openDaysNote": ""
  },
  {
    "id": "1770102661",
    "name": "訪問介護　めぐみ",
    "kana": "ホウモンカイゴ　メグミ",
    "address": "高尾台2丁目240",
    "lat": 36.5235459,
    "lng": 136.6322884,
    "tel": "076-296-1666",
    "url": "",
    "pref": "石川県",
    "city": "金沢市",
    "category": "home_help",
    "serviceType": "訪問介護",
    "capacity": 0,
    "openDays": [
      "平日",
      "土曜日",
      "日曜日",
      "祝日"
    ],
    "openDaysNote": "利用可能時間以外も相談に応じます"
  },
  {
    "id": "1770105698",
    "name": "訪問介護　金沢健康企画",
    "kana": "ホウモンカイゴ　カナザワケンコウキカク",
    "address": "石川県金沢市西念4丁目19⁻43",
    "lat": 36.5880737546025,
    "lng": 136.633948665146,
    "tel": "076-262-1777",
    "url": "",
    "pref": "石川県",
    "city": "金沢市",
    "category": "home_help",
    "serviceType": "訪問介護",
    "capacity": 0,
    "openDays": [
      "平日",
      "土曜日"
    ],
    "openDaysNote": "当社営業カレンダーにより、お休みさせていただく場合もございます。"
  },
  {
    "id": "1770106746",
    "name": "訪問介護いっぷく",
    "kana": "ホウモンカイゴイップク",
    "address": "石川県金沢市北町丁３５番地林ビル３階 林ビル３階",
    "lat": 36.5825257,
    "lng": 136.6298588,
    "tel": "076-254-1441",
    "url": "",
    "pref": "石川県",
    "city": "金沢市",
    "category": "home_help",
    "serviceType": "訪問介護",
    "capacity": 0,
    "openDays": [
      "平日"
    ],
    "openDaysNote": "ご利用者様のご希望に応じて、サービスの提供については出来る限り３６５日２４時間対応可能な体制を整えるものとします。"
  },
  {
    "id": "1770105904",
    "name": "訪問介護キャッツアイ",
    "kana": "ホウモンカイゴキャッツアイ",
    "address": "石川県金沢市糸田1丁目75番地",
    "lat": 36.5592499764574,
    "lng": 136.628470372733,
    "tel": "076-236-2470",
    "url": "",
    "pref": "石川県",
    "city": "金沢市",
    "category": "home_help",
    "serviceType": "訪問介護",
    "capacity": 0,
    "openDays": [
      "平日",
      "土曜日",
      "日曜日",
      "祝日"
    ],
    "openDaysNote": ""
  },
  {
    "id": "1770106860",
    "name": "訪問介護シースリー",
    "kana": "ホウモンカイゴシースリー",
    "address": "石川県金沢市末町４の123番地８",
    "lat": 36.5153915,
    "lng": 136.6924726,
    "tel": "０８０－４１８９－５２１３",
    "url": "",
    "pref": "石川県",
    "city": "金沢市",
    "category": "home_help",
    "serviceType": "訪問介護",
    "capacity": null,
    "openDays": [
      "平日"
    ],
    "openDaysNote": ""
  },
  {
    "id": "1770106050",
    "name": "訪問介護ステーション　えがおらいふ",
    "kana": "ホウモンカイゴステーションエガオライフ",
    "address": "木越町チ105-1",
    "lat": 36.6222730365453,
    "lng": 136.662576497937,
    "tel": "076-255-0637",
    "url": "",
    "pref": "石川県",
    "city": "金沢市",
    "category": "home_help",
    "serviceType": "訪問介護",
    "capacity": null,
    "openDays": [
      "平日",
      "土曜日",
      "日曜日",
      "祝日"
    ],
    "openDaysNote": ""
  },
  {
    "id": "1770106969",
    "name": "訪問介護ステーション悠ライフ金沢",
    "kana": "ホウモンカイゴステーションユウライフカナザワ",
    "address": "石川県金沢市有松3-1-10",
    "lat": 36.5412843,
    "lng": 136.6404064,
    "tel": "076-218-4128",
    "url": "https://kindlife-gifu.com",
    "pref": "石川県",
    "city": "金沢市",
    "category": "home_help",
    "serviceType": "訪問介護",
    "capacity": 0,
    "openDays": [
      "平日",
      "土曜日",
      "日曜日",
      "祝日"
    ],
    "openDaysNote": ""
  },
  {
    "id": "1770106258",
    "name": "訪問介護ひかり",
    "kana": "ホウモンカイゴヒカリ",
    "address": "石川県金沢市東力4-97-18",
    "lat": 36.5644046,
    "lng": 136.6247279,
    "tel": "076-259-5551",
    "url": "http://hp.kaipoke.biz/06z/128423/index_0003.html",
    "pref": "石川県",
    "city": "金沢市",
    "category": "home_help",
    "serviceType": "訪問介護",
    "capacity": 0,
    "openDays": [
      "平日",
      "土曜日",
      "日曜日",
      "祝日"
    ],
    "openDaysNote": ""
  },
  {
    "id": "1770106985",
    "name": "訪問介護ぷー",
    "kana": "ホウモンカイゴプー",
    "address": "石川県金沢市金石通町2番12号",
    "lat": 36.6039842,
    "lng": 136.5944751,
    "tel": "076-213-5631",
    "url": "",
    "pref": "石川県",
    "city": "金沢市",
    "category": "home_help",
    "serviceType": "訪問介護",
    "capacity": 0,
    "openDays": [
      "平日"
    ],
    "openDaysNote": "時間外においても24時間対応可能"
  },
  {
    "id": "1770107033",
    "name": "訪問介護めぐみ八日市",
    "kana": "ホウモンカイゴメグミヨウカイチ",
    "address": "石川県金沢市八日市2丁目230番地",
    "lat": 36.5436866,
    "lng": 136.6046136,
    "tel": "076-225-3335",
    "url": "https://www.megumikuroda-ishikawa.com/",
    "pref": "石川県",
    "city": "金沢市",
    "category": "home_help",
    "serviceType": "訪問介護",
    "capacity": null,
    "openDays": [
      "平日",
      "土曜日",
      "日曜日",
      "祝日"
    ],
    "openDaysNote": "利用時間外も相談に応じます"
  },
  {
    "id": "1770104634",
    "name": "訪問介護ゆとりの園",
    "kana": "ホウモンカイゴユトリノソノ",
    "address": "入江1丁目219番地",
    "lat": 36.5673136030662,
    "lng": 136.631595455121,
    "tel": "076-292-2800",
    "url": "http://yutorinosono.com/",
    "pref": "石川県",
    "city": "金沢市",
    "category": "home_help",
    "serviceType": "訪問介護",
    "capacity": 0,
    "openDays": [
      "平日",
      "土曜日",
      "日曜日",
      "祝日"
    ],
    "openDaysNote": "２４時間営業しています。"
  },
  {
    "id": "1770105664",
    "name": "訪問介護ゆとりの園西金沢",
    "kana": "ホウモンカイゴユトリノソノニシカナザワ",
    "address": "石川県金沢市米泉町7丁目59番地",
    "lat": 36.5521117,
    "lng": 136.6235134,
    "tel": "076-242-3900",
    "url": "http://yutorinosono.com/",
    "pref": "石川県",
    "city": "金沢市",
    "category": "home_help",
    "serviceType": "訪問介護",
    "capacity": 0,
    "openDays": [
      "平日",
      "土曜日",
      "日曜日",
      "祝日"
    ],
    "openDaysNote": "24時間営業しています。"
  },
  {
    "id": "1770103578",
    "name": "訪問介護事業所　オハナ",
    "kana": "ホウモンカイゴジギョウショ　オハナ",
    "address": "金沢市松島2丁目23番地",
    "lat": 36.5334594,
    "lng": 136.6848902,
    "tel": "076-259-5553",
    "url": "http://mananoie.com/",
    "pref": "石川県",
    "city": "金沢市",
    "category": "home_help",
    "serviceType": "訪問介護",
    "capacity": null,
    "openDays": [
      "平日",
      "土曜日",
      "日曜日",
      "祝日"
    ],
    "openDaysNote": ""
  },
  {
    "id": "1770102711",
    "name": "訪問介護事業所　しらさぎ苑",
    "kana": "ホウモンカイゴジギョウショ　シラサギエン",
    "address": "金沢市割出186番地",
    "lat": 36.6039446279326,
    "lng": 136.641709846944,
    "tel": "076-238-0520",
    "url": "http://www.shirasagi-en.com",
    "pref": "石川県",
    "city": "金沢市",
    "category": "home_help",
    "serviceType": "訪問介護",
    "capacity": 103,
    "openDays": [
      "平日",
      "土曜日",
      "日曜日",
      "祝日"
    ],
    "openDaysNote": "年中無休24時間ｻｰﾋﾞｽ提供可能"
  },
  {
    "id": "1770105789",
    "name": "訪問介護事業所　ひゃくまん星増泉",
    "kana": "ホウモンカイゴジギョウショ　ヒャクマンボシマスイズミ",
    "address": "石川県金沢市増泉1丁目16番41号",
    "lat": 36.5586254,
    "lng": 136.6448004,
    "tel": "076-280-1518",
    "url": "http://100manboshi.com/",
    "pref": "石川県",
    "city": "金沢市",
    "category": "home_help",
    "serviceType": "訪問介護",
    "capacity": 0,
    "openDays": [
      "平日",
      "土曜日",
      "日曜日",
      "祝日"
    ],
    "openDaysNote": ""
  },
  {
    "id": "1770104998",
    "name": "訪問介護事業所　ふくわらい",
    "kana": "ホウモンカイゴジギョウショ　フクワライ",
    "address": "金沢市横川5丁目21番地",
    "lat": 36.5418087898603,
    "lng": 136.629962657628,
    "tel": "０７６－２５９－６６８９",
    "url": "http://www.hakusoukai.jp",
    "pref": "石川県",
    "city": "金沢市",
    "category": "home_help",
    "serviceType": "訪問介護",
    "capacity": 0,
    "openDays": [
      "平日",
      "土曜日",
      "日曜日",
      "祝日"
    ],
    "openDaysNote": ""
  },
  {
    "id": "1770104519",
    "name": "訪問介護事業所　ボニュール平和苑",
    "kana": "ホウモンカイゴジギョウショ　ボニュールヘイワエン",
    "address": "金沢市平和町３丁目８－１ボニュール平和苑 ボニュール平和苑",
    "lat": 36.5412528,
    "lng": 136.6637441,
    "tel": "０７６－２７２－８６５１",
    "url": "",
    "pref": "石川県",
    "city": "金沢市",
    "category": "home_help",
    "serviceType": "訪問介護",
    "capacity": 0,
    "openDays": [
      "平日",
      "土曜日",
      "日曜日",
      "祝日"
    ],
    "openDaysNote": "緊急連絡電話体制あり。（改行）営業時間外や上記の休業日についても常時(24時間)連絡を取れる体制あり。"
  },
  {
    "id": "1770103883",
    "name": "訪問介護事業所　マナの家　木曳野",
    "kana": "ホウモンカイゴジギョウショ　マナノイエ　キビキノ",
    "address": "金沢市木曳野２丁目１５０番地",
    "lat": 36.5997638,
    "lng": 136.6049397,
    "tel": "076-255-6006",
    "url": "http://mananoie.com/",
    "pref": "石川県",
    "city": "金沢市",
    "category": "home_help",
    "serviceType": "訪問介護",
    "capacity": 30,
    "openDays": [
      "平日",
      "土曜日",
      "日曜日",
      "祝日"
    ],
    "openDaysNote": ""
  },
  {
    "id": "1770104493",
    "name": "訪問介護事業所　もりの都",
    "kana": "ホウモンカイゴジギョウショ　モリノミヤコ",
    "address": "石川県金沢市もりの里2丁目226番地",
    "lat": 36.5579337721076,
    "lng": 136.683512359152,
    "tel": "076-264-3694",
    "url": "http://www.houjyunoda.jp/",
    "pref": "石川県",
    "city": "金沢市",
    "category": "home_help",
    "serviceType": "訪問介護",
    "capacity": null,
    "openDays": [
      "平日"
    ],
    "openDaysNote": "24時間営業"
  },
  {
    "id": "1770104758",
    "name": "訪問介護事業所　れんと",
    "kana": "ホウモンカイゴジギョウショ　レント",
    "address": "大額2丁目67番地",
    "lat": 36.5153328,
    "lng": 136.625078,
    "tel": "076-287-6411",
    "url": "http://npolento.com",
    "pref": "石川県",
    "city": "金沢市",
    "category": "home_help",
    "serviceType": "訪問介護",
    "capacity": 3,
    "openDays": [
      "平日",
      "土曜日",
      "日曜日",
      "祝日"
    ],
    "openDaysNote": "ただし、お客様の希望に応じて、サービス提供については、24時間対応可能な体制を整えるものとします。"
  },
  {
    "id": "1770106134",
    "name": "訪問介護事業所　凪のいえ",
    "kana": "ホウモンカイゴジギョウショ　ナギノイエ",
    "address": "石川県金沢市四十万３丁目249番地2",
    "lat": 36.5031097,
    "lng": 136.6165588,
    "tel": "076-227-9669",
    "url": "http//naginoie.jimudofree.com",
    "pref": "石川県",
    "city": "金沢市",
    "category": "home_help",
    "serviceType": "訪問介護",
    "capacity": 0,
    "openDays": [
      "平日"
    ],
    "openDaysNote": "午前９時から午後６時まで（改行）但し、利用者の希望に応じて、サービスの提供については、24時間対応可能な体制を整えるものとします。"
  },
  {
    "id": "1770102893",
    "name": "訪問介護事業所　白寿園",
    "kana": "ホウモンカイゴジギョウショ　ハクジュエン",
    "address": "金沢市鞍月4丁目143番地",
    "lat": 36.5969007,
    "lng": 136.6235115,
    "tel": "076-267-0533",
    "url": "http://hakujuen.co.jp/",
    "pref": "石川県",
    "city": "金沢市",
    "category": "home_help",
    "serviceType": "訪問介護",
    "capacity": 0,
    "openDays": [
      "平日"
    ],
    "openDaysNote": ""
  },
  {
    "id": "1770104956",
    "name": "訪問介護事業所　白寿園　四十万",
    "kana": "ホウモンカイゴジギョウショ　ハクジュエン　シジマ",
    "address": "石川県金沢市四十万３丁目１０２番地",
    "lat": 36.5023836,
    "lng": 136.619942,
    "tel": "076-296-2070",
    "url": "http://hakujuen.co.jp/",
    "pref": "石川県",
    "city": "金沢市",
    "category": "home_help",
    "serviceType": "訪問介護",
    "capacity": 72,
    "openDays": [
      "平日",
      "土曜日",
      "日曜日",
      "祝日"
    ],
    "openDaysNote": ""
  },
  {
    "id": "1770105250",
    "name": "訪問介護事業所　白寿園金沢西",
    "kana": "ホウモンカイゴジギョウショ　ハクジュエン　カナザワニシ",
    "address": "石川県金沢市古府3丁目99番地",
    "lat": 36.5702109,
    "lng": 136.6076044,
    "tel": "076-249-6161",
    "url": "http://www18.ocn.ne.jp/~h.tyuou/",
    "pref": "石川県",
    "city": "金沢市",
    "category": "home_help",
    "serviceType": "訪問介護",
    "capacity": 0,
    "openDays": [],
    "openDaysNote": "電話等により24時間営業連絡が可能な体制をとる."
  },
  {
    "id": "1770105268",
    "name": "訪問介護事業所　白寿園城北",
    "kana": "ホウモンカイゴジギョウショ　ハクジュエンジョウホク",
    "address": "浅野本町ニ124番地1",
    "lat": 36.5871385,
    "lng": 136.6569181,
    "tel": "076-252-0180",
    "url": "",
    "pref": "石川県",
    "city": "金沢市",
    "category": "home_help",
    "serviceType": "訪問介護",
    "capacity": 0,
    "openDays": [],
    "openDaysNote": "24時間対応"
  },
  {
    "id": "1770102760",
    "name": "訪問介護事業所　朗　高尾台",
    "kana": "ホウモンカイゴジギョウショ　ホガラカ　タカオダイ",
    "address": "石川県金沢市高尾台1丁目449番地",
    "lat": 36.5236548,
    "lng": 136.639548,
    "tel": "076(298)5233",
    "url": "http://hogaraka.care/",
    "pref": "石川県",
    "city": "金沢市",
    "category": "home_help",
    "serviceType": "訪問介護",
    "capacity": 0,
    "openDays": [
      "平日",
      "土曜日",
      "祝日"
    ],
    "openDaysNote": "時間外は、必要に応じて要相談。"
  },
  {
    "id": "1770106894",
    "name": "訪問介護事業所かいてき割出",
    "kana": "ホウモンカイゴジギョウショカイテキワリダシ",
    "address": "石川県金沢市割出町138番地",
    "lat": 36.603481,
    "lng": 136.6430137,
    "tel": "076-237-1508",
    "url": "https://www.shirasagi-en.com",
    "pref": "石川県",
    "city": "金沢市",
    "category": "home_help",
    "serviceType": "訪問介護",
    "capacity": null,
    "openDays": [
      "平日",
      "土曜日",
      "日曜日",
      "祝日"
    ],
    "openDaysNote": "年中無休24時間サービス提供可能"
  },
  {
    "id": "1770102687",
    "name": "訪問介護事業所のんび～っと",
    "kana": "ホウモンカイゴジギョウショノンビ～ット",
    "address": "石川県金沢市疋田２丁目９４番地白寿の里 白寿の里",
    "lat": 36.6027686,
    "lng": 136.6750355,
    "tel": "０７６－２０４－８９００",
    "url": "http://kanazawafukusi.jimdo.com/",
    "pref": "石川県",
    "city": "金沢市",
    "category": "home_help",
    "serviceType": "訪問介護",
    "capacity": null,
    "openDays": [
      "平日",
      "土曜日",
      "日曜日",
      "祝日"
    ],
    "openDaysNote": "サービス時間に付きましては、担当者・管理者・ケアマネージャに（改行）ご相談下さいます様に。"
  },
  {
    "id": "1770106589",
    "name": "訪問介護事業所ふくらすずめ",
    "kana": "ホウモンカイゴジギョウショフクラスズメ",
    "address": "石川県金沢市新保本2丁目552番地１",
    "lat": 36.5513403,
    "lng": 136.6021621,
    "tel": "076-259-1184",
    "url": "",
    "pref": "石川県",
    "city": "金沢市",
    "category": "home_help",
    "serviceType": "訪問介護",
    "capacity": 60,
    "openDays": [
      "平日",
      "土曜日",
      "日曜日",
      "祝日"
    ],
    "openDaysNote": "夜間・早朝については応相談"
  },
  {
    "id": "1770104980",
    "name": "豊心ケアサービス",
    "kana": "ホウシンケアサービス",
    "address": "額乙丸町ロ２６８豊心の里 豊心の里",
    "lat": 36.50955546758,
    "lng": 136.620335477771,
    "tel": "０７６－２９６－１７７７",
    "url": "http://houshin.me",
    "pref": "石川県",
    "city": "金沢市",
    "category": "home_help",
    "serviceType": "訪問介護",
    "capacity": 25,
    "openDays": [
      "平日",
      "土曜日",
      "日曜日",
      "祝日"
    ],
    "openDaysNote": "併設しているサービス付高齢者住宅豊心の里の入居者様に関しては、時間外のサービス提供及び２４時間の電話連絡が可能な体制を保持しています。"
  },
  {
    "id": "1770106472",
    "name": "悠悠泉本町訪問介護ステーション",
    "kana": "ユウユウイズミホンマチホウモンカイゴステーション",
    "address": "石川県金沢市泉本町4-20-1",
    "lat": 36.5510224,
    "lng": 136.6388648,
    "tel": "076-242-3355",
    "url": "http://you2care.jp/",
    "pref": "石川県",
    "city": "金沢市",
    "category": "home_help",
    "serviceType": "訪問介護",
    "capacity": 0,
    "openDays": [
      "平日",
      "土曜日",
      "日曜日",
      "祝日"
    ],
    "openDaysNote": ""
  },
  {
    "id": "1770102125",
    "name": "有限会社　ヘルパ－ステ－ション愛",
    "kana": "ユウゲンガイシャ　ヘルパ-ステ-ションアイ",
    "address": "石川県金沢市古府町南386番地2",
    "lat": 36.5616799,
    "lng": 136.6108392,
    "tel": "076－249－0005",
    "url": "http//www.ailadysclinic/com/",
    "pref": "石川県",
    "city": "金沢市",
    "category": "home_help",
    "serviceType": "訪問介護",
    "capacity": 0,
    "openDays": [
      "平日",
      "土曜日",
      "日曜日",
      "祝日"
    ],
    "openDaysNote": ""
  },
  {
    "id": "1770102554",
    "name": "有限会社　伸和　介護サービス　すこやかさん",
    "kana": "ユウゲンカイシャ　シンワ　カイゴサービススコヤカサン",
    "address": "金沢市入江2丁目４２４",
    "lat": 36.5662823,
    "lng": 136.6268568,
    "tel": "０７６－２９２－１７２１",
    "url": "",
    "pref": "石川県",
    "city": "金沢市",
    "category": "home_help",
    "serviceType": "訪問介護",
    "capacity": 0,
    "openDays": [
      "平日",
      "土曜日"
    ],
    "openDaysNote": "希望があれば日曜日、祝日営業します。"
  },
  {
    "id": "1770100145",
    "name": "陽風園訪問介護センター",
    "kana": "ヨウフウエンホウモンカイゴセンター",
    "address": "金沢市三口新町１丁目８番１号",
    "lat": 36.5402835,
    "lng": 136.6822708,
    "tel": "076-263-7111",
    "url": "http://www.yofuen.com/",
    "pref": "石川県",
    "city": "金沢市",
    "category": "home_help",
    "serviceType": "訪問介護",
    "capacity": 0,
    "openDays": [
      "平日",
      "土曜日",
      "日曜日",
      "祝日"
    ],
    "openDaysNote": ""
  },
  {
    "id": "1770106522",
    "name": "和みヘルパーステーション",
    "kana": "ナゴミヘルパーステーション",
    "address": "石川県金沢市戸水1丁目217番地",
    "lat": 36.604142,
    "lng": 136.6240323,
    "tel": "076-238-3858",
    "url": "https://a3umi.hp.peraichi.com/kouwakaigoudougaisya/",
    "pref": "石川県",
    "city": "金沢市",
    "category": "home_help",
    "serviceType": "訪問介護",
    "capacity": 40,
    "openDays": [
      "平日",
      "土曜日",
      "日曜日",
      "祝日"
    ],
    "openDaysNote": "時間外も対応可能　要相談"
  },
  {
    "id": "1771700398",
    "name": "（株）　まごころ　ヘルパーステーション　ささゆりの丘",
    "kana": "カブシキガイシャ　マゴコロ　ヘルパーステーション　ササユリノオカ",
    "address": "石川県鳳珠郡穴水町字此木1の120番地",
    "lat": 37.2431414687559,
    "lng": 136.900098723557,
    "tel": "0768-52-1210",
    "url": "http://magokoro-sasayuri.com/",
    "pref": "石川県",
    "city": "穴水町",
    "category": "home_help",
    "serviceType": "訪問介護",
    "capacity": 0,
    "openDays": [
      "平日",
      "土曜日",
      "日曜日",
      "祝日"
    ],
    "openDaysNote": ""
  },
  {
    "id": "1771700067",
    "name": "ＪＡのとヘルパーステーション",
    "kana": "ＪＡノトヘルパーステーション",
    "address": "石川県鳳珠郡穴水町字大町ほの95番地",
    "lat": 37.230995,
    "lng": 136.9124745,
    "tel": "0768-52-3805",
    "url": "",
    "pref": "石川県",
    "city": "穴水町",
    "category": "home_help",
    "serviceType": "訪問介護",
    "capacity": 0,
    "openDays": [
      "平日",
      "祝日"
    ],
    "openDaysNote": "土曜日は相談に応じて対応可能。"
  },
  {
    "id": "1771700430",
    "name": "ヘルパーステーション銀河",
    "kana": "ヘルパーステーションギンガ",
    "address": "石川県鳳珠郡穴水町此木11の24番地自立ホームけいじゅ 自立ホームけいじゅ",
    "lat": 37.2453080791344,
    "lng": 136.899044285671,
    "tel": "768522764",
    "url": "https://www.tokujyu.jp",
    "pref": "石川県",
    "city": "穴水町",
    "category": "home_help",
    "serviceType": "訪問介護",
    "capacity": null,
    "openDays": [
      "平日",
      "土曜日",
      "日曜日",
      "祝日"
    ],
    "openDaysNote": "平常の時間帯（午前8時から午後6時）以外の時間帯でサービスを行う場合には、次の割合で利用料金に割増料金を加算。・夜間（午後6時から午後10時まで）：25％（改行）・早朝（午前6時から8時まで）：25％・深夜（午後10時から午前6時まで）：50％"
  },
  {
    "id": "1771700364",
    "name": "清水の里　ヘルパーステーション　穴水",
    "kana": "キヨミズノサト　ヘルパーステーション　アナミズ",
    "address": "石川県鳳珠郡穴水町字宇加川イ１４２",
    "lat": 37.2247802,
    "lng": 137.0658412,
    "tel": "0768-57-1688",
    "url": "http://kiyomizunosato,jp",
    "pref": "石川県",
    "city": "穴水町",
    "category": "home_help",
    "serviceType": "訪問介護",
    "capacity": 0,
    "openDays": [
      "平日",
      "土曜日",
      "日曜日",
      "祝日"
    ],
    "openDaysNote": "各種加算がある場合の利用料の額は、加算合計後の総額から、保険負担分(9割）を引いた金額(1割）になります。"
  },
  {
    "id": "1771700125",
    "name": "聖頌園ヘルパーステーション",
    "kana": "セイショウエンヘルパーステーション",
    "address": "鳳珠郡穴水町字岩車6,27の2番地",
    "lat": 37.2112538,
    "lng": 136.9606872,
    "tel": "0768-56-1520",
    "url": "http://www.bokuyoufukushikai.com",
    "pref": "石川県",
    "city": "穴水町",
    "category": "home_help",
    "serviceType": "訪問介護",
    "capacity": 0,
    "openDays": [
      "平日",
      "土曜日",
      "日曜日",
      "祝日"
    ],
    "openDaysNote": ""
  },
  {
    "id": "1771500012",
    "name": "JA志賀訪問介護センター",
    "kana": "ジェイエイシカホウモンカイゴセンター",
    "address": "石川県羽咋郡志賀町高浜町クの５６番地1",
    "lat": 37.0040147,
    "lng": 136.7715524,
    "tel": "0767-32-5531",
    "url": "kaigo@shika.is-ja.jp",
    "pref": "石川県",
    "city": "志賀町",
    "category": "home_help",
    "serviceType": "訪問介護",
    "capacity": 0,
    "openDays": [
      "平日",
      "土曜日",
      "日曜日",
      "祝日"
    ],
    "openDaysNote": "利用者の要望により２４時間電話対応"
  },
  {
    "id": "1771500244",
    "name": "志賀町社会福祉協議会訪問介護サービスステーション",
    "kana": "シカマチシャカイフクシキョウギカイホウモンカイゴサービスステーション",
    "address": "石川県羽咋郡志賀高浜町カの１番地１志賀町保健福祉センター内 志賀町保健福祉センター内",
    "lat": 37.010607918872,
    "lng": 136.774896969478,
    "tel": "0767-32-1363",
    "url": "www.scnet.tv/~s-shakyo/",
    "pref": "石川県",
    "city": "志賀町",
    "category": "home_help",
    "serviceType": "訪問介護",
    "capacity": 0,
    "openDays": [
      "平日",
      "土曜日",
      "日曜日",
      "祝日"
    ],
    "openDaysNote": ""
  },
  {
    "id": "1770200622",
    "name": "Industrial・Handsヘルパーステーション",
    "kana": "インダストリアル・ハンズヘルパーステーション",
    "address": "石川県七尾市石崎町香島3丁目33-1",
    "lat": 37.0803902,
    "lng": 136.9208339,
    "tel": "0767-62-0293",
    "url": "https://www.puku2neneo.net/",
    "pref": "石川県",
    "city": "七尾市",
    "category": "home_help",
    "serviceType": "訪問介護",
    "capacity": 0,
    "openDays": [
      "平日"
    ],
    "openDaysNote": ""
  },
  {
    "id": "1770200606",
    "name": "ＳＯＭＰＯケア　七尾　訪問介護",
    "kana": "ソンポケア　ナナオ　ホウモンカイゴ",
    "address": "石川県七尾市神明町ロ部6番地1フラワービル103 フラワービル103",
    "lat": 37.0424408,
    "lng": 136.9655094,
    "tel": "0767-53-2250",
    "url": "",
    "pref": "石川県",
    "city": "七尾市",
    "category": "home_help",
    "serviceType": "訪問介護",
    "capacity": 0,
    "openDays": [
      "平日",
      "土曜日",
      "日曜日",
      "祝日"
    ],
    "openDaysNote": "但し、居宅サービス計画書に基づいてサービスの提供を行います。"
  },
  {
    "id": "1770200135",
    "name": "ヘルパーステーション　あっとほーむ若葉",
    "kana": "ヘルパーステーション　アットホームワカバ",
    "address": "石川県七尾市矢田町２２号七株田１２番地５",
    "lat": 37.025588,
    "lng": 136.9831918,
    "tel": "0767-53-8704",
    "url": "http://www.homewakaba.com",
    "pref": "石川県",
    "city": "七尾市",
    "category": "home_help",
    "serviceType": "訪問介護",
    "capacity": 0,
    "openDays": [
      "平日",
      "土曜日",
      "日曜日",
      "祝日"
    ],
    "openDaysNote": "年中無休（利用者又は契約者の要望に応じて、上記の時間帯のほか早朝･夜間帯のサービス提供も行う。）"
  },
  {
    "id": "1770200549",
    "name": "ヘルパーステーション　蒼葉",
    "kana": "ヘルパーステーション　アオバ",
    "address": "石川県七尾市石崎町香島１丁目１０６番地１",
    "lat": 37.0804973898548,
    "lng": 136.926508793454,
    "tel": "0767-57-5301",
    "url": "",
    "pref": "石川県",
    "city": "七尾市",
    "category": "home_help",
    "serviceType": "訪問介護",
    "capacity": 0,
    "openDays": [
      "平日"
    ],
    "openDaysNote": ""
  },
  {
    "id": "1770200572",
    "name": "ヘルパーステーションローレル",
    "kana": "ヘルパーステーションローレル",
    "address": "石川県七尾市富岡町95番地ローレルハイツ恵寿 ローレルハイツ恵寿",
    "lat": 37.050201,
    "lng": 136.960707,
    "tel": "0767-52-6014",
    "url": "http://www.tokujyu.jp",
    "pref": "石川県",
    "city": "七尾市",
    "category": "home_help",
    "serviceType": "訪問介護",
    "capacity": 0,
    "openDays": [
      "平日",
      "土曜日",
      "日曜日",
      "祝日"
    ],
    "openDaysNote": "但し、需要がある場合はこの限りではありません。"
  },
  {
    "id": "1770200580",
    "name": "ライフサポーター　風のーと",
    "kana": "ライフサポーター　カゼノート",
    "address": "石川県七尾市田鶴浜町レ部218番地",
    "lat": 37.0611893702268,
    "lng": 136.89689842652,
    "tel": "0767-57-5641",
    "url": "",
    "pref": "石川県",
    "city": "七尾市",
    "category": "home_help",
    "serviceType": "訪問介護",
    "capacity": 0,
    "openDays": [
      "平日",
      "土曜日",
      "日曜日",
      "祝日"
    ],
    "openDaysNote": "現在までの実績"
  },
  {
    "id": "1710210749",
    "name": "医療法人社団和泉会　ヘルパーステーションさはら",
    "kana": "イリョウホウジンシャダンイズミカイ　ヘルパーステーションサハラ",
    "address": "石川県七尾市石崎町タ28番地7",
    "lat": 37.0756799,
    "lng": 136.9245232,
    "tel": "0767-62-0262",
    "url": "https://www.saharagroup.jp",
    "pref": "石川県",
    "city": "七尾市",
    "category": "home_help",
    "serviceType": "訪問介護",
    "capacity": 0,
    "openDays": [
      "平日",
      "土曜日",
      "祝日"
    ],
    "openDaysNote": "上記時間以外の要請は双方と相談の上決定する。"
  },
  {
    "id": "1710210913",
    "name": "在宅支援サービスステーションえんやま",
    "kana": "ザイタクシエンサービスステーションエンヤマ",
    "address": "千野町に部１０番地",
    "lat": 37.017182,
    "lng": 136.953167,
    "tel": "0767-57-8600",
    "url": "http://enyama.jp/clinic/",
    "pref": "石川県",
    "city": "七尾市",
    "category": "home_help",
    "serviceType": "訪問介護",
    "capacity": 0,
    "openDays": [
      "平日",
      "土曜日",
      "日曜日",
      "祝日"
    ],
    "openDaysNote": ""
  },
  {
    "id": "1770200648",
    "name": "訪問介護事業所かいてき七尾",
    "kana": "ホウモンカイゴジギョウショカイテキナナオ",
    "address": "石川県七尾市能登島半浦町参1002番地1グランド・ケア・クラシック能登 グランド・ケア・クラシック能登",
    "lat": 37.1152959,
    "lng": 136.946065,
    "tel": "0767-85-2111",
    "url": "https:www.gcc-01.jp",
    "pref": "石川県",
    "city": "七尾市",
    "category": "home_help",
    "serviceType": "訪問介護",
    "capacity": 0,
    "openDays": [
      "平日",
      "土曜日",
      "日曜日",
      "祝日"
    ],
    "openDaysNote": ""
  },
  {
    "id": "1770200630",
    "name": "訪問介護事業所かいてき能登",
    "kana": "ホウモンカイゴジギョウショカイテキノト",
    "address": "石川県七尾市能登島半浦町参2番地1グランド・ケア・クラシック能登 グランド・ケア・クラシック能登",
    "lat": 37.1152959,
    "lng": 136.946065,
    "tel": "0767‐85‐2111",
    "url": "https:www.gcc-01.jp",
    "pref": "石川県",
    "city": "七尾市",
    "category": "home_help",
    "serviceType": "訪問介護",
    "capacity": 0,
    "openDays": [
      "平日",
      "土曜日",
      "日曜日",
      "祝日"
    ],
    "openDaysNote": ""
  },
  {
    "id": "1770500021",
    "name": "珠洲市社会福祉協議会　訪問介護サービスセンター",
    "kana": "スズシシャカイフクシキョウギカイ　ホウモンカイゴサービスセンター",
    "address": "石川県珠洲市飯田町５部９番地健康増進センター内 健康増進センター内",
    "lat": 37.4449141209636,
    "lng": 137.265975448549,
    "tel": "0768-82-7753",
    "url": "http://www.suzushi-syakyo.or.jp",
    "pref": "石川県",
    "city": "珠洲市",
    "category": "home_help",
    "serviceType": "訪問介護",
    "capacity": 50,
    "openDays": [
      "平日",
      "土曜日",
      "日曜日",
      "祝日"
    ],
    "openDaysNote": "サービス提供時間帯以外の利用は相談に応じる"
  },
  {
    "id": "1770500013",
    "name": "長寿園訪問介護サービスセンター",
    "kana": "チョウジュエンホウモンカイゴサービスセンター",
    "address": "石川県珠洲市宝立町春日野4字117番地",
    "lat": 37.4113186,
    "lng": 137.2402722,
    "tel": "０７６８－８４－２２５２",
    "url": "http://choujukai-isk.jp/index.htmi",
    "pref": "石川県",
    "city": "珠洲市",
    "category": "home_help",
    "serviceType": "訪問介護",
    "capacity": 0,
    "openDays": [
      "平日",
      "土曜日",
      "日曜日",
      "祝日"
    ],
    "openDaysNote": "緊急時24時間体制"
  },
  {
    "id": "1770300018",
    "name": "JAきらら指定訪問介護事業所",
    "kana": "ジェイエイキララシテイホウモンカイゴジギョウショ",
    "address": "小松市長谷町５０番地５",
    "lat": 36.3568784,
    "lng": 136.4857751,
    "tel": "0761-46-8200",
    "url": "http://jakirara.ocn",
    "pref": "石川県",
    "city": "小松市",
    "category": "home_help",
    "serviceType": "訪問介護",
    "capacity": 50,
    "openDays": [
      "平日",
      "土曜日",
      "日曜日",
      "祝日"
    ],
    "openDaysNote": "介護職員の処遇改善のために定休日は設定しておりますが、特別の事情がある場合は対応します。（改行）又、スポット対応にはなりますが事情がある方には日曜日にも対応いたします。"
  },
  {
    "id": "1760390821",
    "name": "アリシスヘルパーステーション",
    "kana": "アリシスヘルパーステーション",
    "address": "小松市上小松町丙41-1",
    "lat": 36.4080918,
    "lng": 136.4646724,
    "tel": "0761-22-0015",
    "url": "http://www.tyouju.co.jp/",
    "pref": "石川県",
    "city": "小松市",
    "category": "home_help",
    "serviceType": "訪問介護",
    "capacity": 0,
    "openDays": [
      "平日",
      "土曜日",
      "日曜日",
      "祝日"
    ],
    "openDaysNote": ""
  },
  {
    "id": "1770300679",
    "name": "ウェリナ訪問介護事業所",
    "kana": "ウェリナホウモンカイゴジギョウショ",
    "address": "石川県小松市八幡ロ41－6",
    "lat": 36.3890936,
    "lng": 136.4899436,
    "tel": "0761-47-7215",
    "url": "https:www.kotobuki-care.com",
    "pref": "石川県",
    "city": "小松市",
    "category": "home_help",
    "serviceType": "訪問介護",
    "capacity": 66,
    "openDays": [
      "平日",
      "土曜日",
      "日曜日",
      "祝日"
    ],
    "openDaysNote": ""
  },
  {
    "id": "1770300372",
    "name": "ニチイケアセンター　小松",
    "kana": "ニチイケアセンター　コマツ",
    "address": "小松市日の出町1-126ソレアードビル1階 ソレアードビル1階",
    "lat": 36.4002482,
    "lng": 136.4556398,
    "tel": "0761-25-2680",
    "url": "ｈｔｔｐ/www.nichiigakkan.co.jp",
    "pref": "石川県",
    "city": "小松市",
    "category": "home_help",
    "serviceType": "訪問介護",
    "capacity": 0,
    "openDays": [
      "平日"
    ],
    "openDaysNote": "居宅サービス計画により営業時間以外でも、サービスの提供を行う場合がある。"
  },
  {
    "id": "1770300992",
    "name": "ニチイケアセンター符津",
    "kana": "ニチイケアセンター　フツ",
    "address": "石川県小松市符津町う65番地",
    "lat": 36.3561314,
    "lng": 136.4275917,
    "tel": "0761-43-0125",
    "url": "www.nichiigakkan,co,jp",
    "pref": "石川県",
    "city": "小松市",
    "category": "home_help",
    "serviceType": "訪問介護",
    "capacity": null,
    "openDays": [
      "平日"
    ],
    "openDaysNote": "※居宅サービス計画により、休業日及び営業時間外であってもサービスを提供する場合があります。"
  },
  {
    "id": "1770301065",
    "name": "ヘルパーステーション　あおい",
    "kana": "ヘルパーステーション　アオイ",
    "address": "石川県小松市八幡ロ37番地7",
    "lat": 36.3884414,
    "lng": 136.4895594,
    "tel": "0761-46-6814",
    "url": "https://lazo1206.com",
    "pref": "石川県",
    "city": "小松市",
    "category": "home_help",
    "serviceType": "訪問介護",
    "capacity": null,
    "openDays": [
      "平日",
      "土曜日",
      "日曜日",
      "祝日"
    ],
    "openDaysNote": ""
  },
  {
    "id": "1770300794",
    "name": "ヘルパーステーション　エンジェル",
    "kana": "ヘルパーステーション　エンジェル",
    "address": "石川県小松市八幡辛353番地サービ付き高齢者向け住宅　エンジェルハウス内 サービ付き高齢者向け住宅　エンジェルハウス内",
    "lat": 36.3966487169349,
    "lng": 136.487577642328,
    "tel": "０７６１－４７－１５１０",
    "url": "",
    "pref": "石川県",
    "city": "小松市",
    "category": "home_help",
    "serviceType": "訪問介護",
    "capacity": 0,
    "openDays": [
      "平日",
      "土曜日",
      "日曜日",
      "祝日"
    ],
    "openDaysNote": "但し、利用者様のご要望があれば、時間外営業を行うこともあります。"
  },
  {
    "id": "1770300828",
    "name": "ヘルパーステーション　き楽な里",
    "kana": "ヘルパーステーション　キラクナサト",
    "address": "串茶屋町上野87-1",
    "lat": 36.3752995,
    "lng": 136.4283826,
    "tel": "0761-43-2713",
    "url": "http://www.kirakuna-sato.co.jp",
    "pref": "石川県",
    "city": "小松市",
    "category": "home_help",
    "serviceType": "訪問介護",
    "capacity": 32,
    "openDays": [],
    "openDaysNote": "年中無休。24時間営業"
  },
  {
    "id": "1770300893",
    "name": "ヘルパーステーション　たるる",
    "kana": "ヘルパーステーション　タルル",
    "address": "北浅井町舟津26番地サービス付き高齢者向け住宅　たるる北浅井 サービス付き高齢者向け住宅　たるる北浅井",
    "lat": 36.3894998,
    "lng": 136.4558818,
    "tel": "0761-22-6161",
    "url": "http://www.careplus.co.jp",
    "pref": "石川県",
    "city": "小松市",
    "category": "home_help",
    "serviceType": "訪問介護",
    "capacity": 0,
    "openDays": [
      "平日",
      "土曜日",
      "日曜日",
      "祝日"
    ],
    "openDaysNote": "サービス提供時間・提供地域は要相談"
  },
  {
    "id": "1770300083",
    "name": "松寿園ホームヘルパーほほえみ",
    "kana": "ショウジュエン　ホームヘルパー　ホホエミ",
    "address": "小松市向本折町ホ31番地",
    "lat": 36.3968306,
    "lng": 136.4397442,
    "tel": "0761-22-1022",
    "url": "http://care-net.biz/17/syojyuen/",
    "pref": "石川県",
    "city": "小松市",
    "category": "home_help",
    "serviceType": "訪問介護",
    "capacity": 0,
    "openDays": [
      "平日",
      "土曜日",
      "日曜日",
      "祝日"
    ],
    "openDaysNote": "早朝、夜間は相談に応じます。"
  },
  {
    "id": "1770300901",
    "name": "訪問介護ステーション　咲の樹",
    "kana": "ホウモンカイゴステーション　エミノキ",
    "address": "石川県小松市大領中町3丁目109番地サービス付き高齢者向け住宅　咲の樹 サービス付き高齢者向け住宅　咲の樹",
    "lat": 36.3876966,
    "lng": 136.4478216,
    "tel": "0761-23-2260",
    "url": "http://higashi-hospital.jp/eminoki/",
    "pref": "石川県",
    "city": "小松市",
    "category": "home_help",
    "serviceType": "訪問介護",
    "capacity": 0,
    "openDays": [
      "平日",
      "土曜日",
      "日曜日",
      "祝日"
    ],
    "openDaysNote": ""
  },
  {
    "id": "1770301040",
    "name": "訪問介護ステーションややのいえ",
    "kana": "ホウモンカイゴステーションヤヤノイエ",
    "address": "石川県小松市小馬出町18番地",
    "lat": 36.4064192,
    "lng": 136.4477337,
    "tel": "0761-48-4988",
    "url": "",
    "pref": "石川県",
    "city": "小松市",
    "category": "home_help",
    "serviceType": "訪問介護",
    "capacity": 5,
    "openDays": [
      "平日"
    ],
    "openDaysNote": "ご利用者様のご希望により、提供日、時間の調整を行います。"
  },
  {
    "id": "1771600226",
    "name": "中能登町社協　ヘルパーステーション",
    "kana": "ナカノトマチシャキョウヘルパーステーション",
    "address": "石川県鹿島郡中能登町能登部上チ部３０番地デイサービス「ひまわり」内 デイサービス「ひまわり」内",
    "lat": 36.9830497,
    "lng": 136.9013818,
    "tel": "０７６７－７２－３０８７",
    "url": "http://nakanoto-syakyou.sakura.ne.jp/care/index.html",
    "pref": "石川県",
    "city": "中能登町",
    "category": "home_help",
    "serviceType": "訪問介護",
    "capacity": 0,
    "openDays": [
      "平日",
      "土曜日",
      "日曜日",
      "祝日"
    ],
    "openDaysNote": "１月１日のみお休み"
  },
  {
    "id": "1771400064",
    "name": "ＪＡ石川かほく　ほのぼのヘルプ",
    "kana": "ジェイエイイシカワカホク　ホノボノヘルプ",
    "address": "石川県河北郡津幡町川尻タ48番地",
    "lat": 36.6730732,
    "lng": 136.7198119,
    "tel": "076-289-3432",
    "url": "http://www.is-ja.jp/kahoku/service/fukushi.html",
    "pref": "石川県",
    "city": "津幡町",
    "category": "home_help",
    "serviceType": "訪問介護",
    "capacity": 45,
    "openDays": [
      "平日",
      "土曜日",
      "日曜日",
      "祝日"
    ],
    "openDaysNote": ""
  },
  {
    "id": "1771400577",
    "name": "なぎさケアサービス津幡",
    "kana": "ナギサケアサービスツバタ",
    "address": "河北郡津幡町字横浜ろ-1ｸﾚｾｰﾙ203",
    "lat": 36.6683358171916,
    "lng": 136.732671468146,
    "tel": "076-255-3061",
    "url": "",
    "pref": "石川県",
    "city": "津幡町",
    "category": "home_help",
    "serviceType": "訪問介護",
    "capacity": 0,
    "openDays": [
      "平日",
      "祝日"
    ],
    "openDaysNote": "365日間24時間　相談に応じます。"
  },
  {
    "id": "1771400791",
    "name": "ニチイケアセンター津幡",
    "kana": "ニチイケアセンターツバタ",
    "address": "石川県河北郡津幡町加賀爪ホ７４",
    "lat": 36.6696096,
    "lng": 136.7332626,
    "tel": "076-289-8055",
    "url": "https://www.nichiigakkan.co.jp",
    "pref": "石川県",
    "city": "津幡町",
    "category": "home_help",
    "serviceType": "訪問介護",
    "capacity": null,
    "openDays": [
      "平日"
    ],
    "openDaysNote": "但し、休業日、営業時間外でもサービス提供を行う場合があります。"
  },
  {
    "id": "1771400148",
    "name": "ヘルパーステーション津幡",
    "kana": "ヘルパーステーションツバタ",
    "address": "石川県河北郡津幡町字能瀬イ１番地１あがたの里 あがたの里",
    "lat": 36.6894385,
    "lng": 136.7261972,
    "tel": "076-288-8921",
    "url": "http://www.agata.ecnet.jp",
    "pref": "石川県",
    "city": "津幡町",
    "category": "home_help",
    "serviceType": "訪問介護",
    "capacity": 0,
    "openDays": [
      "平日",
      "土曜日",
      "日曜日",
      "祝日"
    ],
    "openDaysNote": ""
  },
  {
    "id": "1771400866",
    "name": "みずほガーデン訪問介護事業所",
    "kana": "ミズホガーデンホウモンカイゴジギョウショ",
    "address": "石川県河北郡津幡町字潟端344番地1",
    "lat": 36.6576374,
    "lng": 136.7091409,
    "tel": "076-288-6210",
    "url": "https://home.mizuho-mg.com",
    "pref": "石川県",
    "city": "津幡町",
    "category": "home_help",
    "serviceType": "訪問介護",
    "capacity": null,
    "openDays": [
      "平日",
      "土曜日",
      "日曜日",
      "祝日"
    ],
    "openDaysNote": ""
  },
  {
    "id": "1771400767",
    "name": "訪問介護事業所つばたの季",
    "kana": "ホウモンカイゴジギョウショツバタノキ",
    "address": "石川県河北郡津幡町太田ほ40-1",
    "lat": 36.6512175,
    "lng": 136.7240069,
    "tel": "076-255-1107",
    "url": "http://nirvaana.co.jp",
    "pref": "石川県",
    "city": "津幡町",
    "category": "home_help",
    "serviceType": "訪問介護",
    "capacity": 0,
    "openDays": [
      "平日",
      "土曜日",
      "日曜日",
      "祝日"
    ],
    "openDaysNote": "24時間365日"
  },
  {
    "id": "1771400239",
    "name": "ケアセンター　華",
    "kana": "ケアセンターハナ",
    "address": "河北郡内灘町千鳥台2丁目143番地",
    "lat": 36.6413808,
    "lng": 136.6313708,
    "tel": "073-239-0887",
    "url": "eight-con.jp",
    "pref": "石川県",
    "city": "内灘町",
    "category": "home_help",
    "serviceType": "訪問介護",
    "capacity": 0,
    "openDays": [
      "平日"
    ],
    "openDaysNote": "土・日・祝日は相談よって対応"
  },
  {
    "id": "1771400445",
    "name": "ヘルパーステーションぽぷら",
    "kana": "ヘルパーステーションポプラ",
    "address": "石川県河北郡内灘町向粟埼3丁目43番地",
    "lat": 36.6534936,
    "lng": 136.6450863,
    "tel": "076-239-1022",
    "url": "https://popura4744.com/",
    "pref": "石川県",
    "city": "内灘町",
    "category": "home_help",
    "serviceType": "訪問介護",
    "capacity": 0,
    "openDays": [
      "平日",
      "土曜日",
      "日曜日",
      "祝日"
    ],
    "openDaysNote": ""
  },
  {
    "id": "1771400783",
    "name": "ほうもんじぎょうしょえいこう",
    "kana": "訪問事業所エイコウ",
    "address": "石川県河北郡内灘町字大根布7丁目80番地1合同会社えいこう 合同会社えいこう",
    "lat": 36.6501397,
    "lng": 136.6454325,
    "tel": "076-205-1247",
    "url": "",
    "pref": "石川県",
    "city": "内灘町",
    "category": "home_help",
    "serviceType": "訪問介護",
    "capacity": null,
    "openDays": [
      "平日",
      "土曜日",
      "日曜日",
      "祝日"
    ],
    "openDaysNote": "利用者が病気、急変、特別何か生じた場合は、要相談で対応する。"
  },
  {
    "id": "1771400361",
    "name": "ホームヘルプセンター　内灘の風",
    "kana": "ホームヘルプセンター　ウチナダノカゼ",
    "address": "石川県河北郡内灘町大根布1丁目31番地8号",
    "lat": 36.6472027,
    "lng": 136.6454059,
    "tel": "076-286-8893",
    "url": "http://uchinada.jp/",
    "pref": "石川県",
    "city": "内灘町",
    "category": "home_help",
    "serviceType": "訪問介護",
    "capacity": 0,
    "openDays": [
      "平日",
      "土曜日",
      "日曜日",
      "祝日"
    ],
    "openDaysNote": "土・日曜日および時間外の利用については、サービス計画や対応人員数により検討。"
  },
  {
    "id": "1771400114",
    "name": "内灘町社会福祉協議会訪問介護事業所",
    "kana": "ウチナダマチシャカイフクシキョウギカイホウモンカイゴジギョウショ",
    "address": "石川県河北郡内灘町字大清台１４０番地内灘町文化会館 内灘町文化会館",
    "lat": 36.6508965992749,
    "lng": 136.643726145508,
    "tel": "076-286-6950",
    "url": "http://uchisyakyo.jp/",
    "pref": "石川県",
    "city": "内灘町",
    "category": "home_help",
    "serviceType": "訪問介護",
    "capacity": 0,
    "openDays": [
      "平日",
      "土曜日",
      "日曜日",
      "祝日"
    ],
    "openDaysNote": ""
  },
  {
    "id": "1771400874",
    "name": "訪問介護ステーションFLOS-Lien-",
    "kana": "ホウモンカイゴステーションフロスリアン",
    "address": "石川県河北郡内灘町鶴ヶ丘２丁目５９７住宅型有料老人ホームFLOS-Lien- 住宅型有料老人ホームFLOS-Lien-",
    "lat": 36.6419348,
    "lng": 136.6429609,
    "tel": "076-254-0313",
    "url": "https://www.solis-flos.com",
    "pref": "石川県",
    "city": "内灘町",
    "category": "home_help",
    "serviceType": "訪問介護",
    "capacity": 11,
    "openDays": [
      "平日",
      "土曜日",
      "日曜日",
      "祝日"
    ],
    "openDaysNote": "24時間365日"
  },
  {
    "id": "1711410793",
    "name": "訪問介護事業所みどり",
    "kana": "ホウモンカイゴジギョウショ",
    "address": "石川県河北郡内灘町緑台１丁目５番地",
    "lat": 36.6355537,
    "lng": 136.6317404,
    "tel": "076-255-1670",
    "url": "http;//koni2006byoinnavi.jp",
    "pref": "石川県",
    "city": "内灘町",
    "category": "home_help",
    "serviceType": "訪問介護",
    "capacity": 18,
    "openDays": [
      "平日",
      "土曜日",
      "日曜日",
      "祝日"
    ],
    "openDaysNote": "国民の休日及び12月29日から1月3日までは休みとする。（改行）ただし、電話等により24時間常時連絡が可能な体制をとる。"
  },
  {
    "id": "1771700091",
    "name": "多花楽会訪問介護事業所",
    "kana": "タカラカイホウモンカイゴジギョウショ",
    "address": "鳳珠郡能登町字柳田信部1006番地",
    "lat": 37.3694179294077,
    "lng": 137.085557600523,
    "tel": "0768-76-0980",
    "url": "",
    "pref": "石川県",
    "city": "能登町",
    "category": "home_help",
    "serviceType": "訪問介護",
    "capacity": 0,
    "openDays": [
      "平日",
      "土曜日",
      "日曜日",
      "祝日"
    ],
    "openDaysNote": "上記時間外であっても利用者の必要に応じ、２４時間サービス利用可能な体制とする。"
  },
  {
    "id": "1771700414",
    "name": "能輝人",
    "kana": "ノウキジン",
    "address": "石川県鳳珠郡能登町字藤波21字7番地1",
    "lat": 37.2976781776653,
    "lng": 137.137272050262,
    "tel": "0768-62-8686",
    "url": "https://nokky315.wixsite.com/nonkimura",
    "pref": "石川県",
    "city": "能登町",
    "category": "home_help",
    "serviceType": "訪問介護",
    "capacity": 0,
    "openDays": [
      "平日"
    ],
    "openDaysNote": "事前の相談があれば土曜祝日の対応は可能です。（改行）緊急時訪問の場合は平日営業時間内のみ対応できます。"
  },
  {
    "id": "1771700299",
    "name": "能登町社会福祉協議会ヘルパーステーション",
    "kana": "ノトチョウシャカイフクシキョウギカイヘルパーステーション",
    "address": "鳳珠郡能登町字崎山1丁目1番地崎山山村開発センター２F 崎山山村開発センター２F",
    "lat": 37.3028742,
    "lng": 137.1486525,
    "tel": "0768-62-0602",
    "url": "",
    "pref": "石川県",
    "city": "能登町",
    "category": "home_help",
    "serviceType": "訪問介護",
    "capacity": 0,
    "openDays": [
      "平日",
      "土曜日",
      "日曜日",
      "祝日"
    ],
    "openDaysNote": "時間外については、訪問介護員の稼働状況により対応します。"
  },
  {
    "id": "1772300511",
    "name": "エール訪問介護事業所",
    "kana": "エールホウモンカイゴジギョウショ",
    "address": "石川県能美市湯谷町ト165",
    "lat": 36.4345884,
    "lng": 136.5188285,
    "tel": "0761-48-4874",
    "url": "",
    "pref": "石川県",
    "city": "能美市",
    "category": "home_help",
    "serviceType": "訪問介護",
    "capacity": 0,
    "openDays": [
      "平日",
      "土曜日",
      "日曜日",
      "祝日"
    ],
    "openDaysNote": "時間外のサービスについてはご相談下さい。"
  },
  {
    "id": "1762391397",
    "name": "ぐらんりーふ訪問介護ステーション",
    "kana": "グランリーフホウモンカイゴステーション",
    "address": "石川県能美市吉原釜屋町ロ６０番１",
    "lat": 36.4687329476947,
    "lng": 136.467980527954,
    "tel": "070-8561-3061",
    "url": "http://hp.kaipoke.biz/cdb/",
    "pref": "石川県",
    "city": "能美市",
    "category": "home_help",
    "serviceType": "訪問介護",
    "capacity": 10,
    "openDays": [
      "平日",
      "土曜日",
      "日曜日",
      "祝日"
    ],
    "openDaysNote": ""
  },
  {
    "id": "1772300529",
    "name": "ケアステーション一華",
    "kana": "ヒトハナ",
    "address": "石川県能美市寺井町た46番地",
    "lat": 36.4369093,
    "lng": 136.4957471,
    "tel": "0761-57-2066",
    "url": "",
    "pref": "石川県",
    "city": "能美市",
    "category": "home_help",
    "serviceType": "訪問介護",
    "capacity": null,
    "openDays": [
      "平日",
      "土曜日",
      "日曜日",
      "祝日"
    ],
    "openDaysNote": "ご相談いただければ時間外も対応可能です。"
  },
  {
    "id": "1772300073",
    "name": "ニチイケアセンター能美",
    "kana": "ニチイケアセンターノミ",
    "address": "石川県能美市寺井町ぬ82番地",
    "lat": 36.4402393,
    "lng": 136.4999273,
    "tel": "0761-57-8236",
    "url": "http://www.nichiigakkan.co.jp",
    "pref": "石川県",
    "city": "能美市",
    "category": "home_help",
    "serviceType": "訪問介護",
    "capacity": 0,
    "openDays": [
      "平日"
    ],
    "openDaysNote": "土曜日・日曜日・国民の祝日・12/30～1/3が休業日。但し、居宅サービス計画により営業時間以外でも、サービス提供を行う場合がある。"
  },
  {
    "id": "1752380236",
    "name": "ビジットケアひすい",
    "kana": "ビジットケアヒスイ",
    "address": "石川県能美市緑が丘11丁目111番２コミニケア緑が丘　内 コミニケア緑が丘　内",
    "lat": 36.4418506328644,
    "lng": 136.534779209625,
    "tel": "0761-51-7772",
    "url": "https://hisui.or.jp",
    "pref": "石川県",
    "city": "能美市",
    "category": "home_help",
    "serviceType": "訪問介護",
    "capacity": 60,
    "openDays": [
      "平日",
      "土曜日",
      "祝日"
    ],
    "openDaysNote": "サービス提供時間や曜日については要相談願います。"
  },
  {
    "id": "1772300271",
    "name": "ふたば　ケアセンター",
    "kana": "フタバ　ケアセンター",
    "address": "能美市東任田イ19番地25",
    "lat": 36.4446937,
    "lng": 136.491914,
    "tel": "0761-57-2188",
    "url": "",
    "pref": "石川県",
    "city": "能美市",
    "category": "home_help",
    "serviceType": "訪問介護",
    "capacity": 2,
    "openDays": [
      "平日",
      "土曜日",
      "日曜日",
      "祝日"
    ],
    "openDaysNote": ""
  },
  {
    "id": "1762391199",
    "name": "ヘルパーステーション九谷",
    "kana": "ヘルパーステーションクタニ",
    "address": "石川県能美市寺井町わ20番地サービス付き高齢者向け住宅杜の郷九谷内 サービス付き高齢者向け住宅杜の郷九谷内",
    "lat": 36.439619387985,
    "lng": 136.500250690521,
    "tel": "0761-58-5185",
    "url": "https://www.goodstation.co.jp",
    "pref": "石川県",
    "city": "能美市",
    "category": "home_help",
    "serviceType": "訪問介護",
    "capacity": 7,
    "openDays": [
      "平日",
      "土曜日",
      "日曜日",
      "祝日"
    ],
    "openDaysNote": "サービス提供は24時間"
  },
  {
    "id": "1772300453",
    "name": "学研ココファン辰口ヘルパーセンター",
    "kana": "ガッケンココファンタツノクチヘルパーセンター",
    "address": "石川県能美市三ツ屋町35番地1ココファン辰口 ココファン辰口",
    "lat": 36.453201,
    "lng": 136.5467756,
    "tel": "0761-51-7878",
    "url": "http://www.cocofump.co.jp",
    "pref": "石川県",
    "city": "能美市",
    "category": "home_help",
    "serviceType": "訪問介護",
    "capacity": null,
    "openDays": [
      "平日",
      "土曜日",
      "日曜日",
      "祝日"
    ],
    "openDaysNote": "24時間サービス可能（ケアプランの定める時間であれば対応する）"
  },
  {
    "id": "1772300057",
    "name": "湯寿園訪問介護ステーション",
    "kana": "トウジュエンホウモンカイゴステーション",
    "address": "石川県能美市湯谷町乙88番地",
    "lat": 36.4362017061511,
    "lng": 136.524242501852,
    "tel": "0761-58-6554",
    "url": "",
    "pref": "石川県",
    "city": "能美市",
    "category": "home_help",
    "serviceType": "訪問介護",
    "capacity": 0,
    "openDays": [
      "平日",
      "土曜日"
    ],
    "openDaysNote": ""
  },
  {
    "id": "1762391009",
    "name": "訪問介護ステーション　たんぽぽ",
    "kana": "ホウモンカイゴステーション　タンポポ",
    "address": "能美市火釜町リ１番８",
    "lat": 36.449313,
    "lng": 136.560416,
    "tel": "0761-58-1662",
    "url": "fukujyujsou_yuuyuu@yahoo.co.jp",
    "pref": "石川県",
    "city": "能美市",
    "category": "home_help",
    "serviceType": "訪問介護",
    "capacity": 0,
    "openDays": [
      "平日"
    ],
    "openDaysNote": "利用者のサービスに応じて提供"
  },
  {
    "id": "1772300040",
    "name": "訪問介護事業所　ボニュール根上苑",
    "kana": "ホウモンカイゴジギョウショ　ボニュールネアガリエン",
    "address": "石川県能美市下ノ江町イ205ボニュール根上苑 ボニュール根上苑",
    "lat": 36.4370269,
    "lng": 136.4532427,
    "tel": "0761-56-0096",
    "url": "https://kihoukai.jp/",
    "pref": "石川県",
    "city": "能美市",
    "category": "home_help",
    "serviceType": "訪問介護",
    "capacity": 29,
    "openDays": [
      "平日",
      "祝日"
    ],
    "openDaysNote": "上記の営業日、営業時間、サービス提供時間の他、電話等により２４時間常時連絡が可能な体制としている。"
  },
  {
    "id": "1772200943",
    "name": "PDハウス白山ヘルパーステーション",
    "kana": "PDハウスヘルパーステーション",
    "address": "石川県白山市成町712-3PDハウス白山ヘルパーステーション PDハウス白山ヘルパーステーション",
    "lat": 36.5246386382442,
    "lng": 136.556329617137,
    "tel": "076-225-6401",
    "url": "https://sunwels.jp/",
    "pref": "石川県",
    "city": "白山市",
    "category": "home_help",
    "serviceType": "訪問介護",
    "capacity": 30,
    "openDays": [
      "平日",
      "土曜日",
      "日曜日",
      "祝日"
    ],
    "openDaysNote": ""
  },
  {
    "id": "1772201040",
    "name": "キーパー辰巳町",
    "kana": "キーパータツミチョウ",
    "address": "石川県白山市辰巳町26番地有料老人ホームてらす辰巳町 有料老人ホームてらす辰巳町",
    "lat": 36.522304,
    "lng": 136.5682641,
    "tel": "076-275-4166",
    "url": "",
    "pref": "石川県",
    "city": "白山市",
    "category": "home_help",
    "serviceType": "訪問介護",
    "capacity": null,
    "openDays": [
      "平日",
      "土曜日",
      "日曜日",
      "祝日"
    ],
    "openDaysNote": "24時間サービス提供を行っています"
  },
  {
    "id": "1772201057",
    "name": "キーパー鶴来",
    "kana": "キーパーツルギ",
    "address": "石川県白山市鶴来水戸町3丁目130番地てらす鶴来 てらす鶴来",
    "lat": 36.4446105,
    "lng": 136.6241555,
    "tel": "076-275-0237",
    "url": "",
    "pref": "石川県",
    "city": "白山市",
    "category": "home_help",
    "serviceType": "訪問介護",
    "capacity": null,
    "openDays": [
      "平日",
      "土曜日",
      "日曜日",
      "祝日"
    ],
    "openDaysNote": "24時間サービス提供を行っています。"
  },
  {
    "id": "1772200596",
    "name": "サンウェルズ博労ヘルパーステーション",
    "kana": "サンウェルズバクロヘルパーステーション",
    "address": "白山市博労3丁目14-1太陽のプリズム博労 太陽のプリズム博労",
    "lat": 36.5174405,
    "lng": 136.5651831,
    "tel": "076-259-0440",
    "url": "http:/www.sunwels.jp",
    "pref": "石川県",
    "city": "白山市",
    "category": "home_help",
    "serviceType": "訪問介護",
    "capacity": 30,
    "openDays": [
      "平日",
      "土曜日",
      "日曜日",
      "祝日"
    ],
    "openDaysNote": "要望があれば２４時間対応する"
  },
  {
    "id": "1772200059",
    "name": "ニチイケアセンター松任",
    "kana": "ニチイケアセンターマットウ",
    "address": "白山市石同新町２７５－１",
    "lat": 36.5196264,
    "lng": 136.5698466,
    "tel": "076-276-9958",
    "url": "http://www.nichiigakkan.co.jp",
    "pref": "石川県",
    "city": "白山市",
    "category": "home_help",
    "serviceType": "訪問介護",
    "capacity": 0,
    "openDays": [
      "平日"
    ],
    "openDaysNote": "土曜日、日曜日、国民の祝祭日、12月30日～1月3日（改行）但し、居宅サービス計画により、休業日であってもサービス提供を行なう場合がある。"
  },
  {
    "id": "1772200554",
    "name": "ニチイケアセンター鶴来",
    "kana": "ニチイケアセンターツルギ",
    "address": "石川県白山市熱野町イ28番地11",
    "lat": 36.4846106,
    "lng": 136.4984346,
    "tel": "076-273-6710",
    "url": "ｈｔｔｐ//www.nichiigakkann/co.jp",
    "pref": "石川県",
    "city": "白山市",
    "category": "home_help",
    "serviceType": "訪問介護",
    "capacity": 0,
    "openDays": [
      "平日"
    ],
    "openDaysNote": "但し、休業日、営業時間以外でもサービス提供を行う場合があります。"
  },
  {
    "id": "1772200588",
    "name": "ヘルパーステーションしおん",
    "kana": "ヘルパーステーションシオン",
    "address": "白山市明島町西１１５－１",
    "lat": 36.4686471,
    "lng": 136.6033695,
    "tel": "０７６－２７２－８８５８",
    "url": "http://wwwsion-kaigo.com",
    "pref": "石川県",
    "city": "白山市",
    "category": "home_help",
    "serviceType": "訪問介護",
    "capacity": 30,
    "openDays": [
      "平日",
      "土曜日",
      "日曜日",
      "祝日"
    ],
    "openDaysNote": ""
  },
  {
    "id": "1772200430",
    "name": "ホームヘルプサービス　愛",
    "kana": "ホームヘルプサービス　イト",
    "address": "石川県白山市末広2丁目35番地",
    "lat": 36.5175253,
    "lng": 136.5675355,
    "tel": "076-275-5055",
    "url": "http://www.pupu50.jp/",
    "pref": "石川県",
    "city": "白山市",
    "category": "home_help",
    "serviceType": "訪問介護",
    "capacity": 0,
    "openDays": [
      "平日",
      "土曜日",
      "日曜日",
      "祝日"
    ],
    "openDaysNote": "その他の時間については要相談。"
  },
  {
    "id": "1772200604",
    "name": "ロハスヘルパーステーション",
    "kana": "ロハスヘルパーステーション",
    "address": "白山市北安田西2丁目14番地",
    "lat": 36.521403,
    "lng": 136.5448236,
    "tel": "０７６－２１４－６８４０",
    "url": "http://www.sunwels.jp",
    "pref": "石川県",
    "city": "白山市",
    "category": "home_help",
    "serviceType": "訪問介護",
    "capacity": 0,
    "openDays": [
      "平日",
      "土曜日",
      "日曜日",
      "祝日"
    ],
    "openDaysNote": "要望があれば24時間対応する。"
  },
  {
    "id": "1772200422",
    "name": "香林苑訪問介護センター",
    "kana": "コウリンエンホウモンカイゴセンター",
    "address": "石川県白山市大竹町ロ１７番地１",
    "lat": 36.4679608,
    "lng": 136.5929902,
    "tel": "076-272-2244",
    "url": "https://kourinkai-kanazawa.jp/",
    "pref": "石川県",
    "city": "白山市",
    "category": "home_help",
    "serviceType": "訪問介護",
    "capacity": 35,
    "openDays": [
      "平日",
      "土曜日",
      "日曜日",
      "祝日"
    ],
    "openDaysNote": "24時間365日サービスの提供を行っております。"
  },
  {
    "id": "1772200802",
    "name": "三草二木行善寺",
    "kana": "サンソウニモクギョウゼンジ",
    "address": "石川県白山市北安田町548番地2",
    "lat": 36.5262711527714,
    "lng": 136.551140058421,
    "tel": "076-275-0656",
    "url": "www.bussien.com",
    "pref": "石川県",
    "city": "白山市",
    "category": "home_help",
    "serviceType": "訪問介護",
    "capacity": 10,
    "openDays": [
      "平日",
      "土曜日",
      "日曜日",
      "祝日"
    ],
    "openDaysNote": ""
  },
  {
    "id": "1772200224",
    "name": "大門園訪問介護サービスセンター",
    "kana": "ダイモンエンホウモンカイゴサービスセンター",
    "address": "石川県白山市佐良ロ１２３番地",
    "lat": 36.324617,
    "lng": 136.6465576,
    "tel": "０７６－２５５－５７８４",
    "url": "daimonen.or.jp",
    "pref": "石川県",
    "city": "白山市",
    "category": "home_help",
    "serviceType": "訪問介護",
    "capacity": 0,
    "openDays": [
      "平日",
      "土曜日",
      "日曜日",
      "祝日"
    ],
    "openDaysNote": ""
  },
  {
    "id": "1772200273",
    "name": "白山市社協ホームヘルプセンター",
    "kana": "ハクサンシシャキョウホームヘルプセンター",
    "address": "石川県白山市倉光八丁目１６番地１福祉ふれあいセンター 福祉ふれあいセンター",
    "lat": 36.5150632872358,
    "lng": 136.572887626984,
    "tel": "０７６－２７４－４１０８",
    "url": "http://hakusanshi－syakyo．jp",
    "pref": "石川県",
    "city": "白山市",
    "category": "home_help",
    "serviceType": "訪問介護",
    "capacity": 0,
    "openDays": [
      "平日",
      "土曜日",
      "日曜日",
      "祝日"
    ],
    "openDaysNote": "利用者の希望により、午前６時から午後１０時までサービスの提供が可能な体制とする"
  },
  {
    "id": "1772201115",
    "name": "訪問介護カルナ",
    "kana": "ホウモンカイゴカルナ",
    "address": "石川県白山市三幸町15番地アヴェニールミユキ202 アヴェニールミユキ202",
    "lat": 36.5147195,
    "lng": 136.578158,
    "tel": "076-205-5235",
    "url": "",
    "pref": "石川県",
    "city": "白山市",
    "category": "home_help",
    "serviceType": "訪問介護",
    "capacity": null,
    "openDays": [
      "平日",
      "土曜日",
      "日曜日",
      "祝日"
    ],
    "openDaysNote": "8月14，15日、12月30日～1月3日は休日"
  },
  {
    "id": "1772200117",
    "name": "訪問介護事業所　ケア白山",
    "kana": "ホウモンカイゴジギョウショ　ケアハクサン",
    "address": "白山市　北安田西　二丁目８３番地",
    "lat": 36.5215291910303,
    "lng": 136.546356294951,
    "tel": "０７６－２７６－９１９２",
    "url": "",
    "pref": "石川県",
    "city": "白山市",
    "category": "home_help",
    "serviceType": "訪問介護",
    "capacity": 0,
    "openDays": [
      "平日",
      "土曜日",
      "日曜日",
      "祝日"
    ],
    "openDaysNote": "事前にご相談頂ければ、時間外、曜日に関係なく24時間対応可能です。人員不足の場合はお断りする場合もあります。"
  },
  {
    "id": "1771500178",
    "name": "ＪＡはくいヘルパーステーションたんぽぽ",
    "kana": "ジェイエイハクイヘルパーステーションタンポポ",
    "address": "石川県羽咋郡宝達志水町子浦そ15－1ＪＡたんぽぽデイサービスセンター ＪＡたんぽぽデイサービスセンター",
    "lat": 36.8622204,
    "lng": 136.7981067,
    "tel": "0767－29－8555",
    "url": "http://www.is.-ja.jp//hakui/",
    "pref": "石川県",
    "city": "宝達志水町",
    "category": "home_help",
    "serviceType": "訪問介護",
    "capacity": 0,
    "openDays": [
      "平日",
      "土曜日",
      "日曜日",
      "祝日"
    ],
    "openDaysNote": "時間外については場合により対応可"
  },
  {
    "id": "1771300645",
    "name": "きらら",
    "kana": "キララ",
    "address": "石川県野々市市若松町１番１７号グレースエイト１０３号 グレースエイト１０３号",
    "lat": 36.5382558,
    "lng": 136.6137019,
    "tel": "076-272-8490",
    "url": "",
    "pref": "石川県",
    "city": "野々市市",
    "category": "home_help",
    "serviceType": "訪問介護",
    "capacity": 0,
    "openDays": [
      "平日"
    ],
    "openDaysNote": ""
  },
  {
    "id": "1771300629",
    "name": "サンケア　押野",
    "kana": "サンケア　オシノ",
    "address": "押野5-39サンケア　押野 サンケア　押野",
    "lat": 36.5452406320823,
    "lng": 136.621078642328,
    "tel": "076-287-6800",
    "url": "http//www.suncare-life.com/facilities/suncare-oshino.html",
    "pref": "石川県",
    "city": "野々市市",
    "category": "home_help",
    "serviceType": "訪問介護",
    "capacity": 52,
    "openDays": [],
    "openDaysNote": "２４時間営業"
  },
  {
    "id": "1771300876",
    "name": "ニチイケアセンター野々市",
    "kana": "ニチイケアセンターノノイチ",
    "address": "野々市市御経塚4丁目17御経塚テナント1号室 御経塚テナント1号室",
    "lat": 36.5501534,
    "lng": 136.6012743,
    "tel": "076-269-5007",
    "url": "",
    "pref": "石川県",
    "city": "野々市市",
    "category": "home_help",
    "serviceType": "訪問介護",
    "capacity": 0,
    "openDays": [
      "平日"
    ],
    "openDaysNote": "土曜日、日曜日、国民の祝日、12月30日～1月3日（改行）但し、居宅サービス計画により、休業日であってもサービス提供を行なう場合がある。"
  },
  {
    "id": "1771300942",
    "name": "ヘルパ-ステ-ション愛さんさん",
    "kana": "ヘルパ-ステ-ション　アイサンサン",
    "address": "石川県野々市市野代１丁目６１番地愛SUNSUN 愛SUNSUN",
    "lat": 36.5388057,
    "lng": 136.6029948,
    "tel": "076-248-8133",
    "url": "",
    "pref": "石川県",
    "city": "野々市市",
    "category": "home_help",
    "serviceType": "訪問介護",
    "capacity": 0,
    "openDays": [
      "平日",
      "土曜日",
      "日曜日",
      "祝日"
    ],
    "openDaysNote": ""
  },
  {
    "id": "1771300827",
    "name": "ヘルパーステーション　アースケア御経塚",
    "kana": "ヘルパーステーション　アースケアオキョウヅカ",
    "address": "石川県野々市市御経塚1丁目510番地有料老人ホーム　ケアシス野々市 有料老人ホーム　ケアシス野々市",
    "lat": 36.5441209,
    "lng": 136.5954721,
    "tel": "076-259-5310",
    "url": "https://aasg.jp",
    "pref": "石川県",
    "city": "野々市市",
    "category": "home_help",
    "serviceType": "訪問介護",
    "capacity": 0,
    "openDays": [],
    "openDaysNote": "24時間365日利用可能。"
  },
  {
    "id": "1771300835",
    "name": "ヘルパーステーション　レインボー",
    "kana": "ヘルパーステーション　レインボー",
    "address": "石川県野々市市高橋町2番12号ヘルパーステーション　レインボー ヘルパーステーション　レインボー",
    "lat": 36.5323835,
    "lng": 136.6220172,
    "tel": "076-246-5740",
    "url": "",
    "pref": "石川県",
    "city": "野々市市",
    "category": "home_help",
    "serviceType": "訪問介護",
    "capacity": 27,
    "openDays": [
      "平日",
      "土曜日",
      "日曜日",
      "祝日"
    ],
    "openDaysNote": "365日　24時間"
  },
  {
    "id": "1771300561",
    "name": "ヘルパーステーションそよ風",
    "kana": "ヘルパーステーションソヨカゼ",
    "address": "野々市市白山町1-39",
    "lat": 36.5284433973532,
    "lng": 136.613866729665,
    "tel": "076-218-7666",
    "url": "http://www.nakagen.co.jp",
    "pref": "石川県",
    "city": "野々市市",
    "category": "home_help",
    "serviceType": "訪問介護",
    "capacity": 0,
    "openDays": [
      "平日",
      "土曜日",
      "日曜日",
      "祝日"
    ],
    "openDaysNote": "１２/３０～１/３の期間は、必要性の高いサービス以外はお休みさせていただきます。"
  },
  {
    "id": "1771300504",
    "name": "ヘルパーステーションれたす村",
    "kana": "ヘルパーステーションレタスムラ",
    "address": "扇が丘２８番４号",
    "lat": 36.524704,
    "lng": 136.6280417,
    "tel": "076-282-7707",
    "url": "",
    "pref": "石川県",
    "city": "野々市市",
    "category": "home_help",
    "serviceType": "訪問介護",
    "capacity": 0,
    "openDays": [
      "平日",
      "土曜日",
      "日曜日",
      "祝日"
    ],
    "openDaysNote": "必要に応じて時間外応相談"
  },
  {
    "id": "1711311017",
    "name": "ヘルパーステーション押野",
    "kana": "ヘルパーステーションオシノ",
    "address": "石川県野々市市押野6丁目155",
    "lat": 36.5451003,
    "lng": 136.6182311,
    "tel": "076-246-5505",
    "url": "http://oshinoshinseikai.sakura.ne.jp/",
    "pref": "石川県",
    "city": "野々市市",
    "category": "home_help",
    "serviceType": "訪問介護",
    "capacity": null,
    "openDays": [
      "平日"
    ],
    "openDaysNote": ""
  },
  {
    "id": "1771300918",
    "name": "もものはな訪問介護",
    "kana": "モモノハナホウモンカイゴ",
    "address": "石川県野々市市矢作3-10",
    "lat": 36.5230148,
    "lng": 136.6121593,
    "tel": "076-272-8317",
    "url": "https://spatel.co.jp/",
    "pref": "石川県",
    "city": "野々市市",
    "category": "home_help",
    "serviceType": "訪問介護",
    "capacity": null,
    "openDays": [],
    "openDaysNote": ""
  },
  {
    "id": "1771300934",
    "name": "学研ココファン野々市",
    "kana": "ガッケンココファンノノイチ",
    "address": "石川県野々市市西部中央土地区画整理地41街区2",
    "lat": 36.526923,
    "lng": 136.600647,
    "tel": "076-248-2668",
    "url": "https://www.cocofump.co.jp",
    "pref": "石川県",
    "city": "野々市市",
    "category": "home_help",
    "serviceType": "訪問介護",
    "capacity": 0,
    "openDays": [
      "平日"
    ],
    "openDaysNote": "年末年始12月31日～1月2日　休業"
  },
  {
    "id": "1771300603",
    "name": "株式会社　白寿",
    "kana": "カブシキカイシャ　ハクジュ",
    "address": "野々市市御経塚３－７９",
    "lat": 36.5517034,
    "lng": 136.5955579,
    "tel": "０７６－２４０－８８００",
    "url": "https://www.kanazawa-fukushi.co.jp/institutions/okyoduka/",
    "pref": "石川県",
    "city": "野々市市",
    "category": "home_help",
    "serviceType": "訪問介護",
    "capacity": 32,
    "openDays": [
      "平日",
      "土曜日",
      "日曜日",
      "祝日"
    ],
    "openDaysNote": ""
  },
  {
    "id": "1771300264",
    "name": "金沢南訪問介護ステーション",
    "kana": "カナザワミナミホウモンカイゴステーション",
    "address": "野々市市蓮花寺町７９番地１",
    "lat": 36.5293644,
    "lng": 136.5924754,
    "tel": "076-227-5866",
    "url": "http;//www.jintikai.com",
    "pref": "石川県",
    "city": "野々市市",
    "category": "home_help",
    "serviceType": "訪問介護",
    "capacity": 0,
    "openDays": [
      "平日",
      "土曜日",
      "日曜日",
      "祝日"
    ],
    "openDaysNote": ""
  },
  {
    "id": "1771300975",
    "name": "訪問介護ステーションFLOS-familia-",
    "kana": "ホウモンカイゴステーションフロスファミリア",
    "address": "石川県野々市市藤平田1-290住宅型有料老人ホームFLOS-familia- 住宅型有料老人ホームFLOS-familia-",
    "lat": 36.5191104,
    "lng": 136.6051526,
    "tel": "076-256-2255",
    "url": "https://www.solis-flos.com/",
    "pref": "石川県",
    "city": "野々市市",
    "category": "home_help",
    "serviceType": "訪問介護",
    "capacity": 0,
    "openDays": [
      "平日",
      "土曜日",
      "日曜日",
      "祝日"
    ],
    "openDaysNote": "24時間、365日　ケアマネージャーによる計画書に基づいてサービス提供を実施。"
  },
  {
    "id": "1771300850",
    "name": "訪問介護てらす",
    "kana": "ホウモンカイゴテラス",
    "address": "石川県野々市市郷一丁目131番地有料老人ホームひなの家彩～いろどり～ 有料老人ホームひなの家彩～いろどり～",
    "lat": 36.5349266,
    "lng": 136.587626,
    "tel": "076-214-6688",
    "url": "",
    "pref": "石川県",
    "city": "野々市市",
    "category": "home_help",
    "serviceType": "訪問介護",
    "capacity": null,
    "openDays": [
      "平日",
      "土曜日",
      "日曜日",
      "祝日"
    ],
    "openDaysNote": ""
  },
  {
    "id": "1771300884",
    "name": "訪問介護事業所かいてき野々市",
    "kana": "ホウモンカイゴジギョウショカイテキノノイチ",
    "address": "石川県野々市市三日市１丁目８０番地１",
    "lat": 36.5365849,
    "lng": 136.5956385,
    "tel": "０７６－２５９－５４２８",
    "url": "https://www.kamehouse-01.jp",
    "pref": "石川県",
    "city": "野々市市",
    "category": "home_help",
    "serviceType": "訪問介護",
    "capacity": null,
    "openDays": [],
    "openDaysNote": "サービス利用は24時間提供可。"
  },
  {
    "id": "1771300736",
    "name": "訪問介護事業所かめはうす",
    "kana": "ホウモンカイゴジギョウショカメハウス",
    "address": "石川県野々市市三日市１丁目８０番地１",
    "lat": 36.5360128395867,
    "lng": 136.596234477246,
    "tel": "０７６－２５９－５４２８",
    "url": "https://www.kamehouse-01.jp",
    "pref": "石川県",
    "city": "野々市市",
    "category": "home_help",
    "serviceType": "訪問介護",
    "capacity": 0,
    "openDays": [],
    "openDaysNote": "サービス利用は24時間提供可。"
  },
  {
    "id": "1771300686",
    "name": "訪問介護事業所ニルヴァーナ",
    "kana": "ホウモンカイゴジギョウショニルバーナ",
    "address": "野々市市住吉町26-46",
    "lat": 36.523720774476,
    "lng": 136.617252064418,
    "tel": "076-248-2230",
    "url": "http://nirvaana.co.jp",
    "pref": "石川県",
    "city": "野々市市",
    "category": "home_help",
    "serviceType": "訪問介護",
    "capacity": 0,
    "openDays": [
      "平日",
      "土曜日",
      "日曜日",
      "祝日"
    ],
    "openDaysNote": ""
  },
  {
    "id": "1771300926",
    "name": "訪問介護事業所へいわーど",
    "kana": "ホウモンカイゴジギョウショヘイワード",
    "address": "石川県野々市市矢作1丁目120SunnyDays106号室 SunnyDays106号室",
    "lat": 36.5207489,
    "lng": 136.6142273,
    "tel": "762074412",
    "url": "https://co-smile-lab.com/",
    "pref": "石川県",
    "city": "野々市市",
    "category": "home_help",
    "serviceType": "訪問介護",
    "capacity": 0,
    "openDays": [
      "平日",
      "土曜日",
      "日曜日",
      "祝日"
    ],
    "openDaysNote": "営業時間外のサービスご利用の時間については、対応できる場合もあるので要相談"
  },
  {
    "id": "1771300074",
    "name": "野々市市社会福祉協議会　訪問介護事業所",
    "kana": "ノノイチシシャカイフクシキョウギカイ　ホウモンカイゴジギョウショ",
    "address": "野々市市矢作三丁目１番地２老人福祉センター 老人福祉センター",
    "lat": 36.523404,
    "lng": 136.6115348,
    "tel": "076-246-5570",
    "url": "http://nonoichi-shakyo.jp/",
    "pref": "石川県",
    "city": "野々市市",
    "category": "home_help",
    "serviceType": "訪問介護",
    "capacity": 50,
    "openDays": [
      "平日",
      "土曜日",
      "日曜日",
      "祝日"
    ],
    "openDaysNote": "土曜、日曜、祝日、早朝夜間は要相談。"
  },
  {
    "id": "1770400016",
    "name": "あての木園訪問介護センター",
    "kana": "アテノキエンホウモンカイゴセンター",
    "address": "石川県輪島市三井町小泉上野２番地",
    "lat": 37.2970977,
    "lng": 136.8964318,
    "tel": "0768-26-1910",
    "url": "atenoki@skyblue.ocn.ne.jp",
    "pref": "石川県",
    "city": "輪島市",
    "category": "home_help",
    "serviceType": "訪問介護",
    "capacity": 0,
    "openDays": [
      "平日",
      "土曜日",
      "日曜日",
      "祝日"
    ],
    "openDaysNote": "ただし、相談により検討いたします。"
  },
  {
    "id": "1710410380",
    "name": "ヘルパーステーションさくら",
    "kana": "ヘルパーステーションサクラ",
    "address": "輪島市堀町１字１３－２",
    "lat": 37.3893317,
    "lng": 136.89511,
    "tel": "0768-23-8686",
    "url": "http:www.imir.jp.wajima.htm",
    "pref": "石川県",
    "city": "輪島市",
    "category": "home_help",
    "serviceType": "訪問介護",
    "capacity": 50,
    "openDays": [
      "平日",
      "土曜日",
      "日曜日",
      "祝日"
    ],
    "openDaysNote": ""
  },
  {
    "id": "1770400164",
    "name": "ホームヘルプセンター　福祉の杜",
    "kana": "ホームヘルプセンター　フクシノモリ",
    "address": "輪島市山岸町い２６－２複合施設　福祉の杜　わじま 複合施設　福祉の杜　わじま",
    "lat": 37.3830523,
    "lng": 136.9072676,
    "tel": "0768-22-0008",
    "url": "https://kotobukifukushikai.com/fukushinomori/",
    "pref": "石川県",
    "city": "輪島市",
    "category": "home_help",
    "serviceType": "訪問介護",
    "capacity": 0,
    "openDays": [
      "平日",
      "土曜日",
      "日曜日",
      "祝日"
    ],
    "openDaysNote": ""
  },
  {
    "id": "1770400107",
    "name": "社会福祉法人輪島市社会福祉協議会ヘルパーステーションほほえみ",
    "kana": "シャカイフクシホウジンワジマシシャカイフクシキョウギカイヘルパーステーションホホエミ",
    "address": "石川県輪島市河井町１３部１２０番地１",
    "lat": 37.3923270195492,
    "lng": 136.907126239449,
    "tel": "０７６８－２２－９８３８",
    "url": "ｈｔｔｐ：//www6.ocn.ne.jp/~washakyo/",
    "pref": "石川県",
    "city": "輪島市",
    "category": "home_help",
    "serviceType": "訪問介護",
    "capacity": 0,
    "openDays": [
      "平日"
    ],
    "openDaysNote": "土曜日、日曜日、祝日、年末年始については利用者様より要請があれば対応いたします。"
  },
  {
    "id": "1770400115",
    "name": "訪問介護サービスセンターあかかみ",
    "kana": "ホウモンカイゴサービスセンターアカカミ",
    "address": "石川県輪島市門前町赤神１０の１番地",
    "lat": 37.2461951,
    "lng": 136.708625466934,
    "tel": "0768-45-1248",
    "url": "http//www.akakami.jp/",
    "pref": "石川県",
    "city": "輪島市",
    "category": "home_help",
    "serviceType": "訪問介護",
    "capacity": 0,
    "openDays": [
      "平日",
      "土曜日",
      "日曜日",
      "祝日"
    ],
    "openDaysNote": "必要に応じ時間外対応"
  }
]