[
  {
    "id": "1471600419",
    "name": "＆ケア訪問介護",
    "kana": "アンドケアホウモンカイゴ",
    "address": "神奈川県愛甲郡愛川町中津242-1＆ケアホーム愛川 ＆ケアホーム愛川",
    "lat": 35.5196942,
    "lng": 139.333838,
    "tel": "046-284-3001",
    "url": "http://andcarehome-aikawa.jp/",
    "pref": "神奈川県",
    "city": "愛川町",
    "category": "home_help",
    "serviceType": "訪問介護",
    "capacity": 14,
    "openDays": [
      "平日",
      "土曜日",
      "日曜日",
      "祝日"
    ],
    "openDaysNote": "24時間対応"
  },
  {
    "id": "1471600369",
    "name": "ケアシスパーク愛川訪問介護ステーション",
    "kana": "ケアシスパークアイカワホウモンカイゴステーション",
    "address": "神奈川県愛甲郡愛川町中津字上六倉２７２５－２ケアシスパーク愛川１０１号 ケアシスパーク愛川１０１号",
    "lat": 35.5246879,
    "lng": 139.3451504,
    "tel": "046-286-3221",
    "url": "http://caresis-park.com/aikawa/",
    "pref": "神奈川県",
    "city": "愛川町",
    "category": "home_help",
    "serviceType": "訪問介護",
    "capacity": 27,
    "openDays": [
      "平日",
      "土曜日",
      "日曜日",
      "祝日"
    ],
    "openDaysNote": "営業時間、サービス提供時間のほか、電話等により２４時間常時連絡が可能な体制とする。"
  },
  {
    "id": "1471600351",
    "name": "デイ・ケアセンター　ひまわり",
    "kana": "デイ・ケアセンター　ヒマワリ",
    "address": "神奈川県愛甲郡愛川町中津305番地の3",
    "lat": 35.5186691,
    "lng": 139.3321863,
    "tel": "046-258-6484",
    "url": "",
    "pref": "神奈川県",
    "city": "愛川町",
    "category": "home_help",
    "serviceType": "訪問介護",
    "capacity": null,
    "openDays": [
      "平日",
      "土曜日",
      "日曜日",
      "祝日"
    ],
    "openDaysNote": "年末年始12/31～1/3は休み"
  },
  {
    "id": "1471600278",
    "name": "ニチイケアセンタ－愛川",
    "kana": "ニチイケアセンターアイカワ",
    "address": "神奈川県愛甲郡愛川町中津731-5アサノビル2階201号室 アサノビル2階201号室",
    "lat": 35.5140311,
    "lng": 139.3363269,
    "tel": "046-284-3225",
    "url": "http://www.nichii-kaigo.jp/base/base-result/05P29/",
    "pref": "神奈川県",
    "city": "愛川町",
    "category": "home_help",
    "serviceType": "訪問介護",
    "capacity": 0,
    "openDays": [
      "平日"
    ],
    "openDaysNote": "但し居宅サービス計画書により営業時間外、休日でもサービスを行う場合がある。"
  },
  {
    "id": "1471600468",
    "name": "合同会社ホームケアふじ",
    "kana": "ゴウドウガイシャホームケアフジ",
    "address": "神奈川県愛甲郡愛川町田代1642-1",
    "lat": 35.5277621,
    "lng": 139.284242,
    "tel": "046-281-8943",
    "url": "https://www.homecarefuji.com/",
    "pref": "神奈川県",
    "city": "愛川町",
    "category": "home_help",
    "serviceType": "訪問介護",
    "capacity": 180,
    "openDays": [
      "平日",
      "土曜日",
      "祝日"
    ],
    "openDaysNote": "年末年始休業は12/30～1/3"
  },
  {
    "id": "1471600328",
    "name": "訪問介護ステーション大空",
    "kana": "ホウモンカイゴステーションオオゾラ",
    "address": "神奈川県愛甲郡愛川町中津979-6",
    "lat": 35.5242786143967,
    "lng": 139.337378060991,
    "tel": "046-258-6316",
    "url": "",
    "pref": "神奈川県",
    "city": "愛川町",
    "category": "home_help",
    "serviceType": "訪問介護",
    "capacity": 0,
    "openDays": [
      "平日"
    ],
    "openDaysNote": "営業日、営業時間外のサービス希望に対しては、相談のうえ対応する。　（改行）連絡体制　電話等により、24時間常時連絡が可能な体制をとる。"
  },
  {
    "id": "1471600500",
    "name": "訪問介護一休愛川",
    "kana": "ホウモンカイゴイッキュウアイカワ",
    "address": "神奈川県愛甲郡愛川町中津2031-1CareVilla愛川 CareVilla愛川",
    "lat": 35.5275367641786,
    "lng": 139.341382420227,
    "tel": "046-280-5859",
    "url": "",
    "pref": "神奈川県",
    "city": "愛川町",
    "category": "home_help",
    "serviceType": "訪問介護",
    "capacity": 0,
    "openDays": [
      "平日",
      "土曜日",
      "日曜日",
      "祝日"
    ],
    "openDaysNote": ""
  },
  {
    "id": "1474400882",
    "name": "さんしゃいんケアサービス",
    "kana": "サンシャインケアサービス",
    "address": "神奈川県綾瀬市吉岡東3-1-7",
    "lat": 35.4252654,
    "lng": 139.4219484,
    "tel": "0467-78-3777",
    "url": "https://sunshine-cs.com/",
    "pref": "神奈川県",
    "city": "綾瀬市",
    "category": "home_help",
    "serviceType": "訪問介護",
    "capacity": 0,
    "openDays": [
      "平日",
      "土曜日",
      "日曜日",
      "祝日"
    ],
    "openDaysNote": "電話等により、24時間常時連絡可能な体制をとります。（改行）8時前、18時以降はヘルパーの状況により要相談。"
  },
  {
    "id": "1474400254",
    "name": "ニチイケアセンター綾瀬",
    "kana": "ニチイケアセンター　アヤセ",
    "address": "神奈川県綾瀬市深谷上1-13-8",
    "lat": 35.4404609,
    "lng": 139.4283951,
    "tel": "0467-71-5301",
    "url": "http://www.nichiigakkan.co.jp",
    "pref": "神奈川県",
    "city": "綾瀬市",
    "category": "home_help",
    "serviceType": "訪問介護",
    "capacity": 0,
    "openDays": [
      "平日",
      "土曜日",
      "日曜日",
      "祝日"
    ],
    "openDaysNote": "時間外についての対応も可能"
  },
  {
    "id": "1474401062",
    "name": "プラスワンサポートライラック",
    "kana": "プラスワンサポートライラック",
    "address": "神奈川県綾瀬市早川城山2－22－12",
    "lat": 35.439388,
    "lng": 139.4203627,
    "tel": "0467-26-9935",
    "url": "",
    "pref": "神奈川県",
    "city": "綾瀬市",
    "category": "home_help",
    "serviceType": "訪問介護",
    "capacity": null,
    "openDays": [
      "平日",
      "土曜日",
      "祝日"
    ],
    "openDaysNote": "電話等ににより24時間常時連絡が可能な体制とする。"
  },
  {
    "id": "1474401088",
    "name": "ヘルパーステーション　Ｍｅｒｃｉ",
    "kana": "ヘルパーステーション　メルシイ",
    "address": "神奈川県綾瀬市早川2980－8",
    "lat": 35.4440914,
    "lng": 139.4109825,
    "tel": "0467－67－6595",
    "url": "",
    "pref": "神奈川県",
    "city": "綾瀬市",
    "category": "home_help",
    "serviceType": "訪問介護",
    "capacity": 0,
    "openDays": [
      "平日",
      "祝日"
    ],
    "openDaysNote": "年末年始の休業日あり"
  },
  {
    "id": "1474400924",
    "name": "ヘルパーステーション　カミーリア",
    "kana": "ヘルパーステーション　カミーリア",
    "address": "神奈川県綾瀬市深谷中3-6-3住宅型有料老人ホーム　リリィケア綾瀬 住宅型有料老人ホーム　リリィケア綾瀬",
    "lat": 35.4350396,
    "lng": 139.4354893,
    "tel": "0467-79-6077",
    "url": "https://koueikaigo.jp/",
    "pref": "神奈川県",
    "city": "綾瀬市",
    "category": "home_help",
    "serviceType": "訪問介護",
    "capacity": 35,
    "openDays": [
      "平日",
      "土曜日",
      "日曜日",
      "祝日"
    ],
    "openDaysNote": "24時間対応365日対応年中無休"
  },
  {
    "id": "1474401021",
    "name": "ヘルパーステーション白組",
    "kana": "ヘルパーステーションシログミ",
    "address": "神奈川県綾瀬市早川3091-2",
    "lat": 35.4456545510466,
    "lng": 139.409014135582,
    "tel": "0467-53-9685",
    "url": "https://www.incl-d.jp/helperstation/",
    "pref": "神奈川県",
    "city": "綾瀬市",
    "category": "home_help",
    "serviceType": "訪問介護",
    "capacity": 0,
    "openDays": [
      "平日",
      "土曜日",
      "祝日"
    ],
    "openDaysNote": "サービス時間外は転送電話にて対応、また、サービス提供責任者は会社から支給されている携帯電話を所持し、緊急時は連絡を受け付けている。"
  },
  {
    "id": "1474400858",
    "name": "介護隊　本部",
    "kana": "カイゴタイホンブ",
    "address": "神奈川県綾瀬市寺尾台1-1-2笠間第一ビル 笠間第一ビル",
    "lat": 35.4556089,
    "lng": 139.4179954,
    "tel": "0467-38-6202",
    "url": "http://kaigotai.com",
    "pref": "神奈川県",
    "city": "綾瀬市",
    "category": "home_help",
    "serviceType": "訪問介護",
    "capacity": 0,
    "openDays": [
      "平日",
      "土曜日",
      "日曜日",
      "祝日"
    ],
    "openDaysNote": ""
  },
  {
    "id": "1474200571",
    "name": "学研ココファン綾瀬ヘルパーセンター",
    "kana": "ガッケンココファンアヤセ　ヘルパーセンター",
    "address": "神奈川県綾瀬市大上4-15-23",
    "lat": 35.4626138,
    "lng": 139.4281889,
    "tel": "0467-79-5005",
    "url": "http://www.cocofump.co.jp/",
    "pref": "神奈川県",
    "city": "綾瀬市",
    "category": "home_help",
    "serviceType": "訪問介護",
    "capacity": 0,
    "openDays": [
      "平日",
      "土曜日",
      "日曜日",
      "祝日"
    ],
    "openDaysNote": "要望に応じて24時間可能になるよう調整中。"
  },
  {
    "id": "1474400635",
    "name": "泉の郷綾瀬　訪問介護",
    "kana": "イズミノサトアヤセ　ホウモンカイゴ",
    "address": "神奈川県綾瀬市落合南2丁目3-60泉の郷　綾瀬 泉の郷　綾瀬",
    "lat": 35.4169513156323,
    "lng": 139.435868608624,
    "tel": "0467-71-5520",
    "url": "https://i-seikoukai.or.jp/",
    "pref": "神奈川県",
    "city": "綾瀬市",
    "category": "home_help",
    "serviceType": "訪問介護",
    "capacity": 0,
    "openDays": [
      "平日",
      "土曜日",
      "日曜日",
      "祝日"
    ],
    "openDaysNote": "24時間対応"
  },
  {
    "id": "1474400015",
    "name": "道志会居宅介護支援事業所",
    "kana": "ドウシカイキョタクカイゴシエンジギョウショ",
    "address": "神奈川県綾瀬市早川城山2-11-3",
    "lat": 35.4361446,
    "lng": 139.4214485,
    "tel": "0467-76-3398",
    "url": "http://www.doushikai.or.jp",
    "pref": "神奈川県",
    "city": "綾瀬市",
    "category": "home_help",
    "serviceType": "訪問介護",
    "capacity": 0,
    "openDays": [
      "平日",
      "祝日"
    ],
    "openDaysNote": ""
  },
  {
    "id": "1474401153",
    "name": "訪問介護ステ－ション蘭",
    "kana": "ホウモンカイゴステ-ションラン",
    "address": "神奈川県綾瀬市早川2221-5",
    "lat": 35.4384292,
    "lng": 139.4143386,
    "tel": "0467-77-2470",
    "url": "",
    "pref": "神奈川県",
    "city": "綾瀬市",
    "category": "home_help",
    "serviceType": "訪問介護",
    "capacity": null,
    "openDays": [
      "平日",
      "土曜日",
      "日曜日",
      "祝日"
    ],
    "openDaysNote": "訪問サ－ビスは365日対応いたします。"
  },
  {
    "id": "1474001177",
    "name": "２４Hヘルプサービスユッキーハウス",
    "kana": "ニジュウヨンエイチヘルプサービスユッキーハウス",
    "address": "神奈川県伊勢原市高森1185-9",
    "lat": 35.4150508,
    "lng": 139.3360679,
    "tel": "0463-67-8664",
    "url": "",
    "pref": "神奈川県",
    "city": "伊勢原市",
    "category": "home_help",
    "serviceType": "訪問介護",
    "capacity": 0,
    "openDays": [
      "平日",
      "土曜日",
      "日曜日",
      "祝日"
    ],
    "openDaysNote": "応相談"
  },
  {
    "id": "1474001433",
    "name": "SMCケアステーションいせはら",
    "kana": "エスエムシーケアステーションイセハラ",
    "address": "神奈川県伊勢原市高森3丁目5番12号",
    "lat": 35.4121336,
    "lng": 139.3299467,
    "tel": "0463-73-7328",
    "url": "http://www.smcg.jp/home_care_isehara/outline.html",
    "pref": "神奈川県",
    "city": "伊勢原市",
    "category": "home_help",
    "serviceType": "訪問介護",
    "capacity": null,
    "openDays": [
      "平日",
      "土曜日",
      "祝日"
    ],
    "openDaysNote": ""
  },
  {
    "id": "1474001557",
    "name": "SOMPOケア伊勢原　訪問介護",
    "kana": "ソンポケアイセハラ　ホウモンカイゴ",
    "address": "神奈川県伊勢原市桜台1丁目15-32グレイスマンション303号室 グレイスマンション303号室",
    "lat": 35.3943519,
    "lng": 139.3133694,
    "tel": "0463-73-7196",
    "url": "https://www.sompocare.com/",
    "pref": "神奈川県",
    "city": "伊勢原市",
    "category": "home_help",
    "serviceType": "訪問介護",
    "capacity": 10,
    "openDays": [
      "平日",
      "土曜日",
      "日曜日",
      "祝日"
    ],
    "openDaysNote": "24時間対応"
  },
  {
    "id": "1474000096",
    "name": "いせはら訪問介護事業所",
    "kana": "イセハラホウモンカイゴジギョウショ",
    "address": "神奈川県伊勢原市伊勢原２－７－３１伊勢原シティプラザ１階 伊勢原シティプラザ１階",
    "lat": 35.3974774,
    "lng": 139.3080516,
    "tel": "0463-94-9600",
    "url": "http://www.isehara-shakyo.or.jp",
    "pref": "神奈川県",
    "city": "伊勢原市",
    "category": "home_help",
    "serviceType": "訪問介護",
    "capacity": null,
    "openDays": [
      "平日",
      "土曜日",
      "日曜日",
      "祝日"
    ],
    "openDaysNote": "その他の時間も調整ができる限り対応します。"
  },
  {
    "id": "1474001110",
    "name": "クローバー訪問介護いせはら",
    "kana": "クローバーホウモンカイゴイセハラ",
    "address": "神奈川県伊勢原市上粕屋2545番地1",
    "lat": 35.4206824,
    "lng": 139.2914091,
    "tel": "0463-95-5504",
    "url": "https://clover-houmon.jala.co.jp/",
    "pref": "神奈川県",
    "city": "伊勢原市",
    "category": "home_help",
    "serviceType": "訪問介護",
    "capacity": 0,
    "openDays": [
      "平日",
      "土曜日",
      "日曜日",
      "祝日"
    ],
    "openDaysNote": ""
  },
  {
    "id": "1474001573",
    "name": "ケアサポートマハロ",
    "kana": "ケアサポートマハロ",
    "address": "神奈川県伊勢原市東大竹939-1",
    "lat": 35.3840303,
    "lng": 139.3163515,
    "tel": "0463-51-6671",
    "url": "",
    "pref": "神奈川県",
    "city": "伊勢原市",
    "category": "home_help",
    "serviceType": "訪問介護",
    "capacity": 0,
    "openDays": [
      "平日",
      "土曜日",
      "祝日"
    ],
    "openDaysNote": "上記時間以外は応相談"
  },
  {
    "id": "1474000294",
    "name": "ケアサポートゆかり",
    "kana": "ケアサポートユカリ",
    "address": "神奈川県伊勢原市上粕屋１０４３",
    "lat": 35.4126141,
    "lng": 139.2965612,
    "tel": "0463-91-1211",
    "url": "",
    "pref": "神奈川県",
    "city": "伊勢原市",
    "category": "home_help",
    "serviceType": "訪問介護",
    "capacity": 0,
    "openDays": [
      "平日",
      "土曜日",
      "日曜日",
      "祝日"
    ],
    "openDaysNote": ""
  },
  {
    "id": "1474000187",
    "name": "ケアサポートりんどうヘルパーステーション",
    "kana": "ケアサポートリンドウヘルパーステーション",
    "address": "神奈川県伊勢原市板戸126-1",
    "lat": 35.4022515,
    "lng": 139.2976222,
    "tel": "0463-91-1541",
    "url": "https://www.hbc-rindou.co.jp/officeinfo/isehara/post_9.html",
    "pref": "神奈川県",
    "city": "伊勢原市",
    "category": "home_help",
    "serviceType": "訪問介護",
    "capacity": 10,
    "openDays": [
      "平日",
      "土曜日",
      "日曜日",
      "祝日"
    ],
    "openDaysNote": "深夜帯はご相談させていただきます。"
  },
  {
    "id": "1474000385",
    "name": "ケアステーションいたど",
    "kana": "ケアステーションイタド",
    "address": "神奈川県伊勢原市板戸197",
    "lat": 35.4001098518051,
    "lng": 139.29805151888,
    "tel": "0463-90-1360",
    "url": "http://koureikyou-k.com/",
    "pref": "神奈川県",
    "city": "伊勢原市",
    "category": "home_help",
    "serviceType": "訪問介護",
    "capacity": 0,
    "openDays": [
      "平日",
      "土曜日",
      "日曜日",
      "祝日"
    ],
    "openDaysNote": "時間については、相談に応じます。"
  },
  {
    "id": "1474000765",
    "name": "ケアステーションぴーぷる",
    "kana": "ケアステーションピープル",
    "address": "神奈川県伊勢原市東大竹53-10パレスTM102号 パレスTM102号",
    "lat": 35.3918308,
    "lng": 139.305952,
    "tel": "0463-74-6661",
    "url": "",
    "pref": "神奈川県",
    "city": "伊勢原市",
    "category": "home_help",
    "serviceType": "訪問介護",
    "capacity": 0,
    "openDays": [
      "平日",
      "土曜日",
      "日曜日",
      "祝日"
    ],
    "openDaysNote": ""
  },
  {
    "id": "1474000278",
    "name": "サン・ライフ福祉サービスセンター伊勢原事業所",
    "kana": "サン・ライフフクシサービスセンターイセハラジギョウショ",
    "address": "神奈川県伊勢原市桜台4-18-5",
    "lat": 35.388637,
    "lng": 139.3152232,
    "tel": "0463-97-4701",
    "url": "https://www.sunlife.jp/",
    "pref": "神奈川県",
    "city": "伊勢原市",
    "category": "home_help",
    "serviceType": "訪問介護",
    "capacity": 0,
    "openDays": [
      "平日",
      "祝日"
    ],
    "openDaysNote": "土、日対応可"
  },
  {
    "id": "1474001136",
    "name": "すまいる",
    "kana": "スマイル",
    "address": "神奈川県伊勢原市板戸204番地の1",
    "lat": 35.3995269,
    "lng": 139.2987277,
    "tel": "0463-95-7553",
    "url": "",
    "pref": "神奈川県",
    "city": "伊勢原市",
    "category": "home_help",
    "serviceType": "訪問介護",
    "capacity": 0,
    "openDays": [
      "平日",
      "土曜日",
      "日曜日",
      "祝日"
    ],
    "openDaysNote": "２４時間対応・年中無休"
  },
  {
    "id": "1474001367",
    "name": "ヘルパーステーション絆",
    "kana": "ヘルパーステーションキズナ",
    "address": "神奈川県伊勢原市高森3004-2",
    "lat": 35.4091222,
    "lng": 139.33196,
    "tel": "0463-75-9850",
    "url": "http://www.well-age.com/",
    "pref": "神奈川県",
    "city": "伊勢原市",
    "category": "home_help",
    "serviceType": "訪問介護",
    "capacity": 0,
    "openDays": [
      "平日",
      "土曜日",
      "日曜日",
      "祝日"
    ],
    "openDaysNote": "なし"
  },
  {
    "id": "1474001524",
    "name": "ヘルプセット伊勢原",
    "kana": "ヘルプセットイセハラ",
    "address": "神奈川県伊勢原市田中832-1サンファーストB101 サンファーストB101",
    "lat": 35.4026728,
    "lng": 139.3070318,
    "tel": "0463-65-0951",
    "url": "https://care-mindset.com/",
    "pref": "神奈川県",
    "city": "伊勢原市",
    "category": "home_help",
    "serviceType": "訪問介護",
    "capacity": 100,
    "openDays": [
      "平日",
      "土曜日",
      "日曜日",
      "祝日"
    ],
    "openDaysNote": ""
  },
  {
    "id": "1474000542",
    "name": "ホームヘルプサービス　天使の手",
    "kana": "ホームヘルプサービス　テンシノテ",
    "address": "神奈川県伊勢原市小稲葉209-2",
    "lat": 35.3970752375123,
    "lng": 139.351057561238,
    "tel": "0463-93-0600",
    "url": "https://blog.goo.ne.jp/angel-hand",
    "pref": "神奈川県",
    "city": "伊勢原市",
    "category": "home_help",
    "serviceType": "訪問介護",
    "capacity": 40,
    "openDays": [
      "平日",
      "土曜日",
      "日曜日",
      "祝日"
    ],
    "openDaysNote": ""
  },
  {
    "id": "1474000906",
    "name": "学研ココファン愛甲石田ヘルパーセンター",
    "kana": "ガッケンココファンアイコウイシダヘルパーセンター",
    "address": "神奈川県伊勢原市石田７１３学研ココファン愛甲石田事業所 学研ココファン愛甲石田事業所",
    "lat": 35.4145482,
    "lng": 139.3416923,
    "tel": "0463-90-1421",
    "url": "https://www.cocofump.co.jp/facilities/detail/aikouishida/",
    "pref": "神奈川県",
    "city": "伊勢原市",
    "category": "home_help",
    "serviceType": "訪問介護",
    "capacity": 0,
    "openDays": [
      "平日",
      "祝日"
    ],
    "openDaysNote": "24時間対応"
  },
  {
    "id": "1474000930",
    "name": "学研ココファン伊勢原ヘルパーセンター",
    "kana": "ガッケンココファンイセハラヘルパーセンター",
    "address": "神奈川県伊勢原市桜台４－５－７ココファン伊勢原 ココファン伊勢原",
    "lat": 35.3898536,
    "lng": 139.3173563,
    "tel": "0463-96-2561",
    "url": "https://www.cocofump.co.jp/facilities/detail/isehara/",
    "pref": "神奈川県",
    "city": "伊勢原市",
    "category": "home_help",
    "serviceType": "訪問介護",
    "capacity": 0,
    "openDays": [
      "平日",
      "土曜日",
      "日曜日",
      "祝日"
    ],
    "openDaysNote": "24時間対応"
  },
  {
    "id": "1474001029",
    "name": "株式会社ティー・シー・エス伊勢原営業所",
    "kana": "カブシキガイシャティー・シー・エスイセハラエイギョウショ",
    "address": "神奈川県伊勢原市田中1154-10ケアプロ２１いせはら ケアプロ２１いせはら",
    "lat": 35.4047452504177,
    "lng": 139.309875657178,
    "tel": "0463-86-6763",
    "url": "http://tcs-h.net",
    "pref": "神奈川県",
    "city": "伊勢原市",
    "category": "home_help",
    "serviceType": "訪問介護",
    "capacity": 0,
    "openDays": [
      "平日",
      "土曜日",
      "日曜日",
      "祝日"
    ],
    "openDaysNote": "ケアプランに応じて24時間対応可"
  },
  {
    "id": "1474000039",
    "name": "高齢者総合支援センター泉心荘",
    "kana": "コウレイシャソウゴウシエンセンターセンシンソウ",
    "address": "神奈川県伊勢原市三ノ宮511番地の1",
    "lat": 35.4085338,
    "lng": 139.2884511,
    "tel": "0463-92-6722",
    "url": "https://senshinso.or.jp/",
    "pref": "神奈川県",
    "city": "伊勢原市",
    "category": "home_help",
    "serviceType": "訪問介護",
    "capacity": null,
    "openDays": [
      "平日",
      "土曜日",
      "祝日"
    ],
    "openDaysNote": ""
  },
  {
    "id": "1474001581",
    "name": "指定訪問介護アットプレオ粟窪",
    "kana": "シテイホウモンカイゴアットプレオアワクボ",
    "address": "神奈川県伊勢原市粟窪37-5",
    "lat": 35.4085748,
    "lng": 139.3175252,
    "tel": "0463-72-7351",
    "url": "https://hospice.at-care.co.jp/facility/#awakubo",
    "pref": "神奈川県",
    "city": "伊勢原市",
    "category": "home_help",
    "serviceType": "訪問介護",
    "capacity": null,
    "openDays": [
      "平日",
      "土曜日",
      "日曜日",
      "祝日"
    ],
    "openDaysNote": "電話等により24時間、常時連絡が可能な体制とする。"
  },
  {
    "id": "1474001425",
    "name": "大笑サポートセンター",
    "kana": "ダイショウサポートセンター",
    "address": "神奈川県伊勢原市沼目2丁目７－３９　和泉ハイツ102和泉ハイツ102号 和泉ハイツ102号",
    "lat": 35.3924338,
    "lng": 139.3246057,
    "tel": "0463-73-6451",
    "url": "https://daisho-support.com/",
    "pref": "神奈川県",
    "city": "伊勢原市",
    "category": "home_help",
    "serviceType": "訪問介護",
    "capacity": 40,
    "openDays": [
      "平日",
      "土曜日",
      "日曜日",
      "祝日"
    ],
    "openDaysNote": ""
  },
  {
    "id": "1474001243",
    "name": "訪問介護ケアフルライフ",
    "kana": "ホウモンカイゴケアフルライフ",
    "address": "神奈川県伊勢原市沼目２丁目１６－１１",
    "lat": 35.3919930362213,
    "lng": 139.326521476632,
    "tel": "0463-65-0310",
    "url": "",
    "pref": "神奈川県",
    "city": "伊勢原市",
    "category": "home_help",
    "serviceType": "訪問介護",
    "capacity": 40,
    "openDays": [
      "平日",
      "土曜日",
      "日曜日",
      "祝日"
    ],
    "openDaysNote": "サービス提供日は年中無休とする"
  },
  {
    "id": "1474001516",
    "name": "訪問介護ステーション　ピースマイル",
    "kana": "ホウモンカンゴステーションピースマイル",
    "address": "神奈川県伊勢原市笠窪423番地13鶴巻フラット204 鶴巻フラット204",
    "lat": 35.3890618,
    "lng": 139.2803211,
    "tel": "0463-20-9464",
    "url": "",
    "pref": "神奈川県",
    "city": "伊勢原市",
    "category": "home_help",
    "serviceType": "訪問介護",
    "capacity": 5,
    "openDays": [
      "平日"
    ],
    "openDaysNote": "土日祝日については応相談。"
  },
  {
    "id": "1474000088",
    "name": "有限会社　アテンドサービス湘南",
    "kana": "ユウゲンガイシャ　アテンドサービスショウナン",
    "address": "神奈川県伊勢原市伊勢原4-670-1プリメール伊勢原306 プリメール伊勢原306",
    "lat": 35.4004216,
    "lng": 139.3138731,
    "tel": "0463-97-1500",
    "url": "",
    "pref": "神奈川県",
    "city": "伊勢原市",
    "category": "home_help",
    "serviceType": "訪問介護",
    "capacity": 0,
    "openDays": [
      "平日",
      "土曜日",
      "日曜日",
      "祝日"
    ],
    "openDaysNote": "24時間対応可"
  },
  {
    "id": "1471907723",
    "name": "Ａｑｕａ　衣笠",
    "kana": "アクアキヌガサ",
    "address": "神奈川県横須賀市小矢部2丁目25番12号小矢部第2菱田ビル1階 小矢部第2菱田ビル1階",
    "lat": 35.2562578,
    "lng": 139.6623231,
    "tel": "046-845-9596",
    "url": "https://aqua-andante.com/",
    "pref": "神奈川県",
    "city": "横須賀市",
    "category": "home_help",
    "serviceType": "訪問介護",
    "capacity": 0,
    "openDays": [
      "平日",
      "土曜日",
      "日曜日",
      "祝日"
    ],
    "openDaysNote": "24時間対応"
  },
  {
    "id": "1471907871",
    "name": "COCORO　PLACE",
    "kana": "ココロプレイス",
    "address": "神奈川県横須賀市上町2－23－2",
    "lat": 35.2740574474832,
    "lng": 139.6682022645,
    "tel": "090-6173-5585",
    "url": "",
    "pref": "神奈川県",
    "city": "横須賀市",
    "category": "home_help",
    "serviceType": "訪問介護",
    "capacity": null,
    "openDays": [
      "平日",
      "土曜日",
      "日曜日",
      "祝日"
    ],
    "openDaysNote": ""
  },
  {
    "id": "1471900272",
    "name": "NPO法人　サポート横須賀",
    "kana": "エヌピーオホウジン　サポートヨコスカ",
    "address": "神奈川県横須賀市大津町1-18-11",
    "lat": 35.2624174,
    "lng": 139.6960507,
    "tel": "046-830-5381",
    "url": "http://www.support-yokosuka.com/",
    "pref": "神奈川県",
    "city": "横須賀市",
    "category": "home_help",
    "serviceType": "訪問介護",
    "capacity": 20,
    "openDays": [
      "平日",
      "土曜日",
      "日曜日",
      "祝日"
    ],
    "openDaysNote": "年末年始は12/29～1/3まで休業させていただきます。（但し、相談により若干変更あり）"
  },
  {
    "id": "1471906824",
    "name": "ＳＯＭＰＯケア　横須賀公郷　訪問介護",
    "kana": "ソンポケアヨコスカクゴウホウモンカイゴ",
    "address": "神奈川県横須賀市公郷町3-119-4由井ビル1Ｆ 由井ビル1Ｆ",
    "lat": 35.255588,
    "lng": 139.6721612,
    "tel": "046-850-3226",
    "url": "https://www.sompocare.com",
    "pref": "神奈川県",
    "city": "横須賀市",
    "category": "home_help",
    "serviceType": "訪問介護",
    "capacity": 65,
    "openDays": [
      "平日",
      "土曜日",
      "日曜日",
      "祝日"
    ],
    "openDaysNote": "年中無休"
  },
  {
    "id": "1471904126",
    "name": "あひる訪問介護ステ-ション",
    "kana": "アヒルホウモンカイゴステーション",
    "address": "神奈川県横須賀市鴨居1-30-17",
    "lat": 35.2494357,
    "lng": 139.724676,
    "tel": "046-876-9331",
    "url": "",
    "pref": "神奈川県",
    "city": "横須賀市",
    "category": "home_help",
    "serviceType": "訪問介護",
    "capacity": 0,
    "openDays": [
      "平日",
      "土曜日",
      "日曜日",
      "祝日"
    ],
    "openDaysNote": "年中無休（祝日・年末年始含む）（改行）利用時間等に関して（7:00~20:00以外は相談に応ず）"
  },
  {
    "id": "1471907582",
    "name": "あゆみ福祉サービス",
    "kana": "アユミフクシサービス",
    "address": "神奈川県横須賀市武1-30-24",
    "lat": 35.2258665,
    "lng": 139.6530582,
    "tel": "046-857-6796",
    "url": "",
    "pref": "神奈川県",
    "city": "横須賀市",
    "category": "home_help",
    "serviceType": "訪問介護",
    "capacity": 0,
    "openDays": [
      "平日",
      "土曜日",
      "日曜日",
      "祝日"
    ],
    "openDaysNote": "24時間/365日対応"
  },
  {
    "id": "1471907681",
    "name": "いろは介護サービス",
    "kana": "イロハカイゴサービス",
    "address": "神奈川県横須賀市岩戸1-8-42Ｆ 2Ｆ",
    "lat": 35.2336301,
    "lng": 139.675689,
    "tel": "046-845-4166",
    "url": "",
    "pref": "神奈川県",
    "city": "横須賀市",
    "category": "home_help",
    "serviceType": "訪問介護",
    "capacity": 0,
    "openDays": [
      "平日",
      "土曜日",
      "日曜日",
      "祝日"
    ],
    "openDaysNote": ""
  },
  {
    "id": "1471907855",
    "name": "カイトケア",
    "kana": "カイトケア",
    "address": "浦賀丘3丁目9番13号",
    "lat": 35.2424417,
    "lng": 139.7161798,
    "tel": "468747046",
    "url": "",
    "pref": "神奈川県",
    "city": "横須賀市",
    "category": "home_help",
    "serviceType": "訪問介護",
    "capacity": null,
    "openDays": [
      "平日"
    ],
    "openDaysNote": "上記以外の時間は応相談"
  },
  {
    "id": "1471907483",
    "name": "くじらぐも",
    "kana": "クジラグモ",
    "address": "神奈川県横須賀市須軽谷736番地トラリュームオッコシ203 トラリュームオッコシ203",
    "lat": 35.2109815700072,
    "lng": 139.646147857637,
    "tel": "046-803-5650",
    "url": "",
    "pref": "神奈川県",
    "city": "横須賀市",
    "category": "home_help",
    "serviceType": "訪問介護",
    "capacity": null,
    "openDays": [
      "平日",
      "土曜日",
      "祝日"
    ],
    "openDaysNote": ""
  },
  {
    "id": "1471907566",
    "name": "ケアサービス　轍",
    "kana": "ケアサービス　ワダチ",
    "address": "神奈川県横須賀市衣笠栄町3-12",
    "lat": 35.258933,
    "lng": 139.6571064,
    "tel": "046-887-0857",
    "url": "",
    "pref": "神奈川県",
    "city": "横須賀市",
    "category": "home_help",
    "serviceType": "訪問介護",
    "capacity": null,
    "openDays": [
      "平日",
      "土曜日",
      "日曜日",
      "祝日"
    ],
    "openDaysNote": ""
  },
  {
    "id": "1471907749",
    "name": "ケアステーションSteady",
    "kana": "ケアステーションステディ",
    "address": "神奈川県横須賀市津久井1-14-3有料老人ホームSteady2階 有料老人ホームSteady2階",
    "lat": 35.1941076,
    "lng": 139.6637985,
    "tel": "046-839-2322",
    "url": "",
    "pref": "神奈川県",
    "city": "横須賀市",
    "category": "home_help",
    "serviceType": "訪問介護",
    "capacity": null,
    "openDays": [
      "平日",
      "土曜日",
      "日曜日",
      "祝日"
    ],
    "openDaysNote": "24時間対応"
  },
  {
    "id": "1471903912",
    "name": "ケアステーション杏の実",
    "kana": "ケアステーションアンズノミ",
    "address": "神奈川県横須賀市根岸町５丁目１８番１９号反町ビル1Ｆ 反町ビル1Ｆ",
    "lat": 35.2540497,
    "lng": 139.6847464,
    "tel": "046-850-6115",
    "url": "http://www.anzunomi.jp/",
    "pref": "神奈川県",
    "city": "横須賀市",
    "category": "home_help",
    "serviceType": "訪問介護",
    "capacity": 60,
    "openDays": [
      "平日",
      "土曜日",
      "日曜日",
      "祝日"
    ],
    "openDaysNote": "24時間対応"
  },
  {
    "id": "1471907731",
    "name": "ケアリリーフ",
    "kana": "ケアリリーフ",
    "address": "神奈川県横須賀市根岸町4-39-21田中サンライズビル202 田中サンライズビル202",
    "lat": 35.2524165,
    "lng": 139.681586,
    "tel": "046-874-8882",
    "url": "",
    "pref": "神奈川県",
    "city": "横須賀市",
    "category": "home_help",
    "serviceType": "訪問介護",
    "capacity": 0,
    "openDays": [
      "平日",
      "土曜日",
      "祝日"
    ],
    "openDaysNote": "緊急時及び事前に分かる範囲での時間外サービスのご相談は承ります。"
  },
  {
    "id": "1471905529",
    "name": "こてつ介護サービス",
    "kana": "コテツカイゴサービス",
    "address": "神奈川県横須賀市佐原3-12-20-2B",
    "lat": 35.2405348299433,
    "lng": 139.681145593123,
    "tel": "046-874-7858",
    "url": "",
    "pref": "神奈川県",
    "city": "横須賀市",
    "category": "home_help",
    "serviceType": "訪問介護",
    "capacity": 0,
    "openDays": [
      "平日",
      "土曜日",
      "日曜日",
      "祝日"
    ],
    "openDaysNote": "24時間対応致します。"
  },
  {
    "id": "1471907046",
    "name": "こねこケアセンター",
    "kana": "コネコケアセンター",
    "address": "神奈川県横須賀市武2丁目12番地40ホワイトマンション206 ホワイトマンション206",
    "lat": 35.2289722,
    "lng": 139.6511675,
    "tel": "046-845-9454",
    "url": "",
    "pref": "神奈川県",
    "city": "横須賀市",
    "category": "home_help",
    "serviceType": "訪問介護",
    "capacity": null,
    "openDays": [
      "平日"
    ],
    "openDaysNote": "土・日曜日および祝日はお休み（改行）（時間外サービスは応相談）（改行）12/29～1/3は冬期休業"
  },
  {
    "id": "1471907335",
    "name": "さくら・竹の葉ヘルパーステーション追浜",
    "kana": "サクラ・タケノハヘルパーステーションオッパマ",
    "address": "神奈川県横須賀市追浜本町１－２５",
    "lat": 35.317019,
    "lng": 139.6269446,
    "tel": "046-865-6681",
    "url": "https://bambooo.co.jp/",
    "pref": "神奈川県",
    "city": "横須賀市",
    "category": "home_help",
    "serviceType": "訪問介護",
    "capacity": 9,
    "openDays": [
      "平日",
      "土曜日",
      "日曜日",
      "祝日"
    ],
    "openDaysNote": "電話等による24時間常時連絡が可能な体制とする"
  },
  {
    "id": "1461990407",
    "name": "さくらんぼ武山",
    "kana": "サクランボタケヤマ",
    "address": "神奈川県横須賀市武1-20-15ライフコート横須賀武山住宅型有料老人ホームさくらんぼ内 ライフコート横須賀武山住宅型有料老人ホームさくらんぼ内",
    "lat": 35.229452,
    "lng": 139.652688,
    "tel": "046-855-5530",
    "url": "http://www.care-sakuranbo.jp/facilities/yokosukatakeyama2/",
    "pref": "神奈川県",
    "city": "横須賀市",
    "category": "home_help",
    "serviceType": "訪問介護",
    "capacity": 0,
    "openDays": [
      "平日",
      "土曜日",
      "日曜日",
      "祝日"
    ],
    "openDaysNote": "24時間対応"
  },
  {
    "id": "1471907350",
    "name": "さくら介護クラブ横須賀",
    "kana": "サクラカイゴクラブヨコスカ",
    "address": "神奈川県横須賀市長沢１-30-14２F ２F",
    "lat": 35.204606,
    "lng": 139.6744056,
    "tel": "046-845-6630",
    "url": "https://jala.co.jp/",
    "pref": "神奈川県",
    "city": "横須賀市",
    "category": "home_help",
    "serviceType": "訪問介護",
    "capacity": 120,
    "openDays": [
      "平日",
      "土曜日",
      "日曜日",
      "祝日"
    ],
    "openDaysNote": "24時間対応"
  },
  {
    "id": "1471900496",
    "name": "シャローム在宅ケアセンター",
    "kana": "シャロームザイタクケアセンター",
    "address": "神奈川県横須賀市走水1-35",
    "lat": 35.2630744939965,
    "lng": 139.727955621426,
    "tel": "046-844-0301",
    "url": "http://www.yokosuka-shalom.jp/index.php?id=25",
    "pref": "神奈川県",
    "city": "横須賀市",
    "category": "home_help",
    "serviceType": "訪問介護",
    "capacity": 0,
    "openDays": [
      "平日",
      "土曜日",
      "日曜日",
      "祝日"
    ],
    "openDaysNote": "利用時間については、ご相談させていただきます。"
  },
  {
    "id": "1471907491",
    "name": "ジョイライフ訪問介護",
    "kana": "ジョイライフホウモンカイゴ",
    "address": "神奈川県横須賀市大矢部1-10-4浜荘101 浜荘101",
    "lat": 35.2409899,
    "lng": 139.6685077,
    "tel": "046-803-3933",
    "url": "",
    "pref": "神奈川県",
    "city": "横須賀市",
    "category": "home_help",
    "serviceType": "訪問介護",
    "capacity": null,
    "openDays": [
      "平日",
      "土曜日",
      "日曜日",
      "祝日"
    ],
    "openDaysNote": ""
  },
  {
    "id": "1471906303",
    "name": "しろやま介護タクシー",
    "kana": "シロヤマカイゴタクシー",
    "address": "神奈川県横須賀市芦名2-24-45",
    "lat": 35.2352065,
    "lng": 139.6110192,
    "tel": "046-857-8202",
    "url": "http://shiroyama03.wixsite.com/taxi",
    "pref": "神奈川県",
    "city": "横須賀市",
    "category": "home_help",
    "serviceType": "訪問介護",
    "capacity": 0,
    "openDays": [
      "平日"
    ],
    "openDaysNote": "ご依頼ある場合、時間外や土日祝日でも対応可能"
  },
  {
    "id": "1471905412",
    "name": "しんわ福祉サービス",
    "kana": "シンワフクシサービス",
    "address": "神奈川県横須賀市三春町1-3",
    "lat": 35.2704173752811,
    "lng": 139.681464614681,
    "tel": "046-828-5639",
    "url": "http://shinwag.jp/",
    "pref": "神奈川県",
    "city": "横須賀市",
    "category": "home_help",
    "serviceType": "訪問介護",
    "capacity": null,
    "openDays": [
      "平日",
      "土曜日",
      "祝日"
    ],
    "openDaysNote": "年末休みも対応可能"
  },
  {
    "id": "1471907475",
    "name": "しんわ福祉サービス佐原",
    "kana": "シンワフクシサービスサハラ",
    "address": "神奈川県横須賀市佐原4-8-23",
    "lat": 35.2394883,
    "lng": 139.6890236,
    "tel": "046-876-7717",
    "url": "https://shinwag.jp",
    "pref": "神奈川県",
    "city": "横須賀市",
    "category": "home_help",
    "serviceType": "訪問介護",
    "capacity": 96,
    "openDays": [
      "平日",
      "土曜日",
      "日曜日",
      "祝日"
    ],
    "openDaysNote": "365日、24時間"
  },
  {
    "id": "1471903391",
    "name": "すずせい福祉サービス",
    "kana": "スズセイフクシサービス",
    "address": "神奈川県横須賀市佐野町3丁目33番地",
    "lat": 35.2640871,
    "lng": 139.6714196,
    "tel": "046-851-2176",
    "url": "",
    "pref": "神奈川県",
    "city": "横須賀市",
    "category": "home_help",
    "serviceType": "訪問介護",
    "capacity": 40,
    "openDays": [
      "平日",
      "土曜日",
      "日曜日",
      "祝日"
    ],
    "openDaysNote": ""
  },
  {
    "id": "1471906998",
    "name": "ステップ",
    "kana": "ステップ",
    "address": "神奈川県横須賀市長沢1-3-8",
    "lat": 35.2019278,
    "lng": 139.6762926,
    "tel": "046-876-6992",
    "url": "",
    "pref": "神奈川県",
    "city": "横須賀市",
    "category": "home_help",
    "serviceType": "訪問介護",
    "capacity": 0,
    "openDays": [
      "平日",
      "土曜日",
      "日曜日",
      "祝日"
    ],
    "openDaysNote": ""
  },
  {
    "id": "1471903482",
    "name": "セントケア久里浜",
    "kana": "セントケアクリハマ",
    "address": "神奈川県横須賀市野比3-3-1トーク湘南野比101 トーク湘南野比101",
    "lat": 35.2158453,
    "lng": 139.6884409,
    "tel": "046-840-1030",
    "url": "http://www.saintc-k.com/office/849.html",
    "pref": "神奈川県",
    "city": "横須賀市",
    "category": "home_help",
    "serviceType": "訪問介護",
    "capacity": 0,
    "openDays": [
      "平日",
      "土曜日",
      "日曜日",
      "祝日"
    ],
    "openDaysNote": ""
  },
  {
    "id": "1471907368",
    "name": "セントケア訪問介護ステーション横須賀",
    "kana": "セントケアホウモンカイゴステーションヨコスカ",
    "address": "神奈川県横須賀市安浦町３-43-17極東物産ビル３階 極東物産ビル３階",
    "lat": 35.2713284408778,
    "lng": 139.68116068234,
    "tel": "046-828-8555",
    "url": "http://www.saint-k.com",
    "pref": "神奈川県",
    "city": "横須賀市",
    "category": "home_help",
    "serviceType": "訪問介護",
    "capacity": 0,
    "openDays": [
      "平日",
      "土曜日",
      "日曜日",
      "祝日"
    ],
    "openDaysNote": "時間外については応相談"
  },
  {
    "id": "1471902260",
    "name": "たづ介護センター",
    "kana": "タヅカイゴセンター",
    "address": "神奈川県横須賀市平作２－２２－４",
    "lat": 35.2531385,
    "lng": 139.6553266,
    "tel": "046-851-3232",
    "url": "",
    "pref": "神奈川県",
    "city": "横須賀市",
    "category": "home_help",
    "serviceType": "訪問介護",
    "capacity": 0,
    "openDays": [
      "平日",
      "土曜日",
      "日曜日",
      "祝日"
    ],
    "openDaysNote": "24時間対応"
  },
  {
    "id": "1471905040",
    "name": "たんぽぽ　ヘルパーステーション",
    "kana": "タンポポ　ヘルパーステーション",
    "address": "神奈川県横須賀市上町３－５０相川ハイツ２０１号 相川ハイツ２０１号",
    "lat": 35.2686502753291,
    "lng": 139.669932076582,
    "tel": "046-828-7040",
    "url": "",
    "pref": "神奈川県",
    "city": "横須賀市",
    "category": "home_help",
    "serviceType": "訪問介護",
    "capacity": 0,
    "openDays": [
      "平日",
      "土曜日",
      "日曜日",
      "祝日"
    ],
    "openDaysNote": "日曜・祝日・年末年始も利用者の希望に応じています。"
  },
  {
    "id": "1471907194",
    "name": "ツクイ横須賀",
    "kana": "ツクイヨコスカ",
    "address": "神奈川県横須賀市池上２－１０－１５",
    "lat": 35.2643363,
    "lng": 139.6471122,
    "tel": "046-850-3107",
    "url": "https://www.tsukui.net/home-care/2024/",
    "pref": "神奈川県",
    "city": "横須賀市",
    "category": "home_help",
    "serviceType": "訪問介護",
    "capacity": 0,
    "openDays": [
      "平日",
      "土曜日",
      "日曜日",
      "祝日"
    ],
    "openDaysNote": ""
  },
  {
    "id": "1471907210",
    "name": "ツクイ北久里浜",
    "kana": "ツクイキタクリハマ",
    "address": "神奈川県横須賀市根岸町3-1-5シーアイマンション久里浜1階店舗2号 シーアイマンション久里浜1階店舗2号",
    "lat": 35.252436,
    "lng": 139.6852138,
    "tel": "046-838-0782",
    "url": "http://www.tsukui.net/home-care/2109/",
    "pref": "神奈川県",
    "city": "横須賀市",
    "category": "home_help",
    "serviceType": "訪問介護",
    "capacity": 10,
    "openDays": [
      "平日",
      "土曜日",
      "日曜日",
      "祝日"
    ],
    "openDaysNote": "サービス提供日は年中無休"
  },
  {
    "id": "1471902302",
    "name": "トータルケアサービス",
    "kana": "トータルケアサービス",
    "address": "神奈川県横須賀市久里浜５－１６－２２仲屋ビル３F 仲屋ビル３F",
    "lat": 35.2277409,
    "lng": 139.7020616,
    "tel": "046-835-1066",
    "url": "",
    "pref": "神奈川県",
    "city": "横須賀市",
    "category": "home_help",
    "serviceType": "訪問介護",
    "capacity": 0,
    "openDays": [
      "平日",
      "土曜日",
      "日曜日",
      "祝日"
    ],
    "openDaysNote": "サービス提供日は12月30日～1月3日を除く全日"
  },
  {
    "id": "1471906915",
    "name": "ニコニコ介護大津",
    "kana": "ニコニコカイゴオオツ",
    "address": "神奈川県横須賀市大津町4-23-1",
    "lat": 35.2568598,
    "lng": 139.6919317,
    "tel": "046-876-8631",
    "url": "https://nikonikokaigo.jp/",
    "pref": "神奈川県",
    "city": "横須賀市",
    "category": "home_help",
    "serviceType": "訪問介護",
    "capacity": 55,
    "openDays": [
      "平日",
      "土曜日",
      "祝日"
    ],
    "openDaysNote": "ご相談に応じます。"
  },
  {
    "id": "1471901312",
    "name": "ニチイケアセンター横須賀",
    "kana": "ニチイケアセンターヨコスカ",
    "address": "神奈川県横須賀市船越町1-56廣瀬ビル1階101号室 廣瀬ビル1階101号室",
    "lat": 35.3001425,
    "lng": 139.6284938,
    "tel": "046-860-0321",
    "url": "https://www.nichii-kaigo.jp/base/base-result/05Y06/",
    "pref": "神奈川県",
    "city": "横須賀市",
    "category": "home_help",
    "serviceType": "訪問介護",
    "capacity": 40,
    "openDays": [
      "平日"
    ],
    "openDaysNote": "※相談に応ずる。"
  },
  {
    "id": "1471903847",
    "name": "ニチイケアセンター横須賀佐原",
    "kana": "ニチイケアセンターヨコスカサハラ",
    "address": "神奈川県横須賀市佐原1-4-20",
    "lat": 35.2424727,
    "lng": 139.6787162,
    "tel": "046-838-5853",
    "url": "http://www.nichiigakkan.co.jp",
    "pref": "神奈川県",
    "city": "横須賀市",
    "category": "home_help",
    "serviceType": "訪問介護",
    "capacity": 0,
    "openDays": [
      "平日",
      "土曜日",
      "日曜日",
      "祝日"
    ],
    "openDaysNote": "居宅サービス計画により、休業日および営業時間外であってもサービスを提供する場合があります。"
  },
  {
    "id": "1471900017",
    "name": "ニチイケアセンター横須賀中央",
    "kana": "ニチイケアセンター　ヨコスカチュウオウ",
    "address": "神奈川県横須賀市若松町3-5レジーナ・タワー101号室 レジーナ・タワー101号室",
    "lat": 35.2790024,
    "lng": 139.6729948,
    "tel": "046-828-4091",
    "url": "https://www.nichii-kaigo.jp/base/base-result/05D48/",
    "pref": "神奈川県",
    "city": "横須賀市",
    "category": "home_help",
    "serviceType": "訪問介護",
    "capacity": 0,
    "openDays": [
      "平日",
      "土曜日",
      "日曜日",
      "祝日"
    ],
    "openDaysNote": ""
  },
  {
    "id": "1471900926",
    "name": "ニチイケアセンター湘南山手",
    "kana": "ニチイケアセンターショウナンヤマテ",
    "address": "神奈川県横須賀市吉井4-20-10",
    "lat": 35.2504578,
    "lng": 139.7057832,
    "tel": "046-830-1752",
    "url": "http://www.nichiigakkan.co.jp",
    "pref": "神奈川県",
    "city": "横須賀市",
    "category": "home_help",
    "serviceType": "訪問介護",
    "capacity": 0,
    "openDays": [
      "平日",
      "土曜日",
      "日曜日",
      "祝日"
    ],
    "openDaysNote": "土曜・日曜・祝祭日・12/30～1/3については、応相談。"
  },
  {
    "id": "1471907244",
    "name": "ニチイケアセンター野比",
    "kana": "ニチイケアセンターノビ",
    "address": "神奈川県横須賀市野比1-19-23サンドエル201号室 サンドエル201号室",
    "lat": 35.2136247,
    "lng": 139.6843892,
    "tel": "046-839-3250",
    "url": "https://www.nichiigakkan.co.jp/",
    "pref": "神奈川県",
    "city": "横須賀市",
    "category": "home_help",
    "serviceType": "訪問介護",
    "capacity": 0,
    "openDays": [
      "平日",
      "土曜日",
      "日曜日",
      "祝日"
    ],
    "openDaysNote": "12/30～1/3については、応相談。"
  },
  {
    "id": "1471904159",
    "name": "ハートフルケア３６５",
    "kana": "ハートフルケア　サンロクゴ",
    "address": "神奈川県横須賀市岩戸2丁目6番4号ﾊｲﾂﾘｰ101号及び202号 ﾊｲﾂﾘｰ101号及び202号",
    "lat": 35.2314517,
    "lng": 139.6773609,
    "tel": "046-874-4573",
    "url": "",
    "pref": "神奈川県",
    "city": "横須賀市",
    "category": "home_help",
    "serviceType": "訪問介護",
    "capacity": 30,
    "openDays": [
      "平日",
      "土曜日",
      "日曜日",
      "祝日"
    ],
    "openDaysNote": "ご利用者様（ご家族様）のご意向並びに必要性により、訪問介護計画に沿って、２４時間３６５日体制で訪問介護サービスを提供しています。"
  },
  {
    "id": "1471904514",
    "name": "ハビタスカーマケアステーション",
    "kana": "ハビタスカーマケアステーション",
    "address": "神奈川県横須賀市西浦賀５－３２－２",
    "lat": 35.2344096,
    "lng": 139.7213235,
    "tel": "046-844-8322",
    "url": "http://www.habitasu.co.jp/",
    "pref": "神奈川県",
    "city": "横須賀市",
    "category": "home_help",
    "serviceType": "訪問介護",
    "capacity": 56,
    "openDays": [
      "平日",
      "土曜日",
      "日曜日",
      "祝日"
    ],
    "openDaysNote": "24時間対応、年中無休"
  },
  {
    "id": "1471903961",
    "name": "ヘルパーステーション　イワサキ",
    "kana": "ヘルパーステーション　イワサキ",
    "address": "神奈川県横須賀市米が浜通１－１－５301 301",
    "lat": 35.2782803,
    "lng": 139.6741724,
    "tel": "046-822-1700",
    "url": "",
    "pref": "神奈川県",
    "city": "横須賀市",
    "category": "home_help",
    "serviceType": "訪問介護",
    "capacity": 0,
    "openDays": [
      "平日",
      "土曜日",
      "日曜日",
      "祝日"
    ],
    "openDaysNote": "年末年始も訪問を対応。"
  },
  {
    "id": "1471901981",
    "name": "ホームヘルパーステーション　あしたの風",
    "kana": "ホームヘルパーステーションアシタノカゼ",
    "address": "神奈川県横須賀市佐原３－４－２３１F １F",
    "lat": 35.24092400262,
    "lng": 139.682955340476,
    "tel": "046-837-8962",
    "url": "http://michi-kaigo.com",
    "pref": "神奈川県",
    "city": "横須賀市",
    "category": "home_help",
    "serviceType": "訪問介護",
    "capacity": 160,
    "openDays": [
      "平日",
      "土曜日",
      "日曜日",
      "祝日"
    ],
    "openDaysNote": "早朝・夜間・土曜日・日曜日のサービスはご相談下さい（改行）365日対応"
  },
  {
    "id": "1471906980",
    "name": "ホームヘルプ青い鳥",
    "kana": "ホームヘルプアオイトリ",
    "address": "神奈川県横須賀市追浜東町３‐６４ハイツ丸山　1Ｆ ハイツ丸山　1Ｆ",
    "lat": 35.3169557,
    "lng": 139.6318003,
    "tel": "046-874-5944",
    "url": "https://aoitori-yamanowa.co.jp/",
    "pref": "神奈川県",
    "city": "横須賀市",
    "category": "home_help",
    "serviceType": "訪問介護",
    "capacity": null,
    "openDays": [
      "平日",
      "土曜日",
      "日曜日",
      "祝日"
    ],
    "openDaysNote": "電話等により、常時連絡が可能な体制となってます。"
  },
  {
    "id": "1471903169",
    "name": "マイライフ介護サービス",
    "kana": "マイライフカイゴサ－ビス",
    "address": "神奈川県横須賀市小川町28-1横須賀ハイム206 横須賀ハイム206",
    "lat": 35.2834632,
    "lng": 139.6737004,
    "tel": "046-829-1217",
    "url": "",
    "pref": "神奈川県",
    "city": "横須賀市",
    "category": "home_help",
    "serviceType": "訪問介護",
    "capacity": 0,
    "openDays": [
      "平日",
      "土曜日"
    ],
    "openDaysNote": "土曜日は第１週及び第３週は営業日（改行）年末年始（12/29～1/3）は休業"
  },
  {
    "id": "1471901056",
    "name": "みうら",
    "kana": "ミウラ",
    "address": "神奈川県横須賀市荻野9-13",
    "lat": 35.225945408502,
    "lng": 139.629017558786,
    "tel": "046-856-7659",
    "url": "http://www.miura.or.jp",
    "pref": "神奈川県",
    "city": "横須賀市",
    "category": "home_help",
    "serviceType": "訪問介護",
    "capacity": 0,
    "openDays": [
      "平日",
      "土曜日"
    ],
    "openDaysNote": "時間外や休日もヘルパーは稼働していますので、ご希望のある方はご相談ください。但し、ご希望に添えない場合もございますことをご了承ください。"
  },
  {
    "id": "1471901833",
    "name": "みさとの家",
    "kana": "ミサトノイエ",
    "address": "神奈川県横須賀市東逸見町4-36-1",
    "lat": 35.2723211776054,
    "lng": 139.646950779762,
    "tel": "046-821-5325",
    "url": "",
    "pref": "神奈川県",
    "city": "横須賀市",
    "category": "home_help",
    "serviceType": "訪問介護",
    "capacity": 0,
    "openDays": [
      "平日",
      "土曜日",
      "日曜日",
      "祝日"
    ],
    "openDaysNote": "サービス提供時間は、年中無休24時間体制とさせて頂きます。"
  },
  {
    "id": "1471907624",
    "name": "ミモザヘルパーステーション横須賀",
    "kana": "ミモザヘルパーステーションヨコスカ",
    "address": "神奈川県横須賀市追浜本町1－65－5ヤマザキハイツ101 ヤマザキハイツ101",
    "lat": 35.3182888,
    "lng": 139.6268499,
    "tel": "046－874-7527",
    "url": "https://mimoza-care.com/facility/home-visit-care/post-5374/",
    "pref": "神奈川県",
    "city": "横須賀市",
    "category": "home_help",
    "serviceType": "訪問介護",
    "capacity": 0,
    "openDays": [
      "平日",
      "土曜日",
      "日曜日",
      "祝日"
    ],
    "openDaysNote": "365日営業しています。"
  },
  {
    "id": "1471906469",
    "name": "ミモザヘルパーステーション久里浜",
    "kana": "ミモザヘルパーステーションクリハマ",
    "address": "神奈川県横須賀市森崎1-6-8MMAサンハイム101号室 MMAサンハイム101号室",
    "lat": 35.249253629553,
    "lng": 139.682352557761,
    "tel": "046-874-5811",
    "url": "https://mimoza-care.com/facility/home-visit-care/post-764/",
    "pref": "神奈川県",
    "city": "横須賀市",
    "category": "home_help",
    "serviceType": "訪問介護",
    "capacity": 0,
    "openDays": [
      "平日",
      "土曜日",
      "日曜日",
      "祝日"
    ],
    "openDaysNote": "営業時間以外の時間は応相談"
  },
  {
    "id": "1471907806",
    "name": "ミントケアサポート横須賀",
    "kana": "ミントケアサポートヨコスカ",
    "address": "神奈川県横須賀市日の出町3-12小柴ビル1F 小柴ビル1F",
    "lat": 35.2752782,
    "lng": 139.6779615,
    "tel": "050-1750-0370",
    "url": "",
    "pref": "神奈川県",
    "city": "横須賀市",
    "category": "home_help",
    "serviceType": "訪問介護",
    "capacity": null,
    "openDays": [
      "平日",
      "土曜日",
      "日曜日",
      "祝日"
    ],
    "openDaysNote": ""
  },
  {
    "id": "1471906550",
    "name": "やさしい手　横須賀訪問介護事業所",
    "kana": "ヤサシイテ　ヨコスカホウモンカイゴジギョウショ",
    "address": "神奈川県横須賀市日の出町１－７",
    "lat": 35.2795475764527,
    "lng": 139.674662077534,
    "tel": "050‐1752‐0258",
    "url": "http://www.yasashiite.com",
    "pref": "神奈川県",
    "city": "横須賀市",
    "category": "home_help",
    "serviceType": "訪問介護",
    "capacity": null,
    "openDays": [
      "平日",
      "土曜日",
      "日曜日",
      "祝日"
    ],
    "openDaysNote": ""
  },
  {
    "id": "1471900033",
    "name": "よこすかヘルパーステーション",
    "kana": "ヨコスカヘルパーステーション",
    "address": "神奈川県横須賀市三春町二丁目１２番地三春コミュニティセンター内 三春コミュニティセンター内",
    "lat": 35.2669725,
    "lng": 139.6855711,
    "tel": "046-828-4488",
    "url": "http://yokosuka-kfz.or.jp/kaigo/",
    "pref": "神奈川県",
    "city": "横須賀市",
    "category": "home_help",
    "serviceType": "訪問介護",
    "capacity": 0,
    "openDays": [
      "平日",
      "土曜日",
      "日曜日",
      "祝日"
    ],
    "openDaysNote": "相談により、上記時間以外の対応もしております。"
  },
  {
    "id": "1471905958",
    "name": "ライフコート湘南野比さくらんぼ",
    "kana": "ライフコートショウナンノビサクランボ",
    "address": "神奈川県横須賀市長沢6-7-1ライフコート湘南野比住宅型有料老人ホームさくらんぼ ライフコート湘南野比住宅型有料老人ホームさくらんぼ",
    "lat": 35.2161147,
    "lng": 139.6818192,
    "tel": "046-840-1051",
    "url": "http://www.care-sakuranbo.jp/facilities/shonannobi/",
    "pref": "神奈川県",
    "city": "横須賀市",
    "category": "home_help",
    "serviceType": "訪問介護",
    "capacity": 60,
    "openDays": [
      "平日",
      "土曜日",
      "日曜日",
      "祝日"
    ],
    "openDaysNote": "24時間対応"
  },
  {
    "id": "1471901288",
    "name": "ライフサポートみとみ",
    "kana": "ライフサポート　ミトミ",
    "address": "神奈川県横須賀市久里浜3-32-9エクセルつくし乃１０６ エクセルつくし乃１０６",
    "lat": 35.2269744,
    "lng": 139.6952455,
    "tel": "046-833-1838",
    "url": "http://www.mitomigroup.com/service.html",
    "pref": "神奈川県",
    "city": "横須賀市",
    "category": "home_help",
    "serviceType": "訪問介護",
    "capacity": 0,
    "openDays": [
      "平日"
    ],
    "openDaysNote": "年始（１/１～１/3)休業　必要に応じ要相談"
  },
  {
    "id": "1471906295",
    "name": "りんく介護事業所",
    "kana": "リンクカイゴジギョウショ",
    "address": "神奈川県横須賀市若松町3-9プライムレーベル横須賀中央3階 プライムレーベル横須賀中央3階",
    "lat": 35.2786442,
    "lng": 139.6725531,
    "tel": "046-874-4314",
    "url": "http://hp.kaipoke.biz/3ch/98441/index_0003.html",
    "pref": "神奈川県",
    "city": "横須賀市",
    "category": "home_help",
    "serviceType": "訪問介護",
    "capacity": 70,
    "openDays": [
      "平日",
      "土曜日",
      "日曜日",
      "祝日"
    ],
    "openDaysNote": ""
  },
  {
    "id": "1471901676",
    "name": "衣笠病院長瀬ケアセンター",
    "kana": "キヌガサビョウインナガセケアセンター",
    "address": "神奈川県横須賀市長瀬３－６－２",
    "lat": 35.227938,
    "lng": 139.7233042,
    "tel": "046-843-3184",
    "url": "https://www.kinugasa.or.jp/care-center/homecare02",
    "pref": "神奈川県",
    "city": "横須賀市",
    "category": "home_help",
    "serviceType": "訪問介護",
    "capacity": 0,
    "openDays": [
      "平日",
      "土曜日"
    ],
    "openDaysNote": "上記の時間は目安であり、他の時間帯でも相談に応じています。（改行）日曜・祝日は原則休業ですが、必要に応じてサービス提供を行なっています。"
  },
  {
    "id": "1471901577",
    "name": "横須賀老人ホーム　かなえる訪問介護",
    "kana": "ヨコスカロウジンホーム　カナエルホウモンカイゴ",
    "address": "神奈川県横須賀市野比５－５－６",
    "lat": 35.2120009,
    "lng": 139.7066811,
    "tel": "046-839-2738",
    "url": "http://www.kanagawa-swc.com/yokosuka/project/#prj03",
    "pref": "神奈川県",
    "city": "横須賀市",
    "category": "home_help",
    "serviceType": "訪問介護",
    "capacity": 0,
    "openDays": [
      "平日",
      "土曜日",
      "日曜日",
      "祝日"
    ],
    "openDaysNote": "上記以外のサービス時間は相談を承ります。"
  },
  {
    "id": "1471903920",
    "name": "介護センター鈴鈴",
    "kana": "カイゴセンターリンリン",
    "address": "神奈川県横須賀市平作5-10-16",
    "lat": 35.2571047,
    "lng": 139.6476829,
    "tel": "046-876-5331",
    "url": "",
    "pref": "神奈川県",
    "city": "横須賀市",
    "category": "home_help",
    "serviceType": "訪問介護",
    "capacity": 0,
    "openDays": [
      "平日",
      "土曜日",
      "日曜日",
      "祝日"
    ],
    "openDaysNote": "サービスは24時間365日対応いたします。土日、年末年始は応相談"
  },
  {
    "id": "1471907160",
    "name": "株式会社　ヒルック",
    "kana": "カブシキガイシャ　ヒルック",
    "address": "神奈川県横須賀市佐原1-11-4",
    "lat": 35.2404347,
    "lng": 139.6789143,
    "tel": "046-887-0124",
    "url": "",
    "pref": "神奈川県",
    "city": "横須賀市",
    "category": "home_help",
    "serviceType": "訪問介護",
    "capacity": 0,
    "openDays": [
      "平日",
      "土曜日",
      "日曜日",
      "祝日"
    ],
    "openDaysNote": ""
  },
  {
    "id": "1471902666",
    "name": "株式会社　総合福祉協会",
    "kana": "カブシキガイシャソウゴウフクシキョウカイ",
    "address": "神奈川県横須賀市津久井4-21-8",
    "lat": 35.1955112,
    "lng": 139.6628792,
    "tel": "046-839-2351",
    "url": "http://care-net.biz/14/aikana-reharesort/b11.php",
    "pref": "神奈川県",
    "city": "横須賀市",
    "category": "home_help",
    "serviceType": "訪問介護",
    "capacity": 59,
    "openDays": [
      "平日",
      "土曜日",
      "日曜日",
      "祝日"
    ],
    "openDaysNote": "365日・24時間対応。"
  },
  {
    "id": "1471904282",
    "name": "株式会社ぴーすけあ・ホームヘルプセンター",
    "kana": "カブシキガイシャピースケア・ホームヘルプセンター",
    "address": "神奈川県横須賀市根岸町3-14-25グレイス5　101・102号 グレイス5　101・102号",
    "lat": 35.2509989420857,
    "lng": 139.682405236515,
    "tel": "046-874-5237",
    "url": "https://peacecare.net",
    "pref": "神奈川県",
    "city": "横須賀市",
    "category": "home_help",
    "serviceType": "訪問介護",
    "capacity": 10,
    "openDays": [
      "平日",
      "土曜日",
      "日曜日",
      "祝日"
    ],
    "openDaysNote": "＊時間外は応相談"
  },
  {
    "id": "1471900942",
    "name": "共楽荘訪問介護福祉サービスセンター",
    "kana": "キョウラクソウホウモンカイゴフクシサービスセンター",
    "address": "神奈川県横須賀市衣笠栄町4-14",
    "lat": 35.2637375,
    "lng": 139.6559627,
    "tel": "046-851-1904",
    "url": "https://kyourakusou.jp/",
    "pref": "神奈川県",
    "city": "横須賀市",
    "category": "home_help",
    "serviceType": "訪問介護",
    "capacity": 0,
    "openDays": [
      "平日",
      "土曜日"
    ],
    "openDaysNote": "12月30日～1月3日までは年末年始休業"
  },
  {
    "id": "1471902146",
    "name": "在宅ケアセンター陽だまり",
    "kana": "ザイタクケアセンターヒダマリ",
    "address": "神奈川県横須賀市三春町１－２２青木ビル２０１ 青木ビル２０１",
    "lat": 35.2682475670699,
    "lng": 139.682254893883,
    "tel": "046-828-3550",
    "url": "",
    "pref": "神奈川県",
    "city": "横須賀市",
    "category": "home_help",
    "serviceType": "訪問介護",
    "capacity": 0,
    "openDays": [
      "平日",
      "土曜日",
      "日曜日",
      "祝日"
    ],
    "openDaysNote": "２４時間営業"
  },
  {
    "id": "1471907764",
    "name": "若武者ケア　横須賀事業所",
    "kana": "ワカムシャケア　ヨコスカジギョウショ",
    "address": "神奈川県横須賀市深田台83-1　センテナリオK　1階",
    "lat": 35.2718755,
    "lng": 139.6731941,
    "tel": "046-823-9192",
    "url": "https://www.kimurakaigo.co.jp/home",
    "pref": "神奈川県",
    "city": "横須賀市",
    "category": "home_help",
    "serviceType": "訪問介護",
    "capacity": 110,
    "openDays": [
      "平日",
      "土曜日",
      "日曜日",
      "祝日"
    ],
    "openDaysNote": "年末年始(12/29-1/3)休業（改行）土曜・日曜応相談"
  },
  {
    "id": "1471907772",
    "name": "若武者ケア　横須賀南事業所",
    "kana": "ワカムシャケア　ヨコスカミナミジギョウショ",
    "address": "神奈川県横須賀市岩戸３－３８－４第一ベストビル２階 第一ベストビル２階",
    "lat": 35.2332903073811,
    "lng": 139.672226486508,
    "tel": "046-874-8968",
    "url": "https://www.kimurakaigo.co.jp/",
    "pref": "神奈川県",
    "city": "横須賀市",
    "category": "home_help",
    "serviceType": "訪問介護",
    "capacity": 0,
    "openDays": [
      "平日",
      "土曜日",
      "日曜日",
      "祝日"
    ],
    "openDaysNote": ""
  },
  {
    "id": "1471905032",
    "name": "十愛",
    "kana": "トアイ",
    "address": "神奈川県横須賀市光風台35-19",
    "lat": 35.2389703,
    "lng": 139.7130409,
    "tel": "046-841-5005",
    "url": "",
    "pref": "神奈川県",
    "city": "横須賀市",
    "category": "home_help",
    "serviceType": "訪問介護",
    "capacity": 0,
    "openDays": [
      "平日",
      "土曜日",
      "日曜日",
      "祝日"
    ],
    "openDaysNote": "２４時間電話対応あり"
  },
  {
    "id": "1471907434",
    "name": "湘南グリーン訪問介護事業所",
    "kana": "ショウナングリーンホウモンカイゴジギョウショ",
    "address": "神奈川県横須賀市大矢部５－１２－７西城ビル３Ｆ 西城ビル３Ｆ",
    "lat": 35.2400364,
    "lng": 139.6708014,
    "tel": "046-838-0358",
    "url": "",
    "pref": "神奈川県",
    "city": "横須賀市",
    "category": "home_help",
    "serviceType": "訪問介護",
    "capacity": null,
    "openDays": [
      "平日",
      "土曜日",
      "日曜日",
      "祝日"
    ],
    "openDaysNote": "24時間対応"
  },
  {
    "id": "1471900439",
    "name": "湘南ケアセンター　ホームヘルプ事業所",
    "kana": "ショウナンケアセンター　ホームヘルプジギョウショ",
    "address": "神奈川県横須賀市追浜本町1-28-5サンビーチ追浜4階 サンビーチ追浜4階",
    "lat": 35.3160412,
    "lng": 139.6260414,
    "tel": "046-869-0864",
    "url": "http://www.shonanhp.or.jp/h/facility.php",
    "pref": "神奈川県",
    "city": "横須賀市",
    "category": "home_help",
    "serviceType": "訪問介護",
    "capacity": 0,
    "openDays": [
      "平日",
      "土曜日",
      "日曜日",
      "祝日"
    ],
    "openDaysNote": "要望があれば、個々に対応します。"
  },
  {
    "id": "1471906279",
    "name": "笑がおの訪問介護ステーション",
    "kana": "エガオノホウモンカイゴステーション",
    "address": "神奈川県横須賀市衣笠町44-5はなことば横須賀衣笠内 はなことば横須賀衣笠内",
    "lat": 35.237401,
    "lng": 139.6608345,
    "tel": "046-838-6116",
    "url": "https://www.hanakotoba.co.jp/facility/kinugasa.html",
    "pref": "神奈川県",
    "city": "横須賀市",
    "category": "home_help",
    "serviceType": "訪問介護",
    "capacity": 0,
    "openDays": [
      "平日",
      "土曜日",
      "日曜日",
      "祝日"
    ],
    "openDaysNote": "サービス提供時間は24時間"
  },
  {
    "id": "1471906733",
    "name": "真愛ケアセンター",
    "kana": "マアイケアセンター",
    "address": "神奈川県横須賀市二葉2-10-3",
    "lat": 35.247573,
    "lng": 139.7225542,
    "tel": "046-895-1900",
    "url": "https://maai-care.com",
    "pref": "神奈川県",
    "city": "横須賀市",
    "category": "home_help",
    "serviceType": "訪問介護",
    "capacity": null,
    "openDays": [
      "平日",
      "土曜日",
      "日曜日",
      "祝日"
    ],
    "openDaysNote": "年中無休　　電話：２４時間対応可"
  },
  {
    "id": "1471901890",
    "name": "聖ヨゼフヘルパーステーション",
    "kana": "セイヨゼフヘルパーステーション",
    "address": "神奈川県横須賀市緑が丘28",
    "lat": 35.2810969,
    "lng": 139.6672926,
    "tel": "046-822-2195",
    "url": "https://www.j-helpst-joseph.jp",
    "pref": "神奈川県",
    "city": "横須賀市",
    "category": "home_help",
    "serviceType": "訪問介護",
    "capacity": 0,
    "openDays": [
      "平日",
      "土曜日",
      "日曜日",
      "祝日"
    ],
    "openDaysNote": "1/1～1/3休み"
  },
  {
    "id": "1471900991",
    "name": "聖隷ヘルパーステーション横須賀",
    "kana": "セイレイヘルパーステーションヨコスカ",
    "address": "神奈川県横須賀市武3-39-1",
    "lat": 35.2207586,
    "lng": 139.6487217,
    "tel": "046-855-0873",
    "url": "http://www.seirei.or.jp/hq/facility/home/helper/yokosuka/index.html",
    "pref": "神奈川県",
    "city": "横須賀市",
    "category": "home_help",
    "serviceType": "訪問介護",
    "capacity": 0,
    "openDays": [
      "平日",
      "土曜日",
      "日曜日",
      "祝日"
    ],
    "openDaysNote": "その他の時間帯は応相談"
  },
  {
    "id": "1471906097",
    "name": "太陽の家　浦賀ケアステーション",
    "kana": "タイヨウノイエ　ウラガケアステーション",
    "address": "神奈川県横須賀市浦賀2-3-20",
    "lat": 35.2538119422695,
    "lng": 139.708219597003,
    "tel": "046-854-9315",
    "url": "http://www.ui21.or.jp/shisetsu/11-uraga/",
    "pref": "神奈川県",
    "city": "横須賀市",
    "category": "home_help",
    "serviceType": "訪問介護",
    "capacity": 0,
    "openDays": [
      "平日",
      "土曜日",
      "日曜日",
      "祝日"
    ],
    "openDaysNote": "24時間電話対応可能"
  },
  {
    "id": "1471906501",
    "name": "津久井浜ケアセンター訪問介護",
    "kana": "ツクイハマケアセンターホウモンカイゴ",
    "address": "神奈川県横須賀市津久井1丁目2番3号",
    "lat": 35.1961612,
    "lng": 139.6672706,
    "tel": "070-4430-9959",
    "url": "",
    "pref": "神奈川県",
    "city": "横須賀市",
    "category": "home_help",
    "serviceType": "訪問介護",
    "capacity": 40,
    "openDays": [
      "平日",
      "土曜日",
      "祝日"
    ],
    "openDaysNote": "日曜日は定休。祝日もサービスは提供。（改行）12/30から1/3まで年末年始休業。（改行）ただし、利用者の希望に応じてサービスの提供については柔軟に対応可能な体制を整えるものとする。"
  },
  {
    "id": "1471903417",
    "name": "特定非営利活動法人　くろふね",
    "kana": "トクテイヒエイリカツドウホウジン　クロフネ",
    "address": "神奈川県横須賀市汐入町２－１０半蔵ビル 半蔵ビル",
    "lat": 35.2813760746679,
    "lng": 139.660240974869,
    "tel": "046-828-4465",
    "url": "",
    "pref": "神奈川県",
    "city": "横須賀市",
    "category": "home_help",
    "serviceType": "訪問介護",
    "capacity": 0,
    "openDays": [
      "平日",
      "土曜日",
      "日曜日",
      "祝日"
    ],
    "openDaysNote": "営業時間外は、常時連絡が取れる体制で、利用者の状況によって対応する。"
  },
  {
    "id": "1471907152",
    "name": "特定非営利活動法人アシストワン",
    "kana": "トクテイヒエイリカツドウホウジンアシストワン",
    "address": "神奈川県横須賀市鴨居３丁目１７－９高橋テラスハウス１０１ 高橋テラスハウス１０１",
    "lat": 35.2497388602299,
    "lng": 139.737317390989,
    "tel": "046-803-4971",
    "url": "http://assistone.site-station.net/",
    "pref": "神奈川県",
    "city": "横須賀市",
    "category": "home_help",
    "serviceType": "訪問介護",
    "capacity": 0,
    "openDays": [
      "平日",
      "土曜日",
      "日曜日",
      "祝日"
    ],
    "openDaysNote": "365日対応"
  },
  {
    "id": "1471906337",
    "name": "特定非営利活動法人かもめケアサポート",
    "kana": "トクテイヒエイリカツドウホウジンカモメケアサポート",
    "address": "神奈川県横須賀市追浜東町2丁目33-6ルネ追浜Ⅱ-315 ルネ追浜Ⅱ-315",
    "lat": 35.3132393635456,
    "lng": 139.6336375864,
    "tel": "046-866-6661",
    "url": "",
    "pref": "神奈川県",
    "city": "横須賀市",
    "category": "home_help",
    "serviceType": "訪問介護",
    "capacity": 0,
    "openDays": [
      "平日",
      "土曜日",
      "祝日"
    ],
    "openDaysNote": ""
  },
  {
    "id": "1471901825",
    "name": "福祉の森　湘南",
    "kana": "フクシノモリ　ショウナン",
    "address": "神奈川県横須賀市田戸台87-3",
    "lat": 35.2687143,
    "lng": 139.6763609,
    "tel": "046-820-2411",
    "url": "",
    "pref": "神奈川県",
    "city": "横須賀市",
    "category": "home_help",
    "serviceType": "訪問介護",
    "capacity": 0,
    "openDays": [
      "平日",
      "土曜日",
      "祝日"
    ],
    "openDaysNote": "日曜日定休、その他の時間帯については、状況を踏まえた上で応相談"
  },
  {
    "id": "1471907574",
    "name": "訪問・移動支援事業所みんなのうせい",
    "kana": "ホウモン・イドウシエンジギョウショミンナノウセイ",
    "address": "神奈川県横須賀市久里浜5－2－7ﾗｲｵﾝｽﾞﾌﾟﾗｻﾞ久里浜102 ﾗｲｵﾝｽﾞﾌﾟﾗｻﾞ久里浜102",
    "lat": 35.2303987,
    "lng": 139.7058315,
    "tel": "080-4107-5388",
    "url": "",
    "pref": "神奈川県",
    "city": "横須賀市",
    "category": "home_help",
    "serviceType": "訪問介護",
    "capacity": 0,
    "openDays": [
      "平日",
      "土曜日",
      "日曜日",
      "祝日"
    ],
    "openDaysNote": "24時間電話対応（改行）年中無休"
  },
  {
    "id": "1471907103",
    "name": "訪問介護　HACHITOH",
    "kana": "ホウモンカイゴ　ハチトウ",
    "address": "神奈川県横須賀市田浦町3-7コーポイシカワ104号 コーポイシカワ104号",
    "lat": 35.2924305,
    "lng": 139.632637,
    "tel": "046-890-4153",
    "url": "",
    "pref": "神奈川県",
    "city": "横須賀市",
    "category": "home_help",
    "serviceType": "訪問介護",
    "capacity": 0,
    "openDays": [
      "平日",
      "土曜日"
    ],
    "openDaysNote": ""
  },
  {
    "id": "1471907616",
    "name": "訪問介護　いばしょ",
    "kana": "ホウモンカイゴ　イバショ",
    "address": "神奈川県横須賀市長沢2-10-36",
    "lat": 35.206001,
    "lng": 139.6782564,
    "tel": "046-849-1606",
    "url": "https://unaito.com/",
    "pref": "神奈川県",
    "city": "横須賀市",
    "category": "home_help",
    "serviceType": "訪問介護",
    "capacity": 0,
    "openDays": [
      "平日",
      "土曜日",
      "日曜日",
      "祝日"
    ],
    "openDaysNote": "サービス時間外は応相談とする。"
  },
  {
    "id": "1471901940",
    "name": "訪問介護　さんふらわぁ",
    "kana": "ホウモンカイゴ　サンフラワァ",
    "address": "神奈川県横須賀市野比3-10-21",
    "lat": 35.2127372,
    "lng": 139.6918629,
    "tel": "046-839-2115",
    "url": "https://www.tsugai2003.com",
    "pref": "神奈川県",
    "city": "横須賀市",
    "category": "home_help",
    "serviceType": "訪問介護",
    "capacity": 0,
    "openDays": [
      "平日",
      "土曜日",
      "祝日"
    ],
    "openDaysNote": ""
  },
  {
    "id": "1471907004",
    "name": "訪問介護　すずの音",
    "kana": "ホウモンカイゴ　スズノネ",
    "address": "神奈川県横須賀市津久井4-1-21パーシモンハウス24 パーシモンハウス24",
    "lat": 35.199803,
    "lng": 139.6659774,
    "tel": "046-849-5541",
    "url": "https://www.suzu-ne.net/",
    "pref": "神奈川県",
    "city": "横須賀市",
    "category": "home_help",
    "serviceType": "訪問介護",
    "capacity": 0,
    "openDays": [
      "平日",
      "土曜日",
      "日曜日",
      "祝日"
    ],
    "openDaysNote": "24時間電話対応可能"
  },
  {
    "id": "1471907319",
    "name": "訪問介護　りぼん",
    "kana": "ホウモンカイゴ　リボン",
    "address": "神奈川県横須賀市長井5-14-2",
    "lat": 35.2043559,
    "lng": 139.6152177,
    "tel": "046-802-8065",
    "url": "",
    "pref": "神奈川県",
    "city": "横須賀市",
    "category": "home_help",
    "serviceType": "訪問介護",
    "capacity": 0,
    "openDays": [
      "平日",
      "土曜日",
      "日曜日",
      "祝日"
    ],
    "openDaysNote": "時間外は応相談（改行）24時間常時連絡可"
  },
  {
    "id": "1471903433",
    "name": "訪問介護のぞみ",
    "kana": "ホウモンカイゴノゾミ",
    "address": "神奈川県横須賀市長坂2-9-36赤羽ビル２F 赤羽ビル２F",
    "lat": 35.228590883643,
    "lng": 139.620831100085,
    "tel": "046-874-6763",
    "url": "http://www.regiol.co.jp",
    "pref": "神奈川県",
    "city": "横須賀市",
    "category": "home_help",
    "serviceType": "訪問介護",
    "capacity": 0,
    "openDays": [
      "平日",
      "土曜日",
      "日曜日",
      "祝日"
    ],
    "openDaysNote": "24時間対応"
  },
  {
    "id": "1471907327",
    "name": "訪問介護事業所　ありがとう",
    "kana": "ホウモンカイゴジギョウショ　アリガトウ",
    "address": "神奈川県横須賀市武3丁目2－12ー2F",
    "lat": 35.2261987,
    "lng": 139.6487016,
    "tel": "046-874-8364",
    "url": "https://rwiz-jp.com/recruiting",
    "pref": "神奈川県",
    "city": "横須賀市",
    "category": "home_help",
    "serviceType": "訪問介護",
    "capacity": 0,
    "openDays": [
      "平日",
      "土曜日",
      "日曜日",
      "祝日"
    ],
    "openDaysNote": "電話等により24時間常時連絡が可能な体制をしています。"
  },
  {
    "id": "1471901726",
    "name": "有限会社　グループライフサービス",
    "kana": "ユウゲンガイシャ　グループライフサービス",
    "address": "神奈川県横須賀市久村４７１101 101",
    "lat": 35.2314989,
    "lng": 139.6924068,
    "tel": "046-830-5153",
    "url": "https://www.grouplife.co.jp",
    "pref": "神奈川県",
    "city": "横須賀市",
    "category": "home_help",
    "serviceType": "訪問介護",
    "capacity": 0,
    "openDays": [
      "平日",
      "土曜日",
      "日曜日",
      "祝日"
    ],
    "openDaysNote": "時間外は応相談"
  },
  {
    "id": "1471901221",
    "name": "有限会社　伸栄介護サービス",
    "kana": "ユウゲンガイシャ　シンエイカイゴサ－ビス",
    "address": "神奈川県横須賀市長坂3-5-1",
    "lat": 35.2242492232249,
    "lng": 139.628354681754,
    "tel": "046-857-6240",
    "url": "",
    "pref": "神奈川県",
    "city": "横須賀市",
    "category": "home_help",
    "serviceType": "訪問介護",
    "capacity": 0,
    "openDays": [
      "平日",
      "土曜日",
      "日曜日",
      "祝日"
    ],
    "openDaysNote": "24時間対応"
  },
  {
    "id": "1473202966",
    "name": "A-Smile二俣川",
    "kana": "エースマイルフタマタガワ",
    "address": "神奈川県横浜市旭区二俣川1-4-3MISONOGarden301 MISONOGarden301",
    "lat": 35.4628628,
    "lng": 139.5349375,
    "tel": "045-459-6416",
    "url": "https://akarie.co.jp/",
    "pref": "神奈川県",
    "city": "横浜市旭区",
    "category": "home_help",
    "serviceType": "訪問介護",
    "capacity": 40,
    "openDays": [
      "平日",
      "土曜日",
      "日曜日",
      "祝日"
    ],
    "openDaysNote": "年末年始については、個別で対応させて頂いております。"
  },
  {
    "id": "1473203261",
    "name": "ＳＯＭＰＯケア　横浜希望が丘　訪問介護",
    "kana": "ソンポケア　ヨコハマキボウガオカ　ホウモンカイゴ",
    "address": "神奈川県横浜市旭区南希望が丘６８三輪ビル　1階1号室 三輪ビル　1階1号室",
    "lat": 35.4532802666348,
    "lng": 139.514143025429,
    "tel": "045-360-1808",
    "url": "https://www.sompocare.com/service/zaitaku/kaigo/Z000176?service=kaigo",
    "pref": "神奈川県",
    "city": "横浜市旭区",
    "category": "home_help",
    "serviceType": "訪問介護",
    "capacity": 0,
    "openDays": [
      "平日",
      "土曜日",
      "日曜日",
      "祝日"
    ],
    "openDaysNote": "原則として居宅サービス計画に基づくものとします。24時間対応。"
  },
  {
    "id": "1473203410",
    "name": "アクア　二俣川",
    "kana": "アクアフタマタガワ",
    "address": "神奈川県横浜市旭区本宿町110-1アベニエル内田105 アベニエル内田105",
    "lat": 35.4643552,
    "lng": 139.5383718,
    "tel": "045-360-7115",
    "url": "https://www.aqua-andante.com/",
    "pref": "神奈川県",
    "city": "横浜市旭区",
    "category": "home_help",
    "serviceType": "訪問介護",
    "capacity": 10,
    "openDays": [
      "平日",
      "土曜日",
      "日曜日",
      "祝日"
    ],
    "openDaysNote": "24時間対応"
  },
  {
    "id": "1473203402",
    "name": "あさぞら",
    "kana": "アサゾラ",
    "address": "神奈川県横浜市旭区鶴ヶ峰２－９－９第２大幸ビル１階コーポヤマミ103 コーポヤマミ103",
    "lat": 35.4779959989959,
    "lng": 139.548469094968,
    "tel": "045-744-7436",
    "url": "http://aobanoniji.com/",
    "pref": "神奈川県",
    "city": "横浜市旭区",
    "category": "home_help",
    "serviceType": "訪問介護",
    "capacity": 0,
    "openDays": [
      "平日",
      "土曜日",
      "日曜日",
      "祝日"
    ],
    "openDaysNote": ""
  },
  {
    "id": "1473200770",
    "name": "あっぷる旭ケアステーション",
    "kana": "アップルアサヒケアステーション",
    "address": "神奈川県横浜市旭区鶴ヶ峰本町1－26－13カームヒルズ2階 カームヒルズ2階",
    "lat": 35.4787887,
    "lng": 139.5378758,
    "tel": "045-952-5486",
    "url": "http://www.apple-kaigo.co.jp/",
    "pref": "神奈川県",
    "city": "横浜市旭区",
    "category": "home_help",
    "serviceType": "訪問介護",
    "capacity": 0,
    "openDays": [
      "平日",
      "土曜日",
      "日曜日",
      "祝日"
    ],
    "openDaysNote": "必要に応じ8時00分～20時00分まで対応可"
  },
  {
    "id": "1473202206",
    "name": "エスケアステーション旭　訪問介護",
    "kana": "エスケアステーションアサヒホウモンカイゴ",
    "address": "神奈川県横浜市旭区善部町28-4マルニビル2Ｆ マルニビル2Ｆ",
    "lat": 35.449845,
    "lng": 139.5137976,
    "tel": "045-444-9126",
    "url": "http://www.s-caremate.co.jp",
    "pref": "神奈川県",
    "city": "横浜市旭区",
    "category": "home_help",
    "serviceType": "訪問介護",
    "capacity": 100,
    "openDays": [
      "平日",
      "土曜日",
      "祝日"
    ],
    "openDaysNote": "年末年始（12月30日～1月3日まで）はお休みをいただいていますが、電話等により連絡可能な体制をとっています。"
  },
  {
    "id": "1473203287",
    "name": "グランダ二俣川ケアステーション",
    "kana": "グランダフタマタガワケアステーション",
    "address": "神奈川県横浜市旭区中沢2-2-1",
    "lat": 35.4698848644403,
    "lng": 139.525842114156,
    "tel": "045-360-0551",
    "url": "http://www.benesse-style-care.co.jp/",
    "pref": "神奈川県",
    "city": "横浜市旭区",
    "category": "home_help",
    "serviceType": "訪問介護",
    "capacity": 0,
    "openDays": [
      "平日",
      "土曜日",
      "日曜日",
      "祝日"
    ],
    "openDaysNote": "上記時間外においても必要に応じて対応します。"
  },
  {
    "id": "1473200754",
    "name": "ケアサービスマドリッド",
    "kana": "ケアサービスマドリッド",
    "address": "神奈川県横浜市旭区南希望が丘77",
    "lat": 35.4544166,
    "lng": 139.5140087,
    "tel": "045-364-8439",
    "url": "",
    "pref": "神奈川県",
    "city": "横浜市旭区",
    "category": "home_help",
    "serviceType": "訪問介護",
    "capacity": 0,
    "openDays": [
      "平日",
      "土曜日"
    ],
    "openDaysNote": "日・祝・年末年始は休業いたします。"
  },
  {
    "id": "1473203238",
    "name": "けいあいの杜",
    "kana": "ケイアイノモリ",
    "address": "神奈川県横浜市旭区中希望が丘25-1CASA希望ヶ丘 CASA希望ヶ丘",
    "lat": 35.4600048,
    "lng": 139.5175028,
    "tel": "045-489-5665",
    "url": "",
    "pref": "神奈川県",
    "city": "横浜市旭区",
    "category": "home_help",
    "serviceType": "訪問介護",
    "capacity": 0,
    "openDays": [
      "平日",
      "土曜日",
      "祝日"
    ],
    "openDaysNote": "12月29日～１月3日休み"
  },
  {
    "id": "1473201109",
    "name": "コープケアサポートセンター旭",
    "kana": "コープケアサポートセンターアサヒ",
    "address": "神奈川県横浜市旭区鶴ケ峰１－２５－９嶋田ビル２階 嶋田ビル２階",
    "lat": 35.4737313702697,
    "lng": 139.549012213492,
    "tel": "045-370-5252",
    "url": "http://www.ucoop.or.jp/",
    "pref": "神奈川県",
    "city": "横浜市旭区",
    "category": "home_help",
    "serviceType": "訪問介護",
    "capacity": 0,
    "openDays": [
      "平日",
      "土曜日",
      "日曜日",
      "祝日"
    ],
    "openDaysNote": ""
  },
  {
    "id": "1473200168",
    "name": "サークルケアトーケン",
    "kana": "サークルケアトーケン",
    "address": "神奈川県横浜市旭区上白根1-33-1",
    "lat": 35.48671,
    "lng": 139.5369979,
    "tel": "045-954-1234",
    "url": "http://www.token.yokohama/",
    "pref": "神奈川県",
    "city": "横浜市旭区",
    "category": "home_help",
    "serviceType": "訪問介護",
    "capacity": 0,
    "openDays": [
      "平日",
      "土曜日",
      "祝日"
    ],
    "openDaysNote": ""
  },
  {
    "id": "1473200556",
    "name": "さくら苑ヘルパーステーション",
    "kana": "サクラエンヘルパーステーション",
    "address": "神奈川県横浜市旭区笹野台1-1-22第一桜ビル1階 第一桜ビル1階",
    "lat": 35.4689899,
    "lng": 139.5041397,
    "tel": "045-369-4411",
    "url": "https://shuhokai.or.jp/office/asahi-ku/hh-sakuraen.php",
    "pref": "神奈川県",
    "city": "横浜市旭区",
    "category": "home_help",
    "serviceType": "訪問介護",
    "capacity": 0,
    "openDays": [
      "平日",
      "土曜日",
      "日曜日",
      "祝日"
    ],
    "openDaysNote": "地震、災害等により交通機関が停止した場合、道路が使用できない状態等が発生した場合、台風や荒天時、訪問担当者の緊急やむを得ない事情などにより、訪問できない場合があります。"
  },
  {
    "id": "1473203600",
    "name": "さんしゃいんケアサービス希望が丘",
    "kana": "サンシャインケアサービスキボウガオカ",
    "address": "神奈川県横浜市旭区中希望が丘１１６－１０",
    "lat": 35.4573279,
    "lng": 139.5130169,
    "tel": "045‐465-6658",
    "url": "https://sunshine-cs.com",
    "pref": "神奈川県",
    "city": "横浜市旭区",
    "category": "home_help",
    "serviceType": "訪問介護",
    "capacity": 0,
    "openDays": [
      "平日",
      "土曜日",
      "日曜日",
      "祝日"
    ],
    "openDaysNote": "年末年始休み"
  },
  {
    "id": "1473202537",
    "name": "しあわせ介護",
    "kana": "シアワセカイゴ",
    "address": "神奈川県横浜市旭区鶴ヶ峰二丁目５番地の６サンワⅡ　２０３号 サンワⅡ　２０３号",
    "lat": 35.4762834,
    "lng": 139.5448031,
    "tel": "045-744-8881",
    "url": "http://www.happycare.jp/",
    "pref": "神奈川県",
    "city": "横浜市旭区",
    "category": "home_help",
    "serviceType": "訪問介護",
    "capacity": 0,
    "openDays": [
      "平日",
      "土曜日",
      "日曜日",
      "祝日"
    ],
    "openDaysNote": "12月29日～1月3日　年末年始休み"
  },
  {
    "id": "1473203733",
    "name": "すずかぜヘルパーステーション　あさひ",
    "kana": "スズカゼヘルパーステーション　アサヒ",
    "address": "神奈川県横浜市旭区東希望が丘100-19加瀬ビル191-401 加瀬ビル191-401",
    "lat": 35.4607694,
    "lng": 139.5156098,
    "tel": "045-442-3940",
    "url": "https://suzukaze-yokohama.jp/",
    "pref": "神奈川県",
    "city": "横浜市旭区",
    "category": "home_help",
    "serviceType": "訪問介護",
    "capacity": null,
    "openDays": [
      "平日",
      "土曜日",
      "日曜日",
      "祝日"
    ],
    "openDaysNote": "サービスの提供は月曜日から日曜日までとし、祝日もサービス提供する。（改行）時間外のサービス提供は相談に応じる。"
  },
  {
    "id": "1473203782",
    "name": "セントケアあさひ",
    "kana": "セントケアアサヒ",
    "address": "神奈川県横浜市旭区鶴ヶ峰本町1-2-17鶴ヶ峰井上ビル101号室 鶴ヶ峰井上ビル101号室",
    "lat": 35.4755330395383,
    "lng": 139.543934868161,
    "tel": "045-951-8850",
    "url": "",
    "pref": "神奈川県",
    "city": "横浜市旭区",
    "category": "home_help",
    "serviceType": "訪問介護",
    "capacity": 0,
    "openDays": [
      "平日",
      "土曜日",
      "祝日"
    ],
    "openDaysNote": "12/29～1/3　休み"
  },
  {
    "id": "1473200028",
    "name": "たすけあい　あさひ",
    "kana": "タスケアイ　アサヒ",
    "address": "神奈川県横浜市旭区四季美台28-1",
    "lat": 35.4737726,
    "lng": 139.5428533,
    "tel": "045-360-0131",
    "url": "http://tasukeaiasahi.or.jp",
    "pref": "神奈川県",
    "city": "横浜市旭区",
    "category": "home_help",
    "serviceType": "訪問介護",
    "capacity": 100,
    "openDays": [
      "平日",
      "土曜日",
      "日曜日",
      "祝日"
    ],
    "openDaysNote": "事業所営業時間外の派遣時の緊急対応ができる体制を作っています。"
  },
  {
    "id": "1473203519",
    "name": "ツクイ横浜希望が丘",
    "kana": "ツクイヨコハマキボウガオカ",
    "address": "神奈川県横浜市旭区中希望が丘130-12NMビル２階０２号室 NMビル２階０２号室",
    "lat": 35.4591158389603,
    "lng": 139.51410842046,
    "tel": "045-360-5253",
    "url": "https://www.tsukui.net",
    "pref": "神奈川県",
    "city": "横浜市旭区",
    "category": "home_help",
    "serviceType": "訪問介護",
    "capacity": 140,
    "openDays": [
      "平日",
      "土曜日",
      "日曜日",
      "祝日"
    ],
    "openDaysNote": "12/29～1/3は応相談"
  },
  {
    "id": "1473203196",
    "name": "つぼみ",
    "kana": "ツボミ",
    "address": "神奈川県横浜市旭区上川井町178ハイツコスモス107 ハイツコスモス107",
    "lat": 35.4959282255823,
    "lng": 139.506798484913,
    "tel": "045－489－7102",
    "url": "",
    "pref": "神奈川県",
    "city": "横浜市旭区",
    "category": "home_help",
    "serviceType": "訪問介護",
    "capacity": null,
    "openDays": [
      "平日",
      "土曜日",
      "祝日"
    ],
    "openDaysNote": "営業時間外でも応相談"
  },
  {
    "id": "1463290129",
    "name": "ナース＆ヘルパー訪問ステーション　れいんぼう",
    "kana": "ナースアンドヘルパーホウモンステーション　レインボウ",
    "address": "神奈川県横浜市旭区鶴ヶ峰1-54-3アドバンス203 アドバンス203",
    "lat": 35.4708634151218,
    "lng": 139.548756648254,
    "tel": "045-520-8544",
    "url": "",
    "pref": "神奈川県",
    "city": "横浜市旭区",
    "category": "home_help",
    "serviceType": "訪問介護",
    "capacity": 0,
    "openDays": [
      "平日",
      "土曜日",
      "祝日"
    ],
    "openDaysNote": "利用者様に満足して頂けるサービスを心がけております。"
  },
  {
    "id": "1473200911",
    "name": "ニコニコ",
    "kana": "ニコニコ",
    "address": "神奈川県横浜市旭区今宿西町２４９－８",
    "lat": 35.4838445277138,
    "lng": 139.525180427431,
    "tel": "045-952-3353",
    "url": "",
    "pref": "神奈川県",
    "city": "横浜市旭区",
    "category": "home_help",
    "serviceType": "訪問介護",
    "capacity": 0,
    "openDays": [
      "平日",
      "土曜日",
      "日曜日",
      "祝日"
    ],
    "openDaysNote": "上記時間以外は要相談にて対応いたします"
  },
  {
    "id": "1473200523",
    "name": "ニチイケアセンター旭",
    "kana": "ニチイケアセンターアサヒ",
    "address": "神奈川県横浜市旭区鶴ヶ峰本町1-34-12サンシティ赤坂Ⅱ　1F サンシティ赤坂Ⅱ　1F",
    "lat": 35.4758585,
    "lng": 139.5435587,
    "tel": "045-952-5575",
    "url": "http://www.nichiigakkan.co.jp/",
    "pref": "神奈川県",
    "city": "横浜市旭区",
    "category": "home_help",
    "serviceType": "訪問介護",
    "capacity": 0,
    "openDays": [
      "平日"
    ],
    "openDaysNote": "訪問介護は土日祝日、年末年始、9：00～18：00以外の対応可。"
  },
  {
    "id": "1473200184",
    "name": "ニチイケアセンター二俣川",
    "kana": "ニチイケアセンターフタマタガワ",
    "address": "神奈川県横浜市旭区二俣川２－５６アルジャンテ森　405号 アルジャンテ森　405号",
    "lat": 35.4600465,
    "lng": 139.5330904,
    "tel": "045-390-5108",
    "url": "http://www.nichiigakkan.co.jp",
    "pref": "神奈川県",
    "city": "横浜市旭区",
    "category": "home_help",
    "serviceType": "訪問介護",
    "capacity": 0,
    "openDays": [
      "平日",
      "土曜日",
      "日曜日",
      "祝日"
    ],
    "openDaysNote": "ただし、サービス提供時間以外でも、サービスの提供を行う場合がある。"
  },
  {
    "id": "1473203709",
    "name": "ファーストケア",
    "kana": "ファーストケア",
    "address": "神奈川県横浜市旭区市沢町848-3",
    "lat": 35.4602953,
    "lng": 139.5597075,
    "tel": "045-489-9994",
    "url": "",
    "pref": "神奈川県",
    "city": "横浜市旭区",
    "category": "home_help",
    "serviceType": "訪問介護",
    "capacity": null,
    "openDays": [
      "平日",
      "祝日"
    ],
    "openDaysNote": "居宅サービス計画により休業日及び営業時間外であってもサービス提供する場合があります。"
  },
  {
    "id": "1473203857",
    "name": "フレアスヘルパーステーション四季の森公園",
    "kana": "フレアスヘルパーステーションシキノモリコウエン",
    "address": "神奈川県横浜市旭区上白根町795-2",
    "lat": 35.5000107,
    "lng": 139.5359747,
    "tel": "045-520-4783",
    "url": "https://fureasu.jp/business/hospice/shikinomori-koen/",
    "pref": "神奈川県",
    "city": "横浜市旭区",
    "category": "home_help",
    "serviceType": "訪問介護",
    "capacity": null,
    "openDays": [
      "平日",
      "土曜日",
      "日曜日",
      "祝日"
    ],
    "openDaysNote": ""
  },
  {
    "id": "1473203915",
    "name": "ベストライフ二俣川訪問介護事業所",
    "kana": "ベストライフフタマタガワホウモンカイゴジギョウショ",
    "address": "神奈川県横浜市旭区二俣川1-39-10",
    "lat": 35.4638504,
    "lng": 139.5303308,
    "tel": "045-360-1262",
    "url": "",
    "pref": "神奈川県",
    "city": "横浜市旭区",
    "category": "home_help",
    "serviceType": "訪問介護",
    "capacity": null,
    "openDays": [
      "平日",
      "土曜日",
      "日曜日",
      "祝日"
    ],
    "openDaysNote": "※電話等により24時間365日常時連絡が可能な体制とする。"
  },
  {
    "id": "1470602648",
    "name": "ヘルパーステーション碧い木",
    "kana": "ヘルパーステーションアオイキ",
    "address": "神奈川県横浜市旭区川島町2998-2サンライフコウワ102 サンライフコウワ102",
    "lat": 35.4519094,
    "lng": 139.5134138,
    "tel": "045-489-9983",
    "url": "",
    "pref": "神奈川県",
    "city": "横浜市旭区",
    "category": "home_help",
    "serviceType": "訪問介護",
    "capacity": 0,
    "openDays": [
      "平日",
      "土曜日",
      "日曜日",
      "祝日"
    ],
    "openDaysNote": ""
  },
  {
    "id": "1473202008",
    "name": "ホームケアコラージュ",
    "kana": "ホームケアコラージュ",
    "address": "神奈川県横浜市旭区本宿町74-2グランメール203 グランメール203",
    "lat": 35.4650402751717,
    "lng": 139.542136902716,
    "tel": "045-391-8211",
    "url": "http://www.greennet-group.jp/kaigo/houmon/homecare/",
    "pref": "神奈川県",
    "city": "横浜市旭区",
    "category": "home_help",
    "serviceType": "訪問介護",
    "capacity": 20,
    "openDays": [
      "平日",
      "土曜日",
      "日曜日",
      "祝日"
    ],
    "openDaysNote": "電話等により、24時間常時連絡が可能な体制とする。"
  },
  {
    "id": "1473202982",
    "name": "ホームヘルパーステーションスマイル",
    "kana": "ホームヘルパーステーションスマイル",
    "address": "神奈川県横浜市旭区左近山1186-6左近山団地7街区10号棟105号室 7街区10号棟105号室",
    "lat": 35.4616485,
    "lng": 139.5511721,
    "tel": "045-442-3253",
    "url": "http://koukai201704.com/",
    "pref": "神奈川県",
    "city": "横浜市旭区",
    "category": "home_help",
    "serviceType": "訪問介護",
    "capacity": 12,
    "openDays": [
      "平日",
      "土曜日",
      "日曜日",
      "祝日"
    ],
    "openDaysNote": "年末年始12/29～1/3は休み、時間外や延長サービスも対応致します。気軽にご相談してください。"
  },
  {
    "id": "1473201869",
    "name": "メディケア介護希望が丘",
    "kana": "メディケアカイゴキボウガオカ",
    "address": "神奈川県横浜市旭区中希望が丘113-9",
    "lat": 35.4568702,
    "lng": 139.5149224,
    "tel": "045-453-8351",
    "url": "",
    "pref": "神奈川県",
    "city": "横浜市旭区",
    "category": "home_help",
    "serviceType": "訪問介護",
    "capacity": 0,
    "openDays": [
      "平日",
      "祝日"
    ],
    "openDaysNote": ""
  },
  {
    "id": "1473203832",
    "name": "らんケアサービスあさひ",
    "kana": "ランケアサービスアサヒ",
    "address": "神奈川県横浜市旭区今宿西町466すずきハイツD101 すずきハイツD101",
    "lat": 35.4836744,
    "lng": 139.5294513,
    "tel": "045-520-4833",
    "url": "https://www.runcare.jp",
    "pref": "神奈川県",
    "city": "横浜市旭区",
    "category": "home_help",
    "serviceType": "訪問介護",
    "capacity": 0,
    "openDays": [
      "平日",
      "土曜日",
      "日曜日",
      "祝日"
    ],
    "openDaysNote": "月曜日から日曜日までとし、祝日も営業する。（改行）時間外・休日のサービス提供は相談に応じる。また、電話等による連絡は24時間可能とする。"
  },
  {
    "id": "1473203774",
    "name": "一織庵今宿西町訪問介護事業所",
    "kana": "イオリアンイマジュクニシチョウホウモンカイゴジギョウショ",
    "address": "神奈川県横浜市旭区今宿西町255",
    "lat": 35.4849934,
    "lng": 139.5251768,
    "tel": "045-442-5485",
    "url": "",
    "pref": "神奈川県",
    "city": "横浜市旭区",
    "category": "home_help",
    "serviceType": "訪問介護",
    "capacity": 0,
    "openDays": [
      "平日",
      "土曜日",
      "日曜日",
      "祝日"
    ],
    "openDaysNote": "365日"
  },
  {
    "id": "1473201992",
    "name": "横浜市福祉サービス協会　ヘルパーステーション旭",
    "kana": "ヨコハマシフクシサービスキョウカイ　ヘルパーステーションアサヒ",
    "address": "神奈川県横浜市旭区柏町１３１－５",
    "lat": 35.4590466,
    "lng": 139.533271,
    "tel": "045-360-3290",
    "url": "http://www.hama-wel.or.jp/branch/detail/hps_asahi/",
    "pref": "神奈川県",
    "city": "横浜市旭区",
    "category": "home_help",
    "serviceType": "訪問介護",
    "capacity": 0,
    "openDays": [
      "平日"
    ],
    "openDaysNote": "時間外の利用希望については、相談に応じます。"
  },
  {
    "id": "1473203444",
    "name": "横浜市福祉サービス協会　訪問介護看護あさひ",
    "kana": "ヨコハマシフクシサービスキョウカイ　ホウモンカイゴカンゴアサヒ",
    "address": "神奈川県横浜市旭区柏町131-5",
    "lat": 35.4522609215625,
    "lng": 139.526790406746,
    "tel": "045-360-3296",
    "url": "",
    "pref": "神奈川県",
    "city": "横浜市旭区",
    "category": "home_help",
    "serviceType": "訪問介護",
    "capacity": 0,
    "openDays": [
      "平日"
    ],
    "openDaysNote": "サービス提供時間については相談可"
  },
  {
    "id": "1473202453",
    "name": "金沢ケア・サービス　旭事業所",
    "kana": "カナザワケア・サービス　アサヒジギョウショ",
    "address": "神奈川県横浜市旭区今宿東町1602",
    "lat": 35.481809721643,
    "lng": 139.534651691155,
    "tel": "045-959-5077",
    "url": "http://kanazawacare.jp",
    "pref": "神奈川県",
    "city": "横浜市旭区",
    "category": "home_help",
    "serviceType": "訪問介護",
    "capacity": 0,
    "openDays": [
      "平日",
      "祝日"
    ],
    "openDaysNote": "早朝、夜間に関しては応相談。"
  },
  {
    "id": "1473202362",
    "name": "銀の舞ヘルパーステーション",
    "kana": "ギンノマイヘルパーステーション",
    "address": "神奈川県横浜市旭区二俣川2-50-14コプレ二俣川オフィス905号 コプレ二俣川オフィス905号",
    "lat": 35.4635044743097,
    "lng": 139.532911079099,
    "tel": "045-364-7717",
    "url": "http://www.shuhokai.or.jp",
    "pref": "神奈川県",
    "city": "横浜市旭区",
    "category": "home_help",
    "serviceType": "訪問介護",
    "capacity": 0,
    "openDays": [
      "平日",
      "土曜日",
      "日曜日",
      "祝日"
    ],
    "openDaysNote": ""
  },
  {
    "id": "1473200242",
    "name": "左近山ホームケアサービス",
    "kana": "サコンヤマホームケアサービス",
    "address": "神奈川県横浜市旭区左近山16番地の1左近山団地1-31-111 左近山団地1-31-111",
    "lat": 35.460555964214,
    "lng": 139.549643641431,
    "tel": "045-355-3339",
    "url": "",
    "pref": "神奈川県",
    "city": "横浜市旭区",
    "category": "home_help",
    "serviceType": "訪問介護",
    "capacity": 0,
    "openDays": [
      "平日",
      "土曜日",
      "祝日"
    ],
    "openDaysNote": "年末年始休業：１２月３０日～１月３日まで（改行）時間外のサービス提供については応相談"
  },
  {
    "id": "1473203592",
    "name": "若武者ケア　旭事業所",
    "kana": "ワカムシャケア　アサヒジギョウショ",
    "address": "神奈川県横浜市旭区二俣川2-56-1アルジャンテ森402号室 アルジャンテ森402号室",
    "lat": 35.4600657,
    "lng": 139.5331306,
    "tel": "045-744-7972",
    "url": "https://www.wakamusha-care.jp/",
    "pref": "神奈川県",
    "city": "横浜市旭区",
    "category": "home_help",
    "serviceType": "訪問介護",
    "capacity": 0,
    "openDays": [
      "平日",
      "土曜日",
      "日曜日",
      "祝日"
    ],
    "openDaysNote": ""
  },
  {
    "id": "1473203477",
    "name": "障害者支援・訪問介護ステーションひまわり",
    "kana": "ショウガイシャシエン・ホウモンカイゴステーションヒマワリ",
    "address": "神奈川県横浜市旭区本村町40-2クリエールヤマニ103 クリエールヤマニ103",
    "lat": 35.4690072099101,
    "lng": 139.539436713456,
    "tel": "045-442-5455",
    "url": "",
    "pref": "神奈川県",
    "city": "横浜市旭区",
    "category": "home_help",
    "serviceType": "訪問介護",
    "capacity": 0,
    "openDays": [
      "平日",
      "土曜日",
      "日曜日",
      "祝日"
    ],
    "openDaysNote": "ゴールデンウィーク　お盆　お正月の支援は要相談"
  },
  {
    "id": "1473201422",
    "name": "泉の郷　南希望が丘　訪問介護",
    "kana": "イズミノサトミナミキボウガオカホウモンカイゴ",
    "address": "神奈川県横浜市旭区南希望が丘68-11",
    "lat": 35.4519605261433,
    "lng": 139.519512892287,
    "tel": "045-360-8552",
    "url": "http://www.seikoukai.info/seikoukaihp/index.html",
    "pref": "神奈川県",
    "city": "横浜市旭区",
    "category": "home_help",
    "serviceType": "訪問介護",
    "capacity": 200,
    "openDays": [
      "平日",
      "土曜日",
      "日曜日",
      "祝日"
    ],
    "openDaysNote": "時間外については、応相談いたします。"
  },
  {
    "id": "1473203634",
    "name": "総合ケアステーション縁",
    "kana": "ソウゴウケアステーションエン",
    "address": "神奈川県横浜市旭区市沢町1182-42青山コーポＢ-001号室 青山コーポＢ-001号室",
    "lat": 35.4575418,
    "lng": 139.5555889,
    "tel": "045-444-8404",
    "url": "",
    "pref": "神奈川県",
    "city": "横浜市旭区",
    "category": "home_help",
    "serviceType": "訪問介護",
    "capacity": 0,
    "openDays": [
      "平日",
      "土曜日",
      "日曜日",
      "祝日"
    ],
    "openDaysNote": ""
  },
  {
    "id": "1473200689",
    "name": "特定非営利活動法人　福祉グループコアラ",
    "kana": "トクテイヒエイリカツドウホウジン　フクシグループコアラ",
    "address": "神奈川県横浜市旭区中白根4-10-1-111",
    "lat": 35.4942424,
    "lng": 139.5486522,
    "tel": "045-955-5374",
    "url": "",
    "pref": "神奈川県",
    "city": "横浜市旭区",
    "category": "home_help",
    "serviceType": "訪問介護",
    "capacity": 0,
    "openDays": [
      "平日",
      "土曜日",
      "祝日"
    ],
    "openDaysNote": "時間外でも対応可。（改行）日曜、8/13～8/16　12/30～1/5お休み"
  },
  {
    "id": "1473203394",
    "name": "訪問介護かえで旭サービスセンター",
    "kana": "ホウモンカイゴカエデアサヒサービスセンター",
    "address": "神奈川県横浜市旭区二俣川1-45-60永井ビル3F 永井ビル3F",
    "lat": 35.4658441,
    "lng": 139.5304168,
    "tel": "045-360-8251",
    "url": "http://www.elderly.jp/",
    "pref": "神奈川県",
    "city": "横浜市旭区",
    "category": "home_help",
    "serviceType": "訪問介護",
    "capacity": 0,
    "openDays": [
      "平日",
      "土曜日",
      "日曜日",
      "祝日"
    ],
    "openDaysNote": "人員等の都合により、事前にお問い合わせください。（改行）24時間対応"
  },
  {
    "id": "1473201927",
    "name": "訪問介護ステーション　ドルチェ",
    "kana": "ホウモンカイゴステーション　ドルチェ",
    "address": "神奈川県横浜市旭区上川井町169番地",
    "lat": 35.4963722,
    "lng": 139.5075332,
    "tel": "045-922-5700",
    "url": "http://www.mizunosato.or.jp/",
    "pref": "神奈川県",
    "city": "横浜市旭区",
    "category": "home_help",
    "serviceType": "訪問介護",
    "capacity": 0,
    "openDays": [
      "平日",
      "土曜日",
      "日曜日",
      "祝日"
    ],
    "openDaysNote": "２４時間対応"
  },
  {
    "id": "1473203865",
    "name": "訪問介護ステーションたんぽぽ四季の森",
    "kana": "ホウモンカイゴステーションタンポポシキノモリ",
    "address": "神奈川県横浜市旭区上白根町774-181",
    "lat": 35.4988207,
    "lng": 139.5374266,
    "tel": "045-442-5023",
    "url": "https://alpscareheart.co.jp",
    "pref": "神奈川県",
    "city": "横浜市旭区",
    "category": "home_help",
    "serviceType": "訪問介護",
    "capacity": null,
    "openDays": [
      "平日"
    ],
    "openDaysNote": "電話等により24時間連絡可能な体制をとる（改行）サービス提供の時間外、休日は応相談"
  },
  {
    "id": "1473203683",
    "name": "訪問介護ファミリー・ホスピス二俣川",
    "kana": "ホウモンカイゴファミリー・ホスピスフタマタガワ",
    "address": "神奈川県横浜市旭区二俣川1丁目39番13号",
    "lat": 35.4638504,
    "lng": 139.530025028172,
    "tel": "045-459-5475",
    "url": "https://family-hospice.co.jp/office/2274/",
    "pref": "神奈川県",
    "city": "横浜市旭区",
    "category": "home_help",
    "serviceType": "訪問介護",
    "capacity": 0,
    "openDays": [
      "平日",
      "土曜日",
      "日曜日",
      "祝日"
    ],
    "openDaysNote": "24時間対応"
  },
  {
    "id": "1473203469",
    "name": "訪問介護よりそい",
    "kana": "ホウモンカイゴヨリソイ",
    "address": "神奈川県横浜市旭区上白根1-2-2　白根第二マンション104号",
    "lat": 35.4855219,
    "lng": 139.545214,
    "tel": "045-489-3575",
    "url": "",
    "pref": "神奈川県",
    "city": "横浜市旭区",
    "category": "home_help",
    "serviceType": "訪問介護",
    "capacity": 0,
    "openDays": [
      "平日",
      "土曜日",
      "日曜日",
      "祝日"
    ],
    "openDaysNote": "時間外は要相談"
  },
  {
    "id": "1473203691",
    "name": "訪問事業所　鼓草",
    "kana": "ホウモンカイゴジギョウショ　タンポポ",
    "address": "神奈川県横浜市旭区中希望が丘74-9",
    "lat": 35.4578639,
    "lng": 139.5165068,
    "tel": "045-361-6161",
    "url": "",
    "pref": "神奈川県",
    "city": "横浜市旭区",
    "category": "home_help",
    "serviceType": "訪問介護",
    "capacity": 0,
    "openDays": [
      "平日"
    ],
    "openDaysNote": "平日早朝6：00～8；00　平日夜間18；00～20：00ののｻｰﾋﾞｽ提供可"
  },
  {
    "id": "1473200697",
    "name": "有限会社　いっぽ",
    "kana": "ユウゲンガイシャイッポ",
    "address": "神奈川県横浜市旭区南希望が丘13-7",
    "lat": 35.4549721,
    "lng": 139.5192305,
    "tel": "045-360-7691",
    "url": "",
    "pref": "神奈川県",
    "city": "横浜市旭区",
    "category": "home_help",
    "serviceType": "訪問介護",
    "capacity": 0,
    "openDays": [
      "平日",
      "土曜日",
      "日曜日",
      "祝日"
    ],
    "openDaysNote": "緊急時24時間対応"
  },
  {
    "id": "1471000883",
    "name": "有限会社　ハートケア",
    "kana": "ユウゲンガイシャ　ハートケア",
    "address": "神奈川県横浜市旭区西川島町27-16",
    "lat": 35.4764363,
    "lng": 139.5583907,
    "tel": "045-372-0091",
    "url": "",
    "pref": "神奈川県",
    "city": "横浜市旭区",
    "category": "home_help",
    "serviceType": "訪問介護",
    "capacity": 0,
    "openDays": [
      "平日",
      "土曜日",
      "日曜日",
      "祝日"
    ],
    "openDaysNote": ""
  },
  {
    "id": "1473200150",
    "name": "有限会社　よつば会介護支援センター",
    "kana": "ユウゲンガイシャ　ヨツバカイカイゴシエンセンター",
    "address": "神奈川県横浜市旭区中希望が丘94番地52",
    "lat": 35.4586245,
    "lng": 139.5154169,
    "tel": "045-390-5005",
    "url": "http://www7b.biglobe.ne.jp/~sudatobihi-yakkyoku/",
    "pref": "神奈川県",
    "city": "横浜市旭区",
    "category": "home_help",
    "serviceType": "訪問介護",
    "capacity": 0,
    "openDays": [
      "平日",
      "土曜日",
      "日曜日",
      "祝日"
    ],
    "openDaysNote": "ただしサービス提供日については利用者、ケアマネージャーと相談の上決める。（改行）サービス提供時間はケアプランによる。（改行）時間外・休日のサービス提供は相談にに応じる。（改行）また電話などによる連絡は24時間可能とする。"
  },
  {
    "id": "1473201844",
    "name": "有限会社　船山企画ケアサービス",
    "kana": "ユウゲンカイシャ　フナヤマキカクケアサービス",
    "address": "横浜市旭区南希望が丘6番地",
    "lat": 35.4536056,
    "lng": 139.5183917,
    "tel": "045-364-1088",
    "url": "",
    "pref": "神奈川県",
    "city": "横浜市旭区",
    "category": "home_help",
    "serviceType": "訪問介護",
    "capacity": null,
    "openDays": [
      "平日"
    ],
    "openDaysNote": "祝日、時間外は応相談。"
  },
  {
    "id": "1470700517",
    "name": "ＮＰＯ法人　汐見台福祉コミュニティ・ホームサービス部会",
    "kana": "エヌピーオーホウジンシオミダイフクシコミュニティ・ホームサービスブカイ",
    "address": "神奈川県横浜市磯子区汐見台２－４－５",
    "lat": 35.4017079,
    "lng": 139.6098061,
    "tel": "045-752-4877",
    "url": "care-net.biz/14/shiomi/",
    "pref": "神奈川県",
    "city": "横浜市磯子区",
    "category": "home_help",
    "serviceType": "訪問介護",
    "capacity": 78,
    "openDays": [
      "平日",
      "土曜日",
      "日曜日",
      "祝日"
    ],
    "openDaysNote": "時間については、ご利用者の状況により、相談をお受け致します。（年末年始休日を含む）"
  },
  {
    "id": "1460790071",
    "name": "あきの里",
    "kana": "アキノサト",
    "address": "神奈川県横浜市磯子区杉田5-7-7ライフコート杉田４０６ ライフコート杉田４０６",
    "lat": 35.3800998,
    "lng": 139.6218831,
    "tel": "045-775-0852",
    "url": "http://care-net.biz/14/akinosato/company.php#outline",
    "pref": "神奈川県",
    "city": "横浜市磯子区",
    "category": "home_help",
    "serviceType": "訪問介護",
    "capacity": 0,
    "openDays": [
      "平日",
      "土曜日",
      "日曜日",
      "祝日"
    ],
    "openDaysNote": "サービスの提供は３６５日、２４時間行う。"
  },
  {
    "id": "1470701499",
    "name": "アスモ介護サービス港南",
    "kana": "アスモカイゴサービスコウナン",
    "address": "神奈川県横浜市磯子区田中2-1-2KKビル102号室 KKビル102号室",
    "lat": 35.3855069,
    "lng": 139.6019184,
    "tel": "045-770-0234",
    "url": "https://www.asmokaigo.co.jp/placelist/place2.html",
    "pref": "神奈川県",
    "city": "横浜市磯子区",
    "category": "home_help",
    "serviceType": "訪問介護",
    "capacity": 60,
    "openDays": [
      "平日",
      "土曜日",
      "日曜日",
      "祝日"
    ],
    "openDaysNote": "24時間対応"
  },
  {
    "id": "1470702190",
    "name": "あった介護磯子",
    "kana": "アッタカイゴイソゴ",
    "address": "神奈川県横浜市磯子区洋光台5丁目14番12号洋光台ハイツ101-1 洋光台ハイツ101-1",
    "lat": 35.3772753,
    "lng": 139.5925872,
    "tel": "045-349-4447",
    "url": "https://www.atlaina.co.jp/",
    "pref": "神奈川県",
    "city": "横浜市磯子区",
    "category": "home_help",
    "serviceType": "訪問介護",
    "capacity": 0,
    "openDays": [
      "平日",
      "土曜日",
      "日曜日",
      "祝日"
    ],
    "openDaysNote": "サービス利用は24時間、365日対応。"
  },
  {
    "id": "1470702026",
    "name": "いろどり介護",
    "kana": "イロドリカイゴ",
    "address": "神奈川県横浜市磯子区中原3‐4‐17シティハイツ中原104 シティハイツ中原104",
    "lat": 35.3886403273819,
    "lng": 139.611238199089,
    "tel": "045-367-8889",
    "url": "",
    "pref": "神奈川県",
    "city": "横浜市磯子区",
    "category": "home_help",
    "serviceType": "訪問介護",
    "capacity": 0,
    "openDays": [
      "平日",
      "土曜日",
      "祝日"
    ],
    "openDaysNote": "時間外、休日は応相談"
  },
  {
    "id": "1470701440",
    "name": "ウィル　ケアサービス",
    "kana": "ウィル　ケアサービス",
    "address": "神奈川県横浜市磯子区岡村３－１－２",
    "lat": 35.4190014843959,
    "lng": 139.619537756057,
    "tel": "045-754-6472",
    "url": "",
    "pref": "神奈川県",
    "city": "横浜市磯子区",
    "category": "home_help",
    "serviceType": "訪問介護",
    "capacity": 0,
    "openDays": [
      "平日",
      "土曜日",
      "日曜日",
      "祝日"
    ],
    "openDaysNote": "電話対応は２４時間年中無休"
  },
  {
    "id": "1470501873",
    "name": "ケアステーション桜",
    "kana": "ケアステ－ションサクラ",
    "address": "神奈川県横浜市磯子区磯子区2-20-50ドルフ安藤橋Ⅳ２Ｆ ドルフ安藤橋Ⅳ２Ｆ",
    "lat": 35.4075610135978,
    "lng": 139.621301553831,
    "tel": "045-367-9438",
    "url": "https://sakura-grit.com/",
    "pref": "神奈川県",
    "city": "横浜市磯子区",
    "category": "home_help",
    "serviceType": "訪問介護",
    "capacity": 0,
    "openDays": [
      "平日",
      "土曜日",
      "日曜日",
      "祝日"
    ],
    "openDaysNote": ""
  },
  {
    "id": "1470702075",
    "name": "ジョイ・サプライ磯子",
    "kana": "ジョイ・サプライイソゴ",
    "address": "神奈川県横浜市磯子区田中2‐24‐2ATB錦衣103号 ATB錦衣103号",
    "lat": 35.3838438934372,
    "lng": 139.603603907796,
    "tel": "045-353-9410",
    "url": "https://care-net.biz/14/raifu0210/company.php",
    "pref": "神奈川県",
    "city": "横浜市磯子区",
    "category": "home_help",
    "serviceType": "訪問介護",
    "capacity": 80,
    "openDays": [
      "平日",
      "祝日"
    ],
    "openDaysNote": "上記の時間以外をご希望の場合はどうぞご相談下さい"
  },
  {
    "id": "1470701101",
    "name": "セントケア磯子",
    "kana": "セントケアイソゴ",
    "address": "神奈川県横浜市磯子区中原2-1-17サンライトツチヤビル１階 サンライトツチヤビル１階",
    "lat": 35.3884958,
    "lng": 139.6170556,
    "tel": "045-776-2941",
    "url": "http://www.saintc-k.com/",
    "pref": "神奈川県",
    "city": "横浜市磯子区",
    "category": "home_help",
    "serviceType": "訪問介護",
    "capacity": 0,
    "openDays": [
      "平日",
      "土曜日",
      "日曜日",
      "祝日"
    ],
    "openDaysNote": "時間外については応相談"
  },
  {
    "id": "1470700293",
    "name": "たすけあい磯子",
    "kana": "タスケアイイソゴ",
    "address": "神奈川県横浜市磯子区洋光台4-6-8",
    "lat": 35.378811438284,
    "lng": 139.598368260289,
    "tel": "045-834-3119",
    "url": "https://www.npotasukeaiisogo.jp/index.html",
    "pref": "神奈川県",
    "city": "横浜市磯子区",
    "category": "home_help",
    "serviceType": "訪問介護",
    "capacity": 0,
    "openDays": [
      "平日",
      "土曜日",
      "日曜日",
      "祝日"
    ],
    "openDaysNote": "時間外・休日のサービス提供は相談に応じる"
  },
  {
    "id": "1470702117",
    "name": "ツクイ横浜磯子",
    "kana": "ツクイヨコハマイソゴ",
    "address": "神奈川県横浜市磯子区中原2-2-11シーサイドパレス新杉田1階101 シーサイドパレス新杉田1階101",
    "lat": 35.3877865,
    "lng": 139.6178354,
    "tel": "045-778-3186",
    "url": "https://www.tsukui.net",
    "pref": "神奈川県",
    "city": "横浜市磯子区",
    "category": "home_help",
    "serviceType": "訪問介護",
    "capacity": 180,
    "openDays": [
      "平日",
      "土曜日",
      "日曜日",
      "祝日"
    ],
    "openDaysNote": "ただし、12月29日から1月3日は応相談"
  },
  {
    "id": "1470700657",
    "name": "ニチイケアセンター磯子",
    "kana": "ニチイケアセンターイソゴ",
    "address": "神奈川県横浜市磯子区東町１５－３２モンビル横浜根岸308号 モンビル横浜根岸308号",
    "lat": 35.4168227,
    "lng": 139.6354288,
    "tel": "045-750-0545",
    "url": "http://www.nichii-kaigo.jp/base/base-result/05K60/",
    "pref": "神奈川県",
    "city": "横浜市磯子区",
    "category": "home_help",
    "serviceType": "訪問介護",
    "capacity": 0,
    "openDays": [
      "平日",
      "土曜日",
      "日曜日",
      "祝日"
    ],
    "openDaysNote": "居宅サービス計画により、休業日・サービス提供時間外でも、サービスの提供を行う場合がある。"
  },
  {
    "id": "1470701523",
    "name": "ニチイケアセンター杉田",
    "kana": "ニチイケアセンタースギタ",
    "address": "神奈川県横浜市磯子区杉田４－７－３２",
    "lat": 35.3833601830797,
    "lng": 139.620352195107,
    "tel": "045-775-1651",
    "url": "http://www.nichii-kaigo.jp/base/base-result/05P55/",
    "pref": "神奈川県",
    "city": "横浜市磯子区",
    "category": "home_help",
    "serviceType": "訪問介護",
    "capacity": 0,
    "openDays": [
      "平日",
      "土曜日",
      "日曜日",
      "祝日"
    ],
    "openDaysNote": ""
  },
  {
    "id": "1470701143",
    "name": "ハートケア　つくし",
    "kana": "ハートケア　ツクシ",
    "address": "神奈川県横浜市磯子区広地町7-12あっとほーむ広地 あっとほーむ広地",
    "lat": 35.4169394,
    "lng": 139.6231851,
    "tel": "045-754-2911",
    "url": "https://kaigo-heart.wixsite.com/tukusiisogo",
    "pref": "神奈川県",
    "city": "横浜市磯子区",
    "category": "home_help",
    "serviceType": "訪問介護",
    "capacity": 0,
    "openDays": [
      "平日",
      "土曜日",
      "日曜日",
      "祝日"
    ],
    "openDaysNote": "24時間対応"
  },
  {
    "id": "1470700434",
    "name": "フルライフ磯子",
    "kana": "フルライフイソゴ",
    "address": "神奈川県横浜市磯子区磯子3-3-21磯子江戸徳ビル1階山側事務所3 磯子江戸徳ビル1階山側事務所3",
    "lat": 35.4037276921033,
    "lng": 139.619870719588,
    "tel": "045-750-1105",
    "url": "https://www.fulllife.co.jp/branch/area/yokohama/isogo/",
    "pref": "神奈川県",
    "city": "横浜市磯子区",
    "category": "home_help",
    "serviceType": "訪問介護",
    "capacity": 0,
    "openDays": [
      "平日",
      "土曜日",
      "日曜日",
      "祝日"
    ],
    "openDaysNote": ""
  },
  {
    "id": "1470700277",
    "name": "ベネッセ介護センター磯子",
    "kana": "ベネッセカイゴセンターイソゴ",
    "address": "神奈川県横浜市磯子区中原2-3-28セシリア新杉田１階 セシリア新杉田１階",
    "lat": 35.3872182,
    "lng": 139.6177778,
    "tel": "045-778-1170",
    "url": "https://zaitaku.benesse-style-care.co.jp/base/kc-isogo",
    "pref": "神奈川県",
    "city": "横浜市磯子区",
    "category": "home_help",
    "serviceType": "訪問介護",
    "capacity": 0,
    "openDays": [
      "平日",
      "土曜日",
      "日曜日",
      "祝日"
    ],
    "openDaysNote": "上記以外の時間も必要に応じ対応いたします。"
  },
  {
    "id": "1470700699",
    "name": "みのりサポート",
    "kana": "ミノリサポート",
    "address": "神奈川県横浜市磯子区洋光台5-3-6202 202",
    "lat": 35.3763911897461,
    "lng": 139.59398954117,
    "tel": "045-832-5636",
    "url": "https://www.minorisupport.com/jj.html#hmn",
    "pref": "神奈川県",
    "city": "横浜市磯子区",
    "category": "home_help",
    "serviceType": "訪問介護",
    "capacity": 0,
    "openDays": [
      "平日"
    ],
    "openDaysNote": "日曜・時間外は相談に応じる。"
  },
  {
    "id": "1470701374",
    "name": "みらいケアサービス",
    "kana": "ミライケアサービス",
    "address": "神奈川県横浜市磯子区岡村町7-17-6",
    "lat": 35.4186863,
    "lng": 139.6186661,
    "tel": "045-761-0300",
    "url": "http://hp.kaipoke.biz/tnh/55773/index_0003.html",
    "pref": "神奈川県",
    "city": "横浜市磯子区",
    "category": "home_help",
    "serviceType": "訪問介護",
    "capacity": 0,
    "openDays": [
      "平日",
      "土曜日",
      "祝日"
    ],
    "openDaysNote": "年末12/29～1/3年始お休み。（改行）日曜定休日。"
  },
  {
    "id": "1470701911",
    "name": "やさしい手磯子訪問介護事業所",
    "kana": "ヤサシイテイソゴホウモンカイゴジギョウショ",
    "address": "神奈川県横浜市磯子区中原2丁目7-2ニッコービル磯子1階 ニッコービル磯子1階",
    "lat": 35.3872321,
    "lng": 139.6169723,
    "tel": "050-1752-0259",
    "url": "http://www.yasashiite.com",
    "pref": "神奈川県",
    "city": "横浜市磯子区",
    "category": "home_help",
    "serviceType": "訪問介護",
    "capacity": 0,
    "openDays": [
      "平日",
      "土曜日",
      "日曜日",
      "祝日"
    ],
    "openDaysNote": "365日対応"
  },
  {
    "id": "1470701077",
    "name": "ゆずりは",
    "kana": "ユズリハ",
    "address": "神奈川県横浜市磯子区岡村6-10-2",
    "lat": 35.4134463333386,
    "lng": 139.610474576621,
    "tel": "045-751-1016",
    "url": "",
    "pref": "神奈川県",
    "city": "横浜市磯子区",
    "category": "home_help",
    "serviceType": "訪問介護",
    "capacity": 15,
    "openDays": [
      "平日",
      "土曜日",
      "日曜日",
      "祝日"
    ],
    "openDaysNote": "サービスの提供日時　３６５日２４時間対応（改行）電話等により、２４時間常時連絡が可能な体制とする。"
  },
  {
    "id": "1470700137",
    "name": "磯風の謡ヘルパーステーション",
    "kana": "イソカゼノウタヘルパーステーション",
    "address": "神奈川県横浜市磯子区磯子3-8-20サムティレジデンス横濱磯子1階 サムティレジデンス横濱磯子1階",
    "lat": 35.4047884,
    "lng": 139.6194216,
    "tel": "045-353-8752",
    "url": "https://shuhokai.or.jp/office/isogo-ku/hh-isokaze.php",
    "pref": "神奈川県",
    "city": "横浜市磯子区",
    "category": "home_help",
    "serviceType": "訪問介護",
    "capacity": 0,
    "openDays": [
      "平日",
      "土曜日",
      "日曜日",
      "祝日"
    ],
    "openDaysNote": "年末年始12/29～1/3は、定休日。"
  },
  {
    "id": "1470701267",
    "name": "横浜市福祉サービス協会　ヘルパーステーション磯子",
    "kana": "ヨコハマシフクシサービスキョウカイ　ヘルパーステーションイソゴ",
    "address": "神奈川県横浜市磯子区東町15－32モンビル横浜根岸306号室 モンビル横浜根岸306号室",
    "lat": 35.4168236495019,
    "lng": 139.635384565343,
    "tel": "045-750-1520",
    "url": "https://www.hama-wel.or.jp/branch/hps_isogo/",
    "pref": "神奈川県",
    "city": "横浜市磯子区",
    "category": "home_help",
    "serviceType": "訪問介護",
    "capacity": 0,
    "openDays": [
      "平日"
    ],
    "openDaysNote": "土日祝日、年末年始（12月29日から12月31日と1月3日）（改行）時間外の利用希望については相談に応じます。"
  },
  {
    "id": "1470702042",
    "name": "横浜市福祉サービス協会　訪問介護看護いそご",
    "kana": "ヨコハマシフクシサービスキョウカイ　ホウモンカイゴカンゴイソゴ",
    "address": "神奈川県横浜市磯子区東町15-32モンビル横浜根岸306号室 モンビル横浜根岸306号室",
    "lat": 35.4168523,
    "lng": 139.6354848,
    "tel": "045-750-1522",
    "url": "https://www.hama-wel.or.jp/branch/hps_isogo/",
    "pref": "神奈川県",
    "city": "横浜市磯子区",
    "category": "home_help",
    "serviceType": "訪問介護",
    "capacity": 0,
    "openDays": [
      "平日",
      "土曜日",
      "日曜日",
      "祝日"
    ],
    "openDaysNote": "サービス提供時間については要相談。"
  },
  {
    "id": "1470701564",
    "name": "株式会社　ダックス",
    "kana": "カブシキガイシャ　ダックス",
    "address": "神奈川県横浜市磯子区岡村7-16-21",
    "lat": 35.412676,
    "lng": 139.6153165,
    "tel": "045-349-1500",
    "url": "",
    "pref": "神奈川県",
    "city": "横浜市磯子区",
    "category": "home_help",
    "serviceType": "訪問介護",
    "capacity": 0,
    "openDays": [
      "平日",
      "土曜日",
      "祝日"
    ],
    "openDaysNote": "日曜日（改行）夏季休暇　8/14～8/16（改行）年末年始休暇12/30～1/3ご相談下さい"
  },
  {
    "id": "1470700210",
    "name": "株式会社　マーメイドケアー",
    "kana": "カブシキカイシャ　マーメイドケアー",
    "address": "神奈川県横浜市磯子区丸山１－１５－２５",
    "lat": 35.4252104,
    "lng": 139.6212658,
    "tel": "045-750-0750",
    "url": "",
    "pref": "神奈川県",
    "city": "横浜市磯子区",
    "category": "home_help",
    "serviceType": "訪問介護",
    "capacity": 0,
    "openDays": [
      "平日",
      "土曜日",
      "日曜日",
      "祝日"
    ],
    "openDaysNote": "訪問介護を利用できる時間は上記以外でも応相談"
  },
  {
    "id": "1470702091",
    "name": "若武者ケア　磯子事業所",
    "kana": "ワカムシャケア　イソゴジギョウショ",
    "address": "神奈川県横浜市磯子区森1-15-12第2磯子ハイツ105号室 第2磯子ハイツ105号室",
    "lat": 35.3971264,
    "lng": 139.6149368,
    "tel": "045-374-4805",
    "url": "https://www.wakamusha-care.jp/company/office",
    "pref": "神奈川県",
    "city": "横浜市磯子区",
    "category": "home_help",
    "serviceType": "訪問介護",
    "capacity": 0,
    "openDays": [
      "平日",
      "土曜日",
      "日曜日",
      "祝日"
    ],
    "openDaysNote": "年末年始(12/29～1/3)の計6日間は休業。"
  },
  {
    "id": "1470801141",
    "name": "特定非営利活動法人　ワーカーズ・コレクティブ　樹",
    "kana": "トクテイヒエイリカツドウホウジンワーカーズ・コレクティブアーブレ",
    "address": "神奈川県横浜市磯子区磯子台２１番２４号",
    "lat": 35.404665,
    "lng": 139.614713,
    "tel": "045-349-3026",
    "url": "http://www.npo-arbre.jp/",
    "pref": "神奈川県",
    "city": "横浜市磯子区",
    "category": "home_help",
    "serviceType": "訪問介護",
    "capacity": 0,
    "openDays": [
      "平日",
      "土曜日",
      "日曜日",
      "祝日"
    ],
    "openDaysNote": "サービス提供は365日、24時間可能な体制"
  },
  {
    "id": "1470700343",
    "name": "福祉の森",
    "kana": "フクシノモリ",
    "address": "神奈川県横浜市磯子区森3-9-12",
    "lat": 35.3917398,
    "lng": 139.6144752,
    "tel": "045-762-2181",
    "url": "http://www.fukushinomori.co.jp/",
    "pref": "神奈川県",
    "city": "横浜市磯子区",
    "category": "home_help",
    "serviceType": "訪問介護",
    "capacity": 0,
    "openDays": [
      "平日",
      "土曜日",
      "祝日"
    ],
    "openDaysNote": "原則として、日曜日は定休日。時間外は要相談。（改行）上記営業時間のほか　電話等により常時連絡が可能な体制とする。"
  },