[
  {
    "id": "1870800198",
    "name": "あわら市金津雲雀ケ丘寮訪問介護事業所",
    "kana": "アワラシカナヅヒバリガオカリョウホウモンカイゴジギョウショ",
    "address": "福井県あわら市春宮3丁目28-21",
    "lat": 36.2199603,
    "lng": 136.2275308,
    "tel": "0776-73-0144",
    "url": "http://www.awara-hibari.jp",
    "pref": "福井県",
    "city": "あわら市",
    "category": "home_help",
    "serviceType": "訪問介護",
    "capacity": 0,
    "openDays": [
      "平日",
      "土曜日",
      "日曜日",
      "祝日"
    ],
    "openDaysNote": "時間外のサービス利用につきましては、適宜ご相談下さい。"
  },
  {
    "id": "1870800024",
    "name": "ケアハイツヘルパーステーション",
    "kana": "ケアハイツヘルパーステーション",
    "address": "福井県あわら市横垣18-11ケアハイツ芦原 ケアハイツ芦原",
    "lat": 36.2240049,
    "lng": 136.214375,
    "tel": "0776-77-3600",
    "url": "https://careheights.jp/",
    "pref": "福井県",
    "city": "あわら市",
    "category": "home_help",
    "serviceType": "訪問介護",
    "capacity": 2,
    "openDays": [
      "平日",
      "土曜日",
      "日曜日",
      "祝日"
    ],
    "openDaysNote": ""
  },
  {
    "id": "1870800214",
    "name": "ハスの実ヘルパーステーションともに",
    "kana": "ハスノミヘルパーステーショントモニ",
    "address": "あわら市大溝２丁目２５番１",
    "lat": 36.2398155,
    "lng": 136.1977079,
    "tel": "0776-73-3100",
    "url": "http://www.hasunominoie.com",
    "pref": "福井県",
    "city": "あわら市",
    "category": "home_help",
    "serviceType": "訪問介護",
    "capacity": 0,
    "openDays": [
      "平日",
      "土曜日",
      "日曜日",
      "祝日"
    ],
    "openDaysNote": ""
  },
  {
    "id": "1860890019",
    "name": "坂井地区医師会　ヘルパーステーション",
    "kana": "サカイチクイシカイ　ヘルパーステーション",
    "address": "福井県あわら市東善寺5-27",
    "lat": 36.2111778,
    "lng": 136.2183236,
    "tel": "0776-73-8390",
    "url": "http://www.sakaichiku-med.com/",
    "pref": "福井県",
    "city": "あわら市",
    "category": "home_help",
    "serviceType": "訪問介護",
    "capacity": 0,
    "openDays": [
      "平日",
      "土曜日"
    ],
    "openDaysNote": "ただし、休日日訪問や営業時間外訪問（7：00～21：00）については、相談に応じます。"
  },
  {
    "id": "1870800107",
    "name": "訪問介護事業所ケアサービスつるかめ",
    "kana": "ホウモンカイゴジギョウショケアサービスツルカメ",
    "address": "福井県あわら市市姫二丁目1番10号つるかめ つるかめ",
    "lat": 36.2125111,
    "lng": 136.2294559,
    "tel": "0776-73-8418",
    "url": "",
    "pref": "福井県",
    "city": "あわら市",
    "category": "home_help",
    "serviceType": "訪問介護",
    "capacity": 50,
    "openDays": [
      "平日",
      "土曜日",
      "日曜日",
      "祝日"
    ],
    "openDaysNote": ""
  },
  {
    "id": "1872300148",
    "name": "おおい町社会福祉協議会ヘルパーステーション名田庄",
    "kana": "オオイチョウシャカイフクシキョウギカイヘルパーステーションナタショウ",
    "address": "福井県大飯郡おおい町名田庄下６－１",
    "lat": 35.4070517,
    "lng": 135.6439759,
    "tel": "０７７０－６７－２３１８",
    "url": "http://ohi-shakyo.or.jp/",
    "pref": "福井県",
    "city": "おおい町",
    "category": "home_help",
    "serviceType": "訪問介護",
    "capacity": 0,
    "openDays": [
      "平日",
      "土曜日",
      "日曜日",
      "祝日"
    ],
    "openDaysNote": "営業時間と、同様。"
  },
  {
    "id": "1871600217",
    "name": "えいへいじ訪問介護ステーション",
    "kana": "エイヘイジホウモンカイゴステーション",
    "address": "福井県吉田郡永平寺町飯島6-34",
    "lat": 36.0898437,
    "lng": 136.3566212,
    "tel": "0776-63-1119",
    "url": "http://www.eiheijishakyo.jp",
    "pref": "福井県",
    "city": "永平寺町",
    "category": "home_help",
    "serviceType": "訪問介護",
    "capacity": 0,
    "openDays": [
      "平日",
      "土曜日",
      "祝日"
    ],
    "openDaysNote": "平日、祝日のみ営業"
  },
  {
    "id": "1871600126",
    "name": "ケアふくい訪問介護センター",
    "kana": "ケアフクイホウモンカイゴセンター",
    "address": "福井県吉田郡永平寺町松岡薬師1-145",
    "lat": 36.0962167079641,
    "lng": 136.305824857697,
    "tel": "0776-61-0216",
    "url": "",
    "pref": "福井県",
    "city": "永平寺町",
    "category": "home_help",
    "serviceType": "訪問介護",
    "capacity": 0,
    "openDays": [
      "平日",
      "土曜日",
      "祝日"
    ],
    "openDaysNote": ""
  },
  {
    "id": "1871600316",
    "name": "ケアふくい訪問介護センター",
    "kana": "ケアフクイホウモンカイゴセンター",
    "address": "福井県吉田郡永平寺町松岡薬師1-145",
    "lat": 36.0961674,
    "lng": 136.3059321,
    "tel": "0776-61-0216",
    "url": "",
    "pref": "福井県",
    "city": "永平寺町",
    "category": "home_help",
    "serviceType": "訪問介護",
    "capacity": 0,
    "openDays": [
      "平日",
      "祝日"
    ],
    "openDaysNote": "時間外のサービスについてはご相談ください。"
  },
  {
    "id": "1871600274",
    "name": "ヘルパーステーションマミー",
    "kana": "ヘルパーステーションマミー",
    "address": "福井県吉田郡永平寺町松岡神明3-98",
    "lat": 36.0921676,
    "lng": 136.3010422,
    "tel": "0776-61-1676",
    "url": "",
    "pref": "福井県",
    "city": "永平寺町",
    "category": "home_help",
    "serviceType": "訪問介護",
    "capacity": 0,
    "openDays": [
      "平日",
      "土曜日",
      "日曜日",
      "祝日"
    ],
    "openDaysNote": "但し、訪問介護の需要によっては２４時間・３６５日可能な体制とする。"
  },
  {
    "id": "1870300363",
    "name": "あいぜん訪問介護センター",
    "kana": "アイゼンホウモンカイゴセンター",
    "address": "福井県越前市広瀬町131-23",
    "lat": 35.8872777,
    "lng": 136.143272,
    "tel": "0778-21-1782",
    "url": "http://care-net.biz/18/aizen/",
    "pref": "福井県",
    "city": "越前市",
    "category": "home_help",
    "serviceType": "訪問介護",
    "capacity": 0,
    "openDays": [
      "平日",
      "土曜日",
      "祝日"
    ],
    "openDaysNote": "介護タクシーは日曜日休業"
  },
  {
    "id": "1870300181",
    "name": "いちばん介護",
    "kana": "イチバンカイゴ",
    "address": "越前市瓜生町31-1",
    "lat": 35.9189194,
    "lng": 136.1828644,
    "tel": "0778-22-0055",
    "url": "http://ichibankaigo.jp/",
    "pref": "福井県",
    "city": "越前市",
    "category": "home_help",
    "serviceType": "訪問介護",
    "capacity": 0,
    "openDays": [
      "平日",
      "土曜日",
      "日曜日",
      "祝日"
    ],
    "openDaysNote": ""
  },
  {
    "id": "1870301007",
    "name": "ニチイケアセンター今立",
    "kana": "ニチイケアセンターイマダテ",
    "address": "福井県越前市新在家町8-40",
    "lat": 35.9115897,
    "lng": 136.2430496,
    "tel": "0778-42-1076",
    "url": "www.nichiigakkan.co.jp",
    "pref": "福井県",
    "city": "越前市",
    "category": "home_help",
    "serviceType": "訪問介護",
    "capacity": null,
    "openDays": [
      "平日"
    ],
    "openDaysNote": "居宅サービス計画により、事業所の営業時間外でも訪問介護サービスを提供いたします。"
  },
  {
    "id": "1870300066",
    "name": "ニチイケアセンター武生",
    "kana": "ニチイケアセンタータケフ",
    "address": "越前市国高1-16-16",
    "lat": 35.911176,
    "lng": 136.1866226,
    "tel": "0778-25-5080",
    "url": "http://www.nichiigakkan.co.jp/",
    "pref": "福井県",
    "city": "越前市",
    "category": "home_help",
    "serviceType": "訪問介護",
    "capacity": 0,
    "openDays": [
      "平日",
      "土曜日",
      "日曜日",
      "祝日"
    ],
    "openDaysNote": "居宅サービス計画により、事業所の営業時間外でも、訪問介護サービスを提供いたします。"
  },
  {
    "id": "1870300041",
    "name": "ほっとヘルパーステーション",
    "kana": "ホットヘルパーステーション",
    "address": "福井県越前市高木町111-2ほっと地域包括ケアセンター ほっと地域包括ケアセンター",
    "lat": 35.9187013949493,
    "lng": 136.191770770268,
    "tel": "0778-21-5208",
    "url": "http://www.hotreha.com",
    "pref": "福井県",
    "city": "越前市",
    "category": "home_help",
    "serviceType": "訪問介護",
    "capacity": 0,
    "openDays": [
      "平日",
      "土曜日",
      "祝日"
    ],
    "openDaysNote": "電話等により、24時間常時連絡が可能な体制とする。"
  },
  {
    "id": "1870301015",
    "name": "レッツ訪問介護ステーション",
    "kana": "レッツホウモンカイゴステーション",
    "address": "福井県越前市横根町12-4-1",
    "lat": 35.9119682,
    "lng": 136.126413,
    "tel": "0778-43-5633",
    "url": "http://lifemore.ne.jp/",
    "pref": "福井県",
    "city": "越前市",
    "category": "home_help",
    "serviceType": "訪問介護",
    "capacity": 20,
    "openDays": [
      "平日",
      "土曜日",
      "日曜日",
      "祝日"
    ],
    "openDaysNote": "時間外の訪問介護サービスについては相談させて頂きます。"
  },
  {
    "id": "1870300488",
    "name": "越前市社会福祉協議会ホームヘルプサービスセンター",
    "kana": "エチゼンシシャカイフクシキョウギカイホームヘルプサービスセンター",
    "address": "福井県越前市矢船町第8号12番地1",
    "lat": 35.8878535,
    "lng": 136.1772325,
    "tel": "0778-22-3233",
    "url": "",
    "pref": "福井県",
    "city": "越前市",
    "category": "home_help",
    "serviceType": "訪問介護",
    "capacity": 0,
    "openDays": [
      "平日",
      "土曜日",
      "日曜日",
      "祝日"
    ],
    "openDaysNote": ""
  },
  {
    "id": "1870300413",
    "name": "県民せいきょうホームヘルプサービス（丹南）",
    "kana": "ケンミンセイキョウホームヘルプサービス(タンナン)",
    "address": "福井県越前市家久町４９字",
    "lat": 35.9317646,
    "lng": 136.1666099,
    "tel": "0778-22-8611",
    "url": "http://www.fukui.coop/",
    "pref": "福井県",
    "city": "越前市",
    "category": "home_help",
    "serviceType": "訪問介護",
    "capacity": 0,
    "openDays": [
      "平日",
      "土曜日",
      "日曜日",
      "祝日"
    ],
    "openDaysNote": "時間外のサービスについては相談させていただきます"
  },
  {
    "id": "1870300652",
    "name": "指定訪問介護いっぷく",
    "kana": "シテイホウモンカイゴイップク",
    "address": "越前市黒川町114ー61ー1しらやま山荘 しらやま山荘",
    "lat": 35.8816815,
    "lng": 136.0692995,
    "tel": "０７７８－２８－１１０１",
    "url": "http://www.carehomeippuku.jp/",
    "pref": "福井県",
    "city": "越前市",
    "category": "home_help",
    "serviceType": "訪問介護",
    "capacity": 0,
    "openDays": [
      "平日",
      "土曜日",
      "日曜日",
      "祝日"
    ],
    "openDaysNote": "21時から翌朝7時までのサービス提供については別途ご相談に応じます。"
  },
  {
    "id": "1870300637",
    "name": "訪問介護サービスケアフルハウス",
    "kana": "ホウモンカイゴサービスケアフルハウス",
    "address": "越前市広瀬町153-12-3",
    "lat": 35.8895792956932,
    "lng": 136.146741329886,
    "tel": "0778-22-0030",
    "url": "http://carefull.co.jp",
    "pref": "福井県",
    "city": "越前市",
    "category": "home_help",
    "serviceType": "訪問介護",
    "capacity": 30,
    "openDays": [
      "平日",
      "土曜日",
      "日曜日",
      "祝日"
    ],
    "openDaysNote": "相談に応じて対応させていただきます。"
  },
  {
    "id": "1860390036",
    "name": "訪問介護ステーション府中",
    "kana": "ホウモンカイゴステーションフチュウ",
    "address": "福井県越前市府中1丁目3号5番地",
    "lat": 35.9020476684482,
    "lng": 136.169940633945,
    "tel": "0778-24-5508",
    "url": "",
    "pref": "福井県",
    "city": "越前市",
    "category": "home_help",
    "serviceType": "訪問介護",
    "capacity": 0,
    "openDays": [
      "平日"
    ],
    "openDaysNote": "土曜・日曜・祝日は必要に応じてサービスの提供いたします。"
  },
  {
    "id": "1870300306",
    "name": "和上苑ホームヘルプ",
    "kana": "ワジョウエンホームヘルプ",
    "address": "越前市本多2丁目3-19",
    "lat": 35.907097437285,
    "lng": 136.165228765012,
    "tel": "0778-23-6611",
    "url": "http://www.wakatake.ne.jp/",
    "pref": "福井県",
    "city": "越前市",
    "category": "home_help",
    "serviceType": "訪問介護",
    "capacity": 60,
    "openDays": [
      "平日",
      "土曜日",
      "日曜日",
      "祝日"
    ],
    "openDaysNote": "特別に必要がある場合はこの限りではありません。"
  },
  {
    "id": "1872000532",
    "name": "へるぷハウス訪問介護事業所",
    "kana": "ヘルプハウスホウモンカイゴジギョウショ",
    "address": "福井県丹生郡越前町西田中12-32",
    "lat": 35.9748746,
    "lng": 136.1302757,
    "tel": "0778-42-5801",
    "url": "",
    "pref": "福井県",
    "city": "越前町",
    "category": "home_help",
    "serviceType": "訪問介護",
    "capacity": 0,
    "openDays": [
      "平日",
      "土曜日"
    ],
    "openDaysNote": "月曜日から土曜日までとする。(日曜日、祝日は応相談)（改行）但し、年末年始(12/28～1/5)を除きます。（必要時は応相談）（改行）上記以外の利用の場合は相談に応じます"
  },
  {
    "id": "1872000391",
    "name": "越前町社会福祉協議会ホームヘルパーステーション",
    "kana": "エチゼンチョウシャカイフクシキョウギカイホームヘルパーステーション",
    "address": "福井県丹生郡越前町織田106-51-1織田保健福祉センター 織田保健福祉センター",
    "lat": 35.9573350593865,
    "lng": 136.047773970692,
    "tel": "0778-36-2389",
    "url": "http://www.e-shakyo.or.jp/",
    "pref": "福井県",
    "city": "越前町",
    "category": "home_help",
    "serviceType": "訪問介護",
    "capacity": 0,
    "openDays": [
      "平日",
      "祝日"
    ],
    "openDaysNote": "休業時の利用については相談に応じます"
  },
  {
    "id": "1872000516",
    "name": "指定訪問介護事業所　ヘルパーステーション　さざんか",
    "kana": "シテイホウモンカイゴジギョウショ　ヘルパーステーション　サザンカ",
    "address": "福井県丹生郡越前町朝日22字7-1",
    "lat": 35.9709529,
    "lng": 136.119688,
    "tel": "0778-34-8100",
    "url": "http://www.kodoen.or.jp/",
    "pref": "福井県",
    "city": "越前町",
    "category": "home_help",
    "serviceType": "訪問介護",
    "capacity": 0,
    "openDays": [
      "平日",
      "土曜日",
      "日曜日",
      "祝日"
    ],
    "openDaysNote": ""
  },
  {
    "id": "1872300122",
    "name": "ヘルパーステーション　グっとサポート",
    "kana": "ヘルパーステーション　グットサポート",
    "address": "福井県大飯郡高浜町薗部47-4",
    "lat": 35.4867627713973,
    "lng": 135.559397350497,
    "tel": "0770-72-3373",
    "url": "http://goodsupport.rash.jp/",
    "pref": "福井県",
    "city": "高浜町",
    "category": "home_help",
    "serviceType": "訪問介護",
    "capacity": 0,
    "openDays": [
      "平日",
      "土曜日",
      "日曜日",
      "祝日"
    ],
    "openDaysNote": ""
  },
  {
    "id": "1872300023",
    "name": "社会福祉法人高浜町社会福祉協議会指定訪問介護事業所",
    "kana": "シャカイフクシホウジンタカハマチョウシャカイフクシキョウギカイシテイホウモンカイゴジギョウショ",
    "address": "福井県大飯郡高浜町緑ヶ丘1-1-1高浜町社会福祉センター内　　指定訪問介護事業所 高浜町社会福祉センター内　　指定訪問介護事業所",
    "lat": 35.4928915,
    "lng": 135.5080766,
    "tel": "0770-72-2480",
    "url": "ts722480@zeus.eonet.ne.jp",
    "pref": "福井県",
    "city": "高浜町",
    "category": "home_help",
    "serviceType": "訪問介護",
    "capacity": 1,
    "openDays": [
      "平日",
      "土曜日",
      "日曜日",
      "祝日"
    ],
    "openDaysNote": ""
  },
  {
    "id": "1872300155",
    "name": "福井県大飯郡高浜町青１字宮ケ谷１号3番１",
    "kana": "フクイケンオオイグンタカハマチョウコワダ64-3",
    "address": "大飯郡高浜町青１字宮ケ谷１号3番１",
    "lat": 35.4822033109652,
    "lng": 135.500190636308,
    "tel": "0770-50-7643",
    "url": "",
    "pref": "福井県",
    "city": "高浜町",
    "category": "home_help",
    "serviceType": "訪問介護",
    "capacity": 0,
    "openDays": [
      "平日",
      "土曜日",
      "日曜日",
      "祝日"
    ],
    "openDaysNote": ""
  },
  {
    "id": "1871700173",
    "name": "JA福井県ヘルパーステーションはなさき",
    "kana": "ジェイエイフクイケンヘルパーステーションハナサキ",
    "address": "福井県坂井市坂井町上新庄42-19",
    "lat": 36.1653522,
    "lng": 136.2322984,
    "tel": "0776-50-7117",
    "url": "http://www.ja-fukuiken.or.jp",
    "pref": "福井県",
    "city": "坂井市",
    "category": "home_help",
    "serviceType": "訪問介護",
    "capacity": 0,
    "openDays": [
      "平日"
    ],
    "openDaysNote": "曜日・時間等については別途ご相談に応じサービスを提供いたします。"
  },
  {
    "id": "1871700132",
    "name": "あじさい園ホームヘルパーステーション",
    "kana": "アジサイエンホームヘルパーステーション",
    "address": "福井県坂井市三国町梶４９－１８",
    "lat": 36.2465031529723,
    "lng": 136.155044841664,
    "tel": "0776-82-1282",
    "url": "http://www.hakurakuso.com",
    "pref": "福井県",
    "city": "坂井市",
    "category": "home_help",
    "serviceType": "訪問介護",
    "capacity": 0,
    "openDays": [
      "平日",
      "土曜日",
      "日曜日",
      "祝日"
    ],
    "openDaysNote": "サービス提供時間帯によって、早朝加算・深夜加算が発生し、料金がかわります。"
  },
  {
    "id": "1871701189",
    "name": "ナーシング福井",
    "kana": "ナーシングフクイ",
    "address": "三国町新宿1-8-25",
    "lat": 36.2254793,
    "lng": 136.1417233,
    "tel": "0776-50-1778",
    "url": "https://www.nurshingfukui.com",
    "pref": "福井県",
    "city": "坂井市",
    "category": "home_help",
    "serviceType": "訪問介護",
    "capacity": null,
    "openDays": [
      "平日",
      "土曜日"
    ],
    "openDaysNote": ""
  },
  {
    "id": "1871700371",
    "name": "県民せいきょうホームヘルプサービス（坂井）",
    "kana": "ケンミンセイキョウホームヘルプサービス（サカイ）",
    "address": "福井県坂井市坂井町大味５６号",
    "lat": 36.1851547385798,
    "lng": 136.195263948335,
    "tel": "0776-72-2122",
    "url": "https://www.fukui.coop/care/shisetsu/sakai-kirameki/",
    "pref": "福井県",
    "city": "坂井市",
    "category": "home_help",
    "serviceType": "訪問介護",
    "capacity": 0,
    "openDays": [
      "平日",
      "土曜日",
      "日曜日",
      "祝日"
    ],
    "openDaysNote": ""
  },
  {
    "id": "1871701213",
    "name": "合同会社ヘルパーステーションはっち",
    "kana": "ゴウドウガイシャヘルパーステーシャンハッチ",
    "address": "福井県坂井市春江町千歩寺35-1-75",
    "lat": 36.1487205,
    "lng": 136.2045039,
    "tel": "0776-76-0422",
    "url": "",
    "pref": "福井県",
    "city": "坂井市",
    "category": "home_help",
    "serviceType": "訪問介護",
    "capacity": 0,
    "openDays": [
      "平日",
      "土曜日",
      "日曜日",
      "祝日"
    ],
    "openDaysNote": "年末年始（12/31～1/2)休み"
  },
  {
    "id": "1871700579",
    "name": "坂井市社会福祉協議会　ホームヘルパーステーション",
    "kana": "サカイシシャカイフクシキョウギカイ　ホームヘルパーステーション",
    "address": "福井県坂井市坂井町下新庄18-3-1",
    "lat": 36.1664241240349,
    "lng": 136.223826428975,
    "tel": "0776－67－5152",
    "url": "http://www.sakaicityshakyo.jp/",
    "pref": "福井県",
    "city": "坂井市",
    "category": "home_help",
    "serviceType": "訪問介護",
    "capacity": 120,
    "openDays": [
      "平日",
      "土曜日",
      "日曜日",
      "祝日"
    ],
    "openDaysNote": ""
  },
  {
    "id": "1851780021",
    "name": "坂井訪問介護二の宮センター",
    "kana": "サカイホウモンカイゴニノミヤセンター",
    "address": "福井県坂井市坂井町折戸第１号５８番地",
    "lat": 36.1713585,
    "lng": 136.1702412,
    "tel": "0776-72-3411",
    "url": "https://sakaicare.com/",
    "pref": "福井県",
    "city": "坂井市",
    "category": "home_help",
    "serviceType": "訪問介護",
    "capacity": 0,
    "openDays": [
      "平日",
      "土曜日",
      "日曜日",
      "祝日"
    ],
    "openDaysNote": "無し"
  },
  {
    "id": "1871700843",
    "name": "笑楽日のヘルパー芙生",
    "kana": "ワラビノヘルパーフキ",
    "address": "丸岡町山口５９－１３",
    "lat": 36.1604566,
    "lng": 136.3319236,
    "tel": "776672396",
    "url": "https://www.day-warabi.com/",
    "pref": "福井県",
    "city": "坂井市",
    "category": "home_help",
    "serviceType": "訪問介護",
    "capacity": 0,
    "openDays": [
      "平日",
      "土曜日",
      "日曜日",
      "祝日"
    ],
    "openDaysNote": "竹田地区のご利用者のみ対象【令和７年３月現在】"
  },
  {
    "id": "1871700678",
    "name": "双和会訪問介護ステーションはっぴー",
    "kana": "ソウワカイホウモンカイゴステーションハッピー",
    "address": "福井県坂井市三国町陣ケ岡35-1-8",
    "lat": 36.2348826739371,
    "lng": 136.13554628177,
    "tel": "0776-82-5822",
    "url": "http://fj-g.jp/",
    "pref": "福井県",
    "city": "坂井市",
    "category": "home_help",
    "serviceType": "訪問介護",
    "capacity": 0,
    "openDays": [
      "平日",
      "土曜日",
      "祝日"
    ],
    "openDaysNote": ""
  },
  {
    "id": "1871701221",
    "name": "訪問介護ステーションみかづき",
    "kana": "ホウモンカイゴステーションミカヅキ",
    "address": "福井県坂井市坂井町長屋64-3",
    "lat": 36.1816914,
    "lng": 136.2420447,
    "tel": "0776-50-3537",
    "url": "",
    "pref": "福井県",
    "city": "坂井市",
    "category": "home_help",
    "serviceType": "訪問介護",
    "capacity": 0,
    "openDays": [
      "平日"
    ],
    "openDaysNote": ""
  },
  {
    "id": "1871700744",
    "name": "訪問介護事業所　アプトケア三国",
    "kana": "ホウモンカイゴジギョウショ　アプトケアミクニ",
    "address": "坂井市三国町三国東2丁目9-23",
    "lat": 36.2122123,
    "lng": 136.1612452,
    "tel": "0776-60-0105",
    "url": "http://www.aptcare.jp",
    "pref": "福井県",
    "city": "坂井市",
    "category": "home_help",
    "serviceType": "訪問介護",
    "capacity": 0,
    "openDays": [
      "平日",
      "土曜日",
      "日曜日",
      "祝日"
    ],
    "openDaysNote": ""
  },
  {
    "id": "1871700942",
    "name": "夕陽ヘルパーステーション",
    "kana": "ユウヒヘルパーステーション",
    "address": "福井県坂井市三国町錦３丁目１－１８",
    "lat": 36.2158191320224,
    "lng": 136.15217602737,
    "tel": "0776-82-0791",
    "url": "",
    "pref": "福井県",
    "city": "坂井市",
    "category": "home_help",
    "serviceType": "訪問介護",
    "capacity": 0,
    "openDays": [
      "平日",
      "土曜日",
      "日曜日",
      "祝日"
    ],
    "openDaysNote": ""
  },
  {
    "id": "1871701080",
    "name": "陽だまり舎介護サービス株式会社",
    "kana": "ヒダマリヤカイゴサービスカブシキカイシャ",
    "address": "福井県坂井市丸岡町羽崎31-2-5",
    "lat": 36.1151297,
    "lng": 136.2633178,
    "tel": "0776-67-6000",
    "url": "",
    "pref": "福井県",
    "city": "坂井市",
    "category": "home_help",
    "serviceType": "訪問介護",
    "capacity": 0,
    "openDays": [
      "平日",
      "土曜日",
      "日曜日",
      "祝日"
    ],
    "openDaysNote": "時間外を利用希望される方は介護支援専門員にご相談下さい。"
  },
  {
    "id": "1870700364",
    "name": "ニチイケアセンターたちまち",
    "kana": "ニチイケアセンタータチマチ",
    "address": "福井県鯖江市吉江町303",
    "lat": 35.9851405,
    "lng": 136.1761792,
    "tel": "0778-53-0066",
    "url": "http://www.nichiigakkan.co.jp",
    "pref": "福井県",
    "city": "鯖江市",
    "category": "home_help",
    "serviceType": "訪問介護",
    "capacity": 0,
    "openDays": [
      "平日",
      "土曜日",
      "日曜日",
      "祝日"
    ],
    "openDaysNote": "希望により、相談可"
  },
  {
    "id": "1870700273",
    "name": "ふれあいホーム　さわやか虹",
    "kana": "フレアイホーム　サワヤカニジ",
    "address": "福井県鯖江市二丁掛町14-28",
    "lat": 35.9530417,
    "lng": 136.1560602,
    "tel": "0778-62-4177",
    "url": "https://www.sawakaya-niji.com/",
    "pref": "福井県",
    "city": "鯖江市",
    "category": "home_help",
    "serviceType": "訪問介護",
    "capacity": 5,
    "openDays": [
      "平日"
    ],
    "openDaysNote": "営業日以外の利用申込みについては、相談に応じる。"
  },
  {
    "id": "1870700216",
    "name": "ほほえみ訪問介護センター",
    "kana": "ホホエミホウモンカイゴセンター",
    "address": "福井県鯖江市桜町２丁目９－３２",
    "lat": 35.9448464,
    "lng": 136.1792028,
    "tel": "0778-54-7889",
    "url": "",
    "pref": "福井県",
    "city": "鯖江市",
    "category": "home_help",
    "serviceType": "訪問介護",
    "capacity": 0,
    "openDays": [
      "平日",
      "土曜日",
      "日曜日",
      "祝日"
    ],
    "openDaysNote": "お盆・年末年始休み"
  },
  {
    "id": "1870700042",
    "name": "社会福祉法人　鯖江市社会福祉協議会ホームヘルプサービスセンター",
    "kana": "シャカイフクシホウジン　サバエシシャカイフクシキョウギカイホームヘルプサービスセンター",
    "address": "福井県鯖江市水落町２丁目３０番１号",
    "lat": 35.9617386,
    "lng": 136.1878182,
    "tel": "0778-51-0091",
    "url": "http://www.sabae-shakyo.or.jp/",
    "pref": "福井県",
    "city": "鯖江市",
    "category": "home_help",
    "serviceType": "訪問介護",
    "capacity": 0,
    "openDays": [
      "平日",
      "土曜日",
      "日曜日",
      "祝日"
    ],
    "openDaysNote": "利用者のニーズに合わせ、訪問時間の対応をしています。"
  },
  {
    "id": "1870700653",
    "name": "特定非営利活動法人　心の絆",
    "kana": "トクテイヒエイリカッドウホウジン　ココロノキズナ",
    "address": "福井県鯖江市三六町二丁目7-13",
    "lat": 35.9738583,
    "lng": 136.1774861,
    "tel": "0778-52-2828",
    "url": "http://kizuna2019.jp/",
    "pref": "福井県",
    "city": "鯖江市",
    "category": "home_help",
    "serviceType": "訪問介護",
    "capacity": null,
    "openDays": [
      "平日",
      "土曜日",
      "日曜日",
      "祝日"
    ],
    "openDaysNote": "それ以外の時間のサービス提供については相談に応じます。"
  },
  {
    "id": "1872400179",
    "name": "ニチイケアセンターわかさ",
    "kana": "ニチイケアセンターワカサ",
    "address": "三方上中郡若狭町北前川29-6-1",
    "lat": 35.54868,
    "lng": 135.9074428,
    "tel": "0770-45-3305",
    "url": "http://www.nichiigakkan.co.jp/",
    "pref": "福井県",
    "city": "若狭町",
    "category": "home_help",
    "serviceType": "訪問介護",
    "capacity": 0,
    "openDays": [
      "平日",
      "土曜日",
      "日曜日",
      "祝日"
    ],
    "openDaysNote": "ただし、居宅サービス計画、休業日、営業時間以外でも、サービスの提供を行う場合がある"
  },
  {
    "id": "1872400310",
    "name": "ニチイケアセンター上中",
    "kana": "ニチイケアセンターカミナカ",
    "address": "福井県三方上中郡若狭町井ノ口26-5-19サンポートスリーム205号 サンポートスリーム205号",
    "lat": 35.4636726,
    "lng": 135.8492327,
    "tel": "0770-62-9010",
    "url": "http://www.nichiigakkan.co.jp",
    "pref": "福井県",
    "city": "若狭町",
    "category": "home_help",
    "serviceType": "訪問介護",
    "capacity": 0,
    "openDays": [
      "平日",
      "土曜日",
      "日曜日",
      "祝日"
    ],
    "openDaysNote": "居宅サービス計画により、事業所の営業時間外であってもサービスを提供致します。"
  },
  {
    "id": "1872400062",
    "name": "ホームヘルプサービス　いずみ",
    "kana": "ホームヘルプサービス　イズミ",
    "address": "福井県三方上中郡若狭町井崎第４０号８０番地地域福祉センターいずみ内 地域福祉センターいずみ内",
    "lat": 35.5154331,
    "lng": 135.8948028,
    "tel": "0770-45-2837",
    "url": "http://www.w-shakyo.or.jp/",
    "pref": "福井県",
    "city": "若狭町",
    "category": "home_help",
    "serviceType": "訪問介護",
    "capacity": 0,
    "openDays": [
      "平日",
      "土曜日",
      "日曜日",
      "祝日"
    ],
    "openDaysNote": "年始３日間休業"
  },
  {
    "id": "1872400146",
    "name": "公益社団法人　若狭町シルバー人材センター",
    "kana": "コウエキシャダンホウジン　ワカサチョウシルバージンザイセンター",
    "address": "福井県三方上中郡若狭町中央１－１　シルバー交流プラザ",
    "lat": 35.4618879,
    "lng": 135.857211,
    "tel": "0770-45-9125",
    "url": "http://www.sjc.ne.jp/mikata-f/",
    "pref": "福井県",
    "city": "若狭町",
    "category": "home_help",
    "serviceType": "訪問介護",
    "capacity": 0,
    "openDays": [
      "平日",
      "土曜日",
      "日曜日",
      "祝日"
    ],
    "openDaysNote": ""
  },
  {
    "id": "1872400328",
    "name": "訪問介護よすが",
    "kana": "ホウモンカイゴヨスガ",
    "address": "福井県三方上中郡若狭町鳥浜28番地54号の2",
    "lat": 35.5538159503025,
    "lng": 135.90907192209,
    "tel": "0770-47-6884",
    "url": "http://hp.kaipoke.biz/vr8/",
    "pref": "福井県",
    "city": "若狭町",
    "category": "home_help",
    "serviceType": "訪問介護",
    "capacity": null,
    "openDays": [
      "平日"
    ],
    "openDaysNote": ""
  },
  {
    "id": "1872400278",
    "name": "訪問介護事業所わらく",
    "kana": "ホウモンカイゴジギョウショワラク",
    "address": "福井県三方上中郡若狭町有田11-20-10",
    "lat": 35.4847607,
    "lng": 135.8673021,
    "tel": "0770-64-1157",
    "url": "",
    "pref": "福井県",
    "city": "若狭町",
    "category": "home_help",
    "serviceType": "訪問介護",
    "capacity": 90,
    "openDays": [
      "平日",
      "土曜日",
      "日曜日",
      "祝日"
    ],
    "openDaysNote": ""
  },
  {
    "id": "1870600127",
    "name": "さくら荘訪問介護センター",
    "kana": "サクラソウホウモンカイゴセンター",
    "address": "福井県勝山市芳野町２丁目１－１１さくら荘在宅サービス支援センターさくらんぼ さくら荘在宅サービス支援センターさくらんぼ",
    "lat": 36.066972,
    "lng": 136.4992673,
    "tel": "0779-88-6502",
    "url": "http://k-sakurasou.jp",
    "pref": "福井県",
    "city": "勝山市",
    "category": "home_help",
    "serviceType": "訪問介護",
    "capacity": 0,
    "openDays": [
      "平日",
      "土曜日",
      "日曜日",
      "祝日"
    ],
    "openDaysNote": "訪問介護を利用できる時間外でも利用者及び家族からのご要望があればサービスを提供いたします。"
  },
  {
    "id": "1870600135",
    "name": "県民せいきょうホームヘルプサービス（勝山）",
    "kana": "ケンミンセイキョウホームヘルプサービス（カツヤマ）",
    "address": "勝山市元町2丁目5番12号",
    "lat": 36.0577954,
    "lng": 136.5033784,
    "tel": "0779-87-2511",
    "url": "http://www.fukui.coop/",
    "pref": "福井県",
    "city": "勝山市",
    "category": "home_help",
    "serviceType": "訪問介護",
    "capacity": 0,
    "openDays": [
      "平日",
      "土曜日",
      "日曜日",
      "祝日"
    ],
    "openDaysNote": "時間外のサービスについては相談させて頂きます"
  },
  {
    "id": "1870600150",
    "name": "合資会社ケアサポート花水木",
    "kana": "ゴウシカイシャケアサポートハナミズキ",
    "address": "勝山市毛屋町710",
    "lat": 36.0467469,
    "lng": 136.5091809,
    "tel": "0779-88-2477",
    "url": "",
    "pref": "福井県",
    "city": "勝山市",
    "category": "home_help",
    "serviceType": "訪問介護",
    "capacity": 0,
    "openDays": [
      "平日"
    ],
    "openDaysNote": ""
  },
  {
    "id": "1870600036",
    "name": "勝山市社会福祉協議会ホームヘルプサービスセンター",
    "kana": "カツヤマシシャカイフクシキョウギカイホームヘルプサービスセンター",
    "address": "勝山市郡町1丁目１－５１",
    "lat": 36.0689935989401,
    "lng": 136.496422527647,
    "tel": "0779-88-3737",
    "url": "http://www.katuyama-sk.jp",
    "pref": "福井県",
    "city": "勝山市",
    "category": "home_help",
    "serviceType": "訪問介護",
    "capacity": 0,
    "openDays": [
      "平日",
      "土曜日",
      "日曜日",
      "祝日"
    ],
    "openDaysNote": "必要時はその限りでありません"
  },
  {
    "id": "1870400387",
    "name": "ケアサポート　あゆみ",
    "kana": "ケアサポート　アユミ",
    "address": "福井県小浜市大手町8-33",
    "lat": 35.4973437132488,
    "lng": 135.746238302516,
    "tel": "0770-53-5070",
    "url": "http://www.ayumi-ote.com",
    "pref": "福井県",
    "city": "小浜市",
    "category": "home_help",
    "serviceType": "訪問介護",
    "capacity": 120,
    "openDays": [
      "平日",
      "土曜日",
      "日曜日",
      "祝日"
    ],
    "openDaysNote": ""
  },
  {
    "id": "1870400098",
    "name": "ニチイケアセンター小浜",
    "kana": "ニチイケアセンターオバマ",
    "address": "小浜市南川町11-35",
    "lat": 35.4920769,
    "lng": 135.7555237,
    "tel": "0770-53-2623",
    "url": "http://www.nichiigakkan.co.jp",
    "pref": "福井県",
    "city": "小浜市",
    "category": "home_help",
    "serviceType": "訪問介護",
    "capacity": 0,
    "openDays": [
      "平日",
      "土曜日",
      "日曜日",
      "祝日"
    ],
    "openDaysNote": "居宅サービス計画により、事業所の営業時間時間外であってもサービスを提供致します。"
  },
  {
    "id": "1860490034",
    "name": "ふらむはぁとヘルパーステーション",
    "kana": "フラムハァトヘルパーステーション",
    "address": "遠敷７丁目301AYATTO AYATTO",
    "lat": 35.4852412479136,
    "lng": 135.775840761169,
    "tel": "0770-56-1011",
    "url": "http://rerephysio.co.jp",
    "pref": "福井県",
    "city": "小浜市",
    "category": "home_help",
    "serviceType": "訪問介護",
    "capacity": 0,
    "openDays": [
      "平日",
      "祝日"
    ],
    "openDaysNote": ""
  },
  {
    "id": "1870400031",
    "name": "株式会社ライフサービスヘルパーステーションまごの手",
    "kana": "カブシキガイシャライフサービスヘルパーステーションマゴノテ",
    "address": "福井県小浜市山王前１丁目6-10",
    "lat": 35.5113443,
    "lng": 135.7536433,
    "tel": "0770-53-0262",
    "url": "https://www.life-kaigo.jp/",
    "pref": "福井県",
    "city": "小浜市",
    "category": "home_help",
    "serviceType": "訪問介護",
    "capacity": 25,
    "openDays": [
      "平日",
      "土曜日",
      "日曜日",
      "祝日"
    ],
    "openDaysNote": ""
  },
  {
    "id": "1870400304",
    "name": "県民せいきょうホームヘルプサービス（若狭）",
    "kana": "ケンミンセイキョウホームヘルプサービス（ワカサ）",
    "address": "小浜市遠敷9丁目501番地",
    "lat": 35.484002823128,
    "lng": 135.773807180951,
    "tel": "0770-56-4200",
    "url": "http://www.fukui.coop/",
    "pref": "福井県",
    "city": "小浜市",
    "category": "home_help",
    "serviceType": "訪問介護",
    "capacity": 0,
    "openDays": [
      "平日",
      "土曜日",
      "日曜日",
      "祝日"
    ],
    "openDaysNote": "年末年始１２月３１日～１月３日は除く。　（ただし、利用者の状況に応じて提供を行う）"
  },
  {
    "id": "1870400015",
    "name": "小浜市社会福祉協議会　指定訪問介護事業所",
    "kana": "オバマシシャカイフクシキョウギカイ　シテイホウモンカイゴジギョウショ",
    "address": "福井県小浜市遠敷84-3-4小浜市総合福祉センター(サン・サンホーム小浜) 小浜市総合福祉センター(サン・サンホーム小浜)",
    "lat": 35.4849674,
    "lng": 135.7813388,
    "tel": "0770-56-5801",
    "url": "http://www.obama-shakyo.or.jp/",
    "pref": "福井県",
    "city": "小浜市",
    "category": "home_help",
    "serviceType": "訪問介護",
    "capacity": 0,
    "openDays": [
      "平日",
      "土曜日",
      "日曜日",
      "祝日"
    ],
    "openDaysNote": "営業時間外でのサービス提供のご希望があれば相談承ります。"
  },
  {
    "id": "1870400395",
    "name": "訪問介護ステーションおあしす",
    "kana": "ホウモンカイゴステーションオアシス",
    "address": "福井県小浜市雲浜1丁目8番8号株式会社オアシス 株式会社オアシス",
    "lat": 35.5094139,
    "lng": 135.7504019,
    "tel": "0770-53-5500",
    "url": "http://homeoasis.jp/",
    "pref": "福井県",
    "city": "小浜市",
    "category": "home_help",
    "serviceType": "訪問介護",
    "capacity": 0,
    "openDays": [
      "平日",
      "土曜日",
      "日曜日",
      "祝日"
    ],
    "openDaysNote": ""
  },
  {
    "id": "1870400155",
    "name": "訪問介護事業所　もみじの里",
    "kana": "ホウモンカイゴジギョウショ　モミジノサト",
    "address": "福井県小浜市東勢11号3番",
    "lat": 35.482683,
    "lng": 135.7204101,
    "tel": "0770-52-0084",
    "url": "http://www.momijist.jp/",
    "pref": "福井県",
    "city": "小浜市",
    "category": "home_help",
    "serviceType": "訪問介護",
    "capacity": null,
    "openDays": [
      "平日",
      "土曜日",
      "日曜日",
      "祝日"
    ],
    "openDaysNote": ""
  },
  {
    "id": "1870400114",
    "name": "訪問介護事業所ぼちぼち堂",
    "kana": "ホウモンカイゴジギョウショボチボチドウ",
    "address": "福井県小浜市国分44-9",
    "lat": 35.4810201488708,
    "lng": 135.786981289008,
    "tel": "0770-59-1390",
    "url": "",
    "pref": "福井県",
    "city": "小浜市",
    "category": "home_help",
    "serviceType": "訪問介護",
    "capacity": 0,
    "openDays": [
      "平日",
      "土曜日",
      "日曜日",
      "祝日"
    ],
    "openDaysNote": "時間外でも要請があり、利用者様と契約していれば訪問可能"
  },
  {
    "id": "1870400460",
    "name": "訪問介護事業所ゆう",
    "kana": "ホウモンカイゴジギョウショユウ",
    "address": "相生第１０号１５番地",
    "lat": 35.4455453486518,
    "lng": 135.701532769058,
    "tel": "770580151",
    "url": "",
    "pref": "福井県",
    "city": "小浜市",
    "category": "home_help",
    "serviceType": "訪問介護",
    "capacity": 30,
    "openDays": [
      "平日",
      "土曜日",
      "日曜日",
      "祝日"
    ],
    "openDaysNote": "要望にお応えします"
  },
  {
    "id": "1810514347",
    "name": "キラキラのヘルパーさん",
    "kana": "キラキラノヘルパーサン",
    "address": "福井県大野市要町１－１３　松田病院内",
    "lat": 35.990482,
    "lng": 136.4890386,
    "tel": "0779-66-6090",
    "url": "kirakirakai-matsuda.or.jp",
    "pref": "福井県",
    "city": "大野市",
    "category": "home_help",
    "serviceType": "訪問介護",
    "capacity": 0,
    "openDays": [
      "平日",
      "土曜日",
      "日曜日",
      "祝日"
    ],
    "openDaysNote": "サービス時間外でも随時対応。"
  },
  {
    "id": "1870500012",
    "name": "一乗ハイツヘルパーステーション",
    "kana": "イチジョウハイツヘルパーステーション",
    "address": "福井県大野市牛ヶ原１５４－１－１",
    "lat": 35.9937401,
    "lng": 136.4659465,
    "tel": "0779-65-7131",
    "url": "http://fuku-koumyouji.jp",
    "pref": "福井県",
    "city": "大野市",
    "category": "home_help",
    "serviceType": "訪問介護",
    "capacity": 0,
    "openDays": [
      "平日",
      "土曜日",
      "日曜日",
      "祝日"
    ],
    "openDaysNote": ""
  },
  {
    "id": "1870500186",
    "name": "県民せいきょうホームヘルプサービス（奥越）",
    "kana": "ケンミンセイキョウホームヘルプサービス（オクエツ）",
    "address": "大野市天神町3番21号",
    "lat": 35.9790976,
    "lng": 136.4884859,
    "tel": "0779-66-6811",
    "url": "http://www.fukui.coop/",
    "pref": "福井県",
    "city": "大野市",
    "category": "home_help",
    "serviceType": "訪問介護",
    "capacity": 0,
    "openDays": [
      "平日",
      "土曜日",
      "日曜日",
      "祝日"
    ],
    "openDaysNote": "利用者の状態により時間帯は考慮"
  },
  {
    "id": "1870500020",
    "name": "聖和園訪問介護サービスセンター",
    "kana": "セイワエンホウモンカイゴサービスセンター",
    "address": "大野市蕨生158-35",
    "lat": 35.9819293,
    "lng": 136.5468991,
    "tel": "0779-64-5899",
    "url": "http://www.saiseikai-seiwaen.jp/",
    "pref": "福井県",
    "city": "大野市",
    "category": "home_help",
    "serviceType": "訪問介護",
    "capacity": null,
    "openDays": [
      "平日",
      "土曜日",
      "日曜日",
      "祝日"
    ],
    "openDaysNote": ""
  },
  {
    "id": "1870500061",
    "name": "大野市社会福祉協議会　ホームヘルプサービスセンター",
    "kana": "オオノシシャカイフクシキョウギカイ　ホームヘルプサービスセンター",
    "address": "福井県大野市天神町7番15号",
    "lat": 35.9779839,
    "lng": 136.4884942,
    "tel": "0779-65-8774",
    "url": "http://ono-shakyo.jp/",
    "pref": "福井県",
    "city": "大野市",
    "category": "home_help",
    "serviceType": "訪問介護",
    "capacity": 0,
    "openDays": [
      "平日",
      "土曜日",
      "日曜日",
      "祝日"
    ],
    "openDaysNote": ""
  },
  {
    "id": "1870500327",
    "name": "大野和光園ホームヘルプ事業所",
    "kana": "オオノワコウエンホームヘルプジギョウショ",
    "address": "福井県大野市春日３丁目1718番地",
    "lat": 35.9734904,
    "lng": 136.4975237,
    "tel": "0779-66-6660",
    "url": "http://www.ono-wakouen.jp",
    "pref": "福井県",
    "city": "大野市",
    "category": "home_help",
    "serviceType": "訪問介護",
    "capacity": 0,
    "openDays": [
      "平日",
      "土曜日",
      "日曜日",
      "祝日"
    ],
    "openDaysNote": "営業日・営業時間以外の訪問については、ご相談に応じます。"
  },
  {
    "id": "1871800031",
    "name": "社会福祉法人　池田町社会福祉協議会指定訪問介護事業所",
    "kana": "シャカイフクシホウジン　イケダチョウシャカイフクシキョウギカイシテイホウモンカイゴジギョウショ",
    "address": "福井県今立郡池田町薮田第5号3番地の1総合保健福祉センターほっとプラザ内 総合保健福祉センターほっとプラザ内",
    "lat": 35.8955833025933,
    "lng": 136.345674513492,
    "tel": "0778-44-7750",
    "url": "",
    "pref": "福井県",
    "city": "池田町",
    "category": "home_help",
    "serviceType": "訪問介護",
    "capacity": 50,
    "openDays": [
      "平日",
      "祝日"
    ],
    "openDaysNote": "上記の規定にかかわらず、時間外もしくは休日等の申し込みがあった場合はこの限りではない。"
  },
  {
    "id": "1870200340",
    "name": "ＳＯＭＰＯケア　敦賀　訪問介護",
    "kana": "ソンポケア　ツルガ　ホウモンカイゴ",
    "address": "福井県敦賀市堂50-1-4　日経ビル1F(長沢)日経ビル１階 日経ビル１階",
    "lat": 35.6328806428067,
    "lng": 136.070632259524,
    "tel": "0770-21-7161",
    "url": "",
    "pref": "福井県",
    "city": "敦賀市",
    "category": "home_help",
    "serviceType": "訪問介護",
    "capacity": 5,
    "openDays": [
      "平日",
      "土曜日",
      "日曜日",
      "祝日"
    ],
    "openDaysNote": "サービス提供時間は、事前に居宅介護支援事業者等により計画された居宅サービス計画に基づくものとする。"
  },
  {
    "id": "1870200548",
    "name": "あすか訪問介護・介護タクシー事業所",
    "kana": "アスカホウモンカイゴ・カイゴタクシージギョウショ",
    "address": "福井県敦賀市山泉73-914-4",
    "lat": 35.6152422,
    "lng": 136.0625152,
    "tel": "0770-21-4667",
    "url": "",
    "pref": "福井県",
    "city": "敦賀市",
    "category": "home_help",
    "serviceType": "訪問介護",
    "capacity": 0,
    "openDays": [
      "平日",
      "土曜日",
      "日曜日",
      "祝日"
    ],
    "openDaysNote": ""
  },
  {
    "id": "1870200266",
    "name": "ケアサービス一休さん",
    "kana": "ケアサービスイッキュウサン",
    "address": "福井県敦賀市山泉73号905番地",
    "lat": 35.6151671293691,
    "lng": 136.061354940475,
    "tel": "0770-21-1322",
    "url": "",
    "pref": "福井県",
    "city": "敦賀市",
    "category": "home_help",
    "serviceType": "訪問介護",
    "capacity": 0,
    "openDays": [
      "平日",
      "土曜日",
      "日曜日",
      "祝日"
    ],
    "openDaysNote": "上記時間帯のほか、緊急時等、必要に応じ対応いたします。ご相談ください。"
  },
  {
    "id": "1870200530",
    "name": "ケアサービス北寿",
    "kana": "ケアサービスホクジュ",
    "address": "福井県敦賀市堂44号1-1",
    "lat": 35.6299027756995,
    "lng": 136.071691612834,
    "tel": "0770-20-1711",
    "url": "",
    "pref": "福井県",
    "city": "敦賀市",
    "category": "home_help",
    "serviceType": "訪問介護",
    "capacity": 30,
    "openDays": [
      "平日"
    ],
    "openDaysNote": "年中無休　２４時間。"
  },
  {
    "id": "1870200704",
    "name": "ささえ",
    "kana": "ササエ",
    "address": "敦賀市神楽町１丁目４－８",
    "lat": 35.6541673292249,
    "lng": 136.071616005781,
    "tel": "0770-36-4981",
    "url": "",
    "pref": "福井県",
    "city": "敦賀市",
    "category": "home_help",
    "serviceType": "訪問介護",
    "capacity": 0,
    "openDays": [
      "平日",
      "土曜日",
      "日曜日",
      "祝日"
    ],
    "openDaysNote": "基本8:00～18:00（改行）日曜日・祝日・時間外は都度相談ください。"
  },
  {
    "id": "1870200407",
    "name": "セイホーケアサービス",
    "kana": "セイホーケアサービス",
    "address": "福井県敦賀市相生町21番31号",
    "lat": 35.6543291644154,
    "lng": 136.067128988461,
    "tel": "0770-24-0017",
    "url": "http://hp.kaipoke.biz/gag/",
    "pref": "福井県",
    "city": "敦賀市",
    "category": "home_help",
    "serviceType": "訪問介護",
    "capacity": 10,
    "openDays": [
      "平日",
      "土曜日",
      "日曜日",
      "祝日"
    ],
    "openDaysNote": "通常のサービス提供時間外についてのご利用についても、ご相談に応じています。"
  },
  {
    "id": "1870200183",
    "name": "つるが生協ヘルパーステーション　とんとん",
    "kana": "ツルガセイキョウヘルパーステーショントントン",
    "address": "敦賀市公文名１号６番",
    "lat": 35.623019,
    "lng": 136.0601572,
    "tel": "0770-25-4343",
    "url": "http://www.fukui-min-iren.com/iryouseikyou/",
    "pref": "福井県",
    "city": "敦賀市",
    "category": "home_help",
    "serviceType": "訪問介護",
    "capacity": 0,
    "openDays": [
      "平日",
      "土曜日",
      "日曜日",
      "祝日"
    ],
    "openDaysNote": "時間外の要望については相談に応じます。（改行）電話等により２４時間連絡が可能な体制をとっています。"
  },
  {
    "id": "1870200282",
    "name": "ヘルパーステーション　　こばやし",
    "kana": "ヘルパーステーション　　コバヤシ",
    "address": "福井県敦賀市ひばりケ丘町1057番地",
    "lat": 35.6222968,
    "lng": 136.0414039,
    "tel": "0770-23-1605",
    "url": "https://care-koba.com/station/",
    "pref": "福井県",
    "city": "敦賀市",
    "category": "home_help",
    "serviceType": "訪問介護",
    "capacity": 0,
    "openDays": [
      "平日",
      "土曜日",
      "日曜日",
      "祝日"
    ],
    "openDaysNote": ""
  },
  {
    "id": "1870200738",
    "name": "ヘルパーステーションカクノ",
    "kana": "ヘルパーステーションカクノ",
    "address": "福井県敦賀市木崎19-12-1",
    "lat": 35.6428076,
    "lng": 136.0479397,
    "tel": "0770-22-0078",
    "url": "",
    "pref": "福井県",
    "city": "敦賀市",
    "category": "home_help",
    "serviceType": "訪問介護",
    "capacity": null,
    "openDays": [
      "平日",
      "土曜日",
      "日曜日",
      "祝日"
    ],
    "openDaysNote": ""
  },
  {
    "id": "1870200654",
    "name": "ホームケア幸（さち）",
    "kana": "ホームケアサチ",
    "address": "福井県敦賀市平和町17-4",
    "lat": 35.6477246,
    "lng": 136.050032595106,
    "tel": "080-3740-0294",
    "url": "http://fukushika.com/",
    "pref": "福井県",
    "city": "敦賀市",
    "category": "home_help",
    "serviceType": "訪問介護",
    "capacity": null,
    "openDays": [
      "平日",
      "土曜日",
      "日曜日",
      "祝日"
    ],
    "openDaysNote": "利用者様の状況によっては、ご相談に応じます。"
  },
  {
    "id": "1870200381",
    "name": "りんくる訪問介護事業所",
    "kana": "リンクルホウモンカイゴジギョウショ",
    "address": "福井県敦賀市松栄町4-10",
    "lat": 35.6544437,
    "lng": 136.0627702,
    "tel": "0770-25-1616",
    "url": "",
    "pref": "福井県",
    "city": "敦賀市",
    "category": "home_help",
    "serviceType": "訪問介護",
    "capacity": 5,
    "openDays": [
      "平日",
      "土曜日",
      "日曜日",
      "祝日"
    ],
    "openDaysNote": ""
  },
  {
    "id": "1870200100",
    "name": "株式会社ケア・サービス・アイ　訪問介護事業所",
    "kana": "カブシキガイシャ　ケア・サービス・アイ　ホウモンカイゴジギョウショ",
    "address": "敦賀市清水町1丁目6番17号",
    "lat": 35.651056349322,
    "lng": 136.077948930025,
    "tel": "0770-21-0250",
    "url": "https://kaigo-csi.localinfo.jp",
    "pref": "福井県",
    "city": "敦賀市",
    "category": "home_help",
    "serviceType": "訪問介護",
    "capacity": 1,
    "openDays": [
      "平日",
      "土曜日",
      "日曜日",
      "祝日"
    ],
    "openDaysNote": ""
  },
  {
    "id": "1870200274",
    "name": "株式会社ディープ介護サービスセンター",
    "kana": "カブシキガイシャディープカイゴサービスセンター",
    "address": "福井県敦賀市新松島町１番２６号ヴァンヴェールＧ ヴァンヴェールＧ",
    "lat": 35.6485243,
    "lng": 136.0556134,
    "tel": "0770-37-1161",
    "url": "http://deep.co.jp",
    "pref": "福井県",
    "city": "敦賀市",
    "category": "home_help",
    "serviceType": "訪問介護",
    "capacity": 0,
    "openDays": [
      "平日",
      "土曜日",
      "日曜日",
      "祝日"
    ],
    "openDaysNote": "年中無休"
  },
  {
    "id": "1870200720",
    "name": "敬仁会ヘルパーステーション",
    "kana": "ケイジンカイヘルパーステーション",
    "address": "敦賀市鉄輪町1丁目2-57",
    "lat": 35.642983,
    "lng": 136.0739456,
    "tel": "0770-21-1313",
    "url": "https://kjinkai.jp/facility/poppo/visiting-care/",
    "pref": "福井県",
    "city": "敦賀市",
    "category": "home_help",
    "serviceType": "訪問介護",
    "capacity": 0,
    "openDays": [
      "平日",
      "土曜日",
      "日曜日",
      "祝日"
    ],
    "openDaysNote": "12月31日～翌年1月3日を除く"
  },
  {
    "id": "1870200456",
    "name": "県民せいきょうホームヘルプサービス（敦賀）",
    "kana": "ケンミンセイキョウホームヘルプサービス（ツルガ）",
    "address": "敦賀市市野々町2丁目1554番",
    "lat": 35.6217941,
    "lng": 136.0511972,
    "tel": "0770－21－1200",
    "url": "http://www.fukui.coop/",
    "pref": "福井県",
    "city": "敦賀市",
    "category": "home_help",
    "serviceType": "訪問介護",
    "capacity": 0,
    "openDays": [
      "平日",
      "土曜日",
      "日曜日",
      "祝日"
    ],
    "openDaysNote": "営業時間：8：00～21：00（時間外のサービスについては相談させて頂きます）"
  },
  {
    "id": "1870200035",
    "name": "敦賀ケアセンタ－かくだ",
    "kana": "ツルガケアセンタ－カクダ",
    "address": "福井県敦賀市昭和町二丁目17-5",
    "lat": 35.6407999843347,
    "lng": 136.059967639197,
    "tel": "0770-25-4141",
    "url": "http://care-net.biz/18/kakuda/",
    "pref": "福井県",
    "city": "敦賀市",
    "category": "home_help",
    "serviceType": "訪問介護",
    "capacity": 0,
    "openDays": [
      "平日",
      "土曜日",
      "日曜日",
      "祝日"
    ],
    "openDaysNote": "無し"
  },
  {
    "id": "1870200027",
    "name": "敦賀市社会福祉協議会指定訪問介護事業所「あいあい」",
    "kana": "ツルガシシャカイフクシキョウギカイシテイホウモンカイゴジギョウショアイアイ",
    "address": "敦賀市東洋町4番1号敦賀市福祉総合センター「あいあいプラザ」内 敦賀市福祉総合センター「あいあいプラザ」内",
    "lat": 35.6438724176311,
    "lng": 136.069271466548,
    "tel": "0770-22-7222",
    "url": "http://tsurugashishakyo.ec-net.jp/",
    "pref": "福井県",
    "city": "敦賀市",
    "category": "home_help",
    "serviceType": "訪問介護",
    "capacity": 0,
    "openDays": [
      "平日",
      "土曜日",
      "日曜日",
      "祝日"
    ],
    "openDaysNote": "介護予防サービスは全日8時30分～17時30分"
  },
  {
    "id": "1870200613",
    "name": "訪問介護ステーション　いずみ",
    "kana": "ホウモンカイゴステーション　イズミ",
    "address": "福井県敦賀市鉄輪町１丁目２－５５",
    "lat": 35.6434423,
    "lng": 136.0738776,
    "tel": "0770-25-6616",
    "url": "http://www.izumigaoka.jp",
    "pref": "福井県",
    "city": "敦賀市",
    "category": "home_help",
    "serviceType": "訪問介護",
    "capacity": 0,
    "openDays": [
      "平日",
      "土曜日",
      "祝日"
    ],
    "openDaysNote": "上記のサービスを利用できる時間の他、居宅サービス計画によるサービス提供及び利用者・家族等からの要請による緊急時等はサービスの提供を行います。"
  },
  {
    "id": "1870200134",
    "name": "有限会社　あそしえ",
    "kana": "ユウゲンガイシャ　アソシエ",
    "address": "福井県敦賀市舞崎町2－23－23",
    "lat": 35.6495835,
    "lng": 136.0792656,
    "tel": "0770-25-3081",
    "url": "",
    "pref": "福井県",
    "city": "敦賀市",
    "category": "home_help",
    "serviceType": "訪問介護",
    "capacity": 0,
    "openDays": [
      "平日",
      "土曜日",
      "日曜日",
      "祝日"
    ],
    "openDaysNote": "休業日及び営業時間外でもサービス提供可能な体制とする"
  },
  {
    "id": "1871900229",
    "name": "南越前町社会福祉協議会ホームヘルパーステーション",
    "kana": "ミナミエチゼンチョウシャカイフクシキョウギカイホームヘルパーステーション",
    "address": "福井県南条郡南越前町脇本17-38-1南条保健福祉センター 南条保健福祉センター",
    "lat": 35.8435403,
    "lng": 136.1848526,
    "tel": "0778-47-3767",
    "url": "http://www.shakyo.or.jp/hp/828/",
    "pref": "福井県",
    "city": "南越前町",
    "category": "home_help",
    "serviceType": "訪問介護",
    "capacity": 0,
    "openDays": [
      "平日"
    ],
    "openDaysNote": "ただし、時間外又は土・日曜日、祝日及び年末年始も、必要に応じサービスを提供します。"
  },
  {
    "id": "1872100027",
    "name": "美浜町社会福祉協議会　ホームヘルパーステーション",
    "kana": "ミハマチョウシャカイフクシキョウギカイ　ホームヘルパーステーション",
    "address": "福井県三方郡美浜町郷市25-20美浜町保健福祉センター　はあとぴあ内 美浜町保健福祉センター　はあとぴあ内",
    "lat": 35.5999058,
    "lng": 135.9413428,
    "tel": "0770-32-1464",
    "url": "http://www.mihamachoshakyo.com/",
    "pref": "福井県",
    "city": "美浜町",
    "category": "home_help",
    "serviceType": "訪問介護",
    "capacity": 0,
    "openDays": [
      "平日",
      "土曜日",
      "日曜日",
      "祝日"
    ],
    "openDaysNote": "３６５日ご利用いただけます。"
  },
  {
    "id": "1870103338",
    "name": "（医）清風会　訪問介護センター",
    "kana": "イリョウホウジンセイフウカイ　ホウモンカイゴセンター",
    "address": "福井県福井市順化1丁目8番1号",
    "lat": 36.0638781,
    "lng": 136.215697,
    "tel": "0776-22-1233",
    "url": "http://fukui-yoshidahospital.com//",
    "pref": "福井県",
    "city": "福井市",
    "category": "home_help",
    "serviceType": "訪問介護",
    "capacity": 0,
    "openDays": [
      "平日",
      "土曜日",
      "日曜日",
      "祝日"
    ],
    "openDaysNote": "上記の営業時間他、居宅サービス計画によりサービス提供を行います。"
  },
  {
    "id": "1870100987",
    "name": "ＪＡ福井県ヘルパーステーションわかば",
    "kana": "ジェイエイフクイケンヘルパーステーションワカバ",
    "address": "福井県福井市渕４丁目６０６番地",
    "lat": 36.0464855,
    "lng": 136.1856642,
    "tel": "0776-33-8168",
    "url": "",
    "pref": "福井県",
    "city": "福井市",
    "category": "home_help",
    "serviceType": "訪問介護",
    "capacity": 0,
    "openDays": [
      "平日",
      "祝日"
    ],
    "openDaysNote": "定休日や営業時間外のサービス提供については、必要時検討させて頂きます"
  },
  {
    "id": "1870102090",
    "name": "ＳＯＭＰＯケア　福井　訪問介護",
    "kana": "ソンポケアフクイホウモンカイゴ",
    "address": "福井県福井市城東１丁目２－１３",
    "lat": 36.0578217742355,
    "lng": 136.229241999406,
    "tel": "0776-28-2390",
    "url": "",
    "pref": "福井県",
    "city": "福井市",
    "category": "home_help",
    "serviceType": "訪問介護",
    "capacity": 0,
    "openDays": [
      "平日",
      "土曜日",
      "日曜日",
      "祝日"
    ],
    "openDaysNote": "サービス提供時間は、事前に居宅会議支援事業所等により計画された居宅サービス計画書に基づくものとします。"
  },
  {
    "id": "1870101506",
    "name": "アースサポート福井",
    "kana": "アースサポートフクイ",
    "address": "福井県福井市灯明寺一丁目1403番地",
    "lat": 36.0905608,
    "lng": 136.2095342,
    "tel": "0776-28-9211",
    "url": "http://www.earthsupport.co.jp",
    "pref": "福井県",
    "city": "福井市",
    "category": "home_help",
    "serviceType": "訪問介護",
    "capacity": 0,
    "openDays": [
      "平日",
      "土曜日",
      "日曜日",
      "祝日"
    ],
    "openDaysNote": "年中無休"
  },
  {
    "id": "1870101472",
    "name": "あんしん村サポートセンター",
    "kana": "アンシンムラサポートセンター",
    "address": "福井市北四ツ居２丁目７－１７",
    "lat": 36.066454,
    "lng": 136.2454809,
    "tel": "0776-54-2932",
    "url": "http://ansinmura.jp",
    "pref": "福井県",
    "city": "福井市",
    "category": "home_help",
    "serviceType": "訪問介護",
    "capacity": 0,
    "openDays": [
      "平日",
      "土曜日",
      "日曜日",
      "祝日"
    ],
    "openDaysNote": "上記時間帯以外は要相談です。"
  },
  {
    "id": "1870103320",
    "name": "イフディケア福井北",
    "kana": "イフディケアフクイキタ",
    "address": "福井県福井市経田2丁目1001フェルティ経田102号 フェルティ経田102号",
    "lat": 36.089797,
    "lng": 136.220369,
    "tel": "0776-89-1904",
    "url": "https://if-d.net/sakura/",
    "pref": "福井県",
    "city": "福井市",
    "category": "home_help",
    "serviceType": "訪問介護",
    "capacity": 100,
    "openDays": [
      "平日",
      "土曜日",
      "日曜日",
      "祝日"
    ],
    "openDaysNote": "365日24時間対応しています。"
  },
  {
    "id": "1870101878",
    "name": "うららホームヘルプサービス",
    "kana": "ウララホームヘルプサービス",
    "address": "福井県福井市木田１丁目3308うららの家 うららの家",
    "lat": 36.0470307,
    "lng": 136.2266387,
    "tel": "0776-33-2555",
    "url": "http://www.hikarigroup.jp/",
    "pref": "福井県",
    "city": "福井市",
    "category": "home_help",
    "serviceType": "訪問介護",
    "capacity": 0,
    "openDays": [
      "平日",
      "土曜日",
      "日曜日",
      "祝日"
    ],
    "openDaysNote": "年始の訪問については、あらかじめご相談下さい。"
  },
  {
    "id": "1870101035",
    "name": "ケアサービスさくら",
    "kana": "ケアサービスサクラ",
    "address": "福井県福井市順化1丁目10-7",
    "lat": 36.0639353700433,
    "lng": 136.216692488537,
    "tel": "0776-25-0401",
    "url": "",
    "pref": "福井県",
    "city": "福井市",
    "category": "home_help",
    "serviceType": "訪問介護",
    "capacity": 0,
    "openDays": [
      "平日",
      "土曜日",
      "日曜日",
      "祝日"
    ],
    "openDaysNote": ""
  },
  {
    "id": "1870102629",
    "name": "ケアサポート　みげん",
    "kana": "ケアサポート　ミゲン",
    "address": "大宮６丁目１７－２４リベルテ竜郷　－大宮－ リベルテ竜郷　－大宮－",
    "lat": 36.0817897000005,
    "lng": 136.200847517197,
    "tel": "0776-25-2565",
    "url": "http://www.c-migen.jp/",
    "pref": "福井県",
    "city": "福井市",
    "category": "home_help",
    "serviceType": "訪問介護",
    "capacity": 50,
    "openDays": [
      "平日",
      "土曜日",
      "日曜日",
      "祝日"
    ],
    "openDaysNote": "利用者（ご家族）の意向のもと居宅サービス計画書に基づき提供を行う場合は上記の限りではない。"
  },
  {
    "id": "1870103676",
    "name": "ココ訪問介護事業所",
    "kana": "ココホウモンカイゴジギョウショ",
    "address": "福井県福井市和布町14-64-1",
    "lat": 36.128779,
    "lng": 136.0648882,
    "tel": "0776-65-3030",
    "url": "https:∥r.goope.jp./sr-18-182018s0204",
    "pref": "福井県",
    "city": "福井市",
    "category": "home_help",
    "serviceType": "訪問介護",
    "capacity": 25,
    "openDays": [
      "平日",
      "土曜日",
      "祝日"
    ],
    "openDaysNote": "ただし、緊急等の場合は営業時間外でも相談に応じサービス提供可能な体制をとる。"
  },
  {
    "id": "1870104005",
    "name": "こむぎヘルパーステーション",
    "kana": "コムギヘルパーステーション",
    "address": "新田塚1丁目70-31K1ビル",
    "lat": 36.0900789,
    "lng": 136.2090046,
    "tel": "0776-50-3941",
    "url": "",
    "pref": "福井県",
    "city": "福井市",
    "category": "home_help",
    "serviceType": "訪問介護",
    "capacity": 0,
    "openDays": [
      "平日",
      "土曜日",
      "日曜日",
      "祝日"
    ],
    "openDaysNote": "ただし上記の営業時間以外も利用者の希望に応じてサービス提供可能な体制をとる"
  },
  {
    "id": "1860190220",
    "name": "しみず訪問介護ステーション",
    "kana": "シミズホウモンカイゴステーション",
    "address": "福井市グリーンハイツ4丁目174番",
    "lat": 36.0443212,
    "lng": 136.1648556,
    "tel": "0776-98-7500",
    "url": "http://www.jinai-cs.co.jp/care/index.html",
    "pref": "福井県",
    "city": "福井市",
    "category": "home_help",
    "serviceType": "訪問介護",
    "capacity": 0,
    "openDays": [
      "平日",
      "土曜日",
      "日曜日",
      "祝日"
    ],
    "openDaysNote": "利用者の要望に応える事に努める"
  },
  {
    "id": "1870102058",
    "name": "シン・アイ訪問介護センターわかば",
    "kana": "シン・アイホウモンカイゴセンターワカバ",
    "address": "福井市花堂中１－８－２０中山ビル１Ｆ 中山ビル１Ｆ",
    "lat": 36.0367765719048,
    "lng": 136.21404544631,
    "tel": "0776-50-1368",
    "url": "yu-shinai.jp",
    "pref": "福井県",
    "city": "福井市",
    "category": "home_help",
    "serviceType": "訪問介護",
    "capacity": 20,
    "openDays": [
      "平日",
      "土曜日",
      "日曜日",
      "祝日"
    ],
    "openDaysNote": "緊急時、必要時は対応する"
  },
  {
    "id": "1870103684",
    "name": "ニチイケアセンター花堂東",
    "kana": "ニチイケアセンターハナンドウヒガシ",
    "address": "花堂東1丁目29-17",
    "lat": 36.0378494,
    "lng": 136.2221001,
    "tel": "0776-32-4841",
    "url": "",
    "pref": "福井県",
    "city": "福井市",
    "category": "home_help",
    "serviceType": "訪問介護",
    "capacity": 0,
    "openDays": [
      "平日",
      "土曜日",
      "日曜日",
      "祝日"
    ],
    "openDaysNote": "ただし計画書により時間外のサービスもあり"
  },
  {
    "id": "1870100656",
    "name": "ニチイケアセンター成和",
    "kana": "ニチイケアセンターセイワ",
    "address": "福井市城東2丁目14-1",
    "lat": 36.0618263,
    "lng": 136.2360901,
    "tel": "0776-28-1470",
    "url": "http://www.nichiigakkan.co.jp",
    "pref": "福井県",
    "city": "福井市",
    "category": "home_help",
    "serviceType": "訪問介護",
    "capacity": 0,
    "openDays": [
      "平日",
      "土曜日",
      "日曜日",
      "祝日"
    ],
    "openDaysNote": "居宅サービス計画により、事業所の営業時間外であってもサービスを提供いたします。"
  },
  {
    "id": "1870103692",
    "name": "ニチイケアセンター堀の宮",
    "kana": "ニチイケセンターホリノミヤ",
    "address": "福井県福井市大宮6丁目13-6セレクトビル101号室 セレクトビル101号室",
    "lat": 36.0809039,
    "lng": 136.1977674,
    "tel": "0776-30-2067",
    "url": "",
    "pref": "福井県",
    "city": "福井市",
    "category": "home_help",
    "serviceType": "訪問介護",
    "capacity": 0,
    "openDays": [
      "平日",
      "土曜日",
      "日曜日",
      "祝日"
    ],
    "openDaysNote": ""
  },
  {
    "id": "1870103726",
    "name": "はなぐるま介護ステーション",
    "kana": "ハナグルマカイゴステーション",
    "address": "福井県福井市志比口3丁目7-9コーポラス栄101 コーポラス栄101",
    "lat": 36.0731739,
    "lng": 136.2391109,
    "tel": "0776-63-5575",
    "url": "https://www.kokotech.jp",
    "pref": "福井県",
    "city": "福井市",
    "category": "home_help",
    "serviceType": "訪問介護",
    "capacity": 100,
    "openDays": [
      "平日",
      "土曜日",
      "日曜日",
      "祝日"
    ],
    "openDaysNote": ""
  },
  {
    "id": "1870103791",
    "name": "ひろば訪問介護ステーション",
    "kana": "ヒロバホウモンカイゴステーション",
    "address": "渡町208オルレアン・K　T101 オルレアン・K　T101",
    "lat": 36.0652237,
    "lng": 136.1883359,
    "tel": "0776-97-8034",
    "url": "",
    "pref": "福井県",
    "city": "福井市",
    "category": "home_help",
    "serviceType": "訪問介護",
    "capacity": 0,
    "openDays": [
      "平日"
    ],
    "openDaysNote": "土日祝　応相談"
  },
  {
    "id": "1870101837",
    "name": "ヘルパーステーションいなほ",
    "kana": "ヘルパーステーションイナホ",
    "address": "福井市江端町20字20-24",
    "lat": 36.0258957864976,
    "lng": 136.212260476291,
    "tel": "0776-38-7221",
    "url": "http://fukui-medix.com/",
    "pref": "福井県",
    "city": "福井市",
    "category": "home_help",
    "serviceType": "訪問介護",
    "capacity": 0,
    "openDays": [
      "平日",
      "土曜日"
    ],
    "openDaysNote": "但し、必要時にはご相談に応じます。"
  },
  {
    "id": "1870102678",
    "name": "ヘルパーステーションこころ弐",
    "kana": "ヘルパーステーションココロニ",
    "address": "福井市三十八社町401-22",
    "lat": 36.0015455216558,
    "lng": 136.189599719007,
    "tel": "0776-97-8217",
    "url": "http://carecenter-kokoro.net/",
    "pref": "福井県",
    "city": "福井市",
    "category": "home_help",
    "serviceType": "訪問介護",
    "capacity": 0,
    "openDays": [
      "平日",
      "土曜日",
      "日曜日",
      "祝日"
    ],
    "openDaysNote": "夜間・早朝などの対応は随時ご相談承ります"
  },
  {
    "id": "1870103742",
    "name": "ヘルパーステーション花笑み",
    "kana": "ヘルパーステーションハナエミ",
    "address": "福井県福井市西谷2丁目523FS-Ⅲ102 FS-Ⅲ102",
    "lat": 36.0386934769465,
    "lng": 136.205033681932,
    "tel": "0776-58-7140",
    "url": "http://kaipoke.biz/zp0/",
    "pref": "福井県",
    "city": "福井市",
    "category": "home_help",
    "serviceType": "訪問介護",
    "capacity": 0,
    "openDays": [
      "平日",
      "土曜日",
      "日曜日",
      "祝日"
    ],
    "openDaysNote": "電話等により、24時間常時連絡が可能な体制とする。"
  },
  {
    "id": "1870103668",
    "name": "ほおずきヘルパー事業所",
    "kana": "ホオズキヘルパージギョウショ",
    "address": "福井県福井市上北野１丁目1302",
    "lat": 36.0613312,
    "lng": 136.2518707,
    "tel": "0776-65-5722",
    "url": "",
    "pref": "福井県",
    "city": "福井市",
    "category": "home_help",
    "serviceType": "訪問介護",
    "capacity": null,
    "openDays": [
      "平日",
      "土曜日",
      "日曜日",
      "祝日"
    ],
    "openDaysNote": ""
  },
  {
    "id": "1870102249",
    "name": "ホームケアみやま",
    "kana": "ホームケアミヤマ",
    "address": "福井市美山町9-11-1福井東商工会美山支所内 福井東商工会美山支所内",
    "lat": 35.9985666,
    "lng": 136.3620154,
    "tel": "0776-90-1250",
    "url": "http://fukui-medix.com/",
    "pref": "福井県",
    "city": "福井市",
    "category": "home_help",
    "serviceType": "訪問介護",
    "capacity": 0,
    "openDays": [
      "平日",
      "土曜日"
    ],
    "openDaysNote": "但し、緊急時は別途協議します。"
  },
  {
    "id": "1870102298",
    "name": "ホームヘルプサービス　つくも苑",
    "kana": "ホームヘルプサービス　ツクモエン",
    "address": "福井県福井市つくも2丁目5番5号",
    "lat": 36.0618394,
    "lng": 136.2091617,
    "tel": "0776-33-5577",
    "url": "http://tsukumoen.co.jp/",
    "pref": "福井県",
    "city": "福井市",
    "category": "home_help",
    "serviceType": "訪問介護",
    "capacity": 0,
    "openDays": [
      "平日",
      "土曜日",
      "日曜日",
      "祝日"
    ],
    "openDaysNote": "利用者の要望及び介護サービス計画に即して随時対応します。"
  },
  {
    "id": "1870103809",
    "name": "リールヘルパーステーション福井成和",
    "kana": "リールヘルパーステーションフクイセイワ",
    "address": "成和1-1610リールホーム福井成和 リールホーム福井成和",
    "lat": null,
    "lng": null,
    "tel": "0776-43-6912",
    "url": "https://www.rirestage.co.jp/",
    "pref": "福井県",
    "city": "福井市",
    "category": "home_help",
    "serviceType": "訪問介護",
    "capacity": null,
    "openDays": [
      "平日",
      "土曜日",
      "日曜日",
      "祝日"
    ],
    "openDaysNote": ""
  },
  {
    "id": "1870100367",
    "name": "稲木ケア・サービス",
    "kana": "イナキケア・サービス",
    "address": "福井市上北野２丁目22-9",
    "lat": 36.0587884,
    "lng": 136.2514615,
    "tel": "0776-54-2734",
    "url": "https://www.inakicare.co.jp/",
    "pref": "福井県",
    "city": "福井市",
    "category": "home_help",
    "serviceType": "訪問介護",
    "capacity": 10,
    "openDays": [
      "平日",
      "土曜日",
      "日曜日",
      "祝日"
    ],
    "openDaysNote": "早朝や深夜、夜間のサービスについても対応しています。まずは、ご相談ください。"
  },
  {
    "id": "1870100268",
    "name": "花園ホームヘルパーステーション",
    "kana": "ハナゾノホームヘルパーステーション",
    "address": "福井県福井市松本1-36-15",
    "lat": 36.0756549,
    "lng": 136.2319344,
    "tel": "0776-29-1188",
    "url": "http://www.hanazono-f.com",
    "pref": "福井県",
    "city": "福井市",
    "category": "home_help",
    "serviceType": "訪問介護",
    "capacity": 80,
    "openDays": [
      "平日",
      "土曜日",
      "日曜日",
      "祝日"
    ],
    "openDaysNote": "利用者により営業日以外に利用希望があった場合は、相談のうえ、特別に対応するものとする。"
  },
  {
    "id": "1870101290",
    "name": "介護サポートゆうあい",
    "kana": "カイゴサポートユウアイ",
    "address": "福井県福井市大願寺３丁目９－３大滝クリニック 大滝クリニック",
    "lat": 36.0843564,
    "lng": 136.2283293,
    "tel": "0776-27-0020",
    "url": "http://fukui-youi.com/",
    "pref": "福井県",
    "city": "福井市",
    "category": "home_help",
    "serviceType": "訪問介護",
    "capacity": 1,
    "openDays": [
      "平日",
      "土曜日",
      "日曜日",
      "祝日"
    ],
    "openDaysNote": "事業所併設のサービス付き高齢者向け住宅「ゆうあいホーム大願寺」入居者へのサービス提供時間"
  },
  {
    "id": "1870102769",
    "name": "株式会社在　宅支援輝き",
    "kana": "カブシキカイシャ　ザイタクシエンカガヤキ",
    "address": "福井県福井市加茂河原2丁目21番20号",
    "lat": 36.0616823,
    "lng": 136.1925853,
    "tel": "0776-76-0500",
    "url": "",
    "pref": "福井県",
    "city": "福井市",
    "category": "home_help",
    "serviceType": "訪問介護",
    "capacity": 0,
    "openDays": [
      "平日",
      "土曜日",
      "日曜日",
      "祝日"
    ],
    "openDaysNote": "サービス提供は曜日時間帯に関わらず利用者の相談に応じる"
  },
  {
    "id": "1870100342",
    "name": "県民せいきょうホームヘルプサービス",
    "kana": "ケンミンセイキョウホームヘルプサービス",
    "address": "福井市羽水１丁目１０７番地",
    "lat": 36.0422703,
    "lng": 136.2272668,
    "tel": "0776-32-6100",
    "url": "http://www.fukui.coop/",
    "pref": "福井県",
    "city": "福井市",
    "category": "home_help",
    "serviceType": "訪問介護",
    "capacity": 0,
    "openDays": [
      "平日",
      "土曜日",
      "日曜日",
      "祝日"
    ],
    "openDaysNote": "年末年始12/31～1/3は除く。ただし利用者の状況に応じて提供を行う。"
  },
  {
    "id": "1860190451",
    "name": "光陽ホームヘルパーステーション",
    "kana": "コウヨウホームヘルパーステーション",
    "address": "福井県福井市光陽3丁目10-24光陽生協病院1階 光陽生協病院1階",
    "lat": 36.0655888,
    "lng": 136.1954298,
    "tel": "0776-24-9997",
    "url": "htttp://www.fukui-min-iren.com/iryouseikyou/",
    "pref": "福井県",
    "city": "福井市",
    "category": "home_help",
    "serviceType": "訪問介護",
    "capacity": 0,
    "openDays": [
      "平日",
      "土曜日",
      "日曜日",
      "祝日"
    ],
    "openDaysNote": "時間外の要望については、相談に応じます。"
  },
  {
    "id": "1870100102",
    "name": "公益財団法人福井市ふれあい公社ホームヘルプサービスセンター",
    "kana": "コウエキザイダンホウジンフクイシフレアイコウシャホームヘルプサービスセンター",
    "address": "福井市日之出4丁目3-12",
    "lat": 36.0645006723284,
    "lng": 136.23136868149,
    "tel": "0776-20-5101",
    "url": "https://fureai-kousha.jp",
    "pref": "福井県",
    "city": "福井市",
    "category": "home_help",
    "serviceType": "訪問介護",
    "capacity": 0,
    "openDays": [
      "平日",
      "土曜日",
      "日曜日",
      "祝日"
    ],
    "openDaysNote": "時間外については随時相談に応じます。"
  },
  {
    "id": "1870100359",
    "name": "公益社団法人　福井市シルバー人材センター介護保険事業所",
    "kana": "コウエキシャダンホウジン　フクイシシルバージンザイセンターカイゴホケンジギョウショ",
    "address": "福井市文京1丁目26-10福井市ワークプラザ1階 福井市ワークプラザ1階",
    "lat": 36.0783931203989,
    "lng": 136.221128007471,
    "tel": "0776-27-0180",
    "url": "http://www2.interbroad.or.jp/genkikun/",
    "pref": "福井県",
    "city": "福井市",
    "category": "home_help",
    "serviceType": "訪問介護",
    "capacity": 0,
    "openDays": [
      "平日",
      "土曜日",
      "日曜日",
      "祝日"
    ],
    "openDaysNote": "但し、利用者の状態に応じて利用できる時間を変更することができます。"
  },
  {
    "id": "1870103601",
    "name": "合同会社あおやま介護企画",
    "kana": "ゴウドウカイシャアオヤマカイゴキカク",
    "address": "福井県福井市西開発1丁目1604",
    "lat": 36.0746386,
    "lng": 136.2364823,
    "tel": "0776-97-5366",
    "url": "info@aoyama-cp.com",
    "pref": "福井県",
    "city": "福井市",
    "category": "home_help",
    "serviceType": "訪問介護",
    "capacity": 0,
    "openDays": [
      "平日",
      "土曜日"
    ],
    "openDaysNote": "ご利用者様の定期通院、受信が事前に予約されている場合は、この限りではない。"
  },
  {
    "id": "1870104146",
    "name": "合同会社ゆめいえ",
    "kana": "ゴウドウガイシャユメイエ",
    "address": "福井県福井市大宮５丁目4-3",
    "lat": 36.080027,
    "lng": 136.2044465,
    "tel": "0776-43-9672",
    "url": "https://www.yumeie291.jp",
    "pref": "福井県",
    "city": "福井市",
    "category": "home_help",
    "serviceType": "訪問介護",
    "capacity": 2,
    "openDays": [
      "平日",
      "土曜日"
    ],
    "openDaysNote": "利用者要望に応じて営業時間外でもサービス提供実施する"
  },
  {
    "id": "1860190550",
    "name": "仁愛訪問介護事業所",
    "kana": "ジンアイホウモンカイゴジギョウショ",
    "address": "福井市乾徳４丁目４番７号仁愛ビル４階 仁愛ビル４階",
    "lat": 36.0711698,
    "lng": 136.2056335,
    "tel": "0776-26-6688",
    "url": "http://www.jinai-cs.co.jp/jinhou/index.html",
    "pref": "福井県",
    "city": "福井市",
    "category": "home_help",
    "serviceType": "訪問介護",
    "capacity": 0,
    "openDays": [
      "平日",
      "土曜日",
      "日曜日",
      "祝日"
    ],
    "openDaysNote": "上記営業時間のはかに、早朝夜間の訪問も可能"
  },
  {
    "id": "1870103007",
    "name": "千寿の森訪問介護事業所",
    "kana": "センジュノモリホウモンカイゴジギョウショ",
    "address": "福井県福井市栗森２丁目２７１１",
    "lat": 36.1172822008789,
    "lng": 136.239633930225,
    "tel": "0776-56-1027",
    "url": "https://www.tanpopoen-senjukai.com",
    "pref": "福井県",
    "city": "福井市",
    "category": "home_help",
    "serviceType": "訪問介護",
    "capacity": 49,
    "openDays": [
      "平日",
      "土曜日",
      "日曜日",
      "祝日"
    ],
    "openDaysNote": ""
  },
  {
    "id": "1870100912",
    "name": "特定非営利活動法人　コム・サポートプロジェクト",
    "kana": "トクテイヒエイリカツドウホウジン　コム・サポートプロジェクト",
    "address": "福井市宝永2丁目１１－１２山屋ビル１階 山屋ビル１階",
    "lat": 36.0701774,
    "lng": 136.2259985,
    "tel": "0776-25-1057",
    "url": "",
    "pref": "福井県",
    "city": "福井市",
    "category": "home_help",
    "serviceType": "訪問介護",
    "capacity": null,
    "openDays": [
      "平日",
      "土曜日",
      "日曜日",
      "祝日"
    ],
    "openDaysNote": "基本的な介護受付時間は事業所の営業日である。ただし、緊急の場合に備えて、24時間連絡可能な体制をとる。"
  },
  {
    "id": "1870100797",
    "name": "福井新世紀ケアサービス",
    "kana": "フクイシンセイキケアサービス",
    "address": "福井県福井市栗森1-102",
    "lat": 36.1164060999999,
    "lng": 136.2386007,
    "tel": "0776-56-4660",
    "url": "https://www.big-advance.site/s/163/1455",
    "pref": "福井県",
    "city": "福井市",
    "category": "home_help",
    "serviceType": "訪問介護",
    "capacity": 110,
    "openDays": [
      "平日",
      "土曜日",
      "日曜日",
      "祝日"
    ],
    "openDaysNote": "利用者のサービスの必要性を重んじ24時間対応出来る様に努める。"
  },
  {
    "id": "1870104039",
    "name": "訪問介護ステーション　ひこうきぐも",
    "kana": "ホウモンカイゴステーション　ヒコウキグモ",
    "address": "福井県福井市松城町5-8　ソレイユ松城302",
    "lat": 36.0637185380203,
    "lng": 136.238012971755,
    "tel": "0776-65-3583",
    "url": "http://hp.kaipoke.biz/zx6/",
    "pref": "福井県",
    "city": "福井市",
    "category": "home_help",
    "serviceType": "訪問介護",
    "capacity": 0,
    "openDays": [
      "平日"
    ],
    "openDaysNote": "但し、利用者のニーズに応じて２４時間、３６５日対応できるよう調整する。"
  },
  {
    "id": "1870102389",
    "name": "訪問介護ステーション　福寿",
    "kana": "ホウモンカイゴステーション　フクジュ",
    "address": "福井市日之出3丁目16-18",
    "lat": 36.0617838167928,
    "lng": 136.230224320821,
    "tel": "0776-21-0181",
    "url": "http://www.horae.dti.ne.jp/~akio-i/dimora/dimoraiwai_top.html",
    "pref": "福井県",
    "city": "福井市",
    "category": "home_help",
    "serviceType": "訪問介護",
    "capacity": 19,
    "openDays": [
      "平日",
      "土曜日"
    ],
    "openDaysNote": ""
  },
  {
    "id": "1870103775",
    "name": "訪問介護ステーションminori",
    "kana": "ホウモンカイゴステーションミノリ",
    "address": "福井県福井市新田塚1丁目55-1",
    "lat": 36.0931501,
    "lng": 136.2057394,
    "tel": "0776-76-0808",
    "url": "http://www.minorinokizuna.com",
    "pref": "福井県",
    "city": "福井市",
    "category": "home_help",
    "serviceType": "訪問介護",
    "capacity": 90,
    "openDays": [
      "平日",
      "土曜日",
      "日曜日",
      "祝日"
    ],
    "openDaysNote": "その他の時間については応相談"
  },
  {
    "id": "1870103866",
    "name": "訪問介護ステーション三栄ケアーズ元気ふくい",
    "kana": "ホウモンカイゴステーションサンエイケアーズゲンキフクイ",
    "address": "福井県福井市三郎丸町21番地19号5",
    "lat": 36.080688,
    "lng": 136.1945038,
    "tel": "0776-63-6343",
    "url": "http://saneigenki.com/kaigo/",
    "pref": "福井県",
    "city": "福井市",
    "category": "home_help",
    "serviceType": "訪問介護",
    "capacity": 19,
    "openDays": [
      "平日",
      "土曜日"
    ],
    "openDaysNote": ""
  },
  {
    "id": "1870102710",
    "name": "訪問介護まごのて福井",
    "kana": "ホウモンカイゴマゴノテフクイ",
    "address": "福井市丸山1-208リリーフ21日経ビル5Fリリーフ21日経ビル5F リリーフ21日経ビル5F",
    "lat": 36.0737343,
    "lng": 136.2441483,
    "tel": "0776-97-5234",
    "url": "http://www.self-support.jp",
    "pref": "福井県",
    "city": "福井市",
    "category": "home_help",
    "serviceType": "訪問介護",
    "capacity": 0,
    "openDays": [
      "平日",
      "土曜日",
      "日曜日",
      "祝日"
    ],
    "openDaysNote": "24時間、365日"
  },
  {
    "id": "1870102645",
    "name": "訪問介護事業所　ケアフル開発",
    "kana": "ホウモンカイゴジギョウショ　ケアフルカイホツ",
    "address": "福井市開発２－２２６－２",
    "lat": 36.0795576498246,
    "lng": 136.237811812381,
    "tel": "0776-89-1201",
    "url": "",
    "pref": "福井県",
    "city": "福井市",
    "category": "home_help",
    "serviceType": "訪問介護",
    "capacity": 20,
    "openDays": [
      "平日",
      "土曜日",
      "日曜日",
      "祝日"
    ],
    "openDaysNote": "年中無休"
  },
  {
    "id": "1870102132",
    "name": "訪問介護事業所　東郷",
    "kana": "ホウモンカイゴジギョウショ　トウゴウ",
    "address": "福井市東郷二ヶ町27-15-3リリーブ東郷 リリーブ東郷",
    "lat": 36.0157497,
    "lng": 136.2731888,
    "tel": "0776-41-7766",
    "url": "http://www.monjuen.com",
    "pref": "福井県",
    "city": "福井市",
    "category": "home_help",
    "serviceType": "訪問介護",
    "capacity": 0,
    "openDays": [
      "平日",
      "土曜日",
      "祝日"
    ],
    "openDaysNote": "営業時間以外のサービス提供については必要に応じ事業所が可能な限り個々に対応します。"
  },
  {
    "id": "1870100847",
    "name": "訪問介護事業所ヒューマンケアネットワーク",
    "kana": "ホウモンカイゴジギョウショヒューマンケアネットワーク",
    "address": "福井市日之出4丁目1-6",
    "lat": 36.062354514794,
    "lng": 136.230883901761,
    "tel": "0776-29-1788",
    "url": "http://www.iba-net.co.jp/humancare/",
    "pref": "福井県",
    "city": "福井市",
    "category": "home_help",
    "serviceType": "訪問介護",
    "capacity": 0,
    "openDays": [
      "平日",
      "土曜日",
      "祝日"
    ],
    "openDaysNote": "必要に応じて提供"
  },
  {
    "id": "1870101530",
    "name": "有限会社　うさごえ介護サポート",
    "kana": "ユウゲンガイシャウサゴエカイゴサポート",
    "address": "福井市花堂中1丁目1番4号",
    "lat": 36.0388984,
    "lng": 136.2174426,
    "tel": "0776-34-8617",
    "url": "",
    "pref": "福井県",
    "city": "福井市",
    "category": "home_help",
    "serviceType": "訪問介護",
    "capacity": 0,
    "openDays": [
      "平日",
      "土曜日",
      "日曜日",
      "祝日"
    ],
    "openDaysNote": "利用者の相談に応じる"
  },
  {
    "id": "1870101548",
    "name": "有限会社　福祉サービス　ふくいコアラ",
    "kana": "ユウゲンガイシャ　フクシサービス　フクイコアラ",
    "address": "福井市西木田3丁目4－21",
    "lat": 36.0530434,
    "lng": 136.2116535,
    "tel": "0776-35-7718",
    "url": "",
    "pref": "福井県",
    "city": "福井市",
    "category": "home_help",
    "serviceType": "訪問介護",
    "capacity": 0,
    "openDays": [
      "平日",
      "土曜日",
      "祝日"
    ],
    "openDaysNote": "お盆・年末年始は休日扱いとなります。お盆（8月14日～16日）、年末年始（12月31日～1月3日）"
  }
]