[
  {
    "id": "770402048",
    "name": "(有）グリーンライフプラザ",
    "kana": "ユウゲンガイシャグリーンライフプラザ",
    "address": "福島県いわき市若葉台1-1-12",
    "lat": 37.020352,
    "lng": 140.8994391,
    "tel": "0246-46-0207",
    "url": "",
    "pref": "福島県",
    "city": "いわき市",
    "category": "home_help",
    "serviceType": "訪問介護",
    "capacity": 0,
    "openDays": [
      "平日",
      "土曜日",
      "祝日"
    ],
    "openDaysNote": ""
  },
  {
    "id": "770406569",
    "name": "EXILE",
    "kana": "エグザイル",
    "address": "福島県いわき市佐糠町東１丁目１２－４",
    "lat": 36.9202873,
    "lng": 140.8057127,
    "tel": "0246-84-5647",
    "url": "",
    "pref": "福島県",
    "city": "いわき市",
    "category": "home_help",
    "serviceType": "訪問介護",
    "capacity": 0,
    "openDays": [
      "平日"
    ],
    "openDaysNote": "国民の祝日、年末年始(12月29日～1月３日)お盆(８月13日～８月16日)（改行）但し、利用者の要望により休日でも対応する。"
  },
  {
    "id": "770402626",
    "name": "JA福島さくらいわき南福祉センター訪問介護事業所みどり",
    "kana": "ジェイエイフクシマサクラ　イワキミナミフクシセンター　ホウモンカイゴジギョウショミドリ",
    "address": "福島県いわき市後田町柳町52番地",
    "lat": 36.9226417856403,
    "lng": 140.789173101219,
    "tel": "0246-38-5701",
    "url": "http://www.ja-fsakura.or.jp/",
    "pref": "福島県",
    "city": "いわき市",
    "category": "home_help",
    "serviceType": "訪問介護",
    "capacity": 10,
    "openDays": [
      "平日",
      "土曜日",
      "日曜日",
      "祝日"
    ],
    "openDaysNote": "電話により、24時間常時連絡が可能な体制とする。"
  },
  {
    "id": "770400430",
    "name": "JA福島さくらいわき福祉センター訪問介護事業所　きんぎょ",
    "kana": "ジェイエイフクシマサクライワキフクシセンターホウモンカイゴジギョウショキンギョ",
    "address": "福島県いわき市自由が丘３９ー２",
    "lat": 37.0269901004144,
    "lng": 140.894787504692,
    "tel": "0246-28-9105",
    "url": "h//ttp.www.ja-fsakura.or.jp",
    "pref": "福島県",
    "city": "いわき市",
    "category": "home_help",
    "serviceType": "訪問介護",
    "capacity": 0,
    "openDays": [
      "平日",
      "土曜日",
      "日曜日",
      "祝日"
    ],
    "openDaysNote": "携帯電話等により２４時間常時連絡が可能。"
  },
  {
    "id": "770402931",
    "name": "アースサポートいわき",
    "kana": "アースサポートイワキ",
    "address": "福島県いわき市平祢宜町１番地の２",
    "lat": 37.0574995,
    "lng": 140.9022991,
    "tel": "0246-22-5900",
    "url": "http://www.earthsupport.co.jp",
    "pref": "福島県",
    "city": "いわき市",
    "category": "home_help",
    "serviceType": "訪問介護",
    "capacity": 3,
    "openDays": [
      "平日",
      "土曜日",
      "日曜日",
      "祝日"
    ],
    "openDaysNote": "なし"
  },
  {
    "id": "770404929",
    "name": "あいの手訪問介護",
    "kana": "アイノテホウモンカイゴ",
    "address": "福島県いわき市平字東町９－９",
    "lat": 37.05419,
    "lng": 140.9059961,
    "tel": "0246-22-5080",
    "url": "http://ainote.co.jp/",
    "pref": "福島県",
    "city": "いわき市",
    "category": "home_help",
    "serviceType": "訪問介護",
    "capacity": 0,
    "openDays": [
      "平日"
    ],
    "openDaysNote": ""
  },
  {
    "id": "770407450",
    "name": "あいりすケアセンター",
    "kana": "アイリスケアセンター",
    "address": "福島県いわき市錦町江栗３丁目１０７番地",
    "lat": 36.912337,
    "lng": 140.7746746,
    "tel": "0246-85-5515",
    "url": "",
    "pref": "福島県",
    "city": "いわき市",
    "category": "home_help",
    "serviceType": "訪問介護",
    "capacity": 0,
    "openDays": [
      "平日",
      "土曜日",
      "日曜日",
      "祝日"
    ],
    "openDaysNote": ""
  },
  {
    "id": "770408912",
    "name": "あい樹ヘルパーステーション",
    "kana": "アイジュヘルパーステーション",
    "address": "福島県いわき市内郷御台境町五反田35-2ラメール五反田104 ラメール五反田104",
    "lat": 37.048308,
    "lng": 140.8659681,
    "tel": "0246－84－5177",
    "url": "",
    "pref": "福島県",
    "city": "いわき市",
    "category": "home_help",
    "serviceType": "訪問介護",
    "capacity": null,
    "openDays": [
      "平日",
      "土曜日",
      "日曜日",
      "祝日"
    ],
    "openDaysNote": "利用者の希望により、上記時間以外でも対応可（要相談）"
  },
  {
    "id": "770407161",
    "name": "あい訪問介護事業所",
    "kana": "アイホウモンカイゴジギョウショ",
    "address": "福島県いわき市勿来町関田南町28",
    "lat": 36.8803868529513,
    "lng": 140.789482966201,
    "tel": "0246-65-2205",
    "url": "",
    "pref": "福島県",
    "city": "いわき市",
    "category": "home_help",
    "serviceType": "訪問介護",
    "capacity": 1,
    "openDays": [
      "平日",
      "土曜日",
      "祝日"
    ],
    "openDaysNote": "土曜日も居宅サービス計画により、サービス提供を実施する場合がある。"
  },
  {
    "id": "770402055",
    "name": "あさなぎ訪問介護",
    "kana": "アサナギホウモンカイゴ",
    "address": "福島県いわき市常磐関船町一丁目10番地の18",
    "lat": 37.0002175890392,
    "lng": 140.854281891896,
    "tel": "0246-38-7776",
    "url": "",
    "pref": "福島県",
    "city": "いわき市",
    "category": "home_help",
    "serviceType": "訪問介護",
    "capacity": 15,
    "openDays": [
      "平日",
      "土曜日",
      "日曜日",
      "祝日"
    ],
    "openDaysNote": "年中無休２４時間対応"
  },
  {
    "id": "770406197",
    "name": "あったかほーむヘルパーステーション",
    "kana": "アッタカホームヘルパーステーション",
    "address": "福島県いわき市小島町一丁目４番地の２",
    "lat": 37.0504914,
    "lng": 140.8810879,
    "tel": "0246-38-8136",
    "url": "",
    "pref": "福島県",
    "city": "いわき市",
    "category": "home_help",
    "serviceType": "訪問介護",
    "capacity": 100,
    "openDays": [
      "平日",
      "土曜日",
      "日曜日",
      "祝日"
    ],
    "openDaysNote": "無"
  },
  {
    "id": "770405868",
    "name": "いきがい村訪問介護事業所",
    "kana": "イキガイムラホウモンカイゴジギョウショ",
    "address": "福島県いわき市小浜町東ノ作164の2番地",
    "lat": 36.9170222,
    "lng": 140.8430049,
    "tel": "0246-62-0030",
    "url": "http://www.ishiihp.or.jp",
    "pref": "福島県",
    "city": "いわき市",
    "category": "home_help",
    "serviceType": "訪問介護",
    "capacity": 0,
    "openDays": [
      "平日",
      "祝日"
    ],
    "openDaysNote": "提供可能時間帯以外でも、ご希望時は対応可能。"
  },
  {
    "id": "770400695",
    "name": "いわき市社会福祉協議会指定訪問介護事業所",
    "kana": "イワキシシャカイフクシキョウギカイシテイホウモンカイゴジギョウショ",
    "address": "福島県いわき市平字菱川町1-3",
    "lat": 37.0506724,
    "lng": 140.891084,
    "tel": "0246-35-2822",
    "url": "http://www.iwaki-shakyo.com",
    "pref": "福島県",
    "city": "いわき市",
    "category": "home_help",
    "serviceType": "訪問介護",
    "capacity": 100,
    "openDays": [
      "平日",
      "土曜日",
      "日曜日",
      "祝日"
    ],
    "openDaysNote": "1月1日から3日まで休日"
  },
  {
    "id": "770401040",
    "name": "カーナ・ヘルパーステーション",
    "kana": "カーナ・ヘルパーステーション",
    "address": "福島県いわき市平赤井字深田28番地",
    "lat": 37.0867888,
    "lng": 140.8609494,
    "tel": "0246-23-1350",
    "url": "",
    "pref": "福島県",
    "city": "いわき市",
    "category": "home_help",
    "serviceType": "訪問介護",
    "capacity": 65,
    "openDays": [
      "平日",
      "土曜日",
      "日曜日",
      "祝日"
    ],
    "openDaysNote": "電話等により、24時間常時連絡が可能な体制をとっている。"
  },
  {
    "id": "770401610",
    "name": "カイゴスズデン",
    "kana": "介護スズデン",
    "address": "福島県いわき市好間町下好間字渋井64-2",
    "lat": 37.061013,
    "lng": 140.8722535,
    "tel": "0246-84-6903",
    "url": "",
    "pref": "福島県",
    "city": "いわき市",
    "category": "home_help",
    "serviceType": "訪問介護",
    "capacity": 27,
    "openDays": [
      "平日",
      "土曜日",
      "日曜日",
      "祝日"
    ],
    "openDaysNote": "利用者様の状況によって時間帯は臨機応変に対応いたします。"
  },
  {
    "id": "770402360",
    "name": "かしまヘルパーステーション",
    "kana": "カシマヘルパーステーション",
    "address": "福島県いわき市鹿島町下蔵持字里屋７－３",
    "lat": 36.9922114,
    "lng": 140.9092646,
    "tel": "0246-76-1361",
    "url": "",
    "pref": "福島県",
    "city": "いわき市",
    "category": "home_help",
    "serviceType": "訪問介護",
    "capacity": 0,
    "openDays": [
      "平日",
      "土曜日",
      "日曜日",
      "祝日"
    ],
    "openDaysNote": "夜間帯は、稼動出来るヘルパーが限られる為、依頼時に要相談にて対応しています。"
  },
  {
    "id": "770409217",
    "name": "キョウドウケアサービス",
    "kana": "キョウドウケアサービス",
    "address": "福島県いわき市平上荒川字桜町５９番地の５　北側",
    "lat": 37.0341297,
    "lng": 140.8835131,
    "tel": "0246-38-5893",
    "url": "http://hp.kaipoke.biz/cv8/",
    "pref": "福島県",
    "city": "いわき市",
    "category": "home_help",
    "serviceType": "訪問介護",
    "capacity": 0,
    "openDays": [
      "平日",
      "祝日"
    ],
    "openDaysNote": "状況に応じて相談に応じる"
  },
  {
    "id": "770400174",
    "name": "クリナップキャリアサービス株式会社",
    "kana": "クリナップキャリアサービスカブシキガイシャ",
    "address": "福島県いわき市四倉町細谷字江向６",
    "lat": 37.0840906458951,
    "lng": 140.965585164943,
    "tel": "0246-57-1170",
    "url": "http://www.cleanup-careerservice.jp/",
    "pref": "福島県",
    "city": "いわき市",
    "category": "home_help",
    "serviceType": "訪問介護",
    "capacity": 0,
    "openDays": [
      "平日",
      "土曜日",
      "日曜日",
      "祝日"
    ],
    "openDaysNote": "営業日：月～金　8：00～17：00　但し、祝日・夏期盆休み・年末年始を除く。（改行）※営業時間外でも可能な範囲で対応致します。"
  },
  {
    "id": "770403145",
    "name": "クリナップキャリアサービス株式会社介護南部センター",
    "kana": "クリナップキャリアサービスカブシキガイシャカイゴナンブセンター",
    "address": "福島県いわき市常磐西郷町金山14-1",
    "lat": 36.9862365,
    "lng": 140.8568119,
    "tel": "0246-72-1260",
    "url": "http://www.cleanup-careerservice.jp/",
    "pref": "福島県",
    "city": "いわき市",
    "category": "home_help",
    "serviceType": "訪問介護",
    "capacity": 0,
    "openDays": [
      "平日",
      "土曜日",
      "日曜日",
      "祝日"
    ],
    "openDaysNote": "営業日：月～金曜日　8：00～17：00但し、祝日・夏期盆休みと年末年始を除く。（改行）※利用者からの要望があれば、営業時間外でも可能な範囲で対応します。"
  },
  {
    "id": "770405991",
    "name": "ケアサービス　えがお",
    "kana": "ケアサービス　エガオ",
    "address": "福島県いわき市好間町下好間字沼田134番３",
    "lat": 37.0594058715713,
    "lng": 140.863682825205,
    "tel": "0246-38-7384",
    "url": "",
    "pref": "福島県",
    "city": "いわき市",
    "category": "home_help",
    "serviceType": "訪問介護",
    "capacity": 0,
    "openDays": [
      "平日"
    ],
    "openDaysNote": "利用者の希望により時間外でも対応する。"
  },
  {
    "id": "770409035",
    "name": "ケアサービスうりずん",
    "kana": "ケアサービスウリズン",
    "address": "福島県いわき市泉町二丁目12番地9",
    "lat": 36.9531946,
    "lng": 140.8541375,
    "tel": "0246-38-9713",
    "url": "",
    "pref": "福島県",
    "city": "いわき市",
    "category": "home_help",
    "serviceType": "訪問介護",
    "capacity": 3,
    "openDays": [
      "平日",
      "土曜日"
    ],
    "openDaysNote": "上記時間外、定休日等でもご希望がございましたら対応いたします。"
  },
  {
    "id": "770408458",
    "name": "ケアステーショングリーンハピネス",
    "kana": "ケアステーショングリーンハピネス",
    "address": "いわき市平谷川瀬三丁目6-1久善ビル2階23号 久善ビル2階23号",
    "lat": 37.0456872,
    "lng": 140.8977701,
    "tel": "0246-88-7792",
    "url": "http://www.safety-s.co.jp",
    "pref": "福島県",
    "city": "いわき市",
    "category": "home_help",
    "serviceType": "訪問介護",
    "capacity": 0,
    "openDays": [
      "平日",
      "土曜日"
    ],
    "openDaysNote": ""
  },
  {
    "id": "770409373",
    "name": "けあビジョンホームいわき訪問介護",
    "kana": "ケアビジョンホームイワキホウモンカイゴ",
    "address": "小川町上小川字川原28-1",
    "lat": 37.1345975,
    "lng": 140.8535583,
    "tel": "0246-48-4101",
    "url": "",
    "pref": "福島県",
    "city": "いわき市",
    "category": "home_help",
    "serviceType": "訪問介護",
    "capacity": null,
    "openDays": [
      "平日"
    ],
    "openDaysNote": "土日祝日は要相談"
  },
  {
    "id": "770402386",
    "name": "こうじま慈愛ヘルパーステーション",
    "kana": "コウジマジアイヘルパーステーション",
    "address": "福島県いわき市錦町鈴鹿103-1",
    "lat": 36.9137839,
    "lng": 140.7703749,
    "tel": "0246-62-7813",
    "url": "http://www.shiseikai.org/",
    "pref": "福島県",
    "city": "いわき市",
    "category": "home_help",
    "serviceType": "訪問介護",
    "capacity": 0,
    "openDays": [
      "平日",
      "土曜日",
      "日曜日",
      "祝日"
    ],
    "openDaysNote": "サービス利用時間外であっても相談内容により対応可能。"
  },
  {
    "id": "770401776",
    "name": "コスモケアサービス",
    "kana": "コスモケアサービス",
    "address": "福島県いわき市内郷高坂町大町27-1",
    "lat": 37.04568,
    "lng": 140.862151,
    "tel": "0246-27-7311",
    "url": "https://www.cosmocare.jp/",
    "pref": "福島県",
    "city": "いわき市",
    "category": "home_help",
    "serviceType": "訪問介護",
    "capacity": 135,
    "openDays": [
      "平日",
      "土曜日",
      "祝日"
    ],
    "openDaysNote": "但し、ご利用者から要望があれば時間外でも対応します。"
  },
  {
    "id": "770404861",
    "name": "すいとぴー介護ステーション中央台",
    "kana": "スイトピーカイゴステーションチュウオウダイ",
    "address": "福島県いわき市中央台飯野４－７－２",
    "lat": 37.0166611,
    "lng": 140.9210184,
    "tel": "0246-46-1902",
    "url": "www.sweetpea.co.jp",
    "pref": "福島県",
    "city": "いわき市",
    "category": "home_help",
    "serviceType": "訪問介護",
    "capacity": 0,
    "openDays": [
      "平日",
      "土曜日",
      "日曜日",
      "祝日"
    ],
    "openDaysNote": "上記時間以外については、ご相談を頂き対応可能時は、ご依頼をお受け致します。"
  },
  {
    "id": "770404879",
    "name": "すいとぴー介護ステーション勿来",
    "kana": "スイトピーカイゴステーションナコソ",
    "address": "福島県いわき市植田町中央1-8-19坂本ビル１Ｆ 坂本ビル１Ｆ",
    "lat": 36.9186371241839,
    "lng": 140.796790281615,
    "tel": "0246-77-1787",
    "url": "www.sweetpea.co.jp",
    "pref": "福島県",
    "city": "いわき市",
    "category": "home_help",
    "serviceType": "訪問介護",
    "capacity": 0,
    "openDays": [
      "平日",
      "土曜日",
      "日曜日",
      "祝日"
    ],
    "openDaysNote": "上記時間以外でのご希望は、お問合せ頂き対応可能時は、ご依頼をお受けしｻｰﾋﾞｽを提供させて頂きます。"
  },
  {
    "id": "770409308",
    "name": "ステップ",
    "kana": "ステップ",
    "address": "福島県いわき市泉町滝尻字前坪42-1OSプラザ103 OSプラザ103",
    "lat": 36.9524915245863,
    "lng": 140.871367868123,
    "tel": "0246-38-7235",
    "url": "",
    "pref": "福島県",
    "city": "いわき市",
    "category": "home_help",
    "serviceType": "訪問介護",
    "capacity": null,
    "openDays": [
      "平日",
      "土曜日",
      "日曜日",
      "祝日"
    ],
    "openDaysNote": "ただし営業時間外であってもお客様の事態により必要性があればサービス提供を行う場合がある。"
  },
  {
    "id": "770404432",
    "name": "スマイルケアサービス訪問介護事業所",
    "kana": "スマイルケアサービスホウモンカイゴジギョウショ",
    "address": "福島県いわき市内郷内町立町14－1",
    "lat": 37.0373721,
    "lng": 140.8513055,
    "tel": "0246-84-8725",
    "url": "",
    "pref": "福島県",
    "city": "いわき市",
    "category": "home_help",
    "serviceType": "訪問介護",
    "capacity": 50,
    "openDays": [
      "平日",
      "土曜日",
      "日曜日",
      "祝日"
    ],
    "openDaysNote": "利用者から要請があれば、日曜・祝日・早朝時間（6時から8時）・夜間時間（18時から22時）でも対応いたします。"
  },
  {
    "id": "770405322",
    "name": "だんらんケアサービス",
    "kana": "ダンランケアサービス",
    "address": "福島県いわき市錦町釈迦堂60番地",
    "lat": 36.9035451993756,
    "lng": 140.783549394781,
    "tel": "0246-38-7561",
    "url": "",
    "pref": "福島県",
    "city": "いわき市",
    "category": "home_help",
    "serviceType": "訪問介護",
    "capacity": 0,
    "openDays": [
      "平日",
      "土曜日",
      "日曜日",
      "祝日"
    ],
    "openDaysNote": "ただし、利用者の希望により時間外でも対応する。"
  },
  {
    "id": "770404176",
    "name": "つかさヘルパーステーション",
    "kana": "ツカサヘルパーステーション",
    "address": "福島県いわき市泉町下川字神山前91番地の７",
    "lat": 36.9413327257278,
    "lng": 140.86218267263,
    "tel": "0246-75-0530",
    "url": "",
    "pref": "福島県",
    "city": "いわき市",
    "category": "home_help",
    "serviceType": "訪問介護",
    "capacity": 0,
    "openDays": [
      "平日",
      "祝日"
    ],
    "openDaysNote": "定休日においては、利用者様の希望により相談に応じ、サービスの提供に対応している。"
  },
  {
    "id": "770406189",
    "name": "ときわ会ヘルパーステーション",
    "kana": "トキワカイヘルパーステーション",
    "address": "福島県いわき市小名浜南富岡字薬師前5-1　ケアレジデンス内",
    "lat": 36.9633864,
    "lng": 140.8805506,
    "tel": "0246-53-6561",
    "url": "http://www.tokiwa.or.jp/",
    "pref": "福島県",
    "city": "いわき市",
    "category": "home_help",
    "serviceType": "訪問介護",
    "capacity": 0,
    "openDays": [
      "平日",
      "土曜日",
      "日曜日",
      "祝日"
    ],
    "openDaysNote": "ご利用者の希望や状況により、サービス時間の調整は可能である。"
  },
  {
    "id": "770404853",
    "name": "ナーシングサービスいわき株式会社",
    "kana": "ナーシングサービスイワキカブシキガイシャ",
    "address": "福島県いわき市郷ケ丘二丁目１１７番地の１６",
    "lat": 37.0234890123684,
    "lng": 140.910018158493,
    "tel": "0246-84-9730",
    "url": "https://www.nursing-iwaki.jp/",
    "pref": "福島県",
    "city": "いわき市",
    "category": "home_help",
    "serviceType": "訪問介護",
    "capacity": 0,
    "openDays": [
      "平日",
      "土曜日",
      "日曜日",
      "祝日"
    ],
    "openDaysNote": "上記以外の時間帯は相談に応じます"
  },
  {
    "id": "770403764",
    "name": "なないろくれよん福祉センター",
    "kana": "ナナイロクレヨンフクシセンター",
    "address": "福島県いわき市郷ケ丘１丁目４７－３",
    "lat": 37.0248177592654,
    "lng": 140.898790284161,
    "tel": "0246-88-8773",
    "url": "",
    "pref": "福島県",
    "city": "いわき市",
    "category": "home_help",
    "serviceType": "訪問介護",
    "capacity": 0,
    "openDays": [
      "平日",
      "土曜日",
      "祝日"
    ],
    "openDaysNote": "利用者の要望により時間外でも対応する"
  },
  {
    "id": "770400505",
    "name": "ニチイケアセンターいわき",
    "kana": "ニチイケアセンターイワキ",
    "address": "福島県いわき市好間町下好間字一町坪111-1",
    "lat": 37.0576428240759,
    "lng": 140.865945481128,
    "tel": "0246-41-9027",
    "url": "http://www.nichiigakkan.co.jp",
    "pref": "福島県",
    "city": "いわき市",
    "category": "home_help",
    "serviceType": "訪問介護",
    "capacity": 0,
    "openDays": [
      "平日"
    ],
    "openDaysNote": "居宅サービス計画により、休業日及び営業時間外であってもサービスを提供する場合があります。"
  },
  {
    "id": "770408813",
    "name": "ニチイケアセンターいわき泉",
    "kana": "ニチイケアセンターイワキイズミ",
    "address": "福島県いわき市泉町1丁目3番地29吉田ﾋﾞﾙ101号 吉田ﾋﾞﾙ101号",
    "lat": 36.9532908,
    "lng": 140.8552571,
    "tel": "0246-75-2393",
    "url": "https://www.nichiigakkan.co.jp/",
    "pref": "福島県",
    "city": "いわき市",
    "category": "home_help",
    "serviceType": "訪問介護",
    "capacity": null,
    "openDays": [
      "平日"
    ],
    "openDaysNote": "居宅サービス計画により、休業日及び営業時間外であってもサービスを提供する場合があります。"
  },
  {
    "id": "770402543",
    "name": "ニチイケアセンターうちごう",
    "kana": "ニチイケアセンターウチゴウ",
    "address": "福島県いわき市内郷綴町榎下55-1",
    "lat": 37.0354032,
    "lng": 140.8563883,
    "tel": "0246-45-3353",
    "url": "http://www.nichiigakkan.co.jp",
    "pref": "福島県",
    "city": "いわき市",
    "category": "home_help",
    "serviceType": "訪問介護",
    "capacity": 0,
    "openDays": [
      "平日"
    ],
    "openDaysNote": "居宅サービス計画により、事業所の営業時間以外でも、サービスの提供を行う場合がある。"
  },
  {
    "id": "770408748",
    "name": "ニチイケアセンターおじま",
    "kana": "ニチイケアセンターオジマ",
    "address": "福島県いわき市小島町2丁目6番3号",
    "lat": 37.0492792,
    "lng": 140.8835843,
    "tel": "0246-45-1026",
    "url": "http://www.nichiigakkan.co.jp",
    "pref": "福島県",
    "city": "いわき市",
    "category": "home_help",
    "serviceType": "訪問介護",
    "capacity": null,
    "openDays": [
      "平日"
    ],
    "openDaysNote": "居宅サービス計画により、休業日及び営業時間外であってもサービスを提供する場合があります。"
  },
  {
    "id": "770408805",
    "name": "ニチイケアセンターかべや",
    "kana": "ニチイケアセンターカベヤ",
    "address": "福島県いわき市平塩字古川16２Ｆ-Ａ室 ２Ｆ-Ａ室",
    "lat": 37.0593614,
    "lng": 140.9191035,
    "tel": "0246-38-5268",
    "url": "http://www.nichiigakkan.co.jp",
    "pref": "福島県",
    "city": "いわき市",
    "category": "home_help",
    "serviceType": "訪問介護",
    "capacity": null,
    "openDays": [
      "平日",
      "土曜日",
      "日曜日",
      "祝日"
    ],
    "openDaysNote": "居宅サービス計画により、休業日及び営業時間外であってもサービスを提供する場合があります。"
  },
  {
    "id": "770405132",
    "name": "ニチイケアセンター小名浜",
    "kana": "ニチイケアセンターオナハマ",
    "address": "福島県いわき市小名浜岡小名三丁目6-14",
    "lat": 36.9631954,
    "lng": 140.9086155,
    "tel": "0246-73-0105",
    "url": "http://www.nichiigakkan.co.jp",
    "pref": "福島県",
    "city": "いわき市",
    "category": "home_help",
    "serviceType": "訪問介護",
    "capacity": 0,
    "openDays": [
      "平日",
      "土曜日",
      "日曜日",
      "祝日"
    ],
    "openDaysNote": "居宅サービス計画により、事業所の営業時間以外でも、サービスの提供を行う場合がある。"
  },
  {
    "id": "770400976",
    "name": "ニチイケアセンター植田",
    "kana": "ニチイケアセンターウエダ",
    "address": "福島県いわき市植田町中央3-1-6永山ビルＤ 永山ビルＤ",
    "lat": 36.9212525831113,
    "lng": 140.797279349856,
    "tel": "0246-77-2131",
    "url": "http://www.nichiigakkan.co.jp",
    "pref": "福島県",
    "city": "いわき市",
    "category": "home_help",
    "serviceType": "訪問介護",
    "capacity": 0,
    "openDays": [
      "平日"
    ],
    "openDaysNote": "居宅サービス計画により、事業所の営業時間以外でも、サービスの提供を行う場合がある。"
  },
  {
    "id": "770403640",
    "name": "ハートフルなこそヘルパーステーション",
    "kana": "ハートフルナコソヘルパーステーション",
    "address": "福島県いわき市植田町小名田13番1",
    "lat": 36.9244004,
    "lng": 140.794478,
    "tel": "0246-77-2740",
    "url": "http://www.heartful-nakoso.or.jp/",
    "pref": "福島県",
    "city": "いわき市",
    "category": "home_help",
    "serviceType": "訪問介護",
    "capacity": 0,
    "openDays": [
      "平日",
      "土曜日",
      "日曜日",
      "祝日"
    ],
    "openDaysNote": ""
  },
  {
    "id": "770404267",
    "name": "ひかり訪問介護事業所",
    "kana": "ヒカリホウモンカイゴジギョウショ",
    "address": "福島県いわき市小名浜中町境13番地グリューネハイツＡ－１０３ グリューネハイツＡ－１０３",
    "lat": 36.955701,
    "lng": 140.8981043,
    "tel": "0246-92-3116",
    "url": "",
    "pref": "福島県",
    "city": "いわき市",
    "category": "home_help",
    "serviceType": "訪問介護",
    "capacity": 0,
    "openDays": [
      "平日",
      "土曜日",
      "日曜日",
      "祝日"
    ],
    "openDaysNote": "利用者の要望に応じ時間外でも対応"
  },
  {
    "id": "770404812",
    "name": "ひだまり",
    "kana": "ヒダマリ",
    "address": "福島県いわき市泉もえぎ台2-23-6",
    "lat": 36.9492108,
    "lng": 140.8446211,
    "tel": "0246-75-2670",
    "url": "",
    "pref": "福島県",
    "city": "いわき市",
    "category": "home_help",
    "serviceType": "訪問介護",
    "capacity": 0,
    "openDays": [
      "平日",
      "土曜日",
      "日曜日",
      "祝日"
    ],
    "openDaysNote": "営業時間外でもサービスの提供を行う場合があります。"
  },
  {
    "id": "770409563",
    "name": "ヘルパーステーション　げんき介",
    "kana": "ヘルパーステーション　ゲンキカイ",
    "address": "福島県いわき市平鎌田町12番地",
    "lat": 37.0565474,
    "lng": 140.9042224,
    "tel": "0246ー88ー7177",
    "url": "",
    "pref": "福島県",
    "city": "いわき市",
    "category": "home_help",
    "serviceType": "訪問介護",
    "capacity": 0,
    "openDays": [
      "平日",
      "土曜日",
      "日曜日",
      "祝日"
    ],
    "openDaysNote": "通常の営業時間は8：30〜17：30とする。（改行）但し、御利用者様の要望に応じて時間外であっても対応するものとする。"
  },
  {
    "id": "770405660",
    "name": "ヘルパーステーション　とこしえ",
    "kana": "ヘルパーステーション　トコシエ",
    "address": "福島県いわき市明治団地６４番地の1デイサービス福老 デイサービス福老",
    "lat": 37.0407848,
    "lng": 140.8866763,
    "tel": "0246-84-7512",
    "url": "http://long-r.jp",
    "pref": "福島県",
    "city": "いわき市",
    "category": "home_help",
    "serviceType": "訪問介護",
    "capacity": 0,
    "openDays": [
      "平日",
      "土曜日",
      "日曜日",
      "祝日"
    ],
    "openDaysNote": "但し、利用者様のご希望により時間外でも対応可能です。（改行）（３６５日、２４時間体制のケア）"
  },
  {
    "id": "770405256",
    "name": "ヘルパーステーション　まごの手",
    "kana": "ヘルパーステーション　マゴノテ",
    "address": "福島県いわき市常磐湯本町宝海127番地の10",
    "lat": 37.0143158,
    "lng": 140.8389577,
    "tel": "0246-38-6933",
    "url": "",
    "pref": "福島県",
    "city": "いわき市",
    "category": "home_help",
    "serviceType": "訪問介護",
    "capacity": 0,
    "openDays": [
      "平日",
      "土曜日",
      "祝日"
    ],
    "openDaysNote": "利用者の要望により時間外対応あり。"
  },
  {
    "id": "770407666",
    "name": "ヘルパーステーション　りあん",
    "kana": "ヘルパーステーション　リアン",
    "address": "福島県いわき市泉玉露7丁目5-14",
    "lat": 36.9558097123722,
    "lng": 140.846466931183,
    "tel": "246881730",
    "url": "http://www.day-keiwa.jp/",
    "pref": "福島県",
    "city": "いわき市",
    "category": "home_help",
    "serviceType": "訪問介護",
    "capacity": 0,
    "openDays": [
      "平日",
      "土曜日",
      "日曜日",
      "祝日"
    ],
    "openDaysNote": ""
  },
  {
    "id": "770402295",
    "name": "ヘルパーステーションあい・あい",
    "kana": "ヘルパーステーションアイ・アイ",
    "address": "福島県いわき市郷ヶ丘2丁目55-3",
    "lat": 37.0290092,
    "lng": 140.9034551,
    "tel": "0246-46-1631",
    "url": "http://www.aiai-kaigo.net/",
    "pref": "福島県",
    "city": "いわき市",
    "category": "home_help",
    "serviceType": "訪問介護",
    "capacity": 0,
    "openDays": [
      "平日",
      "土曜日",
      "日曜日",
      "祝日"
    ],
    "openDaysNote": "18：00～22：00　夜間料金（改行）6：00～8：00　早朝料金（改行）定休日・時間外については要相談"
  },
  {
    "id": "770402261",
    "name": "ヘルパーステーションアマユ",
    "kana": "ヘルパーステーションアマユ",
    "address": "福島県いわき市佐糠町碇田60番地の5",
    "lat": 36.9161525244119,
    "lng": 140.803996217826,
    "tel": "0246-77-2230",
    "url": "",
    "pref": "福島県",
    "city": "いわき市",
    "category": "home_help",
    "serviceType": "訪問介護",
    "capacity": 0,
    "openDays": [
      "平日",
      "土曜日"
    ],
    "openDaysNote": ""
  },
  {
    "id": "770403822",
    "name": "ヘルパーステーションいちごの会",
    "kana": "ヘルパーステーションイチゴノカイ",
    "address": "福島県いわき市常磐湯本町天王崎1-166",
    "lat": 37.0077315486643,
    "lng": 140.848159128836,
    "tel": "0246-72-2135",
    "url": "",
    "pref": "福島県",
    "city": "いわき市",
    "category": "home_help",
    "serviceType": "訪問介護",
    "capacity": 0,
    "openDays": [
      "平日",
      "土曜日"
    ],
    "openDaysNote": "但し、利用者の要望があった場合には、個別相談により対応するものとする。"
  },
  {
    "id": "770408466",
    "name": "ヘルパーステーションげんき介",
    "kana": "ヘルパーステーションゲンキカイ",
    "address": "福島県いわき市平鎌田町12番地",
    "lat": 37.0565219,
    "lng": 140.9040628,
    "tel": "0246-88-7177",
    "url": "",
    "pref": "福島県",
    "city": "いわき市",
    "category": "home_help",
    "serviceType": "訪問介護",
    "capacity": 35,
    "openDays": [
      "平日",
      "土曜日",
      "日曜日",
      "祝日"
    ],
    "openDaysNote": "通常の営業時間は8：30～17：30とする。（改行）但し、御利用者の要望に応じて時間外であっても対応するものとする。"
  },
  {
    "id": "770409092",
    "name": "へルパーステーションつどいいわき",
    "kana": "ヘルパーステーションツドイイワキ",
    "address": "福島県いわき市平北白土字宮前12-11",
    "lat": 37.0521524,
    "lng": 140.912413,
    "tel": "0246-21-7006",
    "url": "",
    "pref": "福島県",
    "city": "いわき市",
    "category": "home_help",
    "serviceType": "訪問介護",
    "capacity": null,
    "openDays": [
      "平日",
      "土曜日",
      "日曜日",
      "祝日"
    ],
    "openDaysNote": ""
  },
  {
    "id": "770409415",
    "name": "ヘルパーステーションニューウォーク",
    "kana": "ヘルパーステーションニューウォーク",
    "address": "福島県いわき市内郷御厩町上宿53－1　グリーンハイツ西側",
    "lat": 37.0476993,
    "lng": 140.8748393,
    "tel": "0246-84-6143",
    "url": "https://newwalk-iwaki.jp/",
    "pref": "福島県",
    "city": "いわき市",
    "category": "home_help",
    "serviceType": "訪問介護",
    "capacity": 0,
    "openDays": [
      "平日",
      "土曜日"
    ],
    "openDaysNote": "サービス提供時間に関しては、利用者様の希望に応じて、対応可能な体制を整えるものとします。"
  },
  {
    "id": "770402881",
    "name": "ヘルパーステーションゆのだけ",
    "kana": "ヘルパーステーションユノダケ",
    "address": "福島県いわき市平中山字宮下85-64",
    "lat": 37.0349078,
    "lng": 140.911346,
    "tel": "0246-44-5256",
    "url": "",
    "pref": "福島県",
    "city": "いわき市",
    "category": "home_help",
    "serviceType": "訪問介護",
    "capacity": null,
    "openDays": [
      "平日",
      "土曜日",
      "日曜日",
      "祝日"
    ],
    "openDaysNote": "営業時間外および定休日でも要望により実施する。"
  },
  {
    "id": "770405082",
    "name": "ヘルパーステーション未来",
    "kana": "ヘルパーステーションミライ",
    "address": "福島県いわき市中央台高久二丁目26-4",
    "lat": 37.0103770988206,
    "lng": 140.928806357672,
    "tel": "0246-68-8927",
    "url": "https://www.cil-iwaki.or.jp/",
    "pref": "福島県",
    "city": "いわき市",
    "category": "home_help",
    "serviceType": "訪問介護",
    "capacity": 0,
    "openDays": [
      "平日",
      "土曜日",
      "日曜日",
      "祝日"
    ],
    "openDaysNote": "午前7時から翌日7時までの24時間、365日サービス提供"
  },
  {
    "id": "770405678",
    "name": "ヘルパー事業所　かいご屋さん",
    "kana": "ヘルパージギョウショ　カイゴヤサン",
    "address": "福島県いわき市平字愛谷町2-5-2",
    "lat": 37.0265638,
    "lng": 140.901806,
    "tel": "0246-84-8145",
    "url": "",
    "pref": "福島県",
    "city": "いわき市",
    "category": "home_help",
    "serviceType": "訪問介護",
    "capacity": 0,
    "openDays": [
      "平日",
      "土曜日",
      "日曜日",
      "祝日"
    ],
    "openDaysNote": "但し、利用者様の希望により時間外でも対応する。"
  },
  {
    "id": "770408086",
    "name": "ベルフラワー",
    "kana": "ベルフラワー",
    "address": "福島県いわき市四倉町字東一丁目66番地の23",
    "lat": 37.098417,
    "lng": 140.9860986,
    "tel": "0246-84-6301",
    "url": "",
    "pref": "福島県",
    "city": "いわき市",
    "category": "home_help",
    "serviceType": "訪問介護",
    "capacity": 0,
    "openDays": [
      "平日"
    ],
    "openDaysNote": "24時間サービス提供。必要に応じて利用可能。"
  },
  {
    "id": "770408961",
    "name": "ユーハンズ",
    "kana": "ユーハンズ",
    "address": "福島県いわき市小川町芝原字茶畠106-1",
    "lat": 37.1383997,
    "lng": 140.8689456,
    "tel": "0246-38-9568",
    "url": "",
    "pref": "福島県",
    "city": "いわき市",
    "category": "home_help",
    "serviceType": "訪問介護",
    "capacity": null,
    "openDays": [
      "平日",
      "祝日"
    ],
    "openDaysNote": "事務所は9～１８時営業ですが、サービス自体は２４時間体制です。"
  },
  {
    "id": "770403186",
    "name": "ゆずり葉ヘルパーステーション",
    "kana": "ユズリハヘルパーステーション",
    "address": "福島県いわき市平下神谷本内104",
    "lat": 37.0679363,
    "lng": 140.950576,
    "tel": "0246-34-3881",
    "url": "http://www.ouzan.net/~east-green/yuzuriha-helper.htm",
    "pref": "福島県",
    "city": "いわき市",
    "category": "home_help",
    "serviceType": "訪問介護",
    "capacity": 0,
    "openDays": [
      "平日",
      "土曜日",
      "日曜日",
      "祝日"
    ],
    "openDaysNote": "24時間対応"
  },
  {
    "id": "770407674",
    "name": "リンクスケア",
    "kana": "リンクスケア",
    "address": "福島県いわき市泉町滝尻字前坪４２－１　ＯＳプラザ１０６",
    "lat": 36.9525066228622,
    "lng": 140.871343989669,
    "tel": "0246-38-3464",
    "url": "",
    "pref": "福島県",
    "city": "いわき市",
    "category": "home_help",
    "serviceType": "訪問介護",
    "capacity": 0,
    "openDays": [
      "平日",
      "土曜日",
      "祝日"
    ],
    "openDaysNote": ""
  },
  {
    "id": "770400729",
    "name": "愛心会２４時間在宅介護",
    "kana": "アイシンカイ２４ジカンザイタクカイゴ",
    "address": "福島県いわき市佐糠町東1丁目１０－８",
    "lat": 36.9189083897878,
    "lng": 140.805806230319,
    "tel": "0246-62-0118",
    "url": "http://aishinkai-iwaki.com/",
    "pref": "福島県",
    "city": "いわき市",
    "category": "home_help",
    "serviceType": "訪問介護",
    "capacity": 0,
    "openDays": [
      "平日",
      "土曜日",
      "日曜日",
      "祝日"
    ],
    "openDaysNote": ""
  },
  {
    "id": "770406221",
    "name": "安泰ヘルパーステーション",
    "kana": "アンタイヘルパーステーション",
    "address": "福島県いわき市常磐湯本町日渡１１７－４",
    "lat": 37.0232632930374,
    "lng": 140.838579822771,
    "tel": "0246-72-2882",
    "url": "http://www.antai.jp",
    "pref": "福島県",
    "city": "いわき市",
    "category": "home_help",
    "serviceType": "訪問介護",
    "capacity": 0,
    "openDays": [
      "平日",
      "土曜日",
      "日曜日",
      "祝日"
    ],
    "openDaysNote": "ただし、利用者様の要望があれば営業時間外も対応致します。"
  },
  {
    "id": "770401065",
    "name": "医療法人　春陽会　うらら苑訪問介護ステーシヨン",
    "kana": "イリョウホウジン　シュンヨウカイ　ウララエンホウモンカイゴステーション",
    "address": "福島県いわき市常磐長孫町大平80番地",
    "lat": 36.9718245,
    "lng": 140.85331,
    "tel": "0246-44-2459",
    "url": "http://syunyoukai.sakura.ne.jp/",
    "pref": "福島県",
    "city": "いわき市",
    "category": "home_help",
    "serviceType": "訪問介護",
    "capacity": 0,
    "openDays": [
      "平日",
      "土曜日",
      "祝日"
    ],
    "openDaysNote": "早朝（6：00～8：00）、夜間（18：00～22：00）も対応いたします。但し、利用料は25％増しとなります。"
  },
  {
    "id": "770402063",
    "name": "鵜の里ヘルパーステーション",
    "kana": "ウノサトヘルパーステーション",
    "address": "福島県いわき市泉町滝尻字六枚内４９－２７",
    "lat": 36.9496813860847,
    "lng": 140.864873745847,
    "tel": "0246-56-3812",
    "url": "",
    "pref": "福島県",
    "city": "いわき市",
    "category": "home_help",
    "serviceType": "訪問介護",
    "capacity": 30,
    "openDays": [
      "平日",
      "土曜日",
      "日曜日",
      "祝日"
    ],
    "openDaysNote": "利用者の要望があれば時間外でも対応する"
  },
  {
    "id": "770400711",
    "name": "介護サービスいわき有限会社",
    "kana": "カイゴサービスイワキユウゲンガイシャ",
    "address": "福島県いわき市平字南町７６番地",
    "lat": 37.0545912,
    "lng": 140.8901175,
    "tel": "0246-24-2307",
    "url": "",
    "pref": "福島県",
    "city": "いわき市",
    "category": "home_help",
    "serviceType": "訪問介護",
    "capacity": 45,
    "openDays": [
      "平日"
    ],
    "openDaysNote": "必要に応じて他の時間帯にも可能な限り対応します。"
  },
  {
    "id": "770402519",
    "name": "介護サービスゆかり",
    "kana": "カイゴサービスユカリ",
    "address": "福島県いわき市勿来町酒井関根57番地の6",
    "lat": 36.887112566165,
    "lng": 140.748937926778,
    "tel": "0246-64-8888",
    "url": "http://kaigo-yukari.co.jp",
    "pref": "福島県",
    "city": "いわき市",
    "category": "home_help",
    "serviceType": "訪問介護",
    "capacity": 0,
    "openDays": [
      "平日",
      "土曜日",
      "日曜日",
      "祝日"
    ],
    "openDaysNote": "利用者の希望により時間外でも対応可です。（改行）土・日・祝日、お盆、年末年始は調整させていただくことがあります。"
  },
  {
    "id": "770408417",
    "name": "介護サービス明日葉",
    "kana": "カイゴサービスアシタバ",
    "address": "福島県いわき市内郷御厩町下能８７",
    "lat": 37.0464527,
    "lng": 140.8722361,
    "tel": "0246-26-6504",
    "url": "",
    "pref": "福島県",
    "city": "いわき市",
    "category": "home_help",
    "serviceType": "訪問介護",
    "capacity": null,
    "openDays": [
      "平日",
      "土曜日",
      "日曜日",
      "祝日"
    ],
    "openDaysNote": "年末年始は要相談"
  },
  {
    "id": "770405330",
    "name": "介護ステーションいわき",
    "kana": "カイゴステーションイワキ",
    "address": "福島県いわき市平字南町48番地の1",
    "lat": 37.0551718,
    "lng": 140.894528,
    "tel": "0246-68-7047",
    "url": "",
    "pref": "福島県",
    "city": "いわき市",
    "category": "home_help",
    "serviceType": "訪問介護",
    "capacity": 0,
    "openDays": [
      "平日",
      "土曜日",
      "日曜日",
      "祝日"
    ],
    "openDaysNote": ""
  },
  {
    "id": "770402220",
    "name": "介護ステーションまごころ",
    "kana": "カイゴステーションマゴコロ",
    "address": "福島県いわき市小名浜金成字町田44－5ハイツプルミエⅡ　201 ハイツプルミエⅡ　201",
    "lat": 36.9892099528501,
    "lng": 140.89780655582,
    "tel": "0246-58-8883",
    "url": "main@magokoro-onahama.jp",
    "pref": "福島県",
    "city": "いわき市",
    "category": "home_help",
    "serviceType": "訪問介護",
    "capacity": 0,
    "openDays": [
      "平日",
      "土曜日",
      "日曜日",
      "祝日"
    ],
    "openDaysNote": "時間外対応可能"
  },
  {
    "id": "770403954",
    "name": "介護のわらべ",
    "kana": "カイゴノワラベ",
    "address": "福島県いわき市郷ヶ丘二丁目30-5-1",
    "lat": 37.0257795918465,
    "lng": 140.906489558057,
    "tel": "0246-28-2520",
    "url": "",
    "pref": "福島県",
    "city": "いわき市",
    "category": "home_help",
    "serviceType": "訪問介護",
    "capacity": 40,
    "openDays": [
      "平日",
      "土曜日",
      "日曜日",
      "祝日"
    ],
    "openDaysNote": "営業時間外は転送電話により２４時間電話による連絡体制（改行）利用者のご希望により、時間外や休日でも対応いたします。"
  },
  {
    "id": "770405793",
    "name": "介護の福",
    "kana": "カイゴノフク",
    "address": "福島県いわき市石森一丁目１７番地の１２",
    "lat": 37.0769134,
    "lng": 140.9000267,
    "tel": "0246-21-4192",
    "url": "",
    "pref": "福島県",
    "city": "いわき市",
    "category": "home_help",
    "serviceType": "訪問介護",
    "capacity": 0,
    "openDays": [
      "平日"
    ],
    "openDaysNote": "利用者様のご要望により休日、時間外でも対応致します。"
  },
  {
    "id": "770404630",
    "name": "介護の和心",
    "kana": "カイゴノワゴコロ",
    "address": "福島県いわき市小名浜岡小名二丁目３番の１",
    "lat": 36.9614983,
    "lng": 140.9067686,
    "tel": "0246-88-7570",
    "url": "",
    "pref": "福島県",
    "city": "いわき市",
    "category": "home_help",
    "serviceType": "訪問介護",
    "capacity": null,
    "openDays": [
      "平日"
    ],
    "openDaysNote": "但し、利用者の希望により営業日・営業時間以外でもサービスを行う事がある。"
  },
  {
    "id": "770401800",
    "name": "楽々ケアサービス",
    "kana": "ラクラクケアサービス",
    "address": "福島県いわき市遠野町入遠野字諏訪115-2",
    "lat": 37.0546286,
    "lng": 140.6966773,
    "tel": "0246-89-3309",
    "url": "ebcbp.m21427@gmail.com",
    "pref": "福島県",
    "city": "いわき市",
    "category": "home_help",
    "serviceType": "訪問介護",
    "capacity": 0,
    "openDays": [
      "平日",
      "土曜日",
      "日曜日",
      "祝日"
    ],
    "openDaysNote": "希望により時間外も可"
  },
  {
    "id": "770400406",
    "name": "楽寿荘訪問介護事業所",
    "kana": "ラクジュソウホウモンカイゴジギョウショ",
    "address": "福島県いわき市四倉町上仁井田字横川74-1",
    "lat": 37.0904809,
    "lng": 140.9787944,
    "tel": "0246-32-6388",
    "url": "http://rakujukai.com/",
    "pref": "福島県",
    "city": "いわき市",
    "category": "home_help",
    "serviceType": "訪問介護",
    "capacity": 0,
    "openDays": [
      "平日",
      "土曜日",
      "日曜日",
      "祝日"
    ],
    "openDaysNote": ""
  },
  {
    "id": "770401172",
    "name": "株式会社　アイカワ",
    "kana": "カブシキガイシャ　アイカワ",
    "address": "いわき市四倉町上仁井田字東山２０番地",
    "lat": 37.0953498,
    "lng": 140.983177,
    "tel": "０２４６-３２-７２００",
    "url": "",
    "pref": "福島県",
    "city": "いわき市",
    "category": "home_help",
    "serviceType": "訪問介護",
    "capacity": 0,
    "openDays": [
      "平日",
      "土曜日",
      "日曜日",
      "祝日"
    ],
    "openDaysNote": "シフト制"
  },
  {
    "id": "770406833",
    "name": "株式会社水野介護ヘルパーステーションたくみ",
    "kana": "カブシキカイシャミズノカイゴヘルパーステーションタクミ",
    "address": "福島県いわき市小名浜字平蔵塚52-5",
    "lat": 36.9519648,
    "lng": 140.8810583,
    "tel": "0246-53-3622",
    "url": "",
    "pref": "福島県",
    "city": "いわき市",
    "category": "home_help",
    "serviceType": "訪問介護",
    "capacity": 5,
    "openDays": [
      "平日",
      "土曜日",
      "日曜日",
      "祝日"
    ],
    "openDaysNote": "営業時間外と休日の利用につきましては、ご相談に応じます。"
  },
  {
    "id": "770400067",
    "name": "株式会社大間シルバーケア　訪問介護事業所",
    "kana": "カブシキガイシャ　オオマシルバーケア　ホウモンカイゴジギョウショ",
    "address": "福島県いわき市平中神谷字南鳥沼27",
    "lat": 37.063336,
    "lng": 140.9346198,
    "tel": "0246-34-4828",
    "url": "https://www.gurutto-iwaki.com/detail/2664/index.html",
    "pref": "福島県",
    "city": "いわき市",
    "category": "home_help",
    "serviceType": "訪問介護",
    "capacity": 0,
    "openDays": [
      "平日",
      "土曜日",
      "日曜日",
      "祝日"
    ],
    "openDaysNote": "定休日及び時間外であっても利用者の要望によりサービスを提供する"
  },
  {
    "id": "770400612",
    "name": "亀齢荘ホームヘルプサービスセンター",
    "kana": "キレイソウホームヘルプサービスセンター",
    "address": "福島県いわき市平山崎字熊ノ宮３８番地",
    "lat": 37.0565872,
    "lng": 140.9405222,
    "tel": "0246-34-8883",
    "url": "http://www.kireisou.com",
    "pref": "福島県",
    "city": "いわき市",
    "category": "home_help",
    "serviceType": "訪問介護",
    "capacity": 0,
    "openDays": [
      "平日",
      "土曜日",
      "祝日"
    ],
    "openDaysNote": "盆休、年末年始休"
  },
  {
    "id": "770406437",
    "name": "郷ヶ丘シルバーサポートセンター",
    "kana": "サトガオカシルバーサポートセンター",
    "address": "いわき市郷ヶ丘二丁目46-1",
    "lat": 37.0241047102471,
    "lng": 140.902967579762,
    "tel": "080-5746-3605",
    "url": "",
    "pref": "福島県",
    "city": "いわき市",
    "category": "home_help",
    "serviceType": "訪問介護",
    "capacity": 1,
    "openDays": [
      "平日",
      "土曜日",
      "日曜日",
      "祝日"
    ],
    "openDaysNote": ""
  },
  {
    "id": "770408920",
    "name": "合同会社　ひなた",
    "kana": "ゴウドウガイシャ　ヒナタ",
    "address": "福島県いわき市内郷綴町川原田67",
    "lat": 37.0384639,
    "lng": 140.8589611,
    "tel": "0246-38-3024",
    "url": "",
    "pref": "福島県",
    "city": "いわき市",
    "category": "home_help",
    "serviceType": "訪問介護",
    "capacity": null,
    "openDays": [
      "平日"
    ],
    "openDaysNote": "利用者様のご要望に応じて、土曜日は対応いたします。"
  },
  {
    "id": "770408029",
    "name": "合同会社　ライフスタイル",
    "kana": "ゴウドウガイシャ　ライフスタイル",
    "address": "福島県いわき市中岡町4丁目7番地13なし なし",
    "lat": 36.9222105,
    "lng": 140.7809408,
    "tel": "080-2821-0352",
    "url": "なし",
    "pref": "福島県",
    "city": "いわき市",
    "category": "home_help",
    "serviceType": "訪問介護",
    "capacity": 0,
    "openDays": [
      "平日",
      "土曜日"
    ],
    "openDaysNote": ""
  },
  {
    "id": "770405363",
    "name": "合同会社たいよう",
    "kana": "ゴウドウガイシャタイヨウ",
    "address": "後田町町田43番地",
    "lat": 36.9199222,
    "lng": 140.7924353,
    "tel": "0246-68-8131",
    "url": "",
    "pref": "福島県",
    "city": "いわき市",
    "category": "home_help",
    "serviceType": "訪問介護",
    "capacity": 0,
    "openDays": [
      "平日",
      "土曜日",
      "日曜日",
      "祝日"
    ],
    "openDaysNote": ""
  },
  {
    "id": "770408540",
    "name": "指定訪問介護事業所イルカの愛",
    "kana": "シテイホウモンカイゴジギョウショイルカノアイ",
    "address": "福島県いわき市小名浜上町８２",
    "lat": 36.9489403,
    "lng": 140.9069592,
    "tel": "０２４６－５４－３９９３",
    "url": "",
    "pref": "福島県",
    "city": "いわき市",
    "category": "home_help",
    "serviceType": "訪問介護",
    "capacity": 0,
    "openDays": [
      "平日",
      "土曜日"
    ],
    "openDaysNote": ""
  },
  {
    "id": "770401875",
    "name": "社会福祉法人ゴールデンハープ",
    "kana": "シャカイフクシホウジンゴールデンハープ",
    "address": "鹿島町御代字柿境10-1安心センターフレーデン 安心センターフレーデン",
    "lat": 36.9837736,
    "lng": 140.9000335,
    "tel": "0246-85-5946",
    "url": "http//www.goldenharp.jp/",
    "pref": "福島県",
    "city": "いわき市",
    "category": "home_help",
    "serviceType": "訪問介護",
    "capacity": 0,
    "openDays": [
      "平日"
    ],
    "openDaysNote": ""
  },
  {
    "id": "770409449",
    "name": "樹楽　泉ヘルパーステーション",
    "kana": "キラク　イズミヘルパーステーション",
    "address": "福島県いわき市泉町下川字須賀蛭27－728",
    "lat": 36.9215546,
    "lng": 140.8495748,
    "tel": "0246－88－7561",
    "url": "",
    "pref": "福島県",
    "city": "いわき市",
    "category": "home_help",
    "serviceType": "訪問介護",
    "capacity": 0,
    "openDays": [
      "平日",
      "祝日"
    ],
    "openDaysNote": "時間外についてもご相談に応じさせていただきます。"
  },
  {
    "id": "770407922",
    "name": "森の樹のヘルパーさん",
    "kana": "モリノキノヘルパーサン",
    "address": "福島県いわき市内郷綴町高野作18番1",
    "lat": 37.0365381858423,
    "lng": 140.867502119058,
    "tel": "0246－84－5472",
    "url": "",
    "pref": "福島県",
    "city": "いわき市",
    "category": "home_help",
    "serviceType": "訪問介護",
    "capacity": 10,
    "openDays": [
      "平日",
      "土曜日"
    ],
    "openDaysNote": "但し、午後５時３０分～翌朝８時３０分までについては、利用者の要望により相談に応じるものとする。"
  },
  {
    "id": "770407708",
    "name": "総合介護事業所　かけ橋",
    "kana": "ソウゴウカイゴジギョウショ　カケハシ",
    "address": "福島県いわき市内郷御厩町一丁目１６７",
    "lat": 37.0450555,
    "lng": 140.868892,
    "tel": "０２４６－２６－２７０１",
    "url": "",
    "pref": "福島県",
    "city": "いわき市",
    "category": "home_help",
    "serviceType": "訪問介護",
    "capacity": 0,
    "openDays": [
      "平日",
      "土曜日",
      "日曜日",
      "祝日"
    ],
    "openDaysNote": "サービスを利用できる時間を明記しているが利用者様のニーズにて配慮出来る。"
  },
  {
    "id": "770400646",
    "name": "太陽の里いわき訪問介護事業所",
    "kana": "タイヨウノサトイワキホウモンカイゴジギョウショ",
    "address": "福島県いわき市平上片寄字上ノ内193",
    "lat": 37.0806072,
    "lng": 140.9153385,
    "tel": "0246-34-1715",
    "url": "http://www.fkshk.sakura.ne.jp",
    "pref": "福島県",
    "city": "いわき市",
    "category": "home_help",
    "serviceType": "訪問介護",
    "capacity": 0,
    "openDays": [
      "平日"
    ],
    "openDaysNote": "但し、サービス提供が必要であり職員体制に支障がない場合はこの限りではありません。"
  },
  {
    "id": "770409340",
    "name": "土屋訪問介護i-stepいわき",
    "kana": "ツチヤホウモンカイゴ　アイステップイワキ",
    "address": "いわき市平上荒川字桜町21-1",
    "lat": 37.0342145,
    "lng": 140.8888348,
    "tel": "0246-46-3322",
    "url": "http//www.i-stepproject.jp",
    "pref": "福島県",
    "city": "いわき市",
    "category": "home_help",
    "serviceType": "訪問介護",
    "capacity": 10,
    "openDays": [
      "平日",
      "祝日"
    ],
    "openDaysNote": ""
  },
  {
    "id": "770404309",
    "name": "特定非営利活動法人フリーフライト",
    "kana": "トクテイヒエイリカツドウホウジン　フリーフライト",
    "address": "福島県いわき市内郷御厩町三丁目１１３番地",
    "lat": 37.0501106,
    "lng": 140.873372,
    "tel": "0246-45-1922",
    "url": "",
    "pref": "福島県",
    "city": "いわき市",
    "category": "home_help",
    "serviceType": "訪問介護",
    "capacity": 0,
    "openDays": [
      "平日",
      "土曜日",
      "日曜日",
      "祝日"
    ],
    "openDaysNote": "３６５日体制です。"
  },
  {
    "id": "770401008",
    "name": "浜通り医療生協ヘルパーステーション",
    "kana": "ハマドオリイリョウセイキョウヘルパーステーション",
    "address": "福島県いわき市小名浜岡小名字馬上前２１番地",
    "lat": 36.9628870046283,
    "lng": 140.903174631664,
    "tel": "0246-92-2480",
    "url": "http://www.hamadori-coop.jp/",
    "pref": "福島県",
    "city": "いわき市",
    "category": "home_help",
    "serviceType": "訪問介護",
    "capacity": 0,
    "openDays": [
      "平日",
      "土曜日"
    ],
    "openDaysNote": "日・祝日・時間外についても、相談に応じてサービス提供いたしております。"
  },
  {
    "id": "770405728",
    "name": "訪問介護　こすもす",
    "kana": "ホウモンカイゴ　コスモス",
    "address": "福島県いわき市佐糠町東2丁目6-9",
    "lat": 36.9174153,
    "lng": 140.8092103,
    "tel": "0246-88-1351",
    "url": "",
    "pref": "福島県",
    "city": "いわき市",
    "category": "home_help",
    "serviceType": "訪問介護",
    "capacity": 20,
    "openDays": [
      "平日",
      "土曜日",
      "日曜日",
      "祝日"
    ],
    "openDaysNote": "ただし利用者の要望により時間外でも対応する。"
  },
  {
    "id": "770406346",
    "name": "訪問介護　ときどき",
    "kana": "ホウモンカイゴ　トキドキ",
    "address": "福島県いわき市東田町2丁目16-1日の丸亭植田店2階 日の丸亭植田店2階",
    "lat": 36.9205774985103,
    "lng": 140.804205524889,
    "tel": "0246-38-7951",
    "url": "http://www.gurutto-iwaki.com/detail/index_1477.html",
    "pref": "福島県",
    "city": "いわき市",
    "category": "home_help",
    "serviceType": "訪問介護",
    "capacity": 0,
    "openDays": [
      "平日",
      "土曜日",
      "日曜日",
      "祝日"
    ],
    "openDaysNote": "施設内訪問介護は、夜間休日対応可。"
  },
  {
    "id": "770409167",
    "name": "訪問介護　大和",
    "kana": "ホウモンカイゴ　ヤマト",
    "address": "福島県いわき市常磐水野谷町千代鶴１６８",
    "lat": 37.0045091491966,
    "lng": 140.864004642328,
    "tel": "0246-38-8282",
    "url": "",
    "pref": "福島県",
    "city": "いわき市",
    "category": "home_help",
    "serviceType": "訪問介護",
    "capacity": null,
    "openDays": [
      "平日",
      "土曜日",
      "日曜日",
      "祝日"
    ],
    "openDaysNote": "利用者の要望があれば、時間外でも対応可能"
  },
  {
    "id": "770401818",
    "name": "訪問介護　紲",
    "kana": "ホウモンカイゴ　キズナ",
    "address": "福島県いわき市平下荒川字川前132-3いわき市平下荒川字川前132-3 いわき市平下荒川字川前132-3",
    "lat": 37.0389674100934,
    "lng": 140.910561174205,
    "tel": "0246-84-8455",
    "url": "http://www.kizuna-iwaki.co.jp/",
    "pref": "福島県",
    "city": "いわき市",
    "category": "home_help",
    "serviceType": "訪問介護",
    "capacity": 0,
    "openDays": [
      "平日",
      "土曜日",
      "日曜日",
      "祝日"
    ],
    "openDaysNote": "土、日や時間外でも対応可。"
  },
  {
    "id": "770409480",
    "name": "訪問介護あかえんば",
    "kana": "ホウモンカイゴアカエンバ",
    "address": "いわき市小名浜諏訪町25番地1",
    "lat": 36.9544422,
    "lng": 140.9093016,
    "tel": "0246-38-7005",
    "url": "",
    "pref": "福島県",
    "city": "いわき市",
    "category": "home_help",
    "serviceType": "訪問介護",
    "capacity": null,
    "openDays": [
      "平日"
    ],
    "openDaysNote": ""
  },
  {
    "id": "770406122",
    "name": "訪問介護いわきケアクラブ",
    "kana": "ホウモンカイゴイワキケアクラブ",
    "address": "福島県いわき市小名浜大原字中野地117番地",
    "lat": 36.9592698493643,
    "lng": 140.894142532796,
    "tel": "0246-88-1503",
    "url": "https://iwaki-careclub.com",
    "pref": "福島県",
    "city": "いわき市",
    "category": "home_help",
    "serviceType": "訪問介護",
    "capacity": 0,
    "openDays": [
      "平日",
      "土曜日",
      "日曜日",
      "祝日"
    ],
    "openDaysNote": "サービス時間は応相談"
  },
  {
    "id": "770409274",
    "name": "訪問介護ケアリーいわき小名浜",
    "kana": "ホウモンカイゴケアリーイワキオナハマ",
    "address": "福島県いわき市小名浜大原字丁新地30-4",
    "lat": 36.9565725,
    "lng": 140.8904014,
    "tel": "0246-53-7117",
    "url": "https://joy-tec.co.jp/",
    "pref": "福島県",
    "city": "いわき市",
    "category": "home_help",
    "serviceType": "訪問介護",
    "capacity": 19,
    "openDays": [
      "平日",
      "土曜日",
      "日曜日",
      "祝日"
    ],
    "openDaysNote": "営業時間外でも相談に応じサービス提供可能な体制をとる。"
  },
  {
    "id": "770407484",
    "name": "訪問介護サービスあげいん",
    "kana": "ホウモンカイゴサービスアゲイン",
    "address": "福島県いわき市小名浜字大原境西166番地の1",
    "lat": 36.9540894208057,
    "lng": 140.888318217197,
    "tel": "0246-88-9991",
    "url": "http://peace-again.jp/",
    "pref": "福島県",
    "city": "いわき市",
    "category": "home_help",
    "serviceType": "訪問介護",
    "capacity": 0,
    "openDays": [
      "平日",
      "祝日"
    ],
    "openDaysNote": "ただし、早朝・夜間・深夜のサービス提供については、利用者のニーズに応じて対応可能な範囲で実施します。"
  },
  {
    "id": "770401867",
    "name": "訪問介護ステーション　そら",
    "kana": "ホウモンカイゴステーション　ソラ",
    "address": "福島県いわき市平十五丁目１０－１　マイスビルマイスビル　３階 マイスビル　３階",
    "lat": 37.0530856549134,
    "lng": 140.892465435124,
    "tel": "0246-34-8661",
    "url": "http://www.sora-kaigo.com/",
    "pref": "福島県",
    "city": "いわき市",
    "category": "home_help",
    "serviceType": "訪問介護",
    "capacity": 0,
    "openDays": [
      "平日",
      "土曜日",
      "日曜日",
      "祝日"
    ],
    "openDaysNote": "希望された場合、土曜日・日曜日も利用できます。"
  },
  {
    "id": "770409019",
    "name": "訪問介護ステーションビバーチェ",
    "kana": "ホウモンカイゴステーションビバーチェ",
    "address": "福島県いわき市小名浜字鳥居北7-11エミネンス小名浜1-3 エミネンス小名浜1-3",
    "lat": 36.9499584,
    "lng": 140.889156,
    "tel": "0246-38-8109",
    "url": "",
    "pref": "福島県",
    "city": "いわき市",
    "category": "home_help",
    "serviceType": "訪問介護",
    "capacity": 0,
    "openDays": [
      "平日",
      "土曜日",
      "日曜日",
      "祝日"
    ],
    "openDaysNote": "サービス提供可能時間外のサービス希望受付可能。（改行）管理者を含め、事業所で検討し回答するものとする。"
  },
  {
    "id": "770401289",
    "name": "訪問介護のほりごめ",
    "kana": "ホウモンカイゴノホリゴメ",
    "address": "福島県いわき市小名浜大原字芳原38-1",
    "lat": 36.9612308,
    "lng": 140.890873,
    "tel": "0246-54-4801",
    "url": "",
    "pref": "福島県",
    "city": "いわき市",
    "category": "home_help",
    "serviceType": "訪問介護",
    "capacity": null,
    "openDays": [
      "平日",
      "土曜日",
      "日曜日",
      "祝日"
    ],
    "openDaysNote": "電話等により常時連絡が可能な体制とする。"
  },
  {
    "id": "770408235",
    "name": "訪問介護のまこと",
    "kana": "ホウモンカイゴノマコト",
    "address": "福島県いわき市内郷綴町川原田67",
    "lat": 37.0384648,
    "lng": 140.8589444,
    "tel": "0246-85-5613",
    "url": "",
    "pref": "福島県",
    "city": "いわき市",
    "category": "home_help",
    "serviceType": "訪問介護",
    "capacity": 0,
    "openDays": [
      "平日"
    ],
    "openDaysNote": ""
  },
  {
    "id": "770407070",
    "name": "訪問介護事業所　ふくださんち。",
    "kana": "ホウモンカイゴジギョウショ　フクダサンチ。",
    "address": "福島県いわき市内郷内町四方北115-2",
    "lat": 37.0396133018869,
    "lng": 140.857044623847,
    "tel": "0246-88-8071",
    "url": "http://hp.kaipoke.biz/xe4/",
    "pref": "福島県",
    "city": "いわき市",
    "category": "home_help",
    "serviceType": "訪問介護",
    "capacity": 0,
    "openDays": [
      "平日",
      "土曜日",
      "日曜日",
      "祝日"
    ],
    "openDaysNote": "利用者希望にて上記以外も対応可"
  },
  {
    "id": "770407997",
    "name": "訪問介護事業所　まごころの手　いわき",
    "kana": "ホウモンカイゴジギョウショ　マゴコロノテ　イワキ",
    "address": "福島県いわき市小名浜大原字東田74渡辺ランビル204 渡辺ランビル204",
    "lat": 36.968564,
    "lng": 140.8905185,
    "tel": "0246-68-8018",
    "url": "",
    "pref": "福島県",
    "city": "いわき市",
    "category": "home_help",
    "serviceType": "訪問介護",
    "capacity": 0,
    "openDays": [
      "平日",
      "土曜日",
      "日曜日",
      "祝日"
    ],
    "openDaysNote": ""
  },
  {
    "id": "770409589",
    "name": "訪問介護事業所　ラムール",
    "kana": "ホウモンカイゴジギョウショ　ラムール",
    "address": "福島県いわき市内郷綴町榎下35番地の2",
    "lat": 37.0369518,
    "lng": 140.856769,
    "tel": "0246-38-9196",
    "url": "",
    "pref": "福島県",
    "city": "いわき市",
    "category": "home_help",
    "serviceType": "訪問介護",
    "capacity": null,
    "openDays": [
      "平日",
      "土曜日",
      "日曜日",
      "祝日"
    ],
    "openDaysNote": "上記以外の時間であっても要望があれば、定休日、時間外でも対応します。"
  },
  {
    "id": "770409209",
    "name": "訪問介護事業所ケア凪咲",
    "kana": "ホウモンカイゴジギョウショケアナギサ",
    "address": "福島県いわき市内郷高坂町立野26番地の6",
    "lat": 37.0435435,
    "lng": 140.8558956,
    "tel": "0246-26-6366",
    "url": "",
    "pref": "福島県",
    "city": "いわき市",
    "category": "home_help",
    "serviceType": "訪問介護",
    "capacity": 0,
    "openDays": [
      "平日",
      "土曜日"
    ],
    "openDaysNote": "ご利用者から要望があれば、時間外でも対応可能時は、ご依頼をお受けいたします。"
  },
  {
    "id": "770408110",
    "name": "訪問介護事業所とよま",
    "kana": "ホウモンカイゴジギョウショトヨマ",
    "address": "福島県いわき市平豊間字柳町４９番地",
    "lat": 36.9918543,
    "lng": 140.9689707,
    "tel": "0246-84-6044",
    "url": "",
    "pref": "福島県",
    "city": "いわき市",
    "category": "home_help",
    "serviceType": "訪問介護",
    "capacity": 0,
    "openDays": [
      "平日",
      "土曜日",
      "祝日"
    ],
    "openDaysNote": ""
  },
  {
    "id": "770406486",
    "name": "訪問介護福ふく",
    "kana": "ホウモンカイゴフクフク",
    "address": "福島県いわき市植田町根小屋４２番地",
    "lat": 36.921347994136,
    "lng": 140.786766042853,
    "tel": "0246-84-6182",
    "url": "",
    "pref": "福島県",
    "city": "いわき市",
    "category": "home_help",
    "serviceType": "訪問介護",
    "capacity": 0,
    "openDays": [
      "平日",
      "土曜日",
      "日曜日",
      "祝日"
    ],
    "openDaysNote": "お客様の要望があれば対応します。"
  },
  {
    "id": "770406452",
    "name": "訪問介護絲",
    "kana": "ホウモンカイゴイト",
    "address": "福島県いわき市平下神谷字宿９７番地の２",
    "lat": 37.0680011030354,
    "lng": 140.944353963893,
    "tel": "0246-34-9220",
    "url": "",
    "pref": "福島県",
    "city": "いわき市",
    "category": "home_help",
    "serviceType": "訪問介護",
    "capacity": 0,
    "openDays": [
      "平日",
      "土曜日"
    ],
    "openDaysNote": "時間外でも利用者からの希望あれば対応可能"
  },
  {
    "id": "770401560",
    "name": "悠々の里・訪問介護ステーション",
    "kana": "ユウユウノサト・ホウモンカイゴステーション",
    "address": "福島県いわき市常磐上矢田町頭田４３番地",
    "lat": 37.0215757545415,
    "lng": 140.8989919,
    "tel": "0246-28-4305",
    "url": "http://iwaki-meiseikai.jp/",
    "pref": "福島県",
    "city": "いわき市",
    "category": "home_help",
    "serviceType": "訪問介護",
    "capacity": 60,
    "openDays": [
      "平日",
      "土曜日",
      "日曜日",
      "祝日"
    ],
    "openDaysNote": "緊急時等やむを得ない場合は２４時間対応する。"
  },
  {
    "id": "770406676",
    "name": "悠訪問介護ステーション",
    "kana": "ユウホウモンカイゴステーション",
    "address": "福島県いわき市中央台飯野３丁目３３番地の１",
    "lat": 37.0132559,
    "lng": 140.9154809,
    "tel": "0246-29-5500",
    "url": "http://m-isi.com",
    "pref": "福島県",
    "city": "いわき市",
    "category": "home_help",
    "serviceType": "訪問介護",
    "capacity": 32,
    "openDays": [
      "平日",
      "土曜日",
      "日曜日",
      "祝日"
    ],
    "openDaysNote": "要望により時間外でも対応する。（改行）連絡体制　電話等により、２４時間常時連絡が可能な体制をとる。"
  },
  {
    "id": "770400190",
    "name": "有限会社　ケアーネット・どばし",
    "kana": "ユウゲンガイシャ　ケアーネット・ドバシ",
    "address": "福島県いわき市郷ケ丘２－１７－１０",
    "lat": 37.0273706,
    "lng": 140.9054911,
    "tel": "0246-46-2500",
    "url": "http://care-net.biz/07/k-dobashi",
    "pref": "福島県",
    "city": "いわき市",
    "category": "home_help",
    "serviceType": "訪問介護",
    "capacity": 0,
    "openDays": [
      "平日",
      "土曜日",
      "日曜日",
      "祝日"
    ],
    "openDaysNote": "上記以外も必要に応じて対応可。"
  },
  {
    "id": "770400117",
    "name": "有限会社　ケイアンドワイ",
    "kana": "ユウゲンガイシャ　ケイアンドワイ",
    "address": "福島県いわき市泉ヶ丘2-10-6",
    "lat": 36.9644118,
    "lng": 140.8558658,
    "tel": "0246-75-2225",
    "url": "http://k-and-y.p-kit.com/",
    "pref": "福島県",
    "city": "いわき市",
    "category": "home_help",
    "serviceType": "訪問介護",
    "capacity": 0,
    "openDays": [
      "平日",
      "土曜日",
      "日曜日",
      "祝日"
    ],
    "openDaysNote": "なし"
  },
  {
    "id": "770401842",
    "name": "有限会社　介護じゃんけんぽん",
    "kana": "ユウゲンカイシャ　カイゴジャンケンポン",
    "address": "福島県いわき市錦町江栗馬場８５番地の２クリーンハイツＢ棟102 クリーンハイツＢ棟102",
    "lat": 36.9105095,
    "lng": 140.7779105,
    "tel": "0246-77-0551",
    "url": "https://www.kaigo-jkpn.jp",
    "pref": "福島県",
    "city": "いわき市",
    "category": "home_help",
    "serviceType": "訪問介護",
    "capacity": 0,
    "openDays": [
      "平日",
      "土曜日",
      "日曜日",
      "祝日"
    ],
    "openDaysNote": "上記時間外であっても利用者の要望があれば対応する。"
  },
  {
    "id": "770403426",
    "name": "有限会社　菅野写真商会　介護事業部",
    "kana": "カンノシャシンショウカイ　カイゴジギョウブ",
    "address": "福島県いわき市平中神谷字六本榎17-1",
    "lat": 37.0631669692852,
    "lng": 140.926043856545,
    "tel": "0246-84-5280",
    "url": "kanno.syasin@isis.ocn.ne.jp",
    "pref": "福島県",
    "city": "いわき市",
    "category": "home_help",
    "serviceType": "訪問介護",
    "capacity": 0,
    "openDays": [
      "平日",
      "土曜日"
    ],
    "openDaysNote": "日曜日.祝日.１２月３０日～１月３日.８月１３日～８月１６日は休日とする。"
  },
  {
    "id": "770401545",
    "name": "有限会社ことぶきケアーサービス",
    "kana": "ユウゲンガイシャコトブキケアーサービス",
    "address": "福島県いわき市錦町川窪101-3",
    "lat": 36.9175257,
    "lng": 140.7841291,
    "tel": "0246-63-9360",
    "url": "http://care-net.biz/07/kotobuki/company.php",
    "pref": "福島県",
    "city": "いわき市",
    "category": "home_help",
    "serviceType": "訪問介護",
    "capacity": 0,
    "openDays": [
      "平日",
      "土曜日",
      "日曜日",
      "祝日"
    ],
    "openDaysNote": "上記以外でもご相談により対応可能な場合もあり"
  },
  {
    "id": "770401354",
    "name": "有限会社泉町三丁目ヘルパーステーション",
    "kana": "ユウゲンカイシャイズミマチサンチョウメヘルパーステーション",
    "address": "福島県いわき市泉町三丁目6番地の6",
    "lat": 36.9504917,
    "lng": 140.8559309,
    "tel": "0246-56-4451",
    "url": "https://izumimachi3chome.wixsite.com/mysite",
    "pref": "福島県",
    "city": "いわき市",
    "category": "home_help",
    "serviceType": "訪問介護",
    "capacity": 0,
    "openDays": [
      "平日",
      "土曜日",
      "日曜日",
      "祝日"
    ],
    "openDaysNote": "訪問時間は相談に応じます。"
  },
  {
    "id": "771300720",
    "name": "JAふくしま未来ヘルパーステーションほほえみ",
    "kana": "ジェイエイフクシマミライヘルパーステーションホホエミ",
    "address": "福島県伊達市保原町七丁目33番地３",
    "lat": 37.82161,
    "lng": 140.5517312,
    "tel": "024-575-0260",
    "url": "",
    "pref": "福島県",
    "city": "伊達市",
    "category": "home_help",
    "serviceType": "訪問介護",
    "capacity": 0,
    "openDays": [
      "平日",
      "土曜日",
      "日曜日",
      "祝日"
    ],
    "openDaysNote": "8月13日～8月16日、12月31日～1月3日は休日扱い"
  },
  {
    "id": "771300647",
    "name": "あっぷるヘルパーステーション",
    "kana": "アップルヘルパーステーション",
    "address": "福島県伊達市霊山町掛田字西裏55",
    "lat": 37.78461211861,
    "lng": 140.593659387262,
    "tel": "070-4086-7217",
    "url": "https://www.networktyouzai.com/privacy/",
    "pref": "福島県",
    "city": "伊達市",
    "category": "home_help",
    "serviceType": "訪問介護",
    "capacity": 0,
    "openDays": [
      "平日",
      "土曜日",
      "日曜日",
      "祝日"
    ],
    "openDaysNote": "サービス時間帯に関しては１度ご相談下さい。"
  },
  {
    "id": "772000295",
    "name": "あぶくまヘルパーステーション",
    "kana": "アブクマヘルパーステーション",
    "address": "福島県伊達市保原町上保原字大地内39番地４",
    "lat": 37.8201119,
    "lng": 140.503432,
    "tel": "024-575-2826",
    "url": "abukuma-h@jinsenkai.or.jp",
    "pref": "福島県",
    "city": "伊達市",
    "category": "home_help",
    "serviceType": "訪問介護",
    "capacity": 0,
    "openDays": [
      "平日",
      "土曜日",
      "日曜日",
      "祝日"
    ],
    "openDaysNote": "状況に応じ訪問利用時間拡大可能です。"
  },
  {
    "id": "771300787",
    "name": "タウンケア訪問介護サービス",
    "kana": "タウンケアホウモンカイゴサービス",
    "address": "福島県伊達市保原町字宮下６７－３",
    "lat": 37.8202916566533,
    "lng": 140.556676099566,
    "tel": "024-575-1234",
    "url": "http://hp.kaipoke.biz/1kt/",
    "pref": "福島県",
    "city": "伊達市",
    "category": "home_help",
    "serviceType": "訪問介護",
    "capacity": null,
    "openDays": [
      "平日",
      "土曜日",
      "日曜日",
      "祝日"
    ],
    "openDaysNote": ""
  },
  {
    "id": "771300324",
    "name": "ハッピー愛ランドヘルパーステーションほばら",
    "kana": "ハッピーアイランド　ヘルパーステーション　ホバラ",
    "address": "福島県伊達市保原町泉町9番地１",
    "lat": 37.8242268362834,
    "lng": 140.546312418602,
    "tel": "024-575-1778",
    "url": "http://www.happyisland.org/",
    "pref": "福島県",
    "city": "伊達市",
    "category": "home_help",
    "serviceType": "訪問介護",
    "capacity": 0,
    "openDays": [
      "平日",
      "土曜日",
      "日曜日",
      "祝日"
    ],
    "openDaysNote": ""
  },
  {
    "id": "771300811",
    "name": "ヘルパーステーション　アスウェル",
    "kana": "ヘルパーステーション　アスウェル",
    "address": "福島県伊達市保原町字実町10番地6",
    "lat": 37.8172604,
    "lng": 140.5494732,
    "tel": "024-573-1390",
    "url": "",
    "pref": "福島県",
    "city": "伊達市",
    "category": "home_help",
    "serviceType": "訪問介護",
    "capacity": 4,
    "openDays": [
      "平日",
      "土曜日",
      "日曜日",
      "祝日"
    ],
    "openDaysNote": ""
  },
  {
    "id": "771300654",
    "name": "ホームヘルパーステーションかおる",
    "kana": "ホームヘルパーステーションカオル",
    "address": "伊達市保原町元町23番地の6",
    "lat": 37.8221993429598,
    "lng": 140.558299799841,
    "tel": "024-597-7567",
    "url": "https://caresapo-kaoru.jp/",
    "pref": "福島県",
    "city": "伊達市",
    "category": "home_help",
    "serviceType": "訪問介護",
    "capacity": 20,
    "openDays": [
      "平日",
      "土曜日",
      "日曜日",
      "祝日"
    ],
    "openDaysNote": ""
  },
  {
    "id": "772000972",
    "name": "まるわケアステーション",
    "kana": "マルワケアステーション",
    "address": "福島県伊達市保原町字九丁目１４番地",
    "lat": 37.8232661799125,
    "lng": 140.554472613275,
    "tel": "024-575-3030",
    "url": "https://maruwa-taxi.com/",
    "pref": "福島県",
    "city": "伊達市",
    "category": "home_help",
    "serviceType": "訪問介護",
    "capacity": 100,
    "openDays": [
      "平日",
      "土曜日",
      "日曜日",
      "祝日"
    ],
    "openDaysNote": "必ず事前にご予約ください。（改行）特別な理由がある場合は時間外も対応いたしいます。（改行）土曜日、日曜日、祝日はヘルパーやドライバーが少数のため、希望の時間に伺えない場合やご依頼を受け付けできない場合もあります。"
  },
  {
    "id": "771300431",
    "name": "愛あいヘルパーステーション",
    "kana": "アイアイヘルパーステーション",
    "address": "福島県伊達市保原町字八幡町５９番地",
    "lat": 37.8300589314314,
    "lng": 140.54640612104,
    "tel": "024-597-6802",
    "url": "",
    "pref": "福島県",
    "city": "伊達市",
    "category": "home_help",
    "serviceType": "訪問介護",
    "capacity": 0,
    "openDays": [
      "平日",
      "土曜日",
      "日曜日",
      "祝日"
    ],
    "openDaysNote": "２４時間対応"
  },
  {
    "id": "771300910",
    "name": "伊達ヘルパーステーション",
    "kana": "ダテヘルパーステーション",
    "address": "福島県伊達市箱崎字川端7伊達ふれあいセンター 伊達ふれあいセンター",
    "lat": 37.8155475,
    "lng": 140.51067,
    "tel": "024-584-3001",
    "url": "http://www.dateshisyakyou.org",
    "pref": "福島県",
    "city": "伊達市",
    "category": "home_help",
    "serviceType": "訪問介護",
    "capacity": null,
    "openDays": [
      "平日",
      "土曜日",
      "日曜日",
      "祝日"
    ],
    "openDaysNote": "サービスを提供する時間帯で料金が異なることがあります。（改行）早朝（6：00～8：00）、夜間（18：00～22：00）については、要相談。"
  },
  {
    "id": "771300761",
    "name": "株式会社Helios",
    "kana": "カブシキカイシャヘリオス",
    "address": "福島県伊達市箱崎字布川130-1なし なし",
    "lat": 37.8219853,
    "lng": 140.5187261,
    "tel": "024-529-5380",
    "url": "なし",
    "pref": "福島県",
    "city": "伊達市",
    "category": "home_help",
    "serviceType": "訪問介護",
    "capacity": 0,
    "openDays": [
      "平日",
      "土曜日",
      "日曜日",
      "祝日"
    ],
    "openDaysNote": "365日年中無休。必要に応じて早朝、夜間および深夜についても対応します。"
  },
  {
    "id": "772000279",
    "name": "指定訪問介護事業所　ヘルパーステーション　日和",
    "kana": "シテイホウモンカイゴジギョウショ　ヘルパーステーションヒヨリ",
    "address": "福島県伊達市梁川町字赤五輪７５－３",
    "lat": 37.8589834,
    "lng": 140.6153856,
    "tel": "024-527-2242",
    "url": "http://www.s-hiyori.com/",
    "pref": "福島県",
    "city": "伊達市",
    "category": "home_help",
    "serviceType": "訪問介護",
    "capacity": 0,
    "openDays": [
      "平日",
      "土曜日",
      "日曜日",
      "祝日"
    ],
    "openDaysNote": "特になし"
  },
  {
    "id": "772000220",
    "name": "指定訪問介護事業所「かあさん」",
    "kana": "シテイホウモンカイゴジギョウショ「カアサン」",
    "address": "福島県伊達市霊山町掛田字岡30-9",
    "lat": 37.7821571,
    "lng": 140.5937204,
    "tel": "024-564-2201",
    "url": "https://youi-kai.org",
    "pref": "福島県",
    "city": "伊達市",
    "category": "home_help",
    "serviceType": "訪問介護",
    "capacity": 80,
    "openDays": [
      "平日",
      "土曜日",
      "日曜日",
      "祝日"
    ],
    "openDaysNote": ""
  },
  {
    "id": "771300696",
    "name": "訪問介護　おてひめ",
    "kana": "ホウモンカイゴ　オテヒメ",
    "address": "福島県伊達市月舘町御代田字扶桑畑42番地１",
    "lat": 37.7574213,
    "lng": 140.6092088,
    "tel": "024-529-6111",
    "url": "http://hp.kaipoke.biz/67g/",
    "pref": "福島県",
    "city": "伊達市",
    "category": "home_help",
    "serviceType": "訪問介護",
    "capacity": 0,
    "openDays": [
      "平日",
      "土曜日",
      "祝日"
    ],
    "openDaysNote": "（サービスの利用に当たっての留意事項）（改行）従業者は、事前に利用者に対して次の点に留意するよう指示を行う。（改行）（１）主治の医師からの指示事項等がある場合には申し出る。（改行）（２）気分が悪くなったときは速やかに申し出る。（改行）（３）体調不良等によって訪問介護に適さないと判断される場合は、サービスの提供を中止することがある。（改行）（４）利用者の状況によっては、この限りではありません。"
  },
  {
    "id": "771300308",
    "name": "訪問介護事業所ハイジ",
    "kana": "ホウモンカイゴジギョウショハイジ",
    "address": "福島県伊達市保原町泉町100-1",
    "lat": 37.8218742808708,
    "lng": 140.547117492259,
    "tel": "024-574-2342",
    "url": "",
    "pref": "福島県",
    "city": "伊達市",
    "category": "home_help",
    "serviceType": "訪問介護",
    "capacity": null,
    "openDays": [
      "平日",
      "土曜日",
      "日曜日",
      "祝日"
    ],
    "openDaysNote": ""
  },
  {
    "id": "772000238",
    "name": "有限会社谷口ビルサービス（シルバーケア谷口）",
    "kana": "ユウゲンガイシャタニグチビルサービス　シルバーケアタニグチ",
    "address": "福島県伊達市梁川町柳田字町ノ内２６",
    "lat": 37.84287,
    "lng": 140.5845833,
    "tel": "024-577-4558",
    "url": "",
    "pref": "福島県",
    "city": "伊達市",
    "category": "home_help",
    "serviceType": "訪問介護",
    "capacity": 3,
    "openDays": [
      "平日",
      "土曜日",
      "日曜日",
      "祝日"
    ],
    "openDaysNote": "電話等により２４時間常時連絡が可能な体制とする"
  },
  {
    "id": "771300928",
    "name": "梁川ヘルパーステーション",
    "kana": "ヤナガワヘルパーステーション",
    "address": "伊達市梁川町字菖蒲沢84寿健康センター 寿健康センター",
    "lat": 37.8557852,
    "lng": 140.6166351,
    "tel": "024－527－2510",
    "url": "http://www.dateshisyakyou.org",
    "pref": "福島県",
    "city": "伊達市",
    "category": "home_help",
    "serviceType": "訪問介護",
    "capacity": 3,
    "openDays": [
      "平日",
      "土曜日",
      "日曜日",
      "祝日"
    ],
    "openDaysNote": "サービスを提供する時間帯で料金が異なることがあります。　　　　　　　　　　　　　　　　　　　　　　（改行）早朝（6：00～8：00）・夜間（18：00～22：00）については要相談。"
  },
  {
    "id": "771300134",
    "name": "霊山ヘルパーステーション",
    "kana": "リョウゼンヘルパーステーション",
    "address": "福島県伊達市霊山町掛田字町田14-5霊山総合福祉センター　茶臼の里 霊山総合福祉センター　茶臼の里",
    "lat": 37.7799964,
    "lng": 140.5982479,
    "tel": "024-586-3464",
    "url": "http://www.dateshisyakyou.org",
    "pref": "福島県",
    "city": "伊達市",
    "category": "home_help",
    "serviceType": "訪問介護",
    "capacity": 0,
    "openDays": [
      "平日",
      "土曜日",
      "日曜日",
      "祝日"
    ],
    "openDaysNote": "サービスを提供する時間帯で料金が異なることがあります。（改行）早朝（6:00～8:00）、夜間（18:00～22:00）については、要相談。"
  },
  {
    "id": "772300752",
    "name": "みなみあいづケアセンター",
    "kana": "ミナミアイヅ　ケアセンター",
    "address": "福島県南会津郡下郷町大字中妻字大百刈６８－２",
    "lat": 37.262471,
    "lng": 139.873917,
    "tel": "0241-69-1233",
    "url": "",
    "pref": "福島県",
    "city": "下郷町",
    "category": "home_help",
    "serviceType": "訪問介護",
    "capacity": 0,
    "openDays": [
      "平日",
      "土曜日",
      "日曜日",
      "祝日"
    ],
    "openDaysNote": "利用者に応じて適宜に対応"
  },
  {
    "id": "772300208",
    "name": "下郷町社会福祉協議会指定居宅サービス事業所",
    "kana": "シモゴウマチシャカイフクシキョウギカイシテイキョタクサービスジギョウショ",
    "address": "福島県南会津郡下郷町大字湯野上字湯野上字杉ノ内乙５４８番地",
    "lat": 37.2958268,
    "lng": 139.9013159,
    "tel": "0241-69-5111",
    "url": "https://simogo-shakyo.or.jp/",
    "pref": "福島県",
    "city": "下郷町",
    "category": "home_help",
    "serviceType": "訪問介護",
    "capacity": 0,
    "openDays": [
      "平日",
      "土曜日",
      "日曜日",
      "祝日"
    ],
    "openDaysNote": "通常午前８時から午後６時まで（改行）早朝午前６時から午前８時まで（改行）夜間午後６時から午後10時まで"
  },
  {
    "id": "772600201",
    "name": "ニチイケアセンターばんげ",
    "kana": "ニチイケアセンタ-バンゲ",
    "address": "福島県河沼郡会津坂下町大字宮古字村西40-3",
    "lat": 37.557371,
    "lng": 139.8474043,
    "tel": "0242-84-2201",
    "url": "http://www.nichiigakkan.co.jp",
    "pref": "福島県",
    "city": "会津坂下町",
    "category": "home_help",
    "serviceType": "訪問介護",
    "capacity": 0,
    "openDays": [
      "平日",
      "土曜日",
      "日曜日",
      "祝日"
    ],
    "openDaysNote": "居宅サービス計画により、休業日及び営業時間以外でもサービスの提供を行う場合があります。"
  },
  {
    "id": "772600359",
    "name": "マイム介護センターばんげ",
    "kana": "マイムカイゴセンターバンゲ",
    "address": "福島県河沼郡会津坂下町字台ノ下７４５番地",
    "lat": 37.5588565,
    "lng": 139.8331222,
    "tel": "0242-84-1366",
    "url": "http://www.aizu-jp.net/maimu/",
    "pref": "福島県",
    "city": "会津坂下町",
    "category": "home_help",
    "serviceType": "訪問介護",
    "capacity": 80,
    "openDays": [
      "平日",
      "土曜日",
      "日曜日",
      "祝日"
    ],
    "openDaysNote": ""
  },
  {
    "id": "772600151",
    "name": "会津坂下ホームヘルプサービスセンター",
    "kana": "アイヅバンゲホームヘルプサービスセンター",
    "address": "福島県河沼郡会津坂下町字中岩田95",
    "lat": 37.5613084219594,
    "lng": 139.812302583606,
    "tel": "0242-83-1370",
    "url": "www.magokoro-egao-anshin.com/",
    "pref": "福島県",
    "city": "会津坂下町",
    "category": "home_help",
    "serviceType": "訪問介護",
    "capacity": 0,
    "openDays": [
      "平日",
      "土曜日",
      "日曜日",
      "祝日"
    ],
    "openDaysNote": "なし"
  },
  {
    "id": "772600425",
    "name": "合同会社あったかⅠ'ｚケアステーションつぼみ",
    "kana": "ゴウドウガイシャアッタカアイヅ　ケアステーションツボミ",
    "address": "福島県河沼郡会津坂下町字舘ノ内甲２５１２番地笠井アパート新１号 笠井アパート新１号",
    "lat": 37.5625028,
    "lng": 139.8167207,
    "tel": "０２４２－８２－４６０６",
    "url": "attakaiz-com",
    "pref": "福島県",
    "city": "会津坂下町",
    "category": "home_help",
    "serviceType": "訪問介護",
    "capacity": 30,
    "openDays": [
      "平日",
      "土曜日",
      "日曜日",
      "祝日"
    ],
    "openDaysNote": "緊急対応の場合は２４時間対応"
  },
  {
    "id": "772600300",
    "name": "有限会社　愛の里　ケアステーション陽だまり",
    "kana": "ユウゲンカイシャ　アイノサト　ケアステーションヒダマリ",
    "address": "福島県河沼郡会津坂下町大字気多宮字柳田１０５９－２",
    "lat": 37.5698572,
    "lng": 139.8070076,
    "tel": "0242-83-0635",
    "url": "http://ainosato-hidamari.com/",
    "pref": "福島県",
    "city": "会津坂下町",
    "category": "home_help",
    "serviceType": "訪問介護",
    "capacity": 23,
    "openDays": [
      "平日",
      "土曜日",
      "日曜日",
      "祝日"
    ],
    "openDaysNote": ""
  },
  {
    "id": "770201903",
    "name": "comくらぶ",
    "kana": "コムクラブ",
    "address": "中央三丁目1番5号メゾン山惣102号 メゾン山惣102号",
    "lat": 37.5036983724759,
    "lng": 139.932307166716,
    "tel": "0242-22-0200",
    "url": "com-club@outlook.jp",
    "pref": "福島県",
    "city": "会津若松市",
    "category": "home_help",
    "serviceType": "訪問介護",
    "capacity": 30,
    "openDays": [
      "平日",
      "土曜日",
      "日曜日",
      "祝日"
    ],
    "openDaysNote": "訪問時間は、利用者の希望に応じられるようにいたします。"
  },
  {
    "id": "770201473",
    "name": "アースサポート会津若松",
    "kana": "アースサポートアイヅワカマツ",
    "address": "福島県会津若松市滝沢町7-17",
    "lat": 37.5051878,
    "lng": 139.9430552,
    "tel": "0242-22-2101",
    "url": "http://www.earthsupport.co.jp",
    "pref": "福島県",
    "city": "会津若松市",
    "category": "home_help",
    "serviceType": "訪問介護",
    "capacity": 0,
    "openDays": [
      "平日",
      "土曜日",
      "日曜日",
      "祝日"
    ],
    "openDaysNote": ""
  },
  {
    "id": "770201838",
    "name": "ケアステーション　いぶ樹",
    "kana": "ケアステーション　イブキ",
    "address": "福島県会津若松市八角町16番40号",
    "lat": 37.5022332883381,
    "lng": 139.947673354835,
    "tel": "0242-36-5580",
    "url": "http://www.ibuki-aizu.co.jp",
    "pref": "福島県",
    "city": "会津若松市",
    "category": "home_help",
    "serviceType": "訪問介護",
    "capacity": 30,
    "openDays": [
      "平日",
      "土曜日",
      "日曜日",
      "祝日"
    ],
    "openDaysNote": "※サービス提供計画により柔軟に人員配置対応を考えています。"
  },
  {
    "id": "770201978",
    "name": "ケアステーション蓮",
    "kana": "ケアステーションレン",
    "address": "福島県会津若松市大町1－7－12キャッスルマンション会津若松101号室 キャッスルマンション会津若松101号室",
    "lat": 37.4961721,
    "lng": 139.9284096,
    "tel": "0242-85-8633",
    "url": "https://www.cil-iwaki.or.jp/",
    "pref": "福島県",
    "city": "会津若松市",
    "category": "home_help",
    "serviceType": "訪問介護",
    "capacity": 0,
    "openDays": [
      "平日",
      "土曜日",
      "日曜日",
      "祝日"
    ],
    "openDaysNote": ""
  },
  {
    "id": "770200129",
    "name": "こころ",
    "kana": "ココロ",
    "address": "福島県会津若松市本町3番20号",
    "lat": 37.4924807,
    "lng": 139.9194245,
    "tel": "0242-27-5276",
    "url": "",
    "pref": "福島県",
    "city": "会津若松市",
    "category": "home_help",
    "serviceType": "訪問介護",
    "capacity": 0,
    "openDays": [
      "平日",
      "土曜日",
      "日曜日",
      "祝日"
    ],
    "openDaysNote": ""
  },
  {
    "id": "770202547",
    "name": "すまいるサポートたいよう",
    "kana": "スマイルサポートタイヨウ",
    "address": "福島県会津若松市城東町14-36-23",
    "lat": 37.4859008,
    "lng": 139.9364521,
    "tel": "0242-77-4762",
    "url": "http://aizu-kaigotaxi-taiyo.com/",
    "pref": "福島県",
    "city": "会津若松市",
    "category": "home_help",
    "serviceType": "訪問介護",
    "capacity": null,
    "openDays": [
      "平日",
      "土曜日",
      "日曜日",
      "祝日"
    ],
    "openDaysNote": "利用者の希望に応じて、サービスの提供については、24時間対応可能な体制を整えるものとする。"
  },
  {
    "id": "770202430",
    "name": "ツクイ会津",
    "kana": "ツクイ　アイヅ",
    "address": "福島県会津若松市中央1丁目5-30",
    "lat": 37.5005651,
    "lng": 139.9305669,
    "tel": "0242-39-6210",
    "url": "hppts://www.tsukui.net",
    "pref": "福島県",
    "city": "会津若松市",
    "category": "home_help",
    "serviceType": "訪問介護",
    "capacity": 0,
    "openDays": [
      "平日",
      "土曜日",
      "日曜日",
      "祝日"
    ],
    "openDaysNote": "利用時間以外は応相談"
  },
  {
    "id": "770200111",
    "name": "ニチイケアセンターわかまつ",
    "kana": "ニチイケアセンターワカマツ",
    "address": "福島県会津若松市南千石町2番２５号",
    "lat": 37.4940335,
    "lng": 139.9417308,
    "tel": "0242-36-0125",
    "url": "hsti49@nichiigakkan.co.jp",
    "pref": "福島県",
    "city": "会津若松市",
    "category": "home_help",
    "serviceType": "訪問介護",
    "capacity": 0,
    "openDays": [
      "平日",
      "土曜日",
      "日曜日",
      "祝日"
    ],
    "openDaysNote": "居宅サービス計画により、休業日営業時間以外でもサービスの提供を行なう場合があります。"
  },
  {
    "id": "770202364",
    "name": "ニチイケアセンター河東",
    "kana": "ニチイケアセンターカワヒガシ",
    "address": "福島県会津若松市河東町浅山字仲田25－1メゾン浅山3階301",
    "lat": 37.547802,
    "lng": 139.9350128,
    "tel": "0242－76－1031",
    "url": "www.nichiigakkan.co.jp",
    "pref": "福島県",
    "city": "会津若松市",
    "category": "home_help",
    "serviceType": "訪問介護",
    "capacity": 0,
    "openDays": [
      "平日",
      "土曜日",
      "日曜日",
      "祝日"
    ],
    "openDaysNote": "休業日、営業時間以外でもサービス提供を行う場合があります。"
  },
  {
    "id": "770200780",
    "name": "ニチイケアセンター七日町",
    "kana": "ニチイケアセンターナノカマチ",
    "address": "福島県会津若松市西七日町６－１５",
    "lat": 37.50421,
    "lng": 139.9149052,
    "tel": "0242-37-0573",
    "url": "http://www.nichiigakkan.co.jp",
    "pref": "福島県",
    "city": "会津若松市",
    "category": "home_help",
    "serviceType": "訪問介護",
    "capacity": 0,
    "openDays": [
      "平日",
      "土曜日",
      "日曜日",
      "祝日"
    ],
    "openDaysNote": "居宅サービス計画により上記以外でもサービスを提供する場合があります。"
  },
  {
    "id": "770200947",
    "name": "ニチイケアセンター門田",
    "kana": "ニチイケアセンターモンデン",
    "address": "福島県会津若松市門田町日吉字小金井11",
    "lat": 37.4778542,
    "lng": 139.9181306,
    "tel": "0242-38-3034",
    "url": "http://www.nichiigakkan.co.jp",
    "pref": "福島県",
    "city": "会津若松市",
    "category": "home_help",
    "serviceType": "訪問介護",
    "capacity": 0,
    "openDays": [
      "平日"
    ],
    "openDaysNote": "居宅サービス計画により休業日及び営業時間外でもサービスを提供する場合があります。"
  },
  {
    "id": "770201002",
    "name": "ネットケアーヘルパーステーション",
    "kana": "ネットケアーヘルパーステーション",
    "address": "福島県会津若松市門田町大字飯寺字村西７７６－６",
    "lat": 37.4749894096355,
    "lng": 139.90202543373,
    "tel": "０２４２－９３－６３７７",
    "url": "https://www.netcareplanning.co.jp/",
    "pref": "福島県",
    "city": "会津若松市",
    "category": "home_help",
    "serviceType": "訪問介護",
    "capacity": null,
    "openDays": [
      "平日",
      "土曜日",
      "日曜日",
      "祝日"
    ],
    "openDaysNote": "担当者会議によって決定した時間のサービスを行っています。"
  },
  {
    "id": "770201598",
    "name": "ヘルパーこころのさと",
    "kana": "ヘルパーココロノサト",
    "address": "福島県会津若松市門田町黒岩字石高194-2",
    "lat": 37.4726801,
    "lng": 139.936135,
    "tel": "0242-38-1520",
    "url": "http://www.aizu-jp.net/spiritual-vil/",
    "pref": "福島県",
    "city": "会津若松市",
    "category": "home_help",
    "serviceType": "訪問介護",
    "capacity": 0,
    "openDays": [
      "平日",
      "土曜日",
      "日曜日",
      "祝日"
    ],
    "openDaysNote": "特に無し"
  },
  {
    "id": "770201366",
    "name": "ヘルパーステーションしなのき",
    "kana": "ヘルパーステーションシナノキ",
    "address": "福島県会津若松市新横町4-10しなのき新横 しなのき新横",
    "lat": 37.4923364380527,
    "lng": 139.915846673975,
    "tel": "0242-27-5888",
    "url": "http://www.sinanoki.co.jp/",
    "pref": "福島県",
    "city": "会津若松市",
    "category": "home_help",
    "serviceType": "訪問介護",
    "capacity": 0,
    "openDays": [
      "平日",
      "土曜日",
      "日曜日",
      "祝日"
    ],
    "openDaysNote": ""
  },
  {
    "id": "770202497",
    "name": "ヘルパーステーションしなのき真宮",
    "kana": "ヘルパーステーションシナノキマミヤ",
    "address": "福島県会津若松市真宮新町北二丁目８番地",
    "lat": 37.5229807310617,
    "lng": 139.871898744705,
    "tel": "0242-58-1153",
    "url": "https://www.sinanoki.co.jp/",
    "pref": "福島県",
    "city": "会津若松市",
    "category": "home_help",
    "serviceType": "訪問介護",
    "capacity": 50,
    "openDays": [
      "平日",
      "土曜日",
      "日曜日",
      "祝日"
    ],
    "openDaysNote": "利用者の要望により訪問介護員の派遣が可能な場合は、営業日・営業時間以外でも指定訪問介護を提供するものとする。"
  },
  {
    "id": "770201325",
    "name": "ヘルパーステーションなごみ",
    "kana": "ヘルパーステーションナゴミ",
    "address": "福島県会津若松市山見二丁目5番地の12",
    "lat": 37.5091485,
    "lng": 139.9400943,
    "tel": "0242-22-3330",
    "url": "",
    "pref": "福島県",
    "city": "会津若松市",
    "category": "home_help",
    "serviceType": "訪問介護",
    "capacity": 0,
    "openDays": [
      "平日",
      "土曜日",
      "日曜日",
      "祝日"
    ],
    "openDaysNote": ""
  },
  {
    "id": "770201655",
    "name": "ヘルパーステーションほほえみ",
    "kana": "ヘルパーステーションホホエミ",
    "address": "福島県会津若松市神指町高瀬66-3番地",
    "lat": 37.5153848485429,
    "lng": 139.895204120763,
    "tel": "0242-85-7417",
    "url": "",
    "pref": "福島県",
    "city": "会津若松市",
    "category": "home_help",
    "serviceType": "訪問介護",
    "capacity": null,
    "openDays": [
      "平日"
    ],
    "openDaysNote": ""
  },
  {
    "id": "770202315",
    "name": "ヘルパーステーション暖らん",
    "kana": "ヘルパーステーションダンラン",
    "address": "滝沢町１番１６号",
    "lat": 37.503682,
    "lng": 139.9422108,
    "tel": "0242-93-9025",
    "url": "",
    "pref": "福島県",
    "city": "会津若松市",
    "category": "home_help",
    "serviceType": "訪問介護",
    "capacity": null,
    "openDays": [
      "平日",
      "祝日"
    ],
    "openDaysNote": "居宅サービス計画により、休業日営業時間以外でもサービスの提供を行う場合があります。"
  },
  {
    "id": "770200798",
    "name": "ホームケアサービス",
    "kana": "ホームケアサービス",
    "address": "福島県会津若松市東山町大字石山字院内１７１",
    "lat": 37.4840381779914,
    "lng": 139.953441456297,
    "tel": "0242-36-6060",
    "url": "http://www.onchikai.jp",
    "pref": "福島県",
    "city": "会津若松市",
    "category": "home_help",
    "serviceType": "訪問介護",
    "capacity": 0,
    "openDays": [
      "平日",
      "土曜日"
    ],
    "openDaysNote": "利用者の方の要望があれば、上記については、この限りでない。"
  },
  {
    "id": "770200343",
    "name": "マイム介護センター",
    "kana": "マイムカイゴセンター",
    "address": "福島県会津若松市中央三丁目７－３０",
    "lat": 37.50551,
    "lng": 139.9335727,
    "tel": "0242-37-3050",
    "url": "http://www.aizu-jp.net/maimu/",
    "pref": "福島県",
    "city": "会津若松市",
    "category": "home_help",
    "serviceType": "訪問介護",
    "capacity": 0,
    "openDays": [
      "平日",
      "土曜日",
      "日曜日",
      "祝日"
    ],
    "openDaysNote": "基本は８：００～１８：００のみ（改行）夜間早朝は特殊ケースのみで要相談"
  },
  {
    "id": "770202182",
    "name": "マイム介護センターあいづ南",
    "kana": "マイムカイゴセンターアイヅミナミ",
    "address": "福島県会津若松市飯寺北三丁目6-60",
    "lat": 37.4773734415921,
    "lng": 139.904645868735,
    "tel": "0242-23-7905",
    "url": "http://www.aizu-jp.net/maimu/",
    "pref": "福島県",
    "city": "会津若松市",
    "category": "home_help",
    "serviceType": "訪問介護",
    "capacity": null,
    "openDays": [
      "平日",
      "土曜日",
      "日曜日",
      "祝日"
    ],
    "openDaysNote": "援助内容により　6:00～8:00/18:00～22:00(早朝夜間)22:00～6:00(深夜）対応"
  },
  {
    "id": "770200764",
    "name": "まごころヘルパー",
    "kana": "マゴコロヘルパー",
    "address": "福島県会津若松市門田町大字徳久字竹之元1233番地",
    "lat": 37.4718896482263,
    "lng": 139.912769557672,
    "tel": "0242-36-6311",
    "url": "www13.plala.or.jp/magokoro-h/index.html",
    "pref": "福島県",
    "city": "会津若松市",
    "category": "home_help",
    "serviceType": "訪問介護",
    "capacity": 30,
    "openDays": [
      "平日",
      "土曜日",
      "日曜日",
      "祝日"
    ],
    "openDaysNote": "‐"
  },
  {
    "id": "770200459",
    "name": "みんなのヘルパー",
    "kana": "ミンナノヘルパー",
    "address": "福島県会津若松市明和町5-5",
    "lat": 37.4784981,
    "lng": 139.927506,
    "tel": "0242-29-7331",
    "url": "http://yumeweb21.web.fc2.com",
    "pref": "福島県",
    "city": "会津若松市",
    "category": "home_help",
    "serviceType": "訪問介護",
    "capacity": 0,
    "openDays": [
      "平日",
      "土曜日",
      "日曜日",
      "祝日"
    ],
    "openDaysNote": "365日上記時間対応"
  },
  {
    "id": "770200434",
    "name": "会津医療生協ヘルパーステーション",
    "kana": "アイヅイリョウセイキョウヘルパーステーション",
    "address": "福島県会津若松市東千石一丁目2－13",
    "lat": 37.4962298686093,
    "lng": 139.944514171164,
    "tel": "0242-36-6411",
    "url": "http://care-net.biz/07/aizuiryo/bll.php",
    "pref": "福島県",
    "city": "会津若松市",
    "category": "home_help",
    "serviceType": "訪問介護",
    "capacity": 0,
    "openDays": [
      "平日",
      "土曜日",
      "日曜日",
      "祝日"
    ],
    "openDaysNote": "なし"
  },
  {
    "id": "770201275",
    "name": "会津長寿園訪問介護事業所",
    "kana": "アイヅチョウジュエンホウモンカイゴジギョウショ",
    "address": "福島県会津若松市門田町大字黒岩字五百山丙４５９番地の３",
    "lat": 37.4835373,
    "lng": 139.9469373,
    "tel": "0242-27-1797",
    "url": "www.choujuen.or.jp/",
    "pref": "福島県",
    "city": "会津若松市",
    "category": "home_help",
    "serviceType": "訪問介護",
    "capacity": 0,
    "openDays": [
      "平日",
      "土曜日",
      "日曜日",
      "祝日"
    ],
    "openDaysNote": "身体状況、生活状況に応じ24時間サービスを提供します。"
  },
  {
    "id": "770202091",
    "name": "株式会社　糖励会　ヘルパーステーション笑-しょう",
    "kana": "カブシキカイシャ　トウレイカイ　ヘルパーステーションショウ-ショウ",
    "address": "福島県会津若松市門田町飯寺村東327-70レジデンス光201号室 レジデンス光201号室",
    "lat": 37.4745473406705,
    "lng": 139.907193761582,
    "tel": "0242-23-4521",
    "url": "http://toureikai.net",
    "pref": "福島県",
    "city": "会津若松市",
    "category": "home_help",
    "serviceType": "訪問介護",
    "capacity": 50,
    "openDays": [
      "平日",
      "土曜日",
      "日曜日",
      "祝日"
    ],
    "openDaysNote": ""
  },
  {
    "id": "770201499",
    "name": "株式会社ケアネット　ヘルパーステーション会津",
    "kana": "カブシキガイシャケアネット　ヘルパーステーションアイヅ",
    "address": "福島県会津若松市門田町工業団地37-1",
    "lat": 37.4644442,
    "lng": 139.9126512,
    "tel": "0242-85-7093",
    "url": "http://www.fikcnpo.or.jp/care/carenet/",
    "pref": "福島県",
    "city": "会津若松市",
    "category": "home_help",
    "serviceType": "訪問介護",
    "capacity": 0,
    "openDays": [
      "平日",
      "土曜日",
      "日曜日",
      "祝日"
    ],
    "openDaysNote": ""
  },
  {
    "id": "770200186",
    "name": "丸光産業株式会社　丸光ケアサービス　会津若松支店",
    "kana": "マルミツサンギョウカブシキカイシャマルミツケアサービスアイヅワカマツシテン",
    "address": "福島県会津若松市表町1-33",
    "lat": 37.4819460740293,
    "lng": 139.927117520238,
    "tel": "0242-38-3703",
    "url": "http://www.k2.dion.ne.jp/~marumitu/",
    "pref": "福島県",
    "city": "会津若松市",
    "category": "home_help",
    "serviceType": "訪問介護",
    "capacity": 0,
    "openDays": [
      "平日",
      "土曜日",
      "日曜日",
      "祝日"
    ],
    "openDaysNote": "サービス提供は３６５日（年中無休です）"
  },
  {
    "id": "770200178",
    "name": "社会福祉法人会津若松市社会福祉協議会訪問介護事業所",
    "kana": "シャカイフクシホウジンアイヅワカマツシシャカイフクシキョウギカイホウモンカイゴジギョウショ",
    "address": "福島県会津若松市追手町5番32号",
    "lat": 37.4901449,
    "lng": 139.9321595,
    "tel": "0242-28-4030",
    "url": "http://www.awshakyo.or.jp",
    "pref": "福島県",
    "city": "会津若松市",
    "category": "home_help",
    "serviceType": "訪問介護",
    "capacity": 0,
    "openDays": [
      "平日",
      "土曜日",
      "祝日"
    ],
    "openDaysNote": "相談に応じます"
  },
  {
    "id": "770202570",
    "name": "訪問介護ステーション悠里",
    "kana": "ホウモンカイゴステーションユウリ",
    "address": "福島県会津若松市門田町大字黒岩字石高117ノ9",
    "lat": 37.472757,
    "lng": 139.9346443,
    "tel": "0242-38-3630",
    "url": "https://minenoyama.co.jp",
    "pref": "福島県",
    "city": "会津若松市",
    "category": "home_help",
    "serviceType": "訪問介護",
    "capacity": null,
    "openDays": [
      "平日",
      "土曜日",
      "日曜日",
      "祝日"
    ],
    "openDaysNote": "利用者の希望に応じて、上記時間以外でも、サービス提供可能な体制をとります。"
  },
  {
    "id": "770201705",
    "name": "訪問介護事業所　ケアサービスゆめ",
    "kana": "ケアサービスユメ",
    "address": "福島県会津若松市東年貢1-3-20",
    "lat": 37.4802203,
    "lng": 139.9072541,
    "tel": "0242-36-6682",
    "url": "http://care-net.biz/07/hidamarioie/",
    "pref": "福島県",
    "city": "会津若松市",
    "category": "home_help",
    "serviceType": "訪問介護",
    "capacity": 0,
    "openDays": [
      "平日",
      "土曜日",
      "日曜日",
      "祝日"
    ],
    "openDaysNote": ""
  },
  {
    "id": "770202190",
    "name": "訪問介護事業所「プリムアシスト」",
    "kana": "ホウモンカイゴジギョウショ「プリムアシスト」",
    "address": "福島県会津若松市一箕町松長一丁目19番地",
    "lat": 37.5340742660078,
    "lng": 139.954862956176,
    "tel": "0242-93-5766",
    "url": "http://www.npo-prim.com",
    "pref": "福島県",
    "city": "会津若松市",
    "category": "home_help",
    "serviceType": "訪問介護",
    "capacity": 20,
    "openDays": [
      "平日",
      "土曜日",
      "日曜日",
      "祝日"
    ],
    "openDaysNote": "12月29日から1月3日まではお休みとするが、必要と思われる場合は、要相談により365日行う場合もある。"
  },
  {
    "id": "770201036",
    "name": "訪問介護事業所ねむの木",
    "kana": "ホウモンカイゴジギョウショネムノキ",
    "address": "福島県会津若松市橋本1丁目1番22号",
    "lat": 37.5043036889771,
    "lng": 139.912467572403,
    "tel": "0242-22-6506",
    "url": "http://care-net,biz/07/nemunoki/",
    "pref": "福島県",
    "city": "会津若松市",
    "category": "home_help",
    "serviceType": "訪問介護",
    "capacity": 0,
    "openDays": [
      "平日",
      "土曜日",
      "日曜日",
      "祝日"
    ],
    "openDaysNote": "ご家族様、及びご利用者様のご希望により営業時間外でもサービスを提供致します。"
  },
  {
    "id": "770202141",
    "name": "訪問介護事業所温もり",
    "kana": "ホウモンカイゴジギョウショヌクモリ",
    "address": "福島県会津若松市門田町大字飯寺字村東577番73",
    "lat": 37.5156713,
    "lng": 139.8765033,
    "tel": "0242-85-7860",
    "url": "",
    "pref": "福島県",
    "city": "会津若松市",
    "category": "home_help",
    "serviceType": "訪問介護",
    "capacity": 0,
    "openDays": [
      "平日",
      "土曜日",
      "日曜日",
      "祝日"
    ],
    "openDaysNote": ""
  },
  {
    "id": "770200962",
    "name": "明日向ヘルパーステーション",
    "kana": "アスカヘルパーステーション",
    "address": "会津若松市門田町大字一ノ堰字村西４０５番地１０",
    "lat": 37.4759407,
    "lng": 139.9282159,
    "tel": "0242-23-4070",
    "url": "",
    "pref": "福島県",
    "city": "会津若松市",
    "category": "home_help",
    "serviceType": "訪問介護",
    "capacity": 0,
    "openDays": [
      "平日",
      "土曜日",
      "日曜日",
      "祝日"
    ],
    "openDaysNote": "‐"
  },
  {
    "id": "772700464",
    "name": "ＪＡ会津よつばふれ愛センターみどり",
    "kana": "ジェイエイアイヅヨツバフレアイセンターミドリ",
    "address": "福島県大沼郡会津美里町立石田字古宮前甲326番地-2新鶴支店２階 新鶴支店２階",
    "lat": 37.517678,
    "lng": 139.8288994,
    "tel": "0242-85−6082",
    "url": "",
    "pref": "福島県",
    "city": "会津美里町",
    "category": "home_help",
    "serviceType": "訪問介護",
    "capacity": 60,
    "openDays": [
      "平日",
      "土曜日",
      "日曜日",
      "祝日"
    ],
    "openDaysNote": "土　日　祝日と時間外は電話対応可能"
  },
  {
    "id": "772700589",
    "name": "ニチイケアセンター会津本郷",
    "kana": "ニチイケアセンターアイヅホンゴウ",
    "address": "福島県大沼郡会津美里町字新町263番地1",
    "lat": 37.4547316,
    "lng": 139.8916005,
    "tel": "0242-57-1019",
    "url": "hstbt3@nichiigakkann.co.jp",
    "pref": "福島県",
    "city": "会津美里町",
    "category": "home_help",
    "serviceType": "訪問介護",
    "capacity": 0,
    "openDays": [
      "平日"
    ],
    "openDaysNote": "居宅サービス計画により休業日及び営業時間外でもサービスを提供する場合があります。"
  },
  {
    "id": "772700159",
    "name": "医療法人明精会　会津本郷ヘルパーステーション",
    "kana": "イリョウホウジンメイセイカイ　アイヅホンゴウヘルパーステーション",
    "address": "福島県大沼郡会津美里町字北川原１９番地",
    "lat": 37.4521532,
    "lng": 139.8857463,
    "tel": "0242-56-3999",
    "url": "http://www.meisei-kai.or.jp",
    "pref": "福島県",
    "city": "会津美里町",
    "category": "home_help",
    "serviceType": "訪問介護",
    "capacity": 0,
    "openDays": [
      "平日",
      "土曜日",
      "日曜日",
      "祝日"
    ],
    "openDaysNote": ""
  },
  {
    "id": "772700407",
    "name": "会津美里町社会福祉協議会ヘルパーステーション",
    "kana": "アイヅミサトマチシャカイフクシキョウギカイヘルパーステーション",
    "address": "福島県大沼郡会津美里町下堀字中川360-4",
    "lat": 37.4583346,
    "lng": 139.8449498,
    "tel": "0242-55-1610",
    "url": "aizumisato-syakyo@galaxy.ocn.ne.jp",
    "pref": "福島県",
    "city": "会津美里町",
    "category": "home_help",
    "serviceType": "訪問介護",
    "capacity": 0,
    "openDays": [
      "平日",
      "土曜日",
      "日曜日",
      "祝日"
    ],
    "openDaysNote": ""
  },
  {
    "id": "772700217",
    "name": "宮川荘ホームヘルパーステーション",
    "kana": "ミヤカワソウホームヘルパーステーション",
    "address": "大沼郡会津美里町字高田道上2869-8",
    "lat": 37.4683113,
    "lng": 139.8459063,
    "tel": "0242-54-6844",
    "url": "https://senoukai.or.jp/",
    "pref": "福島県",
    "city": "会津美里町",
    "category": "home_help",
    "serviceType": "訪問介護",
    "capacity": 0,
    "openDays": [
      "平日",
      "土曜日",
      "日曜日",
      "祝日"
    ],
    "openDaysNote": ""
  },
  {
    "id": "770201069",
    "name": "社会福祉法人心愛会ホームヘルプサービス",
    "kana": "シャカイフクシホウジンシンアイカイホームヘルプサービス",
    "address": "福島県大沼郡会津美里町字北川原14番地ケアハウス　ハーモニーほんごう ケアハウス　ハーモニーほんごう",
    "lat": 37.4532985613297,
    "lng": 139.885866106319,
    "tel": "0242-85-8477",
    "url": "http://sin-ai.com/",
    "pref": "福島県",
    "city": "会津美里町",
    "category": "home_help",
    "serviceType": "訪問介護",
    "capacity": 0,
    "openDays": [
      "平日",
      "土曜日",
      "祝日"
    ],
    "openDaysNote": "日曜日・時間外に関しては、ご要望・状況に応じて対応可能。"
  },
  {
    "id": "770800142",
    "name": "ＪＡ会津よつば　　ふれ愛センター　いいで",
    "kana": "ジェイエイアイヅヨツバ　フレアイセンター　イイデ",
    "address": "福島県喜多方市岩月町喜多方字渕の下171番地4",
    "lat": 37.6588515,
    "lng": 139.8800275,
    "tel": "0241-21-1888",
    "url": "http://aizuyotuba.jp",
    "pref": "福島県",
    "city": "喜多方市",
    "category": "home_help",
    "serviceType": "訪問介護",
    "capacity": null,
    "openDays": [
      "平日",
      "土曜日",
      "日曜日",
      "祝日"
    ],
    "openDaysNote": "定休日、年末年始12月31日～1月3日"
  },
  {
    "id": "770800795",
    "name": "ケア・サービス　みらい",
    "kana": "ケア・サービス　ミライ",
    "address": "福島県喜多方市豊川町米室字二条川原1878-9",
    "lat": 37.6418016497191,
    "lng": 139.85642546952,
    "tel": "0241-21-1241",
    "url": "http://www.seikirari.com",
    "pref": "福島県",
    "city": "喜多方市",
    "category": "home_help",
    "serviceType": "訪問介護",
    "capacity": 0,
    "openDays": [
      "平日",
      "土曜日",
      "日曜日",
      "祝日"
    ],
    "openDaysNote": "なし"
  },
  {
    "id": "770800423",
    "name": "ケアサポート優友",
    "kana": "ケアサポート　ユウユウ",
    "address": "福島県喜多方市熊倉町熊倉字壇ノ前1485-1",
    "lat": 37.6422437,
    "lng": 139.9233315,
    "tel": "0241-25-7659",
    "url": "",
    "pref": "福島県",
    "city": "喜多方市",
    "category": "home_help",
    "serviceType": "訪問介護",
    "capacity": null,
    "openDays": [
      "平日",
      "土曜日",
      "日曜日",
      "祝日"
    ],
    "openDaysNote": "電話等により24時間常時連絡が可能で、時間外もサービスが可能"
  },
  {
    "id": "770800381",
    "name": "デイサポート太陽",
    "kana": "デイサポートタイヨウ",
    "address": "福島県喜多方市字小田付道下７１３２－４",
    "lat": 37.6521521,
    "lng": 139.8752698,
    "tel": "0241-24-3878",
    "url": "https://www.gurutto-aizu.com/detail/index₋595.html",
    "pref": "福島県",
    "city": "喜多方市",
    "category": "home_help",
    "serviceType": "訪問介護",
    "capacity": 0,
    "openDays": [
      "平日",
      "土曜日",
      "祝日"
    ],
    "openDaysNote": "透析通院に対しては年末年始対応します。"
  },
  {
    "id": "770800928",
    "name": "ニチイケアセンターしおかわ",
    "kana": "ニチイケアセンターシオカワ",
    "address": "福島県喜多方市塩川町字東栄町2丁目2－6",
    "lat": 37.5940715,
    "lng": 139.8922841,
    "tel": "0241-28-1895",
    "url": "www.nichiiakkan.co.jp",
    "pref": "福島県",
    "city": "喜多方市",
    "category": "home_help",
    "serviceType": "訪問介護",
    "capacity": 0,
    "openDays": [
      "平日",
      "土曜日",
      "日曜日",
      "祝日"
    ],
    "openDaysNote": "休業日、営業時間以外であっても、サービス提供を行う場合があります。"
  },
  {
    "id": "770800597",
    "name": "喜多方市社会福祉協議会　喜多方ヘルパーセンター",
    "kana": "キタカタシシャカイフクシキョウギカイ　キタカタヘルパーセンター",
    "address": "福島県喜多方市字上江3646番地1",
    "lat": 37.6555798,
    "lng": 139.8856715,
    "tel": "0241-23-8088",
    "url": "http://kitakata-shakyo.or.jp/",
    "pref": "福島県",
    "city": "喜多方市",
    "category": "home_help",
    "serviceType": "訪問介護",
    "capacity": 0,
    "openDays": [
      "平日",
      "土曜日",
      "日曜日",
      "祝日"
    ],
    "openDaysNote": ""
  },
  {
    "id": "770800266",
    "name": "天心ケアハイツヘルパーステーション",
    "kana": "テンシンケアハイツヘルパーステーション",
    "address": "福島県喜多方市松山町村松字北原3656-3",
    "lat": 37.6836482,
    "lng": 139.8699967,
    "tel": "0241-25-7313",
    "url": "http://www.tenshinkai.or.jp",
    "pref": "福島県",
    "city": "喜多方市",
    "category": "home_help",
    "serviceType": "訪問介護",
    "capacity": 0,
    "openDays": [
      "平日",
      "土曜日",
      "日曜日",
      "祝日"
    ],
    "openDaysNote": ""
  },
  {
    "id": "772200341",
    "name": "くおん訪問介護",
    "kana": "クオンホウモンカイゴ",
    "address": "福島県岩瀬郡鏡石町本町1-1",
    "lat": 37.2609734,
    "lng": 140.3518281,
    "tel": "0248-94-2690",
    "url": "http://hp.kaipoke.biz/68f/",
    "pref": "福島県",
    "city": "鏡石町",
    "category": "home_help",
    "serviceType": "訪問介護",
    "capacity": 0,
    "openDays": [
      "平日",
      "土曜日",
      "祝日"
    ],
    "openDaysNote": ""
  },
  {
    "id": "772200044",
    "name": "社会福祉法人鏡石町社会福祉協議会　鏡石ヘルパーステーション",
    "kana": "シャカイフクシホウジンカガミイシマチシャカイフクシキョウギカイカガミイシヘルパーステーション",
    "address": "福島県岩瀬郡鏡石町東町２８６番地鏡石町健康福祉センター 鏡石町健康福祉センター",
    "lat": 37.2432927622332,
    "lng": 140.350128517266,
    "tel": "0248-62-2106",
    "url": "http://kagamiishi.fukushima-shakyo.com/",
    "pref": "福島県",
    "city": "鏡石町",
    "category": "home_help",
    "serviceType": "訪問介護",
    "capacity": 0,
    "openDays": [
      "平日",
      "土曜日",
      "日曜日",
      "祝日"
    ],
    "openDaysNote": "特になし"
  },
  {
    "id": "772200291",
    "name": "訪問介護ステーション　菜の花",
    "kana": "ホウモンカイゴステーション　ナノハナ",
    "address": "福島県岩瀬郡鏡石町本町50",
    "lat": 37.2592545,
    "lng": 140.3496603,
    "tel": "0248-94-8830",
    "url": "",
    "pref": "福島県",
    "city": "鏡石町",
    "category": "home_help",
    "serviceType": "訪問介護",
    "capacity": 0,
    "openDays": [
      "平日",
      "土曜日",
      "日曜日",
      "祝日"
    ],
    "openDaysNote": ""
  },
  {
    "id": "773000245",
    "name": "介護事業所　玉川村ふれあいセンター",
    "kana": "カイゴジギョウショ　タマカワムラフレアイセンター",
    "address": "福島県石川郡玉川村大字中字入山59番地",
    "lat": 37.2160052,
    "lng": 140.4108381,
    "tel": "0247-57-4410",
    "url": "http://www.tamakawa-shakyo.jp/",
    "pref": "福島県",
    "city": "玉川村",
    "category": "home_help",
    "serviceType": "訪問介護",
    "capacity": 0,
    "openDays": [
      "平日",
      "土曜日"
    ],
    "openDaysNote": "日曜日、国民の祝日に関する法律に規定する祝日及び8月13日～16日と12月29日～1月3日が定休日（改行）特別に必要と思われる身体介護・生活援助については、協議の上、定休日にも訪問対応します。"
  },
  {
    "id": "772700100",
    "name": "ホームヘルプステーション「ゆうゆう」",
    "kana": "ホームヘルプステーション「ユウユウ」",
    "address": "福島県大沼郡金山町大字中川字沖根原１３２４番地",
    "lat": 37.4745462,
    "lng": 139.529466,
    "tel": "0241-55-3336",
    "url": "https://kaneyamashakyo.or.jp/",
    "pref": "福島県",
    "city": "金山町",
    "category": "home_help",
    "serviceType": "訪問介護",
    "capacity": null,
    "openDays": [
      "平日",
      "土曜日",
      "日曜日",
      "祝日"
    ],
    "openDaysNote": ""
  },
  {
    "id": "772000881",
    "name": "サンサンケアステーション",
    "kana": "サンサンケアステーション",
    "address": "福島県伊達郡桑折町谷地字道下20-1",
    "lat": 37.8546789445693,
    "lng": 140.519158378574,
    "tel": "024-582-1233",
    "url": "https://www.sankyo-hire.com/",
    "pref": "福島県",
    "city": "桑折町",
    "category": "home_help",
    "serviceType": "訪問介護",
    "capacity": 0,
    "openDays": [
      "平日",
      "土曜日",
      "日曜日",
      "祝日"
    ],
    "openDaysNote": ""
  },
  {
    "id": "772001376",
    "name": "介護ステーション　バンビの森",
    "kana": "カイゴステーション　バンビノモリ",
    "address": "福島県伊達郡桑折町成田字元宿１－２",
    "lat": 37.8359450247492,
    "lng": 140.507869073348,
    "tel": "024-573-1666",
    "url": "http://hp.kaipoke.biz/5t0",
    "pref": "福島県",
    "city": "桑折町",
    "category": "home_help",
    "serviceType": "訪問介護",
    "capacity": 0,
    "openDays": [
      "平日",
      "土曜日",
      "日曜日",
      "祝日"
    ],
    "openDaysNote": ""
  },
  {
    "id": "770305084",
    "name": "ＪＡ福島さくら　郡山福祉センター",
    "kana": "ジエイエイフクシマサクラ　コオリヤマフクシセンター",
    "address": "福島県郡山市八山田西五丁目１２3番地",
    "lat": 37.4264311521845,
    "lng": 140.368677714153,
    "tel": "024-935-8182",
    "url": "http://www.ja-fsａkura.or.jp",
    "pref": "福島県",
    "city": "郡山市",
    "category": "home_help",
    "serviceType": "訪問介護",
    "capacity": 175,
    "openDays": [
      "平日",
      "土曜日",
      "日曜日",
      "祝日"
    ],
    "openDaysNote": "年末年始（１２月３１日から１月３日）は休みとなりますが、ご希望がある際は前もってご相談の上、可能な限り対応いたします。"
  },
  {
    "id": "770302578",
    "name": "Ｌ－ＣＵＢヘルパーステーション　八山田",
    "kana": "エルキュウブヘルパーステーション　ヤツヤマダ",
    "address": "福島県郡山市八山田3丁目8番2",
    "lat": 37.4297263,
    "lng": 140.3752176,
    "tel": "024-991-1041",
    "url": "http://www.l-cub.jp/",
    "pref": "福島県",
    "city": "郡山市",
    "category": "home_help",
    "serviceType": "訪問介護",
    "capacity": 120,
    "openDays": [
      "平日",
      "土曜日",
      "日曜日",
      "祝日"
    ],
    "openDaysNote": "上記、時間外でも必要に応じて対応する"
  },
  {
    "id": "770305530",
    "name": "ＳＯＭＰＯケア　郡山　訪問介護",
    "kana": "ソンポケア　コオリヤマ　ホウモンカイゴ",
    "address": "福島県郡山市名倉290-1 290-1",
    "lat": 37.3758124,
    "lng": 140.3687559,
    "tel": "024-937-0556",
    "url": "",
    "pref": "福島県",
    "city": "郡山市",
    "category": "home_help",
    "serviceType": "訪問介護",
    "capacity": 0,
    "openDays": [
      "平日"
    ],
    "openDaysNote": "上記時間外も可能な場合があります。"
  },
  {
    "id": "770305381",
    "name": "アーク・ケア訪問介護事業所",
    "kana": "アーク・ケアホウモンカイゴジギョウショ",
    "address": "福島県郡山市安積町長久保1丁目１６－１４",
    "lat": 37.3607362,
    "lng": 140.3600991,
    "tel": "０２４－９５４－６７６６",
    "url": "http://www.maimai-co.jp/",
    "pref": "福島県",
    "city": "郡山市",
    "category": "home_help",
    "serviceType": "訪問介護",
    "capacity": 50,
    "openDays": [
      "平日",
      "土曜日",
      "日曜日",
      "祝日"
    ],
    "openDaysNote": "サービス提供可能時間以外のサービス提供については、相談に応じるものとする。（改行）電話等により24時間常時連絡が可能な体制とする。"
  },
  {
    "id": "770306223",
    "name": "アイウェル・ケアサービス郡山",
    "kana": "アイウェル・ケアサービスコオリヤマ",
    "address": "福島県郡山市堤1丁目88堤マンション2号棟106号室 堤マンション2号棟106号室",
    "lat": 37.3991744673857,
    "lng": 140.336863637434,
    "tel": "024-953-6252",
    "url": "",
    "pref": "福島県",
    "city": "郡山市",
    "category": "home_help",
    "serviceType": "訪問介護",
    "capacity": 30,
    "openDays": [
      "平日",
      "土曜日",
      "祝日"
    ],
    "openDaysNote": "通院等乗降介助においては相談により時間外も対応可"
  },
  {
    "id": "770301307",
    "name": "クラブタクシー　ヘルパーステーション",
    "kana": "クラブタクシー　ヘルパーステーション",
    "address": "福島県郡山市山根町2番22号",
    "lat": 37.3864864,
    "lng": 140.3755744,
    "tel": "024-927-0877",
    "url": "http://www.clubmotorcar-taxi.com",
    "pref": "福島県",
    "city": "郡山市",
    "category": "home_help",
    "serviceType": "訪問介護",
    "capacity": 0,
    "openDays": [
      "平日",
      "土曜日",
      "日曜日",
      "祝日"
    ],
    "openDaysNote": "○サービス提供時間外でも相談により対応可能。"
  },
  {
    "id": "770305753",
    "name": "ケアサポート　はぴねす",
    "kana": "ケアサポート　ハピネス",
    "address": "名郷田2丁目24番地タウンズ富田205 タウンズ富田205",
    "lat": 37.4187385,
    "lng": 140.3607918,
    "tel": "024-954-9255",
    "url": "",
    "pref": "福島県",
    "city": "郡山市",
    "category": "home_help",
    "serviceType": "訪問介護",
    "capacity": 40,
    "openDays": [
      "平日",
      "土曜日",
      "日曜日",
      "祝日"
    ],
    "openDaysNote": ""
  },
  {
    "id": "770305449",
    "name": "ケアサポートきずな",
    "kana": "ケアサポートキズナ",
    "address": "福島県郡山市静町38-10",
    "lat": 37.386083534078,
    "lng": 140.33511472118,
    "tel": "024-983-7635",
    "url": "https://kiyu-koriyama.wixsite.com/cs-kizuna",
    "pref": "福島県",
    "city": "郡山市",
    "category": "home_help",
    "serviceType": "訪問介護",
    "capacity": 0,
    "openDays": [
      "平日",
      "土曜日",
      "日曜日",
      "祝日"
    ],
    "openDaysNote": "電話連絡は２４時間対応（改行）上記以外のサービスをご希望の時は事前にご相談下さい。"
  },
  {
    "id": "770303725",
    "name": "ケアステーションのあ",
    "kana": "ケアステーションノア",
    "address": "福島県郡山市土瓜１丁目３３－２",
    "lat": 37.400581,
    "lng": 140.3336945,
    "tel": "024-983-6856",
    "url": "",
    "pref": "福島県",
    "city": "郡山市",
    "category": "home_help",
    "serviceType": "訪問介護",
    "capacity": 0,
    "openDays": [
      "平日",
      "土曜日",
      "日曜日",
      "祝日"
    ],
    "openDaysNote": "365日、24時間体制でのサービス提供"
  },
  {
    "id": "770301182",
    "name": "ケアステーション孫の手",
    "kana": "ケアステーションマゴノテ",
    "address": "安積町長久保1丁目2番地7",
    "lat": 37.3614523,
    "lng": 140.3637668,
    "tel": "024-947--5222",
    "url": "https://yamaguchi-gr.co.jp/",
    "pref": "福島県",
    "city": "郡山市",
    "category": "home_help",
    "serviceType": "訪問介護",
    "capacity": 500,
    "openDays": [
      "平日",
      "土曜日",
      "日曜日",
      "祝日"
    ],
    "openDaysNote": "サービス提供時間外でも相談により対応可能。"
  },
  {
    "id": "770302495",
    "name": "ケアセンターきらきら",
    "kana": "ケアセンターキラキラ",
    "address": "福島県郡山市安積町日出山３丁目２６７",
    "lat": 37.3665801,
    "lng": 140.3778665,
    "tel": "024-944-0250",
    "url": "",
    "pref": "福島県",
    "city": "郡山市",
    "category": "home_help",
    "serviceType": "訪問介護",
    "capacity": 80,
    "openDays": [
      "平日",
      "土曜日",
      "祝日"
    ],
    "openDaysNote": "緊急の時は時間外でも対応"
  },
  {
    "id": "770305076",
    "name": "ケアセンター楽笑",
    "kana": "ケアセンターラクショウ",
    "address": "福島県郡山市咲田二丁目25番19号",
    "lat": 37.4052040612969,
    "lng": 140.380712920654,
    "tel": "024-953-7377",
    "url": "",
    "pref": "福島県",
    "city": "郡山市",
    "category": "home_help",
    "serviceType": "訪問介護",
    "capacity": 0,
    "openDays": [
      "平日",
      "土曜日"
    ],
    "openDaysNote": "移送（車椅子・ストレッチャー搬送）のサービスは時間外でも、相談により対応可能とします。"
  },
  {
    "id": "770306132",
    "name": "ケアトップ介護センター",
    "kana": "ケアトップカイゴセンター",
    "address": "福島県郡山市田村町金屋字荻ノ久保35-4",
    "lat": 37.3613051,
    "lng": 140.3978195,
    "tel": "024-983-6603",
    "url": "http://hp.kaipoke.biz/tna/",
    "pref": "福島県",
    "city": "郡山市",
    "category": "home_help",
    "serviceType": "訪問介護",
    "capacity": 0,
    "openDays": [
      "平日",
      "土曜日",
      "日曜日",
      "祝日"
    ],
    "openDaysNote": ""
  },