[
  {
    "id": "571326982",
    "name": "エノン　ケアステーションにかほ",
    "kana": "エノン　ケアステーションニカホ",
    "address": "秋田県にかほ市金浦字南金浦238番地2",
    "lat": 39.2551760526664,
    "lng": 139.918414420039,
    "tel": "0184-74-6482",
    "url": "https://enon-inc.com",
    "pref": "秋田県",
    "city": "にかほ市",
    "category": "home_help",
    "serviceType": "訪問介護",
    "capacity": 0,
    "openDays": [
      "平日",
      "土曜日",
      "日曜日",
      "祝日"
    ],
    "openDaysNote": ""
  },
  {
    "id": "571325703",
    "name": "しあわせヘルパーステーション",
    "kana": "シアワセヘルパーステーション",
    "address": "秋田県にかほ市象潟町字4丁目塩越201番地",
    "lat": 39.2033141,
    "lng": 139.9021659,
    "tel": "0184-74-3068",
    "url": "http://siawase-home.com/",
    "pref": "秋田県",
    "city": "にかほ市",
    "category": "home_help",
    "serviceType": "訪問介護",
    "capacity": 0,
    "openDays": [
      "平日",
      "土曜日",
      "日曜日",
      "祝日"
    ],
    "openDaysNote": ""
  },
  {
    "id": "571313089",
    "name": "にかほホームヘルプ事業所",
    "kana": "ニカホホームヘルプジギョウショ",
    "address": "秋田県にかほ市院内字畑ヶ田２１－１",
    "lat": 39.2819322932252,
    "lng": 139.96158358671,
    "tel": "0184-74-6100",
    "url": "http://nikaho-shakyo.jp",
    "pref": "秋田県",
    "city": "にかほ市",
    "category": "home_help",
    "serviceType": "訪問介護",
    "capacity": 0,
    "openDays": [
      "平日",
      "土曜日",
      "日曜日",
      "祝日"
    ],
    "openDaysNote": "但し、利用者から要請がある場合は、休日、時間外でも対応する。"
  },
  {
    "id": "571313071",
    "name": "金浦ホームヘルプ事業所",
    "kana": "コノウラホームヘルプジギョウショ",
    "address": "秋田県にかほ市金浦字金浦321番地1介護予防拠点施設「元気百歳館」 介護予防拠点施設「元気百歳館」",
    "lat": 39.2573749,
    "lng": 139.9167095,
    "tel": "0184-38-2375",
    "url": "http://www.nikaho-shakyo.jp/",
    "pref": "秋田県",
    "city": "にかほ市",
    "category": "home_help",
    "serviceType": "訪問介護",
    "capacity": 0,
    "openDays": [
      "平日"
    ],
    "openDaysNote": "但し、利用者からの要請がある場合は休日、時間外でも対応する。"
  },
  {
    "id": "571313097",
    "name": "象潟ホームヘルプ事業所",
    "kana": "キサカタホームヘルプジギョウショ",
    "address": "秋田県にかほ市象潟町字後田95",
    "lat": 39.2031655588311,
    "lng": 139.903218353165,
    "tel": "0184-43-2543",
    "url": "http://nikaho-shakyo.jp",
    "pref": "秋田県",
    "city": "にかほ市",
    "category": "home_help",
    "serviceType": "訪問介護",
    "capacity": 0,
    "openDays": [
      "平日"
    ],
    "openDaysNote": "ただし、利用者から要請がある場合は、時間外及び定休日の訪問も可能な体制とする。"
  },
  {
    "id": "572305019",
    "name": "さくら苑訪問介護事業所",
    "kana": "サクラエンホウモンカイゴジギョウショ",
    "address": "南秋田郡井川町寺沢字綱木沢１４５－５",
    "lat": 39.894236,
    "lng": 140.1206789,
    "tel": "018-855-6123",
    "url": "http://www.sakuraen-akita-ikawa.org",
    "pref": "秋田県",
    "city": "井川町",
    "category": "home_help",
    "serviceType": "訪問介護",
    "capacity": 0,
    "openDays": [
      "平日",
      "土曜日",
      "日曜日",
      "祝日"
    ],
    "openDaysNote": "基本的には、土・日は休みであるが、要望があれば、随時対応。"
  },
  {
    "id": "572825172",
    "name": "ヘルパーステーション　ソレイユ",
    "kana": "ヘルパーステーション　ソレイユ",
    "address": "秋田県雄勝郡羽後町西馬音内字中野124-1",
    "lat": 39.1998144437411,
    "lng": 140.410182732124,
    "tel": "0183-56-5306",
    "url": "",
    "pref": "秋田県",
    "city": "羽後町",
    "category": "home_help",
    "serviceType": "訪問介護",
    "capacity": 0,
    "openDays": [
      "平日",
      "土曜日",
      "日曜日",
      "祝日"
    ],
    "openDaysNote": ""
  },
  {
    "id": "572822195",
    "name": "ホームヘルプサービス　はあと",
    "kana": "ホームヘルプサービス　ハアト",
    "address": "秋田県雄勝郡羽後町西馬音内字中野153-6サンハイツピュア西馬音内102 サンハイツピュア西馬音内102",
    "lat": 39.1974481,
    "lng": 140.4053601,
    "tel": "0183-55-8781",
    "url": "",
    "pref": "秋田県",
    "city": "羽後町",
    "category": "home_help",
    "serviceType": "訪問介護",
    "capacity": 0,
    "openDays": [
      "平日",
      "土曜日",
      "日曜日",
      "祝日"
    ],
    "openDaysNote": "援助時間帯応相談あり（改行）電話は２４時間対応"
  },
  {
    "id": "572802163",
    "name": "社会福祉法人　羽後町社会福祉協議会指定訪問介護事業所",
    "kana": "シャカイフクシホウジン　ウゴマチシャカイフクシキョウギカイシテイホウモンカイゴジギョウショ",
    "address": "秋田県雄勝郡羽後町林崎字五林坂２１番地１",
    "lat": 39.2161153,
    "lng": 140.3950167,
    "tel": "0183-62-5313",
    "url": "http://ugomachishakyo.or.jp/",
    "pref": "秋田県",
    "city": "羽後町",
    "category": "home_help",
    "serviceType": "訪問介護",
    "capacity": 0,
    "openDays": [
      "平日",
      "土曜日",
      "日曜日",
      "祝日"
    ],
    "openDaysNote": ""
  },
  {
    "id": "572820058",
    "name": "訪問介護　ライフサポート　みわ",
    "kana": "ホウモンカイゴ　ライフサポート　ミワ",
    "address": "秋田県雄勝郡羽後町貝沢字拾三本塚43番地８",
    "lat": 39.1950199613356,
    "lng": 140.440203481968,
    "tel": "0183-55-8145",
    "url": "http://yumoko.web.fc2.com/",
    "pref": "秋田県",
    "city": "羽後町",
    "category": "home_help",
    "serviceType": "訪問介護",
    "capacity": 0,
    "openDays": [
      "平日",
      "土曜日",
      "日曜日",
      "祝日"
    ],
    "openDaysNote": "時間外のサービスは時前の協議によります。"
  },
  {
    "id": "570326587",
    "name": "Ccolorヨコテケアセンター",
    "kana": "シーカラーヨコテケアセンター",
    "address": "秋田県横手市中央町6番23号1階",
    "lat": 39.3143215,
    "lng": 140.5664108,
    "tel": "0182-38-8454",
    "url": "",
    "pref": "秋田県",
    "city": "横手市",
    "category": "home_help",
    "serviceType": "訪問介護",
    "capacity": null,
    "openDays": [
      "平日",
      "土曜日",
      "日曜日",
      "祝日"
    ],
    "openDaysNote": ""
  },
  {
    "id": "570326579",
    "name": "ＪＡふるさと　ケアセンター",
    "kana": "ジェーエーフルサト　ケアセンター",
    "address": "秋田県横手市平鹿町醍醐字道中後28番地1",
    "lat": 39.2508373,
    "lng": 140.5390212,
    "tel": "0182-56-0294",
    "url": "https://furusato-fukusi.jp/",
    "pref": "秋田県",
    "city": "横手市",
    "category": "home_help",
    "serviceType": "訪問介護",
    "capacity": 0,
    "openDays": [
      "平日",
      "土曜日",
      "日曜日",
      "祝日"
    ],
    "openDaysNote": "サービス提供時間はご相談承ります。"
  },
  {
    "id": "570320408",
    "name": "アースサポート横手",
    "kana": "アースサポートヨコテ",
    "address": "秋田県横手市前郷二番町８番３３号",
    "lat": 39.30866,
    "lng": 140.5637968,
    "tel": "0182-33-0050",
    "url": "http://www.earthsupport.co.jp",
    "pref": "秋田県",
    "city": "横手市",
    "category": "home_help",
    "serviceType": "訪問介護",
    "capacity": 0,
    "openDays": [
      "平日",
      "土曜日",
      "日曜日",
      "祝日"
    ],
    "openDaysNote": ""
  },
  {
    "id": "570326280",
    "name": "あいあいヘルパーステーション",
    "kana": "アイアイヘルパーステーション",
    "address": "秋田県横手市横手町字大関越172番地",
    "lat": 39.3189263,
    "lng": 140.5500503,
    "tel": "0182-23-6558",
    "url": "https://www.yotsuba.care/",
    "pref": "秋田県",
    "city": "横手市",
    "category": "home_help",
    "serviceType": "訪問介護",
    "capacity": 0,
    "openDays": [
      "平日",
      "土曜日",
      "日曜日",
      "祝日"
    ],
    "openDaysNote": ""
  },
  {
    "id": "570323642",
    "name": "いこいの里訪問介護ステーション",
    "kana": "イコイノサトホウモンカイゴステーション",
    "address": "秋田県横手市大森町十日町字東二ツ森２４有料老人ホーム　いこいの里 有料老人ホーム　いこいの里",
    "lat": 39.3617495,
    "lng": 140.443541,
    "tel": "0182-26-4600",
    "url": "",
    "pref": "秋田県",
    "city": "横手市",
    "category": "home_help",
    "serviceType": "訪問介護",
    "capacity": 0,
    "openDays": [
      "平日",
      "土曜日",
      "日曜日",
      "祝日"
    ],
    "openDaysNote": "サービス提供時間は相談に応じ、居宅サービス計画によりサービス提供を行います。"
  },
  {
    "id": "570323725",
    "name": "いなお訪問介護事業所",
    "kana": "イナオホウモンカイゴジギョウショ",
    "address": "秋田県横手市十文字町仁井田字八萩73-4",
    "lat": 39.2160693,
    "lng": 140.5176739,
    "tel": "0182-47-7170",
    "url": "",
    "pref": "秋田県",
    "city": "横手市",
    "category": "home_help",
    "serviceType": "訪問介護",
    "capacity": 0,
    "openDays": [
      "平日",
      "土曜日",
      "日曜日",
      "祝日"
    ],
    "openDaysNote": "ただし、利用者さんのご要望があれば上記時間以外でもサービスを提供することができます。"
  },
  {
    "id": "570323931",
    "name": "オレンジ訪問介護事業所",
    "kana": "オレンジホウモンカイゴジギョウショ",
    "address": "秋田県横手市十文字町梨木字羽場下10番地115",
    "lat": 39.2339429,
    "lng": 140.5275771,
    "tel": "0182－23－6300",
    "url": "https://avec-toi-jumonji.net",
    "pref": "秋田県",
    "city": "横手市",
    "category": "home_help",
    "serviceType": "訪問介護",
    "capacity": 0,
    "openDays": [
      "平日",
      "土曜日",
      "日曜日",
      "祝日"
    ],
    "openDaysNote": "6：00～8：00、18：00～22：00は対応できる職員がいれば訪問可能です"
  },
  {
    "id": "570326504",
    "name": "クランピア横手",
    "kana": "クランピアヨコテ",
    "address": "秋田県横手市安田字八王寺108番地3クランピア横手 クランピア横手",
    "lat": 39.2940915,
    "lng": 140.5624336,
    "tel": "0182-23-7881",
    "url": "https://clampia-yokote.jimdosite.com",
    "pref": "秋田県",
    "city": "横手市",
    "category": "home_help",
    "serviceType": "訪問介護",
    "capacity": 39,
    "openDays": [
      "平日"
    ],
    "openDaysNote": "24時間"
  },
  {
    "id": "570308593",
    "name": "ケアステーションこころ",
    "kana": "ケアステーションココロ",
    "address": "秋田県横手市鍛冶町3-31",
    "lat": 39.3122124,
    "lng": 140.5689596,
    "tel": "0182-35-5224",
    "url": "",
    "pref": "秋田県",
    "city": "横手市",
    "category": "home_help",
    "serviceType": "訪問介護",
    "capacity": 0,
    "openDays": [
      "平日",
      "土曜日",
      "日曜日",
      "祝日"
    ],
    "openDaysNote": "必要に応じ、上記利用時間以外の対応も可能。"
  },
  {
    "id": "572710903",
    "name": "ニチイケアセンターますだ",
    "kana": "ニチイケアセンターマスダ",
    "address": "秋田県横手市増田町増田字月山西29-13ピースタウン101、102 ピースタウン101、102",
    "lat": 39.200802,
    "lng": 140.5407303,
    "tel": "0182-55-1919",
    "url": "http://www.nichiigakkan.co.jp",
    "pref": "秋田県",
    "city": "横手市",
    "category": "home_help",
    "serviceType": "訪問介護",
    "capacity": 0,
    "openDays": [
      "平日",
      "土曜日",
      "日曜日",
      "祝日"
    ],
    "openDaysNote": "但し、ケアプランに添って随時対応"
  },
  {
    "id": "570300368",
    "name": "ニチイケアセンターよこて",
    "kana": "ニチイケアセンターヨコテ",
    "address": "秋田県横手市婦気大堤字婦気前251-4",
    "lat": 39.3012916,
    "lng": 140.5497199,
    "tel": "0182-35-1772",
    "url": "http://www.nichiigakkan.co.jp",
    "pref": "秋田県",
    "city": "横手市",
    "category": "home_help",
    "serviceType": "訪問介護",
    "capacity": 2,
    "openDays": [
      "平日",
      "土曜日",
      "日曜日",
      "祝日"
    ],
    "openDaysNote": "但し、ケアプランに添って随時対応"
  },
  {
    "id": "570326595",
    "name": "ヘルパーステーション　きらら横手",
    "kana": "ヘルパーステーション　キララヨコテ",
    "address": "秋田県横手市本町7-45有料老人ホーム　きらら横手 有料老人ホーム　きらら横手",
    "lat": 39.3220875,
    "lng": 140.5652276,
    "tel": "0182-33-8900",
    "url": "",
    "pref": "秋田県",
    "city": "横手市",
    "category": "home_help",
    "serviceType": "訪問介護",
    "capacity": 12,
    "openDays": [
      "平日",
      "土曜日",
      "日曜日",
      "祝日"
    ],
    "openDaysNote": "ただし、電話等により24時間連絡可能。"
  },
  {
    "id": "570308205",
    "name": "ヘルパーステーション　ビハーラ横手",
    "kana": "ヘルパーステーション　ビハーラヨコテ",
    "address": "秋田県横手市上境字谷地中136番地",
    "lat": 39.3421159,
    "lng": 140.5287876,
    "tel": "0182-35-6131",
    "url": "",
    "pref": "秋田県",
    "city": "横手市",
    "category": "home_help",
    "serviceType": "訪問介護",
    "capacity": 0,
    "openDays": [
      "平日",
      "土曜日",
      "日曜日",
      "祝日"
    ],
    "openDaysNote": "・夜間早朝の割り増しあり"
  },
  {
    "id": "570324848",
    "name": "ヘルパーステーション　凜",
    "kana": "ヘルパーステーション　リン",
    "address": "秋田県横手市前郷一番町10番16号つきみ荘201号室 つきみ荘201号室",
    "lat": 39.3117526673288,
    "lng": 140.564814066843,
    "tel": "0182-23-7090",
    "url": "",
    "pref": "秋田県",
    "city": "横手市",
    "category": "home_help",
    "serviceType": "訪問介護",
    "capacity": 10,
    "openDays": [
      "平日",
      "土曜日",
      "日曜日",
      "祝日"
    ],
    "openDaysNote": "＊ただし、管理者は利用者及びその家族の希望により営業時間帯以外でもサービスを提供することができます。（改行）＊電話により、24時間常時連絡が可能な体制です。"
  },
  {
    "id": "570324038",
    "name": "ヘルパーステーションきらら浅舞",
    "kana": "ヘルパーステーションキララアサマイ",
    "address": "秋田県横手市平鹿町浅舞字覚町後２４０－１有料老人ホームきらら浅舞 有料老人ホームきらら浅舞",
    "lat": 39.2638577,
    "lng": 140.4906447,
    "tel": "０１８２－２３－５３１８",
    "url": "",
    "pref": "秋田県",
    "city": "横手市",
    "category": "home_help",
    "serviceType": "訪問介護",
    "capacity": 12,
    "openDays": [
      "平日",
      "土曜日",
      "日曜日",
      "祝日"
    ],
    "openDaysNote": "ただし、必要に応じ24時間対応可能。"
  },
  {
    "id": "570319202",
    "name": "ヘルパーステーション横手",
    "kana": "ヘルパーステーションヨコテ",
    "address": "秋田県横手市婦気大堤字婦気前132-1",
    "lat": 39.3005247,
    "lng": 140.5518244,
    "tel": "0182-38-8321",
    "url": "http://cp-yokote.jp/",
    "pref": "秋田県",
    "city": "横手市",
    "category": "home_help",
    "serviceType": "訪問介護",
    "capacity": 0,
    "openDays": [
      "平日",
      "土曜日",
      "日曜日",
      "祝日"
    ],
    "openDaysNote": ""
  },
  {
    "id": "570307272",
    "name": "ヘルパーステーション光",
    "kana": "ヘルパーステーションヒカリ",
    "address": "秋田県横手市安田字馬場２２７番地",
    "lat": 39.2988446,
    "lng": 140.5615315,
    "tel": "0182-35-6231",
    "url": "",
    "pref": "秋田県",
    "city": "横手市",
    "category": "home_help",
    "serviceType": "訪問介護",
    "capacity": 0,
    "openDays": [
      "平日",
      "土曜日",
      "日曜日",
      "祝日"
    ],
    "openDaysNote": "特になし"
  },
  {
    "id": "570300350",
    "name": "ヘルパーステーション福うさぎ",
    "kana": "ヘルパーステーションフクウサギ",
    "address": "秋田県横手市平鹿町上吉田字五十田60-24",
    "lat": 39.2850048,
    "lng": 140.5169788,
    "tel": "0182-24-3064",
    "url": "",
    "pref": "秋田県",
    "city": "横手市",
    "category": "home_help",
    "serviceType": "訪問介護",
    "capacity": null,
    "openDays": [
      "平日",
      "土曜日",
      "日曜日",
      "祝日"
    ],
    "openDaysNote": "天災その他、やむを得ない場合は除きます。"
  },
  {
    "id": "570318014",
    "name": "ホームヘルプかまくら",
    "kana": "ホームヘルプカマクラ",
    "address": "秋田県横手市横手町字六ノ口５",
    "lat": 39.3185635014428,
    "lng": 140.548549654631,
    "tel": "0182-38-8218",
    "url": "",
    "pref": "秋田県",
    "city": "横手市",
    "category": "home_help",
    "serviceType": "訪問介護",
    "capacity": 0,
    "openDays": [
      "平日",
      "土曜日",
      "日曜日",
      "祝日"
    ],
    "openDaysNote": "ご利用可能な曜日、時間についてはご相談ください。"
  },
  {
    "id": "570313148",
    "name": "横手市社会福祉協議会指定訪問介護事業所",
    "kana": "ヨコテシシャカイフクシキョウギカイシテイホウモンカイゴジギョウショ",
    "address": "秋田県横手市十文字町梨木字御休ノ上２９番地",
    "lat": 39.2373521,
    "lng": 140.5244302,
    "tel": "090-2979-3884",
    "url": "",
    "pref": "秋田県",
    "city": "横手市",
    "category": "home_help",
    "serviceType": "訪問介護",
    "capacity": 0,
    "openDays": [
      "平日",
      "土曜日",
      "日曜日",
      "祝日"
    ],
    "openDaysNote": "天災その他、やむを得ず業務を遂行できない日は除く。"
  },
  {
    "id": "570324210",
    "name": "株式会社　虹の街　横手営業所",
    "kana": "カブシキガイシャ　ニジノマチ　ヨコテエイギョウショ",
    "address": "秋田県横手市三本柳字寺田135番地3",
    "lat": 39.319116,
    "lng": 140.5462387,
    "tel": "0182-23-5371",
    "url": "https://www.saint-care.com/niji/",
    "pref": "秋田県",
    "city": "横手市",
    "category": "home_help",
    "serviceType": "訪問介護",
    "capacity": 0,
    "openDays": [
      "平日",
      "土曜日",
      "日曜日",
      "祝日"
    ],
    "openDaysNote": ""
  },
  {
    "id": "570321745",
    "name": "菜康苑訪問介護ステーション",
    "kana": "サイコウエンホウモンカイゴステーション",
    "address": "秋田県横手市平鹿町醍醐字道中５６番地２",
    "lat": 39.2493166492708,
    "lng": 140.542461103041,
    "tel": "0182-25-4575",
    "url": "http://gl-saikouen.jp/",
    "pref": "秋田県",
    "city": "横手市",
    "category": "home_help",
    "serviceType": "訪問介護",
    "capacity": 0,
    "openDays": [
      "平日",
      "土曜日",
      "日曜日",
      "祝日"
    ],
    "openDaysNote": "これ以外の時間については、ご相談に応じます。"
  },
  {
    "id": "570314419",
    "name": "秋田県南部老人福祉総合エリア指定訪問介護事業所",
    "kana": "アキタケンナンブロウジンフクシソウゴウエリア　シテイホウモンカイゴジギョウショ",
    "address": "秋田県横手市大森町字菅生田245番地34",
    "lat": 39.3495422,
    "lng": 140.4148982,
    "tel": "0182-56-4771",
    "url": "http://www.silverarea.jp/",
    "pref": "秋田県",
    "city": "横手市",
    "category": "home_help",
    "serviceType": "訪問介護",
    "capacity": 0,
    "openDays": [
      "平日",
      "土曜日",
      "日曜日",
      "祝日"
    ],
    "openDaysNote": "上記時間帯以外でも、ケアプランに記載のある場合はサービスを提供します。"
  },
  {
    "id": "570318485",
    "name": "訪問介護サービスそよ風",
    "kana": "ホウモンカイゴサービスソヨカゼ",
    "address": "秋田県横手市雄物川町今宿字今宿７１",
    "lat": 39.2919859,
    "lng": 140.4275541,
    "tel": "0182-38-8306",
    "url": "",
    "pref": "秋田県",
    "city": "横手市",
    "category": "home_help",
    "serviceType": "訪問介護",
    "capacity": 0,
    "openDays": [
      "平日",
      "土曜日",
      "日曜日",
      "祝日"
    ],
    "openDaysNote": "サービス時間は相談に応じる"
  },
  {
    "id": "570322149",
    "name": "訪問介護事業所　やわらぎ",
    "kana": "ホウモンカイゴジギョウショ　ヤワラギ",
    "address": "秋田県横手市大森町字町田３４番地７",
    "lat": 39.3388661,
    "lng": 140.4215339,
    "tel": "0182-38-8871",
    "url": "",
    "pref": "秋田県",
    "city": "横手市",
    "category": "home_help",
    "serviceType": "訪問介護",
    "capacity": 31,
    "openDays": [
      "平日",
      "土曜日",
      "日曜日",
      "祝日"
    ],
    "openDaysNote": ""
  },
  {
    "id": "570326538",
    "name": "訪問介護事業所LiB",
    "kana": "ホウモンカイゴジギョウショリブ",
    "address": "秋田県横手市平鹿町浅舞字千刈田166ナーシングホームLiBひらか ナーシングホームLiBひらか",
    "lat": 39.2649471879547,
    "lng": 140.481878983853,
    "tel": "0182-23-9557",
    "url": "https://www.playful0201.com/",
    "pref": "秋田県",
    "city": "横手市",
    "category": "home_help",
    "serviceType": "訪問介護",
    "capacity": 26,
    "openDays": [
      "平日",
      "土曜日",
      "日曜日",
      "祝日"
    ],
    "openDaysNote": "24時間営業"
  },
  {
    "id": "570322172",
    "name": "訪問介護事業所雁の郷",
    "kana": "ホウモンカイゴジギョウショカリノサト",
    "address": "秋田県横手市金沢中野字下矢来沢370老人ホーム雁の郷 老人ホーム雁の郷",
    "lat": 39.368338563135,
    "lng": 140.553034514789,
    "tel": "0182-23-8567",
    "url": "http://karinosato.com/",
    "pref": "秋田県",
    "city": "横手市",
    "category": "home_help",
    "serviceType": "訪問介護",
    "capacity": 50,
    "openDays": [
      "平日",
      "土曜日",
      "日曜日",
      "祝日"
    ],
    "openDaysNote": "・身体介護　食事介助、排泄介助、入浴（清拭）、介助、着替え介助（改行）・生活援助　洗濯、掃除、買い物、薬の受け取り、その他"
  },
  {
    "id": "570310748",
    "name": "末広介護タクシー",
    "kana": "スエヒロカイゴタクシー",
    "address": "秋田県横手市大町5－10",
    "lat": 39.3161368,
    "lng": 140.5675401,
    "tel": "0182-32-0306",
    "url": "",
    "pref": "秋田県",
    "city": "横手市",
    "category": "home_help",
    "serviceType": "訪問介護",
    "capacity": 0,
    "openDays": [
      "平日",
      "土曜日",
      "日曜日",
      "祝日"
    ],
    "openDaysNote": "時間の調整ができれば、利用できる時間を拡大する。"
  },
  {
    "id": "571018837",
    "name": "Ｏｈａｎａケアセンター",
    "kana": "オハナケアセンター",
    "address": "秋田県潟上市天王字長沼２０グレプションＡ１０３ グレプションＡ１０３",
    "lat": 39.8130353,
    "lng": 140.0501077,
    "tel": "018-874-8644",
    "url": "http://www.ohana-cc.net/",
    "pref": "秋田県",
    "city": "潟上市",
    "category": "home_help",
    "serviceType": "訪問介護",
    "capacity": 0,
    "openDays": [
      "平日"
    ],
    "openDaysNote": "利用者からの要望がある場合は、土日祝日振替休日、お盆年末年始、他の時間帯も検討する。"
  },
  {
    "id": "572325983",
    "name": "ＳＯＭＰＯケア　秋田かたがみ　訪問介護",
    "kana": "ソンポケア　アキタカタガミ　ホウモンカイゴ",
    "address": "秋田県潟上市天王字持谷地117-5",
    "lat": 39.8706323,
    "lng": 139.9989956,
    "tel": "018-872-2731",
    "url": "",
    "pref": "秋田県",
    "city": "潟上市",
    "category": "home_help",
    "serviceType": "訪問介護",
    "capacity": 0,
    "openDays": [
      "平日",
      "土曜日",
      "日曜日",
      "祝日"
    ],
    "openDaysNote": "24時間365日"
  },
  {
    "id": "571026657",
    "name": "ニチイケアセンターかたがみ",
    "kana": "ニチイケアセンターカタガミ",
    "address": "秋田県潟上市天王字蒲沼６３－７８メゾン・ド・ベルツ101号 メゾン・ド・ベルツ101号",
    "lat": 39.8660249,
    "lng": 140.0056602,
    "tel": "018-872-2811",
    "url": "https://www.nichiigakkan.co.jp/",
    "pref": "秋田県",
    "city": "潟上市",
    "category": "home_help",
    "serviceType": "訪問介護",
    "capacity": null,
    "openDays": [
      "平日"
    ],
    "openDaysNote": "サービス計画により営業時間外であってもサービスを提供する場合があります。"
  },
  {
    "id": "572305076",
    "name": "社会医療法人　正和会　南秋田在宅総合ケアセンター　訪問介護事業所",
    "kana": "シャカイイリョウホウジン　セイワカイ　ミナミアキタザイタクソウゴウケアセンター　ホウモンカイゴジギョウショ",
    "address": "秋田県潟上市昭和大久保字街道下92－1",
    "lat": 39.8710814,
    "lng": 140.0608796,
    "tel": "018-877-7119",
    "url": "http://www.seiwakai-net.com/",
    "pref": "秋田県",
    "city": "潟上市",
    "category": "home_help",
    "serviceType": "訪問介護",
    "capacity": 2,
    "openDays": [
      "平日",
      "土曜日"
    ],
    "openDaysNote": "時間外のサービスについてご相談に応じます。"
  },
  {
    "id": "572309276",
    "name": "ＪＡあきた湖東訪問介護センター",
    "kana": "ジェーエーアキタコトウホウモンカイゴセンター",
    "address": "秋田県南秋田郡五城目町字七倉１２３番地２号",
    "lat": 39.9458168,
    "lng": 140.1164053,
    "tel": "018-855-1515",
    "url": "http://www.ja-akita-kotoh.or.jp",
    "pref": "秋田県",
    "city": "五城目町",
    "category": "home_help",
    "serviceType": "訪問介護",
    "capacity": 0,
    "openDays": [
      "平日"
    ],
    "openDaysNote": "但し、利用者からの要望があった場合や、緊急の場合であって管理者が必要と認めた場合はこの限りでない。"
  },
  {
    "id": "572302982",
    "name": "五城目指定訪問介護事業所",
    "kana": "ゴジョウメシテイホウモンカイゴジギョウショ",
    "address": "秋田県南秋田郡五城目町西磯ノ目一丁目６番地１０",
    "lat": 39.9436891,
    "lng": 140.1095813,
    "tel": "018-852-5192",
    "url": "https://fu-gojome-sha.jp/",
    "pref": "秋田県",
    "city": "五城目町",
    "category": "home_help",
    "serviceType": "訪問介護",
    "capacity": 0,
    "openDays": [
      "平日",
      "土曜日",
      "日曜日",
      "祝日"
    ],
    "openDaysNote": "電話等により24時間連絡可能な体制"
  },
  {
    "id": "572321040",
    "name": "春風訪問介護センター",
    "kana": "ハルカゼホウモンカイゴセンター",
    "address": "秋田県南秋田郡五城目町大川下樋口字屋敷下72-1",
    "lat": 39.9356199,
    "lng": 140.0834542,
    "tel": "018-853-1782",
    "url": "",
    "pref": "秋田県",
    "city": "五城目町",
    "category": "home_help",
    "serviceType": "訪問介護",
    "capacity": 0,
    "openDays": [
      "平日",
      "祝日"
    ],
    "openDaysNote": "利用者からの要望があった場合や、緊急の場合であって管理者が必要と認めた場合はこの限りでない。"
  },
  {
    "id": "572225274",
    "name": "ゆあみ訪問介護センター",
    "kana": "ユアミホウモンカイゴセンター",
    "address": "秋田県山本郡三種町森岳字木戸沢１９９－６８住宅型有料老人ホームゆあみ内併設 住宅型有料老人ホームゆあみ内併設",
    "lat": 40.0839762997569,
    "lng": 140.094958220902,
    "tel": "0185-74-5123",
    "url": "https://seseragiyunosato.com/",
    "pref": "秋田県",
    "city": "三種町",
    "category": "home_help",
    "serviceType": "訪問介護",
    "capacity": 23,
    "openDays": [
      "平日",
      "土曜日",
      "日曜日",
      "祝日"
    ],
    "openDaysNote": "事務所は平日のみです。介護サービスの提供可能時間は人員の配置により変動します。"
  },
  {
    "id": "572214195",
    "name": "三種町社会福祉協議会　ホームヘルプサービス",
    "kana": "ミタネチョウシャカイフクシキョウギカイ　ホームヘルプサービス",
    "address": "秋田県山本郡三種町森岳字上台93-5",
    "lat": 40.0797843,
    "lng": 140.0920349,
    "tel": "0185-83-3900",
    "url": "https://mitane-shakyo.jp/",
    "pref": "秋田県",
    "city": "三種町",
    "category": "home_help",
    "serviceType": "訪問介護",
    "capacity": 0,
    "openDays": [
      "平日",
      "土曜日",
      "祝日"
    ],
    "openDaysNote": "天災その他やむを得ず業務を遂行できない日を除きます。但し、利用者の求めがあった場合はこの限りではありません。"
  },
  {
    "id": "573326907",
    "name": "三種訪問ケアセンター",
    "kana": "ミタネホウモンケアセンター",
    "address": "秋田県山本郡三種町浜田字東浜田137番地１号",
    "lat": 40.0980185,
    "lng": 139.9994448,
    "tel": "0185-74-5415",
    "url": "",
    "pref": "秋田県",
    "city": "三種町",
    "category": "home_help",
    "serviceType": "訪問介護",
    "capacity": null,
    "openDays": [
      "平日",
      "土曜日",
      "祝日"
    ],
    "openDaysNote": "天災その他やむを得ず業務を遂行できない日を除きます。但し、利用者の求めがあった場合はこの限りではありません。"
  },
  {
    "id": "572205029",
    "name": "美幸苑ヘルパーステーション",
    "kana": "ビコウエンヘルパーステーション",
    "address": "秋田県山本郡三種町鵜川字西本田82番地1",
    "lat": 40.1005709,
    "lng": 140.0066338,
    "tel": "0185-72-1232",
    "url": "http://bikoen.net/",
    "pref": "秋田県",
    "city": "三種町",
    "category": "home_help",
    "serviceType": "訪問介護",
    "capacity": 0,
    "openDays": [
      "平日",
      "土曜日",
      "日曜日",
      "祝日"
    ],
    "openDaysNote": ""
  },
  {
    "id": "570905422",
    "name": "いこいの里ヘルパーセンター",
    "kana": "イコイノサトヘルパーセンター",
    "address": "秋田県鹿角市八幡平字小山50番地",
    "lat": 40.1400952,
    "lng": 140.8020412,
    "tel": "0186-32-3191",
    "url": "https://suihoukai-ikoinosato.com/",
    "pref": "秋田県",
    "city": "鹿角市",
    "category": "home_help",
    "serviceType": "訪問介護",
    "capacity": 15,
    "openDays": [
      "平日",
      "土曜日",
      "日曜日",
      "祝日"
    ],
    "openDaysNote": "訪問時間相談可。"
  },
  {
    "id": "570900043",
    "name": "ニチイケアセンター鹿角",
    "kana": "ニチイケアセンターカヅノ",
    "address": "秋田県鹿角市花輪字上花輪212-1.2",
    "lat": 40.186223,
    "lng": 140.7887207,
    "tel": "0186-30-1248",
    "url": "http://www.nichiigakkan.co.jp",
    "pref": "秋田県",
    "city": "鹿角市",
    "category": "home_help",
    "serviceType": "訪問介護",
    "capacity": 0,
    "openDays": [
      "平日",
      "土曜日",
      "日曜日",
      "祝日"
    ],
    "openDaysNote": "要相談（22：00～6：00）で対応可能。"
  },
  {
    "id": "570922666",
    "name": "ヘルパーステーション鶴寿",
    "kana": "ヘルパーステーションカクジュ",
    "address": "秋田県鹿角市八幡平字湯瀬30-2",
    "lat": 40.1228785,
    "lng": 140.838245,
    "tel": "0186-25-8512",
    "url": "",
    "pref": "秋田県",
    "city": "鹿角市",
    "category": "home_help",
    "serviceType": "訪問介護",
    "capacity": 30,
    "openDays": [
      "平日",
      "土曜日",
      "日曜日",
      "祝日"
    ],
    "openDaysNote": "早朝（6:00～8:00）夜間（18:00～22:00）深夜（22:00～6:00）"
  },
  {
    "id": "570910976",
    "name": "ゆい指定訪問介護事業所",
    "kana": "ユイシテイホウモンカイゴジギョウショ",
    "address": "秋田県鹿角市十和田末広字家ノ下7",
    "lat": 40.2357099,
    "lng": 140.7361423,
    "tel": "0186-35-3996",
    "url": "",
    "pref": "秋田県",
    "city": "鹿角市",
    "category": "home_help",
    "serviceType": "訪問介護",
    "capacity": 0,
    "openDays": [
      "平日",
      "土曜日",
      "日曜日",
      "祝日"
    ],
    "openDaysNote": "定休日又は時間外であっても、緊急時は随時対応する。"
  },
  {
    "id": "570901751",
    "name": "株式会社タクト介護センター鹿角事業所",
    "kana": "カブシキカイシャタクトカイゴセンターカヅノジギョウショ",
    "address": "秋田県鹿角市花輪字志和野36-1",
    "lat": 40.2407549,
    "lng": 140.7780245,
    "tel": "0186-30-2520",
    "url": "http:/kk-tact.com/",
    "pref": "秋田県",
    "city": "鹿角市",
    "category": "home_help",
    "serviceType": "訪問介護",
    "capacity": 0,
    "openDays": [
      "平日",
      "土曜日",
      "祝日"
    ],
    "openDaysNote": "日曜、祭日はケアプランに沿った訪問活動可。"
  },
  {
    "id": "570902387",
    "name": "鹿角市社会福祉協議会指定訪問介護事業所",
    "kana": "カヅノシシャカイフクシキョウギカイシテイホウモンカイゴジギョウショ",
    "address": "秋田県鹿角市花輪字下花輪86-2",
    "lat": 40.1929374782732,
    "lng": 140.792485014156,
    "tel": "0186-23-2317",
    "url": "http://kazunoshishakyo.or.jp/",
    "pref": "秋田県",
    "city": "鹿角市",
    "category": "home_help",
    "serviceType": "訪問介護",
    "capacity": 20,
    "openDays": [
      "平日",
      "土曜日",
      "日曜日",
      "祝日"
    ],
    "openDaysNote": "現在、利用者のサービス希望で、早朝時間（6:00～8:00）、通常時間（8:00～18:00）、夜間時間（18:00～22:00）のみサービス提供を行っておりますが、深夜時間（22:00～6:00）の希望がある場合は職員のシフトを組み対応をいたします。"
  },
  {
    "id": "570902072",
    "name": "東恵園指定訪問介護事業所",
    "kana": "トウケイエンシテイホウモンカイゴジギョウショ",
    "address": "秋田県鹿角市花輪字上花輪136番地",
    "lat": 40.1873291010767,
    "lng": 140.789206412419,
    "tel": "0186-22-4081",
    "url": "http://www.hanawafukushikai.jp",
    "pref": "秋田県",
    "city": "鹿角市",
    "category": "home_help",
    "serviceType": "訪問介護",
    "capacity": 0,
    "openDays": [
      "平日",
      "土曜日",
      "日曜日",
      "祝日"
    ],
    "openDaysNote": "利用者様の希望で早朝（6:00～8:00）夜間（18：00～22：00）深夜（22：00～6：00）の対応しています。"
  },
  {
    "id": "570125963",
    "name": "ＳＯＭＰＯケア　秋田仁井田　訪問介護",
    "kana": "ソンポケア　アキタニイダ　ホウモンカイゴ",
    "address": "秋田県秋田市仁井田新田一丁目5番14号",
    "lat": 39.6821161,
    "lng": 140.1255749,
    "tel": "018-892-7875",
    "url": "https://www.sompocare.com",
    "pref": "秋田県",
    "city": "秋田市",
    "category": "home_help",
    "serviceType": "訪問介護",
    "capacity": 0,
    "openDays": [
      "平日",
      "土曜日",
      "日曜日",
      "祝日"
    ],
    "openDaysNote": "24時間365日（計画に基づき）"
  },
  {
    "id": "570125971",
    "name": "SOMPOケア秋田旭川訪問介護",
    "kana": "ソンポケアアキタアサヒカワホウモンカイゴ",
    "address": "秋田県秋田市旭川清澄町16番17号",
    "lat": 39.741834,
    "lng": 140.1256164,
    "tel": "018-884-3282",
    "url": "https://www.sompocare.com/",
    "pref": "秋田県",
    "city": "秋田市",
    "category": "home_help",
    "serviceType": "訪問介護",
    "capacity": 0,
    "openDays": [
      "平日"
    ],
    "openDaysNote": "24時間365日"
  },
  {
    "id": "570126680",
    "name": "アースサポート外旭川",
    "kana": "アースサポートソトアサヒカワ",
    "address": "秋田県秋田市外旭川八柳3丁目14番41号",
    "lat": 39.7487064,
    "lng": 140.0957124,
    "tel": "018-869-7022",
    "url": "http://www.earthsupport.co.jp",
    "pref": "秋田県",
    "city": "秋田市",
    "category": "home_help",
    "serviceType": "訪問介護",
    "capacity": 0,
    "openDays": [
      "平日",
      "土曜日",
      "日曜日",
      "祝日"
    ],
    "openDaysNote": "特になし"
  },
  {
    "id": "570109058",
    "name": "アースサポート秋田",
    "kana": "アースサポートアキタ",
    "address": "秋田県秋田市桜1丁目13番地7号",
    "lat": 39.7113945684113,
    "lng": 140.149317191077,
    "tel": "018-836-6811",
    "url": "http://www.earthsupport.co.jp",
    "pref": "秋田県",
    "city": "秋田市",
    "category": "home_help",
    "serviceType": "訪問介護",
    "capacity": 0,
    "openDays": [
      "平日",
      "土曜日",
      "日曜日",
      "祝日"
    ],
    "openDaysNote": "年中無休"
  },
  {
    "id": "570127068",
    "name": "あいえん訪問介護",
    "kana": "アイエンホウモンカイゴ",
    "address": "秋田市牛島西３丁目17-2サンライズひばり102 サンライズひばり102",
    "lat": 39.6907039,
    "lng": 140.1059843,
    "tel": "018-874-7471",
    "url": "",
    "pref": "秋田県",
    "city": "秋田市",
    "category": "home_help",
    "serviceType": "訪問介護",
    "capacity": 0,
    "openDays": [
      "平日"
    ],
    "openDaysNote": "土曜・日曜・祝日・夜勤　ご相談いただければ、可能であれば、対応させていただきます。"
  },
  {
    "id": "570118992",
    "name": "きらら訪問介護事業所竿燈通り",
    "kana": "キララホウモンカイゴジギョウショカントウドオリ",
    "address": "秋田市大町一丁目5-9朝日プラザ秋田中央102号室 朝日プラザ秋田中央102号室",
    "lat": 39.7206803778547,
    "lng": 140.11416313691,
    "tel": "018-895-7276",
    "url": "http://kirara-tp.co.jp/",
    "pref": "秋田県",
    "city": "秋田市",
    "category": "home_help",
    "serviceType": "訪問介護",
    "capacity": 0,
    "openDays": [
      "平日"
    ],
    "openDaysNote": "但し、時間外であっても利用者様の相談に応じる"
  },
  {
    "id": "570126920",
    "name": "ケアサロンつむぎ合同会社",
    "kana": "ケアサロンツムギゴウドウガイシャ",
    "address": "秋田県秋田市泉南2丁目1番10号オークチップ泉309 オークチップ泉309",
    "lat": 39.7291821769063,
    "lng": 140.109074881615,
    "tel": "018-853-1626",
    "url": "http://hp.kaipoke.biz/7a9/",
    "pref": "秋田県",
    "city": "秋田市",
    "category": "home_help",
    "serviceType": "訪問介護",
    "capacity": 0,
    "openDays": [
      "平日"
    ],
    "openDaysNote": "サービス提供はご利用者の状況により365日24時間の対応を行います。"
  },
  {
    "id": "570120642",
    "name": "ケアセンター　ひばり",
    "kana": "ケアセンター　ヒバリ",
    "address": "秋田県秋田市卸町５丁目14-10",
    "lat": 39.6944955,
    "lng": 140.1084669,
    "tel": "018-893-3317",
    "url": "",
    "pref": "秋田県",
    "city": "秋田市",
    "category": "home_help",
    "serviceType": "訪問介護",
    "capacity": 0,
    "openDays": [
      "平日",
      "祝日"
    ],
    "openDaysNote": "上記以外の日も相談に応じる"
  },
  {
    "id": "570126318",
    "name": "ケアセンターしき彩",
    "kana": "ケアセンターシキサイ",
    "address": "秋田市外旭川字三後田１４０番地",
    "lat": 39.749844529218,
    "lng": 140.094496542328,
    "tel": "018-853-6336",
    "url": "https://shikisai-helper.com",
    "pref": "秋田県",
    "city": "秋田市",
    "category": "home_help",
    "serviceType": "訪問介護",
    "capacity": 0,
    "openDays": [
      "平日",
      "土曜日",
      "日曜日",
      "祝日"
    ],
    "openDaysNote": ""
  },
  {
    "id": "570123810",
    "name": "ケアセンターりん　訪問介護事業所",
    "kana": "ケアセンターリン　ホウモンカイゴジギョウショ",
    "address": "秋田県秋田市茨島二丁目１５番３５号パンション菅原１０１号室 パンション菅原１０１号室",
    "lat": 39.6964634,
    "lng": 140.105257,
    "tel": "018-853-5793",
    "url": "https://care-net.biz/05/carerin/",
    "pref": "秋田県",
    "city": "秋田市",
    "category": "home_help",
    "serviceType": "訪問介護",
    "capacity": 0,
    "openDays": [
      "平日",
      "土曜日",
      "日曜日",
      "祝日"
    ],
    "openDaysNote": ""
  },
  {
    "id": "570126128",
    "name": "ケアセンターりん　北部",
    "kana": "ケアセンターリン　ホクブ",
    "address": "秋田県秋田市将軍野堰越４番２０号",
    "lat": 39.7615223,
    "lng": 140.0936632,
    "tel": "018-853-0027",
    "url": "https://care-net.biz/05/carerin/",
    "pref": "秋田県",
    "city": "秋田市",
    "category": "home_help",
    "serviceType": "訪問介護",
    "capacity": 0,
    "openDays": [
      "平日",
      "土曜日",
      "日曜日",
      "祝日"
    ],
    "openDaysNote": ""
  },
  {
    "id": "570110445",
    "name": "ケアセンター亀はうす",
    "kana": "ケアセンターカメハウス",
    "address": "秋田県秋田市下北手松崎字岩瀬163番地１",
    "lat": 39.717885,
    "lng": 140.1558623,
    "tel": "018-837-2335（",
    "url": "http://www.kyukokai.com/yuyukai/",
    "pref": "秋田県",
    "city": "秋田市",
    "category": "home_help",
    "serviceType": "訪問介護",
    "capacity": 0,
    "openDays": [
      "平日",
      "土曜日",
      "日曜日",
      "祝日"
    ],
    "openDaysNote": "緊急時、やむを得ない場合はこの限りではありません。"
  },
  {
    "id": "570126524",
    "name": "ケアポート秋田訪問介護事業所",
    "kana": "ケアポートアキタホウモンカイゴジギョウショ",
    "address": "秋田県秋田市山王沼田町2-41",
    "lat": 39.7138669,
    "lng": 140.0929413,
    "tel": "018-853-4589",
    "url": "https://careport-akita.jp",
    "pref": "秋田県",
    "city": "秋田市",
    "category": "home_help",
    "serviceType": "訪問介護",
    "capacity": null,
    "openDays": [
      "平日",
      "土曜日",
      "日曜日",
      "祝日"
    ],
    "openDaysNote": "土・日・祝日については、相談とさせて頂きます。"
  },
  {
    "id": "570121921",
    "name": "ケア工房",
    "kana": "ケアコウボウ",
    "address": "秋田県秋田市仁井田新田1丁目11-63",
    "lat": 39.6819327,
    "lng": 140.121803,
    "tel": "018-829-1307",
    "url": "",
    "pref": "秋田県",
    "city": "秋田市",
    "category": "home_help",
    "serviceType": "訪問介護",
    "capacity": 0,
    "openDays": [
      "平日",
      "土曜日",
      "日曜日",
      "祝日"
    ],
    "openDaysNote": "居宅サービス計画により、営業時間外であってもサービスを提供する場合もあります。"
  },
  {
    "id": "570126870",
    "name": "サービスステーションくるみ",
    "kana": "サービスステーションクルミ",
    "address": "秋田県秋田市土崎港南３丁目10-19アーバンハイツ港南Ｅ105 アーバンハイツ港南Ｅ105",
    "lat": 39.7480618991126,
    "lng": 140.074761469975,
    "tel": "018-827-7083",
    "url": "http://ne-united.co.jp",
    "pref": "秋田県",
    "city": "秋田市",
    "category": "home_help",
    "serviceType": "訪問介護",
    "capacity": 15,
    "openDays": [
      "平日",
      "土曜日",
      "日曜日",
      "祝日"
    ],
    "openDaysNote": "電話などにより、常時連絡が可能な体制をとります。"
  },
  {
    "id": "570119545",
    "name": "サポート彩り合同会社",
    "kana": "サポートイロドリゴウドウガイシャ",
    "address": "秋田市御野場新町２丁目２－１１",
    "lat": 39.6732143,
    "lng": 140.1224588,
    "tel": "018-829-4018",
    "url": "",
    "pref": "秋田県",
    "city": "秋田市",
    "category": "home_help",
    "serviceType": "訪問介護",
    "capacity": 2,
    "openDays": [
      "平日",
      "土曜日",
      "日曜日",
      "祝日"
    ],
    "openDaysNote": "定休日・営業時間外のサービスについては相談のうえ対応させていただきます。"
  },
  {
    "id": "570102541",
    "name": "ニコニコヘルパーセンター",
    "kana": "ニコニコヘルパーセンター",
    "address": "秋田県秋田市下新城中野字琵琶沼124-1",
    "lat": 39.8037255,
    "lng": 140.0586605,
    "tel": "018-873-7158",
    "url": "http://www.kyukokai.com",
    "pref": "秋田県",
    "city": "秋田市",
    "category": "home_help",
    "serviceType": "訪問介護",
    "capacity": 0,
    "openDays": [
      "平日",
      "土曜日",
      "日曜日",
      "祝日"
    ],
    "openDaysNote": ""
  },
  {
    "id": "570110247",
    "name": "ニチイケアセンターこうや",
    "kana": "ニチイケアセンターコウヤ",
    "address": "秋田市寺内字三千刈70-1",
    "lat": 39.7422052,
    "lng": 140.0933166,
    "tel": "018-883-1030",
    "url": "http://www.nichiigakkan.co.jp",
    "pref": "秋田県",
    "city": "秋田市",
    "category": "home_help",
    "serviceType": "訪問介護",
    "capacity": 0,
    "openDays": [
      "平日",
      "土曜日",
      "日曜日",
      "祝日"
    ],
    "openDaysNote": ""
  },
  {
    "id": "570118844",
    "name": "ニチイケアセンターひろおもて秋田",
    "kana": "ニチイケアセンターヒロオモテアキタ",
    "address": "秋田県秋田市広面字近藤堰越17-1",
    "lat": 39.7280013,
    "lng": 140.1451241,
    "tel": "018-825-9030",
    "url": "http://www.nichiigakkan.co.jp",
    "pref": "秋田県",
    "city": "秋田市",
    "category": "home_help",
    "serviceType": "訪問介護",
    "capacity": 0,
    "openDays": [
      "平日",
      "土曜日",
      "日曜日",
      "祝日"
    ],
    "openDaysNote": "特になし。"
  },
  {
    "id": "570104802",
    "name": "ニチイケアセンター御所野",
    "kana": "ニチイケアセンターゴショノ",
    "address": "秋田県秋田市御所野元町3-3-3",
    "lat": 39.6646835,
    "lng": 140.1713381,
    "tel": "018-889-8411",
    "url": "",
    "pref": "秋田県",
    "city": "秋田市",
    "category": "home_help",
    "serviceType": "訪問介護",
    "capacity": 5,
    "openDays": [
      "平日",
      "土曜日",
      "日曜日",
      "祝日"
    ],
    "openDaysNote": "居宅サービス計画に基づき、現在8時00分から23時00分のサービスを提供しています。"
  },
  {
    "id": "570104794",
    "name": "ニチイケアセンター秋田",
    "kana": "ニチイケアセンターアキタ",
    "address": "秋田県秋田市卸町5丁目1-33",
    "lat": 39.6956524,
    "lng": 140.1056181,
    "tel": "018-895-7521",
    "url": "http://www.nichiigakkan.co.jp",
    "pref": "秋田県",
    "city": "秋田市",
    "category": "home_help",
    "serviceType": "訪問介護",
    "capacity": 0,
    "openDays": [
      "平日",
      "土曜日",
      "日曜日",
      "祝日"
    ],
    "openDaysNote": "○早朝6：00～8：00　25%料金割増　　○夜間18：00～22：00　25%料金割増　　　　　　（改行）○深夜22：00～6：00　50%料金割増にて対応"
  },
  {
    "id": "570113589",
    "name": "バイタルケア秋田",
    "kana": "バイタルケアアキタ",
    "address": "秋田市泉字登木２２１－１株式会社バイタルネット　秋田支店内 株式会社バイタルネット　秋田支店内",
    "lat": 39.737356,
    "lng": 140.1007023,
    "tel": "018-824-3417",
    "url": "http://www.vitalcare.co.jp",
    "pref": "秋田県",
    "city": "秋田市",
    "category": "home_help",
    "serviceType": "訪問介護",
    "capacity": 0,
    "openDays": [
      "平日",
      "土曜日",
      "日曜日",
      "祝日"
    ],
    "openDaysNote": "ケースにより柔軟に対応致します。"
  },
  {
    "id": "570107870",
    "name": "ファミリー園訪問介護事業所",
    "kana": "ファミリーエンホウモンカイゴジギョウショ",
    "address": "秋田市桜一丁目４番２１号",
    "lat": 39.7105855,
    "lng": 140.1447832,
    "tel": "018-884-3325",
    "url": "",
    "pref": "秋田県",
    "city": "秋田市",
    "category": "home_help",
    "serviceType": "訪問介護",
    "capacity": 0,
    "openDays": [
      "平日",
      "土曜日",
      "日曜日",
      "祝日"
    ],
    "openDaysNote": ""
  },
  {
    "id": "570119867",
    "name": "ヘルパーステーションあかり",
    "kana": "ヘルパーステーションアカリ",
    "address": "秋田市八橋本町三丁目21-24",
    "lat": 39.727207,
    "lng": 140.0991835,
    "tel": "018-893-5011",
    "url": "",
    "pref": "秋田県",
    "city": "秋田市",
    "category": "home_help",
    "serviceType": "訪問介護",
    "capacity": 0,
    "openDays": [
      "平日"
    ],
    "openDaysNote": "上記意義で以外でも利用者様ご家族様のご希望により、相談に対応いたします。"
  },
  {
    "id": "570126565",
    "name": "ヘルパーステーション縁",
    "kana": "ヘルパーステーション　エン",
    "address": "秋田県秋田市御所野元町4丁目13-13御所野ハイツA104 御所野ハイツA104",
    "lat": 39.6629429,
    "lng": 140.1707942,
    "tel": "018-838-7739",
    "url": "",
    "pref": "秋田県",
    "city": "秋田市",
    "category": "home_help",
    "serviceType": "訪問介護",
    "capacity": null,
    "openDays": [
      "平日",
      "土曜日",
      "祝日"
    ],
    "openDaysNote": "利用者及びその家族の希望により営業時間帯以外でもサービスを提供することができます。"
  },
  {
    "id": "570110726",
    "name": "ヘルパーステーション遥か",
    "kana": "ヘルパーステーションハルカ",
    "address": "秋田市土崎港中央三丁目4番40号",
    "lat": 39.7544918,
    "lng": 140.068021,
    "tel": "018-845-4575",
    "url": "http://www.akita-hamanasukai.jp/",
    "pref": "秋田県",
    "city": "秋田市",
    "category": "home_help",
    "serviceType": "訪問介護",
    "capacity": null,
    "openDays": [
      "平日",
      "土曜日",
      "祝日"
    ],
    "openDaysNote": "緊急時は、その限りではありません。"
  },
  {
    "id": "570126714",
    "name": "ホームケア土屋秋田",
    "kana": "ホームケアツチヤアキタ",
    "address": "秋田県秋田市桜二丁目17番5号",
    "lat": 39.7378946,
    "lng": 140.0974396,
    "tel": "050-3138-5843",
    "url": "https://tcy.co.jp/",
    "pref": "秋田県",
    "city": "秋田市",
    "category": "home_help",
    "serviceType": "訪問介護",
    "capacity": 0,
    "openDays": [
      "平日",
      "土曜日",
      "日曜日",
      "祝日"
    ],
    "openDaysNote": ""
  },
  {
    "id": "570125609",
    "name": "ホームホスピス秋田訪問介護事業所",
    "kana": "ホームホスピスアキタホウモンカイゴジギョウショ",
    "address": "秋田県秋田市広面近藤堰添50-1あきた東内科クリニック2階 あきた東内科クリニック2階",
    "lat": 39.7292769487282,
    "lng": 140.145384427313,
    "tel": "018-853-6835",
    "url": "https://claranoie.or.jp",
    "pref": "秋田県",
    "city": "秋田市",
    "category": "home_help",
    "serviceType": "訪問介護",
    "capacity": 14,
    "openDays": [
      "平日",
      "土曜日",
      "日曜日",
      "祝日"
    ],
    "openDaysNote": "現時点ではホームホスピス秋田「くららの家」居住の利用者様のみ、訪問介護のサービス提供を行っています。"
  },
  {
    "id": "570126953",
    "name": "ポライトケア訪問介護ステーション",
    "kana": "ポライトケアホウモンカイゴステーション",
    "address": "秋田県秋田市寺内字イサノ５６－２コーポ寺内１０２ コーポ寺内１０２",
    "lat": 39.7385611,
    "lng": 140.0934893,
    "tel": "050-8887-3965",
    "url": "https://politework.jp",
    "pref": "秋田県",
    "city": "秋田市",
    "category": "home_help",
    "serviceType": "訪問介護",
    "capacity": null,
    "openDays": [
      "平日",
      "土曜日"
    ],
    "openDaysNote": "上記定休日でも依頼があればサービス対応は可能"
  },
  {
    "id": "570101105",
    "name": "やさしい手秋田",
    "kana": "ヤサシイテアキタ",
    "address": "秋田県秋田市川元むつみ町7-13",
    "lat": 39.7085295432496,
    "lng": 140.106541218936,
    "tel": "018-864-1114",
    "url": "http://www.8341te.com",
    "pref": "秋田県",
    "city": "秋田市",
    "category": "home_help",
    "serviceType": "訪問介護",
    "capacity": 0,
    "openDays": [
      "平日",
      "土曜日",
      "日曜日",
      "祝日"
    ],
    "openDaysNote": "その他の時間は相談に応じる"
  },
  {
    "id": "570127084",
    "name": "やさしい手秋田ウェルズ",
    "kana": "ヤサシイテアキタウェルズ",
    "address": "秋田県秋田市川元むつみ町7-13",
    "lat": 39.708536,
    "lng": 140.1064732,
    "tel": "018-827-5651",
    "url": "https://www.8341te.com",
    "pref": "秋田県",
    "city": "秋田市",
    "category": "home_help",
    "serviceType": "訪問介護",
    "capacity": 0,
    "openDays": [
      "平日",
      "土曜日",
      "日曜日",
      "祝日"
    ],
    "openDaysNote": "その他の時間は相談に応じる"
  },
  {
    "id": "570117093",
    "name": "やさしい手秋田ポートセンター",
    "kana": "ヤサシイテアキタポートセンター",
    "address": "秋田県秋田市将軍野東一丁目7-30",
    "lat": 39.7579336,
    "lng": 140.0836864,
    "tel": "018-853-4041",
    "url": "http://www.8341te.com",
    "pref": "秋田県",
    "city": "秋田市",
    "category": "home_help",
    "serviceType": "訪問介護",
    "capacity": 0,
    "openDays": [
      "平日",
      "土曜日",
      "日曜日",
      "祝日"
    ],
    "openDaysNote": "その他の時間は相談に応じる"
  },
  {
    "id": "570123273",
    "name": "やすらぎの郷ヘルパーステーション",
    "kana": "ヤスラギノサトヘルパーステーション",
    "address": "秋田県秋田市泉中央４丁目２－８Ｔ・Ｋビル１階 Ｔ・Ｋビル１階",
    "lat": 39.7343594,
    "lng": 140.1113153,
    "tel": "018-883-0050",
    "url": "http://www.saint-care.com/niji/",
    "pref": "秋田県",
    "city": "秋田市",
    "category": "home_help",
    "serviceType": "訪問介護",
    "capacity": 0,
    "openDays": [
      "平日",
      "土曜日",
      "日曜日",
      "祝日"
    ],
    "openDaysNote": ""
  },
  {
    "id": "570125039",
    "name": "ゆきわり草ヘルパーステーション",
    "kana": "ユキワリソウヘルパーステーション",
    "address": "秋田県秋田市川元むつみ町3番32号",
    "lat": 39.7081681012121,
    "lng": 140.104287976102,
    "tel": "018-874-8095",
    "url": "http://yukiwarisou.co.jp",
    "pref": "秋田県",
    "city": "秋田市",
    "category": "home_help",
    "serviceType": "訪問介護",
    "capacity": 0,
    "openDays": [
      "平日",
      "土曜日",
      "日曜日",
      "祝日"
    ],
    "openDaysNote": "営業時間以外でも利用の申込みがあった場合、相談に応じて訪問しています。"
  },
  {
    "id": "570106260",
    "name": "リンデンバウムいずみホームヘルパーステーション",
    "kana": "リンデンバウムイズミホームヘルパーステーション",
    "address": "秋田市泉菅野二丁目１７番１１号",
    "lat": 39.7360816,
    "lng": 140.115076,
    "tel": "018-896-5880",
    "url": "http://www.izumi.akita.jp",
    "pref": "秋田県",
    "city": "秋田市",
    "category": "home_help",
    "serviceType": "訪問介護",
    "capacity": 0,
    "openDays": [
      "平日",
      "土曜日",
      "日曜日",
      "祝日"
    ],
    "openDaysNote": "営業時間以外でも利用の申込みがあった場合、相談に応じて訪問しています"
  },
  {
    "id": "570126730",
    "name": "医心館訪問介護ステーション秋田",
    "kana": "イシンカンホウモンカイゴステーションアキタ",
    "address": "秋田県秋田市広面字大巻59番",
    "lat": 39.7215127,
    "lng": 140.1449317,
    "tel": "018-853-7127",
    "url": "",
    "pref": "秋田県",
    "city": "秋田市",
    "category": "home_help",
    "serviceType": "訪問介護",
    "capacity": 0,
    "openDays": [
      "平日",
      "土曜日",
      "日曜日",
      "祝日"
    ],
    "openDaysNote": ""
  },
  {
    "id": "572409654",
    "name": "花の家　訪問介護事業所",
    "kana": "ハナノイエ　ホウモンカイゴジギョウショ",
    "address": "秋田県秋田市雄和石田字苗代沢18",
    "lat": 39.5944448,
    "lng": 140.1729197,
    "tel": "018-886-2626",
    "url": "http://www.yuuwafukushikai.or.jp/",
    "pref": "秋田県",
    "city": "秋田市",
    "category": "home_help",
    "serviceType": "訪問介護",
    "capacity": 41,
    "openDays": [
      "平日",
      "土曜日",
      "日曜日",
      "祝日"
    ],
    "openDaysNote": "上記以外の時間等ご相談に応じます。ただし電話等により24時間常時連絡可能な体制となっております。"
  },
  {
    "id": "570127050",
    "name": "介護タクシービスタ",
    "kana": "カイゴタクシービスタ",
    "address": "秋田県秋田市卸町2-1-8",
    "lat": 39.7001806,
    "lng": 140.1125523,
    "tel": "018-808-9409",
    "url": "https://vista-support.com/",
    "pref": "秋田県",
    "city": "秋田市",
    "category": "home_help",
    "serviceType": "訪問介護",
    "capacity": null,
    "openDays": [
      "平日",
      "土曜日",
      "祝日"
    ],
    "openDaysNote": "土曜・祝日は定期利用者のみ対応。"
  },
  {
    "id": "570101634",
    "name": "割山ホームヘルパーステーション",
    "kana": "ワリヤマホームヘルパーステーション",
    "address": "秋田県秋田市新屋勝平町3番21号",
    "lat": 39.6967984,
    "lng": 140.0826924,
    "tel": "018-883-1272",
    "url": "https://www.meiwakai.or.jp/kaigo",
    "pref": "秋田県",
    "city": "秋田市",
    "category": "home_help",
    "serviceType": "訪問介護",
    "capacity": 0,
    "openDays": [
      "平日"
    ],
    "openDaysNote": "営業時間外、休業日にも相談のうえ要望に応じます。"
  },
  {
    "id": "570127043",
    "name": "株式会社　クレール",
    "kana": "カブシキカイシャ　クレール",
    "address": "秋田県秋田市新屋船場町6番55号",
    "lat": 39.6958727,
    "lng": 140.086755,
    "tel": "018-866-4702",
    "url": "",
    "pref": "秋田県",
    "city": "秋田市",
    "category": "home_help",
    "serviceType": "訪問介護",
    "capacity": 10,
    "openDays": [
      "平日",
      "祝日"
    ],
    "openDaysNote": ""
  },
  {
    "id": "570117382",
    "name": "株式会社　ラック",
    "kana": "カブシキカイシャ　ラック",
    "address": "秋田県秋田市将軍野東四丁目１番１４号",
    "lat": 39.7594953189043,
    "lng": 140.087646457672,
    "tel": "018-845-2774",
    "url": "",
    "pref": "秋田県",
    "city": "秋田市",
    "category": "home_help",
    "serviceType": "訪問介護",
    "capacity": 5,
    "openDays": [
      "平日"
    ],
    "openDaysNote": "・平日の８時００分～２０時００分の時間外の訪問依頼については相談に応じています。（改行）・土曜、日曜、祝日、年末年始等、当社の定めた定休日での訪問依頼（時間帯）についても平日同様、相談に応じています。"
  },
  {
    "id": "570126631",
    "name": "株式会社ツクイ　ツクイ秋田川尻",
    "kana": "カブシキガイシャツクイ　ツクイアキタカワシリ",
    "address": "秋田県秋田市川尻御休町5番12号",
    "lat": 39.713318,
    "lng": 140.0964523,
    "tel": "018-896-5442",
    "url": "http://www.tsukui.net",
    "pref": "秋田県",
    "city": "秋田市",
    "category": "home_help",
    "serviceType": "訪問介護",
    "capacity": 0,
    "openDays": [
      "平日",
      "土曜日",
      "日曜日",
      "祝日"
    ],
    "openDaysNote": ""
  },
  {
    "id": "570101642",
    "name": "港北ホームヘルパーステーション",
    "kana": "コウホクホームヘルパーステーション",
    "address": "秋田市土崎港北六丁目1番5号",
    "lat": 39.7655685,
    "lng": 140.0754367,
    "tel": "018-816-0789",
    "url": "https://www.meiwakai.or.jp/kaigo",
    "pref": "秋田県",
    "city": "秋田市",
    "category": "home_help",
    "serviceType": "訪問介護",
    "capacity": 0,
    "openDays": [
      "平日"
    ],
    "openDaysNote": "営業時間外、休業日でもご希望があれば、ご相談に応じます。"
  },
  {
    "id": "570114942",
    "name": "合同会社グレイス",
    "kana": "ゴウドウカイシャ　グレイス",
    "address": "秋田県秋田市河辺諸井字下諸井３２－２",
    "lat": 39.6635302,
    "lng": 140.2429456,
    "tel": "018-881-1355",
    "url": "",
    "pref": "秋田県",
    "city": "秋田市",
    "category": "home_help",
    "serviceType": "訪問介護",
    "capacity": 0,
    "openDays": [
      "平日",
      "土曜日",
      "日曜日",
      "祝日"
    ],
    "openDaysNote": ""
  },
  {
    "id": "570126573",
    "name": "黒子ケアラボ",
    "kana": "クロコケアラボ",
    "address": "秋田県秋田市御野場3丁目1-10",
    "lat": 39.6712952,
    "lng": 140.1335634,
    "tel": "050-5364-3570",
    "url": "http://hp.kaipoke.biz/vtx/",
    "pref": "秋田県",
    "city": "秋田市",
    "category": "home_help",
    "serviceType": "訪問介護",
    "capacity": 0,
    "openDays": [
      "平日",
      "土曜日",
      "日曜日",
      "祝日"
    ],
    "openDaysNote": "居宅サービス計画により、時間外であってもサービスを提供する場合があります。"
  },
  {
    "id": "570102996",
    "name": "在宅介護サービスステーション　たんぽぽ",
    "kana": "ザイタクカイゴサービスステーションタンポポ",
    "address": "秋田県秋田市寺内字イサノ101アルファコート1F アルファコート1F",
    "lat": 39.7378846,
    "lng": 140.0974793,
    "tel": "018-866-0888",
    "url": "http://tampopo-akita.com/",
    "pref": "秋田県",
    "city": "秋田市",
    "category": "home_help",
    "serviceType": "訪問介護",
    "capacity": 10,
    "openDays": [
      "平日",
      "土曜日",
      "日曜日",
      "祝日"
    ],
    "openDaysNote": "天候やその他やむを得ず遂行できない日もあります。（改行）営業時間は利用者の希望に添って随時対応します。"
  },
  {
    "id": "570115899",
    "name": "在宅介護サービスステーションたんぽぽ広面",
    "kana": "ザイタクカイゴサービスステーションタンポポヒロオモテ",
    "address": "秋田県秋田市広面字蓮沼２０－１パール広面ハイツ１F パール広面ハイツ１F",
    "lat": 39.7287668,
    "lng": 140.1481429,
    "tel": "018-884-1888",
    "url": "",
    "pref": "秋田県",
    "city": "秋田市",
    "category": "home_help",
    "serviceType": "訪問介護",
    "capacity": 10,
    "openDays": [
      "平日",
      "土曜日",
      "日曜日",
      "祝日"
    ],
    "openDaysNote": "天災やその他やむを得ず業務を遂行できない日は除きます。営業時間は利用者の希望に沿って随時対応します。"
  },
  {
    "id": "570122010",
    "name": "在宅介護サービスステーションたんぽぽ飯島訪問介護",
    "kana": "ザイタクカイゴサービスステーションタンポポイイジマホウモンカイゴ",
    "address": "秋田市飯島緑丘町１８番１９号",
    "lat": 39.7793587,
    "lng": 140.0696279,
    "tel": "018-847-0855",
    "url": "",
    "pref": "秋田県",
    "city": "秋田市",
    "category": "home_help",
    "serviceType": "訪問介護",
    "capacity": 0,
    "openDays": [
      "平日",
      "土曜日",
      "日曜日",
      "祝日"
    ],
    "openDaysNote": "天災やその他やむを得ず業務を遂行出来ない日は除きます。（改行）営業時間は利用者の希望に沿って随時対応します。"
  },
  {
    "id": "570123125",
    "name": "在宅介護支援おおがた",
    "kana": "ザイタクカイゴシエンオオガタ",
    "address": "秋田県秋田市飯島川端1-6-30",
    "lat": 39.7801195,
    "lng": 140.0619922,
    "tel": "050-5897-1963",
    "url": "",
    "pref": "秋田県",
    "city": "秋田市",
    "category": "home_help",
    "serviceType": "訪問介護",
    "capacity": 0,
    "openDays": [
      "平日",
      "土曜日",
      "日曜日",
      "祝日"
    ],
    "openDaysNote": "休業日はなし"
  },
  {
    "id": "570101659",
    "name": "手形ホームヘルパーステーション",
    "kana": "テガタホームヘルパーステーション",
    "address": "秋田市手形十七流１０－１１",
    "lat": 39.7209425,
    "lng": 140.1408524,
    "tel": "018-884-7255",
    "url": "http://www.meiwakai.or.jp/kaigo",
    "pref": "秋田県",
    "city": "秋田市",
    "category": "home_help",
    "serviceType": "訪問介護",
    "capacity": 0,
    "openDays": [
      "平日"
    ],
    "openDaysNote": "営業時間外、休業日でもご希望があれば、ご相談に応じます。"
  },
  {
    "id": "570101725",
    "name": "秋田けやき会訪問介護ステーション",
    "kana": "アキタケヤキカイホウモンカイゴステーション",
    "address": "秋田県秋田市御所野下堤５丁目１番５号",
    "lat": 39.6668883,
    "lng": 140.1549339,
    "tel": "018-838-6384",
    "url": "http://akita-keyaki.or.jp/",
    "pref": "秋田県",
    "city": "秋田市",
    "category": "home_help",
    "serviceType": "訪問介護",
    "capacity": 0,
    "openDays": [
      "平日",
      "土曜日"
    ],
    "openDaysNote": "営業日・営業時間以外でも相談により対応可能です。"
  },
  {
    "id": "570106856",
    "name": "秋田合同タクシー株式会社",
    "kana": "アキタゴウドウタクシーカブシキカイシャ",
    "address": "秋田県秋田市八橋南一丁目３番２２号",
    "lat": 39.7189324,
    "lng": 140.0899682,
    "tel": "018-864-1227",
    "url": "http://akitagodo-taxi.co.jp",
    "pref": "秋田県",
    "city": "秋田市",
    "category": "home_help",
    "serviceType": "訪問介護",
    "capacity": 0,
    "openDays": [
      "平日",
      "土曜日",
      "日曜日",
      "祝日"
    ],
    "openDaysNote": "前日までご連絡をいただければ時間外でも対応いたします"
  },
  {
    "id": "570107961",
    "name": "秋田在宅ケアセンター",
    "kana": "アキタザイタクケアセンター",
    "address": "秋田市下北手松崎字前谷地142番地1",
    "lat": 39.7238511,
    "lng": 140.1608143,
    "tel": "018-834-8766",
    "url": "https://akita-zaitaku.co.jp/",
    "pref": "秋田県",
    "city": "秋田市",
    "category": "home_help",
    "serviceType": "訪問介護",
    "capacity": 90,
    "openDays": [
      "平日"
    ],
    "openDaysNote": "利用者様の要望により、休日でもサービスを提供いたします。（年間365日対応）"
  },
  {
    "id": "570127001",
    "name": "秋田在宅介護株式会社",
    "kana": "アキタザイタクカイゴカブシキガイシャ",
    "address": "秋田県秋田市横森一丁目20-30",
    "lat": 39.7071235,
    "lng": 140.1418935,
    "tel": "018-833-7073",
    "url": "",
    "pref": "秋田県",
    "city": "秋田市",
    "category": "home_help",
    "serviceType": "訪問介護",
    "capacity": null,
    "openDays": [
      "平日",
      "土曜日",
      "日曜日",
      "祝日"
    ],
    "openDaysNote": "相談に応じます。"
  },
  {
    "id": "570102921",
    "name": "松寿会指定訪問介護事業所",
    "kana": "ショウジュカイシテイホウモンカイゴジギョウショ",
    "address": "秋田県秋田市浜田字陳ヶ原35-31松涛園内 松涛園内",
    "lat": 39.6504352,
    "lng": 140.0680431,
    "tel": "018-828-7856",
    "url": "http://www.shoujukai.jp",
    "pref": "秋田県",
    "city": "秋田市",
    "category": "home_help",
    "serviceType": "訪問介護",
    "capacity": 0,
    "openDays": [
      "平日",
      "土曜日"
    ],
    "openDaysNote": "・居宅サービス計画書に基づいてサービスを求められた場合は可能な限り対応いたします。"
  },
  {
    "id": "570101626",
    "name": "仁井田ホームヘルパーステーション",
    "kana": "ニイダホームヘルパーステーション",
    "address": "秋田県秋田市仁井田新田三丁目１番１５号",
    "lat": 39.6807273,
    "lng": 140.1210559,
    "tel": "018-889-9025",
    "url": "https://www.meiwakai.or.jp/station",
    "pref": "秋田県",
    "city": "秋田市",
    "category": "home_help",
    "serviceType": "訪問介護",
    "capacity": 0,
    "openDays": [
      "平日"
    ],
    "openDaysNote": "営業時間外、休業日でもご希望があれば相談に応じます。"
  },
  {
    "id": "570102129",
    "name": "千秋苑ホームヘルパーステーション",
    "kana": "センシュウエンホームヘルパーステーション",
    "address": "秋田市外旭川字神田592番地",
    "lat": 39.7512493,
    "lng": 140.1186304,
    "tel": "018-869-7800",
    "url": "http://www.kenjukai-senshuen.jp",
    "pref": "秋田県",
    "city": "秋田市",
    "category": "home_help",
    "serviceType": "訪問介護",
    "capacity": 0,
    "openDays": [
      "平日",
      "土曜日",
      "日曜日",
      "祝日"
    ],
    "openDaysNote": "特別な事情等がある場合は上記の限りではございません。"
  },
  {
    "id": "570103747",
    "name": "南寿園ホームヘルパーステーション",
    "kana": "ナンジュエンホームヘルパーステーション",
    "address": "秋田県秋田市上北手猿田字後谷地１０８－３",
    "lat": 39.6814676,
    "lng": 140.169932,
    "tel": "018-829-0700",
    "url": "http://www.akitaken-kouseikyoukai.jp/",
    "pref": "秋田県",
    "city": "秋田市",
    "category": "home_help",
    "serviceType": "訪問介護",
    "capacity": 0,
    "openDays": [
      "平日",
      "祝日"
    ],
    "openDaysNote": "特別な事情がある場合は、土日、年末年始もサービス提供をいたします。"
  },
  {
    "id": "570101618",
    "name": "南通ホームヘルパーステーション",
    "kana": "ミナミドオリホームヘルパーステーション",
    "address": "秋田市中通六丁目１４番１８号",
    "lat": 39.7124014,
    "lng": 140.1264292,
    "tel": "018-884-1350",
    "url": "https://www.meiwakai.or.jp/kaigo",
    "pref": "秋田県",
    "city": "秋田市",
    "category": "home_help",
    "serviceType": "訪問介護",
    "capacity": 0,
    "openDays": [
      "平日"
    ],
    "openDaysNote": "営業時間外、休業日でもご希望があれば、ご相談に応じます。"
  },
  {
    "id": "570124800",
    "name": "虹の街　ヘルパーステーション秋田",
    "kana": "ニジノマチ　ヘルパーステーションアキタ",
    "address": "秋田県秋田市牛島西１丁目3番8号",
    "lat": 39.6979555,
    "lng": 140.1163725,
    "tel": "018-831-5652",
    "url": "https://www.saint-care.com/niji/",
    "pref": "秋田県",
    "city": "秋田市",
    "category": "home_help",
    "serviceType": "訪問介護",
    "capacity": 0,
    "openDays": [
      "平日",
      "土曜日",
      "日曜日",
      "祝日"
    ],
    "openDaysNote": "日曜日と元日はご相談のうえ対応させていただきます"
  },
  {
    "id": "570103598",
    "name": "訪問介護　ほくと",
    "kana": "ホウモンカイゴ　ホクト",
    "address": "秋田県秋田市下新城中野字街道端西11-1",
    "lat": 39.7943626,
    "lng": 140.059611,
    "tel": "018-872-1050",
    "url": "http://www.syahuku-hokuto.org",
    "pref": "秋田県",
    "city": "秋田市",
    "category": "home_help",
    "serviceType": "訪問介護",
    "capacity": 0,
    "openDays": [
      "平日",
      "土曜日",
      "祝日"
    ],
    "openDaysNote": "早朝、夜間は対応をご相談させていただきます。"
  },
  {
    "id": "570126367",
    "name": "訪問介護　和久",
    "kana": "ホウモンカイゴ　ワキュウ",
    "address": "秋田県秋田市添川字境内川原166-8",
    "lat": 39.7492781,
    "lng": 140.1326856,
    "tel": "018-893-3788",
    "url": "https://www.saishin-wakyuu.com",
    "pref": "秋田県",
    "city": "秋田市",
    "category": "home_help",
    "serviceType": "訪問介護",
    "capacity": 0,
    "openDays": [
      "平日",
      "祝日"
    ],
    "openDaysNote": "営業時間以外でも、ご相談に応じることができます。"
  },
  {
    "id": "570126458",
    "name": "訪問介護うぃず",
    "kana": "ホウモンカイゴウィズ",
    "address": "秋田県秋田市土崎港東一丁目2-75有料老人ホームうぃず 有料老人ホームうぃず",
    "lat": 39.7486423593303,
    "lng": 140.078877330735,
    "tel": "018-827-7820",
    "url": "http://familii-akita.jp/",
    "pref": "秋田県",
    "city": "秋田市",
    "category": "home_help",
    "serviceType": "訪問介護",
    "capacity": 1,
    "openDays": [
      "平日",
      "土曜日",
      "祝日"
    ],
    "openDaysNote": "休日、夜間・営業時間外ともに利用者の希望に応じてサービスの提供を24時間対応可能な体制を整えるものとします。"
  },
  {
    "id": "570126946",
    "name": "訪問介護クオーレ",
    "kana": "ホウモンカイゴクオーレ",
    "address": "秋田県秋田市寺内後城１７番１号ライフキャップ寺内F101 ライフキャップ寺内F101",
    "lat": 39.7432204,
    "lng": 140.0707837,
    "tel": "018-893-5575",
    "url": "",
    "pref": "秋田県",
    "city": "秋田市",
    "category": "home_help",
    "serviceType": "訪問介護",
    "capacity": 0,
    "openDays": [
      "平日",
      "土曜日",
      "日曜日",
      "祝日"
    ],
    "openDaysNote": ""
  },
  {
    "id": "570121244",
    "name": "訪問介護ステーションきょうえい",
    "kana": "ホウモンカイゴステーションキョウエイ",
    "address": "秋田県秋田市八橋イサノ１－１０－８",
    "lat": 39.7317274040218,
    "lng": 140.094259631895,
    "tel": "018-874-9937",
    "url": "",
    "pref": "秋田県",
    "city": "秋田市",
    "category": "home_help",
    "serviceType": "訪問介護",
    "capacity": 80,
    "openDays": [
      "平日",
      "土曜日",
      "日曜日",
      "祝日"
    ],
    "openDaysNote": ""
  },
  {
    "id": "570127035",
    "name": "訪問介護ステーション城東",
    "kana": "ホウモンカイゴステーションジョウトウ",
    "address": "秋田県秋田市東通明田13-19コーポ二ツ屋202号 コーポ二ツ屋202号",
    "lat": 39.708359,
    "lng": 140.1370078,
    "tel": "018-853-1270",
    "url": "https://yamata-create.com/",
    "pref": "秋田県",
    "city": "秋田市",
    "category": "home_help",
    "serviceType": "訪問介護",
    "capacity": 0,
    "openDays": [
      "平日",
      "土曜日",
      "日曜日",
      "祝日"
    ],
    "openDaysNote": "サービス提供は365日、24時間とする。"
  },
  {
    "id": "570126755",
    "name": "訪問介護ステーション城南",
    "kana": "ホウモンカンゴステーションジョウナン",
    "address": "秋田県秋田市楢山城南新町２１−１２",
    "lat": 39.6973414,
    "lng": 140.1322998,
    "tel": "018-838-1231",
    "url": "https://yamata-create.com/",
    "pref": "秋田県",
    "city": "秋田市",
    "category": "home_help",
    "serviceType": "訪問介護",
    "capacity": 36,
    "openDays": [
      "平日",
      "土曜日",
      "日曜日",
      "祝日"
    ],
    "openDaysNote": "サービス提供時間は8：30～17：30（改行）※電話等により365日24時間常時連絡可能な体制とする。"
  },
  {
    "id": "570113704",
    "name": "訪問介護ろいやる秋田",
    "kana": "ホウモンカイゴロイヤルアキタ",
    "address": "秋田市御所野元町3−2−４e-環境秋田ビル1−3 e-環境秋田ビル1−3",
    "lat": 39.6649295796025,
    "lng": 140.170638270038,
    "tel": "018-827-5560",
    "url": "http://aktsouseig.com",
    "pref": "秋田県",
    "city": "秋田市",
    "category": "home_help",
    "serviceType": "訪問介護",
    "capacity": 25,
    "openDays": [
      "平日",
      "土曜日",
      "日曜日",
      "祝日"
    ],
    "openDaysNote": "２４時間対応"
  },
  {
    "id": "570125633",
    "name": "訪問介護彩べえいいじま",
    "kana": "ホウモンカイゴアヤベエイイジマ",
    "address": "秋田県秋田市飯島字飯島水尻501-1",
    "lat": 39.7764098600214,
    "lng": 140.08056740386,
    "tel": "018-838-7011",
    "url": "https://ochiai-cs.com",
    "pref": "秋田県",
    "city": "秋田市",
    "category": "home_help",
    "serviceType": "訪問介護",
    "capacity": 0,
    "openDays": [
      "平日",
      "祝日"
    ],
    "openDaysNote": "営業日・営業時間以外でも、ご相談に応じることができます。"
  },
  {
    "id": "570126847",
    "name": "訪問介護事業所　旭南",
    "kana": "ホウモンカイゴジギョウショ　キョクナン",
    "address": "秋田県秋田市旭南二丁目４番１１号",
    "lat": 39.7098056,
    "lng": 140.1145939,
    "tel": "018-827-5261",
    "url": "http://kaigo-yotsuba.jp/kyotaku/index.html",
    "pref": "秋田県",
    "city": "秋田市",
    "category": "home_help",
    "serviceType": "訪問介護",
    "capacity": 0,
    "openDays": [
      "平日",
      "土曜日",
      "日曜日",
      "祝日"
    ],
    "openDaysNote": ""
  },
  {
    "id": "570126706",
    "name": "訪問介護事業所あらや",
    "kana": "ホウモンカイゴジギョウショアラヤ",
    "address": "秋田県秋田市新屋沖田町9-21101 101",
    "lat": 39.6736935,
    "lng": 140.0918919,
    "tel": "018-853-1916",
    "url": "",
    "pref": "秋田県",
    "city": "秋田市",
    "category": "home_help",
    "serviceType": "訪問介護",
    "capacity": 40,
    "openDays": [
      "平日",
      "土曜日",
      "日曜日",
      "祝日"
    ],
    "openDaysNote": ""
  },
  {
    "id": "570126904",
    "name": "訪問介護事業所エール秋田",
    "kana": "ホウモンカイゴジギョウショエールアキタ",
    "address": "秋田市高陽青柳町3-40タウニィ高陽201号 タウニィ高陽201号",
    "lat": 39.7232556,
    "lng": 140.1027095,
    "tel": "018-893-4708",
    "url": "https://selectyell.com/",
    "pref": "秋田県",
    "city": "秋田市",
    "category": "home_help",
    "serviceType": "訪問介護",
    "capacity": null,
    "openDays": [
      "平日",
      "土曜日",
      "日曜日",
      "祝日"
    ],
    "openDaysNote": "なし"
  },
  {
    "id": "570109991",
    "name": "本道の街ホームヘルパーステーション",
    "kana": "ホンドウノマチホームヘルパーステーション",
    "address": "秋田県秋田市柳田字川崎138番地",
    "lat": 39.7318100064327,
    "lng": 140.157999811575,
    "tel": "018-884-7744",
    "url": "http://www.kouwakai-akita.org/",
    "pref": "秋田県",
    "city": "秋田市",
    "category": "home_help",
    "serviceType": "訪問介護",
    "capacity": 0,
    "openDays": [
      "平日",
      "土曜日",
      "日曜日",
      "祝日"
    ],
    "openDaysNote": ""
  },
  {
    "id": "570115279",
    "name": "悠悠ケアサービス",
    "kana": "ユウユウケアサービス",
    "address": "秋田県秋田市寺内油田３丁目１２－６",
    "lat": 39.7320728,
    "lng": 140.0874398,
    "tel": "018-880-5503",
    "url": "",
    "pref": "秋田県",
    "city": "秋田市",
    "category": "home_help",
    "serviceType": "訪問介護",
    "capacity": 0,
    "openDays": [
      "平日",
      "土曜日"
    ],
    "openDaysNote": "利用者の希望と必要性に応じて、早朝（6時～8時）・夜間（6時～10時）対応可。"
  },
  {
    "id": "570107615",
    "name": "有限会社　ポプラ・ケアサービス",
    "kana": "ユウゲンカイシャ　ポプラケアサービス",
    "address": "秋田県秋田市保戸野桜町１５－１０",
    "lat": 39.7330959,
    "lng": 140.1188064,
    "tel": "018-896-5092",
    "url": "",
    "pref": "秋田県",
    "city": "秋田市",
    "category": "home_help",
    "serviceType": "訪問介護",
    "capacity": 5,
    "openDays": [
      "平日",
      "土曜日",
      "日曜日",
      "祝日"
    ],
    "openDaysNote": "サービス時間は、ご要望に合わせます。"
  },
  {
    "id": "572103182",
    "name": "上小阿仁村社会福祉協議会指定訪問介護事業所",
    "kana": "カミコアニムラシャカイフクシキョウギカイシテイホウモンカイゴジギョウショ",
    "address": "秋田県北秋田郡上小阿仁村小沢田字向川原80",
    "lat": 40.0647495,
    "lng": 140.2966247,
    "tel": "0186-77-3057",
    "url": "https://www.kamikoani-shakyo.com",
    "pref": "秋田県",
    "city": "上小阿仁村",
    "category": "home_help",
    "serviceType": "訪問介護",
    "capacity": null,
    "openDays": [
      "平日",
      "土曜日",
      "日曜日",
      "祝日"
    ],
    "openDaysNote": "天災その他やむを得ず業務を遂行できない日を除き、月曜日から日曜日までの毎日とする。"
  },
  {
    "id": "572607430",
    "name": "たんぽぽ",
    "kana": "タンポポ",
    "address": "秋田県仙北市角館町薗田別当村211",
    "lat": 39.5876426,
    "lng": 140.5893471,
    "tel": "0187-52-2540",
    "url": "",
    "pref": "秋田県",
    "city": "仙北市",
    "category": "home_help",
    "serviceType": "訪問介護",
    "capacity": 0,
    "openDays": [
      "平日",
      "土曜日",
      "日曜日",
      "祝日"
    ],
    "openDaysNote": ""
  },
  {
    "id": "571226505",
    "name": "ニチイケアセンター角館",
    "kana": "ニチイケアセンターカクノダテ",
    "address": "秋田県仙北市角館町上菅沢１７５番地2上菅沢テナント3号室 上菅沢テナント3号室",
    "lat": 39.5945444,
    "lng": 140.5768853,
    "tel": "0187-42-8623",
    "url": "https://www.nichiigakkan.co.jp",
    "pref": "秋田県",
    "city": "仙北市",
    "category": "home_help",
    "serviceType": "訪問介護",
    "capacity": 0,
    "openDays": [
      "平日",
      "土曜日",
      "日曜日",
      "祝日"
    ],
    "openDaysNote": "深夜帯サービス応相談にて。22：00～翌6：00"
  },
  {
    "id": "571215433",
    "name": "ほのか訪問介護事業所",
    "kana": "ホノカホウモンカイゴジギョウショ",
    "address": "秋田県仙北市角館町下菅沢212プランタンハイツ21　106号室 プランタンハイツ21　106号室",
    "lat": 39.5855291545152,
    "lng": 140.572196225053,
    "tel": "0187-49-6153",
    "url": "",
    "pref": "秋田県",
    "city": "仙北市",
    "category": "home_help",
    "serviceType": "訪問介護",
    "capacity": 0,
    "openDays": [
      "平日",
      "土曜日",
      "日曜日",
      "祝日"
    ],
    "openDaysNote": ""
  },
  {
    "id": "572610731",
    "name": "角館観光タクシー株式会社",
    "kana": "カクノダテカンコウタクシーカブシキガイシャ",
    "address": "秋田県仙北市角館町横町４２－１",
    "lat": 39.5955156,
    "lng": 140.5617827,
    "tel": "0187-54-1144",
    "url": "http://kakunodate-taxi.com",
    "pref": "秋田県",
    "city": "仙北市",
    "category": "home_help",
    "serviceType": "訪問介護",
    "capacity": 0,
    "openDays": [
      "平日"
    ],
    "openDaysNote": "但し、事前にご連絡いただいた場合は対応を検討させていただきます。"
  },
  {
    "id": "572603223",
    "name": "県南訪問介護事業所",
    "kana": "ケンナンホウモンカイゴジギョウショ",
    "address": "秋田県仙北市角館町上菅沢２－１８",
    "lat": 39.5924138,
    "lng": 140.5772925,
    "tel": "0187-52-1280",
    "url": "http://www.kennan-cs.co.jp",
    "pref": "秋田県",
    "city": "仙北市",
    "category": "home_help",
    "serviceType": "訪問介護",
    "capacity": 0,
    "openDays": [
      "平日",
      "土曜日",
      "日曜日",
      "祝日"
    ],
    "openDaysNote": ""
  },
  {
    "id": "571212976",
    "name": "仙北市社会福祉協議会ヘルパーステーション",
    "kana": "センボクシシャカイフクシキョウギカイヘルパーステーション",
    "address": "仙北市角館町小勝田間野54番地5",
    "lat": 39.6008563,
    "lng": 140.5541193,
    "tel": "0187-54-2493",
    "url": "http://senboku-syakyo.jp/",
    "pref": "秋田県",
    "city": "仙北市",
    "category": "home_help",
    "serviceType": "訪問介護",
    "capacity": 0,
    "openDays": [
      "平日",
      "土曜日",
      "祝日"
    ],
    "openDaysNote": "上記の営業日、営業時間外でも必要に応じサービスを提供します。"
  },
  {
    "id": "572606689",
    "name": "平和ケアセンター",
    "kana": "ヘイワケアセンター",
    "address": "秋田県仙北市角館町上新町25-5",
    "lat": 39.5948797,
    "lng": 140.5654629,
    "tel": "0187-54-3156",
    "url": "",
    "pref": "秋田県",
    "city": "仙北市",
    "category": "home_help",
    "serviceType": "訪問介護",
    "capacity": 0,
    "openDays": [
      "平日",
      "土曜日",
      "祝日"
    ],
    "openDaysNote": "利用者様に特別な事情がある場合は、定休日等であってもできるだけ対応いたします。事前予約必要。"
  },
  {
    "id": "572624724",
    "name": "訪問介護くるみ",
    "kana": "ホウモンカイゴクルミ",
    "address": "秋田県仙北市角館町薗田南花園46",
    "lat": 39.5777575586647,
    "lng": 140.582061901791,
    "tel": "0187-49-8086",
    "url": "http://ne-united.co.jp/",
    "pref": "秋田県",
    "city": "仙北市",
    "category": "home_help",
    "serviceType": "訪問介護",
    "capacity": 0,
    "openDays": [
      "平日",
      "土曜日",
      "日曜日",
      "祝日"
    ],
    "openDaysNote": "電話などにより常時連絡が可能な体制をとり、ご要望・ご依頼ありましたら必要に応じて対応させていただきます。"
  },
  {
    "id": "572106870",
    "name": "ＪＡあきた北ホームヘルプサービス",
    "kana": "ジェイエイアキタキタホームヘルプサービス",
    "address": "大館市川口字隼人岱１０８－４",
    "lat": 40.2771411,
    "lng": 140.49833,
    "tel": "0186-57-8670",
    "url": "https://ja-akitakita.jp/farming-and-life_homehelp/",
    "pref": "秋田県",
    "city": "大館市",
    "category": "home_help",
    "serviceType": "訪問介護",
    "capacity": 0,
    "openDays": [
      "平日",
      "土曜日",
      "日曜日",
      "祝日"
    ],
    "openDaysNote": "利用する方の要望や緊急時の場合はこの限りではありません。"
  },
  {
    "id": "570422220",
    "name": "ケアセンター　こころ",
    "kana": "ケアセンターココロ",
    "address": "秋田県大館市幸町14-15",
    "lat": 40.2798369490925,
    "lng": 140.577436268964,
    "tel": "0186-43-6545",
    "url": "http://see-smile.com",
    "pref": "秋田県",
    "city": "大館市",
    "category": "home_help",
    "serviceType": "訪問介護",
    "capacity": 0,
    "openDays": [
      "平日"
    ],
    "openDaysNote": "居宅サービス計画により、休業日および時間外であってもサービス提供する場合があります。"
  },
  {
    "id": "570408419",
    "name": "すずらん訪問介護サービス",
    "kana": "スズランホウモンカイゴサービス",
    "address": "秋田県大館市豊町9-33秋田測機ビル2Ｆ 秋田測機ビル2Ｆ",
    "lat": 40.2744043,
    "lng": 140.552178,
    "tel": "0186-43-5502",
    "url": "http://kaigo-mari.com",
    "pref": "秋田県",
    "city": "大館市",
    "category": "home_help",
    "serviceType": "訪問介護",
    "capacity": 0,
    "openDays": [
      "平日",
      "土曜日",
      "日曜日",
      "祝日"
    ],
    "openDaysNote": "365日24時間の対応に努めております。夜間・早朝及び深夜時間帯のサービス利用につきましては、事前にご相談下さい。"
  },
  {
    "id": "570410498",
    "name": "ニチイケアセンター桂城",
    "kana": "ニチイケアセンター　ケイジョウ",
    "address": "秋田県大館市字水門前５番2",
    "lat": 40.2766459,
    "lng": 140.5573691,
    "tel": "0186-44-5531",
    "url": "http://www.nichiigakkan.co.jp",
    "pref": "秋田県",
    "city": "大館市",
    "category": "home_help",
    "serviceType": "訪問介護",
    "capacity": 0,
    "openDays": [
      "平日",
      "土曜日",
      "日曜日",
      "祝日"
    ],
    "openDaysNote": "サービス計画により営業時間外であってもサービスを提供する場合があります。"
  },
  {
    "id": "570401554",
    "name": "ニチイケアセンター大館",
    "kana": "ニチイケアセンターオオダテ",
    "address": "秋田県大館市釈迦内字中台25-9",
    "lat": 40.3076536,
    "lng": 140.5699051,
    "tel": "0186-45-2251",
    "url": "http://www.nichiigakkan.co.jp",
    "pref": "秋田県",
    "city": "大館市",
    "category": "home_help",
    "serviceType": "訪問介護",
    "capacity": 10,
    "openDays": [
      "平日",
      "土曜日",
      "日曜日",
      "祝日"
    ],
    "openDaysNote": ""
  },
  {
    "id": "570426510",
    "name": "ニチイケアセンター大館中央",
    "kana": "ニチイケアセンターオオダテチュウオウ",
    "address": "秋田県大館市桂城1秋田大館ビル4階 秋田大館ビル4階",
    "lat": 40.2713466,
    "lng": 140.562518,
    "tel": "0186-44-4123",
    "url": "https://www.nichiigakkan.co.jp/",
    "pref": "秋田県",
    "city": "大館市",
    "category": "home_help",
    "serviceType": "訪問介護",
    "capacity": 0,
    "openDays": [
      "平日"
    ],
    "openDaysNote": "サービス計画により、営業時間外であってもサービスを提供する場合があります。"
  },
  {
    "id": "570422402",
    "name": "ヘルパーステーションくるみ",
    "kana": "ヘルパーステーションクルミ",
    "address": "秋田県大館市池内字池内105",
    "lat": 40.2512104363407,
    "lng": 140.568296024273,
    "tel": "0186-57-8919",
    "url": "http://ne-united.co.jp/",
    "pref": "秋田県",
    "city": "大館市",
    "category": "home_help",
    "serviceType": "訪問介護",
    "capacity": 30,
    "openDays": [
      "平日",
      "土曜日",
      "日曜日",
      "祝日"
    ],
    "openDaysNote": ""
  },
  {
    "id": "570424564",
    "name": "ヘルパーほのぼの",
    "kana": "ヘルパーホノボノ",
    "address": "秋田県大館市東台６丁目７−５４",
    "lat": 40.2741394934339,
    "lng": 140.581773551746,
    "tel": "0186-43-3737",
    "url": "",
    "pref": "秋田県",
    "city": "大館市",
    "category": "home_help",
    "serviceType": "訪問介護",
    "capacity": 18,
    "openDays": [
      "平日",
      "土曜日",
      "日曜日",
      "祝日"
    ],
    "openDaysNote": ""
  },
  {
    "id": "570427047",
    "name": "株式会社ホームケアあんず",
    "kana": "カブシキガイシャホームケアアンズ",
    "address": "秋田県大館市御成町二丁目５番２号",
    "lat": 40.2854823,
    "lng": 140.5594922,
    "tel": "0186-59-6371",
    "url": "",
    "pref": "秋田県",
    "city": "大館市",
    "category": "home_help",
    "serviceType": "訪問介護",
    "capacity": 0,
    "openDays": [
      "平日",
      "土曜日",
      "日曜日",
      "祝日"
    ],
    "openDaysNote": ""
  },
  {
    "id": "570407346",
    "name": "株式会社虹の街　大館営業所",
    "kana": "カブシキカイシャニジノマチ　オオダテエイギョウショ",
    "address": "秋田県大館市清水三丁目1番地2号",
    "lat": 40.2796621,
    "lng": 140.5542247,
    "tel": "0186-44-5661",
    "url": "https://www.saint-care.com/niji/",
    "pref": "秋田県",
    "city": "大館市",
    "category": "home_help",
    "serviceType": "訪問介護",
    "capacity": 0,
    "openDays": [
      "平日",
      "土曜日",
      "日曜日",
      "祝日"
    ],
    "openDaysNote": "無し。"
  },
  {
    "id": "570403972",
    "name": "神山荘ヘルパーステーション",
    "kana": "カミヤマソウヘルパーステーション",
    "address": "秋田県大館市花岡町字神山６番地２",
    "lat": 40.3230236,
    "lng": 140.555556,
    "tel": "0186-46-2210",
    "url": "http://www.fukuokf.jp/",
    "pref": "秋田県",
    "city": "大館市",
    "category": "home_help",
    "serviceType": "訪問介護",
    "capacity": 0,
    "openDays": [
      "平日",
      "土曜日",
      "日曜日",
      "祝日"
    ],
    "openDaysNote": "上記の営業時間以外のサービス等については、その都度相談に応じます。"
  },
  {
    "id": "570427021",
    "name": "成寿苑指定訪問介護事業所",
    "kana": "セイジュエンシテイホウモンカイゴジギョウショ",
    "address": "秋田県大館市釈迦内字狼穴79番地",
    "lat": 40.3120815986346,
    "lng": 140.572787087697,
    "tel": "0186-57-8781",
    "url": "https://seijuen.or.jp/",
    "pref": "秋田県",
    "city": "大館市",
    "category": "home_help",
    "serviceType": "訪問介護",
    "capacity": 40,
    "openDays": [
      "平日",
      "土曜日",
      "日曜日",
      "祝日"
    ],
    "openDaysNote": "営業日：12月30日～1月3日を除く毎日（改行）※居宅サービス提供により、休業日及び営業時間外であってもサービスを提供する場合があります。"
  },
  {
    "id": "570405753",
    "name": "大館市社会福祉協議会　指定訪問介護事業所",
    "kana": "オオダテシシャカイフクシキョウギカイ　シテイホウモンカイゴジギョウショ",
    "address": "秋田県大館市池内字大出１３５番地",
    "lat": 40.2434281,
    "lng": 140.5730828,
    "tel": "0186-42-8102",
    "url": "http://www.oodate-shakyo.or.jp/",
    "pref": "秋田県",
    "city": "大館市",
    "category": "home_help",
    "serviceType": "訪問介護",
    "capacity": 0,
    "openDays": [
      "平日",
      "土曜日",
      "日曜日",
      "祝日"
    ],
    "openDaysNote": "なし"
  },
  {
    "id": "570404376",
    "name": "大館市社会福祉事業団　ホームヘルパーステーション",
    "kana": "オオダテシシャカイフクシジギョウダン　ホームヘルパーステーション",
    "address": "秋田県大館市十二所字大水口4番地５",
    "lat": 40.2158174,
    "lng": 140.6582148,
    "tel": "0186-47-7218",
    "url": "http://www.odate-sfj.jp/",
    "pref": "秋田県",
    "city": "大館市",
    "category": "home_help",
    "serviceType": "訪問介護",
    "capacity": 0,
    "openDays": [
      "平日",
      "土曜日",
      "日曜日",
      "祝日"
    ],
    "openDaysNote": "ご利用者様一人一人の状況に合わせ、柔軟なサービスを提供できるよう努めています。"
  },
  {
    "id": "570422246",
    "name": "大館南ヘルパーステーション",
    "kana": "オオダテミナミヘルパーステーション",
    "address": "大館市下川原字向野17番地4",
    "lat": 40.2443063179861,
    "lng": 140.525395550263,
    "tel": "0186-57-8493",
    "url": "http://www.fukuokf.jp",
    "pref": "秋田県",
    "city": "大館市",
    "category": "home_help",
    "serviceType": "訪問介護",
    "capacity": 0,
    "openDays": [
      "平日",
      "土曜日",
      "日曜日",
      "祝日"
    ],
    "openDaysNote": "上記の営業時間以外のサービス等については、その都度相談に応じます。"
  },
  {
    "id": "572103349",
    "name": "長慶荘ヘルパーステーション",
    "kana": "チョウケイソウヘルパーステーション",
    "address": "秋田県大館市岩瀬字上岩瀬上野３５番地",
    "lat": 40.2929621429974,
    "lng": 140.454543676474,
    "tel": "0186-54-6911",
    "url": "http://www.fukuokf.jp",
    "pref": "秋田県",
    "city": "大館市",
    "category": "home_help",
    "serviceType": "訪問介護",
    "capacity": 0,
    "openDays": [
      "平日",
      "土曜日",
      "日曜日",
      "祝日"
    ],
    "openDaysNote": "契約者のニーズに基づきサービス提供の時間帯を拡大することが可能"
  },
  {
    "id": "570426155",
    "name": "冨士介護タクシー",
    "kana": "フジカイゴタクシー",
    "address": "秋田県大館市字大町12",
    "lat": 40.2712771,
    "lng": 140.5591915,
    "tel": "0186-42-1002",
    "url": "",
    "pref": "秋田県",
    "city": "大館市",
    "category": "home_help",
    "serviceType": "訪問介護",
    "capacity": 0,
    "openDays": [
      "平日"
    ],
    "openDaysNote": "予約制"
  },
  {
    "id": "570426999",
    "name": "訪問介護　花束",
    "kana": "ホウモンカイゴハナタバ",
    "address": "秋田県大館市御成町一丁目12番6号杉沢ビル2F 杉沢ビル2F",
    "lat": 40.2869658,
    "lng": 140.5589486,
    "tel": "0186-59-7482",
    "url": "",
    "pref": "秋田県",
    "city": "大館市",
    "category": "home_help",
    "serviceType": "訪問介護",
    "capacity": 0,
    "openDays": [
      "平日"
    ],
    "openDaysNote": ""
  },
  {
    "id": "570426569",
    "name": "訪問介護くらす",
    "kana": "ホウモンカイゴクラス",
    "address": "秋田県大館市字長倉14番地の4",
    "lat": 40.2723149603242,
    "lng": 140.559071362454,
    "tel": "0186-57-8714",
    "url": "http://npo-kurasu.com/company.html",
    "pref": "秋田県",
    "city": "大館市",
    "category": "home_help",
    "serviceType": "訪問介護",
    "capacity": null,
    "openDays": [
      "平日",
      "土曜日",
      "日曜日",
      "祝日"
    ],
    "openDaysNote": ""
  },
  {
    "id": "570423467",
    "name": "訪問介護事業所　ヘルパーＣＯＣＯ",
    "kana": "ホウモンカイゴジギョウショ　ヘルパーココ",
    "address": "秋田県大館市釈迦内字山道上76-83ＣＯＣＯの家Ⅰ ＣＯＣＯの家Ⅰ",
    "lat": 40.2971284671328,
    "lng": 140.579029385945,
    "tel": "0186-59-6135",
    "url": "",
    "pref": "秋田県",
    "city": "大館市",
    "category": "home_help",
    "serviceType": "訪問介護",
    "capacity": 0,
    "openDays": [
      "平日",
      "土曜日",
      "日曜日",
      "祝日"
    ],
    "openDaysNote": ""
  },
  {
    "id": "572601425",
    "name": "ＪＡ秋田おばこホームヘルプサービス",
    "kana": "ジェイエイアキタオバコホームヘルプサービス",
    "address": "秋田県大仙市大曲通町8-68",
    "lat": 39.4650985506704,
    "lng": 140.477097843964,
    "tel": "0187-86-0898",
    "url": "http://ja-obako.or.jp",
    "pref": "秋田県",
    "city": "大仙市",
    "category": "home_help",
    "serviceType": "訪問介護",
    "capacity": 0,
    "openDays": [
      "平日",
      "土曜日",
      "日曜日",
      "祝日"
    ],
    "openDaysNote": "ご相談に応じます。"
  },
  {
    "id": "570816561",
    "name": "あいぱるケアセンター",
    "kana": "アイパルケアセンター",
    "address": "秋田県大仙市大曲福住町５－２３",
    "lat": 39.4650866740377,
    "lng": 140.474739416602,
    "tel": "0187-73-5678",
    "url": "https://i-pal.jp",
    "pref": "秋田県",
    "city": "大仙市",
    "category": "home_help",
    "serviceType": "訪問介護",
    "capacity": 0,
    "openDays": [
      "平日",
      "土曜日",
      "日曜日",
      "祝日"
    ],
    "openDaysNote": "利用者及び家族の希望により、営業時間外でもサービスを提供することができる。"
  },
  {
    "id": "570826933",
    "name": "ウィステリア訪問介護ステーション",
    "kana": "ウィステリアホウモンカイゴステーション",
    "address": "秋田県大仙市福田町２２番地4タプロコートⅠ１－２号室 タプロコートⅠ１－２号室",
    "lat": 39.4685346,
    "lng": 140.4814825,
    "tel": "0187-88-8663",
    "url": "",
    "pref": "秋田県",
    "city": "大仙市",
    "category": "home_help",
    "serviceType": "訪問介護",
    "capacity": 0,
    "openDays": [
      "平日",
      "土曜日",
      "日曜日",
      "祝日"
    ],
    "openDaysNote": "無し"
  },
  {
    "id": "570825729",
    "name": "ケアサポート咲いた",
    "kana": "ケアサポートサイタ",
    "address": "秋田県大仙市佐野町17-15アバニティ佐野11号室 アバニティ佐野11号室",
    "lat": 39.4696391,
    "lng": 140.4719258,
    "tel": "0187-73-6016",
    "url": "",
    "pref": "秋田県",
    "city": "大仙市",
    "category": "home_help",
    "serviceType": "訪問介護",
    "capacity": null,
    "openDays": [
      "平日",
      "土曜日",
      "日曜日",
      "祝日"
    ],
    "openDaysNote": "時間外はご相談ください。"
  },
  {
    "id": "570826859",
    "name": "こまち訪問介護事業所",
    "kana": "コマチホウモンカイゴジギョウショ",
    "address": "秋田県大仙市戸地谷字川前316番地17",
    "lat": 39.4663597,
    "lng": 140.4946981,
    "tel": "0187(88)8885",
    "url": "http://hp.kaipoke.biz/k8h/",
    "pref": "秋田県",
    "city": "大仙市",
    "category": "home_help",
    "serviceType": "訪問介護",
    "capacity": 30,
    "openDays": [
      "平日",
      "土曜日",
      "日曜日",
      "祝日"
    ],
    "openDaysNote": "（朝）午前6時～8時・（夕）午後18時～22時・（深夜）午後22時～翌朝午前6時までは加算対象時間帯となります。"
  },
  {
    "id": "570800433",
    "name": "ニチイケアセンター大曲",
    "kana": "ニチイケアセンターオオマガリ",
    "address": "秋田県大仙市四ッ屋字下古道５５－１",
    "lat": 39.4917476,
    "lng": 140.4977214,
    "tel": "0187-66-8051",
    "url": "http://www.nichiigakkan.co.jp",
    "pref": "秋田県",
    "city": "大仙市",
    "category": "home_help",
    "serviceType": "訪問介護",
    "capacity": 0,
    "openDays": [
      "平日",
      "土曜日",
      "日曜日",
      "祝日"
    ],
    "openDaysNote": "深夜帯のサービス応相談にて。２２：００～翌６：００"
  },
  {
    "id": "570820704",
    "name": "ハッピーライフ訪問介護事業所",
    "kana": "ハッピーライフホウモンカイゴジギョウショ",
    "address": "秋田県大仙市大曲日の出町二丁目５番６号",
    "lat": 39.4491469,
    "lng": 140.4803671,
    "tel": "0187-88-8593",
    "url": "",
    "pref": "秋田県",
    "city": "大仙市",
    "category": "home_help",
    "serviceType": "訪問介護",
    "capacity": 0,
    "openDays": [
      "平日",
      "土曜日",
      "日曜日",
      "祝日"
    ],
    "openDaysNote": "同上"
  },
  {
    "id": "570824458",
    "name": "愛・会いヘルパーステーション",
    "kana": "アイ・アイヘルパーステーション",
    "address": "秋田県大仙市大曲田町20番28号",
    "lat": 39.4501745678247,
    "lng": 140.483688881023,
    "tel": "0187-73-6500",
    "url": "https://www.yotsuba.care/",
    "pref": "秋田県",
    "city": "大仙市",
    "category": "home_help",
    "serviceType": "訪問介護",
    "capacity": 0,
    "openDays": [
      "平日",
      "土曜日",
      "日曜日",
      "祝日"
    ],
    "openDaysNote": ""
  },
  {
    "id": "570801084",
    "name": "株式会社虹の街大曲営業所",
    "kana": "カブシキガイシャ　ニジノマチ　オオマガリエイギョウショ",
    "address": "秋田県大仙市戸蒔字谷地中14-1",
    "lat": 39.4501192073848,
    "lng": 140.505722438108,
    "tel": "0187-86-3015",
    "url": "http://www.saint-care.com/niji/",
    "pref": "秋田県",
    "city": "大仙市",
    "category": "home_help",
    "serviceType": "訪問介護",
    "capacity": 0,
    "openDays": [
      "平日",
      "土曜日",
      "日曜日",
      "祝日"
    ],
    "openDaysNote": ""
  },
  {
    "id": "570818161",
    "name": "植える花夢あかつきヘルパーステーション",
    "kana": "ウエルカムアカツキヘルパーステーション",
    "address": "秋田県大仙市大曲飯田町５番３号",
    "lat": 39.4423204011424,
    "lng": 140.476837272862,
    "tel": "0187-62-4165",
    "url": "http://welcome.p-kit.com/",
    "pref": "秋田県",
    "city": "大仙市",
    "category": "home_help",
    "serviceType": "訪問介護",
    "capacity": 40,
    "openDays": [
      "平日",
      "土曜日",
      "日曜日",
      "祝日"
    ],
    "openDaysNote": ""
  },
  {
    "id": "570807685",
    "name": "大曲タクシー指定訪問介護事業所",
    "kana": "オオマガリタクシーシテイホウモンカイゴジギョウショ",
    "address": "秋田県大仙市大曲通町8-26",
    "lat": 39.4647509,
    "lng": 140.4779725,
    "tel": "0187-86-0087",
    "url": "",
    "pref": "秋田県",
    "city": "大仙市",
    "category": "home_help",
    "serviceType": "訪問介護",
    "capacity": 150,
    "openDays": [
      "平日",
      "土曜日",
      "日曜日",
      "祝日"
    ],
    "openDaysNote": "年中無休、早朝・夜間・深夜加算あり"
  },
  {
    "id": "570803213",
    "name": "大曲ホームヘルパーステーション",
    "kana": "オオマガリホームヘルパーステーション",
    "address": "秋田県大仙市大曲上栄町４－３",
    "lat": 39.4513828,
    "lng": 140.4758453,
    "tel": "0187-62-8577",
    "url": "https://www.meiwakai.or.jp/kaigo",
    "pref": "秋田県",
    "city": "大仙市",
    "category": "home_help",
    "serviceType": "訪問介護",
    "capacity": 0,
    "openDays": [
      "平日"
    ],
    "openDaysNote": "対応時間、及び定休日の訪問については相談に応じます。（改行）毎年８月第４土曜日：大曲花火大会開催日は交通渋滞が著しいため対応しておりません"
  },
  {
    "id": "570811893",
    "name": "大仙市社会福祉協議会指定訪問介護事業所",
    "kana": "ダイセンシシャカイフクシキョウギカイシテイホウモンカイゴジギョウショ",
    "address": "秋田県大仙市大曲通町1番14号大仙市健康福祉会館３階 大仙市健康福祉会館３階",
    "lat": 39.464205266377,
    "lng": 140.477629456754,
    "tel": "0187-63-8911",
    "url": "http://www.daisen-syakyo.net/",
    "pref": "秋田県",
    "city": "大仙市",
    "category": "home_help",
    "serviceType": "訪問介護",
    "capacity": null,
    "openDays": [
      "平日",
      "土曜日",
      "日曜日",
      "祝日"
    ],
    "openDaysNote": "事業所の営業時間以外のサービス利用はご要望に応じて訪問いたしますので、ご相談ください。"
  },
  {
    "id": "570826594",
    "name": "訪問介護事業所おおまがり",
    "kana": "ホウモンカイゴジギョウショオオマガリ",
    "address": "秋田県大仙市大曲船場町1丁目13番10-2号ケイエムスリーパクトB103 ケイエムスリーパクトB103",
    "lat": 39.4605043,
    "lng": 140.4692367,
    "tel": "0187-66-0501",
    "url": "",
    "pref": "秋田県",
    "city": "大仙市",
    "category": "home_help",
    "serviceType": "訪問介護",
    "capacity": 0,
    "openDays": [
      "平日",
      "土曜日",
      "日曜日",
      "祝日"
    ],
    "openDaysNote": ""
  },
  {
    "id": "570824748",
    "name": "訪問介護事業所花zoku",
    "kana": "ホウモンカイゴジギョウショカゾク",
    "address": "秋田県大仙市花館上町15番45-3号",
    "lat": 39.4722693,
    "lng": 140.4711119,
    "tel": "0187-63-5171",
    "url": "",
    "pref": "秋田県",
    "city": "大仙市",
    "category": "home_help",
    "serviceType": "訪問介護",
    "capacity": 1,
    "openDays": [
      "平日",
      "土曜日",
      "日曜日",
      "祝日"
    ],
    "openDaysNote": ""
  },
  {
    "id": "570826727",
    "name": "訪問介護事業所大曲ひまわり",
    "kana": "ホウモンカイゴジギョウショオオマガリヒマワリ",
    "address": "秋田県大仙市大曲西根字鳥居215番地9-5",
    "lat": 39.4558934,
    "lng": 140.4467137,
    "tel": "0187-88-8931",
    "url": "http://omagarisumire.com",
    "pref": "秋田県",
    "city": "大仙市",
    "category": "home_help",
    "serviceType": "訪問介護",
    "capacity": 0,
    "openDays": [
      "平日",
      "土曜日",
      "日曜日",
      "祝日"
    ],
    "openDaysNote": "24時間サービス提供しております。"
  },
  {
    "id": "570626390",
    "name": "げんきタクシー訪問介護事業所",
    "kana": "ゲンキタクシーホウモンカイゴジギョウショ",
    "address": "秋田県男鹿市船越字那場掛46-26",
    "lat": 39.9053644,
    "lng": 139.949078,
    "tel": "0185-35-4192",
    "url": "https://r.goope.jp/gennkitakusii",
    "pref": "秋田県",
    "city": "男鹿市",
    "category": "home_help",
    "serviceType": "訪問介護",
    "capacity": 0,
    "openDays": [
      "平日"
    ],
    "openDaysNote": "土曜日、日曜日、祝日休みとなっております。"
  },
  {
    "id": "570625475",
    "name": "こばとケアサービス",
    "kana": "コバトケアサービス",
    "address": "秋田県男鹿市船越字前野12番地1",
    "lat": 39.9172088,
    "lng": 139.9309256,
    "tel": "０１８５-２７-８０３１",
    "url": "",
    "pref": "秋田県",
    "city": "男鹿市",
    "category": "home_help",
    "serviceType": "訪問介護",
    "capacity": 0,
    "openDays": [
      "平日",
      "土曜日"
    ],
    "openDaysNote": "訪問介護サービスは土曜日も対応しております。"
  },
  {
    "id": "570626473",
    "name": "ヘルパーステーションみさき",
    "kana": "ヘルパーステーションミサキ",
    "address": "秋田県男鹿市払戸字横長根89-2",
    "lat": 39.9159311,
    "lng": 139.930767,
    "tel": "0185-46-3526",
    "url": "",
    "pref": "秋田県",
    "city": "男鹿市",
    "category": "home_help",
    "serviceType": "訪問介護",
    "capacity": 120,
    "openDays": [
      "平日",
      "土曜日",
      "日曜日",
      "祝日"
    ],
    "openDaysNote": ""
  },
  {
    "id": "570626499",
    "name": "訪問介護事業所　どんぐり",
    "kana": "ホウモンカイゴジギョウショ　ドングリ",
    "address": "秋田県男鹿市脇本脇本字中野３２番地１１",
    "lat": 39.9108748,
    "lng": 139.9160879,
    "tel": "0185-47-6206",
    "url": "https://wakimoto.kyoukai.jp",
    "pref": "秋田県",
    "city": "男鹿市",
    "category": "home_help",
    "serviceType": "訪問介護",
    "capacity": 40,
    "openDays": [
      "平日"
    ],
    "openDaysNote": ""
  },
  {
    "id": "572817336",
    "name": "ケアセンター　風鈴",
    "kana": "ケアセンター　フウリン",
    "address": "秋田県雄勝郡東成瀬村田子内字長瀞51番",
    "lat": 39.1795083,
    "lng": 140.6638463,
    "tel": "0182-47-3522",
    "url": "http://www.higashinaruse.jp",
    "pref": "秋田県",
    "city": "東成瀬村",
    "category": "home_help",
    "serviceType": "訪問介護",
    "capacity": 15,
    "openDays": [
      "平日",
      "土曜日",
      "日曜日",
      "祝日"
    ],
    "openDaysNote": ""
  },
  {
    "id": "570710293",
    "name": "JAこまち訪問介護サービス　夢こまち",
    "kana": "ジェイエイコマチホウモンカイゴサービス　ユメコマチ",
    "address": "秋田県湯沢市倉内字三ツ屋６番１ＪＡこまち福祉センター ＪＡこまち福祉センター",
    "lat": 39.1851646111019,
    "lng": 140.464031192624,
    "tel": "0183-78-2020",
    "url": "http://ja-komachi.jp/",
    "pref": "秋田県",
    "city": "湯沢市",
    "category": "home_help",
    "serviceType": "訪問介護",
    "capacity": 0,
    "openDays": [
      "平日",
      "土曜日",
      "日曜日",
      "祝日"
    ],
    "openDaysNote": "利用者から要望があった場合や緊急の場合はこの限りではありません。電話等により24時間連絡可能な体制をとっています。"
  },
  {
    "id": "570700039",
    "name": "アムールケアサービス",
    "kana": "アムールケアサービス",
    "address": "秋田県湯沢市岩崎字千年86",
    "lat": 39.2043156,
    "lng": 140.5115948,
    "tel": "0183-56-6834",
    "url": "",
    "pref": "秋田県",
    "city": "湯沢市",
    "category": "home_help",
    "serviceType": "訪問介護",
    "capacity": 0,
    "openDays": [
      "平日"
    ],
    "openDaysNote": "営業時間外もサービス提供を実施することが可能です"
  },
  {
    "id": "570712273",
    "name": "ぱあとなあ　指定訪問介護事業所",
    "kana": "パアトナア　シテイホウモンカイゴジギョウショ",
    "address": "秋田県湯沢市字両神１５番地１",
    "lat": 39.1696835,
    "lng": 140.4807613,
    "tel": "0183-72-8107",
    "url": "http://ogachi-nagomi.net/",
    "pref": "秋田県",
    "city": "湯沢市",
    "category": "home_help",
    "serviceType": "訪問介護",
    "capacity": 0,
    "openDays": [
      "平日",
      "土曜日",
      "日曜日",
      "祝日"
    ],
    "openDaysNote": "電話等による24時間常時連絡可能"
  },
  {
    "id": "570726489",
    "name": "ヘルパーステーション　紡ぐ",
    "kana": "ヘルパーステーション　ツムグ",
    "address": "秋田県湯沢市若葉町10番3号",
    "lat": 39.1454122,
    "lng": 140.4865751,
    "tel": "0183-56-7736",
    "url": "",
    "pref": "秋田県",
    "city": "湯沢市",
    "category": "home_help",
    "serviceType": "訪問介護",
    "capacity": 0,
    "openDays": [
      "平日"
    ],
    "openDaysNote": ""
  },
  {
    "id": "570724955",
    "name": "ヘルパーステーションこの花",
    "kana": "ヘルパーステーションコノハナ",
    "address": "秋田県湯沢市川連町字久保7番地2",
    "lat": 39.1500244,
    "lng": 140.5604945,
    "tel": "0183-55-8906",
    "url": "http://konohana2015.com",
    "pref": "秋田県",
    "city": "湯沢市",
    "category": "home_help",
    "serviceType": "訪問介護",
    "capacity": 0,
    "openDays": [
      "平日",
      "土曜日",
      "日曜日",
      "祝日"
    ],
    "openDaysNote": ""
  },
  {
    "id": "572810547",
    "name": "みなせ指定訪問介護事業所",
    "kana": "ミナセシテイホウモンカイゴジギョウショ",
    "address": "秋田県湯沢市皆瀬字小野１８８－１",
    "lat": 39.074401,
    "lng": 140.5895706,
    "tel": "0183-58-4004",
    "url": "http://www.shinetopia.com",
    "pref": "秋田県",
    "city": "湯沢市",
    "category": "home_help",
    "serviceType": "訪問介護",
    "capacity": 0,
    "openDays": [
      "平日",
      "土曜日",
      "日曜日",
      "祝日"
    ],
    "openDaysNote": ""
  },
  {
    "id": "572810315",
    "name": "社会福祉法人いなかわ福祉会指定訪問介護事業所",
    "kana": "シャカイフクシホウジンイナカワフクシカイシテイホウモンカイゴジギョウショ",
    "address": "秋田県湯沢市駒形町字八面狐塚５８番地",
    "lat": 39.1722855,
    "lng": 140.5543732,
    "tel": "0183-78-5305",
    "url": "http://www.inakawa-fukushi.or.jp/",
    "pref": "秋田県",
    "city": "湯沢市",
    "category": "home_help",
    "serviceType": "訪問介護",
    "capacity": 0,
    "openDays": [
      "平日",
      "土曜日",
      "日曜日",
      "祝日"
    ],
    "openDaysNote": ""
  },
  {
    "id": "570700047",
    "name": "清水の郷訪問介護事業所",
    "kana": "シミズノサトホウモンカイゴジギョウショ",
    "address": "秋田県湯沢市杉沢字戸石崎85-1",
    "lat": 39.1854549,
    "lng": 140.4997791,
    "tel": "0183-56-7411",
    "url": "",
    "pref": "秋田県",
    "city": "湯沢市",
    "category": "home_help",
    "serviceType": "訪問介護",
    "capacity": 0,
    "openDays": [
      "平日",
      "土曜日",
      "日曜日",
      "祝日"
    ],
    "openDaysNote": "※ご希望によって当該時間外でもサービスを提供いたします。"
  },
  {
    "id": "570711382",
    "name": "湯沢ゆうあい訪問介護センター",
    "kana": "ユザワユウアイホウモンカイゴセンター",
    "address": "秋田県湯沢市古館町4番5号",
    "lat": 39.1711837,
    "lng": 140.4892994,
    "tel": "0183-73-8696",
    "url": "http://www.yushakyo.or.jp",
    "pref": "秋田県",
    "city": "湯沢市",
    "category": "home_help",
    "serviceType": "訪問介護",
    "capacity": 0,
    "openDays": [
      "平日",
      "土曜日",
      "日曜日",
      "祝日"
    ],
    "openDaysNote": ""
  },
  {
    "id": "572202117",
    "name": "藤里町社会福祉協議会指定訪問介護事業所",
    "kana": "フジサトマチシャカイフクシキョウギカイシテイホウモンカイゴジギョウショ",
    "address": "秋田県山本郡藤里町藤琴字三ツ谷脇40番地",
    "lat": 40.2819705,
    "lng": 140.2615648,
    "tel": "0185-79-2848",
    "url": "http://www.fujisato-shakyo.jp/",
    "pref": "秋田県",
    "city": "藤里町",
    "category": "home_help",
    "serviceType": "訪問介護",
    "capacity": 0,
    "openDays": [
      "平日",
      "土曜日",
      "日曜日",
      "祝日"
    ],
    "openDaysNote": "事前に、電話連絡等があれば24時間対応いたします。"
  },
  {
    "id": "570203786",
    "name": "ＪＡあきた白神ホームヘルプサービス",
    "kana": "ジェイエイアキタシラカミホームヘルプサービス",
    "address": "秋田県能代市鰄渕字古屋布43番地1",
    "lat": 40.1886321,
    "lng": 140.0797254,
    "tel": "0185-58-5811",
    "url": "http://akita-shirakami.jp",
    "pref": "秋田県",
    "city": "能代市",
    "category": "home_help",
    "serviceType": "訪問介護",
    "capacity": 0,
    "openDays": [
      "平日",
      "土曜日",
      "日曜日",
      "祝日"
    ],
    "openDaysNote": "ご相談により夜１０時までは対応いたします。また緊急の場合深夜でも対応しております。"
  },
  {
    "id": "570220236",
    "name": "あかつき訪問介護事業所",
    "kana": "アカツキホウモンカイゴジギョウショ",
    "address": "秋田県能代市能代町字中川原33-15",
    "lat": 40.2081082936628,
    "lng": 140.036008503566,
    "tel": "0185-74-6188",
    "url": "http://akatsuki1122.com/",
    "pref": "秋田県",
    "city": "能代市",
    "category": "home_help",
    "serviceType": "訪問介護",
    "capacity": 0,
    "openDays": [
      "平日"
    ],
    "openDaysNote": "月曜日～日曜日（改行）２４時間営業"
  },
  {
    "id": "570209973",
    "name": "かもめ介護福祉サービス",
    "kana": "カモメカイゴフクシサービス",
    "address": "秋田県能代市落合字亀谷地１－２９",
    "lat": 40.2309455,
    "lng": 140.0109577,
    "tel": "0185-52-1026",
    "url": "",
    "pref": "秋田県",
    "city": "能代市",
    "category": "home_help",
    "serviceType": "訪問介護",
    "capacity": 3,
    "openDays": [
      "平日",
      "祝日"
    ],
    "openDaysNote": "希望により随時対応しています。"
  },
  {
    "id": "570218115",
    "name": "きずなヘルパーステーション",
    "kana": "キズナヘルパーステーション",
    "address": "秋田県能代市富町10番15号",
    "lat": 40.2096401651026,
    "lng": 140.031376310854,
    "tel": "0185-89-5855",
    "url": "",
    "pref": "秋田県",
    "city": "能代市",
    "category": "home_help",
    "serviceType": "訪問介護",
    "capacity": 0,
    "openDays": [
      "平日",
      "土曜日",
      "日曜日",
      "祝日"
    ],
    "openDaysNote": "早朝、夜間、深夜帯に関しては、相談の上対応致します。"
  },
  {
    "id": "570226670",
    "name": "つむぎケアサポート",
    "kana": "ツムギケアサポート",
    "address": "秋田県能代市字町後31番地1",
    "lat": 40.2039643,
    "lng": 140.1205048,
    "tel": "0185-74-6572",
    "url": "http://hp.kaipoke.biz/v2a/",
    "pref": "秋田県",
    "city": "能代市",
    "category": "home_help",
    "serviceType": "訪問介護",
    "capacity": 0,
    "openDays": [
      "平日",
      "祝日"
    ],
    "openDaysNote": "上記の営業時間以外にも相談により対応させていただきます。"
  },
  {
    "id": "570208959",
    "name": "ドリームホープなかよし",
    "kana": "ドリームホープナカヨシ",
    "address": "秋田県能代市浅内字清水下１番地５",
    "lat": 40.134936105004,
    "lng": 140.009917026984,
    "tel": "0185-52-7039",
    "url": "http://dreamhope-nakayoshi.com/",
    "pref": "秋田県",
    "city": "能代市",
    "category": "home_help",
    "serviceType": "訪問介護",
    "capacity": 0,
    "openDays": [
      "平日",
      "土曜日",
      "日曜日",
      "祝日"
    ],
    "openDaysNote": "ケアプランにより、営業時間外でもサービスを実施する場合があります。"
  },
  {
    "id": "570205534",
    "name": "ニチイケアセンター能代",
    "kana": "ニチイケアセンターノシロ",
    "address": "秋田県能代市落合字下前田198-2",
    "lat": 40.2236716,
    "lng": 140.0254569,
    "tel": "0185-89-2419",
    "url": "http://www.nichiigakkan.co.jp",
    "pref": "秋田県",
    "city": "能代市",
    "category": "home_help",
    "serviceType": "訪問介護",
    "capacity": 0,
    "openDays": [
      "平日",
      "土曜日",
      "日曜日",
      "祝日"
    ],
    "openDaysNote": "但し居宅サービス計画により営業時間以外であってもサービスの提供を行う場合がある。"
  },
  {
    "id": "570201277",
    "name": "ひまわり訪問介護事業所",
    "kana": "ヒマワリホウモンカイゴジギョウショ",
    "address": "秋田県能代市花園町25番7号",
    "lat": 40.20008,
    "lng": 140.0258632,
    "tel": "0185-89-2550",
    "url": "https://uni-rize.co.jp/test/himawari1000.com/company/",
    "pref": "秋田県",
    "city": "能代市",
    "category": "home_help",
    "serviceType": "訪問介護",
    "capacity": 5,
    "openDays": [
      "平日",
      "土曜日",
      "日曜日",
      "祝日"
    ],
    "openDaysNote": "利用者の方の要望がある場合は、上記の時間以外のサービスも行っております。"
  },
  {
    "id": "570224162",
    "name": "ヘルパーステーションなかよし",
    "kana": "ヘルパーステーションナカヨシ",
    "address": "秋田県能代市浅内字横道5-1",
    "lat": 40.1636626647565,
    "lng": 140.020171280575,
    "tel": "0185-88-8622",
    "url": "http://dreamhope-nakayoshi.com/",
    "pref": "秋田県",
    "city": "能代市",
    "category": "home_help",
    "serviceType": "訪問介護",
    "capacity": 50,
    "openDays": [
      "平日",
      "土曜日",
      "日曜日",
      "祝日"
    ],
    "openDaysNote": ""
  },
  {
    "id": "570217398",
    "name": "ヘルパーステーションまつばら",
    "kana": "ヘルパーステーションマツバラ",
    "address": "秋田県能代市落合字古悪土１－２１７",
    "lat": 40.2264821,
    "lng": 140.0100691,
    "tel": "0185-74-5302",
    "url": "",
    "pref": "秋田県",
    "city": "能代市",
    "category": "home_help",
    "serviceType": "訪問介護",
    "capacity": 0,
    "openDays": [
      "平日",
      "土曜日",
      "日曜日",
      "祝日"
    ],
    "openDaysNote": ""
  },
  {
    "id": "570220368",
    "name": "ヘルパーステーションみんなの杜",
    "kana": "ヘルパーステーションミンナノモリ",
    "address": "秋田県能代市河戸川字谷地50番地3",
    "lat": 40.1737219,
    "lng": 140.0206791,
    "tel": "0185-88-8805",
    "url": "",
    "pref": "秋田県",
    "city": "能代市",
    "category": "home_help",
    "serviceType": "訪問介護",
    "capacity": 0,
    "openDays": [
      "平日",
      "土曜日",
      "日曜日",
      "祝日"
    ],
    "openDaysNote": ""
  },
  {
    "id": "572204337",
    "name": "ヘルプサービスセンター　よねしろ訪問介護事業所",
    "kana": "ヘルプサービスセンター　ヨネシロホウモンカイゴジギョウショ",
    "address": "秋田県能代市二ツ井町字下野家後１４５",
    "lat": 40.2095759,
    "lng": 140.2421727,
    "tel": "0185-73-6660",
    "url": "",
    "pref": "秋田県",
    "city": "能代市",
    "category": "home_help",
    "serviceType": "訪問介護",
    "capacity": 0,
    "openDays": [
      "平日",
      "土曜日",
      "日曜日",
      "祝日"
    ],
    "openDaysNote": "深夜帯の訪問につきましては、状況にあわせてご相談させていただきます。"
  },
  {
    "id": "570227017",
    "name": "まごころケアサービス",
    "kana": "マゴコロケアサービス",
    "address": "秋田県能代市能代市景林町１４－２１",
    "lat": 40.2061588,
    "lng": 140.0177206,
    "tel": "0185-74-5426",
    "url": "",
    "pref": "秋田県",
    "city": "能代市",
    "category": "home_help",
    "serviceType": "訪問介護",
    "capacity": 0,
    "openDays": [
      "平日",
      "土曜日",
      "祝日"
    ],
    "openDaysNote": ""
  },
  {
    "id": "570206094",
    "name": "株式会社　虹の街　能代営業所",
    "kana": "カブシキガイシャニジノマチノシロエイギョウショ",
    "address": "秋田県能代市河戸川字下大須賀４０番",
    "lat": 40.1836251283319,
    "lng": 140.021994240618,
    "tel": "0185-89-1212",
    "url": "http://www.saint-care.com/niji/",
    "pref": "秋田県",
    "city": "能代市",
    "category": "home_help",
    "serviceType": "訪問介護",
    "capacity": 0,
    "openDays": [
      "平日",
      "土曜日",
      "日曜日",
      "祝日"
    ],
    "openDaysNote": ""
  },
  {
    "id": "570217174",
    "name": "特定非営利活動法人こもれび訪問介護事業所",
    "kana": "トクテイヒエイリカツドウホウジンコモレビホウモンカイゴジギョウショ",
    "address": "秋田県能代市落合字綱割１３－１７４コーポバレンシア１０３ コーポバレンシア１０３",
    "lat": 40.2339465,
    "lng": 140.0244565,
    "tel": "0185-74-5355",
    "url": "",
    "pref": "秋田県",
    "city": "能代市",
    "category": "home_help",
    "serviceType": "訪問介護",
    "capacity": 0,
    "openDays": [
      "平日",
      "土曜日",
      "日曜日",
      "祝日"
    ],
    "openDaysNote": "年中無休"
  },
  {
    "id": "570214106",
    "name": "能代市社会福祉協議会　訪問介護事業所",
    "kana": "ノシロシシャカイフクシキョウギカイ　ホウモンカイゴジギョウショ",
    "address": "秋田県能代市上町１２番４号",
    "lat": 40.2128131858675,
    "lng": 140.030025422773,
    "tel": "0185-88-8088",
    "url": "http://www.noshiroshakyo.jp/",
    "pref": "秋田県",
    "city": "能代市",
    "category": "home_help",
    "serviceType": "訪問介護",
    "capacity": 0,
    "openDays": [
      "平日",
      "土曜日",
      "日曜日",
      "祝日"
    ],
    "openDaysNote": ""
  },
  {
    "id": "570219824",
    "name": "能代親孝の里　ホームヘルプサービス",
    "kana": "ノシロシンコウノサト　ホームヘルプサービス",
    "address": "秋田県能代市南元町４番69号",
    "lat": 40.2041908,
    "lng": 140.0318625,
    "tel": "0185-55-3073",
    "url": "",
    "pref": "秋田県",
    "city": "能代市",
    "category": "home_help",
    "serviceType": "訪問介護",
    "capacity": 0,
    "openDays": [
      "平日",
      "土曜日",
      "日曜日",
      "祝日"
    ],
    "openDaysNote": "上記の営業時間以外にも相談により対応させていただく。"
  },
  {
    "id": "570224444",
    "name": "訪問介護　心愛の郷",
    "kana": "ホウモンカイゴ　ココロノサト",
    "address": "秋田県能代市下瀬26-1",
    "lat": 40.1863401,
    "lng": 140.0375407,
    "tel": "0185-89-1515",
    "url": "",
    "pref": "秋田県",
    "city": "能代市",
    "category": "home_help",
    "serviceType": "訪問介護",
    "capacity": 27,
    "openDays": [
      "平日",
      "土曜日",
      "日曜日",
      "祝日"
    ],
    "openDaysNote": "夜間・深夜・早朝サービスも必要に応じ提供しております"
  },
  {
    "id": "570219550",
    "name": "訪問介護彩べえ",
    "kana": "ホウモンカイゴアヤベエ",
    "address": "秋田県能代市落合字上釜谷地185",
    "lat": 40.2280043,
    "lng": 140.0215738,
    "tel": "0185-88-8212",
    "url": "https://www.ochiai-cs.com/",
    "pref": "秋田県",
    "city": "能代市",
    "category": "home_help",
    "serviceType": "訪問介護",
    "capacity": 0,
    "openDays": [
      "平日",
      "祝日"
    ],
    "openDaysNote": "営業日・営業時間以外でも、ご相談に応じることができます。"
  },
  {
    "id": "570219295",
    "name": "訪問介護田園",
    "kana": "ホウモンカイゴデンエン",
    "address": "秋田県能代市桧山字白金田６２－３",
    "lat": 40.1799031,
    "lng": 140.101843,
    "tel": "0185-70-1616",
    "url": "https://www.andante-denen.jp/",
    "pref": "秋田県",
    "city": "能代市",
    "category": "home_help",
    "serviceType": "訪問介護",
    "capacity": 0,
    "openDays": [
      "平日",
      "土曜日",
      "日曜日",
      "祝日"
    ],
    "openDaysNote": "必要に応じては、夜間・深夜・早朝のサービスも利用可能です。"
  },
  {
    "id": "572214278",
    "name": "八峰町社会福祉協議会訪問介護事業所",
    "kana": "ハッポウチョウシャカイフクシキョウギカイホウモンカイゴジギョウショ",
    "address": "秋田県山本郡八峰町八森字椿台112番地",
    "lat": 40.3610508213604,
    "lng": 140.02489755968,
    "tel": "0185-74-5623",
    "url": "http://happou-shakyo.jp/",
    "pref": "秋田県",
    "city": "八峰町",
    "category": "home_help",
    "serviceType": "訪問介護",
    "capacity": 0,
    "openDays": [
      "平日"
    ],
    "openDaysNote": "居宅介護サービス計画及び訪問介護計画により２４時間対応可能"
  },
  {
    "id": "572223048",
    "name": "訪問介護　季の庭",
    "kana": "ホウモンカイゴ　トキノニワ",
    "address": "秋田県山本郡八峰町峰浜沼田字蔭の谷地22-81N'sフラット203 N'sフラット203",
    "lat": 40.2693468,
    "lng": 140.0286015,
    "tel": "0185-74-6068",
    "url": "",
    "pref": "秋田県",
    "city": "八峰町",
    "category": "home_help",
    "serviceType": "訪問介護",
    "capacity": 0,
    "openDays": [
      "平日",
      "祝日"
    ],
    "openDaysNote": "ただし、利用者の要望によってはそれ以外でもサービス対応させていただく"
  },
  {
    "id": "572223097",
    "name": "訪問介護ステーション　おだやか",
    "kana": "ホウモンカイゴステーション　オダヤカ",
    "address": "山本郡八峰町峰浜水沢字カッチキ台２２番地１ハーブガーデン２０２号室 ハーブガーデン２０２号室",
    "lat": 40.2954679402997,
    "lng": 140.034951508629,
    "tel": "0185-76-4567",
    "url": "",
    "pref": "秋田県",
    "city": "八峰町",
    "category": "home_help",
    "serviceType": "訪問介護",
    "capacity": 0,
    "openDays": [
      "平日",
      "土曜日",
      "日曜日",
      "祝日"
    ],
    "openDaysNote": ""
  },
  {
    "id": "572304384",
    "name": "社会福祉法人八郎潟町社会福祉協議会指定訪問介護事業所",
    "kana": "シャカイフクシホウジンハチロウガタマチシャカイフクシキョウギカイシテイホウモンカイゴジギョウショ",
    "address": "秋田県南秋田郡八郎潟町字家ノ後２３－３",
    "lat": 39.9426081,
    "lng": 140.0795459,
    "tel": "018-875-3871",
    "url": "https://www.hachi-shakyo.jp",
    "pref": "秋田県",
    "city": "八郎潟町",
    "category": "home_help",
    "serviceType": "訪問介護",
    "capacity": 0,
    "openDays": [
      "平日"
    ],
    "openDaysNote": "利用者の希望により土・日曜日、祝祭日も営業する。なお、電話等により２４時間連絡対応可能な体制とする。"
  },
  {
    "id": "573926763",
    "name": "Ｃｃｏｌｏｒミサトケアセンター",
    "kana": "シーカラーミサトケアセンター",
    "address": "秋田県仙北郡美郷町六郷字宝門清水７２番地２フラワータウン１階 フラワータウン１階",
    "lat": 39.4274914,
    "lng": 140.5484082,
    "tel": "0187-88-8360",
    "url": "https://www.ccolor.jp",
    "pref": "秋田県",
    "city": "美郷町",
    "category": "home_help",
    "serviceType": "訪問介護",
    "capacity": 5,
    "openDays": [
      "平日",
      "土曜日",
      "日曜日",
      "祝日"
    ],
    "openDaysNote": ""
  },
  {
    "id": "572622785",
    "name": "ケアステーション　ひだまりの郷",
    "kana": "ケアステーション　ヒダマリノサト",
    "address": "秋田県仙北郡美郷町鑓田字馬町92-32コーポエフエム　Ｂ-5 コーポエフエム　Ｂ-5",
    "lat": 39.4297554875065,
    "lng": 140.55745077626,
    "tel": "0187-73-6359",
    "url": "",
    "pref": "秋田県",
    "city": "美郷町",
    "category": "home_help",
    "serviceType": "訪問介護",
    "capacity": 5,
    "openDays": [
      "平日",
      "土曜日",
      "日曜日",
      "祝日"
    ],
    "openDaysNote": "日時については、ご利用者様のご希望に応じて対応させて頂きます。"
  },
  {
    "id": "572612554",
    "name": "とうげんの郷訪問介護事業所",
    "kana": "トウゲンノサトホウモンカイゴジギョウショ",
    "address": "仙北郡美郷町野中字宮崎82-6水明荘 水明荘",
    "lat": 39.419404,
    "lng": 140.5558511,
    "tel": "0187-86-7788",
    "url": "",
    "pref": "秋田県",
    "city": "美郷町",
    "category": "home_help",
    "serviceType": "訪問介護",
    "capacity": 0,
    "openDays": [
      "平日",
      "土曜日",
      "日曜日",
      "祝日"
    ],
    "openDaysNote": "特になし"
  },
  {
    "id": "573926490",
    "name": "ニチイケアセンター六郷",
    "kana": "ニチイケアセンター　ロクゴウ",
    "address": "秋田県仙北郡美郷町六郷字新町6",
    "lat": 39.417755,
    "lng": 140.5504941,
    "tel": "0187-86-7676",
    "url": "",
    "pref": "秋田県",
    "city": "美郷町",
    "category": "home_help",
    "serviceType": "訪問介護",
    "capacity": 0,
    "openDays": [
      "平日",
      "土曜日",
      "日曜日",
      "祝日"
    ],
    "openDaysNote": "深夜帯のサービス応相談にて、22：00～翌6：00"
  },
  {
    "id": "572618742",
    "name": "ヘルパーステーション　きらら千畑",
    "kana": "ヘルパーステーション　キララセンハタ",
    "address": "秋田県仙北郡美郷町本堂城回字新谷尻２１４－９有料老人ホーム　きらら千畑 有料老人ホーム　きらら千畑",
    "lat": 39.4747875,
    "lng": 140.596158,
    "tel": "0187-87-6560",
    "url": "",
    "pref": "秋田県",
    "city": "美郷町",
    "category": "home_help",
    "serviceType": "訪問介護",
    "capacity": 12,
    "openDays": [
      "平日",
      "土曜日",
      "日曜日",
      "祝日"
    ],
    "openDaysNote": "なし"
  },
  {
    "id": "572605863",
    "name": "ロートピア緑泉訪問介護事業所",
    "kana": "ロートピアリョクセンホウモンカイゴジギョウショ",
    "address": "秋田県仙北郡美郷町六郷字作山１８７",
    "lat": 39.4154156,
    "lng": 140.5562235,
    "tel": "0187-84-3636",
    "url": "https://rotopia.or.jp",
    "pref": "秋田県",
    "city": "美郷町",
    "category": "home_help",
    "serviceType": "訪問介護",
    "capacity": 0,
    "openDays": [
      "平日",
      "土曜日",
      "日曜日",
      "祝日"
    ],
    "openDaysNote": "利用者及びその家族の希望により営業時間以外でもサービスを提供することができる。"
  },
  {
    "id": "572608826",
    "name": "有限会社すずらん・みずほケアサポートセンター",
    "kana": "ユウゲンガイシャスズラン・ミズホケアサポートセンター",
    "address": "秋田県仙北郡美郷町土崎字厨川67番地2",
    "lat": 39.4741858493593,
    "lng": 140.569828444829,
    "tel": "0187-87-6539",
    "url": "",
    "pref": "秋田県",
    "city": "美郷町",
    "category": "home_help",
    "serviceType": "訪問介護",
    "capacity": null,
    "openDays": [
      "平日",
      "土曜日",
      "日曜日",
      "祝日"
    ],
    "openDaysNote": ""
  },
  {
    "id": "571151612",
    "name": "たかのす翔裕園訪問介護事業所",
    "kana": "タカノスショウユウエンホウモンカイゴジギョウショ",
    "address": "秋田県北秋田市小森字向長渡１５番地3",
    "lat": 40.1778055,
    "lng": 140.4846669,
    "tel": "0186－66－2630",
    "url": "http://www.genkimuragroup.jp",
    "pref": "秋田県",
    "city": "北秋田市",
    "category": "home_help",
    "serviceType": "訪問介護",
    "capacity": 0,
    "openDays": [
      "平日",
      "土曜日",
      "日曜日",
      "祝日"
    ],
    "openDaysNote": ""
  },
  {
    "id": "571118256",
    "name": "ヘルパーステーションはぁと",
    "kana": "ヘルパーステーションハァト",
    "address": "秋田県北秋田市大町８番２３号",
    "lat": 40.2240265,
    "lng": 140.366395,
    "tel": "0186-67-8259",
    "url": "http://www.takanosu-fukushi.com",
    "pref": "秋田県",
    "city": "北秋田市",
    "category": "home_help",
    "serviceType": "訪問介護",
    "capacity": 0,
    "openDays": [
      "平日",
      "土曜日",
      "日曜日",
      "祝日"
    ],
    "openDaysNote": "管理者が認めた場合は、時間外対応によるサービス提供をします。"
  },
  {
    "id": "572100014",
    "name": "株式会社　登石",
    "kana": "カブシキガイシャ　トウセキ",
    "address": "秋田県北秋田市上杉字金沢５７－５２",
    "lat": 40.1850477,
    "lng": 140.3449819,
    "tel": "0186-78-5181",
    "url": "",
    "pref": "秋田県",
    "city": "北秋田市",
    "category": "home_help",
    "serviceType": "訪問介護",
    "capacity": 0,
    "openDays": [
      "平日",
      "土曜日"
    ],
    "openDaysNote": "ご要望により早朝・夜間も対応いたします。"
  },
  {
    "id": "571121177",
    "name": "訪問介護事業所ハグ",
    "kana": "ホウモンカイゴジギョウショハグ",
    "address": "秋田県北秋田市脇神字西陣場岱３８－６住宅型有料老人ホ－ム　シニアホームなでしこ内 住宅型有料老人ホ－ム　シニアホームなでしこ内",
    "lat": 40.2202146930367,
    "lng": 140.384067509536,
    "tel": "0186-84-8508",
    "url": "http://www.kumagera.ne.jp/nadeshiko/",
    "pref": "秋田県",
    "city": "北秋田市",
    "category": "home_help",
    "serviceType": "訪問介護",
    "capacity": 0,
    "openDays": [
      "平日",
      "土曜日",
      "日曜日",
      "祝日"
    ],
    "openDaysNote": "ただし、利用者様の希望に応じて、サービス提供については、２４時間対応可能な体制を整えます。"
  },
  {
    "id": "571111160",
    "name": "北秋田市社協ヘルパーステーション",
    "kana": "キタアキタシシャキョウヘルパーステーション",
    "address": "秋田県北秋田市脇神字南陣場岱１０番地",
    "lat": 40.2272345,
    "lng": 140.3695695,
    "tel": "0186-63-2465",
    "url": "http://www.kitaakita-shakyo.or.jp",
    "pref": "秋田県",
    "city": "北秋田市",
    "category": "home_help",
    "serviceType": "訪問介護",
    "capacity": 0,
    "openDays": [
      "平日",
      "土曜日",
      "日曜日",
      "祝日"
    ],
    "openDaysNote": "会長が認めた場合は、この限りではありません。"
  },
  {
    "id": "570525998",
    "name": "SOMPOケア由利本荘　訪問介護",
    "kana": "ソンポケアユリホンジョウホウモンカイゴ",
    "address": "秋田県由利本荘市瓦谷地28-1鶴沼ビル1F 鶴沼ビル1F",
    "lat": 39.3852904,
    "lng": 140.0442494,
    "tel": "0184-28-0671",
    "url": "",
    "pref": "秋田県",
    "city": "由利本荘市",
    "category": "home_help",
    "serviceType": "訪問介護",
    "capacity": 20,
    "openDays": [
      "平日",
      "土曜日",
      "日曜日",
      "祝日"
    ],
    "openDaysNote": "夜間、早朝については個別で相談いたします。"
  },
  {
    "id": "572506590",
    "name": "あまさぎ訪問介護事業所",
    "kana": "アマサギホウモンカイゴジギョウショ",
    "address": "秋田県由利本荘市岩城冨田根本９－３",
    "lat": 39.5053038,
    "lng": 140.0869654,
    "tel": "0184-62-5015",
    "url": "http://www.amasagi.or.jp",
    "pref": "秋田県",
    "city": "由利本荘市",
    "category": "home_help",
    "serviceType": "訪問介護",
    "capacity": 0,
    "openDays": [
      "平日",
      "土曜日",
      "日曜日",
      "祝日"
    ],
    "openDaysNote": "上記以外の時間については相談に応じます。"
  },
  {
    "id": "570526616",
    "name": "エノン訪問介護事業所",
    "kana": "エノンホウモンカイゴジギョウショ",
    "address": "秋田県由利本荘市中梵天３４番地１",
    "lat": 39.3832218528494,
    "lng": 140.061119454631,
    "tel": "0184-74-7474",
    "url": "http://enon-inc.com",
    "pref": "秋田県",
    "city": "由利本荘市",
    "category": "home_help",
    "serviceType": "訪問介護",
    "capacity": 0,
    "openDays": [
      "平日",
      "土曜日",
      "日曜日",
      "祝日"
    ],
    "openDaysNote": ""
  },
  {
    "id": "570500058",
    "name": "ニチイケアセンター本荘",
    "kana": "ニチイケアセンターホンジョウ",
    "address": "秋田県由利本荘市川口字新田90",
    "lat": 39.4009092,
    "lng": 140.0618367,
    "tel": "0184-27-1850",
    "url": "",
    "pref": "秋田県",
    "city": "由利本荘市",
    "category": "home_help",
    "serviceType": "訪問介護",
    "capacity": 0,
    "openDays": [
      "平日",
      "土曜日",
      "日曜日",
      "祝日"
    ],
    "openDaysNote": "深夜帯のサービス応相談にて　22：00～翌6：00"
  },
  {
    "id": "570520312",
    "name": "ヘルパーステーションぽぽろ",
    "kana": "ヘルパーステーションポポロ",
    "address": "秋田県由利本荘市薬師堂字中道２６９－４あすみハイツ１０２ あすみハイツ１０２",
    "lat": 39.3700302039335,
    "lng": 140.05135202059,
    "tel": "0184-74-5244",
    "url": "",
    "pref": "秋田県",
    "city": "由利本荘市",
    "category": "home_help",
    "serviceType": "訪問介護",
    "capacity": 19,
    "openDays": [
      "平日",
      "土曜日",
      "日曜日",
      "祝日"
    ],
    "openDaysNote": "利用者からの要望、必要があった場合は上記の日時以外にも対応する"
  },
  {
    "id": "570523530",
    "name": "ヘルパーステーション寧",
    "kana": "ヘルパーステーションネイ",
    "address": "秋田県由利本荘市小防ヶ沢22-7",
    "lat": 39.3797844699069,
    "lng": 140.043573180677,
    "tel": "0184-74-5281",
    "url": "",
    "pref": "秋田県",
    "city": "由利本荘市",
    "category": "home_help",
    "serviceType": "訪問介護",
    "capacity": 0,
    "openDays": [
      "平日",
      "土曜日",
      "祝日"
    ],
    "openDaysNote": ""
  },
  {
    "id": "570512590",
    "name": "ほのぼのヘルパーステーション",
    "kana": "ホノボノヘルパーステーション",
    "address": "秋田県由利本荘市東梵天95－2",
    "lat": 39.3829513803898,
    "lng": 140.062115491939,
    "tel": "0184-28-0007",
    "url": "http://www.yoro-duya.com",
    "pref": "秋田県",
    "city": "由利本荘市",
    "category": "home_help",
    "serviceType": "訪問介護",
    "capacity": 10,
    "openDays": [
      "平日",
      "土曜日",
      "日曜日",
      "祝日"
    ],
    "openDaysNote": "年中無休（改行）24時間対応"
  },
  {
    "id": "570510891",
    "name": "株式会社　虹の街　　本荘営業所",
    "kana": "カブシキガイシャ　ニジノマチ　　ホンジョウエイギョウショ",
    "address": "由利本荘市川口字下野173-1",
    "lat": 39.3920153,
    "lng": 140.0531903,
    "tel": "0184-24-6052",
    "url": "http://www.saint-care.com/niji/",
    "pref": "秋田県",
    "city": "由利本荘市",
    "category": "home_help",
    "serviceType": "訪問介護",
    "capacity": 0,
    "openDays": [
      "平日",
      "土曜日",
      "日曜日",
      "祝日"
    ],
    "openDaysNote": "祝日、提供時間外、相談に応じて対応致します。"
  },
  {
    "id": "570504068",
    "name": "秋田しんせい農業協同組合",
    "kana": "アキタシンセイノウギョウキョウドウクミアイ",
    "address": "秋田県由利本荘市三条字前田75番地",
    "lat": 39.3593906,
    "lng": 140.0761064,
    "tel": "0184-27-1698",
    "url": "http://www.akita-shinsei.or.jp/",
    "pref": "秋田県",
    "city": "由利本荘市",
    "category": "home_help",
    "serviceType": "訪問介護",
    "capacity": 0,
    "openDays": [
      "平日",
      "土曜日",
      "日曜日",
      "祝日"
    ],
    "openDaysNote": "上記以外の時間帯をご希望のお客様につきましては、できる限り対応するようにしております。"
  },
  {
    "id": "570524470",
    "name": "鳥寿苑訪問介護事業所",
    "kana": "チョウジュエンホウモンカイゴジギョウショ",
    "address": "秋田県由利本荘市鳥海町伏見字久保７７番地",
    "lat": 39.1896897,
    "lng": 140.1890495,
    "tel": "0184-57-2561",
    "url": "http://akita-yuai.com",
    "pref": "秋田県",
    "city": "由利本荘市",
    "category": "home_help",
    "serviceType": "訪問介護",
    "capacity": 0,
    "openDays": [
      "平日",
      "土曜日",
      "日曜日",
      "祝日"
    ],
    "openDaysNote": "サービス提供時間可能なかぎり利用者の希望に沿えるような体制をとる。"
  },
  {
    "id": "570512624",
    "name": "訪問介護　「わかば」",
    "kana": "ホウモンカイゴ　ワカバ",
    "address": "秋田県由利本荘市川口字家妻34-1",
    "lat": 39.3953910934678,
    "lng": 140.064713139265,
    "tel": "0184-74-5207",
    "url": "http://www.ikeyaku.co.jp",
    "pref": "秋田県",
    "city": "由利本荘市",
    "category": "home_help",
    "serviceType": "訪問介護",
    "capacity": 0,
    "openDays": [
      "平日",
      "土曜日",
      "日曜日",
      "祝日"
    ],
    "openDaysNote": "但し、年末年始は休日"
  },
  {
    "id": "570526848",
    "name": "訪問介護ステーションほっと",
    "kana": "ホウモンカイゴステーション　ホット",
    "address": "秋田県由利本荘市桜小路27－１２階 ２階",
    "lat": 39.3857002,
    "lng": 140.0523688,
    "tel": "0184-74-3163",
    "url": "https://www.hot-akita.com/",
    "pref": "秋田県",
    "city": "由利本荘市",
    "category": "home_help",
    "serviceType": "訪問介護",
    "capacity": 0,
    "openDays": [
      "平日",
      "土曜日",
      "日曜日",
      "祝日"
    ],
    "openDaysNote": ""
  },
  {
    "id": "572509891",
    "name": "訪問介護たんぽぽプラザ",
    "kana": "ホウモンカイゴタンポポプラザ",
    "address": "秋田県由利本荘市岩城赤平字長ヶ沢17‐4",
    "lat": 39.5038561034331,
    "lng": 140.07575699079,
    "tel": "0184-62-5121",
    "url": "https://tanpopoplaza.co.jp",
    "pref": "秋田県",
    "city": "由利本荘市",
    "category": "home_help",
    "serviceType": "訪問介護",
    "capacity": 0,
    "openDays": [
      "平日",
      "土曜日",
      "日曜日",
      "祝日"
    ],
    "openDaysNote": "希望により早朝、夜間も対応"
  },
  {
    "id": "570511493",
    "name": "由利本荘市社会福祉協議会　訪問介護事業所",
    "kana": "ユリホンジョウシシャカイフクシキョウギカイ　ホウモンカイゴジギョウショ",
    "address": "秋田県由利本荘市堤脇40-1",
    "lat": 39.3741094,
    "lng": 140.045399,
    "tel": "0184-24-3634",
    "url": "http://www.yurihonjo-shakyo.jp/",
    "pref": "秋田県",
    "city": "由利本荘市",
    "category": "home_help",
    "serviceType": "訪問介護",
    "capacity": 0,
    "openDays": [
      "平日",
      "土曜日",
      "日曜日",
      "祝日"
    ],
    "openDaysNote": "利用者から事前に要請がある場合は、要請に応じ24時間対応とする。"
  }
]