[
  {
    "id": "4272100480",
    "name": "ひといき",
    "kana": "ヒトイキ",
    "address": "郷ノ浦町片原触2334番地",
    "lat": 33.7354174,
    "lng": 129.6882759,
    "tel": "050-5896-9378",
    "url": "",
    "pref": "長崎県",
    "city": "壱岐市",
    "category": "home_help",
    "serviceType": "訪問介護",
    "capacity": null,
    "openDays": [
      "平日",
      "土曜日",
      "日曜日",
      "祝日"
    ],
    "openDaysNote": ""
  },
  {
    "id": "4272100050",
    "name": "壱岐市社協　勝本訪問介護事業所",
    "kana": "イキシシャキョウ　カツモトホウモンカイゴジギョウショ",
    "address": "長崎県壱岐市勝本町大久保触１７３６番地２",
    "lat": 33.8439195,
    "lng": 129.6918508,
    "tel": "0920-48-3222",
    "url": "https://ikicity-csw.jp/",
    "pref": "長崎県",
    "city": "壱岐市",
    "category": "home_help",
    "serviceType": "訪問介護",
    "capacity": 0,
    "openDays": [
      "平日",
      "土曜日",
      "日曜日",
      "祝日"
    ],
    "openDaysNote": "必要に応じて２４時間体制"
  },
  {
    "id": "4272100092",
    "name": "壱岐市社協芦辺訪問介護事業所",
    "kana": "イキシシャキョウアシベホウモンカイゴジギョウショ",
    "address": "長崎県壱岐市芦辺町箱崎中山触２５４８番地",
    "lat": 33.8096575,
    "lng": 129.7472116,
    "tel": "0920-45-2378",
    "url": "https://ikicity-csw.jp/",
    "pref": "長崎県",
    "city": "壱岐市",
    "category": "home_help",
    "serviceType": "訪問介護",
    "capacity": 0,
    "openDays": [
      "平日",
      "土曜日",
      "日曜日",
      "祝日"
    ],
    "openDaysNote": "必要に応じて、２４時間体制でサービスを提供する。"
  },
  {
    "id": "4272100019",
    "name": "壱岐市社協郷ノ浦訪問介護事業所",
    "kana": "イキシシャキョウゴウノウラホウモンカイゴジギョウショ",
    "address": "長崎県壱岐市郷ノ浦町坪触3099番地",
    "lat": 33.7321548,
    "lng": 129.6974549,
    "tel": "0920-47-0132",
    "url": "https://ikicity-csw.jp/",
    "pref": "長崎県",
    "city": "壱岐市",
    "category": "home_help",
    "serviceType": "訪問介護",
    "capacity": 0,
    "openDays": [
      "平日",
      "土曜日",
      "日曜日",
      "祝日"
    ],
    "openDaysNote": ""
  },
  {
    "id": "4272100142",
    "name": "壱岐市社協石田訪問介護事業所",
    "kana": "イキシシャキョウイシダホウモンカイゴジギョウショ",
    "address": "長崎県壱岐市石田町石田西触1486-1",
    "lat": 33.7452157,
    "lng": 129.7531643,
    "tel": "0920-44-6150",
    "url": "https://ikicity-csw.jp/",
    "pref": "長崎県",
    "city": "壱岐市",
    "category": "home_help",
    "serviceType": "訪問介護",
    "capacity": 0,
    "openDays": [
      "平日",
      "土曜日",
      "日曜日",
      "祝日"
    ],
    "openDaysNote": "特別の需要がある場合はこの限りではない。（改行）必要に応じて、２４時間体制で指定訪問介護の提供にあたる。"
  },
  {
    "id": "4271700173",
    "name": "社会医療法人　玄州会　ホームヘルパーステーションリバティ",
    "kana": "シャカイイリョウホウジン　ゲンシュウカイ　ホームヘルパーステーションリバティ",
    "address": "長崎県壱岐市郷ノ浦町永田触字八枝275番地2",
    "lat": 33.7493558,
    "lng": 129.6976346,
    "tel": "0920-47-3607",
    "url": "http://www.gensyukai.or.jp/",
    "pref": "長崎県",
    "city": "壱岐市",
    "category": "home_help",
    "serviceType": "訪問介護",
    "capacity": 0,
    "openDays": [
      "平日",
      "土曜日",
      "日曜日",
      "祝日"
    ],
    "openDaysNote": "随時対応"
  },
  {
    "id": "4272100431",
    "name": "訪問介護カインド　壱岐事業所",
    "kana": "ホウモンカイゴカインド　イキジギョウショ",
    "address": "長崎県壱岐市芦辺町諸吉大石触397",
    "lat": 33.8047527600115,
    "lng": 129.74995283373,
    "tel": "0920-45-4666",
    "url": "http://hp.kaipoke.biz/ty7/",
    "pref": "長崎県",
    "city": "壱岐市",
    "category": "home_help",
    "serviceType": "訪問介護",
    "capacity": null,
    "openDays": [
      "平日",
      "土曜日",
      "日曜日",
      "祝日"
    ],
    "openDaysNote": ""
  },
  {
    "id": "4272100332",
    "name": "訪問介護事業所　ひまわり",
    "kana": "ホウモンカイゴジギョウショ　ヒマワリ",
    "address": "長崎県壱岐市芦辺町箱崎大左右触550-13",
    "lat": 33.8168016,
    "lng": 129.7560301,
    "tel": "0920-45-0017",
    "url": "",
    "pref": "長崎県",
    "city": "壱岐市",
    "category": "home_help",
    "serviceType": "訪問介護",
    "capacity": 0,
    "openDays": [
      "平日",
      "土曜日"
    ],
    "openDaysNote": "必要に応じて24時間体制でサービスを提供します。"
  },
  {
    "id": "4272400526",
    "name": "ケアサポート絆",
    "kana": "ケアサポートキズナ",
    "address": "長崎県雲仙市瑞穂町西郷庚470番地2",
    "lat": 32.8738066,
    "lng": 130.2471607,
    "tel": "0957-77-3601",
    "url": "",
    "pref": "長崎県",
    "city": "雲仙市",
    "category": "home_help",
    "serviceType": "訪問介護",
    "capacity": 0,
    "openDays": [
      "平日",
      "土曜日",
      "日曜日",
      "祝日"
    ],
    "openDaysNote": "サービスの提供については利用者の希望に応じて、7時から21時までとする。また日曜日も可能とする。"
  },
  {
    "id": "4272400757",
    "name": "ニチイケアセンター雲仙",
    "kana": "ニチイケアセンターウンゼン",
    "address": "長崎県雲仙市千々石町戊976堀川ビル102 堀川ビル102",
    "lat": 32.7842106,
    "lng": 130.2033091,
    "tel": "0957-36-8677",
    "url": "http://www.nichiigakkan.co.jp",
    "pref": "長崎県",
    "city": "雲仙市",
    "category": "home_help",
    "serviceType": "訪問介護",
    "capacity": 0,
    "openDays": [
      "平日",
      "土曜日",
      "日曜日",
      "祝日"
    ],
    "openDaysNote": ""
  },
  {
    "id": "4272400377",
    "name": "ヘルパーステーション　友悠",
    "kana": "ヘルパーステーション　ユウユウ",
    "address": "長崎県雲仙市国見町土黒戊42番地2",
    "lat": 32.866189,
    "lng": 130.2879187,
    "tel": "0957-78-1338",
    "url": "",
    "pref": "長崎県",
    "city": "雲仙市",
    "category": "home_help",
    "serviceType": "訪問介護",
    "capacity": 0,
    "openDays": [
      "平日",
      "土曜日",
      "祝日"
    ],
    "openDaysNote": "毎週月曜日から土曜日とする。ただし、必要に応じてはこの限りではない。"
  },
  {
    "id": "4272400591",
    "name": "ヘルパーステーション「佃」",
    "kana": "ヘルパーステーション　ツクダ",
    "address": "長崎県雲仙市吾妻町永中名70",
    "lat": 32.8343077829444,
    "lng": 130.179428083714,
    "tel": "0957-38-2737",
    "url": "",
    "pref": "長崎県",
    "city": "雲仙市",
    "category": "home_help",
    "serviceType": "訪問介護",
    "capacity": 15,
    "openDays": [
      "平日",
      "土曜日",
      "祝日"
    ],
    "openDaysNote": ""
  },
  {
    "id": "4271400824",
    "name": "ホームヘルパーステーション　南串山荘",
    "kana": "ホームヘルパーステーション　ミナミクシヤマソウ",
    "address": "長崎県雲仙市南串山町丙10722",
    "lat": 32.6729283,
    "lng": 130.1498214,
    "tel": "0957-88-2922",
    "url": "http://www.keikokai.jp/facilities/hou2.html",
    "pref": "長崎県",
    "city": "雲仙市",
    "category": "home_help",
    "serviceType": "訪問介護",
    "capacity": 0,
    "openDays": [
      "平日",
      "土曜日",
      "祝日"
    ],
    "openDaysNote": "日曜日に関してはニーズに応じて対応行う"
  },
  {
    "id": "4272200587",
    "name": "かけはし木場訪問介護",
    "kana": "カケハシコバホウモンカイゴ",
    "address": "長崎県五島市木場町493番地1かけはし木場 かけはし木場",
    "lat": 32.6934883249898,
    "lng": 128.836920306963,
    "tel": "0959-74-5221",
    "url": "http://nagomikai-kakehashi.or.jp",
    "pref": "長崎県",
    "city": "五島市",
    "category": "home_help",
    "serviceType": "訪問介護",
    "capacity": 0,
    "openDays": [
      "平日",
      "土曜日",
      "日曜日",
      "祝日"
    ],
    "openDaysNote": "通常時のサービス提供について、人員体制が整わない場合、希望される時間帯での訪問に対応出来ないこともありえます。（改行）緊急時、やむを得ない事情がある時は、介護支援専門員と連携を取り、出来る限り対応出来る体制を整えていますが、人員体制が整えられない場合は、対応できかねる事もあります。"
  },
  {
    "id": "4270600077",
    "name": "さゆり会ヘルパーステーション",
    "kana": "サユリカイヘルパーステーション",
    "address": "長崎県五島市下大津町550番地4ひだまりの舎 ひだまりの舎",
    "lat": 32.6857272794469,
    "lng": 128.856425741759,
    "tel": "0959-75-0356",
    "url": "https://sayurikai.jp/pages/45/",
    "pref": "長崎県",
    "city": "五島市",
    "category": "home_help",
    "serviceType": "訪問介護",
    "capacity": 0,
    "openDays": [
      "平日",
      "土曜日",
      "日曜日",
      "祝日"
    ],
    "openDaysNote": "上記時間外であっても状況により対応可能"
  },
  {
    "id": "4272200678",
    "name": "セントケア福江",
    "kana": "セントケアフクエ",
    "address": "長崎県五島市籠淵町2155番地6山口商店1階 山口商店1階",
    "lat": 32.690585273856,
    "lng": 128.810210523702,
    "tel": "0959-75-0375",
    "url": "http://www.sent-care.com/",
    "pref": "長崎県",
    "city": "五島市",
    "category": "home_help",
    "serviceType": "訪問介護",
    "capacity": 110,
    "openDays": [
      "平日",
      "土曜日",
      "日曜日",
      "祝日"
    ],
    "openDaysNote": ""
  },
  {
    "id": "4272200298",
    "name": "ヘルパーステーションケアメイト",
    "kana": "ヘルパーステーションケアメイト",
    "address": "長崎県五島市錦町3-10メイトプラザ メイトプラザ",
    "lat": 32.6931641689579,
    "lng": 128.841621726073,
    "tel": "0959-75-0076",
    "url": "",
    "pref": "長崎県",
    "city": "五島市",
    "category": "home_help",
    "serviceType": "訪問介護",
    "capacity": 0,
    "openDays": [
      "平日",
      "土曜日",
      "日曜日",
      "祝日"
    ],
    "openDaysNote": "サービス提供計画表に基づいて必要であれば夜間２２時までの体制とする。"
  },
  {
    "id": "4272200785",
    "name": "株式会社デイサービスセンターやまうち指定訪問介護いかけ事業所",
    "kana": "カブシキガイシャデイサービスセンターヤマウチシテイホウモンカイゴイカケジギョウショ",
    "address": "長崎県五島市吉田町3429番地",
    "lat": 32.6789801,
    "lng": 128.8243301,
    "tel": "0959-74-3525",
    "url": "http://day-yamauchi.com",
    "pref": "長崎県",
    "city": "五島市",
    "category": "home_help",
    "serviceType": "訪問介護",
    "capacity": 0,
    "openDays": [
      "平日",
      "祝日"
    ],
    "openDaysNote": "特別な需要があれば、365日、24時間体制にてサービス提供可能"
  },
  {
    "id": "4272200900",
    "name": "合同会社なる清和会ホームヘルパー真心",
    "kana": "ゴウドウガイシャナルセイワカイホームヘルパーマゴコロ",
    "address": "長崎県五島市奈留町浦1857番地2",
    "lat": 32.8271455,
    "lng": 128.9364335,
    "tel": "0959-64-2011",
    "url": "",
    "pref": "長崎県",
    "city": "五島市",
    "category": "home_help",
    "serviceType": "訪問介護",
    "capacity": null,
    "openDays": [
      "平日",
      "土曜日",
      "日曜日",
      "祝日"
    ],
    "openDaysNote": ""
  },
  {
    "id": "4272200850",
    "name": "社会福祉法人　岐宿園　ホームヘルパーステーションなごみ",
    "kana": "シャカイフクシホウジン　キシクエンホームヘルパーステーションナゴミ",
    "address": "長崎県五島市岐宿町岐宿2784番地3社会福祉法人　岐宿園　ホームヘルパーステーションなごみ 社会福祉法人　岐宿園　ホームヘルパーステーションなごみ",
    "lat": 32.7475275847327,
    "lng": 128.758184061924,
    "tel": "0959-82-0111",
    "url": "http://kishikuen.web.fc2.com/index.html",
    "pref": "長崎県",
    "city": "五島市",
    "category": "home_help",
    "serviceType": "訪問介護",
    "capacity": 0,
    "openDays": [
      "平日",
      "土曜日",
      "日曜日",
      "祝日"
    ],
    "openDaysNote": ""
  },
  {
    "id": "4271600761",
    "name": "社会福祉法人　五島市社会福祉協議会　富江支所　訪問介護事業所",
    "kana": "シャカイフクシホウジンゴトウシシャカイフクシキョウギカイトミエシショホウモンカイゴジギョウショ",
    "address": "長崎県五島市富江町狩立402番地1",
    "lat": 32.6123645,
    "lng": 128.7634918,
    "tel": "0959-86-2150",
    "url": "http://www.goto-shakyo.or.jp",
    "pref": "長崎県",
    "city": "五島市",
    "category": "home_help",
    "serviceType": "訪問介護",
    "capacity": 0,
    "openDays": [
      "平日",
      "土曜日",
      "日曜日",
      "祝日"
    ],
    "openDaysNote": "必要に応じて土・日曜日・祝日・も対応をする"
  },
  {
    "id": "4270604178",
    "name": "社会福祉法人　五島市社会福祉協議会　訪問介護事業所",
    "kana": "シャカイフクシホウジン　ゴトウシシャカイフクシキョウギカイ　ホウモンカイゴジギョウショ",
    "address": "長崎県五島市木場町４１４－１，４１３－４",
    "lat": 32.6925992,
    "lng": 128.8381377,
    "tel": "0959-72-3396",
    "url": "http://www.goto-shakyo.or.jp/",
    "pref": "長崎県",
    "city": "五島市",
    "category": "home_help",
    "serviceType": "訪問介護",
    "capacity": 0,
    "openDays": [
      "平日",
      "土曜日",
      "日曜日",
      "祝日"
    ],
    "openDaysNote": "但し、特別の事情がある場合は、この限りではない。"
  },
  {
    "id": "4271600837",
    "name": "社会福祉法人五島市社協ホームヘルパーステーション",
    "kana": "シャカイフクシホウジンゴトウシシャキョウホームヘルパーステーション",
    "address": "長崎県五島市三井楽町濱ノ畔１０４６番地1三井楽町総合福祉センター 三井楽町総合福祉センター",
    "lat": 32.7465169707805,
    "lng": 128.69144770077,
    "tel": "0959-84-2254",
    "url": "",
    "pref": "長崎県",
    "city": "五島市",
    "category": "home_help",
    "serviceType": "訪問介護",
    "capacity": 0,
    "openDays": [
      "平日",
      "土曜日",
      "日曜日",
      "祝日"
    ],
    "openDaysNote": "特別な事情がある場合はこの限りではない。"
  },
  {
    "id": "4272200769",
    "name": "訪問介護事業所　イータウン",
    "kana": "ホウモンカイゴジギョウショ　イータウン",
    "address": "長崎県五島市木場町156番地2通所介護事業所イータウン 通所介護事業所イータウン",
    "lat": 32.6906607316482,
    "lng": 128.827147342328,
    "tel": "0959-72-7188",
    "url": "",
    "pref": "長崎県",
    "city": "五島市",
    "category": "home_help",
    "serviceType": "訪問介護",
    "capacity": 0,
    "openDays": [
      "平日",
      "土曜日",
      "日曜日",
      "祝日"
    ],
    "openDaysNote": "特別な事情や緊急等の場合、その限りではない"
  },
  {
    "id": "4271600548",
    "name": "訪問介護事業所　きじの里",
    "kana": "ホウモンカイゴジギョウショ　キジノサト",
    "address": "長崎県五島市岐宿町二本楠３７５番地",
    "lat": 32.6737041,
    "lng": 128.72382,
    "tel": "0959-83-1246",
    "url": "http://syuhoukai.jp/",
    "pref": "長崎県",
    "city": "五島市",
    "category": "home_help",
    "serviceType": "訪問介護",
    "capacity": 30,
    "openDays": [
      "平日",
      "土曜日",
      "祝日"
    ],
    "openDaysNote": ""
  },
  {
    "id": "4272200926",
    "name": "訪問介護事業所kametokura",
    "kana": "ホウモンカイゴジギョウショ　カメトクラ",
    "address": "長崎県五島市上大津町304番地1サービス付き高齢者住宅リハビリテーションkametokura サービス付き高齢者住宅リハビリテーションkametokura",
    "lat": 32.6895947470505,
    "lng": 128.844525438098,
    "tel": "959742901",
    "url": "",
    "pref": "長崎県",
    "city": "五島市",
    "category": "home_help",
    "serviceType": "訪問介護",
    "capacity": 25,
    "openDays": [
      "平日",
      "土曜日",
      "日曜日",
      "祝日"
    ],
    "openDaysNote": "プランによっては24時間対応"
  },
  {
    "id": "4272200728",
    "name": "訪問介護事業所おおあらの里",
    "kana": "ホウモンカイゴジギョウショオオアラノサト",
    "address": "長崎県五島市大荒町1094番地1",
    "lat": 32.7000779754277,
    "lng": 128.830095359463,
    "tel": "0959-72-1266",
    "url": "",
    "pref": "長崎県",
    "city": "五島市",
    "category": "home_help",
    "serviceType": "訪問介護",
    "capacity": 9,
    "openDays": [
      "平日",
      "土曜日",
      "日曜日",
      "祝日"
    ],
    "openDaysNote": ""
  },
  {
    "id": "4272200967",
    "name": "訪問介護事業所元気村",
    "kana": "ホウモンカイゴジギョウショゲンキムラ",
    "address": "長崎県五島市奥浦町1321番地6",
    "lat": 32.7380203,
    "lng": 128.8281803,
    "tel": "0959-75-4500",
    "url": "作成中",
    "pref": "長崎県",
    "city": "五島市",
    "category": "home_help",
    "serviceType": "訪問介護",
    "capacity": null,
    "openDays": [
      "平日",
      "土曜日",
      "日曜日",
      "祝日"
    ],
    "openDaysNote": "但し、特別な事情がある場合は、この限りでない。"
  },
  {
    "id": "4272200074",
    "name": "有限会社　みうら介護サービス",
    "kana": "ユウゲンガイシャ　ミウラカイゴサービス",
    "address": "長崎県五島市富江町職人１７５番地１",
    "lat": 32.6127063,
    "lng": 128.7706914,
    "tel": "0959-86-3203",
    "url": "",
    "pref": "長崎県",
    "city": "五島市",
    "category": "home_help",
    "serviceType": "訪問介護",
    "capacity": 0,
    "openDays": [
      "平日",
      "土曜日",
      "日曜日",
      "祝日"
    ],
    "openDaysNote": ""
  },
  {
    "id": "4271501399",
    "name": "セントケア佐々",
    "kana": "セントケアサザ",
    "address": "長崎県北松浦郡佐々町本田原免216-8濱田店舗２階Ａ号 濱田店舗２階Ａ号",
    "lat": 33.2369175,
    "lng": 129.6487202,
    "tel": "0956-62-4351",
    "url": "http://www.saint-care.com/",
    "pref": "長崎県",
    "city": "佐々町",
    "category": "home_help",
    "serviceType": "訪問介護",
    "capacity": 30,
    "openDays": [
      "平日",
      "土曜日",
      "日曜日",
      "祝日"
    ],
    "openDaysNote": "サービス提供時間は事前に居宅介護支援及び介護予防支援事業所等により計画された居宅サービス及び介護予防サービス計画に基づくものとし、原則として緊急に依頼された訪問介護及び介護予防訪問介護の提供は行わないものとする。"
  },
  {
    "id": "4271500045",
    "name": "佐々町社会福祉協議会　ホームヘルプサービスセンター",
    "kana": "サザチョウシャカイフクシキョウギカイ　ホームヘルプサービスセンター",
    "address": "長崎県北松浦郡佐々町市場免23-1佐々町総合福祉センター 佐々町総合福祉センター",
    "lat": 33.2338087,
    "lng": 129.6474617,
    "tel": "0956-63-5900",
    "url": "http://www.sazafukushi.jp/",
    "pref": "長崎県",
    "city": "佐々町",
    "category": "home_help",
    "serviceType": "訪問介護",
    "capacity": 25,
    "openDays": [
      "平日",
      "土曜日",
      "日曜日",
      "祝日"
    ],
    "openDaysNote": "居宅サービス計画書に基づきサービスを提供します。"
  },
  {
    "id": "4271501514",
    "name": "長崎県北松浦郡佐々町小浦免219番地8",
    "kana": "ナガサキケンキタマツウラグンサザチョウコウラメン219バンチ８",
    "address": "長崎県北松浦郡佐々町小浦免219番地8",
    "lat": 33.2208755,
    "lng": 129.6449414,
    "tel": "0956-76-7512",
    "url": "",
    "pref": "長崎県",
    "city": "佐々町",
    "category": "home_help",
    "serviceType": "訪問介護",
    "capacity": null,
    "openDays": [
      "平日",
      "土曜日",
      "日曜日",
      "祝日"
    ],
    "openDaysNote": "なし"
  },
  {
    "id": "4270205653",
    "name": "NS",
    "kana": "エヌエス",
    "address": "長崎県佐世保市野中町500-2",
    "lat": 33.2114122,
    "lng": 129.7119054,
    "tel": "0956-42-8183",
    "url": "https://allblue-fukushi.co.jp/",
    "pref": "長崎県",
    "city": "佐世保市",
    "category": "home_help",
    "serviceType": "訪問介護",
    "capacity": null,
    "openDays": [
      "平日",
      "土曜日",
      "日曜日",
      "祝日"
    ],
    "openDaysNote": ""
  },
  {
    "id": "4270205596",
    "name": "あいずの介護",
    "kana": "アイズノカイゴ",
    "address": "長崎県佐世保市元町2番10号ルモント・ジョリ元町1階103号 ルモント・ジョリ元町1階103号",
    "lat": 33.175789,
    "lng": 129.7156552,
    "tel": "0956-59-9661",
    "url": "",
    "pref": "長崎県",
    "city": "佐世保市",
    "category": "home_help",
    "serviceType": "訪問介護",
    "capacity": null,
    "openDays": [
      "平日"
    ],
    "openDaysNote": ""
  },
  {
    "id": "4271100754",
    "name": "ことぶき訪問介護事業所",
    "kana": "コトブキホウモンカイゴジギョウショ",
    "address": "長崎県佐世保市花髙1丁目28-3",
    "lat": 33.1404463,
    "lng": 129.8040562,
    "tel": "0956-38-3207",
    "url": "http://kaigo-kotobuki.com",
    "pref": "長崎県",
    "city": "佐世保市",
    "category": "home_help",
    "serviceType": "訪問介護",
    "capacity": 3,
    "openDays": [
      "平日",
      "土曜日",
      "祝日"
    ],
    "openDaysNote": "①必要な時は日曜日も対応します。　（改行）②緊急時には電話等により、対応可能な体制をとっています。"
  },
  {
    "id": "4270204151",
    "name": "セントケア佐世保",
    "kana": "セントケアサセボ",
    "address": "長崎県佐世保市広田３丁目14番51号杢尾ビル2号室 杢尾ビル2号室",
    "lat": 33.1225005164538,
    "lng": 129.804318997584,
    "tel": "0956-26-5170",
    "url": "http://www.saint-care.com/",
    "pref": "長崎県",
    "city": "佐世保市",
    "category": "home_help",
    "serviceType": "訪問介護",
    "capacity": 0,
    "openDays": [
      "平日",
      "土曜日",
      "日曜日",
      "祝日"
    ],
    "openDaysNote": "24時間365日のサービス提供"
  },
  {
    "id": "4270201207",
    "name": "たんぽぽ訪問介護事業所",
    "kana": "タンポポホウモンカイゴジギョウショ",
    "address": "長崎県佐世保市横尾町235番地8",
    "lat": 33.1917587,
    "lng": 129.7127824,
    "tel": "0956-24-1264",
    "url": "https://www.tanpopo-yokoo.jp",
    "pref": "長崎県",
    "city": "佐世保市",
    "category": "home_help",
    "serviceType": "訪問介護",
    "capacity": null,
    "openDays": [
      "平日",
      "土曜日"
    ],
    "openDaysNote": "必要に応じて、随時対応"
  },
  {
    "id": "4270203963",
    "name": "ニチイケアセンター佐世保",
    "kana": "ニチイケアセンターサセボ",
    "address": "長崎県佐世保市常盤町4-23ＴＡＴＳＵＭＩビル　6F ＴＡＴＳＵＭＩビル　6F",
    "lat": 33.1743158,
    "lng": 129.7193207,
    "tel": "0956-42-4050",
    "url": "www.nichiigakkan.co.jp",
    "pref": "長崎県",
    "city": "佐世保市",
    "category": "home_help",
    "serviceType": "訪問介護",
    "capacity": 0,
    "openDays": [
      "平日",
      "土曜日",
      "日曜日",
      "祝日"
    ],
    "openDaysNote": "24時間（対応可能なかぎり）"
  },
  {
    "id": "4270205299",
    "name": "ニチイケアセンター早岐",
    "kana": "ニチイケアセンターハイキ",
    "address": "長崎県佐世保市権常寺1丁目4-20ふるさわ店舗1階B ふるさわ店舗1階B",
    "lat": 33.1316503,
    "lng": 129.8001988,
    "tel": "0956-20-5091",
    "url": "https://www.nichii-kaigo.jp/base/base-result/05BD3/",
    "pref": "長崎県",
    "city": "佐世保市",
    "category": "home_help",
    "serviceType": "訪問介護",
    "capacity": 0,
    "openDays": [
      "平日",
      "土曜日",
      "日曜日",
      "祝日"
    ],
    "openDaysNote": ""
  },
  {
    "id": "4270205232",
    "name": "ﾊｰﾄｹｱｱｼｽﾄ　ききょう",
    "kana": "ハートケアアシスト　キキョウ",
    "address": "長崎県佐世保市桜木町3番25号",
    "lat": 33.1990689,
    "lng": 129.727649,
    "tel": "0956-80-4017",
    "url": "kikyou@taubbig.jp",
    "pref": "長崎県",
    "city": "佐世保市",
    "category": "home_help",
    "serviceType": "訪問介護",
    "capacity": 0,
    "openDays": [
      "平日",
      "土曜日"
    ],
    "openDaysNote": ""
  },
  {
    "id": "4270201512",
    "name": "はらケアサービス訪問介護事業所",
    "kana": "ハラケアサービス　ホウモンカイゴジギョウショ",
    "address": "長崎県佐世保市木風町1281番地1",
    "lat": 33.1669506,
    "lng": 129.7466967,
    "tel": "0956-34-3003",
    "url": "harakea.com",
    "pref": "長崎県",
    "city": "佐世保市",
    "category": "home_help",
    "serviceType": "訪問介護",
    "capacity": 0,
    "openDays": [
      "平日",
      "土曜日",
      "日曜日",
      "祝日"
    ],
    "openDaysNote": ""
  },
  {
    "id": "4270202221",
    "name": "ヘルパーステーション　サポート福寿",
    "kana": "ヘルパーステーション　サポートフクジュ",
    "address": "長崎県佐世保市日宇町2910ｺｰﾎﾟ大原　１Ｆ107号 ｺｰﾎﾟ大原　１Ｆ107号",
    "lat": 33.1595798,
    "lng": 129.7724559,
    "tel": "0956-33-6321",
    "url": "",
    "pref": "長崎県",
    "city": "佐世保市",
    "category": "home_help",
    "serviceType": "訪問介護",
    "capacity": 0,
    "openDays": [
      "平日",
      "土曜日",
      "日曜日",
      "祝日"
    ],
    "openDaysNote": "但し、必要に応じてサービスを行う。"
  },
  {
    "id": "4270203559",
    "name": "ヘルパーステーション　希望の家",
    "kana": "ヘルパーステーション　キボウノイエ",
    "address": "長崎県佐世保市黒髪町33-23",
    "lat": 33.1656015,
    "lng": 129.7730474,
    "tel": "0956-20-8221",
    "url": "http://www.e-kibounoie.com/",
    "pref": "長崎県",
    "city": "佐世保市",
    "category": "home_help",
    "serviceType": "訪問介護",
    "capacity": 0,
    "openDays": [
      "平日",
      "土曜日",
      "日曜日",
      "祝日"
    ],
    "openDaysNote": ""
  },
  {
    "id": "4270205471",
    "name": "ヘルパーステーションあい",
    "kana": "ヘルパーステーションアイ",
    "address": "長崎県佐世保市吉岡町55－93",
    "lat": 33.2096807535326,
    "lng": 129.709153798744,
    "tel": "956376880",
    "url": "",
    "pref": "長崎県",
    "city": "佐世保市",
    "category": "home_help",
    "serviceType": "訪問介護",
    "capacity": 0,
    "openDays": [
      "平日"
    ],
    "openDaysNote": ""
  },
  {
    "id": "4270205430",
    "name": "ヘルパーステーションあんしん",
    "kana": "ヘルパーステーションアンシン",
    "address": "長崎県佐世保市大黒町2番21",
    "lat": 33.1559443,
    "lng": 129.7371104,
    "tel": "0956-34-2221",
    "url": "",
    "pref": "長崎県",
    "city": "佐世保市",
    "category": "home_help",
    "serviceType": "訪問介護",
    "capacity": 0,
    "openDays": [
      "平日"
    ],
    "openDaysNote": ""
  },
  {
    "id": "4270204433",
    "name": "ヘルパーステーションふくしあ",
    "kana": "ヘルパーステーションフクシア",
    "address": "長崎県佐世保市卸本町286番地2サービス付き高齢者向け住宅ふくしあ サービス付き高齢者向け住宅ふくしあ",
    "lat": 33.1475284570236,
    "lng": 129.771787137465,
    "tel": "0956-34-2948",
    "url": "http://www.fukushia-sasebo.jp/",
    "pref": "長崎県",
    "city": "佐世保市",
    "category": "home_help",
    "serviceType": "訪問介護",
    "capacity": 0,
    "openDays": [
      "平日",
      "土曜日",
      "日曜日",
      "祝日"
    ],
    "openDaysNote": ""
  },
  {
    "id": "4270204458",
    "name": "ヘルパーステーション絆",
    "kana": "ヘルパーステーションキズナ",
    "address": "長崎県佐世保市矢峰町72番地２カーサ矢峰Ⅱ101 カーサ矢峰Ⅱ101",
    "lat": 33.2111968961165,
    "lng": 129.747504858248,
    "tel": "0956-76-7007",
    "url": "",
    "pref": "長崎県",
    "city": "佐世保市",
    "category": "home_help",
    "serviceType": "訪問介護",
    "capacity": 0,
    "openDays": [
      "平日",
      "土曜日",
      "日曜日",
      "祝日"
    ],
    "openDaysNote": "なお、サービス提供にあっては上記時間外でも対応します。"
  },
  {
    "id": "4270204979",
    "name": "介護保険タクシー　すまいる",
    "kana": "カイゴホケンタクシースマイル",
    "address": "長崎県佐世保市光町1-45",
    "lat": 33.20577421151,
    "lng": 129.652823903705,
    "tel": "0956-55-1071",
    "url": "https://www.smiletaxi.co.jp/",
    "pref": "長崎県",
    "city": "佐世保市",
    "category": "home_help",
    "serviceType": "訪問介護",
    "capacity": 0,
    "openDays": [
      "平日",
      "土曜日"
    ],
    "openDaysNote": ""
  },
  {
    "id": "4270200589",
    "name": "介護老人保健施設　すいざん荘",
    "kana": "カイゴロウジンホケンシセツ　スイザンソウ",
    "address": "長崎県佐世保市赤崎町７４－２",
    "lat": 33.1649365,
    "lng": 129.6934495,
    "tel": "0956-26-4055",
    "url": "",
    "pref": "長崎県",
    "city": "佐世保市",
    "category": "home_help",
    "serviceType": "訪問介護",
    "capacity": 0,
    "openDays": [
      "平日",
      "土曜日",
      "日曜日",
      "祝日"
    ],
    "openDaysNote": ""
  },
  {
    "id": "4270205513",
    "name": "株式会社　Grasstail",
    "kana": "カブシキガイシャ　グラステイル",
    "address": "長崎県佐世保市吉井町草ノ尾124",
    "lat": 33.3031273397728,
    "lng": 129.684238728589,
    "tel": "956643528",
    "url": "",
    "pref": "長崎県",
    "city": "佐世保市",
    "category": "home_help",
    "serviceType": "訪問介護",
    "capacity": 0,
    "openDays": [
      "平日"
    ],
    "openDaysNote": ""
  },
  {
    "id": "4270202049",
    "name": "株式会社　九州たまがわ　ハートフルケアたまがわ　はいきステーション",
    "kana": "カブシキカイシャ　キュウシュウタマガワ　ハートフルケアタマガワ　ハイキステーション",
    "address": "権常寺1-4-10メイノスビル2F メイノスビル2F",
    "lat": 33.1323358,
    "lng": 129.8004539,
    "tel": "0956-26-5231",
    "url": "http://www.9tama.co.jp/heart_top.html",
    "pref": "長崎県",
    "city": "佐世保市",
    "category": "home_help",
    "serviceType": "訪問介護",
    "capacity": 0,
    "openDays": [
      "平日",
      "土曜日",
      "日曜日",
      "祝日"
    ],
    "openDaysNote": "24時間サービスの実施"
  },
  {
    "id": "4270205539",
    "name": "合同会社フラワーヘルパーステーション",
    "kana": "フラワーヘルパーステーション",
    "address": "長崎県佐世保市権常寺町1109－21",
    "lat": 33.1345864,
    "lng": 129.8060711,
    "tel": "0956－56－3495",
    "url": "",
    "pref": "長崎県",
    "city": "佐世保市",
    "category": "home_help",
    "serviceType": "訪問介護",
    "capacity": null,
    "openDays": [
      "平日",
      "土曜日"
    ],
    "openDaysNote": ""
  },
  {
    "id": "4270202627",
    "name": "佐世保市社協　吉井・世知原訪問介護事業所",
    "kana": "サセボシシャキョウ　ヨシイ・セチバルホウモンカイゴジギョウショ",
    "address": "長崎県佐世保市吉井町橋川内570-4",
    "lat": 33.2697403208197,
    "lng": 129.717331184351,
    "tel": "0956-64-3219",
    "url": "http://www.sasebo-shakyo.or.jp/",
    "pref": "長崎県",
    "city": "佐世保市",
    "category": "home_help",
    "serviceType": "訪問介護",
    "capacity": 0,
    "openDays": [
      "平日",
      "土曜日",
      "日曜日",
      "祝日"
    ],
    "openDaysNote": "上記時間のほか、電話等により24時間連絡が可能な体制とする"
  },
  {
    "id": "4270203864",
    "name": "佐世保市社協　江迎・鹿町訪問介護事業所",
    "kana": "サセボシシャキョウ　エムカエ・シカマチホウモンカイゴジギョウショ",
    "address": "長崎県佐世保市鹿町町深江550番地3",
    "lat": 33.3042732,
    "lng": 129.6203904,
    "tel": "0956-66-3077",
    "url": "http://www.sasebo-shakyo.or.jp",
    "pref": "長崎県",
    "city": "佐世保市",
    "category": "home_help",
    "serviceType": "訪問介護",
    "capacity": 0,
    "openDays": [
      "平日",
      "土曜日",
      "日曜日",
      "祝日"
    ],
    "openDaysNote": "24時間連絡が可能な体制とする。"
  },
  {
    "id": "4271501233",
    "name": "佐世保市社協　小佐々訪問介護事業所",
    "kana": "サセボシシャキョウ　コサザホウモンカイゴジギョウショ",
    "address": "長崎県佐世保市小佐々町楠泊1530番地23",
    "lat": 33.2193101,
    "lng": 129.5848913,
    "tel": "0956-41-5050",
    "url": "http://www.sasebo-shakyo.or.jp/kosazakaigo/",
    "pref": "長崎県",
    "city": "佐世保市",
    "category": "home_help",
    "serviceType": "訪問介護",
    "capacity": 0,
    "openDays": [
      "平日",
      "土曜日",
      "日曜日",
      "祝日"
    ],
    "openDaysNote": ""
  },
  {
    "id": "4270200217",
    "name": "佐世保市社協　訪問介護事業所",
    "kana": "サセボシシャキョウ　ホウモンカイゴジギョウショ",
    "address": "長崎県佐世保市八幡町6番1号",
    "lat": 33.1803986,
    "lng": 129.7168738,
    "tel": "0956-23-8919",
    "url": "http://www.sasebo-shakyo.or.jp/",
    "pref": "長崎県",
    "city": "佐世保市",
    "category": "home_help",
    "serviceType": "訪問介護",
    "capacity": 0,
    "openDays": [
      "平日",
      "土曜日",
      "日曜日",
      "祝日"
    ],
    "openDaysNote": "上記時間のほか電話等により24時間連絡が可能な体制とする。"
  },
  {
    "id": "4271501282",
    "name": "佐世保市社協宇久訪問介護事業所",
    "kana": "サセボシシャキョウウクホウモンカイゴジギョウショ",
    "address": "長崎県佐世保市宇久町平1904番地1",
    "lat": 33.2654641,
    "lng": 129.1276792,
    "tel": "0959-57-3688",
    "url": "http://www.sasebo-shakyo.or.jp/",
    "pref": "長崎県",
    "city": "佐世保市",
    "category": "home_help",
    "serviceType": "訪問介護",
    "capacity": null,
    "openDays": [
      "平日",
      "土曜日",
      "日曜日",
      "祝日"
    ],
    "openDaysNote": "上記以外の時間帯でも相談内容に応じ対応を検討していきます。"
  },
  {
    "id": "4270205406",
    "name": "社会福祉法人　福医会　訪問介護ふくにゃん",
    "kana": "ホウモンカイゴフクニャン",
    "address": "長崎県佐世保市権常寺1-1-19",
    "lat": 33.131263731018,
    "lng": 129.799887835582,
    "tel": "0956-37-6253",
    "url": "http://fukuikai.com/",
    "pref": "長崎県",
    "city": "佐世保市",
    "category": "home_help",
    "serviceType": "訪問介護",
    "capacity": 0,
    "openDays": [
      "平日",
      "土曜日",
      "日曜日",
      "祝日"
    ],
    "openDaysNote": "転送電話にて２４時間連絡可能としています。事業所営業時間以外の稼働は調整に時間を要します。"
  },
  {
    "id": "4270203583",
    "name": "社会福祉法人グリーンコープふくしサービスセンターえくぼ",
    "kana": "シャカイフクシホウジングリーンコープフクシサービスセンターエクボ",
    "address": "長崎県佐世保市俵町20-1",
    "lat": 33.1875535,
    "lng": 129.7190096,
    "tel": "0956-22-2343",
    "url": "https://www.fukushi-greencoop.or.jp",
    "pref": "長崎県",
    "city": "佐世保市",
    "category": "home_help",
    "serviceType": "訪問介護",
    "capacity": 0,
    "openDays": [
      "平日",
      "土曜日",
      "日曜日",
      "祝日"
    ],
    "openDaysNote": "上記の時間外もできる限りご相談に応じる。"
  },
  {
    "id": "4270200241",
    "name": "白十字会　ヘルパーステーション",
    "kana": "ハクジュウジカイヘルパーステーション",
    "address": "長崎県佐世保市日宇町2835番地介護老人保健施設　長寿苑　三階 介護老人保健施設　長寿苑　三階",
    "lat": 33.1554688,
    "lng": 129.7668258,
    "tel": "0956-46-5111",
    "url": "http://www.hakujyujikai.or.jp/tjn/",
    "pref": "長崎県",
    "city": "佐世保市",
    "category": "home_help",
    "serviceType": "訪問介護",
    "capacity": 0,
    "openDays": [
      "平日",
      "土曜日",
      "日曜日",
      "祝日"
    ],
    "openDaysNote": "同上"
  },
  {
    "id": "4270201652",
    "name": "福祉生協ヘルパーステーションいきいき佐世保",
    "kana": "フクシセイキョウヘルパーステーションイキイキサセボ",
    "address": "長崎県佐世保市日野町846-3-2Ｆ",
    "lat": 33.1696374579104,
    "lng": 129.678366961954,
    "tel": "0956-28-5098",
    "url": "http://www.ikiikicoop.net",
    "pref": "長崎県",
    "city": "佐世保市",
    "category": "home_help",
    "serviceType": "訪問介護",
    "capacity": 0,
    "openDays": [
      "平日",
      "土曜日",
      "日曜日",
      "祝日"
    ],
    "openDaysNote": ""
  },
  {
    "id": "4270205158",
    "name": "訪問介護　実",
    "kana": "ホウモンカイゴ　ミノリ",
    "address": "長崎県佐世保市早岐１丁目５番１０号",
    "lat": 33.1355132,
    "lng": 129.7973709,
    "tel": "0956-55-4103",
    "url": "",
    "pref": "長崎県",
    "city": "佐世保市",
    "category": "home_help",
    "serviceType": "訪問介護",
    "capacity": 0,
    "openDays": [],
    "openDaysNote": "サービス提供時間は出来るだけご要望をお聞きしています"
  },
  {
    "id": "4270201876",
    "name": "訪問介護あおぞら",
    "kana": "ホウモンカイゴ　アオゾラ",
    "address": "長崎県佐世保市吉岡町８１５－１",
    "lat": 33.208704,
    "lng": 129.7020301,
    "tel": "0956-41-0080",
    "url": "",
    "pref": "長崎県",
    "city": "佐世保市",
    "category": "home_help",
    "serviceType": "訪問介護",
    "capacity": 0,
    "openDays": [
      "平日",
      "土曜日",
      "日曜日",
      "祝日"
    ],
    "openDaysNote": "但し、それ以外の時間も希望あれば相談可。"
  },
  {
    "id": "4270205661",
    "name": "訪問介護あおぞら",
    "kana": "ホウモンカイゴアオゾラ",
    "address": "長崎県佐世保市椎木町193-2コーポ沢田102 コーポ沢田102",
    "lat": 33.1766131,
    "lng": 129.669314,
    "tel": "0956-76-7522",
    "url": "",
    "pref": "長崎県",
    "city": "佐世保市",
    "category": "home_help",
    "serviceType": "訪問介護",
    "capacity": null,
    "openDays": [
      "平日"
    ],
    "openDaysNote": ""
  },
  {
    "id": "4270204748",
    "name": "訪問介護ステーション　どれみ",
    "kana": "ホウモンカイゴステーション　ドレミ",
    "address": "長崎県佐世保市矢峰町119－1",
    "lat": 33.2116124,
    "lng": 129.7462759,
    "tel": "0956－40－6331",
    "url": "",
    "pref": "長崎県",
    "city": "佐世保市",
    "category": "home_help",
    "serviceType": "訪問介護",
    "capacity": 0,
    "openDays": [
      "平日",
      "土曜日",
      "日曜日",
      "祝日"
    ],
    "openDaysNote": ""
  },
  {
    "id": "4270203377",
    "name": "訪問介護ステーションアップルケア",
    "kana": "ホウモンカイゴステーションアップルケア",
    "address": "長崎県佐世保市松川町3番13号松川アパート202号室 松川アパート202号室",
    "lat": 33.1759577,
    "lng": 129.7333835,
    "tel": "0956-22-2286",
    "url": "",
    "pref": "長崎県",
    "city": "佐世保市",
    "category": "home_help",
    "serviceType": "訪問介護",
    "capacity": 0,
    "openDays": [
      "平日",
      "土曜日",
      "日曜日",
      "祝日"
    ],
    "openDaysNote": "特になし"
  },
  {
    "id": "4270204367",
    "name": "訪問介護ステーション優雅",
    "kana": "ホウモンカイゴステーションユウガ",
    "address": "長崎県佐世保市赤崎町1304番地8",
    "lat": 33.1495588729289,
    "lng": 129.703124679823,
    "tel": "０９５６－５９－７８３５",
    "url": "",
    "pref": "長崎県",
    "city": "佐世保市",
    "category": "home_help",
    "serviceType": "訪問介護",
    "capacity": 30,
    "openDays": [
      "平日",
      "土曜日",
      "日曜日",
      "祝日"
    ],
    "openDaysNote": "それ以外の時間帯は、要相談"
  },
  {
    "id": "4270205505",
    "name": "訪問介護ひまわり佐世保営業所",
    "kana": "ホウモンカイゴヒマワリサセボエイギョウショ",
    "address": "長崎県佐世保市小佐々町臼ノ浦164-3",
    "lat": 33.2168247,
    "lng": 129.6089493,
    "tel": "090-5949-2159",
    "url": "https://himawarikaigotaxi.storeinfo.jp/",
    "pref": "長崎県",
    "city": "佐世保市",
    "category": "home_help",
    "serviceType": "訪問介護",
    "capacity": 0,
    "openDays": [
      "平日",
      "土曜日"
    ],
    "openDaysNote": ""
  },
  {
    "id": "4270203369",
    "name": "訪問介護事業所　あっとホーム",
    "kana": "ホウモンカイゴジギョウショ　アットホーム",
    "address": "長崎県佐世保市早苗町４８６番地",
    "lat": 33.1417729106943,
    "lng": 129.801771816375,
    "tel": "0956-59-8876",
    "url": "",
    "pref": "長崎県",
    "city": "佐世保市",
    "category": "home_help",
    "serviceType": "訪問介護",
    "capacity": 0,
    "openDays": [
      "平日",
      "土曜日",
      "日曜日",
      "祝日"
    ],
    "openDaysNote": ""
  },
  {
    "id": "4270205109",
    "name": "訪問介護事業所　こころ",
    "kana": "ホウモンカイゴジギョウショ　ココロ",
    "address": "長崎県佐世保市新行江町1053-1",
    "lat": 33.150749,
    "lng": 129.8334504,
    "tel": "0956-30-8000",
    "url": "https://www.tomoayukai.jp",
    "pref": "長崎県",
    "city": "佐世保市",
    "category": "home_help",
    "serviceType": "訪問介護",
    "capacity": 0,
    "openDays": [
      "平日",
      "土曜日",
      "日曜日",
      "祝日"
    ],
    "openDaysNote": ""
  },
  {
    "id": "4270205018",
    "name": "訪問介護事業所　さくらプレイス広田",
    "kana": "ホウモンカイゴジギョウショ　サクラプレイスヒロタ",
    "address": "長崎県佐世保市権常寺1丁目1番15号",
    "lat": 33.1247863,
    "lng": 129.7946963,
    "tel": "0956-39-1688",
    "url": "",
    "pref": "長崎県",
    "city": "佐世保市",
    "category": "home_help",
    "serviceType": "訪問介護",
    "capacity": 0,
    "openDays": [
      "平日",
      "土曜日",
      "日曜日",
      "祝日"
    ],
    "openDaysNote": ""
  },
  {
    "id": "4270204813",
    "name": "訪問介護事業所　やまずみ荘",
    "kana": "ホウモンカイゴジギョウショヤマズミソウ",
    "address": "長崎県佐世保市山祇町390番地",
    "lat": 33.168930539963,
    "lng": 129.733180206285,
    "tel": "0956-34-8000",
    "url": "http:://www.yamazumiso.or.jp",
    "pref": "長崎県",
    "city": "佐世保市",
    "category": "home_help",
    "serviceType": "訪問介護",
    "capacity": 30,
    "openDays": [
      "平日",
      "土曜日",
      "日曜日",
      "祝日"
    ],
    "openDaysNote": "ただし、特別の需要があればこの限りではない。"
  },
  {
    "id": "4270204391",
    "name": "訪問介護事業所　春",
    "kana": "ホウモンカイゴジギョウショ　ハル",
    "address": "長崎県佐世保市権常寺町1085-3",
    "lat": 33.1356439,
    "lng": 129.8025092,
    "tel": "0956-26-5068",
    "url": "http://sta-haru.com/",
    "pref": "長崎県",
    "city": "佐世保市",
    "category": "home_help",
    "serviceType": "訪問介護",
    "capacity": 0,
    "openDays": [
      "平日",
      "土曜日",
      "祝日"
    ],
    "openDaysNote": ""
  },
  {
    "id": "4270200464",
    "name": "訪問介護事業所サクラ",
    "kana": "ホウモンカイゴジギョウショサクラ",
    "address": "長崎県佐世市花園町２０１番地",
    "lat": 33.1810894,
    "lng": 129.7226263,
    "tel": "0956-24-1991",
    "url": "",
    "pref": "長崎県",
    "city": "佐世保市",
    "category": "home_help",
    "serviceType": "訪問介護",
    "capacity": 280,
    "openDays": [
      "平日",
      "土曜日",
      "日曜日",
      "祝日"
    ],
    "openDaysNote": "７時から２０時まではフレックス勤務。24時までの準夜体制、２０時から７時までは夜勤体制にしており２４時間３６５日の体制で業務を実施しています。利用者のニーズにこたえられる体制で勤務を組んでいます。"
  },
  {
    "id": "4270201066",
    "name": "有限会社　オレンジケア",
    "kana": "ユウゲンガイシャ　オレンジケア",
    "address": "長崎県佐世保市大潟町143-12",
    "lat": 33.1818287,
    "lng": 129.6607654,
    "tel": "0956-42-3630",
    "url": "http://orangecare.jp/",
    "pref": "長崎県",
    "city": "佐世保市",
    "category": "home_help",
    "serviceType": "訪問介護",
    "capacity": 0,
    "openDays": [
      "平日"
    ],
    "openDaysNote": "ケアプラン作成時協議により休業日にサービスの提供をすることもあります。"
  },
  {
    "id": "4270200621",
    "name": "有限会社　ほのぼの介護サ－ビス",
    "kana": "ユウゲンガイシャ　ホノボノカイゴサ－ビス",
    "address": "長崎県佐世保市横尾町２１９０",
    "lat": 33.1984248,
    "lng": 129.7184152,
    "tel": "0956-24-5512",
    "url": "",
    "pref": "長崎県",
    "city": "佐世保市",
    "category": "home_help",
    "serviceType": "訪問介護",
    "capacity": 0,
    "openDays": [
      "平日",
      "土曜日",
      "日曜日",
      "祝日"
    ],
    "openDaysNote": "緊急な場合は２４時間対応"
  },
  {
    "id": "4270200324",
    "name": "有限会社嘉泉製陶所三川内ホームヘルプサービス事業所",
    "kana": "ユウゲンガイシャカセンセイトウショミカワチホームヘルプサービスジギョウショ",
    "address": "長崎県佐世保市三川内町６８５番地",
    "lat": 33.1355726,
    "lng": 129.8327534,
    "tel": "0956-30-8201",
    "url": "",
    "pref": "長崎県",
    "city": "佐世保市",
    "category": "home_help",
    "serviceType": "訪問介護",
    "capacity": 0,
    "openDays": [
      "平日",
      "土曜日",
      "日曜日",
      "祝日"
    ],
    "openDaysNote": "サービス提供時間外は要相談。"
  },
  {
    "id": "4271103253",
    "name": "ニチイケアセンター時津",
    "kana": "ニチイケアセンタートギツ",
    "address": "長崎県西彼杵郡時津町浦郷275-2アーベイン時津102 アーベイン時津102",
    "lat": 32.8288441,
    "lng": 129.8492915,
    "tel": "095-886-8002",
    "url": "http://www.nichiigakkan.co.jp",
    "pref": "長崎県",
    "city": "時津町",
    "category": "home_help",
    "serviceType": "訪問介護",
    "capacity": 0,
    "openDays": [
      "平日",
      "土曜日",
      "日曜日",
      "祝日"
    ],
    "openDaysNote": ""
  },
  {
    "id": "4271102867",
    "name": "ヘルパーステーション茶の間",
    "kana": "ヘルパーステーションチャノマ",
    "address": "長崎県西彼杵郡時津町日並3645第二明月荘201号室 第二明月荘201号室",
    "lat": 32.8440505077627,
    "lng": 129.834141469432,
    "tel": "095-882-0303",
    "url": "http://care-meigetsudou.jp",
    "pref": "長崎県",
    "city": "時津町",
    "category": "home_help",
    "serviceType": "訪問介護",
    "capacity": 40,
    "openDays": [
      "平日",
      "土曜日",
      "日曜日",
      "祝日"
    ],
    "openDaysNote": "利用者の希望により上記時間以外も対応。"
  },
  {
    "id": "4271100788",
    "name": "ヘルパーネットながさき",
    "kana": "ヘルパーネットナガサキ",
    "address": "長崎県西彼杵郡時津町浦郷277番地15",
    "lat": 32.8292782085115,
    "lng": 129.848820036042,
    "tel": "095-881-0343",
    "url": "",
    "pref": "長崎県",
    "city": "時津町",
    "category": "home_help",
    "serviceType": "訪問介護",
    "capacity": 0,
    "openDays": [
      "平日",
      "土曜日",
      "日曜日",
      "祝日"
    ],
    "openDaysNote": "24時間対応。"
  },
  {
    "id": "4271102941",
    "name": "近藤医院　訪問介護センター",
    "kana": "コンドウイインホウモンカイゴセンター",
    "address": "長崎県西彼杵郡時津町日並郷１３２５－８",
    "lat": 32.8485141,
    "lng": 129.8267062,
    "tel": "095-894-5011",
    "url": "kondo-clinic.org",
    "pref": "長崎県",
    "city": "時津町",
    "category": "home_help",
    "serviceType": "訪問介護",
    "capacity": 0,
    "openDays": [
      "平日",
      "土曜日",
      "日曜日",
      "祝日"
    ],
    "openDaysNote": "特記事項なし"
  },
  {
    "id": "4271100242",
    "name": "社会福祉法人　時津町社会福祉協議会　訪問介護事業所",
    "kana": "シャカイフクシホウジントギツチョウシャカイフクシキョウギカイホウモンカイゴジギョウショ",
    "address": "長崎県西彼杵郡時津町左底郷367番地",
    "lat": 32.8306184,
    "lng": 129.8362669,
    "tel": "095-882-0777",
    "url": "http://www.togitsu-shakyo.org",
    "pref": "長崎県",
    "city": "時津町",
    "category": "home_help",
    "serviceType": "訪問介護",
    "capacity": 0,
    "openDays": [
      "平日",
      "土曜日",
      "日曜日",
      "祝日"
    ],
    "openDaysNote": "24時間対応"
  },
  {
    "id": "4271103055",
    "name": "訪問介護ステーション　ロジ",
    "kana": "ホウモンカイゴステーション　ロジ",
    "address": "長崎県西彼杵郡時津町浜田郷632-1",
    "lat": 32.8323102548224,
    "lng": 129.859273225131,
    "tel": "095-894-1109",
    "url": "http://logi-support.co.jp/",
    "pref": "長崎県",
    "city": "時津町",
    "category": "home_help",
    "serviceType": "訪問介護",
    "capacity": 0,
    "openDays": [
      "平日",
      "土曜日",
      "日曜日",
      "祝日"
    ],
    "openDaysNote": ""
  },
  {
    "id": "4271102552",
    "name": "訪問介護事業所　ケアステーション優里",
    "kana": "ホウモンカイゴジギョウショ　ケアステーションユウリ",
    "address": "長崎県西彼杵郡時津町浜田郷２０番地１",
    "lat": 32.8304518,
    "lng": 129.851141,
    "tel": "095-893-5001",
    "url": "",
    "pref": "長崎県",
    "city": "時津町",
    "category": "home_help",
    "serviceType": "訪問介護",
    "capacity": 0,
    "openDays": [
      "平日",
      "土曜日",
      "日曜日",
      "祝日"
    ],
    "openDaysNote": "上記の営業時間のほか、必要に応じて２４時間３６５日、サービスの提供を行います。"
  },
  {
    "id": "4271102859",
    "name": "訪問介護事業所ひなた",
    "kana": "ホウモンカイゴジギョウショヒナタ",
    "address": "長崎県西彼杵郡時津町久留里郷1048-19",
    "lat": 32.8369916654959,
    "lng": 129.842657547052,
    "tel": "095-865-9958",
    "url": "",
    "pref": "長崎県",
    "city": "時津町",
    "category": "home_help",
    "serviceType": "訪問介護",
    "capacity": null,
    "openDays": [
      "平日",
      "土曜日",
      "祝日"
    ],
    "openDaysNote": "サービス時間は利用者の要請等の基づき行う。"
  },
  {
    "id": "4271103238",
    "name": "訪問介護事業所みつばち",
    "kana": "ホウモンカイゴジギョウショミツバチ",
    "address": "長崎県西彼杵郡時津町浦郷273-3コピーセンタービル1F コピーセンタービル1F",
    "lat": 32.8285769,
    "lng": 129.8493356,
    "tel": "095-882-0958",
    "url": "https://toyokixmitsubachi.com/",
    "pref": "長崎県",
    "city": "時津町",
    "category": "home_help",
    "serviceType": "訪問介護",
    "capacity": 0,
    "openDays": [
      "平日"
    ],
    "openDaysNote": ""
  },
  {
    "id": "4270800743",
    "name": "ヘルパーステーションあいのて",
    "kana": "ヘルパーステーションアイノテ",
    "address": "長崎県松浦市志佐町浦免８８９番地7松永ビル1F 松永ビル1F",
    "lat": 33.3435891,
    "lng": 129.7104553,
    "tel": "0956-59-5570",
    "url": "",
    "pref": "長崎県",
    "city": "松浦市",
    "category": "home_help",
    "serviceType": "訪問介護",
    "capacity": 0,
    "openDays": [
      "平日",
      "土曜日",
      "祝日"
    ],
    "openDaysNote": ""
  },
  {
    "id": "4270800669",
    "name": "介護サービスすもも",
    "kana": "カイゴサービススモモ",
    "address": "長崎県松浦市星鹿町下田免１７２－１",
    "lat": 33.3839597,
    "lng": 129.6741809,
    "tel": "090-2966-3102",
    "url": "",
    "pref": "長崎県",
    "city": "松浦市",
    "category": "home_help",
    "serviceType": "訪問介護",
    "capacity": 0,
    "openDays": [
      "平日",
      "土曜日",
      "祝日"
    ],
    "openDaysNote": "電話等により、２４時間常時連絡が可能な体制とする。"
  },
  {
    "id": "4270800297",
    "name": "菊地病院ホームヘルプサービス",
    "kana": "キクチビョウインホームヘルプサービス",
    "address": "長崎県松浦市志佐町浦免１７７５－１",
    "lat": 33.3415899,
    "lng": 129.7041259,
    "tel": "0956-76-9983",
    "url": "http://www.kikuchi-hp.com",
    "pref": "長崎県",
    "city": "松浦市",
    "category": "home_help",
    "serviceType": "訪問介護",
    "capacity": 0,
    "openDays": [
      "平日",
      "土曜日",
      "祝日"
    ],
    "openDaysNote": "上記時間以外は、ケアプランに基づく営業となります。"
  },
  {
    "id": "4271500359",
    "name": "社会福祉法人福島福祉会　いろは島荘　ホームヘルプサービス事業所",
    "kana": "シャカイフクシホウジンフクシマフクシカイ　イロハジマソウ　ホームヘルプサービスジギョウショ",
    "address": "長崎県松浦市福島町塩浜免3002番地",
    "lat": 33.3657634,
    "lng": 129.8236325,
    "tel": "0955-47-4611",
    "url": "http://www.ijrohaｊimasou.com",
    "pref": "長崎県",
    "city": "松浦市",
    "category": "home_help",
    "serviceType": "訪問介護",
    "capacity": 70,
    "openDays": [
      "平日",
      "土曜日",
      "祝日"
    ],
    "openDaysNote": "利用時間については相談に応じる"
  },
  {
    "id": "4271501175",
    "name": "松浦市社協鷹島支所訪問介護事業所",
    "kana": "マツウラシシャキョウタカシマシショホウモンカイゴジギョウショ",
    "address": "長崎県松浦市鷹島町神崎免137番地1松浦市高齢者生活福祉センター 松浦市高齢者生活福祉センター",
    "lat": 33.4361976,
    "lng": 129.7610515,
    "tel": "0955-48-3505",
    "url": "https://www.matsuura-shakyo.com/",
    "pref": "長崎県",
    "city": "松浦市",
    "category": "home_help",
    "serviceType": "訪問介護",
    "capacity": 0,
    "openDays": [
      "平日"
    ],
    "openDaysNote": "特別の需要がある場合はこの限りではない｡電話等により、２４時間常時連絡が可能な体制とする｡"
  },
  {
    "id": "4270800750",
    "name": "訪問介護事業所　はく",
    "kana": "ホウモンカイゴジギョウショ　ハク",
    "address": "長崎県松浦市志佐町高野免631番地4",
    "lat": 33.3279418,
    "lng": 129.7200945,
    "tel": "0956-37-8913",
    "url": "",
    "pref": "長崎県",
    "city": "松浦市",
    "category": "home_help",
    "serviceType": "訪問介護",
    "capacity": null,
    "openDays": [
      "平日",
      "土曜日"
    ],
    "openDaysNote": "サービス提供時間は、上記時間外でも、サービス提供可能な体制をとる場合あり"
  },
  {
    "id": "4271601033",
    "name": "若松訪問介護事業所",
    "kana": "ワカマツホウモンカイゴジギョウショ",
    "address": "長崎県南松浦郡新上五島町若松郷277番地7",
    "lat": 32.887981,
    "lng": 129.0211506,
    "tel": "0959-43-5530",
    "url": "",
    "pref": "長崎県",
    "city": "新上五島町",
    "category": "home_help",
    "serviceType": "訪問介護",
    "capacity": 0,
    "openDays": [
      "平日",
      "土曜日",
      "日曜日",
      "祝日"
    ],
    "openDaysNote": "需要がある場合はこの限りではない。"
  },
  {
    "id": "4271601074",
    "name": "上五島訪問介護事業所",
    "kana": "カミゴトウホウモンカイゴジギョウショ",
    "address": "長崎県南松浦郡新上五島町青方郷1379番地1新上五島町総合福祉センター 新上五島町総合福祉センター",
    "lat": 32.9850695,
    "lng": 129.0685549,
    "tel": "0959-52-2593",
    "url": "http://shinkamishakyo.net/index.html",
    "pref": "長崎県",
    "city": "新上五島町",
    "category": "home_help",
    "serviceType": "訪問介護",
    "capacity": 0,
    "openDays": [
      "平日",
      "土曜日",
      "日曜日",
      "祝日"
    ],
    "openDaysNote": "ただし、特別の需要がある場合はこの限りではない。"
  },
  {
    "id": "4271601470",
    "name": "新上五島訪問介護事業所",
    "kana": "シンカミゴトウホウモンカイゴジギョウショ",
    "address": "長崎県南松浦郡新上五島町奈摩郷910番地10",
    "lat": 33.0178371,
    "lng": 129.0733502,
    "tel": "0959-43-1188",
    "url": "https://www.sinkamigoto.net/",
    "pref": "長崎県",
    "city": "新上五島町",
    "category": "home_help",
    "serviceType": "訪問介護",
    "capacity": 0,
    "openDays": [
      "平日",
      "土曜日",
      "日曜日",
      "祝日"
    ],
    "openDaysNote": "３６５日開設を実施（改行）訪問の時間については、ご相談に応じて対応を実施致します"
  },
  {
    "id": "4271601454",
    "name": "訪問介護ステーション　オハナ",
    "kana": "ホウモンカイゴステーション　オハナ",
    "address": "長崎県南松浦郡新上五島町阿瀬津郷456-16",
    "lat": 32.9618707,
    "lng": 129.1030574,
    "tel": "0959-42-2860",
    "url": "",
    "pref": "長崎県",
    "city": "新上五島町",
    "category": "home_help",
    "serviceType": "訪問介護",
    "capacity": 40,
    "openDays": [
      "平日",
      "土曜日",
      "日曜日",
      "祝日"
    ],
    "openDaysNote": ""
  },
  {
    "id": "4271600951",
    "name": "有川訪問介護事業所",
    "kana": "アリカワホウモンカイゴジギョウショ",
    "address": "長崎県南松浦郡新上五島町有川郷2360番地8新上五島町有川地域福祉センターふれあい 新上五島町有川地域福祉センターふれあい",
    "lat": 32.9794184,
    "lng": 129.1101026,
    "tel": "0959-42-1359",
    "url": "",
    "pref": "長崎県",
    "city": "新上五島町",
    "category": "home_help",
    "serviceType": "訪問介護",
    "capacity": 0,
    "openDays": [
      "平日",
      "土曜日",
      "祝日"
    ],
    "openDaysNote": "需要があれば随時対応"
  },
  {
    "id": "4271101356",
    "name": "ヘルパーステーション元亀",
    "kana": "ヘルパーステーションゲンキ",
    "address": "長崎県西海市西彼町鳥加郷2171番地",
    "lat": 32.9907658390415,
    "lng": 129.748115341715,
    "tel": "0959-29-7170",
    "url": "https://www.seihikai.jp/",
    "pref": "長崎県",
    "city": "西海市",
    "category": "home_help",
    "serviceType": "訪問介護",
    "capacity": 0,
    "openDays": [
      "平日",
      "土曜日",
      "祝日"
    ],
    "openDaysNote": ""
  },
  {
    "id": "4272300122",
    "name": "西海市社協おおさきヘルパ－センタ－",
    "kana": "サイカイシシャキョウオオサキヘルパ－センタ－",
    "address": "長崎県西海市大島町1832番地1",
    "lat": 33.0399979525169,
    "lng": 129.622883551204,
    "tel": "0959-34-2278",
    "url": "http://www.shakyo-saikai.jp/",
    "pref": "長崎県",
    "city": "西海市",
    "category": "home_help",
    "serviceType": "訪問介護",
    "capacity": 0,
    "openDays": [
      "平日",
      "土曜日",
      "日曜日",
      "祝日"
    ],
    "openDaysNote": ""
  },
  {
    "id": "4272300015",
    "name": "西海市社協おおせとヘルパーセンター",
    "kana": "サイカイシシャキョウオオセトヘルパーセンター",
    "address": "長崎県西海市大瀬戸町瀬戸板浦郷920番地12",
    "lat": 32.9443739,
    "lng": 129.6380324,
    "tel": "0959-22-2557",
    "url": "http://www.shakyo-saikai.jp/",
    "pref": "長崎県",
    "city": "西海市",
    "category": "home_help",
    "serviceType": "訪問介護",
    "capacity": 2,
    "openDays": [
      "平日",
      "土曜日",
      "日曜日",
      "祝日"
    ],
    "openDaysNote": "ただし、特別の需要がある場合はこの限りではない。"
  },
  {
    "id": "4272300080",
    "name": "西海市社協ヘルパーセンター",
    "kana": "サイカイシシャキョウヘルパーセンター",
    "address": "長崎県西海市西海町黒口郷１４７７番地１",
    "lat": 33.062065,
    "lng": 129.6785649,
    "tel": "0959-32-1922",
    "url": "https://www.shakyo-saikai.jp",
    "pref": "長崎県",
    "city": "西海市",
    "category": "home_help",
    "serviceType": "訪問介護",
    "capacity": 0,
    "openDays": [
      "平日",
      "土曜日",
      "日曜日",
      "祝日"
    ],
    "openDaysNote": "特別な需要がある場合はこの限りではありません。"
  },
  {
    "id": "4272300320",
    "name": "訪問介護さいかい",
    "kana": "ホウモンカイゴサイカイ",
    "address": "長崎県西海市大島町1876番地59",
    "lat": 33.035001524318,
    "lng": 129.619393695245,
    "tel": "0959-34-3326",
    "url": "http://www.fukuikai.com/",
    "pref": "長崎県",
    "city": "西海市",
    "category": "home_help",
    "serviceType": "訪問介護",
    "capacity": 0,
    "openDays": [
      "平日",
      "土曜日",
      "日曜日",
      "祝日"
    ],
    "openDaysNote": "転送電話にて２４時間連絡可能としています。事業所営業時間以外の稼働は調整に時間を要します。"
  },
  {
    "id": "4271200851",
    "name": "ハッピーガーデン川棚　ヘルパーステーション",
    "kana": "ハッピーガーデンカワタナ　ヘルパーステーション",
    "address": "長崎県東彼杵郡川棚町城山町122番地1",
    "lat": 33.0703927,
    "lng": 129.8696045,
    "tel": "0956-82-5850",
    "url": "hg-kawatana.com",
    "pref": "長崎県",
    "city": "川棚町",
    "category": "home_help",
    "serviceType": "訪問介護",
    "capacity": 80,
    "openDays": [],
    "openDaysNote": "利用者の希望に応じて、サービスの提供については、24時間対応可能な体制を整えるものとします。"
  },
  {
    "id": "4271200075",
    "name": "川棚町社会福祉協議会　訪問介護事業所",
    "kana": "カワタナチョウシャカイフクシキョウギカイ　ホウモンカイゴジギョウショ",
    "address": "長崎県東彼杵郡川棚町下組郷338番地57いきがいセンター いきがいセンター",
    "lat": 33.0641879,
    "lng": 129.858965,
    "tel": "0956-82-2121",
    "url": "k.shakaifuksi@mist.ocn.ne.jp",
    "pref": "長崎県",
    "city": "川棚町",
    "category": "home_help",
    "serviceType": "訪問介護",
    "capacity": 0,
    "openDays": [
      "平日",
      "土曜日",
      "祝日"
    ],
    "openDaysNote": ""
  },
  {
    "id": "4271200950",
    "name": "訪問介護事業所　介護福祉タクシーなついろ",
    "kana": "ホウモンカイゴジギョウショ　カイゴフクシタクシーナツイロ",
    "address": "長崎県東彼杵郡川棚町小串郷2684番地1",
    "lat": 33.0662618,
    "lng": 129.8268734,
    "tel": "0956-76-9882",
    "url": "https://go-kenshin.co.jp/",
    "pref": "長崎県",
    "city": "川棚町",
    "category": "home_help",
    "serviceType": "訪問介護",
    "capacity": 10,
    "openDays": [
      "平日",
      "土曜日"
    ],
    "openDaysNote": ""
  },
  {
    "id": "4271800106",
    "name": "あすかホームヘルプステーション",
    "kana": "アスカホームヘルプステーション",
    "address": "長崎県対馬市厳原町東里３３８番地１介護老人保健施設つしま彩光園 介護老人保健施設つしま彩光園",
    "lat": 34.1983156,
    "lng": 129.2926817,
    "tel": "0920-52-9054",
    "url": "https://asukafukushikai.com",
    "pref": "長崎県",
    "city": "対馬市",
    "category": "home_help",
    "serviceType": "訪問介護",
    "capacity": 80,
    "openDays": [
      "平日",
      "土曜日",
      "日曜日",
      "祝日"
    ],
    "openDaysNote": "需要に応じ営業時間を変更できるものとする"
  },
  {
    "id": "4271900112",
    "name": "あすなろ訪問介護事業所",
    "kana": "アスナロホウモンカイゴジギョウショ",
    "address": "長崎県対馬市上対馬町大浦字浜在所原66番地1",
    "lat": 34.6719865,
    "lng": 129.4339509,
    "tel": "0920-88-6110",
    "url": "",
    "pref": "長崎県",
    "city": "対馬市",
    "category": "home_help",
    "serviceType": "訪問介護",
    "capacity": 0,
    "openDays": [
      "平日",
      "土曜日",
      "日曜日",
      "祝日"
    ],
    "openDaysNote": ""
  },
  {
    "id": "4272000284",
    "name": "ヘルパーステーション　かくさん",
    "kana": "ヘルパーステーションカクサン",
    "address": "長崎県対馬市美津島町鶏知甲663番地12",
    "lat": 34.267169202502,
    "lng": 129.308981205488,
    "tel": "0920-54-8595",
    "url": "https://beijyukai.com/",
    "pref": "長崎県",
    "city": "対馬市",
    "category": "home_help",
    "serviceType": "訪問介護",
    "capacity": 0,
    "openDays": [
      "平日",
      "土曜日",
      "日曜日",
      "祝日"
    ],
    "openDaysNote": "合理的に必要性がある場合には、時間外も対応する。"
  },
  {
    "id": "4271800148",
    "name": "ホームヘルプサービスわたづみ",
    "kana": "ホームヘルプサービスワタヅミ",
    "address": "長崎県対馬市豊玉町仁位９１－３",
    "lat": 34.3880885,
    "lng": 129.3135741,
    "tel": "0920-58-9800",
    "url": "http://www.koseikai.or.jp/",
    "pref": "長崎県",
    "city": "対馬市",
    "category": "home_help",
    "serviceType": "訪問介護",
    "capacity": 0,
    "openDays": [
      "平日",
      "土曜日",
      "日曜日",
      "祝日"
    ],
    "openDaysNote": ""
  },
  {
    "id": "4272000011",
    "name": "対馬市社会福祉協議会　下地区訪問介護事業所",
    "kana": "ツシマシシャカイフクシキョウギカイ　シモチクホウモンカイゴジギョウショ",
    "address": "長崎県対馬市美津島町鶏知乙1168-1",
    "lat": 34.2853581557171,
    "lng": 129.319358452422,
    "tel": "0920-54-2429",
    "url": "http://tsushima-city-shakyo.jp/",
    "pref": "長崎県",
    "city": "対馬市",
    "category": "home_help",
    "serviceType": "訪問介護",
    "capacity": 3,
    "openDays": [
      "平日",
      "土曜日",
      "日曜日",
      "祝日"
    ],
    "openDaysNote": "平日に限り　18：00から20：45も対応可能。"
  },
  {
    "id": "4272000078",
    "name": "対馬市社会福祉協議会　中地区訪問介護事業所",
    "kana": "ツシマシシャカイフクシキョウギカイ　ナカチクホウモンカイゴジギョウショ",
    "address": "長崎県対馬市峰町三根29番地",
    "lat": 34.4686178869811,
    "lng": 129.312667852892,
    "tel": "0920-83-0294",
    "url": "",
    "pref": "長崎県",
    "city": "対馬市",
    "category": "home_help",
    "serviceType": "訪問介護",
    "capacity": 0,
    "openDays": [
      "平日",
      "土曜日",
      "日曜日",
      "祝日"
    ],
    "openDaysNote": "利用者のニーズに応じて、早朝、夜間の勤務を行なう。"
  },
  {
    "id": "4270500376",
    "name": "スマイルケア",
    "kana": "スマイルケア",
    "address": "長崎県大村市宮小路1丁目281-2",
    "lat": 32.9470078,
    "lng": 129.9451605,
    "tel": "0957-27-4899",
    "url": "http://.ｎ‐smilecare.jp/",
    "pref": "長崎県",
    "city": "大村市",
    "category": "home_help",
    "serviceType": "訪問介護",
    "capacity": 0,
    "openDays": [
      "平日",
      "土曜日",
      "日曜日",
      "祝日"
    ],
    "openDaysNote": ""
  },
  {
    "id": "4270501507",
    "name": "セントケア大村",
    "kana": "セントケアオオムラ",
    "address": "長崎県大村市東三城町7-9フジビル201 フジビル201",
    "lat": 32.910769,
    "lng": 129.960598,
    "tel": "0957-52-7101",
    "url": "http://www.saint-care.com/",
    "pref": "長崎県",
    "city": "大村市",
    "category": "home_help",
    "serviceType": "訪問介護",
    "capacity": 0,
    "openDays": [
      "平日",
      "土曜日",
      "日曜日",
      "祝日"
    ],
    "openDaysNote": "サービス提供時間は、事前に居宅介護支援事業者等により計画された居宅サービス計画に基づくものとし、原則として緊急に依頼された訪問介護の提供は行わないものとする。"
  },
  {
    "id": "4270501184",
    "name": "トータルサポート　太陽",
    "kana": "トータルサポート　タイヨウ",
    "address": "長崎県大村市今富町649-7",
    "lat": 32.9546436,
    "lng": 129.9553041,
    "tel": "0957-46-8329",
    "url": "http://nikitataiyou.starfree.jp/",
    "pref": "長崎県",
    "city": "大村市",
    "category": "home_help",
    "serviceType": "訪問介護",
    "capacity": 0,
    "openDays": [
      "平日",
      "土曜日",
      "日曜日",
      "祝日"
    ],
    "openDaysNote": "緊急時の場合は、24時間対応いたします。"
  },
  {
    "id": "4270502000",
    "name": "ニチイケアセンター大村",
    "kana": "ニチイケアセンターオオムラ",
    "address": "長崎県大村市諏訪2丁目521-1將ビル104 將ビル104",
    "lat": 32.9287239,
    "lng": 129.9627153,
    "tel": "0957-49-5496",
    "url": "hstＱ70＠nichiigakkan.co.jp",
    "pref": "長崎県",
    "city": "大村市",
    "category": "home_help",
    "serviceType": "訪問介護",
    "capacity": 0,
    "openDays": [
      "平日",
      "土曜日",
      "日曜日",
      "祝日"
    ],
    "openDaysNote": ""
  },
  {
    "id": "4270501846",
    "name": "ヘルパーステーション　オリーブ",
    "kana": "ヘルパーステーションオリーブ",
    "address": "長崎県大村市東三城町２９番地１－１有料老人ホームほほえみ 有料老人ホームほほえみ",
    "lat": 32.9118503,
    "lng": 129.9603105,
    "tel": "0957-47-8857",
    "url": "",
    "pref": "長崎県",
    "city": "大村市",
    "category": "home_help",
    "serviceType": "訪問介護",
    "capacity": 0,
    "openDays": [
      "平日",
      "土曜日",
      "日曜日",
      "祝日"
    ],
    "openDaysNote": "上記の営業日、営業時間について、居宅サービス計画により依頼がある場合はこの限りではありません。"
  },
  {
    "id": "4270501036",
    "name": "ヘルパーステーション　スマイル",
    "kana": "ヘルパーステーション　スマイル",
    "address": "長崎県大村市久原1丁目595番地1２F ２F",
    "lat": 32.8957542876007,
    "lng": 129.965309769159,
    "tel": "0957-46-6583",
    "url": "http://www.kotonoumi.com/",
    "pref": "長崎県",
    "city": "大村市",
    "category": "home_help",
    "serviceType": "訪問介護",
    "capacity": 5,
    "openDays": [
      "平日",
      "土曜日",
      "日曜日",
      "祝日"
    ],
    "openDaysNote": "電話等により24時間常時連絡が可能な体制である（改行）その他の時間帯のサービス提供については要相談"
  },
  {
    "id": "4270502174",
    "name": "ヘルパーステーション　笑みふく",
    "kana": "ヘルパーステーション　エミフク",
    "address": "長崎県大村市富の原2丁目361番地2吉川アパートA 吉川アパートA",
    "lat": 32.9420032,
    "lng": 129.9385554,
    "tel": "957463575",
    "url": "",
    "pref": "長崎県",
    "city": "大村市",
    "category": "home_help",
    "serviceType": "訪問介護",
    "capacity": 0,
    "openDays": [
      "平日",
      "土曜日",
      "日曜日",
      "祝日"
    ],
    "openDaysNote": "8月13日～15日、12月30日～1月3日は各関係機関と調整し営業とします。"
  },
  {
    "id": "4270501689",
    "name": "ヘルパーステーションこころ",
    "kana": "ヘルパーステーションココロ",
    "address": "長崎県大村市植松１丁目９４番地３",
    "lat": 32.9303553109448,
    "lng": 129.959552095094,
    "tel": "０９５７－４２ー５８００",
    "url": "",
    "pref": "長崎県",
    "city": "大村市",
    "category": "home_help",
    "serviceType": "訪問介護",
    "capacity": 0,
    "openDays": [
      "平日",
      "土曜日",
      "日曜日",
      "祝日"
    ],
    "openDaysNote": "緊急時はその限りではありません。"
  },
  {
    "id": "4270502208",
    "name": "ヘルパーステーションゆかり",
    "kana": "ヘルパーステーションユカリ",
    "address": "長崎県大村市宮小路1丁目213-10",
    "lat": 32.9490209,
    "lng": 129.9449823,
    "tel": "957425571",
    "url": "https://yukari-systems.com/",
    "pref": "長崎県",
    "city": "大村市",
    "category": "home_help",
    "serviceType": "訪問介護",
    "capacity": 2,
    "openDays": [
      "平日",
      "土曜日"
    ],
    "openDaysNote": ""
  },
  {
    "id": "4270501457",
    "name": "ヘルパーステーション光",
    "kana": "ヘルパーステーション　ヒカリ",
    "address": "長崎県大村市木場１丁目９９４－１ケアホーム光・１Ｆ ケアホーム光・１Ｆ",
    "lat": 32.9013234,
    "lng": 129.9776843,
    "tel": "0957-53-8600",
    "url": "http://www.noahikari.com",
    "pref": "長崎県",
    "city": "大村市",
    "category": "home_help",
    "serviceType": "訪問介護",
    "capacity": 0,
    "openDays": [
      "平日",
      "土曜日",
      "日曜日",
      "祝日"
    ],
    "openDaysNote": ""
  },
  {
    "id": "4270500541",
    "name": "ヘルパーステーション秋櫻",
    "kana": "ヘルパーステーションコスモス",
    "address": "長崎県大村市諏訪2丁目576-4",
    "lat": 32.9296541,
    "lng": 129.9526272,
    "tel": "0957-54-5759",
    "url": "http://www.midori-group.com/",
    "pref": "長崎県",
    "city": "大村市",
    "category": "home_help",
    "serviceType": "訪問介護",
    "capacity": 0,
    "openDays": [
      "平日",
      "土曜日",
      "日曜日",
      "祝日"
    ],
    "openDaysNote": "特になし"
  },
  {
    "id": "4270501267",
    "name": "ヘルパーステーション松原のさと",
    "kana": "ヘルパーステーションマツバラノサト",
    "address": "長崎県大村市松原本町273番地3101号",
    "lat": 32.9761482338308,
    "lng": 129.945206560779,
    "tel": "0957-56-2328",
    "url": "http://matsubara-wa.jp/matsubara/vnc/",
    "pref": "長崎県",
    "city": "大村市",
    "category": "home_help",
    "serviceType": "訪問介護",
    "capacity": 0,
    "openDays": [
      "平日",
      "土曜日",
      "日曜日",
      "祝日"
    ],
    "openDaysNote": ""
  },
  {
    "id": "4270500871",
    "name": "ホームヘルパーしんり",
    "kana": "ホームヘルパーシンリ",
    "address": "長崎県大村市水田町７５３－１０",
    "lat": 32.9170776,
    "lng": 129.9583827,
    "tel": "0957-48-6040",
    "url": "",
    "pref": "長崎県",
    "city": "大村市",
    "category": "home_help",
    "serviceType": "訪問介護",
    "capacity": 35,
    "openDays": [
      "平日",
      "土曜日",
      "祝日"
    ],
    "openDaysNote": "日曜日及び時間外も利用者の要望に応じる"
  },
  {
    "id": "4270500186",
    "name": "ホームヘルパーステーション　慈恵荘",
    "kana": "ホームヘルパーステーション　ジケイソウ",
    "address": "長崎県大村市富の原２丁目６－１あんしんハウスとみのはら あんしんハウスとみのはら",
    "lat": 32.949594,
    "lng": 129.9416403,
    "tel": "0957-28-8150",
    "url": "http://keikokai.jp",
    "pref": "長崎県",
    "city": "大村市",
    "category": "home_help",
    "serviceType": "訪問介護",
    "capacity": 0,
    "openDays": [
      "平日",
      "土曜日",
      "日曜日",
      "祝日"
    ],
    "openDaysNote": "特になし。"
  },
  {
    "id": "4270501937",
    "name": "ホームヘルプ　　　菜の花",
    "kana": "ホームヘルプ　　ナノハナ",
    "address": "長崎県大村市上諏訪町1629-22",
    "lat": 32.9287693955355,
    "lng": 129.977595912883,
    "tel": "0957-51-6746",
    "url": "https://homehelpnanohana.wixsite.com/homehelpnanohana",
    "pref": "長崎県",
    "city": "大村市",
    "category": "home_help",
    "serviceType": "訪問介護",
    "capacity": 5,
    "openDays": [
      "平日",
      "土曜日",
      "祝日"
    ],
    "openDaysNote": "無"
  },
  {
    "id": "4270501440",
    "name": "合同会社　優倫会　訪問介護ステーション絆",
    "kana": "ゴウドウカイシャ　ユウリンカイ　ホウモンカイゴステーションキズナ",
    "address": "長崎県大村市坂口町477番地1",
    "lat": 32.9380398,
    "lng": 129.9639121,
    "tel": "0957-20-8066",
    "url": "http://care-net.biz/42/kizuna/",
    "pref": "長崎県",
    "city": "大村市",
    "category": "home_help",
    "serviceType": "訪問介護",
    "capacity": 0,
    "openDays": [
      "平日",
      "土曜日",
      "日曜日",
      "祝日"
    ],
    "openDaysNote": "その他の時間は相談に応じます"
  },
  {
    "id": "4270501606",
    "name": "生活サポート悠久",
    "kana": "セイカツサポートユウキュウ",
    "address": "長崎県大村市東野岳町1699番地2",
    "lat": 32.9770253,
    "lng": 129.9761356,
    "tel": "0957-27-4017",
    "url": "http//:www.arumu.info/",
    "pref": "長崎県",
    "city": "大村市",
    "category": "home_help",
    "serviceType": "訪問介護",
    "capacity": 0,
    "openDays": [
      "平日",
      "土曜日",
      "日曜日",
      "祝日"
    ],
    "openDaysNote": "年中無休"
  },
  {
    "id": "4270500137",
    "name": "泉の里ホームヘルパー派遣事業",
    "kana": "イズミノサトホームヘルパーハケンジギョウ",
    "address": "長崎県大村市東本町583番地",
    "lat": 32.9087339,
    "lng": 129.9611521,
    "tel": "0957-54-2107",
    "url": "http://izuminosato.jp/",
    "pref": "長崎県",
    "city": "大村市",
    "category": "home_help",
    "serviceType": "訪問介護",
    "capacity": 0,
    "openDays": [
      "平日",
      "土曜日",
      "日曜日",
      "祝日"
    ],
    "openDaysNote": "緊急の場合を除き、介護サービス計画に基づきサービス提供を行う。"
  },
  {
    "id": "4271102263",
    "name": "福祉生協ヘルパーステーションいきいき大村",
    "kana": "フクシセイキョウヘルパーステーションイキイキオオムラ",
    "address": "長崎県大村市松山町６１３－１",
    "lat": 32.914933,
    "lng": 129.9454086,
    "tel": "0957-47-8666",
    "url": "http://www.ikiikicoop.net",
    "pref": "長崎県",
    "city": "大村市",
    "category": "home_help",
    "serviceType": "訪問介護",
    "capacity": 20,
    "openDays": [
      "平日",
      "土曜日",
      "日曜日",
      "祝日"
    ],
    "openDaysNote": ""
  },
  {
    "id": "4270502307",
    "name": "訪問介護あんのん",
    "kana": "ホウモンカイゴアンノン",
    "address": "長崎県大村市協和町710-1",
    "lat": 32.9183447,
    "lng": 129.9459253,
    "tel": "0957-50-0066",
    "url": "http://www.annon.co.jp/index.shtml",
    "pref": "長崎県",
    "city": "大村市",
    "category": "home_help",
    "serviceType": "訪問介護",
    "capacity": null,
    "openDays": [
      "平日",
      "土曜日"
    ],
    "openDaysNote": ""
  },
  {
    "id": "4270502190",
    "name": "訪問介護ステーションアスエ",
    "kana": "ホウモンカイゴステーションアスエ",
    "address": "長崎県大村市東本町273-1テナント1階",
    "lat": 32.9000257,
    "lng": 129.9578634,
    "tel": "0957-54-7771",
    "url": "",
    "pref": "長崎県",
    "city": "大村市",
    "category": "home_help",
    "serviceType": "訪問介護",
    "capacity": 50,
    "openDays": [
      "平日",
      "土曜日",
      "日曜日",
      "祝日"
    ],
    "openDaysNote": ""
  },
  {
    "id": "4270502265",
    "name": "訪問介護事業所バナナ",
    "kana": "ホウモンカイゴジギョウショバナナ",
    "address": "長崎県大村市池田２丁目276-3",
    "lat": 32.9326369,
    "lng": 129.9642486,
    "tel": "0957-46-3664",
    "url": "",
    "pref": "長崎県",
    "city": "大村市",
    "category": "home_help",
    "serviceType": "訪問介護",
    "capacity": 0,
    "openDays": [
      "平日"
    ],
    "openDaysNote": "適宜対応"
  },
  {
    "id": "4270100110",
    "name": "㈱長崎共済企画指定訪問介護事業所エバーグリーン",
    "kana": "（カブ）ナガサキキョウサイキカクシテイホウモンカイゴジギョウショエバーグリーン",
    "address": "長崎県長崎市出島町11-12",
    "lat": 32.742539,
    "lng": 129.8736618,
    "tel": "095-825-0266",
    "url": "",
    "pref": "長崎県",
    "city": "長崎市",
    "category": "home_help",
    "serviceType": "訪問介護",
    "capacity": 0,
    "openDays": [
      "平日",
      "土曜日",
      "日曜日",
      "祝日"
    ],
    "openDaysNote": ""
  },
  {
    "id": "4270136098",
    "name": "augurio訪問介護",
    "kana": "アウグーリオホウモンカイゴ",
    "address": "長崎県長崎市旭町9番12号杉元ビル2階 杉元ビル2階",
    "lat": 32.7488182,
    "lng": 129.8639063,
    "tel": "958659004",
    "url": "http://augurio-kaigo.com/",
    "pref": "長崎県",
    "city": "長崎市",
    "category": "home_help",
    "serviceType": "訪問介護",
    "capacity": null,
    "openDays": [
      "平日",
      "土曜日",
      "日曜日",
      "祝日"
    ],
    "openDaysNote": ""
  },
  {
    "id": "4270109863",
    "name": "あいわ介護ながさきヘルパーステーション",
    "kana": "アイワカイゴナガサキヘルパーステーション",
    "address": "鍛冶屋町7番48号テラダビル２階 テラダビル２階",
    "lat": 32.7419949,
    "lng": 129.8830529,
    "tel": "095－807－4527",
    "url": "",
    "pref": "長崎県",
    "city": "長崎市",
    "category": "home_help",
    "serviceType": "訪問介護",
    "capacity": 1,
    "openDays": [
      "平日",
      "土曜日",
      "祝日"
    ],
    "openDaysNote": "お電話でのお問い合わせは随時お受けしております。"
  },
  {
    "id": "4270103262",
    "name": "あおぞら介護センター",
    "kana": "アオゾラカイゴセンター",
    "address": "長崎県長崎市新戸町1丁目18番1号星子医院2階 星子医院2階",
    "lat": 32.712822,
    "lng": 129.8648382,
    "tel": "095-879-4000",
    "url": "",
    "pref": "長崎県",
    "city": "長崎市",
    "category": "home_help",
    "serviceType": "訪問介護",
    "capacity": 40,
    "openDays": [
      "平日",
      "土曜日",
      "祝日"
    ],
    "openDaysNote": "上記の時間以外は相談により対応する場合もございます。"
  },
  {
    "id": "4270103015",
    "name": "あさひヘルパーステーション",
    "kana": "アサヒヘルパーステーション",
    "address": "長崎県長崎市旭町21-14",
    "lat": 32.7517378,
    "lng": 129.8626792,
    "tel": "095-861-1110",
    "url": "",
    "pref": "長崎県",
    "city": "長崎市",
    "category": "home_help",
    "serviceType": "訪問介護",
    "capacity": 0,
    "openDays": [
      "平日",
      "土曜日",
      "日曜日",
      "祝日"
    ],
    "openDaysNote": "上記以外は、相談可"
  },
  {
    "id": "4270110226",
    "name": "あなぶきケアサービス長崎訪問介護事業所",
    "kana": "アナブキケアサービスナガサキホウモンカイゴジギョウショ",
    "address": "長崎県長崎市勝山町41",
    "lat": 32.7516634,
    "lng": 129.8806667,
    "tel": "095-895-7101",
    "url": "http://www.anabuki-medical.jp/",
    "pref": "長崎県",
    "city": "長崎市",
    "category": "home_help",
    "serviceType": "訪問介護",
    "capacity": 0,
    "openDays": [
      "平日"
    ],
    "openDaysNote": "営業時間外でも対応します。"
  },
  {
    "id": "4270135918",
    "name": "アネスト長崎訪問介護サービス",
    "kana": "アネストナガサキホウモンカイゴサービス",
    "address": "長崎県長崎市高尾町44-17コーポレピュート201号 コーポレピュート201号",
    "lat": 32.7798385,
    "lng": 129.87545,
    "tel": "095-894-4931",
    "url": "",
    "pref": "長崎県",
    "city": "長崎市",
    "category": "home_help",
    "serviceType": "訪問介護",
    "capacity": null,
    "openDays": [
      "平日",
      "土曜日",
      "日曜日",
      "祝日"
    ],
    "openDaysNote": ""
  },
  {
    "id": "4270135637",
    "name": "ウェルネスケアステーションローカル",
    "kana": "ウェルネスケアステーションローカル",
    "address": "長崎県長崎市為石町2314番地",
    "lat": 32.6414592,
    "lng": 129.8374039,
    "tel": "095-895-9094",
    "url": "http://hp.kaipoke.biz/2h4/",
    "pref": "長崎県",
    "city": "長崎市",
    "category": "home_help",
    "serviceType": "訪問介護",
    "capacity": 80,
    "openDays": [
      "平日",
      "土曜日",
      "祝日"
    ],
    "openDaysNote": "サービス時間外の連絡や訪問等に対応可。"
  },
  {
    "id": "4270136064",
    "name": "うららヘルパーステーション",
    "kana": "ウララヘルパーステーション",
    "address": "長崎市昭和1丁目6番27号",
    "lat": 32.7905149,
    "lng": 129.8684494,
    "tel": "095-801-4136",
    "url": "www.rayl-nagasaki.net",
    "pref": "長崎県",
    "city": "長崎市",
    "category": "home_help",
    "serviceType": "訪問介護",
    "capacity": null,
    "openDays": [
      "平日",
      "土曜日"
    ],
    "openDaysNote": "基本的には営業時間に合わせた稼働状況となります。"
  },
  {
    "id": "4270135686",
    "name": "エフ・ステージ訪問介護",
    "kana": "エフ・ステージホウモンカイゴ",
    "address": "長崎県長崎市白木町4番3号",
    "lat": 32.7393672,
    "lng": 129.8943057,
    "tel": "095-820-1510",
    "url": "https://entowa.co.jp/",
    "pref": "長崎県",
    "city": "長崎市",
    "category": "home_help",
    "serviceType": "訪問介護",
    "capacity": 0,
    "openDays": [
      "平日"
    ],
    "openDaysNote": "上記時間以外のサービスについては、ご相談ください。"
  },
  {
    "id": "4270135702",
    "name": "おんかいヘルパーステーション",
    "kana": "オンカイヘルパーステーション",
    "address": "長崎県長崎市立山１−６−１６",
    "lat": 32.7550952,
    "lng": 129.8806724,
    "tel": "095-895-7241",
    "url": "https://onkai-nagasaki.com/",
    "pref": "長崎県",
    "city": "長崎市",
    "category": "home_help",
    "serviceType": "訪問介護",
    "capacity": 0,
    "openDays": [
      "平日",
      "土曜日",
      "日曜日",
      "祝日"
    ],
    "openDaysNote": "８月１３日〜１５日、１２月３０日〜１月３日を除く"
  },
  {
    "id": "4270135942",
    "name": "かしの樹ヘルパーステーション",
    "kana": "カシノキヘルパーステーション",
    "address": "長崎県長崎市琴海戸根町3100-1",
    "lat": 32.8925516,
    "lng": 129.7704063,
    "tel": "090-3713-0422",
    "url": "",
    "pref": "長崎県",
    "city": "長崎市",
    "category": "home_help",
    "serviceType": "訪問介護",
    "capacity": null,
    "openDays": [
      "平日"
    ],
    "openDaysNote": ""
  },
  {
    "id": "4270103973",
    "name": "ケアスタッフ　真心",
    "kana": "ケアスタッフ　マゴコロ",
    "address": "長崎県長崎市江里町10番27号",
    "lat": 32.7813597,
    "lng": 129.8599176,
    "tel": "095-843-7933",
    "url": "",
    "pref": "長崎県",
    "city": "長崎市",
    "category": "home_help",
    "serviceType": "訪問介護",
    "capacity": 0,
    "openDays": [
      "平日",
      "土曜日",
      "日曜日",
      "祝日"
    ],
    "openDaysNote": ""
  },
  {
    "id": "4270135611",
    "name": "ケアステーションさくらの里",
    "kana": "ケアステーションサクラノサト",
    "address": "長崎県長崎市畝刈町1613番地85ニューポートメディカルビル１F ニューポートメディカルビル１F",
    "lat": 32.8255175,
    "lng": 129.7769554,
    "tel": "095-801-4720",
    "url": "http://www.sakuranosato.or.jp",
    "pref": "長崎県",
    "city": "長崎市",
    "category": "home_help",
    "serviceType": "訪問介護",
    "capacity": 0,
    "openDays": [
      "平日",
      "土曜日",
      "日曜日",
      "祝日"
    ],
    "openDaysNote": "※緊急時や支援内容によって、それ以外の時間帯も対応する。"
  },
  {
    "id": "4270108964",
    "name": "スイートピー訪問介護事業所",
    "kana": "スイートピーホウモンカイゴジギョウショ",
    "address": "長崎県長崎市中園町2番12号林田事務所1階 林田事務所1階",
    "lat": 32.790542,
    "lng": 129.8597948,
    "tel": "095-865-6120",
    "url": "http://sweetpeakaigo.com/",
    "pref": "長崎県",
    "city": "長崎市",
    "category": "home_help",
    "serviceType": "訪問介護",
    "capacity": 120,
    "openDays": [
      "平日",
      "土曜日",
      "日曜日",
      "祝日"
    ],
    "openDaysNote": ""
  },
  {
    "id": "4270103288",
    "name": "スマイルケア長崎",
    "kana": "スマイルケアナガサキ",
    "address": "長崎県長崎市御船蔵町6番3号",
    "lat": 32.7560266,
    "lng": 129.8716173,
    "tel": "095-827-7056",
    "url": "http://www.tsukasa-co.jp/",
    "pref": "長崎県",
    "city": "長崎市",
    "category": "home_help",
    "serviceType": "訪問介護",
    "capacity": 0,
    "openDays": [
      "平日",
      "土曜日",
      "日曜日",
      "祝日"
    ],
    "openDaysNote": "電話等により、24時間常時連絡が可能な体制とする。"
  },
  {
    "id": "4270108345",
    "name": "セントケア長崎",
    "kana": "セントケアナガサキ",
    "address": "長崎県長崎市中川2丁目1-10井手口ビル２階2F号室 井手口ビル２階2F号室",
    "lat": 32.7530939,
    "lng": 129.8837359,
    "tel": "095-832-6281",
    "url": "http://www.saint-care.com/index.html",
    "pref": "長崎県",
    "city": "長崎市",
    "category": "home_help",
    "serviceType": "訪問介護",
    "capacity": 0,
    "openDays": [
      "平日",
      "土曜日",
      "日曜日",
      "祝日"
    ],
    "openDaysNote": "事前に居宅介護支援及び介護予防事業者等により計画された居宅サービス及び介護予防サービス計画に基ずくものとし、原則として緊急に依頼された訪問介護及び介護予防訪問介護の提供は行わないものとする。"
  },
  {
    "id": "4270106695",
    "name": "たおやかに・訪問介護ステーション",
    "kana": "タオヤカニ・ホウモンカイゴステーション",
    "address": "長崎県長崎市上黒崎町777番地",
    "lat": 32.8440868343814,
    "lng": 129.718159269312,
    "tel": "0959-37-6352",
    "url": "http://www.itidoutaoyakani.com",
    "pref": "長崎県",
    "city": "長崎市",
    "category": "home_help",
    "serviceType": "訪問介護",
    "capacity": 0,
    "openDays": [
      "平日",
      "土曜日",
      "日曜日",
      "祝日"
    ],
    "openDaysNote": ""
  },
  {
    "id": "4270112115",
    "name": "ニチイケアセンター城山",
    "kana": "ニチイケアセンターシロヤマ",
    "address": "城山町4-13スマイルビル103号 スマイルビル103号",
    "lat": 32.7738104,
    "lng": 129.8592768,
    "tel": "095-818-0177",
    "url": "http://www.nichiigakkan.co.jp/",
    "pref": "長崎県",
    "city": "長崎市",
    "category": "home_help",
    "serviceType": "訪問介護",
    "capacity": 0,
    "openDays": [
      "平日",
      "土曜日",
      "日曜日",
      "祝日"
    ],
    "openDaysNote": ""
  },
  {
    "id": "4270100656",
    "name": "ニチイケアセンター長崎",
    "kana": "ニチイケアセンターナガサキ",
    "address": "長崎県長崎市桜馬場1丁目2番4号グリーンビル3Ｆ グリーンビル3Ｆ",
    "lat": 32.7527524,
    "lng": 129.8884134,
    "tel": "095-811-4502",
    "url": "http://www.nichiigakkan.co.jp/",
    "pref": "長崎県",
    "city": "長崎市",
    "category": "home_help",
    "serviceType": "訪問介護",
    "capacity": 0,
    "openDays": [
      "平日",
      "土曜日",
      "日曜日",
      "祝日"
    ],
    "openDaysNote": ""
  },
  {
    "id": "4270107834",
    "name": "ニチイケアセンター東長崎",
    "kana": "ニチイケアセンターヒガシナガサキ",
    "address": "長崎県長崎市矢上町23-6",
    "lat": 32.7760957,
    "lng": 129.9517773,
    "tel": "095-832-0150",
    "url": "http://www.nichiigakkan.co.jp",
    "pref": "長崎県",
    "city": "長崎市",
    "category": "home_help",
    "serviceType": "訪問介護",
    "capacity": 0,
    "openDays": [
      "平日",
      "土曜日",
      "日曜日",
      "祝日"
    ],
    "openDaysNote": ""
  },
  {
    "id": "4270107099",
    "name": "はーとふる長崎",
    "kana": "ハートフルナガサキ",
    "address": "長崎県長崎市福田本町１８５番２",
    "lat": 32.7466639928139,
    "lng": 129.818829221457,
    "tel": "095-865-2503",
    "url": "http://www.ufinitia.com/",
    "pref": "長崎県",
    "city": "長崎市",
    "category": "home_help",
    "serviceType": "訪問介護",
    "capacity": 0,
    "openDays": [
      "平日",
      "土曜日",
      "日曜日",
      "祝日"
    ],
    "openDaysNote": "年末年始の訪問介護を利用できるサービス内容と時間については、別途相談となります。"
  },
  {
    "id": "4270110291",
    "name": "フロムハート",
    "kana": "フロムハート",
    "address": "長崎県長崎市大橋町２４－１５古田ビル１階 古田ビル１階",
    "lat": 32.7821567,
    "lng": 129.8642105,
    "tel": "095-842-0643",
    "url": "",
    "pref": "長崎県",
    "city": "長崎市",
    "category": "home_help",
    "serviceType": "訪問介護",
    "capacity": 0,
    "openDays": [
      "平日",
      "土曜日",
      "日曜日",
      "祝日"
    ],
    "openDaysNote": ""
  },
  {
    "id": "4270103379",
    "name": "ヘルパーステイションみずほ",
    "kana": "ヘルパーステイションミズホ",
    "address": "長崎県長崎市葉山２丁目２８番１０号",
    "lat": 32.8064567,
    "lng": 129.8446255,
    "tel": "095-855-8083",
    "url": "http://www.mizuhokai.jp",
    "pref": "長崎県",
    "city": "長崎市",
    "category": "home_help",
    "serviceType": "訪問介護",
    "capacity": 0,
    "openDays": [
      "平日",
      "土曜日",
      "祝日"
    ],
    "openDaysNote": ""
  },
  {
    "id": "4270107347",
    "name": "ヘルパーステーション　イーズ",
    "kana": "ヘルパーステーション　イーズ",
    "address": "長崎県長崎市下黒崎町１３４２番地６",
    "lat": 32.8361796,
    "lng": 129.7143455,
    "tel": "0959-37-6888",
    "url": "",
    "pref": "長崎県",
    "city": "長崎市",
    "category": "home_help",
    "serviceType": "訪問介護",
    "capacity": 0,
    "openDays": [
      "平日",
      "土曜日",
      "日曜日",
      "祝日"
    ],
    "openDaysNote": "年中無休　２４時間体制"
  },
  {
    "id": "4270109343",
    "name": "ヘルパーステーション　えがお",
    "kana": "ヘルパーステーション　エガオ",
    "address": "長崎県長崎市田中町８５４番地",
    "lat": 32.7617829,
    "lng": 129.9483085,
    "tel": "095-839-6363",
    "url": "",
    "pref": "長崎県",
    "city": "長崎市",
    "category": "home_help",
    "serviceType": "訪問介護",
    "capacity": 0,
    "openDays": [
      "平日",
      "土曜日",
      "日曜日",
      "祝日"
    ],
    "openDaysNote": "時間外・年始のサービス提供については、相談に応じるものとする"
  },
  {
    "id": "4270135462",
    "name": "ヘルパーステーション　かいごの花みずき",
    "kana": "ヘルパーステーション　カイゴノハナミズキ",
    "address": "長崎県長崎市本尾町2-32206 206",
    "lat": 32.7759982574432,
    "lng": 129.865754053551,
    "tel": "095-842-8737",
    "url": "http://www.kaigo-8732.com/",
    "pref": "長崎県",
    "city": "長崎市",
    "category": "home_help",
    "serviceType": "訪問介護",
    "capacity": 0,
    "openDays": [
      "平日"
    ],
    "openDaysNote": "利用の希望により、早朝（6:00～8:00）、夜間（18:00～22:00）、深夜（22:00～6:00）の時間帯の対応も行う"
  },
  {
    "id": "4270109194",
    "name": "ヘルパーステーション　かんわ長崎",
    "kana": "ヘルパーステーション　カンワナガサキ",
    "address": "長崎県長崎市新大工町５－７シーボルタウン２Ｆ シーボルタウン２Ｆ",
    "lat": 32.7525031838398,
    "lng": 129.885805942328,
    "tel": "095-823-3330",
    "url": "http://www.kanwa-nagasaki.com",
    "pref": "長崎県",
    "city": "長崎市",
    "category": "home_help",
    "serviceType": "訪問介護",
    "capacity": 0,
    "openDays": [
      "平日",
      "土曜日",
      "日曜日",
      "祝日"
    ],
    "openDaysNote": ""
  },
  {
    "id": "4270135934",
    "name": "ヘルパーステーション　クラン",
    "kana": "ヘルパーステーション　クラン",
    "address": "目覚町5-1　401",
    "lat": 32.7639803,
    "lng": 129.8648521,
    "tel": "958425006",
    "url": "",
    "pref": "長崎県",
    "city": "長崎市",
    "category": "home_help",
    "serviceType": "訪問介護",
    "capacity": null,
    "openDays": [
      "平日",
      "土曜日",
      "日曜日",
      "祝日"
    ],
    "openDaysNote": "12月31日～1月3日までを除く"
  },
  {
    "id": "4270105739",
    "name": "ヘルパーステーション　グリーンピース",
    "kana": "ヘルパーステーション　グリーンピース",
    "address": "長崎県長崎市下西山町13番22号",
    "lat": 32.7573214,
    "lng": 129.8863551,
    "tel": "095-818-2330",
    "url": "http://fukushimori.co.jp/",
    "pref": "長崎県",
    "city": "長崎市",
    "category": "home_help",
    "serviceType": "訪問介護",
    "capacity": 0,
    "openDays": [
      "平日",
      "土曜日"
    ],
    "openDaysNote": "日曜日,8/15,12/30～1/3（改行）＊ケアプランに基づく場合は、時間外、休日、祝日も指定訪問介護の提供を行う．"
  },
  {
    "id": "4270111976",
    "name": "ヘルパーステーション　サンテ",
    "kana": "ヘルパーステーション　サンテ",
    "address": "長崎県長崎市川平町1223番地3",
    "lat": 32.7943223558256,
    "lng": 129.880131006746,
    "tel": "095-847-8070",
    "url": "",
    "pref": "長崎県",
    "city": "長崎市",
    "category": "home_help",
    "serviceType": "訪問介護",
    "capacity": 0,
    "openDays": [
      "平日",
      "土曜日",
      "日曜日",
      "祝日"
    ],
    "openDaysNote": "基本、年末年始は休みにしています。12月29日～1月3日"
  },
  {
    "id": "4270112164",
    "name": "ヘルパーステーション　スマイルクーラ",
    "kana": "ヘルパーステーション　スマイルクーラ",
    "address": "長崎県長崎市矢上町6-10　小林ビル1階",
    "lat": 32.7720207816039,
    "lng": 129.95060663274,
    "tel": "095-832-0022",
    "url": "https://www.assist-group.net/",
    "pref": "長崎県",
    "city": "長崎市",
    "category": "home_help",
    "serviceType": "訪問介護",
    "capacity": 0,
    "openDays": [
      "平日",
      "土曜日",
      "祝日"
    ],
    "openDaysNote": ""
  },
  {
    "id": "4270109632",
    "name": "ヘルパーステーション　にじいろ",
    "kana": "ヘルパーステーション　ニジイロ",
    "address": "長崎県長崎市虹が丘町1番1号",
    "lat": 32.7980822087382,
    "lng": 129.844998311116,
    "tel": "095-855-8811",
    "url": "http://nijiiro-n.com",
    "pref": "長崎県",
    "city": "長崎市",
    "category": "home_help",
    "serviceType": "訪問介護",
    "capacity": 0,
    "openDays": [
      "平日",
      "土曜日",
      "日曜日",
      "祝日"
    ],
    "openDaysNote": "早朝7：00～8：00　夜間18：00～21：00（時間帯により料金が異なります。）早朝・夜間のご利用につきましてはご相談ください。"
  },
  {
    "id": "4270107511",
    "name": "ヘルパーステーション　ねこ",
    "kana": "ヘルパーステーション　ネコ",
    "address": "長崎県長崎市星取1丁目9番2号",
    "lat": 32.722209103744,
    "lng": 129.880167985183,
    "tel": "095-800-3648",
    "url": "",
    "pref": "長崎県",
    "city": "長崎市",
    "category": "home_help",
    "serviceType": "訪問介護",
    "capacity": 0,
    "openDays": [
      "平日",
      "土曜日",
      "祝日"
    ],
    "openDaysNote": "早朝６：００～８：００は２５％割増（改行）夜間１８：００～２２：００は２５％割増（改行）深夜２２：００～６：００は５０％割増"
  },
  {
    "id": "4270110119",
    "name": "ヘルパーステーション　ほーむケア",
    "kana": "ヘルパーステーション　ホームケア",
    "address": "長崎県長崎市文教町５番１９号",
    "lat": 32.7888869,
    "lng": 129.8707747,
    "tel": "095-894-5352",
    "url": "http://rakuten-care.jp/publics/index/37/",
    "pref": "長崎県",
    "city": "長崎市",
    "category": "home_help",
    "serviceType": "訪問介護",
    "capacity": 0,
    "openDays": [
      "平日",
      "土曜日",
      "日曜日",
      "祝日"
    ],
    "openDaysNote": "記載時間外であっても相談応じます。"
  },
  {
    "id": "4270107370",
    "name": "ヘルパーステーション　ほっと",
    "kana": "ヘルパーステーション　ホット",
    "address": "長崎県長崎市滑石5丁目5番24号",
    "lat": 32.805654,
    "lng": 129.8339345,
    "tel": "095-856-8691",
    "url": "http://hothouse-nameshi.jp/",
    "pref": "長崎県",
    "city": "長崎市",
    "category": "home_help",
    "serviceType": "訪問介護",
    "capacity": 0,
    "openDays": [
      "平日",
      "土曜日",
      "日曜日",
      "祝日"
    ],
    "openDaysNote": ""
  },
  {
    "id": "4270136239",
    "name": "ヘルパーステーション　音OTO",
    "kana": "ヘルパーステーションオト",
    "address": "長崎県長崎市界二丁目7-9",
    "lat": 32.7561124,
    "lng": 129.9442723,
    "tel": "095-894-7893",
    "url": "",
    "pref": "長崎県",
    "city": "長崎市",
    "category": "home_help",
    "serviceType": "訪問介護",
    "capacity": null,
    "openDays": [
      "平日",
      "土曜日",
      "日曜日",
      "祝日"
    ],
    "openDaysNote": "利用時間、相談可"
  },
  {
    "id": "4270109459",
    "name": "ヘルパーステーション　花",
    "kana": "ヘルパーステーション　ハナ",
    "address": "長崎県長崎市小江2734-21",
    "lat": 32.7608692,
    "lng": 129.8112574,
    "tel": "095-894-5353",
    "url": "",
    "pref": "長崎県",
    "city": "長崎市",
    "category": "home_help",
    "serviceType": "訪問介護",
    "capacity": 0,
    "openDays": [
      "平日",
      "土曜日",
      "祝日"
    ],
    "openDaysNote": "＊ご利用者様のご希望時間に対応致しております。"
  },
  {
    "id": "4270111000",
    "name": "ヘルパーステーション　花いちもんめ",
    "kana": "ヘルパーステーション　ハナイチモンメ",
    "address": "長崎県長崎市布巻町５３４番地１サービス付き高齢者向け住宅　ラピナスの園 サービス付き高齢者向け住宅　ラピナスの園",
    "lat": 32.6544347710847,
    "lng": 129.834953011674,
    "tel": "095-895-5871",
    "url": "http://www.hanaichi-monme.com",
    "pref": "長崎県",
    "city": "長崎市",
    "category": "home_help",
    "serviceType": "訪問介護",
    "capacity": 20,
    "openDays": [
      "平日",
      "土曜日",
      "日曜日",
      "祝日"
    ],
    "openDaysNote": "上記の営業日、営業時間、サービス提供時間のほか、電話等により２４時間常時連絡が可能な体制。"
  },
  {
    "id": "4270108675",
    "name": "ヘルパーステーション　春",
    "kana": "ヘルパーステーション　ハル",
    "address": "長崎県長崎市若葉町８－１３吉岡ビル 吉岡ビル",
    "lat": 32.7893449,
    "lng": 129.8604143,
    "tel": "095-842-7755",
    "url": "",
    "pref": "長崎県",
    "city": "長崎市",
    "category": "home_help",
    "serviceType": "訪問介護",
    "capacity": 0,
    "openDays": [
      "平日",
      "土曜日",
      "日曜日",
      "祝日"
    ],
    "openDaysNote": "夜間の提供体制に伴い、その日の4時から翌日の1時までサービスを提供"
  },
  {
    "id": "4270105416",
    "name": "ヘルパーステーション　聖マルコ",
    "kana": "ヘルパーステーション　セイマルコ",
    "address": "長崎県長崎市西出津町2313番地里脇の家　2階 里脇の家　2階",
    "lat": 32.8449538589883,
    "lng": 129.699567393393,
    "tel": "0959-25-1900",
    "url": "",
    "pref": "長崎県",
    "city": "長崎市",
    "category": "home_help",
    "serviceType": "訪問介護",
    "capacity": 0,
    "openDays": [
      "平日",
      "土曜日",
      "日曜日",
      "祝日"
    ],
    "openDaysNote": "事前の相談があれば、時間外対応を検討する。"
  },
  {
    "id": "4270108980",
    "name": "ヘルパーステーション　竹の子",
    "kana": "ヘルパーステーション　タケノコ",
    "address": "長崎県長崎市油木町250(中川貸家)",
    "lat": 32.78169,
    "lng": 129.8484544,
    "tel": "095-807-3014",
    "url": "",
    "pref": "長崎県",
    "city": "長崎市",
    "category": "home_help",
    "serviceType": "訪問介護",
    "capacity": 0,
    "openDays": [
      "平日",
      "土曜日",
      "日曜日",
      "祝日"
    ],
    "openDaysNote": "24時間体制"
  },
  {
    "id": "4270135033",
    "name": "ヘルパーステーション　博生会",
    "kana": "ヘルパーステーション　ハクセイカイ",
    "address": "長崎県長崎市新地町４－１５",
    "lat": 32.7411113,
    "lng": 129.8736563,
    "tel": "095-820-5290",
    "url": "http://www8.ocn.ne.jp/~ookubocl/",
    "pref": "長崎県",
    "city": "長崎市",
    "category": "home_help",
    "serviceType": "訪問介護",
    "capacity": 0,
    "openDays": [
      "平日",
      "土曜日",
      "祝日"
    ],
    "openDaysNote": "サービス提供時間帯は利用者の身体状況により必要に応じて検討し提供をしております。（改行）日曜日は基本的には休日とさせて頂いておりますが利用者の身体状況により必要に応じて検討し提供をしております。"
  },
  {
    "id": "4270109921",
    "name": "ヘルパーステーション　福",
    "kana": "ヘルパーステーション　フク",
    "address": "長崎県長崎市向町791",
    "lat": 32.7848093451139,
    "lng": 129.794753737156,
    "tel": "095-841-2468",
    "url": "",
    "pref": "長崎県",
    "city": "長崎市",
    "category": "home_help",
    "serviceType": "訪問介護",
    "capacity": null,
    "openDays": [
      "平日"
    ],
    "openDaysNote": ""
  },
  {
    "id": "4270109301",
    "name": "ヘルパーステーション　蕾",
    "kana": "ヘルパーステーション　ツボミ",
    "address": "長崎県長崎市網場町487番地22号マリンコーポ1階 マリンコーポ1階",
    "lat": 32.7548613878224,
    "lng": 129.946305370297,
    "tel": "095-895-7426",
    "url": "",
    "pref": "長崎県",
    "city": "長崎市",
    "category": "home_help",
    "serviceType": "訪問介護",
    "capacity": 0,
    "openDays": [
      "平日",
      "土曜日",
      "日曜日",
      "祝日"
    ],
    "openDaysNote": ""
  },
  {
    "id": "4270136270",
    "name": "ヘルパーステーションあすなろ",
    "kana": "ヘルパーステーションアスナロ",
    "address": "長崎県長崎市西山4丁目474番6アラシン7 アラシン7",
    "lat": 32.7787443,
    "lng": 129.8889468,
    "tel": "050‐3498‐3430",
    "url": "https://www.truness-nagasaki.com/",
    "pref": "長崎県",
    "city": "長崎市",
    "category": "home_help",
    "serviceType": "訪問介護",
    "capacity": null,
    "openDays": [
      "平日",
      "土曜日",
      "祝日"
    ],
    "openDaysNote": ""
  },
  {
    "id": "4270112131",
    "name": "ヘルパーステーションコム",
    "kana": "ヘルパーステーションコム",
    "address": "長崎市旭町6-1タワーコート３０３B タワーコート３０３B",
    "lat": 32.7502505,
    "lng": 129.8650191,
    "tel": "095-801-1702",
    "url": "",
    "pref": "長崎県",
    "city": "長崎市",
    "category": "home_help",
    "serviceType": "訪問介護",
    "capacity": null,
    "openDays": [
      "平日",
      "土曜日",
      "祝日"
    ],
    "openDaysNote": ""
  },
  {
    "id": "4270103700",
    "name": "ヘルパーステーションさくらの里",
    "kana": "ヘルパーステーションサクラノサト",
    "address": "長崎県長崎市三京町１５３９番地1",
    "lat": 32.8345698,
    "lng": 129.77213,
    "tel": "095-814-1700",
    "url": "http://www.sakuranosato.or.jp",
    "pref": "長崎県",
    "city": "長崎市",
    "category": "home_help",
    "serviceType": "訪問介護",
    "capacity": 0,
    "openDays": [
      "平日",
      "土曜日",
      "祝日"
    ],
    "openDaysNote": "ケアプランにより相談に応じています。"
  },
  {
    "id": "4270105945",
    "name": "ヘルパーステーションさつき",
    "kana": "ヘルパーステーションサツキ",
    "address": "長崎県長崎市古賀町１１０番地１",
    "lat": 32.7933636,
    "lng": 129.9525851,
    "tel": "095-839-3310",
    "url": "",
    "pref": "長崎県",
    "city": "長崎市",
    "category": "home_help",
    "serviceType": "訪問介護",
    "capacity": 0,
    "openDays": [
      "平日",
      "土曜日",
      "日曜日",
      "祝日"
    ],
    "openDaysNote": ""
  },
  {
    "id": "4270136007",
    "name": "ヘルパーステーションさとり",
    "kana": "ヘルパーステーションサトリ",
    "address": "長崎県長崎市花丘町１８番２号横田ビル２０１ 横田ビル２０１",
    "lat": 32.7917366844238,
    "lng": 129.865173129248,
    "tel": "958488530",
    "url": "http://hp.kaipoke.biz/gzk/",
    "pref": "長崎県",
    "city": "長崎市",
    "category": "home_help",
    "serviceType": "訪問介護",
    "capacity": null,
    "openDays": [
      "平日",
      "土曜日",
      "日曜日",
      "祝日"
    ],
    "openDaysNote": ""
  },
  {
    "id": "4270110424",
    "name": "ヘルパーステーションしおん",
    "kana": "ヘルパーステーションシオン",
    "address": "長崎県長崎市江戸町５番８号第５一ノ瀬中央橋ビル３０２号 第５一ノ瀬中央橋ビル３０２号",
    "lat": 32.7442087543907,
    "lng": 129.875468715683,
    "tel": "095-822-4020",
    "url": "",
    "pref": "長崎県",
    "city": "長崎市",
    "category": "home_help",
    "serviceType": "訪問介護",
    "capacity": 3,
    "openDays": [
      "平日",
      "土曜日",
      "祝日"
    ],
    "openDaysNote": ""
  },
  {
    "id": "4270108733",
    "name": "ヘルパーステーションしょう",
    "kana": "ヘルパーステーションショウ",
    "address": "長崎県長崎市高尾町46番33号複合ケアホーム悠寿の杜 複合ケアホーム悠寿の杜",
    "lat": 32.7803520676946,
    "lng": 129.876723715797,
    "tel": "095-848-0151",
    "url": "http://yuujyu-m.jp/",
    "pref": "長崎県",
    "city": "長崎市",
    "category": "home_help",
    "serviceType": "訪問介護",
    "capacity": 0,
    "openDays": [
      "平日",
      "土曜日",
      "日曜日",
      "祝日"
    ],
    "openDaysNote": ""
  },
  {
    "id": "4270111158",
    "name": "ヘルパーステーションそら",
    "kana": "ヘルパーステーションソラ",
    "address": "長崎市芒塚町153－3　ユースコーポI　　102号",
    "lat": 32.7571793331082,
    "lng": 129.933409400617,
    "tel": "080-9107-8895",
    "url": "",
    "pref": "長崎県",
    "city": "長崎市",
    "category": "home_help",
    "serviceType": "訪問介護",
    "capacity": 2,
    "openDays": [
      "平日",
      "土曜日",
      "日曜日",
      "祝日"
    ],
    "openDaysNote": ""
  },
  {
    "id": "4270135785",
    "name": "ヘルパーステーションツツジ",
    "kana": "ヘルパーステーションツツジ",
    "address": "つつじが丘5丁目５番１３号",
    "lat": 34.887316,
    "lng": 135.3626798,
    "tel": "958947113",
    "url": "",
    "pref": "長崎県",
    "city": "長崎市",
    "category": "home_help",
    "serviceType": "訪問介護",
    "capacity": null,
    "openDays": [
      "平日",
      "土曜日"
    ],
    "openDaysNote": ""
  },
  {
    "id": "4270109491",
    "name": "ヘルパーステーションながさき",
    "kana": "ヘルパーステーションナガサキ",
    "address": "長崎県長崎市勝山町37番地勝山37ビル3階 勝山37ビル3階",
    "lat": 32.7514162,
    "lng": 129.880364,
    "tel": "095-811-7070",
    "url": "http://nagasaki-ki.wixsite.com/keiai-fukushikai",
    "pref": "長崎県",
    "city": "長崎市",
    "category": "home_help",
    "serviceType": "訪問介護",
    "capacity": 0,
    "openDays": [
      "平日",
      "土曜日",
      "日曜日",
      "祝日"
    ],
    "openDaysNote": "特別な依頼がある場合はこの限りではない。（改行）電話等により、24時間常時連絡が可能な体制をとっている。"
  },
  {
    "id": "4270111208",
    "name": "ヘルパーステーションならの木",
    "kana": "ヘルパーステーションナラノキ",
    "address": "長崎県長崎市南山手町12番43号ならの木　南山手 ならの木　南山手",
    "lat": 32.7326758,
    "lng": 129.8666375,
    "tel": "095-895-5080",
    "url": "http://www.naranoki.org",
    "pref": "長崎県",
    "city": "長崎市",
    "category": "home_help",
    "serviceType": "訪問介護",
    "capacity": 0,
    "openDays": [
      "平日",
      "土曜日",
      "日曜日",
      "祝日"
    ],
    "openDaysNote": ""
  },
  {
    "id": "4270110689",
    "name": "ヘルパーステーションにじのき",
    "kana": "ホウモンカイゴジギョウショニジノキ",
    "address": "長崎県長崎市界１丁目６－１９日見ﾚｼﾞﾃﾞﾝｽ３０４号",
    "lat": 32.7591606159989,
    "lng": 129.937153542169,
    "tel": "095-800-5359",
    "url": "",
    "pref": "長崎県",
    "city": "長崎市",
    "category": "home_help",
    "serviceType": "訪問介護",
    "capacity": 0,
    "openDays": [
      "平日",
      "土曜日",
      "日曜日",
      "祝日"
    ],
    "openDaysNote": "ただし、２４時間対応が可能な体制とする。"
  },
  {
    "id": "4270110374",
    "name": "ヘルパーステーションハートぽっぽ",
    "kana": "ヘルパーステーションハートポッポ",
    "address": "長崎県長崎市恵美須町4-2平野ビル2Ｆ 平野ビル2Ｆ",
    "lat": 32.7505467,
    "lng": 129.8757116,
    "tel": "095-893-8883",
    "url": "http://heart-create.com/",
    "pref": "長崎県",
    "city": "長崎市",
    "category": "home_help",
    "serviceType": "訪問介護",
    "capacity": 0,
    "openDays": [
      "平日",
      "土曜日",
      "祝日"
    ],
    "openDaysNote": "上記以外は個別案件により要相談とする。"
  },
  {
    "id": "4270135983",
    "name": "ヘルパーステーションひまわり",
    "kana": "ヘルパーステーションヒマワリ",
    "address": "長崎県長崎市木鉢町1丁目4番地6",
    "lat": 32.7256101,
    "lng": 129.8409112,
    "tel": "095-865-7308",
    "url": "https://syahuku-himawari.com/",
    "pref": "長崎県",
    "city": "長崎市",
    "category": "home_help",
    "serviceType": "訪問介護",
    "capacity": 0,
    "openDays": [
      "平日",
      "土曜日",
      "日曜日",
      "祝日"
    ],
    "openDaysNote": ""
  },
  {
    "id": "4270136163",
    "name": "ヘルパーステーションふたば",
    "kana": "ヘルパーステーションフタバ",
    "address": "長崎市西海町3261-2",
    "lat": 32.8534105,
    "lng": 129.7830637,
    "tel": "095-840-3211",
    "url": "https://www.triples-nagasaki.com/",
    "pref": "長崎県",
    "city": "長崎市",
    "category": "home_help",
    "serviceType": "訪問介護",
    "capacity": 0,
    "openDays": [
      "平日",
      "土曜日",
      "日曜日",
      "祝日"
    ],
    "openDaysNote": ""
  },
  {
    "id": "4270136312",
    "name": "ヘルパーステーションマーガレット",
    "kana": "ヘルパーステーションマーガレット",
    "address": "長崎県長崎市網場町４８５番地１",
    "lat": 32.7544638,
    "lng": 129.9467059,
    "tel": "095-839-0880",
    "url": "http://imamura-group.co.jp/marguerite/",
    "pref": "長崎県",
    "city": "長崎市",
    "category": "home_help",
    "serviceType": "訪問介護",
    "capacity": null,
    "openDays": [
      "平日",
      "土曜日",
      "日曜日",
      "祝日"
    ],
    "openDaysNote": ""
  },
  {
    "id": "4270110952",
    "name": "ヘルパーステーションめざめ",
    "kana": "ヘルパーステーションメザメ",
    "address": "長崎県長崎市葉山１丁目28-15S&Bショッピングプラザ5FS＆B葉山ショッピングプラザ５階 S＆B葉山ショッピングプラザ５階",
    "lat": 32.8051298,
    "lng": 129.8490984,
    "tel": "095-865-8885",
    "url": "hhp//www.syunkaikai.jp",
    "pref": "長崎県",
    "city": "長崎市",
    "category": "home_help",
    "serviceType": "訪問介護",
    "capacity": 10,
    "openDays": [
      "平日",
      "土曜日",
      "日曜日",
      "祝日"
    ],
    "openDaysNote": "訪問時間に関しては、応相談。"
  },
  {
    "id": "4270107875",
    "name": "ヘルパーステーションれんげそう",
    "kana": "ヘルパーステーションレンゲソウ",
    "address": "長崎県長崎市大井手町９番地1田園ビル２階 田園ビル２階",
    "lat": 32.7514693,
    "lng": 129.8820926,
    "tel": "095-895-8037",
    "url": "",
    "pref": "長崎県",
    "city": "長崎市",
    "category": "home_help",
    "serviceType": "訪問介護",
    "capacity": 10,
    "openDays": [
      "平日",
      "祝日"
    ],
    "openDaysNote": "定休日は利用者の状態で必要性のある方のみ交代で対応しているが、基本的には休みです。"
  },
  {
    "id": "4270110929",
    "name": "ヘルパーステーション介護屋",
    "kana": "ヘルパーステーションカイゴヤ",
    "address": "長崎県長崎市古賀町830番地　松本アパート101",
    "lat": 32.7993518,
    "lng": 129.9614405,
    "tel": "095-865-9990",
    "url": "https://www.kaigoya-nagasaki.com/",
    "pref": "長崎県",
    "city": "長崎市",
    "category": "home_help",
    "serviceType": "訪問介護",
    "capacity": 50,
    "openDays": [
      "平日",
      "土曜日",
      "日曜日",
      "祝日"
    ],
    "openDaysNote": ""
  },
  {
    "id": "4270107883",
    "name": "ヘルパーステーション菜の花",
    "kana": "ヘルパーステーションナノハナ",
    "address": "長崎県長崎市相生町3番2号",
    "lat": 32.7337259,
    "lng": 129.8726815,
    "tel": "095-895-8846",
    "url": "",
    "pref": "長崎県",
    "city": "長崎市",
    "category": "home_help",
    "serviceType": "訪問介護",
    "capacity": null,
    "openDays": [
      "平日",
      "土曜日",
      "日曜日",
      "祝日"
    ],
    "openDaysNote": "利用者の希望により対応"
  },
  {
    "id": "4270105531",
    "name": "ヘルパーステーション十三番館",
    "kana": "ヘルパーステーションジュウサンバンカン",
    "address": "長崎県長崎市大浦町3番21号大浦十三番館 大浦十三番館",
    "lat": 32.7362593754336,
    "lng": 129.871271882803,
    "tel": "095-822-3355",
    "url": "http://www.ooura13.com",
    "pref": "長崎県",
    "city": "長崎市",
    "category": "home_help",
    "serviceType": "訪問介護",
    "capacity": 25,
    "openDays": [
      "平日",
      "土曜日",
      "日曜日",
      "祝日"
    ],
    "openDaysNote": "上記時間外も相談に応じる。"
  },
  {
    "id": "4270107081",
    "name": "ヘルパーステーション赤とんぼ",
    "kana": "ヘルパーステーションアカトンボ",
    "address": "長崎県長崎市田中町３８５番地４",
    "lat": 32.7662548,
    "lng": 129.9477362,
    "tel": "095-839-1239",
    "url": "",
    "pref": "長崎県",
    "city": "長崎市",
    "category": "home_help",
    "serviceType": "訪問介護",
    "capacity": 0,
    "openDays": [
      "平日"
    ],
    "openDaysNote": "但し、利用者からの依頼に応じて対応可能"
  },
  {
    "id": "4270104096",
    "name": "ヘルパーステーション虹",
    "kana": "ヘルパーステーションニジ",
    "address": "長崎市鳴見台２丁目３４番２３号",
    "lat": 32.8230521,
    "lng": 129.8108968,
    "tel": "095-850-1430",
    "url": "",
    "pref": "長崎県",
    "city": "長崎市",
    "category": "home_help",
    "serviceType": "訪問介護",
    "capacity": 0,
    "openDays": [
      "平日",
      "土曜日",
      "日曜日",
      "祝日"
    ],
    "openDaysNote": "居宅サービス計画によりサービスの提供を行う。"
  },
  {
    "id": "4270106299",
    "name": "ヘルパーステーション本原一丁目",
    "kana": "ヘルパーステーションモトハライッチョウメ",
    "address": "長崎県長崎市本原町１３－５",
    "lat": 32.7825182,
    "lng": 129.8694556,
    "tel": "095-860-0600",
    "url": "http://kiyohararyu-naika.com",
    "pref": "長崎県",
    "city": "長崎市",
    "category": "home_help",
    "serviceType": "訪問介護",
    "capacity": 0,
    "openDays": [
      "平日",
      "土曜日",
      "祝日"
    ],
    "openDaysNote": "※但し、電話受付けは２４時間対応"
  },
  {
    "id": "4270111935",
    "name": "ヘルパーステーション夕陽が丘",
    "kana": "ヘルパーステーションユウヒガオカ",
    "address": "長崎市住吉町２１－７",
    "lat": 32.7941028,
    "lng": 129.8586954,
    "tel": "０９５－８９４－９５０１",
    "url": "http://kagurakai.or.jp",
    "pref": "長崎県",
    "city": "長崎市",
    "category": "home_help",
    "serviceType": "訪問介護",
    "capacity": 50,
    "openDays": [
      "平日",
      "土曜日",
      "日曜日",
      "祝日"
    ],
    "openDaysNote": "サービス時間外、土曜日・日曜日の利用については、要相談。"
  },
  {
    "id": "4270111489",
    "name": "ヘルパーステーション茉莉花",
    "kana": "ヘルパーステーション　ジャスミン",
    "address": "長崎県長崎市新戸町3丁目17-27中山ビル1階",
    "lat": 32.7124687588279,
    "lng": 129.866964484036,
    "tel": "095-878-3384",
    "url": "https://dreamconnect-jasmine.jp/",
    "pref": "長崎県",
    "city": "長崎市",
    "category": "home_help",
    "serviceType": "訪問介護",
    "capacity": 40,
    "openDays": [
      "平日",
      "土曜日",
      "日曜日",
      "祝日"
    ],
    "openDaysNote": "365日・24時間対応しています。"
  },
  {
    "id": "4270109285",
    "name": "ヘルパーセンター　グランマ",
    "kana": "ヘルパーセンターグランマ",
    "address": "長崎県長崎市賑町5-21",
    "lat": 32.7469253997686,
    "lng": 129.876662931879,
    "tel": "095-895-8481",
    "url": "",
    "pref": "長崎県",
    "city": "長崎市",
    "category": "home_help",
    "serviceType": "訪問介護",
    "capacity": 0,
    "openDays": [
      "平日",
      "土曜日",
      "日曜日",
      "祝日"
    ],
    "openDaysNote": ""
  },
  {
    "id": "4271102388",
    "name": "ホームヘルパーステーション　晴海の丘",
    "kana": "ホームヘルパーステーション　ハルミノオカ",
    "address": "長崎市蚊焼町210番地２",
    "lat": 32.6631398045074,
    "lng": 129.824858656496,
    "tel": "095-833-7033",
    "url": "",
    "pref": "長崎県",
    "city": "長崎市",
    "category": "home_help",
    "serviceType": "訪問介護",
    "capacity": 15,
    "openDays": [],
    "openDaysNote": "２４時間対応"
  },
  {
    "id": "4270101621",
    "name": "ホームヘルプサービス太陽",
    "kana": "ホームヘルプサービス　タイヨウ",
    "address": "長崎県長崎市中園町11-12F 2F",
    "lat": 32.7919612,
    "lng": 129.8596531,
    "tel": "095-845-8528",
    "url": "http://www.helper-taiyo.com/",
    "pref": "長崎県",
    "city": "長崎市",
    "category": "home_help",
    "serviceType": "訪問介護",
    "capacity": 0,
    "openDays": [
      "平日",
      "土曜日",
      "日曜日",
      "祝日"
    ],
    "openDaysNote": "ただし諸事由にて手配困難な場合もあり。"
  },
  {
    "id": "4270107255",
    "name": "ポポロ",
    "kana": "ポポロ",
    "address": "長崎県長崎市横尾１丁目１番5号プレジデント横尾104 プレジデント横尾104",
    "lat": 32.8107119,
    "lng": 129.8373341,
    "tel": "095-865-8887",
    "url": "",
    "pref": "長崎県",
    "city": "長崎市",
    "category": "home_help",
    "serviceType": "訪問介護",
    "capacity": 0,
    "openDays": [
      "平日",
      "土曜日",
      "日曜日",
      "祝日"
    ],
    "openDaysNote": ""
  },
  {
    "id": "4270136023",
    "name": "ライフサポートおむすび",
    "kana": "ライフサポートオムスビ",
    "address": "畝刈町1088-10シーサイドコーポ306 シーサイドコーポ306",
    "lat": 32.8287648,
    "lng": 129.7803454,
    "tel": "070-3783-0606",
    "url": "http://omusubi.stars.ne.jp",
    "pref": "長崎県",
    "city": "長崎市",
    "category": "home_help",
    "serviceType": "訪問介護",
    "capacity": null,
    "openDays": [
      "平日"
    ],
    "openDaysNote": "緊急時及び利用者様のニーズに応じて365日24時間対応"
  },
  {
    "id": "4270136262",
    "name": "リンク",
    "kana": "リンク",
    "address": "長崎県長崎市田中町4786番地2",
    "lat": 32.7708692,
    "lng": 129.9312238,
    "tel": "095-894-1148",
    "url": "",
    "pref": "長崎県",
    "city": "長崎市",
    "category": "home_help",
    "serviceType": "訪問介護",
    "capacity": null,
    "openDays": [
      "平日",
      "土曜日",
      "日曜日",
      "祝日"
    ],
    "openDaysNote": "サービスの提供は月曜日～日曜日(祝日含む)とする。ただし、8月13日から15日・12月29日から1月3日は除く。また、時間外及び休日は応相談とする。"
  },
  {
    "id": "4270107644",
    "name": "わんぴーすヘルパーステーション",
    "kana": "ワンピースヘルパーステーション",
    "address": "長崎県長崎市かき道1-32-22林田アパート203 林田アパート203",
    "lat": 32.7713873216337,
    "lng": 129.95339319294,
    "tel": "095-837-1515",
    "url": "",
    "pref": "長崎県",
    "city": "長崎市",
    "category": "home_help",
    "serviceType": "訪問介護",
    "capacity": 0,
    "openDays": [
      "平日",
      "土曜日",
      "日曜日",
      "祝日"
    ],
    "openDaysNote": ""
  },
  {
    "id": "4270136049",
    "name": "逢．ｃａｎヘルパーステーション",
    "kana": "アイ．キャンヘルパーステーション",
    "address": "長崎県長崎市天神町２－６－３０２",
    "lat": 32.7588064,
    "lng": 129.8688612,
    "tel": "０９５－８９４－７９５２",
    "url": "",
    "pref": "長崎県",
    "city": "長崎市",
    "category": "home_help",
    "serviceType": "訪問介護",
    "capacity": null,
    "openDays": [
      "平日",
      "土曜日"
    ],
    "openDaysNote": "日曜日・時間帯などご希望があればご相談に応じます。"
  },
  {
    "id": "4270109244",
    "name": "医療法人　恵会　訪問介護事業者　マザリーホーム光風台",
    "kana": "イリョウホウジン　メグミカイ　ホウモンカイゴジギョウシャ　マザリーホームコウフウダイ",
    "address": "長崎県長崎市鳴見台２丁目４５-２０",
    "lat": 32.8236769,
    "lng": 129.8067999,
    "tel": "095-850-0518",
    "url": "http://www.kfdh.org/motherly/",
    "pref": "長崎県",
    "city": "長崎市",
    "category": "home_help",
    "serviceType": "訪問介護",
    "capacity": 0,
    "openDays": [
      "平日",
      "土曜日",
      "日曜日",
      "祝日"
    ],
    "openDaysNote": ""
  },
  {
    "id": "4270135249",
    "name": "医療法人社団　春秋会　ヘルパーステーション　ライフケア",
    "kana": "イリョウホウジンシャダン　シュンジュウカイ　ヘルパーステーション　ライフケア",
    "address": "長崎県長崎市松ヶ枝町3番20号",
    "lat": 32.7349327256412,
    "lng": 129.871427450926,
    "tel": "095-827-1070",
    "url": "http://www.syunjyu-kai.or.jp/",
    "pref": "長崎県",
    "city": "長崎市",
    "category": "home_help",
    "serviceType": "訪問介護",
    "capacity": 0,
    "openDays": [
      "平日",
      "土曜日",
      "日曜日",
      "祝日"
    ],
    "openDaysNote": "年中無休,要相談にて24時間対応が可能"
  },
  {
    "id": "4270107529",
    "name": "医療法人社団健昌会　ヘルパーステーション新里浦上",
    "kana": "イリョウホウジンシャダンケンショウカイ　ヘルパーステーションシンザトウラカミ",
    "address": "長崎県長崎市城栄町１１番２号新里メディケア城栄 新里メディケア城栄",
    "lat": 32.7749573543127,
    "lng": 129.85822406159,
    "tel": "095-813-1818",
    "url": "https://shinzato.jp",
    "pref": "長崎県",
    "city": "長崎市",
    "category": "home_help",
    "serviceType": "訪問介護",
    "capacity": 0,
    "openDays": [
      "平日",
      "土曜日",
      "日曜日",
      "祝日"
    ],
    "openDaysNote": ""
  },
  {
    "id": "4270101100",
    "name": "医療法人昭和会昭和会病院　指定訪問介護事業所",
    "kana": "イリョウホウジンショウワカイショウワカイビョウイン　シテイホウモンカイゴジギョウショ",
    "address": "長崎県長崎市大浦町10番40号",
    "lat": 32.7364340086707,
    "lng": 129.872738077246,
    "tel": "095-824-0283",
    "url": "http://www.showakai-hp.jp/",
    "pref": "長崎県",
    "city": "長崎市",
    "category": "home_help",
    "serviceType": "訪問介護",
    "capacity": 0,
    "openDays": [
      "平日",
      "土曜日",
      "日曜日",
      "祝日"
    ],
    "openDaysNote": "特になし"
  },
  {
    "id": "4270101563",
    "name": "医療法人友愛会ヘルパーステーションにしき",
    "kana": "イリョウホウジンユウアイカイヘルパーステーションニシキ",
    "address": "長崎県長崎市錦２丁目１番１号",
    "lat": 32.7884088,
    "lng": 129.8556202,
    "tel": "095-845-2211",
    "url": "",
    "pref": "長崎県",
    "city": "長崎市",
    "category": "home_help",
    "serviceType": "訪問介護",
    "capacity": 0,
    "openDays": [
      "平日",
      "土曜日",
      "祝日"
    ],
    "openDaysNote": "上記の営業時間の他、電話等により、常時連絡が可能な体制とする。"
  },
  {
    "id": "4270109087",
    "name": "医療法人有葵会のぼる内科　ヘルパーステーション",
    "kana": "イリョウホウジンユウキカイノボルナイカ　ヘルパーステーション",
    "address": "長崎県長崎市中園町10-5",
    "lat": 32.7917835,
    "lng": 129.8591754,
    "tel": "095-865-6662",
    "url": "http://noborunaika.jp/",
    "pref": "長崎県",
    "city": "長崎市",
    "category": "home_help",
    "serviceType": "訪問介護",
    "capacity": 0,
    "openDays": [
      "平日",
      "土曜日",
      "日曜日",
      "祝日"
    ],
    "openDaysNote": ""
  },
  {
    "id": "4270109616",
    "name": "介護のすけさん",
    "kana": "カイゴノスケサン",
    "address": "長崎県長崎市花園町1－18",
    "lat": 32.7961218,
    "lng": 129.8586085,
    "tel": "095-894-4185",
    "url": "",
    "pref": "長崎県",
    "city": "長崎市",
    "category": "home_help",
    "serviceType": "訪問介護",
    "capacity": 0,
    "openDays": [
      "平日",
      "土曜日",
      "祝日"
    ],
    "openDaysNote": "予約を入れていただく場合は、時間は、問いません。"
  },
  {
    "id": "4270110507",
    "name": "介護の泉",
    "kana": "カイゴノイズミ",
    "address": "天神町3番26号",
    "lat": 33.2253875,
    "lng": 132.5680901,
    "tel": "095-865-7497",
    "url": "kaigonoizumi.com",
    "pref": "長崎県",
    "city": "長崎市",
    "category": "home_help",
    "serviceType": "訪問介護",
    "capacity": 0,
    "openDays": [
      "平日",
      "土曜日",
      "祝日"
    ],
    "openDaysNote": ""
  },
  {
    "id": "4270109400",
    "name": "株式会社　桜ケア",
    "kana": "カブシキガイシャ　サクラケア",
    "address": "長崎県長崎市宝栄町18番7号",
    "lat": 32.7699277,
    "lng": 129.8579573,
    "tel": "０９５－８６１－３５８０",
    "url": "",
    "pref": "長崎県",
    "city": "長崎市",
    "category": "home_help",
    "serviceType": "訪問介護",
    "capacity": 0,
    "openDays": [
      "平日",
      "土曜日",
      "祝日"
    ],
    "openDaysNote": ""
  },
  {
    "id": "4270111349",
    "name": "株式会社あん",
    "kana": "カブシキガイシャアン",
    "address": "界２丁目29-2８ヘルパーステーションあん ヘルパーステーションあん",
    "lat": 32.75716,
    "lng": 129.9412586,
    "tel": "095-800-5287",
    "url": "",
    "pref": "長崎県",
    "city": "長崎市",
    "category": "home_help",
    "serviceType": "訪問介護",
    "capacity": 8,
    "openDays": [
      "平日",
      "土曜日",
      "日曜日",
      "祝日"
    ],
    "openDaysNote": ""
  },
  {
    "id": "4270102165",
    "name": "株式会社ケアリング長崎",
    "kana": "カブシキガイシャケアリングナガサキ",
    "address": "長崎県長崎市桶屋町３７番地ＡＶＥＮＩＲめがね橋1Ｆ ＡＶＥＮＩＲめがね橋1Ｆ",
    "lat": 32.7489831,
    "lng": 129.8818251,
    "tel": "095-818-5515",
    "url": "",
    "pref": "長崎県",
    "city": "長崎市",
    "category": "home_help",
    "serviceType": "訪問介護",
    "capacity": 0,
    "openDays": [
      "平日",
      "土曜日",
      "日曜日",
      "祝日"
    ],
    "openDaysNote": ""
  },
  {
    "id": "4270106497",
    "name": "株式会社フマニ　ケアステーションフマニ",
    "kana": "カブシキガイシャフマニ　ケアステーションフマニ",
    "address": "長崎県長崎市浜平1丁目1番3号シニアハウスひこばえ１階 シニアハウスひこばえ１階",
    "lat": 32.7620051,
    "lng": 129.8702474,
    "tel": "095-841-8558",
    "url": "",
    "pref": "長崎県",
    "city": "長崎市",
    "category": "home_help",
    "serviceType": "訪問介護",
    "capacity": 0,
    "openDays": [
      "平日",
      "土曜日",
      "祝日"
    ],
    "openDaysNote": "緊急の場合は上記時間外も対応を行う。（改行）（改行）月曜日～金曜日　ただし年末年始12/31~1/3迄休み（改行）日～金　９時～１７時30分　（但し、電話は24時間対応）（改行）月～金　９時～１7時30分　　土・日休み（但し、利用者様の希望により対応）"
  },
  {
    "id": "4270101126",
    "name": "喜楽苑訪問介護事業所",
    "kana": "キラクエンホウモンカイゴジギョウショ",
    "address": "長崎県長崎市末石町154番地1",
    "lat": 32.6797830874044,
    "lng": 129.841402411114,
    "tel": "095-878-2970",
    "url": "http://www.kirakuen-nagasaki.jp/",
    "pref": "長崎県",
    "city": "長崎市",
    "category": "home_help",
    "serviceType": "訪問介護",
    "capacity": 0,
    "openDays": [
      "平日",
      "土曜日",
      "日曜日",
      "祝日"
    ],
    "openDaysNote": ""
  },
  {
    "id": "4270101845",
    "name": "魚の町ヘルパーステーション",
    "kana": "ウオノマチヘルパーステーション",
    "address": "長崎県長崎市魚の町３番２７号チヂワビル４F チヂワビル４F",
    "lat": 32.7486692,
    "lng": 129.8796141,
    "tel": "095-824-8600",
    "url": "http://www.nagasaki-kouseifukushidan.or.jp",
    "pref": "長崎県",
    "city": "長崎市",
    "category": "home_help",
    "serviceType": "訪問介護",
    "capacity": 5,
    "openDays": [
      "平日",
      "土曜日",
      "日曜日",
      "祝日"
    ],
    "openDaysNote": "特別な需要がある場合は相談に応じます。"
  },
  {
    "id": "4270101001",
    "name": "恵珠苑　指定訪問介護事業所",
    "kana": "ケイジュエン　シテイホウモンカイゴジギョウショ",
    "address": "長崎県長崎市田上2丁目15番12号",
    "lat": 32.7266801716571,
    "lng": 129.88688919169,
    "tel": "095-818-6661",
    "url": "https://yuukikai.jp",
    "pref": "長崎県",
    "city": "長崎市",
    "category": "home_help",
    "serviceType": "訪問介護",
    "capacity": 0,
    "openDays": [
      "平日",
      "土曜日",
      "祝日"
    ],
    "openDaysNote": "上記時間外であっても、特別な事情がある場合は、訪問介護員の稼動状況により対応できる場合もあります。"
  },
  {
    "id": "4270100219",
    "name": "健友会ヘルパ－ステ－ション",
    "kana": "ケンユウカイヘルパ－ステ－ション",
    "address": "長崎県長崎市大浦町9番30号",
    "lat": 32.7349897981235,
    "lng": 129.872179215042,
    "tel": "095-801-0690",
    "url": "https://kenyukai-kaigo.com/service/helper/",
    "pref": "長崎県",
    "city": "長崎市",
    "category": "home_help",
    "serviceType": "訪問介護",
    "capacity": 0,
    "openDays": [
      "平日",
      "土曜日",
      "日曜日",
      "祝日"
    ],
    "openDaysNote": ""
  },
  {
    "id": "4270101282",
    "name": "公益社団法人長崎県看護協会ヘルパーステーションゆう",
    "kana": "コウエキシャダンホウジンナガサキケンカンゴキョウカイヘルパーステーションユウ",
    "address": "長崎県長崎市恵美須町4-5　NBC3RDビル9階",
    "lat": 32.7505561987196,
    "lng": 129.875689641109,
    "tel": "095-828-3232",
    "url": "http://www.nagasaki-nurse.or.jp",
    "pref": "長崎県",
    "city": "長崎市",
    "category": "home_help",
    "serviceType": "訪問介護",
    "capacity": 0,
    "openDays": [
      "平日",
      "土曜日",
      "祝日"
    ],
    "openDaysNote": "特になし。"
  },
  {
    "id": "4270136205",
    "name": "合同会社介護・福祉タクシー月",
    "kana": "ゴウドウカイシャカイゴフクシタクシーツキ",
    "address": "長崎県長崎市伊王島町1-2052",
    "lat": 32.7081062,
    "lng": 129.768005,
    "tel": "080-8844-2912",
    "url": "",
    "pref": "長崎県",
    "city": "長崎市",
    "category": "home_help",
    "serviceType": "訪問介護",
    "capacity": 0,
    "openDays": [
      "平日",
      "土曜日"
    ],
    "openDaysNote": ""
  },
  {
    "id": "4270101159",
    "name": "指定訪問介護事業者　女の都山荘",
    "kana": "シテイホウモンカイゴジギョウシャ　メノトサンソウ",
    "address": "長崎県長崎市女の都１丁目1597番地",
    "lat": 32.8009247,
    "lng": 129.879843,
    "tel": "095-848-1450",
    "url": "http://www.rakuroukai.or.jp",
    "pref": "長崎県",
    "city": "長崎市",
    "category": "home_help",
    "serviceType": "訪問介護",
    "capacity": 0,
    "openDays": [
      "平日",
      "土曜日",
      "祝日"
    ],
    "openDaysNote": ""
  },
  {
    "id": "4270108816",
    "name": "指定訪問介護事業所　コスモ",
    "kana": "シテイホウモンカイゴジギョウショ　コスモ",
    "address": "長崎県長崎市かき道6丁目1-1東長崎コスモマンション 東長崎コスモマンション",
    "lat": 32.7653718,
    "lng": 129.9599327,
    "tel": "095-839-9911",
    "url": "http://www.kaigomansion.org/",
    "pref": "長崎県",
    "city": "長崎市",
    "category": "home_help",
    "serviceType": "訪問介護",
    "capacity": 0,
    "openDays": [
      "平日",
      "土曜日",
      "日曜日",
      "祝日"
    ],
    "openDaysNote": ""
  },
  {
    "id": "4270135306",
    "name": "指定訪問介護事業所　へるぱ～すわ",
    "kana": "シテイホウモンカイゴジギョウショ　ヘルパ～スワ",
    "address": "長崎県長崎市下西山町10番6号大蔵ビル102号 大蔵ビル102号",
    "lat": 32.7559271,
    "lng": 129.8860718,
    "tel": "095-829-5833",
    "url": "",
    "pref": "長崎県",
    "city": "長崎市",
    "category": "home_help",
    "serviceType": "訪問介護",
    "capacity": 0,
    "openDays": [
      "平日",
      "土曜日",
      "日曜日",
      "祝日"
    ],
    "openDaysNote": ""
  },
  {
    "id": "4270101258",
    "name": "指定訪問介護事業所　ヘルパーステーション三原の園",
    "kana": "シテイホウモンカイゴジギョウショ　ミハラノソノ",
    "address": "長崎県長崎市三原１丁目８番３５号",
    "lat": 32.7816269,
    "lng": 129.8760524,
    "tel": "095-848-5522",
    "url": "http://www.miharadai.or.jp/",
    "pref": "長崎県",
    "city": "長崎市",
    "category": "home_help",
    "serviceType": "訪問介護",
    "capacity": null,
    "openDays": [
      "平日",
      "土曜日",
      "日曜日",
      "祝日"
    ],
    "openDaysNote": "人員体制上可能であれば利用者との契約により、時間外、早朝、夜間、深夜も対応します。"
  },
  {
    "id": "4270103593",
    "name": "指定訪問介護事業所ひまわり",
    "kana": "シテイホウモンカイゴジギョウショヒマワリ",
    "address": "長崎県長崎市小菅町１番３７号２Ｆ",
    "lat": 32.7277372,
    "lng": 129.8618462,
    "tel": "095-816-3433",
    "url": "http://www.nanbusogo.sakura.ne.jp/kaigo.html",
    "pref": "長崎県",
    "city": "長崎市",
    "category": "home_help",
    "serviceType": "訪問介護",
    "capacity": 0,
    "openDays": [
      "平日",
      "土曜日",
      "日曜日",
      "祝日"
    ],
    "openDaysNote": ""
  },
  {
    "id": "4270135868",
    "name": "社会福祉法人　幸和会　ヘルパーステーション　なごみ",
    "kana": "シャカイフクシホウジン　コウワカイ　ヘルパーステーション　ナゴミ",
    "address": "長崎県長崎市香焼町563番地17",
    "lat": 32.6871488,
    "lng": 129.8122023,
    "tel": "095-871-7753",
    "url": "",
    "pref": "長崎県",
    "city": "長崎市",
    "category": "home_help",
    "serviceType": "訪問介護",
    "capacity": 0,
    "openDays": [
      "平日",
      "土曜日",
      "祝日"
    ],
    "openDaysNote": "ただし、利用者の希望に応じて、上記時間外でも、サービス提供可能な体制をとります。"
  },
  {
    "id": "4270102181",
    "name": "社会福祉法人　春秋会　ヘルパーステーションリエゾン長崎",
    "kana": "シャカイフクシホウジン　シュンジュウカイ　ヘルパーステーションリエゾンナガサキ",
    "address": "長崎県長崎市江川町100番地１",
    "lat": 32.682152,
    "lng": 129.8411877,
    "tel": "095-879-7640",
    "url": "https://liaison.gr.jp/",
    "pref": "長崎県",
    "city": "長崎市",
    "category": "home_help",
    "serviceType": "訪問介護",
    "capacity": 0,
    "openDays": [
      "平日",
      "土曜日",
      "祝日"
    ],
    "openDaysNote": ""
  },
  {
    "id": "4270105408",
    "name": "社会福祉法人　純心聖母会　ヘルパーステーション「恵の丘」",
    "kana": "シャカイフクシホウジン　ジュンシンセイボカイ　ヘルパーステーション「メグミノオカ」",
    "address": "長崎県長崎市三ツ山町139-2",
    "lat": 32.8039416120873,
    "lng": 129.909066142992,
    "tel": "095-846-5655",
    "url": "http://junshin-seibo.or.jp",
    "pref": "長崎県",
    "city": "長崎市",
    "category": "home_help",
    "serviceType": "訪問介護",
    "capacity": 0,
    "openDays": [
      "平日",
      "土曜日",
      "祝日"
    ],
    "openDaysNote": "日曜日は必要性に応じてサービスを行う。（改行）営業時間内以外では人数が限られる。"
  },
  {
    "id": "4270106513",
    "name": "社会福祉法人グリーンコープ　ふくしサービスセンターありす",
    "kana": "シャカイフクシホウジングリーンコープ　フクシサービスセンターアリス",
    "address": "長崎県長崎市ダイヤランド2丁目21-21",
    "lat": 32.7027783,
    "lng": 129.8591944,
    "tel": "095-878-0032",
    "url": "www.fukushi-greencoop.or.jp",
    "pref": "長崎県",
    "city": "長崎市",
    "category": "home_help",
    "serviceType": "訪問介護",
    "capacity": 0,
    "openDays": [
      "平日",
      "土曜日",
      "祝日"
    ],
    "openDaysNote": "なお、土曜日、日曜日、時間外のサービスについても可能な限り相談に応じます。"
  },
  {
    "id": "4270111562",
    "name": "社会福祉法人グリーンコープ　ふくしサービスセンターどんぐり",
    "kana": "シャカイフクジホウジングリーンコープ　フクシサービスセンタードングリ",
    "address": "長崎県長崎市横尾3丁目33-8",
    "lat": 32.8143949,
    "lng": 129.8350091,
    "tel": "095-856-3532",
    "url": "http://fukushi-greencoop.or.jp",
    "pref": "長崎県",
    "city": "長崎市",
    "category": "home_help",
    "serviceType": "訪問介護",
    "capacity": 0,
    "openDays": [
      "平日",
      "祝日"
    ],
    "openDaysNote": "これ以外の曜日、時間帯は相談に応じる。"
  },
  {
    "id": "4270105861",
    "name": "社会福祉法人平成会　訪問介護ステーション・日見やすらぎ荘",
    "kana": "シャカイフクシホウジンヘイセイカイ　ホウモンカイゴステーション・ヒミヤスラギソウ",
    "address": "長崎県長崎市宿町616番地",
    "lat": 32.7601939,
    "lng": 129.9370259,
    "tel": "095-838-2308",
    "url": "http://www.heisei-kai.or.jp/",
    "pref": "長崎県",
    "city": "長崎市",
    "category": "home_help",
    "serviceType": "訪問介護",
    "capacity": 3,
    "openDays": [
      "平日",
      "土曜日",
      "日曜日",
      "祝日"
    ],
    "openDaysNote": "6：00～7：00、21：00～22：30は緊急の相談に対応可能です。"
  },
  {
    "id": "4270100904",
    "name": "社会福祉法人朋永会　指定訪問介護事業所びわの園",
    "kana": "シャカイフクシホウジンホウエイカイ　シテイホウモンカイゴジギョウショビワノソノ",
    "address": "長崎県長崎市茂木町2222番地",
    "lat": 32.6995432,
    "lng": 129.9127107,
    "tel": "095-836-0491",
    "url": "http://biwanosono.com",
    "pref": "長崎県",
    "city": "長崎市",
    "category": "home_help",
    "serviceType": "訪問介護",
    "capacity": null,
    "openDays": [
      "平日",
      "土曜日",
      "日曜日",
      "祝日"
    ],
    "openDaysNote": ""
  },
  {
    "id": "4270110523",
    "name": "長崎ケアハートガーデン　ヘルパーステーション南長崎",
    "kana": "ナガサキケアハートガーデン　ヘルパーステーションミナミナガサキ",
    "address": "長崎市竿浦町754番地1",
    "lat": 32.6758157502015,
    "lng": 129.839415026459,
    "tel": "095-893-8217",
    "url": "http://www.mdlife.co.jp/",
    "pref": "長崎県",
    "city": "長崎市",
    "category": "home_help",
    "serviceType": "訪問介護",
    "capacity": 0,
    "openDays": [
      "平日",
      "土曜日",
      "日曜日",
      "祝日"
    ],
    "openDaysNote": ""
  },
  {
    "id": "4270111687",
    "name": "長崎ダイヤモンドスタッフ株式会社　在宅介護サービスセンター",
    "kana": "ナガサキダイヤモンドスタッフカブシキガイシャザイタクカイゴサービスセンター",
    "address": "長崎県長崎市淵町2番25号",
    "lat": 32.7601203,
    "lng": 129.8599738,
    "tel": "095-864-0708",
    "url": "https://www.diamondstaff.co.jp/",
    "pref": "長崎県",
    "city": "長崎市",
    "category": "home_help",
    "serviceType": "訪問介護",
    "capacity": null,
    "openDays": [
      "平日",
      "土曜日",
      "日曜日",
      "祝日"
    ],
    "openDaysNote": "時間帯により、派遣希望者が重複した場合は派遣できない場合もあります。"
  },
  {
    "id": "4270111703",
    "name": "長崎ダイヤモンドスタッフ株式会社　在宅介護サービスセンター　ヘルパーステーション深堀",
    "kana": "ナガサキダイヤモンドスタッフカブシキガイシャザイタクカイゴサービスセンターヘルパーステーションフカホリ",
    "address": "長崎県長崎市末石町370番地55",
    "lat": 32.685514416688,
    "lng": 129.838158967385,
    "tel": "095-832-3000",
    "url": "https://www.diamondstaff.co.jp/",
    "pref": "長崎県",
    "city": "長崎市",
    "category": "home_help",
    "serviceType": "訪問介護",
    "capacity": null,
    "openDays": [
      "平日",
      "土曜日",
      "日曜日",
      "祝日"
    ],
    "openDaysNote": "時間帯により、派遣希望者が重複した場合は派遣できない場合もあります。"
  },
  {
    "id": "4270111695",
    "name": "長崎ダイヤモンドスタッフ株式会社　在宅介護サービスセンターヘルパーステーション野母崎",
    "kana": "ナガサキダイヤモンドスタッフカブシキガイシャザイタクカイゴサービスーセンターヘルパーステーションノモザキ",
    "address": "長崎県長崎市高浜町3265-48",
    "lat": 32.6054209,
    "lng": 129.7862767,
    "tel": "095-833-8700",
    "url": "https://www.diamondstaff.co.jp/",
    "pref": "長崎県",
    "city": "長崎市",
    "category": "home_help",
    "serviceType": "訪問介護",
    "capacity": null,
    "openDays": [
      "平日",
      "土曜日",
      "日曜日",
      "祝日"
    ],
    "openDaysNote": "時間帯により、派遣希望者が重複した場合は派遣できない場合もあります。"
  },
  {
    "id": "4270106554",
    "name": "福祉生協ヘルパーステーションいきいき長崎中央",
    "kana": "フクシセイキョウヘルパーステーションイキイキナガサキチュウオウ",
    "address": "長崎県長崎市三芳町9-12　ウイルマ・ハイツⅡ",
    "lat": 32.7837582500816,
    "lng": 129.85893812039,
    "tel": "095-801-3144",
    "url": "http://www.ikiikicoop.net",
    "pref": "長崎県",
    "city": "長崎市",
    "category": "home_help",
    "serviceType": "訪問介護",
    "capacity": 0,
    "openDays": [
      "平日",
      "土曜日",
      "日曜日",
      "祝日"
    ],
    "openDaysNote": "6:00～8:00までは早朝料金、18:00～22:00までは夜間料金として25％が割増されます。"
  },
  {
    "id": "4270111828",
    "name": "訪問介護　おまかせ",
    "kana": "ホウモンカイゴ　オマカセ",
    "address": "長崎県長崎市滑石6丁目5番3号門口借家1号棟 門口借家1号棟",
    "lat": 32.8035999,
    "lng": 129.8364593,
    "tel": "095-801-3136",
    "url": "http://hp.kaipoke.biz/5r4/",
    "pref": "長崎県",
    "city": "長崎市",
    "category": "home_help",
    "serviceType": "訪問介護",
    "capacity": 0,
    "openDays": [
      "平日",
      "土曜日",
      "祝日"
    ],
    "openDaysNote": "上記時間外でもご相談ください。"
  },
  {
    "id": "4270108873",
    "name": "訪問介護　グラバー",
    "kana": "ホウモンカイゴ　グラバー",
    "address": "長崎県長崎市上小島4-14-3",
    "lat": 32.7316792,
    "lng": 129.8848086,
    "tel": "095-895-7063",
    "url": "http://kanoncreate.com/",
    "pref": "長崎県",
    "city": "長崎市",
    "category": "home_help",
    "serviceType": "訪問介護",
    "capacity": 0,
    "openDays": [
      "平日",
      "土曜日",
      "日曜日",
      "祝日"
    ],
    "openDaysNote": ""
  },
  {
    "id": "4270108329",
    "name": "訪問介護　けやき",
    "kana": "ホウモンカイゴ　ケヤキ",
    "address": "長崎県長崎市けやき台町11番3号",
    "lat": 32.7973668,
    "lng": 129.8801376,
    "tel": "095-847-5486",
    "url": "",
    "pref": "長崎県",
    "city": "長崎市",
    "category": "home_help",
    "serviceType": "訪問介護",
    "capacity": 0,
    "openDays": [
      "平日",
      "土曜日",
      "祝日"
    ],
    "openDaysNote": ""
  },
  {
    "id": "4270111596",
    "name": "訪問介護　チーム風",
    "kana": "ホウモンカイゴ　チームカゼ",
    "address": "長崎県長崎市多以良町1551番地102",
    "lat": 32.8123649,
    "lng": 129.7735829,
    "tel": "095-860-1192",
    "url": "http://www.courage.com",
    "pref": "長崎県",
    "city": "長崎市",
    "category": "home_help",
    "serviceType": "訪問介護",
    "capacity": 0,
    "openDays": [
      "平日",
      "土曜日",
      "日曜日",
      "祝日"
    ],
    "openDaysNote": "24時間対応可。"
  },
  {
    "id": "4270135744",
    "name": "訪問介護ステーション　ゆいまーる",
    "kana": "ホウモンカイゴステーション　ユイマール",
    "address": "長崎県長崎市宿町187-1",
    "lat": 32.7598522,
    "lng": 129.9402453,
    "tel": "080-9104-9784",
    "url": "",
    "pref": "長崎県",
    "city": "長崎市",
    "category": "home_help",
    "serviceType": "訪問介護",
    "capacity": 0,
    "openDays": [
      "平日",
      "土曜日",
      "日曜日",
      "祝日"
    ],
    "openDaysNote": "必要時な方には、24時間の体制で対応します。"
  },
  {
    "id": "4270100680",
    "name": "訪問介護ステーション・プライエム横尾",
    "kana": "ホウモンカイゴステーション・プライエムヨコオ",
    "address": "長崎県長崎市横尾3丁目26番2号",
    "lat": 32.8170101823851,
    "lng": 129.839036172947,
    "tel": "095-814-6700",
    "url": "http://www.heisei-kai.or.jp/",
    "pref": "長崎県",
    "city": "長崎市",
    "category": "home_help",
    "serviceType": "訪問介護",
    "capacity": 220,
    "openDays": [
      "平日",
      "土曜日",
      "日曜日",
      "祝日"
    ],
    "openDaysNote": "上記以外の時間帯でもご相談に応じます。"
  },
  {
    "id": "4270108485",
    "name": "訪問介護センターかもめ",
    "kana": "ホウモンカイゴセンターカモメ",
    "address": "長崎県長崎市大浜町８４６－２２ケアハウス大浜 ケアハウス大浜",
    "lat": 32.7455275226504,
    "lng": 129.832020493548,
    "tel": "095-865-5865",
    "url": "http://oohama50.sakura.ne.jp/co/top",
    "pref": "長崎県",
    "city": "長崎市",
    "category": "home_help",
    "serviceType": "訪問介護",
    "capacity": 0,
    "openDays": [
      "平日",
      "土曜日",
      "日曜日",
      "祝日"
    ],
    "openDaysNote": "平常時間帯（午前８時～午後６時）以外の時間帯でサービス行う場合は利用料金に（改行）割増料金が加算されます。（改行）夜間（午後６時～午後10時まで）　２５％（改行）深夜（午後１０時～午前６時まで）５０％（改行）早朝（午前６時～８時まで）　　　２５％（改行）2人の訪問介護員が共同でサービス行う必要がある場合は、ご契約者の同意の上で、通常の利用料金の２倍頂きます。（改行）＊体重の重い方に対する入浴介助等の重介護サービス（改行）　暴力行為などが見られる方へのサービスを行う場合"
  },
  {
    "id": "4270135835",
    "name": "訪問介護愛",
    "kana": "ホウモンカイゴアイ",
    "address": "長崎県長崎市以下宿町2885",
    "lat": 32.6148942,
    "lng": 129.7912686,
    "tel": "958953113",
    "url": "http://f-taxi-ai.com",
    "pref": "長崎県",
    "city": "長崎市",
    "category": "home_help",
    "serviceType": "訪問介護",
    "capacity": null,
    "openDays": [
      "平日",
      "土曜日"
    ],
    "openDaysNote": "利用者やご家族、担当医が必要とし介護支援専門員が認めた場合は日曜日、祝日のサービス提供は可能。"
  },
  {
    "id": "4270112099",
    "name": "訪問介護花椿矢の平",
    "kana": "ホウモンカイゴハナツバキヤノヒラ",
    "address": "矢の平４丁目9-22",
    "lat": 32.741379,
    "lng": 129.8948106,
    "tel": "095-893-8282",
    "url": "https://smilecs.jp/news/",
    "pref": "長崎県",
    "city": "長崎市",
    "category": "home_help",
    "serviceType": "訪問介護",
    "capacity": 0,
    "openDays": [
      "平日",
      "土曜日",
      "日曜日",
      "祝日"
    ],
    "openDaysNote": "12月31日から1月3日は休業"
  },
  {
    "id": "4270105929",
    "name": "訪問介護事業所　あいぎ荘",
    "kana": "ホウモンカイゴジギョウショ　アイギソウ",
    "address": "長崎県長崎市布巻町1490",
    "lat": 32.6605931501441,
    "lng": 129.836994247018,
    "tel": "095-892-2100",
    "url": "",
    "pref": "長崎県",
    "city": "長崎市",
    "category": "home_help",
    "serviceType": "訪問介護",
    "capacity": 0,
    "openDays": [
      "平日",
      "土曜日",
      "日曜日",
      "祝日"
    ],
    "openDaysNote": "時間外のサービス利用については要相談とさせて頂きます。"
  },
  {
    "id": "4270102470",
    "name": "訪問介護事業所　きんぎょ家",
    "kana": "ホウモンカイゴジギョウショ　キンギョヤ",
    "address": "長崎県長崎市小ヶ倉町2丁目327-1",
    "lat": 32.7072916,
    "lng": 129.8504142,
    "tel": "095-898-5911",
    "url": "http://h-well.co.jp",
    "pref": "長崎県",
    "city": "長崎市",
    "category": "home_help",
    "serviceType": "訪問介護",
    "capacity": 0,
    "openDays": [
      "平日"
    ],
    "openDaysNote": "土曜、日曜、祝日においては相談に応じます。"
  },
  {
    "id": "4270136213",
    "name": "訪問介護事業所　まごのて",
    "kana": "ホウモンカイゴジギョウショ　マゴノテ",
    "address": "長崎県長崎市豊洋台2丁目17番4号",
    "lat": 32.8266460583499,
    "lng": 129.793056116008,
    "tel": "095-807-0793",
    "url": "",
    "pref": "長崎県",
    "city": "長崎市",
    "category": "home_help",
    "serviceType": "訪問介護",
    "capacity": 5,
    "openDays": [
      "平日",
      "土曜日"
    ],
    "openDaysNote": ""
  },
  {
    "id": "4270111075",
    "name": "訪問介護事業所　むつみ",
    "kana": "ホウモンカイゴジギョウショ　ムツミ",
    "address": "長崎県長崎市京泊２丁目９番２２号",
    "lat": 32.8210975125664,
    "lng": 129.773808850028,
    "tel": "095-801-7610",
    "url": "http://tomomedical.net/",
    "pref": "長崎県",
    "city": "長崎市",
    "category": "home_help",
    "serviceType": "訪問介護",
    "capacity": 0,
    "openDays": [
      "平日",
      "土曜日"
    ],
    "openDaysNote": "上記の営業日、営業時間のほか、居宅サービス計画によりサービス提供を行うものとする。"
  },
  {
    "id": "4270104369",
    "name": "訪問介護事業所　やました笑会",
    "kana": "ホウモンカイゴジギョウショ　ヤマシタショウカイ",
    "address": "長崎県長崎市鳴見台2丁目18番12号",
    "lat": 32.8224159,
    "lng": 129.8071305,
    "tel": "095-850-0779",
    "url": "",
    "pref": "長崎県",
    "city": "長崎市",
    "category": "home_help",
    "serviceType": "訪問介護",
    "capacity": 0,
    "openDays": [
      "平日",
      "土曜日",
      "日曜日",
      "祝日"
    ],
    "openDaysNote": "電話（転送含む）にて24時間緊急訪問可能（改行）新規利用者の場合、スケジュールの都合で利用できる時間に制限がでる場合有。"
  },
  {
    "id": "4270107974",
    "name": "訪問介護事業所　琴の浦荘",
    "kana": "ホウモンカイゴジギョウショ　コトノウラソウ",
    "address": "長崎県長崎市琴海戸根町743番地47",
    "lat": 32.8886095,
    "lng": 129.7920383,
    "tel": "095-801-3640",
    "url": "http://www.gounkai.or.jp/",
    "pref": "長崎県",
    "city": "長崎市",
    "category": "home_help",
    "serviceType": "訪問介護",
    "capacity": 0,
    "openDays": [
      "平日",
      "土曜日",
      "日曜日",
      "祝日"
    ],
    "openDaysNote": ""
  },
  {
    "id": "4270100425",
    "name": "訪問介護事業所　古賀の里",
    "kana": "ホウモンカイゴジギョウショ　コガノサト",
    "address": "長崎県長崎市古賀町806-2",
    "lat": 32.7971717,
    "lng": 129.9612511,
    "tel": "095-839-2775",
    "url": "http://www.koganosato.jp/",
    "pref": "長崎県",
    "city": "長崎市",
    "category": "home_help",
    "serviceType": "訪問介護",
    "capacity": 0,
    "openDays": [
      "平日",
      "土曜日",
      "日曜日",
      "祝日"
    ],
    "openDaysNote": ""
  },
  {
    "id": "4270112313",
    "name": "訪問介護事業所　長崎たんぽぽ",
    "kana": "ホウモンカイゴジギョウショ　ナガサキタンポポ",
    "address": "長崎県長崎市新小が倉1丁目1番7号",
    "lat": 32.7088834699627,
    "lng": 129.862191369883,
    "tel": "095-878-0677",
    "url": "http://musashi.link",
    "pref": "長崎県",
    "city": "長崎市",
    "category": "home_help",
    "serviceType": "訪問介護",
    "capacity": 0,
    "openDays": [
      "平日",
      "土曜日"
    ],
    "openDaysNote": "時間外のサービスにつきましてはご相談ください。"
  },
  {
    "id": "4270111612",
    "name": "訪問介護事業所あすか",
    "kana": "ホウモンカイゴジギョウショアスカ",
    "address": "滑石1丁目1番9号滑石七福ビル503 滑石七福ビル503",
    "lat": 32.8058962740149,
    "lng": 129.849920890144,
    "tel": "095-894-7855",
    "url": "well-asuka.com",
    "pref": "長崎県",
    "city": "長崎市",
    "category": "home_help",
    "serviceType": "訪問介護",
    "capacity": 0,
    "openDays": [
      "平日",
      "土曜日",
      "日曜日",
      "祝日"
    ],
    "openDaysNote": "時間外でも相談に応じる体制をとる"
  },
  {
    "id": "4270136304",
    "name": "訪問介護事業所うぇるずらいふ大手",
    "kana": "ホウモンカイゴジギョウショウェルズライフオオテ",
    "address": "長崎県長崎市大手1丁目29番6号",
    "lat": 32.7899401,
    "lng": 129.876224,
    "tel": "095-894-8821",
    "url": "https://www.wellslife.jp/",
    "pref": "長崎県",
    "city": "長崎市",
    "category": "home_help",
    "serviceType": "訪問介護",
    "capacity": null,
    "openDays": [
      "平日",
      "土曜日",
      "日曜日",
      "祝日"
    ],
    "openDaysNote": "24時間営業"
  },
  {
    "id": "4270100888",
    "name": "訪問介護事業所サンハイツ",
    "kana": "ホウモンカイゴジギョウショサンハイツ",
    "address": "長崎県長崎市油木町６５番地１４",
    "lat": 32.7803067,
    "lng": 129.8441103,
    "tel": "095-843-3812",
    "url": "http://www.sanhaitsu.jp/",
    "pref": "長崎県",
    "city": "長崎市",
    "category": "home_help",
    "serviceType": "訪問介護",
    "capacity": 0,
    "openDays": [
      "平日",
      "土曜日",
      "日曜日",
      "祝日"
    ],
    "openDaysNote": "時間外（改行）（早朝・夜間）6：00～8：00,18：00～22：00　利用料金・・通常利用料の25％増し（改行）（深夜帯）　　22：00～6：00　　利用料金・・・通常利用料の50％増し"
  },
  {
    "id": "4270110697",
    "name": "訪問介護事業所しらゆり",
    "kana": "ホウモンカイゴジギョウショシラユリ",
    "address": "長崎県長崎市三重町461番地4",
    "lat": 32.8239107845437,
    "lng": 129.745801379346,
    "tel": "095-894-1900",
    "url": "",
    "pref": "長崎県",
    "city": "長崎市",
    "category": "home_help",
    "serviceType": "訪問介護",
    "capacity": null,
    "openDays": [
      "平日",
      "土曜日",
      "日曜日",
      "祝日"
    ],
    "openDaysNote": "サービス提供は24時間常時とする。"
  },
  {
    "id": "4270108311",
    "name": "訪問介護事業所すこやか",
    "kana": "ホウモンカイゴジギョウショ　スコヤカ",
    "address": "長崎県長崎市西北町35番6号",
    "lat": 32.7967661,
    "lng": 129.8499284,
    "tel": "095-819-8470",
    "url": "",
    "pref": "長崎県",
    "city": "長崎市",
    "category": "home_help",
    "serviceType": "訪問介護",
    "capacity": 0,
    "openDays": [
      "平日",
      "土曜日",
      "祝日"
    ],
    "openDaysNote": ""
  },
  {
    "id": "4270112297",
    "name": "訪問介護事業所はまゆう",
    "kana": "ホウモンカイゴジギョウショハマユウ",
    "address": "長崎県長崎市田中町８４５－１",
    "lat": 32.7694327,
    "lng": 129.9511899,
    "tel": "095-839-5888",
    "url": "",
    "pref": "長崎県",
    "city": "長崎市",
    "category": "home_help",
    "serviceType": "訪問介護",
    "capacity": 20,
    "openDays": [
      "平日",
      "土曜日",
      "日曜日",
      "祝日"
    ],
    "openDaysNote": ""
  },
  {
    "id": "4270135819",
    "name": "訪問介護事業所モック",
    "kana": "ホウモンカイゴジギョウショモック",
    "address": "長崎県長崎市旭町６番１号タワーコート３０３ タワーコート３０３",
    "lat": 32.7502221,
    "lng": 129.8650782,
    "tel": "095-801-1705",
    "url": "",
    "pref": "長崎県",
    "city": "長崎市",
    "category": "home_help",
    "serviceType": "訪問介護",
    "capacity": 0,
    "openDays": [
      "平日",
      "土曜日"
    ],
    "openDaysNote": "8/13～8/15（改行）12/29～1/4休み"
  },
  {
    "id": "4270103577",
    "name": "有限会社　ヘルパーステーションつくし",
    "kana": "ユウゲンガイシャ　ヘルパーステーション　ツクシ",
    "address": "長崎市西立神町１０番３８号",
    "lat": 32.7357,
    "lng": 129.8495662,
    "tel": "095-861-7311",
    "url": "",
    "pref": "長崎県",
    "city": "長崎市",
    "category": "home_help",
    "serviceType": "訪問介護",
    "capacity": 0,
    "openDays": [
      "平日"
    ],
    "openDaysNote": "御利用者様の要望により土曜日、日曜日も営業"
  },
  {
    "id": "4270111497",
    "name": "有限会社ケアスト",
    "kana": "ユウゲンガイシャケアスト",
    "address": "長崎県長崎市上小島4丁目7-48",
    "lat": 32.7324161,
    "lng": 129.8853319,
    "tel": "095-801-1666",
    "url": "",
    "pref": "長崎県",
    "city": "長崎市",
    "category": "home_help",
    "serviceType": "訪問介護",
    "capacity": 0,
    "openDays": [
      "平日",
      "土曜日",
      "祝日"
    ],
    "openDaysNote": ""
  },
  {
    "id": "4270107552",
    "name": "有限会社新里ソーシャルサービス　ヘルパーステーション新里城栄",
    "kana": "ユウゲンガイシャシンザトソーシャルサービス　ヘルパーステーションシンザトジョウエイ",
    "address": "長崎県長崎市城栄町18番23号ヒガシビル202号室 ヒガシビル202号室",
    "lat": 32.7752372241564,
    "lng": 129.857901467372,
    "tel": "095-842-6110",
    "url": "http://www.shinzato.or.jp",
    "pref": "長崎県",
    "city": "長崎市",
    "category": "home_help",
    "serviceType": "訪問介護",
    "capacity": 0,
    "openDays": [
      "平日",
      "土曜日",
      "祝日"
    ],
    "openDaysNote": ""
  },
  {
    "id": "4271103329",
    "name": "エフ・ステージ訪問介護長与",
    "kana": "エフ・ステージホウモンカイゴナガヨ",
    "address": "長崎県西彼杵郡長与町高田郷47番地ブルーインの森　医療棟内 ブルーインの森　医療棟内",
    "lat": 32.8028714,
    "lng": 129.8546367,
    "tel": "095-855-8829",
    "url": "https://entowa.co.jp/",
    "pref": "長崎県",
    "city": "長与町",
    "category": "home_help",
    "serviceType": "訪問介護",
    "capacity": 0,
    "openDays": [
      "平日"
    ],
    "openDaysNote": "上記時間以外のサービスについては、ご相談ください。"
  },
  {
    "id": "4270104385",
    "name": "ニチイケアセンターまなび野",
    "kana": "ニチイケアセンターマナビノ",
    "address": "長崎県西彼杵郡長与町まなび野3-35-5",
    "lat": 32.8133929,
    "lng": 129.8780455,
    "tel": "095-813-5770",
    "url": "http://www.nichiigakkan.co.jp",
    "pref": "長崎県",
    "city": "長与町",
    "category": "home_help",
    "serviceType": "訪問介護",
    "capacity": 0,
    "openDays": [
      "平日",
      "土曜日",
      "日曜日",
      "祝日"
    ],
    "openDaysNote": ""
  },
  {
    "id": "4271103261",
    "name": "ヘルパーステーション　かしの木",
    "kana": "ヘルパーステーション　カシノキ",
    "address": "長崎県西彼杵郡長与町まなび野3丁目14番地8",
    "lat": 32.8105888,
    "lng": 129.8771676,
    "tel": "090-5021-5181",
    "url": "",
    "pref": "長崎県",
    "city": "長与町",
    "category": "home_help",
    "serviceType": "訪問介護",
    "capacity": 0,
    "openDays": [
      "平日",
      "土曜日",
      "日曜日",
      "祝日"
    ],
    "openDaysNote": "時間外のサービス提供についても相談に応じます"
  },
  {
    "id": "4271103196",
    "name": "ヘルパーステーション心愛",
    "kana": "ヘルパーステーションシンアイ",
    "address": "長崎県西彼杵郡長与町北陽台1丁目1－5",
    "lat": 32.8215711348408,
    "lng": 129.874542267598,
    "tel": "095－801-2007",
    "url": "",
    "pref": "長崎県",
    "city": "長与町",
    "category": "home_help",
    "serviceType": "訪問介護",
    "capacity": 0,
    "openDays": [
      "平日",
      "土曜日"
    ],
    "openDaysNote": ""
  },
  {
    "id": "4271101190",
    "name": "ホームヘルパーステーション　「コスモス」",
    "kana": "ホーム　ヘルパーステーション　「コスモス」",
    "address": "長崎県西彼杵郡長与町高田郷2445-1",
    "lat": 32.8145976,
    "lng": 129.848325,
    "tel": "095-856-2169",
    "url": "",
    "pref": "長崎県",
    "city": "長与町",
    "category": "home_help",
    "serviceType": "訪問介護",
    "capacity": 0,
    "openDays": [
      "平日",
      "土曜日",
      "日曜日",
      "祝日"
    ],
    "openDaysNote": "特になし"
  },
  {
    "id": "4271103311",
    "name": "医療法人徳洲会　長崎北徳洲会介護センター",
    "kana": "イリョウホウジントクシュウカイナガサキキタトクシュウカイカイゴセンター",
    "address": "長崎県西彼杵郡長与町北陽台1丁目5番1",
    "lat": 32.8241142,
    "lng": 129.8722964,
    "tel": "095-813-5870",
    "url": "https://www.nk-toku.jp",
    "pref": "長崎県",
    "city": "長与町",
    "category": "home_help",
    "serviceType": "訪問介護",
    "capacity": 0,
    "openDays": [
      "平日",
      "土曜日",
      "日曜日",
      "祝日"
    ],
    "openDaysNote": "訪問時間は、24時間対応を介護ケアプランに沿って実施可能。"
  },
  {
    "id": "4271101968",
    "name": "指定訪問介護事業所　リリーフけあ",
    "kana": "シテイホウモンカイゴジギョウショ　リリーフケア",
    "address": "長崎県西彼杵郡長与町岡郷２１２４－１",
    "lat": 32.860225,
    "lng": 129.8736527,
    "tel": "095-814-5187",
    "url": "",
    "pref": "長崎県",
    "city": "長与町",
    "category": "home_help",
    "serviceType": "訪問介護",
    "capacity": 80,
    "openDays": [
      "平日",
      "土曜日",
      "日曜日",
      "祝日"
    ],
    "openDaysNote": "営業時間外については相談に応ずる"
  },
  {
    "id": "4271100259",
    "name": "社会福祉法人　長与町社会福祉協議会　訪問介護事業所",
    "kana": "シャカイフクシホウジン　ナガヨチョウシャカイフクシキョウギカイ　ホウモンカイゴジギョウショ",
    "address": "長崎県西彼杵郡長与町嬉里郷４３１－１",
    "lat": 32.8223087,
    "lng": 129.8764786,
    "tel": "095-885-7630",
    "url": "http://nagayoswc.org/",
    "pref": "長崎県",
    "city": "長与町",
    "category": "home_help",
    "serviceType": "訪問介護",
    "capacity": 0,
    "openDays": [
      "平日",
      "土曜日",
      "祝日"
    ],
    "openDaysNote": "特別な場合(年末年始（12/29～1/3）及び時間外）はこの限りではない。"
  },
  {
    "id": "4271103220",
    "name": "長崎ダイヤモンドスタッフ株式会社　在宅介護サービスセンターヘルパーステーション長与",
    "kana": "ナガサキダイヤモンドスタッフカブシキガイシャザイタクカイゴサービスセンターヘルパーステーションナガヨ",
    "address": "長崎県西彼杵郡長与町嬉里郷447",
    "lat": 32.8236335,
    "lng": 129.8755425,
    "tel": "095-814-5300",
    "url": "https://www.diamondstaff.co.jp/",
    "pref": "長崎県",
    "city": "長与町",
    "category": "home_help",
    "serviceType": "訪問介護",
    "capacity": null,
    "openDays": [
      "平日",
      "土曜日",
      "日曜日",
      "祝日"
    ],
    "openDaysNote": "時間帯により、派遣希望者が重複した場合は派遣できない場合もあります。"
  },
  {
    "id": "4271101984",
    "name": "福祉生協ヘルパーステーションいきいき長崎北部",
    "kana": "フクシセイキョウヘルパーステーションイキイキナガサキホクブ",
    "address": "長崎県西彼杵郡長与町嬉里郷463番地",
    "lat": 32.8224531399722,
    "lng": 129.877530955793,
    "tel": "095-894-8881",
    "url": "http://www.ikiikicoop.net",
    "pref": "長崎県",
    "city": "長与町",
    "category": "home_help",
    "serviceType": "訪問介護",
    "capacity": 10,
    "openDays": [
      "平日",
      "土曜日",
      "日曜日",
      "祝日"
    ],
    "openDaysNote": "特になし"
  },
  {
    "id": "4271103410",
    "name": "訪問介護ステーションきらり",
    "kana": "ホウモンカイゴステーションキラリ",
    "address": "長崎県西彼杵郡長与町高田郷2118-1",
    "lat": 32.8062544,
    "lng": 129.8571411,
    "tel": "095－865-9687",
    "url": "https://www.tokohakai.com/",
    "pref": "長崎県",
    "city": "長与町",
    "category": "home_help",
    "serviceType": "訪問介護",
    "capacity": null,
    "openDays": [
      "平日",
      "土曜日"
    ],
    "openDaysNote": "特別の需要がある場合にはこの限りではありません"
  },
  {
    "id": "4270301395",
    "name": "ケアサポートアミスヴィラ森岳",
    "kana": "ケアサポートアミスゔィラモリタケ",
    "address": "長崎県島原市城内１丁目1836-1",
    "lat": 32.7885393,
    "lng": 130.3653344,
    "tel": "0957-63-3333",
    "url": "https：//shunkokai.jp",
    "pref": "長崎県",
    "city": "島原市",
    "category": "home_help",
    "serviceType": "訪問介護",
    "capacity": null,
    "openDays": [
      "平日",
      "土曜日",
      "日曜日",
      "祝日"
    ],
    "openDaysNote": ""
  },
  {
    "id": "4270301346",
    "name": "ヘルパーステーション　びざん",
    "kana": "ヘルパーステーション　ビザン",
    "address": "長崎県島原市緑町8200番地",
    "lat": 32.7680992,
    "lng": 130.3675821,
    "tel": "0957-64-2205",
    "url": "",
    "pref": "長崎県",
    "city": "島原市",
    "category": "home_help",
    "serviceType": "訪問介護",
    "capacity": null,
    "openDays": [
      "平日",
      "土曜日",
      "日曜日"
    ],
    "openDaysNote": ""
  },
  {
    "id": "4270300876",
    "name": "ヘルパーステーションしまばら",
    "kana": "ヘルパーステーションシマバラ",
    "address": "長崎県島原市高島二丁目7209-5",
    "lat": 32.785589,
    "lng": 130.3726471,
    "tel": "0957-65-5505",
    "url": "http://www.shimabara.jp/npo-shimabara/",
    "pref": "長崎県",
    "city": "島原市",
    "category": "home_help",
    "serviceType": "訪問介護",
    "capacity": 0,
    "openDays": [
      "平日",
      "土曜日",
      "日曜日",
      "祝日"
    ],
    "openDaysNote": "居宅介護サービス計画書に基づくものとする。"
  },
  {
    "id": "4270300298",
    "name": "一般社団法人島原市医師会ヘルパーステーションらいふ",
    "kana": "イッパンシャダンホウジンシマバラシイシカイヘルパーステーションライフ",
    "address": "長崎県島原市萩原１丁目1230",
    "lat": 32.7857389,
    "lng": 130.3664251,
    "tel": "0957-63-6600",
    "url": "http://www.nagasaki.med.or.jp/simabara/station.html",
    "pref": "長崎県",
    "city": "島原市",
    "category": "home_help",
    "serviceType": "訪問介護",
    "capacity": 0,
    "openDays": [
      "平日",
      "土曜日",
      "日曜日",
      "祝日"
    ],
    "openDaysNote": "サービスが必要な利用者へは営業日・営業時間外でも随時・２４時間対応する。"
  },
  {
    "id": "4270301403",
    "name": "合同会社まざーりーふ　ヘルパーステーションみんなのちから",
    "kana": "ゴウドウガイシャ　マザーリーフ　ヘルパーステーション　ミンナノチカラ",
    "address": "長崎県島原市亀の甲町乙1636番地",
    "lat": 32.8212267,
    "lng": 130.3533267,
    "tel": "0957-61-0521",
    "url": "https://www.mother-leaf-ailabo.com/",
    "pref": "長崎県",
    "city": "島原市",
    "category": "home_help",
    "serviceType": "訪問介護",
    "capacity": 0,
    "openDays": [
      "平日"
    ],
    "openDaysNote": ""
  },
  {
    "id": "4270300181",
    "name": "社会福祉法人秩父会ホームヘルパー派遣事業所",
    "kana": "シャカイフクシホウジンチチブカイホームヘルパーハケンジギョウショ",
    "address": "長崎県島原市秩父が浦町丁３５５２番地",
    "lat": 32.7616968,
    "lng": 130.3692288,
    "tel": "0957-64-6388",
    "url": "http://www.chichibukai.or.jp/",
    "pref": "長崎県",
    "city": "島原市",
    "category": "home_help",
    "serviceType": "訪問介護",
    "capacity": 0,
    "openDays": [
      "平日",
      "土曜日",
      "祝日"
    ],
    "openDaysNote": ""
  },
  {
    "id": "4270300652",
    "name": "島原市社会福祉協議会　島原訪問介護事業所",
    "kana": "シマバラシシャカイフクシキョウギカイ　シマバラホウモンカイゴジギョウショ",
    "address": "長崎県島原市霊南一丁目１７番地",
    "lat": 32.7802284,
    "lng": 130.3772554,
    "tel": "0957-65-5530",
    "url": "http://www.shimabara-shakyo.or.jp",
    "pref": "長崎県",
    "city": "島原市",
    "category": "home_help",
    "serviceType": "訪問介護",
    "capacity": 0,
    "openDays": [
      "平日",
      "土曜日",
      "祝日"
    ],
    "openDaysNote": "電話等により２４時間常時連絡が可能な体制とする。"
  },
  {
    "id": "4270301072",
    "name": "訪問介護　みえ",
    "kana": "ホウモンカイゴ　ミエ",
    "address": "長崎県島原市山寺町丙３５５番地2",
    "lat": 32.8081673,
    "lng": 130.3520499,
    "tel": "0957-64-4518",
    "url": "",
    "pref": "長崎県",
    "city": "島原市",
    "category": "home_help",
    "serviceType": "訪問介護",
    "capacity": 40,
    "openDays": [
      "平日",
      "土曜日",
      "祝日"
    ],
    "openDaysNote": "通院等乗降介助での透析通院の人のみ、日曜日以外祭日等もサービスを実施しています。日曜日も要相談で対応致します。"
  },
  {
    "id": "4271200380",
    "name": "長崎部品株式会社介護支援サービス「さわやか」",
    "kana": "ナガサキブヒンカブシキガイシャカイゴシエンサービス「サワヤカ」",
    "address": "長崎県東彼杵郡東彼杵町三根郷字東舞山286-5",
    "lat": 33.0446444,
    "lng": 129.9195712,
    "tel": "0957-47-1240",
    "url": "",
    "pref": "長崎県",
    "city": "東彼杵町",
    "category": "home_help",
    "serviceType": "訪問介護",
    "capacity": 47,
    "openDays": [
      "平日",
      "土曜日",
      "祝日"
    ],
    "openDaysNote": "上記利用時間以外でも、ご相談の上対応しています。"
  },
  {
    "id": "4272500762",
    "name": "あおいヘルパーステーション",
    "kana": "アオイヘルパーステーション",
    "address": "長崎県南島原市深江町丙1840-16",
    "lat": 32.7284524,
    "lng": 130.3383492,
    "tel": "0957-72-7102",
    "url": "http://hp.kaipoke.biz/4r6/",
    "pref": "長崎県",
    "city": "南島原市",
    "category": "home_help",
    "serviceType": "訪問介護",
    "capacity": 0,
    "openDays": [
      "平日",
      "土曜日",
      "日曜日",
      "祝日"
    ],
    "openDaysNote": ""
  },
  {
    "id": "4272500788",
    "name": "ヘルパーステーションだいまる",
    "kana": "ヘルパーステーションダイマル",
    "address": "長崎県南島原市加津佐町戊119番地",
    "lat": 32.6354916,
    "lng": 130.1857722,
    "tel": "0957-87-3473",
    "url": "",
    "pref": "長崎県",
    "city": "南島原市",
    "category": "home_help",
    "serviceType": "訪問介護",
    "capacity": 0,
    "openDays": [
      "平日",
      "土曜日",
      "日曜日",
      "祝日"
    ],
    "openDaysNote": "時間外のサービス提供については、可能な限り相談に応じます。"
  },
  {
    "id": "4272500622",
    "name": "ヘルパーステーション結",
    "kana": "ヘルパーステーション　ユウ",
    "address": "長崎県南島原市南有馬町乙1604-10",
    "lat": 32.6326263,
    "lng": 130.2494357,
    "tel": "0957-60-4104",
    "url": "yu-station.shimabara-p.jp",
    "pref": "長崎県",
    "city": "南島原市",
    "category": "home_help",
    "serviceType": "訪問介護",
    "capacity": 0,
    "openDays": [
      "平日",
      "土曜日",
      "日曜日",
      "祝日"
    ],
    "openDaysNote": "（国民の休日、および年末年始12/30～1/3は原則定休日となります）"
  },
  {
    "id": "4272500598",
    "name": "居宅介護等事業たすかる",
    "kana": "キョタクカイゴトウジギョウタスカル",
    "address": "長崎県南島原市深江町戊2970番地2",
    "lat": 32.7340555,
    "lng": 130.3421622,
    "tel": "0957-72-4521",
    "url": "https://sfhcosmos.wixsite.com/cosmos",
    "pref": "長崎県",
    "city": "南島原市",
    "category": "home_help",
    "serviceType": "訪問介護",
    "capacity": 0,
    "openDays": [
      "平日",
      "土曜日",
      "日曜日",
      "祝日"
    ],
    "openDaysNote": "通院等乗降介助については午前８時から午後５時までとする（原則）"
  },
  {
    "id": "4272500341",
    "name": "社会福祉法人グリーンコープ　ふくしサービスセンターひばり",
    "kana": "シャカイフクシホウジングリーンコープ　フクシサービスセンターヒバリ",
    "address": "長崎県南島原市西有家町須川3203-10",
    "lat": 32.6533909,
    "lng": 130.2872039,
    "tel": "0957-82-6116",
    "url": "http://www.fukushi-greencoop.or.jp/",
    "pref": "長崎県",
    "city": "南島原市",
    "category": "home_help",
    "serviceType": "訪問介護",
    "capacity": 6,
    "openDays": [
      "平日",
      "祝日"
    ],
    "openDaysNote": "日曜、時間外のサービス提供についても可能な限り相談に応じます。"
  },
  {
    "id": "4271401152",
    "name": "島原雲仙農業協同組合居宅介護支援センター",
    "kana": "シマバラウンゼンノウギョウキョウドウクミアイキョタクカイゴシエンセンター",
    "address": "長崎県南島原市有家町久保12番地５",
    "lat": 32.6678098732625,
    "lng": 130.330667564418,
    "tel": "0957-82-5259",
    "url": "",
    "pref": "長崎県",
    "city": "南島原市",
    "category": "home_help",
    "serviceType": "訪問介護",
    "capacity": 0,
    "openDays": [
      "平日",
      "土曜日",
      "日曜日",
      "祝日"
    ],
    "openDaysNote": "年末年始（12/31～1/3）は休日扱いとなります。または、事業所が特別に定めた場合は休日となります。"
  },
  {
    "id": "4272500143",
    "name": "南島原市社協　ヘルパーセンター",
    "kana": "ミナミシマバラシシャキョウ　ヘルパーセンター",
    "address": "長崎県南島原市有家町石田8番地46",
    "lat": 32.6686132,
    "lng": 130.3320353,
    "tel": "0957-82-4795",
    "url": "http://www.minashimashakyo.or.jp",
    "pref": "長崎県",
    "city": "南島原市",
    "category": "home_help",
    "serviceType": "訪問介護",
    "capacity": 110,
    "openDays": [
      "平日",
      "土曜日",
      "日曜日",
      "祝日"
    ],
    "openDaysNote": "通常時間帯（8：00～18：00）（改行）早朝　　　（6：00～8：00）（改行）夜間　　　（18：00～22：00）（改行）・時間帯により利用料金が異なります。"
  },
  {
    "id": "4272500101",
    "name": "南島原市社協　南部ヘルパーセンター",
    "kana": "ミナミシマバラシシャキョウ　ナンブヘルパーセンター",
    "address": "長崎県南島原市口之津町丙2102番地1",
    "lat": 32.6131124,
    "lng": 130.1869881,
    "tel": "0957-76-1655",
    "url": "http://www.minashimashakyo.or.jp",
    "pref": "長崎県",
    "city": "南島原市",
    "category": "home_help",
    "serviceType": "訪問介護",
    "capacity": 75,
    "openDays": [
      "平日",
      "土曜日",
      "日曜日",
      "祝日"
    ],
    "openDaysNote": "通常時間帯（8：00～18：0）（改行）早朝　　　（6：00～8：00）（改行）夜間　　　（18：00～22：0）（改行）・時間帯により利用料金が異なります。"
  },
  {
    "id": "4272500473",
    "name": "訪問介護郷の家",
    "kana": "ホウモンカイゴサトノイエ",
    "address": "長崎県南島原市南有馬町乙１２２０番地第２",
    "lat": 32.6314901,
    "lng": 130.2457416,
    "tel": "0957-85-3981",
    "url": "",
    "pref": "長崎県",
    "city": "南島原市",
    "category": "home_help",
    "serviceType": "訪問介護",
    "capacity": 0,
    "openDays": [
      "平日",
      "土曜日",
      "日曜日",
      "祝日"
    ],
    "openDaysNote": "電話等により、24時間常時連絡が可能な体制とする。"
  },
  {
    "id": "4271402119",
    "name": "有限会社たすかるホームヘルプサービス",
    "kana": "ユウゲンガイシャタスカルホームヘルプサービス",
    "address": "長崎県南島原市深江町丙264",
    "lat": 32.714909840895,
    "lng": 130.347988344072,
    "tel": "0957-72-3499",
    "url": "http://hp.kaipoke.biz/81d/",
    "pref": "長崎県",
    "city": "南島原市",
    "category": "home_help",
    "serviceType": "訪問介護",
    "capacity": 50,
    "openDays": [
      "平日",
      "土曜日",
      "日曜日",
      "祝日"
    ],
    "openDaysNote": "上記以外の時間帯はご相談ください."
  },
  {
    "id": "4271200034",
    "name": "波佐見ホームヘルプサービス事業所",
    "kana": "ハサミホームヘルプサービスジギョウショ",
    "address": "長崎県東彼杵郡波佐見町長野郷１７３番地２",
    "lat": 33.1196942,
    "lng": 129.8740509,
    "tel": "0956-85-2240",
    "url": "hasami-shakyo.jp",
    "pref": "長崎県",
    "city": "波佐見町",
    "category": "home_help",
    "serviceType": "訪問介護",
    "capacity": 0,
    "openDays": [
      "平日",
      "土曜日",
      "日曜日",
      "祝日"
    ],
    "openDaysNote": "年中無休、上記時間帯外でも必要であれば対応します。"
  },
  {
    "id": "4270700612",
    "name": "セントケア平戸",
    "kana": "セントケアヒラド",
    "address": "長崎県平戸市戸石川町800-3",
    "lat": 33.3579878,
    "lng": 129.5466055,
    "tel": "0950-21-8413",
    "url": "http://www.saint-care.com",
    "pref": "長崎県",
    "city": "平戸市",
    "category": "home_help",
    "serviceType": "訪問介護",
    "capacity": 0,
    "openDays": [
      "平日",
      "土曜日",
      "日曜日",
      "祝日"
    ],
    "openDaysNote": ""
  },
  {
    "id": "4270700059",
    "name": "ヘルパーステーションじゃんがら",
    "kana": "ヘルパーステーションジャンガラ",
    "address": "長崎県平戸市浦の町７３０番地1ケアハウスじゃんがら内 ケアハウスじゃんがら内",
    "lat": 33.3715197,
    "lng": 129.5523602,
    "tel": "0950-22-2414",
    "url": "http://kyk-kitagawahp.com/",
    "pref": "長崎県",
    "city": "平戸市",
    "category": "home_help",
    "serviceType": "訪問介護",
    "capacity": 0,
    "openDays": [
      "平日",
      "土曜日",
      "日曜日",
      "祝日"
    ],
    "openDaysNote": "上記の時間によらず、早朝帯・夜間帯・深夜帯も対応可能"
  },
  {
    "id": "4270700075",
    "name": "わだつみの里ホームヘルプ事業所",
    "kana": "ワダツミノサトホームヘルプジギョウショ",
    "address": "長崎県平戸市辻町178特別養護老人ホームわだつみの里　ホームヘルプ事業所 特別養護老人ホームわだつみの里　ホームヘルプ事業所",
    "lat": 33.2170798,
    "lng": 129.4260978,
    "tel": "0950-27-2345",
    "url": "",
    "pref": "長崎県",
    "city": "平戸市",
    "category": "home_help",
    "serviceType": "訪問介護",
    "capacity": 0,
    "openDays": [
      "平日",
      "土曜日",
      "日曜日",
      "祝日"
    ],
    "openDaysNote": ""
  },
  {
    "id": "4270700752",
    "name": "指定訪問介護事業所あんじん",
    "kana": "シテイホウモンカイゴジギョウショアンジン",
    "address": "長崎県平戸市戸石川町４９１番６",
    "lat": 33.363029,
    "lng": 129.5496079,
    "tel": "０９５０－２３－８８１２",
    "url": "",
    "pref": "長崎県",
    "city": "平戸市",
    "category": "home_help",
    "serviceType": "訪問介護",
    "capacity": 0,
    "openDays": [
      "平日",
      "土曜日",
      "日曜日",
      "祝日"
    ],
    "openDaysNote": "ご契約者様及び、その家族の要望により需要がある場合はこの限りではありません。"
  },
  {
    "id": "4270700679",
    "name": "平戸みどりが丘ホームヘルプサービスセンター",
    "kana": "ヒラドミドリガオカホームヘルプサービスセンター",
    "address": "長崎県平戸市岩の上町825番地1",
    "lat": 33.356741,
    "lng": 129.5650403,
    "tel": "0950-22-5703",
    "url": "http://www.hakujukai.com",
    "pref": "長崎県",
    "city": "平戸市",
    "category": "home_help",
    "serviceType": "訪問介護",
    "capacity": 0,
    "openDays": [
      "平日",
      "土曜日",
      "日曜日",
      "祝日"
    ],
    "openDaysNote": "24時間サービス提供ができる体制を整備しています。"
  },
  {
    "id": "4270700471",
    "name": "平戸市社協訪問介護生月事業所",
    "kana": "ヒラドシシャキョウホウモンカイゴイキツキジギョウショ",
    "address": "長崎県平戸市生月町山田免3011番地",
    "lat": 33.3803405,
    "lng": 129.424652,
    "tel": "0950-53-2615",
    "url": "http://www.sha-kyo.net/",
    "pref": "長崎県",
    "city": "平戸市",
    "category": "home_help",
    "serviceType": "訪問介護",
    "capacity": 0,
    "openDays": [
      "平日",
      "土曜日",
      "日曜日",
      "祝日"
    ],
    "openDaysNote": ""
  },
  {
    "id": "4270700463",
    "name": "平戸市社協訪問介護田平事業所",
    "kana": "ヒラドシシャキョウホウモンカイゴタビラジギョウショ",
    "address": "長崎県平戸市田平町里免90番地",
    "lat": 33.3598795,
    "lng": 129.5891971,
    "tel": "0950-57-2223",
    "url": "http://www.sha-kyo.net/",
    "pref": "長崎県",
    "city": "平戸市",
    "category": "home_help",
    "serviceType": "訪問介護",
    "capacity": 0,
    "openDays": [
      "平日",
      "土曜日",
      "日曜日",
      "祝日"
    ],
    "openDaysNote": "特になし"
  },
  {
    "id": "4270700448",
    "name": "平戸市社協訪問介護平戸事業所",
    "kana": "ヒラドシシャキョウホウモンカイゴヒラドジギョウショ",
    "address": "長崎県平戸市岩の上町1466番地",
    "lat": 33.3693264603781,
    "lng": 129.556593571164,
    "tel": "0950-22-2180",
    "url": "http://www.sha-kyo.net/",
    "pref": "長崎県",
    "city": "平戸市",
    "category": "home_help",
    "serviceType": "訪問介護",
    "capacity": 0,
    "openDays": [
      "平日",
      "土曜日",
      "日曜日",
      "祝日"
    ],
    "openDaysNote": "特になし"
  },
  {
    "id": "4270700455",
    "name": "平戸市社協訪問介護平戸事業所II",
    "kana": "ヒラドシシャキョウホウモンカイゴヒラドジギョウショツウ",
    "address": "長崎県平戸市紐差町678番地１",
    "lat": 33.2885459074817,
    "lng": 129.471040045013,
    "tel": "0950-28-1415",
    "url": "",
    "pref": "長崎県",
    "city": "平戸市",
    "category": "home_help",
    "serviceType": "訪問介護",
    "capacity": 0,
    "openDays": [
      "平日",
      "土曜日",
      "日曜日",
      "祝日"
    ],
    "openDaysNote": ""
  },
  {
    "id": "4270700166",
    "name": "平戸荘ホームヘルプサービスセンター",
    "kana": "ヒラドソウホームヘルプサービスセンター",
    "address": "長崎県平戸市紐差町４５０番地",
    "lat": 33.2848254,
    "lng": 129.4755808,
    "tel": "0950-28-1200",
    "url": "http://www.hakujukai.com",
    "pref": "長崎県",
    "city": "平戸市",
    "category": "home_help",
    "serviceType": "訪問介護",
    "capacity": 0,
    "openDays": [
      "平日",
      "土曜日",
      "日曜日",
      "祝日"
    ],
    "openDaysNote": "利用者の希望により２４時間対応"
  },
  {
    "id": "4270700521",
    "name": "老人居宅介護等事業所　光の園",
    "kana": "ロウジンキョタクカイゴトウジギョウショ　ヒカリノソノ",
    "address": "長崎県平戸市大久保町325番地",
    "lat": 33.3933558,
    "lng": 129.5453935,
    "tel": "0950-26-0761",
    "url": "https://www.ans.co.jp/u/hikarinosono/index2.html",
    "pref": "長崎県",
    "city": "平戸市",
    "category": "home_help",
    "serviceType": "訪問介護",
    "capacity": 0,
    "openDays": [
      "平日",
      "土曜日",
      "日曜日",
      "祝日"
    ],
    "openDaysNote": ""
  },
  {
    "id": "4270403852",
    "name": "あいずの介護諫早",
    "kana": "アイズノカイゴイサハヤ",
    "address": "長崎県諫早市永昌東町1-3ライオンズマンション諫早ステーションスクエア2号棟105号室 ライオンズマンション諫早ステーションスクエア2号棟105号室",
    "lat": 32.8523416,
    "lng": 130.0415589,
    "tel": "0957-23-7033",
    "url": "",
    "pref": "長崎県",
    "city": "諫早市",
    "category": "home_help",
    "serviceType": "訪問介護",
    "capacity": null,
    "openDays": [
      "平日"
    ],
    "openDaysNote": "電話等により２４時間常時連絡が可能な体制である（改行）その他の時間帯のサービスについては要相談"
  },
  {
    "id": "4270403662",
    "name": "いろは",
    "kana": "イロハ",
    "address": "長崎県諫早市天満町37-16建設会館2F",
    "lat": 32.8570370291874,
    "lng": 130.045227848484,
    "tel": "0957-51-6097",
    "url": "http://iroha-caretaxi-nagasaki.com/",
    "pref": "長崎県",
    "city": "諫早市",
    "category": "home_help",
    "serviceType": "訪問介護",
    "capacity": 0,
    "openDays": [
      "平日"
    ],
    "openDaysNote": "※電話などにより24時間常時連絡可能な体制とする"
  },
  {
    "id": "4270402219",
    "name": "ケアサービス　あかり",
    "kana": "ケアサービス　アカリ",
    "address": "長崎県諫早市栗面町814番地",
    "lat": 32.8322334,
    "lng": 130.0488788,
    "tel": "0957-47-9094",
    "url": "http://isahaya-akari.jimdo.com/",
    "pref": "長崎県",
    "city": "諫早市",
    "category": "home_help",
    "serviceType": "訪問介護",
    "capacity": 2,
    "openDays": [
      "平日",
      "土曜日",
      "日曜日",
      "祝日"
    ],
    "openDaysNote": "1/1～12/31営業"
  },
  {
    "id": "4270400866",
    "name": "ケアプランセンター福田　訪問介護事業所",
    "kana": "ケアプランセンターフクダ　ホウモンカイゴジギョウショ",
    "address": "諫早市福田町32-2",
    "lat": 32.8511265,
    "lng": 130.0631471,
    "tel": "0957-21-2955",
    "url": "",
    "pref": "長崎県",
    "city": "諫早市",
    "category": "home_help",
    "serviceType": "訪問介護",
    "capacity": 0,
    "openDays": [
      "平日",
      "土曜日",
      "日曜日",
      "祝日"
    ],
    "openDaysNote": "随時要望に応じて２４時間対応とさせていただいてます。"
  },
  {
    "id": "4270401906",
    "name": "たらみ訪問介護事業所",
    "kana": "タラミホウモンカイゴジギョウショ",
    "address": "長崎県諫早市多良見町木床1558番地",
    "lat": 32.8357402,
    "lng": 129.9822535,
    "tel": "0957-28-5335",
    "url": "",
    "pref": "長崎県",
    "city": "諫早市",
    "category": "home_help",
    "serviceType": "訪問介護",
    "capacity": 0,
    "openDays": [
      "平日",
      "土曜日",
      "日曜日",
      "祝日"
    ],
    "openDaysNote": ""
  },
  {
    "id": "4270400221",
    "name": "ニチイケアセンター諫早",
    "kana": "ニチイケアセンターイサハヤ",
    "address": "長崎県諫早市鷲崎町361-1エステートサトウⅢ1Ｆ エステートサトウⅢ1Ｆ",
    "lat": 32.8335607941209,
    "lng": 130.062774379251,
    "tel": "0957-35-8090",
    "url": "http://www.nichiigakkan.co.jp",
    "pref": "長崎県",
    "city": "諫早市",
    "category": "home_help",
    "serviceType": "訪問介護",
    "capacity": 0,
    "openDays": [
      "平日",
      "土曜日",
      "日曜日",
      "祝日"
    ],
    "openDaysNote": "24時間（対応可能なかぎり）"
  },
  {
    "id": "4270403282",
    "name": "ヘルパーステーション　しあわせ應援團",
    "kana": "ヘルパーステーション　シアワセオウエンダン",
    "address": "長崎県諫早市東小路町１４番１号東小路ビル　402号 東小路ビル　402号",
    "lat": 32.841813,
    "lng": 130.0540201,
    "tel": "0957-46-3355",
    "url": "",
    "pref": "長崎県",
    "city": "諫早市",
    "category": "home_help",
    "serviceType": "訪問介護",
    "capacity": 0,
    "openDays": [
      "平日",
      "土曜日",
      "日曜日",
      "祝日"
    ],
    "openDaysNote": "２４時間営業"
  },
  {
    "id": "4270402110",
    "name": "ヘルパーステーション　森の里",
    "kana": "ヘルパーステーション　モリノサト",
    "address": "長崎県諌早市森山町杉谷2902-1",
    "lat": 32.8179099,
    "lng": 130.1416764,
    "tel": "0957-36-3210",
    "url": "",
    "pref": "長崎県",
    "city": "諫早市",
    "category": "home_help",
    "serviceType": "訪問介護",
    "capacity": 0,
    "openDays": [
      "平日",
      "土曜日",
      "日曜日",
      "祝日"
    ],
    "openDaysNote": ""
  },
  {
    "id": "4270401591",
    "name": "ヘルパーステーション　聖フランシスコ",
    "kana": "ヘルパーステーション　セイフランシスコ",
    "address": "長崎県諫早市高来町神津倉54-3",
    "lat": 32.911834492078,
    "lng": 130.139585135304,
    "tel": "0957-32-2149",
    "url": "",
    "pref": "長崎県",
    "city": "諫早市",
    "category": "home_help",
    "serviceType": "訪問介護",
    "capacity": 0,
    "openDays": [
      "平日",
      "土曜日",
      "日曜日",
      "祝日"
    ],
    "openDaysNote": ""
  },
  {
    "id": "4270402086",
    "name": "ヘルパーステーションあおぞら",
    "kana": "ヘルパーステーションアオゾラ",
    "address": "諫早市幸町６５－２１",
    "lat": 32.8371694,
    "lng": 130.0711991,
    "tel": "0957-22-6815",
    "url": "http://www.npo-aozora.com/",
    "pref": "長崎県",
    "city": "諫早市",
    "category": "home_help",
    "serviceType": "訪問介護",
    "capacity": 0,
    "openDays": [
      "平日",
      "土曜日",
      "祝日"
    ],
    "openDaysNote": ""
  },
  {
    "id": "4270401989",
    "name": "ヘルパーステーションきらら",
    "kana": "ヘルパーステーションキララ",
    "address": "長崎県諫早市栄田町25-24",
    "lat": 32.8601443719981,
    "lng": 130.037179434918,
    "tel": "0957-46-5712",
    "url": "",
    "pref": "長崎県",
    "city": "諫早市",
    "category": "home_help",
    "serviceType": "訪問介護",
    "capacity": 0,
    "openDays": [
      "平日",
      "土曜日",
      "日曜日",
      "祝日"
    ],
    "openDaysNote": ""
  },
  {
    "id": "4270403779",
    "name": "ヘルパーステーションちえの和",
    "kana": "ヘルパーステーションチエノワ",
    "address": "長崎県諫早市泉町45-5",
    "lat": 32.8546382,
    "lng": 130.0512333,
    "tel": "0957-47-5308",
    "url": "",
    "pref": "長崎県",
    "city": "諫早市",
    "category": "home_help",
    "serviceType": "訪問介護",
    "capacity": null,
    "openDays": [
      "平日"
    ],
    "openDaysNote": "電話等により、２４時間常時連絡が可能な体制とする。"
  },
  {
    "id": "4270401914",
    "name": "ヘルパーステーションふれあい",
    "kana": "ヘルパーステーションフレアイ",
    "address": "長崎県諫早市高来町黒崎３１３番地1",
    "lat": 32.8993452,
    "lng": 130.1293658,
    "tel": "0957-27-7188",
    "url": "",
    "pref": "長崎県",
    "city": "諫早市",
    "category": "home_help",
    "serviceType": "訪問介護",
    "capacity": 0,
    "openDays": [
      "平日",
      "土曜日",
      "日曜日",
      "祝日"
    ],
    "openDaysNote": ""
  },
  {
    "id": "4270403811",
    "name": "ヘルパーステーションらしさ",
    "kana": "ヘルパーステーションラシサ",
    "address": "長崎県諫早市小船越町1253-6",
    "lat": 32.8374369,
    "lng": 130.0330859,
    "tel": "0957-21-1970",
    "url": "",
    "pref": "長崎県",
    "city": "諫早市",
    "category": "home_help",
    "serviceType": "訪問介護",
    "capacity": 0,
    "openDays": [
      "平日",
      "土曜日",
      "祝日"
    ],
    "openDaysNote": ""
  },
  {
    "id": "4270402573",
    "name": "ヘルパーステーション笑笑",
    "kana": "ヘルパーステーションワラワラ",
    "address": "長崎県諫早市上野町１８番地７川口事務所　３Ｆ 川口事務所　３Ｆ",
    "lat": 32.8396522,
    "lng": 130.0557006,
    "tel": "0957-47-9955",
    "url": "happytrail0209.com",
    "pref": "長崎県",
    "city": "諫早市",
    "category": "home_help",
    "serviceType": "訪問介護",
    "capacity": 2,
    "openDays": [
      "平日",
      "土曜日",
      "祝日"
    ],
    "openDaysNote": "相談時の人員の状況により対応できる時間帯が変動する事がございます。（改行）詳細はお気軽にお問合せください。"
  },
  {
    "id": "4270403571",
    "name": "ヘルパーステーション紡絆",
    "kana": "ヘルパーステーションツムギ",
    "address": "長崎県諫早市貝津町2334-2",
    "lat": 32.8330996,
    "lng": 130.0197215,
    "tel": "0957-47-5437",
    "url": "",
    "pref": "長崎県",
    "city": "諫早市",
    "category": "home_help",
    "serviceType": "訪問介護",
    "capacity": 30,
    "openDays": [
      "平日",
      "土曜日",
      "日曜日",
      "祝日"
    ],
    "openDaysNote": ""
  },
  {
    "id": "4270403720",
    "name": "ヘルパーステーション和結笑～あゆみ～",
    "kana": "ヘルパーステーションアユミ",
    "address": "長崎県諫早市平山町69-1ガーデンハウス山口2号 ガーデンハウス山口2号",
    "lat": 32.8361532,
    "lng": 130.0322845,
    "tel": "050-5526-2142",
    "url": "",
    "pref": "長崎県",
    "city": "諫早市",
    "category": "home_help",
    "serviceType": "訪問介護",
    "capacity": 1,
    "openDays": [
      "平日",
      "土曜日",
      "日曜日",
      "祝日"
    ],
    "openDaysNote": "8月13日～15日・12月30日～1月3日は休業期間"
  },
  {
    "id": "4270402649",
    "name": "ヘルプステーション　ステップ",
    "kana": "ヘルプステーション　ステップ",
    "address": "長崎県諫早市泉町27番33号マルケイビル204号 マルケイビル204号",
    "lat": 32.8511539,
    "lng": 130.0542923,
    "tel": "0957-47-9788",
    "url": "",
    "pref": "長崎県",
    "city": "諫早市",
    "category": "home_help",
    "serviceType": "訪問介護",
    "capacity": 0,
    "openDays": [
      "平日",
      "土曜日",
      "祝日"
    ],
    "openDaysNote": ""
  },
  {
    "id": "4270403175",
    "name": "リハビリヘルパーステーションあいのわ",
    "kana": "リハビリヘルパーステーションアイノワ",
    "address": "長崎県諫早市幸町52-7",
    "lat": 32.8389428289749,
    "lng": 130.068295610554,
    "tel": "０９５７ー４７ー６８６９",
    "url": "http://www.reha-ainowa.co.jp",
    "pref": "長崎県",
    "city": "諫早市",
    "category": "home_help",
    "serviceType": "訪問介護",
    "capacity": 70,
    "openDays": [
      "平日",
      "土曜日",
      "日曜日",
      "祝日"
    ],
    "openDaysNote": "12/31～1/３は休み"
  },
  {
    "id": "4270403258",
    "name": "医療法人　七久会",
    "kana": "イリョウホウジン　シチキュウカイ",
    "address": "長崎県諫早市小長井町小川原浦６５６番地",
    "lat": 32.9268638,
    "lng": 130.1881051,
    "tel": "0957-34-2007",
    "url": "",
    "pref": "長崎県",
    "city": "諫早市",
    "category": "home_help",
    "serviceType": "訪問介護",
    "capacity": 0,
    "openDays": [
      "平日",
      "土曜日",
      "日曜日",
      "祝日"
    ],
    "openDaysNote": ""
  },
  {
    "id": "4270402144",
    "name": "株式会社　ジャストインケア　諫早営業所",
    "kana": "カブシキガイシャ　ジャストインケア　イサハヤエイギョウショ",
    "address": "諫早市幸町294-1",
    "lat": 32.8402691,
    "lng": 130.0623083,
    "tel": "0957-21-1255",
    "url": "http://jic.justincare.jp/",
    "pref": "長崎県",
    "city": "諫早市",
    "category": "home_help",
    "serviceType": "訪問介護",
    "capacity": 0,
    "openDays": [
      "平日",
      "土曜日",
      "日曜日",
      "祝日"
    ],
    "openDaysNote": ""
  },
  {
    "id": "4270401898",
    "name": "合同会社　ヘルパーステーション小長井",
    "kana": "ゴウドウガイシャ　ヘルパーステーションコナガイ",
    "address": "長崎県諫早市小長井町牧256-1",
    "lat": 32.9151345,
    "lng": 130.1793306,
    "tel": "0957-34-4832",
    "url": "",
    "pref": "長崎県",
    "city": "諫早市",
    "category": "home_help",
    "serviceType": "訪問介護",
    "capacity": 0,
    "openDays": [
      "平日",
      "土曜日",
      "日曜日",
      "祝日"
    ],
    "openDaysNote": "ただし、特別の需要がある場合はこの限りではない。"
  },
  {
    "id": "4270401773",
    "name": "社会福祉法人グリーンコープふくしサービスセンターねこのて",
    "kana": "シャカイフクシホウジングリーンコープフクシサービスセンターネコノテ",
    "address": "長崎県諌早市宇都町3-60",
    "lat": 32.8466424819433,
    "lng": 130.042075258336,
    "tel": "0957-22-3102",
    "url": "https://www.fukushi-greencoop.or.jp",
    "pref": "長崎県",
    "city": "諫早市",
    "category": "home_help",
    "serviceType": "訪問介護",
    "capacity": 10,
    "openDays": [
      "平日",
      "土曜日",
      "祝日"
    ],
    "openDaysNote": "その他の時間帯については、相談に応じる。"
  },
  {
    "id": "4270400361",
    "name": "寿光会ヘルパーステーション",
    "kana": "ジュコウカイヘルパーステーション",
    "address": "長崎県諫早市白岩町2-7",
    "lat": 32.845659,
    "lng": 130.0224266,
    "tel": "0957-46-5762",
    "url": "http://uki-fukushimura.jp/about/",
    "pref": "長崎県",
    "city": "諫早市",
    "category": "home_help",
    "serviceType": "訪問介護",
    "capacity": 0,
    "openDays": [
      "平日",
      "土曜日",
      "祝日"
    ],
    "openDaysNote": "但し、緊急時は相談に応じる事とする。"
  },
  {
    "id": "4270402367",
    "name": "真寿苑訪問介護事業所",
    "kana": "シンジュエンホウモンカイゴジギョウショ",
    "address": "長崎県諫早市本野町2-1サービス付き高齢者向け住宅　真和レジデンス サービス付き高齢者向け住宅　真和レジデンス",
    "lat": 32.8869985364077,
    "lng": 130.024934132541,
    "tel": "0957-25-1565",
    "url": "http://www.sinwakai.net/",
    "pref": "長崎県",
    "city": "諫早市",
    "category": "home_help",
    "serviceType": "訪問介護",
    "capacity": 0,
    "openDays": [
      "平日",
      "土曜日",
      "日曜日",
      "祝日"
    ],
    "openDaysNote": "※サービス提供時間は8時30分から17時30分までとする。（改行）　ただし、特別な需要がある場合はこの限りであはない。（改行）※営業日、営業時間、サービス提供時間のほか、電話等により24時間常時連絡が可能　な体制とする。"
  },
  {
    "id": "4270400247",
    "name": "長崎県看護協会　ヘルパーステーションいさはや",
    "kana": "ナガサキケンカンゴキョウカイ　ヘルパーステーションイサハヤ",
    "address": "長崎県諌早市永昌町２３番６号ながさき看護センター内 ながさき看護センター内",
    "lat": 32.8506647,
    "lng": 130.0358682,
    "tel": "0957-25-4612",
    "url": "http://www.nagasaki-nurse.or.jp/",
    "pref": "長崎県",
    "city": "諫早市",
    "category": "home_help",
    "serviceType": "訪問介護",
    "capacity": 0,
    "openDays": [
      "平日",
      "土曜日"
    ],
    "openDaysNote": "日・祝日および１２月２９日～１月３日はお休みとなります。なお、利用者様のご希望により、提供日・時間の検討を行います。"
  },
  {
    "id": "4270401161",
    "name": "訪問介護　イーハトーブ",
    "kana": "ホウモンカイゴ　イーハトーブ",
    "address": "長崎県諫早市小川町453番地1有料老人ホーム諫早内 有料老人ホーム諫早内",
    "lat": 32.8273237,
    "lng": 130.0644442,
    "tel": "0957-23-1810",
    "url": "http://www.ihatoubu.com",
    "pref": "長崎県",
    "city": "諫早市",
    "category": "home_help",
    "serviceType": "訪問介護",
    "capacity": 0,
    "openDays": [],
    "openDaysNote": "なし"
  },
  {
    "id": "4270401534",
    "name": "訪問介護からこ",
    "kana": "ホウモンカイゴカラコ",
    "address": "長崎県諫早市森山町唐比西1125番地3ウェルファーハウスさくら ウェルファーハウスさくら",
    "lat": 32.7968644,
    "lng": 130.1239983,
    "tel": "0957-36-1964",
    "url": "http://karako-hp.jp/",
    "pref": "長崎県",
    "city": "諫早市",
    "category": "home_help",
    "serviceType": "訪問介護",
    "capacity": 0,
    "openDays": [
      "平日",
      "土曜日",
      "日曜日",
      "祝日"
    ],
    "openDaysNote": ""
  },
  {
    "id": "4270401393",
    "name": "訪問介護ステーション　ゆるり",
    "kana": "ホウモンカイゴステーション　ユルリ",
    "address": "長崎県諌早市栗面町810-2",
    "lat": 32.831939,
    "lng": 130.047615,
    "tel": "0957-24-2818",
    "url": "H.P:http://hp.kaipoke.biz/zp3/",
    "pref": "長崎県",
    "city": "諫早市",
    "category": "home_help",
    "serviceType": "訪問介護",
    "capacity": 5,
    "openDays": [
      "平日",
      "土曜日",
      "祝日"
    ],
    "openDaysNote": "特別の需要がある場合はその限りではない。（改行）電話等により、24時間常時連絡が可能な体制とする。"
  },
  {
    "id": "4271102180",
    "name": "訪問介護ステーションみかん",
    "kana": "ホウモンカイゴステーションミカン",
    "address": "長崎県諫早市多良見町元釜5番地15",
    "lat": 32.8578688062134,
    "lng": 129.932037,
    "tel": "0957-44-1316",
    "url": "http://www.aiplease.com/",
    "pref": "長崎県",
    "city": "諫早市",
    "category": "home_help",
    "serviceType": "訪問介護",
    "capacity": 0,
    "openDays": [
      "平日",
      "土曜日"
    ],
    "openDaysNote": "サービス提供時間は上記にかかわらず居宅サービス計画により休日及び営業時間外であってもサービスを計画する場合もあります。"
  },
  {
    "id": "4270403324",
    "name": "訪問介護事業所　ひだまり",
    "kana": "ホウモンカイゴジギョウショ　ヒダマリ",
    "address": "長崎県諫早市堂崎町１５－１３",
    "lat": 32.8445565,
    "lng": 130.015353,
    "tel": "957568381",
    "url": "http://www.joya.or.jp",
    "pref": "長崎県",
    "city": "諫早市",
    "category": "home_help",
    "serviceType": "訪問介護",
    "capacity": 0,
    "openDays": [
      "平日",
      "土曜日",
      "日曜日",
      "祝日"
    ],
    "openDaysNote": "サービスの利用に関してはお電話にてお問合せ下さい。"
  },
  {
    "id": "4270403845",
    "name": "訪問介護事業所　結心",
    "kana": "ホウモンカイゴジギョウショ　ユウシン",
    "address": "長崎県諫早市宗方町342番地19",
    "lat": 32.8328107,
    "lng": 130.0838715,
    "tel": "0957-46-8670",
    "url": "",
    "pref": "長崎県",
    "city": "諫早市",
    "category": "home_help",
    "serviceType": "訪問介護",
    "capacity": 0,
    "openDays": [
      "平日",
      "土曜日",
      "日曜日",
      "祝日"
    ],
    "openDaysNote": ""
  },
  {
    "id": "4270400239",
    "name": "諫早医師会ヘルパーステーション「たんぽぽ」",
    "kana": "イサハヤイシカイヘルパーステーション「タンポポ」",
    "address": "長崎県諫早市泉町２３番３号",
    "lat": 32.84839013053,
    "lng": 130.056778027708,
    "tel": "0957-22-2550",
    "url": "http://isahaya-mds.org/publics/index/25/",
    "pref": "長崎県",
    "city": "諫早市",
    "category": "home_help",
    "serviceType": "訪問介護",
    "capacity": 0,
    "openDays": [
      "平日"
    ],
    "openDaysNote": "特になし"
  },
  {
    "id": "4270403431",
    "name": "諫早記念病院訪問介護事業所　ひまわり",
    "kana": "イサハヤキネンビョウインホウモンカイゴジギョウショ　ヒマワリ",
    "address": "長崎県諫早市天満町6-1",
    "lat": 32.8490456,
    "lng": 130.0450789,
    "tel": "0957-47-9612",
    "url": "",
    "pref": "長崎県",
    "city": "諫早市",
    "category": "home_help",
    "serviceType": "訪問介護",
    "capacity": 0,
    "openDays": [
      "平日",
      "土曜日",
      "日曜日",
      "祝日"
    ],
    "openDaysNote": ""
  }
]