[
  {
    "id": "272501974",
    "name": "ｌｅｇａｍｅ介護サービス",
    "kana": "レガーメカイゴサービス",
    "address": "鶉久保山117-615",
    "lat": 40.6524673917673,
    "lng": 141.379948064745,
    "tel": "0178-51-8787",
    "url": "https://legame241029.wixsite.com/website",
    "pref": "青森県",
    "city": "おいらせ町",
    "category": "home_help",
    "serviceType": "訪問介護",
    "capacity": 0,
    "openDays": [
      "平日",
      "土曜日",
      "日曜日",
      "祝日"
    ],
    "openDaysNote": "早朝、深夜については要請があれば出来る限りの援助をします。"
  },
  {
    "id": "272502196",
    "name": "スマイルタカラ訪問介護",
    "kana": "スマイルタカラホウモンカイゴ",
    "address": "青森県上北郡おいらせ町上久保61番161",
    "lat": 40.6517996,
    "lng": 141.3784934,
    "tel": "0178-20-7456",
    "url": "https://www.smailtakara.com/",
    "pref": "青森県",
    "city": "おいらせ町",
    "category": "home_help",
    "serviceType": "訪問介護",
    "capacity": 10,
    "openDays": [
      "平日",
      "土曜日",
      "日曜日",
      "祝日"
    ],
    "openDaysNote": "上記時間以外でも、要望があれば対応いたします。"
  },
  {
    "id": "272501438",
    "name": "ニチイケアセンター　おいらせ",
    "kana": "ニチイケアセンター　オイラセ",
    "address": "上北郡おいらせ町中平下長根山1-1137",
    "lat": 40.6044784,
    "lng": 141.3879115,
    "tel": "0178-50-6135",
    "url": "http://www.nichiigakkan.co.jp",
    "pref": "青森県",
    "city": "おいらせ町",
    "category": "home_help",
    "serviceType": "訪問介護",
    "capacity": 0,
    "openDays": [
      "平日"
    ],
    "openDaysNote": "居宅サービス計画により、休業日、営業時間外であってもサービスの提供を行う場合がある。"
  },
  {
    "id": "272500364",
    "name": "医療法人　仁泉会　ヘルパーステーションしもだ",
    "kana": "イリョウホウジンジンセンカイ　ヘルパーステーションシモダ",
    "address": "青森県上北郡おいらせ町山崎２５９５－１",
    "lat": 40.6131175986925,
    "lng": 141.401794582803,
    "tel": "0178-50-0233",
    "url": "",
    "pref": "青森県",
    "city": "おいらせ町",
    "category": "home_help",
    "serviceType": "訪問介護",
    "capacity": 0,
    "openDays": [
      "平日",
      "土曜日",
      "日曜日",
      "祝日"
    ],
    "openDaysNote": ""
  },
  {
    "id": "272500265",
    "name": "訪問介護事業所　たんぽぽ",
    "kana": "ホウモンカイゴジギョウショ　タンポポ",
    "address": "青森県上北郡おいらせ町東下谷地622",
    "lat": 40.6121647,
    "lng": 141.4460398,
    "tel": "0178-52-3711",
    "url": "http://www.momoishiso.or.jp",
    "pref": "青森県",
    "city": "おいらせ町",
    "category": "home_help",
    "serviceType": "訪問介護",
    "capacity": null,
    "openDays": [
      "平日",
      "土曜日",
      "日曜日",
      "祝日"
    ],
    "openDaysNote": "平常の時間帯（午前８時～午後６時）以外の時間帯でサービスを行う場合には、割増料金が加算されます。割増料金は、介護保険の支給限度額の範囲内であれば、介護保険給付の対象になります。"
  },
  {
    "id": "272100207",
    "name": "つがる市社会福祉協議会　ホームヘルプしゃきょう",
    "kana": "ツガルシシャカイフクシキョウギカイ　ホームヘルプシャキョウ",
    "address": "青森県つがる市木造若緑５２番地",
    "lat": 40.8074559,
    "lng": 140.380887,
    "tel": "0173-42-4066",
    "url": "http://tsugarushi-shakyo.net/",
    "pref": "青森県",
    "city": "つがる市",
    "category": "home_help",
    "serviceType": "訪問介護",
    "capacity": 0,
    "openDays": [
      "平日",
      "土曜日",
      "日曜日",
      "祝日"
    ],
    "openDaysNote": ""
  },
  {
    "id": "270900160",
    "name": "ニチイケアセンターつがる",
    "kana": "ニチイケアセンターツガル",
    "address": "つがる市木造有楽町31-2",
    "lat": 40.810725,
    "lng": 140.3832478,
    "tel": "0173-49-2375",
    "url": "http://www.nichiigakkan.co.jp",
    "pref": "青森県",
    "city": "つがる市",
    "category": "home_help",
    "serviceType": "訪問介護",
    "capacity": 40,
    "openDays": [
      "平日",
      "土曜日",
      "日曜日",
      "祝日"
    ],
    "openDaysNote": "訪問介護を利用できる時間・・・年中無休"
  },
  {
    "id": "270900301",
    "name": "ヘルパーステーションふくろう",
    "kana": "ヘルパーステーションフクロウ",
    "address": "青森県つがる市柏下古川稲森53番地6",
    "lat": 40.7965,
    "lng": 140.4307931,
    "tel": "0173-26-0662",
    "url": "https://yutakanasato.com/",
    "pref": "青森県",
    "city": "つがる市",
    "category": "home_help",
    "serviceType": "訪問介護",
    "capacity": 29,
    "openDays": [
      "平日",
      "土曜日",
      "日曜日",
      "祝日"
    ],
    "openDaysNote": "24時間利用が可能ですが、8：00～18：00以外の時間に利用する場合は、通常の利用料に加算して追加料金が発生します。"
  },
  {
    "id": "270900061",
    "name": "介護センター絆",
    "kana": "カイゴセンターキズナ",
    "address": "青森県つがる市木造朝日１３-６",
    "lat": 40.8217178,
    "lng": 140.3742289,
    "tel": "0173-42-5541",
    "url": "https://www.shimano-group.jp/",
    "pref": "青森県",
    "city": "つがる市",
    "category": "home_help",
    "serviceType": "訪問介護",
    "capacity": 0,
    "openDays": [
      "平日",
      "土曜日",
      "日曜日",
      "祝日"
    ],
    "openDaysNote": ""
  },
  {
    "id": "272100454",
    "name": "株式会社ケアライフ青森　木造営業所",
    "kana": "カブシキガイシャケアライフアオモリキヅクリエイギョウショ",
    "address": "青森県つがる市木造若緑87-8",
    "lat": 40.8121475979019,
    "lng": 140.378654585258,
    "tel": "0173-49-1171",
    "url": "",
    "pref": "青森県",
    "city": "つがる市",
    "category": "home_help",
    "serviceType": "訪問介護",
    "capacity": 0,
    "openDays": [
      "平日",
      "土曜日",
      "日曜日",
      "祝日"
    ],
    "openDaysNote": ""
  },
  {
    "id": "270900350",
    "name": "株式会社誠浩",
    "kana": "カブシキガイシャセイコウ",
    "address": "青森県つがる市木造末広45-1",
    "lat": 40.8132143,
    "lng": 140.3842105,
    "tel": "0173-49-1412",
    "url": "",
    "pref": "青森県",
    "city": "つがる市",
    "category": "home_help",
    "serviceType": "訪問介護",
    "capacity": 0,
    "openDays": [
      "平日"
    ],
    "openDaysNote": "サービス（改行）提供じかん"
  },
  {
    "id": "272100421",
    "name": "特別養護老人ホーム桑寿園",
    "kana": "トクベツヨウゴロウジンホーム　ソウジュエン",
    "address": "青森県つがる市柏桑野木田若宮２５５番地１",
    "lat": 40.7795405,
    "lng": 140.4044913,
    "tel": "0173-25-2115",
    "url": "https://www.hakuyuukai.com",
    "pref": "青森県",
    "city": "つがる市",
    "category": "home_help",
    "serviceType": "訪問介護",
    "capacity": 0,
    "openDays": [
      "平日",
      "土曜日",
      "日曜日",
      "祝日"
    ],
    "openDaysNote": "事前に連絡があれば早朝・夜間対応可能"
  },
  {
    "id": "270900343",
    "name": "訪問介護ずぐり",
    "kana": "ホウモンカイゴズグリ",
    "address": "青森県つがる市木造末広18",
    "lat": 40.8097775,
    "lng": 140.386232,
    "tel": "0173‐26‐6478",
    "url": "https://ms-kaigo.com/",
    "pref": "青森県",
    "city": "つがる市",
    "category": "home_help",
    "serviceType": "訪問介護",
    "capacity": null,
    "openDays": [
      "平日",
      "土曜日",
      "日曜日",
      "祝日"
    ],
    "openDaysNote": ""
  },
  {
    "id": "270900178",
    "name": "訪問介護センターいながき",
    "kana": "ホウモンカイゴセンターイナガキ",
    "address": "稲垣町豊川初瀬山９－４",
    "lat": 40.8701751565419,
    "lng": 140.398938564418,
    "tel": "0173－26－7420",
    "url": "",
    "pref": "青森県",
    "city": "つがる市",
    "category": "home_help",
    "serviceType": "訪問介護",
    "capacity": 0,
    "openDays": [
      "平日",
      "土曜日",
      "日曜日",
      "祝日"
    ],
    "openDaysNote": ""
  },
  {
    "id": "270900368",
    "name": "訪問介護そばに",
    "kana": "ホウモンカイゴソバニ",
    "address": "青森県つがる市木造出来島雉子森102番地",
    "lat": 40.8381683,
    "lng": 140.2772755,
    "tel": "0173-45-3820",
    "url": "",
    "pref": "青森県",
    "city": "つがる市",
    "category": "home_help",
    "serviceType": "訪問介護",
    "capacity": 0,
    "openDays": [
      "平日"
    ],
    "openDaysNote": "ただし利用者の要望により24時間対応可能とする。"
  },
  {
    "id": "272100884",
    "name": "訪問介護事業所和み",
    "kana": "ホウモンカイゴジギョウショナゴミ",
    "address": "青森県つがる市木造藤田44-5",
    "lat": 40.8167521,
    "lng": 140.3846475,
    "tel": "0173-49-2250",
    "url": "http://www.takushinkai.or.jp/",
    "pref": "青森県",
    "city": "つがる市",
    "category": "home_help",
    "serviceType": "訪問介護",
    "capacity": 0,
    "openDays": [
      "平日",
      "土曜日",
      "日曜日",
      "祝日"
    ],
    "openDaysNote": "特になし"
  },
  {
    "id": "270900327",
    "name": "明光園訪問介護事業所",
    "kana": "ミョウコウエンホウモンカイゴジギョウショ",
    "address": "青森県つがる市森田町大館勝山143番地16",
    "lat": 40.7793000223255,
    "lng": 140.292721122723,
    "tel": "173262751",
    "url": "",
    "pref": "青森県",
    "city": "つがる市",
    "category": "home_help",
    "serviceType": "訪問介護",
    "capacity": 10,
    "openDays": [
      "平日",
      "土曜日",
      "日曜日",
      "祝日"
    ],
    "openDaysNote": "訪問介護サービス提供対応　日曜日から土曜日まで対応可能な体制とする（改行）訪問介護サービス対応時間　24時間対応可能な体制とする（改行）電話等により、24時間常時連絡が可能な体制とする"
  },
  {
    "id": "270800592",
    "name": "アースサポートむつ",
    "kana": "アースサポートムツ",
    "address": "青森県むつ市小川町一丁目8番36号セントラルハイツＢ-1 セントラルハイツＢ-1",
    "lat": 41.2930157,
    "lng": 141.2067462,
    "tel": "0175-23-4300",
    "url": "http://www.earthsupport.co.jp",
    "pref": "青森県",
    "city": "むつ市",
    "category": "home_help",
    "serviceType": "訪問介護",
    "capacity": 0,
    "openDays": [
      "平日",
      "土曜日",
      "日曜日",
      "祝日"
    ],
    "openDaysNote": "年中無休"
  },
  {
    "id": "270800352",
    "name": "いりえ　ヘルパーステーション",
    "kana": "イリエ　ヘルパーステーション",
    "address": "青森県むつ市大字田名部字宮ノ後198－1",
    "lat": 41.2927457,
    "lng": 141.1834755,
    "tel": "0175-33-8220",
    "url": "",
    "pref": "青森県",
    "city": "むつ市",
    "category": "home_help",
    "serviceType": "訪問介護",
    "capacity": 0,
    "openDays": [
      "平日",
      "土曜日",
      "日曜日",
      "祝日"
    ],
    "openDaysNote": "利用者の要望により24時間対応します。"
  },
  {
    "id": "270800550",
    "name": "にこにこ訪問介護ステーション",
    "kana": "ニコニコホウモンカイゴステーション",
    "address": "青森県むつ市金曲３丁目５－２９にこにこハウス金曲 にこにこハウス金曲",
    "lat": 41.2706172217773,
    "lng": 141.209036590338,
    "tel": "0175-23-1660",
    "url": "",
    "pref": "青森県",
    "city": "むつ市",
    "category": "home_help",
    "serviceType": "訪問介護",
    "capacity": 22,
    "openDays": [
      "平日",
      "土曜日",
      "日曜日",
      "祝日"
    ],
    "openDaysNote": ""
  },
  {
    "id": "270800113",
    "name": "ニチイケアセンターむつ",
    "kana": "ニチイケアセンタームツ",
    "address": "青森県むつ市関根字北関根205-4",
    "lat": 41.3594947475118,
    "lng": 141.205607162081,
    "tel": "0175-45-1531",
    "url": "http://www.nichiigakkan.co.jp",
    "pref": "青森県",
    "city": "むつ市",
    "category": "home_help",
    "serviceType": "訪問介護",
    "capacity": 0,
    "openDays": [
      "平日",
      "土曜日",
      "日曜日",
      "祝日"
    ],
    "openDaysNote": "居宅サービス計画により、休業日・営業時間以外でも、サービス提供を行う場合がある。"
  },
  {
    "id": "270800345",
    "name": "ニチイケアセンターむつ中央",
    "kana": "ニチイケアセンタームツチュウオウ",
    "address": "青森県むつ市旭町7-47",
    "lat": 41.2891182,
    "lng": 141.1818508,
    "tel": "0175-28-3501",
    "url": "http;//www.nichiigakkan.co.jp",
    "pref": "青森県",
    "city": "むつ市",
    "category": "home_help",
    "serviceType": "訪問介護",
    "capacity": 5,
    "openDays": [
      "平日"
    ],
    "openDaysNote": "居宅サービス計画により休業日、営業時間以外でもサービス提供を行う場合があります。"
  },
  {
    "id": "270800451",
    "name": "バンドーウエルフェアグループ株式会社　むつ事業所",
    "kana": "バンドーウエルフェアグループカブシキガイシャ　ムツジギョウショ",
    "address": "青森県むつ市新町３２－１５",
    "lat": 41.2893163,
    "lng": 141.2139127,
    "tel": "0175-22-9526",
    "url": "http:///www.bwfg.co.jp",
    "pref": "青森県",
    "city": "むつ市",
    "category": "home_help",
    "serviceType": "訪問介護",
    "capacity": 0,
    "openDays": [
      "平日",
      "土曜日",
      "日曜日",
      "祝日"
    ],
    "openDaysNote": ""
  },
  {
    "id": "270800824",
    "name": "ﾍﾙﾊﾟｰｽﾃｰｼｮﾝあすなろ",
    "kana": "ヘルパーステーションアスナロ",
    "address": "松原町２－２青森県むつ市松原町２－２ 青森県むつ市松原町２－２",
    "lat": 41.2716708336799,
    "lng": 141.201900378426,
    "tel": "0175-31-1508",
    "url": "herupa-asunaro@.dokomo.ne.jp",
    "pref": "青森県",
    "city": "むつ市",
    "category": "home_help",
    "serviceType": "訪問介護",
    "capacity": 0,
    "openDays": [
      "平日",
      "土曜日",
      "日曜日",
      "祝日"
    ],
    "openDaysNote": "夜間帯は施設職員が朝まで対応します"
  },
  {
    "id": "270800675",
    "name": "ヘルパーステーション　ねむのき",
    "kana": "ヘルパーステーション　ネムノキ",
    "address": "青森県むつ市大字田名部字赤川ノ内並木73-11",
    "lat": 41.245784794597,
    "lng": 141.238603629659,
    "tel": "0175-33-8817",
    "url": "http://www.nemunoki.info/",
    "pref": "青森県",
    "city": "むつ市",
    "category": "home_help",
    "serviceType": "訪問介護",
    "capacity": 32,
    "openDays": [
      "平日",
      "土曜日",
      "日曜日",
      "祝日"
    ],
    "openDaysNote": ""
  },
  {
    "id": "270800774",
    "name": "ヘルパーステーションアイランド",
    "kana": "ヘルパーステーションアイランド",
    "address": "青森県むつ市大湊新町9番43号サービス付き高齢者向け住宅アイランド サービス付き高齢者向け住宅アイランド",
    "lat": 41.2795460527466,
    "lng": 141.160607455716,
    "tel": "0175-31-0890",
    "url": "https://chitsukaoshima0106.wixsite.com/mysite-1",
    "pref": "青森県",
    "city": "むつ市",
    "category": "home_help",
    "serviceType": "訪問介護",
    "capacity": 0,
    "openDays": [
      "平日",
      "土曜日",
      "日曜日",
      "祝日"
    ],
    "openDaysNote": ""
  },
  {
    "id": "272600388",
    "name": "ヘルパーステーションかわうち",
    "kana": "ヘルパーステーションカワウチ",
    "address": "青森県むつ市川内町獅子畑128番地4",
    "lat": 41.2569248,
    "lng": 140.9855035,
    "tel": "0175-42-3103",
    "url": "www.yachiyo-kai.com",
    "pref": "青森県",
    "city": "むつ市",
    "category": "home_help",
    "serviceType": "訪問介護",
    "capacity": 0,
    "openDays": [
      "平日",
      "土曜日",
      "日曜日",
      "祝日"
    ],
    "openDaysNote": "電話等により２４時間常時連絡可能な体制あり。"
  },
  {
    "id": "270800287",
    "name": "みちのく訪問介護ステーション",
    "kana": "ミチノクホウモンカイゴステーション",
    "address": "青森県むつ市十二林１１番１３号",
    "lat": 41.298198,
    "lng": 141.1864638,
    "tel": "0175-23-9100",
    "url": "https://www.michinokuso.jp/",
    "pref": "青森県",
    "city": "むつ市",
    "category": "home_help",
    "serviceType": "訪問介護",
    "capacity": 0,
    "openDays": [
      "平日",
      "祝日"
    ],
    "openDaysNote": "特になし"
  },
  {
    "id": "272600081",
    "name": "延寿園ホームヘルプセンター",
    "kana": "エンジュエンホームヘルプセンター",
    "address": "青森県むつ市大畑町観音堂25-1むつ市総合福祉センターふれあいかん むつ市総合福祉センターふれあいかん",
    "lat": 41.399487,
    "lng": 141.1573197,
    "tel": "0175-34-4477",
    "url": "http://sankeikai-aomori.com/",
    "pref": "青森県",
    "city": "むつ市",
    "category": "home_help",
    "serviceType": "訪問介護",
    "capacity": 0,
    "openDays": [
      "平日",
      "土曜日",
      "日曜日",
      "祝日"
    ],
    "openDaysNote": "特になし"
  },
  {
    "id": "270800238",
    "name": "株式会社ケアライフ青森　むつ営業所",
    "kana": "カブシキガイシャケアライフアオモリムツエイギョウショ",
    "address": "青森県むつ市新町37-7",
    "lat": 41.288672,
    "lng": 141.2179097,
    "tel": "0175-33-8150",
    "url": "http://www.carelife-net.co.jp",
    "pref": "青森県",
    "city": "むつ市",
    "category": "home_help",
    "serviceType": "訪問介護",
    "capacity": 0,
    "openDays": [
      "平日",
      "土曜日",
      "日曜日",
      "祝日"
    ],
    "openDaysNote": ""
  },
  {
    "id": "272600222",
    "name": "株式会社ケアライフ青森　大畑営業所",
    "kana": "カブシキガイシャケアライフアオモリオオハタエイギョウショ",
    "address": "青森県むつ市大畑町中島102-1",
    "lat": 41.4042574108421,
    "lng": 141.164838366271,
    "tel": "0175-45-3600",
    "url": "",
    "pref": "青森県",
    "city": "むつ市",
    "category": "home_help",
    "serviceType": "訪問介護",
    "capacity": 0,
    "openDays": [
      "平日",
      "土曜日",
      "日曜日",
      "祝日"
    ],
    "openDaysNote": ""
  },
  {
    "id": "270800667",
    "name": "訪問介護ステーション　アダージョ",
    "kana": "ホウモンカイゴステーション　アダージョ",
    "address": "青森県むつ市横迎町二丁目9番1号",
    "lat": 41.2975018,
    "lng": 141.2186036,
    "tel": "0175-34-9956",
    "url": "",
    "pref": "青森県",
    "city": "むつ市",
    "category": "home_help",
    "serviceType": "訪問介護",
    "capacity": 0,
    "openDays": [
      "平日",
      "土曜日",
      "日曜日",
      "祝日"
    ],
    "openDaysNote": "サービス提供可能時間外のサービス希望受付可能。（改行）管理者を含め、事業所で検討し回答するものとする。"
  },
  {
    "id": "272500158",
    "name": "社会福祉法人横浜町社会福祉協議会",
    "kana": "シャカイフクシホウジンヨコハママチシャカイフクシキョウギカイ",
    "address": "青森県上北郡横浜町字三保野57番地8",
    "lat": 41.0823287,
    "lng": 141.2515498,
    "tel": "0175-78-2067",
    "url": "",
    "pref": "青森県",
    "city": "横浜町",
    "category": "home_help",
    "serviceType": "訪問介護",
    "capacity": 0,
    "openDays": [
      "平日",
      "土曜日",
      "日曜日",
      "祝日"
    ],
    "openDaysNote": "ただし、緊急を要する場合はご相談下さい。"
  },
  {
    "id": "272501776",
    "name": "訪問介護事業所　よこはま",
    "kana": "ホウモンカイゴジギョウショ　ヨコハマ",
    "address": "青森県上北郡横浜町字上イタヤノ木438-8",
    "lat": 41.0762462997275,
    "lng": 141.248306521426,
    "tel": "0175-76-1106",
    "url": "",
    "pref": "青森県",
    "city": "横浜町",
    "category": "home_help",
    "serviceType": "訪問介護",
    "capacity": 0,
    "openDays": [
      "平日",
      "土曜日",
      "日曜日",
      "祝日"
    ],
    "openDaysNote": "サービス提供時間帯で利用料金が異なります。"
  },
  {
    "id": "272701186",
    "name": "ケアステーションアンビエンス階上",
    "kana": "ケアステーションアンビエンスハシカミ",
    "address": "青森県三戸郡階上町蒼前西六丁目9ー1930コーポ秋桜206号室 コーポ秋桜206号室",
    "lat": 40.4765040316104,
    "lng": 141.563785266731,
    "tel": "0178-88-4650",
    "url": "https://kazusa-yuugen.com/",
    "pref": "青森県",
    "city": "階上町",
    "category": "home_help",
    "serviceType": "訪問介護",
    "capacity": 0,
    "openDays": [
      "平日",
      "土曜日",
      "日曜日",
      "祝日"
    ],
    "openDaysNote": "特になし"
  },
  {
    "id": "272702044",
    "name": "ヘルパ－ステ－ション蘭",
    "kana": "ヘルパ-ステ-ション　ラン",
    "address": "青森県三戸郡階上町蒼前西6丁目9-1275",
    "lat": 40.4768064,
    "lng": 141.5654354,
    "tel": "0178-38-5726",
    "url": "",
    "pref": "青森県",
    "city": "階上町",
    "category": "home_help",
    "serviceType": "訪問介護",
    "capacity": 0,
    "openDays": [
      "平日",
      "土曜日",
      "日曜日",
      "祝日"
    ],
    "openDaysNote": "利用者様の状態で24時間対応出来る様にしている。"
  },
  {
    "id": "272701590",
    "name": "ヘルパーステーションありがとう",
    "kana": "ヘルパーステーションアリガトウ",
    "address": "青森県三戸郡階上町大字赤保内字柳沢15番地343",
    "lat": 40.4479616,
    "lng": 141.6094915,
    "tel": "0178-38-0085",
    "url": "",
    "pref": "青森県",
    "city": "階上町",
    "category": "home_help",
    "serviceType": "訪問介護",
    "capacity": 19,
    "openDays": [
      "平日",
      "土曜日",
      "日曜日",
      "祝日"
    ],
    "openDaysNote": ""
  },
  {
    "id": "272701681",
    "name": "ヘルパーステーションフォーリーフはしかみ",
    "kana": "ヘルパーステーションフォーリーフハシカミ",
    "address": "三戸郡階上町大字道仏字耳ヶ吠６－４２３",
    "lat": 40.4548230483262,
    "lng": 141.614994210956,
    "tel": "0178-88-1292",
    "url": "",
    "pref": "青森県",
    "city": "階上町",
    "category": "home_help",
    "serviceType": "訪問介護",
    "capacity": 0,
    "openDays": [
      "平日",
      "土曜日",
      "日曜日",
      "祝日"
    ],
    "openDaysNote": ""
  },
  {
    "id": "272702119",
    "name": "ヘルパーステーションみくまり",
    "kana": "ヘルパーステーションミクマリ",
    "address": "蒼前東４丁目６番地３５６",
    "lat": 40.4722979,
    "lng": 141.5813234,
    "tel": "080-5570-4152",
    "url": "",
    "pref": "青森県",
    "city": "階上町",
    "category": "home_help",
    "serviceType": "訪問介護",
    "capacity": null,
    "openDays": [
      "平日"
    ],
    "openDaysNote": ""
  },
  {
    "id": "272701665",
    "name": "ヘルパーセンターかっこうの森",
    "kana": "ヘルパーセンターカッコウノモリ",
    "address": "青森県三戸郡階上町蒼前西３丁目9－153サービス付き高齢者向け住宅　かっこうの森 サービス付き高齢者向け住宅　かっこうの森",
    "lat": 40.4763955,
    "lng": 141.5715579,
    "tel": "0178－80－1515",
    "url": "https://kakkounomori.com/",
    "pref": "青森県",
    "city": "階上町",
    "category": "home_help",
    "serviceType": "訪問介護",
    "capacity": 31,
    "openDays": [
      "平日",
      "土曜日",
      "日曜日",
      "祝日"
    ],
    "openDaysNote": ""
  },
  {
    "id": "272701996",
    "name": "ヘルパーセンターサイン",
    "kana": "ヘルパーセンターサイン",
    "address": "青森県三戸郡階上町蒼前西3丁目9-1806セカンドホームサインの家内 セカンドホームサインの家内",
    "lat": 40.4746955,
    "lng": 141.5710939,
    "tel": "0178-38-5744",
    "url": "http://sign-aomori.com",
    "pref": "青森県",
    "city": "階上町",
    "category": "home_help",
    "serviceType": "訪問介護",
    "capacity": 9,
    "openDays": [
      "平日",
      "土曜日",
      "日曜日",
      "祝日"
    ],
    "openDaysNote": ""
  },
  {
    "id": "272700303",
    "name": "階上町社協ヘルパーステーション",
    "kana": "ハシカミチョウシャキョウヘルパーステーション",
    "address": "青森県三戸郡階上町大字道仏字天当平1番地182ハートフルプラザ・はしかみ内 ハートフルプラザ・はしかみ内",
    "lat": 40.4529693,
    "lng": 141.623079,
    "tel": "0178-88-3067",
    "url": "http://www.shakyo.or.jp/hp/220/",
    "pref": "青森県",
    "city": "階上町",
    "category": "home_help",
    "serviceType": "訪問介護",
    "capacity": 0,
    "openDays": [
      "平日",
      "土曜日",
      "日曜日",
      "祝日"
    ],
    "openDaysNote": "365日サービス対応しております。"
  },
  {
    "id": "272000142",
    "name": "外ヶ浜町社協訪問介護事業所",
    "kana": "ソトガハママチシャキョウホウモンカイゴジギョウショ",
    "address": "東津軽郡外ヶ浜町字平舘野田鳴川２０８－１",
    "lat": 41.1413012,
    "lng": 140.6306143,
    "tel": "0174-25-2780",
    "url": "http：//www.s-syakyo.jp",
    "pref": "青森県",
    "city": "外ヶ浜町",
    "category": "home_help",
    "serviceType": "訪問介護",
    "capacity": 0,
    "openDays": [
      "平日",
      "土曜日",
      "日曜日",
      "祝日"
    ],
    "openDaysNote": "特になし"
  },
  {
    "id": "272700139",
    "name": "ケアステーションハピネス五戸(訪問介護）",
    "kana": "ケアステーションハピネスゴノヘ（ホウモンカイゴ）",
    "address": "青森県三戸郡五戸町字姥堤34番1",
    "lat": 40.5314548,
    "lng": 141.2945638,
    "tel": "0178-62-7491",
    "url": "http://www.senior-navi.com/family",
    "pref": "青森県",
    "city": "五戸町",
    "category": "home_help",
    "serviceType": "訪問介護",
    "capacity": null,
    "openDays": [
      "平日",
      "土曜日",
      "日曜日",
      "祝日"
    ],
    "openDaysNote": ""
  },
  {
    "id": "272702002",
    "name": "ニチイケアセンター五戸",
    "kana": "ニチイケアセンターゴノヘ",
    "address": "青森県三戸郡五戸町字下モ沢向21番地3三浦貸店舗 三浦貸店舗",
    "lat": 40.5248894,
    "lng": 141.3042427,
    "tel": "0178-61-1090",
    "url": "",
    "pref": "青森県",
    "city": "五戸町",
    "category": "home_help",
    "serviceType": "訪問介護",
    "capacity": 0,
    "openDays": [
      "平日",
      "土曜日",
      "日曜日",
      "祝日"
    ],
    "openDaysNote": ""
  },
  {
    "id": "272702028",
    "name": "ヘルパーステーションかわらまち",
    "kana": "ヘルパーステーションカワラマチ",
    "address": "青森県三戸郡五戸町字川原町西裏5-80",
    "lat": 40.5238626,
    "lng": 141.293607,
    "tel": "0178-61-1060",
    "url": "http://niko5.blog118.fc2.com/",
    "pref": "青森県",
    "city": "五戸町",
    "category": "home_help",
    "serviceType": "訪問介護",
    "capacity": null,
    "openDays": [
      "平日",
      "土曜日",
      "日曜日",
      "祝日"
    ],
    "openDaysNote": ""
  },
  {
    "id": "272701582",
    "name": "五戸ヘルパーステーション",
    "kana": "ゴノヘヘルパーステーション",
    "address": "青森県三戸郡五戸町古堂後5-4",
    "lat": 40.5277303,
    "lng": 141.2933195,
    "tel": "0178-62-4422",
    "url": "",
    "pref": "青森県",
    "city": "五戸町",
    "category": "home_help",
    "serviceType": "訪問介護",
    "capacity": 31,
    "openDays": [
      "平日",
      "土曜日",
      "日曜日",
      "祝日"
    ],
    "openDaysNote": "事前相談あれば、他時間帯のサービス対応いたします。"
  },
  {
    "id": "272700246",
    "name": "五戸町社会福祉協議会ヘルパーステーション",
    "kana": "ゴノヘマチシャカイフクシキョウギカイヘルパーステーション",
    "address": "青森県三戸郡五戸町大字倉石中市字幸神道前15-4五戸町保健福祉センター内 五戸町保健福祉センター内",
    "lat": 40.5027347,
    "lng": 141.2500992,
    "tel": "0178-77-2844",
    "url": "ｈｔｔｐｓ：//www.syakyo.or.jp/hp/artic1e/index.php?s=217&m=2063",
    "pref": "青森県",
    "city": "五戸町",
    "category": "home_help",
    "serviceType": "訪問介護",
    "capacity": 0,
    "openDays": [
      "平日",
      "土曜日",
      "日曜日",
      "祝日"
    ],
    "openDaysNote": "特になし"
  },
  {
    "id": "270500176",
    "name": "さかえホームヘルパー派遣センター",
    "kana": "サカエホームヘルパーハケンセンター",
    "address": "青森県五所川原市大字水野尾字懸樋219番地の３",
    "lat": 40.790294,
    "lng": 140.481571,
    "tel": "0173-39-1139",
    "url": "http://www.takushinkai.or.jp",
    "pref": "青森県",
    "city": "五所川原市",
    "category": "home_help",
    "serviceType": "訪問介護",
    "capacity": 0,
    "openDays": [
      "平日",
      "土曜日",
      "日曜日",
      "祝日"
    ],
    "openDaysNote": "年中無休"
  },
  {
    "id": "270500838",
    "name": "さくら園　ヘルパーステーション",
    "kana": "サクラエン　ヘルパーステーション",
    "address": "青森県五所川原市金木町川倉七夕野84番地367",
    "lat": 40.922587,
    "lng": 140.4579535,
    "tel": "0173-52-5053",
    "url": "",
    "pref": "青森県",
    "city": "五所川原市",
    "category": "home_help",
    "serviceType": "訪問介護",
    "capacity": 0,
    "openDays": [
      "平日",
      "土曜日",
      "日曜日",
      "祝日"
    ],
    "openDaysNote": "要望に応じて対応（平日、土曜、日曜、祝日）（改行）通常　８：００～１８：００　　　早朝　６：００～８：００（改行）夜間　１８：００～２２：００　　　深夜　２２：００～６：００"
  },
  {
    "id": "270501091",
    "name": "ヘルパーサービス憩いの杜",
    "kana": "ヘルパーサービスイコイノモリ",
    "address": "青森県五所川原市漆川字清水流2番3シルバービレッジ憩いの杜 シルバービレッジ憩いの杜",
    "lat": 40.8137297,
    "lng": 140.4597521,
    "tel": "0173-26-6195",
    "url": "http://norita-group.com/",
    "pref": "青森県",
    "city": "五所川原市",
    "category": "home_help",
    "serviceType": "訪問介護",
    "capacity": 0,
    "openDays": [
      "平日",
      "土曜日",
      "日曜日",
      "祝日"
    ],
    "openDaysNote": "２４時間対応可"
  },
  {
    "id": "270501216",
    "name": "ヘルパーステーション　アユート",
    "kana": "ヘルパーステーションアユート",
    "address": "青森県五所川原市字芭蕉48-2",
    "lat": 40.8179924,
    "lng": 140.4358565,
    "tel": "0173-38-1332",
    "url": "http://seisenkai.jpn.org/",
    "pref": "青森県",
    "city": "五所川原市",
    "category": "home_help",
    "serviceType": "訪問介護",
    "capacity": 50,
    "openDays": [
      "平日",
      "土曜日",
      "日曜日",
      "祝日"
    ],
    "openDaysNote": "営業時間外のサービス提供については要相談となります。"
  },
  {
    "id": "270501364",
    "name": "ヘルパーステーション　オレンジ",
    "kana": "ヘルパーステーションオレンジ",
    "address": "青森県五所川原市金木町朝日山４２７",
    "lat": 40.9033971,
    "lng": 140.4548685,
    "tel": "0173−53−3192",
    "url": "http://hp.kaipoke.biz/txp/171608/base_0003.html",
    "pref": "青森県",
    "city": "五所川原市",
    "category": "home_help",
    "serviceType": "訪問介護",
    "capacity": null,
    "openDays": [
      "平日",
      "土曜日",
      "日曜日",
      "祝日"
    ],
    "openDaysNote": ""
  },
  {
    "id": "270500952",
    "name": "ヘルパーステーションひなた",
    "kana": "ヘルパーステーションヒナタ",
    "address": "雛田159番地1",
    "lat": 40.8159338706594,
    "lng": 140.451078476057,
    "tel": "0173－26－7106",
    "url": "",
    "pref": "青森県",
    "city": "五所川原市",
    "category": "home_help",
    "serviceType": "訪問介護",
    "capacity": 0,
    "openDays": [
      "平日",
      "土曜日",
      "日曜日",
      "祝日"
    ],
    "openDaysNote": "提供時間　24時間"
  },
  {
    "id": "270500770",
    "name": "介護サービス　　まごころ",
    "kana": "カイゴサービス　マゴコロ",
    "address": "青森県五所川原市大字唐笠柳字藤巻478-17",
    "lat": 40.7938793,
    "lng": 140.4627972,
    "tel": "0173-34-6682",
    "url": "",
    "pref": "青森県",
    "city": "五所川原市",
    "category": "home_help",
    "serviceType": "訪問介護",
    "capacity": 0,
    "openDays": [
      "平日",
      "土曜日",
      "日曜日",
      "祝日"
    ],
    "openDaysNote": "上記時間帯以外は相談応じます（深夜時間帯となる22時00分　～　5時59分を除く）"
  },
  {
    "id": "270500614",
    "name": "五所川原中央ヘルパーステーション",
    "kana": "ゴショガワラチュウオウヘルパーステーション",
    "address": "青森県五所川原市中央一丁目８７番地",
    "lat": 40.8014531,
    "lng": 140.4490006,
    "tel": "0173-38-5511",
    "url": "",
    "pref": "青森県",
    "city": "五所川原市",
    "category": "home_help",
    "serviceType": "訪問介護",
    "capacity": 0,
    "openDays": [
      "平日",
      "土曜日",
      "日曜日",
      "祝日"
    ],
    "openDaysNote": "上記の時間帯以外でも応相談。"
  },
  {
    "id": "270500234",
    "name": "社会福祉法人　五所川原市社会福祉協議会",
    "kana": "シャカイフクシホウジン　ゴショガワラシシャカイフクシキョウギカイ",
    "address": "青森県五所川原市字幾世森24番地38五所川原市地域福祉センター 五所川原市地域福祉センター",
    "lat": 40.8204644094054,
    "lng": 140.446985577504,
    "tel": "0173-34-3400",
    "url": "http://gccsw.net/",
    "pref": "青森県",
    "city": "五所川原市",
    "category": "home_help",
    "serviceType": "訪問介護",
    "capacity": 0,
    "openDays": [
      "平日",
      "土曜日",
      "日曜日",
      "祝日"
    ],
    "openDaysNote": ""
  },
  {
    "id": "270500671",
    "name": "社会福祉法人白生会　ヘルパーステーションけやき",
    "kana": "シャカイフクシホウジンハクセイカイ　ヘルパーステーションケヤキ",
    "address": "青森県五所川原市字敷島町１番地3",
    "lat": 40.8121683,
    "lng": 140.4455005,
    "tel": "0173-38-3382",
    "url": "ｗｅｌｆａｒｅ．ｈａｋｕｓｅｉｋａｉ．ｃｏｍ／",
    "pref": "青森県",
    "city": "五所川原市",
    "category": "home_help",
    "serviceType": "訪問介護",
    "capacity": 0,
    "openDays": [
      "平日",
      "土曜日",
      "日曜日",
      "祝日"
    ],
    "openDaysNote": "電話等により24時間常時連絡が可能とする。"
  },
  {
    "id": "270500143",
    "name": "青山荘ホームヘルパー派遣センター",
    "kana": "セイザンソウホームヘルパーハケンセンター",
    "address": "青森県五所川原市字栄町70-4",
    "lat": 40.7999436338537,
    "lng": 140.446715035593,
    "tel": "0173-35-4310",
    "url": "",
    "pref": "青森県",
    "city": "五所川原市",
    "category": "home_help",
    "serviceType": "訪問介護",
    "capacity": 0,
    "openDays": [
      "平日",
      "土曜日",
      "日曜日",
      "祝日"
    ],
    "openDaysNote": "利用者の希望する時間帯にサービスを提供する体制をとってます。"
  },
  {
    "id": "270500903",
    "name": "訪問介護　あつき",
    "kana": "ホウモンカイゴ　アツキ",
    "address": "青森県五所川原市大字豊成字田子ノ浦3-35",
    "lat": 40.7781708,
    "lng": 140.518021,
    "tel": "0173-29-4805",
    "url": "",
    "pref": "青森県",
    "city": "五所川原市",
    "category": "home_help",
    "serviceType": "訪問介護",
    "capacity": 16,
    "openDays": [
      "平日",
      "土曜日",
      "日曜日",
      "祝日"
    ],
    "openDaysNote": ""
  },
  {
    "id": "270501059",
    "name": "訪問介護　のざと",
    "kana": "ホウモンカイゴ　ノザト",
    "address": "青森県五所川原市大字神山字牧原56-1",
    "lat": 40.7847451,
    "lng": 140.5164126,
    "tel": "0173（26）6303",
    "url": "http://www.nh-nozato.jp/1.html",
    "pref": "青森県",
    "city": "五所川原市",
    "category": "home_help",
    "serviceType": "訪問介護",
    "capacity": 42,
    "openDays": [
      "平日",
      "土曜日",
      "日曜日",
      "祝日"
    ],
    "openDaysNote": ""
  },
  {
    "id": "270501265",
    "name": "訪問介護　ふぁみりあ",
    "kana": "ホウモンカイゴ　ファミリア",
    "address": "大字高野字北原222-1",
    "lat": 40.7419051,
    "lng": 140.525816,
    "tel": "0173-26-6464",
    "url": "https://famiria.info/",
    "pref": "青森県",
    "city": "五所川原市",
    "category": "home_help",
    "serviceType": "訪問介護",
    "capacity": 0,
    "openDays": [
      "平日",
      "土曜日",
      "日曜日",
      "祝日"
    ],
    "openDaysNote": "営業時間外でも利用可能"
  },
  {
    "id": "270501125",
    "name": "訪問介護　ぼなーる",
    "kana": "ホウモンカイゴ　ボナール",
    "address": "五所川原市大字一野坪字朝日田１６３－４",
    "lat": 40.8249630805589,
    "lng": 140.47053557132,
    "tel": "０１７３－２６－７５００",
    "url": "",
    "pref": "青森県",
    "city": "五所川原市",
    "category": "home_help",
    "serviceType": "訪問介護",
    "capacity": 18,
    "openDays": [
      "平日",
      "土曜日",
      "日曜日",
      "祝日"
    ],
    "openDaysNote": "２４時間対応しています。"
  },
  {
    "id": "270501067",
    "name": "訪問介護　ラポール",
    "kana": "ホウモンカイゴ　ラポール",
    "address": "青森県五所川原市大字水野尾字懸樋218番地1住宅型有料老人ホーム　アミスタ五所川原 住宅型有料老人ホーム　アミスタ五所川原",
    "lat": 40.7902051,
    "lng": 140.482421,
    "tel": "0173-26-6696",
    "url": "http://www.takushinkai.or.jp",
    "pref": "青森県",
    "city": "五所川原市",
    "category": "home_help",
    "serviceType": "訪問介護",
    "capacity": 0,
    "openDays": [
      "平日",
      "土曜日",
      "日曜日",
      "祝日"
    ],
    "openDaysNote": "上記以外の時間でもご相談に応じて提供致します。"
  },
  {
    "id": "270501166",
    "name": "訪問介護サービス　よりそう",
    "kana": "ホウモンカイゴサービス　ヨリソウ",
    "address": "青森県五所川原市金木町嘉瀬雲雀野160",
    "lat": 40.8804665,
    "lng": 140.461619,
    "tel": "0173-26-5233",
    "url": "",
    "pref": "青森県",
    "city": "五所川原市",
    "category": "home_help",
    "serviceType": "訪問介護",
    "capacity": 0,
    "openDays": [
      "平日",
      "土曜日",
      "日曜日",
      "祝日"
    ],
    "openDaysNote": ""
  },
  {
    "id": "270500358",
    "name": "訪問介護恵鈴",
    "kana": "ホウモンカイゴケイレイ",
    "address": "青森県五所川原市字元町11番地の6",
    "lat": 40.8042275,
    "lng": 140.4408651,
    "tel": "0173-34-1127",
    "url": "http://keireikai.cloud-line.com/",
    "pref": "青森県",
    "city": "五所川原市",
    "category": "home_help",
    "serviceType": "訪問介護",
    "capacity": 0,
    "openDays": [
      "平日",
      "土曜日",
      "日曜日",
      "祝日"
    ],
    "openDaysNote": "業務内容により上記利用時間外でも対応します。"
  },
  {
    "id": "270500713",
    "name": "訪問介護事業所　あおぞら",
    "kana": "ホウモンカイゴジギョウショ　アオゾラ",
    "address": "五所川原市大字湊字船越311-1",
    "lat": 40.7913023813454,
    "lng": 140.442141419239,
    "tel": "0173-34-8701",
    "url": "",
    "pref": "青森県",
    "city": "五所川原市",
    "category": "home_help",
    "serviceType": "訪問介護",
    "capacity": 0,
    "openDays": [
      "平日",
      "土曜日",
      "日曜日",
      "祝日"
    ],
    "openDaysNote": "年中無休"
  },
  {
    "id": "270500978",
    "name": "訪問介護事業所　ふれんど",
    "kana": "ホウモンカイゴジギョウショ　フレンド",
    "address": "大字福山字実吉70-4",
    "lat": 40.7787898,
    "lng": 140.4965313,
    "tel": "0173-26-7673",
    "url": "",
    "pref": "青森県",
    "city": "五所川原市",
    "category": "home_help",
    "serviceType": "訪問介護",
    "capacity": 35,
    "openDays": [
      "平日",
      "土曜日",
      "日曜日",
      "祝日"
    ],
    "openDaysNote": ""
  },
  {
    "id": "270500960",
    "name": "訪問介護事業所さかもと",
    "kana": "ホウモンカイゴジギョウショ　サカモト",
    "address": "大字広田字榊森５１番地８",
    "lat": 40.7846719571957,
    "lng": 140.467352969975,
    "tel": "0173-26-7640",
    "url": "http://sakamoto-sekkotu-in.com/",
    "pref": "青森県",
    "city": "五所川原市",
    "category": "home_help",
    "serviceType": "訪問介護",
    "capacity": 0,
    "openDays": [
      "平日",
      "土曜日",
      "日曜日",
      "祝日"
    ],
    "openDaysNote": "必要に応じて上記以外の時間帯、サービス提供を行うことがあります。"
  },
  {
    "id": "270501307",
    "name": "訪問介護事業所森の明",
    "kana": "ホウモンカイゴジギョウショモリノアカリ",
    "address": "青森県五所川原市松野木花笠95－2",
    "lat": 40.8020075153505,
    "lng": 140.506882605171,
    "tel": "0173－26－7730",
    "url": "mori-no-akari.net",
    "pref": "青森県",
    "city": "五所川原市",
    "category": "home_help",
    "serviceType": "訪問介護",
    "capacity": 37,
    "openDays": [
      "平日",
      "土曜日",
      "日曜日",
      "祝日"
    ],
    "openDaysNote": ""
  },
  {
    "id": "270501323",
    "name": "訪問介護事業所太陽",
    "kana": "ホウモンカイゴジギョウショタイヨウ",
    "address": "金木町嘉瀬萩元１２６",
    "lat": 40.8849417618269,
    "lng": 140.457729076701,
    "tel": "0173-52-5133",
    "url": "",
    "pref": "青森県",
    "city": "五所川原市",
    "category": "home_help",
    "serviceType": "訪問介護",
    "capacity": 0,
    "openDays": [
      "平日",
      "土曜日",
      "日曜日",
      "祝日"
    ],
    "openDaysNote": ""
  },
  {
    "id": "270500515",
    "name": "有限会社　挑",
    "kana": "ユウゲンガイシャ　イドム",
    "address": "青森県五所川原市字鎌谷町５２０番地４",
    "lat": 40.8069581,
    "lng": 140.4536833,
    "tel": "0173-34-5856",
    "url": "http://www15.ocn.ne.jp/~azuma/",
    "pref": "青森県",
    "city": "五所川原市",
    "category": "home_help",
    "serviceType": "訪問介護",
    "capacity": 30,
    "openDays": [
      "平日",
      "土曜日",
      "日曜日",
      "祝日"
    ],
    "openDaysNote": "利用者の希望時間帯により変更可能。"
  },
  {
    "id": "272400557",
    "name": "有限会社ケアサービスたんぽぽ",
    "kana": "ユウゲンガイシャケアサービスタンポポ",
    "address": "五所川原市金木町芦野200-267",
    "lat": 40.9116827,
    "lng": 140.4560179,
    "tel": "0173-54-2770",
    "url": "https://www.care-tanpopo.co.jp",
    "pref": "青森県",
    "city": "五所川原市",
    "category": "home_help",
    "serviceType": "訪問介護",
    "capacity": 0,
    "openDays": [
      "平日",
      "土曜日",
      "日曜日",
      "祝日"
    ],
    "openDaysNote": "年中無休"
  },
  {
    "id": "270203755",
    "name": "Ｍ＆Ｃサービスステーション",
    "kana": "エムアンドシーサービスステーション",
    "address": "青森県弘前市大字福村字新館添２２-２",
    "lat": 40.603750264586,
    "lng": 140.517683735057,
    "tel": "0172-29-5000",
    "url": "",
    "pref": "青森県",
    "city": "弘前市",
    "category": "home_help",
    "serviceType": "訪問介護",
    "capacity": null,
    "openDays": [
      "平日"
    ],
    "openDaysNote": "但し、利用者様の希望に応じて、サービスの提供については、２４時間対応可能な体制を整えるものとします。"
  },
  {
    "id": "270202435",
    "name": "Plan　Do",
    "kana": "プラン　ドゥ",
    "address": "弘前市泉野1丁目10番地3フォンテーヌポルトⅠ-104 フォンテーヌポルトⅠ-104",
    "lat": 40.5745183,
    "lng": 140.4894062,
    "tel": "0172-89-3553",
    "url": "",
    "pref": "青森県",
    "city": "弘前市",
    "category": "home_help",
    "serviceType": "訪問介護",
    "capacity": 10,
    "openDays": [
      "平日",
      "土曜日",
      "日曜日",
      "祝日"
    ],
    "openDaysNote": ""
  },
  {
    "id": "270202583",
    "name": "アースサポート弘前",
    "kana": "アースサポートヒロサキ",
    "address": "青森県弘前市小比内四丁目5-15",
    "lat": 40.5880212,
    "lng": 140.495482,
    "tel": "0172-26-3211",
    "url": "http://www.earthsupport.co.jp",
    "pref": "青森県",
    "city": "弘前市",
    "category": "home_help",
    "serviceType": "訪問介護",
    "capacity": 0,
    "openDays": [
      "平日",
      "土曜日",
      "日曜日",
      "祝日"
    ],
    "openDaysNote": ""
  },
  {
    "id": "270203441",
    "name": "イーケア　ゆきあかり",
    "kana": "イーケア　ユキアカリ",
    "address": "青森県弘前市大字豊田一丁目1-1豊田スカイマンション1Ｆ 豊田スカイマンション1Ｆ",
    "lat": 40.5938539,
    "lng": 140.4941151,
    "tel": "0172-29-5881",
    "url": "http://www8.ocn.ne.jp/~ichien",
    "pref": "青森県",
    "city": "弘前市",
    "category": "home_help",
    "serviceType": "訪問介護",
    "capacity": 0,
    "openDays": [
      "平日",
      "土曜日",
      "日曜日",
      "祝日"
    ],
    "openDaysNote": "サービス提供時間は6：00～24：00となっておりますがその他の時間帯でご希望があればご相談下さい。"
  },
  {
    "id": "270201288",
    "name": "オリーブヘルパーステーション",
    "kana": "オリーブヘルパーステーション",
    "address": "青森県弘前市大字鷹匠町16番地1",
    "lat": 40.6057794,
    "lng": 140.4580753,
    "tel": "0172-39-1005",
    "url": "",
    "pref": "青森県",
    "city": "弘前市",
    "category": "home_help",
    "serviceType": "訪問介護",
    "capacity": 0,
    "openDays": [
      "平日",
      "土曜日",
      "日曜日",
      "祝日"
    ],
    "openDaysNote": "電話などにより24時間、常時連絡可能な体制とする"
  },
  {
    "id": "270200256",
    "name": "ケアサービス弘前訪問介護",
    "kana": "ケアサービスヒロサキホウモンカイゴ",
    "address": "青森県弘前市大字品川町１５５番地２",
    "lat": 40.5917835759557,
    "lng": 140.480028877951,
    "tel": "0172-32-3923",
    "url": "",
    "pref": "青森県",
    "city": "弘前市",
    "category": "home_help",
    "serviceType": "訪問介護",
    "capacity": 0,
    "openDays": [
      "平日",
      "土曜日",
      "日曜日",
      "祝日"
    ],
    "openDaysNote": "早朝（6時～8時）・夜間（18時～22時）⇒25%割増（改行）深夜（22時～6時）⇒50%割増"
  },
  {
    "id": "270202666",
    "name": "ステーション　そよかぜ",
    "kana": "ステーション　ソヨカゼ",
    "address": "弘前市大字城南4丁目1の18シャーメゾン城南103号室 シャーメゾン城南103号室",
    "lat": 40.5784327,
    "lng": 140.467143,
    "tel": "0172-55-0285",
    "url": "",
    "pref": "青森県",
    "city": "弘前市",
    "category": "home_help",
    "serviceType": "訪問介護",
    "capacity": 0,
    "openDays": [
      "平日",
      "土曜日",
      "日曜日",
      "祝日"
    ],
    "openDaysNote": "曜日、時間等は相談に応じ要望があれば対応可能です"
  },
  {
    "id": "270204118",
    "name": "たんぽぽ",
    "kana": "タンポポ",
    "address": "弘前市宮川三丁目17-13B号 B号",
    "lat": 40.6142954826911,
    "lng": 140.485900666934,
    "tel": "0172-55-8811",
    "url": "",
    "pref": "青森県",
    "city": "弘前市",
    "category": "home_help",
    "serviceType": "訪問介護",
    "capacity": 0,
    "openDays": [
      "平日",
      "土曜日",
      "日曜日",
      "祝日"
    ],
    "openDaysNote": ""
  },
  {
    "id": "270200579",
    "name": "ニチイケアセンター弘前",
    "kana": "ニチイケアセンターヒロサキ",
    "address": "弘前市大字城東中央５丁目4-1Ｄ－ＷＩＮＧ　1Ｆ Ｄ－ＷＩＮＧ　1Ｆ",
    "lat": 40.6033332,
    "lng": 140.4977166,
    "tel": "0172-29-6015",
    "url": "http://www.nichiigakkan.co.jp",
    "pref": "青森県",
    "city": "弘前市",
    "category": "home_help",
    "serviceType": "訪問介護",
    "capacity": 0,
    "openDays": [
      "平日",
      "土曜日",
      "日曜日",
      "祝日"
    ],
    "openDaysNote": "訪問介護を利用できる時間・・・年中無休"
  },
  {
    "id": "270202856",
    "name": "ハッピーIWAKI",
    "kana": "ハッピーイワキ",
    "address": "青森県弘前市大字五代字早稲田508-45",
    "lat": 40.6165071,
    "lng": 140.4125277,
    "tel": "0172-88-7333",
    "url": "",
    "pref": "青森県",
    "city": "弘前市",
    "category": "home_help",
    "serviceType": "訪問介護",
    "capacity": 0,
    "openDays": [
      "平日",
      "土曜日",
      "日曜日",
      "祝日"
    ],
    "openDaysNote": ""
  },
  {
    "id": "270200272",
    "name": "バンドーウエルフェアグループ株式会社　弘前事業所",
    "kana": "バンドーウエルフェアグループカブシキガイシャヒロサキジギョウショ",
    "address": "青森県弘前市西城北二丁目６－３",
    "lat": 40.6185616,
    "lng": 140.4715904,
    "tel": "0172-37-0052",
    "url": "http://www.bwfg.co.jp/",
    "pref": "青森県",
    "city": "弘前市",
    "category": "home_help",
    "serviceType": "訪問介護",
    "capacity": 0,
    "openDays": [
      "平日",
      "土曜日",
      "日曜日",
      "祝日"
    ],
    "openDaysNote": ""
  },
  {
    "id": "270201809",
    "name": "バンドーケアフレンズ　弘前事業所",
    "kana": "バンドーケアフレンズ　ヒロサキジギョウショ",
    "address": "青森県弘前市西城北２丁目３－４",
    "lat": 40.6177839,
    "lng": 140.4717348,
    "tel": "0172-39-2677",
    "url": "",
    "pref": "青森県",
    "city": "弘前市",
    "category": "home_help",
    "serviceType": "訪問介護",
    "capacity": 0,
    "openDays": [
      "平日",
      "土曜日",
      "日曜日",
      "祝日"
    ],
    "openDaysNote": ""
  },
  {
    "id": "270202179",
    "name": "ひなた茂森",
    "kana": "ヒナタシゲモリ",
    "address": "青森県弘前市南城西2-2-1",
    "lat": 40.6016519,
    "lng": 140.4514565,
    "tel": "0172-31-2966",
    "url": "http://www.jhd.ne.jp/",
    "pref": "青森県",
    "city": "弘前市",
    "category": "home_help",
    "serviceType": "訪問介護",
    "capacity": 0,
    "openDays": [
      "平日",
      "土曜日",
      "日曜日",
      "祝日"
    ],
    "openDaysNote": "なし"
  },
  {
    "id": "270203615",
    "name": "ひのきヘルパーセンター",
    "kana": "ヒノキヘルパーセンター",
    "address": "青森県弘前市大字湯口字一ノ細川４０番地９",
    "lat": 40.5891865576279,
    "lng": 140.414093952759,
    "tel": "0172-55-5165",
    "url": "https://houju-a.com",
    "pref": "青森県",
    "city": "弘前市",
    "category": "home_help",
    "serviceType": "訪問介護",
    "capacity": 0,
    "openDays": [
      "平日",
      "土曜日",
      "日曜日",
      "祝日"
    ],
    "openDaysNote": "年中無休。"
  },
  {
    "id": "270203771",
    "name": "フレディ訪問介護ステーション",
    "kana": "フレディホウモンカイゴステーション",
    "address": "青森県弘前市大字黒滝字ニノ川瀬１－１２",
    "lat": 40.605224204473,
    "lng": 140.473292333205,
    "tel": "0172-55-5748",
    "url": "fredy2015.com",
    "pref": "青森県",
    "city": "弘前市",
    "category": "home_help",
    "serviceType": "訪問介護",
    "capacity": 50,
    "openDays": [
      "平日",
      "土曜日",
      "日曜日",
      "祝日"
    ],
    "openDaysNote": ""
  },
  {
    "id": "272200320",
    "name": "ヘルパーステーション　アイ・ケア",
    "kana": "ヘルパーステーション　アイ・ケア",
    "address": "青森県弘前市大字八幡町１丁目２番地2",
    "lat": 40.6153297724386,
    "lng": 140.479711262048,
    "tel": "0172-38-9055",
    "url": "https://senchikai.jp/",
    "pref": "青森県",
    "city": "弘前市",
    "category": "home_help",
    "serviceType": "訪問介護",
    "capacity": 0,
    "openDays": [
      "平日",
      "土曜日",
      "日曜日",
      "祝日"
    ],
    "openDaysNote": "年中無休"
  },
  {
    "id": "270202062",
    "name": "ヘルパーステーション　あやとり",
    "kana": "ヘルパ-ステ-ション　アヤトリ",
    "address": "青森県弘前市堅田四丁目1番地1",
    "lat": 40.6126906,
    "lng": 140.4899451,
    "tel": "0172-29-1855",
    "url": "http://caring3710.net/ayatori/",
    "pref": "青森県",
    "city": "弘前市",
    "category": "home_help",
    "serviceType": "訪問介護",
    "capacity": 0,
    "openDays": [
      "平日",
      "土曜日",
      "日曜日",
      "祝日"
    ],
    "openDaysNote": "特になし"
  },
  {
    "id": "270202500",
    "name": "ヘルパーステーション　オアシス",
    "kana": "ヘルパーステーション　オアシス",
    "address": "青森県弘前市大字館野1丁目3－23",
    "lat": 40.5761386764135,
    "lng": 140.465324743716,
    "tel": "0172-40-0543",
    "url": "",
    "pref": "青森県",
    "city": "弘前市",
    "category": "home_help",
    "serviceType": "訪問介護",
    "capacity": 0,
    "openDays": [
      "平日",
      "土曜日",
      "日曜日",
      "祝日"
    ],
    "openDaysNote": "訪問介護員は３６５日稼動します。"
  },
  {
    "id": "272200296",
    "name": "ヘルパーステーション　グッド・ケア",
    "kana": "ヘルパーステーション　グッド・ケア",
    "address": "青森県弘前市大字高屋字本宮480番地4",
    "lat": 40.6630828,
    "lng": 140.4321878,
    "tel": "0172-82-6722",
    "url": "https://kk-daiyo.jp/",
    "pref": "青森県",
    "city": "弘前市",
    "category": "home_help",
    "serviceType": "訪問介護",
    "capacity": 0,
    "openDays": [
      "平日",
      "土曜日",
      "日曜日",
      "祝日"
    ],
    "openDaysNote": "年中無休"
  },
  {
    "id": "270202773",
    "name": "ヘルパーステーション　さくらの樹",
    "kana": "ヘルパーステーション　サクラノキ",
    "address": "若党町１８－１レジデンス弘前公園内 レジデンス弘前公園内",
    "lat": 40.6123762,
    "lng": 140.4725046,
    "tel": "０１７２－３９－６５１５",
    "url": "",
    "pref": "青森県",
    "city": "弘前市",
    "category": "home_help",
    "serviceType": "訪問介護",
    "capacity": 10,
    "openDays": [
      "平日",
      "土曜日",
      "日曜日",
      "祝日"
    ],
    "openDaysNote": ""
  },
  {
    "id": "270202922",
    "name": "ヘルパーステーション　ほほえみの里",
    "kana": "ヘルパーステーション　ホホエミノサト",
    "address": "青森県弘前市大字文京町18-2",
    "lat": 40.5860400926669,
    "lng": 140.470237933074,
    "tel": "0172-33-7721",
    "url": "",
    "pref": "青森県",
    "city": "弘前市",
    "category": "home_help",
    "serviceType": "訪問介護",
    "capacity": 0,
    "openDays": [
      "平日",
      "土曜日",
      "日曜日",
      "祝日"
    ],
    "openDaysNote": ""
  },
  {
    "id": "270202906",
    "name": "ヘルパーステーション　みのり",
    "kana": "ヘルパーステーション　ミノリ",
    "address": "青森県弘前市五所字里見124",
    "lat": 40.5884257542,
    "lng": 140.392022407766,
    "tel": "0172-55-8259",
    "url": "",
    "pref": "青森県",
    "city": "弘前市",
    "category": "home_help",
    "serviceType": "訪問介護",
    "capacity": 0,
    "openDays": [
      "平日",
      "土曜日",
      "日曜日",
      "祝日"
    ],
    "openDaysNote": ""
  },
  {
    "id": "270203326",
    "name": "ヘルパーステーション　寿楽",
    "kana": "ヘルパーステーション　ジュラク",
    "address": "弘前市大字城東中央一丁目２番地１０",
    "lat": 40.5993588,
    "lng": 140.4889765,
    "tel": "0172-26-2270",
    "url": "",
    "pref": "青森県",
    "city": "弘前市",
    "category": "home_help",
    "serviceType": "訪問介護",
    "capacity": 0,
    "openDays": [
      "平日",
      "土曜日",
      "日曜日",
      "祝日"
    ],
    "openDaysNote": "利用者様の状況合わせて随時対応可能。"
  },
  {
    "id": "270204134",
    "name": "ヘルパーステーションア　イビー",
    "kana": "ヘルパーステーション　アイビー",
    "address": "青森県弘前市大字千年一丁目２番地１１住宅型有料老人ホーム　あいの郷 住宅型有料老人ホーム　あいの郷",
    "lat": 40.5691665247815,
    "lng": 140.47657521468,
    "tel": "0172-87-5515",
    "url": "",
    "pref": "青森県",
    "city": "弘前市",
    "category": "home_help",
    "serviceType": "訪問介護",
    "capacity": 37,
    "openDays": [
      "平日",
      "土曜日",
      "日曜日",
      "祝日"
    ],
    "openDaysNote": ""
  },
  {
    "id": "270202021",
    "name": "ヘルパーステーションえんむすび",
    "kana": "ヘルパーステーションエンムスビ",
    "address": "青森県弘前市大字狼森字天王２３番地１５",
    "lat": 40.559535,
    "lng": 140.4721436,
    "tel": "0172-87-5000",
    "url": "http://www.enmusubi-kaigo-jp",
    "pref": "青森県",
    "city": "弘前市",
    "category": "home_help",
    "serviceType": "訪問介護",
    "capacity": 5,
    "openDays": [
      "平日",
      "土曜日",
      "日曜日",
      "祝日"
    ],
    "openDaysNote": "18時～8時の間は、転送電話にて24時間対応"
  },
  {
    "id": "270203292",
    "name": "ヘルパーステーションしおん",
    "kana": "ヘルパーステーション　シオン",
    "address": "青森県弘前市大字城南一丁目２８番地１８ヘルパーステーションしおん ヘルパーステーションしおん",
    "lat": 40.5805133187562,
    "lng": 140.469023648169,
    "tel": "0172-55-9326",
    "url": "",
    "pref": "青森県",
    "city": "弘前市",
    "category": "home_help",
    "serviceType": "訪問介護",
    "capacity": 0,
    "openDays": [
      "平日",
      "土曜日",
      "日曜日",
      "祝日"
    ],
    "openDaysNote": "早朝、夜間帯の訪問については、サービスの必要性を考慮したうえで検討します。"
  },
  {
    "id": "270203300",
    "name": "ヘルパーステーションシルバースター",
    "kana": "ヘルパーステーションシルバースター",
    "address": "大字湯口字一ノ安田86",
    "lat": 40.5872523,
    "lng": 140.4126989,
    "tel": "0172-84-2030",
    "url": "",
    "pref": "青森県",
    "city": "弘前市",
    "category": "home_help",
    "serviceType": "訪問介護",
    "capacity": 0,
    "openDays": [
      "平日",
      "土曜日",
      "日曜日",
      "祝日"
    ],
    "openDaysNote": ""
  },
  {
    "id": "270204084",
    "name": "ヘルパーステーションなごみの里ひろさき",
    "kana": "ヘルパーステーションナゴミノサトヒロサキ",
    "address": "青森県弘前市大字五代字早稲田507番地7",
    "lat": 40.7218157,
    "lng": 140.4181317,
    "tel": "0172-40-4467",
    "url": "",
    "pref": "青森県",
    "city": "弘前市",
    "category": "home_help",
    "serviceType": "訪問介護",
    "capacity": 0,
    "openDays": [
      "平日",
      "土曜日",
      "日曜日",
      "祝日"
    ],
    "openDaysNote": ""
  },
  {
    "id": "270204076",
    "name": "ヘルパーステーションファミリー",
    "kana": "ヘルパーステーションファミリー",
    "address": "青森県弘前市浜の町北1丁目3番地5住宅型有料老人ホームファミリー内 住宅型有料老人ホームファミリー内",
    "lat": 40.6234741,
    "lng": 140.4617847,
    "tel": "0172－88－7007",
    "url": "",
    "pref": "青森県",
    "city": "弘前市",
    "category": "home_help",
    "serviceType": "訪問介護",
    "capacity": 7,
    "openDays": [
      "平日",
      "土曜日",
      "日曜日",
      "祝日"
    ],
    "openDaysNote": "上記時間以外でも相談により対応させていただきます。"
  },
  {
    "id": "270203508",
    "name": "ヘルパーステーション花だん",
    "kana": "ヘルパーステーションカダン",
    "address": "青森県弘前市大字城東３丁目８－９",
    "lat": 40.5962674,
    "lng": 140.4906765,
    "tel": "0172-88-8742",
    "url": "",
    "pref": "青森県",
    "city": "弘前市",
    "category": "home_help",
    "serviceType": "訪問介護",
    "capacity": 0,
    "openDays": [
      "平日",
      "土曜日",
      "日曜日",
      "祝日"
    ],
    "openDaysNote": ""
  },
  {
    "id": "270202401",
    "name": "ヘルパーステーション向外瀬",
    "kana": "ヘルパーステーションムカイトノセ",
    "address": "弘前市大字田町５丁目６－４",
    "lat": 40.6145883381277,
    "lng": 140.483327524819,
    "tel": "0172-34-1077",
    "url": "http://otowakai.or.jp",
    "pref": "青森県",
    "city": "弘前市",
    "category": "home_help",
    "serviceType": "訪問介護",
    "capacity": 0,
    "openDays": [
      "平日",
      "土曜日",
      "日曜日",
      "祝日"
    ],
    "openDaysNote": "日・祝日・早朝・夜間・深夜帯は希望に応じて提供する"
  },
  {
    "id": "270202393",
    "name": "ヘルパーステーション高舘山",
    "kana": "ヘルパーステーション　　タカダテヤマ",
    "address": "青森県弘前市大字五代字沼田13-5",
    "lat": 40.6127545,
    "lng": 140.4081589,
    "tel": "0172-82-3337",
    "url": "https://zenseikai.com/",
    "pref": "青森県",
    "city": "弘前市",
    "category": "home_help",
    "serviceType": "訪問介護",
    "capacity": 0,
    "openDays": [],
    "openDaysNote": ""
  },
  {
    "id": "270203060",
    "name": "ヘルパーステーション晴",
    "kana": "ヘルパーステーションハレ",
    "address": "青森県弘前市神田５－４－２２",
    "lat": 40.6234616,
    "lng": 140.4916804,
    "tel": "0172-55-0655",
    "url": "",
    "pref": "青森県",
    "city": "弘前市",
    "category": "home_help",
    "serviceType": "訪問介護",
    "capacity": 0,
    "openDays": [
      "平日",
      "土曜日",
      "祝日"
    ],
    "openDaysNote": "時間外でもお客様からの希望があれば相談に応じます"
  },
  {
    "id": "270203375",
    "name": "ヘルパーステーション川先",
    "kana": "ヘルパーステーションカワサキ",
    "address": "青森県弘前市川先4丁目3-5",
    "lat": 40.5890028148408,
    "lng": 140.489535705557,
    "tel": "0172-28-3434",
    "url": "http://zenseikai.com/",
    "pref": "青森県",
    "city": "弘前市",
    "category": "home_help",
    "serviceType": "訪問介護",
    "capacity": 0,
    "openDays": [
      "平日",
      "土曜日",
      "日曜日",
      "祝日"
    ],
    "openDaysNote": ""
  },
  {
    "id": "270204233",
    "name": "ヘルパーステーション日和",
    "kana": "ヘルパーステーションヒヨリ",
    "address": "青森県弘前市葛原字大柳167-1",
    "lat": 40.6256335,
    "lng": 140.3862954,
    "tel": "0172-55-8512",
    "url": "http://www.touhokubussan.jp",
    "pref": "青森県",
    "city": "弘前市",
    "category": "home_help",
    "serviceType": "訪問介護",
    "capacity": 0,
    "openDays": [
      "平日",
      "土曜日",
      "日曜日",
      "祝日"
    ],
    "openDaysNote": ""
  },
  {
    "id": "270204340",
    "name": "ホーム　ヘルプケア　手to手",
    "kana": "ホーム　ヘルプケア　テトテ",
    "address": "青森県弘前市大字南大町一丁目2番1ホーム　ヘルプケア　手to手 ホーム　ヘルプケア　手to手",
    "lat": 40.5941536915569,
    "lng": 140.485494235582,
    "tel": "0172-69-2977",
    "url": "",
    "pref": "青森県",
    "city": "弘前市",
    "category": "home_help",
    "serviceType": "訪問介護",
    "capacity": 0,
    "openDays": [
      "平日",
      "土曜日"
    ],
    "openDaysNote": ""
  },
  {
    "id": "270200728",
    "name": "ホームヘルパーステーション　「きずな」",
    "kana": "ホームヘルパーステーション　「キズナ」",
    "address": "青森県弘前市大字高崎二丁目７－７",
    "lat": 40.6088801,
    "lng": 140.4940032,
    "tel": "0172-29-3730",
    "url": "http://www.kizuna-hirosaki.com/",
    "pref": "青森県",
    "city": "弘前市",
    "category": "home_help",
    "serviceType": "訪問介護",
    "capacity": 60,
    "openDays": [
      "平日",
      "土曜日"
    ],
    "openDaysNote": "日曜日、祝祭日、8/13～8/15、12/31～1/3については、原則として休業ですが、必要に応じてサービスを提供いたします。"
  },
  {
    "id": "270201031",
    "name": "ホームヘルパーステーション北星",
    "kana": "ホームヘルパーステーションホクセイ",
    "address": "青森県弘前市新寺町62-1",
    "lat": 40.5946531,
    "lng": 140.46432,
    "tel": "0172-33-3555",
    "url": "http://www.hokuseikotsu.co.jp",
    "pref": "青森県",
    "city": "弘前市",
    "category": "home_help",
    "serviceType": "訪問介護",
    "capacity": null,
    "openDays": [
      "平日",
      "土曜日",
      "祝日"
    ],
    "openDaysNote": "早朝（6:00～8:00）、夜間（18:00～20:00）、深夜（20:00～6:00）、日曜日に関しては相談により応じる。"
  },
  {
    "id": "270200421",
    "name": "ホームヘルプサービス　サンタハウス弘前",
    "kana": "ホームヘルプサービス　サンタハウスヒロサキ",
    "address": "青森県弘前市大字大川字中桜川１８番地１０",
    "lat": 40.6774239613798,
    "lng": 140.455574866132,
    "tel": "0172-99-1234",
    "url": "https://www.houtokukai.org/",
    "pref": "青森県",
    "city": "弘前市",
    "category": "home_help",
    "serviceType": "訪問介護",
    "capacity": 0,
    "openDays": [
      "平日",
      "土曜日",
      "日曜日",
      "祝日"
    ],
    "openDaysNote": "２４時間対応可能"
  },
  {
    "id": "270201890",
    "name": "ホームヘルプステーション　城西",
    "kana": "ホームヘルプステーション　ジョウセイ",
    "address": "青森県弘前市大字茜町２丁目１番地１８",
    "lat": 40.6005269,
    "lng": 140.4461735,
    "tel": "0172-31-4544",
    "url": "",
    "pref": "青森県",
    "city": "弘前市",
    "category": "home_help",
    "serviceType": "訪問介護",
    "capacity": 0,
    "openDays": [
      "平日",
      "土曜日",
      "祝日"
    ],
    "openDaysNote": ""
  },
  {
    "id": "270204381",
    "name": "医心館訪問介護ステーション弘前",
    "kana": "イシンカンホウモンカイゴステーションヒロサキ",
    "address": "青森県弘前市大字外崎４丁目２－３",
    "lat": 40.5966162,
    "lng": 140.4926518,
    "tel": "0172-26-6502",
    "url": "",
    "pref": "青森県",
    "city": "弘前市",
    "category": "home_help",
    "serviceType": "訪問介護",
    "capacity": 0,
    "openDays": [
      "平日",
      "土曜日",
      "日曜日",
      "祝日"
    ],
    "openDaysNote": "24時間対応"
  },
  {
    "id": "270200405",
    "name": "介護サポート訪問介護ステーション",
    "kana": "カイゴサポートホウモンカイゴステーション",
    "address": "青森県弘前市大字川先1丁目6番地10",
    "lat": 40.5899904,
    "lng": 140.4936932,
    "tel": "0172-28-4165",
    "url": "http://www.kaigo-support.co.jp/",
    "pref": "青森県",
    "city": "弘前市",
    "category": "home_help",
    "serviceType": "訪問介護",
    "capacity": 0,
    "openDays": [
      "平日",
      "土曜日",
      "日曜日",
      "祝日"
    ],
    "openDaysNote": ""
  },
  {
    "id": "270200744",
    "name": "株式会社ケアライフ青森　弘前営業所",
    "kana": "カブシキガイシャケアライフアオモリ　ヒロサキエイギョウショ",
    "address": "弘前市神田2丁目6－1",
    "lat": 40.6175149,
    "lng": 140.4851229,
    "tel": "0172-31-2023",
    "url": "http://www.carelife-net.co.jp/",
    "pref": "青森県",
    "city": "弘前市",
    "category": "home_help",
    "serviceType": "訪問介護",
    "capacity": 0,
    "openDays": [
      "平日",
      "祝日"
    ],
    "openDaysNote": "利用できる時間以外でも利用者さんのご要望にお答えいたします、ご相談ください。"
  },
  {
    "id": "270200629",
    "name": "希望ヶ丘訪問介護事業所",
    "kana": "キボウガオカホウモンカイゴジギョウショ",
    "address": "青森県弘前市大字小沢字山崎４４－９",
    "lat": 40.5662562,
    "lng": 140.4519918,
    "tel": "0172-87-6765",
    "url": "",
    "pref": "青森県",
    "city": "弘前市",
    "category": "home_help",
    "serviceType": "訪問介護",
    "capacity": 0,
    "openDays": [
      "平日",
      "土曜日",
      "日曜日",
      "祝日"
    ],
    "openDaysNote": "夜間においても携帯電話へ転送となる。"
  },
  {
    "id": "270200660",
    "name": "弘前静光園ホームヘルパーステーション",
    "kana": "ヒロサキセイコウエン　ホームヘルパーステーション",
    "address": "青森県弘前市大字豊原一丁目１番地２",
    "lat": 40.5843432,
    "lng": 140.4757088,
    "tel": "0172-31-3862",
    "url": "http://www.sh-aiseien.jp/seikouen/helper/",
    "pref": "青森県",
    "city": "弘前市",
    "category": "home_help",
    "serviceType": "訪問介護",
    "capacity": 0,
    "openDays": [
      "平日",
      "土曜日",
      "日曜日",
      "祝日"
    ],
    "openDaysNote": "状況に応じ定休日でも対応可。"
  },
  {
    "id": "270200058",
    "name": "弘前特別養護老人ホーム介護保険サービス事業センター",
    "kana": "ヒロサキトクベツヨウゴロウジンホームカイゴホケンサービスジギョウセンター",
    "address": "弘前市自由ヶ丘５－５－３",
    "lat": 40.5822121,
    "lng": 140.4367335,
    "tel": "0172-88-1433",
    "url": "http://tsugarufujimikai.com",
    "pref": "青森県",
    "city": "弘前市",
    "category": "home_help",
    "serviceType": "訪問介護",
    "capacity": 10,
    "openDays": [
      "平日",
      "土曜日",
      "祝日"
    ],
    "openDaysNote": "電話等により２４時間常時連絡が可能な体制とし、必要に応じて午前７時～午後８時までサービスを提供します。"
  },
  {
    "id": "270200355",
    "name": "城東ホームヘルプセンター",
    "kana": "ジョウトウホームヘルプセンター",
    "address": "弘前市大字城東中央四丁目１番地４",
    "lat": 40.6002561,
    "lng": 140.4957173,
    "tel": "0172-28-0054",
    "url": "",
    "pref": "青森県",
    "city": "弘前市",
    "category": "home_help",
    "serviceType": "訪問介護",
    "capacity": 0,
    "openDays": [
      "平日",
      "土曜日"
    ],
    "openDaysNote": "利用者の希望やニーズにより相談に応じるて対応している"
  },
  {
    "id": "270203201",
    "name": "伸栄会",
    "kana": "シンエイカイ",
    "address": "青森県弘前市大字泉野３丁目16-5住宅型有料老人ホーム　伸栄会 住宅型有料老人ホーム　伸栄会",
    "lat": 40.5746159978977,
    "lng": 140.497125838684,
    "tel": "0172-55-8686",
    "url": "",
    "pref": "青森県",
    "city": "弘前市",
    "category": "home_help",
    "serviceType": "訪問介護",
    "capacity": 25,
    "openDays": [
      "平日",
      "土曜日",
      "日曜日",
      "祝日"
    ],
    "openDaysNote": "・電話等により24時間常時連絡が可能な体制とし、必要に応じて午前7時～午後6時までサービスを提供します。"
  },
  {
    "id": "270204175",
    "name": "石川ホームヘルパーステーション",
    "kana": "イシカワホームヘルパーステーション",
    "address": "弘前市大字石川字大仏下55番地1",
    "lat": 40.5514822205209,
    "lng": 140.542806232541,
    "tel": "0172-49-7611",
    "url": "",
    "pref": "青森県",
    "city": "弘前市",
    "category": "home_help",
    "serviceType": "訪問介護",
    "capacity": null,
    "openDays": [
      "平日",
      "土曜日",
      "日曜日",
      "祝日"
    ],
    "openDaysNote": "夜間のサービスを希望される場合にはご相談下さい。"
  },
  {
    "id": "270202161",
    "name": "草菴ヘルパーステーション",
    "kana": "ソウアンヘルパーステーション",
    "address": "青森県弘前市城東2丁目２－６",
    "lat": 40.598159,
    "lng": 140.4916485,
    "tel": "0172-27-7221",
    "url": "",
    "pref": "青森県",
    "city": "弘前市",
    "category": "home_help",
    "serviceType": "訪問介護",
    "capacity": 20,
    "openDays": [
      "平日",
      "土曜日",
      "日曜日",
      "祝日"
    ],
    "openDaysNote": ""
  },
  {
    "id": "270201833",
    "name": "特定非営利活動法人ケアリバイブ",
    "kana": "トクテイヒエイリカツドウホウジンケアリバイブ",
    "address": "青森県弘前市大字青山２丁目２番地６",
    "lat": 40.6213782,
    "lng": 140.4816646,
    "tel": "0172-35-3322",
    "url": "http://sikidebunnkatu.wix.com/nakamurakea",
    "pref": "青森県",
    "city": "弘前市",
    "category": "home_help",
    "serviceType": "訪問介護",
    "capacity": 0,
    "openDays": [
      "平日",
      "土曜日",
      "日曜日",
      "祝日"
    ],
    "openDaysNote": "夜間・早朝、深夜でも緊急時通報サービスにて対応する。"
  },
  {
    "id": "270204068",
    "name": "訪問介護アスナロサービス",
    "kana": "ホウモンカイゴアスナロサービス",
    "address": "青森県弘前市大字稲田二丁目5番地２城東サングリーン6号室 城東サングリーン6号室",
    "lat": 40.6035757,
    "lng": 140.4876887,
    "tel": "0172-26-6257",
    "url": "",
    "pref": "青森県",
    "city": "弘前市",
    "category": "home_help",
    "serviceType": "訪問介護",
    "capacity": 0,
    "openDays": [
      "平日"
    ],
    "openDaysNote": "特にない"
  },
  {
    "id": "270202427",
    "name": "訪問介護くんぷうしゃ",
    "kana": "ホウモンカイゴクンプウシャ",
    "address": "青森県弘前市大字代官町１０２",
    "lat": 40.6041441,
    "lng": 140.4796241,
    "tel": "0172-38-3522",
    "url": "http://www.mitsuwa-group.co.jp/",
    "pref": "青森県",
    "city": "弘前市",
    "category": "home_help",
    "serviceType": "訪問介護",
    "capacity": 0,
    "openDays": [
      "平日",
      "土曜日",
      "日曜日",
      "祝日"
    ],
    "openDaysNote": ""
  },
  {
    "id": "270202542",
    "name": "訪問介護ステーション　サン・フラワー",
    "kana": "ホウモンカイゴステーション　サン・フラワー",
    "address": "青森県弘前市大字向外瀬字豊田３２０番１",
    "lat": 40.6307521,
    "lng": 140.481664,
    "tel": "0172-34-3434",
    "url": "http://www5.ocn.ne.jｐ/~kouyukai/index.htm",
    "pref": "青森県",
    "city": "弘前市",
    "category": "home_help",
    "serviceType": "訪問介護",
    "capacity": 0,
    "openDays": [
      "平日",
      "土曜日",
      "日曜日",
      "祝日"
    ],
    "openDaysNote": ""
  },
  {
    "id": "270204241",
    "name": "訪問介護ステーションアンダンテ",
    "kana": "ホウモンカイゴステーションアンダンテ",
    "address": "青森県弘前市富田２丁目６-３",
    "lat": 40.6030626,
    "lng": 140.4640543,
    "tel": "0172-26-8302",
    "url": "",
    "pref": "青森県",
    "city": "弘前市",
    "category": "home_help",
    "serviceType": "訪問介護",
    "capacity": null,
    "openDays": [
      "平日",
      "土曜日",
      "日曜日",
      "祝日"
    ],
    "openDaysNote": "サービス提供可能時間外のサービス希望受付可能。（改行）管理者を含め、事業所で検討し回答するものとする。"
  },
  {
    "id": "270202039",
    "name": "訪問介護ステーションみのり",
    "kana": "ホウモンカイゴステーションミノリ",
    "address": "青森県弘前市大字川先四丁目3番地３１",
    "lat": 40.5924735,
    "lng": 140.4941957,
    "tel": "0172-26-1621",
    "url": "",
    "pref": "青森県",
    "city": "弘前市",
    "category": "home_help",
    "serviceType": "訪問介護",
    "capacity": null,
    "openDays": [
      "平日",
      "土曜日",
      "日曜日",
      "祝日"
    ],
    "openDaysNote": "利用者からの要請により上記以外の日時でも実施いたします。"
  },
  {
    "id": "270204167",
    "name": "訪問介護ステーションゆとり",
    "kana": "ホウモンカイゴステーションユトリ",
    "address": "青森県弘前市大字高屋字本宮５１９－１",
    "lat": 40.6187693,
    "lng": 140.4251339,
    "tel": "０１７２－８２－３８３８",
    "url": "",
    "pref": "青森県",
    "city": "弘前市",
    "category": "home_help",
    "serviceType": "訪問介護",
    "capacity": 0,
    "openDays": [
      "平日",
      "土曜日",
      "日曜日",
      "祝日"
    ],
    "openDaysNote": "２４時間対応が可能。"
  },
  {
    "id": "270203607",
    "name": "訪問介護ステーション咲",
    "kana": "ホウモンカイゴステーションサク",
    "address": "青森県弘前市大字湯口字一ノ細川49番地1",
    "lat": 40.5886677497454,
    "lng": 140.41288584952,
    "tel": "0172－55－5551",
    "url": "",
    "pref": "青森県",
    "city": "弘前市",
    "category": "home_help",
    "serviceType": "訪問介護",
    "capacity": 5,
    "openDays": [
      "平日",
      "土曜日",
      "日曜日",
      "祝日"
    ],
    "openDaysNote": ""
  },
  {
    "id": "270200264",
    "name": "訪問介護センター幸陽荘",
    "kana": "ホウモンカイゴセンターコウヨウソウ",
    "address": "青森県弘前市大字清野袋字岡部４３３番地１号",
    "lat": 40.6363459,
    "lng": 140.4832108,
    "tel": "0172-37-8790",
    "url": "http://koyoso.com/",
    "pref": "青森県",
    "city": "弘前市",
    "category": "home_help",
    "serviceType": "訪問介護",
    "capacity": 0,
    "openDays": [
      "平日",
      "土曜日",
      "日曜日",
      "祝日"
    ],
    "openDaysNote": "年中無休。営業時間外の早朝（６：００～８：００）、夜間（１８：００～２０：００）についてはご相談に応じます。深夜（２２：００～６：００）につきましては受付しておりません。"
  },
  {
    "id": "272200064",
    "name": "訪問介護事業　松山荘ケアステーション",
    "kana": "ホウモンカイゴジギョウ　ショウザンソウケアステーション",
    "address": "青森県弘前市大字五代字田屋敷240番地1",
    "lat": 40.6111831,
    "lng": 140.420155,
    "tel": "0172-82-1515",
    "url": "https://gakuyokai.jp",
    "pref": "青森県",
    "city": "弘前市",
    "category": "home_help",
    "serviceType": "訪問介護",
    "capacity": 0,
    "openDays": [
      "平日",
      "土曜日",
      "日曜日",
      "祝日"
    ],
    "openDaysNote": ""
  },
  {
    "id": "270204357",
    "name": "訪問介護事業所　Oneラボ",
    "kana": "ホウモンカイゴジギョウショ　ワンラボ",
    "address": "青森県弘前市千年２丁目6-41",
    "lat": 40.5652380024753,
    "lng": 140.477342873722,
    "tel": "0172-55-6890",
    "url": "",
    "pref": "青森県",
    "city": "弘前市",
    "category": "home_help",
    "serviceType": "訪問介護",
    "capacity": null,
    "openDays": [
      "平日",
      "土曜日",
      "日曜日",
      "祝日"
    ],
    "openDaysNote": ""
  },
  {
    "id": "270203482",
    "name": "訪問介護事業所　ひまわり",
    "kana": "ホウモンカイゴジギョウショ　ヒマワリ",
    "address": "青森県弘前市千年三丁目1番地8",
    "lat": 40.5661267586943,
    "lng": 140.481967399907,
    "tel": "0172-88-8609",
    "url": "",
    "pref": "青森県",
    "city": "弘前市",
    "category": "home_help",
    "serviceType": "訪問介護",
    "capacity": 10,
    "openDays": [
      "平日",
      "土曜日",
      "日曜日",
      "祝日"
    ],
    "openDaysNote": ""
  },
  {
    "id": "270202575",
    "name": "訪問介護事業所　下湯口",
    "kana": "ホウモンカイゴジギョウショ　シモユグチ",
    "address": "青森県弘前市大字黒滝字ニノ川瀬1番地13",
    "lat": 40.5896309475357,
    "lng": 140.405943818402,
    "tel": "0172-84-2055",
    "url": "",
    "pref": "青森県",
    "city": "弘前市",
    "category": "home_help",
    "serviceType": "訪問介護",
    "capacity": 87,
    "openDays": [
      "平日",
      "土曜日",
      "日曜日",
      "祝日"
    ],
    "openDaysNote": "平常時以外のサービスを利用される場合は、割増料金が加算されます。"
  },
  {
    "id": "270203268",
    "name": "訪問介護事業所くによし",
    "kana": "ホウモンカイゴジギョウショクニヨシ",
    "address": "青森県弘前市高崎２丁目３番地２",
    "lat": 40.6081551,
    "lng": 140.4924506,
    "tel": "0172-55-8585",
    "url": "",
    "pref": "青森県",
    "city": "弘前市",
    "category": "home_help",
    "serviceType": "訪問介護",
    "capacity": 33,
    "openDays": [
      "平日",
      "土曜日",
      "日曜日",
      "祝日"
    ],
    "openDaysNote": "但し、ご利用者様または家族の希望により休日・時間外サービスの提供を行なうものとする。"
  },
  {
    "id": "270204324",
    "name": "訪問介護事業所まつがえ",
    "kana": "ホウモンカイゴジギョウショマツガエ",
    "address": "青森県弘前市大字高田３丁目７-６株式会社弘前燃料内 株式会社弘前燃料内",
    "lat": 40.59898,
    "lng": 140.5056783,
    "tel": "0172-27-0080",
    "url": "",
    "pref": "青森県",
    "city": "弘前市",
    "category": "home_help",
    "serviceType": "訪問介護",
    "capacity": 55,
    "openDays": [
      "平日",
      "土曜日",
      "日曜日",
      "祝日"
    ],
    "openDaysNote": "上記表示の時間以外にサービスを希望される場合はご相談ください。"
  },
  {
    "id": "260290077",
    "name": "訪問看護ステーションふれあい",
    "kana": "ホウモンカンゴステーションフレアイ",
    "address": "弘前市大字八幡町三丁目1番地1号",
    "lat": 40.6148513,
    "lng": 140.4840898,
    "tel": "0172-32-0011",
    "url": "http://www.kouaikai.com",
    "pref": "青森県",
    "city": "弘前市",
    "category": "home_help",
    "serviceType": "訪問介護",
    "capacity": 0,
    "openDays": [
      "平日",
      "土曜日",
      "日曜日",
      "祝日"
    ],
    "openDaysNote": ""
  },
  {
    "id": "260290176",
    "name": "訪問看護ステーションほのか",
    "kana": "ホウモンカンゴステーションホノカ",
    "address": "青森県弘前市大字泉野5-6-7",
    "lat": 40.5717986953836,
    "lng": 140.494658522078,
    "tel": "0172-89-3125",
    "url": "",
    "pref": "青森県",
    "city": "弘前市",
    "category": "home_help",
    "serviceType": "訪問介護",
    "capacity": 0,
    "openDays": [
      "平日",
      "土曜日",
      "日曜日",
      "祝日"
    ],
    "openDaysNote": "早朝、夜間帯の訪問については相談に応じます。サービス提供につきましては、事前にサービス内容等について検討した上での対応とさせていただきます。"
  },
  {
    "id": "270203003",
    "name": "北斗桜ヶ丘",
    "kana": "ホクトサクラガオカ",
    "address": "青森県弘前市桜ヶ丘4丁目１番地５",
    "lat": 40.5709767374496,
    "lng": 140.450745511639,
    "tel": "0172-87-9471",
    "url": "",
    "pref": "青森県",
    "city": "弘前市",
    "category": "home_help",
    "serviceType": "訪問介護",
    "capacity": 0,
    "openDays": [
      "平日",
      "土曜日",
      "祝日"
    ],
    "openDaysNote": "・日曜日、年末年始（１２月３０日～１月３日）は定休日になります。（改行）・営業時間以外の時間帯や定休日でも、訪問介護（サービス提供）をご希望により（改行）　対応致します。サービスの利用、内容につきましては、ご相談下さい。"
  },
  {
    "id": "270204191",
    "name": "悠々友ヘルパーステーション",
    "kana": "ユウユウユウヘルパーステーション",
    "address": "青森県弘前市外崎２丁目7-8メゾンゆうＡ号棟２０１号室 メゾンゆうＡ号棟２０１号室",
    "lat": 40.5978967,
    "lng": 140.4954258,
    "tel": "0172-88-7155",
    "url": "",
    "pref": "青森県",
    "city": "弘前市",
    "category": "home_help",
    "serviceType": "訪問介護",
    "capacity": 0,
    "openDays": [
      "平日",
      "土曜日"
    ],
    "openDaysNote": "但し、利用者様から要請があった時は、事業者は利用者様と相談の上、同営業時間以外の時間帯もサービス提供するものとします。"
  },
  {
    "id": "270201924",
    "name": "有限会社　つるかめケアセンター",
    "kana": "ユウゲンカイシャ　ツルカメケアセンター",
    "address": "青森県弘前市大字松原3丁目7番地20",
    "lat": 40.5788196,
    "lng": 140.5015512,
    "tel": "0172-87-1171",
    "url": "",
    "pref": "青森県",
    "city": "弘前市",
    "category": "home_help",
    "serviceType": "訪問介護",
    "capacity": 0,
    "openDays": [
      "平日",
      "土曜日",
      "日曜日",
      "祝日"
    ],
    "openDaysNote": "訪問介護サービスの提供は、年中無休で対応しております。"
  },
  {
    "id": "270201395",
    "name": "有限会社　ヘルパーステーション　わ",
    "kana": "ユウゲンガイシャ　ヘルパーステーション　ワ",
    "address": "青森県弘前市取上5丁目7-40",
    "lat": 40.5828298,
    "lng": 140.4899385,
    "tel": "0172-34-3283",
    "url": "",
    "pref": "青森県",
    "city": "弘前市",
    "category": "home_help",
    "serviceType": "訪問介護",
    "capacity": 0,
    "openDays": [
      "平日",
      "土曜日"
    ],
    "openDaysNote": "上記時間以外も対応する場合もあります。"
  },
  {
    "id": "270202070",
    "name": "有限会社　介護サービスしらゆり",
    "kana": "ユウゲンガイシャ　カイゴサービスシラユリ",
    "address": "青森県弘前市大字福村字福富56番地2",
    "lat": 40.6092113,
    "lng": 140.5166367,
    "tel": "0172-29-5031",
    "url": "",
    "pref": "青森県",
    "city": "弘前市",
    "category": "home_help",
    "serviceType": "訪問介護",
    "capacity": 3,
    "openDays": [
      "平日",
      "土曜日",
      "日曜日",
      "祝日"
    ],
    "openDaysNote": "電話等により、24時間常時連絡が可能な体制とする。（改行）但し、深夜については要請があれば応じる。"
  },
  {
    "id": "270201155",
    "name": "有限会社ケアサポートかがやき",
    "kana": "ユウゲンガイシャ　ケアサポート　カガヤキ",
    "address": "青森県弘前市大字野田１丁目４番地１６",
    "lat": 40.6078854,
    "lng": 140.4808877,
    "tel": "0172-39-7051",
    "url": "",
    "pref": "青森県",
    "city": "弘前市",
    "category": "home_help",
    "serviceType": "訪問介護",
    "capacity": 0,
    "openDays": [
      "平日",
      "土曜日",
      "日曜日",
      "祝日"
    ],
    "openDaysNote": "訪問介護を利用できる時間外(早朝6：00～8：00)(夜間18：00～22：00)(深夜22：00～6：00)でも、電話での連絡が可能となっています。"
  },
  {
    "id": "270201106",
    "name": "有限会社ハートウエル",
    "kana": "ユウゲンガイシャハートウエル",
    "address": "弘前市馬屋町１９番地６",
    "lat": 40.6072727032328,
    "lng": 140.459781610559,
    "tel": "0172-26-7177",
    "url": "",
    "pref": "青森県",
    "city": "弘前市",
    "category": "home_help",
    "serviceType": "訪問介護",
    "capacity": 0,
    "openDays": [
      "平日",
      "土曜日",
      "日曜日",
      "祝日"
    ],
    "openDaysNote": "事業所の利用状況や、お客様の利用内容及び居住先等によっては利用（対応）出来ない場合があります。"
  },
  {
    "id": "270401052",
    "name": "ＡＫＹ訪問介護",
    "kana": "エーケーワイホウモンカイゴ",
    "address": "青森県黒石市追子野木３丁目２１５番地１",
    "lat": 40.6351381,
    "lng": 140.58761,
    "tel": "0172-55-6786",
    "url": "",
    "pref": "青森県",
    "city": "黒石市",
    "category": "home_help",
    "serviceType": "訪問介護",
    "capacity": null,
    "openDays": [
      "平日",
      "土曜日"
    ],
    "openDaysNote": "上記のほか、盆休み（８月１３日、８月１４日）（改行）年末年始休み（１２月３０日～１月３日）あり"
  },
  {
    "id": "270400278",
    "name": "くろいし介護センター",
    "kana": "クロイシカイゴセンター",
    "address": "青森県黒石市野添町１１２番地",
    "lat": 40.6520005,
    "lng": 140.6059275,
    "tel": "0172-59-3738",
    "url": "",
    "pref": "青森県",
    "city": "黒石市",
    "category": "home_help",
    "serviceType": "訪問介護",
    "capacity": 3,
    "openDays": [
      "平日",
      "土曜日",
      "日曜日",
      "祝日"
    ],
    "openDaysNote": "土曜・日曜日・祝日、早朝・夜間については、有料老人ホーム入居者に限定してシフト調整して対応している。（改行）在宅サービスにおいては家族・利用者様の状況の変化に応じ、勤務時間外でも必要に応じて対応することが可能である"
  },
  {
    "id": "270400963",
    "name": "ケアサポートなごみ",
    "kana": "ケアサポートナゴミ",
    "address": "青森県黒石市大字牡丹平字福民23-1",
    "lat": 53.41291,
    "lng": -8.24388999999996,
    "tel": "0172-88-7252",
    "url": "",
    "pref": "青森県",
    "city": "黒石市",
    "category": "home_help",
    "serviceType": "訪問介護",
    "capacity": 0,
    "openDays": [
      "平日",
      "土曜日",
      "日曜日",
      "祝日"
    ],
    "openDaysNote": ""
  },
  {
    "id": "270401060",
    "name": "ニチイケアセンター黒石",
    "kana": "ニチイケアセンタークロイシ",
    "address": "青森県黒石市一番町195リライフC リライフC",
    "lat": 40.6482625,
    "lng": 140.5939962,
    "tel": "0172-59-1009",
    "url": "nichiigakkan.co.jo",
    "pref": "青森県",
    "city": "黒石市",
    "category": "home_help",
    "serviceType": "訪問介護",
    "capacity": 0,
    "openDays": [
      "平日",
      "土曜日",
      "日曜日",
      "祝日"
    ],
    "openDaysNote": "年中無休"
  },
  {
    "id": "270400997",
    "name": "ヘルパーステーション　スマイル",
    "kana": "ヘルパーステーション　スマイル",
    "address": "浅瀬石字扇田379番地",
    "lat": 40.6262262,
    "lng": 140.6103702,
    "tel": "0172-53-7725",
    "url": "",
    "pref": "青森県",
    "city": "黒石市",
    "category": "home_help",
    "serviceType": "訪問介護",
    "capacity": 43,
    "openDays": [
      "平日",
      "土曜日",
      "日曜日",
      "祝日"
    ],
    "openDaysNote": "年中無休"
  },
  {
    "id": "270400989",
    "name": "ヘルパーステーション　ハピネス",
    "kana": "ヘルパーステーション　ハピネス",
    "address": "青森県黒石市大字牡丹平字福民西82番地12プランドール1号 プランドール1号",
    "lat": 40.6449981142395,
    "lng": 140.613664424015,
    "tel": "0172-55-6033",
    "url": "",
    "pref": "青森県",
    "city": "黒石市",
    "category": "home_help",
    "serviceType": "訪問介護",
    "capacity": 0,
    "openDays": [
      "平日",
      "土曜日",
      "日曜日",
      "祝日"
    ],
    "openDaysNote": "上記時間帯以外のケースでも相談に応じております。"
  },
  {
    "id": "272301284",
    "name": "ヘルパーステーションさいかち",
    "kana": "ヘルパーステーション　サイカチ",
    "address": "牡丹平字福民西74-17ヘルパーステーションさいかち ヘルパーステーションさいかち",
    "lat": 40.6440928468642,
    "lng": 140.61484703616,
    "tel": "0172-26-5081",
    "url": "",
    "pref": "青森県",
    "city": "黒石市",
    "category": "home_help",
    "serviceType": "訪問介護",
    "capacity": 51,
    "openDays": [
      "平日",
      "土曜日",
      "日曜日",
      "祝日"
    ],
    "openDaysNote": ""
  },
  {
    "id": "270401078",
    "name": "ヘルパーステーションつながり",
    "kana": "ヘルパーステーションツナガリ",
    "address": "青森県黒石市牡丹平字福民88番地13",
    "lat": 40.6451823,
    "lng": 140.6143231,
    "tel": "0172-88-7282",
    "url": "",
    "pref": "青森県",
    "city": "黒石市",
    "category": "home_help",
    "serviceType": "訪問介護",
    "capacity": null,
    "openDays": [
      "平日",
      "土曜日",
      "日曜日",
      "祝日"
    ],
    "openDaysNote": ""
  },
  {
    "id": "270400906",
    "name": "ヘルパーステーション福々",
    "kana": "ヘルパーステーション　フクフク",
    "address": "青森県黒石市大字浅瀬石字村元161-1",
    "lat": 40.6304369228492,
    "lng": 140.60126643366,
    "tel": "0172-55-6678",
    "url": "http://warabinosato.jp",
    "pref": "青森県",
    "city": "黒石市",
    "category": "home_help",
    "serviceType": "訪問介護",
    "capacity": 27,
    "openDays": [
      "平日",
      "土曜日",
      "日曜日",
      "祝日"
    ],
    "openDaysNote": ""
  },
  {
    "id": "270401102",
    "name": "ライフサポーターくろたく",
    "kana": "ライフサポータークロタク",
    "address": "青森県黒石市内町61-9",
    "lat": 40.6418462,
    "lng": 140.5926456,
    "tel": "0172-40-0590",
    "url": "",
    "pref": "青森県",
    "city": "黒石市",
    "category": "home_help",
    "serviceType": "訪問介護",
    "capacity": null,
    "openDays": [
      "平日",
      "土曜日"
    ],
    "openDaysNote": ""
  },
  {
    "id": "270400096",
    "name": "黒石デイサービスセンター",
    "kana": "クロイシデイサービスセンター",
    "address": "青森県黒石市大字赤坂字池田136番地",
    "lat": 40.6660795,
    "lng": 140.6100237,
    "tel": "0172-53-4477",
    "url": "http://www.roujinhome-kuroishi.or.jp",
    "pref": "青森県",
    "city": "黒石市",
    "category": "home_help",
    "serviceType": "訪問介護",
    "capacity": 0,
    "openDays": [
      "平日",
      "土曜日",
      "日曜日",
      "祝日"
    ],
    "openDaysNote": "日曜：定休日、要相談"
  },
  {
    "id": "270400237",
    "name": "津軽訪問介護事業所",
    "kana": "ツガルホウモンカイゴジギョウショ",
    "address": "黒石市角田36番地3",
    "lat": 40.6432822,
    "lng": 140.6103221,
    "tel": "0172-59-2872",
    "url": "",
    "pref": "青森県",
    "city": "黒石市",
    "category": "home_help",
    "serviceType": "訪問介護",
    "capacity": 0,
    "openDays": [
      "平日",
      "土曜日",
      "日曜日",
      "祝日"
    ],
    "openDaysNote": ""
  },
  {
    "id": "270400880",
    "name": "訪問介護　くんぷうしゃ黒石",
    "kana": "ホウモンカイゴ　クンプウシャクロイシ",
    "address": "青森県黒石市後大工町30",
    "lat": 40.6439787,
    "lng": 140.5886513,
    "tel": "0172-52-3868",
    "url": "",
    "pref": "青森県",
    "city": "黒石市",
    "category": "home_help",
    "serviceType": "訪問介護",
    "capacity": 0,
    "openDays": [
      "平日",
      "土曜日",
      "日曜日",
      "祝日"
    ],
    "openDaysNote": ""
  },
  {
    "id": "270400872",
    "name": "訪問介護　ひまわり",
    "kana": "ホウモンカイゴ　ヒマワリ",
    "address": "青森県黒石市ちとせ三丁目１７番地１",
    "lat": 40.6363096404977,
    "lng": 140.600878228403,
    "tel": "0172-53-7116",
    "url": "",
    "pref": "青森県",
    "city": "黒石市",
    "category": "home_help",
    "serviceType": "訪問介護",
    "capacity": 25,
    "openDays": [
      "平日",
      "土曜日",
      "日曜日",
      "祝日"
    ],
    "openDaysNote": ""
  },
  {
    "id": "270400732",
    "name": "訪問介護事業所　あんずの里",
    "kana": "ホウモンカイゴジギョウショ　アンズノサト",
    "address": "大字牡丹平字福民西77-1",
    "lat": 40.6430796,
    "lng": 140.6145107,
    "tel": "0172-88-6310",
    "url": "http://kyouen.jimdo.com/",
    "pref": "青森県",
    "city": "黒石市",
    "category": "home_help",
    "serviceType": "訪問介護",
    "capacity": 3,
    "openDays": [
      "平日",
      "土曜日",
      "日曜日",
      "祝日"
    ],
    "openDaysNote": "24時間体制でサービス受けられます"
  },
  {
    "id": "270400930",
    "name": "訪問介護事業所　風",
    "kana": "ホウモンカイゴジギョウショ　カゼ",
    "address": "青森県黒石市境松字村井１０－１住宅型有料老人ホーム　ゆかりの里 住宅型有料老人ホーム　ゆかりの里",
    "lat": 40.6519303,
    "lng": 140.5716692,
    "tel": "０１７２－５９－３３３３",
    "url": "http://www.ryo-fu.jp",
    "pref": "青森県",
    "city": "黒石市",
    "category": "home_help",
    "serviceType": "訪問介護",
    "capacity": 0,
    "openDays": [
      "平日",
      "土曜日",
      "日曜日",
      "祝日"
    ],
    "openDaysNote": "上記時間以外でもご希望があれば対応致します。"
  },
  {
    "id": "270400898",
    "name": "訪問介護事業所きらら",
    "kana": "ホウモンカイゴジギョウショキララ",
    "address": "青森県黒石市西ヶ丘２７４",
    "lat": 40.6499110000731,
    "lng": 140.585495265607,
    "tel": "０１７２－５５－８６７２",
    "url": "",
    "pref": "青森県",
    "city": "黒石市",
    "category": "home_help",
    "serviceType": "訪問介護",
    "capacity": 0,
    "openDays": [
      "平日",
      "土曜日",
      "日曜日",
      "祝日"
    ],
    "openDaysNote": ""
  },
  {
    "id": "270400674",
    "name": "訪問介護事業所朝日",
    "kana": "ホウモンカイゴジギョウショアサヒ",
    "address": "黒石市大字牡丹平字福民西53－5",
    "lat": 40.641433478782,
    "lng": 140.614038557585,
    "tel": "0172-88-8160",
    "url": "http://asahikaigo⁻kuroisi.net",
    "pref": "青森県",
    "city": "黒石市",
    "category": "home_help",
    "serviceType": "訪問介護",
    "capacity": 16,
    "openDays": [
      "平日",
      "土曜日",
      "日曜日",
      "祝日"
    ],
    "openDaysNote": ""
  },
  {
    "id": "272000423",
    "name": "有限会社　津軽サポート",
    "kana": "ユウゲンガイシャ　ツガルサポート",
    "address": "青森県東津軽郡今別町大字浜名字中宇田1-1",
    "lat": 41.1809238,
    "lng": 140.4696194,
    "tel": "0174-35-3115",
    "url": "tugarusaport-khhy.com",
    "pref": "青森県",
    "city": "今別町",
    "category": "home_help",
    "serviceType": "訪問介護",
    "capacity": 0,
    "openDays": [
      "平日",
      "土曜日",
      "祝日"
    ],
    "openDaysNote": "12/31～1/3は休業とする。"
  },
  {
    "id": "272600156",
    "name": "あすなろ訪問介護事業所",
    "kana": "アスナロホウモンカイゴジギョウショ",
    "address": "青森県下北郡佐井村大字佐井字大佐井川目39番地12",
    "lat": 41.4294699,
    "lng": 140.8624037,
    "tel": "0175-38-4181",
    "url": "http://www.sai-shakyo.com/",
    "pref": "青森県",
    "city": "佐井村",
    "category": "home_help",
    "serviceType": "訪問介護",
    "capacity": null,
    "openDays": [
      "平日",
      "土曜日",
      "日曜日",
      "祝日"
    ],
    "openDaysNote": "特になし"
  },
  {
    "id": "272700030",
    "name": "社会福祉法人　三戸町社会福祉協議会",
    "kana": "シャカイフクシホウジン　サンノヘマチシャカイフクシキョウギカイ",
    "address": "青森県三戸郡三戸町大字在府小路町17番地",
    "lat": 40.3786898,
    "lng": 141.2594564,
    "tel": "0179-22-0262",
    "url": "",
    "pref": "青森県",
    "city": "三戸町",
    "category": "home_help",
    "serviceType": "訪問介護",
    "capacity": 0,
    "openDays": [
      "平日",
      "土曜日",
      "日曜日",
      "祝日"
    ],
    "openDaysNote": "特になし"
  },
  {
    "id": "272701426",
    "name": "訪問介護サービス　さんのへ",
    "kana": "ホウモンカイゴサービス　サンノヘ",
    "address": "青森県三戸郡三戸町大字六日町31",
    "lat": 40.3849585,
    "lng": 141.2608225,
    "tel": "0179-23-5536",
    "url": "",
    "pref": "青森県",
    "city": "三戸町",
    "category": "home_help",
    "serviceType": "訪問介護",
    "capacity": 0,
    "openDays": [],
    "openDaysNote": "24時間対応"
  },
  {
    "id": "272701707",
    "name": "訪問介護事業所　いちばん星",
    "kana": "ホウモンカイゴジギョウショ　イチバンボシ",
    "address": "青森県三戸郡三戸町大字川守田字沖中73-4",
    "lat": 40.3935521,
    "lng": 141.2676129,
    "tel": "0179-20-0520",
    "url": "",
    "pref": "青森県",
    "city": "三戸町",
    "category": "home_help",
    "serviceType": "訪問介護",
    "capacity": 30,
    "openDays": [
      "平日",
      "土曜日",
      "日曜日",
      "祝日"
    ],
    "openDaysNote": ""
  },
  {
    "id": "270700644",
    "name": "イーケアサービス",
    "kana": "イーケアサービス",
    "address": "緑町1丁目2-10",
    "lat": 35.8291138,
    "lng": 139.8327741,
    "tel": "0176-56-4747",
    "url": "",
    "pref": "青森県",
    "city": "三沢市",
    "category": "home_help",
    "serviceType": "訪問介護",
    "capacity": null,
    "openDays": [
      "平日",
      "土曜日",
      "日曜日",
      "祝日"
    ],
    "openDaysNote": ""
  },
  {
    "id": "270700081",
    "name": "ニチイケアセンター三沢",
    "kana": "ニチイケアセンターミサワ",
    "address": "青森県三沢市大町2丁目8-3",
    "lat": 40.6780284,
    "lng": 141.3624853,
    "tel": "0176-50-1715",
    "url": "http://www.nichiigakkan.co.jp",
    "pref": "青森県",
    "city": "三沢市",
    "category": "home_help",
    "serviceType": "訪問介護",
    "capacity": 0,
    "openDays": [
      "平日",
      "土曜日",
      "日曜日",
      "祝日"
    ],
    "openDaysNote": "居宅サービス計画により、休業日であっても、サービスの提供を行う場合がある"
  },
  {
    "id": "270700651",
    "name": "ニチイケアセンター三沢堀口",
    "kana": "ニチイケアセンターミサワホリグチ",
    "address": "青森県三沢市大字三沢字前平47番449",
    "lat": 40.6714939,
    "lng": 141.4001767,
    "tel": "0176-51-7321",
    "url": "http://www.nichiigakkan.co.jp",
    "pref": "青森県",
    "city": "三沢市",
    "category": "home_help",
    "serviceType": "訪問介護",
    "capacity": 0,
    "openDays": [
      "平日",
      "土曜日",
      "日曜日",
      "祝日"
    ],
    "openDaysNote": "居宅サービス計画により、休業日であっても、サービスの提供を行う場合がある。"
  },
  {
    "id": "270700545",
    "name": "のぞみヘルパーステーション",
    "kana": "ノゾミヘルパーステーション",
    "address": "青森県三沢市中央町4丁目6-13",
    "lat": 40.6785565269683,
    "lng": 141.362474604894,
    "tel": "0176-50-1888",
    "url": "syafuku-nozomi.jimbo.com",
    "pref": "青森県",
    "city": "三沢市",
    "category": "home_help",
    "serviceType": "訪問介護",
    "capacity": 0,
    "openDays": [
      "平日"
    ],
    "openDaysNote": "ご希望により時間調整いたします。休業日については、ご希望がある場合、介護サービスの提供をいたします。"
  },
  {
    "id": "270700099",
    "name": "ひばり苑ホームヘルプサービス",
    "kana": "ヒバリエンホームヘルプサービス",
    "address": "青森県三沢市大字三沢字南山60--2",
    "lat": 40.683089881139,
    "lng": 141.391426921177,
    "tel": "0176-58-7792",
    "url": "www.joukoukai.or.jp/",
    "pref": "青森県",
    "city": "三沢市",
    "category": "home_help",
    "serviceType": "訪問介護",
    "capacity": 0,
    "openDays": [
      "平日",
      "土曜日",
      "日曜日",
      "祝日"
    ],
    "openDaysNote": "特になし"
  },
  {
    "id": "270700446",
    "name": "ヘルパーステーション三陽",
    "kana": "ヘルパーステーションサンヨウ",
    "address": "青森県三沢市美野原一丁目１５番地１号　奥山荘C号室",
    "lat": 36.6665369,
    "lng": 137.2285128,
    "tel": "0176-58-6741",
    "url": "",
    "pref": "青森県",
    "city": "三沢市",
    "category": "home_help",
    "serviceType": "訪問介護",
    "capacity": 0,
    "openDays": [
      "平日",
      "土曜日",
      "日曜日",
      "祝日"
    ],
    "openDaysNote": "電話連絡等により24時間連絡可能。（改行）必要に応じ、ケアプランにより夜間のサービスを行う。"
  },
  {
    "id": "270700198",
    "name": "ホームヘルパーステーション青空",
    "kana": "ホームヘルパーステーションアオゾラ",
    "address": "三沢市栄町三丁目１２５－１",
    "lat": 40.6707513,
    "lng": 141.3612136,
    "tel": "0176-50-1103",
    "url": "http://www.rakuseikai.or.jp/",
    "pref": "青森県",
    "city": "三沢市",
    "category": "home_help",
    "serviceType": "訪問介護",
    "capacity": 0,
    "openDays": [
      "平日",
      "土曜日",
      "日曜日",
      "祝日"
    ],
    "openDaysNote": "上記時間以外でもご相談に応じます。"
  },
  {
    "id": "270700438",
    "name": "春日台介護センター",
    "kana": "カスガダイカイゴセンター",
    "address": "三沢市春日台二丁目152-414",
    "lat": 40.6684117375155,
    "lng": 141.346015678574,
    "tel": "0176-52-5480",
    "url": "",
    "pref": "青森県",
    "city": "三沢市",
    "category": "home_help",
    "serviceType": "訪問介護",
    "capacity": 0,
    "openDays": [
      "平日",
      "土曜日",
      "日曜日",
      "祝日"
    ],
    "openDaysNote": "利用者様の希望に応じ随時対応。"
  },
  {
    "id": "272501313",
    "name": "ケアサポート　ゆう",
    "kana": "ケアサポートユウ",
    "address": "青森県上北郡七戸町字道の上118-1",
    "lat": 40.7513962,
    "lng": 141.1516741,
    "tel": "0176-68-4780",
    "url": "",
    "pref": "青森県",
    "city": "七戸町",
    "category": "home_help",
    "serviceType": "訪問介護",
    "capacity": 0,
    "openDays": [
      "平日",
      "土曜日"
    ],
    "openDaysNote": "必要な場合は上記以外の日時も相談に応じている。"
  },
  {
    "id": "272502279",
    "name": "ニチイケアセンターしちのへ",
    "kana": "ニチイケアセンターシチノヘ",
    "address": "青森県上北郡七戸町字蒼前字４９番地蒼前アパート 蒼前アパート",
    "lat": 40.6920493,
    "lng": 141.1603063,
    "tel": "0176-60-8038",
    "url": "https://www.nichiigakkan.co.jp",
    "pref": "青森県",
    "city": "七戸町",
    "category": "home_help",
    "serviceType": "訪問介護",
    "capacity": 0,
    "openDays": [
      "平日"
    ],
    "openDaysNote": "居宅サービス計画により、休業日、営業時間外であってもサービスの提供を行う場合がある。"
  },
  {
    "id": "272502121",
    "name": "ヘルパーステーションはぁとふる",
    "kana": "ヘルパーステーションハァトフル",
    "address": "青森県上北郡七戸町字蛇坂13-1",
    "lat": 40.7050318,
    "lng": 141.1502261,
    "tel": "0176-58-6444",
    "url": "http://heartfulshichinohe.com",
    "pref": "青森県",
    "city": "七戸町",
    "category": "home_help",
    "serviceType": "訪問介護",
    "capacity": 0,
    "openDays": [
      "平日",
      "土曜日",
      "日曜日",
      "祝日"
    ],
    "openDaysNote": ""
  },
  {
    "id": "272500307",
    "name": "社会福祉法人七戸町社会福祉協議会",
    "kana": "シャカイフクシホウジンシチノヘマチシャカイフクシキョウギカイ",
    "address": "青森県上北郡七戸町字立野頭139番地1七戸町総合福祉センター 七戸町総合福祉センター",
    "lat": 40.7059488,
    "lng": 141.1679748,
    "tel": "0176-62-4419",
    "url": "http://www.7shakyo.com",
    "pref": "青森県",
    "city": "七戸町",
    "category": "home_help",
    "serviceType": "訪問介護",
    "capacity": 0,
    "openDays": [
      "平日",
      "土曜日",
      "日曜日",
      "祝日"
    ],
    "openDaysNote": "営業時間以外でも携帯電話への転送により24時間連絡が可能です。また、状況によっては指定訪問介護の提供が可能な体制を取っております。"
  },
  {
    "id": "272502386",
    "name": "住宅型有料老人ホーム　暖和",
    "kana": "ジュウタクガタユウリョウロウジンホーム　ダンワ",
    "address": "青森県上北郡七戸町字道ノ上12-1",
    "lat": 40.7470344,
    "lng": 141.1523302,
    "tel": "0176-58-7730",
    "url": "https://www.danwahome.com/",
    "pref": "青森県",
    "city": "七戸町",
    "category": "home_help",
    "serviceType": "訪問介護",
    "capacity": 39,
    "openDays": [
      "平日",
      "土曜日",
      "日曜日",
      "祝日"
    ],
    "openDaysNote": "24時間対応いたします。"
  },
  {
    "id": "272501255",
    "name": "城南ヘルパーセンター",
    "kana": "ジョウナンヘルパーセンター",
    "address": "青森県上北郡七戸町字太田野１９番地４",
    "lat": 40.6915336,
    "lng": 141.1624453,
    "tel": "0176-62-2188",
    "url": "",
    "pref": "青森県",
    "city": "七戸町",
    "category": "home_help",
    "serviceType": "訪問介護",
    "capacity": 0,
    "openDays": [
      "平日",
      "土曜日",
      "日曜日",
      "祝日"
    ],
    "openDaysNote": "なし"
  },
  {
    "id": "270600950",
    "name": "アースサポート十和田",
    "kana": "アースサポートトワダ",
    "address": "青森県十和田市穂並町16-46",
    "lat": 40.6003324,
    "lng": 141.225178,
    "tel": "0176-25-5151",
    "url": "http://www.earthsupport.co.jp",
    "pref": "青森県",
    "city": "十和田市",
    "category": "home_help",
    "serviceType": "訪問介護",
    "capacity": 0,
    "openDays": [
      "平日",
      "土曜日",
      "日曜日",
      "祝日"
    ],
    "openDaysNote": "特になし"
  },
  {
    "id": "270601149",
    "name": "くらすけっと",
    "kana": "クラスケット",
    "address": "青森県十和田市西十一番町3-20",
    "lat": 40.6158717442659,
    "lng": 141.203221528863,
    "tel": "0176－58－0483",
    "url": "https://kurashilabo.ⅽo.jp",
    "pref": "青森県",
    "city": "十和田市",
    "category": "home_help",
    "serviceType": "訪問介護",
    "capacity": 0,
    "openDays": [
      "平日",
      "土曜日",
      "日曜日",
      "祝日"
    ],
    "openDaysNote": "営業時間外であってもサービスの提供を行うことができます。ご相談ください。"
  },
  {
    "id": "270600083",
    "name": "ニチイケアセンター十和田",
    "kana": "ニチイケアセンタートワダ",
    "address": "青森県十和田市稲生町4-23　第一田中ビル4階",
    "lat": 40.6201052,
    "lng": 141.2107337,
    "tel": "0176-20-2781",
    "url": "http://www.nichiigakkan.co.jp",
    "pref": "青森県",
    "city": "十和田市",
    "category": "home_help",
    "serviceType": "訪問介護",
    "capacity": 80,
    "openDays": [
      "平日",
      "土曜日",
      "日曜日",
      "祝日"
    ],
    "openDaysNote": "居宅サービス計画により、休業日・営業時間以外でもサービス提供を行う場合がある。"
  },
  {
    "id": "270600596",
    "name": "ヘルパーステーション　ちくば",
    "kana": "ヘルパーステーション　　チクバ",
    "address": "青森県十和田市東三番町10-55-6",
    "lat": 40.6126734988421,
    "lng": 141.221315582309,
    "tel": "0176-21-2715",
    "url": "",
    "pref": "青森県",
    "city": "十和田市",
    "category": "home_help",
    "serviceType": "訪問介護",
    "capacity": 0,
    "openDays": [
      "平日",
      "土曜日",
      "日曜日",
      "祝日"
    ],
    "openDaysNote": "電話等により２４時間常時連絡可能体制"
  },
  {
    "id": "270600893",
    "name": "ヘルパーステーション　愛",
    "kana": "ヘルパーステーション　アイ",
    "address": "青森県十和田市大字相坂字高清水78番地996",
    "lat": 40.6337193335869,
    "lng": 141.262018009452,
    "tel": "0176-23-0037",
    "url": "",
    "pref": "青森県",
    "city": "十和田市",
    "category": "home_help",
    "serviceType": "訪問介護",
    "capacity": 16,
    "openDays": [
      "平日",
      "土曜日",
      "日曜日",
      "祝日"
    ],
    "openDaysNote": "営業時間外のサービス利用も相談に応じさせて頂きます。"
  },
  {
    "id": "270600869",
    "name": "ヘルパーステーションふたば",
    "kana": "ヘルパーステーションフタバ",
    "address": "青森県十和田市東三番町6番33号",
    "lat": 40.6086204,
    "lng": 141.2225891,
    "tel": "0176-21-1411",
    "url": "",
    "pref": "青森県",
    "city": "十和田市",
    "category": "home_help",
    "serviceType": "訪問介護",
    "capacity": 0,
    "openDays": [
      "平日",
      "土曜日",
      "日曜日",
      "祝日"
    ],
    "openDaysNote": "相談に応じ時間はその限りではない。"
  },
  {
    "id": "270600380",
    "name": "ホームヘルパーステーション　「たかや」",
    "kana": "ホームヘルパーステーションタカヤ",
    "address": "十和田市西一番町10-76",
    "lat": 40.6190802,
    "lng": 141.203866,
    "tel": "0176-21-2066",
    "url": "",
    "pref": "青森県",
    "city": "十和田市",
    "category": "home_help",
    "serviceType": "訪問介護",
    "capacity": 0,
    "openDays": [
      "平日",
      "土曜日"
    ],
    "openDaysNote": "7：00から8：00、18：00から20：00の時間及び日曜日、祝日等のサービス利用については要相談で利用可。"
  },
  {
    "id": "270600638",
    "name": "ホームヘルパーステーション　たんぽぽ",
    "kana": "ホームヘルパーステーション　タンポポ",
    "address": "青森県十和田市大字三本木字里ノ沢1-8サービス付き高齢者向け住宅ロイヤルパレス内 サービス付き高齢者向け住宅ロイヤルパレス内",
    "lat": 40.6253750580442,
    "lng": 141.243724470361,
    "tel": "0176-58-0768",
    "url": "",
    "pref": "青森県",
    "city": "十和田市",
    "category": "home_help",
    "serviceType": "訪問介護",
    "capacity": 0,
    "openDays": [
      "平日",
      "土曜日",
      "日曜日",
      "祝日"
    ],
    "openDaysNote": "利用者様の希望、要望により早朝、夜間、深夜対応出来ます。"
  },
  {
    "id": "270600224",
    "name": "みちのくホームヘルパーステーション",
    "kana": "ミチノクホームヘルパーステーション",
    "address": "青森県十和田市大字三本木字里ノ沢148-5有料老人ホームロイヤルヴィラみちのく内",
    "lat": 40.6246976132265,
    "lng": 141.245813055564,
    "tel": "0176-58-0766",
    "url": "http//www.m-kouzinnkai.or.jp/index.htm",
    "pref": "青森県",
    "city": "十和田市",
    "category": "home_help",
    "serviceType": "訪問介護",
    "capacity": 0,
    "openDays": [
      "平日",
      "土曜日",
      "日曜日",
      "祝日"
    ],
    "openDaysNote": "早朝、夜間、深夜、対応できます。（24時間対応）"
  },
  {
    "id": "272500489",
    "name": "医療法人　仁泉会　ヘルパーステーションおいらせ",
    "kana": "イリョウホウジン　ジンセンカイ　ヘルパーステーションオイラセ",
    "address": "青森県十和田市大字奥瀬字中平155",
    "lat": 40.5853188,
    "lng": 141.107279,
    "tel": "0176-70-3113",
    "url": "",
    "pref": "青森県",
    "city": "十和田市",
    "category": "home_help",
    "serviceType": "訪問介護",
    "capacity": 25,
    "openDays": [
      "平日",
      "土曜日",
      "日曜日",
      "祝日"
    ],
    "openDaysNote": ""
  },
  {
    "id": "250680048",
    "name": "介護老人保健施設とわだ",
    "kana": "カイゴロウジンホケンシセツトワダ",
    "address": "十和田市大字洞内字長田６０番６",
    "lat": 40.6659893,
    "lng": 141.1818865,
    "tel": "0176-27-3170",
    "url": "https://www.facebook.com/sgtowada/",
    "pref": "青森県",
    "city": "十和田市",
    "category": "home_help",
    "serviceType": "訪問介護",
    "capacity": 0,
    "openDays": [
      "平日",
      "土曜日",
      "日曜日",
      "祝日"
    ],
    "openDaysNote": "７時～２１時まで利用可能"
  },
  {
    "id": "270601057",
    "name": "株式会社ケアライフ青森　十和田営業所",
    "kana": "カブシキガイシャケアライフアオモリ　トワダエイギョウショ",
    "address": "青森県十和田市洞内後野331-15アベニュービル1階 アベニュービル1階",
    "lat": 40.6392092,
    "lng": 141.2008825,
    "tel": "0176-27-6200",
    "url": "www.carelife-net.co.jp",
    "pref": "青森県",
    "city": "十和田市",
    "category": "home_help",
    "serviceType": "訪問介護",
    "capacity": 0,
    "openDays": [
      "平日",
      "土曜日",
      "日曜日",
      "祝日"
    ],
    "openDaysNote": ""
  },
  {
    "id": "270600117",
    "name": "十和田ホームヘルパーセンター",
    "kana": "トワダホームヘルパーセンター",
    "address": "青森県十和田市西二十三番町30-36",
    "lat": 40.5693445,
    "lng": 141.1934021,
    "tel": "0176-20-1850",
    "url": "http://www.fukushinosato.com",
    "pref": "青森県",
    "city": "十和田市",
    "category": "home_help",
    "serviceType": "訪問介護",
    "capacity": 0,
    "openDays": [
      "平日",
      "土曜日",
      "日曜日",
      "祝日"
    ],
    "openDaysNote": ""
  },
  {
    "id": "270601099",
    "name": "青い森ケアうるおい訪問介護事業所",
    "kana": "アオイモリケアウルオイホウモンカイゴジギョウショ",
    "address": "青森県十和田市西十四番町13-5",
    "lat": 40.6063322755593,
    "lng": 141.209701843137,
    "tel": "0176-58-5432",
    "url": "http://aoimori-care.com/",
    "pref": "青森県",
    "city": "十和田市",
    "category": "home_help",
    "serviceType": "訪問介護",
    "capacity": 49,
    "openDays": [
      "平日",
      "土曜日",
      "日曜日",
      "祝日"
    ],
    "openDaysNote": "上記時間の前後につきましては、要相談となります。"
  },
  {
    "id": "270601313",
    "name": "訪問介護ステーションTsugu",
    "kana": "ホウモンカイゴステーションツグ",
    "address": "青森県十和田市大字三本木字西小稲189番地6",
    "lat": 40.5977138582897,
    "lng": 141.206745573344,
    "tel": "0176-27-1306",
    "url": "",
    "pref": "青森県",
    "city": "十和田市",
    "category": "home_help",
    "serviceType": "訪問介護",
    "capacity": 0,
    "openDays": [
      "平日",
      "土曜日",
      "日曜日",
      "祝日"
    ],
    "openDaysNote": "電話等により24時間連絡可能な体制（改行）サービス提供時間にあたっては、相談に応じます。"
  },
  {
    "id": "270600448",
    "name": "有限会社　ケアサポート健美",
    "kana": "ユウゲンガイシャ　ケアサポートケンビ",
    "address": "青森県十和田市稲生町11番37号",
    "lat": 40.6172612951419,
    "lng": 141.21052102989,
    "tel": "0176-21-3657",
    "url": "",
    "pref": "青森県",
    "city": "十和田市",
    "category": "home_help",
    "serviceType": "訪問介護",
    "capacity": 30,
    "openDays": [
      "平日",
      "土曜日",
      "日曜日",
      "祝日"
    ],
    "openDaysNote": "サービス提供可能時間外のサービス希望受付可能。（改行）管理者を含め、事業所で検討し回答するものとする。"
  },
  {
    "id": "272100041",
    "name": "社会福祉法人深浦町社会福祉協議会",
    "kana": "シャカイフクシホウジンフカウラマチシャカイフクシキョウギカイ",
    "address": "青森県西津軽郡深浦町大字深浦字中沢34-1深浦町フィットネスプラザゆとり 深浦町フィットネスプラザゆとり",
    "lat": 40.6365023,
    "lng": 139.932653,
    "tel": "0173-74-3111",
    "url": "https://www.fukaura-shakyo.com",
    "pref": "青森県",
    "city": "深浦町",
    "category": "home_help",
    "serviceType": "訪問介護",
    "capacity": 0,
    "openDays": [
      "平日",
      "土曜日",
      "日曜日",
      "祝日"
    ],
    "openDaysNote": "上記時間外に希望の場合は、相談に応じる"
  },
  {
    "id": "272100611",
    "name": "白寿の郷ホームヘルパーステーション",
    "kana": "ハクジュノサトホームヘルパーステーション",
    "address": "青森県西津軽郡深浦町大字岩崎字松原５７番地１",
    "lat": 40.5831549,
    "lng": 139.9248776,
    "tel": "0173-77-2870",
    "url": "",
    "pref": "青森県",
    "city": "深浦町",
    "category": "home_help",
    "serviceType": "訪問介護",
    "capacity": 0,
    "openDays": [
      "平日",
      "祝日"
    ],
    "openDaysNote": "早朝（６：００～８：００）及び夜間（１８：００～２２：００）は、基本料金の２５％増し、深夜（２２：００～６：００）は５０％増しとなります。"
  },
  {
    "id": "270103682",
    "name": "NPO法人　エーデルの里",
    "kana": "エヌピーオーホウジン　エーデルノサト",
    "address": "青森県青森市筒井字八ッ橋５１－２　１F",
    "lat": 40.7958,
    "lng": 140.7688499,
    "tel": "017-718-2557",
    "url": "",
    "pref": "青森県",
    "city": "青森市",
    "category": "home_help",
    "serviceType": "訪問介護",
    "capacity": 3,
    "openDays": [
      "平日",
      "土曜日",
      "日曜日",
      "祝日"
    ],
    "openDaysNote": "・通常８時から１８時までの提供時間ではあるが、利用者の状況に応じて、時間変更可能、早朝、夜間の対応可能"
  },
  {
    "id": "270103914",
    "name": "アースサポート新青森",
    "kana": "アースサポートシンアオモリ",
    "address": "青森県青森市大字三内字沢部258番13号",
    "lat": 40.8166186,
    "lng": 140.6973766,
    "tel": "017-766-8411",
    "url": "http://www.earthsupport.co.jp/",
    "pref": "青森県",
    "city": "青森市",
    "category": "home_help",
    "serviceType": "訪問介護",
    "capacity": 0,
    "openDays": [
      "平日",
      "土曜日",
      "日曜日",
      "祝日"
    ],
    "openDaysNote": "年中無休"
  },
  {
    "id": "270103062",
    "name": "アースサポート青森",
    "kana": "アースサポートアオモリ",
    "address": "青森県青森市松森1丁目10番1号",
    "lat": 40.8207602089037,
    "lng": 140.770109064526,
    "tel": "017-742-4900",
    "url": "http://www.earthsupport.co.jp",
    "pref": "青森県",
    "city": "青森市",
    "category": "home_help",
    "serviceType": "訪問介護",
    "capacity": 0,
    "openDays": [
      "平日",
      "土曜日",
      "日曜日",
      "祝日"
    ],
    "openDaysNote": "年中無休"
  },
  {
    "id": "270106396",
    "name": "アースサポート青森東",
    "kana": "アースサポートアオモリヒガシ",
    "address": "青森県青森市原別2丁目2番1号",
    "lat": 40.837486,
    "lng": 140.8039492,
    "tel": "017-736-9811",
    "url": "http://www.earthsupport.co.jp",
    "pref": "青森県",
    "city": "青森市",
    "category": "home_help",
    "serviceType": "訪問介護",
    "capacity": 0,
    "openDays": [
      "平日",
      "土曜日",
      "日曜日",
      "祝日"
    ],
    "openDaysNote": "年中無休"
  },
  {
    "id": "270105463",
    "name": "アウルの森ケアステーション",
    "kana": "アウルノモリケアステーション",
    "address": "青森県青森市松森三丁目1番10号",
    "lat": 40.8126902,
    "lng": 140.77491,
    "tel": "017-742-2450",
    "url": "http://www.owl-llc.jp/",
    "pref": "青森県",
    "city": "青森市",
    "category": "home_help",
    "serviceType": "訪問介護",
    "capacity": 20,
    "openDays": [
      "平日",
      "土曜日",
      "日曜日",
      "祝日"
    ],
    "openDaysNote": "上記の営業時間のほか、居宅サービス計画によりサービス提供を行うものとする。（改行）電話等により、24時間常時連絡が可能な体制とする。"
  },
  {
    "id": "270101603",
    "name": "あおもり24",
    "kana": "アオモリニジュウヨン",
    "address": "青森県青森市篠田1-8-1エムズコーポ２０１ エムズコーポ２０１",
    "lat": 40.8255607,
    "lng": 140.7297141,
    "tel": "017-761-2745",
    "url": "http://www.ping-aomori.jp/aomori24/indexhtm",
    "pref": "青森県",
    "city": "青森市",
    "category": "home_help",
    "serviceType": "訪問介護",
    "capacity": 0,
    "openDays": [
      "平日",
      "土曜日",
      "日曜日",
      "祝日"
    ],
    "openDaysNote": ""
  },
  {
    "id": "270105612",
    "name": "あおもりケアサービス",
    "kana": "アオモリケアサービス",
    "address": "青森県青森市荒川柴田105-2ルミエールゆう105号室ルレエシャトウA棟102 ルレエシャトウA棟102",
    "lat": 40.8224503,
    "lng": 140.7826979,
    "tel": "7041208105",
    "url": "",
    "pref": "青森県",
    "city": "青森市",
    "category": "home_help",
    "serviceType": "訪問介護",
    "capacity": 0,
    "openDays": [
      "平日",
      "土曜日",
      "日曜日",
      "祝日"
    ],
    "openDaysNote": ""
  },
  {
    "id": "270104227",
    "name": "あすなろケアステーション",
    "kana": "アスナロケアステーション",
    "address": "青森県青森市第二問屋町2丁目１－３高繁ビル　４階 高繁ビル　４階",
    "lat": 40.7943415,
    "lng": 140.7573343,
    "tel": "017-763-5165",
    "url": "",
    "pref": "青森県",
    "city": "青森市",
    "category": "home_help",
    "serviceType": "訪問介護",
    "capacity": 50,
    "openDays": [
      "平日",
      "土曜日",
      "日曜日",
      "祝日"
    ],
    "openDaysNote": ""
  },
  {
    "id": "270104748",
    "name": "あっとほーむケアまごの手",
    "kana": "アットホームケアマゴノテ",
    "address": "青森県青森市大字字油川字柳川５４－８",
    "lat": 40.8455849,
    "lng": 140.7030142,
    "tel": "０１７－７６３－２３２０",
    "url": "http://magocoro-co.jp",
    "pref": "青森県",
    "city": "青森市",
    "category": "home_help",
    "serviceType": "訪問介護",
    "capacity": 100,
    "openDays": [
      "平日",
      "土曜日",
      "日曜日",
      "祝日"
    ],
    "openDaysNote": "状況により随時対応"
  },
  {
    "id": "270105232",
    "name": "イー・ライフ訪問介護ステーション",
    "kana": "イーライフホウモンカイゴステーション",
    "address": "青森県青森市松森1-12-13",
    "lat": 40.8184367,
    "lng": 140.7731489,
    "tel": "017-752-0380",
    "url": "https://www.kouken-group.jp",
    "pref": "青森県",
    "city": "青森市",
    "category": "home_help",
    "serviceType": "訪問介護",
    "capacity": 0,
    "openDays": [
      "平日",
      "土曜日",
      "日曜日",
      "祝日"
    ],
    "openDaysNote": "上記営業時間の他居宅サービス計画によるサービス提供及びご利用者・ご家族等からの要請による緊急時訪問介護の提供を行います。"
  },
  {
    "id": "270105042",
    "name": "いきいきサポート",
    "kana": "イキイキサポート",
    "address": "青森県青森市佃１丁目２３番１０号",
    "lat": 40.8206059106777,
    "lng": 140.777166888361,
    "tel": "017-763-5020",
    "url": "https://iki-iki.co.jp/facility/",
    "pref": "青森県",
    "city": "青森市",
    "category": "home_help",
    "serviceType": "訪問介護",
    "capacity": 0,
    "openDays": [
      "平日",
      "土曜日",
      "日曜日",
      "祝日"
    ],
    "openDaysNote": "状況により、柔軟に対応致します。"
  },
  {
    "id": "270106651",
    "name": "ウィズケア訪問介護サービス",
    "kana": "ウィズケアホウモンカイゴサービス",
    "address": "青森県青森市富田3-18-40ネオパレス富田A101 ネオパレス富田A101",
    "lat": 40.8346357,
    "lng": 140.7101107,
    "tel": "017-752-1293",
    "url": "",
    "pref": "青森県",
    "city": "青森市",
    "category": "home_help",
    "serviceType": "訪問介護",
    "capacity": 0,
    "openDays": [
      "平日"
    ],
    "openDaysNote": ""
  },
  {
    "id": "270106685",
    "name": "オリーブサポート",
    "kana": "オリーブサポート",
    "address": "青森市松森3丁目17-558号 8号",
    "lat": 40.810747,
    "lng": 140.77777,
    "tel": "017-763-0863",
    "url": "",
    "pref": "青森県",
    "city": "青森市",
    "category": "home_help",
    "serviceType": "訪問介護",
    "capacity": 0,
    "openDays": [
      "平日",
      "祝日"
    ],
    "openDaysNote": "必要に応じて営業日以外及び営業時間外も対応します。"
  },