[
  {
    "id": "3770600694",
    "name": "かがやきケアサービス",
    "kana": "カガヤキケアサービス",
    "address": "さぬき市志度2120番地1ＧＲＡＣＥⅡ　101号室 ＧＲＡＣＥⅡ　101号室",
    "lat": 34.3180732517751,
    "lng": 134.183605026037,
    "tel": "087-880-3180",
    "url": "https://r.goope.jp/kagayaki-care/",
    "pref": "香川県",
    "city": "さぬき市",
    "category": "home_help",
    "serviceType": "訪問介護",
    "capacity": 0,
    "openDays": [
      "平日",
      "土曜日",
      "日曜日",
      "祝日"
    ],
    "openDaysNote": "利用者様のご希望があればサービス提供時間はご相談に応じます。"
  },
  {
    "id": "3770601056",
    "name": "ケアサポート凛",
    "kana": "ケアサポート　リン",
    "address": "長尾東８６８－５",
    "lat": 34.2651166,
    "lng": 134.1757557,
    "tel": "0879-53-2238",
    "url": "",
    "pref": "香川県",
    "city": "さぬき市",
    "category": "home_help",
    "serviceType": "訪問介護",
    "capacity": null,
    "openDays": [
      "平日"
    ],
    "openDaysNote": ""
  },
  {
    "id": "3770600454",
    "name": "ケアセンター　マルセン",
    "kana": "ケアセンターマルセン",
    "address": "香川県さぬき市志度495番地5",
    "lat": 34.3223547,
    "lng": 134.1730222,
    "tel": "087-894-2325",
    "url": "",
    "pref": "香川県",
    "city": "さぬき市",
    "category": "home_help",
    "serviceType": "訪問介護",
    "capacity": 0,
    "openDays": [
      "平日",
      "土曜日"
    ],
    "openDaysNote": "時間外のご利用につきましては、別料金が発生する場合があります。"
  },
  {
    "id": "3771300252",
    "name": "ケアセンター憩",
    "kana": "ケアセンターイコイ",
    "address": "さぬき市長尾西204-10",
    "lat": 34.2761677,
    "lng": 134.1760137,
    "tel": "0879-23-6571",
    "url": "http://www.sanuki-hyunet.com",
    "pref": "香川県",
    "city": "さぬき市",
    "category": "home_help",
    "serviceType": "訪問介護",
    "capacity": 70,
    "openDays": [
      "平日",
      "土曜日",
      "日曜日",
      "祝日"
    ],
    "openDaysNote": "24時間対応"
  },
  {
    "id": "3770600595",
    "name": "さくら・介護ステーションさぬき",
    "kana": "サクラ・カイゴステーションサヌキ",
    "address": "香川県さぬき市長尾西１０５３－２　２Ｆ",
    "lat": 34.2657969,
    "lng": 134.1693423,
    "tel": "0879-23-6533",
    "url": "http://www.sakurakaigo.co.jp/",
    "pref": "香川県",
    "city": "さぬき市",
    "category": "home_help",
    "serviceType": "訪問介護",
    "capacity": 0,
    "openDays": [
      "平日",
      "土曜日",
      "日曜日",
      "祝日"
    ],
    "openDaysNote": "原則２４時間対応としていますが、夜間早朝に関してはヘルパーが確保できないこともあります。"
  },
  {
    "id": "3770600777",
    "name": "さざんか荘訪問介護事業所",
    "kana": "サザンカソウホウモンカイゴジギョウショ",
    "address": "香川県さぬき市大川町田面３６０番地",
    "lat": 34.2532461,
    "lng": 134.2559539,
    "tel": "０８７９－４３－３２６６",
    "url": "http://www.o-kouiki.jp/sazankasou/",
    "pref": "香川県",
    "city": "さぬき市",
    "category": "home_help",
    "serviceType": "訪問介護",
    "capacity": 0,
    "openDays": [
      "平日",
      "土曜日",
      "日曜日",
      "祝日"
    ],
    "openDaysNote": ""
  },
  {
    "id": "3770600058",
    "name": "さぬき市社会福祉協議会福祉の里訪問介護事業所",
    "kana": "サヌキシシャカイフクシキョウギカイフクシノサトホウモンカイゴジギョウショ",
    "address": "さぬき市昭和１０５０－１",
    "lat": 34.2474632,
    "lng": 134.1669153,
    "tel": "0879-23-6202",
    "url": "https://sanukiーsyakyo.jp",
    "pref": "香川県",
    "city": "さぬき市",
    "category": "home_help",
    "serviceType": "訪問介護",
    "capacity": 30,
    "openDays": [
      "平日",
      "土曜日",
      "日曜日",
      "祝日"
    ],
    "openDaysNote": "定休日以外の利用については要相談"
  },
  {
    "id": "3770600363",
    "name": "サマリヤ大川ホームヘルプサービス",
    "kana": "サマリヤオオカワホームヘルプサービス",
    "address": "香川県さぬき市大川町田面1198",
    "lat": 34.2495412,
    "lng": 134.2639091,
    "tel": "0879-43-3191",
    "url": "http://www.samariya.or.jp",
    "pref": "香川県",
    "city": "さぬき市",
    "category": "home_help",
    "serviceType": "訪問介護",
    "capacity": 0,
    "openDays": [
      "平日",
      "土曜日",
      "日曜日",
      "祝日"
    ],
    "openDaysNote": "緊急時およびケアプラン上、必要と認められる場合はこの限りではない。"
  },
  {
    "id": "3771100231",
    "name": "さわやか荘訪問介護ステーション",
    "kana": "サワヤカソウホウモンカイゴステーション",
    "address": "香川県さぬき市津田町津田２２０７番地",
    "lat": 34.2944693,
    "lng": 134.2389743,
    "tel": "0879-42-1156",
    "url": "https:sawayakakaigo.or.jp/",
    "pref": "香川県",
    "city": "さぬき市",
    "category": "home_help",
    "serviceType": "訪問介護",
    "capacity": 60,
    "openDays": [
      "平日",
      "土曜日",
      "日曜日",
      "祝日"
    ],
    "openDaysNote": "-"
  },
  {
    "id": "3770600603",
    "name": "サンケア訪問介護センター",
    "kana": "サンケアホウモンカイゴセンター",
    "address": "香川県さぬき市寒川町石田西2296-5",
    "lat": 34.2588708896438,
    "lng": 134.192406939426,
    "tel": "0879-23-2378",
    "url": "http://sun-care.sub.jp",
    "pref": "香川県",
    "city": "さぬき市",
    "category": "home_help",
    "serviceType": "訪問介護",
    "capacity": 5,
    "openDays": [
      "平日",
      "土曜日",
      "日曜日",
      "祝日"
    ],
    "openDaysNote": "電話等により２４時間連絡が可能な体制とする。"
  },
  {
    "id": "3770601254",
    "name": "ニチイケアセンター志度",
    "kana": "ニチイケアセンターシド",
    "address": "香川県さぬき市志度905-1コーポ寺町1-1 コーポ寺町1-1",
    "lat": 34.3206205,
    "lng": 134.1780884,
    "tel": "087-894-3058",
    "url": "",
    "pref": "香川県",
    "city": "さぬき市",
    "category": "home_help",
    "serviceType": "訪問介護",
    "capacity": 0,
    "openDays": [
      "平日",
      "土曜日",
      "日曜日",
      "祝日"
    ],
    "openDaysNote": "早朝・夜間・深夜のサービスに関してはご相談に応じます。"
  },
  {
    "id": "3770600645",
    "name": "ニチイケアセンター長尾東",
    "kana": "ニチイケアセンターナガオヒガシ",
    "address": "香川県さぬき市長尾東1111番地１",
    "lat": 34.2651434665025,
    "lng": 134.182180606746,
    "tel": "0879-52-1680",
    "url": "",
    "pref": "香川県",
    "city": "さぬき市",
    "category": "home_help",
    "serviceType": "訪問介護",
    "capacity": 0,
    "openDays": [
      "平日",
      "土曜日",
      "日曜日",
      "祝日"
    ],
    "openDaysNote": "早朝・夜間・深夜のサービスに関してはご相談に応じます。"
  },
  {
    "id": "3770601312",
    "name": "ヘルパーステーション福笑",
    "kana": "ヘルパーステーションフクエ",
    "address": "香川県さぬき市長尾西205-10",
    "lat": 34.2763145,
    "lng": 134.1757319,
    "tel": "0879-22-1137",
    "url": "",
    "pref": "香川県",
    "city": "さぬき市",
    "category": "home_help",
    "serviceType": "訪問介護",
    "capacity": 0,
    "openDays": [
      "平日",
      "土曜日",
      "日曜日",
      "祝日"
    ],
    "openDaysNote": "原則２４時間対応としていますが、夜間早朝に関してはヘルパーが確保できないこともあります。"
  },
  {
    "id": "3770600199",
    "name": "介護サービス　オレンジハウス",
    "kana": "カイゴサービス　オレンジハウス",
    "address": "香川県さぬき市大川町富田中724",
    "lat": 34.2742659,
    "lng": 134.2379022,
    "tel": "0879-43-0753",
    "url": "",
    "pref": "香川県",
    "city": "さぬき市",
    "category": "home_help",
    "serviceType": "訪問介護",
    "capacity": 0,
    "openDays": [
      "平日",
      "土曜日",
      "日曜日",
      "祝日"
    ],
    "openDaysNote": "-"
  },
  {
    "id": "3761190028",
    "name": "介護支援サービスセンター　大川荘",
    "kana": "カイゴシエンサービスセンターオオカワソウ",
    "address": "香川県さぬき市津田町鶴羽2193番地1",
    "lat": 34.2776304920457,
    "lng": 134.278708864935,
    "tel": "0879-49-6780",
    "url": "https//www.okawaso.com/",
    "pref": "香川県",
    "city": "さぬき市",
    "category": "home_help",
    "serviceType": "訪問介護",
    "capacity": 2,
    "openDays": [
      "平日",
      "土曜日"
    ],
    "openDaysNote": "必要に応じて提供します。"
  },
  {
    "id": "3770600074",
    "name": "大川タクシーケアセンター",
    "kana": "オオカワタクシーケアセンター",
    "address": "香川県さぬき市寒川町石田東字地蔵385-13",
    "lat": 34.265273,
    "lng": 134.2019297,
    "tel": "0879-43-2227",
    "url": "",
    "pref": "香川県",
    "city": "さぬき市",
    "category": "home_help",
    "serviceType": "訪問介護",
    "capacity": null,
    "openDays": [
      "平日",
      "土曜日",
      "日曜日",
      "祝日"
    ],
    "openDaysNote": "-"
  },
  {
    "id": "3771100223",
    "name": "東明訪問介護センター",
    "kana": "トウメイホウモンカイゴセンター",
    "address": "香川県さぬき市大川町南川343番地２",
    "lat": 34.2481689,
    "lng": 134.2339417,
    "tel": "0879-43-2618",
    "url": "https://toumei-hotaru.com",
    "pref": "香川県",
    "city": "さぬき市",
    "category": "home_help",
    "serviceType": "訪問介護",
    "capacity": 0,
    "openDays": [
      "平日",
      "土曜日"
    ],
    "openDaysNote": "電話等により２４時間連絡が可能な体制とする。"
  },
  {
    "id": "3771100165",
    "name": "特別養護老人ホーム　香東園",
    "kana": "トクベツヨウゴロウジンホーム　コウトウエン",
    "address": "香川県さぬき市寒川町石田西680-1",
    "lat": 34.2867666,
    "lng": 134.208049,
    "tel": "0879-43-2557",
    "url": "http://www.koutouen.com/",
    "pref": "香川県",
    "city": "さぬき市",
    "category": "home_help",
    "serviceType": "訪問介護",
    "capacity": 27,
    "openDays": [
      "平日",
      "土曜日",
      "日曜日",
      "祝日"
    ],
    "openDaysNote": ""
  },
  {
    "id": "3770600231",
    "name": "訪問介護　こころ",
    "kana": "ホウモンカイゴ　ココロ",
    "address": "さぬき市大川町富田中398番地",
    "lat": 34.2740825,
    "lng": 134.2351662,
    "tel": "0879-43-2472",
    "url": "",
    "pref": "香川県",
    "city": "さぬき市",
    "category": "home_help",
    "serviceType": "訪問介護",
    "capacity": 0,
    "openDays": [
      "平日",
      "土曜日",
      "日曜日",
      "祝日"
    ],
    "openDaysNote": "利用を希望する本人（家族）からの申し込みを受け、契約を締結したのちサービスの提供を受けられる"
  },
  {
    "id": "3770600991",
    "name": "訪問介護　鴨部の家",
    "kana": "ホウモンカイゴ　カベノイエ",
    "address": "香川県さぬき市鴨部4781-1",
    "lat": 34.3133643,
    "lng": 134.2259807,
    "tel": "087-895-3105",
    "url": "",
    "pref": "香川県",
    "city": "さぬき市",
    "category": "home_help",
    "serviceType": "訪問介護",
    "capacity": 0,
    "openDays": [
      "平日"
    ],
    "openDaysNote": ""
  },
  {
    "id": "3770601304",
    "name": "訪問介護ステーション　志度の丘",
    "kana": "ホウモンカイゴステーション　シドノオカ",
    "address": "香川県さぬき市志度4625番地22",
    "lat": 34.3124767,
    "lng": 134.1881889,
    "tel": "087-802-9838",
    "url": "http://www.tomohiro-sk.jp",
    "pref": "香川県",
    "city": "さぬき市",
    "category": "home_help",
    "serviceType": "訪問介護",
    "capacity": null,
    "openDays": [
      "平日",
      "土曜日",
      "日曜日",
      "祝日"
    ],
    "openDaysNote": ""
  },
  {
    "id": "3770600785",
    "name": "訪問介護ステーションあいりす",
    "kana": "ホウモンカイゴステーションアイリス",
    "address": "香川県さぬき市造田是弘619-7",
    "lat": 34.2809511,
    "lng": 134.179905,
    "tel": "０８７９－５２－４６６３",
    "url": "https://kourakuen-iris.co.jp",
    "pref": "香川県",
    "city": "さぬき市",
    "category": "home_help",
    "serviceType": "訪問介護",
    "capacity": 0,
    "openDays": [
      "平日",
      "土曜日",
      "日曜日",
      "祝日"
    ],
    "openDaysNote": ""
  },
  {
    "id": "3770600439",
    "name": "訪問介護事業所　南",
    "kana": "ホウモンカイゴジギョウショミナミ",
    "address": "香川県さぬき市昭和３３１７番地",
    "lat": 34.2644248,
    "lng": 134.1670981,
    "tel": "0879-52-1737",
    "url": "",
    "pref": "香川県",
    "city": "さぬき市",
    "category": "home_help",
    "serviceType": "訪問介護",
    "capacity": 0,
    "openDays": [
      "平日",
      "土曜日",
      "日曜日",
      "祝日"
    ],
    "openDaysNote": "サービス提供時間、8時～18時、365日（改行）電話等により、24時間常時連絡が可能な体制とする。"
  },
  {
    "id": "3770601015",
    "name": "訪問介護事業所ゆかり",
    "kana": "ホウモンカイゴジギョウショユカリ",
    "address": "香川県さぬき市長尾東1029番地3ハートケアゆかり ハートケアゆかり",
    "lat": 34.2613502715424,
    "lng": 134.18074052209,
    "tel": "0879-24-9075",
    "url": "http://yukari214.jimdo.com/",
    "pref": "香川県",
    "city": "さぬき市",
    "category": "home_help",
    "serviceType": "訪問介護",
    "capacity": 0,
    "openDays": [
      "平日",
      "土曜日",
      "日曜日",
      "祝日"
    ],
    "openDaysNote": ""
  },
  {
    "id": "3770600140",
    "name": "有限会社　介護支援サービスセンター　御徳",
    "kana": "ユウゲンガイシャ　カイゴシエンサービスセンター　オトク",
    "address": "香川県さぬき市鴨部4469-3",
    "lat": 34.3088509,
    "lng": 134.2272778,
    "tel": "087-895-0733",
    "url": "",
    "pref": "香川県",
    "city": "さぬき市",
    "category": "home_help",
    "serviceType": "訪問介護",
    "capacity": 5,
    "openDays": [
      "平日",
      "土曜日",
      "日曜日",
      "祝日"
    ],
    "openDaysNote": "電話等により２４時間、常時連絡が可能なようにする。"
  },
  {
    "id": "3771600974",
    "name": "セントケアまんのう",
    "kana": "セントケアマンノウ",
    "address": "香川県仲多度郡まんのう町吉野下193番地2高橋ビル102号室 高橋ビル102号室",
    "lat": 34.1956808,
    "lng": 133.8385767,
    "tel": "0877-75-1088",
    "url": "",
    "pref": "香川県",
    "city": "まんのう町",
    "category": "home_help",
    "serviceType": "訪問介護",
    "capacity": 0,
    "openDays": [
      "平日",
      "土曜日",
      "日曜日",
      "祝日"
    ],
    "openDaysNote": "ケアプランに応じて24時間365日のサービス提供を行うものとする。"
  },
  {
    "id": "3771600685",
    "name": "まんのう町社会福祉協議会　訪問介護事業所",
    "kana": "マンノウチョウシャカイフクシキョウギカイホウモンカイゴジギョウショ",
    "address": "香川県仲多度郡まんのう町生間415番地1",
    "lat": 34.154925,
    "lng": 133.8375805,
    "tel": "0877-77-2997",
    "url": "https://www.manno-syakyo.jp/",
    "pref": "香川県",
    "city": "まんのう町",
    "category": "home_help",
    "serviceType": "訪問介護",
    "capacity": 0,
    "openDays": [
      "平日"
    ],
    "openDaysNote": "ただし、利用者の要望に応じて、営業日や営業時間外でも対応いたします。"
  },
  {
    "id": "3771500539",
    "name": "だいとう",
    "kana": "ダイトウ",
    "address": "香川県綾歌郡綾川町畑田６９６番地１３",
    "lat": 34.263001,
    "lng": 133.9788304,
    "tel": "087-877-2611",
    "url": "http://www.daitoh‐taxi.co.jp/",
    "pref": "香川県",
    "city": "綾川町",
    "category": "home_help",
    "serviceType": "訪問介護",
    "capacity": 40,
    "openDays": [
      "平日",
      "土曜日"
    ],
    "openDaysNote": "特になし"
  },
  {
    "id": "3771501024",
    "name": "リラックス　ケアステーション",
    "kana": "リラックス　ケアステーション",
    "address": "香川県綾歌郡綾川町滝宮1639-1",
    "lat": 34.2523213,
    "lng": 133.9156523,
    "tel": "087-876-6757",
    "url": "",
    "pref": "香川県",
    "city": "綾川町",
    "category": "home_help",
    "serviceType": "訪問介護",
    "capacity": 25,
    "openDays": [
      "平日",
      "土曜日",
      "日曜日",
      "祝日"
    ],
    "openDaysNote": "-相談に応じます"
  },
  {
    "id": "3771500927",
    "name": "綾川町社会福祉協議会訪問介護事業所",
    "kana": "アヤガワチョウシャカイフクシキョウギカイホウモンカイゴジギョウショ",
    "address": "香川県綾歌郡綾川町滝宮276番地",
    "lat": 34.2499604,
    "lng": 133.9210243,
    "tel": "087-876-4221",
    "url": "http://www.ayagawa-shakyo.or.jp/",
    "pref": "香川県",
    "city": "綾川町",
    "category": "home_help",
    "serviceType": "訪問介護",
    "capacity": 0,
    "openDays": [
      "平日",
      "土曜日",
      "祝日"
    ],
    "openDaysNote": "サービス提供時間外についてはケアプランに応じての対応のためこの限りではない。"
  },
  {
    "id": "3771500778",
    "name": "楽々苑訪問介護事業所",
    "kana": "ラクラクエンホウモンカイゴジギョウショ",
    "address": "香川県綾歌郡綾川町滝宮380番地",
    "lat": 34.2489931198689,
    "lng": 133.92500048532,
    "tel": "087-816-7778",
    "url": "https://rakurakuen-kagawa.or.jp/",
    "pref": "香川県",
    "city": "綾川町",
    "category": "home_help",
    "serviceType": "訪問介護",
    "capacity": 0,
    "openDays": [
      "平日",
      "土曜日",
      "日曜日",
      "祝日"
    ],
    "openDaysNote": "利用者さんの希望があり、必要であると介護支援専門員が認めた場合は、サービスを提供する。（但し、土曜・日曜・祝日については、当事業所のヘルパーが対応可能な場合に限る）"
  },
  {
    "id": "3770300444",
    "name": "訪問介護サービスひな菊",
    "kana": "ホウモンカイゴサービスヒナギク",
    "address": "綾歌郡綾川町小野甲247-5",
    "lat": 34.2446584,
    "lng": 133.9074255,
    "tel": "087-876-3327",
    "url": "http://wick-hinagiku.com/hana/",
    "pref": "香川県",
    "city": "綾川町",
    "category": "home_help",
    "serviceType": "訪問介護",
    "capacity": 0,
    "openDays": [
      "平日",
      "土曜日",
      "日曜日",
      "祝日"
    ],
    "openDaysNote": "-"
  },
  {
    "id": "3770104994",
    "name": "明日に架ける橋",
    "kana": "アスニカケルハシ",
    "address": "香川県綾歌郡綾川町陶５７７９番地1",
    "lat": 34.2520078,
    "lng": 133.9476277,
    "tel": "087-876-6025",
    "url": "http://tatara-net.com/",
    "pref": "香川県",
    "city": "綾川町",
    "category": "home_help",
    "serviceType": "訪問介護",
    "capacity": 30,
    "openDays": [
      "平日"
    ],
    "openDaysNote": "そのほかの時間帯についても出来るだけの対応を行っている"
  },
  {
    "id": "3770400780",
    "name": "ココイキ福祉サービス",
    "kana": "ココイキフクシサービス",
    "address": "香川県綾歌郡宇多津町浜６番丁８９－２",
    "lat": 34.3069389,
    "lng": 133.8174112,
    "tel": "9097759189",
    "url": "",
    "pref": "香川県",
    "city": "宇多津町",
    "category": "home_help",
    "serviceType": "訪問介護",
    "capacity": 0,
    "openDays": [
      "平日"
    ],
    "openDaysNote": "必要によってはその限りではない。"
  },
  {
    "id": "3771501065",
    "name": "にこぐさ訪問介護事業所",
    "kana": "ニコグサホウモンカイゴジギョウショ",
    "address": "香川県綾歌郡宇多津町985番地3",
    "lat": 34.3076146091193,
    "lng": 133.832319143777,
    "tel": "0877-49-2593",
    "url": "",
    "pref": "香川県",
    "city": "宇多津町",
    "category": "home_help",
    "serviceType": "訪問介護",
    "capacity": 0,
    "openDays": [
      "平日"
    ],
    "openDaysNote": "時間外、定休日も相談に応じます。"
  },
  {
    "id": "3770300188",
    "name": "ニチイケアセンター　うたづ",
    "kana": "ニチイケアセンター　ウタズ",
    "address": "香川県綾歌郡宇多津町大字東分1661-1",
    "lat": 34.2931002,
    "lng": 133.8375572,
    "tel": "0877-41-9160",
    "url": "www.nichiigakkan.co.jp",
    "pref": "香川県",
    "city": "宇多津町",
    "category": "home_help",
    "serviceType": "訪問介護",
    "capacity": 0,
    "openDays": [
      "平日",
      "土曜日",
      "日曜日",
      "祝日"
    ],
    "openDaysNote": "夜間・深夜・早朝に関しては相談に応じます。"
  },
  {
    "id": "3771500174",
    "name": "宇多津町指定訪問介護事業所",
    "kana": "ウタヅチョウシテイホウモンカイゴジギョウショ",
    "address": "香川県綾歌郡宇多津町１９００番地あみのうら交流センター あみのうら交流センター",
    "lat": 34.309154,
    "lng": 133.824768,
    "tel": "0877-49-0287",
    "url": "http//www.utazusyakyou.org/",
    "pref": "香川県",
    "city": "宇多津町",
    "category": "home_help",
    "serviceType": "訪問介護",
    "capacity": 0,
    "openDays": [
      "平日"
    ],
    "openDaysNote": "営業日及び営業時間については、利用者の状況により変更できる。（改行）電話等により、営業日以外の日においても連絡可能な体制としている。"
  },
  {
    "id": "3771500893",
    "name": "訪問介護センターいこい",
    "kana": "ホウモンカイゴセンターイコイ",
    "address": "香川県綾歌郡宇多津町浜五番丁６６－３",
    "lat": 34.3039711,
    "lng": 133.8113202,
    "tel": "0877-49-6313",
    "url": "http://vice-utz.com/",
    "pref": "香川県",
    "city": "宇多津町",
    "category": "home_help",
    "serviceType": "訪問介護",
    "capacity": 0,
    "openDays": [
      "平日",
      "土曜日"
    ],
    "openDaysNote": "居宅介護計画作成に伴い利用の要望がある場合及び緊急時は必要に応じて対応する。"
  },
  {
    "id": "3770500522",
    "name": "セントケア観音寺",
    "kana": "セントケアカンオンジ",
    "address": "香川県観音寺市本大町1473-3",
    "lat": 34.133695311445,
    "lng": 133.697481773297,
    "tel": "0875-57-5910",
    "url": "http:/www.saint-care.com",
    "pref": "香川県",
    "city": "観音寺市",
    "category": "home_help",
    "serviceType": "訪問介護",
    "capacity": 0,
    "openDays": [
      "平日",
      "土曜日",
      "日曜日",
      "祝日"
    ],
    "openDaysNote": "ケアプランに基づいて２４時間・365日サービス提供を行う。"
  },
  {
    "id": "3770500050",
    "name": "ニチイケアセンター観音寺",
    "kana": "ニチイケアセンター　カンオンジ",
    "address": "香川県観音寺市植田町155-1テナントサツキ1-103 テナントサツキ1-103",
    "lat": 34.12445,
    "lng": 133.6833349,
    "tel": "0875-57-5380",
    "url": "",
    "pref": "香川県",
    "city": "観音寺市",
    "category": "home_help",
    "serviceType": "訪問介護",
    "capacity": 0,
    "openDays": [
      "平日",
      "土曜日",
      "日曜日",
      "祝日"
    ],
    "openDaysNote": "夜間、深夜、早朝に関しては相談に応じます。"
  },
  {
    "id": "3770500662",
    "name": "ヘルパーステーション　はあとおん・すまいる",
    "kana": "ヘルパーステーション　ハアトオン　スマイル",
    "address": "香川県観音寺市植田町1463番地サービス付き高齢者向け住宅うるわしの里はあとおん サービス付き高齢者向け住宅うるわしの里はあとおん",
    "lat": 34.1242006095076,
    "lng": 133.671403342328,
    "tel": "0875-24-8588",
    "url": "http://www.mig-hearton.com",
    "pref": "香川県",
    "city": "観音寺市",
    "category": "home_help",
    "serviceType": "訪問介護",
    "capacity": 0,
    "openDays": [
      "平日"
    ],
    "openDaysNote": ""
  },
  {
    "id": "3770500803",
    "name": "ヘルパーステーション笑歩会豊浜",
    "kana": "ヘルパーステーションショウホカイトヨハマ",
    "address": "香川県観音寺市豊浜町姫浜101-2",
    "lat": 34.0838967745985,
    "lng": 133.639578367459,
    "tel": "0875-52-1080",
    "url": "http://shouhokai.jp/",
    "pref": "香川県",
    "city": "観音寺市",
    "category": "home_help",
    "serviceType": "訪問介護",
    "capacity": 0,
    "openDays": [
      "平日",
      "土曜日",
      "日曜日",
      "祝日"
    ],
    "openDaysNote": ""
  },
  {
    "id": "3770500472",
    "name": "社会福祉法人　観音寺市社会福祉協議会",
    "kana": "シャカイフクシホウジン　カンオンジシシャカイフクシキョウギカイ",
    "address": "香川県観音寺市坂本町一丁目１番６号観音寺市社会福祉センター 観音寺市社会福祉センター",
    "lat": 34.1276437,
    "lng": 133.6619305,
    "tel": "0875-57-6016",
    "url": "htto://www.kansyakyo-egao.jp",
    "pref": "香川県",
    "city": "観音寺市",
    "category": "home_help",
    "serviceType": "訪問介護",
    "capacity": 0,
    "openDays": [
      "平日",
      "土曜日",
      "日曜日",
      "祝日"
    ],
    "openDaysNote": "基本的には毎日利用可（但し、天災等業務が遂行できない日を除く）"
  },
  {
    "id": "3770500761",
    "name": "社会福祉法人ラーフ居宅訪問介護部",
    "kana": "シャカイフクシホウジンラーフキョタクホウモンカイゴブ",
    "address": "香川県観音寺市古川町９７番地２障害福祉サービス事業所やまもも 障害福祉サービス事業所やまもも",
    "lat": 34.1286634,
    "lng": 133.6980891,
    "tel": "0875-24-0999",
    "url": "http://www.shafuku-laugh.com/",
    "pref": "香川県",
    "city": "観音寺市",
    "category": "home_help",
    "serviceType": "訪問介護",
    "capacity": 0,
    "openDays": [
      "平日",
      "土曜日",
      "日曜日",
      "祝日"
    ],
    "openDaysNote": "夜間、早朝のサービスについては要相談"
  },
  {
    "id": "3770500894",
    "name": "特定非営利活動法人はるかぜ居宅訪問介護部",
    "kana": "トクテイヒエイリカツドウホウジンハルカゼキョタクホウモンカイゴブ",
    "address": "香川県観音寺市原町１２０８番地１",
    "lat": 34.1057808,
    "lng": 133.6978606,
    "tel": "０８７５－５７－１８６５",
    "url": "https://npoharukaze.com/",
    "pref": "香川県",
    "city": "観音寺市",
    "category": "home_help",
    "serviceType": "訪問介護",
    "capacity": 0,
    "openDays": [
      "平日",
      "土曜日",
      "日曜日",
      "祝日"
    ],
    "openDaysNote": "必要に応じ２４時間対応可能です。ただし当法人スタッフが対応できる場合に限ります。"
  },
  {
    "id": "3770200156",
    "name": "（有）ケア・サービス丸亀指定訪問介護事業所",
    "kana": "ユウゲンガイシャケアサービスマルガメシテイホウモンカイゴジギョウショ",
    "address": "香川県丸亀市中府町2丁目4-30",
    "lat": 34.2807961,
    "lng": 133.794159,
    "tel": "0877-24-3527",
    "url": "http://care-net.biz/37/care-marugame/",
    "pref": "香川県",
    "city": "丸亀市",
    "category": "home_help",
    "serviceType": "訪問介護",
    "capacity": 0,
    "openDays": [
      "平日",
      "土曜日",
      "日曜日",
      "祝日"
    ],
    "openDaysNote": "特になし"
  },
  {
    "id": "3770202012",
    "name": "Ｌｉｆｅｰエイド",
    "kana": "ライフエイド",
    "address": "香川県丸亀市川西町北2102-1",
    "lat": 34.2642488843684,
    "lng": 133.823439478539,
    "tel": "0877-83-3232",
    "url": "",
    "pref": "香川県",
    "city": "丸亀市",
    "category": "home_help",
    "serviceType": "訪問介護",
    "capacity": null,
    "openDays": [
      "平日",
      "土曜日",
      "日曜日",
      "祝日"
    ],
    "openDaysNote": "電話等により２４時間常時連絡が可能な体制とする。"
  },
  {
    "id": "3770400632",
    "name": "あい・あーるケアセンター",
    "kana": "アイ・アールケアセンター",
    "address": "飯山町西坂元1110-1",
    "lat": 34.2470329,
    "lng": 133.7698728,
    "tel": "0877-85-7412",
    "url": "http://hp.kaipoke.biz/a2s/",
    "pref": "香川県",
    "city": "丸亀市",
    "category": "home_help",
    "serviceType": "訪問介護",
    "capacity": 0,
    "openDays": [
      "平日",
      "土曜日",
      "祝日"
    ],
    "openDaysNote": "年末年始は応相談"
  },
  {
    "id": "3770201618",
    "name": "アイファミリークリニック訪問介護事業所",
    "kana": "アイファミリークリニックホウモンカイゴジギョウショ",
    "address": "香川県丸亀市川西町826",
    "lat": 34.2440033,
    "lng": 133.8322867,
    "tel": "0877-28-1333",
    "url": "",
    "pref": "香川県",
    "city": "丸亀市",
    "category": "home_help",
    "serviceType": "訪問介護",
    "capacity": null,
    "openDays": [
      "平日",
      "土曜日",
      "日曜日",
      "祝日"
    ],
    "openDaysNote": ""
  },
  {
    "id": "3770201261",
    "name": "インクルージョンホーム丸亀訪問介護事業所",
    "kana": "インクルージョンホームマルガメホウモンカイゴジギョウショ",
    "address": "丸亀市中津町1467-1",
    "lat": 34.2809239,
    "lng": 133.7741153,
    "tel": "0877-23-3808",
    "url": "",
    "pref": "香川県",
    "city": "丸亀市",
    "category": "home_help",
    "serviceType": "訪問介護",
    "capacity": null,
    "openDays": [
      "平日",
      "土曜日"
    ],
    "openDaysNote": ""
  },
  {
    "id": "3770200420",
    "name": "ウォ－ム・ハ－ト・ブリュ－介護センタ－",
    "kana": "ウォ－ム・ハ－ト・ブリュ－カイゴセンタ－",
    "address": "香川県丸亀市土器町東ハ丁目70番地",
    "lat": 34.294955,
    "lng": 133.806721,
    "tel": "0877-24-4848",
    "url": "buryu@proof.ocn.ne.jp",
    "pref": "香川県",
    "city": "丸亀市",
    "category": "home_help",
    "serviceType": "訪問介護",
    "capacity": 0,
    "openDays": [
      "平日"
    ],
    "openDaysNote": "24時間営業"
  },
  {
    "id": "3770200917",
    "name": "ケアセンターしん",
    "kana": "ケアセンターシン",
    "address": "香川県丸亀市原田町2279-5香川ビル２０２号 香川ビル２０２号",
    "lat": 34.261804,
    "lng": 133.7910431,
    "tel": "0877-43-5025",
    "url": "",
    "pref": "香川県",
    "city": "丸亀市",
    "category": "home_help",
    "serviceType": "訪問介護",
    "capacity": 5,
    "openDays": [
      "平日"
    ],
    "openDaysNote": "時間外は、相談に応じます。"
  },
  {
    "id": "3770200321",
    "name": "シャロームヘルパー事業所",
    "kana": "シャロームヘルパージギョウショ",
    "address": "丸亀市垂水町１６－５０",
    "lat": 34.2212752,
    "lng": 133.8362761,
    "tel": "0877-28-1303",
    "url": "",
    "pref": "香川県",
    "city": "丸亀市",
    "category": "home_help",
    "serviceType": "訪問介護",
    "capacity": 0,
    "openDays": [
      "平日",
      "土曜日",
      "日曜日",
      "祝日"
    ],
    "openDaysNote": "-"
  },
  {
    "id": "3770200982",
    "name": "セントケア丸亀",
    "kana": "セントケアマルガメ",
    "address": "香川県丸亀市土器町東7丁目457",
    "lat": 34.2954833,
    "lng": 133.8121176,
    "tel": "0877-23-1013",
    "url": "http://www.saint-care.com",
    "pref": "香川県",
    "city": "丸亀市",
    "category": "home_help",
    "serviceType": "訪問介護",
    "capacity": 0,
    "openDays": [
      "平日",
      "土曜日",
      "日曜日",
      "祝日"
    ],
    "openDaysNote": "ケアプランに応じて24時間365日のサービス提供をおこなうものとする。"
  },
  {
    "id": "3770201303",
    "name": "つどい介護サービス",
    "kana": "ツドイカイゴサービス",
    "address": "香川県丸亀市西平山町110番地1カーサ・くろせ101号 カーサ・くろせ101号",
    "lat": 34.2935474,
    "lng": 133.7950613,
    "tel": "0877-85-6588",
    "url": "",
    "pref": "香川県",
    "city": "丸亀市",
    "category": "home_help",
    "serviceType": "訪問介護",
    "capacity": 0,
    "openDays": [
      "平日",
      "土曜日",
      "日曜日",
      "祝日"
    ],
    "openDaysNote": "8/13～8/15　12/30～1/3を除く。（改行）電話等により24時間常時連絡が可能な体制とする。（改行）営業時間は、利用者の要望により変則する場合がある。"
  },
  {
    "id": "3770201691",
    "name": "なでしこ垂水訪問介護事業部",
    "kana": "ナデシコタルミホウモンカイゴジギョウブ",
    "address": "香川県丸亀市新田町233番地5",
    "lat": 34.2737081,
    "lng": 133.7897431,
    "tel": "0877-24-0267",
    "url": "https://care-nadeshiko.jp/",
    "pref": "香川県",
    "city": "丸亀市",
    "category": "home_help",
    "serviceType": "訪問介護",
    "capacity": 36,
    "openDays": [
      "平日",
      "土曜日",
      "日曜日",
      "祝日"
    ],
    "openDaysNote": "サービス利用時間外であっても居宅サービス計画に基づきサービスを提供する場合がある。"
  },
  {
    "id": "3770200230",
    "name": "ニチイケアセンター丸亀",
    "kana": "ニチイケアセンターマルガメ",
    "address": "香川県　丸亀市　中津町75番１",
    "lat": 34.2838482,
    "lng": 133.7676448,
    "tel": "0877-58-0725",
    "url": "http//www.nitiigakkann.co.jp",
    "pref": "香川県",
    "city": "丸亀市",
    "category": "home_help",
    "serviceType": "訪問介護",
    "capacity": 0,
    "openDays": [
      "平日"
    ],
    "openDaysNote": "夜間・深夜・早朝に関しては相談に応じます。"
  },
  {
    "id": "3770201394",
    "name": "ニチイケアセンター飯山",
    "kana": "ニチイケアセンターハンザン",
    "address": "丸亀市飯山町上法軍寺922-1",
    "lat": 34.2479973,
    "lng": 133.8593154,
    "tel": "0877-56-8581",
    "url": "株式会社　ニチイ学館公式ＨＰへ",
    "pref": "香川県",
    "city": "丸亀市",
    "category": "home_help",
    "serviceType": "訪問介護",
    "capacity": 0,
    "openDays": [
      "平日",
      "土曜日",
      "日曜日",
      "祝日"
    ],
    "openDaysNote": "早朝・夜間・深夜のサービスに関してはご相談に応じます。"
  },
  {
    "id": "3770201931",
    "name": "ひかり",
    "kana": "ヒカリ",
    "address": "香川県丸亀市綾歌町岡田下３５３番地1",
    "lat": 34.2226491,
    "lng": 133.8616316,
    "tel": "0877-86-3007",
    "url": "",
    "pref": "香川県",
    "city": "丸亀市",
    "category": "home_help",
    "serviceType": "訪問介護",
    "capacity": 0,
    "openDays": [
      "平日"
    ],
    "openDaysNote": ""
  },
  {
    "id": "3770201741",
    "name": "ベストパートナーズ",
    "kana": "ベストパートナーズ",
    "address": "飯山町川原724ｰ1ヴィラビアンカ102号 ヴィラビアンカ102号",
    "lat": 34.2624602,
    "lng": 133.8557351,
    "tel": "0877ｰ85ｰ6137",
    "url": "",
    "pref": "香川県",
    "city": "丸亀市",
    "category": "home_help",
    "serviceType": "訪問介護",
    "capacity": 10,
    "openDays": [
      "平日",
      "土曜日",
      "日曜日",
      "祝日"
    ],
    "openDaysNote": "緊急の場合は上記以外ではございません。"
  },
  {
    "id": "3770201873",
    "name": "ヘルパーステーションリアン",
    "kana": "ヘルパーステーション　リアン",
    "address": "香川県丸亀市今津町19番地1医療法人社団宝樹みやの会人口透析センター宮野病院4F 医療法人社団宝樹みやの会人口透析センター宮野病院4F",
    "lat": 34.2795066,
    "lng": 133.7848655,
    "tel": "0877-22-3179",
    "url": "http://www.miyano-hp.com/",
    "pref": "香川県",
    "city": "丸亀市",
    "category": "home_help",
    "serviceType": "訪問介護",
    "capacity": null,
    "openDays": [
      "平日",
      "土曜日",
      "日曜日",
      "祝日"
    ],
    "openDaysNote": ""
  },
  {
    "id": "3771501313",
    "name": "まるい亀さん",
    "kana": "マルイカメサン",
    "address": "香川県丸亀市福島町111番地",
    "lat": 34.2929444,
    "lng": 133.7931117,
    "tel": "0877-89-2733",
    "url": "https://maruikamesan.jp",
    "pref": "香川県",
    "city": "丸亀市",
    "category": "home_help",
    "serviceType": "訪問介護",
    "capacity": 0,
    "openDays": [
      "平日",
      "土曜日",
      "祝日"
    ],
    "openDaysNote": ""
  },
  {
    "id": "3771500737",
    "name": "ワンハート介護サービスセンター",
    "kana": "ワンハートカイゴサービスセンター",
    "address": "香川県丸亀市飯山町西坂元1206番地69",
    "lat": 34.2579044,
    "lng": 133.8367666,
    "tel": "0877-98-0121",
    "url": "https://sites.google.com/view/oneheart-kaigo/",
    "pref": "香川県",
    "city": "丸亀市",
    "category": "home_help",
    "serviceType": "訪問介護",
    "capacity": 0,
    "openDays": [
      "平日",
      "土曜日"
    ],
    "openDaysNote": "利用者のご希望により対応。"
  },
  {
    "id": "3770200677",
    "name": "丸亀市社会福祉協議会",
    "kana": "マルガメシシャカイフクシキョウギカイ",
    "address": "丸亀市飯山町下法軍寺581番地1丸亀市飯山総合保健福祉センター 丸亀市飯山総合保健福祉センター",
    "lat": 34.2589126,
    "lng": 133.8584791,
    "tel": "0877-98-4141",
    "url": "http://www.marugame-shakyo.ne.jp/",
    "pref": "香川県",
    "city": "丸亀市",
    "category": "home_help",
    "serviceType": "訪問介護",
    "capacity": 240,
    "openDays": [
      "平日",
      "土曜日",
      "日曜日"
    ],
    "openDaysNote": "営業時間以外については、祝日も含めて可能な限り相談に応じる体制とします。（改行）平常の時間帯に対して、早朝（午前6時から午前8時）又は夜間（午後6時から午後10時）にサービスを行う場合には、25％の割増料金となります。"
  },
  {
    "id": "3770201808",
    "name": "京極の里",
    "kana": "キョウゴクノサト",
    "address": "丸亀市田村町1286番地1",
    "lat": 34.2662396,
    "lng": 133.7944329,
    "tel": "877252666",
    "url": "",
    "pref": "香川県",
    "city": "丸亀市",
    "category": "home_help",
    "serviceType": "訪問介護",
    "capacity": null,
    "openDays": [
      "平日"
    ],
    "openDaysNote": "土曜・日曜・祝日（改行）8/13～8/15　12/29～1/3休業日"
  },
  {
    "id": "3770200552",
    "name": "天宝苑ヘルパーステーション",
    "kana": "テンポウエンヘルパーステーション",
    "address": "香川県丸亀市宗古町１６番地",
    "lat": 34.2927391,
    "lng": 133.7956835,
    "tel": "0877-22-5522",
    "url": "tenpouen.jinjukai@gmail.com",
    "pref": "香川県",
    "city": "丸亀市",
    "category": "home_help",
    "serviceType": "訪問介護",
    "capacity": 0,
    "openDays": [
      "平日",
      "土曜日",
      "祝日"
    ],
    "openDaysNote": "-"
  },
  {
    "id": "3770200347",
    "name": "東讃交通株式会社丸亀営業所　ひまわり介護サービス",
    "kana": "トウサンコウツウカブシキカイシャマルガメエイギョウショヒマワリカイゴサービス",
    "address": "香川県丸亀市土器町北二丁目105-2",
    "lat": 34.3073402,
    "lng": 133.8011824,
    "tel": "0877-58-4066",
    "url": "hppp://www.tousan-kotsu.co.jp",
    "pref": "香川県",
    "city": "丸亀市",
    "category": "home_help",
    "serviceType": "訪問介護",
    "capacity": null,
    "openDays": [
      "平日",
      "土曜日",
      "日曜日",
      "祝日"
    ],
    "openDaysNote": "２４時間対応（改行）計画（ケアプラン）に基づいた対応"
  },
  {
    "id": "3770201196",
    "name": "訪問介護　ケア・ステーション",
    "kana": "ホウモンカイゴ　ケア・ステーション",
    "address": "丸亀市土器町西4丁目244",
    "lat": 34.2827455617309,
    "lng": 133.81492225582,
    "tel": "0877-85-6286",
    "url": "http：//www.kaigostation.com/",
    "pref": "香川県",
    "city": "丸亀市",
    "category": "home_help",
    "serviceType": "訪問介護",
    "capacity": 0,
    "openDays": [],
    "openDaysNote": "-"
  },
  {
    "id": "3770201014",
    "name": "訪問介護ステーション　パルマ",
    "kana": "ホウモンカイゴステーションパルマ",
    "address": "丸亀市幸町1丁目4－10",
    "lat": 34.2872112738191,
    "lng": 133.789544284738,
    "tel": "0877-43-2535",
    "url": "http//www.tamura-clin.com/",
    "pref": "香川県",
    "city": "丸亀市",
    "category": "home_help",
    "serviceType": "訪問介護",
    "capacity": 0,
    "openDays": [
      "平日",
      "土曜日",
      "日曜日",
      "祝日"
    ],
    "openDaysNote": "サービス提供時間は、事前に居宅介護支援事業所等により計画された居宅サービス計画に基づくものとし、緊急のサービスの依頼はケアマネを通してお受けすることもあります。"
  },
  {
    "id": "3770202046",
    "name": "訪問介護事業所よもぎ",
    "kana": "ホウモンカイゴジギョウショヨモギ",
    "address": "香川県丸亀市飯山町下法軍寺536番地1",
    "lat": 34.2569424724002,
    "lng": 133.856983767152,
    "tel": "0877-85-7166",
    "url": "https://yomogiweb.jimdofree.com/",
    "pref": "香川県",
    "city": "丸亀市",
    "category": "home_help",
    "serviceType": "訪問介護",
    "capacity": 0,
    "openDays": [
      "平日",
      "土曜日",
      "日曜日",
      "祝日"
    ],
    "openDaysNote": ""
  },
  {
    "id": "3770201980",
    "name": "訪問介護笑結",
    "kana": "ホウモンカイゴワラムスビ",
    "address": "香川県丸亀市三条町1536番地5",
    "lat": 34.2601513,
    "lng": 133.8003181,
    "tel": "0877-25-5882",
    "url": "",
    "pref": "香川県",
    "city": "丸亀市",
    "category": "home_help",
    "serviceType": "訪問介護",
    "capacity": 0,
    "openDays": [
      "平日",
      "土曜日",
      "日曜日",
      "祝日"
    ],
    "openDaysNote": ""
  },
  {
    "id": "3770200438",
    "name": "有限会社介護支援サークル・アニメイト",
    "kana": "ユウゲンガイシャカイゴシエンサークル・アニメイト",
    "address": "香川県丸亀市今津町739－6",
    "lat": 34.282718,
    "lng": 133.7831212,
    "tel": "0877-24-6301",
    "url": "",
    "pref": "香川県",
    "city": "丸亀市",
    "category": "home_help",
    "serviceType": "訪問介護",
    "capacity": 0,
    "openDays": [
      "平日",
      "土曜日",
      "祝日"
    ],
    "openDaysNote": "規定以外の訪問に関しては相談に応じる。"
  },
  {
    "id": "3771600768",
    "name": "琴平老人の家指定訪問介護事業所",
    "kana": "コトヒラロウジンノイエ　シテイホウモンカイゴジギョウショ",
    "address": "香川県仲多度郡琴平町榎井572番地1",
    "lat": 34.1954245227867,
    "lng": 133.821853354214,
    "tel": "0877-75-4071",
    "url": "kotorou@arion.ocn.ne.jp",
    "pref": "香川県",
    "city": "琴平町",
    "category": "home_help",
    "serviceType": "訪問介護",
    "capacity": 0,
    "openDays": [
      "平日",
      "土曜日",
      "日曜日",
      "祝日"
    ],
    "openDaysNote": "-"
  },
  {
    "id": "3771601246",
    "name": "指定訪問介護事業所　千手ケア",
    "kana": "シテイホウモンカイゴ",
    "address": "香川県仲多度郡琴平町榎井104-1",
    "lat": 34.1920634,
    "lng": 133.830107,
    "tel": "0877-85-6386",
    "url": "http://hp:kaipoke.biz/3t6/",
    "pref": "香川県",
    "city": "琴平町",
    "category": "home_help",
    "serviceType": "訪問介護",
    "capacity": 0,
    "openDays": [
      "平日",
      "土曜日"
    ],
    "openDaysNote": "電話等により24時間常時連絡が可能な体制とする"
  },
  {
    "id": "3771600115",
    "name": "社会福祉法人　琴平町社会福祉協議会",
    "kana": "シャカイフクシホウジンコトヒラチョウシャカイフクシキョウギカイ",
    "address": "香川県仲多度郡琴平町榎井891番地１",
    "lat": 34.1920752,
    "lng": 133.8221611,
    "tel": "0877-75-1371",
    "url": "http//www.k-wel.or.jp",
    "pref": "香川県",
    "city": "琴平町",
    "category": "home_help",
    "serviceType": "訪問介護",
    "capacity": 0,
    "openDays": [
      "平日",
      "土曜日",
      "日曜日",
      "祝日"
    ],
    "openDaysNote": ""
  },
  {
    "id": "3770100018",
    "name": "（株）ケアサービス長谷川",
    "kana": "（カブ）ケアサービスハセガワ",
    "address": "高松市築地町8-17",
    "lat": 34.3419185299068,
    "lng": 134.058026046627,
    "tel": "087-851-2916",
    "url": "https://careservice-hasegawa.jp",
    "pref": "香川県",
    "city": "高松市",
    "category": "home_help",
    "serviceType": "訪問介護",
    "capacity": 0,
    "openDays": [
      "平日",
      "土曜日",
      "日曜日",
      "祝日"
    ],
    "openDaysNote": "23時以降も応相談。24時間連絡可能。"
  },
  {
    "id": "3770109928",
    "name": "IMC下田井　訪問介護ステーション",
    "kana": "アイエムシシモタイホウモンカイゴステーション",
    "address": "香川県高松市下田井町80番地1",
    "lat": 34.2979592,
    "lng": 134.0910216,
    "tel": "087-813-2851",
    "url": "https://imc-ls.com/",
    "pref": "香川県",
    "city": "高松市",
    "category": "home_help",
    "serviceType": "訪問介護",
    "capacity": 0,
    "openDays": [
      "平日",
      "土曜日",
      "日曜日",
      "祝日"
    ],
    "openDaysNote": ""
  },
  {
    "id": "3770109902",
    "name": "IMC訪問介護ステーション",
    "kana": "アイエムシーホウモンカイゴステーション",
    "address": "香川県高松市三名町469番地1ガーデンハイツ三名　一番館105 ガーデンハイツ三名　一番館105",
    "lat": 34.2905124,
    "lng": 134.0392129,
    "tel": "090-5146-1334",
    "url": "",
    "pref": "香川県",
    "city": "高松市",
    "category": "home_help",
    "serviceType": "訪問介護",
    "capacity": 0,
    "openDays": [
      "平日",
      "土曜日",
      "日曜日",
      "祝日"
    ],
    "openDaysNote": ""
  },
  {
    "id": "3770101958",
    "name": "あい介護サービス",
    "kana": "アイカイゴサービス",
    "address": "香川県高松市香南町横井952-1",
    "lat": 34.2407524949161,
    "lng": 134.005673213361,
    "tel": "087-885-8088",
    "url": "http://www.i-groups.co.jp/",
    "pref": "香川県",
    "city": "高松市",
    "category": "home_help",
    "serviceType": "訪問介護",
    "capacity": 150,
    "openDays": [
      "平日",
      "土曜日",
      "日曜日",
      "祝日"
    ],
    "openDaysNote": "-"
  },
  {
    "id": "3770102634",
    "name": "あおい介護サービス",
    "kana": "アオイカイゴサービス",
    "address": "香川県高松多肥下町1504-10",
    "lat": 34.3054053622415,
    "lng": 134.056971926298,
    "tel": "087-813-8730",
    "url": "",
    "pref": "香川県",
    "city": "高松市",
    "category": "home_help",
    "serviceType": "訪問介護",
    "capacity": 0,
    "openDays": [
      "平日",
      "土曜日",
      "日曜日",
      "祝日"
    ],
    "openDaysNote": "早朝・夜間・深夜も対応いたします。ご相談下さい。"
  },
  {
    "id": "3770104531",
    "name": "あさひ介護サービス",
    "kana": "アサヒカイゴサービス",
    "address": "香川県高松市一宮町338-5",
    "lat": 34.2837241,
    "lng": 134.0278694,
    "tel": "087-886-7162",
    "url": "",
    "pref": "香川県",
    "city": "高松市",
    "category": "home_help",
    "serviceType": "訪問介護",
    "capacity": null,
    "openDays": [],
    "openDaysNote": "24時間対応"
  },
  {
    "id": "3770106452",
    "name": "あざみ",
    "kana": "アザミ",
    "address": "高松市屋島西町2302-1",
    "lat": 34.3552949,
    "lng": 134.0906754,
    "tel": "087-844-2118",
    "url": "",
    "pref": "香川県",
    "city": "高松市",
    "category": "home_help",
    "serviceType": "訪問介護",
    "capacity": 0,
    "openDays": [
      "平日",
      "土曜日",
      "日曜日",
      "祝日"
    ],
    "openDaysNote": "現在の訪問介護員で対処できない場合は、早急に職員を補充する。"
  },
  {
    "id": "3771300278",
    "name": "あじの里ホームヘルプサービスセンター",
    "kana": "アジノサトホームヘルプサービスセンター",
    "address": "香川県高松市庵治町4151番地7",
    "lat": 34.3795414,
    "lng": 134.1438573,
    "tel": "087-870-3500",
    "url": "https://yoyokai.or.jp/",
    "pref": "香川県",
    "city": "高松市",
    "category": "home_help",
    "serviceType": "訪問介護",
    "capacity": 0,
    "openDays": [
      "平日",
      "祝日"
    ],
    "openDaysNote": "提供時間外でも、介護の相談があれば、可能な限りサービスを提供いたします。"
  },
  {
    "id": "3770105934",
    "name": "あなぶきケアサービス",
    "kana": "アナブキケアサービス",
    "address": "香川県高松市伏石町2171－1アルファリビング高松伏石南内 アルファリビング高松伏石南内",
    "lat": 34.3069954855931,
    "lng": 134.057233182003,
    "tel": "087-802－7113",
    "url": "",
    "pref": "香川県",
    "city": "高松市",
    "category": "home_help",
    "serviceType": "訪問介護",
    "capacity": 250,
    "openDays": [
      "平日",
      "土曜日",
      "日曜日",
      "祝日"
    ],
    "openDaysNote": "24時間体制"
  },
  {
    "id": "3770107641",
    "name": "あひるケアサービス",
    "kana": "アヒルケアサービス",
    "address": "香川県高松市下田井町５３１－１１",
    "lat": 34.2894873285944,
    "lng": 134.09377106627,
    "tel": "０８７－８４７－６６５８",
    "url": "",
    "pref": "香川県",
    "city": "高松市",
    "category": "home_help",
    "serviceType": "訪問介護",
    "capacity": 0,
    "openDays": [
      "平日"
    ],
    "openDaysNote": "緊急ややむを得ない事情の場合は対応致します。"
  },
  {
    "id": "3770111395",
    "name": "あろはヘルパーステーション",
    "kana": "アロハヘルパーステーション",
    "address": "香川県高松市香南町西庄1671-2あろは虹の丘 あろは虹の丘",
    "lat": 34.2359274630354,
    "lng": 133.994239216502,
    "tel": "087-802-6051",
    "url": "",
    "pref": "香川県",
    "city": "高松市",
    "category": "home_help",
    "serviceType": "訪問介護",
    "capacity": 24,
    "openDays": [
      "平日",
      "土曜日",
      "日曜日",
      "祝日"
    ],
    "openDaysNote": ""
  },
  {
    "id": "3770105819",
    "name": "あん樹苑訪問介護事業所",
    "kana": "アンジュエンホウモンカイゴジギョウショ",
    "address": "高松市香川町浅野1414番地",
    "lat": 34.2528091,
    "lng": 134.0371948,
    "tel": "087-879-3360",
    "url": "http://hatsukikai.or.jp",
    "pref": "香川県",
    "city": "高松市",
    "category": "home_help",
    "serviceType": "訪問介護",
    "capacity": 0,
    "openDays": [
      "平日",
      "土曜日",
      "日曜日",
      "祝日"
    ],
    "openDaysNote": "-"
  },
  {
    "id": "3770107799",
    "name": "イイカイゴヘルパーセンター",
    "kana": "イイカイゴヘルパーセンター",
    "address": "浜ノ町66番地2労住協第5ビル201 労住協第5ビル201",
    "lat": 34.3515288447715,
    "lng": 134.041208991316,
    "tel": "087-821-2231",
    "url": "",
    "pref": "香川県",
    "city": "高松市",
    "category": "home_help",
    "serviceType": "訪問介護",
    "capacity": 50,
    "openDays": [
      "平日",
      "土曜日",
      "日曜日",
      "祝日"
    ],
    "openDaysNote": "ケアプランに定める時間帯は対応可"
  },
  {
    "id": "3770106312",
    "name": "いきいきケア",
    "kana": "イキイキケア",
    "address": "香川県高松市三条町109-8東洋ビル3A",
    "lat": 34.3109326,
    "lng": 134.0443563,
    "tel": "087-813-8536",
    "url": "",
    "pref": "香川県",
    "city": "高松市",
    "category": "home_help",
    "serviceType": "訪問介護",
    "capacity": 0,
    "openDays": [
      "平日",
      "土曜日",
      "日曜日",
      "祝日"
    ],
    "openDaysNote": "それ以外の時間につきましては、ご相談ください。"
  },
  {
    "id": "3770104077",
    "name": "ケアサービス　あずき",
    "kana": "ケアサービス　アズキ",
    "address": "高松市国分寺町柏原字一里山８４－１",
    "lat": 34.2897380160292,
    "lng": 133.952317104612,
    "tel": "087-816-0345",
    "url": "",
    "pref": "香川県",
    "city": "高松市",
    "category": "home_help",
    "serviceType": "訪問介護",
    "capacity": 3,
    "openDays": [
      "平日",
      "土曜日",
      "日曜日",
      "祝日"
    ],
    "openDaysNote": "土・日・祝・年末年始関係なく２４時間提供できます"
  },
  {
    "id": "3770103277",
    "name": "ケアサービスすみれ",
    "kana": "ケアサービススミレ",
    "address": "香川県高松市鬼無町佐藤295番地2",
    "lat": 34.3290356,
    "lng": 133.9901893,
    "tel": "087-881-9664",
    "url": "",
    "pref": "香川県",
    "city": "高松市",
    "category": "home_help",
    "serviceType": "訪問介護",
    "capacity": 30,
    "openDays": [
      "平日",
      "土曜日",
      "祝日"
    ],
    "openDaysNote": "利用者及び家族による緊急時等の場合、上記の限りではない。"
  },
  {
    "id": "3770106395",
    "name": "ケアサービスセンターそよの里上福岡町",
    "kana": "ケアサービスセンターソヨノサトカミフクオカチョウ",
    "address": "香川県高松市上福岡町714-1",
    "lat": 34.334,
    "lng": 134.0664314,
    "tel": "087-835-2022",
    "url": "",
    "pref": "香川県",
    "city": "高松市",
    "category": "home_help",
    "serviceType": "訪問介護",
    "capacity": 0,
    "openDays": [
      "平日",
      "土曜日",
      "日曜日",
      "祝日"
    ],
    "openDaysNote": "要望により24時間対応"
  },
  {
    "id": "3770102212",
    "name": "ケアサービス結",
    "kana": "ケアサービスユイ",
    "address": "高松市木太町6区2768-3",
    "lat": 34.3201179,
    "lng": 134.0692623,
    "tel": "087-836-9432",
    "url": "care-net.biz/37/care-yui/",
    "pref": "香川県",
    "city": "高松市",
    "category": "home_help",
    "serviceType": "訪問介護",
    "capacity": 250,
    "openDays": [
      "平日"
    ],
    "openDaysNote": "土曜日、日曜日、祝日、年末年始（12月30日～1月3日）はご利用者のご要望に応じます"
  },
  {
    "id": "3770102329",
    "name": "ケアサービス優悠",
    "kana": "ケアサービスユウユウ",
    "address": "高松市三谷町４８７４番地",
    "lat": 34.2830710957376,
    "lng": 134.07541083481,
    "tel": "087-802-7711",
    "url": "https://yu-yu.site",
    "pref": "香川県",
    "city": "高松市",
    "category": "home_help",
    "serviceType": "訪問介護",
    "capacity": 0,
    "openDays": [
      "平日",
      "土曜日",
      "日曜日",
      "祝日"
    ],
    "openDaysNote": "電話により、２４時間常時連絡が可能な体制とする。"
  },
  {
    "id": "3770107864",
    "name": "ケアステーション太田下町",
    "kana": "ケアステーションオオタシモマチ",
    "address": "香川県高松市太田下町2645-1",
    "lat": 34.3086133651388,
    "lng": 134.050002385134,
    "tel": "087-899-7622",
    "url": "http://kaigostation.co.jp/ohta/",
    "pref": "香川県",
    "city": "高松市",
    "category": "home_help",
    "serviceType": "訪問介護",
    "capacity": 36,
    "openDays": [
      "平日",
      "土曜日",
      "日曜日",
      "祝日"
    ],
    "openDaysNote": ""
  },
  {
    "id": "3770103707",
    "name": "ケアテラスギャラリーヘルパーセンター",
    "kana": "ケアテラスギャラリーヘルパーセンター",
    "address": "香川県高松市田町1-2",
    "lat": 34.3384689,
    "lng": 134.0489268,
    "tel": "087-834-7166",
    "url": "hakueikai.net",
    "pref": "香川県",
    "city": "高松市",
    "category": "home_help",
    "serviceType": "訪問介護",
    "capacity": 0,
    "openDays": [
      "平日",
      "土曜日",
      "日曜日",
      "祝日"
    ],
    "openDaysNote": "利用者様の状況により時間以外対応を行う。"
  },
  {
    "id": "3770111627",
    "name": "ケアハートそわん",
    "kana": "ケアハートソワン",
    "address": "香川県高松市仏生山町１６７６番地１",
    "lat": 34.28119107781,
    "lng": 134.037355598572,
    "tel": "087-815-5677",
    "url": "",
    "pref": "香川県",
    "city": "高松市",
    "category": "home_help",
    "serviceType": "訪問介護",
    "capacity": null,
    "openDays": [
      "平日"
    ],
    "openDaysNote": "それ以外の時間は要相談"
  },
  {
    "id": "3770111403",
    "name": "ケアパートナーU",
    "kana": "ケアパートナーユー",
    "address": "香川県高松市十川東町506-1フィリー21C棟107号 フィリー21C棟107号",
    "lat": 34.2680192,
    "lng": 134.1086209,
    "tel": "087-814-3303",
    "url": "",
    "pref": "香川県",
    "city": "高松市",
    "category": "home_help",
    "serviceType": "訪問介護",
    "capacity": null,
    "openDays": [],
    "openDaysNote": "緊急の場合は24時間対応可能。"
  },
  {
    "id": "3770108326",
    "name": "ケアポート　笑んでる",
    "kana": "ケアポート　エンデル",
    "address": "香川県　高松市　香西南町　516番地3",
    "lat": 34.3433997403886,
    "lng": 134.000610940475,
    "tel": "087-887-5406",
    "url": "",
    "pref": "香川県",
    "city": "高松市",
    "category": "home_help",
    "serviceType": "訪問介護",
    "capacity": 39,
    "openDays": [
      "平日",
      "土曜日",
      "日曜日",
      "祝日"
    ],
    "openDaysNote": "早朝(6:00～8：00)　深夜(22:00～6:00)のご利用につきましては要相談。"
  },
  {
    "id": "3770102303",
    "name": "こうみょうえヘルパーステーション",
    "kana": "コウミョウエヘルパーステーション",
    "address": "香川県高松市下田井町25-2",
    "lat": 34.2984675,
    "lng": 134.0933518,
    "tel": "087-847-3301",
    "url": "",
    "pref": "香川県",
    "city": "高松市",
    "category": "home_help",
    "serviceType": "訪問介護",
    "capacity": 0,
    "openDays": [
      "平日",
      "土曜日",
      "日曜日",
      "祝日"
    ],
    "openDaysNote": "利用者の希望に応じて２４時間対応"
  },
  {
    "id": "3770106023",
    "name": "ここなケアサービス",
    "kana": "ココナケアサービス",
    "address": "香川県高松市亀田南町507番地7",
    "lat": 34.2777795,
    "lng": 134.1126683,
    "tel": "087-847-3882",
    "url": "",
    "pref": "香川県",
    "city": "高松市",
    "category": "home_help",
    "serviceType": "訪問介護",
    "capacity": null,
    "openDays": [
      "平日"
    ],
    "openDaysNote": "-"
  },
  {
    "id": "3770100505",
    "name": "ココロンヘルパーステーション",
    "kana": "ココロンヘルパーステーション",
    "address": "高松市出作町422-1",
    "lat": 34.2869629,
    "lng": 134.0479569,
    "tel": "087-840-1840",
    "url": "http://www.kaigosuru5560.co.jp",
    "pref": "香川県",
    "city": "高松市",
    "category": "home_help",
    "serviceType": "訪問介護",
    "capacity": 0,
    "openDays": [
      "平日",
      "土曜日",
      "日曜日",
      "祝日"
    ],
    "openDaysNote": "上記以外の時間帯については相談により対応可"
  },
  {
    "id": "3770105827",
    "name": "こはるさぽーと",
    "kana": "コハルサポート",
    "address": "高松市牟礼町牟礼223番地３",
    "lat": 34.339991,
    "lng": 134.137735,
    "tel": "087-818-7522",
    "url": "",
    "pref": "香川県",
    "city": "高松市",
    "category": "home_help",
    "serviceType": "訪問介護",
    "capacity": 0,
    "openDays": [
      "平日",
      "土曜日",
      "日曜日",
      "祝日"
    ],
    "openDaysNote": "その他の時間は、相談に応じます。"
  },
  {
    "id": "3770105579",
    "name": "さくら・介護ステーション八栗",
    "kana": "サクラ・カイゴステーションヤクリ",
    "address": "香川県高松市牟礼町牟礼2426-25",
    "lat": 34.3447952,
    "lng": 134.1226421,
    "tel": "087-845-2283",
    "url": "",
    "pref": "香川県",
    "city": "高松市",
    "category": "home_help",
    "serviceType": "訪問介護",
    "capacity": 0,
    "openDays": [
      "平日"
    ],
    "openDaysNote": "8月13日～8月15日、12月30日～1月3日は休業（改行）サービス提供時間は応相談"
  },
  {
    "id": "3770100430",
    "name": "さくら荘訪問介護事業所",
    "kana": "サクラソウホウモンカイゴジギョウショ",
    "address": "高松市林町76番地14",
    "lat": 34.2941329,
    "lng": 134.0662086,
    "tel": "087-868-0700",
    "url": "https://hatsukikai.or.jp",
    "pref": "香川県",
    "city": "高松市",
    "category": "home_help",
    "serviceType": "訪問介護",
    "capacity": null,
    "openDays": [
      "平日",
      "土曜日",
      "日曜日",
      "祝日"
    ],
    "openDaysNote": "なし"
  },
  {
    "id": "3770100786",
    "name": "シオンの丘ヘルパーステーション",
    "kana": "シオンノオカヘルパーステーション",
    "address": "高松市香西北町260番地",
    "lat": 34.354258,
    "lng": 133.9951389,
    "tel": "087-881-4531",
    "url": "http://www.bokuyoukai.or.jp/qhm/",
    "pref": "香川県",
    "city": "高松市",
    "category": "home_help",
    "serviceType": "訪問介護",
    "capacity": 0,
    "openDays": [
      "平日",
      "土曜日",
      "祝日"
    ],
    "openDaysNote": ""
  },
  {
    "id": "3770100414",
    "name": "すみれ荘指定訪問介護事業所",
    "kana": "スミレソウシテイホウモンカイゴジギョウショ",
    "address": "高松市十川西町1234番地1",
    "lat": 34.2599762,
    "lng": 134.0997289,
    "tel": "087-848-0800",
    "url": "https://hatsukikai.or.jp/",
    "pref": "香川県",
    "city": "高松市",
    "category": "home_help",
    "serviceType": "訪問介護",
    "capacity": 0,
    "openDays": [
      "平日",
      "土曜日",
      "日曜日",
      "祝日"
    ],
    "openDaysNote": "時間外対応も可"
  },
  {
    "id": "3770104986",
    "name": "セントケア高松",
    "kana": "セントケアタカマツ",
    "address": "香川県高松市勅使町634番地1",
    "lat": 34.3076132466157,
    "lng": 134.014492701012,
    "tel": "087-867-1012",
    "url": "http:/www.saint-care.com",
    "pref": "香川県",
    "city": "高松市",
    "category": "home_help",
    "serviceType": "訪問介護",
    "capacity": 80,
    "openDays": [
      "平日",
      "土曜日",
      "日曜日",
      "祝日"
    ],
    "openDaysNote": "ケアプランに基づいて24時間・365日サービス提供を行う。"
  },
  {
    "id": "3770111718",
    "name": "セントケア高松東",
    "kana": "セントケアタカマツヒガシ",
    "address": "香川県高松市前田東町719-6",
    "lat": 34.2933103,
    "lng": 134.1129439,
    "tel": "087-847-2130",
    "url": "http://www.saint-care.com",
    "pref": "香川県",
    "city": "高松市",
    "category": "home_help",
    "serviceType": "訪問介護",
    "capacity": null,
    "openDays": [
      "平日",
      "土曜日",
      "日曜日",
      "祝日"
    ],
    "openDaysNote": "サービス提供は年中無休"
  },
  {
    "id": "3770110066",
    "name": "ソーシャルワークホーム飯田",
    "kana": "ソーシャルワークホームイイダ",
    "address": "香川県高松市飯田町1211-3ソーシャルワークホーム飯田 ソーシャルワークホーム飯田",
    "lat": 34.3210842,
    "lng": 134.0070066,
    "tel": "087-880-5102",
    "url": "",
    "pref": "香川県",
    "city": "高松市",
    "category": "home_help",
    "serviceType": "訪問介護",
    "capacity": 0,
    "openDays": [
      "平日",
      "土曜日",
      "日曜日",
      "祝日"
    ],
    "openDaysNote": ""
  },
  {
    "id": "3770110579",
    "name": "ソーシャルワーク下田井訪問介護事業所",
    "kana": "ソーシャルワークシモタイホウモンカイゴジギョウショ",
    "address": "香川県高松市下田井町465-3ソーシャルワークホーム下田井 ソーシャルワークホーム下田井",
    "lat": 34.2898722318317,
    "lng": 134.097200180318,
    "tel": "087-880-9515",
    "url": "",
    "pref": "香川県",
    "city": "高松市",
    "category": "home_help",
    "serviceType": "訪問介護",
    "capacity": null,
    "openDays": [
      "平日"
    ],
    "openDaysNote": ""
  },
  {
    "id": "3770110280",
    "name": "たかまつ２４",
    "kana": "タカマツニジュウヨン",
    "address": "香川県高松市高松町873-102",
    "lat": 34.319881,
    "lng": 134.1148464,
    "tel": "050-5375-8338",
    "url": "",
    "pref": "香川県",
    "city": "高松市",
    "category": "home_help",
    "serviceType": "訪問介護",
    "capacity": 0,
    "openDays": [
      "平日",
      "土曜日",
      "日曜日",
      "祝日"
    ],
    "openDaysNote": ""
  },
  {
    "id": "3770108482",
    "name": "にじいろケアサービス",
    "kana": "ニジイロケアサービス",
    "address": "香川県高松市木太町3919番地5中筋ﾏﾝｼｮﾝ　101 中筋ﾏﾝｼｮﾝ　101",
    "lat": 34.3215567,
    "lng": 134.0759588,
    "tel": "087-813-8866",
    "url": "nijiiro17@movie.ocn.ne.jp",
    "pref": "香川県",
    "city": "高松市",
    "category": "home_help",
    "serviceType": "訪問介護",
    "capacity": null,
    "openDays": [
      "平日",
      "土曜日",
      "日曜日",
      "祝日"
    ],
    "openDaysNote": "電話にて24時間連絡可能、必要時応談"
  },
  {
    "id": "3770110520",
    "name": "ニチイケアセンターたひ",
    "kana": "ニチイケアセンタータヒ",
    "address": "香川県高松市多肥上町195-1",
    "lat": 34.2943727,
    "lng": 134.0484099,
    "tel": "087-864-8448",
    "url": "hstAG9@nichiigakkan.co.jp",
    "pref": "香川県",
    "city": "高松市",
    "category": "home_help",
    "serviceType": "訪問介護",
    "capacity": 0,
    "openDays": [
      "平日",
      "土曜日",
      "日曜日",
      "祝日"
    ],
    "openDaysNote": "利用者都合により変動あり"
  },
  {
    "id": "3771400441",
    "name": "ニチイケアセンター空港通り",
    "kana": "ニチイケアセンタークウコウドオリ",
    "address": "香川県高松市香川町大野2556-2",
    "lat": 34.2688478,
    "lng": 134.029095,
    "tel": "087-815-6110",
    "url": "",
    "pref": "香川県",
    "city": "高松市",
    "category": "home_help",
    "serviceType": "訪問介護",
    "capacity": 0,
    "openDays": [
      "平日",
      "土曜日",
      "日曜日",
      "祝日"
    ],
    "openDaysNote": "夜間・深夜・早朝のサービスに関しては相談に応じます。"
  },
  {
    "id": "3770700130",
    "name": "ニチイケアセンター古高松",
    "kana": "ニチイケアセンターフルタカマツ",
    "address": "香川県高松市高松町1718番2",
    "lat": 34.336272,
    "lng": 134.1128513,
    "tel": "087-818-0666",
    "url": "",
    "pref": "香川県",
    "city": "高松市",
    "category": "home_help",
    "serviceType": "訪問介護",
    "capacity": 5,
    "openDays": [
      "平日",
      "土曜日",
      "日曜日",
      "祝日"
    ],
    "openDaysNote": "夜間・深夜・早朝のサービスに関しては相談に応じます。"
  },
  {
    "id": "3770100919",
    "name": "ニチイケアセンター川添",
    "kana": "ニチイケアセンターカワゾエ",
    "address": "香川県高松市元山町124-1　コーポ川添1F",
    "lat": 34.307274,
    "lng": 134.0888632,
    "tel": "087-840-7572",
    "url": "http://www.nichiigakkan.co.jp",
    "pref": "香川県",
    "city": "高松市",
    "category": "home_help",
    "serviceType": "訪問介護",
    "capacity": 0,
    "openDays": [
      "平日",
      "土曜日",
      "日曜日",
      "祝日"
    ],
    "openDaysNote": "休日・夜間・早朝・深夜についてはスタッフの対応状況により、相談に応じます。"
  },
  {
    "id": "3770106064",
    "name": "ニチイケアセンター鶴市",
    "kana": "ニチイケアセンターツルイチ",
    "address": "香川県高松市鶴市町995-1",
    "lat": 34.3346101,
    "lng": 134.0126231,
    "tel": "087-832-8133",
    "url": "http://www.nichiigakkan.co.jp",
    "pref": "香川県",
    "city": "高松市",
    "category": "home_help",
    "serviceType": "訪問介護",
    "capacity": 0,
    "openDays": [
      "平日",
      "土曜日",
      "日曜日",
      "祝日"
    ],
    "openDaysNote": "夜間・深夜・早朝に関しては相談に応じます。"
  },
  {
    "id": "3770100455",
    "name": "ニチイケアセンター福岡町",
    "kana": "ニチイケアセンターフクオカチョウ",
    "address": "香川県高松市福岡町2-14-16",
    "lat": 34.3448295,
    "lng": 134.0679114,
    "tel": "087-811-0621",
    "url": "",
    "pref": "香川県",
    "city": "高松市",
    "category": "home_help",
    "serviceType": "訪問介護",
    "capacity": 0,
    "openDays": [
      "平日"
    ],
    "openDaysNote": "居宅サービス計画により、休業日及び営業時間外であってもサービスを提供する場合があります。"
  },
  {
    "id": "3770101347",
    "name": "ハロー介護事業部",
    "kana": "ハローカイゴジギョウブ",
    "address": "香川県高松市木太町1356番地3",
    "lat": 34.3177603,
    "lng": 134.0724436,
    "tel": "087-866-7278",
    "url": "https://www.hellotaxi.jp/",
    "pref": "香川県",
    "city": "高松市",
    "category": "home_help",
    "serviceType": "訪問介護",
    "capacity": 0,
    "openDays": [
      "平日",
      "土曜日",
      "日曜日",
      "祝日"
    ],
    "openDaysNote": "利用者の希望がある場合には営業時間外でも対応"
  },
  {
    "id": "3770111353",
    "name": "ひまわりケアサービス",
    "kana": "ヒマワリケアサービス",
    "address": "香川県高松市鬼無町藤井122番地",
    "lat": 34.3280311969952,
    "lng": 133.996951476721,
    "tel": "090-3184-0611",
    "url": "",
    "pref": "香川県",
    "city": "高松市",
    "category": "home_help",
    "serviceType": "訪問介護",
    "capacity": 21,
    "openDays": [
      "平日",
      "土曜日",
      "日曜日",
      "祝日"
    ],
    "openDaysNote": ""
  },
  {
    "id": "3770110736",
    "name": "ヘルスケアビレッジノア訪問介護ステーション",
    "kana": "ヘルスケアビレッジノアホウモンカイゴステーション",
    "address": "香川県高松市十川西町418番地4",
    "lat": 34.2749046,
    "lng": 134.1020283,
    "tel": "087-848-1225",
    "url": "",
    "pref": "香川県",
    "city": "高松市",
    "category": "home_help",
    "serviceType": "訪問介護",
    "capacity": 0,
    "openDays": [
      "平日",
      "土曜日",
      "日曜日",
      "祝日"
    ],
    "openDaysNote": "ケアプランの内容に応じて上記時間外のサービス提供をすることもある。"
  },
  {
    "id": "3770106841",
    "name": "ヘルパーステーション　あったかネット",
    "kana": "ヘルパーステーション　アッタカネット",
    "address": "高松市伏石町2053番地14　エステートピア伏石101",
    "lat": 34.3149627730504,
    "lng": 134.053852395107,
    "tel": "087-813-5162",
    "url": "http://hp.kaipoke.biz/g0n/",
    "pref": "香川県",
    "city": "高松市",
    "category": "home_help",
    "serviceType": "訪問介護",
    "capacity": 20,
    "openDays": [
      "平日",
      "土曜日",
      "日曜日",
      "祝日"
    ],
    "openDaysNote": ""
  },
  {
    "id": "3770103731",
    "name": "ヘルパーステーション　エス",
    "kana": "ヘルパーステーション　エス",
    "address": "香川県高松市鶴市町102－1",
    "lat": 34.3250389,
    "lng": 134.0067909,
    "tel": "087-842-5313",
    "url": "helperstation-es@eos.ocn.ne.jp",
    "pref": "香川県",
    "city": "高松市",
    "category": "home_help",
    "serviceType": "訪問介護",
    "capacity": 0,
    "openDays": [
      "平日",
      "土曜日",
      "日曜日",
      "祝日"
    ],
    "openDaysNote": "上記以外の営業日または、サービス提供時間帯をご希望の方は、随時ご相談下さい。"
  },
  {
    "id": "3770111817",
    "name": "ヘルパーステーション　ケアライン",
    "kana": "ヘルパーステーションケアライン",
    "address": "香川県高松市太田下町2645-1ケアステーション太田下町内 ケアステーション太田下町内",
    "lat": 34.3085128,
    "lng": 134.0500658,
    "tel": "087-864-5367",
    "url": "https://kaigostation.co.jp/",
    "pref": "香川県",
    "city": "高松市",
    "category": "home_help",
    "serviceType": "訪問介護",
    "capacity": 0,
    "openDays": [
      "平日",
      "土曜日",
      "日曜日",
      "祝日"
    ],
    "openDaysNote": ""
  },
  {
    "id": "3770100737",
    "name": "ヘルパーステーション　ハピネス",
    "kana": "ヘルパーステーション　ハピネス",
    "address": "香川県高松市中山町772番地1",
    "lat": 34.3568903,
    "lng": 133.9730471,
    "tel": "087-816-6901",
    "url": "http://www.shinboukai.net/",
    "pref": "香川県",
    "city": "高松市",
    "category": "home_help",
    "serviceType": "訪問介護",
    "capacity": 0,
    "openDays": [
      "平日",
      "土曜日",
      "日曜日",
      "祝日"
    ],
    "openDaysNote": "特になし"
  },
  {
    "id": "3770107674",
    "name": "ヘルパーステーション　めぐみ　一宮",
    "kana": "ヘルパーステーション　メグミ　イチノミヤ",
    "address": "香川県高松市成合町1066番地36",
    "lat": 34.2995274,
    "lng": 134.0174044,
    "tel": "０８７－８１６－７７２３",
    "url": "",
    "pref": "香川県",
    "city": "高松市",
    "category": "home_help",
    "serviceType": "訪問介護",
    "capacity": 0,
    "openDays": [
      "平日",
      "土曜日",
      "祝日"
    ],
    "openDaysNote": "利用者様の必要に応じて、時間外の対応有"
  },
  {
    "id": "3770106296",
    "name": "ヘルパーステーション　ラポール",
    "kana": "ヘルパーステーション　ラポール",
    "address": "高松市木太町２６０４番地３",
    "lat": 34.3360674406639,
    "lng": 134.078887615973,
    "tel": "087-813-1355",
    "url": "",
    "pref": "香川県",
    "city": "高松市",
    "category": "home_help",
    "serviceType": "訪問介護",
    "capacity": 0,
    "openDays": [
      "平日"
    ],
    "openDaysNote": ""
  },
  {
    "id": "3770107690",
    "name": "ヘルパーステーション・フルール",
    "kana": "ヘルパーステーション・フルール",
    "address": "香川県　高松市　東山崎町４０番地３７",
    "lat": 34.3013115,
    "lng": 134.0910021,
    "tel": "０８７－８４７－５６７６",
    "url": "",
    "pref": "香川県",
    "city": "高松市",
    "category": "home_help",
    "serviceType": "訪問介護",
    "capacity": 70,
    "openDays": [
      "平日",
      "祝日"
    ],
    "openDaysNote": "土曜・日曜・上記時間外につきましては、調整が可能な限り、対応させて頂いております。（改行）お気軽にご相談下さい。"
  },
  {
    "id": "3770110215",
    "name": "ヘルパーステーションあいリンク",
    "kana": "ヘルパーステーションアイリンク",
    "address": "香川県高松市太田下町2250-1ファミリーハイツ太田101号 ファミリーハイツ太田101号",
    "lat": 34.3085722948158,
    "lng": 134.041826019713,
    "tel": "087-880-5624",
    "url": "https://www.airink.co/",
    "pref": "香川県",
    "city": "高松市",
    "category": "home_help",
    "serviceType": "訪問介護",
    "capacity": 80,
    "openDays": [
      "平日",
      "土曜日",
      "日曜日",
      "祝日"
    ],
    "openDaysNote": ""
  },
  {
    "id": "3770107054",
    "name": "ヘルパーステーションなごみ高松",
    "kana": "ヘルパーステーションナゴミタカマツ",
    "address": "高松市多肥上町2219-5",
    "lat": 34.2773925590981,
    "lng": 134.057120686153,
    "tel": "087-887-0710",
    "url": "",
    "pref": "香川県",
    "city": "高松市",
    "category": "home_help",
    "serviceType": "訪問介護",
    "capacity": 0,
    "openDays": [
      "平日",
      "土曜日",
      "日曜日",
      "祝日"
    ],
    "openDaysNote": "サービス時間外でも相談に応じます。"
  },
  {
    "id": "3770110652",
    "name": "ヘルパーステーションひな",
    "kana": "ヘルパーステーションヒナ",
    "address": "香川県高松市上之町1丁目2-33",
    "lat": 34.3227411,
    "lng": 134.0451083,
    "tel": "087-813-9609",
    "url": "",
    "pref": "香川県",
    "city": "高松市",
    "category": "home_help",
    "serviceType": "訪問介護",
    "capacity": null,
    "openDays": [
      "平日",
      "土曜日",
      "日曜日",
      "祝日"
    ],
    "openDaysNote": ""
  },
  {
    "id": "3770110074",
    "name": "ヘルパーステーションゆうの季節",
    "kana": "ヘルパーステーションユウノトキ",
    "address": "香川県高松市春日町842番地1",
    "lat": 34.3248762,
    "lng": 134.0954768,
    "tel": "087-802-8383",
    "url": "http://www.yuyusya.co.jp/",
    "pref": "香川県",
    "city": "高松市",
    "category": "home_help",
    "serviceType": "訪問介護",
    "capacity": 0,
    "openDays": [
      "平日",
      "土曜日",
      "日曜日",
      "祝日"
    ],
    "openDaysNote": "時間外については随時対応する。"
  },
  {
    "id": "3770111478",
    "name": "ヘルパーステーションゆうゆう高松",
    "kana": "ヘルパーステーションユウユウタカマツ",
    "address": "香川県高松市上林町705番地1",
    "lat": 34.2905609,
    "lng": 134.0618905,
    "tel": "087-802-8211",
    "url": "http://www.yuyusya.co.jp/",
    "pref": "香川県",
    "city": "高松市",
    "category": "home_help",
    "serviceType": "訪問介護",
    "capacity": 0,
    "openDays": [
      "平日",
      "土曜日",
      "日曜日",
      "祝日"
    ],
    "openDaysNote": "時間外については随時対応する。"
  },
  {
    "id": "3770110181",
    "name": "ヘルパーステーションラベンダー",
    "kana": "ヘルパーステーションラベンダー",
    "address": "香川県高松市新田町甲478番地介護複合施設ハーブス 介護複合施設ハーブス",
    "lat": 34.3277507,
    "lng": 134.1054274,
    "tel": "087-841-5005",
    "url": "http://www.herbs-kaigo.jp/",
    "pref": "香川県",
    "city": "高松市",
    "category": "home_help",
    "serviceType": "訪問介護",
    "capacity": null,
    "openDays": [
      "平日",
      "土曜日",
      "日曜日",
      "祝日"
    ],
    "openDaysNote": ""
  },
  {
    "id": "3770111742",
    "name": "ヘルパーステーションラベンダー",
    "kana": "ヘルパーステーションラベンダー",
    "address": "香川県高松市新田町甲478番地",
    "lat": 34.3197981,
    "lng": 134.1079134,
    "tel": "087-841-5005",
    "url": "http://www.herbs-kaigo.jp",
    "pref": "香川県",
    "city": "高松市",
    "category": "home_help",
    "serviceType": "訪問介護",
    "capacity": 0,
    "openDays": [
      "平日",
      "土曜日",
      "日曜日",
      "祝日"
    ],
    "openDaysNote": ""
  },
  {
    "id": "3770107245",
    "name": "ヘルパーステーション屋島西",
    "kana": "ヘルパーステーションヤシマニシ",
    "address": "香川県高松市屋島西町2472番地1ケアセンター屋島西 ケアセンター屋島西",
    "lat": 34.3517323152232,
    "lng": 134.092444762566,
    "tel": "087-844-2112",
    "url": "http://m-koujyukai.or.jp",
    "pref": "香川県",
    "city": "高松市",
    "category": "home_help",
    "serviceType": "訪問介護",
    "capacity": 30,
    "openDays": [
      "平日",
      "土曜日",
      "日曜日",
      "祝日"
    ],
    "openDaysNote": "ケアプランの定める時間帯であれば営業時間外でも対応する。"
  },
  {
    "id": "3770110983",
    "name": "ヘルパーステーション檀紙",
    "kana": "ヘルパーステーションダンシ",
    "address": "香川県高松市檀紙町66番地１",
    "lat": 34.2971964,
    "lng": 133.9965403,
    "tel": "087-814-5252",
    "url": "http://kaigodanshi.com/",
    "pref": "香川県",
    "city": "高松市",
    "category": "home_help",
    "serviceType": "訪問介護",
    "capacity": 0,
    "openDays": [
      "平日",
      "土曜日",
      "日曜日",
      "祝日"
    ],
    "openDaysNote": "希望に応じて24時間対応。"
  },
  {
    "id": "3780100024",
    "name": "ヘルパーステーション男木　湯遊の館",
    "kana": "ヘルパーステーションオギ　ユウノヤカタ",
    "address": "男木町1843番地",
    "lat": 34.4245114,
    "lng": 134.0551747,
    "tel": "087-840-9720",
    "url": "",
    "pref": "香川県",
    "city": "高松市",
    "category": "home_help",
    "serviceType": "訪問介護",
    "capacity": 8,
    "openDays": [
      "平日"
    ],
    "openDaysNote": ""
  },
  {
    "id": "3770109613",
    "name": "ヘルパーステーション内町やまもと",
    "kana": "ヘルパーステーションウチマチヤマモト",
    "address": "香川県高松市内町3-8さかいビル さかいビル",
    "lat": 36.204824,
    "lng": 138.252924,
    "tel": "087-822-0320",
    "url": "http://www.yamamoto.a.co.jp",
    "pref": "香川県",
    "city": "高松市",
    "category": "home_help",
    "serviceType": "訪問介護",
    "capacity": 29,
    "openDays": [
      "平日",
      "土曜日",
      "日曜日",
      "祝日"
    ],
    "openDaysNote": ""
  },
  {
    "id": "3770107997",
    "name": "ヘルパーステーション夢",
    "kana": "ヘルパーステーションユメ",
    "address": "香川県高松市木太町1119-3",
    "lat": 34.320659163337,
    "lng": 134.066997842336,
    "tel": "087-802-8737",
    "url": "https://care-net.biz/37/yume/",
    "pref": "香川県",
    "city": "高松市",
    "category": "home_help",
    "serviceType": "訪問介護",
    "capacity": 0,
    "openDays": [
      "平日",
      "土曜日",
      "日曜日",
      "祝日"
    ],
    "openDaysNote": ""
  },
  {
    "id": "3770109845",
    "name": "ヘルパー亀",
    "kana": "ヘルパーカメ",
    "address": "香川県高松市仏生山町甲185-4加藤ビル3階 加藤ビル3階",
    "lat": 34.285678,
    "lng": 134.042159,
    "tel": "087-888-7771",
    "url": "",
    "pref": "香川県",
    "city": "高松市",
    "category": "home_help",
    "serviceType": "訪問介護",
    "capacity": 17,
    "openDays": [
      "平日",
      "土曜日",
      "日曜日",
      "祝日"
    ],
    "openDaysNote": ""
  },
  {
    "id": "3770111932",
    "name": "ホームケアつっち",
    "kana": "ホームケアツッチ",
    "address": "香川県高松市国分寺町福家甲3178番地7",
    "lat": 34.2858346345092,
    "lng": 133.961995371758,
    "tel": "087-880-2193",
    "url": "https://startry20240515.wixsite.com/home-care-tsuchi",
    "pref": "香川県",
    "city": "高松市",
    "category": "home_help",
    "serviceType": "訪問介護",
    "capacity": 60,
    "openDays": [
      "平日",
      "土曜日",
      "祝日"
    ],
    "openDaysNote": "日曜日定休日・年末年始休暇有(12/31～1/3)"
  },
  {
    "id": "3770110884",
    "name": "ホームケア土屋高松",
    "kana": "ホームケアツチヤタカマツ",
    "address": "林町2519番地6358サコⅡ205 358サコⅡ205",
    "lat": 34.3073864,
    "lng": 134.0678703,
    "tel": "050-3138-5868",
    "url": "https://homecare-tsuchiya.com",
    "pref": "香川県",
    "city": "高松市",
    "category": "home_help",
    "serviceType": "訪問介護",
    "capacity": 0,
    "openDays": [
      "平日",
      "土曜日",
      "日曜日",
      "祝日"
    ],
    "openDaysNote": "サービス提供日年中無休（改行）サービス提供時間24時間とする。"
  },
  {
    "id": "3770100729",
    "name": "ホームヘルパーセンター・フォレスト",
    "kana": "ホームヘルパーセンター・フォレスト",
    "address": "香川県高松市東ハゼ町８３０－１",
    "lat": 34.3204982,
    "lng": 134.0392142,
    "tel": "087-865-2641",
    "url": "",
    "pref": "香川県",
    "city": "高松市",
    "category": "home_help",
    "serviceType": "訪問介護",
    "capacity": 0,
    "openDays": [
      "平日",
      "土曜日"
    ],
    "openDaysNote": "日曜、祝日は相談にのります。"
  },
  {
    "id": "3771500455",
    "name": "ほたるの里訪問介護事業所",
    "kana": "ホタルノサトホウモンカイゴジギョウショ",
    "address": "高松市国分寺町国分1284番地1",
    "lat": 34.3065295,
    "lng": 133.9413368,
    "tel": "087-874-6625",
    "url": "http://www.npo-ajisai.net/",
    "pref": "香川県",
    "city": "高松市",
    "category": "home_help",
    "serviceType": "訪問介護",
    "capacity": 0,
    "openDays": [
      "平日",
      "土曜日",
      "日曜日",
      "祝日"
    ],
    "openDaysNote": "-"
  },
  {
    "id": "3770107971",
    "name": "ゆうりん",
    "kana": "ユウリン",
    "address": "香川県高松市三名町223番地1溝渕マンションＡ-102 溝渕マンションＡ-102",
    "lat": 34.2885543,
    "lng": 134.0373769,
    "tel": "087-814-4110",
    "url": "",
    "pref": "香川県",
    "city": "高松市",
    "category": "home_help",
    "serviceType": "訪問介護",
    "capacity": 0,
    "openDays": [
      "平日"
    ],
    "openDaysNote": ""
  },
  {
    "id": "3770108409",
    "name": "ヨハネの里ヘルパーステーション",
    "kana": "ヨハネノサトヘルパーステーション",
    "address": "高松市鶴市町241番地",
    "lat": 34.3280286877454,
    "lng": 134.007599541495,
    "tel": "087-802-3123",
    "url": "http://www.bokuyoukai.or.jp/qhm/",
    "pref": "香川県",
    "city": "高松市",
    "category": "home_help",
    "serviceType": "訪問介護",
    "capacity": 0,
    "openDays": [
      "平日",
      "土曜日",
      "祝日"
    ],
    "openDaysNote": "営業日・時間以外でも対応可能"
  },
  {
    "id": "3770111635",
    "name": "よんでんヘルパーステーション楠上",
    "kana": "ヨンデンヘルパーステーションクスガミ",
    "address": "香川県高松市楠上町2丁目1番28号グレイスベース高松 グレイスベース高松",
    "lat": 34.3289959,
    "lng": 134.0543788,
    "tel": "087-884-6032",
    "url": "http://www.yondenlc.co.jp",
    "pref": "香川県",
    "city": "高松市",
    "category": "home_help",
    "serviceType": "訪問介護",
    "capacity": null,
    "openDays": [
      "平日",
      "土曜日",
      "日曜日",
      "祝日"
    ],
    "openDaysNote": "・サービス提供(時間)として、２４時間対応可能とする。"
  },
  {
    "id": "3770112054",
    "name": "よんでんライフケア昭和町訪問介護事業所",
    "kana": "ヨンデンライフケアショウワチョウホウモンカイゴジギョウショ",
    "address": "香川県高松市昭和町一丁目7番23号",
    "lat": 34.342901,
    "lng": 134.0348787,
    "tel": "087-837-8241",
    "url": "https://www.yondenlc.co.jp/",
    "pref": "香川県",
    "city": "高松市",
    "category": "home_help",
    "serviceType": "訪問介護",
    "capacity": null,
    "openDays": [
      "平日",
      "土曜日",
      "日曜日",
      "祝日"
    ],
    "openDaysNote": "上記の営業時間のほか、応相談により対応可能。（改行）上記の営業時間のほか、電話等により24時間常時連絡が可能な体制とする。"
  },
  {
    "id": "3770110256",
    "name": "よんでんライフサポート昭和町訪問介護事業所",
    "kana": "ヨンデンライフサポートショウワチョウホウモンカイゴジギョウショ",
    "address": "昭和町一丁目７番２３号",
    "lat": 34.3428904,
    "lng": 134.035105,
    "tel": "087-837-8241",
    "url": "https://yondenls.jp/",
    "pref": "香川県",
    "city": "高松市",
    "category": "home_help",
    "serviceType": "訪問介護",
    "capacity": 0,
    "openDays": [
      "平日",
      "土曜日",
      "日曜日",
      "祝日"
    ],
    "openDaysNote": ""
  },
  {
    "id": "3770101362",
    "name": "レインボーケアセンター",
    "kana": "レインボーケアセンター",
    "address": "香川県高松市伏石町2139番地4",
    "lat": 34.3102577,
    "lng": 134.0607721,
    "tel": "087-869-7300",
    "url": "",
    "pref": "香川県",
    "city": "高松市",
    "category": "home_help",
    "serviceType": "訪問介護",
    "capacity": null,
    "openDays": [
      "平日",
      "土曜日",
      "日曜日",
      "祝日"
    ],
    "openDaysNote": "-"
  },
  {
    "id": "3771300237",
    "name": "わかばケアサービス",
    "kana": "ワカバケアサービス",
    "address": "香川県高松市牟礼町牟礼2120番地1",
    "lat": 34.3429541610864,
    "lng": 134.126971407982,
    "tel": "087-845-7781",
    "url": "http://care-net.biz/37/wakaba/",
    "pref": "香川県",
    "city": "高松市",
    "category": "home_help",
    "serviceType": "訪問介護",
    "capacity": 0,
    "openDays": [
      "平日",
      "土曜日"
    ],
    "openDaysNote": "上記営業日、営業時間外のサービスにつては、相談に応じることとする。"
  },
  {
    "id": "3770109431",
    "name": "逢訪問介護",
    "kana": "アウホウモンカイゴ",
    "address": "香川県高松市春日町752番地8",
    "lat": 34.3263035,
    "lng": 134.0900488,
    "tel": "087-814-7274",
    "url": "",
    "pref": "香川県",
    "city": "高松市",
    "category": "home_help",
    "serviceType": "訪問介護",
    "capacity": 0,
    "openDays": [],
    "openDaysNote": "365日24時間サービス提供"
  },
  {
    "id": "3770111999",
    "name": "医心館訪問介護ステーション高松",
    "kana": "イシンカンホウモンカイゴステーションタカマツ",
    "address": "香川県高松市木太町5013番地5",
    "lat": 34.3175243,
    "lng": 134.0697384,
    "tel": "087-813-8281",
    "url": "",
    "pref": "香川県",
    "city": "高松市",
    "category": "home_help",
    "serviceType": "訪問介護",
    "capacity": 0,
    "openDays": [
      "平日",
      "土曜日",
      "日曜日",
      "祝日"
    ],
    "openDaysNote": "24時間対応"
  },
  {
    "id": "3770102915",
    "name": "一宮の里ヘルパーステーション",
    "kana": "イチノミヤノサトヘルパーステーション",
    "address": "香川県高松市一宮町875番地",
    "lat": 34.2915428,
    "lng": 134.0293772,
    "tel": "087-886-5777",
    "url": "https://www.kishokai.com",
    "pref": "香川県",
    "city": "高松市",
    "category": "home_help",
    "serviceType": "訪問介護",
    "capacity": 0,
    "openDays": [
      "平日",
      "土曜日",
      "日曜日",
      "祝日"
    ],
    "openDaysNote": "必要により、時間の検討は行います"
  },
  {
    "id": "3770104150",
    "name": "一番星訪問介護事業所",
    "kana": "イチバンボシホウモンカイゴジギョウショ",
    "address": "高松市木太町４０５１－２",
    "lat": 34.3183514,
    "lng": 134.0794086,
    "tel": "087-866-9936",
    "url": "http://www.ichibanboshi.info/",
    "pref": "香川県",
    "city": "高松市",
    "category": "home_help",
    "serviceType": "訪問介護",
    "capacity": 0,
    "openDays": [
      "平日",
      "土曜日",
      "日曜日",
      "祝日"
    ],
    "openDaysNote": "必要に応じて対応している。"
  },
  {
    "id": "3770101677",
    "name": "屋島タクシー介護センター",
    "kana": "ヤシマタクシー　カイゴセンター",
    "address": "高松市高松町２５０６番地",
    "lat": 34.3375386,
    "lng": 134.1078709,
    "tel": "087-844-1132",
    "url": "",
    "pref": "香川県",
    "city": "高松市",
    "category": "home_help",
    "serviceType": "訪問介護",
    "capacity": 0,
    "openDays": [
      "平日",
      "土曜日",
      "日曜日",
      "祝日"
    ],
    "openDaysNote": "上記利用時間以外のご利用も対応しております。"
  },
  {
    "id": "3770102543",
    "name": "屋島やすらぎ",
    "kana": "ヤシマヤスラギ",
    "address": "高松市屋島東町1414番地",
    "lat": 34.3465198507106,
    "lng": 134.11622140367,
    "tel": "087-843-9590",
    "url": "https://yashima-yasuragi.jp/",
    "pref": "香川県",
    "city": "高松市",
    "category": "home_help",
    "serviceType": "訪問介護",
    "capacity": 0,
    "openDays": [
      "平日",
      "土曜日",
      "日曜日",
      "祝日"
    ],
    "openDaysNote": "随時対応"
  },
  {
    "id": "3770103269",
    "name": "介護サービス　オブリーまつなわ",
    "kana": "カイゴサービス　オブリーマツナワ",
    "address": "香川県高松市松縄町1132番地17",
    "lat": 34.3142573,
    "lng": 134.0607858,
    "tel": "087-867-0706",
    "url": "",
    "pref": "香川県",
    "city": "高松市",
    "category": "home_help",
    "serviceType": "訪問介護",
    "capacity": 0,
    "openDays": [
      "平日"
    ],
    "openDaysNote": "曜日、時間等は相談可"
  },
  {
    "id": "3770106973",
    "name": "介護サービスゆり",
    "kana": "カイゴサービスユリ",
    "address": "香川県高松市鬼無町藤井122番地",
    "lat": 34.328110171229,
    "lng": 133.996950401756,
    "tel": "090-3183-9770",
    "url": "",
    "pref": "香川県",
    "city": "高松市",
    "category": "home_help",
    "serviceType": "訪問介護",
    "capacity": 75,
    "openDays": [
      "平日",
      "土曜日",
      "日曜日",
      "祝日"
    ],
    "openDaysNote": ""
  },
  {
    "id": "3770104085",
    "name": "介護ステーションゆう",
    "kana": "カイゴステーションユウ",
    "address": "香川県高松市木太町5032-11",
    "lat": 34.3165682,
    "lng": 134.0684792,
    "tel": "087-815-0517",
    "url": "",
    "pref": "香川県",
    "city": "高松市",
    "category": "home_help",
    "serviceType": "訪問介護",
    "capacity": 0,
    "openDays": [
      "平日"
    ],
    "openDaysNote": "随時対応"
  },
  {
    "id": "3770111098",
    "name": "株式会社おたっしゃ・ケア",
    "kana": "カブシキカイシャオタッシャ・ケア",
    "address": "香川県高松市木太町1177番地6",
    "lat": 34.3221938,
    "lng": 134.069564,
    "tel": "087-813-3595",
    "url": "",
    "pref": "香川県",
    "city": "高松市",
    "category": "home_help",
    "serviceType": "訪問介護",
    "capacity": 0,
    "openDays": [
      "平日",
      "土曜日",
      "日曜日",
      "祝日"
    ],
    "openDaysNote": ""
  },
  {
    "id": "3770102220",
    "name": "株式会社グリーンタクシーグリーン介護サービス",
    "kana": "カブシキガイシャグリーンタクシーグリーンカイゴサービス",
    "address": "香川県高松市川島本町167番地6",
    "lat": 34.2757263,
    "lng": 134.0863139,
    "tel": "087-848-0841",
    "url": "",
    "pref": "香川県",
    "city": "高松市",
    "category": "home_help",
    "serviceType": "訪問介護",
    "capacity": 0,
    "openDays": [
      "平日",
      "土曜日",
      "日曜日",
      "祝日"
    ],
    "openDaysNote": "緊急・非常時は時間外でも対応できます。"
  },
  {
    "id": "3770104903",
    "name": "株式会社トキワタクシー　トキワ介護サービス",
    "kana": "カブシキガイシャトキワタクシー　トキワカイゴサービス",
    "address": "高松市紙町596番地2",
    "lat": 34.316443,
    "lng": 134.0351368,
    "tel": "087-867-5151",
    "url": "http://www.Tokiwataxi.com",
    "pref": "香川県",
    "city": "高松市",
    "category": "home_help",
    "serviceType": "訪問介護",
    "capacity": null,
    "openDays": [
      "平日",
      "土曜日",
      "日曜日",
      "祝日"
    ],
    "openDaysNote": "-"
  },
  {
    "id": "3770111940",
    "name": "株式会社三奏",
    "kana": "カブシキカイシャサンソウ",
    "address": "高松市上福岡町721番地2マキノ上福岡ビル4階 マキノ上福岡ビル4階",
    "lat": 34.3339963,
    "lng": 134.0679029,
    "tel": "878613789",
    "url": "http://mg-sansou.com/company",
    "pref": "香川県",
    "city": "高松市",
    "category": "home_help",
    "serviceType": "訪問介護",
    "capacity": null,
    "openDays": [
      "平日",
      "土曜日"
    ],
    "openDaysNote": ""
  },
  {
    "id": "3770105389",
    "name": "居宅介護サービス　ケアフィット",
    "kana": "キョタクカイゴサービス　ケアフィット",
    "address": "香川県高松市高松町1321-6",
    "lat": 34.3311865359952,
    "lng": 134.119721985875,
    "tel": "087-844-3510",
    "url": "",
    "pref": "香川県",
    "city": "高松市",
    "category": "home_help",
    "serviceType": "訪問介護",
    "capacity": 0,
    "openDays": [
      "平日",
      "土曜日",
      "日曜日",
      "祝日"
    ],
    "openDaysNote": "利用者様のご都合に合わせて年末年始、お盆もサービスの提供を致します。"
  },
  {
    "id": "3770101107",
    "name": "光華訪問介護事業所",
    "kana": "コウカホウモンカイゴジギョウショ",
    "address": "高松市伏石町2103－21　KOHKAビル3F",
    "lat": 34.309857202063,
    "lng": 134.059933995176,
    "tel": "087-868-4111",
    "url": "http://s-kohka.jp/",
    "pref": "香川県",
    "city": "高松市",
    "category": "home_help",
    "serviceType": "訪問介護",
    "capacity": 7,
    "openDays": [
      "平日",
      "土曜日",
      "日曜日",
      "祝日"
    ],
    "openDaysNote": "営業時間外も居宅サービス計画、本人、家族等の希望に応じてサービスを提供出来ることもありますので（改行）ご相談下さい。"
  },
  {
    "id": "3771400342",
    "name": "香川タクシー介護センター",
    "kana": "カガワタクシーカイゴセンター",
    "address": "香川県高松市香川町川東上1819-3",
    "lat": 34.2408888,
    "lng": 134.0325597,
    "tel": "087-879-2059",
    "url": "",
    "pref": "香川県",
    "city": "高松市",
    "category": "home_help",
    "serviceType": "訪問介護",
    "capacity": null,
    "openDays": [
      "平日",
      "土曜日",
      "日曜日",
      "祝日"
    ],
    "openDaysNote": "利用者の都合により時間外でも対応する"
  },
  {
    "id": "3770111494",
    "name": "香川医療生活協同組合　ヘルパーステーション虹の里",
    "kana": "カガワイリョウセイカツキョウドウクミアイ　ヘルパーステーションニジノサト",
    "address": "香川県高松市栗林町1-3-23",
    "lat": 34.3317363,
    "lng": 134.0469139,
    "tel": "087-862-6689",
    "url": "http://www.kagawa.coop",
    "pref": "香川県",
    "city": "高松市",
    "category": "home_help",
    "serviceType": "訪問介護",
    "capacity": null,
    "openDays": [
      "平日",
      "土曜日",
      "日曜日",
      "祝日"
    ],
    "openDaysNote": "利用者様の状況に応じ、必要な援助を検討していきます。"
  },
  {
    "id": "3770110819",
    "name": "香南タクシー介護事業部",
    "kana": "コウナンタクシーカイゴジギョウブ",
    "address": "香川県高松市仏生山町甲844番地8",
    "lat": 34.2830179,
    "lng": 134.0423109,
    "tel": "087-889-0213",
    "url": "",
    "pref": "香川県",
    "city": "高松市",
    "category": "home_help",
    "serviceType": "訪問介護",
    "capacity": null,
    "openDays": [
      "平日",
      "土曜日"
    ],
    "openDaysNote": ""
  },
  {
    "id": "3770111320",
    "name": "合同会社訪問介護センター奏",
    "kana": "ドウ）ホウモンカイゴセンターカナデ",
    "address": "香川県高松市木太町3234-7",
    "lat": 34.3335338,
    "lng": 134.0759546,
    "tel": "087-887-4683",
    "url": "https://x.gd/houmonkanadeHP",
    "pref": "香川県",
    "city": "高松市",
    "category": "home_help",
    "serviceType": "訪問介護",
    "capacity": 0,
    "openDays": [
      "平日"
    ],
    "openDaysNote": "応相談にて２４時間３６５日受け付けております。"
  },
  {
    "id": "3770109597",
    "name": "三好内科訪問介護センター",
    "kana": "ミヨシナイカホウモンカイゴセンター",
    "address": "香川県高松市川島本町440住宅型有料老人ホーム２F 住宅型有料老人ホーム２F",
    "lat": 34.2758235,
    "lng": 134.0854612,
    "tel": "087-848-2286",
    "url": "",
    "pref": "香川県",
    "city": "高松市",
    "category": "home_help",
    "serviceType": "訪問介護",
    "capacity": 0,
    "openDays": [
      "平日",
      "土曜日",
      "日曜日",
      "祝日"
    ],
    "openDaysNote": ""
  },
  {
    "id": "3770108169",
    "name": "指定訪問介護事業所　ふわり",
    "kana": "シテイホウモンカイゴジギョウショ　フワリ",
    "address": "香川県高松市国分寺町国分18-1",
    "lat": 34.3036995715889,
    "lng": 133.958721452011,
    "tel": "087-887-4028",
    "url": "http://www.city.takamatsu.kagawa.jp/23150.html",
    "pref": "香川県",
    "city": "高松市",
    "category": "home_help",
    "serviceType": "訪問介護",
    "capacity": 30,
    "openDays": [
      "平日",
      "土曜日",
      "日曜日",
      "祝日"
    ],
    "openDaysNote": "時間外の訪問もできます。"
  },
  {
    "id": "3770111379",
    "name": "支援センターウルカ",
    "kana": "シエンセンターウルカ",
    "address": "香川県高松市高松町691番地2",
    "lat": 34.3247163,
    "lng": 134.1139478,
    "tel": "087-844-3300",
    "url": "",
    "pref": "香川県",
    "city": "高松市",
    "category": "home_help",
    "serviceType": "訪問介護",
    "capacity": 0,
    "openDays": [
      "平日"
    ],
    "openDaysNote": "これ以外のサービス提供時間については相談に応じます。"
  },
  {
    "id": "3770100042",
    "name": "社会福祉法人　高松市社会福祉協議会",
    "kana": "シャカイフクシホウジン　タカマツシシャカイフクシキョウギカイ",
    "address": "高松市福岡町二丁目24番10号",
    "lat": 34.3444018,
    "lng": 134.064209,
    "tel": "087-811-5555",
    "url": "http://www.takamatsushi-syakyo.or.jp/",
    "pref": "香川県",
    "city": "高松市",
    "category": "home_help",
    "serviceType": "訪問介護",
    "capacity": 0,
    "openDays": [
      "平日",
      "土曜日",
      "日曜日",
      "祝日"
    ],
    "openDaysNote": "天災やその他やむを得ず業務を遂行できない日は休日となる場合があります。"
  },
  {
    "id": "3770104010",
    "name": "社会福祉法人　高松市社会福祉協議会香川",
    "kana": "シャカイフクシホウジン　タカマツシシャカイフクシキョウギカイカガワ",
    "address": "香川県高松市香川町大野450番地香川社会福祉センター 香川社会福祉センター",
    "lat": 34.2561056,
    "lng": 134.0291456,
    "tel": "087-840-5366",
    "url": "",
    "pref": "香川県",
    "city": "高松市",
    "category": "home_help",
    "serviceType": "訪問介護",
    "capacity": 0,
    "openDays": [
      "平日",
      "土曜日",
      "日曜日",
      "祝日"
    ],
    "openDaysNote": "天災その他やむを得ず業務を遂行できない日は休日となる場合があります。"
  },
  {
    "id": "3770101065",
    "name": "西春日ホームヘルプサービス",
    "kana": "ニシカスガホームヘルプサービス",
    "address": "香川県高松市西春日町1510-1",
    "lat": 34.3155429,
    "lng": 134.0201958,
    "tel": "087-869-1169",
    "url": "http//www.samariya.or.jp",
    "pref": "香川県",
    "city": "高松市",
    "category": "home_help",
    "serviceType": "訪問介護",
    "capacity": 0,
    "openDays": [
      "平日",
      "土曜日",
      "日曜日",
      "祝日"
    ],
    "openDaysNote": "電話等により、２４時間常時連絡が可能な体制とする。"
  },
  {
    "id": "3770111825",
    "name": "大樹の木",
    "kana": "タイジュノキ",
    "address": "香川県高松市仏生山町甲475‐2野間ビル1階 野間ビル1階",
    "lat": 34.2825015447751,
    "lng": 134.045864273911,
    "tel": "090‐9718‐5595",
    "url": "",
    "pref": "香川県",
    "city": "高松市",
    "category": "home_help",
    "serviceType": "訪問介護",
    "capacity": 40,
    "openDays": [
      "平日"
    ],
    "openDaysNote": ""
  },
  {
    "id": "3770101669",
    "name": "東讃交通株式会社ひまわり介護サービス高松",
    "kana": "トウサンコウツウカブシキガイシャヒマワリカイゴサービスタカマツ",
    "address": "香川県高松市通町6番地2",
    "lat": 34.3460295,
    "lng": 134.0559902,
    "tel": "087-811-5677",
    "url": "http:/www.tousan-koutsu.co.jp",
    "pref": "香川県",
    "city": "高松市",
    "category": "home_help",
    "serviceType": "訪問介護",
    "capacity": 0,
    "openDays": [
      "平日",
      "土曜日",
      "日曜日",
      "祝日"
    ],
    "openDaysNote": "24時間対応（改行）※計画（ケアプラン）に基づいた対応"
  },
  {
    "id": "3770106619",
    "name": "特定非営利活動法人　自立ケアシステム香川",
    "kana": "トクテイヒエイリカツドウホウジン　ジリツケアシステムカガワ",
    "address": "香川県高松市田村町1200番地1",
    "lat": 34.3065783199081,
    "lng": 134.033474929955,
    "tel": "087-866-6317",
    "url": "",
    "pref": "香川県",
    "city": "高松市",
    "category": "home_help",
    "serviceType": "訪問介護",
    "capacity": 0,
    "openDays": [
      "平日",
      "土曜日",
      "日曜日",
      "祝日"
    ],
    "openDaysNote": ""
  },
  {
    "id": "3770107013",
    "name": "特定非営利活動法人コアラサポート",
    "kana": "トクテイヒエイリカツドウホウジン　コアラサポート",
    "address": "香川県高松市円座町1124番地6",
    "lat": 34.2870628,
    "lng": 134.0068392,
    "tel": "087-814-6561",
    "url": "",
    "pref": "香川県",
    "city": "高松市",
    "category": "home_help",
    "serviceType": "訪問介護",
    "capacity": 0,
    "openDays": [
      "平日",
      "土曜日"
    ],
    "openDaysNote": "日曜、祝日、8/13～8/15、12/30～1/4を除く。"
  },
  {
    "id": "3770100349",
    "name": "特別養護老人ホーム岡本荘",
    "kana": "トクベツヨウゴロウジンホームオカモトソウ",
    "address": "高松市岡本町527番地1",
    "lat": 34.266109,
    "lng": 133.9949149,
    "tel": "087-885-2828",
    "url": "http://www.koutouen.com/okamotosou/",
    "pref": "香川県",
    "city": "高松市",
    "category": "home_help",
    "serviceType": "訪問介護",
    "capacity": 0,
    "openDays": [
      "平日",
      "土曜日",
      "日曜日",
      "祝日"
    ],
    "openDaysNote": "なし"
  },
  {
    "id": "3770101503",
    "name": "日新介護ヘルパーステーション",
    "kana": "ニッシンカイゴヘルパーステーション",
    "address": "香川県高松市香西本町36-1",
    "lat": 34.3489393,
    "lng": 134.0048461,
    "tel": "087-881-7772",
    "url": "",
    "pref": "香川県",
    "city": "高松市",
    "category": "home_help",
    "serviceType": "訪問介護",
    "capacity": 0,
    "openDays": [
      "平日",
      "土曜日"
    ],
    "openDaysNote": "-"
  },
  {
    "id": "3770105132",
    "name": "峰山デイホームサービス　灯り",
    "kana": "ミネヤマデイホームサービス　アカリ",
    "address": "高松市松並町８８０番地１",
    "lat": 34.3193704,
    "lng": 134.0278813,
    "tel": "087-869-1188",
    "url": "",
    "pref": "香川県",
    "city": "高松市",
    "category": "home_help",
    "serviceType": "訪問介護",
    "capacity": 0,
    "openDays": [
      "平日",
      "土曜日",
      "日曜日",
      "祝日"
    ],
    "openDaysNote": "営業時間外でも相談に応じます"
  },
  {
    "id": "3770110603",
    "name": "訪問介護　Lamer",
    "kana": "ホウモンカイゴ　ラ　メール",
    "address": "香川県高松市茜町28-31",
    "lat": 34.3507236479073,
    "lng": 134.023849176721,
    "tel": "087-802-0031",
    "url": "http://akanecho-bellevie.com/",
    "pref": "香川県",
    "city": "高松市",
    "category": "home_help",
    "serviceType": "訪問介護",
    "capacity": null,
    "openDays": [
      "平日",
      "土曜日",
      "祝日"
    ],
    "openDaysNote": "１２月３０日～１月３日は除く（改行）サービス提供については営業日・時間以外も可能"
  },
  {
    "id": "3770111387",
    "name": "訪問介護　Laughter",
    "kana": "ホウモンカイゴ　ラフター",
    "address": "香川県高松市木太町1633-6",
    "lat": 34.3230469,
    "lng": 134.07488,
    "tel": "087-887-7392",
    "url": "",
    "pref": "香川県",
    "city": "高松市",
    "category": "home_help",
    "serviceType": "訪問介護",
    "capacity": 0,
    "openDays": [
      "平日"
    ],
    "openDaysNote": "午前９時００分～午後６時００分（改行）上記の営業日、営業時間、サービス提供時間のほか、電話等により（改行）２４時間常時連絡が可能な体制とする。"
  },
  {
    "id": "3770108565",
    "name": "訪問介護　てと手",
    "kana": "ホウモンカイゴ　テトテ",
    "address": "香川県高松市東山崎町971番地2",
    "lat": 34.3160136783195,
    "lng": 134.092882299831,
    "tel": "０８７－８４７－０８８５",
    "url": "",
    "pref": "香川県",
    "city": "高松市",
    "category": "home_help",
    "serviceType": "訪問介護",
    "capacity": 0,
    "openDays": [
      "平日",
      "土曜日",
      "祝日"
    ],
    "openDaysNote": "相談に応じます。"
  },
  {
    "id": "3770108151",
    "name": "訪問介護　なつめ",
    "kana": "ホウモンカイゴ　ナツメ",
    "address": "香川県高松市木太町1188番地2",
    "lat": 34.320229,
    "lng": 134.0697234,
    "tel": "087-813-6568",
    "url": "https://r.kaipoke.biz/bizcms/",
    "pref": "香川県",
    "city": "高松市",
    "category": "home_help",
    "serviceType": "訪問介護",
    "capacity": 0,
    "openDays": [
      "平日",
      "土曜日",
      "日曜日",
      "祝日"
    ],
    "openDaysNote": ""
  },
  {
    "id": "3770100257",
    "name": "訪問介護　まごころ",
    "kana": "ホウモンカイゴマゴコロ",
    "address": "高松市松並町802-1",
    "lat": 34.3166817,
    "lng": 134.0249566,
    "tel": "087-865-8001",
    "url": "http;//www.jp-care.gr.jp",
    "pref": "香川県",
    "city": "高松市",
    "category": "home_help",
    "serviceType": "訪問介護",
    "capacity": 80,
    "openDays": [
      "平日",
      "土曜日",
      "日曜日",
      "祝日"
    ],
    "openDaysNote": "ご希望によりご相談の上、対応いたします。"
  },
  {
    "id": "3770106932",
    "name": "訪問介護　木かげ",
    "kana": "ホウモンカイゴ　コカゲ",
    "address": "香川県高松市屋島西町1929-2",
    "lat": 34.3393772,
    "lng": 134.1043745,
    "tel": "087-843-1216",
    "url": "",
    "pref": "香川県",
    "city": "高松市",
    "category": "home_help",
    "serviceType": "訪問介護",
    "capacity": 0,
    "openDays": [
      "平日",
      "土曜日",
      "日曜日",
      "祝日"
    ],
    "openDaysNote": ""
  },
  {
    "id": "3770111684",
    "name": "訪問介護アイムホーム",
    "kana": "ホウモンカイゴアイムホーム",
    "address": "香川県高松市香西東町433-1",
    "lat": 34.3448706,
    "lng": 134.008391722754,
    "tel": "087-813-0377",
    "url": "https://machikuri.or.jp/",
    "pref": "香川県",
    "city": "高松市",
    "category": "home_help",
    "serviceType": "訪問介護",
    "capacity": 0,
    "openDays": [
      "平日"
    ],
    "openDaysNote": ""
  },
  {
    "id": "3770106122",
    "name": "訪問介護おかげ",
    "kana": "ホウモンカイゴオカゲ",
    "address": "香川県高松市栗林町一丁目13番25号栗林ビル2Ｆ 栗林ビル2Ｆ",
    "lat": 34.3285614,
    "lng": 134.0461052,
    "tel": "087-813-0226",
    "url": "http://www.kaigo-okage.com/",
    "pref": "香川県",
    "city": "高松市",
    "category": "home_help",
    "serviceType": "訪問介護",
    "capacity": 80,
    "openDays": [],
    "openDaysNote": "24時間365日サービス提供"
  },
  {
    "id": "3770110124",
    "name": "訪問介護クローバー",
    "kana": "ホウモンカイゴクローバー",
    "address": "香川県高松市三谷町4870-1",
    "lat": 34.2833317447605,
    "lng": 134.076537869074,
    "tel": "087-816-6955",
    "url": "",
    "pref": "香川県",
    "city": "高松市",
    "category": "home_help",
    "serviceType": "訪問介護",
    "capacity": 120,
    "openDays": [
      "平日",
      "土曜日"
    ],
    "openDaysNote": "時間外は、要相談。"
  },
  {
    "id": "3770107658",
    "name": "訪問介護ケアステーション高松",
    "kana": "ホウモンカイゴケアステーションタカマツ",
    "address": "香川県高松市桜町1丁目10番7号",
    "lat": 34.3307270881013,
    "lng": 134.052800513492,
    "tel": "087-861-2665",
    "url": "http://www.kaigostation.co.jp/index.html",
    "pref": "香川県",
    "city": "高松市",
    "category": "home_help",
    "serviceType": "訪問介護",
    "capacity": 38,
    "openDays": [
      "平日",
      "土曜日",
      "日曜日",
      "祝日"
    ],
    "openDaysNote": ""
  },
  {
    "id": "3770107385",
    "name": "訪問介護すずかけの径",
    "kana": "ホウモンカイゴスズカケノミチ",
    "address": "高松市上福岡町９１９－１",
    "lat": 34.3273773717291,
    "lng": 134.067142159525,
    "tel": "０８７－８７３－２６４０",
    "url": "ｈｔｔｐ//ｗｗｗ.shikoku.ne.jp/zoishou",
    "pref": "香川県",
    "city": "高松市",
    "category": "home_help",
    "serviceType": "訪問介護",
    "capacity": 40,
    "openDays": [
      "平日",
      "土曜日",
      "日曜日",
      "祝日"
    ],
    "openDaysNote": "午前７時～午前８時と午後５時３０分～午後１０時までの利用についてはご相談に応じます"
  },
  {
    "id": "3770108680",
    "name": "訪問介護ｽﾃｰｼｮﾝ　テラビーチリゾート屋島",
    "kana": "ホウモンカイゴステーション　テラビーチリゾートヤシマ",
    "address": "香川県高松市屋島西町2277-6",
    "lat": 34.3585074120906,
    "lng": 134.089367501852,
    "tel": "087-841-2588",
    "url": "http://www.lucksay.com",
    "pref": "香川県",
    "city": "高松市",
    "category": "home_help",
    "serviceType": "訪問介護",
    "capacity": 0,
    "openDays": [
      "平日",
      "土曜日",
      "日曜日",
      "祝日"
    ],
    "openDaysNote": ""
  },
  {
    "id": "3770111072",
    "name": "訪問介護ステーション　きょうか",
    "kana": "ホウモンカイゴステーション　キョウカ",
    "address": "香川県高松市春日町437番地1住宅型有料老人ホーム　きょうか　2階 住宅型有料老人ホーム　きょうか　2階",
    "lat": 34.3222165,
    "lng": 134.0911454,
    "tel": "087-818-1131",
    "url": "http://www.tomohiro-sk.jp/tomohiro.html",
    "pref": "香川県",
    "city": "高松市",
    "category": "home_help",
    "serviceType": "訪問介護",
    "capacity": 39,
    "openDays": [
      "平日",
      "土曜日",
      "日曜日",
      "祝日"
    ],
    "openDaysNote": ""
  },
  {
    "id": "3770111254",
    "name": "訪問介護ステーション　ククルケア",
    "kana": "ホウモンカイゴステーション　ククルケア",
    "address": "香川県高松市牟礼町牟礼2560番地3",
    "lat": 34.3471689,
    "lng": 134.1220011,
    "tel": "087-818-7550",
    "url": "",
    "pref": "香川県",
    "city": "高松市",
    "category": "home_help",
    "serviceType": "訪問介護",
    "capacity": 0,
    "openDays": [
      "平日",
      "土曜日",
      "日曜日",
      "祝日"
    ],
    "openDaysNote": ""
  },
  {
    "id": "3770110975",
    "name": "訪問介護ステーション　さち",
    "kana": "ホウモンカイゴステーションサチ",
    "address": "香川県高松市福岡町2丁目12番1号",
    "lat": 34.3457254,
    "lng": 134.0659442,
    "tel": "087-802-5333",
    "url": "",
    "pref": "香川県",
    "city": "高松市",
    "category": "home_help",
    "serviceType": "訪問介護",
    "capacity": 5,
    "openDays": [
      "平日",
      "土曜日"
    ],
    "openDaysNote": "必要に応じて随時対応"
  },
  {
    "id": "3770111544",
    "name": "訪問介護ステーション　はぐ",
    "kana": "ホウモンカイゴステーション　ハグ",
    "address": "香川県高松市香西本町147番地2サンクレスト香西101 サンクレスト香西101",
    "lat": 34.3467706,
    "lng": 134.0000859,
    "tel": "087-899-2286",
    "url": "",
    "pref": "香川県",
    "city": "高松市",
    "category": "home_help",
    "serviceType": "訪問介護",
    "capacity": 0,
    "openDays": [
      "平日",
      "土曜日",
      "日曜日",
      "祝日"
    ],
    "openDaysNote": "時間外は要相談"
  },
  {
    "id": "3770110744",
    "name": "訪問介護ステーションラファミリア",
    "kana": "ホウモンカイゴステーションラファミリア",
    "address": "香川県高松市十川西町418-4",
    "lat": 34.2749046,
    "lng": 134.1020283,
    "tel": "087-848-1275",
    "url": "",
    "pref": "香川県",
    "city": "高松市",
    "category": "home_help",
    "serviceType": "訪問介護",
    "capacity": 0,
    "openDays": [
      "平日",
      "土曜日",
      "日曜日",
      "祝日"
    ],
    "openDaysNote": "ケアプランの内容に応じて上記時間外のサービス提供をすることもある。"
  },
  {
    "id": "3770108987",
    "name": "訪問介護ステーション栗林公園",
    "kana": "ホウモンカイゴステーションリツリンコウエン",
    "address": "高松市藤塚町1丁目11-27かがやきの季 かがやきの季",
    "lat": 34.333326019783,
    "lng": 134.046769542328,
    "tel": "087-813-8837",
    "url": "http://kaigostation.co.jp/",
    "pref": "香川県",
    "city": "高松市",
    "category": "home_help",
    "serviceType": "訪問介護",
    "capacity": 60,
    "openDays": [
      "平日",
      "土曜日",
      "日曜日",
      "祝日"
    ],
    "openDaysNote": ""
  },
  {
    "id": "3770105926",
    "name": "訪問介護センター　サン・ウィング",
    "kana": "ホウモンカイゴセンター　サン・ウィング",
    "address": "香川県高松市国分寺町福家甲２８２番地１",
    "lat": 34.2679171,
    "lng": 133.9804272,
    "tel": "087-813-8127",
    "url": "http//www.sunwing-k.com",
    "pref": "香川県",
    "city": "高松市",
    "category": "home_help",
    "serviceType": "訪問介護",
    "capacity": 0,
    "openDays": [
      "平日",
      "土曜日",
      "日曜日",
      "祝日"
    ],
    "openDaysNote": "-"
  },
  {
    "id": "3770111247",
    "name": "訪問介護たんぽぽのわたげ",
    "kana": "ホウモンカイゴタンポポノワタゲ",
    "address": "東山崎町960番地1",
    "lat": 34.3038171,
    "lng": 134.0936543,
    "tel": "087-847-3101",
    "url": "https://tanpopo-w.com/",
    "pref": "香川県",
    "city": "高松市",
    "category": "home_help",
    "serviceType": "訪問介護",
    "capacity": 0,
    "openDays": [
      "平日",
      "土曜日",
      "日曜日",
      "祝日"
    ],
    "openDaysNote": ""
  },
  {
    "id": "3770109936",
    "name": "訪問介護ひまわりの町",
    "kana": "ホウモンカイゴヒマワリノマチ",
    "address": "香川県高松市六条町795-6はまもと医院内 はまもと医院内",
    "lat": 34.2976508,
    "lng": 134.078562,
    "tel": "087-864-6666",
    "url": "",
    "pref": "香川県",
    "city": "高松市",
    "category": "home_help",
    "serviceType": "訪問介護",
    "capacity": 0,
    "openDays": [
      "平日",
      "土曜日",
      "祝日"
    ],
    "openDaysNote": ""
  },
  {
    "id": "3770111783",
    "name": "訪問介護フォースター",
    "kana": "ホウモンカイゴフォースター",
    "address": "香川県高松市木太町453番地1丸忠第13ビル107 丸忠第13ビル107",
    "lat": 34.3111995,
    "lng": 134.0720156,
    "tel": "087-899-5568",
    "url": "",
    "pref": "香川県",
    "city": "高松市",
    "category": "home_help",
    "serviceType": "訪問介護",
    "capacity": null,
    "openDays": [
      "平日",
      "土曜日",
      "日曜日",
      "祝日"
    ],
    "openDaysNote": "土日祝は要相談。上記時間以外要相談"
  },
  {
    "id": "3770111452",
    "name": "訪問介護フォーユー",
    "kana": "ホウモンカイゴフォーユー",
    "address": "香川県高松市香川町大野465－1デイケアますらを内１階 デイケアますらを内１階",
    "lat": 34.2563203,
    "lng": 134.0282966,
    "tel": "878800250",
    "url": "https://www.akiyama-clinic.com/foryou",
    "pref": "香川県",
    "city": "高松市",
    "category": "home_help",
    "serviceType": "訪問介護",
    "capacity": 0,
    "openDays": [
      "平日"
    ],
    "openDaysNote": "7:00～19：00サービス利用可能。それ以外の時間帯は、応相談。"
  },
  {
    "id": "3770111221",
    "name": "訪問介護向日葵",
    "kana": "ホウモンカイゴヒマワリ",
    "address": "一宮町651-11",
    "lat": 34.288491491386,
    "lng": 134.02373413625,
    "tel": "878027312",
    "url": "",
    "pref": "香川県",
    "city": "高松市",
    "category": "home_help",
    "serviceType": "訪問介護",
    "capacity": null,
    "openDays": [
      "平日",
      "土曜日",
      "日曜日",
      "祝日"
    ],
    "openDaysNote": "営業時間外のサービスのご利用についてもご相談に応じます。（改行）電話等により２４時間連絡が可能です。"
  },
  {
    "id": "3771500612",
    "name": "訪問介護事業所　アップル",
    "kana": "ホウモンカイゴジギョウショ　アップル",
    "address": "香川県高松市国分寺町新名520-1",
    "lat": 34.292703,
    "lng": 133.9592415,
    "tel": "087-864-9000",
    "url": "http://www.hiiragikai.com",
    "pref": "香川県",
    "city": "高松市",
    "category": "home_help",
    "serviceType": "訪問介護",
    "capacity": 0,
    "openDays": [
      "平日"
    ],
    "openDaysNote": "現在休止中です。"
  },
  {
    "id": "3770109761",
    "name": "訪問介護事業所　かりん",
    "kana": "ホウモンカイゴジギョウショ　カリン",
    "address": "香川県高松市室町１９０３番地４",
    "lat": 34.3255255,
    "lng": 134.043536,
    "tel": "087-868-7000",
    "url": "http://www.rakuraku-group.jp",
    "pref": "香川県",
    "city": "高松市",
    "category": "home_help",
    "serviceType": "訪問介護",
    "capacity": 0,
    "openDays": [
      "平日",
      "土曜日",
      "日曜日",
      "祝日"
    ],
    "openDaysNote": "利用者の要望により24時間対応"
  },
  {
    "id": "3770111643",
    "name": "訪問介護事業所　きなし",
    "kana": "ホウモンカイゴジギョウショ　キナシ",
    "address": "香川県高松市鬼無町藤井392番地1住宅型有料老人ホーム　キナシ 住宅型有料老人ホーム　キナシ",
    "lat": 34.332298751467,
    "lng": 134.002777535226,
    "tel": "087-802-1670",
    "url": "https://www.obayashihp.or.jp/homekinashi/",
    "pref": "香川県",
    "city": "高松市",
    "category": "home_help",
    "serviceType": "訪問介護",
    "capacity": null,
    "openDays": [
      "平日",
      "土曜日",
      "日曜日",
      "祝日"
    ],
    "openDaysNote": ""
  },
  {
    "id": "3770108557",
    "name": "訪問介護事業所　クレール慶",
    "kana": "ホウモンカイゴジギョウショ　クレールケイ",
    "address": "香川県高松市太田下町3031-12",
    "lat": 34.3037166,
    "lng": 134.0538065,
    "tel": "087-814-3110",
    "url": "www.keishoukai.jp/institution/kei/",
    "pref": "香川県",
    "city": "高松市",
    "category": "home_help",
    "serviceType": "訪問介護",
    "capacity": 0,
    "openDays": [
      "平日",
      "土曜日",
      "日曜日",
      "祝日"
    ],
    "openDaysNote": "サービス提供日：年中無休（改行）サービス提供時間：２４時間"
  },
  {
    "id": "3770107914",
    "name": "訪問介護事業所　せんねんの道",
    "kana": "ホウモンカイゴジギョウショ　センネンノミチ",
    "address": "香川県高松市香南町西庄696-1",
    "lat": 34.2446309731673,
    "lng": 133.990107529068,
    "tel": "087-840-5033",
    "url": "http:/yuyu.client.jp/",
    "pref": "香川県",
    "city": "高松市",
    "category": "home_help",
    "serviceType": "訪問介護",
    "capacity": 0,
    "openDays": [
      "平日",
      "土曜日",
      "日曜日",
      "祝日"
    ],
    "openDaysNote": ""
  },
  {
    "id": "3770110116",
    "name": "訪問介護事業所　つくし",
    "kana": "ホウモンカイゴジギョウショ　ツクシ",
    "address": "香川県高松市室町１９０３番地４",
    "lat": 34.3255255,
    "lng": 134.043536,
    "tel": "087-868-7700",
    "url": "http://www.rakuraku-group.jp",
    "pref": "香川県",
    "city": "高松市",
    "category": "home_help",
    "serviceType": "訪問介護",
    "capacity": 0,
    "openDays": [
      "平日",
      "土曜日",
      "日曜日",
      "祝日"
    ],
    "openDaysNote": "利用者の要望により24時間対応"
  },
  {
    "id": "3770110512",
    "name": "訪問介護事業所　はるか",
    "kana": "ホウモンカイゴジギョウショ　ハルカ",
    "address": "香川県高松市郷東町7-10",
    "lat": 34.3436169572792,
    "lng": 134.012235366795,
    "tel": "087-882-2171",
    "url": "",
    "pref": "香川県",
    "city": "高松市",
    "category": "home_help",
    "serviceType": "訪問介護",
    "capacity": 0,
    "openDays": [
      "平日",
      "土曜日",
      "日曜日",
      "祝日"
    ],
    "openDaysNote": "早朝(6時～8時)、夜間(18時～22時)もサービス内容によっては行っています。"
  },
  {
    "id": "3770106890",
    "name": "訪問介護事業所　恵",
    "kana": "ホウモンカイゴジギョウショ　メグミ",
    "address": "多肥上町１４１１番地１",
    "lat": 34.2944927,
    "lng": 134.0589477,
    "tel": "087-814-4118",
    "url": "https://rainbow-megumi.jp/",
    "pref": "香川県",
    "city": "高松市",
    "category": "home_help",
    "serviceType": "訪問介護",
    "capacity": 0,
    "openDays": [
      "平日",
      "土曜日",
      "日曜日",
      "祝日"
    ],
    "openDaysNote": "なし"
  },
  {
    "id": "3770106320",
    "name": "訪問介護事業所　宗（つかさ）",
    "kana": "ホウモンカイゴジギョウショ　ツカサ",
    "address": "高松市多肥下町２４４番地",
    "lat": 34.2980794185244,
    "lng": 134.053236597287,
    "tel": "087-814-3648",
    "url": "",
    "pref": "香川県",
    "city": "高松市",
    "category": "home_help",
    "serviceType": "訪問介護",
    "capacity": 5,
    "openDays": [
      "平日",
      "土曜日",
      "日曜日",
      "祝日"
    ],
    "openDaysNote": "ご希望に応じて土・日・祭日も出来る限り対応させていただきます"
  },
  {
    "id": "3770109290",
    "name": "訪問介護事業所　春だより",
    "kana": "ホウモンカイゴジギョウショ　ハルダヨリ",
    "address": "香川県高松市春日町1649-1にこにこライフ高松　１階事務所内 にこにこライフ高松　１階事務所内",
    "lat": 34.336097,
    "lng": 134.0904235,
    "tel": "087-814-7525",
    "url": "作成中",
    "pref": "香川県",
    "city": "高松市",
    "category": "home_help",
    "serviceType": "訪問介護",
    "capacity": 0,
    "openDays": [
      "平日",
      "土曜日",
      "日曜日",
      "祝日"
    ],
    "openDaysNote": ""
  },
  {
    "id": "3770107898",
    "name": "訪問介護事業所　瑞穂",
    "kana": "ホウモンカイゴジギョウショ　ミズホ",
    "address": "香川県高松市香南町岡371番地1",
    "lat": 34.2299017,
    "lng": 134.0265303,
    "tel": "087-899-8830",
    "url": "https://ayada-clinic-yuusyoukai.com/",
    "pref": "香川県",
    "city": "高松市",
    "category": "home_help",
    "serviceType": "訪問介護",
    "capacity": 5,
    "openDays": [
      "平日",
      "土曜日",
      "日曜日",
      "祝日"
    ],
    "openDaysNote": ""
  },
  {
    "id": "3770109530",
    "name": "訪問介護事業所えみのわ高松",
    "kana": "ホウモンカイゴジギョウショエミノワタカマツ",
    "address": "香川県高松市太田上町974-6シャンボール太田1F シャンボール太田1F",
    "lat": 34.3005271,
    "lng": 134.041723,
    "tel": "087-813-7579",
    "url": "http://eminowa.net",
    "pref": "香川県",
    "city": "高松市",
    "category": "home_help",
    "serviceType": "訪問介護",
    "capacity": 34,
    "openDays": [
      "平日",
      "土曜日",
      "日曜日",
      "祝日"
    ],
    "openDaysNote": "365日を原則とする"
  },
  {
    "id": "3770100927",
    "name": "訪問介護事業所さぬき",
    "kana": "ホウモンカイゴジギョウショサヌキ",
    "address": "宮脇町2丁目37-21",
    "lat": 34.3375822811675,
    "lng": 134.029758312095,
    "tel": "087-831-4450",
    "url": "http://www.sanuki-sha.or.jp",
    "pref": "香川県",
    "city": "高松市",
    "category": "home_help",
    "serviceType": "訪問介護",
    "capacity": 0,
    "openDays": [
      "平日",
      "土曜日",
      "日曜日",
      "祝日"
    ],
    "openDaysNote": "年中無休"
  },
  {
    "id": "3770109753",
    "name": "訪問介護事業所そら",
    "kana": "ホウモンカイゴジギョウショソラ",
    "address": "香川県高松市室町1903番地４",
    "lat": 34.3255255,
    "lng": 134.043536,
    "tel": "087-868-7006",
    "url": "http://www.rakuraku-rroup.jp/",
    "pref": "香川県",
    "city": "高松市",
    "category": "home_help",
    "serviceType": "訪問介護",
    "capacity": 0,
    "openDays": [
      "平日",
      "土曜日",
      "日曜日",
      "祝日"
    ],
    "openDaysNote": "利用者の要望により24時間対応"
  },
  {
    "id": "3770106791",
    "name": "訪問介護事業所なごみ",
    "kana": "ホウモンカイゴジギョウショナゴミ",
    "address": "福岡町4丁目16番１号",
    "lat": 33.8345174666756,
    "lng": 130.728703054923,
    "tel": "087-802-5441",
    "url": "http://matsu-h.jp/",
    "pref": "香川県",
    "city": "高松市",
    "category": "home_help",
    "serviceType": "訪問介護",
    "capacity": 80,
    "openDays": [
      "平日",
      "土曜日",
      "日曜日",
      "祝日"
    ],
    "openDaysNote": "早朝や夜間の訪問に関して、時間外の訪問は要相談させていただいております。"
  },
  {
    "id": "3770112039",
    "name": "訪問介護事業所ひだまりステーション",
    "kana": "ホウモンカイゴジギョウショヒダマリステーション",
    "address": "香川県高松市香川町川東下1190-1",
    "lat": 34.2468020656587,
    "lng": 134.030846209822,
    "tel": "087-899-6314",
    "url": "https://fukushi-hidamari.or.jp/",
    "pref": "香川県",
    "city": "高松市",
    "category": "home_help",
    "serviceType": "訪問介護",
    "capacity": 0,
    "openDays": [
      "平日",
      "土曜日",
      "日曜日",
      "祝日"
    ],
    "openDaysNote": "営業時間外のサービスのご利用についてもご相談に応じます。（改行）電話等により２４時間連絡が可能です。"
  },
  {
    "id": "3770101636",
    "name": "訪問介護事業所慶",
    "kana": "ホウモンカイゴジギョウショヨロコビ",
    "address": "香川県高松市香川町川内原７３番地１",
    "lat": 34.2408361,
    "lng": 134.0409169,
    "tel": "087-815-8261",
    "url": "",
    "pref": "香川県",
    "city": "高松市",
    "category": "home_help",
    "serviceType": "訪問介護",
    "capacity": 0,
    "openDays": [
      "平日",
      "土曜日",
      "日曜日",
      "祝日"
    ],
    "openDaysNote": "-"
  },
  {
    "id": "3770101701",
    "name": "有限会社　太田タクシー",
    "kana": "ユウゲンガイシャ　オオタタクシー",
    "address": "香川県高松市太田上町764-12",
    "lat": 34.2997865,
    "lng": 134.0463096,
    "tel": "087-866-1596",
    "url": "",
    "pref": "香川県",
    "city": "高松市",
    "category": "home_help",
    "serviceType": "訪問介護",
    "capacity": 0,
    "openDays": [
      "平日",
      "土曜日"
    ],
    "openDaysNote": "なし"
  },
  {
    "id": "3770101461",
    "name": "有限会社飯田タクシー　訪問介護サービス",
    "kana": "ユウゲンガイシャイイダタクシー　ホウモンカイゴサービス",
    "address": "高松市飯田町853-7",
    "lat": 34.3163119,
    "lng": 134.0009947,
    "tel": "087-881-0629",
    "url": "",
    "pref": "香川県",
    "city": "高松市",
    "category": "home_help",
    "serviceType": "訪問介護",
    "capacity": null,
    "openDays": [
      "平日",
      "土曜日",
      "祝日"
    ],
    "openDaysNote": "-"
  },
  {
    "id": "3770109191",
    "name": "両備ヘルシーケア高松ヘルパーセンター",
    "kana": "リョウビヘルシーケアタカマツヘルパーセンター",
    "address": "香川県高松市浜ノ町53番38号",
    "lat": 34.3522592,
    "lng": 134.038277,
    "tel": "087-813-2298",
    "url": "http://www.ryobi-hc.jp/",
    "pref": "香川県",
    "city": "高松市",
    "category": "home_help",
    "serviceType": "訪問介護",
    "capacity": 0,
    "openDays": [
      "平日",
      "土曜日",
      "日曜日",
      "祝日"
    ],
    "openDaysNote": ""
  },
  {
    "id": "3770300295",
    "name": "MIRAI病院訪問介護センター",
    "kana": "ミライビョウインホウモンカイゴセンター",
    "address": "香川県坂出市加茂町593番地1旧西山脳神経外科病院 旧西山脳神経外科病院",
    "lat": 34.3070595057826,
    "lng": 133.909799824357,
    "tel": "0877-48-3466",
    "url": "https://www.mirai-hospital.com/community/home-care/",
    "pref": "香川県",
    "city": "坂出市",
    "category": "home_help",
    "serviceType": "訪問介護",
    "capacity": 0,
    "openDays": [
      "平日",
      "土曜日"
    ],
    "openDaysNote": "-訪問日が祭日の場合は曜日変更にて対応します。"
  },
  {
    "id": "3770300618",
    "name": "あいうえおケアセンター",
    "kana": "アイウエオケアセンター",
    "address": "坂出市府中町5675-18",
    "lat": 34.2993194,
    "lng": 133.9076738,
    "tel": "0877-48-3345",
    "url": "",
    "pref": "香川県",
    "city": "坂出市",
    "category": "home_help",
    "serviceType": "訪問介護",
    "capacity": 0,
    "openDays": [
      "平日",
      "土曜日"
    ],
    "openDaysNote": "要望があれば時間外サービスの対応可能。"
  },
  {
    "id": "3770300949",
    "name": "グレイスガーデン訪問介護センター",
    "kana": "グレイスガーデンホウモンカイゴセンター",
    "address": "加茂町628-1",
    "lat": 34.3074851,
    "lng": 133.9101594,
    "tel": "0877-56-3371",
    "url": "http://www.kbn.ne.jp/home/neuronis/grace/",
    "pref": "香川県",
    "city": "坂出市",
    "category": "home_help",
    "serviceType": "訪問介護",
    "capacity": 0,
    "openDays": [
      "平日",
      "土曜日",
      "日曜日",
      "祝日"
    ],
    "openDaysNote": ""
  },
  {
    "id": "3770300774",
    "name": "セントケア坂出",
    "kana": "セントケアサカイデ",
    "address": "香川県坂出市林田町879番地5",
    "lat": 34.3240652597698,
    "lng": 133.893498307932,
    "tel": "0877-47-1020",
    "url": "http:/www.saint-care.com",
    "pref": "香川県",
    "city": "坂出市",
    "category": "home_help",
    "serviceType": "訪問介護",
    "capacity": 0,
    "openDays": [
      "平日",
      "土曜日",
      "日曜日",
      "祝日"
    ],
    "openDaysNote": "ケアプランに基づいて２４時間・365日サービス提供を行う。"
  },
  {
    "id": "3770301202",
    "name": "ニチイケアセンターさかいで",
    "kana": "ニチイケアセンターサカイデ",
    "address": "香川県坂出市西大浜南１丁目4-5",
    "lat": 34.3197739,
    "lng": 133.8467584,
    "tel": "0877-45-3380",
    "url": "www.nichiigakkan.co.jp",
    "pref": "香川県",
    "city": "坂出市",
    "category": "home_help",
    "serviceType": "訪問介護",
    "capacity": 0,
    "openDays": [
      "平日",
      "土曜日",
      "日曜日",
      "祝日"
    ],
    "openDaysNote": "夜間・深夜・早朝に関しては相談に応じます。"
  },
  {
    "id": "3770301160",
    "name": "ヘルパーステーション　府中の郷　雅",
    "kana": "ヘルパーステーション　フチュウノサト　ミヤビ",
    "address": "香川県坂出市府中町１４７番地６府中の郷　雅 府中の郷　雅",
    "lat": 36.204824,
    "lng": 138.252924,
    "tel": "0877-43-7703",
    "url": "http//www.akazawa-hp.or.jp",
    "pref": "香川県",
    "city": "坂出市",
    "category": "home_help",
    "serviceType": "訪問介護",
    "capacity": null,
    "openDays": [
      "平日",
      "土曜日"
    ],
    "openDaysNote": ""
  },
  {
    "id": "3770301269",
    "name": "ヘルパーステーションさくら",
    "kana": "ヘルパーステーションサクラ",
    "address": "香川県坂出市元町２番地1-1",
    "lat": 34.3152879,
    "lng": 133.8547461,
    "tel": "0877-45-1162",
    "url": "",
    "pref": "香川県",
    "city": "坂出市",
    "category": "home_help",
    "serviceType": "訪問介護",
    "capacity": null,
    "openDays": [
      "平日",
      "土曜日",
      "日曜日",
      "祝日"
    ],
    "openDaysNote": "サービス提供時間は午前９時から午後１８時までとする。（改行）ただし、早朝（午前６時から午前８時）夜間（午後６時から午後１０時）深夜（午後１０時から翌日午前６時）の間も営業のある時は営業時間を延長する。"
  },
  {
    "id": "3770300287",
    "name": "らくらくダイワ",
    "kana": "ラクラクダイワ",
    "address": "香川県坂出市富士見町二丁目5-3",
    "lat": 34.3057403,
    "lng": 133.8494421,
    "tel": "0877-46-0757",
    "url": "http://www.rakurakudaiwa.jp/",
    "pref": "香川県",
    "city": "坂出市",
    "category": "home_help",
    "serviceType": "訪問介護",
    "capacity": 15,
    "openDays": [
      "平日",
      "土曜日",
      "日曜日",
      "祝日"
    ],
    "openDaysNote": "時間外については要相談"
  },
  {
    "id": "3770301103",
    "name": "坂出聖マルチン病院訪問介護",
    "kana": "サカイデセイマルチンビョウインホウモンカイゴ",
    "address": "香川県坂出市谷町1-4-68",
    "lat": 34.3118005,
    "lng": 133.8597883,
    "tel": "0877-46-6712",
    "url": "sakaide-martinhp.jp",
    "pref": "香川県",
    "city": "坂出市",
    "category": "home_help",
    "serviceType": "訪問介護",
    "capacity": 10,
    "openDays": [
      "平日",
      "土曜日",
      "祝日"
    ],
    "openDaysNote": "なし"
  },
  {
    "id": "3770300022",
    "name": "社会福祉法人坂出市社会福祉協議会",
    "kana": "シャカイフクシホウジンサカイデシシャカイフクシキョウギカイ",
    "address": "香川県坂出市白金町一丁目-2番-10号",
    "lat": 34.3131784299918,
    "lng": 133.846443735288,
    "tel": "0877-46-4848",
    "url": "http://sakaidesyakyo.jp/",
    "pref": "香川県",
    "city": "坂出市",
    "category": "home_help",
    "serviceType": "訪問介護",
    "capacity": 0,
    "openDays": [
      "平日",
      "土曜日",
      "日曜日",
      "祝日"
    ],
    "openDaysNote": "年末年始（12月29日～1月3日）は除きます。"
  },
  {
    "id": "3770300220",
    "name": "松ヶ浦荘ホームヘルパーステーション",
    "kana": "マツガウラソウホームヘルパーステーション",
    "address": "坂出市大屋冨町３１００番地１３",
    "lat": 34.3556199,
    "lng": 133.8940615,
    "tel": "0877-57-3402",
    "url": "http://care-net.biz/37/shoujyukai/",
    "pref": "香川県",
    "city": "坂出市",
    "category": "home_help",
    "serviceType": "訪問介護",
    "capacity": 0,
    "openDays": [
      "平日",
      "土曜日",
      "祝日"
    ],
    "openDaysNote": "上記時間以外にも、利用者の希望により対応可、又電話等により２４時間常時連絡可能な体制をとっている。"
  },
  {
    "id": "3770300204",
    "name": "城山ホームヘルパーステーション",
    "kana": "キヤマホームヘルパーステーション",
    "address": "香川県坂出市川津町1986番地22ケアハウス　ハイツ城山 ケアハウス　ハイツ城山",
    "lat": 34.2918662692066,
    "lng": 133.869975206082,
    "tel": "0877-45-1114",
    "url": "http://www.nagai-group.com/",
    "pref": "香川県",
    "city": "坂出市",
    "category": "home_help",
    "serviceType": "訪問介護",
    "capacity": 65,
    "openDays": [
      "平日",
      "土曜日",
      "日曜日",
      "祝日"
    ],
    "openDaysNote": "ただし、必要があるときはサービス提供時間を延長します。(要相談）"
  },
  {
    "id": "3770301145",
    "name": "中村製麸有限会社　訪問介護ステーション　まる",
    "kana": "ナカムラセイフユウゲンガイシャ　ホウモンカイゴステーション　マル",
    "address": "香川県坂出市旭町2丁目6番42号",
    "lat": 34.3157206157623,
    "lng": 133.866080228242,
    "tel": "0877-45-9274",
    "url": "https://sunumarudaru.crayonsite.net/",
    "pref": "香川県",
    "city": "坂出市",
    "category": "home_help",
    "serviceType": "訪問介護",
    "capacity": 10,
    "openDays": [
      "平日",
      "土曜日"
    ],
    "openDaysNote": "時間外に関しては要相談"
  },
  {
    "id": "3770300733",
    "name": "訪問介護　星雲",
    "kana": "ホウモンカイゴセイウン",
    "address": "香川県坂出市室町３丁目１－５大山ビル３F 大山ビル３F",
    "lat": 34.3176493637083,
    "lng": 133.86008977896,
    "tel": "0877-44-4848",
    "url": "",
    "pref": "香川県",
    "city": "坂出市",
    "category": "home_help",
    "serviceType": "訪問介護",
    "capacity": null,
    "openDays": [
      "平日",
      "土曜日",
      "日曜日",
      "祝日"
    ],
    "openDaysNote": "上記と同じ"
  },
  {
    "id": "3770300873",
    "name": "訪問介護事業所　幹",
    "kana": "ホウモンカイゴジギョウショ　ミキ",
    "address": "香川県坂出市西大浜北２－４－５６",
    "lat": 34.3239792,
    "lng": 133.8435666,
    "tel": "0877-35-9150",
    "url": "",
    "pref": "香川県",
    "city": "坂出市",
    "category": "home_help",
    "serviceType": "訪問介護",
    "capacity": null,
    "openDays": [
      "平日",
      "土曜日",
      "日曜日",
      "祝日"
    ],
    "openDaysNote": "ケアプランに基づき、24時間・365日サービス提供を行う。"
  },
  {
    "id": "3770301236",
    "name": "訪問介護事業所マイルドハート坂出",
    "kana": "ホウモンカイゴジギョウショマイルドハートサカイデ",
    "address": "横津町3-2-11",
    "lat": 34.3184744,
    "lng": 133.8666132,
    "tel": "0877-44-5255",
    "url": "",
    "pref": "香川県",
    "city": "坂出市",
    "category": "home_help",
    "serviceType": "訪問介護",
    "capacity": null,
    "openDays": [
      "平日"
    ],
    "openDaysNote": ""
  },
  {
    "id": "3771700287",
    "name": "うらしま介護サービス　四国損害保険株式会社",
    "kana": "ウラシマカイゴサービス　シコクソンガイホケンカブシキカイシャ",
    "address": "香川県三豊市詫間町詫間6784-95",
    "lat": 34.2173184871622,
    "lng": 133.685878658336,
    "tel": "0875-83-6200",
    "url": "",
    "pref": "香川県",
    "city": "三豊市",
    "category": "home_help",
    "serviceType": "訪問介護",
    "capacity": 0,
    "openDays": [
      "平日",
      "土曜日",
      "日曜日",
      "祝日"
    ],
    "openDaysNote": "上記以外の時間は相談に応じます。ケアプラン等の対応によっては、この時間外でも対応可能です"
  },
  {
    "id": "3770800773",
    "name": "ケアステーションオレンジ",
    "kana": "ケアステーションオレンジ",
    "address": "香川県三豊市豊中町下高野1092",
    "lat": 34.1531550247045,
    "lng": 133.685257485481,
    "tel": "0875-62-1870",
    "url": "http://healthy-aging.co.jp/",
    "pref": "香川県",
    "city": "三豊市",
    "category": "home_help",
    "serviceType": "訪問介護",
    "capacity": null,
    "openDays": [
      "平日",
      "土曜日",
      "日曜日",
      "祝日"
    ],
    "openDaysNote": ""
  },
  {
    "id": "3771700865",
    "name": "にこにこ三豊訪問介護事業所",
    "kana": "ニコニコミトヨホウモンカイゴジギョウショ",
    "address": "香川県三豊市高瀬町上高瀬1883番地1",
    "lat": 34.1863495,
    "lng": 133.7256182,
    "tel": "0875-73-6750",
    "url": "http://care-net.biz/37/nponikonikomitoyo/",
    "pref": "香川県",
    "city": "三豊市",
    "category": "home_help",
    "serviceType": "訪問介護",
    "capacity": 100,
    "openDays": [
      "平日",
      "土曜日",
      "日曜日",
      "祝日"
    ],
    "openDaysNote": "転送電話により、24時間緊急対応可能"
  },
  {
    "id": "3770800757",
    "name": "ニチイケアセンターたかせ",
    "kana": "ニチイケアセンタータカセ",
    "address": "香川県三豊市高瀬町下勝間2488-1",
    "lat": 34.181184,
    "lng": 133.7162134,
    "tel": "0875-74-3503",
    "url": "",
    "pref": "香川県",
    "city": "三豊市",
    "category": "home_help",
    "serviceType": "訪問介護",
    "capacity": null,
    "openDays": [
      "平日",
      "土曜日",
      "日曜日",
      "祝日"
    ],
    "openDaysNote": "夜間、深夜、早朝に関しては相談に応じます。"
  },
  {
    "id": "3770800674",
    "name": "ヘルパーステーションフクシア",
    "kana": "ヘルパーステーションフクシア",
    "address": "香川県三豊市仁尾町仁尾辛39-1サービス付高齢者向け住宅フクシア内 サービス付高齢者向け住宅フクシア内",
    "lat": 34.195148952321,
    "lng": 133.647168580426,
    "tel": "0875-82-3351",
    "url": "",
    "pref": "香川県",
    "city": "三豊市",
    "category": "home_help",
    "serviceType": "訪問介護",
    "capacity": 0,
    "openDays": [
      "平日",
      "土曜日",
      "日曜日",
      "祝日"
    ],
    "openDaysNote": "サービス提供については営業日・時間以外も可能"
  },
  {
    "id": "3770800047",
    "name": "三豊市社会福祉協議会訪問介護事業所",
    "kana": "ミトヨシシャカイフクシキョウギカイホウモンカイゴジギョウショ",
    "address": "香川県三豊市高瀬町下勝間2449番地1(高瀬町社会福祉センター内)",
    "lat": 34.1817758654918,
    "lng": 133.715940455959,
    "tel": "0875-72-0122",
    "url": "http://www.mitiyishakyo.or.jp",
    "pref": "香川県",
    "city": "三豊市",
    "category": "home_help",
    "serviceType": "訪問介護",
    "capacity": 0,
    "openDays": [
      "平日"
    ],
    "openDaysNote": "土日・祝日・時間外については、特に利用者の要望がある場合には考慮し対応する。"
  },
  {
    "id": "3771700303",
    "name": "指定訪問介護事業所　たくま荘",
    "kana": "シテイホウモンカイゴジギョウショ　タクマソウ",
    "address": "香川県三豊市詫間町詫間７７３２番地６０",
    "lat": 34.2142801,
    "lng": 133.6692613,
    "tel": "0875-83-6261",
    "url": "http://www.takumaso.com/",
    "pref": "香川県",
    "city": "三豊市",
    "category": "home_help",
    "serviceType": "訪問介護",
    "capacity": 0,
    "openDays": [
      "平日",
      "祝日"
    ],
    "openDaysNote": "ー"
  },
  {
    "id": "3770800781",
    "name": "指定訪問介護事業所ステッキ",
    "kana": "シテイホウモンカイゴジギョウショステッキ",
    "address": "香川県三豊市詫間町詫間3962-1",
    "lat": 34.2314635,
    "lng": 133.6615558,
    "tel": "090-9550-4134",
    "url": "",
    "pref": "香川県",
    "city": "三豊市",
    "category": "home_help",
    "serviceType": "訪問介護",
    "capacity": 0,
    "openDays": [
      "平日",
      "土曜日",
      "祝日"
    ],
    "openDaysNote": ""
  },
  {
    "id": "3770800807",
    "name": "訪問介護事業所まごころ3",
    "kana": "ホウモンカイゴジギョウショ　マゴコロ　スリー",
    "address": "香川県三豊市豊中町笠田笠岡2070-3",
    "lat": 34.1588119,
    "lng": 133.7094571,
    "tel": "0875-23-9510",
    "url": "https://sasuke-gakuto.com/",
    "pref": "香川県",
    "city": "三豊市",
    "category": "home_help",
    "serviceType": "訪問介護",
    "capacity": 0,
    "openDays": [
      "平日",
      "土曜日",
      "日曜日",
      "祝日"
    ],
    "openDaysNote": "要相談の時間帯があります。"
  },
  {
    "id": "3771300609",
    "name": "あゆむ介護サービス",
    "kana": "アユムカイゴサービス",
    "address": "木田郡三木町大字氷上3761番地1",
    "lat": 34.252097323761,
    "lng": 134.13168866837,
    "tel": "087-891-9233",
    "url": "",
    "pref": "香川県",
    "city": "三木町",
    "category": "home_help",
    "serviceType": "訪問介護",
    "capacity": 10,
    "openDays": [
      "平日",
      "土曜日",
      "日曜日",
      "祝日"
    ],
    "openDaysNote": "時間を設定しているが、必要であれば時間外でも利用できる。"
  },
  {
    "id": "3771300864",
    "name": "ケアサービス笑顔",
    "kana": "ケアサービスエガオ",
    "address": "香川県木田郡三木町池戸1538番地2たまきハイツ1棟106号 たまきハイツ1棟106号",
    "lat": 34.2927821298887,
    "lng": 134.126333063573,
    "tel": "087-880-7076",
    "url": "",
    "pref": "香川県",
    "city": "三木町",
    "category": "home_help",
    "serviceType": "訪問介護",
    "capacity": 0,
    "openDays": [
      "平日",
      "土曜日",
      "日曜日",
      "祝日"
    ],
    "openDaysNote": ""
  },
  {
    "id": "3771300468",
    "name": "すずらんケアセンター",
    "kana": "スズランケアセンター",
    "address": "香川県木田郡三木町池戸3148番地9",
    "lat": 34.2743551,
    "lng": 134.1158734,
    "tel": "087-864-4000",
    "url": "https://hatsukikai.or.jp/",
    "pref": "香川県",
    "city": "三木町",
    "category": "home_help",
    "serviceType": "訪問介護",
    "capacity": 0,
    "openDays": [
      "平日",
      "土曜日",
      "日曜日",
      "祝日"
    ],
    "openDaysNote": "-"
  },
  {
    "id": "3771300781",
    "name": "ヘルパーステーションヌーベル三木",
    "kana": "ヘルパーステーションヌーベルミキ",
    "address": "香川県木田郡三木町大字上高岡1033番地１",
    "lat": 34.2529838,
    "lng": 134.1403541,
    "tel": "087-898-1107",
    "url": "http://www.yu-sho.or.jp",
    "pref": "香川県",
    "city": "三木町",
    "category": "home_help",
    "serviceType": "訪問介護",
    "capacity": 0,
    "openDays": [
      "平日",
      "土曜日",
      "日曜日",
      "祝日"
    ],
    "openDaysNote": "状況に応じて対応する"
  },
  {
    "id": "3771300401",
    "name": "ヘルパーステーションみき",
    "kana": "ヘルパーステーションミキ",
    "address": "木田郡三木町氷上112-1",
    "lat": 34.2659151,
    "lng": 134.130216,
    "tel": "087-891-0532",
    "url": "http://www.kagawa.coop/",
    "pref": "香川県",
    "city": "三木町",
    "category": "home_help",
    "serviceType": "訪問介護",
    "capacity": 0,
    "openDays": [
      "平日",
      "土曜日"
    ],
    "openDaysNote": "上記営業日、営業時間外については利用者との相談に応じている"
  },
  {
    "id": "3771300757",
    "name": "ライフケア桜三月訪問介護センター",
    "kana": "ライフケアサクラミヅキホウモンカイゴセンター",
    "address": "香川県木田郡三木町下高岡字川原井2318-4ライフケア桜三月 ライフケア桜三月",
    "lat": 34.2651394253388,
    "lng": 134.145702640623,
    "tel": "087-891-1221",
    "url": "http://www.dolphin-takamatsu.jp/index.html",
    "pref": "香川県",
    "city": "三木町",
    "category": "home_help",
    "serviceType": "訪問介護",
    "capacity": 41,
    "openDays": [
      "平日",
      "土曜日",
      "日曜日",
      "祝日"
    ],
    "openDaysNote": "18時～夜勤者"
  },
  {
    "id": "3771300088",
    "name": "三木指定訪問介護事業所",
    "kana": "ミキシテイホウモンカイゴジギョウショ",
    "address": "香川県木田郡三木町大字氷上310番地三木町防災センター内 三木町防災センター内",
    "lat": 34.2683713118614,
    "lng": 134.13453154107,
    "tel": "087-891-3317",
    "url": "http://ww8.tiki.ne.jp/~mikishakyo/",
    "pref": "香川県",
    "city": "三木町",
    "category": "home_help",
    "serviceType": "訪問介護",
    "capacity": 0,
    "openDays": [
      "平日",
      "土曜日",
      "祝日"
    ],
    "openDaysNote": ""
  },
  {
    "id": "3771200429",
    "name": "ヘルプステーション青空",
    "kana": "ヘルプステーションアオゾラ",
    "address": "香川県小豆郡小豆島町西村甲２１２２-１お元気村　青空 お元気村　青空",
    "lat": 34.4696123,
    "lng": 134.2703506,
    "tel": "0879-82-7116",
    "url": "http://www.ogenki-aozora.jp",
    "pref": "香川県",
    "city": "小豆島町",
    "category": "home_help",
    "serviceType": "訪問介護",
    "capacity": 0,
    "openDays": [
      "平日"
    ],
    "openDaysNote": "ケアプランの内容に応じて上記時間以外のサービスを提供する場合もある。"
  },
  {
    "id": "3771200346",
    "name": "介護サービスしょうどしま",
    "kana": "カイゴサービスショウドシマ",
    "address": "香川県小豆郡小豆島町片城甲４４番地９５",
    "lat": 34.4792709382388,
    "lng": 134.308054565403,
    "tel": "0879-82-7036",
    "url": "",
    "pref": "香川県",
    "city": "小豆島町",
    "category": "home_help",
    "serviceType": "訪問介護",
    "capacity": 0,
    "openDays": [
      "平日",
      "土曜日",
      "日曜日",
      "祝日"
    ],
    "openDaysNote": "-"
  },
  {
    "id": "3771200635",
    "name": "介護サポートさくら",
    "kana": "カイゴサポートサクラ",
    "address": "西村甲719番地2",
    "lat": 34.4705179,
    "lng": 134.2772222,
    "tel": "0879-82-5391",
    "url": "",
    "pref": "香川県",
    "city": "小豆島町",
    "category": "home_help",
    "serviceType": "訪問介護",
    "capacity": 0,
    "openDays": [
      "平日",
      "土曜日",
      "日曜日",
      "祝日"
    ],
    "openDaysNote": "必要時は営業時間外、(緊急時)の対応も行います"
  },
  {
    "id": "3771200452",
    "name": "株式会社ケアサポートつばさ",
    "kana": "カブシキカイシヤケアサポートツバサ",
    "address": "香川県小豆郡小豆島町神懸通甲１６６２－１",
    "lat": 34.4918463,
    "lng": 134.3025699,
    "tel": "0879-82-5127",
    "url": "http://hp.kaipoke.biz/28v/",
    "pref": "香川県",
    "city": "小豆島町",
    "category": "home_help",
    "serviceType": "訪問介護",
    "capacity": 25,
    "openDays": [
      "平日",
      "土曜日",
      "日曜日",
      "祝日"
    ],
    "openDaysNote": "-"
  },
  {
    "id": "3771200585",
    "name": "訪問介護事業所　はまひるがお内海",
    "kana": "ホウモンカイゴジギョウショ　ハマヒルガオウチノミ",
    "address": "香川県小豆郡小豆島町安田乙158番地2",
    "lat": 34.4814096,
    "lng": 134.3340923,
    "tel": "0879－62－8277",
    "url": "",
    "pref": "香川県",
    "city": "小豆島町",
    "category": "home_help",
    "serviceType": "訪問介護",
    "capacity": 0,
    "openDays": [
      "平日",
      "土曜日",
      "日曜日",
      "祝日"
    ],
    "openDaysNote": ""
  },
  {
    "id": "3771200080",
    "name": "訪問介護事業所サンシャイン",
    "kana": "ホウモンカイゴジギョウショサンシャイン",
    "address": "香川県小豆郡小豆島町蒲生甲３９７番地２",
    "lat": 34.4821785,
    "lng": 134.2156391,
    "tel": "0879-75-0626",
    "url": "http://www.sunshine-kai.com/",
    "pref": "香川県",
    "city": "小豆島町",
    "category": "home_help",
    "serviceType": "訪問介護",
    "capacity": 0,
    "openDays": [
      "平日",
      "土曜日",
      "日曜日",
      "祝日"
    ],
    "openDaysNote": "ー"
  },
  {
    "id": "3770400764",
    "name": "ニチイケアセンター善通寺",
    "kana": "ニチイケアセンターゼンツウジ",
    "address": "香川県善通寺市生野町857番地1",
    "lat": 34.2263053,
    "lng": 133.7936668,
    "tel": "0877-63-1101",
    "url": "株式会社　ニチイ学館公式ＨＰへ",
    "pref": "香川県",
    "city": "善通寺市",
    "category": "home_help",
    "serviceType": "訪問介護",
    "capacity": 0,
    "openDays": [
      "平日",
      "土曜日",
      "日曜日",
      "祝日"
    ],
    "openDaysNote": "早朝・夜間・深夜サービスに関してはご相談に応じます。"
  },
  {
    "id": "3770400251",
    "name": "ふじケアセンター",
    "kana": "フジケアセンター",
    "address": "香川県善通寺市善通寺町４丁目７番28号",
    "lat": 34.2275129,
    "lng": 133.7722757,
    "tel": "0877-64-0311",
    "url": "http://z-fujitaxi.com",
    "pref": "香川県",
    "city": "善通寺市",
    "category": "home_help",
    "serviceType": "訪問介護",
    "capacity": 100,
    "openDays": [
      "平日",
      "土曜日",
      "祝日"
    ],
    "openDaysNote": "夜間早朝のサービスに関しては要相談"
  },
  {
    "id": "3770400202",
    "name": "ヘルパーステーションほがらか",
    "kana": "ヘルパーステーションホガラカ",
    "address": "善通寺市上吉田町６丁目８番９号",
    "lat": 34.2307046,
    "lng": 133.7846217,
    "tel": "0877-56-5578",
    "url": "zensin-care@kagawa.coop",
    "pref": "香川県",
    "city": "善通寺市",
    "category": "home_help",
    "serviceType": "訪問介護",
    "capacity": 3,
    "openDays": [
      "平日",
      "土曜日"
    ],
    "openDaysNote": "その他の時間や、早朝、夜間は相談に応じます。"
  },
  {
    "id": "3770400434",
    "name": "ホームヘルパーステーション　愛の手",
    "kana": "ホームヘルパーステーション　アイノテ",
    "address": "香川県善通寺市中村町485-1",
    "lat": 34.2456608,
    "lng": 133.765926,
    "tel": "0877-62-3003",
    "url": "http://www.junshinkai.com/facilitie/kagayaki.html",
    "pref": "香川県",
    "city": "善通寺市",
    "category": "home_help",
    "serviceType": "訪問介護",
    "capacity": 0,
    "openDays": [
      "平日",
      "土曜日",
      "日曜日",
      "祝日"
    ],
    "openDaysNote": ""
  },
  {
    "id": "3770400376",
    "name": "まごころ丸亀",
    "kana": "マゴコロマルガメ",
    "address": "香川県善通寺市原田町1317-7",
    "lat": 34.2531383,
    "lng": 133.7923596,
    "tel": "0877-64-0278",
    "url": "",
    "pref": "香川県",
    "city": "善通寺市",
    "category": "home_help",
    "serviceType": "訪問介護",
    "capacity": null,
    "openDays": [
      "平日"
    ],
    "openDaysNote": "24時間電話での応対をしています。"
  },
  {
    "id": "3770400178",
    "name": "まどかケアサービスセンター",
    "kana": "マドカケアサービスセンター",
    "address": "香川県善通寺市原田町1496番地1",
    "lat": 34.2540882,
    "lng": 133.7881906,
    "tel": "0877-63-8000",
    "url": "www.senju-group.or.jp",
    "pref": "香川県",
    "city": "善通寺市",
    "category": "home_help",
    "serviceType": "訪問介護",
    "capacity": 0,
    "openDays": [
      "平日",
      "土曜日",
      "日曜日",
      "祝日"
    ],
    "openDaysNote": "介護計画による"
  },
  {
    "id": "3770400343",
    "name": "医療法人高樹会ふじた医院　訪問介護事業所",
    "kana": "イリョウホウジンコウジュカイフジタイイン　ホウモンカイゴジギョウショ",
    "address": "香川県善通寺市上吉田町４丁目５番１号",
    "lat": 34.228688,
    "lng": 133.7809248,
    "tel": "0877-62-0555",
    "url": "https://fujitaiin.or.jp/",
    "pref": "香川県",
    "city": "善通寺市",
    "category": "home_help",
    "serviceType": "訪問介護",
    "capacity": 0,
    "openDays": [
      "平日",
      "土曜日"
    ],
    "openDaysNote": "-"
  },
  {
    "id": "3770400186",
    "name": "善通寺市社会福祉協議会　指定訪問介護事業所",
    "kana": "ゼンツウジシシャカイフクシキョウギカイ　シテイホウモンカイゴジギョウショ",
    "address": "香川県善通寺市文京町二丁目1番4号",
    "lat": 34.2271773,
    "lng": 133.7882826,
    "tel": "0877-63-6310",
    "url": "http://www.zentsuji.info/",
    "pref": "香川県",
    "city": "善通寺市",
    "category": "home_help",
    "serviceType": "訪問介護",
    "capacity": null,
    "openDays": [
      "平日"
    ],
    "openDaysNote": "-"
  },
  {
    "id": "3770400798",
    "name": "訪問介護　笑う門",
    "kana": "ホウモンカイゴ　ワラウカド",
    "address": "香川県善通寺市弘田町292番地2",
    "lat": 34.2373765,
    "lng": 133.7621168,
    "tel": "0877-43-6628",
    "url": "https://ivyhukukuru.wixsite.com/my-site",
    "pref": "香川県",
    "city": "善通寺市",
    "category": "home_help",
    "serviceType": "訪問介護",
    "capacity": null,
    "openDays": [
      "平日",
      "土曜日",
      "日曜日",
      "祝日"
    ],
    "openDaysNote": "特になし"
  },
  {
    "id": "3770400731",
    "name": "訪問介護サービスはなお",
    "kana": "ホウモンカイゴサービスハナオ",
    "address": "香川県善通寺市善通寺町1371-1",
    "lat": 34.2163880194709,
    "lng": 133.772466012687,
    "tel": "0877-64-0114",
    "url": "",
    "pref": "香川県",
    "city": "善通寺市",
    "category": "home_help",
    "serviceType": "訪問介護",
    "capacity": 0,
    "openDays": [
      "平日",
      "土曜日",
      "日曜日",
      "祝日"
    ],
    "openDaysNote": "相談可能。"
  },
  {
    "id": "3771601295",
    "name": "あゆら",
    "kana": "アユラ",
    "address": "香川県仲多度郡多度津町奥白方35-2",
    "lat": 34.2451751,
    "lng": 133.737639,
    "tel": "070-1521-5910",
    "url": "npo-kiheitai.com",
    "pref": "香川県",
    "city": "多度津町",
    "category": "home_help",
    "serviceType": "訪問介護",
    "capacity": null,
    "openDays": [
      "平日",
      "土曜日"
    ],
    "openDaysNote": ""
  },
  {
    "id": "3771600644",
    "name": "介護ステーション　あおぞら",
    "kana": "カイゴステーション　アオゾラ",
    "address": "香川県仲多度郡多度津町栄町二丁目4番10号",
    "lat": 34.27426,
    "lng": 133.7569905,
    "tel": "0877-32-2915",
    "url": "https://tetsuya-tadotsu.com/",
    "pref": "香川県",
    "city": "多度津町",
    "category": "home_help",
    "serviceType": "訪問介護",
    "capacity": 60,
    "openDays": [
      "平日",
      "土曜日",
      "日曜日",
      "祝日"
    ],
    "openDaysNote": "土曜、日曜、祝日、年末年始（12月29日～1月3日）は必要に応じて提供"
  },
  {
    "id": "3771600123",
    "name": "多度津町社会福祉協議会",
    "kana": "タドツチョウシャカイフクシキョウギカイ",
    "address": "香川県仲多度郡多度津町西港町１２７番地１多度津町民健康センター 多度津町民健康センター",
    "lat": 34.2651664,
    "lng": 133.7379868,
    "tel": "0877-32-8501",
    "url": "https://tadotsusyakyo.com",
    "pref": "香川県",
    "city": "多度津町",
    "category": "home_help",
    "serviceType": "訪問介護",
    "capacity": 0,
    "openDays": [
      "平日"
    ],
    "openDaysNote": "利用者の要望に応じ、土曜、日曜、祝日等においても、対応可能(要相談)とします。"
  },
  {
    "id": "3771601139",
    "name": "訪問介護ステーションエルスト",
    "kana": "ホウモンカイゴステーションエルスト",
    "address": "香川県仲多度郡多度津町葛原1924番地1",
    "lat": 34.2525189164887,
    "lng": 133.774678067165,
    "tel": "0877-33-3580",
    "url": "http://www.utsumi-clinic.com",
    "pref": "香川県",
    "city": "多度津町",
    "category": "home_help",
    "serviceType": "訪問介護",
    "capacity": 40,
    "openDays": [
      "平日",
      "祝日"
    ],
    "openDaysNote": "但し、上記の時間以外については応相談。（改行）24時間電話にて対応できる体制をとっている。"
  },
  {
    "id": "3771601253",
    "name": "訪問介護ステーションみりみり",
    "kana": "ホウモンカイゴステーションミリミリ",
    "address": "香川県仲多度郡多度津町堀江三丁目10番50-1号",
    "lat": 34.2785052953907,
    "lng": 133.76045358214,
    "tel": "0877-35-9411",
    "url": "",
    "pref": "香川県",
    "city": "多度津町",
    "category": "home_help",
    "serviceType": "訪問介護",
    "capacity": 0,
    "openDays": [
      "平日"
    ],
    "openDaysNote": ""
  },
  {
    "id": "3771400052",
    "name": "介護支援なおしま社協",
    "kana": "カイゴシエンナオシマシャキョウ",
    "address": "香川県香川郡直島町３６９４番地１直島町総合福祉センター 直島町総合福祉センター",
    "lat": 34.4575768815901,
    "lng": 133.979395484117,
    "tel": "087-892-2458",
    "url": "",
    "pref": "香川県",
    "city": "直島町",
    "category": "home_help",
    "serviceType": "訪問介護",
    "capacity": 0,
    "openDays": [
      "平日",
      "土曜日",
      "祝日"
    ],
    "openDaysNote": "電話等により、日曜日及び時間外の連絡が可能な体制とする。"
  },
  {
    "id": "3771200213",
    "name": "オリーブ　ケアセンター",
    "kana": "オリーブ　ケアセンター",
    "address": "香川県小豆郡土庄町字半の池甲１３６０番地９２",
    "lat": 34.4776792196284,
    "lng": 134.18293607909,
    "tel": "0879-62-7782",
    "url": "olive-ks@orion.ocn.ne.jp",
    "pref": "香川県",
    "city": "土庄町",
    "category": "home_help",
    "serviceType": "訪問介護",
    "capacity": 0,
    "openDays": [
      "平日",
      "土曜日",
      "日曜日",
      "祝日"
    ],
    "openDaysNote": "但し、利用者の要望に応じ、営業時間外、営業業日以外においても対応可能。-"
  },
  {
    "id": "3771200239",
    "name": "小豆島ヘルパーステーションフレトピア",
    "kana": "ショウドシマヘルパーステーションフレトピア",
    "address": "香川県小豆郡土庄町渕崎甲２０２７番地７",
    "lat": 34.4864383,
    "lng": 134.1874234,
    "tel": "0879-62-3473",
    "url": "",
    "pref": "香川県",
    "city": "土庄町",
    "category": "home_help",
    "serviceType": "訪問介護",
    "capacity": 0,
    "openDays": [
      "平日",
      "土曜日",
      "日曜日",
      "祝日"
    ],
    "openDaysNote": "時間外も対応します。"
  },
  {
    "id": "3771200437",
    "name": "小豆島老人ホーム訪問介護事業所",
    "kana": "ショウドシマロウジンホームホウモンカイゴジギョウショ",
    "address": "小豆郡土庄町渕崎甲518",
    "lat": 34.4900074,
    "lng": 134.1787159,
    "tel": "0879-62-0437",
    "url": "",
    "pref": "香川県",
    "city": "土庄町",
    "category": "home_help",
    "serviceType": "訪問介護",
    "capacity": 0,
    "openDays": [
      "平日",
      "土曜日",
      "日曜日",
      "祝日"
    ],
    "openDaysNote": "-"
  },
  {
    "id": "3771200122",
    "name": "土庄町ホームヘルパーステーション",
    "kana": "トノショウチョウホームヘルパーステーション",
    "address": "香川県小豆郡土庄町淵崎甲1400番地25土庄町国保保健福祉総合施設やすらぎプラザ 土庄町国保保健福祉総合施設やすらぎプラザ",
    "lat": 34.4860967,
    "lng": 134.1894982,
    "tel": "0879-62-1234",
    "url": "",
    "pref": "香川県",
    "city": "土庄町",
    "category": "home_help",
    "serviceType": "訪問介護",
    "capacity": null,
    "openDays": [
      "平日",
      "土曜日",
      "日曜日",
      "祝日"
    ],
    "openDaysNote": "特になし"
  },
  {
    "id": "3771100454",
    "name": "ずいしょう指定訪問介護事業所",
    "kana": "ズイショウシテイホウモンカイゴジギョウショ",
    "address": "香川県東かがわ市湊1183番地5",
    "lat": 34.2187752,
    "lng": 134.3396973,
    "tel": "0879-25-0674",
    "url": "http://www.shikoku.ne.jp/zuishou/index.html",
    "pref": "香川県",
    "city": "東かがわ市",
    "category": "home_help",
    "serviceType": "訪問介護",
    "capacity": 0,
    "openDays": [
      "平日",
      "土曜日",
      "日曜日",
      "祝日"
    ],
    "openDaysNote": "ニーズがあれば午前7時からの利用と午後10時までの利用については相談に応じます"
  },
  {
    "id": "3771100330",
    "name": "ひまわり介護支援センター",
    "kana": "ヒマワリカイゴシエンセンター",
    "address": "香川県東かがわ市三本松1758",
    "lat": 34.2480965,
    "lng": 134.3391805,
    "tel": "0879-25-8070",
    "url": "https://www.otahospital.org/",
    "pref": "香川県",
    "city": "東かがわ市",
    "category": "home_help",
    "serviceType": "訪問介護",
    "capacity": 0,
    "openDays": [
      "平日",
      "土曜日",
      "祝日"
    ],
    "openDaysNote": "日曜・年末年始（12/31～1/3ですが相談にて対応）"
  },
  {
    "id": "3770700403",
    "name": "ヘルパーステーションすずらんの里",
    "kana": "ヘルパーステーションスズランノサト",
    "address": "香川県東かがわ市三本松1530番地1石原ビル１階 石原ビル１階",
    "lat": 34.2500700584789,
    "lng": 134.337881396512,
    "tel": "0879-25-7017",
    "url": "",
    "pref": "香川県",
    "city": "東かがわ市",
    "category": "home_help",
    "serviceType": "訪問介護",
    "capacity": 0,
    "openDays": [
      "平日"
    ],
    "openDaysNote": "相談に応じて時間外もサービス行います"
  },
  {
    "id": "3770700270",
    "name": "ヘルパーステーションたんぽぽの家",
    "kana": "ヘルパーステーションタンポポノイエ",
    "address": "香川県東かがわ市湊263-1",
    "lat": 34.2500605,
    "lng": 134.350721,
    "tel": "0879-26-3385",
    "url": "https://www.tanpoponoie.jp/",
    "pref": "香川県",
    "city": "東かがわ市",
    "category": "home_help",
    "serviceType": "訪問介護",
    "capacity": null,
    "openDays": [
      "平日",
      "土曜日",
      "祝日"
    ],
    "openDaysNote": "電話等により、24時間常時連絡が可能な体制とする"
  },
  {
    "id": "3771100173",
    "name": "絹島荘　訪問介護事業所",
    "kana": "キヌジマソウ　ホウモンカイゴジギョウショ",
    "address": "香川県東かがわ市馬篠1227番地20",
    "lat": 34.2739173,
    "lng": 134.2993787,
    "tel": "0879-25-6511",
    "url": "http://koutouen.com/kinujima/kinujima_index/htm",
    "pref": "香川県",
    "city": "東かがわ市",
    "category": "home_help",
    "serviceType": "訪問介護",
    "capacity": 10,
    "openDays": [
      "平日",
      "土曜日",
      "日曜日",
      "祝日"
    ],
    "openDaysNote": "電話などにより24時間常時連絡可能。"
  },
  {
    "id": "3770700122",
    "name": "元気クラブ",
    "kana": "ゲンキクラブ",
    "address": "東かがわ市白鳥１６８１－５",
    "lat": 34.2370978,
    "lng": 134.338939,
    "tel": "0879-25-0202",
    "url": "",
    "pref": "香川県",
    "city": "東かがわ市",
    "category": "home_help",
    "serviceType": "訪問介護",
    "capacity": 0,
    "openDays": [
      "平日",
      "土曜日",
      "日曜日",
      "祝日"
    ],
    "openDaysNote": "その他の時間、応相談。"
  },
  {
    "id": "3770700379",
    "name": "指定訪問介護事業所すばる",
    "kana": "シテイホウモンカイゴジギョウショスバル",
    "address": "香川県東かがわ市松原１０１１－２",
    "lat": 34.2460834,
    "lng": 134.3702943,
    "tel": "0879-25-3271",
    "url": "",
    "pref": "香川県",
    "city": "東かがわ市",
    "category": "home_help",
    "serviceType": "訪問介護",
    "capacity": 0,
    "openDays": [
      "平日",
      "土曜日",
      "日曜日",
      "祝日"
    ],
    "openDaysNote": "電話転送等により、２４時間、サービス提供責任者等に利用者が連絡を取れる体制をとる。"
  },
  {
    "id": "3771100678",
    "name": "訪問介護　あいあい",
    "kana": "ホウモンカイゴ　アイアイ",
    "address": "東かがわ市三本松1199番地1エーアイビル3階 エーアイビル3階",
    "lat": 34.2488385875556,
    "lng": 134.332567736771,
    "tel": "0879-25-2052",
    "url": "https://idm-hcg.co.jp",
    "pref": "香川県",
    "city": "東かがわ市",
    "category": "home_help",
    "serviceType": "訪問介護",
    "capacity": 0,
    "openDays": [
      "平日",
      "土曜日",
      "日曜日",
      "祝日"
    ],
    "openDaysNote": "なし"
  },
  {
    "id": "3770700569",
    "name": "訪問介護　愛華の里",
    "kana": "ホウモンカイゴ　アイカノサト",
    "address": "香川県東かがわ市落合139",
    "lat": 34.2511813,
    "lng": 134.3088642,
    "tel": "0879-25-1077",
    "url": "www.aikano-sato.com",
    "pref": "香川県",
    "city": "東かがわ市",
    "category": "home_help",
    "serviceType": "訪問介護",
    "capacity": 0,
    "openDays": [
      "平日",
      "土曜日",
      "日曜日",
      "祝日"
    ],
    "openDaysNote": ""
  },
  {
    "id": "3770700221",
    "name": "訪問介護ファインケア",
    "kana": "ホウモンカイゴファインケア",
    "address": "東かがわ市馬篠249-1",
    "lat": 34.2690511496777,
    "lng": 134.288278011721,
    "tel": "0879-26-1069",
    "url": "-",
    "pref": "香川県",
    "city": "東かがわ市",
    "category": "home_help",
    "serviceType": "訪問介護",
    "capacity": 60,
    "openDays": [
      "平日",
      "土曜日",
      "日曜日",
      "祝日"
    ],
    "openDaysNote": "24時間サービス利用可能"
  },
  {
    "id": "3770700445",
    "name": "訪問介護事業所あどいけ",
    "kana": "ホウモンカイゴジギョウショアドイケ",
    "address": "香川県東かがわ市引田4268-1",
    "lat": 34.2322660432548,
    "lng": 134.395112092113,
    "tel": "0879-33-7253",
    "url": "",
    "pref": "香川県",
    "city": "東かがわ市",
    "category": "home_help",
    "serviceType": "訪問介護",
    "capacity": 30,
    "openDays": [
      "平日",
      "土曜日",
      "日曜日",
      "祝日"
    ],
    "openDaysNote": ""
  }
]