[
  {
    "id": "3972400356",
    "name": "ニチイケアセンターいの",
    "kana": "ニチイケアセンターイノ",
    "address": "高知県吾川郡いの町1700",
    "lat": 33.548434574975,
    "lng": 133.427199396226,
    "tel": "088-850-4315",
    "url": "http://www.nichiigakkan.co.jp",
    "pref": "高知県",
    "city": "いの町",
    "category": "home_help",
    "serviceType": "訪問介護",
    "capacity": 5,
    "openDays": [
      "平日",
      "土曜日",
      "日曜日",
      "祝日"
    ],
    "openDaysNote": "但し、上記以外でもサービスを提供する場合があります。"
  },
  {
    "id": "3972400851",
    "name": "ヘルパーステーション　いの",
    "kana": "ヘルパーステーション　イノ",
    "address": "高知県吾川郡いの町新町1MMPビル３階北 MMPビル３階北",
    "lat": 33.5478081309929,
    "lng": 133.429541338427,
    "tel": "088-893-0150",
    "url": "http://www.inofukushikai.com/",
    "pref": "高知県",
    "city": "いの町",
    "category": "home_help",
    "serviceType": "訪問介護",
    "capacity": 0,
    "openDays": [
      "平日",
      "土曜日",
      "祝日"
    ],
    "openDaysNote": "利用者の希望に応じて、サービスの提供については、営業時間外でも対応可能な体制を整えれるか検討させていただきます"
  },
  {
    "id": "3972400836",
    "name": "ヘルパーステーション　ささえ",
    "kana": "ヘルパーステーション　ササエ",
    "address": "高知県吾川郡いの町３６７３",
    "lat": 33.5487277,
    "lng": 133.4276739,
    "tel": "088-855-4580",
    "url": "",
    "pref": "高知県",
    "city": "いの町",
    "category": "home_help",
    "serviceType": "訪問介護",
    "capacity": 0,
    "openDays": [
      "平日",
      "土曜日",
      "日曜日",
      "祝日"
    ],
    "openDaysNote": "ケアプランの内容により、夜間、早朝対応可能。"
  },
  {
    "id": "3972400877",
    "name": "ヘルパーステーション優花",
    "kana": "ヘルパーステーションユウカ",
    "address": "高知県吾川郡いの町駅南町62-2",
    "lat": 33.5465131,
    "lng": 133.4307698,
    "tel": "088-802-8396",
    "url": "https://www.daiichishikoku.com",
    "pref": "高知県",
    "city": "いの町",
    "category": "home_help",
    "serviceType": "訪問介護",
    "capacity": 0,
    "openDays": [
      "平日"
    ],
    "openDaysNote": ""
  },
  {
    "id": "3972400786",
    "name": "訪問介護事業所あずみ",
    "kana": "ホウモンカイゴジギョウショアズミ",
    "address": "高知県吾川郡いの町枝川1039－1",
    "lat": 33.5496181,
    "lng": 133.4536726,
    "tel": "088－893-0607",
    "url": "https://michiazu1316.sakura.ne.jp/jigyousyogaiyou.html",
    "pref": "高知県",
    "city": "いの町",
    "category": "home_help",
    "serviceType": "訪問介護",
    "capacity": 5,
    "openDays": [
      "平日",
      "土曜日",
      "日曜日",
      "祝日"
    ],
    "openDaysNote": "訪問サービスは原則年中無休"
  },
  {
    "id": "3970300103",
    "name": "ヘルパーステーション　あったか",
    "kana": "ヘルパーステーション　アッタカ",
    "address": "高知県安芸市庄之芝町3-3",
    "lat": 33.501774,
    "lng": 133.9022028,
    "tel": "0887-34-8519",
    "url": "",
    "pref": "高知県",
    "city": "安芸市",
    "category": "home_help",
    "serviceType": "訪問介護",
    "capacity": null,
    "openDays": [
      "平日",
      "土曜日",
      "日曜日",
      "祝日"
    ],
    "openDaysNote": "内閣府による「避難情報に関するガイドライン」で、警戒レベル３が発令された場合、状況を把握するために一旦訪問を中止する場合もあります。"
  },
  {
    "id": "3970300137",
    "name": "ヘルパーステーション　てくてく",
    "kana": "ヘルパーステーション　テクテク",
    "address": "高知県安芸市川北甲1812-15",
    "lat": 33.498,
    "lng": 133.9152956,
    "tel": "0887-35-8003",
    "url": "http://f-shizenmura.or.jp",
    "pref": "高知県",
    "city": "安芸市",
    "category": "home_help",
    "serviceType": "訪問介護",
    "capacity": 0,
    "openDays": [
      "平日",
      "土曜日"
    ],
    "openDaysNote": "日曜日も希望の方については相談により対応。年末年始も訪問介護を必要とする方については状況により対応します。"
  },
  {
    "id": "3970300186",
    "name": "ヘルパーステーション花",
    "kana": "ヘルパーステーションハナ",
    "address": "高知県安芸市土居1977番5",
    "lat": 33.5070484,
    "lng": 133.9115672,
    "tel": "0887-35-7854",
    "url": "",
    "pref": "高知県",
    "city": "安芸市",
    "category": "home_help",
    "serviceType": "訪問介護",
    "capacity": 0,
    "openDays": [
      "平日",
      "土曜日",
      "日曜日",
      "祝日"
    ],
    "openDaysNote": ""
  },
  {
    "id": "3970300293",
    "name": "ヘルパーステーション優",
    "kana": "ヘルパーステーションユウ",
    "address": "高知県安芸市川北乙787-5",
    "lat": 33.526402,
    "lng": 133.915569191402,
    "tel": "0887-35-5599",
    "url": "",
    "pref": "高知県",
    "city": "安芸市",
    "category": "home_help",
    "serviceType": "訪問介護",
    "capacity": 0,
    "openDays": [
      "平日",
      "土曜日",
      "日曜日",
      "祝日"
    ],
    "openDaysNote": ""
  },
  {
    "id": "3970300020",
    "name": "ホームヘルパーステーション　あき",
    "kana": "ホームヘルパーステーション　アキ",
    "address": "高知県安芸市寿町１－７",
    "lat": 33.4984784,
    "lng": 133.9039869,
    "tel": "0887-35-2915",
    "url": "http://www.aki-wel.or.jp",
    "pref": "高知県",
    "city": "安芸市",
    "category": "home_help",
    "serviceType": "訪問介護",
    "capacity": 0,
    "openDays": [
      "平日",
      "土曜日",
      "日曜日",
      "祝日"
    ],
    "openDaysNote": ""
  },
  {
    "id": "3972501054",
    "name": "介護サービスなごみ　高知事業所",
    "kana": "カイゴサービスナゴミ　コウチジギョウショ",
    "address": "高岡郡越知町越知甲１５８０－１",
    "lat": 33.5292618,
    "lng": 133.2541212,
    "tel": "0889-26-2550",
    "url": "",
    "pref": "高知県",
    "city": "越知町",
    "category": "home_help",
    "serviceType": "訪問介護",
    "capacity": null,
    "openDays": [
      "平日",
      "土曜日",
      "日曜日",
      "祝日"
    ],
    "openDaysNote": "年中無休"
  },
  {
    "id": "3972500171",
    "name": "社会福祉法人　越知町社会福祉協議会",
    "kana": "シャカイフクシホウジン　オチチョウシャカイフクシキョウギカイ",
    "address": "高知県高岡郡越知町越知甲2457",
    "lat": 33.5325751,
    "lng": 133.2468858,
    "tel": "0889-26-1149",
    "url": "",
    "pref": "高知県",
    "city": "越知町",
    "category": "home_help",
    "serviceType": "訪問介護",
    "capacity": 0,
    "openDays": [
      "平日",
      "土曜日",
      "日曜日",
      "祝日"
    ],
    "openDaysNote": "必要に応じ早朝、夜間対応します。"
  },
  {
    "id": "3971100320",
    "name": "ニチイケアセンター香南東",
    "kana": "ニチイケアセンターコウナンヒガシ",
    "address": "赤岡町985-1シーサイドコーポ松本１０３号 シーサイドコーポ松本１０３号",
    "lat": 33.5400614,
    "lng": 133.7269988,
    "tel": "０８８７－５５－５２２８",
    "url": "",
    "pref": "高知県",
    "city": "香南市",
    "category": "home_help",
    "serviceType": "訪問介護",
    "capacity": 0,
    "openDays": [
      "平日",
      "土曜日",
      "日曜日",
      "祝日"
    ],
    "openDaysNote": "上記以外でもサービスを提供する事があります。"
  },
  {
    "id": "3971100072",
    "name": "ヘルパーステーション　あい",
    "kana": "ヘルパーステーション　アイ",
    "address": "香南市赤岡町５６９　NCハウス　207",
    "lat": 33.541851,
    "lng": 133.7234535,
    "tel": "0887-55-2110",
    "url": "",
    "pref": "高知県",
    "city": "香南市",
    "category": "home_help",
    "serviceType": "訪問介護",
    "capacity": 0,
    "openDays": [
      "平日"
    ],
    "openDaysNote": "365日、24時間対応"
  },
  {
    "id": "3971100098",
    "name": "ヘルパーステーションかがみ",
    "kana": "ヘルパーステーションカガミ",
    "address": "高知県香南市香我美町岸本205-1",
    "lat": 33.5393126,
    "lng": 133.7321028,
    "tel": "0887-57-1103",
    "url": "https://www.chisio-group.or.jp/",
    "pref": "高知県",
    "city": "香南市",
    "category": "home_help",
    "serviceType": "訪問介護",
    "capacity": 0,
    "openDays": [
      "平日",
      "土曜日",
      "日曜日",
      "祝日"
    ],
    "openDaysNote": "時間帯により提供が困難な場合があります。"
  },
  {
    "id": "3971100288",
    "name": "ヘルパーステーション向日葵",
    "kana": "ヘルパーステーションヒマワリ",
    "address": "高知県香南市野市町西野2123番地25天山台マンション202号室 天山台マンション202号室",
    "lat": 33.5610986,
    "lng": 133.6999134,
    "tel": "0887-52-8495",
    "url": "",
    "pref": "高知県",
    "city": "香南市",
    "category": "home_help",
    "serviceType": "訪問介護",
    "capacity": 0,
    "openDays": [
      "平日",
      "土曜日",
      "祝日"
    ],
    "openDaysNote": "時間外についてはご相談ください。"
  },
  {
    "id": "3971100189",
    "name": "ホームヘルパーステーションはまゆう",
    "kana": "ホームヘルパーステーションハマユウ",
    "address": "高知県香南市赤岡町５６９番地３",
    "lat": 33.545809,
    "lng": 133.7302195,
    "tel": "0887-55-2815",
    "url": "https://www.kounankai.jp/info/page.php?ID=529",
    "pref": "高知県",
    "city": "香南市",
    "category": "home_help",
    "serviceType": "訪問介護",
    "capacity": null,
    "openDays": [
      "平日",
      "土曜日",
      "日曜日",
      "祝日"
    ],
    "openDaysNote": "３６５日、２４時間対応"
  },
  {
    "id": "3971100023",
    "name": "訪問介護事業所　ふれあいの里",
    "kana": "ホウモンカイゴジギョウショ　フレアイノサト",
    "address": "高知県香南市香我美町下分646",
    "lat": 33.5833010656517,
    "lng": 133.747417730085,
    "tel": "0887-57-7302",
    "url": "http://konanshi-shakyo.or.jp/publics/index/11/",
    "pref": "高知県",
    "city": "香南市",
    "category": "home_help",
    "serviceType": "訪問介護",
    "capacity": 0,
    "openDays": [
      "平日",
      "土曜日",
      "日曜日",
      "祝日"
    ],
    "openDaysNote": "特になし"
  },
  {
    "id": "3971100163",
    "name": "有限会社　西田順天堂薬局　ヘルパーステーション白岩",
    "kana": "ユウゲンガイシャ　ニシダジュンテンドウヤッキョク　ヘルパーステーションシライワ",
    "address": "高知県香南市野市町東佐古727-2",
    "lat": 33.5846844,
    "lng": 133.711026,
    "tel": "0887-56-1401",
    "url": "http://www.nishida-kaigo.com/shiroiwa.html",
    "pref": "高知県",
    "city": "香南市",
    "category": "home_help",
    "serviceType": "訪問介護",
    "capacity": 0,
    "openDays": [
      "平日",
      "土曜日",
      "日曜日",
      "祝日"
    ],
    "openDaysNote": "営業時間外　早朝、夜間に対しては相談にて受け付けています"
  },
  {
    "id": "3971200310",
    "name": "ヘルパーステーションあさひ",
    "kana": "ヘルパーステーションアサヒ",
    "address": "高知県香美市土佐山田町旭町４丁目２番６号",
    "lat": 33.6059503,
    "lng": 133.6903434,
    "tel": "0887-57-6333",
    "url": "http://www.nishida-ph.net/",
    "pref": "高知県",
    "city": "香美市",
    "category": "home_help",
    "serviceType": "訪問介護",
    "capacity": 0,
    "openDays": [
      "平日",
      "土曜日",
      "日曜日",
      "祝日"
    ],
    "openDaysNote": ""
  },
  {
    "id": "3971200286",
    "name": "ヘルパーステーションやまだ　訪問介護事業所",
    "kana": "ヘルパーステーションヤマダ　ホウモンカイゴジギョウショ",
    "address": "高知県香美市土佐山田町秦山町3丁目4番20号",
    "lat": 33.6079903,
    "lng": 133.6765792,
    "tel": "0887-52-0777",
    "url": "http://www.welplaza.or.jp",
    "pref": "高知県",
    "city": "香美市",
    "category": "home_help",
    "serviceType": "訪問介護",
    "capacity": 0,
    "openDays": [
      "平日",
      "土曜日",
      "日曜日",
      "祝日"
    ],
    "openDaysNote": "但し、年末年始(12/31から1/3)を除く"
  },
  {
    "id": "3971200252",
    "name": "ヘルパーステーション菜々月",
    "kana": "ヘルパーステーションナナツキ",
    "address": "高知県香美市土佐山田町百石町１丁目1-19シャラメイ百石東棟103",
    "lat": 33.6090747863212,
    "lng": 133.693406887247,
    "tel": "0887-53-5377",
    "url": "http://nanatsuki.jp/",
    "pref": "高知県",
    "city": "香美市",
    "category": "home_help",
    "serviceType": "訪問介護",
    "capacity": 0,
    "openDays": [
      "平日"
    ],
    "openDaysNote": "サービスの提供はケアプランの定める時間帯であればいつでも対応するものとする。"
  },
  {
    "id": "3971200245",
    "name": "ホームヘルパーステーションあん",
    "kana": "ホームヘルパーステーションアン",
    "address": "高知県香美市土佐山田町宝町４丁目４番３２号ＹＳマンション１０５号室 ＹＳマンション１０５号室",
    "lat": 33.6012327,
    "lng": 133.6821619,
    "tel": "０８８７－５３－５１２１",
    "url": "",
    "pref": "高知県",
    "city": "香美市",
    "category": "home_help",
    "serviceType": "訪問介護",
    "capacity": 0,
    "openDays": [
      "平日",
      "土曜日",
      "日曜日",
      "祝日"
    ],
    "openDaysNote": "営業時間外でのサービスは相談に応じます。"
  },
  {
    "id": "3971200021",
    "name": "香美市社協　ヘルパーステーション八王子",
    "kana": "カミシシャキョウ　ヘルパーステーションハチオウジ",
    "address": "高知県香美市土佐山田町２６２番地１プラザ八王子 プラザ八王子",
    "lat": 33.6106788,
    "lng": 133.6876281,
    "tel": "0887-53-5800",
    "url": "http://kami-shakyo.or.jp",
    "pref": "高知県",
    "city": "香美市",
    "category": "home_help",
    "serviceType": "訪問介護",
    "capacity": 79,
    "openDays": [
      "平日",
      "祝日"
    ],
    "openDaysNote": "祝日の営業は月～金の祝日のみ　（改行）土・日・時間外にもご相談に応じます"
  },
  {
    "id": "3971200070",
    "name": "冨士屋ベターライフ香北",
    "kana": "フジヤベターライフカホク",
    "address": "高知県香美市香北町美良布2673番地2号",
    "lat": 33.6511059597317,
    "lng": 133.78422496627,
    "tel": "0887-59-3113",
    "url": "",
    "pref": "高知県",
    "city": "香美市",
    "category": "home_help",
    "serviceType": "訪問介護",
    "capacity": 40,
    "openDays": [
      "平日",
      "土曜日",
      "日曜日",
      "祝日"
    ],
    "openDaysNote": "上記時間外でも必要があると認められた場合は相談に応じ訪問致します。"
  },
  {
    "id": "3970108043",
    "name": "IMC訪問介護ステーション竹島",
    "kana": "アイエムシーホウモンカイゴステーションタケシマ",
    "address": "高知県高知市竹島町13番地1",
    "lat": 33.5428294,
    "lng": 133.5425614,
    "tel": "088-855-8615",
    "url": "",
    "pref": "高知県",
    "city": "高知市",
    "category": "home_help",
    "serviceType": "訪問介護",
    "capacity": null,
    "openDays": [],
    "openDaysNote": "24ｈ対応"
  },
  {
    "id": "3970107219",
    "name": "アートケア・ヘルパーステーション",
    "kana": "アートケア・ヘルパーステーション",
    "address": "高知県高知市長浜1624-4アーバンハイツK＆N301号室 アーバンハイツK＆N301号室",
    "lat": 33.500043534825,
    "lng": 133.540641160907,
    "tel": "088-803-8403",
    "url": "http://www.artcare-group.jp/company.html",
    "pref": "高知県",
    "city": "高知市",
    "category": "home_help",
    "serviceType": "訪問介護",
    "capacity": 0,
    "openDays": [
      "平日"
    ],
    "openDaysNote": "ケアプランに応じ上記時間外でも対応致します。"
  },
  {
    "id": "3970104836",
    "name": "お茶の間ヘルパーステーション",
    "kana": "オチャノマヘルパーステーション",
    "address": "高知県高知市介良乙3137-5なのはなビル2階 なのはなビル2階",
    "lat": 33.5582078958864,
    "lng": 133.59867432573,
    "tel": "088-879-3264",
    "url": "https://ochanomachiharu.com/",
    "pref": "高知県",
    "city": "高知市",
    "category": "home_help",
    "serviceType": "訪問介護",
    "capacity": 0,
    "openDays": [
      "平日",
      "土曜日",
      "日曜日",
      "祝日"
    ],
    "openDaysNote": ""
  },
  {
    "id": "3970101253",
    "name": "ケア・アシストふれあい",
    "kana": "ケア・アシストフレアイ",
    "address": "高知市北竹島町370番地１０号",
    "lat": 33.5424336388097,
    "lng": 133.541085761831,
    "tel": "088-834-0323",
    "url": "",
    "pref": "高知県",
    "city": "高知市",
    "category": "home_help",
    "serviceType": "訪問介護",
    "capacity": 0,
    "openDays": [
      "平日",
      "土曜日"
    ],
    "openDaysNote": "介護サービス計画により休業日及び営業時間外であってもサービスを提供する場合有り。"
  },
  {
    "id": "3970106617",
    "name": "ケアサポート　よつ葉",
    "kana": "ケアサポートヨツバ",
    "address": "高知県高知市東雲町4-6ノースリバーⅡ207号 ノースリバーⅡ207号",
    "lat": 33.5598913999944,
    "lng": 133.562206164033,
    "tel": "088-883-8383",
    "url": "https://yotuba.club",
    "pref": "高知県",
    "city": "高知市",
    "category": "home_help",
    "serviceType": "訪問介護",
    "capacity": 120,
    "openDays": [
      "平日",
      "土曜日",
      "日曜日",
      "祝日"
    ],
    "openDaysNote": "御利用者様に応じてこの限りではありません。"
  },
  {
    "id": "3970107631",
    "name": "ケアサポートゆいまある",
    "kana": "ケアサポウトユイマアル",
    "address": "高知県高知市知寄町1丁目８－７カーサグラン高知205 カーサグラン高知205",
    "lat": 33.5580721,
    "lng": 133.5577846,
    "tel": "088-855-8460",
    "url": "https://yuimaaru.c-co.jp",
    "pref": "高知県",
    "city": "高知市",
    "category": "home_help",
    "serviceType": "訪問介護",
    "capacity": null,
    "openDays": [
      "平日",
      "土曜日",
      "日曜日",
      "祝日"
    ],
    "openDaysNote": "状況により他の時間帯でもサービスを提供する。"
  },
  {
    "id": "3970106849",
    "name": "ケアフィオーレ高知",
    "kana": "ケアフィオーレコウチ",
    "address": "高知県高知市本町3丁目3-23白亜第5ビル6階 白亜第5ビル6階",
    "lat": 33.5576444,
    "lng": 133.5347734,
    "tel": "088-821-3277",
    "url": "http://liebe-fiore.com",
    "pref": "高知県",
    "city": "高知市",
    "category": "home_help",
    "serviceType": "訪問介護",
    "capacity": 0,
    "openDays": [
      "平日",
      "土曜日",
      "日曜日",
      "祝日"
    ],
    "openDaysNote": ""
  },
  {
    "id": "3970103986",
    "name": "ここわライフサービス",
    "kana": "ココワライフサービス",
    "address": "高知県高知市一宮中町３丁目２３番３号コスモ一宮I　３０１号 コスモ一宮I　３０１号",
    "lat": 33.5887924,
    "lng": 133.576827,
    "tel": "088-855-5902",
    "url": "",
    "pref": "高知県",
    "city": "高知市",
    "category": "home_help",
    "serviceType": "訪問介護",
    "capacity": 0,
    "openDays": [
      "平日",
      "土曜日",
      "日曜日",
      "祝日"
    ],
    "openDaysNote": "但し12月31日から1月3日までは休業とする"
  },
  {
    "id": "3970104695",
    "name": "セントケア高知",
    "kana": "セントケアコウチ",
    "address": "高知市高埇21-17ルミエール高埇212号 ルミエール高埇212号",
    "lat": 33.5708671,
    "lng": 133.5574091,
    "tel": "088-882-5771",
    "url": "https://www.saint-care.com/center/909/",
    "pref": "高知県",
    "city": "高知市",
    "category": "home_help",
    "serviceType": "訪問介護",
    "capacity": 0,
    "openDays": [
      "平日",
      "土曜日",
      "日曜日",
      "祝日"
    ],
    "openDaysNote": "サービス提供票に基づき２４時間、３６５日対応"
  },
  {
    "id": "3970103440",
    "name": "ソレイユ・ケアセンター",
    "kana": "ソレイユ・ケアセンター",
    "address": "高知市薊野西町３丁目１１－２２",
    "lat": 33.5773239,
    "lng": 133.5521264,
    "tel": "088-854-6067",
    "url": "",
    "pref": "高知県",
    "city": "高知市",
    "category": "home_help",
    "serviceType": "訪問介護",
    "capacity": 25,
    "openDays": [
      "平日",
      "土曜日",
      "日曜日",
      "祝日"
    ],
    "openDaysNote": ""
  },
  {
    "id": "3970101733",
    "name": "ニチイケアセンター　くま",
    "kana": "ニチイケアセンター　クマ",
    "address": "高知県高知市小津町5-2ダイアパレス小津町103 ダイアパレス小津町103",
    "lat": 33.5626954,
    "lng": 133.5272851,
    "tel": "088-875-7566",
    "url": "http://www.nichiigakkan.co.jp",
    "pref": "高知県",
    "city": "高知市",
    "category": "home_help",
    "serviceType": "訪問介護",
    "capacity": 0,
    "openDays": [
      "平日",
      "土曜日",
      "日曜日",
      "祝日"
    ],
    "openDaysNote": "但し、上記以外の時間も対応させて頂く事もあります。"
  },
  {
    "id": "3970100677",
    "name": "ニチイケアセンター　高知",
    "kana": "ニチイケアセンター　コウチ",
    "address": "高知県高知市杉井流１番２号",
    "lat": 33.5678115,
    "lng": 133.5547651,
    "tel": "088-878-1271",
    "url": "http://www.nichiigakkan.co.jp/",
    "pref": "高知県",
    "city": "高知市",
    "category": "home_help",
    "serviceType": "訪問介護",
    "capacity": 0,
    "openDays": [
      "平日",
      "土曜日",
      "日曜日",
      "祝日"
    ],
    "openDaysNote": "上記以外でもサービス提供する場合があります。"
  },
  {
    "id": "3970101667",
    "name": "ニチイケアセンター　百石",
    "kana": "ニチイケアセンター　ヒャッコク",
    "address": "高知県高知市百石町２丁目３－１４",
    "lat": 33.5492606,
    "lng": 133.5436389,
    "tel": "088-805-1827",
    "url": "http://www.nichiigakkan.co.jp",
    "pref": "高知県",
    "city": "高知市",
    "category": "home_help",
    "serviceType": "訪問介護",
    "capacity": 0,
    "openDays": [
      "平日",
      "土曜日",
      "日曜日",
      "祝日"
    ],
    "openDaysNote": "上記以外の対応可能な事あります"
  },
  {
    "id": "3970107078",
    "name": "ニチイケアセンターあさくら",
    "kana": "ニチイケアセンターアサクラ",
    "address": "高知市針木東町8-19",
    "lat": 33.5338308,
    "lng": 133.4752948,
    "tel": "088-850-7010",
    "url": "",
    "pref": "高知県",
    "city": "高知市",
    "category": "home_help",
    "serviceType": "訪問介護",
    "capacity": 0,
    "openDays": [
      "平日"
    ],
    "openDaysNote": ""
  },
  {
    "id": "3970107094",
    "name": "ニチイケアセンターかもだ",
    "kana": "ニチイケアセンターカモダ",
    "address": "高知県高知市神田806-9楠瀬ビル1階 楠瀬ビル1階",
    "lat": 33.5481246,
    "lng": 133.2521507,
    "tel": "088-837-1005",
    "url": "",
    "pref": "高知県",
    "city": "高知市",
    "category": "home_help",
    "serviceType": "訪問介護",
    "capacity": 0,
    "openDays": [
      "平日"
    ],
    "openDaysNote": "上記以外でもサービスを提供する場合があります。"
  },
  {
    "id": "3970100362",
    "name": "ニチイケアセンター愛宕",
    "kana": "ニチイケアセンターアタゴ",
    "address": "高知県高知市愛宕町4丁目17-7",
    "lat": 33.5748628,
    "lng": 133.5369362,
    "tel": "088-802-2913",
    "url": "",
    "pref": "高知県",
    "city": "高知市",
    "category": "home_help",
    "serviceType": "訪問介護",
    "capacity": 0,
    "openDays": [
      "平日",
      "土曜日",
      "日曜日",
      "祝日"
    ],
    "openDaysNote": "上記以外の時間でも対応できる場合もございます。"
  },
  {
    "id": "3970100305",
    "name": "ニチイケアセンター旭",
    "kana": "ニチイケアセンターアサヒ",
    "address": "高知市旭町２丁目２２番１５号アーバンハイツ旭１階 アーバンハイツ旭１階",
    "lat": 33.5551228,
    "lng": 133.5096228,
    "tel": "088-820-6211",
    "url": "http://www.nichiigakkan.co.jp",
    "pref": "高知県",
    "city": "高知市",
    "category": "home_help",
    "serviceType": "訪問介護",
    "capacity": 160,
    "openDays": [
      "平日",
      "土曜日",
      "日曜日",
      "祝日"
    ],
    "openDaysNote": "上記以外の対応可能"
  },
  {
    "id": "3970107342",
    "name": "ニチイケアセンター高知東",
    "kana": "ニチイケアセンターコウチヒガシ",
    "address": "高知県高知市高須東町14-4ドリームハウス寿1階101号室 ドリームハウス寿1階101号室",
    "lat": 33.5585346,
    "lng": 133.5946069,
    "tel": "088-878-8005",
    "url": "",
    "pref": "高知県",
    "city": "高知市",
    "category": "home_help",
    "serviceType": "訪問介護",
    "capacity": null,
    "openDays": [
      "平日",
      "土曜日",
      "日曜日",
      "祝日"
    ],
    "openDaysNote": "上記以外でもサービス提供する場合があります。"
  },
  {
    "id": "3970104935",
    "name": "ニチイケアセンター瀬戸南",
    "kana": "ニチイケアセンターセトミナミ",
    "address": "高知県高知市瀬戸南町２丁目８－３６",
    "lat": 33.5056296,
    "lng": 133.541718935582,
    "tel": "088-805-2310",
    "url": "",
    "pref": "高知県",
    "city": "高知市",
    "category": "home_help",
    "serviceType": "訪問介護",
    "capacity": 0,
    "openDays": [
      "平日",
      "土曜日",
      "日曜日",
      "祝日"
    ],
    "openDaysNote": "上記以外でもサービスを提供する場合があります。"
  },
  {
    "id": "3970106666",
    "name": "バラヘルパーステーション",
    "kana": "バラヘルパーステーション",
    "address": "高知県高知市長浜1658番地22",
    "lat": 33.5016073,
    "lng": 133.5396073,
    "tel": "088-848-2992",
    "url": "",
    "pref": "高知県",
    "city": "高知市",
    "category": "home_help",
    "serviceType": "訪問介護",
    "capacity": 0,
    "openDays": [
      "平日"
    ],
    "openDaysNote": ""
  },
  {
    "id": "3950180046",
    "name": "ピアハウス高知　２４時間ヘルパーステーションピア",
    "kana": "ピアハウスコウチ　２４ジカンヘルパーステーションピア",
    "address": "高知市塚の原33-1",
    "lat": 33.5609216,
    "lng": 133.4942806,
    "tel": "088-840-3407",
    "url": "http://josenkai-piahouse.jp",
    "pref": "高知県",
    "city": "高知市",
    "category": "home_help",
    "serviceType": "訪問介護",
    "capacity": 0,
    "openDays": [
      "平日",
      "土曜日",
      "日曜日",
      "祝日"
    ],
    "openDaysNote": "無し"
  },
  {
    "id": "3970103333",
    "name": "ふれあいセンター青葉",
    "kana": "フレアイセンターアオバ",
    "address": "高知県高知市桜井町二丁目６番３４号",
    "lat": 33.5619398,
    "lng": 133.5511879,
    "tel": "088-884-0872",
    "url": "",
    "pref": "高知県",
    "city": "高知市",
    "category": "home_help",
    "serviceType": "訪問介護",
    "capacity": 0,
    "openDays": [
      "平日",
      "土曜日",
      "日曜日",
      "祝日"
    ],
    "openDaysNote": "時間外でも利用者の希望に応じ随時対応します。"
  },
  {
    "id": "3970101071",
    "name": "ヘルパーステーション　おせっかい",
    "kana": "ヘルパーステーション　オセッカイ",
    "address": "高知県高知市潮新町1丁目１３－２６",
    "lat": 33.5518659,
    "lng": 133.5468858,
    "tel": "088-832-2200",
    "url": "",
    "pref": "高知県",
    "city": "高知市",
    "category": "home_help",
    "serviceType": "訪問介護",
    "capacity": 0,
    "openDays": [
      "平日",
      "土曜日",
      "祝日"
    ],
    "openDaysNote": "-"
  },
  {
    "id": "3970100479",
    "name": "ヘルパーステーション　ソレイユ",
    "kana": "ヘルパーステーション　ソレイユ",
    "address": "高知県高知市東城山町163-1ソレイユこうち ソレイユこうち",
    "lat": 33.5471947674123,
    "lng": 133.516947839812,
    "tel": "088-837-0373",
    "url": "http://www.kochikc.co.jp/okabayashihp/",
    "pref": "高知県",
    "city": "高知市",
    "category": "home_help",
    "serviceType": "訪問介護",
    "capacity": 0,
    "openDays": [
      "平日",
      "土曜日",
      "祝日"
    ],
    "openDaysNote": ""
  },
  {
    "id": "3970107417",
    "name": "ヘルパーステーション　たんぽぽ",
    "kana": "ヘルパーステーション　タンポポ",
    "address": "高知県高知市瀬戸南町２丁目１７－１３",
    "lat": 33.5051095,
    "lng": 133.5421184,
    "tel": "088-881-7880",
    "url": "yuusin.hs@outlook.com",
    "pref": "高知県",
    "city": "高知市",
    "category": "home_help",
    "serviceType": "訪問介護",
    "capacity": 0,
    "openDays": [
      "平日"
    ],
    "openDaysNote": ""
  },
  {
    "id": "3970103960",
    "name": "ヘルパーステーション　はち",
    "kana": "ヘルパーステーション　ハチ",
    "address": "高知県　高知市六泉寺町221-1第二六泉寺ビル103号 第二六泉寺ビル103号",
    "lat": 33.5391673,
    "lng": 133.5410283,
    "tel": "088-855-5644",
    "url": "",
    "pref": "高知県",
    "city": "高知市",
    "category": "home_help",
    "serviceType": "訪問介護",
    "capacity": 0,
    "openDays": [
      "平日",
      "土曜日",
      "日曜日",
      "祝日"
    ],
    "openDaysNote": "上記以外の時間については相談に応じます"
  },
  {
    "id": "3970105502",
    "name": "ヘルパーステーション　ミカリ",
    "kana": "ヘルパーステーション　ミカリ",
    "address": "高知県高知市鴨部1丁目8番１１号山ノ端コーポ102号 山ノ端コーポ102号",
    "lat": 33.5501649,
    "lng": 133.506329,
    "tel": "088-856-6425",
    "url": "http://www.mikari.net/",
    "pref": "高知県",
    "city": "高知市",
    "category": "home_help",
    "serviceType": "訪問介護",
    "capacity": 0,
    "openDays": [
      "平日",
      "土曜日",
      "日曜日",
      "祝日"
    ],
    "openDaysNote": "要望があれば応相談（改行）連絡体制　電話等により24時間常時連絡が可能な体制をとる。"
  },
  {
    "id": "3970104190",
    "name": "ヘルパーステーション　ワンアップ",
    "kana": "ヘルパーステーション　ワンアップ",
    "address": "高知市桟橋通４丁目16-44コーポ三粧１Ｆ北 コーポ三粧１Ｆ北",
    "lat": 33.5446755082026,
    "lng": 133.548521988747,
    "tel": "088-855-7508",
    "url": "",
    "pref": "高知県",
    "city": "高知市",
    "category": "home_help",
    "serviceType": "訪問介護",
    "capacity": 0,
    "openDays": [
      "平日",
      "土曜日",
      "日曜日",
      "祝日"
    ],
    "openDaysNote": ""
  },
  {
    "id": "3970102608",
    "name": "ヘルパーステーション　伊勢崎町",
    "kana": "ヘルパーステーション　イセザキチョウ",
    "address": "高知市伊勢崎町15-22",
    "lat": 33.570952,
    "lng": 133.5314922,
    "tel": "088-871-3132",
    "url": "http://care-net.biz/39/care-isezaki/sitemap.php",
    "pref": "高知県",
    "city": "高知市",
    "category": "home_help",
    "serviceType": "訪問介護",
    "capacity": 28,
    "openDays": [
      "平日",
      "土曜日",
      "日曜日",
      "祝日"
    ],
    "openDaysNote": ""
  },
  {
    "id": "3910112576",
    "name": "ヘルパーステーション　虹",
    "kana": "ヘルパーステーション　ニジ",
    "address": "高知市旭上町32旭診療所２階 旭診療所２階",
    "lat": 33.5564637822675,
    "lng": 133.503061586508,
    "tel": "088-844-2429",
    "url": "",
    "pref": "高知県",
    "city": "高知市",
    "category": "home_help",
    "serviceType": "訪問介護",
    "capacity": 60,
    "openDays": [
      "平日",
      "土曜日"
    ],
    "openDaysNote": "利用者の身体状況により時間相談に応じています。"
  },
  {
    "id": "3970105742",
    "name": "ヘルパーステーション・介護塾",
    "kana": "ヘルパーステーション・カイゴジュク",
    "address": "高知県高知市石立町91-1",
    "lat": 33.5529001824168,
    "lng": 133.516380156519,
    "tel": "088-834-1880",
    "url": "",
    "pref": "高知県",
    "city": "高知市",
    "category": "home_help",
    "serviceType": "訪問介護",
    "capacity": 0,
    "openDays": [
      "平日",
      "土曜日",
      "日曜日",
      "祝日"
    ],
    "openDaysNote": "提供票に基づき３６５日対応、サービス提供については、ご希望の日時をご相談下さい。"
  },
  {
    "id": "3970107672",
    "name": "ヘルパーステーションKoKoro",
    "kana": "ヘルパーステーション　ココロ",
    "address": "高知県高知市城山町23-6第2杉本ハイム102 第2杉本ハイム102",
    "lat": 33.5508396209615,
    "lng": 133.51613954418,
    "tel": "088-877-9098",
    "url": "",
    "pref": "高知県",
    "city": "高知市",
    "category": "home_help",
    "serviceType": "訪問介護",
    "capacity": 0,
    "openDays": [
      "平日",
      "祝日"
    ],
    "openDaysNote": ""
  },
  {
    "id": "3970106732",
    "name": "ヘルパーステーションＬｉｂ",
    "kana": "ヘルパーステーション　リブ",
    "address": "高知県高知市玉水町42-2コンフォート鏡川202 コンフォート鏡川202",
    "lat": 33.5560718382477,
    "lng": 133.515826754992,
    "tel": "088-802-6903",
    "url": "",
    "pref": "高知県",
    "city": "高知市",
    "category": "home_help",
    "serviceType": "訪問介護",
    "capacity": 0,
    "openDays": [
      "平日",
      "祝日"
    ],
    "openDaysNote": "利用者の希望に応じて上記時間対応可能な体制をとっていますが、訪問介護員の人員状況により、ご要望に添えない場合があります。"
  },
  {
    "id": "3970100917",
    "name": "へルパーステーションあざみ",
    "kana": "ヘルパーステーションアザミ",
    "address": "高知市一宮東町5丁目1-15",
    "lat": 33.5880227,
    "lng": 133.5669057,
    "tel": "088-820-2010",
    "url": "http://care-net.biz/39/hata-dialife/",
    "pref": "高知県",
    "city": "高知市",
    "category": "home_help",
    "serviceType": "訪問介護",
    "capacity": 80,
    "openDays": [
      "平日",
      "土曜日",
      "祝日"
    ],
    "openDaysNote": ""
  },
  {
    "id": "3970106864",
    "name": "ヘルパーステーションあっとホーム",
    "kana": "ヘルパーステーションアットホーム",
    "address": "高知県高知市神田1068-1",
    "lat": 33.5432298,
    "lng": 133.5135144,
    "tel": "088-805-1013",
    "url": "http://f-shizenmura.or.jp",
    "pref": "高知県",
    "city": "高知市",
    "category": "home_help",
    "serviceType": "訪問介護",
    "capacity": 0,
    "openDays": [
      "平日",
      "土曜日",
      "日曜日",
      "祝日"
    ],
    "openDaysNote": ""
  },
  {
    "id": "3970105676",
    "name": "ヘルパーステーションあやめ",
    "kana": "ヘルパーステーションアヤメ",
    "address": "朝倉甲488-11藤原第一ビル３階 藤原第一ビル３階",
    "lat": 33.5410073,
    "lng": 133.4930308,
    "tel": "088-856-5779",
    "url": "",
    "pref": "高知県",
    "city": "高知市",
    "category": "home_help",
    "serviceType": "訪問介護",
    "capacity": 0,
    "openDays": [],
    "openDaysNote": "２４時間対応"
  },
  {
    "id": "3970100891",
    "name": "ヘルパーステーションえくぼ",
    "kana": "ヘルパーステーションエクボ",
    "address": "高知市鴨部１丁目１１番２-２１０３号鏡川コーポ 鏡川コーポ",
    "lat": 33.5508425,
    "lng": 133.5044293,
    "tel": "088-844-5600",
    "url": "",
    "pref": "高知県",
    "city": "高知市",
    "category": "home_help",
    "serviceType": "訪問介護",
    "capacity": 0,
    "openDays": [
      "平日",
      "土曜日",
      "日曜日",
      "祝日"
    ],
    "openDaysNote": ""
  },
  {
    "id": "3970107177",
    "name": "ヘルパーステーションお結び",
    "kana": "ヘルパーステーションオムスビ",
    "address": "高知市百石町4丁目11番3号2F",
    "lat": 33.5428054,
    "lng": 133.5467814,
    "tel": "088-881-5358",
    "url": "",
    "pref": "高知県",
    "city": "高知市",
    "category": "home_help",
    "serviceType": "訪問介護",
    "capacity": 0,
    "openDays": [
      "平日",
      "土曜日",
      "祝日"
    ],
    "openDaysNote": ""
  },
  {
    "id": "3970106898",
    "name": "ヘルパーステーションかがやき",
    "kana": "ヘルパーステーションカガヤキ",
    "address": "高知県高知市二葉町８番１８号",
    "lat": 33.5572448,
    "lng": 133.5556438,
    "tel": "088-874-3134",
    "url": "",
    "pref": "高知県",
    "city": "高知市",
    "category": "home_help",
    "serviceType": "訪問介護",
    "capacity": null,
    "openDays": [
      "平日",
      "土曜日",
      "日曜日",
      "祝日"
    ],
    "openDaysNote": "利用者の状況により時間変更可能"
  },
  {
    "id": "3970107524",
    "name": "ヘルパーステーションかなで",
    "kana": "ヘルパーステーションカナデ",
    "address": "高知県高知市神田５２６－４９杉本ハイム2階西号室 杉本ハイム2階西号室",
    "lat": 33.5468256,
    "lng": 133.5102655,
    "tel": "088-856-6510",
    "url": "",
    "pref": "高知県",
    "city": "高知市",
    "category": "home_help",
    "serviceType": "訪問介護",
    "capacity": 5,
    "openDays": [
      "平日",
      "土曜日",
      "日曜日",
      "祝日"
    ],
    "openDaysNote": "その他の時間帯は相談に応じます。"
  },
  {
    "id": "3970100149",
    "name": "ヘルパーステーションさつき",
    "kana": "ヘルパーステーションサツキ",
    "address": "高知市円行寺５２－１０",
    "lat": 33.5838861,
    "lng": 133.5137,
    "tel": "088-823-3030",
    "url": "http://www.sanjyukai.com/annai/satuki.htm",
    "pref": "高知県",
    "city": "高知市",
    "category": "home_help",
    "serviceType": "訪問介護",
    "capacity": 0,
    "openDays": [
      "平日",
      "土曜日",
      "祝日"
    ],
    "openDaysNote": "-"
  },
  {
    "id": "3970106427",
    "name": "ヘルパーステーションシルキーマリン",
    "kana": "ヘルパーステーションシルキーマリン",
    "address": "高知県高知市高見町23ファミリーハウスやいろ ファミリーハウスやいろ",
    "lat": 33.543153610875,
    "lng": 133.536807091522,
    "tel": "088-856-7751",
    "url": "",
    "pref": "高知県",
    "city": "高知市",
    "category": "home_help",
    "serviceType": "訪問介護",
    "capacity": 0,
    "openDays": [
      "平日",
      "土曜日",
      "日曜日",
      "祝日"
    ],
    "openDaysNote": "時間帯により料金が異なります。"
  },
  {
    "id": "3970107847",
    "name": "ヘルパーステーションすまいる高知",
    "kana": "ヘルパーステーションスマイルコウチ",
    "address": "高知県高知市上町2丁目11-13TR上町ビル2階南 TR上町ビル2階南",
    "lat": 33.5551103,
    "lng": 133.5231419,
    "tel": "088-879-8269",
    "url": "https://www.nishida-ph.net",
    "pref": "高知県",
    "city": "高知市",
    "category": "home_help",
    "serviceType": "訪問介護",
    "capacity": null,
    "openDays": [
      "平日"
    ],
    "openDaysNote": ""
  },
  {
    "id": "3970103929",
    "name": "ヘルパーステーションつばさ",
    "kana": "ヘルパーステーションツバサ",
    "address": "高知市桟橋通１丁目７－１７",
    "lat": 33.5511882,
    "lng": 133.5462359,
    "tel": "088-833-5222",
    "url": "",
    "pref": "高知県",
    "city": "高知市",
    "category": "home_help",
    "serviceType": "訪問介護",
    "capacity": 0,
    "openDays": [
      "平日",
      "土曜日",
      "日曜日",
      "祝日"
    ],
    "openDaysNote": ""
  },
  {
    "id": "3970101931",
    "name": "ヘルパーステーショントマトの樹",
    "kana": "ヘルパーステーショントマトノキ",
    "address": "高知市介良乙８８３番地２",
    "lat": 33.5643129,
    "lng": 133.5980722,
    "tel": "088-878-7588",
    "url": "http://www.netfamily.jp/",
    "pref": "高知県",
    "city": "高知市",
    "category": "home_help",
    "serviceType": "訪問介護",
    "capacity": 278,
    "openDays": [
      "平日",
      "祝日"
    ],
    "openDaysNote": "各居宅介護支援事業所のケアマネージャーが位置付けたプランに応じて対応します。"
  },
  {
    "id": "3970104034",
    "name": "ヘルパーステーションなかよし",
    "kana": "ヘルパーステーションナカヨシ",
    "address": "高知市高須新町2-15-5サンハイツ小松105 サンハイツ小松105",
    "lat": 33.5591382,
    "lng": 133.578841,
    "tel": "088-855-7823",
    "url": "",
    "pref": "高知県",
    "city": "高知市",
    "category": "home_help",
    "serviceType": "訪問介護",
    "capacity": 2,
    "openDays": [
      "平日",
      "土曜日",
      "日曜日",
      "祝日"
    ],
    "openDaysNote": "ご利用者さんの要望があれば、これに限らず相談に応じます。"
  },
  {
    "id": "3970108027",
    "name": "ヘルパーステーションなごみ",
    "kana": "ヘルパーステーションナゴミ",
    "address": "高知県高知市福井扇町13-18",
    "lat": 33.567443941417,
    "lng": 133.510809057672,
    "tel": "088-873-9781",
    "url": "",
    "pref": "高知県",
    "city": "高知市",
    "category": "home_help",
    "serviceType": "訪問介護",
    "capacity": 0,
    "openDays": [
      "平日",
      "土曜日",
      "日曜日",
      "祝日"
    ],
    "openDaysNote": ""
  },
  {
    "id": "3970107086",
    "name": "ヘルパーステーションのかぜ",
    "kana": "ヘルパーステーションノカゼ",
    "address": "高知県高知市神田185番地27",
    "lat": 33.5334875105659,
    "lng": 133.499739180959,
    "tel": "088-855-6913",
    "url": "",
    "pref": "高知県",
    "city": "高知市",
    "category": "home_help",
    "serviceType": "訪問介護",
    "capacity": 0,
    "openDays": [
      "平日",
      "土曜日",
      "祝日"
    ],
    "openDaysNote": ""
  },
  {
    "id": "3970106369",
    "name": "ヘルパーステーションはまもと",
    "kana": "ヘルパーステーションハマモト",
    "address": "高知県高知市長浜6557-57",
    "lat": 33.4993814,
    "lng": 133.5419362,
    "tel": "088-803-4348",
    "url": "",
    "pref": "高知県",
    "city": "高知市",
    "category": "home_help",
    "serviceType": "訪問介護",
    "capacity": 0,
    "openDays": [
      "平日"
    ],
    "openDaysNote": ""
  },
  {
    "id": "3970107615",
    "name": "ヘルパーステーションふぁみたす",
    "kana": "ヘルパーステーションファミタス",
    "address": "高知県高知市桜井町2丁目9番37号",
    "lat": 33.5626324,
    "lng": 133.5507899,
    "tel": "088-855-5280",
    "url": "",
    "pref": "高知県",
    "city": "高知市",
    "category": "home_help",
    "serviceType": "訪問介護",
    "capacity": 0,
    "openDays": [
      "平日",
      "土曜日",
      "日曜日",
      "祝日"
    ],
    "openDaysNote": ""
  },
  {
    "id": "3970107706",
    "name": "ヘルパーステーションほっとすまいる",
    "kana": "ヘルパーステーションホットスマイル",
    "address": "高知県高知市百石町2丁目19-15メゾン山崎301号 メゾン山崎301号",
    "lat": 33.5475751,
    "lng": 133.5415606,
    "tel": "088-879-6801",
    "url": "",
    "pref": "高知県",
    "city": "高知市",
    "category": "home_help",
    "serviceType": "訪問介護",
    "capacity": 0,
    "openDays": [
      "平日",
      "土曜日",
      "日曜日",
      "祝日"
    ],
    "openDaysNote": "相談内容に応じて、時間外での対応行っている。"
  },
  {
    "id": "3970100420",
    "name": "ヘルパーステーションほほえみ",
    "kana": "ヘルパーステーションホホエミ",
    "address": "高知県高知市神田2291-11",
    "lat": 33.5465031355953,
    "lng": 133.518527536076,
    "tel": "088-832-4911",
    "url": "http://kochi.koreikyo.jp/",
    "pref": "高知県",
    "city": "高知市",
    "category": "home_help",
    "serviceType": "訪問介護",
    "capacity": 0,
    "openDays": [
      "平日",
      "土曜日",
      "日曜日",
      "祝日"
    ],
    "openDaysNote": "上記以外の時間については相談に応じます。"
  },
  {
    "id": "3970107607",
    "name": "ヘルパーステーションミカリ潮江",
    "kana": "ヘルパーステーションミカリウシオエ",
    "address": "高知県高知市潮新町2丁目5-20",
    "lat": 33.5501914,
    "lng": 133.5500849,
    "tel": "088-821-9212",
    "url": "",
    "pref": "高知県",
    "city": "高知市",
    "category": "home_help",
    "serviceType": "訪問介護",
    "capacity": 0,
    "openDays": [
      "平日",
      "土曜日"
    ],
    "openDaysNote": ""
  },
  {
    "id": "3970106450",
    "name": "ヘルパーステーションやわらぎ",
    "kana": "ヘルパーステーションヤワラギ",
    "address": "高知県高知市鴨部高町16番33号和の杜かもべ 和の杜かもべ",
    "lat": 33.5507068037565,
    "lng": 133.494953188955,
    "tel": "088-821-6735",
    "url": "",
    "pref": "高知県",
    "city": "高知市",
    "category": "home_help",
    "serviceType": "訪問介護",
    "capacity": 0,
    "openDays": [
      "平日",
      "土曜日",
      "日曜日",
      "祝日"
    ],
    "openDaysNote": "サービス提供日（365日）"
  },
  {
    "id": "3970103051",
    "name": "ヘルパーステーションゆずりは",
    "kana": "ヘルパーステーションユズリハ",
    "address": "長浜1349-1",
    "lat": 33.5089834409572,
    "lng": 133.538463184754,
    "tel": "088-854-9601",
    "url": "https://nijinoyume-g.jp/",
    "pref": "高知県",
    "city": "高知市",
    "category": "home_help",
    "serviceType": "訪問介護",
    "capacity": 0,
    "openDays": [
      "平日",
      "土曜日"
    ],
    "openDaysNote": "12/31～1/3を除く（改行）電話により24時間常時連絡が可能な体制とし、可能な限りのサービス提供を行う事とする。（管理者携帯に転送となる）"
  },
  {
    "id": "3970105783",
    "name": "ヘルパーステーションりんくす",
    "kana": "ヘルパーステーションリンクス",
    "address": "高知県高知市杉井流26-11",
    "lat": 33.5677792984244,
    "lng": 133.556793949811,
    "tel": "088-883-0113",
    "url": "ambition-links.co.jp",
    "pref": "高知県",
    "city": "高知市",
    "category": "home_help",
    "serviceType": "訪問介護",
    "capacity": 0,
    "openDays": [
      "平日",
      "土曜日",
      "日曜日",
      "祝日"
    ],
    "openDaysNote": "サービス提供日365日（改行）サービス提供時間24時間"
  },
  {
    "id": "3970106302",
    "name": "ヘルパーステーション彩",
    "kana": "ヘルパーステーションアヤ",
    "address": "高知県高知市桜井町1丁目8-9",
    "lat": 33.5627209184216,
    "lng": 133.547959252643,
    "tel": "088-879-1429",
    "url": "",
    "pref": "高知県",
    "city": "高知市",
    "category": "home_help",
    "serviceType": "訪問介護",
    "capacity": 0,
    "openDays": [
      "平日",
      "土曜日",
      "日曜日",
      "祝日"
    ],
    "openDaysNote": ""
  },
  {
    "id": "3970107821",
    "name": "ヘルパーステーション照",
    "kana": "ヘルパーステーションテル",
    "address": "高知県高知市神田８１８番地２１",
    "lat": 33.5436354,
    "lng": 133.5105624,
    "tel": "088-855-3081",
    "url": "",
    "pref": "高知県",
    "city": "高知市",
    "category": "home_help",
    "serviceType": "訪問介護",
    "capacity": 0,
    "openDays": [
      "平日"
    ],
    "openDaysNote": "必要に応じ夜朝時間訪問可能。"
  },
  {
    "id": "3970103598",
    "name": "ヘルパーステーション虹の夢桟橋",
    "kana": "ヘルパーステーションニジノユメサンバシ",
    "address": "高知県高知市桟橋通1丁目12-17",
    "lat": 33.5509132,
    "lng": 133.5449999,
    "tel": "088-837-7902",
    "url": "",
    "pref": "高知県",
    "city": "高知市",
    "category": "home_help",
    "serviceType": "訪問介護",
    "capacity": 0,
    "openDays": [
      "平日",
      "土曜日",
      "日曜日",
      "祝日"
    ],
    "openDaysNote": "サービス提供時間は必要に応じて営業時間外も対応可能です。"
  },
  {
    "id": "3970106401",
    "name": "ヘルパーステーション廿代",
    "kana": "ヘルパーステーションニジュウダイ",
    "address": "高知市南元町85番住宅型有料老人ホームあさひの里 住宅型有料老人ホームあさひの里",
    "lat": 33.5575002619892,
    "lng": 133.50745126005,
    "tel": "088-803-8088",
    "url": "",
    "pref": "高知県",
    "city": "高知市",
    "category": "home_help",
    "serviceType": "訪問介護",
    "capacity": 0,
    "openDays": [
      "平日",
      "土曜日",
      "日曜日",
      "祝日"
    ],
    "openDaysNote": ""
  },
  {
    "id": "3970107763",
    "name": "ヘルパーステーション福寿の園",
    "kana": "ヘルパーステーションフクジュノソノ",
    "address": "高知県高知市福井扇町7番8号和マンション3階　302号 和マンション3階　302号",
    "lat": 33.5680409,
    "lng": 133.5108067,
    "tel": "088-856-5128",
    "url": "",
    "pref": "高知県",
    "city": "高知市",
    "category": "home_help",
    "serviceType": "訪問介護",
    "capacity": null,
    "openDays": [
      "平日",
      "土曜日",
      "日曜日",
      "祝日"
    ],
    "openDaysNote": "相談のうえ決定する"
  },
  {
    "id": "3970102004",
    "name": "ヘルパーステーション絆",
    "kana": "ヘルパーステーションキズナ",
    "address": "高知市春野町弘岡中６３９",
    "lat": 33.5051021,
    "lng": 133.4691072,
    "tel": "088-894-2242",
    "url": "unvs.co.jp",
    "pref": "高知県",
    "city": "高知市",
    "category": "home_help",
    "serviceType": "訪問介護",
    "capacity": 48,
    "openDays": [
      "平日",
      "土曜日",
      "日曜日",
      "祝日"
    ],
    "openDaysNote": "利用者の希望により、相談に応じます。"
  },
  {
    "id": "3970104976",
    "name": "ヘルパーよさく",
    "kana": "ヘルパーヨサク",
    "address": "高知県高知市朝倉丙1543",
    "lat": 33.5520341767945,
    "lng": 133.479363078835,
    "tel": "088-828-4390",
    "url": "",
    "pref": "高知県",
    "city": "高知市",
    "category": "home_help",
    "serviceType": "訪問介護",
    "capacity": 0,
    "openDays": [
      "平日"
    ],
    "openDaysNote": "居宅サービスに応じた全曜日、全時間対応"
  },
  {
    "id": "3970100057",
    "name": "ホームヘルパーステーション　あおやぎ",
    "kana": "ホームヘルパーステーション　アオヤギ",
    "address": "高知県高知市五台山3780-1",
    "lat": 33.5485148,
    "lng": 133.5882544,
    "tel": "088-885-0013",
    "url": "http://www.sawarabikai.net/index.html",
    "pref": "高知県",
    "city": "高知市",
    "category": "home_help",
    "serviceType": "訪問介護",
    "capacity": null,
    "openDays": [
      "平日",
      "土曜日",
      "祝日"
    ],
    "openDaysNote": "原則上記ですが、相談に応じます。"
  },
  {
    "id": "3970100693",
    "name": "ホームヘルパーステーション　いずみの",
    "kana": "ホームヘルパーステーション　イズミノ",
    "address": "高知市薊野北町３丁目２番２８号診療棟２階 診療棟２階",
    "lat": 33.5817427,
    "lng": 133.5504266,
    "tel": "088-845-8770",
    "url": "http://www.kinrou-cl.jp/fuzoku/helper.html",
    "pref": "高知県",
    "city": "高知市",
    "category": "home_help",
    "serviceType": "訪問介護",
    "capacity": 0,
    "openDays": [
      "平日",
      "土曜日",
      "日曜日",
      "祝日"
    ],
    "openDaysNote": "特になし"
  },
  {
    "id": "3960190449",
    "name": "ホームヘルパーステーション　はる",
    "kana": "ホームヘルパーステーション　ハル",
    "address": "高知県高知市大津乙1955-3",
    "lat": 33.5708356713757,
    "lng": 133.590685574591,
    "tel": "088-821-8888",
    "url": "http://www.yell-group.net/haru/index.html",
    "pref": "高知県",
    "city": "高知市",
    "category": "home_help",
    "serviceType": "訪問介護",
    "capacity": 0,
    "openDays": [
      "平日",
      "土曜日"
    ],
    "openDaysNote": "必要に応じてこの限りでない。"
  },
  {
    "id": "3970100586",
    "name": "ホームヘルパーステーション　城西",
    "kana": "ホームヘルパーステーション　ジョウセイ",
    "address": "高知県高知市大膳町１番２５号２階",
    "lat": 33.5591457092097,
    "lng": 133.523402124893,
    "tel": "088-871-5965",
    "url": "http://hosogi-hospital.jp/",
    "pref": "高知県",
    "city": "高知市",
    "category": "home_help",
    "serviceType": "訪問介護",
    "capacity": 1,
    "openDays": [
      "平日",
      "土曜日",
      "日曜日",
      "祝日"
    ],
    "openDaysNote": "必要時は希望に応じた個別対応できます。"
  },
  {
    "id": "3970106534",
    "name": "ホームヘルパーステーションウェルライフ",
    "kana": "ホームヘルパーステーションウェルライフ",
    "address": "大津乙869番地5ウェルライフ大津1F ウェルライフ大津1F",
    "lat": 33.5692623,
    "lng": 133.5967166,
    "tel": "088-866-8601",
    "url": "https://kano-welllife.com",
    "pref": "高知県",
    "city": "高知市",
    "category": "home_help",
    "serviceType": "訪問介護",
    "capacity": 0,
    "openDays": [
      "平日"
    ],
    "openDaysNote": "必要に応じて、夜間、土日祝祭日もサービス提供をする場合もある。"
  },
  {
    "id": "3970108001",
    "name": "ホームヘルパーステーションサステナ",
    "kana": "ホームヘルパーステーションサステナ",
    "address": "高知県高知市本町3-6-37かわさき予備校３階 かわさき予備校３階",
    "lat": 33.5573981,
    "lng": 133.5354,
    "tel": "088-873-3303",
    "url": "https://k-sustain.com/",
    "pref": "高知県",
    "city": "高知市",
    "category": "home_help",
    "serviceType": "訪問介護",
    "capacity": null,
    "openDays": [
      "平日"
    ],
    "openDaysNote": ""
  },
  {
    "id": "3970100123",
    "name": "ホームヘルパーステーションよこはま",
    "kana": "ホームヘルパーステーション　ヨコハマ",
    "address": "高知県高知市横浜２０番１",
    "lat": 33.5286189,
    "lng": 133.5536916,
    "tel": "088-848-2002",
    "url": "http://herupa-yokohama.jimdo.com/",
    "pref": "高知県",
    "city": "高知市",
    "category": "home_help",
    "serviceType": "訪問介護",
    "capacity": 0,
    "openDays": [
      "平日",
      "土曜日",
      "祝日"
    ],
    "openDaysNote": "随時時間外サービスも有り"
  },
  {
    "id": "3970104059",
    "name": "ホームヘルパーステーション永井",
    "kana": "ホームヘルパーステーション　ナガイ",
    "address": "高知県高知市春野町西分2027-3",
    "lat": 33.4986338,
    "lng": 133.492883,
    "tel": "088-894-6613",
    "url": "http://www.nagai-hp.com/zaitaku.html",
    "pref": "高知県",
    "city": "高知市",
    "category": "home_help",
    "serviceType": "訪問介護",
    "capacity": 0,
    "openDays": [
      "平日",
      "土曜日",
      "祝日"
    ],
    "openDaysNote": ""
  },
  {
    "id": "3970107375",
    "name": "やまもも",
    "kana": "ヤマモモ",
    "address": "高知県高知市介良甲844-3レジデンスKERANO403 レジデンスKERANO403",
    "lat": 33.5679858,
    "lng": 133.6200722,
    "tel": "088-855-7325",
    "url": "https://www.yamamomo2012.com/",
    "pref": "高知県",
    "city": "高知市",
    "category": "home_help",
    "serviceType": "訪問介護",
    "capacity": null,
    "openDays": [
      "平日"
    ],
    "openDaysNote": "サービス提供に係る場合はこの限りではありません。"
  },
  {
    "id": "3970104711",
    "name": "介護２４フジヘルパー",
    "kana": "カイゴニジュウヨンフジヘルパー",
    "address": "高知県高知市潮見台２丁目１８１２番地",
    "lat": 33.5579862,
    "lng": 133.6185644,
    "tel": "088-854-3500",
    "url": "",
    "pref": "高知県",
    "city": "高知市",
    "category": "home_help",
    "serviceType": "訪問介護",
    "capacity": 0,
    "openDays": [
      "平日",
      "土曜日",
      "日曜日",
      "祝日"
    ],
    "openDaysNote": "定休日、時間外でも相談の上、対応可能な場合があります。"
  },
  {
    "id": "3970106823",
    "name": "介護ステーション才加",
    "kana": "カイゴステーションサイカ",
    "address": "高知県高知市鴨部1丁目１７－７",
    "lat": 33.5516668,
    "lng": 133.5016188,
    "tel": "088-843-2425",
    "url": "",
    "pref": "高知県",
    "city": "高知市",
    "category": "home_help",
    "serviceType": "訪問介護",
    "capacity": null,
    "openDays": [
      "平日",
      "土曜日",
      "日曜日",
      "祝日"
    ],
    "openDaysNote": "但し、要望がある場合で可能な場合、これ以外の時間帯も営業しています"
  },
  {
    "id": "3970107136",
    "name": "楽リハヘルパーステーション高知杉井流",
    "kana": "ラクリハヘルパーステーションコウチスギイル",
    "address": "高知県高知市杉井流16-15楽リハライフ高知杉井流 楽リハライフ高知杉井流",
    "lat": 33.5696482,
    "lng": 133.5562638,
    "tel": "088-856-5027",
    "url": "http://www.greenlife-inc.co.jp/",
    "pref": "高知県",
    "city": "高知市",
    "category": "home_help",
    "serviceType": "訪問介護",
    "capacity": null,
    "openDays": [
      "平日",
      "土曜日",
      "日曜日",
      "祝日"
    ],
    "openDaysNote": ""
  },
  {
    "id": "3970107565",
    "name": "高知中央ヘルパーステーション",
    "kana": "コウチチュウオウヘルパーステーション",
    "address": "高知市北高見町50-13メゾン高見1F メゾン高見1F",
    "lat": 33.5465659,
    "lng": 133.5375413,
    "tel": "088-856-7764",
    "url": "http://kochi-zaitaku.or.jp/",
    "pref": "高知県",
    "city": "高知市",
    "category": "home_help",
    "serviceType": "訪問介護",
    "capacity": null,
    "openDays": [
      "平日"
    ],
    "openDaysNote": "平日営業時間外や定休日の対応は相談に応じる"
  },
  {
    "id": "3970107755",
    "name": "合同会社ほっとステーション",
    "kana": "ゴウドウガイシャホットステーション",
    "address": "高知県高知市横浜東町2-47",
    "lat": 33.5226446,
    "lng": 133.5452415,
    "tel": "088-841-6460",
    "url": "https://hottostation.com",
    "pref": "高知県",
    "city": "高知市",
    "category": "home_help",
    "serviceType": "訪問介護",
    "capacity": 55,
    "openDays": [
      "平日"
    ],
    "openDaysNote": ""
  },
  {
    "id": "3910118102",
    "name": "山村病院　鏡居宅サービス事業所",
    "kana": "ヤマムラビョウイン　カガミキョタクサービスジギョウショ",
    "address": "高知県高知市鏡今井１２６番地",
    "lat": 33.6079124,
    "lng": 133.4716458,
    "tel": "088-896-2200",
    "url": "",
    "pref": "高知県",
    "city": "高知市",
    "category": "home_help",
    "serviceType": "訪問介護",
    "capacity": 0,
    "openDays": [
      "平日",
      "土曜日",
      "日曜日",
      "祝日"
    ],
    "openDaysNote": "特になし"
  },
  {
    "id": "3970103077",
    "name": "社会福祉法人高知市社会福祉協議会　介護センターあじさい会館　指定訪問介護事業所",
    "kana": "シャカイフクシホウジンコウチシシャカイフクシキョウギカイ　カイゴセンターアジサイカイカン　シテイホウモンカイゴジギョウショ",
    "address": "高知県高知市春野町西分１番地１",
    "lat": 33.4978337,
    "lng": 133.4878417,
    "tel": "088-894-3572",
    "url": "http://www.kochi-csw.or.jp/",
    "pref": "高知県",
    "city": "高知市",
    "category": "home_help",
    "serviceType": "訪問介護",
    "capacity": 0,
    "openDays": [
      "平日",
      "土曜日",
      "日曜日",
      "祝日"
    ],
    "openDaysNote": "祝日は平常通りサービス提供を行っていますが、日曜日及び年末・年始については利用者の状況を考慮し相談に応じます"
  },
  {
    "id": "3970100230",
    "name": "社会福祉法人高知市社会福祉協議会指定訪問介護事業所ヘルパーステーション",
    "kana": "シャカイフクシホウジンコウチシシャカイフクシキョウギカイシテイホウモンカイゴジギョウショ　ヘルパーステーション",
    "address": "高知市丸ノ内1丁目7-45高知市保健福祉センター内 高知市保健福祉センター内",
    "lat": 33.5602043537103,
    "lng": 133.528026550665,
    "tel": "088-820-6865",
    "url": "http://www.kochi-csw.or.jp/",
    "pref": "高知県",
    "city": "高知市",
    "category": "home_help",
    "serviceType": "訪問介護",
    "capacity": 67,
    "openDays": [
      "平日"
    ],
    "openDaysNote": "事業所の開所日は平日のみであるが、サービス提供については、必要に応じ土・日・祝日も訪問しており、年末年始については利用者状況を考慮し相談に応じる。"
  },
  {
    "id": "3970106955",
    "name": "真心合同会社",
    "kana": "マゴコロゴウドウカイシャ",
    "address": "南金田15-12",
    "lat": 33.5629814764342,
    "lng": 133.558153377429,
    "tel": "088-855-6570",
    "url": "http://hp.kaipoke.biz/v66/",
    "pref": "高知県",
    "city": "高知市",
    "category": "home_help",
    "serviceType": "訪問介護",
    "capacity": 40,
    "openDays": [
      "平日"
    ],
    "openDaysNote": "土日や時間外相談に応じ利用可"
  },
  {
    "id": "3970101907",
    "name": "朝日サービス　株式会社　指定訪問介護事業所",
    "kana": "アサヒサービス　カブシキガイシャ　シテイホウモンカイゴジギョウショ",
    "address": "高知市長浜666",
    "lat": 33.5014077093792,
    "lng": 133.546253829774,
    "tel": "088-837-9145",
    "url": "",
    "pref": "高知県",
    "city": "高知市",
    "category": "home_help",
    "serviceType": "訪問介護",
    "capacity": 140,
    "openDays": [
      "平日"
    ],
    "openDaysNote": "緊急要請があった場合、担当ケマネージャーに連絡を取り、緊急時の対応もしています。（改行）早朝、夜間の時間帯も可能であれば対応しています。"
  },
  {
    "id": "3970100289",
    "name": "福祉ステーション　やさしいグループ",
    "kana": "フクシステーション　ヤサシイグループ",
    "address": "高知県高知市朝倉己771-1",
    "lat": 33.5347412,
    "lng": 133.4897145,
    "tel": "088-843-1300",
    "url": "https://yasashii-group.jimdosite.com",
    "pref": "高知県",
    "city": "高知市",
    "category": "home_help",
    "serviceType": "訪問介護",
    "capacity": 0,
    "openDays": [
      "平日",
      "土曜日",
      "祝日"
    ],
    "openDaysNote": "上記時間以外及び定休日は相談の上、サービスは可能です。"
  },
  {
    "id": "3970104323",
    "name": "福祉センターあさくら",
    "kana": "フクシセンターアサクラ",
    "address": "高知市朝倉己771-9解放センター2階 解放センター2階",
    "lat": 33.5344023,
    "lng": 133.4899423,
    "tel": "088-850-7505",
    "url": "",
    "pref": "高知県",
    "city": "高知市",
    "category": "home_help",
    "serviceType": "訪問介護",
    "capacity": 0,
    "openDays": [
      "平日",
      "土曜日",
      "日曜日",
      "祝日"
    ],
    "openDaysNote": "定休日については、利用者にとってのサービス提供の必要性に応じ、利用者本人、利用者の家族および担当ケアマネージャー等との協議の上サービス提供の可否を判断し対応する。"
  },
  {
    "id": "3970102582",
    "name": "歩介護事業所",
    "kana": "アユミカイゴジギョウショ",
    "address": "高知市南竹島町１６－１１",
    "lat": 33.5394285,
    "lng": 133.5454279,
    "tel": "088-854-5550",
    "url": "",
    "pref": "高知県",
    "city": "高知市",
    "category": "home_help",
    "serviceType": "訪問介護",
    "capacity": 0,
    "openDays": [
      "平日",
      "土曜日",
      "日曜日",
      "祝日"
    ],
    "openDaysNote": "定めた時間外については、ご相談ください。"
  },
  {
    "id": "3970108035",
    "name": "訪問介護ステーション　まる",
    "kana": "ホウモンカイゴステーションマル",
    "address": "高知県高知市愛宕町３丁目10-15コーポ愛宕A-3 コーポ愛宕A-3",
    "lat": 33.5707995,
    "lng": 133.537708,
    "tel": "088-879-0571",
    "url": "",
    "pref": "高知県",
    "city": "高知市",
    "category": "home_help",
    "serviceType": "訪問介護",
    "capacity": null,
    "openDays": [
      "平日",
      "土曜日",
      "祝日"
    ],
    "openDaysNote": ""
  },
  {
    "id": "3970106914",
    "name": "訪問介護ステーション万々の恵",
    "kana": "ホウモンカイゴステーションママノメグミ",
    "address": "高知県高知市愛宕町4丁目7-9",
    "lat": 33.5733873462872,
    "lng": 133.536032859102,
    "tel": "088-881-5588",
    "url": "",
    "pref": "高知県",
    "city": "高知市",
    "category": "home_help",
    "serviceType": "訪問介護",
    "capacity": null,
    "openDays": [
      "平日",
      "土曜日",
      "日曜日",
      "祝日"
    ],
    "openDaysNote": "サービス提供日365日（改行）サービス提供時間24時間"
  },
  {
    "id": "3970104828",
    "name": "訪問介護事業所　ジョイハッピィ",
    "kana": "ホウモンカイゴジギョウショ　ジョイハッピィ",
    "address": "高知県高知市小津町2番10号池上ビル102 池上ビル102",
    "lat": 33.5642417,
    "lng": 133.5303536,
    "tel": "088-855-5311",
    "url": "http://www.joyhappy.sakura.ne.jp/",
    "pref": "高知県",
    "city": "高知市",
    "category": "home_help",
    "serviceType": "訪問介護",
    "capacity": 100,
    "openDays": [
      "平日",
      "土曜日",
      "日曜日",
      "祝日"
    ],
    "openDaysNote": "〇上記時間以外も必要に応じ対応できる場合もあります。"
  },
  {
    "id": "3970107490",
    "name": "訪問介護事業所　そらいろ",
    "kana": "ホウモンカイゴジギョウショ　ソライロ",
    "address": "高知県高知市朝倉西町２丁目13-25",
    "lat": 33.537702,
    "lng": 133.4805579,
    "tel": "088-828-8850",
    "url": "",
    "pref": "高知県",
    "city": "高知市",
    "category": "home_help",
    "serviceType": "訪問介護",
    "capacity": 80,
    "openDays": [
      "平日",
      "土曜日",
      "日曜日",
      "祝日"
    ],
    "openDaysNote": "サービス利用時間に関しては都度ご相談いただけます。"
  },
  {
    "id": "3970105643",
    "name": "訪問介護事業所　ひととせ",
    "kana": "ホウモンカイゴジギョウショ　ヒトトセ",
    "address": "高知県高知市一宮東町一丁目28-24-2ハイツショウエイ2番館211号 ハイツショウエイ2番館211号",
    "lat": 33.5824072,
    "lng": 133.5775075,
    "tel": "088-855-7853",
    "url": "http://www.life-tellus.jp/",
    "pref": "高知県",
    "city": "高知市",
    "category": "home_help",
    "serviceType": "訪問介護",
    "capacity": null,
    "openDays": [
      "平日",
      "土曜日",
      "日曜日",
      "祝日"
    ],
    "openDaysNote": "365日24時間対応"
  },
  {
    "id": "3970104786",
    "name": "訪問介護事業所　よこはま",
    "kana": "ホウモンカイゴジギョウショ　ヨコハマ",
    "address": "高知県高知市横浜東町10番1号",
    "lat": 33.5196198,
    "lng": 133.5480981,
    "tel": "088-842-7100",
    "url": "",
    "pref": "高知県",
    "city": "高知市",
    "category": "home_help",
    "serviceType": "訪問介護",
    "capacity": 0,
    "openDays": [
      "平日",
      "土曜日",
      "日曜日",
      "祝日"
    ],
    "openDaysNote": "365日、24時間営業しております。午前7時～午後7時　24時間対応　　　　　　　　　　　　　　　　　　　　　　　　　　居宅サービス計画（介護予防サービス計画）書に計画された場合は時間の制約はない。"
  },
  {
    "id": "3970107789",
    "name": "訪問介護事業所　悠生",
    "kana": "ホウモンカイゴジギョウショ　ユウセイ",
    "address": "高知県高知市薊野北町２丁目7-11",
    "lat": 33.5809937005696,
    "lng": 133.552609553067,
    "tel": "088-821-8460",
    "url": "",
    "pref": "高知県",
    "city": "高知市",
    "category": "home_help",
    "serviceType": "訪問介護",
    "capacity": null,
    "openDays": [
      "平日",
      "祝日"
    ],
    "openDaysNote": "・上記以外のサービス時間が希望の場合は相談に応じる。"
  },
  {
    "id": "3970105882",
    "name": "訪問介護事業所スマートケア",
    "kana": "ホウモンカイゴジギョウショスマートケア",
    "address": "高知県高知市瀬戸南町2丁目3-6",
    "lat": 33.5078235712191,
    "lng": 133.543458595045,
    "tel": "088-841-4245",
    "url": "",
    "pref": "高知県",
    "city": "高知市",
    "category": "home_help",
    "serviceType": "訪問介護",
    "capacity": 0,
    "openDays": [
      "平日"
    ],
    "openDaysNote": "年中無休6時~22時"
  },
  {
    "id": "3970107854",
    "name": "訪問介護事業所わらふく",
    "kana": "ホウモンカイゴジギョウショワラフク",
    "address": "高知県高知市潮新町2丁目10-1VIVHOUSE1F西 VIVHOUSE1F西",
    "lat": 33.5493492,
    "lng": 133.5497812,
    "tel": "088-802-6073",
    "url": "",
    "pref": "高知県",
    "city": "高知市",
    "category": "home_help",
    "serviceType": "訪問介護",
    "capacity": 0,
    "openDays": [
      "平日"
    ],
    "openDaysNote": ""
  },
  {
    "id": "3970102434",
    "name": "訪問介護事業所高知県庁生協介護福祉センター",
    "kana": "ホウモンカイゴジギョウショコウチケンチョウセイキョウカイゴフクシセンター",
    "address": "高知市稲荷町6-22",
    "lat": 33.5555408,
    "lng": 133.5585207,
    "tel": "088-882-0194",
    "url": "http://www.kkcoop.or.jp/kaigo/index.html",
    "pref": "高知県",
    "city": "高知市",
    "category": "home_help",
    "serviceType": "訪問介護",
    "capacity": 0,
    "openDays": [
      "平日",
      "土曜日",
      "日曜日",
      "祝日"
    ],
    "openDaysNote": "上記時間外については、利用者の状況に応じて対応します。"
  },
  {
    "id": "3970101881",
    "name": "有限会社　ヘルパーステーションあゆ",
    "kana": "ユウゲンガイシャ　ヘルパーステーションアユ",
    "address": "高知市八反町2丁目12-32-11",
    "lat": 33.5700321,
    "lng": 133.5128,
    "tel": "088-879-1736",
    "url": "",
    "pref": "高知県",
    "city": "高知市",
    "category": "home_help",
    "serviceType": "訪問介護",
    "capacity": 0,
    "openDays": [
      "平日",
      "土曜日",
      "日曜日",
      "祝日"
    ],
    "openDaysNote": ""
  },
  {
    "id": "3972600302",
    "name": "黒潮町社会福祉協議会訪問介護事業所",
    "kana": "クロシオチョウシャカイフクシキョウギカイホウモンカイゴジギョウショ",
    "address": "高知県幡多郡黒潮町佐賀920番地",
    "lat": 33.0816813816438,
    "lng": 133.1049931979,
    "tel": "0880-55-3250",
    "url": "http/:kurosiochosyakyo.or.jp/",
    "pref": "高知県",
    "city": "黒潮町",
    "category": "home_help",
    "serviceType": "訪問介護",
    "capacity": 0,
    "openDays": [
      "平日",
      "土曜日",
      "日曜日",
      "祝日"
    ],
    "openDaysNote": ""
  },
  {
    "id": "3972501401",
    "name": "株式会社ケアセンターさかわ",
    "kana": "カブシキガイシャケアセンターサカワ",
    "address": "乙2158番地36おの家具倉庫跡地 おの家具倉庫跡地",
    "lat": 33.506944,
    "lng": 133.2838387,
    "tel": "0889-22-0622",
    "url": "https://www.big-advance.site/s/168/1335",
    "pref": "高知県",
    "city": "佐川町",
    "category": "home_help",
    "serviceType": "訪問介護",
    "capacity": 0,
    "openDays": [
      "平日",
      "土曜日",
      "日曜日",
      "祝日"
    ],
    "openDaysNote": "プランに応じて24時間可。（改行）緊急時の連絡体制あり。"
  },
  {
    "id": "3971000173",
    "name": "ニチイケアセンター四万十",
    "kana": "ニチイケアセンターシマント",
    "address": "高知県四万十市古津賀３４４８－１",
    "lat": 32.9849323,
    "lng": 132.9489455,
    "tel": "0880-31-0251",
    "url": "",
    "pref": "高知県",
    "city": "四万十市",
    "category": "home_help",
    "serviceType": "訪問介護",
    "capacity": 0,
    "openDays": [
      "平日",
      "土曜日",
      "日曜日",
      "祝日"
    ],
    "openDaysNote": "居宅サービス計画により営業時間以外でもサービスの提供を行う場合もあります。"
  },
  {
    "id": "3971000439",
    "name": "ヘルパ-ステ-ションゆらり",
    "kana": "ヘルパ-ステ-ションユラリ",
    "address": "高知県四万十市駅前町13-3大正ビル1F 大正ビル1F",
    "lat": 32.9831092,
    "lng": 132.942311,
    "tel": "0880-34-8738",
    "url": "",
    "pref": "高知県",
    "city": "四万十市",
    "category": "home_help",
    "serviceType": "訪問介護",
    "capacity": 10,
    "openDays": [
      "平日",
      "土曜日",
      "日曜日",
      "祝日"
    ],
    "openDaysNote": "時間帯により利用料が異なります。早朝（6：00-8：00）、夜間（6：00-22：00）、深夜（22：00-6：00）のご利用につきましては、ご相談下さい。"
  },
  {
    "id": "3971000280",
    "name": "ヘルパーステーション介援隊",
    "kana": "ヘルパーステーションカイエンタイ",
    "address": "高知県四万十市具同字六反田3239番地29",
    "lat": 32.9792078966946,
    "lng": 132.913041624413,
    "tel": "0880-34-9181",
    "url": "",
    "pref": "高知県",
    "city": "四万十市",
    "category": "home_help",
    "serviceType": "訪問介護",
    "capacity": 0,
    "openDays": [],
    "openDaysNote": "２４時間　３６５日利用可能（ヘルパーの人員の関係により要相談）"
  },
  {
    "id": "3971000041",
    "name": "ホームヘルパーステーション福寿草",
    "kana": "ホウムヘルパアステエションフクジュソウ",
    "address": "高知県四万十市磯ノ川20-5ホームヘルパーステーション福寿草 ホームヘルパーステーション福寿草",
    "lat": 32.964182,
    "lng": 132.8435788,
    "tel": "0880-31-2913",
    "url": "www.aratanchi.com",
    "pref": "高知県",
    "city": "四万十市",
    "category": "home_help",
    "serviceType": "訪問介護",
    "capacity": 0,
    "openDays": [
      "平日",
      "土曜日",
      "日曜日",
      "祝日"
    ],
    "openDaysNote": "その他相談に応じます。"
  },
  {
    "id": "3971000272",
    "name": "ホームヘルプステーション　にしとさ",
    "kana": "ホームヘルプステーション　ニシトサ",
    "address": "高知県四万十市西土佐用井1110-31",
    "lat": 33.1727856,
    "lng": 132.7956729,
    "tel": "0880-31-6100",
    "url": "https://nishitosa-kawasemi.jp/",
    "pref": "高知県",
    "city": "四万十市",
    "category": "home_help",
    "serviceType": "訪問介護",
    "capacity": 0,
    "openDays": [
      "平日",
      "土曜日",
      "日曜日",
      "祝日"
    ],
    "openDaysNote": ""
  },
  {
    "id": "3971000033",
    "name": "訪問介護ステーションあらたケアサービス",
    "kana": "ホウモンカイゴステーションアラタケアサービス",
    "address": "高知県四万十市中村大橋通り６丁目３－７とらやビル３Ｆ４号 とらやビル３Ｆ４号",
    "lat": 32.9899749347619,
    "lng": 132.93696409444,
    "tel": "0880-35-9001",
    "url": "http://www.aratacare.com",
    "pref": "高知県",
    "city": "四万十市",
    "category": "home_help",
    "serviceType": "訪問介護",
    "capacity": 0,
    "openDays": [
      "平日",
      "土曜日",
      "日曜日",
      "祝日"
    ],
    "openDaysNote": "上記以外でも、ご希望の方は対応いたします。"
  },
  {
    "id": "3970700039",
    "name": "訪問介護事業所　四万十の郷",
    "kana": "ホウモンカイゴジギョウショシマントノサト",
    "address": "四万十市安並字東丸5803",
    "lat": 33.002197,
    "lng": 132.9354045,
    "tel": "0880-34-1888",
    "url": "nankai-f.jp",
    "pref": "高知県",
    "city": "四万十市",
    "category": "home_help",
    "serviceType": "訪問介護",
    "capacity": 0,
    "openDays": [
      "平日",
      "土曜日",
      "日曜日",
      "祝日"
    ],
    "openDaysNote": "特になし"
  },
  {
    "id": "3972501237",
    "name": "ヘルパーステーション　にいだ",
    "kana": "ヘルパーステーション　ニイダ",
    "address": "高知県高岡郡四万十町仁井田147－3",
    "lat": 33.2426940996189,
    "lng": 133.164197233027,
    "tel": "0880-29-7017",
    "url": "",
    "pref": "高知県",
    "city": "四万十町",
    "category": "home_help",
    "serviceType": "訪問介護",
    "capacity": 0,
    "openDays": [
      "平日",
      "土曜日",
      "日曜日",
      "祝日"
    ],
    "openDaysNote": ""
  },
  {
    "id": "3972500478",
    "name": "ヘルパーステーション「四万十」",
    "kana": "ヘルパーステーション「シマント」",
    "address": "高知県高岡郡四万十町仁井田1312番地",
    "lat": 33.2467642410483,
    "lng": 133.159782287463,
    "tel": "0880-29-7353",
    "url": "http://www.shimantopia.or.jp/publics/index/11/",
    "pref": "高知県",
    "city": "四万十町",
    "category": "home_help",
    "serviceType": "訪問介護",
    "capacity": 0,
    "openDays": [
      "平日",
      "土曜日",
      "日曜日",
      "祝日"
    ],
    "openDaysNote": "上記留意事項に同じ"
  },
  {
    "id": "3972500700",
    "name": "社会福祉法人しまんと町社会福祉協議会　指定訪問介護事業所　窪川",
    "kana": "シャカイフクシホウジンシマントチョウシャカイフクシキョウギカイ　シテイホウモンカイゴジギョウショ　クボカワ",
    "address": "高知県高岡郡四万十町茂串町１１番３０号",
    "lat": 33.209417,
    "lng": 133.1327842,
    "tel": "0880-22-1195",
    "url": "http://shimanto-shakyo.jp/",
    "pref": "高知県",
    "city": "四万十町",
    "category": "home_help",
    "serviceType": "訪問介護",
    "capacity": 0,
    "openDays": [
      "平日",
      "土曜日",
      "日曜日",
      "祝日"
    ],
    "openDaysNote": "１月１日から１月２日までは休業とする。ただし緊急の場合を除く。"
  },
  {
    "id": "3972500775",
    "name": "社会福祉法人しまんと町社会福祉協議会　指定訪問介護事業所　西部",
    "kana": "シャカイフクシホウジンシマントチョウシャカイフクシキョウギカイ　シテイホウモンカイゴジギョウショ　セイブ",
    "address": "高知県高岡郡四万十町大正３２番地１",
    "lat": 33.1836554,
    "lng": 132.9723935,
    "tel": "0880-27-1177",
    "url": "shakyo1177@shimanto.tv",
    "pref": "高知県",
    "city": "四万十町",
    "category": "home_help",
    "serviceType": "訪問介護",
    "capacity": 0,
    "openDays": [
      "平日",
      "土曜日",
      "日曜日",
      "祝日"
    ],
    "openDaysNote": ""
  },
  {
    "id": "3972501385",
    "name": "訪問介護事業所　きづな",
    "kana": "ホウモンカイゴジギョウショ　キヅナ",
    "address": "高知県高岡郡四万十町七里甲1311番地",
    "lat": 33.2649847989115,
    "lng": 133.132283963947,
    "tel": "9057182805",
    "url": "",
    "pref": "高知県",
    "city": "四万十町",
    "category": "home_help",
    "serviceType": "訪問介護",
    "capacity": 0,
    "openDays": [
      "平日",
      "土曜日",
      "日曜日",
      "祝日"
    ],
    "openDaysNote": "ただし、営業時間外であっても利用者の要望に応じ状況により対応可能。"
  },
  {
    "id": "3970200386",
    "name": "ヘルパーステーションはな",
    "kana": "ヘルパーステーションハナ",
    "address": "高知県室戸市羽根町甲880番地1",
    "lat": 33.3636492,
    "lng": 134.0626265,
    "tel": "0887-26-1041",
    "url": "",
    "pref": "高知県",
    "city": "室戸市",
    "category": "home_help",
    "serviceType": "訪問介護",
    "capacity": 0,
    "openDays": [
      "平日",
      "土曜日",
      "日曜日",
      "祝日"
    ],
    "openDaysNote": "なし"
  },
  {
    "id": "3970200246",
    "name": "ヘルパーステーションひまわり",
    "kana": "ヘルパーステーションヒマワリ",
    "address": "高知県室戸市室津1775－8",
    "lat": 33.2931646,
    "lng": 134.1591946,
    "tel": "0887-22-3007",
    "url": "",
    "pref": "高知県",
    "city": "室戸市",
    "category": "home_help",
    "serviceType": "訪問介護",
    "capacity": 0,
    "openDays": [
      "平日",
      "土曜日",
      "日曜日",
      "祝日"
    ],
    "openDaysNote": "訪問介護サービスについては、必要性に応じて365日稼働する。"
  },
  {
    "id": "3970200444",
    "name": "ヘルパーステーション和ごころ",
    "kana": "ヘルパーステーションワゴコロ",
    "address": "元甲1076",
    "lat": 33.3138815,
    "lng": 134.131669,
    "tel": "0887-98-7037",
    "url": "aaa50508080@gmail.com",
    "pref": "高知県",
    "city": "室戸市",
    "category": "home_help",
    "serviceType": "訪問介護",
    "capacity": 0,
    "openDays": [
      "平日"
    ],
    "openDaysNote": ""
  },
  {
    "id": "3970200147",
    "name": "ホームヘルパーステーション　あんず",
    "kana": "ホームヘルパーステーション　アンズ",
    "address": "高知県室戸市佐喜浜町３５８９－１",
    "lat": 33.4029181,
    "lng": 134.2036797,
    "tel": "0887-27-3480",
    "url": "",
    "pref": "高知県",
    "city": "室戸市",
    "category": "home_help",
    "serviceType": "訪問介護",
    "capacity": 10,
    "openDays": [
      "平日",
      "土曜日",
      "日曜日",
      "祝日"
    ],
    "openDaysNote": "上記以外の時間帯につきましてもサービスご希望の際には、可能な限り対応させて頂きます。"
  },
  {
    "id": "3970200097",
    "name": "訪問介護サービス　あすなろ",
    "kana": "ホウモンカイゴサービス　アスナロ",
    "address": "高知県室戸市吉良川町乙２００４－１",
    "lat": 33.3362241,
    "lng": 134.0942085,
    "tel": "0887-25-3450",
    "url": "",
    "pref": "高知県",
    "city": "室戸市",
    "category": "home_help",
    "serviceType": "訪問介護",
    "capacity": 0,
    "openDays": [
      "平日",
      "土曜日",
      "日曜日",
      "祝日"
    ],
    "openDaysNote": "特になし"
  },
  {
    "id": "3970200352",
    "name": "訪問介護事業所　一期一会",
    "kana": "ホウモンカイゴジギョウショ　イチゴイチエ",
    "address": "高知県　室戸市　佐喜浜町　1525-3",
    "lat": 33.3946525,
    "lng": 134.2082377,
    "tel": "0887-27-2488",
    "url": "",
    "pref": "高知県",
    "city": "室戸市",
    "category": "home_help",
    "serviceType": "訪問介護",
    "capacity": 0,
    "openDays": [
      "平日",
      "土曜日",
      "日曜日",
      "祝日"
    ],
    "openDaysNote": ""
  },
  {
    "id": "3970900365",
    "name": "ちいきの訪問介護",
    "kana": "チイキノホウモンカイゴ",
    "address": "高知県宿毛市中央6丁目2番1号",
    "lat": 32.9374531,
    "lng": 132.72678,
    "tel": "0880-63-9294",
    "url": "",
    "pref": "高知県",
    "city": "宿毛市",
    "category": "home_help",
    "serviceType": "訪問介護",
    "capacity": 0,
    "openDays": [
      "平日"
    ],
    "openDaysNote": ""
  },
  {
    "id": "3970900373",
    "name": "ニチイケアセンター　すくも",
    "kana": "ニチイケアセンター　スクモ",
    "address": "高知県宿毛市高砂27-34湘南ビル１階北 湘南ビル１階北",
    "lat": 32.928428,
    "lng": 132.7041642,
    "tel": "0880-65-5122",
    "url": "",
    "pref": "高知県",
    "city": "宿毛市",
    "category": "home_help",
    "serviceType": "訪問介護",
    "capacity": 0,
    "openDays": [
      "平日",
      "土曜日",
      "日曜日",
      "祝日"
    ],
    "openDaysNote": "上記以外の対応可能な事あります。"
  },
  {
    "id": "3970900183",
    "name": "ヒロ・ケアサポート",
    "kana": "ヒロ・ケアサポート",
    "address": "宿毛市片島5-20",
    "lat": 32.9201731,
    "lng": 132.7010259,
    "tel": "0880-65-0533",
    "url": "",
    "pref": "高知県",
    "city": "宿毛市",
    "category": "home_help",
    "serviceType": "訪問介護",
    "capacity": 50,
    "openDays": [
      "平日",
      "土曜日",
      "日曜日",
      "祝日"
    ],
    "openDaysNote": "介護支援専門員の作成するサービス計画により、営業時間外もサービス提供する。"
  },
  {
    "id": "3970900027",
    "name": "宿毛中央ホームヘルパーステーション",
    "kana": "スクモチュウオウ　ホームヘルパーステーション",
    "address": "宿毛市中央７丁目５番４４号",
    "lat": 32.9358977,
    "lng": 132.7249135,
    "tel": "0880-63-1103",
    "url": "修正中",
    "pref": "高知県",
    "city": "宿毛市",
    "category": "home_help",
    "serviceType": "訪問介護",
    "capacity": 0,
    "openDays": [
      "平日",
      "土曜日",
      "日曜日",
      "祝日"
    ],
    "openDaysNote": ""
  },
  {
    "id": "3970900266",
    "name": "訪問介護事業所　アップル",
    "kana": "ホウモンカイゴジギョウショ　アップル",
    "address": "高知県宿毛市中央2丁目３－１　２Ｆ",
    "lat": 32.9392013746724,
    "lng": 132.729189244011,
    "tel": "0880-62-0016",
    "url": "",
    "pref": "高知県",
    "city": "宿毛市",
    "category": "home_help",
    "serviceType": "訪問介護",
    "capacity": null,
    "openDays": [
      "平日",
      "土曜日",
      "日曜日",
      "祝日"
    ],
    "openDaysNote": "基本は上記時間ですが、サービス提供日、提供時間共に利用者の状態に合わせて訪問する。（改行）時間外、割増料金あり。"
  },
  {
    "id": "3970900381",
    "name": "訪問介護事業所　サザンクロスすくも",
    "kana": "ホウモンカイゴジギョウショ　サザンクロススクモ",
    "address": "高知県宿毛市平田町戸内2097ビィブレ栗本307号 ビィブレ栗本307号",
    "lat": 32.966234,
    "lng": 132.8083963,
    "tel": "0880-62-2577",
    "url": "",
    "pref": "高知県",
    "city": "宿毛市",
    "category": "home_help",
    "serviceType": "訪問介護",
    "capacity": 0,
    "openDays": [
      "平日",
      "土曜日",
      "日曜日",
      "祝日"
    ],
    "openDaysNote": "なし"
  },
  {
    "id": "3960990012",
    "name": "豊寿園ホームヘルパーステーション",
    "kana": "ホウジュエンホームヘルパーステーション",
    "address": "高知県宿毛市平田町戸内１８２４番地",
    "lat": 32.9599389,
    "lng": 132.7991731,
    "tel": "0880-66-2600",
    "url": "http://www.gallery.ne.jp/~hojuen",
    "pref": "高知県",
    "city": "宿毛市",
    "category": "home_help",
    "serviceType": "訪問介護",
    "capacity": 0,
    "openDays": [
      "平日",
      "土曜日",
      "日曜日",
      "祝日"
    ],
    "openDaysNote": "時間外対応有"
  },
  {
    "id": "3972400653",
    "name": "サポートセンター　ほのか",
    "kana": "サポートセンター　ホノカ",
    "address": "高知県吾川郡仁淀川町大崎264-8",
    "lat": 33.5753260244018,
    "lng": 133.172667581367,
    "tel": "0889-35-0250",
    "url": "",
    "pref": "高知県",
    "city": "仁淀川町",
    "category": "home_help",
    "serviceType": "訪問介護",
    "capacity": 0,
    "openDays": [
      "平日",
      "土曜日",
      "日曜日",
      "祝日"
    ],
    "openDaysNote": ""
  },
  {
    "id": "3972400513",
    "name": "ぬくもり介護センター　おおの",
    "kana": "ヌクモリカイゴセンター　オオノ",
    "address": "高知県吾川郡仁淀川町森3675番地",
    "lat": 33.5305449,
    "lng": 133.1325711,
    "tel": "0889-20-2777",
    "url": "",
    "pref": "高知県",
    "city": "仁淀川町",
    "category": "home_help",
    "serviceType": "訪問介護",
    "capacity": 0,
    "openDays": [
      "平日",
      "土曜日",
      "日曜日",
      "祝日"
    ],
    "openDaysNote": "利用者からの要請がある場合はこの限りではない。"
  },
  {
    "id": "3970600452",
    "name": "ヘルパーステーションすまいる須崎",
    "kana": "ヘルパーステーションスマイルスサキ",
    "address": "高知県須崎市緑町1-16　嶋ハイツ1F",
    "lat": 33.4113537,
    "lng": 133.2891433,
    "tel": "0889-42-0277",
    "url": "",
    "pref": "高知県",
    "city": "須崎市",
    "category": "home_help",
    "serviceType": "訪問介護",
    "capacity": null,
    "openDays": [
      "平日",
      "土曜日",
      "祝日"
    ],
    "openDaysNote": ""
  },
  {
    "id": "3970600098",
    "name": "須崎市社会福祉協議会指定訪問介護事業所",
    "kana": "スサキシシャカイフクシキョウギカイシテイホウモンカイゴジギョウショ",
    "address": "高知県須崎市南古市町６番３交流ひろばすさき３F 交流ひろばすさき３F",
    "lat": 33.3888773173772,
    "lng": 133.287826544028,
    "tel": "0889-42-0789",
    "url": "http://susaki-syakyo.or.jp",
    "pref": "高知県",
    "city": "須崎市",
    "category": "home_help",
    "serviceType": "訪問介護",
    "capacity": 100,
    "openDays": [
      "平日",
      "土曜日",
      "日曜日",
      "祝日"
    ],
    "openDaysNote": "12/29～1/3は事前に相談の上、対応。"
  },
  {
    "id": "3972600153",
    "name": "大月町指定訪問介護事業所",
    "kana": "オオツキチョウシテイホウモンカイゴジギョウショ",
    "address": "高知県幡多郡大月町鉾土６０３",
    "lat": 32.8205119,
    "lng": 132.709374,
    "tel": "0880-73-1119",
    "url": "http://otsukicho-shakyo.jp/",
    "pref": "高知県",
    "city": "大月町",
    "category": "home_help",
    "serviceType": "訪問介護",
    "capacity": 0,
    "openDays": [
      "平日",
      "土曜日",
      "日曜日",
      "祝日"
    ],
    "openDaysNote": "居宅サービス計画（ケアプラン）により、上記時間以外でもサービス提供を行う。"
  },
  {
    "id": "3972600377",
    "name": "訪問介護やまもも",
    "kana": "ホウモンカイゴヤマモモ",
    "address": "高知県幡多郡大月町姫ノ井１３７７番４",
    "lat": 32.8020782,
    "lng": 132.7354744,
    "tel": "0880-79-0899",
    "url": "https://yamamomokaigo.wixsite.com/yamamomo",
    "pref": "高知県",
    "city": "大月町",
    "category": "home_help",
    "serviceType": "訪問介護",
    "capacity": 15,
    "openDays": [],
    "openDaysNote": "サービスの提供は、３６５日、２４時間行う。"
  },
  {
    "id": "3972200087",
    "name": "社会福祉法人　大豊町社会福祉協議会ホームヘルプサービス",
    "kana": "シャカイフクシホウジン　オオトヨチョウシャカイフクシキョウギカイホームヘルプサービス",
    "address": "長岡郡大豊町黒石３４５番地７",
    "lat": 33.7861391,
    "lng": 133.7263355,
    "tel": "0887-73-1200",
    "url": "",
    "pref": "高知県",
    "city": "大豊町",
    "category": "home_help",
    "serviceType": "訪問介護",
    "capacity": 0,
    "openDays": [
      "平日",
      "祝日"
    ],
    "openDaysNote": "休日であっても必要と判断された場合は訪問介護業務を行う。（改行）午前７時～午前８時３０分・午後５時１５分～午後９時は、必要な場合業務を行う。"
  },
  {
    "id": "3972500668",
    "name": "中土佐町訪問介護事業所",
    "kana": "ナカトサチョウホウモンカイゴジギョウショ",
    "address": "高知県高岡郡中土佐町上ノ加江5163番地4",
    "lat": 33.3042234429657,
    "lng": 133.240933379226,
    "tel": "0889-52-3523",
    "url": "http://www.nakatosa-shakyo.or.jp",
    "pref": "高知県",
    "city": "中土佐町",
    "category": "home_help",
    "serviceType": "訪問介護",
    "capacity": 0,
    "openDays": [
      "平日",
      "土曜日",
      "日曜日",
      "祝日"
    ],
    "openDaysNote": "ただし、天災その他やむを得ず業務を遂行できない日を除く。"
  },
  {
    "id": "3970500033",
    "name": "ニチイケアセンター　土佐",
    "kana": "ニチイケアセンター　トサ",
    "address": "土佐市蓮池字渡し上り2022野田マンション１F 野田マンション１F",
    "lat": 33.4933139717511,
    "lng": 133.409307709232,
    "tel": "088-850-2650",
    "url": "http://www.nichiigakkan.co.jp",
    "pref": "高知県",
    "city": "土佐市",
    "category": "home_help",
    "serviceType": "訪問介護",
    "capacity": 80,
    "openDays": [
      "平日",
      "土曜日",
      "日曜日",
      "祝日"
    ],
    "openDaysNote": "但し上記以外でもサービスを提供する場合があります。"
  },
  {
    "id": "3970500389",
    "name": "ヘルパーステーション　すまいる",
    "kana": "ヘルパーステーション　スマイル",
    "address": "高知県土佐市高岡町乙3234-1",
    "lat": 33.4729393690546,
    "lng": 133.325150991496,
    "tel": "088-828-5288",
    "url": "https://www.nishida-ph.net",
    "pref": "高知県",
    "city": "土佐市",
    "category": "home_help",
    "serviceType": "訪問介護",
    "capacity": 0,
    "openDays": [
      "平日",
      "土曜日",
      "祝日"
    ],
    "openDaysNote": "営業時間は、１７時３０分までとしているが、それ以降のサービス依頼があれば、その都度対応する。"
  },
  {
    "id": "3970500785",
    "name": "合同会社　きざし",
    "kana": "ゴウドウガイシャ　キザシ",
    "address": "高知県土佐市蓮池2639番地",
    "lat": 33.494519,
    "lng": 133.4067772,
    "tel": "888522068",
    "url": "",
    "pref": "高知県",
    "city": "土佐市",
    "category": "home_help",
    "serviceType": "訪問介護",
    "capacity": 0,
    "openDays": [
      "平日",
      "土曜日",
      "日曜日",
      "祝日"
    ],
    "openDaysNote": "ただし、サービスは２４時間"
  },
  {
    "id": "3970500645",
    "name": "晴レルヤ",
    "kana": "ハレルヤ",
    "address": "高知県土佐市宇佐町宇佐字近安1913番地5",
    "lat": 33.4530695465668,
    "lng": 133.443828805091,
    "tel": "088-856-2977",
    "url": "",
    "pref": "高知県",
    "city": "土佐市",
    "category": "home_help",
    "serviceType": "訪問介護",
    "capacity": 2,
    "openDays": [
      "平日",
      "土曜日",
      "日曜日",
      "祝日"
    ],
    "openDaysNote": "電話等、24時間常時連絡可能な体制とする。（改行）サービスは365日24時間体制で行う。"
  },
  {
    "id": "3970500116",
    "name": "特定非営利活動法人　宇佐在宅介護センター",
    "kana": "トクテイヒエイリカツドウホウジン　ウサザイタクカイゴセンター",
    "address": "土佐市宇佐町宇佐３９８ー５",
    "lat": 33.4432401,
    "lng": 133.4354481,
    "tel": "088-850-3888",
    "url": "",
    "pref": "高知県",
    "city": "土佐市",
    "category": "home_help",
    "serviceType": "訪問介護",
    "capacity": 0,
    "openDays": [
      "平日",
      "土曜日",
      "日曜日",
      "祝日"
    ],
    "openDaysNote": "上記日時以外でも相談に応じます。"
  },
  {
    "id": "3970500751",
    "name": "特定非営利活動法人しあわせ　ヘルパーステーションさくら",
    "kana": "トクテイヒエイリカツドウホウジンシアワセ　ヘルパーステーションサクラ",
    "address": "高知県土佐市高岡町乙775番地37",
    "lat": 33.4983326,
    "lng": 133.4090936,
    "tel": "088-855-5205",
    "url": "",
    "pref": "高知県",
    "city": "土佐市",
    "category": "home_help",
    "serviceType": "訪問介護",
    "capacity": null,
    "openDays": [
      "平日",
      "土曜日",
      "日曜日",
      "祝日"
    ],
    "openDaysNote": ""
  },
  {
    "id": "3970500702",
    "name": "訪問介護サービスステーションすずめ",
    "kana": "ホウモンカイゴサービスステーションスズメ",
    "address": "高知県土佐市宇佐町宇佐2487",
    "lat": 33.4522296,
    "lng": 133.4529979,
    "tel": "088-856-1901",
    "url": "",
    "pref": "高知県",
    "city": "土佐市",
    "category": "home_help",
    "serviceType": "訪問介護",
    "capacity": 0,
    "openDays": [
      "平日",
      "土曜日",
      "日曜日",
      "祝日"
    ],
    "openDaysNote": "サービス提供日は365日、サービス提供時間は24時間"
  },
  {
    "id": "3970500561",
    "name": "訪問介護ステーション　愛浜",
    "kana": "ホウモンカイゴステーション　イトハマ",
    "address": "土佐市宇佐２３９４－５",
    "lat": 33.4536416,
    "lng": 133.4498353,
    "tel": "088-856-1717",
    "url": "http://hp.kaipoke.biz/td2/",
    "pref": "高知県",
    "city": "土佐市",
    "category": "home_help",
    "serviceType": "訪問介護",
    "capacity": 20,
    "openDays": [
      "平日",
      "土曜日",
      "日曜日",
      "祝日"
    ],
    "openDaysNote": "ご利用者やご家族、居宅介護支援事業所等から要望があれば（改行）夜間・早朝のサービス提供は可能です。"
  },
  {
    "id": "3970800128",
    "name": "ホームヘルプサービスセンター「げんき」",
    "kana": "ホームヘルプサービスセンター「ゲンキ」",
    "address": "高知県土佐清水市旭町１８番７１号",
    "lat": 32.7792481,
    "lng": 132.9615799,
    "tel": "0880-82-1275",
    "url": "",
    "pref": "高知県",
    "city": "土佐清水市",
    "category": "home_help",
    "serviceType": "訪問介護",
    "capacity": 0,
    "openDays": [
      "平日",
      "土曜日",
      "日曜日",
      "祝日"
    ],
    "openDaysNote": "基本は上記の営業時間と同じであるが、利用者の希望に応じて早朝又は夜間にサービス提供できるよう、ある程度柔軟な対応を心掛けている。"
  },
  {
    "id": "3970800102",
    "name": "医療法人聖真会　ホームヘルプサービスセンター「あったか渭南」",
    "kana": "イリョウホウジンセイシンカイ　ホームヘルプサービスセンター「アッタカイナン」",
    "address": "高知県土佐清水市越前町６番１０号",
    "lat": 32.7812857501291,
    "lng": 132.950834001189,
    "tel": "0880-82-4185",
    "url": "http://www.inan-hp.jp",
    "pref": "高知県",
    "city": "土佐清水市",
    "category": "home_help",
    "serviceType": "訪問介護",
    "capacity": 80,
    "openDays": [],
    "openDaysNote": "年中無休とし、訪問時間は２４時間可能とする。（改行）（改行）電話等により２４時間常時連絡可能な体制とする。"
  },
  {
    "id": "3970800110",
    "name": "亀の子　ヘルパーステーション",
    "kana": "カメノコ　ヘルパーステーション",
    "address": "土佐清水市グリーンハイツ8番2号",
    "lat": 32.7897623,
    "lng": 132.8776813,
    "tel": "0880-82-1057",
    "url": "",
    "pref": "高知県",
    "city": "土佐清水市",
    "category": "home_help",
    "serviceType": "訪問介護",
    "capacity": 0,
    "openDays": [
      "平日",
      "土曜日",
      "日曜日",
      "祝日"
    ],
    "openDaysNote": "可能な限り２４時間対応"
  },
  {
    "id": "3970800078",
    "name": "合資会社　サザンクロスしみず",
    "kana": "ゴウシガイシャ　サザンクロスシミズ",
    "address": "高知県土佐清水市寿町6-1",
    "lat": 32.7795754,
    "lng": 132.9522671,
    "tel": "0880-82-3320",
    "url": "",
    "pref": "高知県",
    "city": "土佐清水市",
    "category": "home_help",
    "serviceType": "訪問介護",
    "capacity": 0,
    "openDays": [
      "平日",
      "土曜日",
      "日曜日",
      "祝日"
    ],
    "openDaysNote": "なし"
  },
  {
    "id": "3972300051",
    "name": "土佐町指定訪問介護事業所",
    "kana": "トサチョウシテイホウモンカイゴジギョウショ",
    "address": "土佐郡土佐町土居206",
    "lat": 33.7366552,
    "lng": 133.5316275,
    "tel": "0887-82-1067",
    "url": "",
    "pref": "高知県",
    "city": "土佐町",
    "category": "home_help",
    "serviceType": "訪問介護",
    "capacity": 0,
    "openDays": [
      "平日",
      "土曜日",
      "日曜日",
      "祝日"
    ],
    "openDaysNote": "必要に併せ、サービス提供の対応を検討します"
  },
  {
    "id": "3972000370",
    "name": "東洋町訪問介護事業所",
    "kana": "トウヨウチョウホウモンカイゴジギョウショ",
    "address": "高知県安芸郡東洋町大字生見７５６－８",
    "lat": 33.5279732,
    "lng": 134.2792376,
    "tel": "0887-24-3213",
    "url": "",
    "pref": "高知県",
    "city": "東洋町",
    "category": "home_help",
    "serviceType": "訪問介護",
    "capacity": 0,
    "openDays": [
      "平日",
      "土曜日",
      "日曜日",
      "祝日"
    ],
    "openDaysNote": "年末年始（１２/２９～１/３）は休業（改行）＊利用者が希望する場合は、この限りではありません。"
  },
  {
    "id": "3972501047",
    "name": "介護サービスなごみ　梼原事業所",
    "kana": "カイゴサービスナゴミ　ユスハラジギョウショ",
    "address": "高岡郡梼原町広野３７９四国部品　株式会社　梼原製造所　内 四国部品　株式会社　梼原製造所　内",
    "lat": 33.3988993,
    "lng": 132.8959351,
    "tel": "0889-65-1200",
    "url": "",
    "pref": "高知県",
    "city": "梼原町",
    "category": "home_help",
    "serviceType": "訪問介護",
    "capacity": 0,
    "openDays": [
      "平日",
      "祝日"
    ],
    "openDaysNote": "定休日は、毎週土・日曜日、年末年始（１２／３０～１／３）"
  },
  {
    "id": "3972000214",
    "name": "ヘルパーステーション　さくら",
    "kana": "ヘルパーステーション　サクラ",
    "address": "高知県安芸郡奈半利町乙３７０４－１",
    "lat": 33.4254451,
    "lng": 134.0212188,
    "tel": "0887-38-8605",
    "url": "http://www.ccc-21.co.jp/sakura/",
    "pref": "高知県",
    "city": "奈半利町",
    "category": "home_help",
    "serviceType": "訪問介護",
    "capacity": null,
    "openDays": [
      "平日",
      "土曜日",
      "日曜日",
      "祝日"
    ],
    "openDaysNote": "時間外も相談に応じます。"
  },
  {
    "id": "3972000057",
    "name": "ヘルパーステーション　てのひら",
    "kana": "ヘルパーステーション　テノヒラ",
    "address": "高知県安芸郡奈半利町乙４４０番地１",
    "lat": 33.420404,
    "lng": 134.0281569,
    "tel": "0887-38-4080",
    "url": "",
    "pref": "高知県",
    "city": "奈半利町",
    "category": "home_help",
    "serviceType": "訪問介護",
    "capacity": 0,
    "openDays": [
      "平日",
      "土曜日",
      "日曜日",
      "祝日"
    ],
    "openDaysNote": "-"
  },
  {
    "id": "3970400093",
    "name": "ニチイケアセンター　南国",
    "kana": "ニチイケアセンター　ナンゴク",
    "address": "南国市大そね甲１６４０－３８岩崎ビル１Ｆ 岩崎ビル１Ｆ",
    "lat": 33.5743237,
    "lng": 133.6488814,
    "tel": "088-878-2838",
    "url": "http://www.nichiigakkan.co.jp",
    "pref": "高知県",
    "city": "南国市",
    "category": "home_help",
    "serviceType": "訪問介護",
    "capacity": 0,
    "openDays": [
      "平日",
      "土曜日",
      "日曜日",
      "祝日"
    ],
    "openDaysNote": "但し、上記以外でもサービス提供する事あり"
  },
  {
    "id": "3970400135",
    "name": "ヘルパーステーション　ひだまり",
    "kana": "ヘルパーステーション　ヒダマリ",
    "address": "高知県南国市岡豊町中島1535番地",
    "lat": 33.5904046,
    "lng": 133.6155621,
    "tel": "088-866-0218",
    "url": "http://f-shizenmura.or.jp",
    "pref": "高知県",
    "city": "南国市",
    "category": "home_help",
    "serviceType": "訪問介護",
    "capacity": 0,
    "openDays": [
      "平日",
      "土曜日",
      "日曜日",
      "祝日"
    ],
    "openDaysNote": "利用者の必要性により時間外・休日についての訪問は、相談により対応"
  },
  {
    "id": "3940440138",
    "name": "ヘルパーステーションニシダ順天堂",
    "kana": "ヘルパーステーションニシダジュンテンドウ",
    "address": "高知県南国市大そね甲1705",
    "lat": 33.5743459,
    "lng": 133.6475537,
    "tel": "088-863-6878",
    "url": "http://www.nishida-ph.net/index.html",
    "pref": "高知県",
    "city": "南国市",
    "category": "home_help",
    "serviceType": "訪問介護",
    "capacity": 0,
    "openDays": [
      "平日",
      "土曜日",
      "日曜日",
      "祝日"
    ],
    "openDaysNote": ""
  },
  {
    "id": "3970400788",
    "name": "ヘルパーステーションわかば",
    "kana": "ヘルパーステーションワカバ",
    "address": "高知県南国市大埇甲1639番地3",
    "lat": 33.5740287204239,
    "lng": 133.649576145777,
    "tel": "088-802-8253",
    "url": "",
    "pref": "高知県",
    "city": "南国市",
    "category": "home_help",
    "serviceType": "訪問介護",
    "capacity": 0,
    "openDays": [
      "平日"
    ],
    "openDaysNote": ""
  },
  {
    "id": "3970400101",
    "name": "冨士屋ヘルパーステーションベターライフ",
    "kana": "フジヤヘルパーステーションベターライフ",
    "address": "高知県南国市後免町２丁目１番１９号",
    "lat": 33.5756874,
    "lng": 133.6469927,
    "tel": "088-864-3799",
    "url": "",
    "pref": "高知県",
    "city": "南国市",
    "category": "home_help",
    "serviceType": "訪問介護",
    "capacity": null,
    "openDays": [
      "平日",
      "土曜日",
      "日曜日",
      "祝日"
    ],
    "openDaysNote": "上記時間外でも必要があると認められた場合は相談に応じ訪問致します。"
  },
  {
    "id": "3972500189",
    "name": "ヘルパーステーション　ひだか",
    "kana": "ヘルパーステーション　ヒダカ",
    "address": "高知県高岡郡日高村沖名１番地",
    "lat": 33.5316137,
    "lng": 133.3736723,
    "tel": "0889-20-1665",
    "url": "",
    "pref": "高知県",
    "city": "日高村",
    "category": "home_help",
    "serviceType": "訪問介護",
    "capacity": 0,
    "openDays": [
      "平日",
      "土曜日",
      "日曜日",
      "祝日"
    ],
    "openDaysNote": "訪問介護計画で必要と認めた場合には、この時間帯以外でも可。"
  },
  {
    "id": "3972500882",
    "name": "ヘルパーステーション能津",
    "kana": "ヘルパーステーションノウヅ",
    "address": "高知県高岡郡日高村本村字流神2-2",
    "lat": 33.5588980855398,
    "lng": 133.335694080118,
    "tel": "0889-24-7412",
    "url": "",
    "pref": "高知県",
    "city": "日高村",
    "category": "home_help",
    "serviceType": "訪問介護",
    "capacity": 0,
    "openDays": [
      "平日",
      "土曜日",
      "日曜日",
      "祝日"
    ],
    "openDaysNote": ""
  }
]