[
  {
    "id": "3171100021",
    "name": "社会福祉法人　岩美町社会福祉協議会　訪問介護事業所",
    "kana": "シャカイフクシホウジン　イワミチョウシャカイフクシキョウギカイ　ホウモンカイゴジギョウショ",
    "address": "鳥取県岩美郡岩美町大字浦富６４５番地",
    "lat": 35.5792757,
    "lng": 134.3313451,
    "tel": "0857-72-2500",
    "url": "http://www.shakyo.or.jp/hp/1319/",
    "pref": "鳥取県",
    "city": "岩美町",
    "category": "home_help",
    "serviceType": "訪問介護",
    "capacity": 0,
    "openDays": [
      "平日",
      "土曜日",
      "日曜日",
      "祝日"
    ],
    "openDaysNote": ""
  },
  {
    "id": "3170400307",
    "name": "いきいきヘルパーステーション境港",
    "kana": "イキイキヘルパーステーションサカイミナト",
    "address": "鳥取県境港市馬場埼町３１２いきいきシニアステージ境港 いきいきシニアステージ境港",
    "lat": 35.5387639,
    "lng": 133.2289559,
    "tel": "0859-21-3965",
    "url": "http://www.medicalcare.jp/",
    "pref": "鳥取県",
    "city": "境港市",
    "category": "home_help",
    "serviceType": "訪問介護",
    "capacity": 90,
    "openDays": [
      "平日",
      "土曜日",
      "日曜日",
      "祝日"
    ],
    "openDaysNote": "営業日以外及び営業時間外のサービス提供については必要に応じてサービスを行う。"
  },
  {
    "id": "3170400489",
    "name": "けあビジョンホーム境港訪問介護",
    "kana": "ケアビションホームサカイミナトホウモンカイゴ",
    "address": "外江町2225-1",
    "lat": 35.5303716,
    "lng": 133.2110307,
    "tel": "0859-44-0111",
    "url": "",
    "pref": "鳥取県",
    "city": "境港市",
    "category": "home_help",
    "serviceType": "訪問介護",
    "capacity": null,
    "openDays": [
      "平日",
      "土曜日",
      "日曜日",
      "祝日"
    ],
    "openDaysNote": ""
  },
  {
    "id": "3170400422",
    "name": "こころね訪問介護ステーション中野町",
    "kana": "ココロネホウモンカイゴステーションナカノチョウ",
    "address": "鳥取県境港市中野町5285-1シニアステージ中野町 シニアステージ中野町",
    "lat": 35.5326736,
    "lng": 133.2322522,
    "tel": "0859-46-0262",
    "url": "",
    "pref": "鳥取県",
    "city": "境港市",
    "category": "home_help",
    "serviceType": "訪問介護",
    "capacity": 0,
    "openDays": [
      "平日",
      "土曜日"
    ],
    "openDaysNote": "営業時間外のサービス提供については必要に応じてサービス提供を行う"
  },
  {
    "id": "3170400471",
    "name": "こころね訪問介護ステーション中野町別館",
    "kana": "ココロネホウモンカイゴステーションナカノチョウベッカン",
    "address": "鳥取県境港市中野町5311シニアステージ中野町別館 シニアステージ中野町別館",
    "lat": 35.5325353,
    "lng": 133.2364315,
    "tel": "859215611",
    "url": "",
    "pref": "鳥取県",
    "city": "境港市",
    "category": "home_help",
    "serviceType": "訪問介護",
    "capacity": null,
    "openDays": [
      "平日",
      "土曜日"
    ],
    "openDaysNote": "営業時間外のサービス提供については必要に応じてサービス提供を行う"
  },
  {
    "id": "3170400430",
    "name": "こころね訪問介護ステーション浜ノ町",
    "kana": "ココロネホウモンカイゴステーションハマノチョウ",
    "address": "鳥取県境港市浜ノ町62-1シニアステージ浜ノ町 シニアステージ浜ノ町",
    "lat": 35.5427268,
    "lng": 133.2223096,
    "tel": "（0859）46-0751",
    "url": "",
    "pref": "鳥取県",
    "city": "境港市",
    "category": "home_help",
    "serviceType": "訪問介護",
    "capacity": null,
    "openDays": [
      "平日",
      "土曜日"
    ],
    "openDaysNote": "営業時間外のサービス提供については必要に応じてサービス提供を行う。"
  },
  {
    "id": "3170400083",
    "name": "ファミリー・ケア",
    "kana": "ファミリー・ケア",
    "address": "鳥取県境港市財ノ木町1060番地3",
    "lat": 35.5029068,
    "lng": 133.2491938,
    "tel": "0859-45-6689",
    "url": "https://www.daito-family.com/company",
    "pref": "鳥取県",
    "city": "境港市",
    "category": "home_help",
    "serviceType": "訪問介護",
    "capacity": 40,
    "openDays": [
      "平日",
      "土曜日",
      "日曜日",
      "祝日"
    ],
    "openDaysNote": "要望に応じて早朝・夜間のサービスを行ます。"
  },
  {
    "id": "3170400075",
    "name": "鳥取県済生会ホームヘルプステーション白鴎",
    "kana": "トットリケンサイセイカイホームヘルプステーションハクオウ",
    "address": "鳥取県境港市蓮池町78-1",
    "lat": 35.5394111,
    "lng": 133.2236756,
    "tel": "0859-42-3195",
    "url": "http://www.sakaiminato-saiseikai.jp",
    "pref": "鳥取県",
    "city": "境港市",
    "category": "home_help",
    "serviceType": "訪問介護",
    "capacity": 0,
    "openDays": [
      "平日",
      "土曜日",
      "祝日"
    ],
    "openDaysNote": ""
  },
  {
    "id": "3170400018",
    "name": "訪問介護事業所　さかい幸朋苑",
    "kana": "ホウモンカイゴジギョウショ　サカイコウホウエン",
    "address": "鳥取県境港市誠道町2083番地",
    "lat": 35.5185576,
    "lng": 133.2353198,
    "tel": "0859-45-6830",
    "url": "http://www.kohoen.jp",
    "pref": "鳥取県",
    "city": "境港市",
    "category": "home_help",
    "serviceType": "訪問介護",
    "capacity": 0,
    "openDays": [
      "平日",
      "土曜日",
      "日曜日",
      "祝日"
    ],
    "openDaysNote": "２４時間対応　（時間は相談に応じ随時対応）"
  },
  {
    "id": "3170400331",
    "name": "訪問介護事業所境港すずかけの樹",
    "kana": "ホウモンカイゴジギョウショサカイミナトスズカケノキ",
    "address": "鳥取県境港市清水町761番地1",
    "lat": 35.5403719,
    "lng": 133.2171648,
    "tel": "0859-30-2121",
    "url": "",
    "pref": "鳥取県",
    "city": "境港市",
    "category": "home_help",
    "serviceType": "訪問介護",
    "capacity": 45,
    "openDays": [
      "平日",
      "土曜日",
      "日曜日",
      "祝日"
    ],
    "openDaysNote": ""
  },
  {
    "id": "3171401031",
    "name": "ヘルパーステーションことうら",
    "kana": "ヘルパーステーションコトウラ",
    "address": "鳥取県東伯郡琴浦町箆津245番地1",
    "lat": 35.5151874,
    "lng": 133.6170729,
    "tel": "090-1330-8880",
    "url": "",
    "pref": "鳥取県",
    "city": "琴浦町",
    "category": "home_help",
    "serviceType": "訪問介護",
    "capacity": 0,
    "openDays": [
      "平日",
      "土曜日",
      "祝日"
    ],
    "openDaysNote": ""
  },
  {
    "id": "3171400041",
    "name": "百寿苑ホームヘルパーセンター",
    "kana": "ヒャクジュエンホームヘルパーセンター",
    "address": "鳥取県東伯郡琴浦町赤碕1060番地25",
    "lat": 35.5171570743354,
    "lng": 133.631892938029,
    "tel": "0858-55-2378",
    "url": "www.hyakujyuen.jp",
    "pref": "鳥取県",
    "city": "琴浦町",
    "category": "home_help",
    "serviceType": "訪問介護",
    "capacity": 0,
    "openDays": [
      "平日",
      "土曜日",
      "日曜日",
      "祝日"
    ],
    "openDaysNote": "電話等により２４時間常時連絡が可能な体制とする。"
  },
  {
    "id": "3171600418",
    "name": "訪問介護事業所江美の郷",
    "kana": "ホウモンカイゴジギョウショエミノサト",
    "address": "鳥取県日野郡江府町大字久連7番地",
    "lat": 35.2818538,
    "lng": 133.483059,
    "tel": "0859-75-3626",
    "url": "http://www.syoujin.or.jp/",
    "pref": "鳥取県",
    "city": "江府町",
    "category": "home_help",
    "serviceType": "訪問介護",
    "capacity": 0,
    "openDays": [
      "平日",
      "土曜日",
      "日曜日",
      "祝日"
    ],
    "openDaysNote": ""
  },
  {
    "id": "3181400031",
    "name": "社会福祉法人　三朝町社会福祉協議会　基準該当訪問介護事業所",
    "kana": "シャカイフクシホウジン　ミササチョウシャカイフクシキョウギカイ　キジュンガイトウホウモンカイゴジギョウショ",
    "address": "鳥取県東伯郡三朝町大字横手50番地の4",
    "lat": 35.4117376,
    "lng": 133.8825983,
    "tel": "0858-43-3388",
    "url": "www.misasa-syakyo.or.jp",
    "pref": "鳥取県",
    "city": "三朝町",
    "category": "home_help",
    "serviceType": "訪問介護",
    "capacity": null,
    "openDays": [
      "平日",
      "土曜日",
      "祝日"
    ],
    "openDaysNote": "サービスの提供時間については、利用者または、その家族の要望等により管理者と協議の上、提供時間を超えてサービスを行うことができる。"
  },
  {
    "id": "3171200052",
    "name": "社会福祉法人　若桜町社会福祉協議会",
    "kana": "シャカイフクシホウジン　ワカサチョウシャカイフクシキョウギカイ",
    "address": "鳥取県八頭郡若桜町若桜1247-1若桜町地域福祉センター・ドリーミー 若桜町地域福祉センター・ドリーミー",
    "lat": 35.34823,
    "lng": 134.3930003,
    "tel": "0858-82-0254",
    "url": "https://wakasa-syakyo.wixsite.com/home",
    "pref": "鳥取県",
    "city": "若桜町",
    "category": "home_help",
    "serviceType": "訪問介護",
    "capacity": 0,
    "openDays": [
      "平日",
      "土曜日",
      "日曜日",
      "祝日"
    ],
    "openDaysNote": ""
  },
  {
    "id": "3170300085",
    "name": "（施設）地域ケアセンターマグノリア　　（事業所）ホームヘルプセンターマグノリア",
    "kana": "チイキケアセンターマグノリア　　ホームヘルプセンターマグノリア",
    "address": "鳥取県倉吉市上井町１丁目２番１",
    "lat": 35.4524498,
    "lng": 133.8525445,
    "tel": "0858-26-3922",
    "url": "https://www.med-wel.jp/",
    "pref": "鳥取県",
    "city": "倉吉市",
    "category": "home_help",
    "serviceType": "訪問介護",
    "capacity": 28,
    "openDays": [
      "平日",
      "土曜日",
      "日曜日",
      "祝日"
    ],
    "openDaysNote": "サービス提供時間については、可能な限り、相談に応じます。"
  },
  {
    "id": "3170301075",
    "name": "ケアステーションはるかぜ",
    "kana": "ケアステーションハルカゼ",
    "address": "鳥取県倉吉市福庭町１丁目２２５番地",
    "lat": 35.4686188,
    "lng": 133.8490353,
    "tel": "0858-24-6970",
    "url": "",
    "pref": "鳥取県",
    "city": "倉吉市",
    "category": "home_help",
    "serviceType": "訪問介護",
    "capacity": 0,
    "openDays": [
      "平日",
      "土曜日",
      "日曜日",
      "祝日"
    ],
    "openDaysNote": ""
  },
  {
    "id": "3170301000",
    "name": "こころねヘルパーステーション",
    "kana": "ココロネヘルパーステーション",
    "address": "鳥取県倉吉市伊木２１７番地シニアステージ上井内 シニアステージ上井内",
    "lat": 35.4473058,
    "lng": 133.8487198,
    "tel": "0858-24-6438",
    "url": "www.medicalcare.jp",
    "pref": "鳥取県",
    "city": "倉吉市",
    "category": "home_help",
    "serviceType": "訪問介護",
    "capacity": 0,
    "openDays": [
      "平日",
      "土曜日",
      "日曜日",
      "祝日"
    ],
    "openDaysNote": "営業時間外のサービス提供については、必要に応じてサービスの提供を行う。"
  },
  {
    "id": "3170300135",
    "name": "ニチイケアセンター倉吉",
    "kana": "ニチイケアセンタークラヨシ",
    "address": "鳥取県倉吉市東巌城町120-1プライムスクエアビル1Ｆ プライムスクエアビル1Ｆ",
    "lat": 35.438676,
    "lng": 133.843604,
    "tel": "0858-47-6347",
    "url": "",
    "pref": "鳥取県",
    "city": "倉吉市",
    "category": "home_help",
    "serviceType": "訪問介護",
    "capacity": 0,
    "openDays": [
      "平日"
    ],
    "openDaysNote": "但し、サービス計画により休業日および営業時間外であっても、サービスを提供する場合があります。"
  },
  {
    "id": "3170300853",
    "name": "ヘルパーステーションこもれび",
    "kana": "ヘルパーステーションコモレビ",
    "address": "鳥取県倉吉市福守町492-1",
    "lat": 35.434681,
    "lng": 133.8057187,
    "tel": "0858-24-5165",
    "url": "https://www.minorifukusikai.com/",
    "pref": "鳥取県",
    "city": "倉吉市",
    "category": "home_help",
    "serviceType": "訪問介護",
    "capacity": 60,
    "openDays": [
      "平日",
      "土曜日",
      "日曜日",
      "祝日"
    ],
    "openDaysNote": "営業日は１２月３１日～１月３日を除く毎日です。（改行）サービス計画にそって、上記以外でもサービスの提供をする事があります。"
  },
  {
    "id": "3170300390",
    "name": "ヘルパーステーション蔵まち",
    "kana": "ヘルパーステーションクラマチ",
    "address": "鳥取県倉吉市東巌城町219番地",
    "lat": 35.4389597902885,
    "lng": 133.842087244489,
    "tel": "0858-24-0371",
    "url": "http://www.machikura.com",
    "pref": "鳥取県",
    "city": "倉吉市",
    "category": "home_help",
    "serviceType": "訪問介護",
    "capacity": 0,
    "openDays": [
      "平日",
      "土曜日",
      "日曜日",
      "祝日"
    ],
    "openDaysNote": "但し、利用者のニーズにより、上記外時間でも相談に応じる"
  },
  {
    "id": "3170300309",
    "name": "ホームヘルパーステーション　せいわ",
    "kana": "ホームヘルパーステーション　セイワ",
    "address": "鳥取県倉吉市上井300番地ケアハウスうつぶき ケアハウスうつぶき",
    "lat": 35.454405678936,
    "lng": 133.846078873016,
    "tel": "0858-26-5212",
    "url": "https://www.utsubuki.com/blank-4",
    "pref": "鳥取県",
    "city": "倉吉市",
    "category": "home_help",
    "serviceType": "訪問介護",
    "capacity": 0,
    "openDays": [
      "平日",
      "土曜日",
      "日曜日",
      "祝日"
    ],
    "openDaysNote": ""
  },
  {
    "id": "3170300333",
    "name": "ホームヘルプひまわり昭和町",
    "kana": "ホームヘルプヒマワリショウワマチ",
    "address": "鳥取県倉吉市伊木215-3",
    "lat": 35.447502800617,
    "lng": 133.849897488679,
    "tel": "0858-24-6141",
    "url": "http://www.siseikai.com/",
    "pref": "鳥取県",
    "city": "倉吉市",
    "category": "home_help",
    "serviceType": "訪問介護",
    "capacity": 90,
    "openDays": [
      "平日",
      "土曜日",
      "日曜日",
      "祝日"
    ],
    "openDaysNote": ""
  },
  {
    "id": "3170300952",
    "name": "訪問介護ステーションあげい",
    "kana": "ホウモンカイゴステーションアゲイ",
    "address": "鳥取県倉吉市上井町1丁目13谷口病院3階 谷口病院3階",
    "lat": 35.451484109421,
    "lng": 133.850417134777,
    "tel": "0858-24-6702",
    "url": "http://www.seiseikai.jp",
    "pref": "鳥取県",
    "city": "倉吉市",
    "category": "home_help",
    "serviceType": "訪問介護",
    "capacity": 0,
    "openDays": [
      "平日"
    ],
    "openDaysNote": "居宅サービス計画書により、サービスを利用できる時間外でも相談に応じ、できる限り訪問に努めます。"
  },
  {
    "id": "3170300820",
    "name": "訪問介護のぞみ",
    "kana": "ホウモンカイゴ　ノゾミ",
    "address": "鳥取県倉吉市下余戸１６１－１",
    "lat": 35.436870044837,
    "lng": 133.849525535582,
    "tel": "0858-24-6995",
    "url": "https://www.nagomikikaku.net",
    "pref": "鳥取県",
    "city": "倉吉市",
    "category": "home_help",
    "serviceType": "訪問介護",
    "capacity": 0,
    "openDays": [
      "平日",
      "土曜日",
      "日曜日",
      "祝日"
    ],
    "openDaysNote": "サービスの時間外でも相談に応じる。"
  },
  {
    "id": "3110310277",
    "name": "野島病院",
    "kana": "ノジマビョウイン",
    "address": "鳥取県倉吉市瀬崎町2714-1",
    "lat": 35.4314068,
    "lng": 133.8191866,
    "tel": "0858-23-7107",
    "url": "https://nojima-hospital.jp/publics/index/191/",
    "pref": "鳥取県",
    "city": "倉吉市",
    "category": "home_help",
    "serviceType": "訪問介護",
    "capacity": 0,
    "openDays": [
      "平日",
      "土曜日",
      "日曜日",
      "祝日"
    ],
    "openDaysNote": "居宅サービス計画により、営業時間外であってもサービス提供する場合があります。"
  },
  {
    "id": "3171500402",
    "name": "ばんだの里訪問介護事業所",
    "kana": "バンダノサトホウモンカイゴジギョウショ",
    "address": "鳥取県西伯郡大山町安原1119",
    "lat": 35.4671577,
    "lng": 133.4413503,
    "tel": "0859-53-3001",
    "url": "",
    "pref": "鳥取県",
    "city": "大山町",
    "category": "home_help",
    "serviceType": "訪問介護",
    "capacity": 0,
    "openDays": [
      "平日",
      "土曜日",
      "日曜日",
      "祝日"
    ],
    "openDaysNote": "やすはらハウスの入居者以外のかたは、通常時間帯のみの提供とさせていただきます。"
  },
  {
    "id": "3171500881",
    "name": "ホームヘルパーセンター玉真園",
    "kana": "ホームヘルパーセンターギョクシンエン",
    "address": "鳥取県西伯郡大山町大塚７１７番地軽費老人ホーム玉真園 軽費老人ホーム玉真園",
    "lat": 35.5038906,
    "lng": 134.2377356,
    "tel": "0859-54-2438",
    "url": "http://gyokushinen.com/heisetu/",
    "pref": "鳥取県",
    "city": "大山町",
    "category": "home_help",
    "serviceType": "訪問介護",
    "capacity": 0,
    "openDays": [
      "平日",
      "土曜日",
      "祝日"
    ],
    "openDaysNote": ""
  },
  {
    "id": "3111510453",
    "name": "医療法人　佐々木医院",
    "kana": "イリョウホウジン　ササキイイン",
    "address": "鳥取県西伯郡大山町田中1383介護老人保健施設はまなす内 介護老人保健施設はまなす内",
    "lat": 35.5200274,
    "lng": 133.5889167,
    "tel": "0858-58-6161",
    "url": "sasakicl.jp",
    "pref": "鳥取県",
    "city": "大山町",
    "category": "home_help",
    "serviceType": "訪問介護",
    "capacity": 0,
    "openDays": [
      "平日",
      "土曜日",
      "日曜日",
      "祝日"
    ],
    "openDaysNote": "年中無休"
  },
  {
    "id": "3171500675",
    "name": "大山町社会福祉協議会訪問介護だいせん",
    "kana": "ダイセンチョウシャカイフクシキョウギカイホウモンカイゴダイセン",
    "address": "鳥取県西伯郡大山町末長５０３番地大山町保健福祉センターだいせん 大山町保健福祉センターだいせん",
    "lat": 35.4810624,
    "lng": 133.4593343,
    "tel": "0859-39-5018",
    "url": "",
    "pref": "鳥取県",
    "city": "大山町",
    "category": "home_help",
    "serviceType": "訪問介護",
    "capacity": 0,
    "openDays": [
      "平日",
      "土曜日",
      "祝日"
    ],
    "openDaysNote": "早朝、夜間の時間帯は基本料金の25%増しとなります。"
  },
  {
    "id": "3171200391",
    "name": "ほのぼのホームヘルパーステーション",
    "kana": "ホノボノホームヘルパーステーション",
    "address": "鳥取県八頭郡智頭町大字智頭1875番地",
    "lat": 35.2632754,
    "lng": 134.2243517,
    "tel": "0858-75-3553",
    "url": "http://chizushakyo.jp",
    "pref": "鳥取県",
    "city": "智頭町",
    "category": "home_help",
    "serviceType": "訪問介護",
    "capacity": 0,
    "openDays": [
      "平日",
      "土曜日",
      "日曜日",
      "祝日"
    ],
    "openDaysNote": "特になし"
  },
  {
    "id": "3170100295",
    "name": "あすなろホームヘルパーステーション",
    "kana": "アスナロホームヘルパーステーション",
    "address": "鳥取県鳥取市西品治２８０－１",
    "lat": 35.5068956,
    "lng": 134.217793,
    "tel": "0857-50-1931",
    "url": "http://t-asunaro.or.jp",
    "pref": "鳥取県",
    "city": "鳥取市",
    "category": "home_help",
    "serviceType": "訪問介護",
    "capacity": 0,
    "openDays": [
      "平日",
      "土曜日",
      "日曜日",
      "祝日"
    ],
    "openDaysNote": ""
  },
  {
    "id": "3170101665",
    "name": "えがお株式会社",
    "kana": "エガオカブシキガイシャ",
    "address": "鳥取県鳥取市南吉方一丁目５８番地",
    "lat": 35.4899432685881,
    "lng": 134.232089458058,
    "tel": "0857-29-2032",
    "url": "http://egao-tottori.com/",
    "pref": "鳥取県",
    "city": "鳥取市",
    "category": "home_help",
    "serviceType": "訪問介護",
    "capacity": 40,
    "openDays": [
      "平日",
      "土曜日",
      "日曜日",
      "祝日"
    ],
    "openDaysNote": "年中無休２４時間　対応"
  },
  {
    "id": "3170103711",
    "name": "オパール指定訪問介護事業所",
    "kana": "オパールシテイホウモンカイゴジギョウショ",
    "address": "鳥取県鳥取市行徳三丁目３１７番地",
    "lat": 35.50068845358,
    "lng": 134.224129887781,
    "tel": "0857-23-1248",
    "url": "",
    "pref": "鳥取県",
    "city": "鳥取市",
    "category": "home_help",
    "serviceType": "訪問介護",
    "capacity": 0,
    "openDays": [
      "平日",
      "土曜日",
      "日曜日",
      "祝日"
    ],
    "openDaysNote": ""
  },
  {
    "id": "3170104248",
    "name": "けあビジョンホーム鳥取訪問介護",
    "kana": "ケアビジョンホームトットリホウモンカイゴ",
    "address": "鳥取県鳥取市福部町海士526",
    "lat": 35.5479971,
    "lng": 134.2758702,
    "tel": "0857-74-6111",
    "url": "",
    "pref": "鳥取県",
    "city": "鳥取市",
    "category": "home_help",
    "serviceType": "訪問介護",
    "capacity": null,
    "openDays": [
      "平日"
    ],
    "openDaysNote": ""
  },
  {
    "id": "3170103786",
    "name": "こころねヘルパーステーション幸町",
    "kana": "ココロネヘルパーステーションサイワイチョウ",
    "address": "鳥取県鳥取市幸町112番地",
    "lat": 35.4957081988038,
    "lng": 134.219565467616,
    "tel": "0857-51-0072",
    "url": "",
    "pref": "鳥取県",
    "city": "鳥取市",
    "category": "home_help",
    "serviceType": "訪問介護",
    "capacity": 0,
    "openDays": [
      "平日",
      "土曜日",
      "日曜日",
      "祝日"
    ],
    "openDaysNote": "時間帯により介護報酬が異なります。"
  },
  {
    "id": "3170103992",
    "name": "こころねヘルパーステーション幸町南",
    "kana": "ココロネヘルパーステーションサイワイチョウミナミ",
    "address": "鳥取県鳥取市幸町９８番地",
    "lat": 35.4950954136723,
    "lng": 134.219142611045,
    "tel": "0857-32-8237",
    "url": "http://www.medicalcare.jp/",
    "pref": "鳥取県",
    "city": "鳥取市",
    "category": "home_help",
    "serviceType": "訪問介護",
    "capacity": 0,
    "openDays": [
      "平日",
      "土曜日",
      "日曜日",
      "祝日"
    ],
    "openDaysNote": "営業時間外のサービス提供については、必要に応じてサービスの提供を行う。"
  },
  {
    "id": "3170104107",
    "name": "こころねヘルパーステーション南吉方",
    "kana": "ココロネヘルパーステーションミナミヨシカタ",
    "address": "鳥取県鳥取市南吉方2丁目68番地1株式会社サードライフモア　シニアステージ南吉方 株式会社サードライフモア　シニアステージ南吉方",
    "lat": 35.4849069441867,
    "lng": 134.234104938623,
    "tel": "0857-30-6785",
    "url": "http://thirdlifemore.jp/",
    "pref": "鳥取県",
    "city": "鳥取市",
    "category": "home_help",
    "serviceType": "訪問介護",
    "capacity": 67,
    "openDays": [
      "平日",
      "土曜日",
      "日曜日",
      "祝日"
    ],
    "openDaysNote": "必要に応じて営業時間外でも訪問可能です。"
  },
  {
    "id": "3170102713",
    "name": "さとに訪問介護ステーション",
    "kana": "サトニホウモンカイゴステーション",
    "address": "鳥取市里仁４５番地",
    "lat": 35.5027621,
    "lng": 134.193846,
    "tel": "０８５７－３０－７７６８",
    "url": "",
    "pref": "鳥取県",
    "city": "鳥取市",
    "category": "home_help",
    "serviceType": "訪問介護",
    "capacity": 0,
    "openDays": [
      "平日",
      "土曜日",
      "日曜日",
      "祝日"
    ],
    "openDaysNote": "２４時間営業"
  },
  {
    "id": "3170103794",
    "name": "ともいきの杜樗谿",
    "kana": "トモイキノモリオウチダニ",
    "address": "鳥取県鳥取市上町19-1",
    "lat": 35.4989481,
    "lng": 134.2414939,
    "tel": "0857-20-1235",
    "url": "",
    "pref": "鳥取県",
    "city": "鳥取市",
    "category": "home_help",
    "serviceType": "訪問介護",
    "capacity": 35,
    "openDays": [
      "平日",
      "土曜日",
      "日曜日",
      "祝日"
    ],
    "openDaysNote": ""
  },
  {
    "id": "3170102101",
    "name": "ニチイケアセンターふせ",
    "kana": "ニチイケアセンター　フセ",
    "address": "鳥取市布勢422-3",
    "lat": 35.5056641597389,
    "lng": 134.180626677416,
    "tel": "0857-32-2005",
    "url": "http://www.nichiigakkan.co.jp",
    "pref": "鳥取県",
    "city": "鳥取市",
    "category": "home_help",
    "serviceType": "訪問介護",
    "capacity": 80,
    "openDays": [
      "平日"
    ],
    "openDaysNote": "但し、居宅サービス計画により、休業日及び営業時間外でもサービスの提供を行なう場合があります。"
  },
  {
    "id": "3170102424",
    "name": "ニチイケアセンター河原",
    "kana": "ニチイケアセンターカワハラ",
    "address": "鳥取県鳥取市河原町袋河原２６アーネスト中央１階５号室 アーネスト中央１階５号室",
    "lat": 35.4192631,
    "lng": 134.2042833,
    "tel": "0858-85-6007",
    "url": "",
    "pref": "鳥取県",
    "city": "鳥取市",
    "category": "home_help",
    "serviceType": "訪問介護",
    "capacity": 0,
    "openDays": [
      "平日"
    ],
    "openDaysNote": "※サービス計画により、休業日及び営業時間外であっても、サービスを提供する場合があります。"
  },
  {
    "id": "3170103976",
    "name": "ニチイケアセンター秋里",
    "kana": "ニチイケアセンターアキサト",
    "address": "鳥取県鳥取市秋里1343レジダンスフォンテーヌ103号 レジダンスフォンテーヌ103号",
    "lat": 35.52152,
    "lng": 134.2160859,
    "tel": "0857-25-3033",
    "url": "",
    "pref": "鳥取県",
    "city": "鳥取市",
    "category": "home_help",
    "serviceType": "訪問介護",
    "capacity": null,
    "openDays": [
      "平日"
    ],
    "openDaysNote": "ただし、居宅サービス計画により休業日及び営業時間外でもサービスの提供を行う場合があります。"
  },
  {
    "id": "3170100121",
    "name": "ニチイケアセンター鳥取駅南",
    "kana": "ニチイケアセンタートットリエキナン",
    "address": "鳥取県鳥取市的場2丁目86番地1タウンアローズ86　102号 タウンアローズ86　102号",
    "lat": 35.4732942378408,
    "lng": 134.231004818303,
    "tel": "0857-51-7066",
    "url": "http://www.nichiigakkan.co.jp",
    "pref": "鳥取県",
    "city": "鳥取市",
    "category": "home_help",
    "serviceType": "訪問介護",
    "capacity": 0,
    "openDays": [
      "平日"
    ],
    "openDaysNote": "但し、居宅サービス計画により、休業日及び営業時間外でもサービスの提供を行う場合があります。"
  },
  {
    "id": "3170104115",
    "name": "ニチイケアセンター鳥取東",
    "kana": "ニチイケアセンタートットリヒガシ",
    "address": "鳥取県鳥取市国府町奥谷3丁目306デュエット105号 デュエット105号",
    "lat": 35.4830003694202,
    "lng": 134.26166703808,
    "tel": "0857-36-8032",
    "url": "",
    "pref": "鳥取県",
    "city": "鳥取市",
    "category": "home_help",
    "serviceType": "訪問介護",
    "capacity": 0,
    "openDays": [
      "平日"
    ],
    "openDaysNote": "但し、居宅サービス計画により休業日及び営業時間外でもサービスの提供を行う場合があります。"
  },
  {
    "id": "3170101814",
    "name": "ハピネヘルパーステーション雲山",
    "kana": "ハピネヘルパーステーションクモヤマ",
    "address": "鳥取県鳥取市興南町１２４",
    "lat": 35.4864454,
    "lng": 134.2318394,
    "tel": "0857-39-7505",
    "url": "",
    "pref": "鳥取県",
    "city": "鳥取市",
    "category": "home_help",
    "serviceType": "訪問介護",
    "capacity": 0,
    "openDays": [
      "平日",
      "土曜日",
      "日曜日",
      "祝日"
    ],
    "openDaysNote": "ケアプランに応じて24時間３６５日で対応"
  },
  {
    "id": "3170100394",
    "name": "ヘルパ－ステ－ションみやこ苑",
    "kana": "ヘルパーステーションミヤコエン",
    "address": "鳥取県鳥取市三津1072番地307",
    "lat": 35.521642,
    "lng": 134.1540287,
    "tel": "0857-38-3859",
    "url": "http://www.miyakoen.jp/",
    "pref": "鳥取県",
    "city": "鳥取市",
    "category": "home_help",
    "serviceType": "訪問介護",
    "capacity": 40,
    "openDays": [
      "平日",
      "土曜日",
      "日曜日",
      "祝日"
    ],
    "openDaysNote": "これ以外の時間帯も相談に応じます。"
  },
  {
    "id": "3170102069",
    "name": "ヘルパーステーション　　さくら",
    "kana": "ヘルパーステーション　サクラ",
    "address": "鳥取県鳥取市西品治７８０番地２前田マンション１０１号 前田マンション１０１号",
    "lat": 35.5084428,
    "lng": 134.2222313,
    "tel": "0857-54-1368",
    "url": "",
    "pref": "鳥取県",
    "city": "鳥取市",
    "category": "home_help",
    "serviceType": "訪問介護",
    "capacity": 0,
    "openDays": [
      "平日",
      "土曜日",
      "日曜日",
      "祝日"
    ],
    "openDaysNote": "電話により２４時間連絡可能。"
  },
  {
    "id": "3170102838",
    "name": "ヘルパーステーション　シェアグレイス商栄",
    "kana": "ヘルパーステーション　シェアグレイスショウエイ",
    "address": "鳥取県鳥取市商栄町271番地5号サービス付き高齢者向け住宅シェアグレイス商栄 サービス付き高齢者向け住宅シェアグレイス商栄",
    "lat": 35.5153911178199,
    "lng": 134.2060917705,
    "tel": "0857-50-1155",
    "url": "",
    "pref": "鳥取県",
    "city": "鳥取市",
    "category": "home_help",
    "serviceType": "訪問介護",
    "capacity": 0,
    "openDays": [
      "平日"
    ],
    "openDaysNote": "上記営業時間外であっても状況に応じ対応させて頂きます。"
  },
  {
    "id": "3170100758",
    "name": "ヘルパーステーション　まさたみの郷",
    "kana": "ヘルパーステーション　マサタミノサト",
    "address": "鳥取県鳥取市杉崎５９６番地",
    "lat": 35.4644758,
    "lng": 134.2481636,
    "tel": "0857-53-0002",
    "url": "masatami.hs@asupiosu.or.jp",
    "pref": "鳥取県",
    "city": "鳥取市",
    "category": "home_help",
    "serviceType": "訪問介護",
    "capacity": 10,
    "openDays": [
      "平日",
      "土曜日",
      "日曜日",
      "祝日"
    ],
    "openDaysNote": "1月1日は休業。"
  },
  {
    "id": "3170104180",
    "name": "ヘルパーステーション　ゆくり",
    "kana": "ヘルパーステーション　ユクリ",
    "address": "鳥取県鳥取市永楽温泉町６２２番地",
    "lat": 35.4929899941819,
    "lng": 134.232301462566,
    "tel": "０８５７－５４－１２８１",
    "url": "https://yukuri.asupiosu.or.jp",
    "pref": "鳥取県",
    "city": "鳥取市",
    "category": "home_help",
    "serviceType": "訪問介護",
    "capacity": 0,
    "openDays": [
      "平日",
      "土曜日",
      "祝日"
    ],
    "openDaysNote": ""
  },
  {
    "id": "3170103422",
    "name": "ヘルパーステーション　和ごころ",
    "kana": "ヘルパーステーション　ワゴコロ",
    "address": "鳥取県鳥取市南安長1丁目15-21",
    "lat": 35.5049399051326,
    "lng": 134.212189987697,
    "tel": "０８５７－３０－５１０３",
    "url": "httpps://lifecares.jimdofree.com",
    "pref": "鳥取県",
    "city": "鳥取市",
    "category": "home_help",
    "serviceType": "訪問介護",
    "capacity": 0,
    "openDays": [
      "平日",
      "土曜日",
      "日曜日",
      "祝日"
    ],
    "openDaysNote": ""
  },
  {
    "id": "3170103687",
    "name": "ヘルパーステーション「まめ助」",
    "kana": "ヘルパーステーションマメスケ",
    "address": "鳥取県鳥取市扇町176番地",
    "lat": 35.4930752,
    "lng": 134.2236955,
    "tel": "0857-32-8030",
    "url": "mamesuke_helupa@yahoo.co.jp",
    "pref": "鳥取県",
    "city": "鳥取市",
    "category": "home_help",
    "serviceType": "訪問介護",
    "capacity": 0,
    "openDays": [
      "平日",
      "土曜日",
      "日曜日",
      "祝日"
    ],
    "openDaysNote": "上記以外の時間については、相談に応じます。"
  },
  {
    "id": "3170104263",
    "name": "ヘルパーステーションかけはし",
    "kana": "ヘルパーステーションカケハシ",
    "address": "鳥取県鳥取市大杙208-1",
    "lat": 35.4835597,
    "lng": 134.2476687,
    "tel": "0857-50-1515",
    "url": "https://you-plus.jp/",
    "pref": "鳥取県",
    "city": "鳥取市",
    "category": "home_help",
    "serviceType": "訪問介護",
    "capacity": 15,
    "openDays": [
      "平日",
      "土曜日",
      "日曜日",
      "祝日"
    ],
    "openDaysNote": "必要に応じて営業時間外時間も訪問可"
  },
  {
    "id": "3170103315",
    "name": "ヘルパーステーションゆくり",
    "kana": "ヘルパーステーションユクリ",
    "address": "鳥取県鳥取市永楽温泉町622番地",
    "lat": 35.4941806,
    "lng": 134.229556,
    "tel": "0857-54-1281",
    "url": "",
    "pref": "鳥取県",
    "city": "鳥取市",
    "category": "home_help",
    "serviceType": "訪問介護",
    "capacity": 0,
    "openDays": [
      "平日",
      "土曜日",
      "祝日"
    ],
    "openDaysNote": ""
  },
  {
    "id": "3170104347",
    "name": "ヘルパーステーションよろずや",
    "kana": "ヘルパーステーションヨロズヤ",
    "address": "鳥取県鳥取市浜坂3丁目16番16号",
    "lat": 35.5327998,
    "lng": 134.2152022,
    "tel": "070-8930-6218",
    "url": "",
    "pref": "鳥取県",
    "city": "鳥取市",
    "category": "home_help",
    "serviceType": "訪問介護",
    "capacity": 80,
    "openDays": [
      "平日",
      "土曜日",
      "祝日"
    ],
    "openDaysNote": "要望があれば上記時間外でも対応可能な場合があります。（改行）上記時間外は電話等で24時間対応可能な体制をとっています。"
  },
  {
    "id": "3170102341",
    "name": "ヘルパーステーション野の花",
    "kana": "ヘルパーステーションノノハナ",
    "address": "鳥取県鳥取市行徳3丁目431番地",
    "lat": 35.5006771,
    "lng": 134.222151,
    "tel": "0857-36-0087",
    "url": "nono_hana@nifty.com",
    "pref": "鳥取県",
    "city": "鳥取市",
    "category": "home_help",
    "serviceType": "訪問介護",
    "capacity": 0,
    "openDays": [
      "平日",
      "土曜日",
      "日曜日",
      "祝日"
    ],
    "openDaysNote": ""
  },
  {
    "id": "3170104305",
    "name": "ホームケア土屋鳥取",
    "kana": "ホームケアツチヤトットリ",
    "address": "鳥取県鳥取市南安長１丁目１ー２０アーバンノベラA棟A-６ アーバンノベラA棟A-６",
    "lat": 35.5041647,
    "lng": 134.2130635,
    "tel": "050-3184-0703",
    "url": "https://tcy.co.jp/",
    "pref": "鳥取県",
    "city": "鳥取市",
    "category": "home_help",
    "serviceType": "訪問介護",
    "capacity": 0,
    "openDays": [
      "平日",
      "土曜日",
      "日曜日",
      "祝日"
    ],
    "openDaysNote": "サービス提供日年中無休（改行）サービス提供時間24時間とする。"
  },
  {
    "id": "3170100733",
    "name": "ホームヘルプステーション暖の里",
    "kana": "ホームヘルプステーション　ダンノサト",
    "address": "鳥取県鳥取市吉岡温泉町５２番地１",
    "lat": 35.4846933,
    "lng": 134.134051,
    "tel": "0857-57-0150",
    "url": "http://www.dannosato.jp/",
    "pref": "鳥取県",
    "city": "鳥取市",
    "category": "home_help",
    "serviceType": "訪問介護",
    "capacity": 12,
    "openDays": [
      "平日",
      "土曜日",
      "日曜日",
      "祝日"
    ],
    "openDaysNote": "時間外については、要望、状況に応じて対応します。"
  },
  {
    "id": "3170101194",
    "name": "ホームヘルプひまわり鳥取",
    "kana": "ホームヘルプヒマワリトットリ",
    "address": "鳥取県鳥取市桂木784番地",
    "lat": 35.458046,
    "lng": 134.2525884,
    "tel": "0857-53-7890",
    "url": "http://www.siseikai.com/",
    "pref": "鳥取県",
    "city": "鳥取市",
    "category": "home_help",
    "serviceType": "訪問介護",
    "capacity": 30,
    "openDays": [
      "平日",
      "土曜日",
      "日曜日",
      "祝日"
    ],
    "openDaysNote": ""
  },
  {
    "id": "3170102440",
    "name": "一般社団法人イナバ総合福祉会",
    "kana": "イッパンシャダンホウジンイナバソウゴウフクシカイ",
    "address": "鳥取県鳥取市湯所町２丁目２５６番地",
    "lat": 35.5093281130724,
    "lng": 134.23123595284,
    "tel": "０８５７－３２－８２０８",
    "url": "",
    "pref": "鳥取県",
    "city": "鳥取市",
    "category": "home_help",
    "serviceType": "訪問介護",
    "capacity": 200,
    "openDays": [
      "平日",
      "土曜日",
      "日曜日",
      "祝日"
    ],
    "openDaysNote": "ご希望があれば時間外対応致します。"
  },
  {
    "id": "3170101772",
    "name": "株式会社　鳥取介護サービス",
    "kana": "カブシキガイシャ　トットリカイゴサービス",
    "address": "鳥取県鳥取市古海707-1",
    "lat": 35.5009536697956,
    "lng": 134.208557716333,
    "tel": "0857-30-1696",
    "url": "https://www.tottorikaigo.com",
    "pref": "鳥取県",
    "city": "鳥取市",
    "category": "home_help",
    "serviceType": "訪問介護",
    "capacity": 20,
    "openDays": [
      "平日",
      "土曜日",
      "日曜日",
      "祝日"
    ],
    "openDaysNote": "ケアプランに応じて、２４時間、３６５日、サービス提供実施"
  },
  {
    "id": "3170100188",
    "name": "株式会社サポートライフ",
    "kana": "カブシキガイシャサポートライフ",
    "address": "鳥取県鳥取市東今在家321-26",
    "lat": 35.4790547,
    "lng": 134.2536266,
    "tel": "0857-29-3455",
    "url": "www.support-life.jp",
    "pref": "鳥取県",
    "city": "鳥取市",
    "category": "home_help",
    "serviceType": "訪問介護",
    "capacity": 10,
    "openDays": [
      "平日",
      "土曜日",
      "日曜日",
      "祝日"
    ],
    "openDaysNote": ""
  },
  {
    "id": "3170101897",
    "name": "株式会社メディコープとっとり　ヘルパーステーションたんぽぽ",
    "kana": "カブシキガイシャメディコープトットリ　ヘルパーステーションタンポポ",
    "address": "鳥取県鳥取市末広温泉町211番地レインボーセンター別館1Ｆ レインボーセンター別館1Ｆ",
    "lat": 35.4957314812524,
    "lng": 134.230463896959,
    "tel": "0857-30-6002",
    "url": "http://mcp.mcoop-tottori.jp/services/tampopo.html",
    "pref": "鳥取県",
    "city": "鳥取市",
    "category": "home_help",
    "serviceType": "訪問介護",
    "capacity": 0,
    "openDays": [
      "平日",
      "土曜日",
      "日曜日",
      "祝日"
    ],
    "openDaysNote": "早朝（６：００～８：００）、夜間（１８：００～２２：００）についても相談に応じます（改行）12月30日から1月3日は原則休日"
  },
  {
    "id": "3170100360",
    "name": "鳥取福祉会訪問介護ステーション",
    "kana": "トットリフクシカイホウモンカイゴステーション",
    "address": "鳥取県鳥取市的場２丁目１番地",
    "lat": 35.4754995,
    "lng": 134.2321619,
    "tel": "0857-53-6561",
    "url": "http://www.tottorifukushikai.jp",
    "pref": "鳥取県",
    "city": "鳥取市",
    "category": "home_help",
    "serviceType": "訪問介護",
    "capacity": 200,
    "openDays": [
      "平日",
      "土曜日",
      "日曜日",
      "祝日"
    ],
    "openDaysNote": ""
  },
  {
    "id": "3170103034",
    "name": "訪問介護　愛真ケア",
    "kana": "ホウモンカイゴ　アイシンケア",
    "address": "鳥取県鳥取市岩倉２５０番地１２森田アパート３号 森田アパート３号",
    "lat": 35.4855603721658,
    "lng": 134.262468006746,
    "tel": "0857-23-3941",
    "url": "",
    "pref": "鳥取県",
    "city": "鳥取市",
    "category": "home_help",
    "serviceType": "訪問介護",
    "capacity": 40,
    "openDays": [
      "平日",
      "土曜日",
      "日曜日",
      "祝日"
    ],
    "openDaysNote": "ただし、５月５日、８月１４日から１５日、１２月２９日から１月３日を除きます。対応が可能な場合居宅サービス計画により、休業日及び営業時間外でもサービスの提供を行なう場合があります。"
  },
  {
    "id": "3170102291",
    "name": "訪問介護アップル",
    "kana": "ホウモンカイゴ　アップル",
    "address": "鳥取県鳥取市商栄町１９２",
    "lat": 35.5162442,
    "lng": 134.2087103,
    "tel": "0857-50-0088",
    "url": "",
    "pref": "鳥取県",
    "city": "鳥取市",
    "category": "home_help",
    "serviceType": "訪問介護",
    "capacity": 0,
    "openDays": [
      "平日",
      "土曜日",
      "日曜日",
      "祝日"
    ],
    "openDaysNote": ""
  },
  {
    "id": "3170102473",
    "name": "訪問介護オ－ルデイズ",
    "kana": "ホウモンカイゴオ－ルデイズ",
    "address": "鳥取県鳥取市吉方温泉四丁目401",
    "lat": 35.4904422,
    "lng": 134.2386303,
    "tel": "0857-30-5375",
    "url": "",
    "pref": "鳥取県",
    "city": "鳥取市",
    "category": "home_help",
    "serviceType": "訪問介護",
    "capacity": 5,
    "openDays": [
      "平日",
      "土曜日",
      "祝日"
    ],
    "openDaysNote": "利用者から営業時間以外の要望があれば相談に応じます。"
  },
  {
    "id": "3170104040",
    "name": "訪問介護ステーション　寄り添い",
    "kana": "訪問介護ステーション　寄リ添イ",
    "address": "鳥取県鳥取市大杙229－16",
    "lat": 35.4829722,
    "lng": 134.2496136,
    "tel": "0857－30－5595",
    "url": "tomonowa‐tottori.com",
    "pref": "鳥取県",
    "city": "鳥取市",
    "category": "home_help",
    "serviceType": "訪問介護",
    "capacity": 0,
    "openDays": [
      "平日",
      "土曜日",
      "日曜日",
      "祝日"
    ],
    "openDaysNote": "サービス時間に関しては、必要時利用可能な時間以外でも相談に応じる"
  },
  {
    "id": "3170104255",
    "name": "訪問介護ステーションくろーばー",
    "kana": "ホウモンカイゴステーションクローバー",
    "address": "鳥取県鳥取市南安長1-2-18大森自動車ビル2F-3号 大森自動車ビル2F-3号",
    "lat": 35.5031885,
    "lng": 134.2126836,
    "tel": "0857-30-4025",
    "url": "",
    "pref": "鳥取県",
    "city": "鳥取市",
    "category": "home_help",
    "serviceType": "訪問介護",
    "capacity": 0,
    "openDays": [
      "平日",
      "土曜日",
      "日曜日",
      "祝日"
    ],
    "openDaysNote": "ご利用者様の特段の事情においては利用時間の相談可能"
  },
  {
    "id": "3170103836",
    "name": "訪問介護ステーションほーぷけあ",
    "kana": "ホウモンカイゴステーションホープケア",
    "address": "鳥取県鳥取市湖山町東4丁目27-2レンタルホビー＆オフィス1号室 レンタルホビー＆オフィス1号室",
    "lat": 35.5162298,
    "lng": 134.1910705,
    "tel": "0857-51-0061",
    "url": "",
    "pref": "鳥取県",
    "city": "鳥取市",
    "category": "home_help",
    "serviceType": "訪問介護",
    "capacity": null,
    "openDays": [
      "平日",
      "土曜日",
      "祝日"
    ],
    "openDaysNote": "但し緊急時の場合にはこの限りではない"
  },
  {
    "id": "3170102390",
    "name": "訪問介護ふたば",
    "kana": "ホウモンカイゴフタバ",
    "address": "鳥取県鳥取市国府町稲葉丘3-303",
    "lat": 35.4831431,
    "lng": 134.2621009,
    "tel": "０８５７－２３－１８３８",
    "url": "",
    "pref": "鳥取県",
    "city": "鳥取市",
    "category": "home_help",
    "serviceType": "訪問介護",
    "capacity": 0,
    "openDays": [
      "平日",
      "土曜日",
      "日曜日",
      "祝日"
    ],
    "openDaysNote": ""
  },
  {
    "id": "3170101640",
    "name": "訪問介護事業所　はあとふる",
    "kana": "ホウモンカイゴジギョウショ　ハアトフル",
    "address": "鳥取県鳥取市湖山町東4丁目116番地",
    "lat": 35.5168632752681,
    "lng": 134.186902006746,
    "tel": "0857-30-3200",
    "url": "",
    "pref": "鳥取県",
    "city": "鳥取市",
    "category": "home_help",
    "serviceType": "訪問介護",
    "capacity": 0,
    "openDays": [
      "平日",
      "土曜日",
      "日曜日",
      "祝日"
    ],
    "openDaysNote": "転送にて24時間常時連絡可能"
  },
  {
    "id": "3170103190",
    "name": "訪問介護事業所　わたぼうし",
    "kana": "ホウモンカイゴジギョウショ　ワタボウシ",
    "address": "鳥取県鳥取市湖山町南5丁目177-1",
    "lat": 35.5190420640099,
    "lng": 134.170686842024,
    "tel": "0857-50-0798",
    "url": "",
    "pref": "鳥取県",
    "city": "鳥取市",
    "category": "home_help",
    "serviceType": "訪問介護",
    "capacity": 0,
    "openDays": [
      "平日",
      "土曜日",
      "日曜日",
      "祝日"
    ],
    "openDaysNote": ""
  },
  {
    "id": "3170103638",
    "name": "訪問介護事業所エルスリー鳥取",
    "kana": "ホウモンカイゴジギョウショエルスリートットリ",
    "address": "卯垣5-30",
    "lat": 35.4925059274952,
    "lng": 134.257081505915,
    "tel": "0857-30-4520",
    "url": "",
    "pref": "鳥取県",
    "city": "鳥取市",
    "category": "home_help",
    "serviceType": "訪問介護",
    "capacity": 160,
    "openDays": [
      "平日",
      "土曜日",
      "日曜日",
      "祝日"
    ],
    "openDaysNote": ""
  },
  {
    "id": "3170104214",
    "name": "訪問介護事業所きゅうだい",
    "kana": "ホウモンカイゴジギョウショキュウダイ",
    "address": "古海693-1",
    "lat": 35.4996656,
    "lng": 134.2076832,
    "tel": "0857-25-4301",
    "url": "kyudai,co.jp",
    "pref": "鳥取県",
    "city": "鳥取市",
    "category": "home_help",
    "serviceType": "訪問介護",
    "capacity": 0,
    "openDays": [
      "平日",
      "土曜日",
      "日曜日",
      "祝日"
    ],
    "openDaysNote": "365日24時間営業"
  },
  {
    "id": "3170101418",
    "name": "訪問介護事業所しらゆき",
    "kana": "ホウモンカイゴジギョウショシラユキ",
    "address": "鳥取県鳥取市千代水4丁目43番地",
    "lat": 35.5158244,
    "lng": 134.1950757,
    "tel": "0857-30-5700",
    "url": "",
    "pref": "鳥取県",
    "city": "鳥取市",
    "category": "home_help",
    "serviceType": "訪問介護",
    "capacity": 0,
    "openDays": [
      "平日",
      "土曜日",
      "日曜日",
      "祝日"
    ],
    "openDaysNote": ""
  },
  {
    "id": "3170103570",
    "name": "訪問介護事業所松のねっこ",
    "kana": "ホウモンカイゴジギョウショマツノネッコ",
    "address": "鳥取県鳥取市大覚寺１７４番地１６",
    "lat": 35.4804795,
    "lng": 134.2339172,
    "tel": "0857-30-6486",
    "url": "",
    "pref": "鳥取県",
    "city": "鳥取市",
    "category": "home_help",
    "serviceType": "訪問介護",
    "capacity": 60,
    "openDays": [
      "平日",
      "土曜日",
      "日曜日",
      "祝日"
    ],
    "openDaysNote": ""
  },
  {
    "id": "3170102549",
    "name": "訪問介護事業所鳥取北",
    "kana": "ホウモンカイゴジギョウショトットリキタ",
    "address": "鳥取県鳥取市秋里1181",
    "lat": 35.5189571750491,
    "lng": 134.21413092784,
    "tel": "0857-20-2616",
    "url": "http://www.kohoen.jp/",
    "pref": "鳥取県",
    "city": "鳥取市",
    "category": "home_help",
    "serviceType": "訪問介護",
    "capacity": 0,
    "openDays": [
      "平日",
      "土曜日",
      "日曜日",
      "祝日"
    ],
    "openDaysNote": "但し身体介護について要望あれば24時間対応する"
  },
  {
    "id": "3171401015",
    "name": "ニチイケアセンターゆりはま",
    "kana": "ニチイケアセンターユリハマ",
    "address": "鳥取県東伯郡湯梨浜町上浅津385-7上浅津湯村店舗1階101号室 上浅津湯村店舗1階101号室",
    "lat": 35.4817806669324,
    "lng": 133.877069971201,
    "tel": "0858-35-2778",
    "url": "https://www.nichiigakkan.co.jp/",
    "pref": "鳥取県",
    "city": "湯梨浜町",
    "category": "home_help",
    "serviceType": "訪問介護",
    "capacity": 0,
    "openDays": [
      "平日"
    ],
    "openDaysNote": "但し、居宅サービス計画により、休業日および営業時間外であってもサービスを提供する場合があります。"
  },
  {
    "id": "3171400876",
    "name": "ヘルパーステーションゆりはま",
    "kana": "ヘルパーステーションユリハマ",
    "address": "鳥取県東伯郡湯梨浜町田後224－1シニアコートゆりはま内 シニアコートゆりはま内",
    "lat": 35.4842742898031,
    "lng": 133.856899876721,
    "tel": "0858-35-5201",
    "url": "https://www.lifecare-y.jp/",
    "pref": "鳥取県",
    "city": "湯梨浜町",
    "category": "home_help",
    "serviceType": "訪問介護",
    "capacity": 51,
    "openDays": [
      "平日",
      "土曜日",
      "日曜日",
      "祝日"
    ],
    "openDaysNote": "営業日以外及び営業時間外のサービス提供については、必要に応じてサービスの提供を行います。"
  },
  {
    "id": "3171500923",
    "name": "サポートセンターなごみ",
    "kana": "サポートセンターナゴミ",
    "address": "鳥取県西伯郡南部町福成742-3",
    "lat": 35.3705513,
    "lng": 133.3318801,
    "tel": "0859-66-2132",
    "url": "www.syouwakai.jp",
    "pref": "鳥取県",
    "city": "南部町",
    "category": "home_help",
    "serviceType": "訪問介護",
    "capacity": 0,
    "openDays": [
      "平日",
      "土曜日",
      "日曜日",
      "祝日"
    ],
    "openDaysNote": "上記の通常の営業日及び営業時間帯を超えてサービスを提供する場合がある。"
  },
  {
    "id": "3171600301",
    "name": "ホームヘルプセンター　にちなん",
    "kana": "ホームヘルプセンター　ニチナン",
    "address": "鳥取県日野郡日南町下石見2315番地",
    "lat": 35.1519865846748,
    "lng": 133.330450271244,
    "tel": "0859-83-0850",
    "url": "http://www.n-akane.jp/index.html",
    "pref": "鳥取県",
    "city": "日南町",
    "category": "home_help",
    "serviceType": "訪問介護",
    "capacity": 80,
    "openDays": [
      "平日",
      "土曜日",
      "日曜日",
      "祝日"
    ],
    "openDaysNote": "希望に応じて時間外の対応も可能です。"
  },
  {
    "id": "3171600244",
    "name": "医療法人社団日翔会　おしどり荘訪問介護事業所",
    "kana": "イリョウホウジンシャダンニッショウカイ　オシドリソウホウモンカイゴジギョウショ",
    "address": "鳥取県日野郡日野町根雨８９９－１",
    "lat": 35.234317,
    "lng": 133.4401033,
    "tel": "0859-72-0511",
    "url": "",
    "pref": "鳥取県",
    "city": "日野町",
    "category": "home_help",
    "serviceType": "訪問介護",
    "capacity": 0,
    "openDays": [
      "平日",
      "土曜日",
      "祝日"
    ],
    "openDaysNote": ""
  },
  {
    "id": "3171500865",
    "name": "ヘルパーステーション　あゆみ",
    "kana": "ヘルパーステーション　アユミ",
    "address": "鳥取県西伯郡伯耆町大殿１０８９－８",
    "lat": 35.3871584057437,
    "lng": 133.398065775276,
    "tel": "０８５９－６８－６０６０",
    "url": "http://akari-ayumi.jp",
    "pref": "鳥取県",
    "city": "伯耆町",
    "category": "home_help",
    "serviceType": "訪問介護",
    "capacity": 0,
    "openDays": [
      "平日",
      "土曜日",
      "日曜日",
      "祝日"
    ],
    "openDaysNote": ""
  },
  {
    "id": "3171500493",
    "name": "ヘルパーステーション大山のふもと",
    "kana": "ヘルパーステーション大山ノフモト",
    "address": "鳥取県西伯郡伯耆町大原1013番11ケアハウス大山のふもと ケアハウス大山のふもと",
    "lat": 35.3852977,
    "lng": 133.4581689,
    "tel": "0859-68-6511",
    "url": "",
    "pref": "鳥取県",
    "city": "伯耆町",
    "category": "home_help",
    "serviceType": "訪問介護",
    "capacity": 0,
    "openDays": [
      "平日",
      "土曜日",
      "日曜日",
      "祝日"
    ],
    "openDaysNote": "時間は相談に応じます。"
  },
  {
    "id": "3171500600",
    "name": "社会福祉法人　伯耆町社会福祉協議会　溝口訪問介護事業所",
    "kana": "シャカイフクシホウジン　ホウキチョウシャカイフクシキョウギカイ　ミゾクチホウモンカイゴジギョウショ",
    "address": "鳥取県西伯郡伯耆町溝口281-2",
    "lat": 35.3446543,
    "lng": 133.4349327,
    "tel": "0859-63-0666",
    "url": "http://www.houki-shakyo.jp/",
    "pref": "鳥取県",
    "city": "伯耆町",
    "category": "home_help",
    "serviceType": "訪問介護",
    "capacity": 0,
    "openDays": [
      "平日",
      "土曜日",
      "祝日"
    ],
    "openDaysNote": "上記以外の時間を希望される時はご相談ください。"
  },
  {
    "id": "3171200649",
    "name": "ニチイケアセンター八頭",
    "kana": "ニチイケアセンターヤズ",
    "address": "鳥取県八頭郡八頭町郡家634-7林ビル1号室 林ビル1号室",
    "lat": 35.4107873,
    "lng": 134.2500855,
    "tel": "0858-72-2948",
    "url": "",
    "pref": "鳥取県",
    "city": "八頭町",
    "category": "home_help",
    "serviceType": "訪問介護",
    "capacity": 0,
    "openDays": [
      "平日",
      "土曜日",
      "日曜日",
      "祝日"
    ],
    "openDaysNote": ""
  },
  {
    "id": "3171200359",
    "name": "社会福祉法人　八頭町社会福祉協議会　船岡支所",
    "kana": "シャカイフクシホウジン　ヤズチョウシャカイフクシキョウギカイ　フナオカシショ",
    "address": "鳥取県八頭郡八頭町船岡殿１５９番地",
    "lat": 35.3821217,
    "lng": 134.2494771,
    "tel": "0858-73-0672",
    "url": "",
    "pref": "鳥取県",
    "city": "八頭町",
    "category": "home_help",
    "serviceType": "訪問介護",
    "capacity": 0,
    "openDays": [
      "平日",
      "土曜日",
      "日曜日",
      "祝日"
    ],
    "openDaysNote": "希望があれば日曜日及び年末年始も稼働します。"
  },
  {
    "id": "3151280215",
    "name": "訪問介護事業所すこやか",
    "kana": "ホウモンカイゴジギョウショスコヤカ",
    "address": "鳥取県八頭郡八頭町宮谷１２３番地",
    "lat": 35.4138208,
    "lng": 134.258492,
    "tel": "0858-76-7600",
    "url": "https://swc-yazu.studio.site/",
    "pref": "鳥取県",
    "city": "八頭町",
    "category": "home_help",
    "serviceType": "訪問介護",
    "capacity": 0,
    "openDays": [
      "平日",
      "土曜日",
      "日曜日",
      "祝日"
    ],
    "openDaysNote": ""
  },
  {
    "id": "3170202554",
    "name": "あいわ訪問介護ステーション・米子",
    "kana": "アイワホウモンカイゴステーション・ヨナゴ",
    "address": "鳥取県米子市西福原６－１８－１１",
    "lat": 35.4481979,
    "lng": 133.3419712,
    "tel": "0859-21-7952",
    "url": "",
    "pref": "鳥取県",
    "city": "米子市",
    "category": "home_help",
    "serviceType": "訪問介護",
    "capacity": 0,
    "openDays": [
      "平日",
      "土曜日",
      "日曜日",
      "祝日"
    ],
    "openDaysNote": "ご希望により、上記時間以外のサービス提供も受け付けています。"
  },
  {
    "id": "3170201762",
    "name": "いきいきヘルパーステーション",
    "kana": "イキイキヘルパーステーション",
    "address": "鳥取県米子市彦名町８番地１",
    "lat": 35.4420812,
    "lng": 133.3039935,
    "tel": "0859-48-0221",
    "url": "http://www.medicalcare.jp/",
    "pref": "鳥取県",
    "city": "米子市",
    "category": "home_help",
    "serviceType": "訪問介護",
    "capacity": 86,
    "openDays": [
      "平日",
      "土曜日",
      "日曜日",
      "祝日"
    ],
    "openDaysNote": "営業日以外及び営業時間外のサービス提供については、必要に応じてサービスの提供を行う。"
  },
  {
    "id": "3170202422",
    "name": "いきいきヘルパーステーション上後藤",
    "kana": "イキイキヘルパーステーションカミゴトウ",
    "address": "鳥取県米子市上後藤4丁目16番1号いきいきシニアステージ上後藤 いきいきシニアステージ上後藤",
    "lat": 35.4452753,
    "lng": 133.3177838,
    "tel": "0859-21-5670",
    "url": "",
    "pref": "鳥取県",
    "city": "米子市",
    "category": "home_help",
    "serviceType": "訪問介護",
    "capacity": 76,
    "openDays": [
      "平日",
      "土曜日",
      "日曜日",
      "祝日"
    ],
    "openDaysNote": "24時間交代シフト制により必要時にサービスを行う。"
  },
  {
    "id": "3170202638",
    "name": "いきいきヘルパーステーション西福原",
    "kana": "イキイキヘルパーステーションニシフクハラ",
    "address": "鳥取県米子市西福原5丁目6番３９号いきいきシニアステージ福米 いきいきシニアステージ福米",
    "lat": 35.4464785,
    "lng": 133.340388,
    "tel": "0859-21-5677",
    "url": "http://www.medicalcare.jp/",
    "pref": "鳥取県",
    "city": "米子市",
    "category": "home_help",
    "serviceType": "訪問介護",
    "capacity": 60,
    "openDays": [
      "平日",
      "土曜日"
    ],
    "openDaysNote": "営業日以外及び営業時間外のサービス提供については必要に応じて行います。"
  },
  {
    "id": "3170202257",
    "name": "いきいきヘルパーステーション灘町",
    "kana": "イキイキヘルパーステーションナダマチ",
    "address": "鳥取県米子市灘町3丁目76いきいシニアステージ灘町 いきいシニアステージ灘町",
    "lat": 35.4363373,
    "lng": 133.324078,
    "tel": "0859-30-3625",
    "url": "http://www.medicalcare.jp/",
    "pref": "鳥取県",
    "city": "米子市",
    "category": "home_help",
    "serviceType": "訪問介護",
    "capacity": 65,
    "openDays": [
      "平日",
      "土曜日",
      "日曜日",
      "祝日"
    ],
    "openDaysNote": "営業日以外及び営業時間外のサービス提供については、必要に応じてサービスの提供を行う。（改行）時間帯により料金が異なります。"
  },
  {
    "id": "3170202141",
    "name": "エルルのホームヘルパー",
    "kana": "エルルノホームヘルパー",
    "address": "鳥取県米子市両三柳206-1",
    "lat": 35.4483230515023,
    "lng": 133.327061959139,
    "tel": "0859-21-5010",
    "url": "http://elfith.com/",
    "pref": "鳥取県",
    "city": "米子市",
    "category": "home_help",
    "serviceType": "訪問介護",
    "capacity": 0,
    "openDays": [
      "平日",
      "土曜日",
      "日曜日",
      "祝日"
    ],
    "openDaysNote": "上記の曜日・時間帯以外でも、ご要望があれば相談に応じて適宜サービスを提供致します。"
  },
  {
    "id": "3170200020",
    "name": "ケアサービス米子訪問介護事業所",
    "kana": "ケアサービスヨナゴホウモンカイゴジギョウショ",
    "address": "鳥取県米子市両三柳２６７",
    "lat": 35.4478918,
    "lng": 133.3235471,
    "tel": "0859-22-3332",
    "url": "http://www.careservice-yonago.ecnet.jp/",
    "pref": "鳥取県",
    "city": "米子市",
    "category": "home_help",
    "serviceType": "訪問介護",
    "capacity": 0,
    "openDays": [
      "平日",
      "土曜日",
      "日曜日",
      "祝日"
    ],
    "openDaysNote": "上記以外でも利用者様の状態により対応しています"
  },
  {
    "id": "3170202315",
    "name": "ケアステーションつつじ",
    "kana": "ケアステーションツツジ",
    "address": "鳥取県米子市米原６丁目９番２３号米子ヘルスケアつつじ 米子ヘルスケアつつじ",
    "lat": 35.4446396,
    "lng": 133.3347105,
    "tel": "０８５９－３７－５２２０",
    "url": "http://www.nissyoukai.com/",
    "pref": "鳥取県",
    "city": "米子市",
    "category": "home_help",
    "serviceType": "訪問介護",
    "capacity": 24,
    "openDays": [
      "平日",
      "土曜日",
      "日曜日",
      "祝日"
    ],
    "openDaysNote": "必要なサービスである場合は、365日　24時間対応致します"
  },
  {
    "id": "3170203289",
    "name": "けあビジョンホーム米子上後藤",
    "kana": "ケアビジョンホームヨナゴカミゴトウ",
    "address": "鳥取県米子市上後藤５丁目7-15",
    "lat": 35.4463885,
    "lng": 133.3159218,
    "tel": "0859-26-1000",
    "url": "",
    "pref": "鳥取県",
    "city": "米子市",
    "category": "home_help",
    "serviceType": "訪問介護",
    "capacity": null,
    "openDays": [
      "平日",
      "土曜日",
      "日曜日",
      "祝日"
    ],
    "openDaysNote": ""
  },
  {
    "id": "3170202901",
    "name": "こころね訪問介護ステーション観音寺新町",
    "kana": "ココロネホウモンカイゴステーションカンノンジシンマチ",
    "address": "鳥取県米子市観音寺新町4-6-20シニアステージ観音寺新町 シニアステージ観音寺新町",
    "lat": 35.4241699,
    "lng": 133.360992,
    "tel": "0859-36-8115",
    "url": "",
    "pref": "鳥取県",
    "city": "米子市",
    "category": "home_help",
    "serviceType": "訪問介護",
    "capacity": 0,
    "openDays": [
      "平日",
      "土曜日"
    ],
    "openDaysNote": "営業時間外のサービス提供については必要に応じてサービス提供を行う"
  },
  {
    "id": "3170203016",
    "name": "こころね訪問介護ステーション錦町",
    "kana": "ココロネホウモンカイゴステーションニシキマチ",
    "address": "米原1丁目1-1シニアステージ錦町 シニアステージ錦町",
    "lat": 35.4402568,
    "lng": 133.3299186,
    "tel": "0859-21-3787",
    "url": "",
    "pref": "鳥取県",
    "city": "米子市",
    "category": "home_help",
    "serviceType": "訪問介護",
    "capacity": null,
    "openDays": [
      "平日"
    ],
    "openDaysNote": "営業時間外のサービス提供については必要に応じてサービス提供を行う"
  },
  {
    "id": "3170203230",
    "name": "こころね訪問介護ステーション西福原",
    "kana": "ココロネホウモンカイゴステーションニシフクバラ",
    "address": "鳥取県米子市西福原5丁目５番33号",
    "lat": 35.4469724,
    "lng": 133.3392728,
    "tel": "0859-21-2025",
    "url": "",
    "pref": "鳥取県",
    "city": "米子市",
    "category": "home_help",
    "serviceType": "訪問介護",
    "capacity": 0,
    "openDays": [
      "平日",
      "土曜日"
    ],
    "openDaysNote": "営業時間外のサービス提供については必要に応じてサービス提供を行う。"
  },
  {
    "id": "3170203065",
    "name": "こころね訪問介護ステーション東福原",
    "kana": "ココロネホウモンカイゴステーションヒガシフクバラ",
    "address": "鳥取県米子市東福原3-9-1シニアステージ東福原 シニアステージ東福原",
    "lat": 35.4421744,
    "lng": 133.3460045,
    "tel": "0859-30-2602",
    "url": "",
    "pref": "鳥取県",
    "city": "米子市",
    "category": "home_help",
    "serviceType": "訪問介護",
    "capacity": null,
    "openDays": [
      "平日",
      "土曜日",
      "日曜日",
      "祝日"
    ],
    "openDaysNote": "営業時間外のサービス提供については必要に応じてサービス提供を行う。夜間対応で24時間体制。"
  },
  {
    "id": "3170203222",
    "name": "こころね訪問介護ステーション米原",
    "kana": "ココロネホウモンカイゴステーションヨネハラ",
    "address": "鳥取県米子市米原7丁目2-9シニアステージ米原 シニアステージ米原",
    "lat": 35.4450322791349,
    "lng": 133.330837308073,
    "tel": "0859-30-3363",
    "url": "",
    "pref": "鳥取県",
    "city": "米子市",
    "category": "home_help",
    "serviceType": "訪問介護",
    "capacity": 0,
    "openDays": [
      "平日",
      "土曜日"
    ],
    "openDaysNote": "営業時間外のサービス提供については必要に応じてサービス提供を行う"
  },
  {
    "id": "3170203149",
    "name": "ニチイケアセンターながえ",
    "kana": "ニチイケアセンターナガエ",
    "address": "鳥取県米子市永江560番地セゾン青山203号室 セゾン青山203号室",
    "lat": 35.3961975,
    "lng": 133.3693792,
    "tel": "0859-26-0720",
    "url": "",
    "pref": "鳥取県",
    "city": "米子市",
    "category": "home_help",
    "serviceType": "訪問介護",
    "capacity": 0,
    "openDays": [
      "平日",
      "土曜日",
      "日曜日",
      "祝日"
    ],
    "openDaysNote": "居宅介護計画により、休業日及び営業時間外であってもサービスを提供する場合があります。"
  },
  {
    "id": "3170203057",
    "name": "ニチイケアセンターみのかや",
    "kana": "ニチイケアセンターミノカヤ",
    "address": "二本木1124-1",
    "lat": 35.4415957,
    "lng": 133.3894275,
    "tel": "0859-37-1677",
    "url": "",
    "pref": "鳥取県",
    "city": "米子市",
    "category": "home_help",
    "serviceType": "訪問介護",
    "capacity": 0,
    "openDays": [
      "平日",
      "土曜日",
      "日曜日",
      "祝日"
    ],
    "openDaysNote": "居宅介護計画により、休業日及び営業時間外であってもサービスを提供する場合があります。"
  },
  {
    "id": "3170200269",
    "name": "ニチイケアセンター米子",
    "kana": "ニチイケアセンターヨナゴ",
    "address": "鳥取県米子市加茂町2-113　加茂町ビル2F",
    "lat": 35.4272063,
    "lng": 133.3309371,
    "tel": "0859-37-6235",
    "url": "",
    "pref": "鳥取県",
    "city": "米子市",
    "category": "home_help",
    "serviceType": "訪問介護",
    "capacity": 0,
    "openDays": [
      "平日",
      "土曜日",
      "日曜日",
      "祝日"
    ],
    "openDaysNote": "居宅介護計画により、休業日及び営業時間外であってもサービスを提供する場合があります。"
  },
  {
    "id": "3170201259",
    "name": "ニチイケアセンター米子東",
    "kana": "ニチイケアセンターヨナゴヒガシ",
    "address": "鳥取県米子市上福原3丁目8番1号あさひビル1Ｆ　Ｃ事務所 あさひビル1Ｆ　Ｃ事務所",
    "lat": 35.4398851,
    "lng": 133.3536484,
    "tel": "0859-37-5113",
    "url": "",
    "pref": "鳥取県",
    "city": "米子市",
    "category": "home_help",
    "serviceType": "訪問介護",
    "capacity": 0,
    "openDays": [
      "平日",
      "土曜日",
      "日曜日",
      "祝日"
    ],
    "openDaysNote": "居宅介護計画により、休業日及び営業時間外であってもサービスを提供する場合があります。"
  },
  {
    "id": "3170203040",
    "name": "ニチイケアセンター両三柳",
    "kana": "ニチイケアセンターリョウミツヤナギ",
    "address": "鳥取県米子市両三柳323-1大共ビル2Ｆ 大共ビル2Ｆ",
    "lat": 35.4495969,
    "lng": 133.3225434,
    "tel": "0859-24-9178",
    "url": "",
    "pref": "鳥取県",
    "city": "米子市",
    "category": "home_help",
    "serviceType": "訪問介護",
    "capacity": 0,
    "openDays": [
      "平日",
      "土曜日",
      "日曜日",
      "祝日"
    ],
    "openDaysNote": "居宅介護計画により、休業日及び営業時間外であってもサービスを提供する場合があります。"
  },
  {
    "id": "3170202802",
    "name": "ハピネヘルパーステーションハッピー米子",
    "kana": "ハピネヘルパーステーションハッピーヨナゴ",
    "address": "鳥取県米子市米原7-2-18",
    "lat": 35.4455702372144,
    "lng": 133.330051150147,
    "tel": "0859-23-1190",
    "url": "",
    "pref": "鳥取県",
    "city": "米子市",
    "category": "home_help",
    "serviceType": "訪問介護",
    "capacity": 0,
    "openDays": [
      "平日",
      "土曜日",
      "祝日"
    ],
    "openDaysNote": ""
  },
  {
    "id": "3170203115",
    "name": "ヘルパーステーション　ウィズ",
    "kana": "ヘルパーステーション　ウィズ",
    "address": "西福原5丁目1-25ディアスB103 ディアスB103",
    "lat": 35.4451765,
    "lng": 133.3419317,
    "tel": "0859-21-5717",
    "url": "",
    "pref": "鳥取県",
    "city": "米子市",
    "category": "home_help",
    "serviceType": "訪問介護",
    "capacity": null,
    "openDays": [
      "平日",
      "土曜日",
      "日曜日",
      "祝日"
    ],
    "openDaysNote": ""
  },
  {
    "id": "3170202661",
    "name": "ヘルパーステーションおおたか",
    "kana": "ヘルパーステーションオオタカ",
    "address": "鳥取県米子市尾高1812メディケアコートにじの里おおたか メディケアコートにじの里おおたか",
    "lat": 35.4241290177143,
    "lng": 133.406633432372,
    "tel": "0859-21-0041",
    "url": "http://www.ymc-net.or.jp",
    "pref": "鳥取県",
    "city": "米子市",
    "category": "home_help",
    "serviceType": "訪問介護",
    "capacity": 0,
    "openDays": [
      "平日",
      "土曜日",
      "日曜日",
      "祝日"
    ],
    "openDaysNote": "利用者の希望に応じて、サービスの提供については24時間対応可能な体制を整えるものとします。"
  },
  {
    "id": "3170202760",
    "name": "ヘルパーステーションオルカ",
    "kana": "ヘルパーステーションオルカ",
    "address": "鳥取県米子市熊党181-2",
    "lat": 35.4289240311345,
    "lng": 133.377074247607,
    "tel": "0859-21-8552",
    "url": "www.loh.co.jp",
    "pref": "鳥取県",
    "city": "米子市",
    "category": "home_help",
    "serviceType": "訪問介護",
    "capacity": 0,
    "openDays": [
      "平日",
      "土曜日",
      "祝日"
    ],
    "openDaysNote": ""
  },
  {
    "id": "3170203099",
    "name": "ヘルパーステーションつなぐ手",
    "kana": "ヘルパーステーションツナグテ",
    "address": "米子市西福原8丁目6-39",
    "lat": 35.4525381,
    "lng": 133.3398951,
    "tel": "0859-59-9155",
    "url": "www.tunagu-te.jp",
    "pref": "鳥取県",
    "city": "米子市",
    "category": "home_help",
    "serviceType": "訪問介護",
    "capacity": null,
    "openDays": [
      "平日",
      "土曜日",
      "日曜日",
      "祝日"
    ],
    "openDaysNote": ""
  },
  {
    "id": "3170200350",
    "name": "ヘルパーステーションまちくら",
    "kana": "ヘルパーステーションマチクラ",
    "address": "鳥取県米子市西倉吉町83番地3",
    "lat": 35.4304448059738,
    "lng": 133.329689586403,
    "tel": "0859-35-5649",
    "url": "http://www.machikura.com",
    "pref": "鳥取県",
    "city": "米子市",
    "category": "home_help",
    "serviceType": "訪問介護",
    "capacity": 0,
    "openDays": [
      "平日",
      "土曜日",
      "祝日"
    ],
    "openDaysNote": "営業日、営業時間以外の利用も相談に応じる"
  },
  {
    "id": "3170202943",
    "name": "ヘルパーステーションまちなか",
    "kana": "ヘルパーステーションマチナカ",
    "address": "鳥取県米子市紺屋町31-3サービス付き高齢者向け住宅まちなか サービス付き高齢者向け住宅まちなか",
    "lat": 35.4282468,
    "lng": 133.3333695,
    "tel": "0859-30-4111",
    "url": "http://yonago-matinaka.net/index.php?view=4985",
    "pref": "鳥取県",
    "city": "米子市",
    "category": "home_help",
    "serviceType": "訪問介護",
    "capacity": 0,
    "openDays": [
      "平日",
      "土曜日",
      "日曜日",
      "祝日"
    ],
    "openDaysNote": "その他、要相談。（改行）早朝、夜間加算として、午前６時～８時、午後６時～１０時に行った場合、所定単位の２５％を加算します。（改行）深夜加算として、午後１０時～翌朝の午前６時までに行った場合は、所定単位数の５０％を加算します。"
  },
  {
    "id": "3170202778",
    "name": "ヘルパーステーションよつば",
    "kana": "ヘルパーステーションヨツバ",
    "address": "鳥取県米子市上福原5丁目1番16号",
    "lat": 35.447551,
    "lng": 133.3512486,
    "tel": "0859－21－4281",
    "url": "",
    "pref": "鳥取県",
    "city": "米子市",
    "category": "home_help",
    "serviceType": "訪問介護",
    "capacity": 40,
    "openDays": [
      "平日",
      "土曜日",
      "祝日"
    ],
    "openDaysNote": "日曜日、8月13日から15日、12月31日から1月3日（改行）時間外の支援は応相談。"
  },
  {
    "id": "3170202927",
    "name": "ヘルパーステーションりんどうの郷",
    "kana": "ヘルパーステーションリンドウノサト",
    "address": "鳥取県米子市灘町1丁目102番地",
    "lat": 35.433406911706,
    "lng": 133.322356303705,
    "tel": "0859-57-8529",
    "url": "http//www.rindounosato.com",
    "pref": "鳥取県",
    "city": "米子市",
    "category": "home_help",
    "serviceType": "訪問介護",
    "capacity": 30,
    "openDays": [
      "平日",
      "土曜日",
      "日曜日",
      "祝日"
    ],
    "openDaysNote": "電話等により、常時連絡・対応が可能な体制を取っています。"
  },
  {
    "id": "3170200335",
    "name": "ヘルパーステーション博愛",
    "kana": "ヘルパーステーションハクアイ",
    "address": "鳥取県米子市両三柳1880",
    "lat": 35.4553949,
    "lng": 133.3192799,
    "tel": "0859-29-2322",
    "url": "https://hakuai.doaikai.jp",
    "pref": "鳥取県",
    "city": "米子市",
    "category": "home_help",
    "serviceType": "訪問介護",
    "capacity": 85,
    "openDays": [
      "平日",
      "土曜日",
      "日曜日",
      "祝日"
    ],
    "openDaysNote": "営業時間外のサービスについては要相談。（改行）（ご利用者のご希望に添うよう相談させて頂きます）"
  },
  {
    "id": "3170400059",
    "name": "ホームヘルパー孫の手",
    "kana": "ホームヘルパーマゴノテ",
    "address": "鳥取県米子市両三柳825あらかると孫の手２F あらかると孫の手２F",
    "lat": 35.4521664,
    "lng": 133.3164754,
    "tel": "0859-30-0777",
    "url": "http://www.t-a-d.jp/",
    "pref": "鳥取県",
    "city": "米子市",
    "category": "home_help",
    "serviceType": "訪問介護",
    "capacity": 0,
    "openDays": [
      "平日",
      "土曜日",
      "日曜日",
      "祝日"
    ],
    "openDaysNote": "緊急時の電話応対が可能です。（改行）サービス提供に関して、365日対応可能です。"
  },
  {
    "id": "3170202711",
    "name": "メディカルヘルパーステーション",
    "kana": "メディカルヘルパーステーション",
    "address": "上後藤2丁目6-14",
    "lat": 35.445172899612,
    "lng": 133.320818412241,
    "tel": "0859-30-4856",
    "url": "http://my-nurse.jp/",
    "pref": "鳥取県",
    "city": "米子市",
    "category": "home_help",
    "serviceType": "訪問介護",
    "capacity": 0,
    "openDays": [
      "平日"
    ],
    "openDaysNote": "サービス提供時間以外の時間帯も調整いたします。お気軽にご相談下さい。"
  },
  {
    "id": "3170201754",
    "name": "ライブアシスト訪問介護事業所",
    "kana": "ライブアシストホウモンカイゴジギョウショ",
    "address": "鳥取県米子市長砂町300-3",
    "lat": 35.4226546500315,
    "lng": 133.352838507007,
    "tel": "0859-30-3337",
    "url": "http://y-liveassist.com",
    "pref": "鳥取県",
    "city": "米子市",
    "category": "home_help",
    "serviceType": "訪問介護",
    "capacity": 100,
    "openDays": [
      "平日",
      "土曜日",
      "日曜日",
      "祝日"
    ],
    "openDaysNote": "管理者が必要と判断したときはその限りではない。"
  },
  {
    "id": "3170203180",
    "name": "株式会社smileあーさ訪問介護事業所",
    "kana": "カブシキガイシャスマイルアーサホウモンカイゴジギョウショ",
    "address": "鳥取県米子市福市932",
    "lat": 35.4070509,
    "lng": 133.3642905,
    "tel": "0859-30-2445",
    "url": "http://hp.kaipoke.biz/4x9/",
    "pref": "鳥取県",
    "city": "米子市",
    "category": "home_help",
    "serviceType": "訪問介護",
    "capacity": 0,
    "openDays": [
      "平日",
      "土曜日",
      "日曜日",
      "祝日"
    ],
    "openDaysNote": "現在の時間は現利用者のニーズに合わせたもので深夜帯の対応等はその限りではない。"
  },
  {
    "id": "3170202281",
    "name": "訪問介護ステーション　ガーデンハウスよどえ",
    "kana": "ホウモンカイゴステーション　ガーデンハウスヨドエ",
    "address": "鳥取県米子市淀江町佐陀1423",
    "lat": 35.4519341,
    "lng": 133.3938119,
    "tel": "0859-56-5210",
    "url": "https://www.med-wel.jp/gardenyodoe/",
    "pref": "鳥取県",
    "city": "米子市",
    "category": "home_help",
    "serviceType": "訪問介護",
    "capacity": 0,
    "openDays": [
      "平日",
      "土曜日",
      "日曜日",
      "祝日"
    ],
    "openDaysNote": ""
  },
  {
    "id": "3170200319",
    "name": "訪問介護ゆめ",
    "kana": "ホウモンカイゴユメ",
    "address": "鳥取県米子市角盤町1丁目14",
    "lat": 35.4307382,
    "lng": 133.3349304,
    "tel": "0859-31-5173",
    "url": "",
    "pref": "鳥取県",
    "city": "米子市",
    "category": "home_help",
    "serviceType": "訪問介護",
    "capacity": 0,
    "openDays": [
      "平日",
      "土曜日",
      "日曜日",
      "祝日"
    ],
    "openDaysNote": "その他の時間は応相談。"
  },
  {
    "id": "3170200459",
    "name": "訪問介護弓浜真誠会",
    "kana": "ホウモンカイゴキュウヒンシンセイカイ",
    "address": "鳥取県米子市河崎555－2",
    "lat": 35.4570187,
    "lng": 133.3110285,
    "tel": "0859-48-2336",
    "url": "http://www.hospitown.or.jp/",
    "pref": "鳥取県",
    "city": "米子市",
    "category": "home_help",
    "serviceType": "訪問介護",
    "capacity": 0,
    "openDays": [
      "平日",
      "土曜日",
      "日曜日",
      "祝日"
    ],
    "openDaysNote": ""
  },
  {
    "id": "3150280174",
    "name": "訪問介護事業所なんぶ幸朋苑",
    "kana": "ホウモンカイゴジギョウショナンブコウホウエン",
    "address": "鳥取県米子市石井1238",
    "lat": 35.4022552,
    "lng": 133.3514525,
    "tel": "0859-26-5588",
    "url": "http//www.kohoen.jp",
    "pref": "鳥取県",
    "city": "米子市",
    "category": "home_help",
    "serviceType": "訪問介護",
    "capacity": 1,
    "openDays": [
      "平日",
      "土曜日",
      "日曜日",
      "祝日"
    ],
    "openDaysNote": "３６５日　　対応可能　　（時間は相談に応じ随時対応）"
  },
  {
    "id": "3170200012",
    "name": "訪問介護事業所よなご幸朋苑",
    "kana": "ホウモンカイゴジギョウショ　ヨナゴコウホウエン",
    "address": "鳥取県米子市両三柳１４００アザレアコートこうほうえん アザレアコートこうほうえん",
    "lat": 35.4499502458914,
    "lng": 133.316172649985,
    "tel": "0859-24-3110",
    "url": "http://www.kohoen.jp",
    "pref": "鳥取県",
    "city": "米子市",
    "category": "home_help",
    "serviceType": "訪問介護",
    "capacity": 0,
    "openDays": [
      "平日",
      "土曜日",
      "日曜日",
      "祝日"
    ],
    "openDaysNote": "365日対応（時間等は相談に応じます）"
  },
  {
    "id": "3170202133",
    "name": "訪問介護仁風荘こうやまち",
    "kana": "ホウモンカイゴジンプウソウコウヤマチ",
    "address": "鳥取県米子市紺屋町104-2",
    "lat": 35.4289134,
    "lng": 133.3346111,
    "tel": "0859-38-1765",
    "url": "http://www.yowakai.com/",
    "pref": "鳥取県",
    "city": "米子市",
    "category": "home_help",
    "serviceType": "訪問介護",
    "capacity": 0,
    "openDays": [
      "平日"
    ],
    "openDaysNote": "サービス提供は３６５日相談にて対応可能です。"
  },
  {
    "id": "3170203305",
    "name": "訪問介護長砂のかぜ",
    "kana": "ホウモンカイゴナガスナノカゼ",
    "address": "鳥取県米子市長砂町875番地",
    "lat": 35.4207104,
    "lng": 133.3522357,
    "tel": "0859-33-7005",
    "url": "https://tsuduri.jp",
    "pref": "鳥取県",
    "city": "米子市",
    "category": "home_help",
    "serviceType": "訪問介護",
    "capacity": null,
    "openDays": [
      "平日"
    ],
    "openDaysNote": ""
  },
  {
    "id": "3170200087",
    "name": "有限会社　新生ケア・サービス　訪問介護事業所",
    "kana": "ユウゲンガイシャ　シンセイケア・サービス　ホウモンカイゴジギョウショ",
    "address": "鳥取県米子市熊党200-1",
    "lat": 35.4291973,
    "lng": 133.3758,
    "tel": "0859-27-1439",
    "url": "https://www.shinsei-care-service.com/",
    "pref": "鳥取県",
    "city": "米子市",
    "category": "home_help",
    "serviceType": "訪問介護",
    "capacity": 0,
    "openDays": [
      "平日",
      "土曜日",
      "日曜日",
      "祝日"
    ],
    "openDaysNote": "上記を利用時間として設定しているが、相談内容に合わせて利用時間の変更は随時対応"
  },
  {
    "id": "3171400520",
    "name": "ニチイケアセンター大栄",
    "kana": "ニチイケアセンターダイエイ",
    "address": "鳥取県東伯郡北栄町西園506-1",
    "lat": 35.4888385,
    "lng": 133.7658017,
    "tel": "0858-37-6100",
    "url": "http://www.nichiigakkan.co.jp",
    "pref": "鳥取県",
    "city": "北栄町",
    "category": "home_help",
    "serviceType": "訪問介護",
    "capacity": 0,
    "openDays": [
      "平日"
    ],
    "openDaysNote": "但し、居宅サービス計画により、休業日および営業時間外であってもサービスを提供する場合があります。"
  },
  {
    "id": "3171400488",
    "name": "株式会社べるびゅー大栄",
    "kana": "カブシキガイシャベルビューダイエイ",
    "address": "鳥取県東伯郡北栄町六尾２００５",
    "lat": 35.4809842049722,
    "lng": 133.760806922754,
    "tel": "080-8249-9559",
    "url": "",
    "pref": "鳥取県",
    "city": "北栄町",
    "category": "home_help",
    "serviceType": "訪問介護",
    "capacity": 0,
    "openDays": [
      "平日",
      "土曜日",
      "日曜日",
      "祝日"
    ],
    "openDaysNote": "２４時間電話連絡可能"
  }
]