[
  {
    "id": "4670500265",
    "name": "市来ヘルパーステーション",
    "kana": "イチキヘルパーステーション",
    "address": "鹿児島県いちき串木野市湊町1丁目102番地老人福祉センター1階 老人福祉センター1階",
    "lat": 31.692503832897,
    "lng": 130.289573006082,
    "tel": "0996-36-2866",
    "url": "",
    "pref": "鹿児島県",
    "city": "いちき串木野市",
    "category": "home_help",
    "serviceType": "訪問介護",
    "capacity": null,
    "openDays": [
      "平日",
      "土曜日",
      "日曜日",
      "祝日"
    ],
    "openDaysNote": ""
  },
  {
    "id": "4673900041",
    "name": "ＪＡ北さつま訪問介護",
    "kana": "ジェイエイキタサツマホウモンカイゴ",
    "address": "鹿児島県薩摩郡さつま町田原189-1ＪＡ北さつま田原の郷 ＪＡ北さつま田原の郷",
    "lat": 31.9192325085774,
    "lng": 130.484404129518,
    "tel": "０９９６－５３－３９１４",
    "url": "",
    "pref": "鹿児島県",
    "city": "さつま町",
    "category": "home_help",
    "serviceType": "訪問介護",
    "capacity": 0,
    "openDays": [
      "平日",
      "土曜日",
      "日曜日",
      "祝日"
    ],
    "openDaysNote": "上記時間帯以外で行う場合は、別途相談に応じます。但し、時間帯によっては介護保険の範囲内で割増料金が生じます。"
  },
  {
    "id": "4674000080",
    "name": "アルテンハイム鶴宮園ヘルプサービスステーション",
    "kana": "アルテンハイムツルミヤエンヘルプサービスステーション",
    "address": "鹿児島県薩摩郡さつま町紫尾4088-1",
    "lat": 31.9508318,
    "lng": 130.4356059,
    "tel": "0996-59-8004",
    "url": "http://tsurumiyaen.jp/",
    "pref": "鹿児島県",
    "city": "さつま町",
    "category": "home_help",
    "serviceType": "訪問介護",
    "capacity": 0,
    "openDays": [
      "平日",
      "土曜日",
      "日曜日",
      "祝日"
    ],
    "openDaysNote": ""
  },
  {
    "id": "4673900124",
    "name": "さつま町訪問介護事業所",
    "kana": "サツマチョウホウモンカイゴジギョウショ",
    "address": "鹿児島県薩摩郡さつま町宮之城屋地2117番地1",
    "lat": 31.9065426,
    "lng": 130.4586789,
    "tel": "0996-21-3603",
    "url": "http:/www.shakyo.or.ij/hp/index.php?s=1751",
    "pref": "鹿児島県",
    "city": "さつま町",
    "category": "home_help",
    "serviceType": "訪問介護",
    "capacity": 40,
    "openDays": [
      "平日",
      "土曜日",
      "日曜日",
      "祝日"
    ],
    "openDaysNote": "その他、必要な場合、色々なニーズの対応・相談に応じます。"
  },
  {
    "id": "4673900264",
    "name": "訪問介護クオラＵ",
    "kana": "ホウモンカイゴクオラユウ",
    "address": "鹿児島県薩摩郡さつま町船木2315番地1",
    "lat": 31.8739155,
    "lng": 130.4403263,
    "tel": "0996-52-1211",
    "url": "",
    "pref": "鹿児島県",
    "city": "さつま町",
    "category": "home_help",
    "serviceType": "訪問介護",
    "capacity": 0,
    "openDays": [
      "平日",
      "土曜日",
      "日曜日",
      "祝日"
    ],
    "openDaysNote": ""
  },
  {
    "id": "4670600420",
    "name": "ニチイケアセンター阿久根",
    "kana": "ニチイケアセンターアクネ",
    "address": "鹿児島県阿久根市鶴見町201林ビル1F2号 林ビル1F2号",
    "lat": 32.0138319,
    "lng": 130.1933464,
    "tel": "0996-72-5009",
    "url": "http://www.nichiigakkan.co.jp",
    "pref": "鹿児島県",
    "city": "阿久根市",
    "category": "home_help",
    "serviceType": "訪問介護",
    "capacity": 0,
    "openDays": [
      "平日",
      "土曜日",
      "日曜日",
      "祝日"
    ],
    "openDaysNote": "但し、居宅サービス計画により、休業日及び営業時間外であっても、サービスの提供を行う場合がある。"
  },
  {
    "id": "4670600107",
    "name": "ヘルパーステーションうきぐも阿久根",
    "kana": "ヘルパーステーションウキグモアクネ",
    "address": "大丸町１４８番地１－２階",
    "lat": 32.0153803828588,
    "lng": 130.197891291552,
    "tel": "0996-72-7466",
    "url": "",
    "pref": "鹿児島県",
    "city": "阿久根市",
    "category": "home_help",
    "serviceType": "訪問介護",
    "capacity": 0,
    "openDays": [
      "平日",
      "土曜日",
      "日曜日",
      "祝日"
    ],
    "openDaysNote": ""
  },
  {
    "id": "4670600073",
    "name": "阿久根市社会福祉協議会",
    "kana": "アクネシシャカイフクシキョウギカイ",
    "address": "鹿児島県阿久根市鶴見町167番地",
    "lat": 32.0131364,
    "lng": 130.1949233,
    "tel": "0996-79-3884",
    "url": "http://www.akuneshakyo.or.jp/",
    "pref": "鹿児島県",
    "city": "阿久根市",
    "category": "home_help",
    "serviceType": "訪問介護",
    "capacity": 7,
    "openDays": [
      "平日",
      "土曜日",
      "日曜日",
      "祝日"
    ],
    "openDaysNote": ""
  },
  {
    "id": "4670600412",
    "name": "訪問介護事業所　ひまわり",
    "kana": "ホウモンカイゴジギョウショ　ヒマワリ",
    "address": "鹿児島県阿久根市西目5657-10",
    "lat": 31.997799,
    "lng": 130.1949809,
    "tel": "0996-68-1106",
    "url": "",
    "pref": "鹿児島県",
    "city": "阿久根市",
    "category": "home_help",
    "serviceType": "訪問介護",
    "capacity": 0,
    "openDays": [
      "平日",
      "土曜日",
      "日曜日",
      "祝日"
    ],
    "openDaysNote": "24時間対応"
  },
  {
    "id": "4674500261",
    "name": "あいあい訪問介護事業所",
    "kana": "アイアイホウモンカイゴジギョウショ",
    "address": "鹿児島県姶良市東餅田1503-4",
    "lat": 31.7295827834513,
    "lng": 130.635367758197,
    "tel": "0995-73-4130",
    "url": "",
    "pref": "鹿児島県",
    "city": "姶良市",
    "category": "home_help",
    "serviceType": "訪問介護",
    "capacity": 0,
    "openDays": [
      "平日"
    ],
    "openDaysNote": "曜日・時間等この限りではありません。"
  },
  {
    "id": "4675300398",
    "name": "たけうちクリニック",
    "kana": "タケウチクリニック",
    "address": "鹿児島県姶良市西餅田140",
    "lat": 31.7356721,
    "lng": 130.6289238,
    "tel": "0995-64-5550",
    "url": "http://www.kagoshima-med.jp/takeuchi-c",
    "pref": "鹿児島県",
    "city": "姶良市",
    "category": "home_help",
    "serviceType": "訪問介護",
    "capacity": 0,
    "openDays": [
      "平日",
      "土曜日",
      "祝日"
    ],
    "openDaysNote": ""
  },
  {
    "id": "4674500832",
    "name": "チームヘルパーやすらぎの里",
    "kana": "チームヘルパーヤスラギノサト",
    "address": "鹿児島県姶良市下名2992番地",
    "lat": 31.7676758,
    "lng": 130.6190958,
    "tel": "0995-65-1641",
    "url": "https://www.aira-yasuragi.com/service/team-helper/",
    "pref": "鹿児島県",
    "city": "姶良市",
    "category": "home_help",
    "serviceType": "訪問介護",
    "capacity": null,
    "openDays": [
      "平日",
      "土曜日",
      "日曜日",
      "祝日"
    ],
    "openDaysNote": ""
  },
  {
    "id": "4674500485",
    "name": "はなみずきヘルパーステーション　福洋",
    "kana": "ハナミズキヘルパーステーション　フクヨウ",
    "address": "鹿児島県姶良市加治木町木田4196",
    "lat": 31.7310276,
    "lng": 130.6465423,
    "tel": "0995-73-7230",
    "url": "",
    "pref": "鹿児島県",
    "city": "姶良市",
    "category": "home_help",
    "serviceType": "訪問介護",
    "capacity": 30,
    "openDays": [
      "平日",
      "土曜日",
      "日曜日",
      "祝日"
    ],
    "openDaysNote": ""
  },
  {
    "id": "4671200576",
    "name": "ふくしサービスセンター　はっぴい",
    "kana": "フクシサービスセンター　ハッピイ",
    "address": "鹿児島県姶良市加治木町反土2156-1",
    "lat": 31.7465294291594,
    "lng": 130.664883041075,
    "tel": "０９９５－７３－３７４１",
    "url": "http://www.fukushi-greencoop.or.jp/",
    "pref": "鹿児島県",
    "city": "姶良市",
    "category": "home_help",
    "serviceType": "訪問介護",
    "capacity": 0,
    "openDays": [
      "平日",
      "土曜日",
      "日曜日",
      "祝日"
    ],
    "openDaysNote": "２４時間・３６５日対応"
  },
  {
    "id": "4674501087",
    "name": "ヘルパーステーションGENKI",
    "kana": "ヘルパーステーションゲンキ",
    "address": "鹿児島県姶良市東餅田531番地",
    "lat": 31.7327940906555,
    "lng": 130.635095084656,
    "tel": "0995-73-5888",
    "url": "https://genkinowa.net/wp/",
    "pref": "鹿児島県",
    "city": "姶良市",
    "category": "home_help",
    "serviceType": "訪問介護",
    "capacity": null,
    "openDays": [
      "平日"
    ],
    "openDaysNote": ""
  },
  {
    "id": "4652880065",
    "name": "ろうけん姶良",
    "kana": "ロウケンアイラ",
    "address": "姶良市平松5062番地",
    "lat": 31.7124431,
    "lng": 130.5974167,
    "tel": "0995-67-0285",
    "url": "https://www.daishin-kibou.com/",
    "pref": "鹿児島県",
    "city": "姶良市",
    "category": "home_help",
    "serviceType": "訪問介護",
    "capacity": 0,
    "openDays": [
      "平日",
      "土曜日",
      "日曜日",
      "祝日"
    ],
    "openDaysNote": "24時間、365日訪問可能"
  },
  {
    "id": "4674500071",
    "name": "姶良市社協訪問介護事業所",
    "kana": "アイラシシャキョウホウモンカイゴジギョウショ",
    "address": "姶良市加治木町本町393番地加治木福祉センター内 加治木福祉センター内",
    "lat": 31.7393019,
    "lng": 130.6665772,
    "tel": "0995-73-6821",
    "url": "",
    "pref": "鹿児島県",
    "city": "姶良市",
    "category": "home_help",
    "serviceType": "訪問介護",
    "capacity": 0,
    "openDays": [
      "平日",
      "土曜日",
      "日曜日",
      "祝日"
    ],
    "openDaysNote": ""
  },
  {
    "id": "4675200069",
    "name": "加治木望岳園訪問介護事業所",
    "kana": "カジキボウガクエンホウモンカイゴジギョウショ",
    "address": "鹿児島県姶良市加治木町木田４７８６",
    "lat": 31.7556738563302,
    "lng": 130.662747228889,
    "tel": "0995-62-8166",
    "url": "http://houmon.bougakuen.jp/",
    "pref": "鹿児島県",
    "city": "姶良市",
    "category": "home_help",
    "serviceType": "訪問介護",
    "capacity": 80,
    "openDays": [],
    "openDaysNote": ""
  },
  {
    "id": "4674500923",
    "name": "株式会社姶済会",
    "kana": "カブシキガイシャアイセイカイ",
    "address": "鹿児島県姶良市東餅田1760番地NFビル102号 NFビル102号",
    "lat": 31.7323778,
    "lng": 130.6352602,
    "tel": "0995-66-0140",
    "url": "https://aiseikai.jp/",
    "pref": "鹿児島県",
    "city": "姶良市",
    "category": "home_help",
    "serviceType": "訪問介護",
    "capacity": 40,
    "openDays": [
      "平日",
      "土曜日",
      "日曜日",
      "祝日"
    ],
    "openDaysNote": "19時〜翌9時迄当直対応可能。"
  },
  {
    "id": "4674500444",
    "name": "信愛訪問介護ステーション",
    "kana": "シンアイホウモンカイゴステーション",
    "address": "鹿児島県姶良市脇元956番地1",
    "lat": 31.7133103,
    "lng": 130.6190592,
    "tel": "（0995）65-2290",
    "url": "https://yoshimitsu-group.com/service_category/shinai/",
    "pref": "鹿児島県",
    "city": "姶良市",
    "category": "home_help",
    "serviceType": "訪問介護",
    "capacity": 0,
    "openDays": [
      "平日",
      "土曜日",
      "日曜日",
      "祝日"
    ],
    "openDaysNote": "なし"
  },
  {
    "id": "4675400065",
    "name": "大楠苑訪問介護事業所",
    "kana": "オオクスエンホウモンカイゴジギョウショ",
    "address": "姶良市蒲生町白男325番地1",
    "lat": 31.7619634,
    "lng": 130.5671203,
    "tel": "0995-52-1487",
    "url": "ookusuen.com",
    "pref": "鹿児島県",
    "city": "姶良市",
    "category": "home_help",
    "serviceType": "訪問介護",
    "capacity": 0,
    "openDays": [
      "平日",
      "土曜日",
      "日曜日",
      "祝日"
    ],
    "openDaysNote": ""
  },
  {
    "id": "4674501038",
    "name": "訪問介護　ライフサポート",
    "kana": "ホウモンカイゴ　ライフサポート",
    "address": "鹿児島県姶良市池島町35-6ハッピーバード201 ハッピーバード201",
    "lat": 31.718883,
    "lng": 130.6109746,
    "tel": "995733601",
    "url": "",
    "pref": "鹿児島県",
    "city": "姶良市",
    "category": "home_help",
    "serviceType": "訪問介護",
    "capacity": null,
    "openDays": [
      "平日",
      "土曜日",
      "日曜日",
      "祝日"
    ],
    "openDaysNote": "サービス提供は月曜日から日曜日までとする。"
  },
  {
    "id": "4674500196",
    "name": "訪問介護・こっこの家",
    "kana": "ホウモンカイゴ・コッコノイエ",
    "address": "脇元629番地の1",
    "lat": 31.7097749080342,
    "lng": 130.616070677853,
    "tel": "0995-66-0166",
    "url": "https://www.kokkonoie.com/",
    "pref": "鹿児島県",
    "city": "姶良市",
    "category": "home_help",
    "serviceType": "訪問介護",
    "capacity": 0,
    "openDays": [
      "平日",
      "土曜日",
      "日曜日",
      "祝日"
    ],
    "openDaysNote": "サービスが提供できる時間　２４時間"
  },
  {
    "id": "4675300117",
    "name": "訪問介護事業所さざんか園",
    "kana": "ホウモンカイゴジギョウショサザンカエン",
    "address": "姶良市船津1700-11",
    "lat": 31.744931192295,
    "lng": 130.604685665393,
    "tel": "0995-67-3718",
    "url": "http://kenshofukushikai.com",
    "pref": "鹿児島県",
    "city": "姶良市",
    "category": "home_help",
    "serviceType": "訪問介護",
    "capacity": 0,
    "openDays": [
      "平日",
      "土曜日",
      "日曜日",
      "祝日"
    ],
    "openDaysNote": "営業時間、営業日以外は電話にて対応を行う。または、訪問介護員の派遣については、年中無休の24時間体制での対応を行う。"
  },
  {
    "id": "4670900093",
    "name": "すずらんの里訪問介護事業所",
    "kana": "スズランノサトホウモンカイゴジギョウショ",
    "address": "大口宮人463番地30",
    "lat": 32.0261551,
    "lng": 130.5747623,
    "tel": "0995-23-0133",
    "url": "http；//www.daiichikai.or.jp",
    "pref": "鹿児島県",
    "city": "伊佐市",
    "category": "home_help",
    "serviceType": "訪問介護",
    "capacity": 0,
    "openDays": [
      "平日",
      "土曜日",
      "日曜日",
      "祝日"
    ],
    "openDaysNote": ""
  },
  {
    "id": "4674400256",
    "name": "ヘルパーステーションあゆみ",
    "kana": "ヘルパーステーションアユミ",
    "address": "鹿児島県伊佐市菱刈前目654-51",
    "lat": 32.0074169,
    "lng": 130.6443871,
    "tel": "0995-28-1313",
    "url": "",
    "pref": "鹿児島県",
    "city": "伊佐市",
    "category": "home_help",
    "serviceType": "訪問介護",
    "capacity": null,
    "openDays": [
      "平日",
      "土曜日",
      "日曜日",
      "祝日"
    ],
    "openDaysNote": "12月31日～1月3日については必要に応じて、時間調整を行い対応する。"
  },
  {
    "id": "4674400280",
    "name": "ヘルパーステーションおうち生活応援団伊佐事業所",
    "kana": "ヘルパーステーションオウチセイカツオウエンダンイサジギョウショ",
    "address": "鹿児島県伊佐市大口里3111-1",
    "lat": 32.0627681,
    "lng": 130.6116962,
    "tel": "080-8580-7765",
    "url": "",
    "pref": "鹿児島県",
    "city": "伊佐市",
    "category": "home_help",
    "serviceType": "訪問介護",
    "capacity": null,
    "openDays": [
      "平日",
      "土曜日",
      "日曜日",
      "祝日"
    ],
    "openDaysNote": "利用者の状況等により、時間帯など柔軟に対応可能"
  },
  {
    "id": "4670900127",
    "name": "ヘルパーステーション秋津",
    "kana": "ヘルパーステーションアキツ",
    "address": "鹿児島県伊佐市大口青木3023番地14",
    "lat": 32.0575841,
    "lng": 130.6332813,
    "tel": "0995-22-6813",
    "url": "http://www.hayahito.com/",
    "pref": "鹿児島県",
    "city": "伊佐市",
    "category": "home_help",
    "serviceType": "訪問介護",
    "capacity": 0,
    "openDays": [
      "平日",
      "土曜日",
      "日曜日",
      "祝日"
    ],
    "openDaysNote": "24時間体制"
  },
  {
    "id": "4675100202",
    "name": "社会福祉法人　伊佐市社会福祉協議会菱刈訪問介護事業所",
    "kana": "シャカイフクシホウジン　イサシシャカイフクシキョウギカイヒシカリホウモンカイゴジギョショ",
    "address": "鹿児島県伊佐市菱刈前目711番地1",
    "lat": 32.0131605,
    "lng": 130.6378047,
    "tel": "0995-29-5277",
    "url": "http://www.shakyo.or.jp/hp/news/index.php?s=1748",
    "pref": "鹿児島県",
    "city": "伊佐市",
    "category": "home_help",
    "serviceType": "訪問介護",
    "capacity": 100,
    "openDays": [
      "平日",
      "土曜日",
      "日曜日",
      "祝日"
    ],
    "openDaysNote": "ヘルパーの従業出来る状況に応じて対応"
  },
  {
    "id": "4674400264",
    "name": "訪問介護ステーション3rdHand",
    "kana": "ホウモンカイゴステーションサードハンド",
    "address": "鹿児島県伊佐市大口針持4231番地",
    "lat": 31.9825748994065,
    "lng": 130.581253770541,
    "tel": "0995−28−8987",
    "url": "",
    "pref": "鹿児島県",
    "city": "伊佐市",
    "category": "home_help",
    "serviceType": "訪問介護",
    "capacity": null,
    "openDays": [
      "平日",
      "土曜日",
      "日曜日",
      "祝日"
    ],
    "openDaysNote": "サービス提供時間、サービス提供日に関してはご相談ください。"
  },
  {
    "id": "4674400272",
    "name": "訪問介護ステーションひなた",
    "kana": "ホウモンカイゴステーションヒナタ",
    "address": "鹿児島県伊佐市大口曽木１０９５番地",
    "lat": 32.0113436616368,
    "lng": 130.60597131649,
    "tel": "080-7855-7936",
    "url": "",
    "pref": "鹿児島県",
    "city": "伊佐市",
    "category": "home_help",
    "serviceType": "訪問介護",
    "capacity": 0,
    "openDays": [
      "平日",
      "土曜日",
      "日曜日",
      "祝日"
    ],
    "openDaysNote": "営業時間・サービス提供時間　午前9時から午後6時までとする。ただし、居宅介護サービス計画により、営業時間及びサービス提供時間外にサービスの提供を行う必要があるとされた場合はこの限りではない。（改行）上記の営業日、営業時間、サービス提供時間のほか、電話等により24時間常時連絡が可能な体制とする。（改行）緊急連絡先　08078557936"
  },
  {
    "id": "4670900101",
    "name": "有限会社ケアワ－クステ－ション原山",
    "kana": "ユウゲンカイシャケアワ-クステ-ションハラヤマ",
    "address": "鹿児島県伊佐市大口大田854番地借家 借家",
    "lat": 32.0677945,
    "lng": 130.6047124,
    "tel": "0995-22-2756",
    "url": "i-harayama@gray.plala.or.jp",
    "pref": "鹿児島県",
    "city": "伊佐市",
    "category": "home_help",
    "serviceType": "訪問介護",
    "capacity": 0,
    "openDays": [
      "平日",
      "土曜日",
      "日曜日",
      "祝日"
    ],
    "openDaysNote": "但し要請があれば何時でも対応致します。"
  },
  {
    "id": "4679300162",
    "name": "ハァティーケア　とくのしま",
    "kana": "ハァティーケア　トクノシマ",
    "address": "鹿児島県大島郡伊仙町阿三2222-3",
    "lat": 27.6954404,
    "lng": 128.9328828,
    "tel": "0997-81-7070",
    "url": "",
    "pref": "鹿児島県",
    "city": "伊仙町",
    "category": "home_help",
    "serviceType": "訪問介護",
    "capacity": 0,
    "openDays": [
      "平日"
    ],
    "openDaysNote": "サービス提供時間は、ケアプランの定める時間帯であれば、いつでも対応するものとする。"
  },
  {
    "id": "4679300030",
    "name": "伊仙町社会福祉協議会訪問介護事業所",
    "kana": "イセンチョウシャカイフクシキョウギカイホウモンカイゴジギョウショ",
    "address": "大島郡伊仙町伊仙２５７１番地",
    "lat": 27.6756777,
    "lng": 128.9362286,
    "tel": "0997-86-4194",
    "url": "isenn@t1.toku-vision.com",
    "pref": "鹿児島県",
    "city": "伊仙町",
    "category": "home_help",
    "serviceType": "訪問介護",
    "capacity": 0,
    "openDays": [
      "平日",
      "土曜日",
      "日曜日",
      "祝日"
    ],
    "openDaysNote": ""
  },
  {
    "id": "4679300055",
    "name": "鹿児島県大島郡伊仙町伊仙2124-1",
    "kana": "ニコニコシテイホウモンカイゴ「カイゴヨボウホウモンカイゴ」ジギョウショ",
    "address": "鹿児島県大島郡伊仙町伊仙2124-1",
    "lat": 27.6765749,
    "lng": 128.9387617,
    "tel": "0997-81-7307",
    "url": "tokunosima_fukusikai＠image.ocn.ne.jp",
    "pref": "鹿児島県",
    "city": "伊仙町",
    "category": "home_help",
    "serviceType": "訪問介護",
    "capacity": 0,
    "openDays": [
      "平日",
      "土曜日",
      "日曜日",
      "祝日"
    ],
    "openDaysNote": ""
  },
  {
    "id": "4670701277",
    "name": "Home-careいのべ",
    "kana": "ホームケア　イノベ",
    "address": "笠利町大字手里50-2",
    "lat": 28.4390927,
    "lng": 129.6701353,
    "tel": "0997-57-1693",
    "url": "",
    "pref": "鹿児島県",
    "city": "奄美市",
    "category": "home_help",
    "serviceType": "訪問介護",
    "capacity": 15,
    "openDays": [
      "平日",
      "土曜日",
      "祝日"
    ],
    "openDaysNote": ""
  },
  {
    "id": "4670700386",
    "name": "あおぞらホームヘルプサービス",
    "kana": "アオゾラホームヘルプサービス",
    "address": "奄美市名瀬幸町20番17号",
    "lat": 28.3778479070106,
    "lng": 129.493298996295,
    "tel": "0997-53-2825",
    "url": "https://shidama.jp",
    "pref": "鹿児島県",
    "city": "奄美市",
    "category": "home_help",
    "serviceType": "訪問介護",
    "capacity": 10,
    "openDays": [
      "平日",
      "土曜日",
      "日曜日",
      "祝日"
    ],
    "openDaysNote": "時間外でも話し合いにより利用者の要望に応じて対応します。"
  },
  {
    "id": "4670700972",
    "name": "カラーズ訪問介護事業所",
    "kana": "カラーズホウモンカイゴジギョウショ",
    "address": "鹿児島県奄美市名瀬井根町９－１奄美ビル１０２ 奄美ビル１０２",
    "lat": 28.3769066,
    "lng": 129.492091,
    "tel": "０９９７－５２－９７５５",
    "url": "",
    "pref": "鹿児島県",
    "city": "奄美市",
    "category": "home_help",
    "serviceType": "訪問介護",
    "capacity": 0,
    "openDays": [
      "平日",
      "土曜日",
      "日曜日",
      "祝日"
    ],
    "openDaysNote": ""
  },
  {
    "id": "4670700931",
    "name": "ケアサービスてて訪問介護事業所",
    "kana": "ケアサービステテホウモンカイゴジギョウショ",
    "address": "鹿児島県奄美市笠利町大字屋仁8番地4",
    "lat": 28.4989844830539,
    "lng": 129.658626190491,
    "tel": "0997-57-1260",
    "url": "",
    "pref": "鹿児島県",
    "city": "奄美市",
    "category": "home_help",
    "serviceType": "訪問介護",
    "capacity": 0,
    "openDays": [
      "平日",
      "土曜日",
      "日曜日",
      "祝日"
    ],
    "openDaysNote": ""
  },
  {
    "id": "4670701319",
    "name": "ヘルパーステーション　ライフぴあ",
    "kana": "ヘルパーステーション　ライフピア",
    "address": "鹿児島県奄美市名瀬和光町5-12",
    "lat": 28.3897467,
    "lng": 129.522887,
    "tel": "0997-58-8131",
    "url": "https://helper-station.wixsite.com/life-peer",
    "pref": "鹿児島県",
    "city": "奄美市",
    "category": "home_help",
    "serviceType": "訪問介護",
    "capacity": null,
    "openDays": [
      "平日"
    ],
    "openDaysNote": ""
  },
  {
    "id": "4678700065",
    "name": "ホームヘルプサービスセンター　住用の園",
    "kana": "ホームヘルプサービスセンター　スミヨウノソノ",
    "address": "鹿児島県奄美市住用町大字摺勝字俊勝袋４５１番３",
    "lat": 28.2948050249938,
    "lng": 129.442037011084,
    "tel": "0997-56-2103",
    "url": "http:/sumiyounosono.jp/",
    "pref": "鹿児島県",
    "city": "奄美市",
    "category": "home_help",
    "serviceType": "訪問介護",
    "capacity": 0,
    "openDays": [],
    "openDaysNote": "営業日　年中無休（改行）営業時間　２４時間体制"
  },
  {
    "id": "4670700774",
    "name": "ホームヘルプステーションハピネス浦上",
    "kana": "ホームヘルプステーシヨン　ハピネスウラガミ",
    "address": "奄美市名瀬浦上町１１０５番地ハピネス浦上 ハピネス浦上",
    "lat": 28.3945277,
    "lng": 129.5334779,
    "tel": "0997-57-7555",
    "url": "https://happiness-uragami.net/",
    "pref": "鹿児島県",
    "city": "奄美市",
    "category": "home_help",
    "serviceType": "訪問介護",
    "capacity": 0,
    "openDays": [
      "平日",
      "土曜日",
      "日曜日",
      "祝日"
    ],
    "openDaysNote": ""
  },
  {
    "id": "4670700253",
    "name": "めぐみの園ホームヘルプサービス事業所",
    "kana": "メグミノソノホームヘルプサービスジギョウショ",
    "address": "鹿児島県奄美市名瀬大字西仲勝１２２１番地",
    "lat": 28.3242507,
    "lng": 129.5088605,
    "tel": "0997-54-9963",
    "url": "https://meguminosono.kobira07.info",
    "pref": "鹿児島県",
    "city": "奄美市",
    "category": "home_help",
    "serviceType": "訪問介護",
    "capacity": 0,
    "openDays": [
      "平日",
      "土曜日",
      "日曜日",
      "祝日"
    ],
    "openDaysNote": "但し緊急時２４時間対応"
  },
  {
    "id": "4670700576",
    "name": "ライフケアーわかば",
    "kana": "ライフケアーワカバ",
    "address": "鹿児島県奄美市名瀬浦上町５３－２",
    "lat": 28.3913578920684,
    "lng": 129.537182692978,
    "tel": "0997-54-1836",
    "url": "",
    "pref": "鹿児島県",
    "city": "奄美市",
    "category": "home_help",
    "serviceType": "訪問介護",
    "capacity": 15,
    "openDays": [
      "平日",
      "土曜日",
      "日曜日",
      "祝日"
    ],
    "openDaysNote": "上記の営業日、営業時間のほか、電話等により24時間常時連絡が可能な体制とする。"
  },
  {
    "id": "4670700329",
    "name": "わんわん介護ネット",
    "kana": "ワンワンカイゴネット",
    "address": "奄美市名瀬永田町4-15",
    "lat": 28.3762233,
    "lng": 129.4950769,
    "tel": "0997-55-1911",
    "url": "http://wanwan.amamin.jp/",
    "pref": "鹿児島県",
    "city": "奄美市",
    "category": "home_help",
    "serviceType": "訪問介護",
    "capacity": 0,
    "openDays": [
      "平日",
      "土曜日",
      "日曜日",
      "祝日"
    ],
    "openDaysNote": "電話等により、２４時間常時連絡可能な体制とする。"
  },
  {
    "id": "4670700246",
    "name": "芦穂の里訪問介護事業所",
    "kana": "アシホノサトホウモンカイゴジギョウショ",
    "address": "名瀬大字芦花部字不津１４７０番地",
    "lat": 28.445751,
    "lng": 129.539118,
    "tel": "０９９７－５４－６００６",
    "url": "",
    "pref": "鹿児島県",
    "city": "奄美市",
    "category": "home_help",
    "serviceType": "訪問介護",
    "capacity": 0,
    "openDays": [
      "平日",
      "土曜日",
      "日曜日",
      "祝日"
    ],
    "openDaysNote": ""
  },
  {
    "id": "4670700220",
    "name": "奄美佳南園ホームヘルプ事業所",
    "kana": "アマミカナンエンホームヘルプジギョウショ",
    "address": "鹿児島県奄美市名瀬真名津町3番19号　辺木ビル1階",
    "lat": 28.3674526400321,
    "lng": 129.499543752015,
    "tel": "0997-53-4561",
    "url": "http://www.seirei.or.jp/elderlyhome/amami/",
    "pref": "鹿児島県",
    "city": "奄美市",
    "category": "home_help",
    "serviceType": "訪問介護",
    "capacity": 0,
    "openDays": [
      "平日",
      "土曜日",
      "日曜日",
      "祝日"
    ],
    "openDaysNote": ""
  },
  {
    "id": "4670700592",
    "name": "奄美市社会福祉協議会訪問介護事業所",
    "kana": "アマミシシャカイフクシキョウギカイホウモンカイゴジギョウショ",
    "address": "奄美市名瀬長浜町５番６号奄美市社会福祉センター 奄美市社会福祉センター",
    "lat": 28.3903856,
    "lng": 129.4949125,
    "tel": "0997-52-7601",
    "url": "info@amamishakyo.org",
    "pref": "鹿児島県",
    "city": "奄美市",
    "category": "home_help",
    "serviceType": "訪問介護",
    "capacity": 80,
    "openDays": [
      "平日",
      "土曜日",
      "日曜日",
      "祝日"
    ],
    "openDaysNote": "ただし、利用者等の希望によりサービス提供時間外に訪問することができる。"
  },
  {
    "id": "4670700279",
    "name": "生協ヘルパーステーション　あまみ",
    "kana": "セイキョウヘルパーステーション　アマミ",
    "address": "鹿児島県奄美市名瀬長浜町8番7号生協会館　１階 生協会館　１階",
    "lat": 28.3917976726991,
    "lng": 129.494043802788,
    "tel": "0997-57-7373",
    "url": "http://amami-hca.or.jp/",
    "pref": "鹿児島県",
    "city": "奄美市",
    "category": "home_help",
    "serviceType": "訪問介護",
    "capacity": 45,
    "openDays": [
      "平日",
      "土曜日",
      "日曜日",
      "祝日"
    ],
    "openDaysNote": "但し、サービス提供時間外も利用者様やご家族の相談に応じます。"
  },
  {
    "id": "4670700410",
    "name": "特定非営利活動法人つばさ",
    "kana": "トクテイヒエイリカツドウホウジンツバサ",
    "address": "名瀬小浜町30番6号",
    "lat": 28.3839281,
    "lng": 129.501612,
    "tel": "0997-53-5050",
    "url": "",
    "pref": "鹿児島県",
    "city": "奄美市",
    "category": "home_help",
    "serviceType": "訪問介護",
    "capacity": 0,
    "openDays": [
      "平日",
      "土曜日",
      "日曜日",
      "祝日"
    ],
    "openDaysNote": "利用者からの要請があった場合は、24時間対応する。"
  },
  {
    "id": "4670700196",
    "name": "虹の丘訪問介護事業所",
    "kana": "ニジノオカホウモンカイゴジギョウショ",
    "address": "名瀬小宿字苗代田３４１６番１",
    "lat": 28.385852,
    "lng": 129.474689,
    "tel": "0997-54-8881",
    "url": "http://www4.synapse.ne.jp/nijinooka",
    "pref": "鹿児島県",
    "city": "奄美市",
    "category": "home_help",
    "serviceType": "訪問介護",
    "capacity": 0,
    "openDays": [
      "平日",
      "土曜日",
      "日曜日",
      "祝日"
    ],
    "openDaysNote": "年中無休"
  },
  {
    "id": "4670700923",
    "name": "訪問介護きずな",
    "kana": "ホウモンカイゴキズナ",
    "address": "名瀬浜里町４９番地",
    "lat": 28.3990237249922,
    "lng": 129.471477527817,
    "tel": "0997-55-0050",
    "url": "",
    "pref": "鹿児島県",
    "city": "奄美市",
    "category": "home_help",
    "serviceType": "訪問介護",
    "capacity": 15,
    "openDays": [
      "平日",
      "土曜日",
      "日曜日",
      "祝日"
    ],
    "openDaysNote": ""
  },
  {
    "id": "4670701285",
    "name": "訪問介護ステーションこころ",
    "kana": "ホウモンカイゴステーションココロ",
    "address": "名瀬浦上町31-8",
    "lat": 28.393803,
    "lng": 129.5319271,
    "tel": "0997-69-3905",
    "url": "",
    "pref": "鹿児島県",
    "city": "奄美市",
    "category": "home_help",
    "serviceType": "訪問介護",
    "capacity": 0,
    "openDays": [
      "平日",
      "土曜日"
    ],
    "openDaysNote": "休日は日曜日と祝日の他、お盆3日間、12月29日から1月3日とする。なお、電話等により24時間常時連絡が可能な体制とする。"
  },
  {
    "id": "4670701178",
    "name": "訪問介護事業所ゆとりあん",
    "kana": "ホウモンカイゴジギョウショユトリアン",
    "address": "鹿児島県奄美市名瀬小浜町24-7サービス付き高齢者向け住宅ゆとりあん1階 サービス付き高齢者向け住宅ゆとりあん1階",
    "lat": 28.3859584,
    "lng": 129.5012564,
    "tel": "0997-58-5551",
    "url": "yutorian.houmon2@outlook.jp",
    "pref": "鹿児島県",
    "city": "奄美市",
    "category": "home_help",
    "serviceType": "訪問介護",
    "capacity": 0,
    "openDays": [
      "平日",
      "土曜日",
      "日曜日",
      "祝日"
    ],
    "openDaysNote": "必要に応じて対応可能"
  },
  {
    "id": "4670701368",
    "name": "名瀬徳洲会訪問介護",
    "kana": "ナゼトクシュウカイホウモンカイゴ",
    "address": "鹿児島県奄美市名瀬朝日町28番地1名瀬徳洲会病院 名瀬徳洲会病院",
    "lat": 28.3986462,
    "lng": 129.5263545,
    "tel": "0997-54-2238",
    "url": "https://www.nazetokushukai.jp/",
    "pref": "鹿児島県",
    "city": "奄美市",
    "category": "home_help",
    "serviceType": "訪問介護",
    "capacity": 0,
    "openDays": [
      "平日",
      "土曜日",
      "日曜日",
      "祝日"
    ],
    "openDaysNote": ""
  },
  {
    "id": "4678200116",
    "name": "ひまわりのお家",
    "kana": "ヒマワリノオウチ",
    "address": "鹿児島県熊毛郡屋久島町宮之浦2384番地10ひまわりのお家 ひまわりのお家",
    "lat": 30.4198043,
    "lng": 130.5724951,
    "tel": "0994-42-2855",
    "url": "http://www.himawarino-ouchi.com/",
    "pref": "鹿児島県",
    "city": "屋久島町",
    "category": "home_help",
    "serviceType": "訪問介護",
    "capacity": 0,
    "openDays": [
      "平日",
      "土曜日",
      "日曜日",
      "祝日"
    ],
    "openDaysNote": "上記時間帯以外でも、希望があれば柔軟に対応する。"
  },
  {
    "id": "4678200058",
    "name": "ホームヘルプサービス縄文の郷",
    "kana": "ホームヘルプサービスジョウモンノサト",
    "address": "鹿児島県熊毛郡屋久島町宮之浦2458-2",
    "lat": 30.4172235187166,
    "lng": 130.587361609524,
    "tel": "0997-42-2821",
    "url": "",
    "pref": "鹿児島県",
    "city": "屋久島町",
    "category": "home_help",
    "serviceType": "訪問介護",
    "capacity": 3,
    "openDays": [
      "平日",
      "土曜日",
      "日曜日",
      "祝日"
    ],
    "openDaysNote": "提供者が不在の場合は、携帯電話等により連絡を行う。"
  },
  {
    "id": "4678200140",
    "name": "屋久島町社協ヘルパーステーション縄文の苑",
    "kana": "ヤクシマチョウシャキョウヘルパーステーションジョウモンノソノ",
    "address": "鹿児島県熊毛郡屋久島町宮之浦2467番地19屋久島町福祉センター縄文の苑 屋久島町福祉センター縄文の苑",
    "lat": 30.417941,
    "lng": 130.5878887,
    "tel": "0997-42-2711",
    "url": "",
    "pref": "鹿児島県",
    "city": "屋久島町",
    "category": "home_help",
    "serviceType": "訪問介護",
    "capacity": 0,
    "openDays": [
      "平日",
      "土曜日",
      "日曜日",
      "祝日"
    ],
    "openDaysNote": ""
  },
  {
    "id": "4678200157",
    "name": "屋久島町社協訪問介護事業所こまどり館",
    "kana": "ヤクシマシャキョウホウモンカイゴジギョウショコマドリカン",
    "address": "鹿児島県熊毛郡屋久島町尾之間459番地1",
    "lat": 30.2365361,
    "lng": 130.5573893,
    "tel": "0997-47-3232",
    "url": "ｙａｋｕｃｈｏ-ｓｙａｋｙｏ2＠ｒｉｃｅ．ｏｃｎ．ｎｅ．ｊｐ",
    "pref": "鹿児島県",
    "city": "屋久島町",
    "category": "home_help",
    "serviceType": "訪問介護",
    "capacity": null,
    "openDays": [
      "平日",
      "土曜日",
      "祝日"
    ],
    "openDaysNote": "日及び12/29～1/3は必要に応じてサ－ビスを提供"
  },
  {
    "id": "4677300347",
    "name": "ニチイケアセンターきもつき",
    "kana": "ニチイケアセンターキモツキ",
    "address": "鹿児島県肝属郡肝付町新富164番地３",
    "lat": 31.3485442308251,
    "lng": 130.947693554631,
    "tel": "0994-68-8977",
    "url": "http://www.nichiigakkan.co.jp",
    "pref": "鹿児島県",
    "city": "肝付町",
    "category": "home_help",
    "serviceType": "訪問介護",
    "capacity": 0,
    "openDays": [
      "平日",
      "土曜日",
      "日曜日",
      "祝日"
    ],
    "openDaysNote": "但し、居宅サービス計画により、営業時間以外や休業日であっても、サービスの提供を行う場合がある。"
  },
  {
    "id": "4677300172",
    "name": "ヘルパーステーション　はる",
    "kana": "ヘルパーステーション　ハル",
    "address": "鹿児島県肝属郡肝付町後田２３６３－１３住宅型有料老人ホームはる 住宅型有料老人ホームはる",
    "lat": 36.0526628,
    "lng": -87.77796,
    "tel": "０９９４‐６５‐５５１１",
    "url": "https://pc-care.synapse.kagoshima.jp/",
    "pref": "鹿児島県",
    "city": "肝付町",
    "category": "home_help",
    "serviceType": "訪問介護",
    "capacity": 0,
    "openDays": [
      "平日",
      "土曜日",
      "日曜日",
      "祝日"
    ],
    "openDaysNote": "但し、利用者の要請に基づき深夜の対応を行うこととする。"
  },
  {
    "id": "4677400162",
    "name": "ヘルパーステーションフェアリス",
    "kana": "ヘルパーステーションフェアリス",
    "address": "鹿児島県肝属郡肝付町新富５６３番地１",
    "lat": 31.3538596,
    "lng": 130.9467958,
    "tel": "0994-65-9966",
    "url": "https://shunyoukai-central-hospital.jp/",
    "pref": "鹿児島県",
    "city": "肝付町",
    "category": "home_help",
    "serviceType": "訪問介護",
    "capacity": null,
    "openDays": [
      "平日",
      "土曜日",
      "日曜日",
      "祝日"
    ],
    "openDaysNote": "但し、営業時間外であっても連絡可能な体制とし、又、利用者及びその家族の事情により、延長（改行）サービスを提供できるものとします。"
  },
  {
    "id": "4677300370",
    "name": "ヘルパーステーションワルツ",
    "kana": "ヘルパーステーションワルツ",
    "address": "新富6672-1",
    "lat": 31.3382838507415,
    "lng": 130.955003539242,
    "tel": "0994-65-0070",
    "url": "https://www.big-advance.site/s/189/1525",
    "pref": "鹿児島県",
    "city": "肝付町",
    "category": "home_help",
    "serviceType": "訪問介護",
    "capacity": 40,
    "openDays": [
      "平日",
      "土曜日",
      "日曜日",
      "祝日"
    ],
    "openDaysNote": "要請があれば上記以外の時間においても対応いたします。"
  },
  {
    "id": "4677300354",
    "name": "株式会社　Ｒａｓｔｙ",
    "kana": "カブシキガイシャ　ラステイー",
    "address": "鹿児島県肝属郡肝付町富山８３８番地７",
    "lat": 31.380064,
    "lng": 130.9006035,
    "tel": "0994-65-7990",
    "url": "ｃｒｏｗｎ．ｈｏｍｅ．ｎｅ",
    "pref": "鹿児島県",
    "city": "肝付町",
    "category": "home_help",
    "serviceType": "訪問介護",
    "capacity": 0,
    "openDays": [
      "平日",
      "土曜日",
      "日曜日",
      "祝日"
    ],
    "openDaysNote": ""
  },
  {
    "id": "4677300107",
    "name": "社会福祉法人肝付町社会福祉協議会訪問介護事業所",
    "kana": "シャカイフクシホウジンキモツキチョウシャカイフクシキョウギカイホウモンカイゴジギョウショ",
    "address": "鹿児島県肝属郡肝付町新富5589番地8やぶさめの里総合公園福祉会館内 やぶさめの里総合公園福祉会館内",
    "lat": 31.3477696,
    "lng": 130.9400344,
    "tel": "0994-65-3376",
    "url": "",
    "pref": "鹿児島県",
    "city": "肝付町",
    "category": "home_help",
    "serviceType": "訪問介護",
    "capacity": 0,
    "openDays": [
      "平日",
      "土曜日",
      "日曜日",
      "祝日"
    ],
    "openDaysNote": "上記のサービス提供時間のほか携帯電話による24時間常時連絡が可能です。"
  },
  {
    "id": "4677300222",
    "name": "訪問介護　ＮＰＯ南の太陽",
    "kana": "ホウモンカイゴ　エヌピーオーミナミノタイヨウ",
    "address": "肝付町富山１７９１番地１",
    "lat": 31.3890259,
    "lng": 130.8992702,
    "tel": "０９９４－４５－６１１８",
    "url": "http://www.minaminotaiyo.or.jp/",
    "pref": "鹿児島県",
    "city": "肝付町",
    "category": "home_help",
    "serviceType": "訪問介護",
    "capacity": 0,
    "openDays": [
      "平日",
      "土曜日",
      "日曜日",
      "祝日"
    ],
    "openDaysNote": ""
  },
  {
    "id": "4677300404",
    "name": "訪問介護事業所　千乃華",
    "kana": "ホウモンカイゴジギョウショ　センノハナ",
    "address": "鹿児島県肝属郡肝付町後田3239−１",
    "lat": 31.3238164332855,
    "lng": 130.9435326792,
    "tel": "鹿児島県肝属郡肝付町後田3",
    "url": "",
    "pref": "鹿児島県",
    "city": "肝付町",
    "category": "home_help",
    "serviceType": "訪問介護",
    "capacity": 0,
    "openDays": [
      "平日",
      "土曜日",
      "祝日"
    ],
    "openDaysNote": ""
  },
  {
    "id": "4679000176",
    "name": "ほーらさヘルパー事業所",
    "kana": "ホーラサヘルパージギョウショ",
    "address": "鹿児島県大島郡喜界町湾94番地1",
    "lat": 28.3252690950753,
    "lng": 129.938789527463,
    "tel": "0997-65-0230",
    "url": "http://llckousin.com",
    "pref": "鹿児島県",
    "city": "喜界町",
    "category": "home_help",
    "serviceType": "訪問介護",
    "capacity": 0,
    "openDays": [
      "平日",
      "土曜日",
      "日曜日",
      "祝日"
    ],
    "openDaysNote": "ただし、ご利用者からの希望があり、それに対応可能な場合は、この限りではありません。"
  },
  {
    "id": "4679000085",
    "name": "社会福祉法人　喜界町社会福祉協議会　訪問介護事業所",
    "kana": "シャカイフクシホウジン　キカイチョウシャカイフクシキョウギカイ　ホウモンカイゴジギョウショ",
    "address": "大島郡喜界町赤連２２番地喜界町老人福祉センター 喜界町老人福祉センター",
    "lat": 28.318122,
    "lng": 129.9418401,
    "tel": "０９９７－６５－０４４９",
    "url": "http://kikai-shakyo.org/",
    "pref": "鹿児島県",
    "city": "喜界町",
    "category": "home_help",
    "serviceType": "訪問介護",
    "capacity": 0,
    "openDays": [
      "平日",
      "土曜日",
      "日曜日",
      "祝日"
    ],
    "openDaysNote": "訪問は年中無休"
  },
  {
    "id": "4677600100",
    "name": "社会福祉法人錦江町社会福祉協議会指定訪問介護事業所",
    "kana": "シャカイフクシホウジンキンコウチョウシャカイフクシキョウギカイシテイホウモンカイゴジギョウショ",
    "address": "鹿児島県肝属郡錦江町城元963番地錦江町総合交流センター内 錦江町総合交流センター内",
    "lat": 31.2431833332778,
    "lng": 130.787252773433,
    "tel": "0994-22-2000",
    "url": "",
    "pref": "鹿児島県",
    "city": "錦江町",
    "category": "home_help",
    "serviceType": "訪問介護",
    "capacity": 0,
    "openDays": [
      "平日",
      "土曜日",
      "日曜日",
      "祝日"
    ],
    "openDaysNote": ""
  },
  {
    "id": "4671501106",
    "name": "ケアサービスみなみ",
    "kana": "ケアサービスミナミ",
    "address": "鹿児島県薩摩川内市宮内町1880",
    "lat": 31.8257997,
    "lng": 130.2914807,
    "tel": "0996-23-9086",
    "url": "",
    "pref": "鹿児島県",
    "city": "薩摩川内市",
    "category": "home_help",
    "serviceType": "訪問介護",
    "capacity": 45,
    "openDays": [
      "平日"
    ],
    "openDaysNote": ""
  },
  {
    "id": "4670200494",
    "name": "コープヘルパーステーション川内",
    "kana": "コープヘルパーステーションセンダイ",
    "address": "薩摩川内市中郷一丁目10番24号",
    "lat": 31.8325577,
    "lng": 130.3099455,
    "tel": "0996-22-8024",
    "url": "",
    "pref": "鹿児島県",
    "city": "薩摩川内市",
    "category": "home_help",
    "serviceType": "訪問介護",
    "capacity": 0,
    "openDays": [
      "平日",
      "土曜日",
      "日曜日",
      "祝日"
    ],
    "openDaysNote": ""
  },
  {
    "id": "4671500629",
    "name": "サポートセンター　うぃる",
    "kana": "サポートセンター　ウィル",
    "address": "鹿児島県薩摩川内市中郷町4708-1",
    "lat": 31.8352069,
    "lng": 130.306663,
    "tel": "0996-20-0580",
    "url": "",
    "pref": "鹿児島県",
    "city": "薩摩川内市",
    "category": "home_help",
    "serviceType": "訪問介護",
    "capacity": 0,
    "openDays": [
      "平日",
      "土曜日",
      "日曜日",
      "祝日"
    ],
    "openDaysNote": "早朝・夜間については応相談（現在、対応が難しい）"
  },
  {
    "id": "4670201195",
    "name": "ふくしサービスセンターこの指とまれ",
    "kana": "フクシサービスセンターコノユビトマレ",
    "address": "宮内町３８８６番１",
    "lat": 31.8309345,
    "lng": 130.2874343,
    "tel": "０９９６－２０－１３７０",
    "url": "",
    "pref": "鹿児島県",
    "city": "薩摩川内市",
    "category": "home_help",
    "serviceType": "訪問介護",
    "capacity": 0,
    "openDays": [
      "平日",
      "土曜日",
      "日曜日",
      "祝日"
    ],
    "openDaysNote": "月曜日～日曜日（従業者の派遣状況によります）（改行）事業所営業時間以外の電話は転送システム"
  },
  {
    "id": "4671500843",
    "name": "ﾍﾙﾊﾟｰｽﾃｰｼｮﾝS＆T",
    "kana": "ヘルパーステーションエスアンドティ",
    "address": "鹿児島県薩摩川内市五代町7165－２",
    "lat": 31.8271511,
    "lng": 130.2761188,
    "tel": "0996-21-1817",
    "url": "https://argoline.co.jp",
    "pref": "鹿児島県",
    "city": "薩摩川内市",
    "category": "home_help",
    "serviceType": "訪問介護",
    "capacity": 30,
    "openDays": [
      "平日",
      "土曜日",
      "日曜日",
      "祝日"
    ],
    "openDaysNote": ""
  },
  {
    "id": "4670201237",
    "name": "ヘルパーステーション　となり組",
    "kana": "ヘルパーステーション　トナリグミ",
    "address": "鹿児島県薩摩川内市大小路町33番14号",
    "lat": 31.8263229339774,
    "lng": 130.301165673927,
    "tel": "0996-29-5933",
    "url": "",
    "pref": "鹿児島県",
    "city": "薩摩川内市",
    "category": "home_help",
    "serviceType": "訪問介護",
    "capacity": 0,
    "openDays": [
      "平日",
      "土曜日",
      "日曜日",
      "祝日"
    ],
    "openDaysNote": "午前8時から午後6時までとする。但し利用者にニーズに応じて24時間体制とする。（改行）8月14日～15日（お盆）（改行）12月30日～1月3日（年末年始）　（改行）においては原則休みとし利用者のニーズに対応可とする。"
  },
  {
    "id": "4671500728",
    "name": "ヘルパーステーション　よろこび",
    "kana": "ヘルパーステーション　ヨロコビ",
    "address": "鹿児島県薩摩川内市五代町３０３２番地1",
    "lat": 31.8323037,
    "lng": 130.2834985,
    "tel": "0996-29-3857",
    "url": "",
    "pref": "鹿児島県",
    "city": "薩摩川内市",
    "category": "home_help",
    "serviceType": "訪問介護",
    "capacity": 0,
    "openDays": [
      "平日"
    ],
    "openDaysNote": ""
  },
  {
    "id": "4671500660",
    "name": "ヘルパーステーション　蔵の家",
    "kana": "ヘルパーステーション　クラノイエ",
    "address": "西開聞町１２番２号",
    "lat": 31.8148363,
    "lng": 130.2993004,
    "tel": "0996-29-5802",
    "url": "http://will-way-estate.co.jp/",
    "pref": "鹿児島県",
    "city": "薩摩川内市",
    "category": "home_help",
    "serviceType": "訪問介護",
    "capacity": 30,
    "openDays": [
      "平日",
      "祝日"
    ],
    "openDaysNote": "＊ご利用者の居宅サービス計画書に基づいて、サービス提供時間は２４時間３６５日と対応させて頂きます。"
  },
  {
    "id": "4670201252",
    "name": "ヘルパーステーション　美里園",
    "kana": "ヘルパーステーション　ミサトエン",
    "address": "宮里町397番地1",
    "lat": 31.8192268,
    "lng": 130.2761107,
    "tel": "0996-21-1234",
    "url": "http://misatoen.jp/",
    "pref": "鹿児島県",
    "city": "薩摩川内市",
    "category": "home_help",
    "serviceType": "訪問介護",
    "capacity": 0,
    "openDays": [
      "平日",
      "土曜日",
      "日曜日",
      "祝日"
    ],
    "openDaysNote": "必要に応じて時間外も可"
  },
  {
    "id": "4671501007",
    "name": "ヘルパーステーションこすもす",
    "kana": "ヘルパーステーションコスモス",
    "address": "鹿児島県薩摩川内市勝目町5101-2",
    "lat": 31.7856263,
    "lng": 130.3152614,
    "tel": "0996-47-0813",
    "url": "",
    "pref": "鹿児島県",
    "city": "薩摩川内市",
    "category": "home_help",
    "serviceType": "訪問介護",
    "capacity": 0,
    "openDays": [
      "平日",
      "土曜日",
      "祝日"
    ],
    "openDaysNote": ""
  },
  {
    "id": "4671500868",
    "name": "ヘルパーステーションさくら",
    "kana": "ヘルパーステーションサクラ",
    "address": "鹿児島県薩摩川内市宮崎町1885-6",
    "lat": 31.8051489,
    "lng": 130.3205571,
    "tel": "0996-29-4356",
    "url": "",
    "pref": "鹿児島県",
    "city": "薩摩川内市",
    "category": "home_help",
    "serviceType": "訪問介護",
    "capacity": 0,
    "openDays": [
      "平日",
      "土曜日",
      "日曜日",
      "祝日"
    ],
    "openDaysNote": ""
  },
  {
    "id": "4670200346",
    "name": "ヘルパーステーションたんぽぽ",
    "kana": "ヘルパーステーションタンポポ",
    "address": "薩摩川内市横馬場町８番１１号",
    "lat": 31.8171998499894,
    "lng": 130.310284551451,
    "tel": "0996-23-8866",
    "url": "https://ajisaien-kagoshima.com",
    "pref": "鹿児島県",
    "city": "薩摩川内市",
    "category": "home_help",
    "serviceType": "訪問介護",
    "capacity": 0,
    "openDays": [
      "平日",
      "土曜日"
    ],
    "openDaysNote": "早朝及び夜間対応可能（要相談）（改行）日曜・祝日（必要な場合は対応可能）"
  },
  {
    "id": "4671501049",
    "name": "ヘルパーステーション大海",
    "kana": "ヘルパーステーションタイカイ",
    "address": "鹿児島県薩摩川内市宮崎町2996番地1サービス付高齢者住宅ガーデン大海 サービス付高齢者住宅ガーデン大海",
    "lat": 31.7980018,
    "lng": 130.3206936,
    "tel": "0996-29-3156",
    "url": "http://m.taikaiclinic.or.jp/",
    "pref": "鹿児島県",
    "city": "薩摩川内市",
    "category": "home_help",
    "serviceType": "訪問介護",
    "capacity": 0,
    "openDays": [
      "平日",
      "土曜日",
      "祝日"
    ],
    "openDaysNote": "日曜日の支援は応相談。（改行）但し、営業日以外のサービス提供時間外についても居宅サービス計画によりサービスを提供する場合があります。"
  },
  {
    "id": "4670200403",
    "name": "ヘルパーステーション福和園",
    "kana": "ヘルパーステーションフクワエン",
    "address": "鹿児島県薩摩川内市御陵下町２９番５０号",
    "lat": 31.8354158186315,
    "lng": 130.291605457008,
    "tel": "0996-20-1047",
    "url": "",
    "pref": "鹿児島県",
    "city": "薩摩川内市",
    "category": "home_help",
    "serviceType": "訪問介護",
    "capacity": null,
    "openDays": [
      "平日",
      "土曜日",
      "日曜日",
      "祝日"
    ],
    "openDaysNote": "年始（1/1～1/3）を除く"
  },
  {
    "id": "4670200379",
    "name": "ヘルプサービスはまかぜ園",
    "kana": "ヘルプサービスハマカゼエン",
    "address": "鹿児島県薩摩川内市西方町３１１１番地",
    "lat": 31.9155673,
    "lng": 130.2345548,
    "tel": "0996-28-1033",
    "url": "http://www.hamakazeen.com/",
    "pref": "鹿児島県",
    "city": "薩摩川内市",
    "category": "home_help",
    "serviceType": "訪問介護",
    "capacity": null,
    "openDays": [
      "平日",
      "土曜日",
      "日曜日",
      "祝日"
    ],
    "openDaysNote": "1月1日～1月3日休み"
  },
  {
    "id": "4670200361",
    "name": "可愛会指定訪問介護事業所",
    "kana": "エノカイシテイホウモンカイゴジギョウショ",
    "address": "鹿児島県薩摩川内市宮内町2641",
    "lat": 31.8307318,
    "lng": 130.2920617,
    "tel": "0996-22-0053",
    "url": "http://enokai.jp/",
    "pref": "鹿児島県",
    "city": "薩摩川内市",
    "category": "home_help",
    "serviceType": "訪問介護",
    "capacity": 0,
    "openDays": [
      "平日",
      "土曜日",
      "祝日"
    ],
    "openDaysNote": "原則　日、年末年始は休日(ただし緊急の場合は対応する。)"
  },
  {
    "id": "4670200452",
    "name": "済生会訪問介護ステーションせんだい",
    "kana": "サイセイカイホウモンカイゴステーションセンダイ",
    "address": "鹿児島県薩摩川内市原田町2番46号",
    "lat": 31.8266414994716,
    "lng": 130.306773657672,
    "tel": "0996-25-8685",
    "url": "",
    "pref": "鹿児島県",
    "city": "薩摩川内市",
    "category": "home_help",
    "serviceType": "訪問介護",
    "capacity": 100,
    "openDays": [
      "平日",
      "土曜日"
    ],
    "openDaysNote": "必要に応じ、当営業日及び営業時間以外にも業務を行うものとする。"
  },
  {
    "id": "4670200957",
    "name": "薩摩川内市社会福祉協議会甑島訪問介護事業所",
    "kana": "サツマセンダイシシャカイフクシキョウギカイコシキシマホウモンカイゴジギョウショ",
    "address": "鹿児島県薩摩川内市鹿島町藺牟田1443番地1",
    "lat": 31.7062515932061,
    "lng": 129.738988264418,
    "tel": "09969-6-4601",
    "url": "",
    "pref": "鹿児島県",
    "city": "薩摩川内市",
    "category": "home_help",
    "serviceType": "訪問介護",
    "capacity": null,
    "openDays": [
      "平日",
      "土曜日",
      "日曜日",
      "祝日"
    ],
    "openDaysNote": "原則は年中無休（改行）ただし、利用者からのキャンセルがあった場合についてはこの限りでない。"
  },
  {
    "id": "4671500553",
    "name": "訪問介護ステーション　華",
    "kana": "ホウモンカイゴステーション　ハナ",
    "address": "鹿児島県薩摩川内市東郷町斧渕6418-2訪問介護ステーション　華 訪問介護ステーション　華",
    "lat": 31.8818017,
    "lng": 130.3419688,
    "tel": "0996-42-1886",
    "url": "lifecare-hana＠po5.synapse.ne.jp",
    "pref": "鹿児島県",
    "city": "薩摩川内市",
    "category": "home_help",
    "serviceType": "訪問介護",
    "capacity": 0,
    "openDays": [
      "平日",
      "土曜日",
      "日曜日",
      "祝日"
    ],
    "openDaysNote": "利用者や家族の希望により、時間外のサービスも可能です。"
  },
  {
    "id": "4671501098",
    "name": "訪問介護咲良",
    "kana": "ホウモンカイゴサクラ",
    "address": "鹿児島県薩摩川内市祁答院町藺牟田1805-5",
    "lat": 31.8186703,
    "lng": 130.4821815,
    "tel": "0996-31-8401",
    "url": "",
    "pref": "鹿児島県",
    "city": "薩摩川内市",
    "category": "home_help",
    "serviceType": "訪問介護",
    "capacity": null,
    "openDays": [
      "平日",
      "土曜日",
      "日曜日",
      "祝日"
    ],
    "openDaysNote": ""
  },
  {
    "id": "4671700427",
    "name": "ヘルパーステーション　まちばる",
    "kana": "ヘルパーステーション　マチバル",
    "address": "鹿児島県志布志市志布志町志布志1034-1マリンが丘マンション101号 マリンが丘マンション101号",
    "lat": 31.487273460903,
    "lng": 131.088256403299,
    "tel": "090-9797-5519",
    "url": "https://www.med-sakura.or.jp",
    "pref": "鹿児島県",
    "city": "志布志市",
    "category": "home_help",
    "serviceType": "訪問介護",
    "capacity": 30,
    "openDays": [
      "平日",
      "土曜日",
      "日曜日",
      "祝日"
    ],
    "openDaysNote": "居宅サービス計画書やご利用者様のご希望に基づきサービスを提供いたします。"
  },
  {
    "id": "4671700377",
    "name": "ヘルパーステーションみんなの樹",
    "kana": "ヘルパーステーションミンナノキ",
    "address": "志布志町安楽２２３５番地１",
    "lat": 31.4815324,
    "lng": 131.0791577,
    "tel": "099-479-3310",
    "url": "https://minnanoki.co.jp",
    "pref": "鹿児島県",
    "city": "志布志市",
    "category": "home_help",
    "serviceType": "訪問介護",
    "capacity": 0,
    "openDays": [
      "平日",
      "土曜日",
      "日曜日",
      "祝日"
    ],
    "openDaysNote": ""
  },
  {
    "id": "4676800081",
    "name": "左右会ヘルパーステーション",
    "kana": "サユウカイヘルパーステーション",
    "address": "志布志市志布志町志布志2-3-6",
    "lat": 31.4770637,
    "lng": 131.1025774,
    "tel": "099-473-8137",
    "url": "http://www.sayuukai.or.jp",
    "pref": "鹿児島県",
    "city": "志布志市",
    "category": "home_help",
    "serviceType": "訪問介護",
    "capacity": 0,
    "openDays": [
      "平日",
      "土曜日",
      "日曜日",
      "祝日"
    ],
    "openDaysNote": "現在は、8：00～22：00でのサービスを提供していますが、それ以外の時間帯におけるサービス提供は居宅介護支援事業者および利用者・家族等との協議に基づきます。"
  },
  {
    "id": "4676800107",
    "name": "志布志ホームヘルプステーション賀寿園",
    "kana": "シブシホームヘルプステーションガジュエン",
    "address": "志布志市志布志町安楽２９０３番地１",
    "lat": 31.5013806,
    "lng": 131.0874091,
    "tel": "０９９－４７２－1260",
    "url": "http://www.ryuai.jp",
    "pref": "鹿児島県",
    "city": "志布志市",
    "category": "home_help",
    "serviceType": "訪問介護",
    "capacity": 0,
    "openDays": [
      "平日",
      "土曜日",
      "日曜日",
      "祝日"
    ],
    "openDaysNote": "電話等により、常時連絡が可能な体制"
  },
  {
    "id": "4671700401",
    "name": "社会福祉法人　志布志市社会福祉協議会　指定訪問介護事業所",
    "kana": "シャカイフクシホウジン　シブシシシャカイフクシキョウギカイ　シテイホウモンカイゴジギョウショ",
    "address": "鹿児島県志布志市志布志町志布志3222番地1志布志健康ふれあいﾌﾟﾗｻﾞ 志布志健康ふれあいﾌﾟﾗｻﾞ",
    "lat": 31.4718000357967,
    "lng": 131.099182394781,
    "tel": "099-473-0294",
    "url": "http://shibushi-syakyo.jp/",
    "pref": "鹿児島県",
    "city": "志布志市",
    "category": "home_help",
    "serviceType": "訪問介護",
    "capacity": 0,
    "openDays": [
      "平日",
      "土曜日",
      "日曜日",
      "祝日"
    ],
    "openDaysNote": "無"
  },
  {
    "id": "4671000679",
    "name": "ケアネット訪問介護事業所",
    "kana": "ケアネットホウモンカイゴジギョウショ",
    "address": "鹿児島県指宿市大牟礼四丁目４番８号",
    "lat": 31.2450351,
    "lng": 130.6455444,
    "tel": "0993-24-5851",
    "url": "",
    "pref": "鹿児島県",
    "city": "指宿市",
    "category": "home_help",
    "serviceType": "訪問介護",
    "capacity": 0,
    "openDays": [],
    "openDaysNote": "２４時間　３６５日　サービス提供"
  },
  {
    "id": "4671000752",
    "name": "せいこうかいほうもんかいごすてーしょん",
    "kana": "世光会訪問介護ステーション",
    "address": "鹿児島県指宿市東方353番地メゾン・ド・さくら1階 メゾン・ド・さくら1階",
    "lat": 31.2458077,
    "lng": 130.6262023,
    "tel": "0993-22-1588",
    "url": "",
    "pref": "鹿児島県",
    "city": "指宿市",
    "category": "home_help",
    "serviceType": "訪問介護",
    "capacity": 0,
    "openDays": [
      "平日",
      "土曜日",
      "日曜日",
      "祝日"
    ],
    "openDaysNote": ""
  },
  {
    "id": "4611011125",
    "name": "医療法人徳洲会開聞ヘルパーステーション",
    "kana": "イリョウホウジントクシュウカイカイモンヘルパーステーション",
    "address": "指宿市開聞十町1294-2",
    "lat": 31.2059177,
    "lng": 130.5391953,
    "tel": "0993-32-5800",
    "url": "http://www.tokushukai.or.jp/hsp/c_kaimon/",
    "pref": "鹿児島県",
    "city": "指宿市",
    "category": "home_help",
    "serviceType": "訪問介護",
    "capacity": 23,
    "openDays": [
      "平日",
      "土曜日",
      "祝日"
    ],
    "openDaysNote": ""
  },
  {
    "id": "4671000372",
    "name": "社会福祉法人指宿市社会福祉協議会訪問介護事業所",
    "kana": "シャカイフクシホウジンイブスキシシャカイフクシキョウギカイホウモンカイゴジギョウショ",
    "address": "十町2424番地指宿老人福祉センター内 指宿老人福祉センター内",
    "lat": 31.2529146,
    "lng": 130.6320176,
    "tel": "0993-22-1124",
    "url": "",
    "pref": "鹿児島県",
    "city": "指宿市",
    "category": "home_help",
    "serviceType": "訪問介護",
    "capacity": 0,
    "openDays": [
      "平日",
      "土曜日",
      "日曜日",
      "祝日"
    ],
    "openDaysNote": ""
  },
  {
    "id": "4671000182",
    "name": "千寿園介護支援センター",
    "kana": "センジュエンカイゴシエンセンター",
    "address": "東方353",
    "lat": 31.2452967497384,
    "lng": 130.625228764485,
    "tel": "0993-22-2480",
    "url": "http://senjuen.net",
    "pref": "鹿児島県",
    "city": "指宿市",
    "category": "home_help",
    "serviceType": "訪問介護",
    "capacity": 0,
    "openDays": [
      "平日",
      "土曜日",
      "日曜日",
      "祝日"
    ],
    "openDaysNote": "現在の利用状況に合わせた「サービスを利用できる時間」を表示しています。（改行）電話等により24時間対応可能"
  },
  {
    "id": "4671000174",
    "name": "湯之里園ホームヘルパーステーション",
    "kana": "ユノサトエンホームヘルパーステーション",
    "address": "鹿児島県指宿市東方８２８番地ロ",
    "lat": 31.249723,
    "lng": 130.6208103,
    "tel": "０９９３－２２－４４１０",
    "url": "http://www.kinkoukai.jp/",
    "pref": "鹿児島県",
    "city": "指宿市",
    "category": "home_help",
    "serviceType": "訪問介護",
    "capacity": 0,
    "openDays": [
      "平日",
      "土曜日",
      "日曜日",
      "祝日"
    ],
    "openDaysNote": ""
  },
  {
    "id": "4670300757",
    "name": "コープヘルパーステーション鹿屋",
    "kana": "コープヘルパーステーション",
    "address": "鹿屋市札元2丁目3801-3",
    "lat": 31.400624,
    "lng": 130.8709196,
    "tel": "0994-42-7611",
    "url": "",
    "pref": "鹿児島県",
    "city": "鹿屋市",
    "category": "home_help",
    "serviceType": "訪問介護",
    "capacity": 0,
    "openDays": [
      "平日",
      "土曜日",
      "日曜日",
      "祝日"
    ],
    "openDaysNote": ""
  },
  {
    "id": "4670300708",
    "name": "センター事業団　大隅地域福祉事業所　ゆらおう",
    "kana": "センタージギョウダンオオスミチイキフクシジギョウショ　ユラオウ",
    "address": "鹿児島県鹿屋市新生町２０－５オガワﾋﾞﾙ103号 オガワﾋﾞﾙ103号",
    "lat": 31.3802862,
    "lng": 130.8465777,
    "tel": "０９９４－４２－７０７７",
    "url": "https://yuraou.jimdofree.com/",
    "pref": "鹿児島県",
    "city": "鹿屋市",
    "category": "home_help",
    "serviceType": "訪問介護",
    "capacity": 0,
    "openDays": [
      "平日",
      "土曜日",
      "日曜日",
      "祝日"
    ],
    "openDaysNote": ""
  },
  {
    "id": "4670300310",
    "name": "ニチイケアセンター西大手町",
    "kana": "ニチイケアセンターニシオオテマチ",
    "address": "鹿児島県鹿屋市西大手町８９９０番地1",
    "lat": 31.3893148184425,
    "lng": 130.848724261735,
    "tel": "0994-40-5561",
    "url": "http://www.nichiigakkan.co.jp/",
    "pref": "鹿児島県",
    "city": "鹿屋市",
    "category": "home_help",
    "serviceType": "訪問介護",
    "capacity": 0,
    "openDays": [
      "平日",
      "土曜日",
      "日曜日",
      "祝日"
    ],
    "openDaysNote": "但し、居宅サービス計画により、営業時間以外や休業日であっても、サービスの提供を行う場合がある。"
  },
  {
    "id": "4670302290",
    "name": "ヘルパーステーション　アザレア",
    "kana": "ヘルパーステーション　アザレア",
    "address": "鹿児島県鹿屋市本町4番2号",
    "lat": 31.3872163,
    "lng": 130.8509911,
    "tel": "0994-42-2175",
    "url": "helper-azalea@flora-kanoya.com",
    "pref": "鹿児島県",
    "city": "鹿屋市",
    "category": "home_help",
    "serviceType": "訪問介護",
    "capacity": 0,
    "openDays": [
      "平日",
      "土曜日",
      "日曜日",
      "祝日"
    ],
    "openDaysNote": "H30年8月より24時間のサービス提供時間とする"
  },
  {
    "id": "4670300336",
    "name": "ヘルパーステーション　ヴィラかのや",
    "kana": "ヘルパーステーション　ウ゛ィラカノヤ",
    "address": "寿８丁目７３０９－２",
    "lat": 31.3864116,
    "lng": 130.8775445,
    "tel": "０９９４－４４－９０２０",
    "url": "helper-st@koshinkai.or.jp",
    "pref": "鹿児島県",
    "city": "鹿屋市",
    "category": "home_help",
    "serviceType": "訪問介護",
    "capacity": 0,
    "openDays": [
      "平日",
      "土曜日",
      "日曜日",
      "祝日"
    ],
    "openDaysNote": "１２／３１～１／３休み"
  },
  {
    "id": "4670301839",
    "name": "ヘルパーステーション　うぐいすの里",
    "kana": "ヘルパーステーション　ウグイスノサト",
    "address": "鹿児島県鹿屋市吾平町下名３３９７－４",
    "lat": 31.3343537,
    "lng": 130.8878174,
    "tel": "０９９４－５８－８８６４",
    "url": "",
    "pref": "鹿児島県",
    "city": "鹿屋市",
    "category": "home_help",
    "serviceType": "訪問介護",
    "capacity": 0,
    "openDays": [
      "平日",
      "土曜日",
      "日曜日",
      "祝日"
    ],
    "openDaysNote": "早朝、夜間は別途必要です。"
  },
  {
    "id": "4670302092",
    "name": "ヘルパーステーションうるおい",
    "kana": "ヘルパーステーションウルオイ",
    "address": "鹿屋市東原町２８３７－１",
    "lat": 31.4177417,
    "lng": 130.8885359,
    "tel": "0994-45-6230",
    "url": "",
    "pref": "鹿児島県",
    "city": "鹿屋市",
    "category": "home_help",
    "serviceType": "訪問介護",
    "capacity": 22,
    "openDays": [
      "平日",
      "土曜日",
      "日曜日",
      "祝日"
    ],
    "openDaysNote": ""
  },
  {
    "id": "4670302464",
    "name": "ヘルパーステーションかけはし",
    "kana": "ヘルパーステーションカケハシ",
    "address": "鹿児島県鹿屋市古里町535番地1",
    "lat": 31.3970087,
    "lng": 130.7821891,
    "tel": "0994-46-5087",
    "url": "https://hanaokanosato.jp/",
    "pref": "鹿児島県",
    "city": "鹿屋市",
    "category": "home_help",
    "serviceType": "訪問介護",
    "capacity": 74,
    "openDays": [
      "平日",
      "土曜日",
      "日曜日",
      "祝日"
    ],
    "openDaysNote": ""
  },
  {
    "id": "4670301961",
    "name": "ヘルパーステーションかのやジャム",
    "kana": "ヘルパーステーションカノヤジャム",
    "address": "鹿児島県鹿屋市笠之原町４４番１５-１号",
    "lat": 31.3836511,
    "lng": 130.8899018,
    "tel": "0994-45-6666",
    "url": "http://kanoyajam/com",
    "pref": "鹿児島県",
    "city": "鹿屋市",
    "category": "home_help",
    "serviceType": "訪問介護",
    "capacity": 30,
    "openDays": [
      "平日",
      "土曜日",
      "日曜日",
      "祝日"
    ],
    "openDaysNote": "サービスを利用できる時間にかかわらず、利用者からの相談に応じるものとする。"
  },
  {
    "id": "4670302258",
    "name": "ヘルパーステーションだんだん",
    "kana": "ヘルパーステーションダンダン",
    "address": "鹿児島県鹿屋市新川町5453-1",
    "lat": 31.3755013,
    "lng": 130.8700094,
    "tel": "0994-45-4192",
    "url": "http:///confiance-kaigo.com",
    "pref": "鹿児島県",
    "city": "鹿屋市",
    "category": "home_help",
    "serviceType": "訪問介護",
    "capacity": 0,
    "openDays": [
      "平日",
      "土曜日",
      "日曜日",
      "祝日"
    ],
    "openDaysNote": ""
  },
  {
    "id": "4670302654",
    "name": "ヘルパーステーションまごころ",
    "kana": "ヘルパーステーションマゴコロ",
    "address": "鹿児島県鹿屋市寿四丁目３０３４番地２０",
    "lat": 31.3929870957295,
    "lng": 130.879979146033,
    "tel": "994403888",
    "url": "",
    "pref": "鹿児島県",
    "city": "鹿屋市",
    "category": "home_help",
    "serviceType": "訪問介護",
    "capacity": 0,
    "openDays": [
      "平日",
      "土曜日",
      "日曜日",
      "祝日"
    ],
    "openDaysNote": ""
  },
  {
    "id": "4670302753",
    "name": "ヘルパーステーションやどかりのおうち。",
    "kana": "ヘルパーステーションヤドカリノオウチ。",
    "address": "鹿児島県鹿屋市寿5丁目26-38",
    "lat": 31.3851855,
    "lng": 130.8651595,
    "tel": "0994-36-0011",
    "url": "",
    "pref": "鹿児島県",
    "city": "鹿屋市",
    "category": "home_help",
    "serviceType": "訪問介護",
    "capacity": null,
    "openDays": [
      "平日",
      "土曜日",
      "日曜日",
      "祝日"
    ],
    "openDaysNote": ""
  },
  {
    "id": "4670302134",
    "name": "ヘルパーステーション虹の根っこ",
    "kana": "ヘルパーステーション　ニジノネッコ",
    "address": "鹿屋市浜田町656番地1",
    "lat": 31.3328533692865,
    "lng": 130.804079636246,
    "tel": "0994-47-3855",
    "url": "",
    "pref": "鹿児島県",
    "city": "鹿屋市",
    "category": "home_help",
    "serviceType": "訪問介護",
    "capacity": 0,
    "openDays": [],
    "openDaysNote": "24時間３６５日（改行）担当介護支援専門員が位置づけたサービス提供"
  },
  {
    "id": "4670300609",
    "name": "ヘルパーステーション悠々",
    "kana": "ヘルパーステーションユウユウ",
    "address": "鹿児島県鹿屋市大浦町14028番6",
    "lat": 31.4039701,
    "lng": 130.8427828,
    "tel": "0994-40-7130",
    "url": "http://www.fk-yuyu.net",
    "pref": "鹿児島県",
    "city": "鹿屋市",
    "category": "home_help",
    "serviceType": "訪問介護",
    "capacity": 120,
    "openDays": [
      "平日",
      "土曜日",
      "日曜日",
      "祝日"
    ],
    "openDaysNote": "・営業時間は上記に定められているが、利用者の状況等により必要と認められる場合は、この限りではない。"
  },
  {
    "id": "4670302399",
    "name": "ヘルパーステーション龍",
    "kana": "ヘルパーステーションリュウ",
    "address": "鹿児島県鹿屋市串良町下小原４７８８番地",
    "lat": 31.3707477,
    "lng": 130.9431918,
    "tel": "090-2088-9501",
    "url": "",
    "pref": "鹿児島県",
    "city": "鹿屋市",
    "category": "home_help",
    "serviceType": "訪問介護",
    "capacity": 0,
    "openDays": [
      "平日",
      "土曜日",
      "日曜日",
      "祝日"
    ],
    "openDaysNote": ""
  },
  {
    "id": "4670301623",
    "name": "ヘルパーステーション緑ヶ丘",
    "kana": "ヘルパーステーションミドリガオカ",
    "address": "鹿屋市串良町岡崎2801-1",
    "lat": 31.3915519,
    "lng": 130.9479296,
    "tel": "0994-63-3637",
    "url": "http://www15.synapse.ne.jp/mitui-ph/midorigaoka/index.html",
    "pref": "鹿児島県",
    "city": "鹿屋市",
    "category": "home_help",
    "serviceType": "訪問介護",
    "capacity": 0,
    "openDays": [
      "平日",
      "土曜日",
      "日曜日",
      "祝日"
    ],
    "openDaysNote": ""
  },
  {
    "id": "4670302696",
    "name": "ヘルパー事業所リン",
    "kana": "ヘルパージギョウショリン",
    "address": "鹿児島県鹿屋市笠之原町7402番地5",
    "lat": 31.3820651928023,
    "lng": 130.886368531573,
    "tel": "0994-41-0771",
    "url": "https://www.rinnokai.org/",
    "pref": "鹿児島県",
    "city": "鹿屋市",
    "category": "home_help",
    "serviceType": "訪問介護",
    "capacity": 0,
    "openDays": [
      "平日",
      "土曜日"
    ],
    "openDaysNote": "12/31～1/3を除く（改行）上記、営業日、営業時間外に関しては（改行）電話等により２４時間連絡対応可能な体制をとっている"
  },
  {
    "id": "4676400080",
    "name": "ホームヘルパーステーション　グリーンバード",
    "kana": "ホームヘルパーステーション　グリーンバード",
    "address": "輝北町市成2121-3番地",
    "lat": 31.5893780699091,
    "lng": 130.860084456067,
    "tel": "099-485-1414",
    "url": "http://shuhokai.info/",
    "pref": "鹿児島県",
    "city": "鹿屋市",
    "category": "home_help",
    "serviceType": "訪問介護",
    "capacity": 0,
    "openDays": [
      "平日",
      "土曜日",
      "日曜日",
      "祝日"
    ],
    "openDaysNote": "24時間体制"
  },
  {
    "id": "4670301185",
    "name": "ホームヘルパーステーション鹿屋長寿園",
    "kana": "ホームヘルパーステーションカノヤチョウジュエン",
    "address": "笠之原町４５番５２－３号",
    "lat": 31.3825132809635,
    "lng": 130.890790513272,
    "tel": "０９９４－４１－３８８０",
    "url": "helperkanoya@kanoya-choujuen.jp",
    "pref": "鹿児島県",
    "city": "鹿屋市",
    "category": "home_help",
    "serviceType": "訪問介護",
    "capacity": 0,
    "openDays": [
      "平日",
      "土曜日",
      "日曜日",
      "祝日"
    ],
    "openDaysNote": "平常の時間帯は午前８時から午後６時ですが、夜間・深夜・早朝のサービスも実施可能な２４時間体制でのサービス提供に努めております。ただし、平常の時間帯（午前８時から午後６時）以外の時間帯でサービスを行う場合には、利用料金に割増料金が加算されます。夜間（午後６時から午後１０時まで）：２５％　早朝（午前６時から８時まで）：２５％　深夜（午後１０時から午前６時まで）：５０％"
  },
  {
    "id": "4677100069",
    "name": "以和貴苑　指定訪問介護事業所",
    "kana": "イワキエン　シテイホウモンカイゴジギョウショ",
    "address": "鹿屋市串良町下小原3103-2",
    "lat": 31.3962484,
    "lng": 130.931854385267,
    "tel": "0994-62-8883",
    "url": "https://iwakikai.org",
    "pref": "鹿児島県",
    "city": "鹿屋市",
    "category": "home_help",
    "serviceType": "訪問介護",
    "capacity": 0,
    "openDays": [
      "平日",
      "土曜日",
      "日曜日",
      "祝日"
    ],
    "openDaysNote": "要望があれば24時間体制で実施。"
  },
  {
    "id": "4670300351",
    "name": "慈恵園ヘルパーステーション",
    "kana": "ジケイエンヘルパーステーション",
    "address": "鹿児島県鹿屋市大姶良町２２６番地",
    "lat": 31.3325489,
    "lng": 130.83373,
    "tel": "0994－31－9321",
    "url": "http://zikeien.org",
    "pref": "鹿児島県",
    "city": "鹿屋市",
    "category": "home_help",
    "serviceType": "訪問介護",
    "capacity": 120,
    "openDays": [
      "平日",
      "土曜日",
      "日曜日",
      "祝日"
    ],
    "openDaysNote": ""
  },
  {
    "id": "4670301029",
    "name": "社会福祉法人鹿屋市社会福祉協議会訪問介護事業所",
    "kana": "シャカイフクシホウジンカノヤシシャカイフクシキョウギカイカノヤホウモンカイゴジギョウショ",
    "address": "向江町29番2号社会福祉会館 社会福祉会館",
    "lat": 31.3823278,
    "lng": 130.8498802,
    "tel": "0994-42-7222",
    "url": "https://kanoyasyakyou.or.jp/",
    "pref": "鹿児島県",
    "city": "鹿屋市",
    "category": "home_help",
    "serviceType": "訪問介護",
    "capacity": 0,
    "openDays": [
      "平日",
      "土曜日",
      "日曜日",
      "祝日"
    ],
    "openDaysNote": "休業日であっても必要な世帯についてはお問い合わせ下さい。"
  },
  {
    "id": "4670302597",
    "name": "障がい福祉ヘルパーステーションAsobu。鹿屋事業所",
    "kana": "ショウガイフクシヘルパーステーションアソブカノヤジギョウショ",
    "address": "鹿児島県鹿屋市川西町3924-1",
    "lat": 31.3586815,
    "lng": 130.876826,
    "tel": "0994-36-8137",
    "url": "https://r.goope.jp/asobu",
    "pref": "鹿児島県",
    "city": "鹿屋市",
    "category": "home_help",
    "serviceType": "訪問介護",
    "capacity": null,
    "openDays": [
      "平日",
      "土曜日",
      "日曜日",
      "祝日"
    ],
    "openDaysNote": ""
  },
  {
    "id": "4670302563",
    "name": "総合サポートセンター　ラン",
    "kana": "ソウゴウサポートセンター　ラン",
    "address": "鹿児島県鹿屋市飯隈町３３６８番地１",
    "lat": 31.344618,
    "lng": 130.879162,
    "tel": "０９９４－４９－３６３５",
    "url": "http://www.aikohkai.com/",
    "pref": "鹿児島県",
    "city": "鹿屋市",
    "category": "home_help",
    "serviceType": "訪問介護",
    "capacity": null,
    "openDays": [
      "平日",
      "土曜日",
      "日曜日",
      "祝日"
    ],
    "openDaysNote": "上記の営業日、営業時間の他、電話等により２４時間常時連絡が可能な体制とする"
  },
  {
    "id": "4670302050",
    "name": "訪問介護ステーション　あじさい",
    "kana": "ホウモンカイゴステーション　　アジサイ",
    "address": "鹿児島県鹿屋市田崎町1316番地",
    "lat": 31.3640035055943,
    "lng": 130.85760683792,
    "tel": "0994-45-6622",
    "url": "https://www.enishi-smile.co.jp",
    "pref": "鹿児島県",
    "city": "鹿屋市",
    "category": "home_help",
    "serviceType": "訪問介護",
    "capacity": 2,
    "openDays": [
      "平日",
      "土曜日",
      "祝日"
    ],
    "openDaysNote": ""
  },
  {
    "id": "4670302555",
    "name": "訪問介護ステーションたさき",
    "kana": "ホウモンカイゴステーションタサキ",
    "address": "鹿児島県鹿屋市田崎町2815-1",
    "lat": 31.3627742,
    "lng": 130.8489698,
    "tel": "0994-44-0579",
    "url": "",
    "pref": "鹿児島県",
    "city": "鹿屋市",
    "category": "home_help",
    "serviceType": "訪問介護",
    "capacity": 0,
    "openDays": [
      "平日",
      "土曜日",
      "祝日"
    ],
    "openDaysNote": "ご利用者の状況により協議。必要と認められるときは上記に限らない。"
  },
  {
    "id": "4670302274",
    "name": "訪問介護事業所　ゑびすさん",
    "kana": "ホウモンカイゴジギョウショ　エビスサン",
    "address": "鹿児島県鹿屋市札元２丁目3664-1サニーハウス１０２号室 サニーハウス１０２号室",
    "lat": 31.4005400528735,
    "lng": 130.875846150579,
    "tel": "0994-45-6265",
    "url": "",
    "pref": "鹿児島県",
    "city": "鹿屋市",
    "category": "home_help",
    "serviceType": "訪問介護",
    "capacity": 20,
    "openDays": [
      "平日",
      "土曜日",
      "日曜日",
      "祝日"
    ],
    "openDaysNote": ""
  },
  {
    "id": "4670302266",
    "name": "訪問介護事業所　希",
    "kana": "ホウモンカイゴジギョウショ　ノゾミ",
    "address": "鹿児島県鹿屋市上野町4554-11",
    "lat": 31.3810683,
    "lng": 130.8105358,
    "tel": "0994-35-0531",
    "url": "",
    "pref": "鹿児島県",
    "city": "鹿屋市",
    "category": "home_help",
    "serviceType": "訪問介護",
    "capacity": 0,
    "openDays": [
      "平日",
      "土曜日",
      "祝日"
    ],
    "openDaysNote": "緊急事態対応"
  },
  {
    "id": "4670302506",
    "name": "訪問介護事業所いきいき館",
    "kana": "ホウモンカイゴジギョウショイキイキカン",
    "address": "鹿児島県鹿屋市笠之原町3579番地1",
    "lat": 31.3963164630521,
    "lng": 130.877931414194,
    "tel": "0994-45-4316",
    "url": "",
    "pref": "鹿児島県",
    "city": "鹿屋市",
    "category": "home_help",
    "serviceType": "訪問介護",
    "capacity": 0,
    "openDays": [
      "平日",
      "土曜日",
      "日曜日",
      "祝日"
    ],
    "openDaysNote": "営業時間以外も、必要に応じて早朝・夜間のサービス提供をする"
  },
  {
    "id": "4670302324",
    "name": "訪問介護事業所かみの",
    "kana": "ホウモンカイゴジギョウショカミノ",
    "address": "鹿児島県鹿屋市吾平町麓1621-1",
    "lat": 31.3436872564517,
    "lng": 130.909750698332,
    "tel": "0994-45-5160",
    "url": "http://arimasanchi.com/index.html",
    "pref": "鹿児島県",
    "city": "鹿屋市",
    "category": "home_help",
    "serviceType": "訪問介護",
    "capacity": 0,
    "openDays": [
      "平日",
      "土曜日",
      "日曜日",
      "祝日"
    ],
    "openDaysNote": "サービス提供は年中無休で行っています。"
  },
  {
    "id": "4670302175",
    "name": "訪問介護事業所メディカルウイル",
    "kana": "ホウモンカイゴジギョウショメディカルウイル",
    "address": "鹿児島県鹿屋市上谷町11200番地3",
    "lat": 31.3969551537383,
    "lng": 130.845422624684,
    "tel": "0994-44-5654",
    "url": "http://medicalwill.info/",
    "pref": "鹿児島県",
    "city": "鹿屋市",
    "category": "home_help",
    "serviceType": "訪問介護",
    "capacity": 50,
    "openDays": [
      "平日",
      "土曜日",
      "日曜日",
      "祝日"
    ],
    "openDaysNote": "無"
  },
  {
    "id": "4670300153",
    "name": "有限会社　結愛",
    "kana": "ユウゲンガイシャ　ユウアイ",
    "address": "寿8丁目7244-8",
    "lat": 31.3789929,
    "lng": 130.879975,
    "tel": "0994-40-7211",
    "url": "https://www.yuai-kanoya.com/",
    "pref": "鹿児島県",
    "city": "鹿屋市",
    "category": "home_help",
    "serviceType": "訪問介護",
    "capacity": 0,
    "openDays": [
      "平日",
      "土曜日",
      "祝日"
    ],
    "openDaysNote": "深夜の利用についてはお問い合わせください。"
  },
  {
    "id": "4677500086",
    "name": "陵幸園指定訪問介護事業所",
    "kana": "リョウコウエンシテイホウモンカイゴジギョウショ",
    "address": "鹿屋市吾平町麓3805番地",
    "lat": 31.3220883,
    "lng": 130.8929566,
    "tel": "0994-58-6255",
    "url": "https://ryoukoukai1987.com",
    "pref": "鹿児島県",
    "city": "鹿屋市",
    "category": "home_help",
    "serviceType": "訪問介護",
    "capacity": 0,
    "openDays": [
      "平日",
      "土曜日",
      "日曜日",
      "祝日"
    ],
    "openDaysNote": ""
  },
  {
    "id": "4670105586",
    "name": "あおぞら介護ステーション　訪問介護事業所",
    "kana": "アオゾラカイゴステーション　ホウモンカイゴジギョウショ",
    "address": "鹿児島県鹿児島市鴨池２丁目３－１６えりかビル３Ｆ えりかビル３Ｆ",
    "lat": 31.5678020755688,
    "lng": 130.552352301003,
    "tel": "099－214－3315",
    "url": "http://www.aozora-ｇp.com/",
    "pref": "鹿児島県",
    "city": "鹿児島市",
    "category": "home_help",
    "serviceType": "訪問介護",
    "capacity": 600,
    "openDays": [
      "平日",
      "土曜日",
      "日曜日",
      "祝日"
    ],
    "openDaysNote": "夜間等で事業所に担当者が不在の間については、転送電話等により、２４時間常時連絡が可能な体制とする。"
  },
  {
    "id": "4670109919",
    "name": "アドナース鹿児島　訪問介護",
    "kana": "アドナースカゴシマ　ホウモンカイゴ",
    "address": "鹿児島県鹿児島市城西1丁目16-18コーポ薬師堂１F コーポ薬師堂１F",
    "lat": 31.5933147582887,
    "lng": 130.541061339661,
    "tel": "099-248-7920",
    "url": "https://adnurse.co.jp/",
    "pref": "鹿児島県",
    "city": "鹿児島市",
    "category": "home_help",
    "serviceType": "訪問介護",
    "capacity": 10,
    "openDays": [
      "平日",
      "土曜日",
      "日曜日",
      "祝日"
    ],
    "openDaysNote": ""
  },
  {
    "id": "4670109463",
    "name": "あなぶきケアサービス鹿児島",
    "kana": "アナブキケアサービスカゴシマ",
    "address": "鹿児島県鹿児島市上之園町4－15アルファリビング鹿児島上之園内 アルファリビング鹿児島上之園内",
    "lat": 31.5830722317444,
    "lng": 130.548128748549,
    "tel": "099－297－5005",
    "url": "http://www.a－living.jp/uenosono/",
    "pref": "鹿児島県",
    "city": "鹿児島市",
    "category": "home_help",
    "serviceType": "訪問介護",
    "capacity": 0,
    "openDays": [
      "平日",
      "土曜日",
      "日曜日",
      "祝日"
    ],
    "openDaysNote": "※平常の時間帯（午前8時から午後6時）以外の時間帯でサービスを行う場合には、次の割合で利用料金に割り増し料金が加算されます。・夜間（午後6時から午後10時まで）25％　・早朝（午前6時から午前8時まで）25％・深夜（午後10時から午前6時まで）50％"
  },
  {
    "id": "4670113267",
    "name": "アネスト鹿児島訪問介護サービス",
    "kana": "アネストカゴシマホウモンカイゴサービス",
    "address": "鹿児島県鹿児島市武1丁目5-17武ステーション703 武ステーション703",
    "lat": 31.58384,
    "lng": 130.5386822,
    "tel": "099-296-1091",
    "url": "",
    "pref": "鹿児島県",
    "city": "鹿児島市",
    "category": "home_help",
    "serviceType": "訪問介護",
    "capacity": null,
    "openDays": [
      "平日",
      "土曜日",
      "日曜日",
      "祝日"
    ],
    "openDaysNote": "24時間対応可能"
  },
  {
    "id": "4670111675",
    "name": "ありがとう鹿児島支店",
    "kana": "アリガトウ　カゴシマシテン",
    "address": "鹿児島県鹿児島市泉町１２−２０",
    "lat": 53.41291,
    "lng": -8.24388999999997,
    "tel": "099-813-7150",
    "url": "http://kaigo-arigato.com",
    "pref": "鹿児島県",
    "city": "鹿児島市",
    "category": "home_help",
    "serviceType": "訪問介護",
    "capacity": 40,
    "openDays": [
      "平日",
      "土曜日",
      "日曜日",
      "祝日"
    ],
    "openDaysNote": ""
  },
  {
    "id": "4670111964",
    "name": "オーシャンヘルパーステーション",
    "kana": "オーシャンヘルパーステーション",
    "address": "鹿児島県鹿児島市紫原2丁目18-9",
    "lat": 31.5599024,
    "lng": 130.5332596,
    "tel": "099-210-5236",
    "url": "http://jyouseikai.jp",
    "pref": "鹿児島県",
    "city": "鹿児島市",
    "category": "home_help",
    "serviceType": "訪問介護",
    "capacity": 120,
    "openDays": [
      "平日",
      "土曜日",
      "日曜日",
      "祝日"
    ],
    "openDaysNote": "支援時間は時間外も利用者の希望に沿って対応しております"
  },
  {
    "id": "4670113457",
    "name": "カインドハート合同会社",
    "kana": "カインドハートゴウドウガイシャ",
    "address": "鹿児島県鹿児島市伊敷台3丁目２１－５",
    "lat": 31.6298621,
    "lng": 130.5354774,
    "tel": "０９０－５７４７－６００３",
    "url": "",
    "pref": "鹿児島県",
    "city": "鹿児島市",
    "category": "home_help",
    "serviceType": "訪問介護",
    "capacity": 3,
    "openDays": [
      "平日",
      "土曜日",
      "日曜日",
      "祝日"
    ],
    "openDaysNote": "可能な限り緊急対応致します。サービスの提供は、365日無休で行っています。"
  },
  {
    "id": "4670106238",
    "name": "ケアネット徳洲会鹿児島ケアセンター",
    "kana": "ケアネットトクシュウカイカゴシマケアセンター",
    "address": "鹿児島市下荒田３丁目４４番１８号のせビル２０２号 のせビル２０２号",
    "lat": 31.5679262,
    "lng": 130.5532613,
    "tel": "099-263-8325",
    "url": "http://www.carenet-tk.com/",
    "pref": "鹿児島県",
    "city": "鹿児島市",
    "category": "home_help",
    "serviceType": "訪問介護",
    "capacity": 0,
    "openDays": [
      "平日",
      "土曜日",
      "日曜日",
      "祝日"
    ],
    "openDaysNote": "サービス提供時間は、事前に居宅介護支援事業者等により計画された居宅サービス計画に基づくものとし、原則として緊急のサービス依頼をお受けすることはできません。"
  },
  {
    "id": "4670108705",
    "name": "ケアライフ南鹿児島ヘルパーステーション",
    "kana": "ケアライフミナミカゴシマヘルパーステーション",
    "address": "鹿児島県鹿児島市東開町13-29ケアライフ南鹿児島 ケアライフ南鹿児島",
    "lat": 31.5271979,
    "lng": 130.540311,
    "tel": "099-210-1165",
    "url": "http://www.bestlife1165.coｍ/",
    "pref": "鹿児島県",
    "city": "鹿児島市",
    "category": "home_help",
    "serviceType": "訪問介護",
    "capacity": 0,
    "openDays": [
      "平日",
      "土曜日",
      "日曜日",
      "祝日"
    ],
    "openDaysNote": ""
  },
  {
    "id": "4670112590",
    "name": "げんき介護　鹿児島",
    "kana": "ゲンキカイゴ　カゴシマ",
    "address": "小野1丁目11-21ＧＩＮＹＡビル102 ＧＩＮＹＡビル102",
    "lat": 31.612350305241,
    "lng": 130.529619122754,
    "tel": "099-218-3110",
    "url": "kagoshima@elderly/jp",
    "pref": "鹿児島県",
    "city": "鹿児島市",
    "category": "home_help",
    "serviceType": "訪問介護",
    "capacity": 0,
    "openDays": [
      "平日"
    ],
    "openDaysNote": "24時間対応可"
  },
  {
    "id": "4670100744",
    "name": "コープヘルパーステーション鹿児島",
    "kana": "コープヘルパーステーションカゴシマ",
    "address": "広木一丁目1番1号",
    "lat": 31.5680437567311,
    "lng": 130.521723827647,
    "tel": "099-286-1108",
    "url": "",
    "pref": "鹿児島県",
    "city": "鹿児島市",
    "category": "home_help",
    "serviceType": "訪問介護",
    "capacity": 0,
    "openDays": [
      "平日",
      "土曜日",
      "日曜日",
      "祝日"
    ],
    "openDaysNote": ""
  },
  {
    "id": "4670101734",
    "name": "とそ清風園訪問介護事業所",
    "kana": "トソセイフウエンホウモンカイゴジギョウショ",
    "address": "田上台1丁目43番1号",
    "lat": 31.5666506108576,
    "lng": 130.529614249074,
    "tel": "099-286-6661",
    "url": "http://tososeifuen.com",
    "pref": "鹿児島県",
    "city": "鹿児島市",
    "category": "home_help",
    "serviceType": "訪問介護",
    "capacity": 3,
    "openDays": [
      "平日",
      "土曜日",
      "日曜日",
      "祝日"
    ],
    "openDaysNote": ""
  },
  {
    "id": "4670101015",
    "name": "ニチイケアセンター西鹿児島駅前",
    "kana": "ニチイケアセンターニシカゴシマエキマエ",
    "address": "鹿児島県鹿児島市西千石町4-2グリーンパークビル2F グリーンパークビル2F",
    "lat": 31.5885653,
    "lng": 130.5459917,
    "tel": "099-219-1922",
    "url": "http://www.nichiigakkan.co.jp",
    "pref": "鹿児島県",
    "city": "鹿児島市",
    "category": "home_help",
    "serviceType": "訪問介護",
    "capacity": 40,
    "openDays": [
      "平日",
      "土曜日",
      "日曜日",
      "祝日"
    ],
    "openDaysNote": "ただし居宅サービス計画により、営業時間外・休日であっても、サービスの提供を行なう場合がある。"
  },
  {
    "id": "4670103896",
    "name": "ニチイケアセンター南鹿児島",
    "kana": "ニチイケアセンターミナミカゴシマ",
    "address": "鹿児島県鹿児島市宇宿5丁目21番17号",
    "lat": 31.5476168,
    "lng": 130.5317693,
    "tel": "099-275-9882",
    "url": "http://www.nichiigakkan.co.jp",
    "pref": "鹿児島県",
    "city": "鹿児島市",
    "category": "home_help",
    "serviceType": "訪問介護",
    "capacity": 0,
    "openDays": [
      "平日",
      "土曜日",
      "日曜日",
      "祝日"
    ],
    "openDaysNote": "但し、居宅サービス計画により休業日及び営業時間外であっても、サービスの提供を行う場合ある。"
  },
  {
    "id": "4670113044",
    "name": "ハァーティーケアまごころ",
    "kana": "ハァーティーケアマゴコロ",
    "address": "鹿児島県鹿児島市城山１丁目50-3",
    "lat": 31.6084982,
    "lng": 130.5438834,
    "tel": "099-295-3122",
    "url": "",
    "pref": "鹿児島県",
    "city": "鹿児島市",
    "category": "home_help",
    "serviceType": "訪問介護",
    "capacity": 0,
    "openDays": [
      "平日",
      "土曜日",
      "日曜日",
      "祝日"
    ],
    "openDaysNote": ""
  },
  {
    "id": "4670105735",
    "name": "ふくしサービスセンター　げんきママ",
    "kana": "フクシサービスセンター　ゲンキママ",
    "address": "鹿児島市伊敷３丁目２５番２０号",
    "lat": 31.6246709321916,
    "lng": 130.529179987558,
    "tel": "０９９－２１８－８３７０",
    "url": "http://www.fukushi-greencoop.or.jp/",
    "pref": "鹿児島県",
    "city": "鹿児島市",
    "category": "home_help",
    "serviceType": "訪問介護",
    "capacity": 0,
    "openDays": [
      "平日",
      "土曜日",
      "日曜日",
      "祝日"
    ],
    "openDaysNote": "２４時間・３６５日対応"
  },
  {
    "id": "4670104605",
    "name": "ヘルパ－ステ－ション　じゅらく",
    "kana": "ヘルパ－ステ－ション　ジュラク",
    "address": "鹿児島市常盤1丁目24－39",
    "lat": 31.5882070195657,
    "lng": 130.530045177864,
    "tel": "099－814－3737",
    "url": "juraku725@yahoo.co.jp",
    "pref": "鹿児島県",
    "city": "鹿児島市",
    "category": "home_help",
    "serviceType": "訪問介護",
    "capacity": 0,
    "openDays": [
      "平日",
      "土曜日",
      "日曜日",
      "祝日"
    ],
    "openDaysNote": "利用者の要請に基づき早朝、夜間、深夜の対応を行うことができます。"
  },
  {
    "id": "4670104035",
    "name": "ヘルパ－ステ－シヨン　木の花",
    "kana": "ヘルパ－ステ－シヨン　コノハナ",
    "address": "鹿児島県鹿児島市西陵二丁目４７番６号",
    "lat": 31.5794602,
    "lng": 130.5135669,
    "tel": "(099)281-4086",
    "url": "",
    "pref": "鹿児島県",
    "city": "鹿児島市",
    "category": "home_help",
    "serviceType": "訪問介護",
    "capacity": 10,
    "openDays": [
      "平日",
      "土曜日",
      "日曜日",
      "祝日"
    ],
    "openDaysNote": "従業者の体制が可能な限り、上記時間以外でも考慮いたします。"
  },
  {
    "id": "4670110560",
    "name": "ヘルパーステイション　　わかば",
    "kana": "ヘルパーステイション　ワカバ",
    "address": "鹿児島県鹿児島市桜島白浜町１１３６－２",
    "lat": 31.6257693,
    "lng": 130.6647784,
    "tel": "０９９－２９３－３２１６",
    "url": "",
    "pref": "鹿児島県",
    "city": "鹿児島市",
    "category": "home_help",
    "serviceType": "訪問介護",
    "capacity": 0,
    "openDays": [
      "平日",
      "土曜日",
      "日曜日",
      "祝日"
    ],
    "openDaysNote": "臨機応変に対応してます。"
  },
  {
    "id": "4670105024",
    "name": "ヘルパーステーション　あざみ",
    "kana": "ヘルパーステーション　アザミ",
    "address": "鹿児島市草牟田2丁目18番4号里之園ビル102号 里之園ビル102号",
    "lat": 31.6031439,
    "lng": 130.5391084,
    "tel": "099-227-5342",
    "url": "",
    "pref": "鹿児島県",
    "city": "鹿児島市",
    "category": "home_help",
    "serviceType": "訪問介護",
    "capacity": 0,
    "openDays": [
      "平日",
      "土曜日",
      "日曜日",
      "祝日"
    ],
    "openDaysNote": "サービス提供については、365日24時間対応。"
  },
  {
    "id": "4670101056",
    "name": "ヘルパーステーション　オアシスケア吉野",
    "kana": "ヘルパーステーション　オアシスケアヨシノ",
    "address": "鹿児島市吉野町8794-1",
    "lat": 31.6343916744332,
    "lng": 130.577025811708,
    "tel": "099-294-9713",
    "url": "http://kaigonomori.jp",
    "pref": "鹿児島県",
    "city": "鹿児島市",
    "category": "home_help",
    "serviceType": "訪問介護",
    "capacity": 3,
    "openDays": [
      "平日",
      "土曜日",
      "日曜日",
      "祝日"
    ],
    "openDaysNote": "営業時間外においても、サービス提供などが可能な体制をとります。"
  },
  {
    "id": "4670106170",
    "name": "ヘルパーステーション　オアシスケア薬師",
    "kana": "ヘルパーステーション　オアシスケアヤクシ",
    "address": "鹿児島県鹿児島市薬師1丁目20番21号",
    "lat": 31.5929706442558,
    "lng": 130.541227920793,
    "tel": "099-250-6500",
    "url": "http://oasiscare.jp",
    "pref": "鹿児島県",
    "city": "鹿児島市",
    "category": "home_help",
    "serviceType": "訪問介護",
    "capacity": 0,
    "openDays": [
      "平日",
      "土曜日",
      "日曜日",
      "祝日"
    ],
    "openDaysNote": "早朝帯、夜間帯、深夜帯も連絡対応可能"
  },
  {
    "id": "4670103797",
    "name": "ヘルパーステーション　クレール下荒田",
    "kana": "ヘルパーステーション　クレールシモアラタ",
    "address": "鹿児島市下荒田２丁目７番２号",
    "lat": 31.5747172,
    "lng": 130.5537139,
    "tel": "099-255-5538",
    "url": "https://chidorifukusikai.jp/",
    "pref": "鹿児島県",
    "city": "鹿児島市",
    "category": "home_help",
    "serviceType": "訪問介護",
    "capacity": 0,
    "openDays": [
      "平日",
      "土曜日",
      "日曜日",
      "祝日"
    ],
    "openDaysNote": "緊急時やその時々の状況により、相談に応じることができます。"
  },
  {
    "id": "4670108515",
    "name": "ヘルパーステーション　こころ",
    "kana": "ヘルパーステーション　ココロ",
    "address": "鹿児島市向陽２丁目21－22介護事業所こころ 介護事業所こころ",
    "lat": 31.5566338626249,
    "lng": 130.516819882265,
    "tel": "099-204-0033",
    "url": "https://cocoro-kagoshima.com/",
    "pref": "鹿児島県",
    "city": "鹿児島市",
    "category": "home_help",
    "serviceType": "訪問介護",
    "capacity": 0,
    "openDays": [
      "平日",
      "土曜日",
      "日曜日",
      "祝日"
    ],
    "openDaysNote": "但し、居宅サービス計画により休業日及び営業時間外であっても、サービスの提供を行う場合ある。"
  },
  {
    "id": "4670101304",
    "name": "ヘルパーステーション　さくらんぼ",
    "kana": "ヘルパーステーション　サクランボ",
    "address": "鹿児島市下田町1759番地",
    "lat": 31.6460182,
    "lng": 130.5452366,
    "tel": "099-244-8351",
    "url": "http://www.kanyoukai.or.jp/sakuranbo/index.html",
    "pref": "鹿児島県",
    "city": "鹿児島市",
    "category": "home_help",
    "serviceType": "訪問介護",
    "capacity": 80,
    "openDays": [
      "平日",
      "土曜日",
      "日曜日",
      "祝日"
    ],
    "openDaysNote": "必要に応じて相談をお受けします。"
  },
  {
    "id": "4670108598",
    "name": "ヘルパーステーション　たから",
    "kana": "ヘルパーステーション　タカラ",
    "address": "鹿児島県鹿児島市山田町2174番地6号 6号",
    "lat": 31.5650729,
    "lng": 130.5074962,
    "tel": "099-806-5359",
    "url": "http://tkr3a.co.jp/",
    "pref": "鹿児島県",
    "city": "鹿児島市",
    "category": "home_help",
    "serviceType": "訪問介護",
    "capacity": 0,
    "openDays": [
      "平日",
      "土曜日",
      "日曜日",
      "祝日"
    ],
    "openDaysNote": "上記の営業日、営業時間、サービス提供時間のほか、電話等により２４時間常時連絡が可能な体制とする。"
  },
  {
    "id": "4670100728",
    "name": "ヘルパーステーション　ひまわり園",
    "kana": "ヘルパーステーション　ヒマワリエン",
    "address": "伊敷５－４－１７",
    "lat": 31.624536353792,
    "lng": 130.525437661468,
    "tel": "099-295-0796",
    "url": "https://www.himawarien.jp",
    "pref": "鹿児島県",
    "city": "鹿児島市",
    "category": "home_help",
    "serviceType": "訪問介護",
    "capacity": 0,
    "openDays": [
      "平日",
      "土曜日",
      "日曜日",
      "祝日"
    ],
    "openDaysNote": "年中無休（改行）２４時間対応"
  },
  {
    "id": "4670108291",
    "name": "ヘルパーステーション　縁と笑",
    "kana": "ヘルパーステーション　エントショウ",
    "address": "皇徳寺台3丁目33番12号",
    "lat": 31.563923,
    "lng": 130.48781,
    "tel": "099-299-7760",
    "url": "",
    "pref": "鹿児島県",
    "city": "鹿児島市",
    "category": "home_help",
    "serviceType": "訪問介護",
    "capacity": 0,
    "openDays": [
      "平日",
      "土曜日",
      "日曜日",
      "祝日"
    ],
    "openDaysNote": ""
  },
  {
    "id": "4670111857",
    "name": "ヘルパーステーション　憩いの杜",
    "kana": "ヘルパーステーション　イコイノモリ",
    "address": "鹿児島県鹿児島市谷山中央４丁目151-9",
    "lat": 31.517764,
    "lng": 130.5162663,
    "tel": "099-296-8521",
    "url": "",
    "pref": "鹿児島県",
    "city": "鹿児島市",
    "category": "home_help",
    "serviceType": "訪問介護",
    "capacity": 0,
    "openDays": [
      "平日",
      "土曜日",
      "日曜日",
      "祝日"
    ],
    "openDaysNote": ""
  },
  {
    "id": "4670100082",
    "name": "ヘルパーステーション　結の街",
    "kana": "ヘルパーステーション　ユイノマチ",
    "address": "鹿児島市　小原町９番１号",
    "lat": 31.5416119,
    "lng": 130.530528,
    "tel": "０９９－２６７－０１７７",
    "url": "http://www.jiaikai.or.jp/",
    "pref": "鹿児島県",
    "city": "鹿児島市",
    "category": "home_help",
    "serviceType": "訪問介護",
    "capacity": 0,
    "openDays": [
      "平日",
      "土曜日",
      "日曜日",
      "祝日"
    ],
    "openDaysNote": ""
  },
  {
    "id": "4670112434",
    "name": "ヘルパーステーション　寿笑門",
    "kana": "ヘルパーステーション　ジュエモン",
    "address": "鹿児島県鹿児島市坂之上8-12-5",
    "lat": 31.4970886,
    "lng": 130.4993325,
    "tel": "099-262-1970",
    "url": "https://jyuemon-fukuemon.com/",
    "pref": "鹿児島県",
    "city": "鹿児島市",
    "category": "home_help",
    "serviceType": "訪問介護",
    "capacity": 30,
    "openDays": [
      "平日",
      "土曜日",
      "日曜日",
      "祝日"
    ],
    "openDaysNote": ""
  },
  {
    "id": "4670103532",
    "name": "ヘルパーステーション　春うらら",
    "kana": "ヘルパーステーション　ハルウララ",
    "address": "鹿児島市真砂本町21-16",
    "lat": 31.5557996895941,
    "lng": 130.552229595037,
    "tel": "０９９－２５2－６６３８",
    "url": "http://haruurarak.wixsite.com",
    "pref": "鹿児島県",
    "city": "鹿児島市",
    "category": "home_help",
    "serviceType": "訪問介護",
    "capacity": 5,
    "openDays": [
      "平日",
      "土曜日",
      "日曜日",
      "祝日"
    ],
    "openDaysNote": "平常時間帯（午前8時から午後６時）以外の時間帯でのサービスを行う場合には早朝・夜間・深夜の割増料金が加算されます。"
  },
  {
    "id": "4670107137",
    "name": "ヘルパーステーション　清滝",
    "kana": "ヘルパーステーション　キヨタキ",
    "address": "西千石町13－30シニアライフ清滝公園内３階 シニアライフ清滝公園内３階",
    "lat": 31.589443,
    "lng": 130.5490193,
    "tel": "099-213-9900",
    "url": "http://okino-hp.or.jp/",
    "pref": "鹿児島県",
    "city": "鹿児島市",
    "category": "home_help",
    "serviceType": "訪問介護",
    "capacity": 0,
    "openDays": [
      "平日",
      "土曜日",
      "日曜日",
      "祝日"
    ],
    "openDaysNote": ""
  },
  {
    "id": "4670105818",
    "name": "ヘルパーステーション　美都",
    "kana": "ヘルパーステーション　ミト",
    "address": "鹿児島市天保山町11番8号ファミール美都6F ファミール美都6F",
    "lat": 31.5721222809584,
    "lng": 130.561418739426,
    "tel": "099-251-5824",
    "url": "",
    "pref": "鹿児島県",
    "city": "鹿児島市",
    "category": "home_help",
    "serviceType": "訪問介護",
    "capacity": 85,
    "openDays": [
      "平日",
      "土曜日",
      "日曜日",
      "祝日"
    ],
    "openDaysNote": "緊急については、２４時間３６５日対応いたします。"
  },
  {
    "id": "4670111345",
    "name": "ヘルパーステーション　未来の空",
    "kana": "ヘルパーステーション　ミライノソラ",
    "address": "鹿児島県鹿児島市紫原2丁目41番7号バイオレットハイツ202号 バイオレットハイツ202号",
    "lat": 31.5582292857108,
    "lng": 130.538168153006,
    "tel": "992969490",
    "url": "",
    "pref": "鹿児島県",
    "city": "鹿児島市",
    "category": "home_help",
    "serviceType": "訪問介護",
    "capacity": 5,
    "openDays": [
      "平日",
      "土曜日",
      "日曜日",
      "祝日"
    ],
    "openDaysNote": "その他の時間については要相談となっております（改行）現時点で時間外サービス利用されている方おられます"
  },
  {
    "id": "4670112616",
    "name": "ヘルパーステーションM&H",
    "kana": "ヘルパーステーションエムアンドエイチ",
    "address": "鹿児島県鹿児島市天保山町21-1-2階",
    "lat": 31.5742046235201,
    "lng": 130.561720966488,
    "tel": "099-297-6521",
    "url": "https://fuzokushomae.jp",
    "pref": "鹿児島県",
    "city": "鹿児島市",
    "category": "home_help",
    "serviceType": "訪問介護",
    "capacity": 0,
    "openDays": [
      "平日",
      "土曜日",
      "日曜日",
      "祝日"
    ],
    "openDaysNote": "特になし"
  },
  {
    "id": "4670103243",
    "name": "ヘルパーステーションあけぼの",
    "kana": "ヘルパーステーションアケボノ",
    "address": "山田町2021",
    "lat": 31.5633509,
    "lng": 130.5069324,
    "tel": "099-201-1050",
    "url": "http://www.kakuyokai.com/",
    "pref": "鹿児島県",
    "city": "鹿児島市",
    "category": "home_help",
    "serviceType": "訪問介護",
    "capacity": 0,
    "openDays": [
      "平日",
      "土曜日",
      "日曜日",
      "祝日"
    ],
    "openDaysNote": ""
  },
  {
    "id": "4670112095",
    "name": "ヘルパーステーションいしきの杜",
    "kana": "ヘルパーステーションイシキノモリ",
    "address": "鹿児島県鹿児島市伊敷７丁目１３番２３号",
    "lat": 31.6297222,
    "lng": 130.518795,
    "tel": "099-228-7447",
    "url": "",
    "pref": "鹿児島県",
    "city": "鹿児島市",
    "category": "home_help",
    "serviceType": "訪問介護",
    "capacity": 80,
    "openDays": [
      "平日",
      "土曜日",
      "日曜日",
      "祝日"
    ],
    "openDaysNote": ""
  },
  {
    "id": "4670104357",
    "name": "ヘルパーステーションうきぐも",
    "kana": "ヘルパーステーションウキグモ",
    "address": "与次郎２丁目４番３５号ＫＳＣ鴨池ビル３Ｆ ＫＳＣ鴨池ビル３Ｆ",
    "lat": 31.5615018,
    "lng": 130.5624525,
    "tel": "099-250-5680",
    "url": "",
    "pref": "鹿児島県",
    "city": "鹿児島市",
    "category": "home_help",
    "serviceType": "訪問介護",
    "capacity": 0,
    "openDays": [
      "平日",
      "土曜日",
      "日曜日",
      "祝日"
    ],
    "openDaysNote": ""
  },
  {
    "id": "4670107038",
    "name": "ヘルパーステーションかんまち",
    "kana": "ヘルパーステーションカンマチ",
    "address": "鹿児島市上竜尾町4-23",
    "lat": 31.605575281297,
    "lng": 130.560737728836,
    "tel": "099-248-7167",
    "url": "",
    "pref": "鹿児島県",
    "city": "鹿児島市",
    "category": "home_help",
    "serviceType": "訪問介護",
    "capacity": 0,
    "openDays": [
      "平日",
      "土曜日",
      "日曜日",
      "祝日"
    ],
    "openDaysNote": ""
  },
  {
    "id": "4670111899",
    "name": "ヘルパーステーションさくら",
    "kana": "ヘルパーステーションサクラ",
    "address": "清和二丁目1番21号",
    "lat": 31.5328517,
    "lng": 130.5234929,
    "tel": "099－800－6125",
    "url": "",
    "pref": "鹿児島県",
    "city": "鹿児島市",
    "category": "home_help",
    "serviceType": "訪問介護",
    "capacity": 3,
    "openDays": [
      "平日",
      "土曜日",
      "日曜日",
      "祝日"
    ],
    "openDaysNote": "緊急時には可能な限り、時間外の対応も行っています。"
  },
  {
    "id": "4670104936",
    "name": "ヘルパーステーションサザン",
    "kana": "ヘルパーステーションサザン",
    "address": "鹿児島県鹿児島市池之上町９番１４号",
    "lat": 31.6088302,
    "lng": 130.5641702,
    "tel": "099-248-5375",
    "url": "",
    "pref": "鹿児島県",
    "city": "鹿児島市",
    "category": "home_help",
    "serviceType": "訪問介護",
    "capacity": 0,
    "openDays": [
      "平日",
      "土曜日",
      "日曜日",
      "祝日"
    ],
    "openDaysNote": ""
  },
  {
    "id": "4670112830",
    "name": "ヘルパーステーションサンエイ",
    "kana": "ヘルパーステーションサンエイ",
    "address": "鹿児島県鹿児島市谷山中央3丁目383-20　サクセスビル202号",
    "lat": 31.517698921022,
    "lng": 130.519181607047,
    "tel": "090-7987-9422",
    "url": "https://saneicare.com/",
    "pref": "鹿児島県",
    "city": "鹿児島市",
    "category": "home_help",
    "serviceType": "訪問介護",
    "capacity": null,
    "openDays": [
      "平日",
      "土曜日",
      "日曜日",
      "祝日"
    ],
    "openDaysNote": ""
  },
  {
    "id": "4670109489",
    "name": "ヘルパーステーションせせらぎ",
    "kana": "ヘルパーステーション",
    "address": "鹿児島市星ケ峯三丁目28番1号",
    "lat": 31.5812047223928,
    "lng": 130.494003979099,
    "tel": "099-284-7333",
    "url": "http.//www.seseragi-kagoshima.com/",
    "pref": "鹿児島県",
    "city": "鹿児島市",
    "category": "home_help",
    "serviceType": "訪問介護",
    "capacity": 0,
    "openDays": [
      "平日",
      "土曜日",
      "日曜日",
      "祝日"
    ],
    "openDaysNote": "緊急の場合は２４時間対応する。"
  },
  {
    "id": "4670104670",
    "name": "ヘルパーステーションたんぽぽの里",
    "kana": "ヘルパーステーションタンポポノサト",
    "address": "鹿児島県鹿児島市山田町3678-1",
    "lat": 31.5695835,
    "lng": 130.4932037,
    "tel": "099-297-5710",
    "url": "http://tanpoponosato.jp",
    "pref": "鹿児島県",
    "city": "鹿児島市",
    "category": "home_help",
    "serviceType": "訪問介護",
    "capacity": 0,
    "openDays": [
      "平日",
      "土曜日",
      "日曜日",
      "祝日"
    ],
    "openDaysNote": ""
  },
  {
    "id": "4670111501",
    "name": "ヘルパーステーションデイリーライフ",
    "kana": "ヘルパーステーションデイリーライフ",
    "address": "鹿児島県鹿児島市谷山中央6丁目25-10",
    "lat": 31.5150649247704,
    "lng": 130.508398540828,
    "tel": "099-266-1616",
    "url": "",
    "pref": "鹿児島県",
    "city": "鹿児島市",
    "category": "home_help",
    "serviceType": "訪問介護",
    "capacity": 0,
    "openDays": [
      "平日",
      "土曜日",
      "日曜日",
      "祝日"
    ],
    "openDaysNote": ""
  },
  {
    "id": "4670102054",
    "name": "ヘルパーステーションにじの郷たにやま",
    "kana": "ヘルパーステーションニジノサトタニヤマ",
    "address": "鹿児島市中山町5028-80",
    "lat": 31.5397843,
    "lng": 130.5031257,
    "tel": "099-263-6515",
    "url": "http://nizinosato.com/",
    "pref": "鹿児島県",
    "city": "鹿児島市",
    "category": "home_help",
    "serviceType": "訪問介護",
    "capacity": 0,
    "openDays": [
      "平日",
      "土曜日",
      "日曜日",
      "祝日"
    ],
    "openDaysNote": ""
  },
  {
    "id": "4670113382",
    "name": "ヘルパーステーションはぴねす",
    "kana": "ヘルパーステーションハピネス",
    "address": "鹿児島県鹿児島市桜ヶ丘４丁目１−１０グランデール桜ヶ丘９０８号室 グランデール桜ヶ丘９０８号室",
    "lat": 31.5503703893647,
    "lng": 130.516922776102,
    "tel": "099-296-9325",
    "url": "",
    "pref": "鹿児島県",
    "city": "鹿児島市",
    "category": "home_help",
    "serviceType": "訪問介護",
    "capacity": 40,
    "openDays": [
      "平日",
      "土曜日",
      "日曜日",
      "祝日"
    ],
    "openDaysNote": ""
  },
  {
    "id": "4670112376",
    "name": "ヘルパーステーションはれ",
    "kana": "ヘルパーステーション　ハレ",
    "address": "鹿児島県鹿児島市東坂元２丁目47-18",
    "lat": 31.6243845726533,
    "lng": 130.55550956729,
    "tel": "099-295-4207",
    "url": "",
    "pref": "鹿児島県",
    "city": "鹿児島市",
    "category": "home_help",
    "serviceType": "訪問介護",
    "capacity": 0,
    "openDays": [
      "平日",
      "土曜日",
      "祝日"
    ],
    "openDaysNote": "ケアプランの定める時間帯であればいつでも対応可"
  },
  {
    "id": "4670113176",
    "name": "ヘルパーステーションふくろう",
    "kana": "ヘルパーステーションフクロウ",
    "address": "鹿児島市真砂本町9-15-２F",
    "lat": 31.5571191,
    "lng": 130.5515923,
    "tel": "099-253-9387",
    "url": "",
    "pref": "鹿児島県",
    "city": "鹿児島市",
    "category": "home_help",
    "serviceType": "訪問介護",
    "capacity": 0,
    "openDays": [
      "平日",
      "土曜日",
      "日曜日",
      "祝日"
    ],
    "openDaysNote": "ただし、ケアプランの定める時間帯であれば対応いたします"
  },
  {
    "id": "4670110651",
    "name": "ヘルパーステーションみらい",
    "kana": "ヘルパーステーションミライ",
    "address": "鹿児島県鹿児島市下荒田2-8-9",
    "lat": 31.5752841905986,
    "lng": 130.549049765051,
    "tel": "099-298-5351",
    "url": "",
    "pref": "鹿児島県",
    "city": "鹿児島市",
    "category": "home_help",
    "serviceType": "訪問介護",
    "capacity": 0,
    "openDays": [
      "平日",
      "土曜日",
      "日曜日",
      "祝日"
    ],
    "openDaysNote": "ご利用者様の状況により、上記の時間外も対応可能です。（改行）お気軽にご相談ください。"
  },
  {
    "id": "4670113671",
    "name": "ヘルパーステーションやまと",
    "kana": "ヘルパーステーションヤマト",
    "address": "鹿児島県鹿児島市東谷山５丁目４１番３号",
    "lat": 31.5295623,
    "lng": 130.5139165,
    "tel": "050-3595-5446",
    "url": "",
    "pref": "鹿児島県",
    "city": "鹿児島市",
    "category": "home_help",
    "serviceType": "訪問介護",
    "capacity": null,
    "openDays": [
      "平日",
      "土曜日",
      "日曜日",
      "祝日"
    ],
    "openDaysNote": ""
  },
  {
    "id": "4671500066",
    "name": "ヘルパーステーションゆうばえ",
    "kana": "ヘルパーステーションユウバエ",
    "address": "鹿児島市本名町472",
    "lat": 31.6922577833713,
    "lng": 130.546220828172,
    "tel": "099-246-9666",
    "url": "http://www.sekisaikai.jp/index.php",
    "pref": "鹿児島県",
    "city": "鹿児島市",
    "category": "home_help",
    "serviceType": "訪問介護",
    "capacity": 0,
    "openDays": [
      "平日",
      "土曜日",
      "日曜日",
      "祝日"
    ],
    "openDaysNote": "利用時間に関してはご相談に応じます。"
  },
  {
    "id": "4670113465",
    "name": "ヘルパーステーションゆめ",
    "kana": "ヘルパーステーションユメ",
    "address": "鹿児島県鹿児島市田上5-8-19YMコーポ203 YMコーポ203",
    "lat": 31.5780605,
    "lng": 130.5264678,
    "tel": "099-811-2504",
    "url": "https://www.llc-mirai.com/",
    "pref": "鹿児島県",
    "city": "鹿児島市",
    "category": "home_help",
    "serviceType": "訪問介護",
    "capacity": null,
    "openDays": [
      "平日",
      "土曜日",
      "日曜日",
      "祝日"
    ],
    "openDaysNote": ""
  },
  {
    "id": "4670109398",
    "name": "ヘルパーステーションゆりかご",
    "kana": "ヘルパーステーションユリカゴ",
    "address": "鹿児島県鹿児島市伊敷5丁目18番1号",
    "lat": 31.6269864,
    "lng": 130.5263694,
    "tel": "099-229-0180",
    "url": "https：//kaiedageka.jp",
    "pref": "鹿児島県",
    "city": "鹿児島市",
    "category": "home_help",
    "serviceType": "訪問介護",
    "capacity": 15,
    "openDays": [
      "平日",
      "土曜日",
      "日曜日",
      "祝日"
    ],
    "openDaysNote": "ただし、サービス提供は365日、24時間行う。"
  },
  {
    "id": "4670101072",
    "name": "ヘルパーステーション甲東",
    "kana": "ヘルパーステーションコウトウ",
    "address": "鹿児島市新町5番19号高田ビル405号 高田ビル405号",
    "lat": 31.589725427791,
    "lng": 130.558820530025,
    "tel": "099-219-2670",
    "url": "http://www.gyokushoukai.com",
    "pref": "鹿児島県",
    "city": "鹿児島市",
    "category": "home_help",
    "serviceType": "訪問介護",
    "capacity": 0,
    "openDays": [
      "平日",
      "土曜日",
      "日曜日",
      "祝日"
    ],
    "openDaysNote": "上記以外の派遣につきましては相談に応じます。"
  },
  {
    "id": "4670100967",
    "name": "ヘルパーステーション甲南",
    "kana": "ヘルパーステーションコウナン",
    "address": "鹿児島市高麗町８－２５自社ビル　４Ｆ 自社ビル　４Ｆ",
    "lat": 31.5825189,
    "lng": 130.5498861,
    "tel": "099-251-4623",
    "url": "http://osamebyouin.synapse.kagoshima.jp",
    "pref": "鹿児島県",
    "city": "鹿児島市",
    "category": "home_help",
    "serviceType": "訪問介護",
    "capacity": 0,
    "openDays": [
      "平日",
      "土曜日",
      "日曜日",
      "祝日"
    ],
    "openDaysNote": "時間外の利用は、お問い合わせください。"
  },
  {
    "id": "4670101031",
    "name": "ヘルパーステーション城西",
    "kana": "ヘルパーステーションジョウセイ",
    "address": "鹿児島市鷹師1丁目4－1プランタン西田橋2階 プランタン西田橋2階",
    "lat": 31.5887818,
    "lng": 130.543403,
    "tel": "099－206－5156",
    "url": "http://www.jikeikai.net",
    "pref": "鹿児島県",
    "city": "鹿児島市",
    "category": "home_help",
    "serviceType": "訪問介護",
    "capacity": 0,
    "openDays": [
      "平日",
      "土曜日",
      "日曜日",
      "祝日"
    ],
    "openDaysNote": "電話等により、２４時間常時連絡が可能な体制とする。"
  },
  {
    "id": "4670106154",
    "name": "ヘルパーステーション真砂本町",
    "kana": "ヘルパーステーションマサゴホンマチ",
    "address": "鹿児島県鹿児島市真砂本町１２番２号三州会サテライトビル２Ｆ 三州会サテライトビル２Ｆ",
    "lat": 31.5580943,
    "lng": 130.5508855,
    "tel": "099-253-5788",
    "url": "http://ookatsu.jp/",
    "pref": "鹿児島県",
    "city": "鹿児島市",
    "category": "home_help",
    "serviceType": "訪問介護",
    "capacity": 0,
    "openDays": [
      "平日",
      "土曜日",
      "日曜日",
      "祝日"
    ],
    "openDaysNote": "年中無休対応"
  },
  {
    "id": "4670104639",
    "name": "ヘルパーステーション西千石",
    "kana": "ヘルパーステーションニシセンコク",
    "address": "鹿児島県鹿児島市西千石町8番13号",
    "lat": 31.5883737,
    "lng": 130.5481221,
    "tel": "099-223-5426",
    "url": "http://www.jinpuh.or.jp",
    "pref": "鹿児島県",
    "city": "鹿児島市",
    "category": "home_help",
    "serviceType": "訪問介護",
    "capacity": 0,
    "openDays": [
      "平日",
      "土曜日",
      "日曜日",
      "祝日"
    ],
    "openDaysNote": ""
  },
  {
    "id": "4670113887",
    "name": "へルパーステーション青い鳥",
    "kana": "ヘルパーステーションアオイトリ",
    "address": "鹿児島県鹿児島市小野3丁目14-11エスポアールハイツ102 エスポアールハイツ102",
    "lat": 31.6122977,
    "lng": 130.5223492,
    "tel": "099-294-9921",
    "url": "",
    "pref": "鹿児島県",
    "city": "鹿児島市",
    "category": "home_help",
    "serviceType": "訪問介護",
    "capacity": 0,
    "openDays": [
      "平日",
      "土曜日",
      "祝日"
    ],
    "openDaysNote": "日曜日、年末年始は要相談にて対応いたします。"
  },
  {
    "id": "4670113366",
    "name": "ヘルパーステーション鶴丸ホーム",
    "kana": "ヘルパーステーションツルマルホーム",
    "address": "明和1-25-11",
    "lat": null,
    "lng": null,
    "tel": "099-282-1810",
    "url": "https://tsuruhome.com",
    "pref": "鹿児島県",
    "city": "鹿児島市",
    "category": "home_help",
    "serviceType": "訪問介護",
    "capacity": 0,
    "openDays": [
      "平日"
    ],
    "openDaysNote": ""
  },
  {
    "id": "4670112368",
    "name": "ヘルパーステーション美顔",
    "kana": "ヘルパーステーションビガン",
    "address": "鹿児島県鹿児島市中山2丁目15番31号",
    "lat": 31.5464085,
    "lng": 130.5076415,
    "tel": "099-814-7221",
    "url": "",
    "pref": "鹿児島県",
    "city": "鹿児島市",
    "category": "home_help",
    "serviceType": "訪問介護",
    "capacity": 0,
    "openDays": [
      "平日",
      "土曜日",
      "日曜日",
      "祝日"
    ],
    "openDaysNote": ""
  },
  {
    "id": "4670113127",
    "name": "ヘルパーステーション美顔清和",
    "kana": "ヘルパーステーションビガンセイワ",
    "address": "清和3丁目15-1",
    "lat": 31.5370469680376,
    "lng": 130.508028541139,
    "tel": "099-814-7737",
    "url": "",
    "pref": "鹿児島県",
    "city": "鹿児島市",
    "category": "home_help",
    "serviceType": "訪問介護",
    "capacity": 40,
    "openDays": [
      "平日",
      "土曜日",
      "日曜日",
      "祝日"
    ],
    "openDaysNote": "24時間365日の営業"
  },
  {
    "id": "4670111279",
    "name": "ヘルパーステーション風凛",
    "kana": "ヘルパーステーションフウリン",
    "address": "鹿児島県鹿児島市荒田2丁目22-10山内ビル105 山内ビル105",
    "lat": 31.5724256,
    "lng": 130.548492,
    "tel": "099-296-1572",
    "url": "",
    "pref": "鹿児島県",
    "city": "鹿児島市",
    "category": "home_help",
    "serviceType": "訪問介護",
    "capacity": 0,
    "openDays": [
      "平日",
      "土曜日",
      "日曜日",
      "祝日"
    ],
    "openDaysNote": "利用者がサービスを必要とする場合　又は　急を要する場合は、営業時間外においてもサービス提供等が可能な休制とする。（改行）電話により、２４時間常時連絡が可能な体制とする。"
  },
  {
    "id": "4670112087",
    "name": "ヘルパーステーション本名の郷",
    "kana": "ヘルパーステーションホンミョウノサト",
    "address": "鹿児島県鹿児島市本名町1083番地2",
    "lat": 31.6840176,
    "lng": 130.5535485,
    "tel": "099-294-3434",
    "url": "",
    "pref": "鹿児島県",
    "city": "鹿児島市",
    "category": "home_help",
    "serviceType": "訪問介護",
    "capacity": 0,
    "openDays": [
      "平日",
      "土曜日",
      "日曜日",
      "祝日"
    ],
    "openDaysNote": ""
  },
  {
    "id": "4670108713",
    "name": "ヘルパーステーション陽光花",
    "kana": "ヘルパーステーションヨウコウカ",
    "address": "鹿児島県鹿児島市石谷町９９５－５ヘルパーステーション陽光花 ヘルパーステーション陽光花",
    "lat": 31.6206034,
    "lng": 130.462225,
    "tel": "099-210-7852",
    "url": "www.youkouka.co.jp",
    "pref": "鹿児島県",
    "city": "鹿児島市",
    "category": "home_help",
    "serviceType": "訪問介護",
    "capacity": 38,
    "openDays": [
      "平日",
      "土曜日",
      "日曜日",
      "祝日"
    ],
    "openDaysNote": "年中無休（改行）原則として24時間対応可能"
  },
  {
    "id": "4670110446",
    "name": "ヘルパーステーション蘭",
    "kana": "ヘルパーステーションラン",
    "address": "鹿児島市郡山町1455番地",
    "lat": 31.6792618901504,
    "lng": 130.474080792204,
    "tel": "099-210-7722",
    "url": "https://maruyamaseikeigeka.jp",
    "pref": "鹿児島県",
    "city": "鹿児島市",
    "category": "home_help",
    "serviceType": "訪問介護",
    "capacity": 0,
    "openDays": [
      "平日",
      "土曜日"
    ],
    "openDaysNote": "電話等により24時間常時連絡が可能な体制をとっている。"
  },
  {
    "id": "4670113390",
    "name": "ヘルパーステーション侑介",
    "kana": "ヘルパーステーションユカイ",
    "address": "鹿児島県鹿児島市紫原３丁目31-10れいめい壱番館 れいめい壱番館",
    "lat": 31.5519758,
    "lng": 130.5368944,
    "tel": "099-230-7576",
    "url": "http://www.hwyuu.com",
    "pref": "鹿児島県",
    "city": "鹿児島市",
    "category": "home_help",
    "serviceType": "訪問介護",
    "capacity": 60,
    "openDays": [
      "平日",
      "土曜日",
      "日曜日",
      "祝日"
    ],
    "openDaysNote": ""
  },
  {
    "id": "4670102963",
    "name": "ホーム―ヘルパーステーション　西陵",
    "kana": "ホームヘルパーステーション　セイリョウ",
    "address": "西陵一丁目43-1",
    "lat": 31.5837958,
    "lng": 130.5157498,
    "tel": "099-283-7010",
    "url": "http://www.kea-seiryo.com/",
    "pref": "鹿児島県",
    "city": "鹿児島市",
    "category": "home_help",
    "serviceType": "訪問介護",
    "capacity": 0,
    "openDays": [
      "平日",
      "土曜日",
      "日曜日",
      "祝日"
    ],
    "openDaysNote": "電話などにより、24時間常時連絡が可能な体制とする。"
  },
  {
    "id": "4670114067",
    "name": "ホームケア土屋鹿児島",
    "kana": "ホームケアツチヤカゴシマ",
    "address": "鹿児島県鹿児島市船津町4-6カーサ・グランデ船津1001号室 カーサ・グランデ船津1001号室",
    "lat": 31.5888927,
    "lng": 130.5582993,
    "tel": "050-3138-6057",
    "url": "https://share.google/raBCpz9Vw3yRvHs3S",
    "pref": "鹿児島県",
    "city": "鹿児島市",
    "category": "home_help",
    "serviceType": "訪問介護",
    "capacity": 0,
    "openDays": [
      "平日",
      "土曜日",
      "日曜日"
    ],
    "openDaysNote": "サービス提供日年中無休（改行）サービス提供時間24時間とする。"
  },
  {
    "id": "4670101999",
    "name": "ホームヘルパーステーション　旭ヶ丘園",
    "kana": "ホームヘルパーステーション　アサヒガオカエン",
    "address": "鹿児島市平川町1382番地",
    "lat": 31.46621,
    "lng": 130.5037873,
    "tel": "099-262-2222",
    "url": "https://kyokuseikai.com/",
    "pref": "鹿児島県",
    "city": "鹿児島市",
    "category": "home_help",
    "serviceType": "訪問介護",
    "capacity": 153,
    "openDays": [
      "平日",
      "土曜日",
      "日曜日",
      "祝日"
    ],
    "openDaysNote": "時間については相談に応じる"
  },
  {
    "id": "4670109653",
    "name": "ホームヘルプサービス　小山田",
    "kana": "ホームヘルプサービス　コヤマダ",
    "address": "鹿児島市下伊敷3丁目１７－２",
    "lat": 31.6173844,
    "lng": 130.5342497,
    "tel": "０９９－２９５－６６８０",
    "url": "ｓｈｉｎｗａ＠ｐｏ２．ｓｙｎａｐｓｅ．ｎｅ．ｊｐ",
    "pref": "鹿児島県",
    "city": "鹿児島市",
    "category": "home_help",
    "serviceType": "訪問介護",
    "capacity": 0,
    "openDays": [
      "平日",
      "土曜日",
      "日曜日",
      "祝日"
    ],
    "openDaysNote": "深夜帯は要相談。"
  },
  {
    "id": "4670101718",
    "name": "ホームヘルプサービス桜の苑",
    "kana": "ホームヘルプサービスサクラノソノ",
    "address": "下福元町9057番地",
    "lat": 31.4978237092361,
    "lng": 130.487338598148,
    "tel": "099-284-6382",
    "url": "",
    "pref": "鹿児島県",
    "city": "鹿児島市",
    "category": "home_help",
    "serviceType": "訪問介護",
    "capacity": 40,
    "openDays": [
      "平日",
      "土曜日",
      "日曜日",
      "祝日"
    ],
    "openDaysNote": ""
  },
  {
    "id": "4670101437",
    "name": "ホームヘルプステーション高喜苑",
    "kana": "ホームヘルプステーションコウキエン",
    "address": "小野町2427-2",
    "lat": 31.5996135,
    "lng": 130.5124024,
    "tel": "099-283-6875",
    "url": "http://www.saiseikai-kg.jp/",
    "pref": "鹿児島県",
    "city": "鹿児島市",
    "category": "home_help",
    "serviceType": "訪問介護",
    "capacity": 0,
    "openDays": [
      "平日",
      "土曜日",
      "日曜日",
      "祝日"
    ],
    "openDaysNote": "サービスの提供にあたっては、ケアプランに則り２４時間体制で、利用者等からの相談に応じ対応します。"
  },
  {
    "id": "4670103177",
    "name": "まつしたケアサービス",
    "kana": "マツシタケアサービス",
    "address": "鹿児島県鹿児島市西田1丁目6-23アビタシオン松下2階 アビタシオン松下2階",
    "lat": 31.5873737,
    "lng": 130.5448085,
    "tel": "099-251-6100",
    "url": "http://matsushita-care.com/",
    "pref": "鹿児島県",
    "city": "鹿児島市",
    "category": "home_help",
    "serviceType": "訪問介護",
    "capacity": 115,
    "openDays": [],
    "openDaysNote": "介護計画に応じて24時間365日対応します。"
  },
  {
    "id": "4670103649",
    "name": "むぎのめケアステーション",
    "kana": "ムギノメケアステーション",
    "address": "鹿児島市川上町1862-1",
    "lat": 31.657846963494,
    "lng": 130.563927074869,
    "tel": "099-244-7995",
    "url": "http://www.muginome-fukushi.or.jp",
    "pref": "鹿児島県",
    "city": "鹿児島市",
    "category": "home_help",
    "serviceType": "訪問介護",
    "capacity": 0,
    "openDays": [
      "平日",
      "土曜日",
      "日曜日",
      "祝日"
    ],
    "openDaysNote": ""
  },
  {
    "id": "4670111980",
    "name": "やさしい手平之町訪問介護事業所",
    "kana": "ヤサシイテヒラノチョウホウモンカイゴジギョウショ",
    "address": "鹿児島県鹿児島市平之町17-7",
    "lat": 31.5924643129472,
    "lng": 130.545737282376,
    "tel": "050-1752-0255",
    "url": "http://www.yasashiite.com/",
    "pref": "鹿児島県",
    "city": "鹿児島市",
    "category": "home_help",
    "serviceType": "訪問介護",
    "capacity": 0,
    "openDays": [
      "平日",
      "土曜日",
      "日曜日",
      "祝日"
    ],
    "openDaysNote": ""
  },
  {
    "id": "4670109596",
    "name": "ら・千年　ヘルパーステーション",
    "kana": "ラ・センネン　ヘルパーステーション",
    "address": "鹿児島県鹿児島市千年２丁目１１番２１号",
    "lat": 31.640199863234,
    "lng": 130.524210284864,
    "tel": "０９９－２２０－７５３５",
    "url": "",
    "pref": "鹿児島県",
    "city": "鹿児島市",
    "category": "home_help",
    "serviceType": "訪問介護",
    "capacity": 49,
    "openDays": [
      "平日",
      "土曜日",
      "日曜日",
      "祝日"
    ],
    "openDaysNote": ""
  },
  {
    "id": "4670100991",
    "name": "医療法人明輝会　ヘルパ－ステ－ションよしの",
    "kana": "イリョウホウジンメイキカイ　ヘルパ－ステ－ション　ヨシノ",
    "address": "鹿児島市吉野2丁目１７番１５号総合ケアセンタ－よしの 総合ケアセンタ－よしの",
    "lat": 31.6559618,
    "lng": 130.5674403,
    "tel": "099-243-7711",
    "url": "ｈttｐ：//ｗｗｗ.ｍeikikai.com/",
    "pref": "鹿児島県",
    "city": "鹿児島市",
    "category": "home_help",
    "serviceType": "訪問介護",
    "capacity": 0,
    "openDays": [
      "平日",
      "土曜日",
      "日曜日",
      "祝日"
    ],
    "openDaysNote": "24時間連絡可能な体制がとれています。"
  },
  {
    "id": "4670112012",
    "name": "宇宿訪問介護事業所",
    "kana": "ウスキジュンカイホウモンカイゴジギョウショ",
    "address": "宇宿3-1-1カワイビル２階 カワイビル２階",
    "lat": 31.544781,
    "lng": 130.5372912,
    "tel": "050-1741-8544",
    "url": "http://www.yasashiite.com/subdomains/section/481/",
    "pref": "鹿児島県",
    "city": "鹿児島市",
    "category": "home_help",
    "serviceType": "訪問介護",
    "capacity": 200,
    "openDays": [
      "平日",
      "土曜日",
      "日曜日",
      "祝日"
    ],
    "openDaysNote": "住宅型有料老人ホーム内"
  },
  {
    "id": "4670106360",
    "name": "介護センター　悠悠",
    "kana": "カイゴセンター　ユウユウ",
    "address": "鹿児島市吉野二丁目12番12号",
    "lat": 31.6564062,
    "lng": 130.5655182,
    "tel": "998142025",
    "url": "",
    "pref": "鹿児島県",
    "city": "鹿児島市",
    "category": "home_help",
    "serviceType": "訪問介護",
    "capacity": 0,
    "openDays": [
      "平日",
      "土曜日",
      "日曜日",
      "祝日"
    ],
    "openDaysNote": "時間等はご相談ください"
  },
  {
    "id": "4670104928",
    "name": "介護支援センター　ヘルパーステーション　ちょう家",
    "kana": "カイゴシエンセンター　ヘルパーステーション　チョウヤ",
    "address": "鹿児島市坂元町20-13",
    "lat": 31.6206594,
    "lng": 130.5515289,
    "tel": "099-248-6438",
    "url": "",
    "pref": "鹿児島県",
    "city": "鹿児島市",
    "category": "home_help",
    "serviceType": "訪問介護",
    "capacity": 0,
    "openDays": [
      "平日",
      "土曜日",
      "日曜日",
      "祝日"
    ],
    "openDaysNote": "但し、利用契約を結んだ場合　必要に応じて対応するものとする。"
  },
  {
    "id": "4670101445",
    "name": "介護支援センター愛",
    "kana": "カイゴシエンセンターアイ",
    "address": "鹿児島市吉野二丁目13番13号",
    "lat": 31.6565968936328,
    "lng": 130.566049173016,
    "tel": "099-243-1766",
    "url": "http://www.kawamoto-cl.or.jp/",
    "pref": "鹿児島県",
    "city": "鹿児島市",
    "category": "home_help",
    "serviceType": "訪問介護",
    "capacity": 80,
    "openDays": [
      "平日",
      "土曜日",
      "日曜日",
      "祝日"
    ],
    "openDaysNote": ""
  },
  {
    "id": "4670103078",
    "name": "介護派遣サービス　ぶどうの木",
    "kana": "カイゴハケンサービス　ブドウノキ",
    "address": "鹿児島県鹿児島市上荒田町23番8号リファレンス上荒田101号室 リファレンス上荒田101号室",
    "lat": 31.5764242337536,
    "lng": 130.541914484076,
    "tel": "099-252-8441",
    "url": "",
    "pref": "鹿児島県",
    "city": "鹿児島市",
    "category": "home_help",
    "serviceType": "訪問介護",
    "capacity": 0,
    "openDays": [
      "平日",
      "土曜日",
      "日曜日",
      "祝日"
    ],
    "openDaysNote": ""
  },
  {
    "id": "4670107814",
    "name": "株式会社　ほのぼの介護・玉里",
    "kana": "カブシキガイシャ　ホノボノカイゴ・タマザト",
    "address": "鹿児島県鹿児島市城山1丁目7－65城山Nビル101号室 城山Nビル101号室",
    "lat": 31.603013,
    "lng": 130.5436009,
    "tel": "099－298-9358",
    "url": "",
    "pref": "鹿児島県",
    "city": "鹿児島市",
    "category": "home_help",
    "serviceType": "訪問介護",
    "capacity": 0,
    "openDays": [
      "平日",
      "土曜日",
      "日曜日",
      "祝日"
    ],
    "openDaysNote": ""
  },
  {
    "id": "4670113200",
    "name": "元気サポート花花",
    "kana": "ゲンキサポートハナハナ",
    "address": "鹿児島県鹿児島市緑ヶ丘町７番８号",
    "lat": 31.6569813,
    "lng": 130.5463631,
    "tel": "099-244-9333",
    "url": "",
    "pref": "鹿児島県",
    "city": "鹿児島市",
    "category": "home_help",
    "serviceType": "訪問介護",
    "capacity": 0,
    "openDays": [
      "平日",
      "土曜日",
      "日曜日",
      "祝日"
    ],
    "openDaysNote": ""
  },
  {
    "id": "4670105768",
    "name": "社会福祉法人グリーンコープ　ふくしサービスセンター　ミナミ",
    "kana": "シャカイフクシホウジングリーンコープフクシサービスセンターミナミ",
    "address": "小松原一丁目６４番２５号",
    "lat": 31.5415758,
    "lng": 130.5159018,
    "tel": "０９９－２６７－０００１",
    "url": "ｍ２５ｗｃｏａ＠ｇｒｅｅｎｃｏｏｐ．ｏｒ．ｊｐ",
    "pref": "鹿児島県",
    "city": "鹿児島市",
    "category": "home_help",
    "serviceType": "訪問介護",
    "capacity": 21,
    "openDays": [
      "平日",
      "土曜日",
      "日曜日",
      "祝日"
    ],
    "openDaysNote": "月～日曜日　毎日（改行）（改行）２４時間対応"
  },
  {
    "id": "4671500058",
    "name": "寿康園訪問介護事業所",
    "kana": "ジュコウエンホウモンカイゴジギョウショ",
    "address": "鹿児島市本名町234番地",
    "lat": 25.0083253,
    "lng": 121.5170166,
    "tel": "099-800-6365",
    "url": "http://jukouen.jp/",
    "pref": "鹿児島県",
    "city": "鹿児島市",
    "category": "home_help",
    "serviceType": "訪問介護",
    "capacity": 0,
    "openDays": [
      "平日",
      "土曜日",
      "日曜日",
      "祝日"
    ],
    "openDaysNote": ""
  },
  {
    "id": "4673100048",
    "name": "松元訪問介護事業所",
    "kana": "マツモトホウモンカイゴジギョウショ",
    "address": "鹿児島県鹿児島市上谷口町3366番地5",
    "lat": 31.5967294,
    "lng": 130.4295024,
    "tel": "099-246-7088",
    "url": "https://syafukuseijukai.com/",
    "pref": "鹿児島県",
    "city": "鹿児島市",
    "category": "home_help",
    "serviceType": "訪問介護",
    "capacity": 0,
    "openDays": [
      "平日",
      "土曜日",
      "祝日"
    ],
    "openDaysNote": "原則として月曜日から土曜日までとなっておりますが、ご要望があれば原則に拘わらず24時間常時連絡又はサービスの提供が可能な体制をとっています。"
  },
  {
    "id": "4670101841",
    "name": "清谿園訪問介護ステーションおかめ会",
    "kana": "セイケイエンホウモンカイゴステーションオカメカイ",
    "address": "鹿児島県鹿児島市山田町3801番地",
    "lat": 31.5733301672235,
    "lng": 130.491642009361,
    "tel": "099-264-0001",
    "url": "http://www.seikeien.com",
    "pref": "鹿児島県",
    "city": "鹿児島市",
    "category": "home_help",
    "serviceType": "訪問介護",
    "capacity": 0,
    "openDays": [
      "平日",
      "土曜日",
      "日曜日",
      "祝日"
    ],
    "openDaysNote": "年中無休で対応"
  },
  {
    "id": "4670101874",
    "name": "生協ヘルパーステーション・たにやま",
    "kana": "セイキョウヘルパーステーション・タニヤマ",
    "address": "鹿児島市谷山中央三丁目4582番地",
    "lat": 31.5200861,
    "lng": 130.5186244,
    "tel": "099-260-3009",
    "url": "",
    "pref": "鹿児島県",
    "city": "鹿児島市",
    "category": "home_help",
    "serviceType": "訪問介護",
    "capacity": 0,
    "openDays": [
      "平日",
      "土曜日",
      "日曜日",
      "祝日"
    ],
    "openDaysNote": ""
  },
  {
    "id": "4670105602",
    "name": "生協ヘルパーステーション・鹿児島北",
    "kana": "セイキョウヘルパーステーション・カゴシマキタ",
    "address": "鹿児島市鴨池新町5番8号",
    "lat": 31.5550025,
    "lng": 130.5571892,
    "tel": "099-250-3273",
    "url": "http://www.kiseikyo.or.jp",
    "pref": "鹿児島県",
    "city": "鹿児島市",
    "category": "home_help",
    "serviceType": "訪問介護",
    "capacity": 0,
    "openDays": [
      "平日",
      "土曜日",
      "日曜日",
      "祝日"
    ],
    "openDaysNote": ""
  },
  {
    "id": "4670100785",
    "name": "泰山荘訪問介護",
    "kana": "タイザンソウホウモンカイゴ",
    "address": "鹿児島県鹿児島市皆与志町2261番地1",
    "lat": 31.6656241,
    "lng": 130.5291985,
    "tel": "099-238-5855",
    "url": "https://taizansou.jp",
    "pref": "鹿児島県",
    "city": "鹿児島市",
    "category": "home_help",
    "serviceType": "訪問介護",
    "capacity": 0,
    "openDays": [
      "平日",
      "土曜日",
      "日曜日",
      "祝日"
    ],
    "openDaysNote": ""
  },
  {
    "id": "4670103615",
    "name": "中央介護サービス訪問介護事業所",
    "kana": "チュウオウカイゴサービスホウモンカイゴジギョウショ",
    "address": "鹿児島市荒田2丁目22番2号",
    "lat": 31.5726117,
    "lng": 130.5486615,
    "tel": "099-256-0304",
    "url": "",
    "pref": "鹿児島県",
    "city": "鹿児島市",
    "category": "home_help",
    "serviceType": "訪問介護",
    "capacity": 120,
    "openDays": [
      "平日",
      "土曜日",
      "日曜日",
      "祝日"
    ],
    "openDaysNote": "緊急時・事故発生時の対応については上記以外でも可"
  },
  {
    "id": "4673200087",
    "name": "特定非営利活動法人　ほたるの里ヘルパーステーション郡山",
    "kana": "トクテイヒエイリカツドウホウジンホタルノサトヘルパーステーションコオリヤマ",
    "address": "鹿児島県鹿児島市油須木町21番地1",
    "lat": 31.6878735,
    "lng": 130.4788561,
    "tel": "099-298-2337",
    "url": "",
    "pref": "鹿児島県",
    "city": "鹿児島市",
    "category": "home_help",
    "serviceType": "訪問介護",
    "capacity": 0,
    "openDays": [
      "平日",
      "土曜日",
      "日曜日",
      "祝日"
    ],
    "openDaysNote": "サービス提供については、24時間体制"
  },
  {
    "id": "4670102716",
    "name": "特定非営利活動法人鹿児島自立支援ネットワーク",
    "kana": "トクテイヒエイリカツドウホウジンカゴシマジリツシエンネットワーク",
    "address": "宇宿５丁目２２－２",
    "lat": 31.5473580272079,
    "lng": 130.53270442209,
    "tel": "０９９－２６５－９１１５",
    "url": "http://www.k-jiritsushien.or.jp/",
    "pref": "鹿児島県",
    "city": "鹿児島市",
    "category": "home_help",
    "serviceType": "訪問介護",
    "capacity": 0,
    "openDays": [
      "平日",
      "土曜日",
      "日曜日",
      "祝日"
    ],
    "openDaysNote": "早朝時間6：00～8：00（改行）夜間時間18：00～22：00（改行）深夜時間22：00～6：00"
  },
  {
    "id": "4610113591",
    "name": "白石病院　　訪問介護事業所",
    "kana": "シライシビョウイン　　ホウモンカイゴジギョウショ",
    "address": "鹿児島市薬師1丁目12番22号",
    "lat": 31.5913008673992,
    "lng": 130.541641760817,
    "tel": "099-204-0313",
    "url": "",
    "pref": "鹿児島県",
    "city": "鹿児島市",
    "category": "home_help",
    "serviceType": "訪問介護",
    "capacity": 50,
    "openDays": [
      "平日",
      "土曜日",
      "日曜日",
      "祝日"
    ],
    "openDaysNote": ""
  },
  {
    "id": "4670102104",
    "name": "美樹園ヘルパーステーション",
    "kana": "ミキエンヘルパーステーション",
    "address": "鹿児島市谷山中央２丁目４５１５番地",
    "lat": 31.5228137,
    "lng": 130.5191909,
    "tel": "099-266-5955",
    "url": "https://mikien.or.jp",
    "pref": "鹿児島県",
    "city": "鹿児島市",
    "category": "home_help",
    "serviceType": "訪問介護",
    "capacity": 0,
    "openDays": [],
    "openDaysNote": "24時間サービスを利用出来ます"
  },
  {
    "id": "4670112798",
    "name": "訪問介護　とどけあ鹿児島",
    "kana": "ホウモンカイゴ　トドケアカゴシマ",
    "address": "堀江町２番１０号ドクタープレミアムＢＬＤ５Ｆ ドクタープレミアムＢＬＤ５Ｆ",
    "lat": 31.5913267,
    "lng": 130.5595512,
    "tel": "099-224-5130",
    "url": "https://www.caresync.jp",
    "pref": "鹿児島県",
    "city": "鹿児島市",
    "category": "home_help",
    "serviceType": "訪問介護",
    "capacity": 0,
    "openDays": [
      "平日",
      "土曜日",
      "日曜日",
      "祝日"
    ],
    "openDaysNote": ""
  },
  {
    "id": "4670106691",
    "name": "訪問介護（介護予防訪問介護）事業所　ライフサポート慈遊館",
    "kana": "ホウモンカイゴ（カイゴヨボウホウモンカイゴ）ジギョウショ　ライフサポートジユウカン",
    "address": "鹿児島市下福元町2635パークヒルズ慈遊館内1階 パークヒルズ慈遊館内1階",
    "lat": 31.5117502,
    "lng": 130.4972045,
    "tel": "099-263-3090",
    "url": "",
    "pref": "鹿児島県",
    "city": "鹿児島市",
    "category": "home_help",
    "serviceType": "訪問介護",
    "capacity": 0,
    "openDays": [
      "平日",
      "土曜日",
      "日曜日",
      "祝日"
    ],
    "openDaysNote": "電話等により24時間常時連絡が可能な体制をとっています。（改行）7時～8時、18時～21時の時間帯のサービス提供に関しては、早朝夜間に必要と認められ、ケアプランに記載されている内容のサービスを提供します。"
  },
  {
    "id": "4670111642",
    "name": "訪問介護いろ葉レンジャー",
    "kana": "ホウモンカイゴイロハレンジャー",
    "address": "鹿児島市小松原２丁目３９−１",
    "lat": 31.5282022496951,
    "lng": 130.524500574767,
    "tel": "099-297-6242",
    "url": "",
    "pref": "鹿児島県",
    "city": "鹿児島市",
    "category": "home_help",
    "serviceType": "訪問介護",
    "capacity": 0,
    "openDays": [
      "平日",
      "土曜日",
      "日曜日",
      "祝日"
    ],
    "openDaysNote": ""
  },
  {
    "id": "4670110578",
    "name": "訪問介護コンフォート",
    "kana": "ホウモンカイゴコンフォート",
    "address": "武岡１丁目１１３番３０号２階",
    "lat": 31.5878647,
    "lng": 130.5256763,
    "tel": "099-230-7639",
    "url": "comfort-takeoka.jp",
    "pref": "鹿児島県",
    "city": "鹿児島市",
    "category": "home_help",
    "serviceType": "訪問介護",
    "capacity": 0,
    "openDays": [
      "平日",
      "土曜日",
      "日曜日",
      "祝日"
    ],
    "openDaysNote": ""
  },
  {
    "id": "4670108564",
    "name": "訪問介護ｽﾃｰｼｮﾝきいれ",
    "kana": "ホウモンカイゴステーションキイレ",
    "address": "喜入前之浜町7808-1老人保健施設ｻﾝｼｬｲﾝきいれ 老人保健施設ｻﾝｼｬｲﾝきいれ",
    "lat": 31.350947817941,
    "lng": 130.552774658861,
    "tel": "099-343-1176",
    "url": "http://kiire.jp/",
    "pref": "鹿児島県",
    "city": "鹿児島市",
    "category": "home_help",
    "serviceType": "訪問介護",
    "capacity": 0,
    "openDays": [
      "平日",
      "土曜日",
      "日曜日",
      "祝日"
    ],
    "openDaysNote": ""
  },
  {
    "id": "4670113879",
    "name": "訪問介護ステーション　ココレ",
    "kana": "ホウモンカイゴステーション　ココレ",
    "address": "鹿児島県鹿児島市武1丁目5-18グランシャリオ武305号 グランシャリオ武305号",
    "lat": 31.583932,
    "lng": 130.5387014,
    "tel": "099-296-9554",
    "url": "",
    "pref": "鹿児島県",
    "city": "鹿児島市",
    "category": "home_help",
    "serviceType": "訪問介護",
    "capacity": 0,
    "openDays": [
      "平日",
      "土曜日",
      "日曜日",
      "祝日"
    ],
    "openDaysNote": ""
  },
  {
    "id": "4670112186",
    "name": "訪問介護ステーション　ソーネット",
    "kana": "ホウモンカイゴステーション　ソーネット",
    "address": "鹿児島県鹿児島市喜入町7020番地１株式会社ソーネット 株式会社ソーネット",
    "lat": 31.372910877945,
    "lng": 130.54231902805,
    "tel": "099-297-5772",
    "url": "",
    "pref": "鹿児島県",
    "city": "鹿児島市",
    "category": "home_help",
    "serviceType": "訪問介護",
    "capacity": 0,
    "openDays": [
      "平日",
      "土曜日",
      "日曜日",
      "祝日"
    ],
    "openDaysNote": ""
  },
  {
    "id": "4670101791",
    "name": "訪問介護ステーションかもいけ",
    "kana": "ホウモンカイゴステーションカモイケ",
    "address": "鹿児島市東郡元町12番3号",
    "lat": 31.5539110317436,
    "lng": 130.548662758573,
    "tel": "099-252-8303",
    "url": "https://jifukai.jp/stationkamoike/",
    "pref": "鹿児島県",
    "city": "鹿児島市",
    "category": "home_help",
    "serviceType": "訪問介護",
    "capacity": 10,
    "openDays": [
      "平日",
      "土曜日",
      "祝日"
    ],
    "openDaysNote": "利用者の必要性や身体状況等に応じ、早朝や夜間の派遣にも対応致します。"
  },
  {
    "id": "4670112665",
    "name": "訪問介護ステーションてあて",
    "kana": "ホウモンカイゴステーションテアテ",
    "address": "鹿児島市坂之上3丁目8番1",
    "lat": 31.5068765646087,
    "lng": 130.50217823055,
    "tel": "099-806-5000",
    "url": "https://cure-connect.jp/",
    "pref": "鹿児島県",
    "city": "鹿児島市",
    "category": "home_help",
    "serviceType": "訪問介護",
    "capacity": null,
    "openDays": [
      "平日",
      "土曜日",
      "日曜日",
      "祝日"
    ],
    "openDaysNote": "緊急時及び要望によっては、営業時間外のサービスも対応致します。"
  },
  {
    "id": "4670113135",
    "name": "訪問介護ステーションどっとけあ",
    "kana": "ホウモンカイゴステーションドットケア",
    "address": "光山2-3-56",
    "lat": 31.4902106,
    "lng": 130.5056181,
    "tel": "099-822-7887",
    "url": "",
    "pref": "鹿児島県",
    "city": "鹿児島市",
    "category": "home_help",
    "serviceType": "訪問介護",
    "capacity": 0,
    "openDays": [
      "平日",
      "土曜日",
      "日曜日",
      "祝日"
    ],
    "openDaysNote": ""
  },
  {
    "id": "4670108234",
    "name": "訪問介護ステーションぶどうの木",
    "kana": "ホウモンカイゴステーションブドウノキ",
    "address": "鹿児島県鹿児島市東谷山6丁目6番11号",
    "lat": 31.5368493302874,
    "lng": 130.522937238658,
    "tel": "099-298-5087",
    "url": "",
    "pref": "鹿児島県",
    "city": "鹿児島市",
    "category": "home_help",
    "serviceType": "訪問介護",
    "capacity": 13,
    "openDays": [
      "平日",
      "土曜日",
      "日曜日",
      "祝日"
    ],
    "openDaysNote": ""
  },
  {
    "id": "4670112293",
    "name": "訪問介護ステーションほりん",
    "kana": "ホウモンカイゴステーションホリン",
    "address": "鹿児島県鹿児島市石谷町４９９５-１",
    "lat": 31.6162545329668,
    "lng": 130.446233322976,
    "tel": "０９９-２９５－６１５５",
    "url": "http://www5.synapse.ne.jp/horin/",
    "pref": "鹿児島県",
    "city": "鹿児島市",
    "category": "home_help",
    "serviceType": "訪問介護",
    "capacity": null,
    "openDays": [
      "平日",
      "土曜日",
      "日曜日",
      "祝日"
    ],
    "openDaysNote": ""
  },
  {
    "id": "4670103680",
    "name": "訪問介護ステーション空",
    "kana": "ホウモンカイゴステーションソラ",
    "address": "鹿児島県鹿児島市西伊敷５丁目10番8号",
    "lat": 31.6427019299046,
    "lng": 130.540843518404,
    "tel": "099-220-4392",
    "url": "https://www.luck-is-in-sky.com/",
    "pref": "鹿児島県",
    "city": "鹿児島市",
    "category": "home_help",
    "serviceType": "訪問介護",
    "capacity": 0,
    "openDays": [
      "平日",
      "土曜日",
      "祝日"
    ],
    "openDaysNote": "但し、利用者様の希望により上記以外の時間にも対応しています。"
  },
  {
    "id": "4670113598",
    "name": "訪問介護たなか",
    "kana": "ホウモンカイゴタナカ",
    "address": "鹿児島市本名町1077番地",
    "lat": 31.6835755963934,
    "lng": 130.554130761558,
    "tel": "099-801-7755",
    "url": "http://human-tanaka.com/",
    "pref": "鹿児島県",
    "city": "鹿児島市",
    "category": "home_help",
    "serviceType": "訪問介護",
    "capacity": null,
    "openDays": [
      "平日",
      "土曜日",
      "日曜日",
      "祝日"
    ],
    "openDaysNote": ""
  },
  {
    "id": "4670112822",
    "name": "訪問介護プレジャー",
    "kana": "ホウモンカイゴ　プレジャァ",
    "address": "鹿児島県鹿児島市西坂元町１２－２２",
    "lat": 31.5578977,
    "lng": 130.5561194,
    "tel": "099-210-7080",
    "url": "",
    "pref": "鹿児島県",
    "city": "鹿児島市",
    "category": "home_help",
    "serviceType": "訪問介護",
    "capacity": 0,
    "openDays": [
      "平日"
    ],
    "openDaysNote": ""
  },
  {
    "id": "4670112194",
    "name": "訪問介護ゆあ",
    "kana": "ホウモンカイゴユア",
    "address": "鹿児島県鹿児島市清水町17番10号住宅型有料老人ホームゆあ-1Ｆ 住宅型有料老人ホームゆあ-1Ｆ",
    "lat": 31.6072915,
    "lng": 130.5684727,
    "tel": "099-248-5712",
    "url": "",
    "pref": "鹿児島県",
    "city": "鹿児島市",
    "category": "home_help",
    "serviceType": "訪問介護",
    "capacity": 0,
    "openDays": [
      "平日",
      "土曜日",
      "日曜日",
      "祝日"
    ],
    "openDaysNote": "365日（改行）24時間"
  },
  {
    "id": "4670109232",
    "name": "訪問介護リバーサイド城西",
    "kana": "ホウモンカイゴ　リバーサイドジョウセイ",
    "address": "鹿児島市城西１丁目２－２２　3階こしのクリニック３階 こしのクリニック３階",
    "lat": 31.5936868,
    "lng": 130.5421585,
    "tel": "099-256-5025",
    "url": "http://www.taihoukai.jp/riverside_kaigo/index.html",
    "pref": "鹿児島県",
    "city": "鹿児島市",
    "category": "home_help",
    "serviceType": "訪問介護",
    "capacity": 0,
    "openDays": [
      "平日",
      "土曜日",
      "日曜日",
      "祝日"
    ],
    "openDaysNote": "ケアプランに応じて24時間365日のサービスの提供"
  },
  {
    "id": "4670114059",
    "name": "訪問介護事業所　つながり",
    "kana": "ホウモンカイゴジギョウショ　ツナガリ",
    "address": "鹿児島県鹿児島市田上5丁目40-22オチャード305号 オチャード305号",
    "lat": 31.5769515,
    "lng": 130.5207357,
    "tel": "099-800-5021",
    "url": "https://0612cofix.com",
    "pref": "鹿児島県",
    "city": "鹿児島市",
    "category": "home_help",
    "serviceType": "訪問介護",
    "capacity": null,
    "openDays": [
      "平日",
      "土曜日",
      "日曜日",
      "祝日"
    ],
    "openDaysNote": ""
  },
  {
    "id": "4670113606",
    "name": "訪問介護事業所　パークハウス",
    "kana": "ホウモンカイゴジギョウショ　パークハウス",
    "address": "鹿児島県鹿児島市冷水町12-17",
    "lat": 31.6056437,
    "lng": 130.551085,
    "tel": "998378141",
    "url": "",
    "pref": "鹿児島県",
    "city": "鹿児島市",
    "category": "home_help",
    "serviceType": "訪問介護",
    "capacity": 0,
    "openDays": [
      "平日",
      "土曜日",
      "日曜日",
      "祝日"
    ],
    "openDaysNote": ""
  },
  {
    "id": "4670112327",
    "name": "訪問介護事業所かうぴり",
    "kana": "ホウモンカイゴジギョウショカウピリ",
    "address": "鹿児島県鹿児島市清和３丁目１２番地２６号シャルム松元Ａ０１ シャルム松元Ａ０１",
    "lat": 31.5344904,
    "lng": 130.5088279,
    "tel": "099-210-5182",
    "url": "",
    "pref": "鹿児島県",
    "city": "鹿児島市",
    "category": "home_help",
    "serviceType": "訪問介護",
    "capacity": 0,
    "openDays": [
      "平日",
      "土曜日",
      "日曜日",
      "祝日"
    ],
    "openDaysNote": ""
  },
  {
    "id": "4670109331",
    "name": "訪問介護事業所せせらぎの里鹿児島南",
    "kana": "ホウモンカイゴジギョウショセセラギノサトカゴシマミナミ",
    "address": "東谷山2丁目5-8",
    "lat": 31.5310852,
    "lng": 130.5241346,
    "tel": "099-210-0753",
    "url": "http://www.seseragi-minami.jp",
    "pref": "鹿児島県",
    "city": "鹿児島市",
    "category": "home_help",
    "serviceType": "訪問介護",
    "capacity": 0,
    "openDays": [
      "平日",
      "土曜日",
      "日曜日",
      "祝日"
    ],
    "openDaysNote": "サービス提供は２４時間対応"
  },
  {
    "id": "4670103516",
    "name": "訪問介護事業所ひなた",
    "kana": "ホウモンカイゴジギョウショヒナタ",
    "address": "田上台4丁目9-8",
    "lat": 31.5747694010114,
    "lng": 130.526055916208,
    "tel": "099-813-8721",
    "url": "http://www.hinata-scs.com/",
    "pref": "鹿児島県",
    "city": "鹿児島市",
    "category": "home_help",
    "serviceType": "訪問介護",
    "capacity": 3,
    "openDays": [
      "平日",
      "土曜日",
      "日曜日",
      "祝日"
    ],
    "openDaysNote": "電話等により、24時間常時連絡が可能な体制とする。"
  },
  {
    "id": "4671600056",
    "name": "訪問介護事業所桜島苑",
    "kana": "ホウモンカイゴジギョウショサクラジマエン",
    "address": "鹿児島県鹿児島市桜島横山町1722－45",
    "lat": 31.5901132,
    "lng": 130.602123,
    "tel": "099－293－4411",
    "url": "https://sakurajimaen.com",
    "pref": "鹿児島県",
    "city": "鹿児島市",
    "category": "home_help",
    "serviceType": "訪問介護",
    "capacity": 0,
    "openDays": [
      "平日",
      "土曜日",
      "日曜日",
      "祝日"
    ],
    "openDaysNote": "２４時間となっているが、夜間帯の利用者はいない"
  },
  {
    "id": "4670108986",
    "name": "訪問介護事業所来夢来灯",
    "kana": "ホウモンカイゴジギョウショライムライト",
    "address": "鹿児島市東開町３－１７９",
    "lat": 31.5300013579968,
    "lng": 130.530874365854,
    "tel": "０９９ー２０４ー９２３３",
    "url": "https://toukaimedical.jp/raimuraito",
    "pref": "鹿児島県",
    "city": "鹿児島市",
    "category": "home_help",
    "serviceType": "訪問介護",
    "capacity": 28,
    "openDays": [],
    "openDaysNote": "365日、24時間"
  },
  {
    "id": "4670113507",
    "name": "訪問介護道しるべ",
    "kana": "ホウモンカイゴミチシルベ",
    "address": "鹿児島県鹿児島市平之町9－33牧野ビル5階 牧野ビル5階",
    "lat": 31.5899902,
    "lng": 130.5475607,
    "tel": "099－210ー7575",
    "url": "https://www.matthews-japan.com",
    "pref": "鹿児島県",
    "city": "鹿児島市",
    "category": "home_help",
    "serviceType": "訪問介護",
    "capacity": 0,
    "openDays": [
      "平日",
      "土曜日",
      "日曜日",
      "祝日"
    ],
    "openDaysNote": "基本、上記時間にておこなうが、ご相談に応じて時間外にも、対応を行います。"
  },
  {
    "id": "4670105552",
    "name": "睦園訪問介護事業所",
    "kana": "ムツミエンホウモンカイゴジギョウショ",
    "address": "鹿児島県鹿児島市吉野町６０７７番地５６",
    "lat": 31.6501791,
    "lng": 130.5927005,
    "tel": "099-244-8845",
    "url": "https://www.mutumien.com",
    "pref": "鹿児島県",
    "city": "鹿児島市",
    "category": "home_help",
    "serviceType": "訪問介護",
    "capacity": 0,
    "openDays": [
      "平日",
      "土曜日",
      "日曜日",
      "祝日"
    ],
    "openDaysNote": "特になし"
  },
  {
    "id": "4670105511",
    "name": "有限会社一葉商店　ヘルパーステーションはな・花",
    "kana": "（ユウ）イチハショウテン　ヘルパーステーション　ハナ・ハナ",
    "address": "鹿児島市紫原6丁目19-10大洋ハイツ206号 大洋ハイツ206号",
    "lat": 31.5628845,
    "lng": 130.5319018,
    "tel": "099-206-3610",
    "url": "",
    "pref": "鹿児島県",
    "city": "鹿児島市",
    "category": "home_help",
    "serviceType": "訪問介護",
    "capacity": 0,
    "openDays": [
      "平日",
      "土曜日",
      "日曜日",
      "祝日"
    ],
    "openDaysNote": "訪問介護計画に基づくサービスの提供。"
  },
  {
    "id": "4674800075",
    "name": "ＪＡ鹿児島いずみ指定訪問介護事業所",
    "kana": "ジェイエイカゴシマイズミシテイホウモンカイゴジギョウショ",
    "address": "出水市高尾野町下水流890番地ＪＡ鹿児島いずみ介護福祉センター ＪＡ鹿児島いずみ介護福祉センター",
    "lat": 32.0862917978066,
    "lng": 130.286235637434,
    "tel": "0996-82-0021",
    "url": "https://ja-izumi.or.jp/care/",
    "pref": "鹿児島県",
    "city": "出水市",
    "category": "home_help",
    "serviceType": "訪問介護",
    "capacity": 0,
    "openDays": [
      "平日",
      "土曜日",
      "日曜日",
      "祝日"
    ],
    "openDaysNote": "電話等により、24時間常時連絡が可能な体制である。"
  },
  {
    "id": "4670801077",
    "name": "コミュニティケアいずみ　野田サテライト",
    "kana": "コミュニティケアイズミ　ノダサテライト",
    "address": "鹿児島県　出水市　野田町上名830-4サービス付き高齢者向け住宅　コミュニティケアいずみ内 サービス付き高齢者向け住宅　コミュニティケアいずみ内",
    "lat": 32.0557997155163,
    "lng": 130.270398172538,
    "tel": "0996-68-1752",
    "url": "community-care-izumi.jp",
    "pref": "鹿児島県",
    "city": "出水市",
    "category": "home_help",
    "serviceType": "訪問介護",
    "capacity": 0,
    "openDays": [
      "平日",
      "土曜日",
      "日曜日",
      "祝日"
    ],
    "openDaysNote": "ただし、利用者の要請に基づき、時間外の対応を行うことができることとします。"
  },
  {
    "id": "4670800418",
    "name": "ニチイケアセンタ－五万石",
    "kana": "ニチイケアセンタ-ゴマンゴク",
    "address": "中央町1600番地",
    "lat": 32.0784341,
    "lng": 130.3419373,
    "tel": "0996-63-4549",
    "url": "http://www.nichiigakkan.co.jp",
    "pref": "鹿児島県",
    "city": "出水市",
    "category": "home_help",
    "serviceType": "訪問介護",
    "capacity": 0,
    "openDays": [
      "平日",
      "土曜日",
      "日曜日",
      "祝日"
    ],
    "openDaysNote": "但し、居宅サｰビス計画により、休業日及び営業時間外であっても、サｰビスの提供を行う場合がある。"
  },
  {
    "id": "4670801085",
    "name": "ニチイケアセンター高尾野",
    "kana": "ニチイケアセンタータカオノ",
    "address": "鹿児島県出水市高尾野町大久保639-1Ｍテナントビル1Ｆ Ｍテナントビル1Ｆ",
    "lat": 32.0624712333707,
    "lng": 130.312942489584,
    "tel": "0996-65-6762",
    "url": "http://www.nichiigakkan.co.jp",
    "pref": "鹿児島県",
    "city": "出水市",
    "category": "home_help",
    "serviceType": "訪問介護",
    "capacity": 0,
    "openDays": [
      "平日",
      "土曜日",
      "日曜日",
      "祝日"
    ],
    "openDaysNote": "居宅サービス計画により、休業日であってもサービスの提供を行う場合がある。"
  },
  {
    "id": "4670800038",
    "name": "ニチイケアセンター出水",
    "kana": "ニチイケアセンターイズミ",
    "address": "鹿児島県出水市昭和町17-22",
    "lat": 32.0891943,
    "lng": 130.3521919,
    "tel": "0996-63-5803",
    "url": "http://www.nichiigakkan.co.jp",
    "pref": "鹿児島県",
    "city": "出水市",
    "category": "home_help",
    "serviceType": "訪問介護",
    "capacity": 0,
    "openDays": [
      "平日",
      "土曜日",
      "日曜日",
      "祝日"
    ],
    "openDaysNote": "居宅サービス計画により、休業日であってもサービスの提供を行う場合がある。"
  },
  {
    "id": "4674700077",
    "name": "ビジケアセンター野田の郷",
    "kana": "ビジケアセンターノダノサト",
    "address": "野田町下名4,975番地2",
    "lat": 32.0623477766869,
    "lng": 130.25947543248,
    "tel": "0996-84-2998",
    "url": "https://nodanosato.jp/",
    "pref": "鹿児島県",
    "city": "出水市",
    "category": "home_help",
    "serviceType": "訪問介護",
    "capacity": 0,
    "openDays": [
      "平日",
      "土曜日",
      "日曜日",
      "祝日"
    ],
    "openDaysNote": ""
  },
  {
    "id": "4670800541",
    "name": "ふくしサービスセンター愛ちゃん",
    "kana": "フクシサービスセンターアイチャン",
    "address": "緑町４０番５０号グリーンコープかごしま生協いずみん グリーンコープかごしま生協いずみん",
    "lat": 35.9532592,
    "lng": 139.3905432,
    "tel": "０９９６－６３－６７７６",
    "url": "m34wcoa@greencoop.or.jp",
    "pref": "鹿児島県",
    "city": "出水市",
    "category": "home_help",
    "serviceType": "訪問介護",
    "capacity": 0,
    "openDays": [
      "平日",
      "土曜日",
      "日曜日",
      "祝日"
    ],
    "openDaysNote": "月曜日～日曜日（３６５日、２４時間対応）（改行）事業所営業時間以外の電話は転送システム"
  },
  {
    "id": "4670800830",
    "name": "ヘルパーステーション　コミュニティケアいずみ",
    "kana": "ヘルパーステーション　コミュニティケアイズミ",
    "address": "上鯖淵1008番地27",
    "lat": 32.0855339376974,
    "lng": 130.364801163368,
    "tel": "0996－79－4841",
    "url": "https://www.community-care-izumi.jp/",
    "pref": "鹿児島県",
    "city": "出水市",
    "category": "home_help",
    "serviceType": "訪問介護",
    "capacity": 0,
    "openDays": [
      "平日",
      "土曜日",
      "日曜日",
      "祝日"
    ],
    "openDaysNote": ""
  },
  {
    "id": "4670800806",
    "name": "ヘルパーステーションさくら彩",
    "kana": "ヘルパーステーションサクライロ",
    "address": "鹿児島県出水市高尾野町柴引3522サービス付高齢者向け住宅さくら彩内 サービス付高齢者向け住宅さくら彩内",
    "lat": 32.0473287,
    "lng": 130.305557,
    "tel": "0996-82-1686",
    "url": "http://sakura-izumi.com/",
    "pref": "鹿児島県",
    "city": "出水市",
    "category": "home_help",
    "serviceType": "訪問介護",
    "capacity": 0,
    "openDays": [
      "平日",
      "土曜日",
      "日曜日",
      "祝日"
    ],
    "openDaysNote": "※但し、心身の状況その他利用者側のやむを得ない事情により、営業時間外であってもサービスを提供するものとする。"
  },
  {
    "id": "4670800525",
    "name": "介護ステーション出水の里",
    "kana": "カイゴステーションイズミノサト",
    "address": "出水市境町1822",
    "lat": 32.1661337,
    "lng": 130.3597676,
    "tel": "0996-67-3801",
    "url": "http://www.izumi-kouseikai.or.jp",
    "pref": "鹿児島県",
    "city": "出水市",
    "category": "home_help",
    "serviceType": "訪問介護",
    "capacity": 0,
    "openDays": [
      "平日",
      "土曜日",
      "日曜日",
      "祝日"
    ],
    "openDaysNote": "サービス提供時間については、利用者様のニーズに合わせて柔軟に対応いたします。"
  },
  {
    "id": "4670800574",
    "name": "株式会社ティー・シー・エス訪問介護事業所",
    "kana": "カブシキガイシャティー・シー・エスホウモンカイゴジギョウショ",
    "address": "鹿児島県西出水町１４１１－３有料老人ホームケアプロ21いずみ 有料老人ホームケアプロ21いずみ",
    "lat": 32.0734457,
    "lng": 130.3377265,
    "tel": "０９９６－６３－５３０３",
    "url": "www.tcs-h.co.jp/",
    "pref": "鹿児島県",
    "city": "出水市",
    "category": "home_help",
    "serviceType": "訪問介護",
    "capacity": 0,
    "openDays": [
      "平日",
      "土曜日",
      "日曜日",
      "祝日"
    ],
    "openDaysNote": ""
  },
  {
    "id": "4670800491",
    "name": "社会福祉法人出水市社会福祉協議会高尾野支所訪問介護事業所",
    "kana": "シャカイフクシホウジンイズミシシャカイフクシキョウギカイタカオノシショホウモンカイゴジギョウショ",
    "address": "出水市高尾野町大久保600-2",
    "lat": 32.0626746561316,
    "lng": 130.310635285311,
    "tel": "0996-82-5507",
    "url": "https://izumi-shakyo.jp/",
    "pref": "鹿児島県",
    "city": "出水市",
    "category": "home_help",
    "serviceType": "訪問介護",
    "capacity": 1,
    "openDays": [
      "平日"
    ],
    "openDaysNote": ""
  },
  {
    "id": "4670800483",
    "name": "社会福祉法人出水市社会福祉協議会訪問介護事業所",
    "kana": "シャカイフクシホウジンイズミシシャカイフクシキョウギカイホウモンカイゴジギョウショ",
    "address": "鹿児島県出水市平和町97番地出水市社会福祉会館 出水市社会福祉会館",
    "lat": 32.0867248,
    "lng": 130.3296794,
    "tel": "0996-63-7564",
    "url": "http://www.shakyo.or.jp/hp/1735/",
    "pref": "鹿児島県",
    "city": "出水市",
    "category": "home_help",
    "serviceType": "訪問介護",
    "capacity": 0,
    "openDays": [
      "平日",
      "土曜日",
      "日曜日",
      "祝日"
    ],
    "openDaysNote": ""
  },
  {
    "id": "4670801028",
    "name": "訪問介護　はる風",
    "kana": "ホウモンカイゴ　ハルカゼ",
    "address": "鹿児島県出水市大野原町742番地",
    "lat": 32.0764537,
    "lng": 130.3297769,
    "tel": "0996-79-3572",
    "url": "",
    "pref": "鹿児島県",
    "city": "出水市",
    "category": "home_help",
    "serviceType": "訪問介護",
    "capacity": 39,
    "openDays": [
      "平日",
      "土曜日",
      "日曜日",
      "祝日"
    ],
    "openDaysNote": "契約書、重要事項説明書にてサービスの開始、（改行）８時から１８時までが通常料金、その他の時間帯は割増料金となります。"
  },
  {
    "id": "4670800780",
    "name": "訪問介護事業所彩加里",
    "kana": "ホウモンカイゴジギョウショアカリ",
    "address": "鹿児島県出水市高尾野町　下水流2280-3訪問介護事業所彩加里 訪問介護事業所彩加里",
    "lat": 32.0950403,
    "lng": 130.3019563,
    "tel": "0996-79-3665",
    "url": "http://www.souhu-akari.com/",
    "pref": "鹿児島県",
    "city": "出水市",
    "category": "home_help",
    "serviceType": "訪問介護",
    "capacity": 28,
    "openDays": [
      "平日",
      "土曜日",
      "日曜日",
      "祝日"
    ],
    "openDaysNote": "入居時契約書　重要事項説明書にてサービスの開始"
  },
  {
    "id": "4671400036",
    "name": "垂水市社会福祉協議会訪問介護事業所",
    "kana": "タルミズシシャカイフクシキョウギカイホウモンカイゴジギョウショ",
    "address": "垂水市田神11番地1",
    "lat": 31.4968366,
    "lng": 130.7018835,
    "tel": "0994-32-6277",
    "url": "http://www.shakyo.or.jp/hp/1738/",
    "pref": "鹿児島県",
    "city": "垂水市",
    "category": "home_help",
    "serviceType": "訪問介護",
    "capacity": 0,
    "openDays": [
      "平日",
      "土曜日",
      "日曜日",
      "祝日"
    ],
    "openDaysNote": ""
  },
  {
    "id": "4678600117",
    "name": "加計呂麻園訪問介護事業所",
    "kana": "カケロマエンホウモンカイゴジギョウショ",
    "address": "大島郡瀬戸内町伊子茂187番地1",
    "lat": 28.1085957,
    "lng": 129.243878,
    "tel": "0997-76-0808",
    "url": "kakeromaen.jp",
    "pref": "鹿児島県",
    "city": "瀬戸内町",
    "category": "home_help",
    "serviceType": "訪問介護",
    "capacity": 0,
    "openDays": [
      "平日",
      "土曜日",
      "日曜日",
      "祝日"
    ],
    "openDaysNote": ""
  },
  {
    "id": "4678600083",
    "name": "社会福祉法人瀬戸内町社会福祉協議会訪問介護事業所",
    "kana": "シャカイフクシホウジンセトウチチョウシャカイフクシキョウギカイホウモンカイゴジギョウショ",
    "address": "鹿児島県大島郡瀬戸内町古仁屋船津16番地1",
    "lat": 28.1478426257653,
    "lng": 129.314451319667,
    "tel": "０９９７－７２－４１４４",
    "url": "",
    "pref": "鹿児島県",
    "city": "瀬戸内町",
    "category": "home_help",
    "serviceType": "訪問介護",
    "capacity": 0,
    "openDays": [
      "平日",
      "土曜日",
      "日曜日",
      "祝日"
    ],
    "openDaysNote": "上記サービス提供時間外でも緊急対応は可能。"
  },
  {
    "id": "4678600133",
    "name": "生協ヘルパーステーションせとうち",
    "kana": "セイキョウヘルパーステーションセトウチ",
    "address": "大島郡瀬戸内町古仁屋松江16-4",
    "lat": 28.149097638793,
    "lng": 129.312515281367,
    "tel": "0997-72-3567",
    "url": "http://www2.synapse.ne.jp/iryouseikyou/",
    "pref": "鹿児島県",
    "city": "瀬戸内町",
    "category": "home_help",
    "serviceType": "訪問介護",
    "capacity": 0,
    "openDays": [
      "平日",
      "土曜日",
      "日曜日",
      "祝日"
    ],
    "openDaysNote": "サービス提供時間外も利用者やその家族の相談に応ずる"
  },
  {
    "id": "4671300335",
    "name": "ありがとう",
    "kana": "アリガトウ",
    "address": "西町36",
    "lat": 30.7333137609936,
    "lng": 130.994656038337,
    "tel": "0997-23-0723",
    "url": "http://kaigo-arigato.com",
    "pref": "鹿児島県",
    "city": "西之表市",
    "category": "home_help",
    "serviceType": "訪問介護",
    "capacity": 50,
    "openDays": [
      "平日",
      "土曜日",
      "日曜日",
      "祝日"
    ],
    "openDaysNote": ""
  },
  {
    "id": "4671300251",
    "name": "種子屋久農業協同組合指定訪問介護事業西之表事業所",
    "kana": "タネヤクノウギョウキョウドウクミアイシテイホウモンカイゴジギョウニシノオモテジギョウショ",
    "address": "西之表市西町6972番地",
    "lat": 30.7355753,
    "lng": 130.9928078,
    "tel": "0997-24-3577",
    "url": "",
    "pref": "鹿児島県",
    "city": "西之表市",
    "category": "home_help",
    "serviceType": "訪問介護",
    "capacity": 0,
    "openDays": [
      "平日",
      "土曜日",
      "日曜日",
      "祝日"
    ],
    "openDaysNote": ""
  },
  {
    "id": "4671300293",
    "name": "平安閣介護支援センターつばさ",
    "kana": "ヘイアンカクカイゴシエンセンターツバサ",
    "address": "鹿児島県西之表市西之表14889番地5",
    "lat": 30.7133436190526,
    "lng": 130.993834076057,
    "tel": "0997-23-2627",
    "url": "tane-heiankaku.com/",
    "pref": "鹿児島県",
    "city": "西之表市",
    "category": "home_help",
    "serviceType": "訪問介護",
    "capacity": 0,
    "openDays": [
      "平日",
      "土曜日",
      "日曜日",
      "祝日"
    ],
    "openDaysNote": "なし"
  },
  {
    "id": "4671300129",
    "name": "有限会社　義福",
    "kana": "ユウゲンガイシャ　ギフク",
    "address": "鹿児島県西之表市西之表7765-3",
    "lat": 30.7384837,
    "lng": 131.0029374,
    "tel": "0997-22-1102",
    "url": "",
    "pref": "鹿児島県",
    "city": "西之表市",
    "category": "home_help",
    "serviceType": "訪問介護",
    "capacity": 0,
    "openDays": [
      "平日",
      "土曜日",
      "日曜日",
      "祝日"
    ],
    "openDaysNote": "早朝・夜間に関しては緊急時のみ対応。営業時間外でのサービスは応相談。"
  },
  {
    "id": "4671600668",
    "name": "ケアサービス　豊笑",
    "kana": "ケアサービス　ホウエ",
    "address": "鹿児島県曽於市末吉町諏訪方１９９０番地",
    "lat": 31.6659134,
    "lng": 130.9496359,
    "tel": "0986-77-1687",
    "url": "http://hp.kaipoke.biz/7ca/",
    "pref": "鹿児島県",
    "city": "曽於市",
    "category": "home_help",
    "serviceType": "訪問介護",
    "capacity": 0,
    "openDays": [
      "平日",
      "土曜日",
      "祝日"
    ],
    "openDaysNote": "24時間体制とする。"
  },
  {
    "id": "4676600093",
    "name": "ケアステーションすえよし",
    "kana": "ケアステーションスエヨシ",
    "address": "鹿児島県曽於市末吉町上町4丁目7番地5",
    "lat": 31.6530044,
    "lng": 131.0214321,
    "tel": "0986‐76‐3181",
    "url": "",
    "pref": "鹿児島県",
    "city": "曽於市",
    "category": "home_help",
    "serviceType": "訪問介護",
    "capacity": 0,
    "openDays": [
      "平日",
      "土曜日",
      "日曜日",
      "祝日"
    ],
    "openDaysNote": "チーム運営方式、24時間対応ヘルパー"
  },
  {
    "id": "4676300041",
    "name": "そお鹿児島農業協同組合",
    "kana": "ソオカゴシマノウギョウキョウドウクミアイ",
    "address": "鹿児島県曽於市末吉町諏訪方８０００－１",
    "lat": 31.5967075150891,
    "lng": 130.990274467073,
    "tel": "0986-76-6900",
    "url": "http://www.ja-soo.com",
    "pref": "鹿児島県",
    "city": "曽於市",
    "category": "home_help",
    "serviceType": "訪問介護",
    "capacity": 40,
    "openDays": [
      "平日",
      "土曜日",
      "日曜日",
      "祝日"
    ],
    "openDaysNote": ""
  },
  {
    "id": "4671600106",
    "name": "曽於市社会福祉協議会訪問介護事業所",
    "kana": "ソオシシャカイフクシキョウギカイホウモンカイゴジギョウショ",
    "address": "鹿児島県曽於市財部町南俣５０４番地１財部保健福祉センター内 財部保健福祉センター内",
    "lat": 31.7233327,
    "lng": 130.9924765,
    "tel": "0986-72-0460",
    "url": "http://soo-shakyo.or.jp/",
    "pref": "鹿児島県",
    "city": "曽於市",
    "category": "home_help",
    "serviceType": "訪問介護",
    "capacity": 0,
    "openDays": [
      "平日",
      "土曜日",
      "日曜日",
      "祝日"
    ],
    "openDaysNote": "２４時間のサービス提供体制です。"
  },
  {
    "id": "4676300017",
    "name": "総合在宅ケアセンターやごろう苑",
    "kana": "ソウゴウザイタクケアセンターヤゴロウエン",
    "address": "曽於市大隅町岩川5515番地",
    "lat": 31.5956732693622,
    "lng": 130.987074383992,
    "tel": "099‐482‐5974",
    "url": "",
    "pref": "鹿児島県",
    "city": "曽於市",
    "category": "home_help",
    "serviceType": "訪問介護",
    "capacity": 0,
    "openDays": [
      "平日",
      "土曜日",
      "日曜日",
      "祝日"
    ],
    "openDaysNote": "チーム運営方式、24時間対応ヘルパー"
  },
  {
    "id": "4676600127",
    "name": "末吉ヘルパーステーション",
    "kana": "スエヨシヘルパーステーション",
    "address": "曽於市末吉町栄町２丁目１２－１",
    "lat": 31.6565275624503,
    "lng": 131.018230108598,
    "tel": "0986-76-0262",
    "url": "http://takahara-net.or.jp",
    "pref": "鹿児島県",
    "city": "曽於市",
    "category": "home_help",
    "serviceType": "訪問介護",
    "capacity": 0,
    "openDays": [
      "平日",
      "土曜日",
      "日曜日",
      "祝日"
    ],
    "openDaysNote": "但し、訪問介護員の稼働状況により日程変更する場合がございます。"
  },
  {
    "id": "4676600226",
    "name": "輪光無量寿園　訪問介護事業所",
    "kana": "リンコウムリョウジュエン　ホウモンカイゴジギョウショ",
    "address": "鹿児島県曽於市末吉町岩崎971－1",
    "lat": 31.5962083,
    "lng": 130.9988492,
    "tel": "099－482－5100",
    "url": "",
    "pref": "鹿児島県",
    "city": "曽於市",
    "category": "home_help",
    "serviceType": "訪問介護",
    "capacity": 0,
    "openDays": [
      "平日",
      "土曜日",
      "日曜日",
      "祝日"
    ],
    "openDaysNote": ""
  },
  {
    "id": "4677000087",
    "name": "回生園ホームヘルプサービス",
    "kana": "カイセイエンホームヘルプサービス",
    "address": "鹿児島県曽於郡大崎町菱田家戸原３０６３番地",
    "lat": 31.4443079,
    "lng": 131.0416522,
    "tel": "０９９－４７７－０３７２",
    "url": "http;//www.kaiseien-sanpokai.jp/",
    "pref": "鹿児島県",
    "city": "大崎町",
    "category": "home_help",
    "serviceType": "訪問介護",
    "capacity": 0,
    "openDays": [
      "平日",
      "土曜日",
      "日曜日",
      "祝日"
    ],
    "openDaysNote": "※状況に応じ、19時～21時までの間も対応することができる。"
  },
  {
    "id": "4677000061",
    "name": "社会福祉法人大崎町社会福祉協議会訪問介護事業所",
    "kana": "シャカイフクシホウジンオオサキチョウシャカイフクシキョウギカイホウモンカイゴジギョウショ",
    "address": "鹿児島県曽於郡大崎町仮宿1870番地",
    "lat": 31.4310451652999,
    "lng": 131.012219253156,
    "tel": "099-476-3663",
    "url": "",
    "pref": "鹿児島県",
    "city": "大崎町",
    "category": "home_help",
    "serviceType": "訪問介護",
    "capacity": 0,
    "openDays": [
      "平日",
      "土曜日",
      "日曜日",
      "祝日"
    ],
    "openDaysNote": "・営業時間以外に利用者等から，サービス提供の要請があった場合は，この限りでない。"
  },
  {
    "id": "4678400047",
    "name": "大和村社会福祉協議会　訪問介護事業所",
    "kana": "ヤマトソンシャカイフクシキョウギカイ　ホウモンカイゴジギョウショ",
    "address": "大島郡大和村戸円１８８２番地３大和村老人福祉センター 大和村老人福祉センター",
    "lat": 28.3467879,
    "lng": 129.3159946,
    "tel": "０９９７－５８－３４３４",
    "url": "",
    "pref": "鹿児島県",
    "city": "大和村",
    "category": "home_help",
    "serviceType": "訪問介護",
    "capacity": 0,
    "openDays": [
      "平日",
      "土曜日",
      "日曜日",
      "祝日"
    ],
    "openDaysNote": "年末年始休暇（12/29～1/3）　（必要な場合は対応可能）"
  },
  {
    "id": "4679500068",
    "name": "社会福祉法人知名町社会福祉協議会訪問介護事業所",
    "kana": "シャカイフクシホウジンチナチョウシャカイフクシキョウギカイホウモンカイゴジギョウショ",
    "address": "鹿児島県大島郡知名町瀬利覚287番地",
    "lat": 27.3414055,
    "lng": 128.5844959,
    "tel": "0997-93-5261",
    "url": "https://shakyo.or.jp/1774/",
    "pref": "鹿児島県",
    "city": "知名町",
    "category": "home_help",
    "serviceType": "訪問介護",
    "capacity": 0,
    "openDays": [
      "平日",
      "土曜日",
      "日曜日",
      "祝日"
    ],
    "openDaysNote": "電話等により、常時連絡が可能な体制とする。"
  },
  {
    "id": "4678000243",
    "name": "種子屋久農業協同組合訪問介護事業くまげ事業所",
    "kana": "タネヤクノウギョウキョウドウクミアイホウモンカイゴジギョウクマゲジギョウショ",
    "address": "鹿児島県熊毛郡中種子町野間5281番地",
    "lat": 30.5317481965987,
    "lng": 130.959663388072,
    "tel": "0997-27-3738",
    "url": "",
    "pref": "鹿児島県",
    "city": "中種子町",
    "category": "home_help",
    "serviceType": "訪問介護",
    "capacity": 40,
    "openDays": [
      "平日",
      "土曜日",
      "日曜日",
      "祝日"
    ],
    "openDaysNote": "年中無休、24時間体制です。"
  },
  {
    "id": "4613110602",
    "name": "中種子ヘルパーステーション",
    "kana": "ナカタネヘルパーステーション",
    "address": "鹿児島県熊毛郡中種子町野間6481-1",
    "lat": 30.5231231,
    "lng": 130.9539617,
    "tel": "0997-27-3222",
    "url": "http://www.tokushukai.jp/hsp/ｃ-nakataneko/",
    "pref": "鹿児島県",
    "city": "中種子町",
    "category": "home_help",
    "serviceType": "訪問介護",
    "capacity": 0,
    "openDays": [
      "平日",
      "土曜日",
      "日曜日",
      "祝日"
    ],
    "openDaysNote": ""
  },
  {
    "id": "4678000060",
    "name": "南界園訪問介護センター",
    "kana": "ナンカイエンホウモンカイゴセンター",
    "address": "熊毛郡中種子町田島327-1",
    "lat": 30.4812014,
    "lng": 130.9409206,
    "tel": "0997-27-8107",
    "url": "https://nankaien.jiaikai-k.or.jp/houmon",
    "pref": "鹿児島県",
    "city": "中種子町",
    "category": "home_help",
    "serviceType": "訪問介護",
    "capacity": 30,
    "openDays": [
      "平日",
      "土曜日",
      "日曜日",
      "祝日"
    ],
    "openDaysNote": "事業所の営業時間とは異なります。"
  },
  {
    "id": "4678000151",
    "name": "訪問介護センターおたつめたつ",
    "kana": "ホウモンカイゴセンターオタツメタツ",
    "address": "鹿児島県熊毛郡中種子町納官５１７０番地",
    "lat": 30.5983418898657,
    "lng": 130.951808199105,
    "tel": "0997-24-8555",
    "url": "",
    "pref": "鹿児島県",
    "city": "中種子町",
    "category": "home_help",
    "serviceType": "訪問介護",
    "capacity": 0,
    "openDays": [
      "平日",
      "土曜日",
      "日曜日",
      "祝日"
    ],
    "openDaysNote": "24時間対応"
  },
  {
    "id": "4675000071",
    "name": "ヘルパーステーションいこい長島",
    "kana": "ヘルパーステーションイコイナガシマ",
    "address": "鹿児島県出水郡長島町指江479-1",
    "lat": 32.1571742,
    "lng": 130.1207244,
    "tel": "0996-88-6690",
    "url": "",
    "pref": "鹿児島県",
    "city": "長島町",
    "category": "home_help",
    "serviceType": "訪問介護",
    "capacity": 0,
    "openDays": [
      "平日",
      "土曜日",
      "日曜日",
      "祝日"
    ],
    "openDaysNote": "必要に応じて２４時間対応致します。"
  },
  {
    "id": "4674900156",
    "name": "桃源郷ヘルパーステーション",
    "kana": "トウゲンキョウヘルパーステーション",
    "address": "鹿児島県出水郡長島町鷹巣７４０番地２",
    "lat": 32.196461,
    "lng": 130.1795715,
    "tel": "0996-86-1020",
    "url": "",
    "pref": "鹿児島県",
    "city": "長島町",
    "category": "home_help",
    "serviceType": "訪問介護",
    "capacity": 0,
    "openDays": [
      "平日",
      "土曜日",
      "日曜日",
      "祝日"
    ],
    "openDaysNote": ""
  },
  {
    "id": "4679200115",
    "name": "生協ヘルパーステーションとくのしま",
    "kana": "セイキョウヘルパーステーショントクノシマ",
    "address": "大島郡天城町平土野7-1",
    "lat": 27.8118485,
    "lng": 128.896399,
    "tel": "（0997）85－3884",
    "url": "http://www2.synapse.ne.jp/iryouseikyou/",
    "pref": "鹿児島県",
    "city": "天城町",
    "category": "home_help",
    "serviceType": "訪問介護",
    "capacity": 0,
    "openDays": [
      "平日",
      "土曜日",
      "日曜日",
      "祝日"
    ],
    "openDaysNote": "その他相談に対応致します"
  },
  {
    "id": "4679200081",
    "name": "天城町社会福祉協議会　訪問介護事業所",
    "kana": "アマギチョウシャカイフクシキョウギカイ　ホウモンカイゴジギョウショ",
    "address": "鹿児島県大島郡天城町天城４６２",
    "lat": 27.8151459810492,
    "lng": 128.89417585582,
    "tel": "0997-85-5093",
    "url": "https://www.shakyo.or.jp/hp/about/index.php?s=1771",
    "pref": "鹿児島県",
    "city": "天城町",
    "category": "home_help",
    "serviceType": "訪問介護",
    "capacity": 0,
    "openDays": [
      "平日",
      "土曜日",
      "日曜日",
      "祝日"
    ],
    "openDaysNote": "年中無休"
  },
  {
    "id": "4677200299",
    "name": "ヘルパーステーション南の太陽",
    "kana": "ヘルパーステーションミナミノタイヨウ",
    "address": "鹿児島県肝属郡東串良町新川西1367-1",
    "lat": 31.3607439,
    "lng": 130.9814755,
    "tel": "0994-63-8558",
    "url": "http:www.minaminotaiyo.co.jp",
    "pref": "鹿児島県",
    "city": "東串良町",
    "category": "home_help",
    "serviceType": "訪問介護",
    "capacity": 0,
    "openDays": [
      "平日",
      "土曜日",
      "日曜日",
      "祝日"
    ],
    "openDaysNote": ""
  },
  {
    "id": "4677200109",
    "name": "ルーピンの里訪問介護事業所",
    "kana": "ルーピンノサトホウモンカイゴジギョウショ",
    "address": "鹿児島県肝属郡東串良町池之原２０７７番地１",
    "lat": 31.3941942,
    "lng": 130.9787525,
    "tel": "0994-63-0700",
    "url": "http://www.ru-pin.jp",
    "pref": "鹿児島県",
    "city": "東串良町",
    "category": "home_help",
    "serviceType": "訪問介護",
    "capacity": 0,
    "openDays": [
      "平日",
      "土曜日",
      "日曜日",
      "祝日"
    ],
    "openDaysNote": "電話での対応、24時間体制"
  },
  {
    "id": "4677200158",
    "name": "明光園訪問介護事業所",
    "kana": "メイコウエンホウモンカイゴジギョウショ",
    "address": "鹿児島県肝属郡東串良町川東3800明光園訪問介護事業所 明光園訪問介護事業所",
    "lat": 31.3731193,
    "lng": 131.0076508,
    "tel": "0994-63-8018",
    "url": "",
    "pref": "鹿児島県",
    "city": "東串良町",
    "category": "home_help",
    "serviceType": "訪問介護",
    "capacity": 0,
    "openDays": [
      "平日",
      "土曜日",
      "日曜日",
      "祝日"
    ],
    "openDaysNote": ""
  },
  {
    "id": "4679100034",
    "name": "社会福祉法人徳之島町社会福祉協議会訪問介護事業所",
    "kana": "シャカイフクシホウジントクノシマチョウシャカイフクシキョウギカイホウモンカイゴジギョウショ",
    "address": "鹿児島県大島郡徳之島町亀津7674番地",
    "lat": 27.7364194,
    "lng": 129.0227455,
    "tel": "０９９７－８３－１２０５",
    "url": "http://www-tokunosima-shakyo.com/",
    "pref": "鹿児島県",
    "city": "徳之島町",
    "category": "home_help",
    "serviceType": "訪問介護",
    "capacity": 0,
    "openDays": [
      "平日",
      "土曜日",
      "日曜日",
      "祝日"
    ],
    "openDaysNote": ""
  },
  {
    "id": "4679100158",
    "name": "訪問介護ステーションかわの",
    "kana": "ホウモンカイゴステーションカワノ",
    "address": "鹿児島県大島郡徳之島町亀津５４０－６",
    "lat": 27.7357219,
    "lng": 129.0180404,
    "tel": "０９９７－８３－３７０９",
    "url": "",
    "pref": "鹿児島県",
    "city": "徳之島町",
    "category": "home_help",
    "serviceType": "訪問介護",
    "capacity": 0,
    "openDays": [
      "平日",
      "土曜日",
      "日曜日",
      "祝日"
    ],
    "openDaysNote": ""
  },
  {
    "id": "4679100141",
    "name": "訪問介護事業所南風園",
    "kana": "ホウモンカイゴジギョウショナンプウエン",
    "address": "鹿児島県大島郡徳之島町亀津２８８２番地１総合施設　南風園 総合施設　南風園",
    "lat": 27.730571,
    "lng": 128.9981052,
    "tel": "0997-82-3200",
    "url": "https://www.nanpuuen.org/",
    "pref": "鹿児島県",
    "city": "徳之島町",
    "category": "home_help",
    "serviceType": "訪問介護",
    "capacity": 0,
    "openDays": [
      "平日",
      "土曜日",
      "日曜日",
      "祝日"
    ],
    "openDaysNote": "２４時間派遣可能な体制あり"
  },
  {
    "id": "4671100495",
    "name": "ほっとステーション金峰",
    "kana": "ホットステーションキンポウ",
    "address": "鹿児島県南さつま市金峰町尾下385番地5",
    "lat": 31.4601869,
    "lng": 130.3450812,
    "tel": "0993-77-2262",
    "url": "",
    "pref": "鹿児島県",
    "city": "南さつま市",
    "category": "home_help",
    "serviceType": "訪問介護",
    "capacity": 0,
    "openDays": [],
    "openDaysNote": "サービス提供時間は、３６５日、２４時間行なう"
  },
  {
    "id": "4671100404",
    "name": "ほほえみホームヘルパーステーション",
    "kana": "ホホエミホームヘルパーステーション",
    "address": "鹿児島県南さつま市加世田内山田２５８０番地",
    "lat": 31.3919946242886,
    "lng": 130.31742737791,
    "tel": "0993-78-3120",
    "url": "https://magokoro.or.jp",
    "pref": "鹿児島県",
    "city": "南さつま市",
    "category": "home_help",
    "serviceType": "訪問介護",
    "capacity": 60,
    "openDays": [
      "平日",
      "土曜日",
      "日曜日",
      "祝日"
    ],
    "openDaysNote": "訪問介護員が不足する場合が想定されますので、まずはご相談下さい。"
  },
  {
    "id": "4671100156",
    "name": "加世田じゃがいもの会訪問介護事業所",
    "kana": "カセダジャガイモノカイホウモンカイゴジギョウショ",
    "address": "鹿児島県南さつま市加世田高橋１９５８番地６",
    "lat": 31.4359507311473,
    "lng": 130.293969541139,
    "tel": "0993-52-8642",
    "url": "",
    "pref": "鹿児島県",
    "city": "南さつま市",
    "category": "home_help",
    "serviceType": "訪問介護",
    "capacity": 0,
    "openDays": [
      "平日",
      "土曜日",
      "日曜日",
      "祝日"
    ],
    "openDaysNote": "緊急及び利用者の都合による場合は、この限りではない。"
  },
  {
    "id": "4671100123",
    "name": "加世田ホームヘルパーステーション",
    "kana": "カセダホームヘルパーステーション",
    "address": "南さつま市加世田本町54-6　２階",
    "lat": 31.4155017892298,
    "lng": 130.320478278088,
    "tel": "0993-53-5133",
    "url": "http://www.nonohanakai.or.jp/",
    "pref": "鹿児島県",
    "city": "南さつま市",
    "category": "home_help",
    "serviceType": "訪問介護",
    "capacity": 0,
    "openDays": [
      "平日",
      "土曜日",
      "日曜日",
      "祝日"
    ],
    "openDaysNote": ""
  },
  {
    "id": "4673500049",
    "name": "金峰苑指定訪問介護事業所",
    "kana": "キンポウエンシテイホウモンカイゴジギョウショ",
    "address": "鹿児島県南さつま市金峰町宮崎4019",
    "lat": 31.4352288,
    "lng": 130.3358441,
    "tel": "0993-77-0041",
    "url": "",
    "pref": "鹿児島県",
    "city": "南さつま市",
    "category": "home_help",
    "serviceType": "訪問介護",
    "capacity": 0,
    "openDays": [
      "平日",
      "土曜日",
      "日曜日",
      "祝日"
    ],
    "openDaysNote": "これ以外の時間帯でも要望があれば可能です。但し、深夜はできません。"
  },
  {
    "id": "4671100297",
    "name": "訪問介護事業所潮風の里",
    "kana": "ホウモンカイゴジギョウショシオカゼノサト",
    "address": "鹿児島県南さつま市笠沙町片浦１０８６番地1南さつま市生活支援ハウス潮風の里 南さつま市生活支援ハウス潮風の里",
    "lat": 31.4063981,
    "lng": 130.1910081,
    "tel": "0993-63-1702",
    "url": "",
    "pref": "鹿児島県",
    "city": "南さつま市",
    "category": "home_help",
    "serviceType": "訪問介護",
    "capacity": 0,
    "openDays": [
      "平日",
      "土曜日",
      "日曜日",
      "祝日"
    ],
    "openDaysNote": "急を要する場合、あるいは利用者の状況等により必要な場合は、営業日、あるいは営業時間を超えて業務が行えるものとする。"
  },
  {
    "id": "4671100107",
    "name": "養徳園指定訪問介護事業所",
    "kana": "ヨウトクエンシテイホウモンカイゴジギョウショ",
    "address": "鹿児島県南さつま市加世田小湊528番地",
    "lat": 31.4207039126353,
    "lng": 130.292618375394,
    "tel": "0993-76-1131",
    "url": "https://youtokuen.com/",
    "pref": "鹿児島県",
    "city": "南さつま市",
    "category": "home_help",
    "serviceType": "訪問介護",
    "capacity": 0,
    "openDays": [
      "平日",
      "土曜日",
      "日曜日",
      "祝日"
    ],
    "openDaysNote": ""
  },
  {
    "id": "4672600097",
    "name": "ヘルパーステーション音野舎",
    "kana": "ヘルパーステーション　ノンノシャ",
    "address": "鹿児島県南九州市知覧町郡2069番地2",
    "lat": 31.3543562,
    "lng": 130.4328692,
    "tel": "0993-58-7151",
    "url": "http://www.nonnosya.com/",
    "pref": "鹿児島県",
    "city": "南九州市",
    "category": "home_help",
    "serviceType": "訪問介護",
    "capacity": 0,
    "openDays": [
      "平日",
      "土曜日",
      "日曜日",
      "祝日"
    ],
    "openDaysNote": "営業時間外については相談に応じる"
  },
  {
    "id": "4674300456",
    "name": "ホームヘルプ　敬和の郷",
    "kana": "ホームヘルプ　ケイワノサト",
    "address": "鹿児島県南九州市知覧町郡5998番地1",
    "lat": 31.3758033219213,
    "lng": 130.444276105418,
    "tel": "0993-76-0833",
    "url": "http://kagoshima-keiwakai.jp",
    "pref": "鹿児島県",
    "city": "南九州市",
    "category": "home_help",
    "serviceType": "訪問介護",
    "capacity": 80,
    "openDays": [
      "平日",
      "土曜日",
      "日曜日",
      "祝日"
    ],
    "openDaysNote": ""
  },
  {
    "id": "4672600105",
    "name": "憩いの里ホームヘルプサービス",
    "kana": "イコイノサトホームヘルプサービス",
    "address": "鹿児島県南九州市知覧町永里４５７７番地３",
    "lat": 31.3684026,
    "lng": 130.449425,
    "tel": "0993-83-3206",
    "url": "http://www.ikoi-chiran.com/",
    "pref": "鹿児島県",
    "city": "南九州市",
    "category": "home_help",
    "serviceType": "訪問介護",
    "capacity": 0,
    "openDays": [
      "平日",
      "土曜日",
      "日曜日",
      "祝日"
    ],
    "openDaysNote": "電話により２４時間連絡可能な体制とする。"
  },
  {
    "id": "4672700194",
    "name": "生協ヘルパーステーション・万之瀬",
    "kana": "セイキョウヘルパーステーション・マノセ",
    "address": "鹿児島県南九州市川辺町両添1118番地川辺生協クリニック2階 川辺生協クリニック2階",
    "lat": 31.39174358334,
    "lng": 130.403366833422,
    "tel": "０９９３－５６－５５９１",
    "url": "",
    "pref": "鹿児島県",
    "city": "南九州市",
    "category": "home_help",
    "serviceType": "訪問介護",
    "capacity": 0,
    "openDays": [
      "平日",
      "土曜日",
      "日曜日",
      "祝日"
    ],
    "openDaysNote": ""
  },
  {
    "id": "4678100068",
    "name": "社会福祉法人　南種子町社会福祉協議会指定訪問介護事業所",
    "kana": "シャカイフクシホウジン　ミナミタネチョウシャカイフクシキョウギカイシテイホウモンカイゴジギョショ",
    "address": "熊毛郡南種子町中之上2283番地",
    "lat": 30.4133323,
    "lng": 130.9035348,
    "tel": "0997-26-1703",
    "url": "http://minamitaneshakyo.sakura.ne.jp",
    "pref": "鹿児島県",
    "city": "南種子町",
    "category": "home_help",
    "serviceType": "訪問介護",
    "capacity": 0,
    "openDays": [
      "平日",
      "土曜日",
      "日曜日",
      "祝日"
    ],
    "openDaysNote": ""
  },
  {
    "id": "4678100050",
    "name": "芙蓉苑ホームヘルプセンター",
    "kana": "フヨウエンホームヘルプセンター",
    "address": "熊毛郡南種子町中之上1702-4",
    "lat": 30.4361774027311,
    "lng": 130.913506961377,
    "tel": "0997-26-2320",
    "url": "",
    "pref": "鹿児島県",
    "city": "南種子町",
    "category": "home_help",
    "serviceType": "訪問介護",
    "capacity": 0,
    "openDays": [
      "平日",
      "土曜日",
      "日曜日",
      "祝日"
    ],
    "openDaysNote": ""
  },
  {
    "id": "4677700140",
    "name": "社会福祉法人南大隅町社会福祉協議会佐多支所訪問介護事業所",
    "kana": "シャカイフクシホウジンミナミオオスミチョウシャカイフクシキョウギカイサタシショホウモンカイゴジギョウショ",
    "address": "鹿児島県肝属郡南大隅町佐多伊座敷3844番地役場支所内南大隅町役場佐多支所 南大隅町役場佐多支所",
    "lat": 31.093542948006,
    "lng": 130.690914931877,
    "tel": "０９９４－２８－４０３０",
    "url": "",
    "pref": "鹿児島県",
    "city": "南大隅町",
    "category": "home_help",
    "serviceType": "訪問介護",
    "capacity": 0,
    "openDays": [
      "平日",
      "土曜日",
      "日曜日",
      "祝日"
    ],
    "openDaysNote": ""
  },
  {
    "id": "4677700058",
    "name": "蒼水園ヘルパーステーション",
    "kana": "ソウスイエンヘルパーステーション",
    "address": "鹿児島県肝属郡南大隅町根占山本1250番地1",
    "lat": 31.203367407252,
    "lng": 130.775010117197,
    "tel": "0994-24-5553",
    "url": "https://sousuien.org",
    "pref": "鹿児島県",
    "city": "南大隅町",
    "category": "home_help",
    "serviceType": "訪問介護",
    "capacity": 0,
    "openDays": [
      "平日",
      "土曜日",
      "日曜日",
      "祝日"
    ],
    "openDaysNote": "なし"
  },
  {
    "id": "4677700181",
    "name": "特定非営利活動法人さくらじまコアラ",
    "kana": "トクテイヒエイリカツドウホウジンサクラジマコアラ",
    "address": "鹿児島県肝属郡南大隅根占川北24番地14",
    "lat": 31.2197371136339,
    "lng": 130.764395,
    "tel": "0994－27－4030",
    "url": "",
    "pref": "鹿児島県",
    "city": "南大隅町",
    "category": "home_help",
    "serviceType": "訪問介護",
    "capacity": 45,
    "openDays": [
      "平日",
      "土曜日",
      "日曜日",
      "祝日"
    ],
    "openDaysNote": "管理者が必要と認めた場合は、上記時間外のサービスも可能。"
  },
  {
    "id": "4671500892",
    "name": "ケアステーションおはな",
    "kana": "ケアステーションオハナ",
    "address": "伊集院町妙円寺二丁目69番地1",
    "lat": 31.6447595427202,
    "lng": 130.390318485911,
    "tel": "998137287",
    "url": "",
    "pref": "鹿児島県",
    "city": "日置市",
    "category": "home_help",
    "serviceType": "訪問介護",
    "capacity": 1,
    "openDays": [
      "平日",
      "土曜日",
      "祝日"
    ],
    "openDaysNote": ""
  },
  {
    "id": "4672900075",
    "name": "ケアセンターリエゾン日置",
    "kana": "ケアセンターリエゾンヒオキ",
    "address": "日置市東市来町湯田2986有料老人ホーム　クローバー湯田 有料老人ホーム　クローバー湯田",
    "lat": 31.6725056,
    "lng": 130.3310114,
    "tel": "099-274-1258",
    "url": "http://kenseikai.biz/riezon/",
    "pref": "鹿児島県",
    "city": "日置市",
    "category": "home_help",
    "serviceType": "訪問介護",
    "capacity": 0,
    "openDays": [
      "平日",
      "土曜日",
      "日曜日",
      "祝日"
    ],
    "openDaysNote": ""
  },
  {
    "id": "4673000081",
    "name": "さつま日置農業協同組合",
    "kana": "サツマヒオキノウギョウキョウドウクミアイ",
    "address": "日吉町吉利８５１番地",
    "lat": 31.5731298,
    "lng": 130.3421823,
    "tel": "０９９－２４６－８０７２",
    "url": "http://www.ksーja.or.jp/hioki/",
    "pref": "鹿児島県",
    "city": "日置市",
    "category": "home_help",
    "serviceType": "訪問介護",
    "capacity": 0,
    "openDays": [
      "平日",
      "土曜日",
      "祝日"
    ],
    "openDaysNote": "電話によるお問い合わせは、いつでも受け付けます。"
  },
  {
    "id": "4671501189",
    "name": "ヘルパーステーション　いきる",
    "kana": "ヘルパーステーション　イキル",
    "address": "鹿児島県日置市伊集院町郡1-29第二コーポ大八102 第二コーポ大八102",
    "lat": 31.6342836,
    "lng": 130.4036897,
    "tel": "998039991",
    "url": "",
    "pref": "鹿児島県",
    "city": "日置市",
    "category": "home_help",
    "serviceType": "訪問介護",
    "capacity": 150,
    "openDays": [
      "平日"
    ],
    "openDaysNote": ""
  },
  {
    "id": "4671500975",
    "name": "ヘルパーステーション　もくれん",
    "kana": "ヘルパーステーションモクレン",
    "address": "鹿児島県日置市伊集院町郡1598-2　ウェストハイム　101",
    "lat": 31.6397972,
    "lng": 130.4083285,
    "tel": "099-813-7830",
    "url": "https://mokuren-no-ie.com/",
    "pref": "鹿児島県",
    "city": "日置市",
    "category": "home_help",
    "serviceType": "訪問介護",
    "capacity": 6,
    "openDays": [
      "平日",
      "土曜日",
      "日曜日",
      "祝日"
    ],
    "openDaysNote": "電話等により、24時間常時連絡が可能"
  },
  {
    "id": "4672900117",
    "name": "ヘルパーステーションふる里",
    "kana": "ヘルパーステーションフルサト",
    "address": "鹿児島県日置市伊集院町妙円寺1丁目1番地6",
    "lat": 31.6403656052154,
    "lng": 130.395118746836,
    "tel": "099-273-6100",
    "url": "ｈｔｔｐ：//ｗｗｗ．ｓｅｉｓｈｉｎ-ｋａｉ．ｏｒｇ/",
    "pref": "鹿児島県",
    "city": "日置市",
    "category": "home_help",
    "serviceType": "訪問介護",
    "capacity": 0,
    "openDays": [
      "平日",
      "土曜日",
      "日曜日",
      "祝日"
    ],
    "openDaysNote": "24時間訪問体制"
  },
  {
    "id": "4673400075",
    "name": "喜楽奈村訪問介護事業所",
    "kana": "キラクナムラホウモンカイゴジギョウショ",
    "address": "日置市吹上町湯之浦2758番地",
    "lat": 31.5041924,
    "lng": 130.3718549,
    "tel": "099-296-3400",
    "url": "http://www.akebonofukushikai.jp/",
    "pref": "鹿児島県",
    "city": "日置市",
    "category": "home_help",
    "serviceType": "訪問介護",
    "capacity": 0,
    "openDays": [
      "平日",
      "土曜日"
    ],
    "openDaysNote": "他の時間帯にも訪問介護の提供可能。定休日：日曜・祝日12/29～1/3（必要な場合は対応可能）"
  },
  {
    "id": "4671500298",
    "name": "健生会　訪問介護事業所",
    "kana": "ケンセイカイ　ホウモンカイゴジギョウショ",
    "address": "鹿児島県日置市伊集院町下谷口1942番地",
    "lat": 31.6272405847893,
    "lng": 130.397674659525,
    "tel": "099-273-2135",
    "url": "honjyouhp@po.minc.ne.jp",
    "pref": "鹿児島県",
    "city": "日置市",
    "category": "home_help",
    "serviceType": "訪問介護",
    "capacity": 0,
    "openDays": [
      "平日",
      "土曜日",
      "日曜日",
      "祝日"
    ],
    "openDaysNote": ""
  },
  {
    "id": "4673000057",
    "name": "寿福園ﾎｰﾑﾍﾙﾊﾟｰｽﾃｰｼｮﾝ",
    "kana": "ジュフクエンホームヘルパーステーション",
    "address": "鹿児島県日置市伊集院町下神殿224-2",
    "lat": 31.6632167,
    "lng": 130.4158774,
    "tel": "099-273-5711",
    "url": "http://midorinosato.w.kobira.co.jp/start2",
    "pref": "鹿児島県",
    "city": "日置市",
    "category": "home_help",
    "serviceType": "訪問介護",
    "capacity": 0,
    "openDays": [
      "平日",
      "土曜日",
      "日曜日",
      "祝日"
    ],
    "openDaysNote": "深夜帯等はﾍﾙﾊﾟｰ人員確保できない場合は対応困難な場合がある。"
  },
  {
    "id": "4672900091",
    "name": "秋光園ホームヘルプサービス事業所",
    "kana": "日置市東市来町長里360-1",
    "address": "東市来町長里360-1",
    "lat": 31.6629741619348,
    "lng": 130.348631719049,
    "tel": "099-274-3770",
    "url": "",
    "pref": "鹿児島県",
    "city": "日置市",
    "category": "home_help",
    "serviceType": "訪問介護",
    "capacity": 0,
    "openDays": [
      "平日"
    ],
    "openDaysNote": ""
  },
  {
    "id": "4672900182",
    "name": "博悠会訪問介護事業所さざんか",
    "kana": "ハクユウカイホウモンカイゴジギョウショサザンカ",
    "address": "日置市東市来町湯田４６４８",
    "lat": 31.6754446,
    "lng": 130.3488047,
    "tel": "０９９－２７４－３３００",
    "url": "",
    "pref": "鹿児島県",
    "city": "日置市",
    "category": "home_help",
    "serviceType": "訪問介護",
    "capacity": 0,
    "openDays": [
      "平日",
      "土曜日",
      "日曜日",
      "祝日"
    ],
    "openDaysNote": "・前項の規定に定める日の他、12月31日から1月3日までの間は、除くものとする。（改行）・前各項の規定に定める指定居宅介護支援事業所から事業所へ提供依頼があった場合は事業を実施する。"
  },
  {
    "id": "4670400136",
    "name": "エスポワール立神　訪問介護事業所",
    "kana": "エスポワールタテガミ　ホウモンカイゴジギョウショ",
    "address": "鹿児島県枕崎市火之神町６３０番地",
    "lat": 31.2544042358075,
    "lng": 130.27717195159,
    "tel": "０９９３－７３－１５６８",
    "url": "https://espo.ko-seikai.jp/office2",
    "pref": "鹿児島県",
    "city": "枕崎市",
    "category": "home_help",
    "serviceType": "訪問介護",
    "capacity": 25,
    "openDays": [
      "平日",
      "土曜日",
      "日曜日",
      "祝日"
    ],
    "openDaysNote": "年中無休（改行）但し、天災その他やむを得なく業務を遂行できない日"
  },
  {
    "id": "4670400078",
    "name": "南方園ホームヘルプ",
    "kana": "ナンポウエンホームヘルプ",
    "address": "鹿児島県枕崎市住吉町14番地社会医療法人聖医会サザン・ヒルズ 社会医療法人聖医会サザン・ヒルズ",
    "lat": 31.271706,
    "lng": 130.2982877,
    "tel": "0993-73-5055",
    "url": "http://www2.synapse.ne.jp.nanpouen/.",
    "pref": "鹿児島県",
    "city": "枕崎市",
    "category": "home_help",
    "serviceType": "訪問介護",
    "capacity": 0,
    "openDays": [
      "平日",
      "土曜日",
      "日曜日",
      "祝日"
    ],
    "openDaysNote": ""
  },
  {
    "id": "4671201574",
    "name": "エスプリはやとヘルパーステーション",
    "kana": "エスプリハヤトヘルパーステーション",
    "address": "鹿児島県霧島市隼人町真孝2720",
    "lat": 31.7231587,
    "lng": 130.728995,
    "tel": "0995-73-8182",
    "url": "http://www.esprit-kyusyu.com",
    "pref": "鹿児島県",
    "city": "霧島市",
    "category": "home_help",
    "serviceType": "訪問介護",
    "capacity": 0,
    "openDays": [
      "平日",
      "土曜日",
      "日曜日",
      "祝日"
    ],
    "openDaysNote": "必要時は24時間でご支援致します。"
  },
  {
    "id": "4671201806",
    "name": "ニチイケアセンター見次",
    "kana": "ニチイケアセンターミツギ",
    "address": "鹿児島県霧島市隼人町見次字寺ノ前595番3SunShineMET2階A号室 SunShineMET2階A号室",
    "lat": 31.7413102,
    "lng": 130.7424667,
    "tel": "0995-44-7300",
    "url": "http://www.nichiigakkan.co.jp/",
    "pref": "鹿児島県",
    "city": "霧島市",
    "category": "home_help",
    "serviceType": "訪問介護",
    "capacity": 0,
    "openDays": [
      "平日",
      "土曜日",
      "日曜日",
      "祝日"
    ],
    "openDaysNote": "居宅サービス計画により、営業時間外であっても、サービスの提供を行う場合がある。"
  },
  {
    "id": "4671200162",
    "name": "ニチイケアセンター国分",
    "kana": "ニチイケアセンターコクブ",
    "address": "鹿児島県霧島市国分剣之宇都町9-6",
    "lat": 31.7693268,
    "lng": 130.7664429,
    "tel": "0995-48-6616",
    "url": "htt://www.nichiigakkan.co.jp",
    "pref": "鹿児島県",
    "city": "霧島市",
    "category": "home_help",
    "serviceType": "訪問介護",
    "capacity": 0,
    "openDays": [
      "平日",
      "土曜日",
      "日曜日",
      "祝日"
    ],
    "openDaysNote": "居宅ｻｰﾋﾞｽ計画により、営業時間以外であっても、サービスの提供を行う場合がある。"
  },
  {
    "id": "4676100250",
    "name": "ニチイケアセンター隼人",
    "kana": "ニチイケアセンターハヤト",
    "address": "鹿児島県霧島市隼人町東郷1088-1",
    "lat": 31.7717431,
    "lng": 130.7504913,
    "tel": "0995-64-2461",
    "url": "http://ｗｗｗ.nichiigakkan.co.jp/",
    "pref": "鹿児島県",
    "city": "霧島市",
    "category": "home_help",
    "serviceType": "訪問介護",
    "capacity": 0,
    "openDays": [
      "平日",
      "土曜日",
      "日曜日",
      "祝日"
    ],
    "openDaysNote": "居宅サービス計画により、営業時間外であっても、サービスの提供を行う場合がある。"
  },
  {
    "id": "4671201376",
    "name": "ふくしサービスセンター　きりしまはっぴい",
    "kana": "フクシサービスセンター　キリシマハッピイ",
    "address": "鹿児島県霧島市隼人町真孝3133番社会福祉法人グリーンコープあいらセンター 社会福祉法人グリーンコープあいらセンター",
    "lat": 31.7250020528671,
    "lng": 130.724513891367,
    "tel": "0995-64-2626",
    "url": "http://www.fukushi-greencoop.or.jｐ/",
    "pref": "鹿児島県",
    "city": "霧島市",
    "category": "home_help",
    "serviceType": "訪問介護",
    "capacity": 60,
    "openDays": [
      "平日",
      "土曜日",
      "日曜日",
      "祝日"
    ],
    "openDaysNote": "２４時間・３６５日対応"
  },
  {
    "id": "4675500047",
    "name": "フラワーホーム　ホームヘルプサービス",
    "kana": "フラワーホーム　ホームヘルプサービス",
    "address": "鹿児島県霧島市溝辺町麓六丁目45番地",
    "lat": 31.7926117149996,
    "lng": 130.708394878049,
    "tel": "0995-58-9113",
    "url": "http://www.flowerh.jp",
    "pref": "鹿児島県",
    "city": "霧島市",
    "category": "home_help",
    "serviceType": "訪問介護",
    "capacity": 5,
    "openDays": [
      "平日",
      "土曜日",
      "日曜日",
      "祝日"
    ],
    "openDaysNote": ""
  },
  {
    "id": "4671201533",
    "name": "ヘルパーステーション　日和",
    "kana": "ヘルパーステーション　ヒヨリ",
    "address": "鹿児島県霧島市隼人町住吉186-1住宅型有料老人ホーム日和館 住宅型有料老人ホーム日和館",
    "lat": 31.7388657,
    "lng": 130.7703718,
    "tel": "0995-73-5367",
    "url": "http://www.yoshimitsu-group.com",
    "pref": "鹿児島県",
    "city": "霧島市",
    "category": "home_help",
    "serviceType": "訪問介護",
    "capacity": 25,
    "openDays": [
      "平日",
      "土曜日",
      "日曜日",
      "祝日"
    ],
    "openDaysNote": "窓口営業は基本、平日８：３０～１７：３０とし（改行）営業は、３６５日２４時間体勢でサービス提供可能です。（改行）窓口営業時間外でも電話等により24時間常時連絡が可能。"
  },
  {
    "id": "4671201764",
    "name": "ヘルパーステーションあっとほーむ",
    "kana": "ヘルパーステーションアットホーム",
    "address": "鹿児島県霧島市国分剣之宇都町１２番３",
    "lat": 31.7693991,
    "lng": 130.7667095,
    "tel": "0995-46-0091",
    "url": "http://ikoi-athome.info/",
    "pref": "鹿児島県",
    "city": "霧島市",
    "category": "home_help",
    "serviceType": "訪問介護",
    "capacity": 0,
    "openDays": [
      "平日",
      "土曜日",
      "日曜日",
      "祝日"
    ],
    "openDaysNote": ""
  },
  {
    "id": "4671200337",
    "name": "ヘルパーステーションアメニティ国分",
    "kana": "ヘルパーステーションアメニティコクブ",
    "address": "鹿児島県霧島市国分重久361-1",
    "lat": 31.7676187,
    "lng": 130.7783783,
    "tel": "0995-48-5533",
    "url": "syunseikai-amenity.jp",
    "pref": "鹿児島県",
    "city": "霧島市",
    "category": "home_help",
    "serviceType": "訪問介護",
    "capacity": 3,
    "openDays": [],
    "openDaysNote": ""
  },
  {
    "id": "4675900064",
    "name": "ヘルパーステーションサンライト",
    "kana": "ヘルパーステーションサンライト",
    "address": "鹿児島県霧島市牧園町高千穂3617番地623",
    "lat": 31.8798285848461,
    "lng": 130.818348769312,
    "tel": "0995-78-3387",
    "url": "htt://www.toukeikai.jp/",
    "pref": "鹿児島県",
    "city": "霧島市",
    "category": "home_help",
    "serviceType": "訪問介護",
    "capacity": 0,
    "openDays": [
      "平日"
    ],
    "openDaysNote": "24時間体制"
  },
  {
    "id": "4671201137",
    "name": "ヘルパーステーションみいま",
    "kana": "ヘルパーステーションミイマ",
    "address": "鹿児島県霧島市隼人町真孝９５０－１７キャプテンハイツ１０５ キャプテンハイツ１０５",
    "lat": 31.726905,
    "lng": 130.7378731,
    "tel": "０９９５－７３－６２６５",
    "url": "miima.2012@joy.ocn.ne.jp",
    "pref": "鹿児島県",
    "city": "霧島市",
    "category": "home_help",
    "serviceType": "訪問介護",
    "capacity": 0,
    "openDays": [
      "平日",
      "土曜日",
      "日曜日",
      "祝日"
    ],
    "openDaysNote": ""
  },
  {
    "id": "4671201335",
    "name": "ヘルパーステーション国分中央",
    "kana": "ヘルパーステーションコクブチュウオウ",
    "address": "国分中央１丁目２５－５1メディカーサ国分中央内 メディカーサ国分中央内",
    "lat": 31.7416293,
    "lng": 130.7695857,
    "tel": "0995-73-7110",
    "url": "http://www.misakikai.or.jp/",
    "pref": "鹿児島県",
    "city": "霧島市",
    "category": "home_help",
    "serviceType": "訪問介護",
    "capacity": 32,
    "openDays": [
      "平日",
      "土曜日",
      "日曜日",
      "祝日"
    ],
    "openDaysNote": ""
  },
  {
    "id": "4676100102",
    "name": "みゆき苑訪問介護",
    "kana": "ミユキエンホウモンカイゴ",
    "address": "霧島市隼人町松永８９５番地３",
    "lat": 31.7745791,
    "lng": 130.7713396,
    "tel": "0995-43-8111",
    "url": "http://www.h-miyukien.info/",
    "pref": "鹿児島県",
    "city": "霧島市",
    "category": "home_help",
    "serviceType": "訪問介護",
    "capacity": 0,
    "openDays": [
      "平日",
      "土曜日",
      "日曜日",
      "祝日"
    ],
    "openDaysNote": "なし"
  },
  {
    "id": "4676000104",
    "name": "医療法人財団浩誠会　ヘルパーステーションすぎやす",
    "kana": "イリョウホウジンザイダンコウセイカイ　ヘルパーステーションスギヤス",
    "address": "霧島市霧島田口2143番地",
    "lat": 31.8471042,
    "lng": 130.8556776,
    "tel": "0995-57-1077",
    "url": "http://www.kouseikai.info/",
    "pref": "鹿児島県",
    "city": "霧島市",
    "category": "home_help",
    "serviceType": "訪問介護",
    "capacity": 0,
    "openDays": [
      "平日",
      "土曜日",
      "日曜日",
      "祝日"
    ],
    "openDaysNote": ""
  },
  {
    "id": "4675600052",
    "name": "横川緑風園ホームヘルパーステーション",
    "kana": "ヨコガワリョクフウエンホームヘルパーステーション",
    "address": "横川町中ノ5645-1",
    "lat": 31.8876161,
    "lng": 130.6948704,
    "tel": "0995-72-9777",
    "url": "https://www.kibo-ryokufuen.com/",
    "pref": "鹿児島県",
    "city": "霧島市",
    "category": "home_help",
    "serviceType": "訪問介護",
    "capacity": 0,
    "openDays": [
      "平日",
      "土曜日",
      "日曜日",
      "祝日"
    ],
    "openDaysNote": "特になし"
  },
  {
    "id": "4671200147",
    "name": "瑞祥園　訪問介護事業所",
    "kana": "ズイショウエン　ホウモンカイゴジギョウショ",
    "address": "霧島市国分郡田711番地在宅福祉援助センター　瑞祥園 在宅福祉援助センター　瑞祥園",
    "lat": 31.7626163,
    "lng": 130.7880251,
    "tel": "0995-46-6500",
    "url": "http://www.seitenkai.jp/",
    "pref": "鹿児島県",
    "city": "霧島市",
    "category": "home_help",
    "serviceType": "訪問介護",
    "capacity": 0,
    "openDays": [
      "平日"
    ],
    "openDaysNote": "サービスは24時間対応になっています。（改行）曜日、時間は利用される方の相談に応じます。"
  },
  {
    "id": "4671200246",
    "name": "生協ヘルパーステーション・こくぶ",
    "kana": "セイキョウヘルパーステーション・コクブ",
    "address": "霧島市国分中央3丁目38番15号",
    "lat": 31.7395140303149,
    "lng": 130.761818681684,
    "tel": "0995-64-0539",
    "url": "seikyo.k.hs@po4.synapse.ne.jp",
    "pref": "鹿児島県",
    "city": "霧島市",
    "category": "home_help",
    "serviceType": "訪問介護",
    "capacity": 0,
    "openDays": [
      "平日",
      "土曜日",
      "日曜日",
      "祝日"
    ],
    "openDaysNote": ""
  },
  {
    "id": "4671201012",
    "name": "訪問介護センターアルク",
    "kana": "ホウモンカイゴセンターアルク",
    "address": "鹿児島県霧島市国分新町2丁目15番7号",
    "lat": 31.7540759176535,
    "lng": 130.763361206547,
    "tel": "0995-73-3966",
    "url": "http://www.successkey.jp/index.html",
    "pref": "鹿児島県",
    "city": "霧島市",
    "category": "home_help",
    "serviceType": "訪問介護",
    "capacity": 0,
    "openDays": [
      "平日",
      "土曜日",
      "日曜日",
      "祝日"
    ],
    "openDaysNote": "サービス提供時間に関しましてはご相談受け付けております。"
  },
  {
    "id": "4671200972",
    "name": "訪問介護の　たかふく",
    "kana": "ホウモンカイゴノ　タカフク",
    "address": "鹿児島県霧島市国分新町１５７７－１０",
    "lat": 31.7555336,
    "lng": 130.7729347,
    "tel": "０９９５－４８－５３０１",
    "url": "http://www.mct.ne.jp/users/yorikiri/",
    "pref": "鹿児島県",
    "city": "霧島市",
    "category": "home_help",
    "serviceType": "訪問介護",
    "capacity": 29,
    "openDays": [
      "平日",
      "土曜日",
      "日曜日",
      "祝日"
    ],
    "openDaysNote": "営業日、営業時間、サービス提供時間のほか、電話等により24時間常時連絡が可能な体制とする。"
  },
  {
    "id": "4671201053",
    "name": "訪問介護事業所せせらぎの里",
    "kana": "ホウモンカイゴジギョウショセセラギノサト",
    "address": "鹿児島県霧島市国分下井1794番地1",
    "lat": 31.7074183,
    "lng": 130.7807441,
    "tel": "0995－48－7555",
    "url": "http://www.seseragi-sato.jp",
    "pref": "鹿児島県",
    "city": "霧島市",
    "category": "home_help",
    "serviceType": "訪問介護",
    "capacity": 42,
    "openDays": [
      "平日",
      "土曜日",
      "日曜日",
      "祝日"
    ],
    "openDaysNote": "なし"
  },
  {
    "id": "4671201871",
    "name": "訪問介護事業所フォーハート",
    "kana": "ホウモンカイゴジギョウショフォウハアト",
    "address": "鹿児島県霧島市国分清水二丁目1番61ｰ9号",
    "lat": 31.7539241,
    "lng": 130.7752565,
    "tel": "0995-48-6108",
    "url": "",
    "pref": "鹿児島県",
    "city": "霧島市",
    "category": "home_help",
    "serviceType": "訪問介護",
    "capacity": 0,
    "openDays": [
      "平日",
      "土曜日",
      "日曜日",
      "祝日"
    ],
    "openDaysNote": "上記以外のサービス利用時間に関してはご相談に応じます。"
  },
  {
    "id": "4671201798",
    "name": "訪問介護事業所れいめい",
    "kana": "ホウモンカイゴジギョウショレイメイ",
    "address": "鹿児島県霧島市隼人町松永657",
    "lat": 31.7738633,
    "lng": 130.765839,
    "tel": "0995-55-8066",
    "url": "",
    "pref": "鹿児島県",
    "city": "霧島市",
    "category": "home_help",
    "serviceType": "訪問介護",
    "capacity": 0,
    "openDays": [
      "平日",
      "土曜日",
      "日曜日",
      "祝日"
    ],
    "openDaysNote": ""
  },
  {
    "id": "4676000054",
    "name": "翔朋園ホームヘルプサービス指定訪問介護事業所",
    "kana": "ショウホウエンホームヘルプサービスシテイホウモンカイゴジギョウショ",
    "address": "霧島市霧島田口２７３７番地３６",
    "lat": 31.8416892561537,
    "lng": 130.859485055156,
    "tel": "０９９５－５７－０１００",
    "url": "http://kirishimakai.jp/",
    "pref": "鹿児島県",
    "city": "霧島市",
    "category": "home_help",
    "serviceType": "訪問介護",
    "capacity": 25,
    "openDays": [
      "平日",
      "土曜日",
      "日曜日",
      "祝日"
    ],
    "openDaysNote": ""
  },
  {
    "id": "4675700274",
    "name": "ヘルパーステーションおうち生活応援団",
    "kana": "ヘルパーステーションオウチセイカツオウエンダン",
    "address": "鹿児島県姶良郡湧水町中津川546-8",
    "lat": 32.016237,
    "lng": 130.7436951,
    "tel": "080-9248-4401",
    "url": "",
    "pref": "鹿児島県",
    "city": "湧水町",
    "category": "home_help",
    "serviceType": "訪問介護",
    "capacity": null,
    "openDays": [
      "平日",
      "土曜日",
      "日曜日",
      "祝日"
    ],
    "openDaysNote": "利用者の状況等により、時間帯など柔軟に対応可能"
  },
  {
    "id": "4675700043",
    "name": "ホームヘルパーステーション　グリーン光芳",
    "kana": "ホームヘルパーステーション　グリーンコウホウ",
    "address": "鹿児島県姶良郡湧水町米永2387番地",
    "lat": 31.9252629,
    "lng": 130.7211058,
    "tel": "０９９５－７４－１１１１",
    "url": "",
    "pref": "鹿児島県",
    "city": "湧水町",
    "category": "home_help",
    "serviceType": "訪問介護",
    "capacity": 0,
    "openDays": [
      "平日",
      "土曜日",
      "日曜日",
      "祝日"
    ],
    "openDaysNote": ""
  },
  {
    "id": "4675700159",
    "name": "訪問介護ステーション　さくら",
    "kana": "ホウモンカイゴステーション　サクラ",
    "address": "鹿児島県姶良郡湧水町鶴丸６２２－５",
    "lat": 32.0309411,
    "lng": 130.7482771,
    "tel": "０９９５－７５－３９００",
    "url": "",
    "pref": "鹿児島県",
    "city": "湧水町",
    "category": "home_help",
    "serviceType": "訪問介護",
    "capacity": 3,
    "openDays": [
      "平日",
      "土曜日",
      "祝日"
    ],
    "openDaysNote": "但し、必要な場合は、この時間以外での訪問介護も行うものとする。（改行）上記の営業日、営業時間、サービス提供時間のほか、電話等により２４時間常時連絡が可能な体制とする。"
  },
  {
    "id": "4679600033",
    "name": "ホームケアステーションよろん",
    "kana": "ホームケアステーションヨロン",
    "address": "鹿児島県大島郡与論町茶花２６４３番地３社会福祉法人　与論町社会福祉協議会 社会福祉法人　与論町社会福祉協議会",
    "lat": 27.0517608,
    "lng": 128.4250648,
    "tel": "0997-84-3010",
    "url": "http://yoronsyakyo.jimdosite.com",
    "pref": "鹿児島県",
    "city": "与論町",
    "category": "home_help",
    "serviceType": "訪問介護",
    "capacity": 0,
    "openDays": [
      "平日",
      "土曜日",
      "日曜日",
      "祝日"
    ],
    "openDaysNote": "上記の営業日、営業時間、サービス提供時間のほか、電話により２４時間常時連絡が可能な体制とする。"
  },
  {
    "id": "4613211376",
    "name": "医療法人徳洲会与論徳洲会病院",
    "kana": "イリョウホウジントクシュウカイヨロントクシュウカイビョウイン",
    "address": "鹿児島県大島郡与論町茶花403-1",
    "lat": 27.0439688,
    "lng": 128.4164904,
    "tel": "0997－97－2511",
    "url": "http://yorontokushukai.jp/",
    "pref": "鹿児島県",
    "city": "与論町",
    "category": "home_help",
    "serviceType": "訪問介護",
    "capacity": 0,
    "openDays": [
      "平日",
      "土曜日",
      "日曜日",
      "祝日"
    ],
    "openDaysNote": "但し、夜間帯、早朝は身体介護のみ支援します。"
  },
  {
    "id": "4678800105",
    "name": "愛寿園ホームヘルパー派遣センター",
    "kana": "アイジュエンホームヘルパーハケンセンター",
    "address": "大島郡龍郷町浦561番地",
    "lat": 28.4041617,
    "lng": 129.5846069,
    "tel": "0997-62-5800",
    "url": "http://ryuusenkai.org",
    "pref": "鹿児島県",
    "city": "龍郷町",
    "category": "home_help",
    "serviceType": "訪問介護",
    "capacity": 35,
    "openDays": [
      "平日",
      "土曜日",
      "日曜日",
      "祝日"
    ],
    "openDaysNote": "必要に応じ24時間対応可"
  },
  {
    "id": "4678800097",
    "name": "社会福祉法人龍郷町社会福祉協議会訪問介護事業所",
    "kana": "シャカイフクシホウジンタツゴウチョウシャカイフクシキョウギカイホウモンカイゴジギョウショ",
    "address": "鹿児島県大島郡龍郷町瀬留９６７番地龍郷町保健福祉センター　どぅくさぁや館 龍郷町保健福祉センター　どぅくさぁや館",
    "lat": 28.4119473,
    "lng": 129.5903036,
    "tel": "0997-62-5407",
    "url": "https://www.shakyo.or.jp/hp/1768/",
    "pref": "鹿児島県",
    "city": "龍郷町",
    "category": "home_help",
    "serviceType": "訪問介護",
    "capacity": 15,
    "openDays": [
      "平日",
      "土曜日",
      "日曜日",
      "祝日"
    ],
    "openDaysNote": "介護サービスの提供については随時相談に応じます。"
  },
  {
    "id": "4679400228",
    "name": "ヘルパーステーション　うえはら",
    "kana": "ヘルパーステーション　ウエハラ",
    "address": "鹿児島県大島郡和泊町大字内城５２７番地",
    "lat": 27.3824713,
    "lng": 128.608049,
    "tel": "０９９７－９２－３２１０",
    "url": "",
    "pref": "鹿児島県",
    "city": "和泊町",
    "category": "home_help",
    "serviceType": "訪問介護",
    "capacity": 30,
    "openDays": [
      "平日",
      "土曜日",
      "日曜日",
      "祝日"
    ],
    "openDaysNote": "早朝・深夜もプランによって派遣可能"
  },
  {
    "id": "4679400053",
    "name": "社会福祉法人和泊町社会福祉協議会指定訪問介護事業所",
    "kana": "シャカイフクシホウジンワドマリチョウシャカイフクシキョウギカイシテイホウモンカイゴジギョウショ",
    "address": "鹿児島県大島郡和泊町和泊39-3",
    "lat": 27.3913862812261,
    "lng": 128.654283060945,
    "tel": "0997-92-0511",
    "url": "http://wasyakyo.jimdo.com",
    "pref": "鹿児島県",
    "city": "和泊町",
    "category": "home_help",
    "serviceType": "訪問介護",
    "capacity": 0,
    "openDays": [
      "平日",
      "土曜日",
      "日曜日",
      "祝日"
    ],
    "openDaysNote": "定休日は業務用携帯電話による対応可"
  }
]