[
  {
    "id": "2491200222",
    "name": "さくらんぼ",
    "kana": "サクランボ",
    "address": "高畑747-1",
    "lat": 35.1415706,
    "lng": 136.8547042,
    "tel": "0595-21-1030",
    "url": "https://www.sakuranbo-iga.com",
    "pref": "三重県",
    "city": "伊賀市",
    "category": "regular_patrol_nursing",
    "serviceType": "定期巡回・随時対応型訪問介護看護",
    "capacity": 30,
    "openDays": [],
    "openDaysNote": ""
  },
  {
    "id": "2490800352",
    "name": "定期巡回　森伸",
    "kana": "テイキジュンカイ　モリシン",
    "address": "三重県伊勢市磯町1835-1",
    "lat": 34.5128264,
    "lng": 136.6857426,
    "tel": "0596-38-1120",
    "url": "http://www.morisin.co.jp/",
    "pref": "三重県",
    "city": "伊勢市",
    "category": "regular_patrol_nursing",
    "serviceType": "定期巡回・随時対応型訪問介護看護",
    "capacity": 0,
    "openDays": [],
    "openDaysNote": ""
  },
  {
    "id": "2490800196",
    "name": "定期巡回・随時対応型訪問介護看護事業所いすずガーデン",
    "kana": "テイキジュンカイ・ズイジタイオウガタホウモンカイゴカンゴジギョウショイスズガーデン",
    "address": "楠部町乙77サービス付き高齢者向け住宅いすずガーデン サービス付き高齢者向け住宅いすずガーデン",
    "lat": 34.4761665,
    "lng": 136.7293565,
    "tel": "0596-63-8500",
    "url": "https://isuzukai.or.jp/",
    "pref": "三重県",
    "city": "伊勢市",
    "category": "regular_patrol_nursing",
    "serviceType": "定期巡回・随時対応型訪問介護看護",
    "capacity": 0,
    "openDays": [],
    "openDaysNote": ""
  },
  {
    "id": "2492800145",
    "name": "ネクスト",
    "kana": "ネクスト",
    "address": "三重県度会郡玉城町妙法寺398-1三重県高齢者住宅組合玉城館・玉城2号館 三重県高齢者住宅組合玉城館・玉城2号館",
    "lat": 34.4933276,
    "lng": 136.638009,
    "tel": "0596-58-0300",
    "url": "https://www.all-kaigo.net",
    "pref": "三重県",
    "city": "玉城町",
    "category": "regular_patrol_nursing",
    "serviceType": "定期巡回・随時対応型訪問介護看護",
    "capacity": 0,
    "openDays": [],
    "openDaysNote": ""
  },
  {
    "id": "2492800160",
    "name": "定期巡回・随時対応型訪問介護看護　虹の夢玉城",
    "kana": "テイキジンカイ・ズイジタイオウガタホウモンカイゴカンゴ　ニジノユメタマキ",
    "address": "三重県度会郡玉城町蚊野2155番地サービス付き高齢者向け住宅　癒しの郷翠龍 サービス付き高齢者向け住宅　癒しの郷翠龍",
    "lat": 34.4843837,
    "lng": 136.6058129,
    "tel": "0596-59-7700",
    "url": "",
    "pref": "三重県",
    "city": "玉城町",
    "category": "regular_patrol_nursing",
    "serviceType": "定期巡回・随時対応型訪問介護看護",
    "capacity": null,
    "openDays": [],
    "openDaysNote": ""
  },
  {
    "id": "2490100423",
    "name": "定期巡回・随時対応型訪問介護看護　ふるさと　縁",
    "kana": "テイキジュンカイ・ズイジタイオウガタホウモンカイゴカンゴ　フルサト　エン",
    "address": "三重県桑名市大字北別所字流1590-1ふるさと　タウン ふるさと　タウン",
    "lat": 35.0746999,
    "lng": 136.6735519,
    "tel": "０５９４－４１－２５３２６",
    "url": "",
    "pref": "三重県",
    "city": "桑名市",
    "category": "regular_patrol_nursing",
    "serviceType": "定期巡回・随時対応型訪問介護看護",
    "capacity": null,
    "openDays": [],
    "openDaysNote": ""
  },
  {
    "id": "2490200389",
    "name": "ゴールドエイジ地域巡回センター四日市営業所",
    "kana": "ゴールドエイジチイキジュンカイセンターヨッカイチエイギョウショ",
    "address": "三重県四日市市城西町7-32",
    "lat": 34.96417,
    "lng": 136.6034619,
    "tel": "059-327-5899",
    "url": "http://goldage.co.jp",
    "pref": "三重県",
    "city": "四日市市",
    "category": "regular_patrol_nursing",
    "serviceType": "定期巡回・随時対応型訪問介護看護",
    "capacity": 0,
    "openDays": [],
    "openDaysNote": ""
  },
  {
    "id": "2490200413",
    "name": "定期巡回・随時対応型訪問介護看護ステーションこまち　四日市",
    "kana": "テイキジュンカイ・ズイジタイオウガタホウモンカイゴカンゴステーションコマチ　ヨッカイチ",
    "address": "三重県四日市市中部17番11号",
    "lat": 34.9704061,
    "lng": 136.624926,
    "tel": "059-352-2150",
    "url": "http://www.hukushi.jp",
    "pref": "三重県",
    "city": "四日市市",
    "category": "regular_patrol_nursing",
    "serviceType": "定期巡回・随時対応型訪問介護看護",
    "capacity": null,
    "openDays": [],
    "openDaysNote": ""
  },
  {
    "id": "2492900218",
    "name": "定期巡回・随時対応型訪問介護看護　虹の夢志摩",
    "kana": "テイキジュンカイ・ズイジタイオウガタホウモンカイゴカンゴ　ニジノユメシマ",
    "address": "三重県志摩市阿児町国府3708-34",
    "lat": 34.3558986,
    "lng": 136.8922653,
    "tel": "0599-47-0294",
    "url": "",
    "pref": "三重県",
    "city": "志摩市",
    "category": "regular_patrol_nursing",
    "serviceType": "定期巡回・随時対応型訪問介護看護",
    "capacity": null,
    "openDays": [],
    "openDaysNote": ""
  },
  {
    "id": "2490700446",
    "name": "定期巡回・随時対応型訪問介護看護事業所　おりがみさん",
    "kana": "テイキジュンカイズイジタイオウガタホウモンカイゴカンゴジギョウショ　オリガミサン",
    "address": "三重県松阪市垣鼻町1034番地5",
    "lat": 34.5734568,
    "lng": 136.5447471,
    "tel": "0598-67-5808",
    "url": "origamisan-matusaka.com",
    "pref": "三重県",
    "city": "松阪市",
    "category": "regular_patrol_nursing",
    "serviceType": "定期巡回・随時対応型訪問介護看護",
    "capacity": null,
    "openDays": [],
    "openDaysNote": ""
  },
  {
    "id": "2490900087",
    "name": "いやしのすてっぷ",
    "kana": "イヤシノステップ",
    "address": "三重県鳥羽市松尾町321番地1",
    "lat": 34.4351107,
    "lng": 136.8389429,
    "tel": "599377191",
    "url": "https://iyashino.club/homepage/",
    "pref": "三重県",
    "city": "鳥羽市",
    "category": "regular_patrol_nursing",
    "serviceType": "定期巡回・随時対応型訪問介護看護",
    "capacity": null,
    "openDays": [],
    "openDaysNote": ""
  },
  {
    "id": "2490500259",
    "name": "地域密着型　津中央ヘルパーステーション　シルバーケア豊壽園",
    "kana": "チイキミッチャクガタ　ツチュウオウヘルパーステーション　シルバーケアホウジュエン",
    "address": "三重県津市本町26番地13号",
    "lat": 34.7120059,
    "lng": 136.5089106,
    "tel": "059-221-2201",
    "url": "http://www.sensin.or.jp/",
    "pref": "三重県",
    "city": "津市",
    "category": "regular_patrol_nursing",
    "serviceType": "定期巡回・随時対応型訪問介護看護",
    "capacity": 0,
    "openDays": [],
    "openDaysNote": ""
  },
  {
    "id": "2490500697",
    "name": "定期巡回いちし",
    "kana": "テイキジュンカイイチシ",
    "address": "三重県津市一志町日置４６番地",
    "lat": 34.6579116393491,
    "lng": 136.445078021861,
    "tel": "059-295-0055",
    "url": "",
    "pref": "三重県",
    "city": "津市",
    "category": "regular_patrol_nursing",
    "serviceType": "定期巡回・随時対応型訪問介護看護",
    "capacity": null,
    "openDays": [],
    "openDaysNote": ""
  },
  {
    "id": "2492000027",
    "name": "定期巡回・随時対応型訪問介護看護　すいせん",
    "kana": "テイキジュンカイ・ズイジタイオウガタホウモンカイゴカンゴ　スイセン",
    "address": "三重県桑名郡木曽岬町大字和富10番8",
    "lat": 35.066148,
    "lng": 136.7512515,
    "tel": "0567-68-6565",
    "url": "http://suisen-no-sato.com/",
    "pref": "三重県",
    "city": "木曽岬町",
    "category": "regular_patrol_nursing",
    "serviceType": "定期巡回・随時対応型訪問介護看護",
    "capacity": null,
    "openDays": [],
    "openDaysNote": ""
  },
  {
    "id": "2490300320",
    "name": "ゴールドエイジ地域巡回センター　鈴鹿営業所",
    "kana": "ゴールヂエイジチイキジュンカイセンター　スズカエイギョウショ",
    "address": "三重県鈴鹿市池田町1338番1ゴールドエイジ池田 ゴールドエイジ池田",
    "lat": 34.9013934123566,
    "lng": 136.608326736361,
    "tel": "059-392-7300",
    "url": "http://goldage.co.jp",
    "pref": "三重県",
    "city": "鈴鹿市",
    "category": "regular_patrol_nursing",
    "serviceType": "定期巡回・随時対応型訪問介護看護",
    "capacity": 0,
    "openDays": [],
    "openDaysNote": ""
  }
]