[
  {
    "id": "2691200295",
    "name": "24時間サポートくらしのハーモニー",
    "kana": "ニジュウヨジカンサポートクラシノハーモニー",
    "address": "京都府宇治市木幡鉄艸原14－4ハーモニー東風館 ハーモニー東風館",
    "lat": 34.9253273,
    "lng": 135.8042495,
    "tel": "0774-33-8585",
    "url": "http://www.kurashino-harmony.or.jp/",
    "pref": "京都府",
    "city": "宇治市",
    "category": "regular_patrol_nursing",
    "serviceType": "定期巡回・随時対応型訪問介護看護",
    "capacity": null,
    "openDays": [],
    "openDaysNote": ""
  },
  {
    "id": "2691200147",
    "name": "医療法人徳洲会　定期巡回・随時対応型訪問介護看護　宇治徳洲会",
    "kana": "イリョウホウジントクシュウカイ　テイキジュンカイ・ズイジタイオウガタホウモンカイゴカンゴ　ウジトクシュウカイ",
    "address": "京都府宇治市槇島町石橋63番地",
    "lat": 34.9028028620799,
    "lng": 135.787167486014,
    "tel": "0774-81-0226",
    "url": "http://www.ujitoku.or.jp",
    "pref": "京都府",
    "city": "宇治市",
    "category": "regular_patrol_nursing",
    "serviceType": "定期巡回・随時対応型訪問介護看護",
    "capacity": 0,
    "openDays": [],
    "openDaysNote": ""
  },
  {
    "id": "2693300176",
    "name": "はごろも苑あんしんケアコールセンター２４",
    "kana": "ハゴロモエンアンシンケアコールセンター２４",
    "address": "京都府京丹後市峰山町長岡2093",
    "lat": 35.596941877645,
    "lng": 135.066148421426,
    "tel": "０７７２－６２－７００１",
    "url": "http://www.mineyama-fukusikai.jp/",
    "pref": "京都府",
    "city": "京丹後市",
    "category": "regular_patrol_nursing",
    "serviceType": "定期巡回・随時対応型訪問介護看護",
    "capacity": 0,
    "openDays": [],
    "openDaysNote": ""
  },
  {
    "id": "2690700436",
    "name": "ＳＯＭＰＯケア　京都西　定期巡回",
    "kana": "ソンポケア　キョウトニシ　テイキジュンカイ",
    "address": "京都府京都市右京区山ノ内五反田町9-1かどの御池ビル３階 かどの御池ビル３階",
    "lat": 35.0106173,
    "lng": 135.7205781,
    "tel": "075-432-8265",
    "url": "https://www.sompocare.com/",
    "pref": "京都府",
    "city": "京都市右京区",
    "category": "regular_patrol_nursing",
    "serviceType": "定期巡回・随時対応型訪問介護看護",
    "capacity": null,
    "openDays": [],
    "openDaysNote": ""
  },
  {
    "id": "2690700162",
    "name": "ＳＯＭＰＯケア　京都　定期巡回",
    "kana": "ソンポケア　キョウト　テイキジュンカイ",
    "address": "京都府京都市下京区五条通河原町西入本覚寺前町801損保ジャパン京都ビル7F 損保ジャパン京都ビル7F",
    "lat": 34.9963479420556,
    "lng": 135.765006182229,
    "tel": "075-353-2107",
    "url": "https://www.sompocare.com/",
    "pref": "京都府",
    "city": "京都市下京区",
    "category": "regular_patrol_nursing",
    "serviceType": "定期巡回・随時対応型訪問介護看護",
    "capacity": null,
    "openDays": [],
    "openDaysNote": ""
  },
  {
    "id": "2690400078",
    "name": "Uniケアサポート京都",
    "kana": "ユニケアサポートキョウト",
    "address": "中堂寺庄ノ内町46-7メディカルグランメゾン京都五条御前 メディカルグランメゾン京都五条御前",
    "lat": 34.9971093,
    "lng": 135.7369712,
    "tel": "075-279-6770",
    "url": "",
    "pref": "京都府",
    "city": "京都市下京区",
    "category": "regular_patrol_nursing",
    "serviceType": "定期巡回・随時対応型訪問介護看護",
    "capacity": 0,
    "openDays": [],
    "openDaysNote": ""
  },
  {
    "id": "2690400177",
    "name": "シニアみまもり隊　大宮",
    "kana": "シニアミマモリタイ　オオミヤ",
    "address": "京都府京都市下京区高辻大宮町123モンテベルデ壬生２階 モンテベルデ壬生２階",
    "lat": 34.9992501,
    "lng": 135.748952,
    "tel": "075-432-7766",
    "url": "http://www.rakufuku.jp",
    "pref": "京都府",
    "city": "京都市下京区",
    "category": "regular_patrol_nursing",
    "serviceType": "定期巡回・随時対応型訪問介護看護",
    "capacity": null,
    "openDays": [],
    "openDaysNote": ""
  },
  {
    "id": "2690600107",
    "name": "ケア・サポート上高野事業所",
    "kana": "ケア・サポートカミタカノジギョウショ",
    "address": "京都市左京区上高野隣好町10番地上高野デイサービスセンター3F 上高野デイサービスセンター3F",
    "lat": 35.0623643,
    "lng": 135.7951568,
    "tel": "075-708-1066",
    "url": "kyotoohara.jp/",
    "pref": "京都府",
    "city": "京都市左京区",
    "category": "regular_patrol_nursing",
    "serviceType": "定期巡回・随時対応型訪問介護看護",
    "capacity": 0,
    "openDays": [],
    "openDaysNote": ""
  },
  {
    "id": "2694100401",
    "name": "ナーシングホームハートフルキョウトヤマシナ",
    "kana": "ナーシングホームハートフル京都山科",
    "address": "京都府京都市山科区西野山射庭ノ上町202番地1",
    "lat": 34.9728512273171,
    "lng": 135.798618125201,
    "tel": "075-634-5900",
    "url": "https://www.heartfulcare.com/",
    "pref": "京都府",
    "city": "京都市山科区",
    "category": "regular_patrol_nursing",
    "serviceType": "定期巡回・随時対応型訪問介護看護",
    "capacity": 0,
    "openDays": [],
    "openDaysNote": ""
  },
  {
    "id": "2694100344",
    "name": "医療法人新生十全会　定期巡回随時対応型訪問介護看護　ひだまりの家　小野",
    "kana": "イリョウホウジンシンセイジュウゼンカイ　テイキジュンカイズイジタイオウガタホウモンカイゴカンゴ　ヒダマリノイエ　オノ",
    "address": "京都府京都市山科区小野荘司町6番地1",
    "lat": 34.9608731,
    "lng": 135.8167772,
    "tel": "075-575-2850",
    "url": "http://www.juzenkai.or.jp",
    "pref": "京都府",
    "city": "京都市山科区",
    "category": "regular_patrol_nursing",
    "serviceType": "定期巡回・随時対応型訪問介護看護",
    "capacity": 0,
    "openDays": [],
    "openDaysNote": ""
  },
  {
    "id": "2694100237",
    "name": "洛和ヘルパーステーション音羽",
    "kana": "ラクワヘルパーステーションオトワ",
    "address": "音羽八ノ坪17-1",
    "lat": 34.9882085,
    "lng": 135.8267128,
    "tel": "075-584-1400",
    "url": "http://www.rakuwa.or.jp/kaigo/",
    "pref": "京都府",
    "city": "京都市山科区",
    "category": "regular_patrol_nursing",
    "serviceType": "定期巡回・随時対応型訪問介護看護",
    "capacity": 0,
    "openDays": [],
    "openDaysNote": ""
  },
  {
    "id": "2694000387",
    "name": "ぐりっど定期巡回【介護・看護一体型】",
    "kana": "グリッドテイキジュンカイ【カイゴ・カンゴイッタイガタ】",
    "address": "京都府京都市西京区大枝北福西町3-2-18",
    "lat": 34.959853,
    "lng": 135.6831668,
    "tel": "075-323-7543",
    "url": "https://gridrakusai.com",
    "pref": "京都府",
    "city": "京都市西京区",
    "category": "regular_patrol_nursing",
    "serviceType": "定期巡回・随時対応型訪問介護看護",
    "capacity": null,
    "openDays": [],
    "openDaysNote": ""
  },
  {
    "id": "2694000403",
    "name": "そよ風　定期巡回きょうと桂",
    "kana": "ソヨカゼ　テイキジュンカイ　キョウトカツラ",
    "address": "京都府京都市西京区御陵塚ノ越町２４－１",
    "lat": 34.9784253,
    "lng": 135.6889604,
    "tel": "075-391-1550",
    "url": "http://www.sykz.co.jp",
    "pref": "京都府",
    "city": "京都市西京区",
    "category": "regular_patrol_nursing",
    "serviceType": "定期巡回・随時対応型訪問介護看護",
    "capacity": 0,
    "openDays": [],
    "openDaysNote": ""
  },
  {
    "id": "2694000338",
    "name": "ホームケア２４くつかけ七彩の家",
    "kana": "ホームケア２４クツカケナナイロノイエ",
    "address": "京都府京都市大枝北沓掛町一丁目3番地1七彩すまいる館 七彩すまいる館",
    "lat": 34.9882675,
    "lng": 135.6550493,
    "tel": "075-333-6026",
    "url": "https://www.rakufuku.jp/",
    "pref": "京都府",
    "city": "京都市西京区",
    "category": "regular_patrol_nursing",
    "serviceType": "定期巡回・随時対応型訪問介護看護",
    "capacity": null,
    "openDays": [],
    "openDaysNote": ""
  },
  {
    "id": "2694000361",
    "name": "定期巡回・随時対応型訪問介護看護　フィット・洛西",
    "kana": "テイキジュンカイ・ズイジタイオウガタホウモンカイゴカンゴ　フィット・ラクサイ",
    "address": "桂浅原町141番地カーサデルクオーレ桂離宮 カーサデルクオーレ桂離宮",
    "lat": 34.9823552,
    "lng": 135.7115055,
    "tel": "075－382－0708",
    "url": "",
    "pref": "京都府",
    "city": "京都市西京区",
    "category": "regular_patrol_nursing",
    "serviceType": "定期巡回・随時対応型訪問介護看護",
    "capacity": 0,
    "openDays": [],
    "openDaysNote": ""
  },
  {
    "id": "2690500174",
    "name": "吉祥ホーム　ホームヘルプサービスセンター",
    "kana": "キッショウホーム　ホームヘルプサービスセンター",
    "address": "京都府京都市南区吉祥院石原橋上1-4",
    "lat": 34.9680871963776,
    "lng": 135.724026428836,
    "tel": "075-682-8162",
    "url": "https://www.seiwaen.or.jp/",
    "pref": "京都府",
    "city": "京都市南区",
    "category": "regular_patrol_nursing",
    "serviceType": "定期巡回・随時対応型訪問介護看護",
    "capacity": 22,
    "openDays": [],
    "openDaysNote": ""
  },
  {
    "id": "2690500257",
    "name": "吉祥院訪問介護事業所",
    "kana": "キッショウインホウモンカイゴジギョウショ",
    "address": "京都市南区吉祥院砂ノ町50",
    "lat": 34.9685342,
    "lng": 135.7326705,
    "tel": "075-661-8991",
    "url": "https://www.seiwaen.or.jp/",
    "pref": "京都府",
    "city": "京都市南区",
    "category": "regular_patrol_nursing",
    "serviceType": "定期巡回・随時対応型訪問介護看護",
    "capacity": 60,
    "openDays": [],
    "openDaysNote": ""
  },
  {
    "id": "2690500109",
    "name": "久世ホーム訪問介護事業所　定期巡回随時対応型訪問介護看護",
    "kana": "クゼホームホウモンカイゴジギョウショ　テイキジュンカイズイジタイオウガタホウモンカイゴカンゴ",
    "address": "京都府京都市南区久世築山町72",
    "lat": 34.9576577802851,
    "lng": 135.724559248582,
    "tel": "075-933-5777",
    "url": "http://www.seiwaen.or.jp",
    "pref": "京都府",
    "city": "京都市南区",
    "category": "regular_patrol_nursing",
    "serviceType": "定期巡回・随時対応型訪問介護看護",
    "capacity": 150,
    "openDays": [],
    "openDaysNote": ""
  },
  {
    "id": "2690500141",
    "name": "鳥羽ホームホームヘルプサービスセンター",
    "kana": "トバホームホームヘルプサービスセンター",
    "address": "上鳥羽堀子町88番地",
    "lat": 34.969152614311,
    "lng": 135.74442306945,
    "tel": "075‐692‐1149",
    "url": "http://www.seiwaen.or.jp",
    "pref": "京都府",
    "city": "京都市南区",
    "category": "regular_patrol_nursing",
    "serviceType": "定期巡回・随時対応型訪問介護看護",
    "capacity": 155,
    "openDays": [],
    "openDaysNote": ""
  },
  {
    "id": "2690500281",
    "name": "定期巡回・随時対応型訪問介護看護ビハーラ十条",
    "kana": "テイキジュンカイ・ズイジタイオウガタホウモンカイゴカンゴビハーラジュウジョウ",
    "address": "京都府京都市南区吉祥院南落合町40番4",
    "lat": 34.9729516,
    "lng": 135.7409019,
    "tel": "075-585-6878",
    "url": "http://www.vhr10.jp/",
    "pref": "京都府",
    "city": "京都市南区",
    "category": "regular_patrol_nursing",
    "serviceType": "定期巡回・随時対応型訪問介護看護",
    "capacity": null,
    "openDays": [],
    "openDaysNote": ""
  },
  {
    "id": "2690900747",
    "name": "アプリシェイト定期巡回・随時対応型訪問介護看護ステーション",
    "kana": "アプリシェイトテイキジュンカイ・ズイジタイオウガタホウモンカイゴカンゴステーション",
    "address": "醍醐西大路町59-2パルアベニュー醍醐105号室パルアベニュー醍醐105号室 パルアベニュー醍醐105号室",
    "lat": 34.9496019,
    "lng": 135.8162285,
    "tel": "075-748-8812",
    "url": "",
    "pref": "京都府",
    "city": "京都市伏見区",
    "category": "regular_patrol_nursing",
    "serviceType": "定期巡回・随時対応型訪問介護看護",
    "capacity": null,
    "openDays": [],
    "openDaysNote": ""
  },
  {
    "id": "2690900457",
    "name": "さくらハウス七瀬川",
    "kana": "サクラハウスナナセガワ",
    "address": "京都市伏見区深草小久保町261",
    "lat": 34.9517003,
    "lng": 135.7631183,
    "tel": "075-643-6520",
    "url": "http://kyoro.or.jp",
    "pref": "京都府",
    "city": "京都市伏見区",
    "category": "regular_patrol_nursing",
    "serviceType": "定期巡回・随時対応型訪問介護看護",
    "capacity": null,
    "openDays": [],
    "openDaysNote": ""
  },
  {
    "id": "2690900713",
    "name": "ヘルパーステーション　ヴィラ向島",
    "kana": "ヘルパーステーションヴィラムカイジマ",
    "address": "京都市伏見区向島新上林町16",
    "lat": 34.9156519,
    "lng": 135.763343,
    "tel": "075-611-7106",
    "url": "https://www.mukaijima",
    "pref": "京都府",
    "city": "京都市伏見区",
    "category": "regular_patrol_nursing",
    "serviceType": "定期巡回・随時対応型訪問介護看護",
    "capacity": 20,
    "openDays": [],
    "openDaysNote": ""
  },
  {
    "id": "2690900630",
    "name": "医療法人新生十全会新生十全会　定期巡回随時対応型訪問介護看護　こもれびの家",
    "kana": "イリョウホウジンシンセイジュウゼンカイ　テイキジュンカイズイジタイオウガタホウモンカイゴカンゴ　コモレビノイエ",
    "address": "京都府京都市伏見区日野西風呂町5番地",
    "lat": 34.9356804,
    "lng": 135.8129104,
    "tel": "075-572-0559",
    "url": "http://www.juzenkai.or.jp/",
    "pref": "京都府",
    "city": "京都市伏見区",
    "category": "regular_patrol_nursing",
    "serviceType": "定期巡回・随時対応型訪問介護看護",
    "capacity": null,
    "openDays": [],
    "openDaysNote": ""
  },
  {
    "id": "2690900598",
    "name": "京都市東高瀬川センター　ヘルパーステーション",
    "kana": "キョウトシヒガシタカセガワセンター　ヘルパーステーション",
    "address": "北端町44-7",
    "lat": 34.9452778,
    "lng": 135.7547222,
    "tel": "075-612-8023",
    "url": "http://kyoro.or.jp",
    "pref": "京都府",
    "city": "京都市伏見区",
    "category": "regular_patrol_nursing",
    "serviceType": "定期巡回・随時対応型訪問介護看護",
    "capacity": null,
    "openDays": [],
    "openDaysNote": ""
  },
  {
    "id": "2690900606",
    "name": "春日丘センター　ヘルパーステーション",
    "kana": "カスガオカセンター　ヘルパアステイション",
    "address": "京都市伏見区醍醐辰巳町12-1",
    "lat": 34.9409344,
    "lng": 135.8141451,
    "tel": "075-575-2455",
    "url": "https://kyoro.or.jp/",
    "pref": "京都府",
    "city": "京都市伏見区",
    "category": "regular_patrol_nursing",
    "serviceType": "定期巡回・随時対応型訪問介護看護",
    "capacity": null,
    "openDays": [],
    "openDaysNote": ""
  },
  {
    "id": "2690900580",
    "name": "城南ホーム定期巡回随時対応型訪問介護看護事業所",
    "kana": "ジョウナンホームテイキジュンカイズイジタイオウガタホウモンカイゴカンゴジギョウショ",
    "address": "京都市伏見区竹田中内畑町53特別養護老人ホーム城南ホーム 特別養護老人ホーム城南ホーム",
    "lat": 34.953472,
    "lng": 135.7536747,
    "tel": "075-622-6530",
    "url": "https://www.seiwaen.or.jp/index.html",
    "pref": "京都府",
    "city": "京都市伏見区",
    "category": "regular_patrol_nursing",
    "serviceType": "定期巡回・随時対応型訪問介護看護",
    "capacity": 0,
    "openDays": [],
    "openDaysNote": ""
  },
  {
    "id": "2690900549",
    "name": "定期巡回のクローバー",
    "kana": "テイキジュンカイノクローバー",
    "address": "京都市伏見区醍醐西大路町55ｳﾞｨﾗ･ｳｴｽﾄ101号室 ｳﾞｨﾗ･ｳｴｽﾄ101号室",
    "lat": 34.9496743,
    "lng": 135.8156006,
    "tel": "075-571-1011",
    "url": "https://clover-24jikan.co.jp",
    "pref": "京都府",
    "city": "京都市伏見区",
    "category": "regular_patrol_nursing",
    "serviceType": "定期巡回・随時対応型訪問介護看護",
    "capacity": 35,
    "openDays": [],
    "openDaysNote": ""
  },
  {
    "id": "2693100071",
    "name": "ｾﾝｼｭﾝｶｲﾎｳﾓﾝｶｲｺﾞｾﾝﾀｰｶﾐｳｴﾉ",
    "kana": "センシュンカイ訪問介護センター上植野",
    "address": "京都府向日市上植野町上川原7-1",
    "lat": 34.9343316,
    "lng": 135.7011012,
    "tel": "075-925-1630",
    "url": "http://www.senshunkai.or.jp",
    "pref": "京都府",
    "city": "向日市",
    "category": "regular_patrol_nursing",
    "serviceType": "定期巡回・随時対応型訪問介護看護",
    "capacity": 3,
    "openDays": [],
    "openDaysNote": ""
  },
  {
    "id": "2693000107",
    "name": "せんしゅんかい訪問介護ｾﾝﾀｰ西山天王山",
    "kana": "センシュンカイホウモンカイゴセンタ-ニシヤマテンノウザン",
    "address": "京都府長岡京市友岡川原25-3",
    "lat": 34.9131965381285,
    "lng": 135.688113759046,
    "tel": "075-959-1004",
    "url": "h-kaiden＠.senshunkai.or.jp",
    "pref": "京都府",
    "city": "長岡京市",
    "category": "regular_patrol_nursing",
    "serviceType": "定期巡回・随時対応型訪問介護看護",
    "capacity": 0,
    "openDays": [],
    "openDaysNote": ""
  },
  {
    "id": "2692900075",
    "name": "定期巡回・随時対応型訪問介護看護YMBT",
    "kana": "テイキジュンカイ・ズイジタイオウガタホウモンカイゴカンゴワイエムビーティ",
    "address": "京都府八幡市男山石城１－４",
    "lat": 34.8621241825287,
    "lng": 135.69798515941,
    "tel": "０７５－９８２－８００２",
    "url": "http://ymbt.or.jp/yamabato_day/",
    "pref": "京都府",
    "city": "八幡市",
    "category": "regular_patrol_nursing",
    "serviceType": "定期巡回・随時対応型訪問介護看護",
    "capacity": 0,
    "openDays": [],
    "openDaysNote": ""
  },
  {
    "id": "2692700137",
    "name": "あんしんケアコールセンターきょうらく",
    "kana": "アンシンケアコールセンターキョウラク",
    "address": "京都府舞鶴市字余部下816",
    "lat": 35.4775741,
    "lng": 135.3652713,
    "tel": "0773-65-3603",
    "url": "http://seihoukai.com/",
    "pref": "京都府",
    "city": "舞鶴市",
    "category": "regular_patrol_nursing",
    "serviceType": "定期巡回・随時対応型訪問介護看護",
    "capacity": 0,
    "openDays": [],
    "openDaysNote": ""
  },
  {
    "id": "2692600204",
    "name": "あんしんケアコールセンター24",
    "kana": "アンシンケアコールセンターニジュウヨン",
    "address": "京都府福知山市字猪野々31-1",
    "lat": 35.3280343,
    "lng": 135.0430479,
    "tel": "0773-33-3155",
    "url": "https://swc-seikouen.jp/iwato/",
    "pref": "京都府",
    "city": "福知山市",
    "category": "regular_patrol_nursing",
    "serviceType": "定期巡回・随時対応型訪問介護看護",
    "capacity": 0,
    "openDays": [],
    "openDaysNote": ""
  }
]