[
  {
    "id": "4190500142",
    "name": "定期巡回随時対応型訪問介護看護グランパランエール",
    "kana": "テイキジュンカイズイジタイオウガタホウモンカイゴカンゴグランパランエール",
    "address": "佐賀県伊万里市大坪町乙1518-4",
    "lat": 33.2747102,
    "lng": 129.8973205,
    "tel": "0955-20-0002",
    "url": "https://kashinkai.or.jp",
    "pref": "佐賀県",
    "city": "伊万里市",
    "category": "regular_patrol_nursing",
    "serviceType": "定期巡回・随時対応型訪問介護看護",
    "capacity": null,
    "openDays": [],
    "openDaysNote": ""
  },
  {
    "id": "4190100802",
    "name": "サニーコート水ヶ江",
    "kana": "サニーコートミズガエ",
    "address": "水ヶ江２丁目8番14号アクアポートA アクアポートA",
    "lat": 33.2487659,
    "lng": 130.306838,
    "tel": "0952-37-0831",
    "url": "https://sunnycourt.info",
    "pref": "佐賀県",
    "city": "佐賀市",
    "category": "regular_patrol_nursing",
    "serviceType": "定期巡回・随時対応型訪問介護看護",
    "capacity": 0,
    "openDays": [],
    "openDaysNote": ""
  },
  {
    "id": "4190100620",
    "name": "ヘルパーステーション西与賀",
    "kana": "ヘルパーステーションニシヨカ",
    "address": "佐賀県佐賀市西与賀町大字高太郎184番地1サニーコート佐賀 サニーコート佐賀",
    "lat": 33.2253612,
    "lng": 130.2683727,
    "tel": "0952-37-7170",
    "url": "https://sunnycourt.info",
    "pref": "佐賀県",
    "city": "佐賀市",
    "category": "regular_patrol_nursing",
    "serviceType": "定期巡回・随時対応型訪問介護看護",
    "capacity": 0,
    "openDays": [],
    "openDaysNote": ""
  },
  {
    "id": "4190100836",
    "name": "定期巡回・随時対応型訪問介護看護ちとせ",
    "kana": "テイキジュンカイ・ズイジタイオウガタホウモンカイゴカンゴチトセ",
    "address": "佐賀県佐賀市北川副町光法1777番8号",
    "lat": 33.2345926,
    "lng": 130.325113,
    "tel": "0952‐41－2177",
    "url": "",
    "pref": "佐賀県",
    "city": "佐賀市",
    "category": "regular_patrol_nursing",
    "serviceType": "定期巡回・随時対応型訪問介護看護",
    "capacity": 0,
    "openDays": [],
    "openDaysNote": ""
  },
  {
    "id": "4190700114",
    "name": "在宅ケアサポートゆうあい",
    "kana": "ザイタクケアサポートユウアイ",
    "address": "佐賀県鹿島市大字高津原2962番地1介護老人保健施設ケアコートゆうあい 介護老人保健施設ケアコートゆうあい",
    "lat": 33.1113979,
    "lng": 130.0955193,
    "tel": "0954-63-5533",
    "url": "http://www.yuaivillage.com/",
    "pref": "佐賀県",
    "city": "鹿島市",
    "category": "regular_patrol_nursing",
    "serviceType": "定期巡回・随時対応型訪問介護看護",
    "capacity": 0,
    "openDays": [],
    "openDaysNote": ""
  },
  {
    "id": "4191300039",
    "name": "清水園定期巡回・随時対応型訪問介護看護事業所",
    "kana": "キヨミズエンテイキジュンカイズイジタイオウガタホウモンカイゴカンゴジギョウショ",
    "address": "佐賀県小城市小城町８２６番地１",
    "lat": 33.3002513,
    "lng": 130.2059687,
    "tel": "０９５２－７２－１３６５",
    "url": "http://www.kiyonet@stsr.saganet.ne.jp",
    "pref": "佐賀県",
    "city": "小城市",
    "category": "regular_patrol_nursing",
    "serviceType": "定期巡回・随時対応型訪問介護看護",
    "capacity": 0,
    "openDays": [],
    "openDaysNote": ""
  },
  {
    "id": "4190200586",
    "name": "合同会社　結絆",
    "kana": "ゴウドウガイシャ　ユイナ",
    "address": "佐賀県唐津市見借３４５９番地１３",
    "lat": 33.4443102,
    "lng": 129.935018,
    "tel": "0955-58-8151",
    "url": "https://yuina.co.jp/",
    "pref": "佐賀県",
    "city": "唐津市",
    "category": "regular_patrol_nursing",
    "serviceType": "定期巡回・随時対応型訪問介護看護",
    "capacity": 0,
    "openDays": [],
    "openDaysNote": ""
  },
  {
    "id": "4190200818",
    "name": "定期巡回ステーション　あおば",
    "kana": "テイキジュンカイステーション　アオバ",
    "address": "佐賀県唐津市和多田大土井６－５６",
    "lat": 33.4256196,
    "lng": 129.9880407,
    "tel": "0955-72-7255",
    "url": "http://www.day-aoba.com",
    "pref": "佐賀県",
    "city": "唐津市",
    "category": "regular_patrol_nursing",
    "serviceType": "定期巡回・随時対応型訪問介護看護",
    "capacity": null,
    "openDays": [],
    "openDaysNote": ""
  },
  {
    "id": "4190200826",
    "name": "定期巡回ステーションゆいな佐志",
    "kana": "テイキジュンカイステーションユイナ",
    "address": "佐賀県唐津市佐志浜町4066番地1",
    "lat": 33.4757306,
    "lng": 129.9367209,
    "tel": "0955-53-8805",
    "url": "https://yuina.co.jp/",
    "pref": "佐賀県",
    "city": "唐津市",
    "category": "regular_patrol_nursing",
    "serviceType": "定期巡回・随時対応型訪問介護看護",
    "capacity": 0,
    "openDays": [],
    "openDaysNote": ""
  },
  {
    "id": "4190600058",
    "name": "定期巡回竜門堂",
    "kana": "テイキジュンカイリュウモンドウ",
    "address": "佐賀県武雄市山内町大字三間坂甲14043番地",
    "lat": 33.1936392980099,
    "lng": 129.945727052356,
    "tel": "0954-45-0650",
    "url": "ryumondo.or.jp",
    "pref": "佐賀県",
    "city": "武雄市",
    "category": "regular_patrol_nursing",
    "serviceType": "定期巡回・随時対応型訪問介護看護",
    "capacity": null,
    "openDays": [],
    "openDaysNote": ""
  }
]