[
  {
    "id": "2893600110",
    "name": "定期巡回・随時対応型訪問介護看護事業所　祗園",
    "kana": "テイキジュンカイ　ズイジタイオウガタホウモンカイゴカンゴジギョウショ　ギオン",
    "address": "兵庫県たつの市神岡町東觜崎543番地",
    "lat": 34.8823339645888,
    "lng": 134.556135978613,
    "tel": "０７９１ー６１－９０２４",
    "url": "http://www.kuwanomien.jp",
    "pref": "兵庫県",
    "city": "たつの市",
    "category": "regular_patrol_nursing",
    "serviceType": "定期巡回・随時対応型訪問介護看護",
    "capacity": 0,
    "openDays": [],
    "openDaysNote": ""
  },
  {
    "id": "2891000164",
    "name": "ルミエール",
    "kana": "ルミエール",
    "address": "兵庫県芦屋市高浜町１番７号高浜町ライフサポートステーション３階 高浜町ライフサポートステーション３階",
    "lat": 34.7239984,
    "lng": 135.3161975,
    "tel": "0797-25-4165",
    "url": "https://yamanokokai.or.jp",
    "pref": "兵庫県",
    "city": "芦屋市",
    "category": "regular_patrol_nursing",
    "serviceType": "定期巡回・随時対応型訪問介護看護",
    "capacity": 15,
    "openDays": [],
    "openDaysNote": ""
  },
  {
    "id": "2891000081",
    "name": "ロジケアあしや",
    "kana": "ロジケアアシヤ",
    "address": "兵庫県芦屋市大原町4番10号",
    "lat": 34.7358733289663,
    "lng": 135.31014788342,
    "tel": "0797-80-7114",
    "url": "http://logicare.co.jp",
    "pref": "兵庫県",
    "city": "芦屋市",
    "category": "regular_patrol_nursing",
    "serviceType": "定期巡回・随時対応型訪問介護看護",
    "capacity": 500,
    "openDays": [],
    "openDaysNote": ""
  },
  {
    "id": "2893300406",
    "name": "伊丹ゆうあい定期巡回随時対応型訪問介護看護",
    "kana": "イタミユウアイテイキジュンカイズイジタイオウガタホウモンカイゴカンゴ",
    "address": "兵庫県伊丹市荒牧６丁目16番2号",
    "lat": 34.8123349,
    "lng": 135.3876848,
    "tel": "072‐747‐2951",
    "url": "http://seishokai-gr.or.jp/",
    "pref": "兵庫県",
    "city": "伊丹市",
    "category": "regular_patrol_nursing",
    "serviceType": "定期巡回・随時対応型訪問介護看護",
    "capacity": null,
    "openDays": [],
    "openDaysNote": ""
  },
  {
    "id": "2893300265",
    "name": "星優定期巡回随時対応型訪問介護看護ステーション",
    "kana": "セイユウテイキジュンカイズイジタイオウガタホウモンカイゴカンゴステーション",
    "address": "兵庫県伊丹市桜ケ丘1丁目3番23号星優クリニック 星優クリニック",
    "lat": 34.7837007,
    "lng": 135.4102963,
    "tel": "072-772-8186",
    "url": "http://seishokai-gr.or.jp/",
    "pref": "兵庫県",
    "city": "伊丹市",
    "category": "regular_patrol_nursing",
    "serviceType": "定期巡回・随時対応型訪問介護看護",
    "capacity": 0,
    "openDays": [],
    "openDaysNote": ""
  },
  {
    "id": "2892800117",
    "name": "スマイルサポートセンター国岡定期巡回・随時対応型訪問介護看護",
    "kana": "スマイルサポートセンタークニオカテイキジュンカイ・ズイジタイオウガタホウモンカイゴカンゴ",
    "address": "兵庫県加古郡稲美町国岡2丁目8-1",
    "lat": 34.7477164416619,
    "lng": 134.909761917969,
    "tel": "079-497-1121",
    "url": "",
    "pref": "兵庫県",
    "city": "稲美町",
    "category": "regular_patrol_nursing",
    "serviceType": "定期巡回・随時対応型訪問介護看護",
    "capacity": 0,
    "openDays": [],
    "openDaysNote": ""
  },
  {
    "id": "2892200714",
    "name": "スピンケア24つむぎ尾上町",
    "kana": "スピンケアニジュウヨンツムギオノエチョウ",
    "address": "兵庫県加古川市尾上町口里341-5",
    "lat": 34.7405193700104,
    "lng": 134.829931043225,
    "tel": "079-454-6700",
    "url": "",
    "pref": "兵庫県",
    "city": "加古川市",
    "category": "regular_patrol_nursing",
    "serviceType": "定期巡回・随時対応型訪問介護看護",
    "capacity": 100,
    "openDays": [],
    "openDaysNote": ""
  },
  {
    "id": "2892200433",
    "name": "せいりょう園ホームヘルパーステーション",
    "kana": "セイリョウエンホームヘルパーステーション",
    "address": "兵庫県加古川市野口町長砂95-32",
    "lat": 34.7494204,
    "lng": 134.8486574,
    "tel": "079-421-7156",
    "url": "http://www.seiryoen.or.jp",
    "pref": "兵庫県",
    "city": "加古川市",
    "category": "regular_patrol_nursing",
    "serviceType": "定期巡回・随時対応型訪問介護看護",
    "capacity": null,
    "openDays": [],
    "openDaysNote": ""
  },
  {
    "id": "2892200425",
    "name": "それいゆ定期巡回・随時対応型訪問介護別府",
    "kana": "ソレイユテイキジュンカイ・ズイジタイオウガタホウモンカイゴカンゴジギョウショベフ",
    "address": "兵庫県加古川市平岡町新在家1456-1",
    "lat": 34.7465846918815,
    "lng": 134.871237874031,
    "tel": "079-441-0102",
    "url": "http://www.hakuaif.or.jp/facilities/befu_smile.html",
    "pref": "兵庫県",
    "city": "加古川市",
    "category": "regular_patrol_nursing",
    "serviceType": "定期巡回・随時対応型訪問介護看護",
    "capacity": 45,
    "openDays": [],
    "openDaysNote": ""
  },
  {
    "id": "2892200573",
    "name": "やすらぎ定期巡回サービス",
    "kana": "ヤスラギテイキジュンカイサービス",
    "address": "加古川市神野町石守1632-1",
    "lat": 34.7723792,
    "lng": 134.8831707,
    "tel": "079-438-5788",
    "url": "",
    "pref": "兵庫県",
    "city": "加古川市",
    "category": "regular_patrol_nursing",
    "serviceType": "定期巡回・随時対応型訪問介護看護",
    "capacity": 30,
    "openDays": [],
    "openDaysNote": ""
  },
  {
    "id": "2892200615",
    "name": "定期巡回随時対応型訪問介護看護こみなみ北在家",
    "kana": "テイキジュンカイズイジタイオウガタホウモンカイゴカンゴ　コミナミキタザイケ",
    "address": "加古川町北在家361-2",
    "lat": 34.7536444,
    "lng": 134.8344261,
    "tel": "079-421-9000",
    "url": "http://kominami.co.jp",
    "pref": "兵庫県",
    "city": "加古川市",
    "category": "regular_patrol_nursing",
    "serviceType": "定期巡回・随時対応型訪問介護看護",
    "capacity": 40,
    "openDays": [],
    "openDaysNote": ""
  },
  {
    "id": "2892600079",
    "name": "ミクチサポートセンター",
    "kana": "ミクチサポートセンター",
    "address": "北条町古坂7丁目62",
    "lat": 34.927552699444,
    "lng": 134.843112266959,
    "tel": "0790-27-8244",
    "url": "https://naitomedics.co.jp/",
    "pref": "兵庫県",
    "city": "加西市",
    "category": "regular_patrol_nursing",
    "serviceType": "定期巡回・随時対応型訪問介護看護",
    "capacity": 35,
    "openDays": [],
    "openDaysNote": ""
  },
  {
    "id": "2892500097",
    "name": "みのり農業協同組合加東ケアセンター",
    "kana": "ミノリノウギョウキョウドウクミアイ　カトウケアセンター",
    "address": "兵庫県加東市沢部613",
    "lat": 34.8956721,
    "lng": 134.9546803,
    "tel": "0795-42-4583",
    "url": "https://www.ja-minori.jp",
    "pref": "兵庫県",
    "city": "加東市",
    "category": "regular_patrol_nursing",
    "serviceType": "定期巡回・随時対応型訪問介護看護",
    "capacity": 27,
    "openDays": [],
    "openDaysNote": ""
  },
  {
    "id": "2892500105",
    "name": "定期巡回こみなみうれし野",
    "kana": "テイキジュンカイコミナミウレシノ",
    "address": "兵庫県加東市山国574",
    "lat": 34.9089388052726,
    "lng": 134.983705768053,
    "tel": "0795-42-7777",
    "url": "http://www.kominami.co.jp",
    "pref": "兵庫県",
    "city": "加東市",
    "category": "regular_patrol_nursing",
    "serviceType": "定期巡回・随時対応型訪問介護看護",
    "capacity": null,
    "openDays": [],
    "openDaysNote": ""
  },
  {
    "id": "2872100161",
    "name": "ふぁ～みんヘルパーステーション",
    "kana": "ファ～ミンヘルパ－ステ－ション",
    "address": "兵庫県高砂市阿弥陀町阿弥陀1146番地",
    "lat": 34.7957082,
    "lng": 134.780126,
    "tel": "079-447-0535",
    "url": "",
    "pref": "兵庫県",
    "city": "高砂市",
    "category": "regular_patrol_nursing",
    "serviceType": "定期巡回・随時対応型訪問介護看護",
    "capacity": 0,
    "openDays": [],
    "openDaysNote": ""
  },
  {
    "id": "2893700100",
    "name": "社会福祉法人　兵庫県社会福祉事業団　ラウンド・ケア・サービス　あさひ",
    "kana": "シャカイフクシホウジンヒョウゴケンシャカイフクシジギョウダンラウンドケアサービスアサヒ",
    "address": "兵庫県佐用郡佐用町平福138－1",
    "lat": 35.049584,
    "lng": 134.3710126,
    "tel": "0790－83－2008",
    "url": "http://www.hwc.or.jp/asahigaoka/",
    "pref": "兵庫県",
    "city": "佐用町",
    "category": "regular_patrol_nursing",
    "serviceType": "定期巡回・随時対応型訪問介護看護",
    "capacity": 0,
    "openDays": [],
    "openDaysNote": ""
  },
  {
    "id": "2871200396",
    "name": "ユピテル三田",
    "kana": "ユピテルサンダ",
    "address": "兵庫県三田市中町7-34",
    "lat": 34.8857769,
    "lng": 135.2288948,
    "tel": "050-5306-0755",
    "url": "",
    "pref": "兵庫県",
    "city": "三田市",
    "category": "regular_patrol_nursing",
    "serviceType": "定期巡回・随時対応型訪問介護看護",
    "capacity": null,
    "openDays": [],
    "openDaysNote": ""
  },
  {
    "id": "2893800066",
    "name": "定期巡回・随時対応型訪問介護看護しそうの杜",
    "kana": "テイキジュンカイ・ズイジタイオウガタホウモンカイゴカンゴシソウノモリ",
    "address": "兵庫県宍粟市山崎町川戸１８２１",
    "lat": 34.9800281,
    "lng": 134.5416525,
    "tel": "０７９０－６４－０１０１",
    "url": "https://www.ontoku.or.jp/",
    "pref": "兵庫県",
    "city": "宍粟市",
    "category": "regular_patrol_nursing",
    "serviceType": "定期巡回・随時対応型訪問介護看護",
    "capacity": null,
    "openDays": [],
    "openDaysNote": ""
  },
  {
    "id": "2891900108",
    "name": "粟生逢花苑定期巡回・随時対応型訪問介護看護事業所",
    "kana": "アオオウカエン　テイキジュンカイ・ズイジタイオウガタホウモンカイゴカンゴジギョウショ",
    "address": "兵庫県小野市粟生町字前田3610-1",
    "lat": 34.856892,
    "lng": 134.908423,
    "tel": "0794-65-2800",
    "url": "https://www.aoyama-med.gr.jp/ontokuwelfare/",
    "pref": "兵庫県",
    "city": "小野市",
    "category": "regular_patrol_nursing",
    "serviceType": "定期巡回・随時対応型訪問介護看護",
    "capacity": null,
    "openDays": [],
    "openDaysNote": ""
  },
  {
    "id": "2891900140",
    "name": "定期巡回・随時対応型訪問介護看護こみなみ小野",
    "kana": "テイキジュンカイ・ズイジタイオウガタホウモンカイゴカンゴコミナミオノ",
    "address": "小野市市場町255番地",
    "lat": 34.8243282,
    "lng": 134.9372718,
    "tel": "0794-62-3003",
    "url": "http://kominami.co.jp/",
    "pref": "兵庫県",
    "city": "小野市",
    "category": "regular_patrol_nursing",
    "serviceType": "定期巡回・随時対応型訪問介護看護",
    "capacity": 12,
    "openDays": [],
    "openDaysNote": ""
  },
  {
    "id": "2890700392",
    "name": "KOBE須磨きらくえん定期巡回・随時対応型訪問介護看護",
    "kana": "コウベスマキラクエンテイキジュンカイズイジタイオウガタ",
    "address": "兵庫県神戸市須磨区妙法寺字3－1",
    "lat": 34.6759015,
    "lng": 135.1237292,
    "tel": "078-647-8002",
    "url": "http://www.kirakuen.or.jp",
    "pref": "兵庫県",
    "city": "神戸市須磨区",
    "category": "regular_patrol_nursing",
    "serviceType": "定期巡回・随時対応型訪問介護看護",
    "capacity": 0,
    "openDays": [],
    "openDaysNote": ""
  },
  {
    "id": "2890700376",
    "name": "オーピーホーム須磨定期巡回",
    "kana": "オービーホームスマテイキジュンカイ",
    "address": "兵庫県神戸市須磨区白川台６１－２アニモン白川４０３号アニモン白川 アニモン白川",
    "lat": 34.6887304,
    "lng": 135.0996649,
    "tel": "078-795-2760",
    "url": "http://www.obh2525.or.jp",
    "pref": "兵庫県",
    "city": "神戸市須磨区",
    "category": "regular_patrol_nursing",
    "serviceType": "定期巡回・随時対応型訪問介護看護",
    "capacity": null,
    "openDays": [],
    "openDaysNote": ""
  },
  {
    "id": "2890700111",
    "name": "駒どり巡回サービス",
    "kana": "コマドリジュンカイサービス",
    "address": "兵庫県神戸市須磨区白川台3丁目63-1白川台会館2階 白川台会館2階",
    "lat": 34.6900291759956,
    "lng": 135.100483708598,
    "tel": "078-792-8383",
    "url": "http//komadory.com",
    "pref": "兵庫県",
    "city": "神戸市須磨区",
    "category": "regular_patrol_nursing",
    "serviceType": "定期巡回・随時対応型訪問介護看護",
    "capacity": 40,
    "openDays": [],
    "openDaysNote": ""
  },
  {
    "id": "2890700194",
    "name": "駒どり巡回サービス須磨南",
    "kana": "コマドリジュンカイサービススマミナミ",
    "address": "兵庫県神戸市須磨区飛松町3-5-11-1F",
    "lat": 34.6610258,
    "lng": 135.1328985,
    "tel": "078-733-0090",
    "url": "",
    "pref": "兵庫県",
    "city": "神戸市須磨区",
    "category": "regular_patrol_nursing",
    "serviceType": "定期巡回・随時対応型訪問介護看護",
    "capacity": 8,
    "openDays": [],
    "openDaysNote": ""
  },
  {
    "id": "2890800671",
    "name": "エルフ　あんしんセンター・垂水",
    "kana": "エルフ　アンシンセンター・タルミ",
    "address": "兵庫県神戸市垂水区西脇1丁目4-9-1",
    "lat": 34.6545056,
    "lng": 135.0375057,
    "tel": "078-786-6615",
    "url": "",
    "pref": "兵庫県",
    "city": "神戸市垂水区",
    "category": "regular_patrol_nursing",
    "serviceType": "定期巡回・随時対応型訪問介護看護",
    "capacity": null,
    "openDays": [],
    "openDaysNote": ""
  },
  {
    "id": "2890800663",
    "name": "オービーホーム神陵台定期巡回",
    "kana": "オービーホームシンリョウダイ　テイキジュンカイ",
    "address": "神戸市垂水区神陵台８－１－１２イトウビル３F北 イトウビル３F北",
    "lat": 34.664246,
    "lng": 135.0359864,
    "tel": "０７８－７８７－７０３３",
    "url": "http://www.obh2525.or.jp",
    "pref": "兵庫県",
    "city": "神戸市垂水区",
    "category": "regular_patrol_nursing",
    "serviceType": "定期巡回・随時対応型訪問介護看護",
    "capacity": null,
    "openDays": [],
    "openDaysNote": ""
  },
  {
    "id": "2890800689",
    "name": "定期巡回ステーションはーとふる神戸垂水",
    "kana": "テイキジュンカイステーションハートフルコウベタルミ",
    "address": "兵庫県神戸市垂水区北舞子４丁目７番３５号はーとふる神戸垂水 はーとふる神戸垂水",
    "lat": 34.643097008148,
    "lng": 135.036979602516,
    "tel": "078-754-9801",
    "url": "https://royalhome.heartfulcare.com/",
    "pref": "兵庫県",
    "city": "神戸市垂水区",
    "category": "regular_patrol_nursing",
    "serviceType": "定期巡回・随時対応型訪問介護看護",
    "capacity": 0,
    "openDays": [],
    "openDaysNote": ""
  },
  {
    "id": "2895200455",
    "name": "ケアサポート　ゆめハウス",
    "kana": "ケアサポート　ユメハウス",
    "address": "兵庫県神戸市西区狩場台3丁目9-10",
    "lat": 34.7207255,
    "lng": 135.0324298,
    "tel": "078-991-7272",
    "url": "http://yume-house.org",
    "pref": "兵庫県",
    "city": "神戸市西区",
    "category": "regular_patrol_nursing",
    "serviceType": "定期巡回・随時対応型訪問介護看護",
    "capacity": null,
    "openDays": [],
    "openDaysNote": ""
  },
  {
    "id": "2895200109",
    "name": "やさしい手持子定期巡回・随時対応型訪問介護看護事業所",
    "kana": "ヤサシイテモチコテイキジュンカイズイジタイオウガタホウモンカイゴカンゴジギョウショ",
    "address": "持子2-122",
    "lat": 34.6694157,
    "lng": 134.9824659,
    "tel": "050-1752-129",
    "url": "http://www.yasashiite.com/subdomains/section/479/",
    "pref": "兵庫県",
    "city": "神戸市西区",
    "category": "regular_patrol_nursing",
    "serviceType": "定期巡回・随時対応型訪問介護看護",
    "capacity": 0,
    "openDays": [],
    "openDaysNote": ""
  },
  {
    "id": "2895200174",
    "name": "正峰会あんしんケアコールセンター",
    "kana": "セイホウカイアンシンケアコールセンター",
    "address": "兵庫県神戸市西区丸塚1丁目22-17",
    "lat": 34.6821354,
    "lng": 134.9865837,
    "tel": "078-939-3228",
    "url": "https://seihoukai-grp.jp/facility_post/seihoukai-acc",
    "pref": "兵庫県",
    "city": "神戸市西区",
    "category": "regular_patrol_nursing",
    "serviceType": "定期巡回・随時対応型訪問介護看護",
    "capacity": null,
    "openDays": [],
    "openDaysNote": ""
  },
  {
    "id": "2895200356",
    "name": "定期巡回サービス　サンビラこうべ",
    "kana": "テイキジュンカイサービス　サンビラコウベ",
    "address": "兵庫県神戸市西区神出町宝勢774-173",
    "lat": 34.729151,
    "lng": 134.972544,
    "tel": "078-389-4165",
    "url": "https://www.ontoku.or.jp/facilities/sunvilla-teikijunkai/",
    "pref": "兵庫県",
    "city": "神戸市西区",
    "category": "regular_patrol_nursing",
    "serviceType": "定期巡回・随時対応型訪問介護看護",
    "capacity": 0,
    "openDays": [],
    "openDaysNote": ""
  },
  {
    "id": "2895100093",
    "name": "コウダイケアコールセンター",
    "kana": "コウダイケアコールセンター",
    "address": "兵庫県神戸市中央区八幡通3丁目1番14号サンシポートビル3階 サンシポートビル3階",
    "lat": 34.6903941,
    "lng": 135.1978527,
    "tel": "078-855-8028",
    "url": "https://koudai-care.co.jp/",
    "pref": "兵庫県",
    "city": "神戸市中央区",
    "category": "regular_patrol_nursing",
    "serviceType": "定期巡回・随時対応型訪問介護看護",
    "capacity": 20,
    "openDays": [],
    "openDaysNote": ""
  },
  {
    "id": "2895100135",
    "name": "ぷらすてっぷていきじゅんかい・ずいじたいおうがたほうもんかいごかんご",
    "kana": "プラステップ定期巡回・随時対応型訪問介護看護",
    "address": "兵庫県神戸市中央区宮本通6-1-28",
    "lat": 34.7055846,
    "lng": 135.2076504,
    "tel": "078-222-1557",
    "url": "",
    "pref": "兵庫県",
    "city": "神戸市中央区",
    "category": "regular_patrol_nursing",
    "serviceType": "定期巡回・随時対応型訪問介護看護",
    "capacity": null,
    "openDays": [],
    "openDaysNote": ""
  },
  {
    "id": "2895100176",
    "name": "山陽ケアセンター神戸定期巡回随時対応型訪問介護看護事業所",
    "kana": "サンヨウケアセンターコウベテイキジュンカイガタズイジタイオウガタホウモンカイゴカンゴジギョウショ",
    "address": "兵庫県神戸市中央区野崎通6丁目2番28号",
    "lat": 34.7087428,
    "lng": 135.2051842,
    "tel": "078-862-5613",
    "url": "https://sanyo-medical.com/",
    "pref": "兵庫県",
    "city": "神戸市中央区",
    "category": "regular_patrol_nursing",
    "serviceType": "定期巡回・随時対応型訪問介護看護",
    "capacity": 0,
    "openDays": [],
    "openDaysNote": ""
  },
  {
    "id": "2890600113",
    "name": "神戸福生会",
    "kana": "コウベフクセイカイ",
    "address": "神戸市長田区北町3丁目3番地",
    "lat": 34.6655153,
    "lng": 135.1516177,
    "tel": "078-575-8777",
    "url": "http://www.kobe-fukuseikai.com",
    "pref": "兵庫県",
    "city": "神戸市長田区",
    "category": "regular_patrol_nursing",
    "serviceType": "定期巡回・随時対応型訪問介護看護",
    "capacity": 20,
    "openDays": [],
    "openDaysNote": ""
  },
  {
    "id": "2890600402",
    "name": "定期巡回・随時対応あおいそら長田",
    "kana": "テイキジュンカイズイジタイオウアオイソラナガタ",
    "address": "西代通1-5-12グリーンビラ西代401号 グリーンビラ西代401号",
    "lat": 34.6614783,
    "lng": 135.1409543,
    "tel": "078-797-5460",
    "url": "http://www.homecare-kobe.com",
    "pref": "兵庫県",
    "city": "神戸市長田区",
    "category": "regular_patrol_nursing",
    "serviceType": "定期巡回・随時対応型訪問介護看護",
    "capacity": 0,
    "openDays": [],
    "openDaysNote": ""
  },
  {
    "id": "2890600238",
    "name": "訪問介護事業所かなえ場",
    "kana": "ホウモンカイゴジギョウショカナエバ",
    "address": "神戸市長田区庄田町3丁目４−８9号室 9号室",
    "lat": 34.6530381,
    "lng": 135.1505652,
    "tel": "078-643-6558",
    "url": "",
    "pref": "兵庫県",
    "city": "神戸市長田区",
    "category": "regular_patrol_nursing",
    "serviceType": "定期巡回・随時対応型訪問介護看護",
    "capacity": null,
    "openDays": [],
    "openDaysNote": ""
  },
  {
    "id": "2890100445",
    "name": "コウダイケアコールセンタ－神戸東",
    "kana": "コウダイケアコ-ルセンタ-コウベヒガシ",
    "address": "兵庫県神戸市東灘区岡本3丁目10番16号アメニティコート岡本109号 アメニティコート岡本109号",
    "lat": 34.7277407,
    "lng": 135.2710899,
    "tel": "078-803-8858",
    "url": "https://www.koudai-care.co.jp",
    "pref": "兵庫県",
    "city": "神戸市東灘区",
    "category": "regular_patrol_nursing",
    "serviceType": "定期巡回・随時対応型訪問介護看護",
    "capacity": 0,
    "openDays": [],
    "openDaysNote": ""
  },
  {
    "id": "2890100346",
    "name": "やさしい手東灘定期巡回・随時対応型訪問介護事業所",
    "kana": "ヤサシイテヒガシナダテイキジュンカイズイジタイオウガタホウモンカイゴジギョウショ",
    "address": "兵庫県神戸市東灘区青木3-1-43潮騒の家 潮騒の家",
    "lat": 34.7143256,
    "lng": 135.2828417,
    "tel": "050-1742-5126",
    "url": "http://www.yasashiite.com/subdomains/section/530/",
    "pref": "兵庫県",
    "city": "神戸市東灘区",
    "category": "regular_patrol_nursing",
    "serviceType": "定期巡回・随時対応型訪問介護看護",
    "capacity": 0,
    "openDays": [],
    "openDaysNote": ""
  },
  {
    "id": "2890100189",
    "name": "住吉定期巡回・随時対応型訪問介護看護センター",
    "kana": "スミヨシテイキジュンカイズイジタイオウガタホウモンカイゴカンゴセンター",
    "address": "兵庫県神戸市東灘区住吉本町３丁目７番41号",
    "lat": 34.7240993,
    "lng": 135.2590499,
    "tel": "078-851-5050",
    "url": "http://www.krh-sumiyoshi.com",
    "pref": "兵庫県",
    "city": "神戸市東灘区",
    "category": "regular_patrol_nursing",
    "serviceType": "定期巡回・随時対応型訪問介護看護",
    "capacity": 0,
    "openDays": [],
    "openDaysNote": ""
  },
  {
    "id": "2890200070",
    "name": "うみのほし定期巡回・随時対応型訪問介護看護事業所",
    "kana": "ウミノホシテイキジュンカイ・ズイジタイオウガタホウモンカイゴカンゴジギョウショ",
    "address": "兵庫県神戸市篠原北町3丁目11-15-2階",
    "lat": 34.7245967442367,
    "lng": 135.224883733831,
    "tel": "078-861-3290",
    "url": "http://www.kobe-kaiseikai.com",
    "pref": "兵庫県",
    "city": "神戸市灘区",
    "category": "regular_patrol_nursing",
    "serviceType": "定期巡回・随時対応型訪問介護看護",
    "capacity": 20,
    "openDays": [],
    "openDaysNote": ""
  },
  {
    "id": "2890200203",
    "name": "コウダイケアコールセンター灘",
    "kana": "コウダイケアコールセンターナダ",
    "address": "神戸市灘区永手町3丁目2番16号有本ビル2F 有本ビル2F",
    "lat": 34.7159329,
    "lng": 135.2390835,
    "tel": "078-856-5667",
    "url": "https://koudai-care.co.jp/",
    "pref": "兵庫県",
    "city": "神戸市灘区",
    "category": "regular_patrol_nursing",
    "serviceType": "定期巡回・随時対応型訪問介護看護",
    "capacity": 0,
    "openDays": [],
    "openDaysNote": ""
  },
  {
    "id": "2890500149",
    "name": "コウダイケアコールセンター兵庫",
    "kana": "コウダイケアコールセンターヒョウゴ",
    "address": "兵庫県神戸市兵庫区水木通2丁目２番17番地エルア・ジャスモ１F エルア・ジャスモ１F",
    "lat": 34.6756508,
    "lng": 135.1666082,
    "tel": "078-579-8915",
    "url": "https://koudai-care.co.jp/",
    "pref": "兵庫県",
    "city": "神戸市兵庫区",
    "category": "regular_patrol_nursing",
    "serviceType": "定期巡回・随時対応型訪問介護看護",
    "capacity": 10,
    "openDays": [],
    "openDaysNote": ""
  },
  {
    "id": "2890500263",
    "name": "コウダイケアコールセンター湊川",
    "kana": "コウダイケアコールセンターミナトガワ",
    "address": "兵庫県神戸市兵庫区荒田町2丁目20県営上湊川高層住宅1105号室 県営上湊川高層住宅1105号室",
    "lat": 34.6815892,
    "lng": 135.1653874,
    "tel": "078-579-9530",
    "url": "https://koudai-care.co.jp/",
    "pref": "兵庫県",
    "city": "神戸市兵庫区",
    "category": "regular_patrol_nursing",
    "serviceType": "定期巡回・随時対応型訪問介護看護",
    "capacity": 10,
    "openDays": [],
    "openDaysNote": ""
  },
  {
    "id": "2895000418",
    "name": "コウダイケアコールセンター神戸北",
    "kana": "コウダイケアコールセンターコウベキタ",
    "address": "兵庫県神戸市北区鈴蘭台西町1丁目１６－３",
    "lat": 34.7262016,
    "lng": 135.1430618,
    "tel": "078-597-9955",
    "url": "https://www.koudai-care.co.jp",
    "pref": "兵庫県",
    "city": "神戸市北区",
    "category": "regular_patrol_nursing",
    "serviceType": "定期巡回・随時対応型訪問介護看護",
    "capacity": 20,
    "openDays": [],
    "openDaysNote": ""
  },
  {
    "id": "2895000251",
    "name": "さくらホーム定期巡回・随時対応型訪問介護看護事業所",
    "kana": "サクラホームテイキジュンカイズイジタイオウガタホウモンカイゴカンゴジギョウショ",
    "address": "兵庫県神戸市北区山田町小部字惣六畑山8－18",
    "lat": 34.7371245,
    "lng": 135.1607853,
    "tel": "078‐596‐6622",
    "url": "http://www.yasuragi-swc.or.jp",
    "pref": "兵庫県",
    "city": "神戸市北区",
    "category": "regular_patrol_nursing",
    "serviceType": "定期巡回・随時対応型訪問介護看護",
    "capacity": null,
    "openDays": [],
    "openDaysNote": ""
  },
  {
    "id": "2895000160",
    "name": "なでしこ藤原台",
    "kana": "ナデシコフジワラダイ",
    "address": "兵庫県神戸市北区藤原台中町5丁目1番3号",
    "lat": 34.8225235,
    "lng": 135.2146628,
    "tel": "078-987-2263",
    "url": "http://fujinosato.info/",
    "pref": "兵庫県",
    "city": "神戸市北区",
    "category": "regular_patrol_nursing",
    "serviceType": "定期巡回・随時対応型訪問介護看護",
    "capacity": null,
    "openDays": [],
    "openDaysNote": ""
  },
  {
    "id": "2890900513",
    "name": "SOMPOケア　夙川香櫨園　定期巡回",
    "kana": "ソンポケア　シュクガワコウロエン　テイキジュンカイ",
    "address": "兵庫県西宮市堀切町5-5",
    "lat": 34.7309143082905,
    "lng": 135.32603205582,
    "tel": "0798-38-1388",
    "url": "",
    "pref": "兵庫県",
    "city": "西宮市",
    "category": "regular_patrol_nursing",
    "serviceType": "定期巡回・随時対応型訪問介護看護",
    "capacity": null,
    "openDays": [],
    "openDaysNote": ""
  },
  {
    "id": "2890900521",
    "name": "SOMPOケア甲東園定期巡回",
    "kana": "ソンポケアコウトウエンテイキジュンカイ",
    "address": "兵庫県西宮市段上町8-8-27そんぽの家S甲東園 そんぽの家S甲東園",
    "lat": 34.7662256,
    "lng": 135.3663464,
    "tel": "0798-57-5470",
    "url": "https://corporate.sompocare.com/",
    "pref": "兵庫県",
    "city": "西宮市",
    "category": "regular_patrol_nursing",
    "serviceType": "定期巡回・随時対応型訪問介護看護",
    "capacity": 0,
    "openDays": [],
    "openDaysNote": ""
  },
  {
    "id": "2890900539",
    "name": "SOMPOケア武庫川定期巡回",
    "kana": "ソンポケアムコガワテイキジュンカイ",
    "address": "兵庫県西宮市笠屋町17番33号",
    "lat": 34.7134071,
    "lng": 135.3751955,
    "tel": "0798-40-8222",
    "url": "https://www.sompocare.com",
    "pref": "兵庫県",
    "city": "西宮市",
    "category": "regular_patrol_nursing",
    "serviceType": "定期巡回・随時対応型訪問介護看護",
    "capacity": null,
    "openDays": [],
    "openDaysNote": ""
  },
  {
    "id": "2890900844",
    "name": "エイプレイス兵庫西宮",
    "kana": "エイプレイスヒョウゴニシノミヤ",
    "address": "兵庫県西宮市段上町1-10-28",
    "lat": 34.7680664,
    "lng": 135.3635135,
    "tel": "0798-57-3718",
    "url": "https://isla-grande.com/",
    "pref": "兵庫県",
    "city": "西宮市",
    "category": "regular_patrol_nursing",
    "serviceType": "定期巡回・随時対応型訪問介護看護",
    "capacity": 0,
    "openDays": [],
    "openDaysNote": ""
  },
  {
    "id": "2890900752",
    "name": "エレガーノ西宮　定期巡回・随時対応型訪問介護看護事業所",
    "kana": "エレガーノニシノミヤ　テイキジュンカイ・ズイジタイオウガタホウモンカイゴカンゴ",
    "address": "兵庫県西宮市津門大塚町11-58エレガーノ西宮 エレガーノ西宮",
    "lat": 34.7379781,
    "lng": 135.3572387,
    "tel": "0798-35-1165",
    "url": "https://www.s-carelife.co.jp/",
    "pref": "兵庫県",
    "city": "西宮市",
    "category": "regular_patrol_nursing",
    "serviceType": "定期巡回・随時対応型訪問介護看護",
    "capacity": 0,
    "openDays": [],
    "openDaysNote": ""
  },
  {
    "id": "2890900281",
    "name": "オアシス西宮定期巡回・随時対応型訪問介護看護事業所",
    "kana": "オアシスニシノミヤテイキジュンカイズイジタイオウガタホウモンカイゴカンゴジギョウショ",
    "address": "兵庫県西宮市江上町８－２１",
    "lat": 34.7411377,
    "lng": 135.33947,
    "tel": "0798-61-5222",
    "url": "http:/oasis.nishinomiya.t/ja-oasis.com",
    "pref": "兵庫県",
    "city": "西宮市",
    "category": "regular_patrol_nursing",
    "serviceType": "定期巡回・随時対応型訪問介護看護",
    "capacity": 0,
    "openDays": [],
    "openDaysNote": ""
  },
  {
    "id": "2890900604",
    "name": "シニアスタイル西宮北口定期巡回事業所",
    "kana": "シニアスタイルニシノミヤキタグチテイキジュンカイジギョウショ",
    "address": "兵庫県西宮市大屋町14-15",
    "lat": 34.7441684608712,
    "lng": 135.364691487208,
    "tel": "0798-39-7325",
    "url": "https://senior-style.co.jp/homecare/",
    "pref": "兵庫県",
    "city": "西宮市",
    "category": "regular_patrol_nursing",
    "serviceType": "定期巡回・随時対応型訪問介護看護",
    "capacity": 0,
    "openDays": [],
    "openDaysNote": ""
  },
  {
    "id": "2890900240",
    "name": "第２シルバーコースト甲子園定期巡回随時対応サービス",
    "kana": "ダイニシルバーコーストコウシエンテイキジュンカイズイジタイオウサービス",
    "address": "兵庫県西宮市枝川町17-55",
    "lat": 34.7112328125989,
    "lng": 135.358031819059,
    "tel": "0798-43-0801",
    "url": "http://www.enshokai.com/",
    "pref": "兵庫県",
    "city": "西宮市",
    "category": "regular_patrol_nursing",
    "serviceType": "定期巡回・随時対応型訪問介護看護",
    "capacity": 0,
    "openDays": [],
    "openDaysNote": ""
  },
  {
    "id": "2890900323",
    "name": "定期巡回・随時対応型訪問介護看護わたなべ",
    "kana": "テイキジュンカイ・ズイジタイオウガタホウモンカイゴカンゴワタナベ",
    "address": "兵庫県西宮市室川町11-23サービス付き高齢者住宅ひだまり サービス付き高齢者住宅ひだまり",
    "lat": 34.7443375,
    "lng": 135.3436252,
    "tel": "0798-31-1301",
    "url": "http://www.n-watanabe-hosp.jp/koumeikai/hidamari/",
    "pref": "兵庫県",
    "city": "西宮市",
    "category": "regular_patrol_nursing",
    "serviceType": "定期巡回・随時対応型訪問介護看護",
    "capacity": null,
    "openDays": [],
    "openDaysNote": ""
  },
  {
    "id": "2890900695",
    "name": "定期巡回サービスあ・うん",
    "kana": "テイキジュンカイサービスア・ウン",
    "address": "兵庫県西宮市上田西町３－２３",
    "lat": 34.7110578,
    "lng": 135.3714346,
    "tel": "798398290",
    "url": "https://three-cheers.co.jp",
    "pref": "兵庫県",
    "city": "西宮市",
    "category": "regular_patrol_nursing",
    "serviceType": "定期巡回・随時対応型訪問介護看護",
    "capacity": null,
    "openDays": [],
    "openDaysNote": ""
  },
  {
    "id": "2891800076",
    "name": "あさひサポートセンター",
    "kana": "アサヒサポートセンター",
    "address": "兵庫県西脇市西脇931",
    "lat": 34.9882612,
    "lng": 134.9680083,
    "tel": "0795-38-7166",
    "url": "http://naitomedics.co.jp/",
    "pref": "兵庫県",
    "city": "西脇市",
    "category": "regular_patrol_nursing",
    "serviceType": "定期巡回・随時対応型訪問介護看護",
    "capacity": 35,
    "openDays": [],
    "openDaysNote": ""
  },
  {
    "id": "2891800084",
    "name": "桜丘あんしんケアコールセンター",
    "kana": "サクラガオカアンシンケアコールセンター",
    "address": "兵庫県西脇市黒田庄町田高313-126",
    "lat": 35.0558897195814,
    "lng": 134.993226323375,
    "tel": "0795-28-5006",
    "url": "https://sakuragaoka-anshincallcenter.jimdo.com/",
    "pref": "兵庫県",
    "city": "西脇市",
    "category": "regular_patrol_nursing",
    "serviceType": "定期巡回・随時対応型訪問介護看護",
    "capacity": 15,
    "openDays": [],
    "openDaysNote": ""
  },
  {
    "id": "2894200092",
    "name": "定期巡回・随時対応型訪問介護看護　ｸﾞﾘｰﾝﾊｳｽ",
    "kana": "テイキジュンカイ・ズイジタイオウガタホウモンカイゴカンゴ　グリーンハウス",
    "address": "兵庫県相生市双葉２丁目19-4ホスピスケア相生　１階 ホスピスケア相生　１階",
    "lat": 34.8165059492825,
    "lng": 134.479417936771,
    "tel": "0791-23-1382",
    "url": "http://www.midori-fukushi.com",
    "pref": "兵庫県",
    "city": "相生市",
    "category": "regular_patrol_nursing",
    "serviceType": "定期巡回・随時対応型訪問介護看護",
    "capacity": 4,
    "openDays": [],
    "openDaysNote": ""
  },
  {
    "id": "2894100052",
    "name": "スマイルサポートセンター太子定期巡回・随時対応型訪問介護看護",
    "kana": "スマイルサポートセンタータイシテイキジュンカイ・ズイジタイオウガタホウモンカイゴカンゴ",
    "address": "兵庫県揖保郡太子町蓮常寺69-1",
    "lat": 34.8242442,
    "lng": 134.576835,
    "tel": "079-277-6200",
    "url": "https://hinode.or.jp",
    "pref": "兵庫県",
    "city": "太子町",
    "category": "regular_patrol_nursing",
    "serviceType": "定期巡回・随時対応型訪問介護看護",
    "capacity": 0,
    "openDays": [],
    "openDaysNote": ""
  },
  {
    "id": "2891400166",
    "name": "兵庫医科大学ささやま定期巡回・随時対応型訪問介護看護事業所「デカンショ」",
    "kana": "ヒョウゴイカダイガクササヤマテイキジュンカイ・ズイジタイオウガタホウモンカイゴカンゴジギョウショ「デカンショ」",
    "address": "兵庫県丹波篠山市黒岡1047‐1",
    "lat": 35.0797780907238,
    "lng": 135.215196218517,
    "tel": "079－555－6166",
    "url": "http://www.sasayama.hyo-med.ac.jp/",
    "pref": "兵庫県",
    "city": "丹波篠山市",
    "category": "regular_patrol_nursing",
    "serviceType": "定期巡回・随時対応型訪問介護看護",
    "capacity": 0,
    "openDays": [],
    "openDaysNote": ""
  },
  {
    "id": "2891600187",
    "name": "定期巡回ステーション津名やすらぎの里",
    "kana": "テイキジュンカイステーションツナヤスラギノサト",
    "address": "兵庫県淡路市大町下65-1津名やすらぎの里 津名やすらぎの里",
    "lat": 34.4366647,
    "lng": 134.8577115,
    "tel": "0799-62-7400",
    "url": "http://www.nojigiku.or.jp/pages/25/",
    "pref": "兵庫県",
    "city": "淡路市",
    "category": "regular_patrol_nursing",
    "serviceType": "定期巡回・随時対応型訪問介護看護",
    "capacity": 25,
    "openDays": [],
    "openDaysNote": ""
  },
  {
    "id": "2893001376",
    "name": "シニアスタイル東園田定期巡回事業所",
    "kana": "シニアスタイルヒガシソノダテイキジュンカイジギョウショ",
    "address": "兵庫県尼崎市東園田町4丁目160-2ウェルハイツ東園田105 ウェルハイツ東園田105",
    "lat": 34.7543530936278,
    "lng": 135.444124160748,
    "tel": "06-4950-6018",
    "url": "https://senior-style.co.jp/homecare/",
    "pref": "兵庫県",
    "city": "尼崎市",
    "category": "regular_patrol_nursing",
    "serviceType": "定期巡回・随時対応型訪問介護看護",
    "capacity": null,
    "openDays": [],
    "openDaysNote": ""
  },
  {
    "id": "2893000824",
    "name": "シニアスタイル立花定期巡回事業所",
    "kana": "シニアスタイルタチバナテイキジュンカイジギョウショ",
    "address": "兵庫県尼崎市浜田町3-62ピトレスクエア206 ピトレスクエア206",
    "lat": 34.7294147,
    "lng": 135.3985961,
    "tel": "06-6430-2350",
    "url": "https://senior-style.co.jp/homecare/",
    "pref": "兵庫県",
    "city": "尼崎市",
    "category": "regular_patrol_nursing",
    "serviceType": "定期巡回・随時対応型訪問介護看護",
    "capacity": 0,
    "openDays": [],
    "openDaysNote": ""
  },
  {
    "id": "2893000402",
    "name": "定期巡回　あんしん24",
    "kana": "テイキジュンカイ　アンシンニジュウヨン",
    "address": "兵庫県尼崎市金楽寺町2丁目7番7号喜楽苑地域ケアセンター　あんしん24 喜楽苑地域ケアセンター　あんしん24",
    "lat": 34.7245741,
    "lng": 135.4277987,
    "tel": "06-6487-5201",
    "url": "www.kirakuen.or.jp",
    "pref": "兵庫県",
    "city": "尼崎市",
    "category": "regular_patrol_nursing",
    "serviceType": "定期巡回・随時対応型訪問介護看護",
    "capacity": 25,
    "openDays": [],
    "openDaysNote": ""
  },
  {
    "id": "2894000716",
    "name": "あぼし",
    "kana": "アボシ",
    "address": "兵庫県姫路市網干区垣内本町553-20",
    "lat": 34.7923887593514,
    "lng": 134.587495381615,
    "tel": "079-271-3460",
    "url": "htto://www.himeji-mcoop.or.jp",
    "pref": "兵庫県",
    "city": "姫路市",
    "category": "regular_patrol_nursing",
    "serviceType": "定期巡回・随時対応型訪問介護看護",
    "capacity": 40,
    "openDays": [],
    "openDaysNote": ""
  },
  {
    "id": "2894001037",
    "name": "それいゆ定期巡回・随時対応型訪問介護看護今在家",
    "kana": "ソレイユテイキジュンカイ・ズイジタイオウガタホウモンカイゴカンゴイマザイケ",
    "address": "兵庫県姫路市飾磨区今在家北3丁目105",
    "lat": 34.8112098438973,
    "lng": 134.655860982278,
    "tel": "079-230-5901",
    "url": "https://hinode.or.jp/establishment/solail_imazaike/",
    "pref": "兵庫県",
    "city": "姫路市",
    "category": "regular_patrol_nursing",
    "serviceType": "定期巡回・随時対応型訪問介護看護",
    "capacity": null,
    "openDays": [],
    "openDaysNote": ""
  },
  {
    "id": "2894000500",
    "name": "中部",
    "kana": "チュウブ",
    "address": "兵庫県姫路市双葉町2番地",
    "lat": 34.8314317338987,
    "lng": 134.710402064418,
    "tel": "079-285-3470",
    "url": "http://www.himeji-mcoop.or.jp",
    "pref": "兵庫県",
    "city": "姫路市",
    "category": "regular_patrol_nursing",
    "serviceType": "定期巡回・随時対応型訪問介護看護",
    "capacity": 37,
    "openDays": [],
    "openDaysNote": ""
  },
  {
    "id": "2894000682",
    "name": "定期巡回　Life",
    "kana": "テイキジュンカイ　ライフ",
    "address": "兵庫県姫路市大津区天満290-6",
    "lat": 34.8020028,
    "lng": 134.6063969,
    "tel": "079-240-8272",
    "url": "http://www.fides.dti.ne.jp/^leben",
    "pref": "兵庫県",
    "city": "姫路市",
    "category": "regular_patrol_nursing",
    "serviceType": "定期巡回・随時対応型訪問介護看護",
    "capacity": null,
    "openDays": [],
    "openDaysNote": ""
  },
  {
    "id": "2894000963",
    "name": "定期巡回　かつはら",
    "kana": "テイキジュンカイ　カツハラ",
    "address": "兵庫県姫路市勝原区下太田573",
    "lat": 34.8213414,
    "lng": 134.5951573,
    "tel": "079-240-6260",
    "url": "http://www.katuhara.or.jp",
    "pref": "兵庫県",
    "city": "姫路市",
    "category": "regular_patrol_nursing",
    "serviceType": "定期巡回・随時対応型訪問介護看護",
    "capacity": null,
    "openDays": [],
    "openDaysNote": ""
  },
  {
    "id": "2894001318",
    "name": "定期巡回サービス汐里",
    "kana": "テイキジュンカイサービスシオリ",
    "address": "兵庫県姫路市的形町的形1768-28プランドール的形101 プランドール的形101",
    "lat": 34.7753639,
    "lng": 134.7391323,
    "tel": "079-247-8011",
    "url": "https://www.ontoku.or.jp/",
    "pref": "兵庫県",
    "city": "姫路市",
    "category": "regular_patrol_nursing",
    "serviceType": "定期巡回・随時対応型訪問介護看護",
    "capacity": null,
    "openDays": [],
    "openDaysNote": ""
  },
  {
    "id": "2894000542",
    "name": "東部",
    "kana": "トウブ",
    "address": "兵庫県姫路市別所町別所2丁目179番地1",
    "lat": 34.8062433232729,
    "lng": 134.75373484418,
    "tel": "079-251-7030",
    "url": "http://www.himeji-mcoop.or.jp",
    "pref": "兵庫県",
    "city": "姫路市",
    "category": "regular_patrol_nursing",
    "serviceType": "定期巡回・随時対応型訪問介護看護",
    "capacity": 50,
    "openDays": [],
    "openDaysNote": ""
  },
  {
    "id": "2894000856",
    "name": "北部",
    "kana": "ホクブ",
    "address": "兵庫県姫路市砥堀630番地",
    "lat": 34.8687718,
    "lng": 134.726675,
    "tel": "079-265-3555",
    "url": "http://www.himeji-mcoop.or.jp",
    "pref": "兵庫県",
    "city": "姫路市",
    "category": "regular_patrol_nursing",
    "serviceType": "定期巡回・随時対応型訪問介護看護",
    "capacity": 40,
    "openDays": [],
    "openDaysNote": ""
  },
  {
    "id": "2893400081",
    "name": "愛の里安心サポートセンター",
    "kana": "アイノサトアンシンサポートセンター",
    "address": "神崎郡福崎町大貫2321-1",
    "lat": 34.9522299,
    "lng": 134.7837792,
    "tel": "0790-22-1332",
    "url": "",
    "pref": "兵庫県",
    "city": "福崎町",
    "category": "regular_patrol_nursing",
    "serviceType": "定期巡回・随時対応型訪問介護看護",
    "capacity": 15,
    "openDays": [],
    "openDaysNote": ""
  },
  {
    "id": "2891100162",
    "name": "ステップこはま２４ｈケアステーション",
    "kana": "ステップコハマニジュウヨジカンケアステーション",
    "address": "兵庫県宝塚市小浜４丁目５番６号",
    "lat": 34.8049447,
    "lng": 135.366075,
    "tel": "0797-86-6008",
    "url": "www.takarazuka-fukushi.or.jp/",
    "pref": "兵庫県",
    "city": "宝塚市",
    "category": "regular_patrol_nursing",
    "serviceType": "定期巡回・随時対応型訪問介護看護",
    "capacity": 0,
    "openDays": [],
    "openDaysNote": ""
  },
  {
    "id": "2891100311",
    "name": "中山ちどり定期巡回ステーション",
    "kana": "ナカヤマチドリテイキジュンカイステーション",
    "address": "兵庫県宝塚市中山桜台1丁目7番1号",
    "lat": 34.8307036,
    "lng": 135.3681619,
    "tel": "0797-82-0201",
    "url": "http://www.chidori.or.jp",
    "pref": "兵庫県",
    "city": "宝塚市",
    "category": "regular_patrol_nursing",
    "serviceType": "定期巡回・随時対応型訪問介護看護",
    "capacity": 0,
    "openDays": [],
    "openDaysNote": ""
  },
  {
    "id": "2891100188",
    "name": "定期巡回サービス　宝塚清光苑",
    "kana": "テイキジュンカイサービス　タカラヅカセイコウエン",
    "address": "仁川団地4-15",
    "lat": 34.7814557581578,
    "lng": 135.35086625159,
    "tel": "0798-81-5528",
    "url": "http:/well-seikokai.jp",
    "pref": "兵庫県",
    "city": "宝塚市",
    "category": "regular_patrol_nursing",
    "serviceType": "定期巡回・随時対応型訪問介護看護",
    "capacity": 30,
    "openDays": [],
    "openDaysNote": ""
  },
  {
    "id": "2891100360",
    "name": "宝塚ちどり定期巡回ステーション",
    "kana": "タカラヅカチドリテイキジュンカイステーション",
    "address": "兵庫県宝塚市亀井町10番30号",
    "lat": 34.7928876,
    "lng": 135.3635971,
    "tel": "0797-73-0880",
    "url": "https://www.chidori.or.jp/facility/takaraduka/",
    "pref": "兵庫県",
    "city": "宝塚市",
    "category": "regular_patrol_nursing",
    "serviceType": "定期巡回・随時対応型訪問介護看護",
    "capacity": 5,
    "openDays": [],
    "openDaysNote": ""
  },
  {
    "id": "2891100329",
    "name": "宝塚市社会福祉協議会　スミレン小林巡回サービス24Ｈ",
    "kana": "タカラヅカシシャカイフクシキョウギカイ　スミレンオバヤシジュンカイサービス24Ｈ",
    "address": "兵庫県宝塚市小林4丁目7-472Ｆ 2Ｆ",
    "lat": 34.7923453,
    "lng": 135.3571063,
    "tel": "0797-26-7110",
    "url": "http://takarazukashakyo.life.coocan.jp",
    "pref": "兵庫県",
    "city": "宝塚市",
    "category": "regular_patrol_nursing",
    "serviceType": "定期巡回・随時対応型訪問介護看護",
    "capacity": null,
    "openDays": [],
    "openDaysNote": ""
  },
  {
    "id": "2894400320",
    "name": "げんき",
    "kana": "ゲンキ",
    "address": "兵庫県兵庫県豊岡市庄168",
    "lat": 35.5427127,
    "lng": 134.7777411,
    "tel": "0796-37-8700",
    "url": "http://www.genki-kaigo-service.jp/",
    "pref": "兵庫県",
    "city": "豊岡市",
    "category": "regular_patrol_nursing",
    "serviceType": "定期巡回・随時対応型訪問介護看護",
    "capacity": null,
    "openDays": [],
    "openDaysNote": ""
  },
  {
    "id": "2894400239",
    "name": "ラウンド・ケア・サービスことぶき",
    "kana": "ラウンド・ケア・サービスコトブキ",
    "address": "兵庫県豊岡市日高町祢布1304",
    "lat": 35.4650868,
    "lng": 134.7644162,
    "tel": "0796-42-0430",
    "url": "http://www.hwc.or.jp/tajima/",
    "pref": "兵庫県",
    "city": "豊岡市",
    "category": "regular_patrol_nursing",
    "serviceType": "定期巡回・随時対応型訪問介護看護",
    "capacity": 15,
    "openDays": [],
    "openDaysNote": ""
  },
  {
    "id": "2894400338",
    "name": "介護看護あんしんサポートセンター豊岡",
    "kana": "カイゴカンゴアンシンサポートセンタートヨオカ",
    "address": "兵庫県豊岡市京町5-21",
    "lat": 35.5411729752711,
    "lng": 134.822860996295,
    "tel": "0796-21-9117",
    "url": "https://goodlife-hp.co.jp/",
    "pref": "兵庫県",
    "city": "豊岡市",
    "category": "regular_patrol_nursing",
    "serviceType": "定期巡回・随時対応型訪問介護看護",
    "capacity": 30,
    "openDays": [],
    "openDaysNote": ""
  },
  {
    "id": "2892000502",
    "name": "カサブランカ定期巡回訪問介護ステーション",
    "kana": "カサブランカテイキジュンカイホウモンカイゴステーション",
    "address": "兵庫県明石市魚住町住吉4-4-3",
    "lat": 34.6942456,
    "lng": 134.8973341,
    "tel": "078-944-5911",
    "url": "http://www.kaigo-casablanca.co.jp/",
    "pref": "兵庫県",
    "city": "明石市",
    "category": "regular_patrol_nursing",
    "serviceType": "定期巡回・随時対応型訪問介護看護",
    "capacity": 0,
    "openDays": [],
    "openDaysNote": ""
  },
  {
    "id": "2892000783",
    "name": "スピンケア24つむぎ二見町",
    "kana": "スピンケアニジュウヨンツムギフタミチョウ",
    "address": "兵庫県明石市二見町西二見1268-1ラフェスタ二見501号室 ラフェスタ二見501号室",
    "lat": 34.7043091,
    "lng": 134.8735601,
    "tel": "078-940-9337",
    "url": "",
    "pref": "兵庫県",
    "city": "明石市",
    "category": "regular_patrol_nursing",
    "serviceType": "定期巡回・随時対応型訪問介護看護",
    "capacity": 70,
    "openDays": [],
    "openDaysNote": ""
  },
  {
    "id": "2892000312",
    "name": "それいゆ定期巡回・随時対応型訪問介護看護朝霧",
    "kana": "ソレイユテイキジュンカイズイジタイオウガタホウモンカイゴカンゴアサギリ",
    "address": "兵庫県明石市相生町２丁目６－５　３８ヤングビル６０１３８ヤングビル６０１ ３８ヤングビル６０１",
    "lat": 34.6452789296681,
    "lng": 134.998248623897,
    "tel": "078-915-1233",
    "url": "https://hinode.or.jp/establishment/teiki-asagiri/",
    "pref": "兵庫県",
    "city": "明石市",
    "category": "regular_patrol_nursing",
    "serviceType": "定期巡回・随時対応型訪問介護看護",
    "capacity": 30,
    "openDays": [],
    "openDaysNote": ""
  },
  {
    "id": "2892000254",
    "name": "やさしい手　和坂定期巡回・随時対応型訪問介護看護事業所",
    "kana": "ヤサシイテ　ワサカテイキジュンカイ・ズイジタイオウガタホウモンカイゴカンゴジギョウショ",
    "address": "和坂1丁目15番38号",
    "lat": 34.6624744,
    "lng": 134.9748137,
    "tel": "050-1753-4356",
    "url": "http://www.yasashiite.com",
    "pref": "兵庫県",
    "city": "明石市",
    "category": "regular_patrol_nursing",
    "serviceType": "定期巡回・随時対応型訪問介護看護",
    "capacity": 0,
    "openDays": [],
    "openDaysNote": ""
  },
  {
    "id": "2892000791",
    "name": "定期巡回ステーションずっといえ",
    "kana": "テイキジュンカイステーションズットイエ",
    "address": "兵庫県明石市大久保町大久保町165-27オーセンティックスクエア大久保103 オーセンティックスクエア大久保103",
    "lat": 34.6770481944724,
    "lng": 134.939301593301,
    "tel": "078-939-6207",
    "url": "https://zuttie.co.jp/",
    "pref": "兵庫県",
    "city": "明石市",
    "category": "regular_patrol_nursing",
    "serviceType": "定期巡回・随時対応型訪問介護看護",
    "capacity": 0,
    "openDays": [],
    "openDaysNote": ""
  },
  {
    "id": "2892000395",
    "name": "明石仁十病院ホームヘルプステーション",
    "kana": "アカシニンジュウビョウインホームヘルプステーション",
    "address": "兵庫県明石市魚住町清水１６２８－１",
    "lat": 34.7136965328466,
    "lng": 134.901061098148,
    "tel": "078-941-2670",
    "url": "http://simizunoie.com/homehelper.html",
    "pref": "兵庫県",
    "city": "明石市",
    "category": "regular_patrol_nursing",
    "serviceType": "定期巡回・随時対応型訪問介護看護",
    "capacity": 0,
    "openDays": [],
    "openDaysNote": ""
  }
]