[
  {
    "id": "192900314",
    "name": "旭川中央ケアサポート安心コールセンター",
    "kana": "アサヒカワチュウオウケアサポートアンシンコールセンター",
    "address": "北海道旭川市東光１５条３丁目６番１０号かりのすまい東光 かりのすまい東光",
    "lat": 43.7413918285679,
    "lng": 142.397290252254,
    "tel": "0166-37-7110",
    "url": "http://www.chuuo-hire.com/",
    "pref": "北海道",
    "city": "旭川市",
    "category": "regular_patrol_nursing",
    "serviceType": "定期巡回・随時対応型訪問介護看護",
    "capacity": 0,
    "openDays": [],
    "openDaysNote": ""
  },
  {
    "id": "192902492",
    "name": "定期巡回・随時対応型訪問介護看護ガーデナース南永山",
    "kana": "テイキジュンカイ・ズイジタイオウガタホウモンカイゴカンゴガーデナースミナミナガヤマ",
    "address": "北海道旭川市永山８条１丁目１番２３号",
    "lat": 43.7804499,
    "lng": 142.4014088,
    "tel": "0166-73-8132",
    "url": "http://www.relife-asahikawa.co.jp/",
    "pref": "北海道",
    "city": "旭川市",
    "category": "regular_patrol_nursing",
    "serviceType": "定期巡回・随時対応型訪問介護看護",
    "capacity": null,
    "openDays": [],
    "openDaysNote": ""
  },
  {
    "id": "195700133",
    "name": "定期巡回・随時対応型訪問介護看護センターまちの看護師さん",
    "kana": "テイキジュンカイズイジタイオウガタホウモンカイゴカンゴセンターマチノカンゴシサン",
    "address": "北海道岩見沢市7条西3丁目22-1",
    "lat": 43.1992584566462,
    "lng": 141.767260651976,
    "tel": "0126-35-7122",
    "url": "https://www.aka-machikan2.com/",
    "pref": "北海道",
    "city": "岩見沢市",
    "category": "regular_patrol_nursing",
    "serviceType": "定期巡回・随時対応型訪問介護看護",
    "capacity": 20,
    "openDays": [],
    "openDaysNote": ""
  },
  {
    "id": "194100517",
    "name": "いつでもふわり訪問ステーション",
    "kana": "イツデモフワリホウモンステーション",
    "address": "北海道釧路市入江町9番14号",
    "lat": 43.0012309,
    "lng": 144.3953604,
    "tel": "0154-23-3001",
    "url": "http://www.shishinn.com",
    "pref": "北海道",
    "city": "釧路市",
    "category": "regular_patrol_nursing",
    "serviceType": "定期巡回・随時対応型訪問介護看護",
    "capacity": 0,
    "openDays": [],
    "openDaysNote": ""
  },
  {
    "id": "194100558",
    "name": "定期巡回・随時対応型訪問介護看護メルシー",
    "kana": "テイキジュンカイズイジタイオウガタホウモンカイゴカンゴメルシー",
    "address": "北海道釧路市桜ヶ岡1丁目11番27号桜ヶ岡地域交流サロン内 桜ヶ岡地域交流サロン内",
    "lat": 42.9665973264303,
    "lng": 144.426547766083,
    "tel": "0154-22-3888",
    "url": "https://watanabe-kaigo.com",
    "pref": "北海道",
    "city": "釧路市",
    "category": "regular_patrol_nursing",
    "serviceType": "定期巡回・随時対応型訪問介護看護",
    "capacity": 0,
    "openDays": [],
    "openDaysNote": ""
  },
  {
    "id": "194100327",
    "name": "定期巡回センターくしろ",
    "kana": "テイキジュンカイセンタークシロ",
    "address": "北海道釧路市駒場町3番24号",
    "lat": 43.0001616737594,
    "lng": 144.367408896959,
    "tel": "0154-31-0070",
    "url": "",
    "pref": "北海道",
    "city": "釧路市",
    "category": "regular_patrol_nursing",
    "serviceType": "定期巡回・随時対応型訪問介護看護",
    "capacity": 0,
    "openDays": [],
    "openDaysNote": ""
  },
  {
    "id": "191200161",
    "name": "イリーゼ恵庭定期巡回・随時対応型訪問介護看護センター",
    "kana": "イリーゼエニワテイキジュンカイ・ズイジタイオウガタホウモンカイゴカンゴセンター",
    "address": "北海道恵庭市相生町1丁目8番1号イリーゼ恵庭 イリーゼ恵庭",
    "lat": 42.8826690468929,
    "lng": 141.585533936246,
    "tel": "0123-39-2381",
    "url": "",
    "pref": "北海道",
    "city": "恵庭市",
    "category": "regular_patrol_nursing",
    "serviceType": "定期巡回・随時対応型訪問介護看護",
    "capacity": null,
    "openDays": [],
    "openDaysNote": ""
  },
  {
    "id": "191000538",
    "name": "２４時間定期巡回訪問サービスブルーライズ野幌",
    "kana": "ニジュウヨジカンテキジュンカイホウモンサービスブルーライズノッポロ",
    "address": "北海道江別市野幌末広町39-1住宅型有料老人ホームブルーライズ野幌 住宅型有料老人ホームブルーライズ野幌",
    "lat": 43.0889209,
    "lng": 141.5117912,
    "tel": "011-807-7625",
    "url": "http://nopporo.blue-care.net/",
    "pref": "北海道",
    "city": "江別市",
    "category": "regular_patrol_nursing",
    "serviceType": "定期巡回・随時対応型訪問介護看護",
    "capacity": 70,
    "openDays": [],
    "openDaysNote": ""
  },
  {
    "id": "191000504",
    "name": "サポート２４　江別",
    "kana": "サポートニジュウヨン　エベツ",
    "address": "北海道江別市大麻ひかり町４４－１５ソルシティパレス１０２ ソルシティパレス１０２",
    "lat": 43.0697224346399,
    "lng": 141.482081253175,
    "tel": "011-807-5546",
    "url": "http://lifedesign-gr.jp/",
    "pref": "北海道",
    "city": "江別市",
    "category": "regular_patrol_nursing",
    "serviceType": "定期巡回・随時対応型訪問介護看護",
    "capacity": 0,
    "openDays": [],
    "openDaysNote": ""
  },
  {
    "id": "191000397",
    "name": "定期巡回・随時対応型訪問介護看護　グットタイムサポート・大麻",
    "kana": "テイキジュンカイ・ズイジタイオウガタホウモンカイゴカンゴ　グットタイムサポート・オオアサ",
    "address": "北海道江別市文京台東町11番地18こりんごハイツC こりんごハイツC",
    "lat": 43.0706943,
    "lng": 141.4949243,
    "tel": "011-387-3255",
    "url": "http://www.goodtime.com",
    "pref": "北海道",
    "city": "江別市",
    "category": "regular_patrol_nursing",
    "serviceType": "定期巡回・随時対応型訪問介護看護",
    "capacity": 0,
    "openDays": [],
    "openDaysNote": ""
  },
  {
    "id": "190501254",
    "name": "オストケアあつべつ24",
    "kana": "オストケアアツベツニジュウヨン",
    "address": "北海道札幌市厚別区もみじ台北6丁目1番30号イオルもみじ台 イオルもみじ台",
    "lat": 43.0349773,
    "lng": 141.4910517,
    "tel": "011-809-2943",
    "url": "http://www.ost-japan.com/",
    "pref": "北海道",
    "city": "札幌市厚別区",
    "category": "regular_patrol_nursing",
    "serviceType": "定期巡回・随時対応型訪問介護看護",
    "capacity": 0,
    "openDays": [],
    "openDaysNote": ""
  },
  {
    "id": "190500918",
    "name": "巡回ステーション白ゆり新さっぽろ",
    "kana": "ジュンカイステーションシラユリシンサッポロ",
    "address": "北海道札幌市厚別区厚別東１条２丁目１番１号ライフプレステージ白ゆり新さっぽろ ライフプレステージ白ゆり新さっぽろ",
    "lat": 43.0400321,
    "lng": 141.4842577,
    "tel": "011-899-2002",
    "url": "http://www.shirayuri.gr.jp/",
    "pref": "北海道",
    "city": "札幌市厚別区",
    "category": "regular_patrol_nursing",
    "serviceType": "定期巡回・随時対応型訪問介護看護",
    "capacity": 0,
    "openDays": [],
    "openDaysNote": ""
  },
  {
    "id": "190401257",
    "name": "ツクイ・サンフォレスト札幌西野",
    "kana": "ツクイ・サンフォレストサツポロニシノ",
    "address": "札幌市西区西野6条8丁目１０番５号",
    "lat": 43.0734191,
    "lng": 141.2665351,
    "tel": "011-668-2656",
    "url": "www.tsukui.net",
    "pref": "北海道",
    "city": "札幌市手稲区",
    "category": "regular_patrol_nursing",
    "serviceType": "定期巡回・随時対応型訪問介護看護",
    "capacity": 0,
    "openDays": [],
    "openDaysNote": ""
  },
  {
    "id": "190401349",
    "name": "ノア地域巡回センター西宮の沢",
    "kana": "ノアチイキジュンカイセンターニシミヤノサワ",
    "address": "北海道札幌市手稲区西宮の沢4条1丁目11-20ノアガーデン　オリヴィエ　1F ノアガーデン　オリヴィエ　1F",
    "lat": 43.0979392,
    "lng": 141.2627453,
    "tel": "011-671-6002",
    "url": "http://www.noah-konzer.com/",
    "pref": "北海道",
    "city": "札幌市手稲区",
    "category": "regular_patrol_nursing",
    "serviceType": "定期巡回・随時対応型訪問介護看護",
    "capacity": 0,
    "openDays": [],
    "openDaysNote": ""
  },
  {
    "id": "190401141",
    "name": "勤医協訪問看護24時間きらり",
    "kana": "キンイキョウホウモンカイゴカンゴ24ジカンキラリ",
    "address": "札幌市手稲区新発寒6条3丁目9番3号",
    "lat": 43.1172732,
    "lng": 141.2790975,
    "tel": "011-688-1294",
    "url": "https://kin-fukushikai.jp/",
    "pref": "北海道",
    "city": "札幌市手稲区",
    "category": "regular_patrol_nursing",
    "serviceType": "定期巡回・随時対応型訪問介護看護",
    "capacity": 0,
    "openDays": [],
    "openDaysNote": ""
  },
  {
    "id": "190400796",
    "name": "定期巡回ステーションゆい",
    "kana": "テイキジュンカイステーションユイ",
    "address": "北海道札幌市手稲区稲穂2条7丁目10番17号ウィンポートワン102号 ウィンポートワン102号",
    "lat": 43.1306111,
    "lng": 141.2119757,
    "tel": "011－676－4517",
    "url": "https://careconnectyui.wixsite.com/teikijyunnkai-yui",
    "pref": "北海道",
    "city": "札幌市手稲区",
    "category": "regular_patrol_nursing",
    "serviceType": "定期巡回・随時対応型訪問介護看護",
    "capacity": 20,
    "openDays": [],
    "openDaysNote": ""
  },
  {
    "id": "190401232",
    "name": "定期巡回随時対応型訪問介護看護　フルハウス手稲駅前",
    "kana": "テイキジュンカイズイジタイオウガタホウモンカイゴカンゴフルハウステイネエキマエ",
    "address": "北海道札幌市手稲区曙2条1丁目10-16",
    "lat": 43.1282464,
    "lng": 141.2414263,
    "tel": "011-699-5330",
    "url": "https://human-systemjapan.com/",
    "pref": "北海道",
    "city": "札幌市手稲区",
    "category": "regular_patrol_nursing",
    "serviceType": "定期巡回・随時対応型訪問介護看護",
    "capacity": null,
    "openDays": [],
    "openDaysNote": ""
  },
  {
    "id": "190502831",
    "name": "24ケアステーション　ノテ真栄",
    "kana": "ニイヨンケアステーション　ノテシンエイ",
    "address": "北海道札幌市清田区真栄434番地6",
    "lat": 42.9724352,
    "lng": 141.4325736,
    "tel": "011-885-5555",
    "url": "https://www.note.or.jp/facilities/zaitaku/teiki-houmon/teiki-houmon-note-shinnei/",
    "pref": "北海道",
    "city": "札幌市清田区",
    "category": "regular_patrol_nursing",
    "serviceType": "定期巡回・随時対応型訪問介護看護",
    "capacity": 45,
    "openDays": [],
    "openDaysNote": ""
  },
  {
    "id": "190501452",
    "name": "ノア地域巡回センター美しが丘",
    "kana": "ノアチイキジュンカイセンターウツクシガオカ",
    "address": "札幌市清田区美しが丘２条１０丁目４－３ノアガーデン　レジェンド　１Ｆ ノアガーデン　レジェンド　１Ｆ",
    "lat": 42.9758696,
    "lng": 141.4664883,
    "tel": "011-888-1010",
    "url": "http://www.noah-konzer.com/",
    "pref": "北海道",
    "city": "札幌市清田区",
    "category": "regular_patrol_nursing",
    "serviceType": "定期巡回・随時対応型訪問介護看護",
    "capacity": 0,
    "openDays": [],
    "openDaysNote": ""
  },
  {
    "id": "190503250",
    "name": "ノア地域巡回センター平岡",
    "kana": "ノアチイキジュンカイセンターヒラオカ",
    "address": "北海道清田区平岡5条1丁目7-10ノアガーデンエリザベス1F ノアガーデンエリザベス1F",
    "lat": 43.0078193,
    "lng": 141.4503927,
    "tel": "011-886-8002",
    "url": "https://www.noah-konzer.com/",
    "pref": "北海道",
    "city": "札幌市清田区",
    "category": "regular_patrol_nursing",
    "serviceType": "定期巡回・随時対応型訪問介護看護",
    "capacity": 0,
    "openDays": [],
    "openDaysNote": ""
  },
  {
    "id": "190501536",
    "name": "勤医協訪問介護看護２４時間ココロ",
    "kana": "キンイキョウホウモンカイゴカンゴ２４ジカンココロ",
    "address": "北海道札幌市清田区清田１条２丁目５番８号",
    "lat": 43.0046543,
    "lng": 141.438761,
    "tel": "011-885-1233",
    "url": "http://kin-fukushikai.jp/",
    "pref": "北海道",
    "city": "札幌市清田区",
    "category": "regular_patrol_nursing",
    "serviceType": "定期巡回・随時対応型訪問介護看護",
    "capacity": 0,
    "openDays": [],
    "openDaysNote": ""
  },
  {
    "id": "190501007",
    "name": "鈴木内科介護看護センター",
    "kana": "スズキナイカカイゴカンゴセンター",
    "address": "北海道札幌市清田区美しが丘2条4丁目17-1医療介護支援住宅美しが丘 医療介護支援住宅美しが丘",
    "lat": 42.9837589,
    "lng": 141.4512264,
    "tel": "011-398-5333",
    "url": "http://www.suzukinaika.or.jp/",
    "pref": "北海道",
    "city": "札幌市清田区",
    "category": "regular_patrol_nursing",
    "serviceType": "定期巡回・随時対応型訪問介護看護",
    "capacity": 46,
    "openDays": [],
    "openDaysNote": ""
  },
  {
    "id": "190401208",
    "name": "こころね八軒",
    "kana": "定期巡回随時対応型訪問介護看護",
    "address": "八軒５条西１０丁目1-24ココロホーム八軒 ココロホーム八軒",
    "lat": 43.0940727,
    "lng": 141.3000847,
    "tel": "011-642-5560",
    "url": "",
    "pref": "北海道",
    "city": "札幌市西区",
    "category": "regular_patrol_nursing",
    "serviceType": "定期巡回・随時対応型訪問介護看護",
    "capacity": 0,
    "openDays": [],
    "openDaysNote": ""
  },
  {
    "id": "190401166",
    "name": "さくら苑巡回センター",
    "kana": "サクラエンジュンカイセンター",
    "address": "札幌市西区発寒１７条３丁目４－３０",
    "lat": 43.1097451,
    "lng": 141.2944708,
    "tel": "116692006",
    "url": "http://sakurakai-gp.or.jp",
    "pref": "北海道",
    "city": "札幌市西区",
    "category": "regular_patrol_nursing",
    "serviceType": "定期巡回・随時対応型訪問介護看護",
    "capacity": null,
    "openDays": [],
    "openDaysNote": ""
  },
  {
    "id": "190400945",
    "name": "サポート24札幌",
    "kana": "サポート24サッポロ",
    "address": "北海道札幌市西区西野5条2丁目7-8ドリームス西野　401号室 ドリームス西野　401号室",
    "lat": 43.0683211,
    "lng": 141.2759698,
    "tel": "011-215-5759",
    "url": "lifedesign-gr.jp/",
    "pref": "北海道",
    "city": "札幌市西区",
    "category": "regular_patrol_nursing",
    "serviceType": "定期巡回・随時対応型訪問介護看護",
    "capacity": 0,
    "openDays": [],
    "openDaysNote": ""
  },
  {
    "id": "190401489",
    "name": "トラストケア定期巡回・随時対応型訪問介護看護事業所",
    "kana": "トラストケアテイキジュンカイ・ズイジタイオウガタホウモンカイゴカンゴジギョウショ",
    "address": "北海道札幌市西区福井1丁目9番15号有料老人ホームふくいトラストホーム 有料老人ホームふくいトラストホーム",
    "lat": 43.059575,
    "lng": 141.276035,
    "tel": "011-215-5400",
    "url": "http://meguminokaigo.jp/",
    "pref": "北海道",
    "city": "札幌市西区",
    "category": "regular_patrol_nursing",
    "serviceType": "定期巡回・随時対応型訪問介護看護",
    "capacity": null,
    "openDays": [],
    "openDaysNote": ""
  },
  {
    "id": "190400283",
    "name": "ノア地域巡回センター",
    "kana": "ノアチイキジュンカイセンター",
    "address": "北海道札幌市西区八軒9条西4丁目5-20ノアガーデンA館内 ノアガーデンA館内",
    "lat": 43.0942877,
    "lng": 141.3126504,
    "tel": "011-632-1115",
    "url": "http://www.noah-konzer.com/",
    "pref": "北海道",
    "city": "札幌市西区",
    "category": "regular_patrol_nursing",
    "serviceType": "定期巡回・随時対応型訪問介護看護",
    "capacity": 0,
    "openDays": [],
    "openDaysNote": ""
  },
  {
    "id": "190400499",
    "name": "ノア地域巡回センター発寒",
    "kana": "ノアチイキジュンカイセンターハッサム",
    "address": "北海道札幌市西区発寒10条2丁目8番5号ノアガーデン　ル･スリジエ ノアガーデン　ル･スリジエ",
    "lat": 43.0906789,
    "lng": 141.2986296,
    "tel": "011-676-2203",
    "url": "http://www.noah-group.jp",
    "pref": "北海道",
    "city": "札幌市西区",
    "category": "regular_patrol_nursing",
    "serviceType": "定期巡回・随時対応型訪問介護看護",
    "capacity": 3,
    "openDays": [],
    "openDaysNote": ""
  },
  {
    "id": "190400929",
    "name": "ノア地域巡回センター発寒西",
    "kana": "ノアチイキジュンカイセンターハッサムニシ",
    "address": "北海道札幌市西区発寒6条13丁目3-61ノアガーデンブランジェ　1階 ノアガーデンブランジェ　1階",
    "lat": 43.0950415,
    "lng": 141.2714567,
    "tel": "011-669-2200",
    "url": "http://www.noah-konzer.com",
    "pref": "北海道",
    "city": "札幌市西区",
    "category": "regular_patrol_nursing",
    "serviceType": "定期巡回・随時対応型訪問介護看護",
    "capacity": 0,
    "openDays": [],
    "openDaysNote": ""
  },
  {
    "id": "190401398",
    "name": "ノア地域巡回センター発寒中央",
    "kana": "ノアチイキジュンカイセンターハッサムチュウオウ",
    "address": "北海道札幌市西区発寒8条13丁目1-1ノアガーデンコニーズバレー ノアガーデンコニーズバレー",
    "lat": 43.0968049,
    "lng": 141.2750989,
    "tel": "011-676-1001",
    "url": "http://www.noah-konzer.com/",
    "pref": "北海道",
    "city": "札幌市西区",
    "category": "regular_patrol_nursing",
    "serviceType": "定期巡回・随時対応型訪問介護看護",
    "capacity": 0,
    "openDays": [],
    "openDaysNote": ""
  },
  {
    "id": "190401612",
    "name": "定期巡回随時対応型訪問介護看護フルハウス二十四軒",
    "kana": "テイキジュンカイズイジタイオウガタホウモンカイゴカンゴｈルウハウスニジュウヨンケン",
    "address": "北海道札幌市西区二十四軒1条2丁目3番15号",
    "lat": 43.069108,
    "lng": 141.3142117,
    "tel": "011-676-9920",
    "url": "",
    "pref": "北海道",
    "city": "札幌市西区",
    "category": "regular_patrol_nursing",
    "serviceType": "定期巡回・随時対応型訪問介護看護",
    "capacity": null,
    "openDays": [],
    "openDaysNote": ""
  },
  {
    "id": "190101170",
    "name": "SOMPOケア　札幌桑園駅前　定期巡回",
    "kana": "ソンポケア　サッポロソウエンエキマエ　テイキジュンカイ",
    "address": "北海道札幌市中央区北11条西14丁目1-17",
    "lat": 43.0718599,
    "lng": 141.3321858,
    "tel": "011-788-7739",
    "url": "https://www.sompocare.com",
    "pref": "北海道",
    "city": "札幌市中央区",
    "category": "regular_patrol_nursing",
    "serviceType": "定期巡回・随時対応型訪問介護看護",
    "capacity": null,
    "openDays": [],
    "openDaysNote": ""
  },
  {
    "id": "190101196",
    "name": "ＳＯＭＰＯケア旭ヶ丘　定期巡回",
    "kana": "ソンポケアアサヒガオカテイキジュンカイ",
    "address": "北海道札幌市中央区南14条西18丁目6-22ラヴィーレレジデンス旭ヶ丘 ラヴィーレレジデンス旭ヶ丘",
    "lat": 43.0400126,
    "lng": 141.3286744,
    "tel": "011-206-9577",
    "url": "https://www.sompocare.com",
    "pref": "北海道",
    "city": "札幌市中央区",
    "category": "regular_patrol_nursing",
    "serviceType": "定期巡回・随時対応型訪問介護看護",
    "capacity": null,
    "openDays": [],
    "openDaysNote": ""
  },
  {
    "id": "190100834",
    "name": "グリーンプラザ定期巡回訪問介護看護ステーション",
    "kana": "グリーンプラザテイキジュンカイホウモンカイゴカンゴステーション",
    "address": "北海道札幌市中央区南6条西8丁目5番ファミリードクターズホーム6.8　5Ｆ ファミリードクターズホーム6.8　5Ｆ",
    "lat": 43.0526476,
    "lng": 141.3467411,
    "tel": "011-513-5500",
    "url": "",
    "pref": "北海道",
    "city": "札幌市中央区",
    "category": "regular_patrol_nursing",
    "serviceType": "定期巡回・随時対応型訪問介護看護",
    "capacity": null,
    "openDays": [],
    "openDaysNote": ""
  },
  {
    "id": "190100537",
    "name": "ノア地域巡回センター旭ヶ丘",
    "kana": "ノアチイキジュンカイセンターアサヒガオカ",
    "address": "北海道札幌市中央区南１２条西２２丁目１－４０ノアガーデン旭ヶ丘　アーバンクラス内 ノアガーデン旭ヶ丘　アーバンクラス内",
    "lat": 43.0422223,
    "lng": 141.3255884,
    "tel": "011-520-2500",
    "url": "http://www.noah-konzer.com",
    "pref": "北海道",
    "city": "札幌市中央区",
    "category": "regular_patrol_nursing",
    "serviceType": "定期巡回・随時対応型訪問介護看護",
    "capacity": 0,
    "openDays": [],
    "openDaysNote": ""
  },
  {
    "id": "190100933",
    "name": "ノア地域巡回センター啓明",
    "kana": "ノアチイキジュンカイセンターケイメイ",
    "address": "北海道札幌市中央区南13条西23丁目1-20ノアガーデンエレンクラッセ ノアガーデンエレンクラッセ",
    "lat": 43.0394846,
    "lng": 141.3253485,
    "tel": "011-562-1001",
    "url": "https://www.noah-konzer.com/",
    "pref": "北海道",
    "city": "札幌市中央区",
    "category": "regular_patrol_nursing",
    "serviceType": "定期巡回・随時対応型訪問介護看護",
    "capacity": 0,
    "openDays": [],
    "openDaysNote": ""
  },
  {
    "id": "190100974",
    "name": "ブルー・ケア株式会社",
    "kana": "ブルー・ケアカブシキガイシャ",
    "address": "北海道札幌市中央区北11条西24丁目1番20号ブルースター北円山 ブルースター北円山",
    "lat": 43.0704753,
    "lng": 141.3184819,
    "tel": "011-215-8890",
    "url": "kitamaruinfo@blue-care.net",
    "pref": "北海道",
    "city": "札幌市中央区",
    "category": "regular_patrol_nursing",
    "serviceType": "定期巡回・随時対応型訪問介護看護",
    "capacity": 45,
    "openDays": [],
    "openDaysNote": ""
  },
  {
    "id": "190100248",
    "name": "マザアス札幌２４時間訪問介護看護事業所",
    "kana": "マザアスサッポロニジュウヨジカンホウモンカイゴカンゴジギョウショ",
    "address": "北海道札幌市中央区北３条東１丁目１番地１ブランジェイアール札幌 ブランジェイアール札幌",
    "lat": 43.0659621,
    "lng": 141.3563982,
    "tel": "011-210-0330",
    "url": "http://www.motherth.com/sapporo/",
    "pref": "北海道",
    "city": "札幌市中央区",
    "category": "regular_patrol_nursing",
    "serviceType": "定期巡回・随時対応型訪問介護看護",
    "capacity": 0,
    "openDays": [],
    "openDaysNote": ""
  },
  {
    "id": "190100511",
    "name": "やまはな24",
    "kana": "ヤマハナニジュウヨン",
    "address": "北海道札幌市中央区南16条西19丁目1番32シティホーム山鼻 シティホーム山鼻",
    "lat": 43.036803,
    "lng": 141.3302569,
    "tel": "011-522-8177",
    "url": "",
    "pref": "北海道",
    "city": "札幌市中央区",
    "category": "regular_patrol_nursing",
    "serviceType": "定期巡回・随時対応型訪問介護看護",
    "capacity": 0,
    "openDays": [],
    "openDaysNote": ""
  },
  {
    "id": "190100503",
    "name": "やまはな訪問介護看護事業所２４",
    "kana": "ヤマハナホウモンカイゴカンゴジギョウショ２４",
    "address": "北海道札幌市中央区南１９条西１１丁目１-１５ヴェラス・クオーレ南１９条ー２Ｆ ヴェラス・クオーレ南１９条ー２Ｆ",
    "lat": 43.0343203972227,
    "lng": 141.344155182648,
    "tel": "011-530-6808",
    "url": "",
    "pref": "北海道",
    "city": "札幌市中央区",
    "category": "regular_patrol_nursing",
    "serviceType": "定期巡回・随時対応型訪問介護看護",
    "capacity": 0,
    "openDays": [],
    "openDaysNote": ""
  },
  {
    "id": "190100636",
    "name": "朝日ケアステーション山鼻",
    "kana": "アサヒケアステーションヤマハナ",
    "address": "北海道札幌市中央区南18条西12丁目4-12朝日ケアホーム山鼻 朝日ケアホーム山鼻",
    "lat": 43.0348376,
    "lng": 141.3424346,
    "tel": "011-213-1505",
    "url": "https://www.asahi-care-home.com/",
    "pref": "北海道",
    "city": "札幌市中央区",
    "category": "regular_patrol_nursing",
    "serviceType": "定期巡回・随時対応型訪問介護看護",
    "capacity": 0,
    "openDays": [],
    "openDaysNote": ""
  },
  {
    "id": "190100651",
    "name": "定期巡回ケアステーションピリカ",
    "kana": "テイキジュンカイケアステーションピリカ",
    "address": "北海道札幌市中央区南19条西12丁目2-22ロータス山鼻邸 ロータス山鼻邸",
    "lat": 43.0336155,
    "lng": 141.3422791,
    "tel": "011-585-5112",
    "url": "https://lotus-sapporo.com/",
    "pref": "北海道",
    "city": "札幌市中央区",
    "category": "regular_patrol_nursing",
    "serviceType": "定期巡回・随時対応型訪問介護看護",
    "capacity": 0,
    "openDays": [],
    "openDaysNote": ""
  },
  {
    "id": "190100370",
    "name": "定期巡回モルス24",
    "kana": "テイキジュンカイモルスニジュウヨン",
    "address": "北海道札幌市中央区北11条西14丁目1番72号ふれあいの森　市立病院前 ふれあいの森　市立病院前",
    "lat": 43.0724153605187,
    "lng": 141.333324792031,
    "tel": "011-738-9918",
    "url": "https://www.morus.co.jp/",
    "pref": "北海道",
    "city": "札幌市中央区",
    "category": "regular_patrol_nursing",
    "serviceType": "定期巡回・随時対応型訪問介護看護",
    "capacity": 0,
    "openDays": [],
    "openDaysNote": ""
  },
  {
    "id": "190100396",
    "name": "定期巡回随時対応訪問介護看護　フルハウス伏見",
    "kana": "テイキジュンカイズイジタイオウホウモンカイゴカンゴ　フルハウスフシミ",
    "address": "北海道札幌市中央区南20条西16丁目2－1",
    "lat": 43.0294296,
    "lng": 141.3374131,
    "tel": "011-533-2002",
    "url": "",
    "pref": "北海道",
    "city": "札幌市中央区",
    "category": "regular_patrol_nursing",
    "serviceType": "定期巡回・随時対応型訪問介護看護",
    "capacity": 0,
    "openDays": [],
    "openDaysNote": ""
  },
  {
    "id": "190201665",
    "name": "24時間定期巡回訪問サービスブルースターEAST",
    "kana": "ニジュウヨジカンテイキジュンカイホウモンサービスブルースターイースト",
    "address": "北海道札幌市東区北34条東24丁目２番１号",
    "lat": 43.1031338,
    "lng": 141.3827361,
    "tel": "011-776-6207",
    "url": "https://east.blue-care.net/",
    "pref": "北海道",
    "city": "札幌市東区",
    "category": "regular_patrol_nursing",
    "serviceType": "定期巡回・随時対応型訪問介護看護",
    "capacity": 0,
    "openDays": [],
    "openDaysNote": ""
  },
  {
    "id": "190201129",
    "name": "カレス定期巡回随時対応型訪問介護看護事業所",
    "kana": "カレステイキジュンカイズイジタイオウガタホウモンカイゴカンゴジギョウショ",
    "address": "北海道札幌市東区北12条東4丁目１番１号カレスプレミアムガーデン カレスプレミアムガーデン",
    "lat": 43.0767081,
    "lng": 141.3588029,
    "tel": "011-722-3336",
    "url": "http://www.p-garden.jp/index.html",
    "pref": "北海道",
    "city": "札幌市東区",
    "category": "regular_patrol_nursing",
    "serviceType": "定期巡回・随時対応型訪問介護看護",
    "capacity": 30,
    "openDays": [],
    "openDaysNote": ""
  },
  {
    "id": "190100859",
    "name": "グッドタイムサポート・札幌",
    "kana": "グッドタイムサポート・サッポロ",
    "address": "札幌市東区北20条東1丁目4番1号",
    "lat": 43.0518702,
    "lng": 141.3473096,
    "tel": "011-702-3294",
    "url": "",
    "pref": "北海道",
    "city": "札幌市東区",
    "category": "regular_patrol_nursing",
    "serviceType": "定期巡回・随時対応型訪問介護看護",
    "capacity": 0,
    "openDays": [],
    "openDaysNote": ""
  },
  {
    "id": "190201459",
    "name": "グレース定期巡回随時対応型訪問介護看護",
    "kana": "グレーステイキジュンカイズイジタイオウガタホウモンカイゴカンゴ",
    "address": "北海道札幌市東区東苗穂14条3丁目1番57号有料老人ホーム　カルミア 有料老人ホーム　カルミア",
    "lat": 43.1087868,
    "lng": 141.424659,
    "tel": "011-790-7875",
    "url": "",
    "pref": "北海道",
    "city": "札幌市東区",
    "category": "regular_patrol_nursing",
    "serviceType": "定期巡回・随時対応型訪問介護看護",
    "capacity": 0,
    "openDays": [],
    "openDaysNote": ""
  },
  {
    "id": "190200485",
    "name": "ケアステーションなないろ",
    "kana": "ケアステーションナナイロ",
    "address": "北海道札幌市東区東苗穂３条１丁目２－９０東苗穂ナーシングケアセンターひだまり内 東苗穂ナーシングケアセンターひだまり内",
    "lat": 43.0886829,
    "lng": 141.399357,
    "tel": "011-780-5522",
    "url": "http://www.houseikai.or.jp/niji/",
    "pref": "北海道",
    "city": "札幌市東区",
    "category": "regular_patrol_nursing",
    "serviceType": "定期巡回・随時対応型訪問介護看護",
    "capacity": 0,
    "openDays": [],
    "openDaysNote": ""
  },
  {
    "id": "190200790",
    "name": "ノア地域巡回センターモエレ",
    "kana": "ノアチイキジュンカイセンターモエレ",
    "address": "北海道札幌市東区中沼西３条２丁目７番8号ノアガーデンモエレヒルズ ノアガーデンモエレヒルズ",
    "lat": 43.130742,
    "lng": 141.414739,
    "tel": "011-374-7302",
    "url": "http://www.noah-konzer.com",
    "pref": "北海道",
    "city": "札幌市東区",
    "category": "regular_patrol_nursing",
    "serviceType": "定期巡回・随時対応型訪問介護看護",
    "capacity": 0,
    "openDays": [],
    "openDaysNote": ""
  },
  {
    "id": "190201566",
    "name": "ノア地域巡回センター北6条",
    "kana": "ノアチイキジュンカイセンターキタロクジョウ",
    "address": "北海道札幌市東区北6条東6丁目1-1ノアガーデングランテラス　1階 ノアガーデングランテラス　1階",
    "lat": 43.0705199,
    "lng": 141.3641306,
    "tel": "011-733-7000",
    "url": "http://www.noah-konzer.com",
    "pref": "北海道",
    "city": "札幌市東区",
    "category": "regular_patrol_nursing",
    "serviceType": "定期巡回・随時対応型訪問介護看護",
    "capacity": 0,
    "openDays": [],
    "openDaysNote": ""
  },
  {
    "id": "190200410",
    "name": "ヘルパーステーションリ・ボン",
    "kana": "ヘルパーステーションリ・ボン",
    "address": "北海道札幌市東区東苗穂3条1丁目2-65",
    "lat": 43.0874636,
    "lng": 141.4013986,
    "tel": "011-214-0157",
    "url": "http://www.oira-ku..com/",
    "pref": "北海道",
    "city": "札幌市東区",
    "category": "regular_patrol_nursing",
    "serviceType": "定期巡回・随時対応型訪問介護看護",
    "capacity": 0,
    "openDays": [],
    "openDaysNote": ""
  },
  {
    "id": "190201897",
    "name": "ライブラリ札幌定期巡回・随時対応型訪問介護看護事業所",
    "kana": "ライブラリサッポロテイキジュンカイ・ズイジタイオウガタホウモンカイゴカンゴジギョウショ",
    "address": "北海道札幌市東区北23条東17丁目1番10号ライブラリ元町 ライブラリ元町",
    "lat": 43.0931975,
    "lng": 141.3747671,
    "tel": "011-214-0322",
    "url": "",
    "pref": "北海道",
    "city": "札幌市東区",
    "category": "regular_patrol_nursing",
    "serviceType": "定期巡回・随時対応型訪問介護看護",
    "capacity": 0,
    "openDays": [],
    "openDaysNote": ""
  },
  {
    "id": "190201830",
    "name": "勤医協　訪問介護看護24時間　ひなた",
    "kana": "キンイキョウ　ホウモンカイゴカンゴニジュウヨジカン　ヒナタ",
    "address": "北海道札幌市東区伏古10条2丁目19番8号ひまわり伏古ビル1階 ひまわり伏古ビル1階",
    "lat": 43.0950096,
    "lng": 141.3958432,
    "tel": "011-786-7900",
    "url": "",
    "pref": "北海道",
    "city": "札幌市東区",
    "category": "regular_patrol_nursing",
    "serviceType": "定期巡回・随時対応型訪問介護看護",
    "capacity": 0,
    "openDays": [],
    "openDaysNote": ""
  },
  {
    "id": "190201640",
    "name": "福祉生協　東ラウンド24",
    "kana": "フクシセイキョウ　ヒガシラウンド24",
    "address": "北海道札幌市東区北10条東7丁目1-30イリス北10条 イリス北10条",
    "lat": 43.0747406,
    "lng": 141.3641353,
    "tel": "011-299-5825",
    "url": "https://www.hukushiseikyou.or.jp/",
    "pref": "北海道",
    "city": "札幌市東区",
    "category": "regular_patrol_nursing",
    "serviceType": "定期巡回・随時対応型訪問介護看護",
    "capacity": 58,
    "openDays": [],
    "openDaysNote": ""
  },
  {
    "id": "190501528",
    "name": "あいぜん24時間ケアサポートみなみ",
    "kana": "アイゼン２４ジカンケアサポートミナミ",
    "address": "北海道札幌市南区川沿14条2丁目1番36号すこやか愛ちゃんビル3階 すこやか愛ちゃんビル3階",
    "lat": 42.9772156,
    "lng": 141.3362517,
    "tel": "011-572-2400",
    "url": "http://www.aizenkai.or.jp",
    "pref": "北海道",
    "city": "札幌市南区",
    "category": "regular_patrol_nursing",
    "serviceType": "定期巡回・随時対応型訪問介護看護",
    "capacity": 0,
    "openDays": [],
    "openDaysNote": ""
  },
  {
    "id": "190501197",
    "name": "勤医協定期巡回・随時対応型訪問介護看護　もなみの里",
    "kana": "キンイキョウ　テイキジュンカイ・ズイジタイオウガタホウモンカイゴカンゴ　モナミノサト",
    "address": "北海道札幌市南区藤野3条4丁目15番35号",
    "lat": 42.9811347,
    "lng": 141.3426927,
    "tel": "011-590-8278",
    "url": "kin-minami-helper@kin-ikyo.jp",
    "pref": "北海道",
    "city": "札幌市南区",
    "category": "regular_patrol_nursing",
    "serviceType": "定期巡回・随時対応型訪問介護看護",
    "capacity": 0,
    "openDays": [],
    "openDaysNote": ""
  },
  {
    "id": "190502039",
    "name": "オストケアしろいし２４",
    "kana": "オストケアシロイシニジュウヨン",
    "address": "北海道札幌市白石区平和通１丁目南２番３号イオル平和通内 イオル平和通内",
    "lat": 43.0548867,
    "lng": 141.4061279,
    "tel": "011-867-2943",
    "url": "",
    "pref": "北海道",
    "city": "札幌市白石区",
    "category": "regular_patrol_nursing",
    "serviceType": "定期巡回・随時対応型訪問介護看護",
    "capacity": 0,
    "openDays": [],
    "openDaysNote": ""
  },
  {
    "id": "190500967",
    "name": "さくら定期巡回・随時対応型訪問介護看護事業所",
    "kana": "サクラテイキジュンカイズイジタイオウガタホウモンカイゴカンゴジギョウショ",
    "address": "北海道札幌市白石区東札幌4条4丁目1-18",
    "lat": 43.0513685602482,
    "lng": 141.391269074869,
    "tel": "011-827-7750",
    "url": "",
    "pref": "北海道",
    "city": "札幌市白石区",
    "category": "regular_patrol_nursing",
    "serviceType": "定期巡回・随時対応型訪問介護看護",
    "capacity": 0,
    "openDays": [],
    "openDaysNote": ""
  },
  {
    "id": "190503599",
    "name": "ノア地域巡回センター白石",
    "kana": "ノアチイキジュンカイセンターシロイシ",
    "address": "北海道札幌市白石区本郷通1丁目北1-7ノアガーデンセイベリッサ1F ノアガーデンセイベリッサ1F",
    "lat": 43.0500018,
    "lng": 141.4013096,
    "tel": "011-865-7005",
    "url": "https://www.noah-konzer.com/",
    "pref": "北海道",
    "city": "札幌市白石区",
    "category": "regular_patrol_nursing",
    "serviceType": "定期巡回・随時対応型訪問介護看護",
    "capacity": 0,
    "openDays": [],
    "openDaysNote": ""
  },
  {
    "id": "190501510",
    "name": "はばたきステーション２４",
    "kana": "ハバタキステーション２４",
    "address": "北海道札幌市白石区本郷通３丁目南４番１１号スピタール南郷丘　１階 スピタール南郷丘　１階",
    "lat": 43.0462958,
    "lng": 141.4055645,
    "tel": "011-863-6500",
    "url": "http://habataki.co.jp",
    "pref": "北海道",
    "city": "札幌市白石区",
    "category": "regular_patrol_nursing",
    "serviceType": "定期巡回・随時対応型訪問介護看護",
    "capacity": 0,
    "openDays": [],
    "openDaysNote": ""
  },
  {
    "id": "190502898",
    "name": "ライブラリ札幌白石定期巡回・随時対応型訪問介護看護事業所",
    "kana": "ライブラリサッポロシロイシテイキジュンカイズイジタイオウガタホウモンカイゴカンゴジギョウショ",
    "address": "北海道札幌市白石区北郷３条１丁目１番１８号ライブラリ白石はな壱号館 ライブラリ白石はな壱号館",
    "lat": 43.0645044,
    "lng": 141.4053804,
    "tel": "118798770",
    "url": "http://www.living-platform.com",
    "pref": "北海道",
    "city": "札幌市白石区",
    "category": "regular_patrol_nursing",
    "serviceType": "定期巡回・随時対応型訪問介護看護",
    "capacity": 1,
    "openDays": [],
    "openDaysNote": ""
  },
  {
    "id": "190501395",
    "name": "勤医協訪問介護看護２４時間うらら",
    "kana": "キンイキョウホウモンカイゴカンゴニジュウヨジカンウララ",
    "address": "北海道札幌市白石区米里１条４丁目６番１０号",
    "lat": 43.0716313748147,
    "lng": 141.419143804074,
    "tel": "011-874-1295",
    "url": "https://kin-fukushikai.jp/",
    "pref": "北海道",
    "city": "札幌市白石区",
    "category": "regular_patrol_nursing",
    "serviceType": "定期巡回・随時対応型訪問介護看護",
    "capacity": 0,
    "openDays": [],
    "openDaysNote": ""
  },
  {
    "id": "190502088",
    "name": "勤医協訪問介護看護２４時間オリーブ",
    "kana": "キンイキョウホウモンカイゴカンゴ２４ジカンオリーブ",
    "address": "北海道札幌市白石区本通７丁目北２－１６",
    "lat": 43.0465312,
    "lng": 141.4167765,
    "tel": "011-863-8233",
    "url": "https://kin-fukushikai.jp/",
    "pref": "北海道",
    "city": "札幌市白石区",
    "category": "regular_patrol_nursing",
    "serviceType": "定期巡回・随時対応型訪問介護看護",
    "capacity": null,
    "openDays": [],
    "openDaysNote": ""
  },
  {
    "id": "190500959",
    "name": "定期巡回・随時対応型訪問介護看護　徳洲苑しろいし",
    "kana": "テイキジュンカイ・ズイジタイオウガタホウモンカイゴカンゴ　トクシュウエンシロイシ",
    "address": "北海道札幌市白石区栄通18丁目4番10号",
    "lat": 43.0290874,
    "lng": 141.4311769,
    "tel": "011-836-1157",
    "url": "http://tokushuen-shiroishi.com/contents/about/",
    "pref": "北海道",
    "city": "札幌市白石区",
    "category": "regular_patrol_nursing",
    "serviceType": "定期巡回・随時対応型訪問介護看護",
    "capacity": 0,
    "openDays": [],
    "openDaysNote": ""
  },
  {
    "id": "190500876",
    "name": "福祉生協ラウンド２４",
    "kana": "フクシセイキョウラウンド２４",
    "address": "北海道札幌市白石区南郷通６丁目北２－１０イリス南郷通 イリス南郷通",
    "lat": 43.0422796,
    "lng": 141.4090421,
    "tel": "011-865-0011",
    "url": "http://www.hukushiseikyou.or.jp",
    "pref": "北海道",
    "city": "札幌市白石区",
    "category": "regular_patrol_nursing",
    "serviceType": "定期巡回・随時対応型訪問介護看護",
    "capacity": 0,
    "openDays": [],
    "openDaysNote": ""
  },
  {
    "id": "190501247",
    "name": "24時間訪問介護看護しらかば",
    "kana": "２４ジカンホウモンカイゴカンゴシラカバ",
    "address": "北海道札幌市豊平区月寒東3条18丁目20番48号サービス付き高齢者向け住宅　しらかばの杜 サービス付き高齢者向け住宅　しらかばの杜",
    "lat": 43.0185327,
    "lng": 141.4236421,
    "tel": "011-826-5516",
    "url": "http://www.kouwakai.or.jp/shirakabadai/mori.html",
    "pref": "北海道",
    "city": "札幌市豊平区",
    "category": "regular_patrol_nursing",
    "serviceType": "定期巡回・随時対応型訪問介護看護",
    "capacity": 0,
    "openDays": [],
    "openDaysNote": ""
  },
  {
    "id": "190503565",
    "name": "SOMPOケア　豊平　定期巡回",
    "kana": "ソンポケア　トヨヒラ　テイキジュンカイ",
    "address": "豊平3条1丁目1番38号",
    "lat": 43.05542,
    "lng": 141.3660145,
    "tel": "011-887-0303",
    "url": "https://www.sompocare.com/service/home/satsuki/H000469",
    "pref": "北海道",
    "city": "札幌市豊平区",
    "category": "regular_patrol_nursing",
    "serviceType": "定期巡回・随時対応型訪問介護看護",
    "capacity": null,
    "openDays": [],
    "openDaysNote": ""
  },
  {
    "id": "190501288",
    "name": "オストケアとよひら24",
    "kana": "オストケアトヨヒラニジュウヨン",
    "address": "北海道札幌市豊平区美園7条3丁目２－１イオル美園 イオル美園",
    "lat": 43.0393625,
    "lng": 141.3825558,
    "tel": "011-817-2943",
    "url": "http://www.ost-japan.com/",
    "pref": "北海道",
    "city": "札幌市豊平区",
    "category": "regular_patrol_nursing",
    "serviceType": "定期巡回・随時対応型訪問介護看護",
    "capacity": 0,
    "openDays": [],
    "openDaysNote": ""
  },
  {
    "id": "190502740",
    "name": "ノア地域巡回センター月寒西",
    "kana": "ノアチイキジュンカイセンターツキサムニシ",
    "address": "北海道豊平区月寒西2条8丁目3-8ノアガーデン　アビークロエ ノアガーデン　アビークロエ",
    "lat": 43.0279228,
    "lng": 141.3926176,
    "tel": "011-852-1015",
    "url": "http://www.noah-konzer.com/",
    "pref": "北海道",
    "city": "札幌市豊平区",
    "category": "regular_patrol_nursing",
    "serviceType": "定期巡回・随時対応型訪問介護看護",
    "capacity": 0,
    "openDays": [],
    "openDaysNote": ""
  },
  {
    "id": "190502583",
    "name": "ノア地域巡回センター福住中央",
    "kana": "ノアチイキジュンカイセンターフクズミチュウオウ",
    "address": "北海道札幌市豊平区福住1条2丁目9-23ノアガーデンペイサージュ　1階 ノアガーデンペイサージュ　1階",
    "lat": 43.0188104,
    "lng": 141.3999624,
    "tel": "011-850-2001",
    "url": "http://www.noah-konzer.com/",
    "pref": "北海道",
    "city": "札幌市豊平区",
    "category": "regular_patrol_nursing",
    "serviceType": "定期巡回・随時対応型訪問介護看護",
    "capacity": 0,
    "openDays": [],
    "openDaysNote": ""
  },
  {
    "id": "190502641",
    "name": "ノア地域巡回センター福住南",
    "kana": "ノアチイキジュンカイセンターフクズミミナミ",
    "address": "北海道札幌市豊平区福住1条5丁目3-1ノアガーデン　シーズンベル1F ノアガーデン　シーズンベル1F",
    "lat": 43.0151413,
    "lng": 141.3948359,
    "tel": "011-859-3001",
    "url": "https://www.noah-konzer.com/",
    "pref": "北海道",
    "city": "札幌市豊平区",
    "category": "regular_patrol_nursing",
    "serviceType": "定期巡回・随時対応型訪問介護看護",
    "capacity": 0,
    "openDays": [],
    "openDaysNote": ""
  },
  {
    "id": "190502369",
    "name": "リボン定期巡回センター平岸",
    "kana": "リボンテイキジュンカイセンターヒラギシ",
    "address": "北海道札幌市豊平区平岸1条13丁目4-11",
    "lat": 43.0265775,
    "lng": 141.364415,
    "tel": "011-837-2727",
    "url": "https://goldhills-hiragishi.jp/",
    "pref": "北海道",
    "city": "札幌市豊平区",
    "category": "regular_patrol_nursing",
    "serviceType": "定期巡回・随時対応型訪問介護看護",
    "capacity": 47,
    "openDays": [],
    "openDaysNote": ""
  },
  {
    "id": "190501270",
    "name": "勤医協訪問介護看護２４時間つなぐ",
    "kana": "キンイキョウホウモンカイゴカンゴ２４ジカン　ツナグ",
    "address": "北海道札幌市豊平区平岸６条１２丁目９-２５",
    "lat": 43.0272388,
    "lng": 141.3796511,
    "tel": "011-820-4037",
    "url": "",
    "pref": "北海道",
    "city": "札幌市豊平区",
    "category": "regular_patrol_nursing",
    "serviceType": "定期巡回・随時対応型訪問介護看護",
    "capacity": 0,
    "openDays": [],
    "openDaysNote": ""
  },
  {
    "id": "190501437",
    "name": "西岡定期巡回ステーション",
    "kana": "ニシオカテイキジュンカイステーション",
    "address": "北海道札幌市豊平区西岡4条10丁目3番3号カペラ西岡 カペラ西岡",
    "lat": 43.0014512,
    "lng": 141.3842444,
    "tel": "011-836-3737",
    "url": "",
    "pref": "北海道",
    "city": "札幌市豊平区",
    "category": "regular_patrol_nursing",
    "serviceType": "定期巡回・随時対応型訪問介護看護",
    "capacity": 0,
    "openDays": [],
    "openDaysNote": ""
  },
  {
    "id": "190200576",
    "name": "さっぽろ訪問介護看護事業所24",
    "kana": "サッポロホウモンカイゴカンゴジギョウショニジュウヨン",
    "address": "北海道札幌市北区屯田8条9丁目3-7",
    "lat": 43.1419345,
    "lng": 141.3239706,
    "tel": "011-775-2778",
    "url": "",
    "pref": "北海道",
    "city": "札幌市北区",
    "category": "regular_patrol_nursing",
    "serviceType": "定期巡回・随時対応型訪問介護看護",
    "capacity": 0,
    "openDays": [],
    "openDaysNote": ""
  },
  {
    "id": "190202044",
    "name": "メディケア花水木",
    "kana": "メディケアハナミズキ",
    "address": "北海道札幌市北区新川7条16丁目709-6はなみずき新川 はなみずき新川",
    "lat": 43.119168,
    "lng": 141.300623,
    "tel": "011-790-7246",
    "url": "https://atlsakura-kaigofukushi.com/facility/nursingcare-hanamizuki/",
    "pref": "北海道",
    "city": "札幌市北区",
    "category": "regular_patrol_nursing",
    "serviceType": "定期巡回・随時対応型訪問介護看護",
    "capacity": null,
    "openDays": [],
    "openDaysNote": ""
  },
  {
    "id": "190201822",
    "name": "勤医協訪問介護看護２４時間のぞみ",
    "kana": "キンイキョウホウモンカイゴカンゴ２４ジカンノゾミ",
    "address": "北海道札幌市北区北32条西8丁目1番1号",
    "lat": 43.0982446,
    "lng": 141.3357907,
    "tel": "011-299-1602",
    "url": "https://kin-fukushikai.jp/",
    "pref": "北海道",
    "city": "札幌市北区",
    "category": "regular_patrol_nursing",
    "serviceType": "定期巡回・随時対応型訪問介護看護",
    "capacity": 0,
    "openDays": [],
    "openDaysNote": ""
  },
  {
    "id": "190202085",
    "name": "勤医協訪問介護看護24時間ひかり",
    "kana": "キンイキョウホウモンカイゴカンゴ24ジカン　ヒカリ",
    "address": "北海道札幌市北区篠路6条1丁目1番1号",
    "lat": 43.1506933,
    "lng": 141.3516196,
    "tel": "117752899",
    "url": "https://kin-fukushikai.jp/",
    "pref": "北海道",
    "city": "札幌市北区",
    "category": "regular_patrol_nursing",
    "serviceType": "定期巡回・随時対応型訪問介護看護",
    "capacity": null,
    "openDays": [],
    "openDaysNote": ""
  },
  {
    "id": "190201731",
    "name": "定期巡回・随時対応型訪問介護看護　れもん",
    "kana": "テイキジュンカイ・ズイジタイオウガタホウモンカイゴカンゴ　レモン",
    "address": "北海道札幌市北区篠路１条７丁目3-20",
    "lat": 43.1402748,
    "lng": 141.3638096,
    "tel": "011-773-5588",
    "url": "",
    "pref": "北海道",
    "city": "札幌市北区",
    "category": "regular_patrol_nursing",
    "serviceType": "定期巡回・随時対応型訪問介護看護",
    "capacity": 0,
    "openDays": [],
    "openDaysNote": ""
  },
  {
    "id": "190201137",
    "name": "定期巡回・随時対応型訪問介護看護事業所ぽらりす屯田",
    "kana": "テイキジュンカイズイジタイオウガタホウモンカイゴカンゴジギョウショポラリストンデン",
    "address": "北海道札幌市北区屯田7条10丁目2番10号ぽらりす屯田 ぽらりす屯田",
    "lat": 43.1380737,
    "lng": 141.3200711,
    "tel": "011-788-3216",
    "url": "http://takuhou.jp/",
    "pref": "北海道",
    "city": "札幌市北区",
    "category": "regular_patrol_nursing",
    "serviceType": "定期巡回・随時対応型訪問介護看護",
    "capacity": 0,
    "openDays": [],
    "openDaysNote": ""
  },
  {
    "id": "190201707",
    "name": "定期巡回センター花時計",
    "kana": "テイキジュンカイセンターハナドケイ",
    "address": "北海道札幌市北区北２３条西３丁目１－５楽明館２３ 楽明館２３",
    "lat": 43.0890048601034,
    "lng": 141.345916713492,
    "tel": "011-776-7500",
    "url": "http://rakumeikan.co.jp/",
    "pref": "北海道",
    "city": "札幌市北区",
    "category": "regular_patrol_nursing",
    "serviceType": "定期巡回・随時対応型訪問介護看護",
    "capacity": 29,
    "openDays": [],
    "openDaysNote": ""
  },
  {
    "id": "191513548",
    "name": "定期巡回・随時対応型訪問介護看護ケアコールセンター小華苑",
    "kana": "テイキジュンカイズイジタイオウガタホウモンカイゴカンゴケアコールセンターショウカエン",
    "address": "北海道亀田郡七飯町大川3丁目18番12号",
    "lat": 41.8567392,
    "lng": 140.7244847,
    "tel": "0138-86-7501",
    "url": "https://www.kso-wasya-2014.com/",
    "pref": "北海道",
    "city": "七飯町",
    "category": "regular_patrol_nursing",
    "serviceType": "定期巡回・随時対応型訪問介護看護",
    "capacity": 85,
    "openDays": [],
    "openDaysNote": ""
  },
  {
    "id": "192100071",
    "name": "寿都訪問介護センター",
    "kana": "スッツホウモンカイゴセンター",
    "address": "北海道寿都郡寿都町字歌棄町歌棄48番地2",
    "lat": 42.7729161,
    "lng": 140.3011445,
    "tel": "0136-64-5550",
    "url": "",
    "pref": "北海道",
    "city": "寿都町",
    "category": "regular_patrol_nursing",
    "serviceType": "定期巡回・随時対応型訪問介護看護",
    "capacity": 0,
    "openDays": [],
    "openDaysNote": ""
  },
  {
    "id": "192000172",
    "name": "ケア・オフィス　優　（介護看護課）",
    "kana": "ケア・オフィス　ユウ　（カイゴカンゴカ）",
    "address": "小樽市入船3丁目7番21号",
    "lat": 43.1792962,
    "lng": 140.9960182,
    "tel": "0134-22-3951",
    "url": "http://www.office-yu.com/",
    "pref": "北海道",
    "city": "小樽市",
    "category": "regular_patrol_nursing",
    "serviceType": "定期巡回・随時対応型訪問介護看護",
    "capacity": 0,
    "openDays": [],
    "openDaysNote": ""
  },
  {
    "id": "192000297",
    "name": "定期巡回・随時対応型訪問介護センターアザレア",
    "kana": "テイキジュンカイ・ズイジタイオウガタホウモンカイゴセンターアザレア",
    "address": "北海道小樽市入船4丁目28番1号",
    "lat": 43.1828347,
    "lng": 140.9935127,
    "tel": "0134-61-1753",
    "url": "",
    "pref": "北海道",
    "city": "小樽市",
    "category": "regular_patrol_nursing",
    "serviceType": "定期巡回・随時対応型訪問介護看護",
    "capacity": 25,
    "openDays": [],
    "openDaysNote": ""
  },
  {
    "id": "192000511",
    "name": "訪問介護事業所サポートユアライフ",
    "kana": "ホウモンカイゴジギョウショサポートユアライフ",
    "address": "北海道小樽市銭函1丁目32番-2住宅型有料老人ホームCOCO輝楽 住宅型有料老人ホームCOCO輝楽",
    "lat": 43.1446431292541,
    "lng": 141.144827991402,
    "tel": "0134-61-5050",
    "url": "http://www.oira-ku.com",
    "pref": "北海道",
    "city": "小樽市",
    "category": "regular_patrol_nursing",
    "serviceType": "定期巡回・随時対応型訪問介護看護",
    "capacity": 0,
    "openDays": [],
    "openDaysNote": ""
  },
  {
    "id": "191513761",
    "name": "サムハラ巡回ケアセンター",
    "kana": "サムハラジュンカイケアセンター",
    "address": "北海道茅部郡森町字本町45番地1",
    "lat": 42.1088981,
    "lng": 140.5714531,
    "tel": "01374-7-1590",
    "url": "http://hp.kaipoke.biz/hbu/",
    "pref": "北海道",
    "city": "森町",
    "category": "regular_patrol_nursing",
    "serviceType": "定期巡回・随時対応型訪問介護看護",
    "capacity": 0,
    "openDays": [],
    "openDaysNote": ""
  },
  {
    "id": "197400153",
    "name": "サポート24深川",
    "kana": "サポートニジュウヨンフカガワ",
    "address": "北海道深川市3条8番13号2階 2階",
    "lat": 43.7192104998366,
    "lng": 142.042604021729,
    "tel": "070-4799-2096",
    "url": "http://lifedesign-gr.jp/",
    "pref": "北海道",
    "city": "深川市",
    "category": "regular_patrol_nursing",
    "serviceType": "定期巡回・随時対応型訪問介護看護",
    "capacity": 0,
    "openDays": [],
    "openDaysNote": ""
  },
  {
    "id": "197400161",
    "name": "定期巡回ステーションみんソラ",
    "kana": "テイキジュンカイステーションミンソラ",
    "address": "北海道深川市広里町2-3-2",
    "lat": 43.708541,
    "lng": 142.0520099,
    "tel": "0164-34-5330",
    "url": "",
    "pref": "北海道",
    "city": "深川市",
    "category": "regular_patrol_nursing",
    "serviceType": "定期巡回・随時対応型訪問介護看護",
    "capacity": 0,
    "openDays": [],
    "openDaysNote": ""
  },
  {
    "id": "197600554",
    "name": "定期巡回・随時対応型訪問介護看護　トムテの里　『花川』",
    "kana": "テイキジュンカイ・ズイジタイオウガタホウモンカイゴカンゴ　トムテノサト　ハナカワ",
    "address": "北海道石狩市花川北６条２丁目３０番地トムテの里『花川』Ａ棟 トムテの里『花川』Ａ棟",
    "lat": 43.1672046,
    "lng": 141.3177723,
    "tel": "0133-75-2131",
    "url": "",
    "pref": "北海道",
    "city": "石狩市",
    "category": "regular_patrol_nursing",
    "serviceType": "定期巡回・随時対応型訪問介護看護",
    "capacity": 0,
    "openDays": [],
    "openDaysNote": ""
  },
  {
    "id": "197600448",
    "name": "定期巡回・随時対応型訪問介護看護あるふぁ",
    "kana": "テイキジュンカイズイジタイオウガタ　ホウモンカイゴカンゴアルファ",
    "address": "北海道石狩市花川東２条３丁目２８番地",
    "lat": 43.1671433,
    "lng": 141.3400486,
    "tel": "0133-77-6623",
    "url": "http://www.koyama-hokkaido.com/",
    "pref": "北海道",
    "city": "石狩市",
    "category": "regular_patrol_nursing",
    "serviceType": "定期巡回・随時対応型訪問介護看護",
    "capacity": null,
    "openDays": [],
    "openDaysNote": ""
  },
  {
    "id": "197600521",
    "name": "定期巡回・随時対応型訪問介護看護事業所あるふぁ",
    "kana": "テイキジュンカイズイジタイオウガタホウモンカイゴカンゴジギョウショアルファ",
    "address": "北海道石狩市花川東2条3丁目28番地",
    "lat": 43.1671587,
    "lng": 141.3400291,
    "tel": "0133-77-6623",
    "url": "https://koseikai-star.com/",
    "pref": "北海道",
    "city": "石狩市",
    "category": "regular_patrol_nursing",
    "serviceType": "定期巡回・随時対応型訪問介護看護",
    "capacity": null,
    "openDays": [],
    "openDaysNote": ""
  },
  {
    "id": "191100205",
    "name": "２４時間ゆうしんかん訪問介護・看護ステーション",
    "kana": "ニジュウヨジカンホウモンカイゴ・カンゴステーション",
    "address": "北海道千歳市みどり台北２丁目５番１５号",
    "lat": 42.8630015,
    "lng": 141.6137189,
    "tel": "0123-21-8126",
    "url": "https://www.yushinkan.co/",
    "pref": "北海道",
    "city": "千歳市",
    "category": "regular_patrol_nursing",
    "serviceType": "定期巡回・随時対応型訪問介護看護",
    "capacity": null,
    "openDays": [],
    "openDaysNote": ""
  },
  {
    "id": "191100288",
    "name": "ケアコールセンター・グラン・セラ",
    "kana": "ケアコールセンター・グラン・セラ",
    "address": "北海道千歳市里美2丁目2番６号第3ビジュアルコーポ101号 第3ビジュアルコーポ101号",
    "lat": 42.7853391751833,
    "lng": 141.599876823274,
    "tel": "0123-25-8058",
    "url": "http://mcl-gc.com/",
    "pref": "北海道",
    "city": "千歳市",
    "category": "regular_patrol_nursing",
    "serviceType": "定期巡回・随時対応型訪問介護看護",
    "capacity": null,
    "openDays": [],
    "openDaysNote": ""
  },
  {
    "id": "194600581",
    "name": "サポート24　帯広",
    "kana": "サポートニジュウヨン　オビヒロ",
    "address": "北海道帯広市西7条南6丁目1番地4",
    "lat": 42.9252122,
    "lng": 143.1932105,
    "tel": "0155-22-3818",
    "url": "http://lifedesign-gr.jp/",
    "pref": "北海道",
    "city": "帯広市",
    "category": "regular_patrol_nursing",
    "serviceType": "定期巡回・随時対応型訪問介護看護",
    "capacity": 0,
    "openDays": [],
    "openDaysNote": ""
  },
  {
    "id": "194600714",
    "name": "サポート24帯広",
    "kana": "サポートニジュウヨンオビヒロ",
    "address": "北海道帯広市西7条南6丁目1番地4",
    "lat": 42.9251204,
    "lng": 143.1932812,
    "tel": "0155-22-3818",
    "url": "https://lifedesign-group.net",
    "pref": "北海道",
    "city": "帯広市",
    "category": "regular_patrol_nursing",
    "serviceType": "定期巡回・随時対応型訪問介護看護",
    "capacity": null,
    "openDays": [],
    "openDaysNote": ""
  },
  {
    "id": "194600649",
    "name": "社会医療法人北斗定期巡回・随時対応型訪問介護看護あやとり",
    "kana": "シャカイイリョウホウジンホクトテイキジュンカイズイジタイオウガタホウモンカイゴカンゴアヤトリ",
    "address": "北海道帯広市稲田町基線２番地１",
    "lat": 42.8852654,
    "lng": 143.192391,
    "tel": "0155-48-3510",
    "url": "https://www.hokuto7.or.jp/",
    "pref": "北海道",
    "city": "帯広市",
    "category": "regular_patrol_nursing",
    "serviceType": "定期巡回・随時対応型訪問介護看護",
    "capacity": 0,
    "openDays": [],
    "openDaysNote": ""
  },
  {
    "id": "194600268",
    "name": "定期巡回・随時対応型訪問介護看護　青空",
    "kana": "テイキジュンカイズイジタイオウガタホウモンカイゴカンゴ　アオゾラ",
    "address": "帯広市西9条南18丁目2番地",
    "lat": 42.9110058,
    "lng": 143.1918595,
    "tel": "0155-27-6610",
    "url": "http://www.hokuoservice.jp/index.html",
    "pref": "北海道",
    "city": "帯広市",
    "category": "regular_patrol_nursing",
    "serviceType": "定期巡回・随時対応型訪問介護看護",
    "capacity": 0,
    "openDays": [],
    "openDaysNote": ""
  },
  {
    "id": "193600590",
    "name": "勤医協２４時間訪問介護看護つくし",
    "kana": "キンイキョウニジュウヨジカンホウモンカイゴカンゴツクシ",
    "address": "北海道苫小牧市山手町２丁目１４番９号苫小牧高齢者複合施設みやまの里 苫小牧高齢者複合施設みやまの里",
    "lat": 42.640578,
    "lng": 141.570976,
    "tel": "0144-84-3521",
    "url": "http://kin-fukushikai.jp/",
    "pref": "北海道",
    "city": "苫小牧市",
    "category": "regular_patrol_nursing",
    "serviceType": "定期巡回・随時対応型訪問介護看護",
    "capacity": null,
    "openDays": [],
    "openDaysNote": ""
  },
  {
    "id": "193800133",
    "name": "富川グロリアホーム",
    "kana": "トミカワグロリアホーム",
    "address": "北海道沙流郡日高町富川南４丁目２番49号",
    "lat": 42.5171285345299,
    "lng": 142.023251448718,
    "tel": "01456-3-4000",
    "url": "http://www.gloria-home.jp/",
    "pref": "北海道",
    "city": "日高町",
    "category": "regular_patrol_nursing",
    "serviceType": "定期巡回・随時対応型訪問介護看護",
    "capacity": 0,
    "openDays": [],
    "openDaysNote": ""
  },
  {
    "id": "191400951",
    "name": "ＳＯＭＰＯケア函館昭和　定期巡回",
    "kana": "ソンポケアハコダテショウワ　テイキジュンカイ",
    "address": "北海道函館市昭和4丁目30-35ＳＯＭＰＯケア　そんぽの家函館昭和 ＳＯＭＰＯケア　そんぽの家函館昭和",
    "lat": 41.8166858,
    "lng": 140.7319664,
    "tel": "0138-44-0105",
    "url": "https://www.sompocare.com",
    "pref": "北海道",
    "city": "函館市",
    "category": "regular_patrol_nursing",
    "serviceType": "定期巡回・随時対応型訪問介護看護",
    "capacity": 0,
    "openDays": [],
    "openDaysNote": ""
  },
  {
    "id": "191401488",
    "name": "グッドタイムサポート・鍛治",
    "kana": "グッドタイムサポート　カジ",
    "address": "北海道函館市鍛治2丁目35番19号スワローズネスト206号 スワローズネスト206号",
    "lat": 41.8100240696579,
    "lng": 140.77012360096,
    "tel": "0138-33-6555",
    "url": "https://goodtimehome-north.com/",
    "pref": "北海道",
    "city": "函館市",
    "category": "regular_patrol_nursing",
    "serviceType": "定期巡回・随時対応型訪問介護看護",
    "capacity": 0,
    "openDays": [],
    "openDaysNote": ""
  },
  {
    "id": "191400829",
    "name": "グッドタイムサポート・鍛冶",
    "kana": "グッドタイムサポート・カジ",
    "address": "北海道函館市鍛治2丁目35番22号グッドタイムホーム鍛冶 グッドタイムホーム鍛冶",
    "lat": 41.8032216,
    "lng": 140.7592649,
    "tel": "0138-33-6555",
    "url": "",
    "pref": "北海道",
    "city": "函館市",
    "category": "regular_patrol_nursing",
    "serviceType": "定期巡回・随時対応型訪問介護看護",
    "capacity": null,
    "openDays": [],
    "openDaysNote": ""
  },
  {
    "id": "191401009",
    "name": "ケアコールセンターあんじゅう",
    "kana": "ケアコールセンターアンジュウ",
    "address": "北海道函館市日乃出町3-9",
    "lat": 41.7742019,
    "lng": 140.7540279,
    "tel": "0138-86-5420",
    "url": "https://anjyuu.com/",
    "pref": "北海道",
    "city": "函館市",
    "category": "regular_patrol_nursing",
    "serviceType": "定期巡回・随時対応型訪問介護看護",
    "capacity": 0,
    "openDays": [],
    "openDaysNote": ""
  },
  {
    "id": "191401025",
    "name": "サポート24　函館",
    "kana": "サポート24　ハコダテ",
    "address": "北海道函館市本通2丁目39番21号",
    "lat": 41.8000808101112,
    "lng": 140.769956177081,
    "tel": "0138-83-7677",
    "url": "https://lifedesign-gr.jp/",
    "pref": "北海道",
    "city": "函館市",
    "category": "regular_patrol_nursing",
    "serviceType": "定期巡回・随時対応型訪問介護看護",
    "capacity": 0,
    "openDays": [],
    "openDaysNote": ""
  },
  {
    "id": "191400605",
    "name": "ハッピーライフ彩絆",
    "kana": "ハッピーライフイロハ",
    "address": "北海道函館市日乃出町20番17号",
    "lat": 41.7762625338813,
    "lng": 140.753501570279,
    "tel": "0138-84-6022",
    "url": "",
    "pref": "北海道",
    "city": "函館市",
    "category": "regular_patrol_nursing",
    "serviceType": "定期巡回・随時対応型訪問介護看護",
    "capacity": 0,
    "openDays": [],
    "openDaysNote": ""
  },
  {
    "id": "191400472",
    "name": "ホームケア定期巡回・随時対応型訪問介護看護事業所",
    "kana": "ホームケアテイキジュンカイ・ズイジタイオウガタホウモンカイゴカンゴジギョウショ",
    "address": "北海道函館市神山町２４６－１",
    "lat": 41.8215684138093,
    "lng": 140.764488008521,
    "tel": "0138-30-1105",
    "url": "https://supportlife1995.co.jp/homecare/",
    "pref": "北海道",
    "city": "函館市",
    "category": "regular_patrol_nursing",
    "serviceType": "定期巡回・随時対応型訪問介護看護",
    "capacity": 15,
    "openDays": [],
    "openDaysNote": ""
  },
  {
    "id": "191400985",
    "name": "メディケアサポートまつかわ",
    "kana": "メディケアサポートマツカワ",
    "address": "北海道函館市松川町41番17号",
    "lat": 41.7870002,
    "lng": 140.7371618,
    "tel": "0138-40-5600",
    "url": "https://www.fukase.or.jp/facilities/medicare-matsukawa/",
    "pref": "北海道",
    "city": "函館市",
    "category": "regular_patrol_nursing",
    "serviceType": "定期巡回・随時対応型訪問介護看護",
    "capacity": null,
    "openDays": [],
    "openDaysNote": ""
  },
  {
    "id": "191400340",
    "name": "よろこび定期巡回・随時対応型訪問介護看護事業所",
    "kana": "ヨロコビテイキジュンカイ・ズイジタイオウガタホウモンカイゴカンゴジギョウショ",
    "address": "函館市住吉町2番13号",
    "lat": 41.750584,
    "lng": 140.7162539,
    "tel": "0138-22-3225",
    "url": "http://www.kojinkai-g.com/",
    "pref": "北海道",
    "city": "函館市",
    "category": "regular_patrol_nursing",
    "serviceType": "定期巡回・随時対応型訪問介護看護",
    "capacity": 0,
    "openDays": [],
    "openDaysNote": ""
  },
  {
    "id": "191401090",
    "name": "共愛会ケアステーション",
    "kana": "キョウアイアカイケアステーション",
    "address": "北海道函館市海岸町6-3",
    "lat": 41.7854063,
    "lng": 140.7403852,
    "tel": "0138-86-7540",
    "url": "",
    "pref": "北海道",
    "city": "函館市",
    "category": "regular_patrol_nursing",
    "serviceType": "定期巡回・随時対応型訪問介護看護",
    "capacity": 0,
    "openDays": [],
    "openDaysNote": ""
  },
  {
    "id": "191400506",
    "name": "社会医療法人函館博栄会　定期巡回ステーションあじさい",
    "kana": "シャカイイリョウホウジン　ハコダテハクエイカイ　テイキジュンカイステーションアジサイ",
    "address": "北海道函館市湯川町2丁目15番3号高齢者複合施設ケアタウン昭里（あかり） 高齢者複合施設ケアタウン昭里（あかり）",
    "lat": 41.7782060785126,
    "lng": 140.790700025131,
    "tel": "0138-59-5585",
    "url": "http://www.hakodatewatanabe.or.jp/akari/",
    "pref": "北海道",
    "city": "函館市",
    "category": "regular_patrol_nursing",
    "serviceType": "定期巡回・随時対応型訪問介護看護",
    "capacity": 0,
    "openDays": [],
    "openDaysNote": ""
  },
  {
    "id": "191401165",
    "name": "巡回ステーション白ゆり美原",
    "kana": "ジュンカイステーションシラユリミハラ",
    "address": "北海道函館市美原2丁目50番2号ライフプレステージ白ゆり美原 ライフプレステージ白ゆり美原",
    "lat": 41.8225064,
    "lng": 140.7594626,
    "tel": "0138-34-3239",
    "url": "http://www.shirayuri.gr.jp/",
    "pref": "北海道",
    "city": "函館市",
    "category": "regular_patrol_nursing",
    "serviceType": "定期巡回・随時対応型訪問介護看護",
    "capacity": null,
    "openDays": [],
    "openDaysNote": ""
  },
  {
    "id": "191401504",
    "name": "定期巡回・随時対応型訪問介護看護　アイリー",
    "kana": "テイキジュンカイ・ズイジタイオウガタホウモンカイゴカンゴ　アイリー",
    "address": "函館市石川町463番地8",
    "lat": 41.834045,
    "lng": 140.7452707,
    "tel": "0138-86-6286",
    "url": "",
    "pref": "北海道",
    "city": "函館市",
    "category": "regular_patrol_nursing",
    "serviceType": "定期巡回・随時対応型訪問介護看護",
    "capacity": 0,
    "openDays": [],
    "openDaysNote": ""
  },
  {
    "id": "191400480",
    "name": "定期巡回・随時対応型訪問介護看護テーオーケアサービス",
    "kana": "テイキジュンカイ・ズイジタイオウガタホウモンカイゴカンゴテーオーケアサービス",
    "address": "北海道函館市北浜町5番12号",
    "lat": 41.7974184,
    "lng": 140.7272983,
    "tel": "0138-45-1011",
    "url": "https://to-ogasawara.co.jp",
    "pref": "北海道",
    "city": "函館市",
    "category": "regular_patrol_nursing",
    "serviceType": "定期巡回・随時対応型訪問介護看護",
    "capacity": 0,
    "openDays": [],
    "openDaysNote": ""
  },
  {
    "id": "191400746",
    "name": "定期巡回・随時対応型訪問介護看護テーオーケアサービス",
    "kana": "テイキジュンカイ・ズイジタイオウガタホウモンカイゴカンゴテーオーケアサービス",
    "address": "北海道函館市北浜町5-12",
    "lat": 41.7975434,
    "lng": 140.7278787,
    "tel": "0138-45-1011",
    "url": "https://tohd.co.jp/distribution/heart/",
    "pref": "北海道",
    "city": "函館市",
    "category": "regular_patrol_nursing",
    "serviceType": "定期巡回・随時対応型訪問介護看護",
    "capacity": 0,
    "openDays": [],
    "openDaysNote": ""
  },
  {
    "id": "191401207",
    "name": "定期巡回・随時対応型訪問介護看護わらく",
    "kana": "テイキジュンカイ・ズイジタイオウガタホウモンカイゴカンゴワラク",
    "address": "北海道函館市石川町４６４－１",
    "lat": 41.8348811,
    "lng": 140.7432114,
    "tel": "0138-85-6688",
    "url": "",
    "pref": "北海道",
    "city": "函館市",
    "category": "regular_patrol_nursing",
    "serviceType": "定期巡回・随時対応型訪問介護看護",
    "capacity": null,
    "openDays": [],
    "openDaysNote": ""
  },
  {
    "id": "191400613",
    "name": "定期巡回あーる",
    "kana": "テイキジュンカイアール",
    "address": "北海道函館市本町３５番１号",
    "lat": 41.7885861,
    "lng": 140.7356007,
    "tel": "0138-41-9911",
    "url": "",
    "pref": "北海道",
    "city": "函館市",
    "category": "regular_patrol_nursing",
    "serviceType": "定期巡回・随時対応型訪問介護看護",
    "capacity": 0,
    "openDays": [],
    "openDaysNote": ""
  },
  {
    "id": "191401264",
    "name": "定期巡回ハートTOハート",
    "kana": "テイキジュンカイハートトゥハート",
    "address": "北海道函館市北浜町5番12",
    "lat": 41.7974445,
    "lng": 140.7272945,
    "tel": "0138-45-1011",
    "url": "https://www.nagisa-ph.co.jp/hearttoheart/",
    "pref": "北海道",
    "city": "函館市",
    "category": "regular_patrol_nursing",
    "serviceType": "定期巡回・随時対応型訪問介護看護",
    "capacity": null,
    "openDays": [],
    "openDaysNote": ""
  },
  {
    "id": "195003249",
    "name": "結の郷花畑定期巡回・随時対応型訪問介護看護事業所",
    "kana": "ユイノサトハナバタケテイキジュンカイズイジタイオウガタホウモンカイゴカンゴジギョウショ",
    "address": "北海道北見市小泉246番地2",
    "lat": 43.8289267,
    "lng": 143.9241353,
    "tel": "0157-31-8108",
    "url": "https://yuinosato.life",
    "pref": "北海道",
    "city": "北見市",
    "category": "regular_patrol_nursing",
    "serviceType": "定期巡回・随時対応型訪問介護看護",
    "capacity": null,
    "openDays": [],
    "openDaysNote": ""
  },
  {
    "id": "195003280",
    "name": "定期巡回サービスたんぽぽ",
    "kana": "テイキジュンカイサービスタンポポ",
    "address": "北見市常盤町5丁目9番地5",
    "lat": 43.7918975,
    "lng": 143.8892584,
    "tel": "0157-22-5658",
    "url": "http://www.o-kinikyo.or.jp/pdf/2024jyunkai.pdf",
    "pref": "北海道",
    "city": "北見市",
    "category": "regular_patrol_nursing",
    "serviceType": "定期巡回・随時対応型訪問介護看護",
    "capacity": 0,
    "openDays": [],
    "openDaysNote": ""
  },
  {
    "id": "195003033",
    "name": "定期随時訪問サービス夢ふうせん",
    "kana": "テイキズイジホウモンサービスユメフウセン",
    "address": "北海道北見市西三輪4丁目720番地１夢ふうせんこぶし内 夢ふうせんこぶし内",
    "lat": 43.7999333,
    "lng": 143.8316311,
    "tel": "0157-57-5151",
    "url": "http://www.e-mlink.co.jp",
    "pref": "北海道",
    "city": "北見市",
    "category": "regular_patrol_nursing",
    "serviceType": "定期巡回・随時対応型訪問介護看護",
    "capacity": 0,
    "openDays": [],
    "openDaysNote": ""
  },
  {
    "id": "195003314",
    "name": "定期随時訪問サービス夢ふうせん",
    "kana": "テイキズイジホウモンサービスユメフウセン",
    "address": "北海道北見市西三輪4丁目720－1",
    "lat": 43.7998809,
    "lng": 143.8315546,
    "tel": "0157-57-5151",
    "url": "",
    "pref": "北海道",
    "city": "北見市",
    "category": "regular_patrol_nursing",
    "serviceType": "定期巡回・随時対応型訪問介護看護",
    "capacity": null,
    "openDays": [],
    "openDaysNote": ""
  },
  {
    "id": "191300193",
    "name": "北広島ホームヘルプサービスステーション四恩園",
    "kana": "キタヒロシマホームヘルプサービスステーションシオンエン",
    "address": "北海道北広島市緑陽町1丁目２番",
    "lat": 34.508041,
    "lng": 133.3698881,
    "tel": "011-373-7755",
    "url": "http://www.shionen.or.jp",
    "pref": "北海道",
    "city": "北広島市",
    "category": "regular_patrol_nursing",
    "serviceType": "定期巡回・随時対応型訪問介護看護",
    "capacity": 0,
    "openDays": [],
    "openDaysNote": ""
  },
  {
    "id": "193200193",
    "name": "サービス付き高齢者向け住宅モモ",
    "kana": "サービスツキコウレイシャムケジュウタクモモ",
    "address": "北海道名寄市西３条南３丁目７",
    "lat": 44.3534359,
    "lng": 142.4587361,
    "tel": "01654-3-8746",
    "url": "",
    "pref": "北海道",
    "city": "名寄市",
    "category": "regular_patrol_nursing",
    "serviceType": "定期巡回・随時対応型訪問介護看護",
    "capacity": 31,
    "openDays": [],
    "openDaysNote": ""
  },
  {
    "id": "191513753",
    "name": "ケアステーションエール",
    "kana": "ケアステーションエール",
    "address": "北海道上磯郡木古内町字本町671-4みそぎハイツ２-202号 みそぎハイツ２-202号",
    "lat": 41.6715758,
    "lng": 140.4305296,
    "tel": "01392-2-1022",
    "url": "",
    "pref": "北海道",
    "city": "木古内町",
    "category": "regular_patrol_nursing",
    "serviceType": "定期巡回・随時対応型訪問介護看護",
    "capacity": 0,
    "openDays": [],
    "openDaysNote": ""
  },
  {
    "id": "195900030",
    "name": "定期巡回・随時対応型訪問介護看護ささえるさん夕張",
    "kana": "テイキジュンカイ・ズイジタイオウガタホウモンカイゴカンゴササエルサンユウバリ",
    "address": "北海道夕張市鹿の谷３丁目４２番地",
    "lat": 43.0351698,
    "lng": 141.9643591,
    "tel": "0123-57-7520",
    "url": "",
    "pref": "北海道",
    "city": "夕張市",
    "category": "regular_patrol_nursing",
    "serviceType": "定期巡回・随時対応型訪問介護看護",
    "capacity": 0,
    "openDays": [],
    "openDaysNote": ""
  },
  {
    "id": "196400188",
    "name": "ファミリーケアサポート定期巡回・随時対応型訪問介護看護事業所",
    "kana": "ファミリーケアサポートテイキジュンカイ・ズイジタイオウガタホウモンカイゴカンゴ",
    "address": "留萌市栄町一丁目５番６号",
    "lat": 43.942314,
    "lng": 141.6492858,
    "tel": "0164-43-5600",
    "url": "http://www.family-cs.co.jp",
    "pref": "北海道",
    "city": "留萌市",
    "category": "regular_patrol_nursing",
    "serviceType": "定期巡回・随時対応型訪問介護看護",
    "capacity": null,
    "openDays": [],
    "openDaysNote": ""
  }
]