[
  {
    "id": "1292700265",
    "name": "けやきの里定期巡回・随時対応型訪問介護看護事業所",
    "kana": "ケヤキノサトテイキジュンカイ・ズイジタイオウガタホウモンカイゴカンゴジギョウショ",
    "address": "千葉県我孫子市青山４１７番",
    "lat": 35.8769634224471,
    "lng": 140.051988505288,
    "tel": "０４－７１８１－０００２",
    "url": "https://kojk.jp/keyakinosato/index.html",
    "pref": "千葉県",
    "city": "我孫子市",
    "category": "regular_patrol_nursing",
    "serviceType": "定期巡回・随時対応型訪問介護看護",
    "capacity": 0,
    "openDays": [],
    "openDaysNote": ""
  },
  {
    "id": "1292900105",
    "name": "銀木犀＜鎌ヶ谷＞定期巡回・随時対応型事業所",
    "kana": "ギンモクセイカマガヤテイキジュンカイズイジタイオウガタジギョウショ",
    "address": "千葉県鎌ヶ谷市南鎌ヶ谷1-5-28",
    "lat": 35.7485612,
    "lng": 140.0050026,
    "tel": "047－441－6636",
    "url": "http://silverwood.co.jp/ginmokusei/",
    "pref": "千葉県",
    "city": "鎌ケ谷市",
    "category": "regular_patrol_nursing",
    "serviceType": "定期巡回・随時対応型訪問介護看護",
    "capacity": 0,
    "openDays": [],
    "openDaysNote": ""
  },
  {
    "id": "1292800107",
    "name": "ケアサポートセンターＭＯＡＮＡ",
    "kana": "ケアサポートセンターモアナ",
    "address": "千葉県鴨川市西町1011-1介護老人保健施設たいよう内 介護老人保健施設たいよう内",
    "lat": 35.1226799,
    "lng": 140.1246906,
    "tel": "090-8132-5558",
    "url": "",
    "pref": "千葉県",
    "city": "鴨川市",
    "category": "regular_patrol_nursing",
    "serviceType": "定期巡回・随時対応型訪問介護看護",
    "capacity": 8,
    "openDays": [],
    "openDaysNote": ""
  },
  {
    "id": "1293000079",
    "name": "２４時間訪問介護事業所つばさ",
    "kana": "ニジュウヨジカンホウモンカイゴジギョウショツバサ",
    "address": "千葉県君津市郡2－7－10",
    "lat": 35.3121805,
    "lng": 139.9112821,
    "tel": "0439－55－1271",
    "url": "http://tsubasa-shishinkai.com",
    "pref": "千葉県",
    "city": "君津市",
    "category": "regular_patrol_nursing",
    "serviceType": "定期巡回・随時対応型訪問介護看護",
    "capacity": 0,
    "openDays": [],
    "openDaysNote": ""
  },
  {
    "id": "1293000210",
    "name": "アビタシオン君津定期巡回訪問介護看護ステーション",
    "kana": "アビタシオンキミツテイキジュンカイホウモンカイゴカンゴステーション",
    "address": "千葉県君津市⼋重原1338-1",
    "lat": 35.3304451,
    "lng": 139.9024787,
    "tel": "0439-50-3965",
    "url": "https://www.habitation.co.jp/kimitsu/",
    "pref": "千葉県",
    "city": "君津市",
    "category": "regular_patrol_nursing",
    "serviceType": "定期巡回・随時対応型訪問介護看護",
    "capacity": 0,
    "openDays": [],
    "openDaysNote": ""
  },
  {
    "id": "1293000145",
    "name": "定期巡回・随時対応型訪問介護看護事業所つばさ",
    "kana": "テイキジュンカイ・ズイジタイオウガタ　ホウモンカイゴカンゴ　ツバサ",
    "address": "千葉県君津市貞元218-3",
    "lat": 35.3314969,
    "lng": 139.8715241,
    "tel": "0439-27-1825",
    "url": "http://allkaigo.com/",
    "pref": "千葉県",
    "city": "君津市",
    "category": "regular_patrol_nursing",
    "serviceType": "定期巡回・随時対応型訪問介護看護",
    "capacity": 0,
    "openDays": [],
    "openDaysNote": ""
  },
  {
    "id": "1294493011",
    "name": "コープみらい四街道介護センター",
    "kana": "コープミライヨツカイドウカイゴセンター",
    "address": "千葉県四街道市大日1793-15",
    "lat": 35.6688686,
    "lng": 140.1589983,
    "tel": "043-304-9261",
    "url": "https://mirai.coopnet.or.jp/service/welfare/",
    "pref": "千葉県",
    "city": "四街道市",
    "category": "regular_patrol_nursing",
    "serviceType": "定期巡回・随時対応型訪問介護看護",
    "capacity": 0,
    "openDays": [],
    "openDaysNote": ""
  },
  {
    "id": "1292400346",
    "name": "在宅アシスト和気あいあい",
    "kana": "ザイタクアシストワキアイアイ",
    "address": "千葉県市原市姉崎2580-1",
    "lat": 35.4778224,
    "lng": 140.0581544,
    "tel": "0436-63-6602",
    "url": "https://www.qolife.or.jp/",
    "pref": "千葉県",
    "city": "市原市",
    "category": "regular_patrol_nursing",
    "serviceType": "定期巡回・随時対応型訪問介護看護",
    "capacity": 0,
    "openDays": [],
    "openDaysNote": ""
  },
  {
    "id": "1292400437",
    "name": "巡回ステーションひと結び",
    "kana": "ジュンカイステーションヒトムスビ",
    "address": "千葉県市原市喜多823-1",
    "lat": 35.5007783581905,
    "lng": 140.183319848152,
    "tel": "0436-26-5033",
    "url": "https://shinwakaigo.org",
    "pref": "千葉県",
    "city": "市原市",
    "category": "regular_patrol_nursing",
    "serviceType": "定期巡回・随時対応型訪問介護看護",
    "capacity": null,
    "openDays": [],
    "openDaysNote": ""
  },
  {
    "id": "1290800448",
    "name": "SOMPOケア　地域サービスセンター　市川八幡　定期巡回",
    "kana": "ソンポケア　チイキサービスセンター　イチカワヤワタ　テイキジュンカイ",
    "address": "千葉県市川市八幡2丁目3番18号ヴェルス本八幡　１階 ヴェルス本八幡　１階",
    "lat": 35.723178,
    "lng": 139.9289101,
    "tel": "047-332-8208",
    "url": "https://www.sompocare.com",
    "pref": "千葉県",
    "city": "市川市",
    "category": "regular_patrol_nursing",
    "serviceType": "定期巡回・随時対応型訪問介護看護",
    "capacity": 0,
    "openDays": [],
    "openDaysNote": ""
  },
  {
    "id": "1290800224",
    "name": "一般財団法人市川市福祉公社",
    "kana": "イッパンザイダンホウジンイチカワシフクシコウシャ",
    "address": "千葉県市川市市川南一丁目1番1号ザタワーズイースト209号 ザタワーズイースト209号",
    "lat": 35.7282187,
    "lng": 139.9080614,
    "tel": "047-313-4070",
    "url": "http://www.i-fukukou.com",
    "pref": "千葉県",
    "city": "市川市",
    "category": "regular_patrol_nursing",
    "serviceType": "定期巡回・随時対応型訪問介護看護",
    "capacity": null,
    "openDays": [],
    "openDaysNote": ""
  },
  {
    "id": "1292100276",
    "name": "かがやきの郷福楽園定期巡回・随時対応型訪問介護看護",
    "kana": "カガヤキノサトフクラクエンテイキジュンカイ・ズイジタイオウガタホウモンカイゴカンゴ",
    "address": "千葉県習志野市東習志野1-1-20",
    "lat": 35.6951194,
    "lng": 140.0638582,
    "tel": "047-409-5953",
    "url": "https://e-houseikai.or.jp/",
    "pref": "千葉県",
    "city": "習志野市",
    "category": "regular_patrol_nursing",
    "serviceType": "定期巡回・随時対応型訪問介護看護",
    "capacity": 0,
    "openDays": [],
    "openDaysNote": ""
  },
  {
    "id": "1291200804",
    "name": "SOMPOケア　五香南　定期巡回",
    "kana": "ソンポケア　ゴコウミナミ　テイキジュンカイ",
    "address": "千葉県松戸市五香南2－14－1そんぽの家S五香南 そんぽの家S五香南",
    "lat": 35.7916622,
    "lng": 139.9770875,
    "tel": "047-706-6077",
    "url": "https://www.sompocare.com/service/zaitaku/teikijunkai/Z000944",
    "pref": "千葉県",
    "city": "松戸市",
    "category": "regular_patrol_nursing",
    "serviceType": "定期巡回・随時対応型訪問介護看護",
    "capacity": 10,
    "openDays": [],
    "openDaysNote": ""
  },
  {
    "id": "1291200549",
    "name": "グリーンセレスト　定期随時型",
    "kana": "グリーンセレストテイキズイジガタ",
    "address": "松戸市八ヶ崎7-33-1宇田川ハイツ弐番館202号室 宇田川ハイツ弐番館202号室",
    "lat": 35.8118415,
    "lng": 139.9294416,
    "tel": "047-710-9471",
    "url": "http://rhinokino.jp/",
    "pref": "千葉県",
    "city": "松戸市",
    "category": "regular_patrol_nursing",
    "serviceType": "定期巡回・随時対応型訪問介護看護",
    "capacity": 0,
    "openDays": [],
    "openDaysNote": ""
  },
  {
    "id": "1291200408",
    "name": "やさしい手八柱定期巡回随時対応型訪問介護看護",
    "kana": "ヤサシイテヤバシラテイキジュンカイズイジタイオウガタホウモンカイゴカンゴ",
    "address": "千葉県松戸市日暮４－３－３",
    "lat": 35.788256299599,
    "lng": 139.938662581243,
    "tel": "050-1752-0665",
    "url": "http://www.yasashiite.com/subdomains/section/394/",
    "pref": "千葉県",
    "city": "松戸市",
    "category": "regular_patrol_nursing",
    "serviceType": "定期巡回・随時対応型訪問介護看護",
    "capacity": 0,
    "openDays": [],
    "openDaysNote": ""
  },
  {
    "id": "1291200390",
    "name": "ルポゼ東松戸定期巡回随時対応型訪問介護看護事業所",
    "kana": "ルポゼヒガシマツド　テイキジュンカイズイジタイオウガタ　ホウモンカイゴカンゴジギョウショ",
    "address": "千葉県松戸市東松戸3-15-16",
    "lat": 35.770024,
    "lng": 139.9400299,
    "tel": "047-392-0001",
    "url": "http://reposer-higashimatsudo.com/",
    "pref": "千葉県",
    "city": "松戸市",
    "category": "regular_patrol_nursing",
    "serviceType": "定期巡回・随時対応型訪問介護看護",
    "capacity": 0,
    "openDays": [],
    "openDaysNote": ""
  },
  {
    "id": "1291200861",
    "name": "月明会定期巡回事業所",
    "kana": "ゲツメイカイテイキジュンカイジギョウショ",
    "address": "千葉県松戸市稔台7-17-2メゾンブローニュ102号 メゾンブローニュ102号",
    "lat": 35.7868536,
    "lng": 139.928901,
    "tel": "047-710-5445",
    "url": "https://getsumeikai.com/",
    "pref": "千葉県",
    "city": "松戸市",
    "category": "regular_patrol_nursing",
    "serviceType": "定期巡回・随時対応型訪問介護看護",
    "capacity": null,
    "openDays": [],
    "openDaysNote": ""
  },
  {
    "id": "1291200424",
    "name": "元気介護サービス定期巡回",
    "kana": "ゲンキカイゴサービステイキジュンカイ",
    "address": "千葉県松戸市中根517番地",
    "lat": 35.8060385,
    "lng": 139.9172826,
    "tel": "047-710-8825",
    "url": "http://genki-matsudo.com/",
    "pref": "千葉県",
    "city": "松戸市",
    "category": "regular_patrol_nursing",
    "serviceType": "定期巡回・随時対応型訪問介護看護",
    "capacity": 30,
    "openDays": [],
    "openDaysNote": ""
  },
  {
    "id": "1291200663",
    "name": "秋桜ヴィレッジ訪問介護事業所",
    "kana": "コスモスウ゛ィレッジホウモンカイゴジギョウショ",
    "address": "千葉県松戸市栄町西5－1344－1",
    "lat": 35.8076793,
    "lng": 139.8947738,
    "tel": "047-712-1065",
    "url": "https://www.mother-like.co.jp/",
    "pref": "千葉県",
    "city": "松戸市",
    "category": "regular_patrol_nursing",
    "serviceType": "定期巡回・随時対応型訪問介護看護",
    "capacity": 0,
    "openDays": [],
    "openDaysNote": ""
  },
  {
    "id": "1291200432",
    "name": "定期巡回・随時対応型訪問介護看護みくに",
    "kana": "テイキジュンカイ・ズイジタイオウガタホウモンカイゴカンゴミクニ",
    "address": "千葉県松戸市栄町西５－１３２２（株）みくに　在宅介護事業所 （株）みくに　在宅介護事業所",
    "lat": 35.8084455194603,
    "lng": 139.891264020207,
    "tel": "047-710-9850",
    "url": "http://chiicomi.com/shop?s=454f5965-4283-11e6-8bd0-a0369f7b8e6e",
    "pref": "千葉県",
    "city": "松戸市",
    "category": "regular_patrol_nursing",
    "serviceType": "定期巡回・随時対応型訪問介護看護",
    "capacity": 40,
    "openDays": [],
    "openDaysNote": ""
  },
  {
    "id": "1291600243",
    "name": "生活クラブ風の村定期巡回ステーションなりた",
    "kana": "セイカツクラブカゼノムラテイキジュンカイステーションナリタ",
    "address": "千葉県成田市大竹字内沼370-5",
    "lat": 35.809269,
    "lng": 140.278006,
    "tel": "0476－37－5277",
    "url": "https://kazenomura.jp/",
    "pref": "千葉県",
    "city": "成田市",
    "category": "regular_patrol_nursing",
    "serviceType": "定期巡回・随時対応型訪問介護看護",
    "capacity": 20,
    "openDays": [],
    "openDaysNote": ""
  },
  {
    "id": "1291600326",
    "name": "定期巡回アルテロイテ",
    "kana": "テイキジュンカイアルテロイテ",
    "address": "千葉県成田市北須賀33カレッサ成田北須賀内 カレッサ成田北須賀内",
    "lat": 35.7849778748551,
    "lng": 140.259918559185,
    "tel": "0476-26-3388",
    "url": "",
    "pref": "千葉県",
    "city": "成田市",
    "category": "regular_patrol_nursing",
    "serviceType": "定期巡回・随時対応型訪問介護看護",
    "capacity": null,
    "openDays": [],
    "openDaysNote": ""
  },
  {
    "id": "1290193011",
    "name": "生活クラブ風の村定期巡回ステーション稲毛",
    "kana": "セイカツクラブカゼノムラテイキジュンカイステーションイナゲ",
    "address": "千葉県千葉市稲毛区園生町1107-7生活クラブ風の村いなげ 生活クラブ風の村いなげ",
    "lat": 35.641189,
    "lng": 140.1035669,
    "tel": "043-251-3111",
    "url": "",
    "pref": "千葉県",
    "city": "千葉市稲毛区",
    "category": "regular_patrol_nursing",
    "serviceType": "定期巡回・随時対応型訪問介護看護",
    "capacity": 0,
    "openDays": [],
    "openDaysNote": ""
  },
  {
    "id": "1290400272",
    "name": "ケアタク",
    "kana": "ケアタク",
    "address": "千葉県千葉市若葉区桜木4-17-39",
    "lat": 35.6252347,
    "lng": 140.1574665,
    "tel": "043-214-1081",
    "url": "https://largo-care.com",
    "pref": "千葉県",
    "city": "千葉市若葉区",
    "category": "regular_patrol_nursing",
    "serviceType": "定期巡回・随時対応型訪問介護看護",
    "capacity": 0,
    "openDays": [],
    "openDaysNote": ""
  },
  {
    "id": "1290400140",
    "name": "やさしい手都賀定期巡回・随時対応型訪問介護看護",
    "kana": "ヤサシイテツガテイキジュンカイホウモンカイゴカンゴ",
    "address": "千葉県千葉市若葉区都賀５－１９－１グランドマストやさしえ都賀 グランドマストやさしえ都賀",
    "lat": 35.6378208661504,
    "lng": 140.154594234424,
    "tel": "043-379-1027",
    "url": "http://www.yasashiite.com",
    "pref": "千葉県",
    "city": "千葉市若葉区",
    "category": "regular_patrol_nursing",
    "serviceType": "定期巡回・随時対応型訪問介護看護",
    "capacity": 0,
    "openDays": [],
    "openDaysNote": ""
  },
  {
    "id": "1290400165",
    "name": "若葉定期巡回訪問介護看護ステーション",
    "kana": "ワカバテイキジュンカイホウモンカイゴカンゴステーション",
    "address": "千葉県千葉市若葉区小倉町1763番地12",
    "lat": 53.41291,
    "lng": -8.24388999999997,
    "tel": "043-234-7881",
    "url": "https://www.habitation.co.jp/wakaba",
    "pref": "千葉県",
    "city": "千葉市若葉区",
    "category": "regular_patrol_nursing",
    "serviceType": "定期巡回・随時対応型訪問介護看護",
    "capacity": 0,
    "openDays": [],
    "openDaysNote": ""
  },
  {
    "id": "1290100245",
    "name": "やさしい手千葉新田町定期巡回・随時対応型訪問介護看護事業所",
    "kana": "ヤサシイテチバシンデンチョウテイキジュンカイズイジタイオウガタホウモンカイゴカンゴジギョウショ",
    "address": "千葉県千葉市中央区新田町４－２２サンライトビル２０２ サンライトビル２０２",
    "lat": 35.6092005,
    "lng": 140.1138039,
    "tel": "043-379-6520",
    "url": "http://www.yasashiite.com/subdomains/section/032/",
    "pref": "千葉県",
    "city": "千葉市中央区",
    "category": "regular_patrol_nursing",
    "serviceType": "定期巡回・随時対応型訪問介護看護",
    "capacity": 0,
    "openDays": [],
    "openDaysNote": ""
  },
  {
    "id": "1290600103",
    "name": "しょうじゅ定期巡回・随時対応型訪問介護事業所",
    "kana": "ショウジュテイキジュンカイズイジタイオウガタホウモンカイゴジギョウショ",
    "address": "千葉県千葉市美浜区幸町2-12-1",
    "lat": 35.6210108,
    "lng": 140.0928355,
    "tel": "043-203-5067",
    "url": "http://www.akaedakai.com",
    "pref": "千葉県",
    "city": "千葉市美浜区",
    "category": "regular_patrol_nursing",
    "serviceType": "定期巡回・随時対応型訪問介護看護",
    "capacity": 10,
    "openDays": [],
    "openDaysNote": ""
  },
  {
    "id": "1290500139",
    "name": "定期巡回随時対応型訪問介護看護楽隠居",
    "kana": "テイキジュンカイズイジタイオウガタホウモンカイゴカンゴラクインキョ",
    "address": "千葉県千葉市緑区おゆみ野南2-10-4おゆみ野楽隠居倶楽部弐号館 おゆみ野楽隠居倶楽部弐号館",
    "lat": 35.5517348,
    "lng": 140.1674753,
    "tel": "043-497-6607",
    "url": "http://www.kimeikai-kaigo.jp/",
    "pref": "千葉県",
    "city": "千葉市緑区",
    "category": "regular_patrol_nursing",
    "serviceType": "定期巡回・随時対応型訪問介護看護",
    "capacity": 0,
    "openDays": [],
    "openDaysNote": ""
  },
  {
    "id": "1290900792",
    "name": "ＳＯＭＰＯケア　船橋前原　定期巡回",
    "kana": "ソンポケア　フナバシマエバラ　テイキジュンカイ",
    "address": "千葉県船橋市前原西3-16-6",
    "lat": 35.6962249,
    "lng": 140.0211091,
    "tel": "047-403-6411",
    "url": "https://www.sompocare.com/",
    "pref": "千葉県",
    "city": "船橋市",
    "category": "regular_patrol_nursing",
    "serviceType": "定期巡回・随時対応型訪問介護看護",
    "capacity": 0,
    "openDays": [],
    "openDaysNote": ""
  },
  {
    "id": "1290901154",
    "name": "けあらぼ24船橋行田",
    "kana": "ケアラボ24フナバシギョウダ",
    "address": "千葉県船橋市山手3-14-5",
    "lat": 35.718433309306,
    "lng": 139.976525726809,
    "tel": "047-407-2718",
    "url": "http://www.asupara1.com/carelabo/",
    "pref": "千葉県",
    "city": "船橋市",
    "category": "regular_patrol_nursing",
    "serviceType": "定期巡回・随時対応型訪問介護看護",
    "capacity": 0,
    "openDays": [],
    "openDaysNote": ""
  },
  {
    "id": "1290900461",
    "name": "やさしい手新高根定期巡回・随時対応型訪問介護看護",
    "kana": "ヤサシイテシンタカネテイキジュンカイ・ズイジタイオウガタホウモンカイゴカンゴ",
    "address": "千葉県船橋市新高根3-27-2センチュリーテラス船橋1階 センチュリーテラス船橋1階",
    "lat": 35.7328048,
    "lng": 140.0255484,
    "tel": "050-1753-4347",
    "url": "http://www.yasashiite.com/index.html",
    "pref": "千葉県",
    "city": "船橋市",
    "category": "regular_patrol_nursing",
    "serviceType": "定期巡回・随時対応型訪問介護看護",
    "capacity": 0,
    "openDays": [],
    "openDaysNote": ""
  },
  {
    "id": "1292893029",
    "name": "丸美ライフサービス定期巡回・随時対応事務所",
    "kana": "マルミライフサービステイキジュンカイ・ズイジタイオウジムショ",
    "address": "千葉県船橋市本町2-26-20",
    "lat": 35.698687759297,
    "lng": 139.982939020238,
    "tel": "047-401-7097",
    "url": "http://www.marumi-life.co.jp/",
    "pref": "千葉県",
    "city": "船橋市",
    "category": "regular_patrol_nursing",
    "serviceType": "定期巡回・随時対応型訪問介護看護",
    "capacity": 0,
    "openDays": [],
    "openDaysNote": ""
  },
  {
    "id": "1290900727",
    "name": "銀木犀＜薬園台＞定期巡回随時対応型事業所",
    "kana": "ギンモクセイ＜ヤクエンダイ＞テイキジュンカイズイジタイオウガタジギョウショ",
    "address": "千葉県船橋市飯山満町3-1587",
    "lat": 35.7134512,
    "lng": 140.0313741,
    "tel": "047-402-4062",
    "url": "http://ginmokusei.net",
    "pref": "千葉県",
    "city": "船橋市",
    "category": "regular_patrol_nursing",
    "serviceType": "定期巡回・随時対応型訪問介護看護",
    "capacity": 0,
    "openDays": [],
    "openDaysNote": ""
  },
  {
    "id": "1290901584",
    "name": "今から定巡２４",
    "kana": "イマカラテイジュンニジュウヨン",
    "address": "千葉県船橋市本町４－４０－２３SadoyaSouthernTerrace9F SadoyaSouthernTerrace9F",
    "lat": 35.6982116,
    "lng": 139.9864012,
    "tel": "047-409-8037",
    "url": "http://ima-kara.co.jp/",
    "pref": "千葉県",
    "city": "船橋市",
    "category": "regular_patrol_nursing",
    "serviceType": "定期巡回・随時対応型訪問介護看護",
    "capacity": 50,
    "openDays": [],
    "openDaysNote": ""
  },
  {
    "id": "1292893011",
    "name": "生活クラブ風の村定期巡回ステーション高根台",
    "kana": "セイカツクラブカゼノムラテイキジュンカイステーションタカネダイ",
    "address": "千葉県船橋市高根台2-2-17",
    "lat": 35.7343981000001,
    "lng": 140.0317679,
    "tel": "047-496-7263",
    "url": "https://kazenomura.jp/",
    "pref": "千葉県",
    "city": "船橋市",
    "category": "regular_patrol_nursing",
    "serviceType": "定期巡回・随時対応型訪問介護看護",
    "capacity": 0,
    "openDays": [],
    "openDaysNote": ""
  },
  {
    "id": "1298700111",
    "name": "九十九里ホーム定期巡回・随時対応シオン",
    "kana": "クジュウクリホームテイキジュンカイ・ズイジタイオウシオン",
    "address": "千葉県匝瑳市飯倉97-1",
    "lat": 35.6871353026742,
    "lng": 140.521730759169,
    "tel": "0479-85-7707",
    "url": "",
    "pref": "千葉県",
    "city": "匝瑳市",
    "category": "regular_patrol_nursing",
    "serviceType": "定期巡回・随時対応型訪問介護看護",
    "capacity": 0,
    "openDays": [],
    "openDaysNote": ""
  },
  {
    "id": "1293400071",
    "name": "24時間対応型ベストケア訪問介護",
    "kana": "ニジュウヨジカンタイオウガタベストケアホウモンカイゴ",
    "address": "千葉県袖ケ浦市神納1-19-3グローバルビレッジ10号 グローバルビレッジ10号",
    "lat": 35.4234014,
    "lng": 139.9599933,
    "tel": "0438-42-1194",
    "url": "https://bestcare-group.com/",
    "pref": "千葉県",
    "city": "袖ケ浦市",
    "category": "regular_patrol_nursing",
    "serviceType": "定期巡回・随時対応型訪問介護看護",
    "capacity": 0,
    "openDays": [],
    "openDaysNote": ""
  },
  {
    "id": "1293400089",
    "name": "定期巡回・随時対応型訪問介護看護事業所",
    "kana": "テイキジュンカイ・ズイジタイオウガタホウモンカイゴカンゴジギョウショ",
    "address": "千葉県袖ケ浦市蔵波3037番地1",
    "lat": 35.4346214040704,
    "lng": 140.010947982803,
    "tel": "0438-38-5551",
    "url": "http://www.eiwa.or.jp/",
    "pref": "千葉県",
    "city": "袖ケ浦市",
    "category": "regular_patrol_nursing",
    "serviceType": "定期巡回・随時対応型訪問介護看護",
    "capacity": null,
    "openDays": [],
    "openDaysNote": ""
  },
  {
    "id": "1290700259",
    "name": "定期巡回サービスなごやか",
    "kana": "テイキジュンカイサービスナゴヤカ",
    "address": "千葉県銚子市茶畑町５２番地",
    "lat": 35.7355711,
    "lng": 140.7384246,
    "tel": "0479-21-5676",
    "url": "https://www.nagoyaka-kaigo.jp/",
    "pref": "千葉県",
    "city": "銚子市",
    "category": "regular_patrol_nursing",
    "serviceType": "定期巡回・随時対応型訪問介護看護",
    "capacity": 0,
    "openDays": [],
    "openDaysNote": ""
  },
  {
    "id": "1295300071",
    "name": "神代の森定期巡回随時対応型訪問介護看護",
    "kana": "ジンダイノモリテイキジュンカイズイジタイオウガタホウモンカイゴカンゴ",
    "address": "千葉県香取郡東庄町窪野谷1661",
    "lat": 35.8052945,
    "lng": 140.6459423,
    "tel": "0478-79-0753",
    "url": "https://please-1222.com/",
    "pref": "千葉県",
    "city": "東庄町",
    "category": "regular_patrol_nursing",
    "serviceType": "定期巡回・随時対応型訪問介護看護",
    "capacity": 0,
    "openDays": [],
    "openDaysNote": ""
  },
  {
    "id": "1292200993",
    "name": "SOMPOケア　柏青葉台　定期巡回",
    "kana": "ソンポケアカシワアオバダイテイキジュンカイ",
    "address": "千葉県柏市青葉台2₋16‐15そんぽの家Ｓ柏青葉台 そんぽの家Ｓ柏青葉台",
    "lat": 35.8128789191813,
    "lng": 139.95740478214,
    "tel": "04‐7161‐1030",
    "url": "https://www.sompocare.com/",
    "pref": "千葉県",
    "city": "柏市",
    "category": "regular_patrol_nursing",
    "serviceType": "定期巡回・随時対応型訪問介護看護",
    "capacity": 50,
    "openDays": [],
    "openDaysNote": ""
  },
  {
    "id": "1292200605",
    "name": "SOMPOケア地域サービスセンター豊四季　定期巡回",
    "kana": "ソンポケアチイキサービスセンタートヨシキ　テイキジュンカイ",
    "address": "千葉県柏市豊四季283－1",
    "lat": 35.8610987030095,
    "lng": 139.948092536222,
    "tel": "04－7142－9211",
    "url": "https://www.sompocare.com/service/zaitaku/teikijunkai/Z000609",
    "pref": "千葉県",
    "city": "柏市",
    "category": "regular_patrol_nursing",
    "serviceType": "定期巡回・随時対応型訪問介護看護",
    "capacity": 0,
    "openDays": [],
    "openDaysNote": ""
  },
  {
    "id": "1292200977",
    "name": "アプリシェイト定期巡回・随時対応型訪問介護看護ステーション",
    "kana": "アプリシェイトテイキジュンカイ・ズイジタイオウガタホウモンカイゴカンゴステーション",
    "address": "千葉県柏市高柳1460-1フラットワン　A号室 フラットワン　A号室",
    "lat": 35.8115576,
    "lng": 140.0006983,
    "tel": "04－7128－6718",
    "url": "",
    "pref": "千葉県",
    "city": "柏市",
    "category": "regular_patrol_nursing",
    "serviceType": "定期巡回・随時対応型訪問介護看護",
    "capacity": null,
    "openDays": [],
    "openDaysNote": ""
  },
  {
    "id": "1292200266",
    "name": "やさしい手新柏訪問介護事業所",
    "kana": "ヤサシイテシンカシワホウモンカイゴジギョウショ",
    "address": "千葉県柏市豊住１丁目３-２５センチュリーテラス新柏　１階 センチュリーテラス新柏　１階",
    "lat": 35.8398335,
    "lng": 139.9608553,
    "tel": "050-1752-1290",
    "url": "https://www.yasashiite.com/subdomains/section/213/",
    "pref": "千葉県",
    "city": "柏市",
    "category": "regular_patrol_nursing",
    "serviceType": "定期巡回・随時対応型訪問介護看護",
    "capacity": 0,
    "openDays": [],
    "openDaysNote": ""
  },
  {
    "id": "1292200258",
    "name": "生活クラブ風の村定期巡回ステーション光ヶ丘",
    "kana": "セイカツクラブカゼノムラテイキジュンカイステーションヒカリガオカ",
    "address": "千葉県柏市東中新宿4-5-12",
    "lat": 35.830964391901,
    "lng": 139.960978742328,
    "tel": "04-7171-3988",
    "url": "http://kazenomura.jp/",
    "pref": "千葉県",
    "city": "柏市",
    "category": "regular_patrol_nursing",
    "serviceType": "定期巡回・随時対応型訪問介護看護",
    "capacity": 0,
    "openDays": [],
    "openDaysNote": ""
  },
  {
    "id": "1292200324",
    "name": "定期巡回・随時対応型訪問介護看護やすらぎ",
    "kana": "テイキジュンカイ・ズイジタイオウガタホウモンカイゴカンゴヤスラギ",
    "address": "千葉県柏市豊四季台1丁目3番1号ココファン柏豊四季台内 ココファン柏豊四季台内",
    "lat": 35.866176,
    "lng": 139.9574855,
    "tel": "04-7170-4171",
    "url": "http://www.fukushiplazasakuragawa.com/",
    "pref": "千葉県",
    "city": "柏市",
    "category": "regular_patrol_nursing",
    "serviceType": "定期巡回・随時対応型訪問介護看護",
    "capacity": 0,
    "openDays": [],
    "openDaysNote": ""
  },
  {
    "id": "1292200910",
    "name": "定期巡回和気あいあい24",
    "kana": "テイキジュンカイワキアイアイ24",
    "address": "千葉県柏市松葉町３丁目24-7",
    "lat": 35.8864406,
    "lng": 139.9661807,
    "tel": "04-7189-8536",
    "url": "https://www.wakiaiai-kaigo.jp/",
    "pref": "千葉県",
    "city": "柏市",
    "category": "regular_patrol_nursing",
    "serviceType": "定期巡回・随時対応型訪問介護看護",
    "capacity": 0,
    "openDays": [],
    "openDaysNote": ""
  },
  {
    "id": "1294200116",
    "name": "さつきの里　定期巡回・随時対応型訪問介護看護事業所",
    "kana": "サツキノサト　テイキジュンカイ　ホウモンカイゴカンゴジギョウショ",
    "address": "千葉県白井市笹塚3-25-1",
    "lat": 35.7899337028737,
    "lng": 140.054255824422,
    "tel": "047-492-1135",
    "url": "http://kojk.jp",
    "pref": "千葉県",
    "city": "白井市",
    "category": "regular_patrol_nursing",
    "serviceType": "定期巡回・随時対応型訪問介護看護",
    "capacity": 100,
    "openDays": [],
    "openDaysNote": ""
  },
  {
    "id": "1293500110",
    "name": "生活クラブ風の村定期巡回ステーション八街",
    "kana": "セイカツクラブカゼノムラテイキジュンカイステーションヤチマタ",
    "address": "千葉県八街市東吉田912-8",
    "lat": 35.6387056,
    "lng": 140.2926027,
    "tel": "043-443-8159",
    "url": "https://kazenomura.jp/",
    "pref": "千葉県",
    "city": "八街市",
    "category": "regular_patrol_nursing",
    "serviceType": "定期巡回・随時対応型訪問介護看護",
    "capacity": 60,
    "openDays": [],
    "openDaysNote": ""
  },
  {
    "id": "1292600341",
    "name": "医療法人社団澄乃会　向日葵ラウンドケア",
    "kana": "イリョウホウジンシャダンスミノカイ　ヒマワリラウンドケア",
    "address": "千葉県八千代市ゆりのき台5-1-2ブライトリーフ ブライトリーフ",
    "lat": 35.7307315,
    "lng": 140.1040295,
    "tel": "047-485-6000",
    "url": "http://suminokai.jp/",
    "pref": "千葉県",
    "city": "八千代市",
    "category": "regular_patrol_nursing",
    "serviceType": "定期巡回・随時対応型訪問介護看護",
    "capacity": 16,
    "openDays": [],
    "openDaysNote": ""
  },
  {
    "id": "1293100069",
    "name": "玄々堂亀田の郷定期巡回・随時対応型訪問介護看護事業所",
    "kana": "ゲンゲンドウカメダノサトテイキジュンカイ・ズイジタイオウガタホウモンカイゴカンゴジギョウショ",
    "address": "千葉県富津市亀田445-1",
    "lat": 35.2611765943788,
    "lng": 139.877992275849,
    "tel": "0439-27-0850",
    "url": "https://gengendo-sanukikai.jp/",
    "pref": "千葉県",
    "city": "富津市",
    "category": "regular_patrol_nursing",
    "serviceType": "定期巡回・随時対応型訪問介護看護",
    "capacity": 0,
    "openDays": [],
    "openDaysNote": ""
  },
  {
    "id": "1293100085",
    "name": "定期巡回･随時対応型訪問介護看護事業所「わたしたちの生きる証」",
    "kana": "テイキジュンカイ・ズイジタイオウガタホウモンカイゴカンゴジギョウショ「ワタシタチノイキルアカシ」",
    "address": "千葉県富津市長崎字熊ノ下274",
    "lat": 35.2192021,
    "lng": 139.9058449,
    "tel": "0439-32-1757",
    "url": "http://watashitachinoikiruakashi.jp/",
    "pref": "千葉県",
    "city": "富津市",
    "category": "regular_patrol_nursing",
    "serviceType": "定期巡回・随時対応型訪問介護看護",
    "capacity": 0,
    "openDays": [],
    "openDaysNote": ""
  },
  {
    "id": "1291100111",
    "name": "ファミリーケア・ナースセンター絆",
    "kana": "ファミリーケア・ナースセンターキズナ",
    "address": "千葉県木更津市江川523-2",
    "lat": 35.4059602,
    "lng": 139.9209172,
    "tel": "0438-53-8747",
    "url": "http://www.anshinnokizuna.com/",
    "pref": "千葉県",
    "city": "木更津市",
    "category": "regular_patrol_nursing",
    "serviceType": "定期巡回・随時対応型訪問介護看護",
    "capacity": 0,
    "openDays": [],
    "openDaysNote": ""
  },
  {
    "id": "1291100228",
    "name": "やまみ定期巡回ステーション波岡",
    "kana": "ヤマミテイキジュンカイステーションナミオカ",
    "address": "千葉県木更津市大久保２－２０－６",
    "lat": 35.3430317,
    "lng": 139.9331493,
    "tel": "０４３８－３７－６００８",
    "url": "https://yamamikaigo.jp/",
    "pref": "千葉県",
    "city": "木更津市",
    "category": "regular_patrol_nursing",
    "serviceType": "定期巡回・随時対応型訪問介護看護",
    "capacity": 10,
    "openDays": [],
    "openDaysNote": ""
  },
  {
    "id": "1291300190",
    "name": "あずみ苑グランデ柳沢",
    "kana": "アズミエングランデヤナギサワ",
    "address": "千葉県野田市柳沢52-1",
    "lat": 35.9592722,
    "lng": 139.8700721,
    "tel": "04-7126-5521",
    "url": "http://www.azumien.jp",
    "pref": "千葉県",
    "city": "野田市",
    "category": "regular_patrol_nursing",
    "serviceType": "定期巡回・随時対応型訪問介護看護",
    "capacity": 25,
    "openDays": [],
    "openDaysNote": ""
  },
  {
    "id": "1292500319",
    "name": "秋桜ヴィレッジ南流山訪問介護事業所",
    "kana": "コスモスヴィレッジミナミナガレヤマホウモンカイゴジギョウショ",
    "address": "千葉県流山市南流山8-2-1ロイヤルシャトー南流山２号室 ロイヤルシャトー南流山２号室",
    "lat": 35.8379645,
    "lng": 139.896435,
    "tel": "04-7193-8442",
    "url": "https://mother-like.co.jp/nursing/regularvisit.html",
    "pref": "千葉県",
    "city": "流山市",
    "category": "regular_patrol_nursing",
    "serviceType": "定期巡回・随時対応型訪問介護看護",
    "capacity": 0,
    "openDays": [],
    "openDaysNote": ""
  },
  {
    "id": "1292500251",
    "name": "生活クラブ風の村　定期巡回サービス流山",
    "kana": "セイカツクラブカゼノムラ　テイキジュンカイサービスナガレヤマ",
    "address": "千葉県流山市東深井20-29",
    "lat": 35.9064624207855,
    "lng": 139.903258568123,
    "tel": "04-7186-6251",
    "url": "",
    "pref": "千葉県",
    "city": "流山市",
    "category": "regular_patrol_nursing",
    "serviceType": "定期巡回・随時対応型訪問介護看護",
    "capacity": null,
    "openDays": [],
    "openDaysNote": ""
  }
]