[
  {
    "id": "3091400154",
    "name": "山本クリニック",
    "kana": "ヤマモトクリニック",
    "address": "海南市名高５０６－４",
    "lat": 34.1531527,
    "lng": 135.2121834,
    "tel": "073-494-3307",
    "url": "http://care-net.biz/30/kyuseikai/",
    "pref": "和歌山県",
    "city": "海南市",
    "category": "regular_patrol_nursing",
    "serviceType": "定期巡回・随時対応型訪問介護看護",
    "capacity": 40,
    "openDays": [],
    "openDaysNote": ""
  },
  {
    "id": "3091400170",
    "name": "定期巡回随時対応型訪問介護看護　げんき",
    "kana": "テイキジュンカイズイジタイオウガタホウモンカイゴカンゴ　ゲンキ",
    "address": "和歌山県海南市沖野々394-3",
    "lat": 34.1604855,
    "lng": 135.2706134,
    "tel": "073-487-3377",
    "url": "",
    "pref": "和歌山県",
    "city": "海南市",
    "category": "regular_patrol_nursing",
    "serviceType": "定期巡回・随時対応型訪問介護看護",
    "capacity": 0,
    "openDays": [],
    "openDaysNote": ""
  },
  {
    "id": "3091700140",
    "name": "ヘルパーステーション瑞穂",
    "kana": "ヘルパーステーションミズホ",
    "address": "和歌山県紀の川市粉河775-1",
    "lat": 34.268378,
    "lng": 135.4045066,
    "tel": "0736-74-1001",
    "url": "http://inahokaihp.or.jp/mizuho-home",
    "pref": "和歌山県",
    "city": "紀の川市",
    "category": "regular_patrol_nursing",
    "serviceType": "定期巡回・随時対応型訪問介護看護",
    "capacity": 44,
    "openDays": [],
    "openDaysNote": ""
  },
  {
    "id": "3090101571",
    "name": "ライフサポート",
    "kana": "ライフサポート",
    "address": "和歌山県和歌山市六十谷414番地1号シャルマンＭ２０２ シャルマンＭ２０２",
    "lat": 34.2636173,
    "lng": 135.2055647,
    "tel": "073-499-5426",
    "url": "",
    "pref": "和歌山県",
    "city": "和歌山市",
    "category": "regular_patrol_nursing",
    "serviceType": "定期巡回・随時対応型訪問介護看護",
    "capacity": null,
    "openDays": [],
    "openDaysNote": ""
  },
  {
    "id": "3090100656",
    "name": "巡回型訪問介護シルバーネスト塩屋",
    "kana": "ジュンカイガタホウモンカイゴシルバーネストシオヤ",
    "address": "和歌山県和歌山市塩屋4丁目5番16号",
    "lat": 34.1998122522636,
    "lng": 135.17746096627,
    "tel": "073-445-0600",
    "url": "http://www.kaigokohyo-wakayama.jp/kaigosip/Top.do",
    "pref": "和歌山県",
    "city": "和歌山市",
    "category": "regular_patrol_nursing",
    "serviceType": "定期巡回・随時対応型訪問介護看護",
    "capacity": 0,
    "openDays": [],
    "openDaysNote": ""
  },
  {
    "id": "3090100813",
    "name": "定期巡回・随時対応型訪問介護みやまえ",
    "kana": "テイキジュンカイズイジタイオウガタホウモンカイゴミヤマエ",
    "address": "和歌山県和歌山市手平1丁目7-27住宅型有料老人ホーム集いの家みやまえ 住宅型有料老人ホーム集いの家みやまえ",
    "lat": 34.2190631,
    "lng": 135.1863795,
    "tel": "073-400-6223",
    "url": "http//www/silver.biz/",
    "pref": "和歌山県",
    "city": "和歌山市",
    "category": "regular_patrol_nursing",
    "serviceType": "定期巡回・随時対応型訪問介護看護",
    "capacity": null,
    "openDays": [],
    "openDaysNote": ""
  },
  {
    "id": "3090101126",
    "name": "定期巡回・随時対応型訪問介護看護　生協みなみ",
    "kana": "テイキジュンカイズイジタイオウガタホウモンカイゴカンゴ　セイキョウミナミ",
    "address": "和歌山県和歌山市中之島880-1",
    "lat": 34.2433771,
    "lng": 135.1856566,
    "tel": "073-435-5661",
    "url": "",
    "pref": "和歌山県",
    "city": "和歌山市",
    "category": "regular_patrol_nursing",
    "serviceType": "定期巡回・随時対応型訪問介護看護",
    "capacity": 0,
    "openDays": [],
    "openDaysNote": ""
  },
  {
    "id": "3090101753",
    "name": "定期巡回ステーションはーとふる和歌山",
    "kana": "テイキジュンカイステーションハートフルワカヤマ",
    "address": "福島700-1",
    "lat": 34.2450287,
    "lng": 135.1606075,
    "tel": "073-488-9605",
    "url": "https://www.heartfulcare.com/royalhome/facility/wakayama/wakayama_01.html",
    "pref": "和歌山県",
    "city": "和歌山市",
    "category": "regular_patrol_nursing",
    "serviceType": "定期巡回・随時対応型訪問介護看護",
    "capacity": 0,
    "openDays": [],
    "openDaysNote": ""
  }
]