[
  {
    "id": "1196501256",
    "name": "医療生協ケアステーションうらしん",
    "kana": "イリョウセイキョウケアステーションウラシン",
    "address": "埼玉県さいたま市浦和区北浦和3-10-4COOP未来館　２階 COOP未来館　２階",
    "lat": 35.8740721,
    "lng": 139.6458042,
    "tel": "048-816-6648",
    "url": "",
    "pref": "埼玉県",
    "city": "さいたま市浦和区",
    "category": "regular_patrol_nursing",
    "serviceType": "定期巡回・随時対応型訪問介護看護",
    "capacity": 0,
    "openDays": [],
    "openDaysNote": ""
  },
  {
    "id": "1196500688",
    "name": "けあビジョン東岩槻",
    "kana": "ケアビジョンヒガシイワツキ",
    "address": "埼玉県さいたま市岩槻区上野2-9-4103号 103号",
    "lat": 35.9716469,
    "lng": 139.6998896,
    "tel": "048-795-2555",
    "url": "",
    "pref": "埼玉県",
    "city": "さいたま市岩槻区",
    "category": "regular_patrol_nursing",
    "serviceType": "定期巡回・随時対応型訪問介護看護",
    "capacity": 10,
    "openDays": [],
    "openDaysNote": ""
  },
  {
    "id": "1196500720",
    "name": "やさしい手白鍬定期巡回・随時対応型訪問介護看護事業所",
    "kana": "ヤサシイテシラクワテイキジュンカイ・ズイジタイオウガタホウモンカイゴカンゴジギョウショ",
    "address": "白鍬736-8センチュリーテラス白鍬 センチュリーテラス白鍬",
    "lat": 35.8833006,
    "lng": 139.6068568,
    "tel": "050-1751-5021",
    "url": "https://search.yasashiite.com/detail/homonkaigo_shirakuwa/",
    "pref": "埼玉県",
    "city": "さいたま市桜区",
    "category": "regular_patrol_nursing",
    "serviceType": "定期巡回・随時対応型訪問介護看護",
    "capacity": 10,
    "openDays": [],
    "openDaysNote": ""
  },
  {
    "id": "1196501439",
    "name": "医療生協おおみやヘルパーステーション",
    "kana": "イリョウセイキョウ　オオミヤヘルパーステーション",
    "address": "埼玉県さいたま市西区指扇1070",
    "lat": 35.9121722,
    "lng": 139.5786529,
    "tel": "048-620-2238",
    "url": "http:/www.mcp-saitama.or.jp",
    "pref": "埼玉県",
    "city": "さいたま市西区",
    "category": "regular_patrol_nursing",
    "serviceType": "定期巡回・随時対応型訪問介護看護",
    "capacity": null,
    "openDays": [],
    "openDaysNote": ""
  },
  {
    "id": "1196500944",
    "name": "ＳＯＭＰＯケア　大宮　定期巡回",
    "kana": "ソンポケア　オオミヤ　テイキジュンカイ",
    "address": "埼玉県さいたま市大宮区仲町3丁目13番地1住友生命大宮第2ビル1階 住友生命大宮第2ビル1階",
    "lat": 35.9056065614786,
    "lng": 139.628833239056,
    "tel": "048-788-4062",
    "url": "http://www.sompocare.com",
    "pref": "埼玉県",
    "city": "さいたま市大宮区",
    "category": "regular_patrol_nursing",
    "serviceType": "定期巡回・随時対応型訪問介護看護",
    "capacity": 0,
    "openDays": [],
    "openDaysNote": ""
  },
  {
    "id": "1196500928",
    "name": "コンパス定期巡回",
    "kana": "コンパステイキジュンカイ",
    "address": "埼玉県さいたま市大宮区桜木町4-783-4",
    "lat": 35.899609,
    "lng": 139.621402,
    "tel": "048-711-7528",
    "url": "https://keigo-group.co.jp/",
    "pref": "埼玉県",
    "city": "さいたま市大宮区",
    "category": "regular_patrol_nursing",
    "serviceType": "定期巡回・随時対応型訪問介護看護",
    "capacity": null,
    "openDays": [],
    "openDaysNote": ""
  },
  {
    "id": "1171111111",
    "name": "〇〇",
    "kana": "〇〇",
    "address": "〇〇",
    "lat": null,
    "lng": null,
    "tel": "000-000-0000",
    "url": "",
    "pref": "埼玉県",
    "city": "さいたま市中央区",
    "category": "regular_patrol_nursing",
    "serviceType": "定期巡回・随時対応型訪問介護看護",
    "capacity": null,
    "openDays": [],
    "openDaysNote": ""
  },
  {
    "id": "1196501264",
    "name": "そよ風定期巡回さいたま南",
    "kana": "ソヨカゼテイキジュンカイ　サイタマミナミ",
    "address": "埼玉県さいたま市南区文蔵2丁目13番10号上松ビル1階 上松ビル1階",
    "lat": 35.8419691,
    "lng": 139.6689872,
    "tel": "048-836-1355",
    "url": "https://www.unimat-rc.co.jp/shisetsu-zaitaku/114395",
    "pref": "埼玉県",
    "city": "さいたま市南区",
    "category": "regular_patrol_nursing",
    "serviceType": "定期巡回・随時対応型訪問介護看護",
    "capacity": 0,
    "openDays": [],
    "openDaysNote": ""
  },
  {
    "id": "1196501389",
    "name": "コウダイケアコールセンターさいたま",
    "kana": "コウダイケアコールセンターサイタマ",
    "address": "櫛引町2-8702F 2F",
    "lat": 35.9218991,
    "lng": 139.6062204,
    "tel": "048-729-8268",
    "url": "https://koudai-care.co.jp/",
    "pref": "埼玉県",
    "city": "さいたま市北区",
    "category": "regular_patrol_nursing",
    "serviceType": "定期巡回・随時対応型訪問介護看護",
    "capacity": 0,
    "openDays": [],
    "openDaysNote": ""
  },
  {
    "id": "1196500738",
    "name": "明サポートヘルパーステーション",
    "kana": "メイサポートヘルパーステーション",
    "address": "埼玉県さいたま市緑区松木3-16-62階 2階",
    "lat": 35.8840742,
    "lng": 139.6879999,
    "tel": "048-767-3101",
    "url": "http://meiiken.or.jp",
    "pref": "埼玉県",
    "city": "さいたま市緑区",
    "category": "regular_patrol_nursing",
    "serviceType": "定期巡回・随時対応型訪問介護看護",
    "capacity": 18,
    "openDays": [],
    "openDaysNote": ""
  },
  {
    "id": "1190800514",
    "name": "SOMPOケア　北越谷　定期巡回",
    "kana": "ソンポケア　キタコシガヤ　テイキジュンカイ",
    "address": "北越谷4-23-8　ルミエール北越谷1F",
    "lat": 35.9030115,
    "lng": 139.7788868,
    "tel": "048-970-7001",
    "url": "https//www.sompocare.com",
    "pref": "埼玉県",
    "city": "越谷市",
    "category": "regular_patrol_nursing",
    "serviceType": "定期巡回・随時対応型訪問介護看護",
    "capacity": 0,
    "openDays": [],
    "openDaysNote": ""
  },
  {
    "id": "1190800779",
    "name": "ゆとり庵北越谷　定期巡回・随時対応型訪問介護看護",
    "kana": "ユトリアンキタコシガヤ　テイキジュンカイ・ズイジタイオウガタホウモンカイゴカンゴ",
    "address": "埼玉県越谷市大字大道643番地地域密着複合施設　ゆとり庵北越谷 地域密着複合施設　ゆとり庵北越谷",
    "lat": 35.922795,
    "lng": 139.7580285,
    "tel": "048-967-5560",
    "url": "https://hinode.or.jp/establishment/kitakoshigaya/",
    "pref": "埼玉県",
    "city": "越谷市",
    "category": "regular_patrol_nursing",
    "serviceType": "定期巡回・随時対応型訪問介護看護",
    "capacity": 0,
    "openDays": [],
    "openDaysNote": ""
  },
  {
    "id": "1190800852",
    "name": "株式会社リハビリコンパス",
    "kana": "カブシキガイシャリハビリコンパス",
    "address": "埼玉県越谷市大沢4－19－43富士マンション1階 富士マンション1階",
    "lat": 35.8997878,
    "lng": 139.7870788,
    "tel": "048－867－1500",
    "url": "https://compass100.jp/company/",
    "pref": "埼玉県",
    "city": "越谷市",
    "category": "regular_patrol_nursing",
    "serviceType": "定期巡回・随時対応型訪問介護看護",
    "capacity": 0,
    "openDays": [],
    "openDaysNote": ""
  },
  {
    "id": "1190800415",
    "name": "定期巡回・随時対応型訪問介護看護　とまりや・ケアリンクステーション",
    "kana": "テイキジュンカイ・ズイジタイオウガタホウモンカイゴカンゴ　トマリヤ・ケアリンクステーション",
    "address": "埼玉県越谷市谷中町四丁目293-1",
    "lat": 53.41291,
    "lng": -8.24388999999996,
    "tel": "048-963-1137",
    "url": "http://www.goseikai.jp/tomariya.html",
    "pref": "埼玉県",
    "city": "越谷市",
    "category": "regular_patrol_nursing",
    "serviceType": "定期巡回・随時対応型訪問介護看護",
    "capacity": 15,
    "openDays": [],
    "openDaysNote": ""
  },
  {
    "id": "1195200124",
    "name": "なでしこ",
    "kana": "ナデシコ",
    "address": "埼玉県桶川市東2-11-3東ハイツ１　101号室 東ハイツ１　101号室",
    "lat": 35.9992299,
    "lng": 139.5709547,
    "tel": "048-771-5002",
    "url": "",
    "pref": "埼玉県",
    "city": "桶川市",
    "category": "regular_patrol_nursing",
    "serviceType": "定期巡回・随時対応型訪問介護看護",
    "capacity": null,
    "openDays": [],
    "openDaysNote": ""
  },
  {
    "id": "1195200108",
    "name": "定期巡回・随時対応型訪問介護看護あんど",
    "kana": "テイキジュンカイ・ズイジタイオウガタホウモンカイゴカンゴアンド",
    "address": "鴨川1-20-2ﾌｭｰﾁｬ鴨川105 ﾌｭｰﾁｬ鴨川105",
    "lat": 35.1133206,
    "lng": 140.0990322,
    "tel": "048-729-4538",
    "url": "",
    "pref": "埼玉県",
    "city": "桶川市",
    "category": "regular_patrol_nursing",
    "serviceType": "定期巡回・随時対応型訪問介護看護",
    "capacity": 10,
    "openDays": [],
    "openDaysNote": ""
  },
  {
    "id": "1193800099",
    "name": "定期巡回・随時対応型訪問介護看護加須なでしこ",
    "kana": "テイキジュンカイズイジタイオウカタホウモンカイゴカンゴカゾナデシコ",
    "address": "埼玉県加須市諏訪2-2-9",
    "lat": 36.1302299,
    "lng": 139.6006362,
    "tel": "0480-48-6423",
    "url": "",
    "pref": "埼玉県",
    "city": "加須市",
    "category": "regular_patrol_nursing",
    "serviceType": "定期巡回・随時対応型訪問介護看護",
    "capacity": 30,
    "openDays": [],
    "openDaysNote": ""
  },
  {
    "id": "1193200001",
    "name": "定期巡回・随時対応型訪問介護看護事業所森林",
    "kana": "テイキジュンカイ・ズイジタイオウガタホウモンカイゴカンゴジギョウショシンリン",
    "address": "埼玉県比企郡滑川町羽尾1041番地7",
    "lat": 36.0499602,
    "lng": 139.3720975,
    "tel": "0493-81-5101",
    "url": "http://ｗｗｗ.kokoro.or.jp",
    "pref": "埼玉県",
    "city": "滑川町",
    "category": "regular_patrol_nursing",
    "serviceType": "定期巡回・随時対応型訪問介護看護",
    "capacity": 0,
    "openDays": [],
    "openDaysNote": ""
  },
  {
    "id": "1194500110",
    "name": "シルバータウンあかつき",
    "kana": "シルバータウンアカツキ",
    "address": "埼玉県大里郡寄居町鉢形３１７９－２",
    "lat": 36.0985819,
    "lng": 139.1979569,
    "tel": "048-581-4761",
    "url": "http://www.gh-akatuki.net/",
    "pref": "埼玉県",
    "city": "寄居町",
    "category": "regular_patrol_nursing",
    "serviceType": "定期巡回・随時対応型訪問介護看護",
    "capacity": 20,
    "openDays": [],
    "openDaysNote": ""
  },
  {
    "id": "1190900140",
    "name": "定期巡回・随時対応型訪問介護看護　心支",
    "kana": "テイキジュンカイ・ズイジタイオウガタホウモンカイゴカンゴ　ココロエ",
    "address": "埼玉県久喜市本町6ｰ15ｰ12",
    "lat": 36.0734874383624,
    "lng": 139.665521133914,
    "tel": "0480-29-3501",
    "url": "https://myplace-kcm.co.jp/",
    "pref": "埼玉県",
    "city": "久喜市",
    "category": "regular_patrol_nursing",
    "serviceType": "定期巡回・随時対応型訪問介護看護",
    "capacity": 0,
    "openDays": [],
    "openDaysNote": ""
  },
  {
    "id": "1190500106",
    "name": "定期巡回訪問介護看護シールズ",
    "kana": "テイキジュンカイホウモンカイゴカンゴシールズ",
    "address": "埼玉県南埼玉郡宮代町川端3丁目3番5号",
    "lat": 36.0048160189219,
    "lng": 139.741583520238,
    "tel": "0480-77-4748",
    "url": "https://shields-recruit.com/",
    "pref": "埼玉県",
    "city": "宮代町",
    "category": "regular_patrol_nursing",
    "serviceType": "定期巡回・随時対応型訪問介護看護",
    "capacity": null,
    "openDays": [],
    "openDaysNote": ""
  },
  {
    "id": "1192700118",
    "name": "在宅サポート２１狭山訪問看護ステーション",
    "kana": "ザイタクサポートニジュウイチサヤマホウモンカンゴステーション",
    "address": "埼玉県狭山市大字水野５９４",
    "lat": 35.8320035022698,
    "lng": 139.446626189688,
    "tel": "04-2957-1212",
    "url": "http://www.syojukai.or.jp",
    "pref": "埼玉県",
    "city": "狭山市",
    "category": "regular_patrol_nursing",
    "serviceType": "定期巡回・随時対応型訪問介護看護",
    "capacity": 20,
    "openDays": [],
    "openDaysNote": ""
  },
  {
    "id": "1193100193",
    "name": "グリーンフォレストホームケアステーション",
    "kana": "グリーンフォレストホームケアステーション",
    "address": "埼玉県熊谷市広瀬800-2",
    "lat": 36.147467,
    "lng": 139.3530384,
    "tel": "048-528-0791",
    "url": "http://www.gfv.jp",
    "pref": "埼玉県",
    "city": "熊谷市",
    "category": "regular_patrol_nursing",
    "serviceType": "定期巡回・随時対応型訪問介護看護",
    "capacity": 0,
    "openDays": [],
    "openDaysNote": ""
  },
  {
    "id": "1193100292",
    "name": "熊谷生協ヘルパーステーション",
    "kana": "クマガヤセイキョウヘルパーステーション",
    "address": "埼玉県熊谷市上之3851-1介護複合施設くまここ 介護複合施設くまここ",
    "lat": 36.1510891,
    "lng": 139.4137497,
    "tel": "048-524-0030",
    "url": "http://www.mcp-saitama.or.jp",
    "pref": "埼玉県",
    "city": "熊谷市",
    "category": "regular_patrol_nursing",
    "serviceType": "定期巡回・随時対応型訪問介護看護",
    "capacity": null,
    "openDays": [],
    "openDaysNote": ""
  },
  {
    "id": "1196100109",
    "name": "定期巡回つどい幸手中央",
    "kana": "テイキジュンカイツドイサッテチュウオウ",
    "address": "埼玉県幸手市東1-8-32",
    "lat": 36.0685998217178,
    "lng": 139.719442716533,
    "tel": "0480-43-8081",
    "url": "http：//www.mcp-net.jp/",
    "pref": "埼玉県",
    "city": "幸手市",
    "category": "regular_patrol_nursing",
    "serviceType": "定期巡回・随時対応型訪問介護看護",
    "capacity": 0,
    "openDays": [],
    "openDaysNote": ""
  },
  {
    "id": "1193700067",
    "name": "ヘルパーステーションさきたま",
    "kana": "ヘルパーステーションサキタマ",
    "address": "埼玉県行田市本丸18-3",
    "lat": 36.137057,
    "lng": 139.4542152,
    "tel": "048-556-4612",
    "url": "",
    "pref": "埼玉県",
    "city": "行田市",
    "category": "regular_patrol_nursing",
    "serviceType": "定期巡回・随時対応型訪問介護看護",
    "capacity": null,
    "openDays": [],
    "openDaysNote": ""
  },
  {
    "id": "1193700059",
    "name": "緑風苑　定期巡回・随時対応型訪問介護看護",
    "kana": "リョクフウエン　テイキジュンカイ・ズイジタイオウガタホウモンカイゴカンゴ",
    "address": "埼玉県行田市佐間2-2-18",
    "lat": 36.1315934533443,
    "lng": 139.466576423825,
    "tel": "048-578-7257",
    "url": "http://www.seikoukai.com",
    "pref": "埼玉県",
    "city": "行田市",
    "category": "regular_patrol_nursing",
    "serviceType": "定期巡回・随時対応型訪問介護看護",
    "capacity": null,
    "openDays": [],
    "openDaysNote": ""
  },
  {
    "id": "1191700176",
    "name": "定期巡回・随時対応型訪問介護看護なでしこ",
    "kana": "テイキジュンカイズイジタイオウガタホウモンカイゴカンゴナデシコ",
    "address": "埼玉県鴻巣市生出塚1丁目1番3号",
    "lat": 36.0627006898033,
    "lng": 139.524782801822,
    "tel": "048-598-5002",
    "url": "https://nadeshiko365.jp/",
    "pref": "埼玉県",
    "city": "鴻巣市",
    "category": "regular_patrol_nursing",
    "serviceType": "定期巡回・随時対応型訪問介護看護",
    "capacity": 50,
    "openDays": [],
    "openDaysNote": ""
  },
  {
    "id": "1196000184",
    "name": "定期巡回・随時対応型訪問介護看護　かおる",
    "kana": "テイキジュンカイ・ズイジタイオウガタホウモンカイゴカンゴ　カオル",
    "address": "埼玉県坂戸市薬師町19-4梅仲荘102 梅仲荘102",
    "lat": 35.969545416839,
    "lng": 139.400742642328,
    "tel": "049-237-6031",
    "url": "",
    "pref": "埼玉県",
    "city": "坂戸市",
    "category": "regular_patrol_nursing",
    "serviceType": "定期巡回・随時対応型訪問介護看護",
    "capacity": 30,
    "openDays": [],
    "openDaysNote": ""
  },
  {
    "id": "1191200169",
    "name": "みさとロイヤル定期巡回・随時対応型訪問介護看護ステーション",
    "kana": "ミサトロイヤルテイキジュンカイ　ズイジタイオウガタ　ホウモンカイゴカンゴステーション",
    "address": "埼玉県三郷市新和5-244",
    "lat": 35.8102658,
    "lng": 139.8802997,
    "tel": "048-949-6600",
    "url": "http://www.ims.gr.jp/saitama_misato/",
    "pref": "埼玉県",
    "city": "三郷市",
    "category": "regular_patrol_nursing",
    "serviceType": "定期巡回・随時対応型訪問介護看護",
    "capacity": 2,
    "openDays": [],
    "openDaysNote": ""
  },
  {
    "id": "1192200176",
    "name": "志木ナーシングホーム",
    "kana": "シキナーシングホーム",
    "address": "埼玉県志木市柏町1-6-74",
    "lat": 35.8368333,
    "lng": 139.5757524,
    "tel": "048-487-9970",
    "url": "http://www.kawatsuru-g.jp",
    "pref": "埼玉県",
    "city": "志木市",
    "category": "regular_patrol_nursing",
    "serviceType": "定期巡回・随時対応型訪問介護看護",
    "capacity": null,
    "openDays": [],
    "openDaysNote": ""
  },
  {
    "id": "1190600203",
    "name": "あずみ苑ラ･テラス庄和",
    "kana": "アズミエンラ・テラスショウワ",
    "address": "埼玉県春日部市西金野井178-2あずみ苑ラ･テラス庄和 あずみ苑ラ･テラス庄和",
    "lat": 35.9856568,
    "lng": 139.8117486,
    "tel": "048-718-1165",
    "url": "http://www.azumien.jp/search/l_syowa/",
    "pref": "埼玉県",
    "city": "春日部市",
    "category": "regular_patrol_nursing",
    "serviceType": "定期巡回・随時対応型訪問介護看護",
    "capacity": 51,
    "openDays": [],
    "openDaysNote": ""
  },
  {
    "id": "1190600443",
    "name": "医療生協ケアセンターひだまり",
    "kana": "イリョウセイキョウケアセンターヒダマリ",
    "address": "埼玉県春日部市谷原2-4-12",
    "lat": 35.9714802,
    "lng": 139.7471807,
    "tel": "048-760-2641",
    "url": "https://www.mcp-saitama-kaigo.com/office/hidamari/",
    "pref": "埼玉県",
    "city": "春日部市",
    "category": "regular_patrol_nursing",
    "serviceType": "定期巡回・随時対応型訪問介護看護",
    "capacity": null,
    "openDays": [],
    "openDaysNote": ""
  },
  {
    "id": "1190600146",
    "name": "春日部定期巡回・随時対応型訪問介護看護ひまわりケアセンター",
    "kana": "カスカベテイキジュンカイ・ズイジタイオウガタホウモンカイゴカンゴヒマワリケアセンター",
    "address": "春日部市下蛭田125-1春日部厚生クリニック内 春日部厚生クリニック内",
    "lat": 35.9609319,
    "lng": 139.7200799,
    "tel": "048-760-0121",
    "url": "http://www.himawari-zaitaku.jp/kyotaku_about/#anker04",
    "pref": "埼玉県",
    "city": "春日部市",
    "category": "regular_patrol_nursing",
    "serviceType": "定期巡回・随時対応型訪問介護看護",
    "capacity": 0,
    "openDays": [],
    "openDaysNote": ""
  },
  {
    "id": "1190600344",
    "name": "定期巡回・随時対応サービス24こんぱす",
    "kana": "テイキジュンカイ・ズイジタイオウサービス24コンパス",
    "address": "埼玉県春日部市薄谷78",
    "lat": 35.9568655,
    "lng": 139.754347,
    "tel": "048-733-1155",
    "url": "http://compass100.jp/",
    "pref": "埼玉県",
    "city": "春日部市",
    "category": "regular_patrol_nursing",
    "serviceType": "定期巡回・随時対応型訪問介護看護",
    "capacity": 0,
    "openDays": [],
    "openDaysNote": ""
  },
  {
    "id": "1192500278",
    "name": "２４時間ホームケアほほえみ",
    "kana": "ニジュウヨジカンホームケアホホエミ",
    "address": "埼玉県所沢市小手指町４－１８－１",
    "lat": 35.7971186,
    "lng": 139.4358131,
    "tel": "０４－２９４７－３９１５",
    "url": "http://www.kuwanomi.or.jp/",
    "pref": "埼玉県",
    "city": "所沢市",
    "category": "regular_patrol_nursing",
    "serviceType": "定期巡回・随時対応型訪問介護看護",
    "capacity": 0,
    "openDays": [],
    "openDaysNote": ""
  },
  {
    "id": "1192500393",
    "name": "よしかわ訪問介護ステーション歩",
    "kana": "ヨシカワホウモンカイゴステーション　アユミ",
    "address": "埼玉県所沢市若狭3-2576-1",
    "lat": 35.8020123,
    "lng": 139.4196589,
    "tel": "04-2946-8802",
    "url": "",
    "pref": "埼玉県",
    "city": "所沢市",
    "category": "regular_patrol_nursing",
    "serviceType": "定期巡回・随時対応型訪問介護看護",
    "capacity": 19,
    "openDays": [],
    "openDaysNote": ""
  },
  {
    "id": "1192500286",
    "name": "ライフアシスト　ロイヤルの園",
    "kana": "ライフアシスト　ロイヤルノソノ",
    "address": "埼玉県所沢市北野三丁目1番地22",
    "lat": 35.7969323,
    "lng": 139.4191174,
    "tel": "04-2937-3300",
    "url": "http://www.wam-town.jp/tokorozawa-sono/",
    "pref": "埼玉県",
    "city": "所沢市",
    "category": "regular_patrol_nursing",
    "serviceType": "定期巡回・随時対応型訪問介護看護",
    "capacity": 0,
    "openDays": [],
    "openDaysNote": ""
  },
  {
    "id": "1192500716",
    "name": "幸せふくろう北秋津",
    "kana": "シアワセフクロウキタアキツ",
    "address": "埼玉県所沢市北秋津686-23",
    "lat": 35.7822501,
    "lng": 139.4780441,
    "tel": "04-2935-7673",
    "url": "https://www.ml-care.co.jp/",
    "pref": "埼玉県",
    "city": "所沢市",
    "category": "regular_patrol_nursing",
    "serviceType": "定期巡回・随時対応型訪問介護看護",
    "capacity": null,
    "openDays": [],
    "openDaysNote": ""
  },
  {
    "id": "1192500401",
    "name": "定期巡回ヘルパーステーションとこしん",
    "kana": "テイキジュンカイヘルパーステーショントコシン",
    "address": "埼玉県所沢市宮本町2-23-34",
    "lat": 35.7958169,
    "lng": 139.4607673,
    "tel": "04-2929-5501",
    "url": "http://www.mcp-saitama-kaigo.com/office/tokoshin/",
    "pref": "埼玉県",
    "city": "所沢市",
    "category": "regular_patrol_nursing",
    "serviceType": "定期巡回・随時対応型訪問介護看護",
    "capacity": 0,
    "openDays": [],
    "openDaysNote": ""
  },
  {
    "id": "1191600285",
    "name": "そよ風定期巡回　にしあげお",
    "kana": "ソヨカゼテイキジュンカイ　ニシアゲオ",
    "address": "埼玉県上尾市上野55-2西上尾ホスピスケア　そよ風 西上尾ホスピスケア　そよ風",
    "lat": 35.9497298,
    "lng": 139.5606626,
    "tel": "048-780-1301",
    "url": "https://www.nishiageohpc@sykz.co.jp",
    "pref": "埼玉県",
    "city": "上尾市",
    "category": "regular_patrol_nursing",
    "serviceType": "定期巡回・随時対応型訪問介護看護",
    "capacity": 30,
    "openDays": [],
    "openDaysNote": ""
  },
  {
    "id": "1191600152",
    "name": "訪問介護看護パストーン２４",
    "kana": "ホウモンカイゴカンゴパストーン２４",
    "address": "浅間台２－１７－１",
    "lat": 35.9795933,
    "lng": 139.5743936,
    "tel": "048-777-1001",
    "url": "https://www.pastone.or.jp/",
    "pref": "埼玉県",
    "city": "上尾市",
    "category": "regular_patrol_nursing",
    "serviceType": "定期巡回・随時対応型訪問介護看護",
    "capacity": 15,
    "openDays": [],
    "openDaysNote": ""
  },
  {
    "id": "1194200174",
    "name": "あじさいケアセンター",
    "kana": "アジサイケアセンター",
    "address": "埼玉県児玉郡上里町金久保777",
    "lat": 36.2653941,
    "lng": 139.1322403,
    "tel": "0495-71-9591",
    "url": "www.wf-meiseikai.or.jp",
    "pref": "埼玉県",
    "city": "上里町",
    "category": "regular_patrol_nursing",
    "serviceType": "定期巡回・随時対応型訪問介護看護",
    "capacity": 27,
    "openDays": [],
    "openDaysNote": ""
  },
  {
    "id": "1195100241",
    "name": "そよ風定期巡回にいざ",
    "kana": "ソヨカゼテイキジュンカイニイザ",
    "address": "埼玉県新座市野寺2-5-19",
    "lat": 35.7662748,
    "lng": 139.5597801,
    "tel": "048-482-6360",
    "url": "",
    "pref": "埼玉県",
    "city": "新座市",
    "category": "regular_patrol_nursing",
    "serviceType": "定期巡回・随時対応型訪問介護看護",
    "capacity": 0,
    "openDays": [],
    "openDaysNote": ""
  },
  {
    "id": "1195100126",
    "name": "ミアヘルサ定期巡回サービス新座",
    "kana": "ミアヘルサテイキジュンカイサービスニイザ",
    "address": "埼玉県新座市北野3-18-24",
    "lat": 35.8189355,
    "lng": 139.5649491,
    "tel": "048-458-0836",
    "url": "www.merhalsa.jp",
    "pref": "埼玉県",
    "city": "新座市",
    "category": "regular_patrol_nursing",
    "serviceType": "定期巡回・随時対応型訪問介護看護",
    "capacity": 31,
    "openDays": [],
    "openDaysNote": ""
  },
  {
    "id": "1194600381",
    "name": "在宅介護　深谷２４",
    "kana": "ザイタクカイゴ　フカヤニジュウヨン",
    "address": "埼玉県深谷市柏合９５１－１",
    "lat": 36.181315578517,
    "lng": 139.257581108598,
    "tel": "０４８－５７９－５８２１",
    "url": "https：//lifeplanーkaigo.jp",
    "pref": "埼玉県",
    "city": "深谷市",
    "category": "regular_patrol_nursing",
    "serviceType": "定期巡回・随時対応型訪問介護看護",
    "capacity": 0,
    "openDays": [],
    "openDaysNote": ""
  },
  {
    "id": "1190400380",
    "name": "やさしい手川越定期巡回・随時対応型訪問介護看護事業所",
    "kana": "ヤサシイテカワゴエテイキジュンカイ・ズイジタイオウガタホウモンカイゴカンゴジギョウショ",
    "address": "埼玉県川越市菅原町23-11菅原町ビル2階 菅原町ビル2階",
    "lat": 35.9089848,
    "lng": 139.4850403,
    "tel": "050-1752-0248",
    "url": "http://www.yasashiite.com/",
    "pref": "埼玉県",
    "city": "川越市",
    "category": "regular_patrol_nursing",
    "serviceType": "定期巡回・随時対応型訪問介護看護",
    "capacity": 10,
    "openDays": [],
    "openDaysNote": ""
  },
  {
    "id": "1190400695",
    "name": "わかば定期巡回みなみふるや",
    "kana": "ワカバテイキジュンカイミナミフルヤ",
    "address": "並木70-2クリスタルサウザンド105 クリスタルサウザンド105",
    "lat": null,
    "lng": null,
    "tel": "049-293-6735",
    "url": "https://life.ikeyaku.co.jp/wakaba/",
    "pref": "埼玉県",
    "city": "川越市",
    "category": "regular_patrol_nursing",
    "serviceType": "定期巡回・随時対応型訪問介護看護",
    "capacity": null,
    "openDays": [],
    "openDaysNote": ""
  },
  {
    "id": "1190400265",
    "name": "医療法人　真正会　定期巡回・随時対応型訪問介護看護事業所コール",
    "kana": "イリョウホウジン　シンセイカイ　テイキジュンカイ・ズイジタイオウガタホウモンカイゴカンゴジギョウショコール",
    "address": "川越市安比奈新田259-2",
    "lat": 35.9048467583867,
    "lng": 139.419041543655,
    "tel": "049-233-8341",
    "url": "http://www.kasumi-gr.com/index2.html",
    "pref": "埼玉県",
    "city": "川越市",
    "category": "regular_patrol_nursing",
    "serviceType": "定期巡回・随時対応型訪問介護看護",
    "capacity": 0,
    "openDays": [],
    "openDaysNote": ""
  },
  {
    "id": "1190400521",
    "name": "定期巡回・随時対応型訪問介護・看護　つどい南大塚",
    "kana": "テイキジュンカイ・ズイジタイオウガタホウモンカイゴ・カンゴ　ツドイミナミオオツカ",
    "address": "埼玉県川越市南大塚3-17-18",
    "lat": 35.8886992,
    "lng": 139.4612428,
    "tel": "049-247-8381",
    "url": "https://mcp-net.jp/service/regular-visits/regular-visits-saitama/rv-minamiohtsuka.html",
    "pref": "埼玉県",
    "city": "川越市",
    "category": "regular_patrol_nursing",
    "serviceType": "定期巡回・随時対応型訪問介護看護",
    "capacity": 0,
    "openDays": [],
    "openDaysNote": ""
  },
  {
    "id": "1190400729",
    "name": "定期巡回・随時対応型訪問介護看護鯨井ナーシングホーム",
    "kana": "テイキジュンカイ・ズイジタイオウガタホウモンカイゴカンゴクジライナーシングホーム",
    "address": "埼玉県川越市大字鯨井新田9-1鯨井ナーシングホーム 鯨井ナーシングホーム",
    "lat": 35.9351388,
    "lng": 139.42282,
    "tel": "049-234-2900",
    "url": "http://www.kawatsuru-g.jp/kujirai/index.html",
    "pref": "埼玉県",
    "city": "川越市",
    "category": "regular_patrol_nursing",
    "serviceType": "定期巡回・随時対応型訪問介護看護",
    "capacity": null,
    "openDays": [],
    "openDaysNote": ""
  },
  {
    "id": "1190400661",
    "name": "定期巡回たかしな",
    "kana": "テイキジュンカイタカシナ",
    "address": "埼玉県川越市砂新田4-1-4ブランドールビル2階 ブランドールビル2階",
    "lat": 35.8875033,
    "lng": 139.4924331,
    "tel": "049-291-6001",
    "url": "https://www.mcp-saitama.or.jp/",
    "pref": "埼玉県",
    "city": "川越市",
    "category": "regular_patrol_nursing",
    "serviceType": "定期巡回・随時対応型訪問介護看護",
    "capacity": 0,
    "openDays": [],
    "openDaysNote": ""
  },
  {
    "id": "1190200681",
    "name": "２４芝ケアステーション",
    "kana": "トゥーフォーシバケアステーション",
    "address": "埼玉県川口市芝2-13-23ファミーユ伸和1階Ｃ ファミーユ伸和1階Ｃ",
    "lat": 35.831128,
    "lng": 139.6982312,
    "tel": "048-263-5224",
    "url": "http://24care.co.jp/",
    "pref": "埼玉県",
    "city": "川口市",
    "category": "regular_patrol_nursing",
    "serviceType": "定期巡回・随時対応型訪問介護看護",
    "capacity": 30,
    "openDays": [],
    "openDaysNote": ""
  },
  {
    "id": "1190201358",
    "name": "SOMPOケア川口東領家定期巡回",
    "kana": "ソンポケアカグチヒガシリョウケテイキジュンカイ",
    "address": "埼玉県川口市東領家2-8-6そんぽの家S川口東領家 そんぽの家S川口東領家",
    "lat": 35.795202,
    "lng": 139.7486778,
    "tel": "048-227-2516",
    "url": "https://www.sompocare.com/service/home/satsuki/H000361",
    "pref": "埼玉県",
    "city": "川口市",
    "category": "regular_patrol_nursing",
    "serviceType": "定期巡回・随時対応型訪問介護看護",
    "capacity": 10,
    "openDays": [],
    "openDaysNote": ""
  },
  {
    "id": "1190201028",
    "name": "エイプレイス川口",
    "kana": "エイプレイスカワグチ",
    "address": "埼玉県川口市幸町2-15-8第Ⅱ福富ビル 第Ⅱ福富ビル",
    "lat": 35.8065003,
    "lng": 139.7202298,
    "tel": "048-240-1355",
    "url": "http://www.a-place.co.jp/",
    "pref": "埼玉県",
    "city": "川口市",
    "category": "regular_patrol_nursing",
    "serviceType": "定期巡回・随時対応型訪問介護看護",
    "capacity": 50,
    "openDays": [],
    "openDaysNote": ""
  },
  {
    "id": "1190201192",
    "name": "ケアーズ定期巡回・随時対応型訪問介護看護",
    "kana": "ケアーズテイキジュンカイ・ズイジタイオウガタホウモンカイゴカンゴ",
    "address": "埼玉県川口市長蔵２－１－１８コモ・スクエアA号室 コモ・スクエアA号室",
    "lat": 35.861,
    "lng": 139.7571753,
    "tel": "048-291-6670",
    "url": "https://kkcares.co.jp/",
    "pref": "埼玉県",
    "city": "川口市",
    "category": "regular_patrol_nursing",
    "serviceType": "定期巡回・随時対応型訪問介護看護",
    "capacity": 0,
    "openDays": [],
    "openDaysNote": ""
  },
  {
    "id": "1190200699",
    "name": "ケアセンタ－かがやき",
    "kana": "ケアセンタ-カガヤキ",
    "address": "埼玉県川口市西青木５－１－４０",
    "lat": 35.8209495451466,
    "lng": 139.716086362381,
    "tel": "048-253-5186",
    "url": "https://www.mcp-saitama-kaigo.com/",
    "pref": "埼玉県",
    "city": "川口市",
    "category": "regular_patrol_nursing",
    "serviceType": "定期巡回・随時対応型訪問介護看護",
    "capacity": null,
    "openDays": [],
    "openDaysNote": ""
  },
  {
    "id": "1190200756",
    "name": "ヘルパーステーション　いぶき",
    "kana": "ヘルパーステーションイブキ",
    "address": "川口市木曽呂1347",
    "lat": 35.859491,
    "lng": 139.7158287,
    "tel": "048-296-5149",
    "url": "",
    "pref": "埼玉県",
    "city": "川口市",
    "category": "regular_patrol_nursing",
    "serviceType": "定期巡回・随時対応型訪問介護看護",
    "capacity": 0,
    "openDays": [],
    "openDaysNote": ""
  },
  {
    "id": "1190200624",
    "name": "やさしい手川口三ツ和定期巡回・随時対応型訪問介護看護事業所",
    "kana": "ヤサシイテカワグチミツワテイキジュンカイズイジタイオウガタホウモンカイゴカンゴジギョウショ",
    "address": "埼玉県川口市三ツ和1-4-21グランドマストやさしえ川口三ツ和 グランドマストやさしえ川口三ツ和",
    "lat": 35.8234852,
    "lng": 139.7400152,
    "tel": "050-1753-4353",
    "url": "http://www.yasashiite.com/subdomains/sec_page/452/11/",
    "pref": "埼玉県",
    "city": "川口市",
    "category": "regular_patrol_nursing",
    "serviceType": "定期巡回・随時対応型訪問介護看護",
    "capacity": 0,
    "openDays": [],
    "openDaysNote": ""
  },
  {
    "id": "1190201333",
    "name": "医療生協さいたまヘルパーステーションすこやか",
    "kana": "イリョウセイキョウサイタマヘルパーステーションスコヤカ",
    "address": "埼玉県川口市仲町１－３６",
    "lat": 35.8055787,
    "lng": 139.7083004,
    "tel": "048-299-8000",
    "url": "https://kawaguchi-sukoyaka.com/",
    "pref": "埼玉県",
    "city": "川口市",
    "category": "regular_patrol_nursing",
    "serviceType": "定期巡回・随時対応型訪問介護看護",
    "capacity": 0,
    "openDays": [],
    "openDaysNote": ""
  },
  {
    "id": "1190201093",
    "name": "定期巡回彩うさぎ",
    "kana": "テイキジュンカイアヤウサギ",
    "address": "埼玉県川口市大字東本郷516-2レイアップワン川口101号 レイアップワン川口101号",
    "lat": 35.8216561,
    "lng": 139.7639227,
    "tel": "048-242-3378",
    "url": "",
    "pref": "埼玉県",
    "city": "川口市",
    "category": "regular_patrol_nursing",
    "serviceType": "定期巡回・随時対応型訪問介護看護",
    "capacity": 0,
    "openDays": [],
    "openDaysNote": ""
  },
  {
    "id": "1190201309",
    "name": "定期巡回随時対応型訪問介護看護アットプレオ石神",
    "kana": "テイキジュンカイズイジタイオウガタホウモンカイゴカンゴアットプレオイシガミ",
    "address": "川口市　石神1573-10",
    "lat": 35.8560633,
    "lng": 139.7423422,
    "tel": "048-287-3131",
    "url": "",
    "pref": "埼玉県",
    "city": "川口市",
    "category": "regular_patrol_nursing",
    "serviceType": "定期巡回・随時対応型訪問介護看護",
    "capacity": 0,
    "openDays": [],
    "openDaysNote": ""
  },
  {
    "id": "1191800398",
    "name": "ヘルパーステーションかしの木",
    "kana": "ヘルパーステーションカシノキ",
    "address": "埼玉県草加市草加1-8-13",
    "lat": 35.8354454,
    "lng": 139.8030771,
    "tel": "048-948-7356",
    "url": "http://www.mcp-saitama.or.jp",
    "pref": "埼玉県",
    "city": "草加市",
    "category": "regular_patrol_nursing",
    "serviceType": "定期巡回・随時対応型訪問介護看護",
    "capacity": 10,
    "openDays": [],
    "openDaysNote": ""
  },
  {
    "id": "1191800315",
    "name": "定期巡回随時対応型訪問介護看護みどりの館",
    "kana": "テイキジュンカイズイジタイオウガタホウモンカイゴカンゴミドリノヤカタ",
    "address": "埼玉県谷塚町1998オザワコーポ102 オザワコーポ102",
    "lat": 35.8219691,
    "lng": 139.7921502,
    "tel": "048-951-3929",
    "url": "",
    "pref": "埼玉県",
    "city": "草加市",
    "category": "regular_patrol_nursing",
    "serviceType": "定期巡回・随時対応型訪問介護看護",
    "capacity": 0,
    "openDays": [],
    "openDaysNote": ""
  },
  {
    "id": "1194900229",
    "name": "生協ちちぶケアステーション",
    "kana": "セイキョウチチブケアステーション",
    "address": "埼玉県秩父市阿保町1-11",
    "lat": 36.0138529,
    "lng": 139.0874465,
    "tel": "0494-22-7290",
    "url": "https://www.mcp-saitama-kaigo.com/office/chichibu-care/",
    "pref": "埼玉県",
    "city": "秩父市",
    "category": "regular_patrol_nursing",
    "serviceType": "定期巡回・随時対応型訪問介護看護",
    "capacity": 0,
    "openDays": [],
    "openDaysNote": ""
  },
  {
    "id": "1192100194",
    "name": "そよ風定期巡回　あさか",
    "kana": "ソヨカゼテイキジュンカイ　アサカ",
    "address": "埼玉県朝霞市溝沼1050-1朝霞ケアセンターそよ風 朝霞ケアセンターそよ風",
    "lat": 35.8066063,
    "lng": 139.5867742,
    "tel": "048-461-4860",
    "url": "https://www.sykz.co.jp/",
    "pref": "埼玉県",
    "city": "朝霞市",
    "category": "regular_patrol_nursing",
    "serviceType": "定期巡回・随時対応型訪問介護看護",
    "capacity": 0,
    "openDays": [],
    "openDaysNote": ""
  },
  {
    "id": "1192100129",
    "name": "ミアヘルサ定期巡回サービス朝霞",
    "kana": "ミアヘルサテイキジュンカイサービスアサカ",
    "address": "埼玉県朝霞市三原1-11-22ミアヘルサ　オアシス朝霞 ミアヘルサ　オアシス朝霞",
    "lat": 35.8120633428815,
    "lng": 139.577781693875,
    "tel": "048-458-0813",
    "url": "https://www.merhalsa.jp",
    "pref": "埼玉県",
    "city": "朝霞市",
    "category": "regular_patrol_nursing",
    "serviceType": "定期巡回・随時対応型訪問介護看護",
    "capacity": 50,
    "openDays": [],
    "openDaysNote": ""
  },
  {
    "id": "1196200156",
    "name": "テパエ鶴ヶ島定期巡回サービス",
    "kana": "テパエツルガシマテイキジュンカイサービス",
    "address": "埼玉県鶴ヶ島市太田ヶ谷432-2",
    "lat": 35.92748,
    "lng": 139.4034232,
    "tel": "049-272-3833",
    "url": "nino-nino.biz",
    "pref": "埼玉県",
    "city": "鶴ヶ島市",
    "category": "regular_patrol_nursing",
    "serviceType": "定期巡回・随時対応型訪問介護看護",
    "capacity": 5,
    "openDays": [],
    "openDaysNote": ""
  },
  {
    "id": "1196200198",
    "name": "定期巡回・随時対応型訪問介護看護ベルグルー",
    "kana": "テイキジュンカイズイジタイオウガタホウモンカイゴカンゴベルグルー",
    "address": "鶴ヶ島市脚折1377番地76サンハイム101 サンハイム101",
    "lat": 35.9442119,
    "lng": 139.4030998,
    "tel": "049-299-7277",
    "url": "http://belgrue.moo.jp/",
    "pref": "埼玉県",
    "city": "鶴ヶ島市",
    "category": "regular_patrol_nursing",
    "serviceType": "定期巡回・随時対応型訪問介護看護",
    "capacity": null,
    "openDays": [],
    "openDaysNote": ""
  },
  {
    "id": "1193300157",
    "name": "総合福祉エリアヘルパーステーション",
    "kana": "ソウゴウフクシエリアヘルパーステーション",
    "address": "埼玉県東松山市大字松山2183",
    "lat": 36.0528113,
    "lng": 139.4018247,
    "tel": "0493-21-5571",
    "url": "http://www.smile-shakyo.jp/",
    "pref": "埼玉県",
    "city": "東松山市",
    "category": "regular_patrol_nursing",
    "serviceType": "定期巡回・随時対応型訪問介護看護",
    "capacity": 0,
    "openDays": [],
    "openDaysNote": ""
  },
  {
    "id": "1196300089",
    "name": "ＮＰＯ法人介護の手",
    "kana": "エヌピーオーホウジンカイゴノテ",
    "address": "埼玉県日高市大字鹿山２０１番地１１",
    "lat": 35.8936354,
    "lng": 139.3397977,
    "tel": "042-978-6546",
    "url": "https://sapotokaeru.crayonsite.net",
    "pref": "埼玉県",
    "city": "日高市",
    "category": "regular_patrol_nursing",
    "serviceType": "定期巡回・随時対応型訪問介護看護",
    "capacity": null,
    "openDays": [],
    "openDaysNote": ""
  },
  {
    "id": "1196600041",
    "name": "いなほの定期巡回サービス",
    "kana": "イナホノテイキジュンカイサービス",
    "address": "埼玉県白岡市小久喜942-8",
    "lat": 36.0142089627842,
    "lng": 139.66547847986,
    "tel": "0480-53-5232",
    "url": "https://inaho.or.jp/",
    "pref": "埼玉県",
    "city": "白岡市",
    "category": "regular_patrol_nursing",
    "serviceType": "定期巡回・随時対応型訪問介護看護",
    "capacity": 30,
    "openDays": [],
    "openDaysNote": ""
  },
  {
    "id": "1192900213",
    "name": "定期巡回随時対応型　訪問介護看護",
    "kana": "テイキジュンカイズイジタイオウガタ　ホウモンカイゴカンゴ",
    "address": "埼玉県富士見市羽沢3-1-27",
    "lat": 35.8560891,
    "lng": 139.5449296,
    "tel": "049-293-1333",
    "url": "http://www.kawaturu-g.jp/",
    "pref": "埼玉県",
    "city": "富士見市",
    "category": "regular_patrol_nursing",
    "serviceType": "定期巡回・随時対応型訪問介護看護",
    "capacity": 0,
    "openDays": [],
    "openDaysNote": ""
  },
  {
    "id": "1195300163",
    "name": "ケアサポート笑夢",
    "kana": "ケアサポートエム",
    "address": "下石戸下516-44あきのハイツ101 あきのハイツ101",
    "lat": 36.0149922,
    "lng": 139.5425032,
    "tel": "048-598-6392",
    "url": "https://emusmiledream1219.wixsite.com/emu1219",
    "pref": "埼玉県",
    "city": "北本市",
    "category": "regular_patrol_nursing",
    "serviceType": "定期巡回・随時対応型訪問介護看護",
    "capacity": null,
    "openDays": [],
    "openDaysNote": ""
  },
  {
    "id": "1195300155",
    "name": "定期巡回・随時対応型訪問看護介護事業所　あんど",
    "kana": "テイキジュンカイ・ズイジタイオウガタホウモンカンゴカイゴジギョウショ　アンド",
    "address": "埼玉県北本市中央３丁目７９番地１",
    "lat": 36.0307869,
    "lng": 139.531281,
    "tel": "048-591-0112",
    "url": "",
    "pref": "埼玉県",
    "city": "北本市",
    "category": "regular_patrol_nursing",
    "serviceType": "定期巡回・随時対応型訪問介護看護",
    "capacity": null,
    "openDays": [],
    "openDaysNote": ""
  },
  {
    "id": "1194300172",
    "name": "蛍ケアセンター",
    "kana": "ホタルケアセンター",
    "address": "埼玉県本庄市西五十子634-4",
    "lat": 36.2219935558844,
    "lng": 139.197970245322,
    "tel": "0495－71－5486",
    "url": "http://www.wf-meiseikai.or.jp/",
    "pref": "埼玉県",
    "city": "本庄市",
    "category": "regular_patrol_nursing",
    "serviceType": "定期巡回・随時対応型訪問介護看護",
    "capacity": 35,
    "openDays": [],
    "openDaysNote": ""
  },
  {
    "id": "1192400008",
    "name": "サザンケア株式会社",
    "kana": "サザンケアカブシキガイシャ",
    "address": "埼玉県入間郡毛呂山町前久保南３丁目１９番地１",
    "lat": 35.9459551860727,
    "lng": 139.324300435582,
    "tel": "492987402",
    "url": "https://www.southerncare-moroyama.com/",
    "pref": "埼玉県",
    "city": "毛呂山町",
    "category": "regular_patrol_nursing",
    "serviceType": "定期巡回・随時対応型訪問介護看護",
    "capacity": 0,
    "openDays": [],
    "openDaysNote": ""
  },
  {
    "id": "1195700107",
    "name": "けあビジョン蓮田",
    "kana": "ケアビジョンハスダ",
    "address": "埼玉県蓮田市東6－2－11会田ビル2F 会田ビル2F",
    "lat": 35.9795014,
    "lng": 139.6533483,
    "tel": "048-765-5611",
    "url": "http://www.visualvision.co.jp",
    "pref": "埼玉県",
    "city": "蓮田市",
    "category": "regular_patrol_nursing",
    "serviceType": "定期巡回・随時対応型訪問介護看護",
    "capacity": null,
    "openDays": [],
    "openDaysNote": ""
  },
  {
    "id": "1192300190",
    "name": "ＳＯＭＰＯケア　和光　定期巡回",
    "kana": "ソンポケア　ワコウ　テイキジュンカイ",
    "address": "埼玉県和光市西大和団地6デュプレ西大和第4号棟第104号室 デュプレ西大和第4号棟第104号室",
    "lat": 35.7778069956651,
    "lng": 139.608296276057,
    "tel": "048-450-8250",
    "url": "",
    "pref": "埼玉県",
    "city": "和光市",
    "category": "regular_patrol_nursing",
    "serviceType": "定期巡回・随時対応型訪問介護看護",
    "capacity": 0,
    "openDays": [],
    "openDaysNote": ""
  },
  {
    "id": "1192300109",
    "name": "ミアヘルサ定期巡回サービス和光",
    "kana": "ミアヘルサテイキジュンカイサービズワコウ",
    "address": "埼玉県和光市新倉２－５－４９",
    "lat": 35.7942286,
    "lng": 139.6196085,
    "tel": "０４８－４２３－０７６３",
    "url": "https://www.merhalsa.jp/",
    "pref": "埼玉県",
    "city": "和光市",
    "category": "regular_patrol_nursing",
    "serviceType": "定期巡回・随時対応型訪問介護看護",
    "capacity": 57,
    "openDays": [],
    "openDaysNote": ""
  },
  {
    "id": "1192300083",
    "name": "リーシェガーデン和光ケアセンター定期巡回・随時対応型訪問介護看護サービス",
    "kana": "リーシェガーデンワコウケアセンター",
    "address": "埼玉県和光市丸山台2-11-1",
    "lat": 35.7841995,
    "lng": 139.6169783,
    "tel": "048-485-9952",
    "url": "http://www.ej-welfare.jp",
    "pref": "埼玉県",
    "city": "和光市",
    "category": "regular_patrol_nursing",
    "serviceType": "定期巡回・随時対応型訪問介護看護",
    "capacity": 0,
    "openDays": [],
    "openDaysNote": ""
  },
  {
    "id": "1191400124",
    "name": "そよ風定期巡回　わらび",
    "kana": "ソヨカゼテイキジュンカイ　ワラビ",
    "address": "埼玉県蕨市中央2-10-1",
    "lat": 35.8231327946558,
    "lng": 139.687338727019,
    "tel": "048-420-7505",
    "url": "http://www.unimat-rc.co.jp/shisetsu/result.html?zip=%E5%9F%BC%E7%8E%89%E7%9C%8C&type=1",
    "pref": "埼玉県",
    "city": "蕨市",
    "category": "regular_patrol_nursing",
    "serviceType": "定期巡回・随時対応型訪問介護看護",
    "capacity": 0,
    "openDays": [],
    "openDaysNote": ""
  }
]