[
  {
    "id": "4490600071",
    "name": "在宅ケアだんだん",
    "kana": "ザイタクケア　ダンダン",
    "address": "大分県臼杵市野津町大字都原2147番地",
    "lat": 33.0645797204379,
    "lng": 131.709215742714,
    "tel": "0974-32-4865",
    "url": "",
    "pref": "大分県",
    "city": "臼杵市",
    "category": "regular_patrol_nursing",
    "serviceType": "定期巡回・随時対応型訪問介護看護",
    "capacity": 20,
    "openDays": [],
    "openDaysNote": ""
  },
  {
    "id": "4490500271",
    "name": "24時間ケアサポート佐伯の太陽",
    "kana": "ニジュウヨジカンケアサポートサイキノタイヨウ",
    "address": "大分県佐伯市駅前1丁目1番11号地域包括ケアセンター佐伯の太陽 地域包括ケアセンター佐伯の太陽",
    "lat": 32.9700688,
    "lng": 131.9044346,
    "tel": "0972-20-3988",
    "url": "http://www.saikichuo.net/",
    "pref": "大分県",
    "city": "佐伯市",
    "category": "regular_patrol_nursing",
    "serviceType": "定期巡回・随時対応型訪問介護看護",
    "capacity": 0,
    "openDays": [],
    "openDaysNote": ""
  },
  {
    "id": "4490500438",
    "name": "24時間ケアサポート佐伯の太陽",
    "kana": "ニジュウヨジカンケアサポートサイキノタイヨウ",
    "address": "大分県佐伯市駅前1丁目1番11号地域包括ケアセンター佐伯の太陽 地域包括ケアセンター佐伯の太陽",
    "lat": 32.9700809,
    "lng": 131.9044166,
    "tel": "0972-20-3988",
    "url": "http://www.saikichuo.net/",
    "pref": "大分県",
    "city": "佐伯市",
    "category": "regular_patrol_nursing",
    "serviceType": "定期巡回・随時対応型訪問介護看護",
    "capacity": 0,
    "openDays": [],
    "openDaysNote": ""
  },
  {
    "id": "4490500248",
    "name": "定期巡回随時対応型訪問介護看護ながと",
    "kana": "テイキジュンカイズイジタイオウガタホウモンカイゴカンゴナガト",
    "address": "大分県佐伯市鶴岡町1丁目6番3号ケアタウンながと ケアタウンながと",
    "lat": 32.9582029,
    "lng": 131.8825896,
    "tel": "0972-20-3307",
    "url": "ｈｔｔｐ：//www.nagato.or.jp/",
    "pref": "大分県",
    "city": "佐伯市",
    "category": "regular_patrol_nursing",
    "serviceType": "定期巡回・随時対応型訪問介護看護",
    "capacity": null,
    "openDays": [],
    "openDaysNote": ""
  },
  {
    "id": "4490101054",
    "name": "２４時間対応型訪問介護看護ステーション清流苑",
    "kana": "２４ジカンタイオウガタホウモンカイゴカンゴステーションセイリュウエン",
    "address": "大分県大分市大字種具字南谷１４１番地",
    "lat": 33.2157987,
    "lng": 131.6996566,
    "tel": "097-524-7102",
    "url": "http://seiryu-kyousei.org/",
    "pref": "大分県",
    "city": "大分市",
    "category": "regular_patrol_nursing",
    "serviceType": "定期巡回・随時対応型訪問介護看護",
    "capacity": 0,
    "openDays": [],
    "openDaysNote": ""
  },
  {
    "id": "4490101070",
    "name": "定期巡回型サービスゆいまーる",
    "kana": "テイキジュンカイガタサービスユイマール",
    "address": "大分市高江北1丁目8番1号",
    "lat": 33.1718343,
    "lng": 131.618022,
    "tel": "097-511-1115",
    "url": "https://www.oita-yuima-ru.com/",
    "pref": "大分県",
    "city": "大分市",
    "category": "regular_patrol_nursing",
    "serviceType": "定期巡回・随時対応型訪問介護看護",
    "capacity": null,
    "openDays": [],
    "openDaysNote": ""
  },
  {
    "id": "4490300136",
    "name": "いずみの園コールセンター24時間サービス",
    "kana": "イズミノソノコールセンターニジュウヨジカンサービス",
    "address": "大分県中津市永添2765-147",
    "lat": 33.5599834302925,
    "lng": 131.200104115656,
    "tel": "0979-85-0356",
    "url": "http//www.izuminosono.jp",
    "pref": "大分県",
    "city": "中津市",
    "category": "regular_patrol_nursing",
    "serviceType": "定期巡回・随時対応型訪問介護看護",
    "capacity": 80,
    "openDays": [],
    "openDaysNote": ""
  },
  {
    "id": "4490300144",
    "name": "巡回訪問サポートセンター三光園",
    "kana": "ジュンカイホウモンサポートセンターサンコウエン",
    "address": "大分県中津市大字中央町1丁目3番54号有料老人ホーム燦燦館中央5階 有料老人ホーム燦燦館中央5階",
    "lat": 33.5923657175363,
    "lng": 131.192090158331,
    "tel": "0979-53-9755",
    "url": "http://www.matsunaga-hp.com/",
    "pref": "大分県",
    "city": "中津市",
    "category": "regular_patrol_nursing",
    "serviceType": "定期巡回・随時対応型訪問介護看護",
    "capacity": 0,
    "openDays": [],
    "openDaysNote": ""
  },
  {
    "id": "4490200302",
    "name": "２４時間いつでもコール　偕楽園",
    "kana": "ニジュウヨジカンイツデモコール　カイラクエン",
    "address": "大分県別府市南荘園町２５組",
    "lat": 33.2879926,
    "lng": 131.4797873,
    "tel": "0977-75-8816",
    "url": "https://kikakukai.com",
    "pref": "大分県",
    "city": "別府市",
    "category": "regular_patrol_nursing",
    "serviceType": "定期巡回・随時対応型訪問介護看護",
    "capacity": 0,
    "openDays": [],
    "openDaysNote": ""
  },
  {
    "id": "4490200260",
    "name": "ケアコールセンターめぐみ",
    "kana": "ケアコールセンターメグミ",
    "address": "大分県別府市中島町2番4号",
    "lat": 33.2733669577447,
    "lng": 131.493162058902,
    "tel": "0977-76-5522",
    "url": "https://meguminokai.co.jp",
    "pref": "大分県",
    "city": "別府市",
    "category": "regular_patrol_nursing",
    "serviceType": "定期巡回・随時対応型訪問介護看護",
    "capacity": 0,
    "openDays": [],
    "openDaysNote": ""
  },
  {
    "id": "4490200344",
    "name": "ケアネットべっぷ",
    "kana": "ケアネットベップ",
    "address": "内竈11-1",
    "lat": 33.3303229,
    "lng": 131.4838364,
    "tel": "0977-75-9613",
    "url": "",
    "pref": "大分県",
    "city": "別府市",
    "category": "regular_patrol_nursing",
    "serviceType": "定期巡回・随時対応型訪問介護看護",
    "capacity": null,
    "openDays": [],
    "openDaysNote": ""
  },
  {
    "id": "4490200294",
    "name": "定期巡回・随時対応型訪問介護看護ステーション　エミアス鉄輪",
    "kana": "テイキジュンカイ・ズイジタイオウガタホウモンカイゴカンゴステーション　エミアスカンナワ",
    "address": "大分県別府市大字鉄輪６２８番地の３",
    "lat": 33.316602373702,
    "lng": 131.474833133344,
    "tel": "0977-76-5220",
    "url": "",
    "pref": "大分県",
    "city": "別府市",
    "category": "regular_patrol_nursing",
    "serviceType": "定期巡回・随時対応型訪問介護看護",
    "capacity": null,
    "openDays": [],
    "openDaysNote": ""
  },
  {
    "id": "4491200137",
    "name": "ホームケアステーションI.C",
    "kana": "ホームケアステーションアイ.シー",
    "address": "三重町赤嶺１１８３－１４ひまわり荘１０２ ひまわり荘１０２",
    "lat": 32.9901288,
    "lng": 131.604351,
    "tel": "974274202",
    "url": "https://www.individuality-care.jp/",
    "pref": "大分県",
    "city": "豊後大野市",
    "category": "regular_patrol_nursing",
    "serviceType": "定期巡回・随時対応型訪問介護看護",
    "capacity": 0,
    "openDays": [],
    "openDaysNote": ""
  },
  {
    "id": "4491200053",
    "name": "帰巖会24時間ケアステーション",
    "kana": "キガンカイ24ジカンケアステーション",
    "address": "大分県豊後大野市三重町赤嶺1259番地",
    "lat": 32.9873799,
    "lng": 131.5995707,
    "tel": "0974-26-4170",
    "url": "http://www.kigankai.or.jp/",
    "pref": "大分県",
    "city": "豊後大野市",
    "category": "regular_patrol_nursing",
    "serviceType": "定期巡回・随時対応型訪問介護看護",
    "capacity": 0,
    "openDays": [],
    "openDaysNote": ""
  },
  {
    "id": "4491300176",
    "name": "訪問介護看護ステーション豊友",
    "kana": "ホウモンカイゴカンゴステーションホウユウ",
    "address": "挾間町鬼崎4番地16",
    "lat": 33.1945755,
    "lng": 131.5268184,
    "tel": "097-583-5080",
    "url": "https://www.hoyukan.com/",
    "pref": "大分県",
    "city": "由布市",
    "category": "regular_patrol_nursing",
    "serviceType": "定期巡回・随時対応型訪問介護看護",
    "capacity": 0,
    "openDays": [],
    "openDaysNote": ""
  }
]