[
  {
    "id": "2794200598",
    "name": "ＳＯＭＰＯケア茨木　定期巡回",
    "kana": "ソンポケアイバラキ　テイキジュンカイ",
    "address": "大阪府茨木市双葉町2-27茨木シティライフビル3階 茨木シティライフビル3階",
    "lat": 34.8172670426032,
    "lng": 135.577139312113,
    "tel": "072-665-9765",
    "url": "https://www.sompocare.com/service/zaitaku/teikijunkai/Z000730",
    "pref": "大阪府",
    "city": "茨木市",
    "category": "regular_patrol_nursing",
    "serviceType": "定期巡回・随時対応型訪問介護看護",
    "capacity": null,
    "openDays": [],
    "openDaysNote": ""
  },
  {
    "id": "2794200291",
    "name": "アクティブネットワーク24H定期巡回・随時対応サービス",
    "kana": "アクティブネットワーク24Hテイキジュンカイ・ズイジタイオウサービス",
    "address": "大阪府茨木市片桐町11番16号",
    "lat": 34.8217381,
    "lng": 135.5723847,
    "tel": "072-626-0911",
    "url": "http://www.activenetwork.or.jp",
    "pref": "大阪府",
    "city": "茨木市",
    "category": "regular_patrol_nursing",
    "serviceType": "定期巡回・随時対応型訪問介護看護",
    "capacity": 20,
    "openDays": [],
    "openDaysNote": ""
  },
  {
    "id": "2793800133",
    "name": "青山ケアセンター羽曳野",
    "kana": "アオヤマケアセンターハビキノ",
    "address": "大阪府羽曳野市伊賀4丁目6-1",
    "lat": 34.5580954,
    "lng": 135.5829393,
    "tel": "072-931-1365",
    "url": "http://www.aoyama-care.jp",
    "pref": "大阪府",
    "city": "羽曳野市",
    "category": "regular_patrol_nursing",
    "serviceType": "定期巡回・随時対応型訪問介護看護",
    "capacity": 0,
    "openDays": [],
    "openDaysNote": ""
  },
  {
    "id": "2790700294",
    "name": "ケア南海株式会社定期巡回・随時対応型訪問介護看護",
    "kana": "ケアナンカイカブシキガイシャテイキジュンカイ・ズイジタイオウホウモンカイゴカンゴ",
    "address": "大阪府河内長野市市町928フジパレスシニア市町 フジパレスシニア市町",
    "lat": 34.4658007,
    "lng": 135.5739898,
    "tel": "721523848",
    "url": "https://care-nankai.net",
    "pref": "大阪府",
    "city": "河内長野市",
    "category": "regular_patrol_nursing",
    "serviceType": "定期巡回・随時対応型訪問介護看護",
    "capacity": 30,
    "openDays": [],
    "openDaysNote": ""
  },
  {
    "id": "2790700179",
    "name": "定期巡回・随時対応型訪問介護事業所あかしあ",
    "kana": "テイキジュンカイ・ズイジタイオウガタホウモンカイゴジギョウショアカシア",
    "address": "大阪府河内長野市あかしあ台2丁目6番11号",
    "lat": 34.4671387,
    "lng": 135.5538152,
    "tel": "0721-56-8500",
    "url": "",
    "pref": "大阪府",
    "city": "河内長野市",
    "category": "regular_patrol_nursing",
    "serviceType": "定期巡回・随時対応型訪問介護看護",
    "capacity": 0,
    "openDays": [],
    "openDaysNote": ""
  },
  {
    "id": "2791300243",
    "name": "定期巡回・随時対応型訪問介護・看護　フィット・貝塚",
    "kana": "テイキジュンカイ・ズイジタイオウガタホウモンカイゴカンゴ　フィット・カイヅカ",
    "address": "貝塚市加神1-8-7",
    "lat": 34.4393737,
    "lng": 135.3556453,
    "tel": "072-430-5660",
    "url": "",
    "pref": "大阪府",
    "city": "貝塚市",
    "category": "regular_patrol_nursing",
    "serviceType": "定期巡回・随時対応型訪問介護看護",
    "capacity": 0,
    "openDays": [],
    "openDaysNote": ""
  },
  {
    "id": "2791100171",
    "name": "定期巡回随時対応訪問ケアまんじゅ",
    "kana": "テイキジュンカイズイジタイオウホウモンケアマンジュ",
    "address": "大阪府岸和田市南上町１丁目48番5号",
    "lat": 34.4533545,
    "lng": 135.3711404,
    "tel": "072-422-4466",
    "url": "https://www.terada-manju.jp/",
    "pref": "大阪府",
    "city": "岸和田市",
    "category": "regular_patrol_nursing",
    "serviceType": "定期巡回・随時対応型訪問介護看護",
    "capacity": null,
    "openDays": [],
    "openDaysNote": ""
  },
  {
    "id": "2793600053",
    "name": "ケアライフ",
    "kana": "ケアライフ",
    "address": "大阪府交野市郡津3丁目11番10号",
    "lat": 34.7946054523689,
    "lng": 135.671967662566,
    "tel": "０７２－８９４－０００３",
    "url": "http://www.care-lite.jp",
    "pref": "大阪府",
    "city": "交野市",
    "category": "regular_patrol_nursing",
    "serviceType": "定期巡回・随時対応型訪問介護看護",
    "capacity": 0,
    "openDays": [],
    "openDaysNote": ""
  },
  {
    "id": "2790900357",
    "name": "社会福祉法人成光苑　高槻けやきの郷　あんしんケアコールセンター24",
    "kana": "シャカイフクシホウジンセイコウエン　タカツキケヤキノサト　アンシンケアコールセンターニジュウヨン",
    "address": "大阪府高槻市番田1丁目60番1号",
    "lat": 34.8180400563514,
    "lng": 135.6246768,
    "tel": "072-662-5888",
    "url": "https://swc-seikouen.jp/takatsuki/",
    "pref": "大阪府",
    "city": "高槻市",
    "category": "regular_patrol_nursing",
    "serviceType": "定期巡回・随時対応型訪問介護看護",
    "capacity": 0,
    "openDays": [],
    "openDaysNote": ""
  },
  {
    "id": "2796000418",
    "name": "ＳＯＭＰＯケア　三国ヶ丘　定期巡回",
    "kana": "ソンポケア　ミクニガオカ　テイキジュンカイ",
    "address": "大阪府堺市堺区中三国ヶ丘町7-1-9",
    "lat": 34.5732823,
    "lng": 135.4958412,
    "tel": "072-282-7357",
    "url": "https://www.sompocare.com/",
    "pref": "大阪府",
    "city": "堺市堺区",
    "category": "regular_patrol_nursing",
    "serviceType": "定期巡回・随時対応型訪問介護看護",
    "capacity": 0,
    "openDays": [],
    "openDaysNote": ""
  },
  {
    "id": "2796000152",
    "name": "定期巡回・随時対応　堺つくしの会",
    "kana": "テイキジュンカイ・ズイジタイオウ　サカイツクシノカイ",
    "address": "大阪府堺市堺区翁橋町1丁9番15号",
    "lat": 34.5729341,
    "lng": 135.4790344,
    "tel": "072-238-4677",
    "url": "http://www.tsukushinokai.com",
    "pref": "大阪府",
    "city": "堺市堺区",
    "category": "regular_patrol_nursing",
    "serviceType": "定期巡回・随時対応型訪問介護看護",
    "capacity": null,
    "openDays": [],
    "openDaysNote": ""
  },
  {
    "id": "2796200182",
    "name": "定期巡回・随時対応型訪問介護・看護フィット・堺",
    "kana": "テイキジュンカイ・ズイジタイオウガタホウモンカイゴカンゴ　フィット・サカイ",
    "address": "大阪府堺市東区日置荘原寺町96-6302号室 302号室",
    "lat": 34.5376884,
    "lng": 135.5348294,
    "tel": "072-287-6330",
    "url": "",
    "pref": "大阪府",
    "city": "堺市東区",
    "category": "regular_patrol_nursing",
    "serviceType": "定期巡回・随時対応型訪問介護看護",
    "capacity": 0,
    "openDays": [],
    "openDaysNote": ""
  },
  {
    "id": "2796600027",
    "name": "堺定期巡回・随時対応ケアサポートOSJ",
    "kana": "サカイテイキジュンカイ・ズイジタイオウケアサポートオーエスジェイ",
    "address": "大阪府堺市美原区平尾５９５番地１",
    "lat": 34.5286849,
    "lng": 135.5699657,
    "tel": "072-369-1984",
    "url": "http://miharasou-group.net",
    "pref": "大阪府",
    "city": "堺市美原区",
    "category": "regular_patrol_nursing",
    "serviceType": "定期巡回・随時対応型訪問介護看護",
    "capacity": 0,
    "openDays": [],
    "openDaysNote": ""
  },
  {
    "id": "2793200177",
    "name": "守口居宅サービス事業所ラガール",
    "kana": "モリグチキョタクサービスジギョウショラガール",
    "address": "大阪府守口市大久保町３－３０－２１",
    "lat": 34.7546213,
    "lng": 135.5963558,
    "tel": "06-6900-1900",
    "url": "http://www.1odn.ne.jp/m-lagare",
    "pref": "大阪府",
    "city": "守口市",
    "category": "regular_patrol_nursing",
    "serviceType": "定期巡回・随時対応型訪問介護看護",
    "capacity": null,
    "openDays": [],
    "openDaysNote": ""
  },
  {
    "id": "2793200367",
    "name": "柏清会定期巡回・随時対応型訪問介護看護",
    "kana": "ハクセイカイテイキジュンカイズイジタイオウガタホウモンカイゴカンゴ",
    "address": "大阪府守口市南寺方東通1-13-16",
    "lat": 34.7172433,
    "lng": 135.569629,
    "tel": "06-6992-7722",
    "url": "",
    "pref": "大阪府",
    "city": "守口市",
    "category": "regular_patrol_nursing",
    "serviceType": "定期巡回・随時対応型訪問介護看護",
    "capacity": null,
    "openDays": [],
    "openDaysNote": ""
  },
  {
    "id": "2794800090",
    "name": "コープスマイルホーム松原　定期巡回・随時対応型訪問介護看護",
    "kana": "コープスマイルホームマツバラ　テイキジュンカイ・ズイジタイオウガタホウモンカイゴカンゴ",
    "address": "大阪府松原市岡7-229-1",
    "lat": 34.5618099,
    "lng": 135.5493043,
    "tel": "072-339-2521",
    "url": "http://www.izumi.coop",
    "pref": "大阪府",
    "city": "松原市",
    "category": "regular_patrol_nursing",
    "serviceType": "定期巡回・随時対応型訪問介護看護",
    "capacity": 0,
    "openDays": [],
    "openDaysNote": ""
  },
  {
    "id": "2791600410",
    "name": "SOMPOケア　吹田　定期巡回",
    "kana": "ソンポケア　スイタ　テイキジュンカイ",
    "address": "大阪府吹田市片山町1-3-1メロード吹田２番館７階　７０１号 メロード吹田２番館７階　７０１号",
    "lat": 34.7653189105655,
    "lng": 135.522918397509,
    "tel": "06-6384-4165",
    "url": "https://www.sompocare.com/",
    "pref": "大阪府",
    "city": "吹田市",
    "category": "regular_patrol_nursing",
    "serviceType": "定期巡回・随時対応型訪問介護看護",
    "capacity": 0,
    "openDays": [],
    "openDaysNote": ""
  },
  {
    "id": "2791600758",
    "name": "パナソニックエイジフリーケアセンター吹田健都・定期巡回",
    "kana": "パナソニックエイジフリーケアセンタースイタケントテイキジュンカイ",
    "address": "大阪府吹田市岸部新町３番33号patona吹田健都308 patona吹田健都308",
    "lat": 34.775051,
    "lng": 135.5358882,
    "tel": "06-6836-7732",
    "url": "https://sumai.panasonic.jp/agefree/map/detail.php?id=415",
    "pref": "大阪府",
    "city": "吹田市",
    "category": "regular_patrol_nursing",
    "serviceType": "定期巡回・随時対応型訪問介護看護",
    "capacity": 0,
    "openDays": [],
    "openDaysNote": ""
  },
  {
    "id": "2793700051",
    "name": "摂津ひかり２４時間ケアセンター",
    "kana": "セッツヒカリ24ジカンケアセンター",
    "address": "大阪府摂津市東別府５丁目２番４５号老健ひかり２階 老健ひかり２階",
    "lat": 34.7695794,
    "lng": 135.5563173,
    "tel": "06-6829-2424",
    "url": "http://settsu-roken-hikari.jp",
    "pref": "大阪府",
    "city": "摂津市",
    "category": "regular_patrol_nursing",
    "serviceType": "定期巡回・随時対応型訪問介護看護",
    "capacity": 0,
    "openDays": [],
    "openDaysNote": ""
  },
  {
    "id": "2794500161",
    "name": "栄公定期巡回",
    "kana": "エイコウテイキジュンカイ",
    "address": "大阪府泉佐野市中町3丁目4番5号高齢者複合施設　栄公泉佐野 高齢者複合施設　栄公泉佐野",
    "lat": 34.4001984,
    "lng": 135.3159504,
    "tel": "072-434-8751",
    "url": "http://www.sanokinen.jp",
    "pref": "大阪府",
    "city": "泉佐野市",
    "category": "regular_patrol_nursing",
    "serviceType": "定期巡回・随時対応型訪問介護看護",
    "capacity": 0,
    "openDays": [],
    "openDaysNote": ""
  },
  {
    "id": "2795600119",
    "name": "大阪府済生会　定期巡回・随時対応型訪問介護看護　泉南",
    "kana": "オオサカフサイセイカイテイキジュンカイズイジタイオウガタホウモンカイゴカンゴセンナン",
    "address": "大阪府泉南市りんくう南浜3番7",
    "lat": 34.3791986,
    "lng": 135.264861,
    "tel": "072-480-5602",
    "url": "http://www.saiseikaisennan.jp",
    "pref": "大阪府",
    "city": "泉南市",
    "category": "regular_patrol_nursing",
    "serviceType": "定期巡回・随時対応型訪問介護看護",
    "capacity": 0,
    "openDays": [],
    "openDaysNote": ""
  },
  {
    "id": "2799300120",
    "name": "やすらぎの村定期巡回ステーション狭山",
    "kana": "ヤスラギノムラテイキジュンカイステーションサヤマ",
    "address": "大阪府大阪狭山市半田1-622-6キタバ薬局金剛西口店　3F キタバ薬局金剛西口店　3F",
    "lat": 34.4955715,
    "lng": 135.5590674,
    "tel": "072-366-5711",
    "url": "http://www.inforlive.com",
    "pref": "大阪府",
    "city": "大阪狭山市",
    "category": "regular_patrol_nursing",
    "serviceType": "定期巡回・随時対応型訪問介護看護",
    "capacity": null,
    "openDays": [],
    "openDaysNote": ""
  },
  {
    "id": "2792300168",
    "name": "ＳＯＭＰＯケア　阿倍野　定期巡回",
    "kana": "ソンポケア　アベノ　テイキジュンカイ",
    "address": "大阪府大阪市阿倍野区西田辺町二丁目8番6号ＴＡＳＴＥビル　2階Ａ号室 ＴＡＳＴＥビル　2階Ａ号室",
    "lat": 34.6180743,
    "lng": 135.5144047,
    "tel": "06-4700-8870",
    "url": "",
    "pref": "大阪府",
    "city": "大阪市阿倍野区",
    "category": "regular_patrol_nursing",
    "serviceType": "定期巡回・随時対応型訪問介護看護",
    "capacity": null,
    "openDays": [],
    "openDaysNote": ""
  },
  {
    "id": "2793100351",
    "name": "アプリシェイト定期巡回・随時対応型訪問介護看護ステーション第２",
    "kana": "アプリシェイトテイキジュンカイ・ズイジタイオウガタホウモンカイゴカンゴステーションダイニ",
    "address": "大阪府大阪市旭区赤川一丁目5番31V-GRACEAKAGAWA１０３号室 V-GRACEAKAGAWA１０３号室",
    "lat": 34.7229884,
    "lng": 135.532611,
    "tel": "06-6320-0333",
    "url": "",
    "pref": "大阪府",
    "city": "大阪市旭区",
    "category": "regular_patrol_nursing",
    "serviceType": "定期巡回・随時対応型訪問介護看護",
    "capacity": null,
    "openDays": [],
    "openDaysNote": ""
  },
  {
    "id": "2793100302",
    "name": "定期巡回　ライフライト",
    "kana": "テイキジュンカイ　ライフライト",
    "address": "大阪府大阪市旭区赤川二丁目1番20号",
    "lat": 34.7244091,
    "lng": 135.5309091,
    "tel": "06-6923-5400",
    "url": "https://hoshino-kai.com",
    "pref": "大阪府",
    "city": "大阪市旭区",
    "category": "regular_patrol_nursing",
    "serviceType": "定期巡回・随時対応型訪問介護看護",
    "capacity": null,
    "openDays": [],
    "openDaysNote": ""
  },
  {
    "id": "2793100294",
    "name": "定期巡回型訪問介護看護事業所森のくまさん",
    "kana": "テイキジュンカイガタホウモンカイゴカンゴジギョウショモリノクマサン",
    "address": "大阪市旭区大宮1丁目20番19号",
    "lat": 34.7203958561272,
    "lng": 135.547756772387,
    "tel": "06-6955-1512",
    "url": "",
    "pref": "大阪府",
    "city": "大阪市旭区",
    "category": "regular_patrol_nursing",
    "serviceType": "定期巡回・随時対応型訪問介護看護",
    "capacity": 0,
    "openDays": [],
    "openDaysNote": ""
  },
  {
    "id": "2790400168",
    "name": "まるワン",
    "kana": "マルワン",
    "address": "大阪府大阪市港区市岡2丁目13番57号まんまるはうす まんまるはうす",
    "lat": 34.6617507,
    "lng": 135.4590801,
    "tel": "06-6575-9101",
    "url": "",
    "pref": "大阪府",
    "city": "大阪市港区",
    "category": "regular_patrol_nursing",
    "serviceType": "定期巡回・随時対応型訪問介護看護",
    "capacity": 10,
    "openDays": [],
    "openDaysNote": ""
  },
  {
    "id": "2792000636",
    "name": "あとち倶楽部",
    "kana": "アトチクラブ",
    "address": "大阪府大阪市住吉区浅香２-２-５７",
    "lat": 34.5899545,
    "lng": 135.5083078,
    "tel": "06-6697-5884",
    "url": "",
    "pref": "大阪府",
    "city": "大阪市住吉区",
    "category": "regular_patrol_nursing",
    "serviceType": "定期巡回・随時対応型訪問介護看護",
    "capacity": null,
    "openDays": [],
    "openDaysNote": ""
  },
  {
    "id": "2792000628",
    "name": "社会福祉法人　松稲会",
    "kana": "シャカイフクシホウジン　ショウトウカイ",
    "address": "大阪府大阪市住吉区浅香1-8-38",
    "lat": 34.5920071,
    "lng": 135.5108687,
    "tel": "06-6696-1177",
    "url": "http://www.apricare.com/",
    "pref": "大阪府",
    "city": "大阪市住吉区",
    "category": "regular_patrol_nursing",
    "serviceType": "定期巡回・随時対応型訪問介護看護",
    "capacity": null,
    "openDays": [],
    "openDaysNote": ""
  },
  {
    "id": "2795900311",
    "name": "カルチェ住吉川ヘルパーステーション（定期巡回）",
    "kana": "カルチェスミヨシガワヘルパーステーション（テイキジュンカイ）",
    "address": "大阪府大阪市住之江区中加賀屋3-4-22-203プラヤ住之江 プラヤ住之江",
    "lat": 34.6157699,
    "lng": 135.4810271,
    "tel": "06-6682-5205",
    "url": "",
    "pref": "大阪府",
    "city": "大阪市住之江区",
    "category": "regular_patrol_nursing",
    "serviceType": "定期巡回・随時対応型訪問介護看護",
    "capacity": null,
    "openDays": [],
    "openDaysNote": ""
  },
  {
    "id": "2794400263",
    "name": "ＳＯＭＰＯケア　城東　定期巡回",
    "kana": "ソンポケア　ジョウトウ　テイキジュンカイ",
    "address": "大阪府大阪市城東区鴫野東3-2-1",
    "lat": 34.6911303,
    "lng": 135.54627,
    "tel": "06-4258-4691",
    "url": "https://www.sompocare.com/service/zaitaku/teikijunkai/Z000731",
    "pref": "大阪府",
    "city": "大阪市城東区",
    "category": "regular_patrol_nursing",
    "serviceType": "定期巡回・随時対応型訪問介護看護",
    "capacity": 0,
    "openDays": [],
    "openDaysNote": ""
  },
  {
    "id": "2772202970",
    "name": "ヘルパーステーション勝山",
    "kana": "ヘルパーステーションカツヤマ",
    "address": "大阪府大阪市生野区勝山北5-12-381階 1階",
    "lat": 34.6553253,
    "lng": 135.5377384,
    "tel": "06-6711-6621",
    "url": "https;//gogroup.jp/",
    "pref": "大阪府",
    "city": "大阪市生野区",
    "category": "regular_patrol_nursing",
    "serviceType": "定期巡回・随時対応型訪問介護看護",
    "capacity": null,
    "openDays": [],
    "openDaysNote": ""
  },
  {
    "id": "2792200673",
    "name": "慶生会巽東ヘルパーステーション定期巡回・随時対応型訪問介護看護",
    "kana": "ケイセイカイタツミヒガシヘルパーステーションテイキジュンカイズイジタイオウガタホウモンカイゴカンゴ",
    "address": "大阪市生野区巽東二丁目18番1号慶生会ビル２階 慶生会ビル２階",
    "lat": 34.6448331,
    "lng": 135.5537778,
    "tel": "06-6758-1755",
    "url": "https://kyouseikai.org/",
    "pref": "大阪府",
    "city": "大阪市生野区",
    "category": "regular_patrol_nursing",
    "serviceType": "定期巡回・随時対応型訪問介護看護",
    "capacity": 0,
    "openDays": [],
    "openDaysNote": ""
  },
  {
    "id": "2772200206",
    "name": "呉診療所ヘルパーステーション",
    "kana": "ゴシンリョウショヘルパーステーション",
    "address": "大阪府大阪市生野区田島1-10-5",
    "lat": 34.6532942,
    "lng": 135.5425623,
    "tel": "06-6755-1166",
    "url": "https://gogroup.jp/helperstation",
    "pref": "大阪府",
    "city": "大阪市生野区",
    "category": "regular_patrol_nursing",
    "serviceType": "定期巡回・随時対応型訪問介護看護",
    "capacity": 0,
    "openDays": [],
    "openDaysNote": ""
  },
  {
    "id": "2792200491",
    "name": "訪問介護ステーションあいおい24",
    "kana": "ホウモンカイゴステーションアイオイニジュウヨン",
    "address": "大阪府大阪市生野区生野西三丁目6番8号あいおい生野西内 あいおい生野西内",
    "lat": 34.6503601,
    "lng": 135.5281575,
    "tel": "06-6741-6721",
    "url": "http://www.general-jp.com/aioi/",
    "pref": "大阪府",
    "city": "大阪市生野区",
    "category": "regular_patrol_nursing",
    "serviceType": "定期巡回・随時対応型訪問介護看護",
    "capacity": 10,
    "openDays": [],
    "openDaysNote": ""
  },
  {
    "id": "2791800127",
    "name": "つむぎ定期巡回ステーション",
    "kana": "ツムギテイキジュンカイステーション",
    "address": "大阪府大阪市西区北堀江4丁目15-17",
    "lat": 34.6733071,
    "lng": 135.4831988,
    "tel": "06-6536-8155",
    "url": "http://www.hi-medic.jp/index.html",
    "pref": "大阪府",
    "city": "大阪市西区",
    "category": "regular_patrol_nursing",
    "serviceType": "定期巡回・随時対応型訪問介護看護",
    "capacity": 13,
    "openDays": [],
    "openDaysNote": ""
  },
  {
    "id": "2793300464",
    "name": "真夜中の虹在宅支援特化型訪問介護サービス",
    "kana": "マヨナカノニジヘルパーステーション",
    "address": "大阪府大阪市西成区玉出東2-2-6マーブロイ帝塚山2階 マーブロイ帝塚山2階",
    "lat": 34.6260224,
    "lng": 135.4953881,
    "tel": "06-4398-3252",
    "url": "https://www.mone2012.co.jp/",
    "pref": "大阪府",
    "city": "大阪市西成区",
    "category": "regular_patrol_nursing",
    "serviceType": "定期巡回・随時対応型訪問介護看護",
    "capacity": null,
    "openDays": [],
    "openDaysNote": ""
  },
  {
    "id": "2793300217",
    "name": "定期巡回・随時対応型訪問介護看護ほほえみタイム",
    "kana": "テイキジュンカイ・ズイジタイオウガタホウモンカイゴカンゴホホエミタイム",
    "address": "大阪府大阪市西成区梅南二丁目５番１６号",
    "lat": 34.6422971993951,
    "lng": 135.490926264279,
    "tel": "06-4398-6006",
    "url": "http://choshukai.jp/",
    "pref": "大阪府",
    "city": "大阪市西成区",
    "category": "regular_patrol_nursing",
    "serviceType": "定期巡回・随時対応型訪問介護看護",
    "capacity": 0,
    "openDays": [],
    "openDaysNote": ""
  },
  {
    "id": "2791700160",
    "name": "アプリシェイト定期巡回・随時対応型訪問介護看護ステーション",
    "kana": "アプリシェイトテイキジュンカイ・ズイジタオウガタホウモンカイゴカンゴステーション",
    "address": "大阪府大阪市天王寺区上汐四丁目5番16号ツチヤビル401号室 ツチヤビル401号室",
    "lat": 34.6627386,
    "lng": 135.5159499,
    "tel": "06-6649-2176",
    "url": "",
    "pref": "大阪府",
    "city": "大阪市天王寺区",
    "category": "regular_patrol_nursing",
    "serviceType": "定期巡回・随時対応型訪問介護看護",
    "capacity": null,
    "openDays": [],
    "openDaysNote": ""
  },
  {
    "id": "2791700152",
    "name": "ホームヘルプ＆ナーシングセンター豊泉家上町台",
    "kana": "ホームヘルプ＆ナーシングセンターホウセンカウエマチダイ",
    "address": "大阪府大阪市天王寺区城南寺町2番23号養護老人ホーム上町台天森 養護老人ホーム上町台天森",
    "lat": 34.6712376,
    "lng": 135.5228772,
    "tel": "06-6761-7812",
    "url": "https://tenshin-seiwakai.com/",
    "pref": "大阪府",
    "city": "大阪市天王寺区",
    "category": "regular_patrol_nursing",
    "serviceType": "定期巡回・随時対応型訪問介護看護",
    "capacity": 0,
    "openDays": [],
    "openDaysNote": ""
  },
  {
    "id": "2790800532",
    "name": "ヴァンサンク定期巡回・随時対応型訪問介護看護ステーション",
    "kana": "ヴァンサンクテイキジュンカイズイジタイオウガタホウモンカイゴカンゴステーション",
    "address": "大阪府大阪市東住吉区針中野4丁目12番34号",
    "lat": 34.6170098,
    "lng": 135.5374636,
    "tel": "06-4602-5758",
    "url": "http://kaseikai.or.jp",
    "pref": "大阪府",
    "city": "大阪市東住吉区",
    "category": "regular_patrol_nursing",
    "serviceType": "定期巡回・随時対応型訪問介護看護",
    "capacity": null,
    "openDays": [],
    "openDaysNote": ""
  },
  {
    "id": "2790800169",
    "name": "医療法人　西中医学会　西中定期巡回・随時対応型訪問介護看護ステーション",
    "kana": "イリョウホウジン　ニシナカイガクカイ　ニシナカテイキジュンカイ・ズイジタイオウガタホウモンカイゴカンゴステーション",
    "address": "大阪市東住吉区公園南矢田4-19-29",
    "lat": 34.5999557944692,
    "lng": 135.529466360188,
    "tel": "06-6698-9339",
    "url": "http://www.nishinaka.or.jp",
    "pref": "大阪府",
    "city": "大阪市東住吉区",
    "category": "regular_patrol_nursing",
    "serviceType": "定期巡回・随時対応型訪問介護看護",
    "capacity": 13,
    "openDays": [],
    "openDaysNote": ""
  },
  {
    "id": "2793000478",
    "name": "ＳＯＭＰＯケア淡路駅前　定期巡回随時対応型訪問介護看護",
    "kana": "ソンポケアアワジエキマエテキジュンカイズイジタイオウガタホウモンカイゴカンゴ",
    "address": "大阪府大阪市東淀川区淡路3-20-26",
    "lat": 34.740008,
    "lng": 135.5137183,
    "tel": "06-6325-7701",
    "url": "https://www.sompocare.com/service/home/satsuki/H000325/",
    "pref": "大阪府",
    "city": "大阪市東淀川区",
    "category": "regular_patrol_nursing",
    "serviceType": "定期巡回・随時対応型訪問介護看護",
    "capacity": 0,
    "openDays": [],
    "openDaysNote": ""
  },
  {
    "id": "2793000114",
    "name": "ホームヘルプサービスみどり24",
    "kana": "ホームヘルプサービスミドリ24",
    "address": "大阪府大阪市東淀川区相川二丁目１０番１０号エムあいかわ　１Ｆ エムあいかわ　１Ｆ",
    "lat": 34.7574009172542,
    "lng": 135.535405478091,
    "tel": "06-6195-8462",
    "url": "",
    "pref": "大阪府",
    "city": "大阪市東淀川区",
    "category": "regular_patrol_nursing",
    "serviceType": "定期巡回・随時対応型訪問介護看護",
    "capacity": 0,
    "openDays": [],
    "openDaysNote": ""
  },
  {
    "id": "2775808567",
    "name": "くらしさ平野ケアサービス",
    "kana": "クラシサヒラノケアサービス",
    "address": "大阪府大阪市平野区長吉長原1-12-20",
    "lat": 34.6066135,
    "lng": 135.5707551,
    "tel": "06-6704-0381",
    "url": "http://www.genkinakaigo.co.jp",
    "pref": "大阪府",
    "city": "大阪市平野区",
    "category": "regular_patrol_nursing",
    "serviceType": "定期巡回・随時対応型訪問介護看護",
    "capacity": 0,
    "openDays": [],
    "openDaysNote": ""
  },
  {
    "id": "2794100095",
    "name": "グッドライフケア２４大阪",
    "kana": "グッドライフケア２４オオサカ",
    "address": "大阪府大阪市北区紅梅町1-6カザリーノビル6階 カザリーノビル6階",
    "lat": 34.6985709,
    "lng": 135.5139528,
    "tel": "06-6948-6520",
    "url": "https://goodlifecare.co.jp/",
    "pref": "大阪府",
    "city": "大阪市北区",
    "category": "regular_patrol_nursing",
    "serviceType": "定期巡回・随時対応型訪問介護看護",
    "capacity": 0,
    "openDays": [],
    "openDaysNote": ""
  },
  {
    "id": "2799100512",
    "name": "ぼぬーる定期巡回サービス",
    "kana": "ボヌールテイキジュンカイサービス",
    "address": "大阪府大阪市淀川区加島三丁目６番１７号",
    "lat": 34.7295281683267,
    "lng": 135.456172108598,
    "tel": "06-4965-3220",
    "url": "https://momunuru.co.jp",
    "pref": "大阪府",
    "city": "大阪市淀川区",
    "category": "regular_patrol_nursing",
    "serviceType": "定期巡回・随時対応型訪問介護看護",
    "capacity": 19,
    "openDays": [],
    "openDaysNote": ""
  },
  {
    "id": "2791900232",
    "name": "慶生会住道ヘルパーステーション",
    "kana": "ケイセイカイスミノドウヘルパーステーション",
    "address": "大阪府大東市三住町2-7シティワース201号 シティワース201号",
    "lat": 34.7104023,
    "lng": 135.6235476,
    "tel": "072-889-1717",
    "url": "http://kyouseikai.org/",
    "pref": "大阪府",
    "city": "大東市",
    "category": "regular_patrol_nursing",
    "serviceType": "定期巡回・随時対応型訪問介護看護",
    "capacity": 15,
    "openDays": [],
    "openDaysNote": ""
  },
  {
    "id": "2792500171",
    "name": "巽病院定期巡回・随時対応型訪問介護看護事業所",
    "kana": "タツミビョウインテイキジュンカイ・ズイジタイオウガタホウモンカイゴカンゴジギョウショ",
    "address": "大阪府池田市天神1-5-22",
    "lat": 34.8091511,
    "lng": 135.4424652,
    "tel": "072-763-5172",
    "url": "http://www.mcsyl.com/",
    "pref": "大阪府",
    "city": "池田市",
    "category": "regular_patrol_nursing",
    "serviceType": "定期巡回・随時対応型訪問介護看護",
    "capacity": 10,
    "openDays": [],
    "openDaysNote": ""
  },
  {
    "id": "2795000385",
    "name": "24時間定期巡回・随時対応型訪問介護看護輝",
    "kana": "24ジカンテイキジュンカイ・ズイジタイオウガタカイゴカンゴ",
    "address": "大阪府東大阪市岩田町1-1-35",
    "lat": 34.664804,
    "lng": 135.609909,
    "tel": "072-965-5897",
    "url": "",
    "pref": "大阪府",
    "city": "東大阪市",
    "category": "regular_patrol_nursing",
    "serviceType": "定期巡回・随時対応型訪問介護看護",
    "capacity": 0,
    "openDays": [],
    "openDaysNote": ""
  },
  {
    "id": "2795000443",
    "name": "スーパー・コート東大阪定期巡回・随時対応型訪問介護看護事業所",
    "kana": "スーパー・コートヒガシオオサカテイキジュンカイ・ズイジタイオウガタホウモンカイゴカンゴジギョウショ",
    "address": "大阪府東大阪市友井2丁目15番34号ブランシェC101 ブランシェC101",
    "lat": 34.6434558,
    "lng": 135.5857535,
    "tel": "06-6736-4853",
    "url": "",
    "pref": "大阪府",
    "city": "東大阪市",
    "category": "regular_patrol_nursing",
    "serviceType": "定期巡回・随時対応型訪問介護看護",
    "capacity": 61,
    "openDays": [],
    "openDaysNote": ""
  },
  {
    "id": "2795001045",
    "name": "すなおケアサービスセンター",
    "kana": "スナオケアサアビスセンタ",
    "address": "大阪府東大阪市永和1-22-13ABCビル301号 ABCビル301号",
    "lat": 34.6588821,
    "lng": 135.5738166,
    "tel": "06-6723-6500",
    "url": "https://genkinakaigo.co.jp/",
    "pref": "大阪府",
    "city": "東大阪市",
    "category": "regular_patrol_nursing",
    "serviceType": "定期巡回・随時対応型訪問介護看護",
    "capacity": null,
    "openDays": [],
    "openDaysNote": ""
  },
  {
    "id": "2795001466",
    "name": "医療法人中道会　地域ケアセンター花園",
    "kana": "イリョウホウジンチュウドウカイ　チイキケアセンターハナゾノ",
    "address": "大阪府東大阪市稲葉3-11-10ピアザ花園4F ピアザ花園4F",
    "lat": 34.6637612,
    "lng": 135.6167001,
    "tel": "072-960-0889",
    "url": "",
    "pref": "大阪府",
    "city": "東大阪市",
    "category": "regular_patrol_nursing",
    "serviceType": "定期巡回・随時対応型訪問介護看護",
    "capacity": null,
    "openDays": [],
    "openDaysNote": ""
  },
  {
    "id": "2795001268",
    "name": "介護サービスしあわせサポート",
    "kana": "カイゴサービスシアワセサポート",
    "address": "大阪府東大阪市玉串町東1-3-27",
    "lat": 34.6567851,
    "lng": 135.6243543,
    "tel": "072-961-7588",
    "url": "https://caressupport.com/",
    "pref": "大阪府",
    "city": "東大阪市",
    "category": "regular_patrol_nursing",
    "serviceType": "定期巡回・随時対応型訪問介護看護",
    "capacity": null,
    "openDays": [],
    "openDaysNote": ""
  },
  {
    "id": "2795001250",
    "name": "介護センターねいろ",
    "kana": "カイゴセンターネイロ",
    "address": "大阪府東大阪市寿町3丁目14-9住宅型有料老人ホームねいろ 住宅型有料老人ホームねいろ",
    "lat": 34.6505587,
    "lng": 135.5641378,
    "tel": "06-6725-0788",
    "url": "https://www.colore-group.com/",
    "pref": "大阪府",
    "city": "東大阪市",
    "category": "regular_patrol_nursing",
    "serviceType": "定期巡回・随時対応型訪問介護看護",
    "capacity": 0,
    "openDays": [],
    "openDaysNote": ""
  },
  {
    "id": "2795001516",
    "name": "定期巡回・随時対応型訪問介護事業所八戸ノ里向日葵",
    "kana": "テイキジュンカイズイジタイオウガタホウモンカイゴジギョウショヤエノサトヒマワリ",
    "address": "大阪府東大阪市若江西新町3丁目1番９号",
    "lat": 34.6556579858318,
    "lng": 135.596690917197,
    "tel": "06-6730-7181",
    "url": "http://www.tamami.or.jp",
    "pref": "大阪府",
    "city": "東大阪市",
    "category": "regular_patrol_nursing",
    "serviceType": "定期巡回・随時対応型訪問介護看護",
    "capacity": 0,
    "openDays": [],
    "openDaysNote": ""
  },
  {
    "id": "2795001532",
    "name": "定期巡回サービスぼたん",
    "kana": "テイキジュンカイサービスボタン",
    "address": "大阪府東大阪市下六万寺町一丁目１１番１７号",
    "lat": 34.650380292388,
    "lng": 135.635391462882,
    "tel": "072-983-6734",
    "url": "",
    "pref": "大阪府",
    "city": "東大阪市",
    "category": "regular_patrol_nursing",
    "serviceType": "定期巡回・随時対応型訪問介護看護",
    "capacity": 0,
    "openDays": [],
    "openDaysNote": ""
  },
  {
    "id": "2795001334",
    "name": "定期巡回サービスれんげ",
    "kana": "テイキジュンカイサービスレンゲ",
    "address": "大阪府東大阪市瓜生堂二丁目8-3",
    "lat": 34.6598858,
    "lng": 135.6040121,
    "tel": "06-6720-8477",
    "url": "https://furestep.com",
    "pref": "大阪府",
    "city": "東大阪市",
    "category": "regular_patrol_nursing",
    "serviceType": "定期巡回・随時対応型訪問介護看護",
    "capacity": null,
    "openDays": [],
    "openDaysNote": ""
  },
  {
    "id": "2795001524",
    "name": "定期巡回サービス土屋東大阪",
    "kana": "テイキジュンカイサービスツチヤヒガシオオサカ",
    "address": "大阪府東大阪市吉田1丁目5－30ノーマルライフ ノーマルライフ",
    "lat": 34.6644943,
    "lng": 135.6189302,
    "tel": "050‐1808‐4671",
    "url": "https://tcy.co.jp",
    "pref": "大阪府",
    "city": "東大阪市",
    "category": "regular_patrol_nursing",
    "serviceType": "定期巡回・随時対応型訪問介護看護",
    "capacity": 0,
    "openDays": [],
    "openDaysNote": ""
  },
  {
    "id": "2795001086",
    "name": "木漏れ日定期巡回サービス",
    "kana": "コモレビテイキジュンカイサービス",
    "address": "大阪府東大阪市下六万寺町３－１－１４",
    "lat": 34.6551438902545,
    "lng": 135.638651415973,
    "tel": "072-975-5381",
    "url": "",
    "pref": "大阪府",
    "city": "東大阪市",
    "category": "regular_patrol_nursing",
    "serviceType": "定期巡回・随時対応型訪問介護看護",
    "capacity": null,
    "openDays": [],
    "openDaysNote": ""
  },
  {
    "id": "2793400074",
    "name": "定期巡回・随時対応型訪問介護看護事業所　青山ケアセンター藤井寺",
    "kana": "テイキジュンカイズイジタイオウガタホウモンカイゴカンゴジギョウショアオヤマケアセンターフジイデラ",
    "address": "大阪府藤井寺市野中2-5-14",
    "lat": 34.5608056663529,
    "lng": 135.602950537048,
    "tel": "072-952-1365",
    "url": "http://www.aoyama-care.jp",
    "pref": "大阪府",
    "city": "藤井寺市",
    "category": "regular_patrol_nursing",
    "serviceType": "定期巡回・随時対応型訪問介護看護",
    "capacity": 0,
    "openDays": [],
    "openDaysNote": ""
  },
  {
    "id": "2794600151",
    "name": "エイジ・コート柏原",
    "kana": "エイジ・コート　カシワラ",
    "address": "大阪府柏原市古町3丁目3番5号エイジ・ガーデン柏原 エイジ・ガーデン柏原",
    "lat": 34.5843713,
    "lng": 135.6203406,
    "tel": "072-943-1644",
    "url": "http://www.agecare.co.jp/index.html",
    "pref": "大阪府",
    "city": "柏原市",
    "category": "regular_patrol_nursing",
    "serviceType": "定期巡回・随時対応型訪問介護看護",
    "capacity": 0,
    "openDays": [],
    "openDaysNote": ""
  },
  {
    "id": "2795500392",
    "name": "エブリーケアサービス",
    "kana": "エブリーケアサービス",
    "address": "大阪府八尾市本町2-9-19ココビルディング2階",
    "lat": 34.6276272,
    "lng": 135.5977612,
    "tel": "072-994-9043",
    "url": "genkinakaigo.co.jp",
    "pref": "大阪府",
    "city": "八尾市",
    "category": "regular_patrol_nursing",
    "serviceType": "定期巡回・随時対応型訪問介護看護",
    "capacity": 64,
    "openDays": [],
    "openDaysNote": ""
  },
  {
    "id": "2795500772",
    "name": "医療法人　徳洲会　ラフィーネ介護センター",
    "kana": "イリョウホウジン　トクシュウカイ　ラフィーネカイゴセンター",
    "address": "大阪府八尾市荘内町一丁目２番３５号",
    "lat": 34.6274281,
    "lng": 135.6075204,
    "tel": "072-947-0880",
    "url": "https://yao-care.tokushukai.or.jp/service/regular-visit-care/",
    "pref": "大阪府",
    "city": "八尾市",
    "category": "regular_patrol_nursing",
    "serviceType": "定期巡回・随時対応型訪問介護看護",
    "capacity": null,
    "openDays": [],
    "openDaysNote": ""
  },
  {
    "id": "2795500210",
    "name": "在宅サポートセンター中谷",
    "kana": "ザイタクサポートセンターナカタニ",
    "address": "八尾市八尾木北３丁目１２３番地",
    "lat": 34.6151876,
    "lng": 135.6156428,
    "tel": "072-925-8333",
    "url": "http://www.nakataniclinic.or.jp",
    "pref": "大阪府",
    "city": "八尾市",
    "category": "regular_patrol_nursing",
    "serviceType": "定期巡回・随時対応型訪問介護看護",
    "capacity": 0,
    "openDays": [],
    "openDaysNote": ""
  },
  {
    "id": "2795500533",
    "name": "地域ケアステーションもみじ",
    "kana": "チイキケアステーションモミジ",
    "address": "大阪府八尾市恩智中町2丁目213",
    "lat": 34.6085334445947,
    "lng": 135.629862139474,
    "tel": "06-6727-4588",
    "url": "https://www.kurehaplan.com/",
    "pref": "大阪府",
    "city": "八尾市",
    "category": "regular_patrol_nursing",
    "serviceType": "定期巡回・随時対応型訪問介護看護",
    "capacity": 0,
    "openDays": [],
    "openDaysNote": ""
  },
  {
    "id": "2794900114",
    "name": "ケアビレッジゆう定期巡回・随時対応型訪問介護看護",
    "kana": "ケアビレッジユウテイキジュンカイ・ズイジタイオウガタホウモンカイゴカンゴ",
    "address": "大阪府富田林市廿山1丁目2番18号",
    "lat": 34.4900283297694,
    "lng": 135.579181354631,
    "tel": "0721-29-5550",
    "url": "http://www.khaus.org",
    "pref": "大阪府",
    "city": "富田林市",
    "category": "regular_patrol_nursing",
    "serviceType": "定期巡回・随時対応型訪問介護看護",
    "capacity": 30,
    "openDays": [],
    "openDaysNote": ""
  },
  {
    "id": "2794900189",
    "name": "株式会社M＆C　やすらぎの村　定期巡回ステーション富田林",
    "kana": "カブシキガイシャエムアンドシー　ヤスラギノムラテイキジュンカイステーショントンダバヤシ",
    "address": "大阪府富田林市向陽台二丁目1番12号キタバ薬局2Ｆ キタバ薬局2Ｆ",
    "lat": 34.5010405209023,
    "lng": 135.580846203041,
    "tel": "0721-28-9102",
    "url": "https://www.inforlive.com/kaigo/junkai.html",
    "pref": "大阪府",
    "city": "富田林市",
    "category": "regular_patrol_nursing",
    "serviceType": "定期巡回・随時対応型訪問介護看護",
    "capacity": 0,
    "openDays": [],
    "openDaysNote": ""
  },
  {
    "id": "2794900148",
    "name": "定期巡回・随時対応型訪問介護看護事業所ことほぎ",
    "kana": "テイキジュンカイズイジタオウガタホウモンカイゴカンゴジギョウショコトホギ",
    "address": "大阪府富田林市寿町２－４ー３０",
    "lat": 34.5015645,
    "lng": 135.5944519,
    "tel": "0721－55－2217",
    "url": "",
    "pref": "大阪府",
    "city": "富田林市",
    "category": "regular_patrol_nursing",
    "serviceType": "定期巡回・随時対応型訪問介護看護",
    "capacity": 0,
    "openDays": [],
    "openDaysNote": ""
  },
  {
    "id": "2794000840",
    "name": "ＳＯＭＰＯケア　豊中　定期巡回",
    "kana": "ソンポケア　トヨナカ　テイキジュンカイ",
    "address": "大阪府豊中市岡町北3-5-22",
    "lat": 34.7815998984547,
    "lng": 135.462657653473,
    "tel": "06-6842-2170",
    "url": "",
    "pref": "大阪府",
    "city": "豊中市",
    "category": "regular_patrol_nursing",
    "serviceType": "定期巡回・随時対応型訪問介護看護",
    "capacity": 0,
    "openDays": [],
    "openDaysNote": ""
  },
  {
    "id": "2794001236",
    "name": "アプリシェイト定期巡回・随時対応型訪問介護看護ステーション",
    "kana": "アプリシェイトテイキジュンカイ・ズイジタイオウガタホウモンカイゴカンゴステーション",
    "address": "大阪府豊中市庄内宝町1丁目1番31号メゾン・ド・プラス豊中205号室 メゾン・ド・プラス豊中205号室",
    "lat": 34.7483825,
    "lng": 135.4630267,
    "tel": "06-6676-7061",
    "url": "",
    "pref": "大阪府",
    "city": "豊中市",
    "category": "regular_patrol_nursing",
    "serviceType": "定期巡回・随時対応型訪問介護看護",
    "capacity": null,
    "openDays": [],
    "openDaysNote": ""
  },
  {
    "id": "2794001053",
    "name": "ウエル定期巡回サービス",
    "kana": "ウエルテイキジュンカイサービス",
    "address": "大阪府豊中市利倉三丁目4番19号",
    "lat": 34.7611175,
    "lng": 135.4583798,
    "tel": "06-6210-6585",
    "url": "",
    "pref": "大阪府",
    "city": "豊中市",
    "category": "regular_patrol_nursing",
    "serviceType": "定期巡回・随時対応型訪問介護看護",
    "capacity": 0,
    "openDays": [],
    "openDaysNote": ""
  },
  {
    "id": "2794000477",
    "name": "訪問介護ステーションあいわ",
    "kana": "ホウモンカイゴステーションアイワ",
    "address": "大阪府豊中市寺内1丁目1番10号",
    "lat": 34.7766165,
    "lng": 135.4917536,
    "tel": "06-6866-2943",
    "url": "http://www.aijinkai.or.jp/aiwakai",
    "pref": "大阪府",
    "city": "豊中市",
    "category": "regular_patrol_nursing",
    "serviceType": "定期巡回・随時対応型訪問介護看護",
    "capacity": 10,
    "openDays": [],
    "openDaysNote": ""
  },
  {
    "id": "2794700084",
    "name": "定期巡回訪問ステーション祥雲館",
    "kana": "テイキジュンカイホウモンステーションショウウンカン",
    "address": "大阪府豊能郡豊能町東ときわ台6丁目12番地の８ヴィレッジエン ヴィレッジエン",
    "lat": 34.8997697,
    "lng": 135.448887,
    "tel": "072-733-2181",
    "url": "https://www.shounkan.jp",
    "pref": "大阪府",
    "city": "豊能町",
    "category": "regular_patrol_nursing",
    "serviceType": "定期巡回・随時対応型訪問介護看護",
    "capacity": 0,
    "openDays": [],
    "openDaysNote": ""
  },
  {
    "id": "2792400935",
    "name": "ＳＯＭＰＯケア枚方公園定期巡回",
    "kana": "ソンポケアヒラカタコウエンテイキジュンカイ",
    "address": "大阪府枚方市出口一丁目５番２５号",
    "lat": 34.8040519,
    "lng": 135.6268748,
    "tel": "072-837-3371",
    "url": "https://www.sompocare.com/",
    "pref": "大阪府",
    "city": "枚方市",
    "category": "regular_patrol_nursing",
    "serviceType": "定期巡回・随時対応型訪問介護看護",
    "capacity": null,
    "openDays": [],
    "openDaysNote": ""
  },
  {
    "id": "2792400778",
    "name": "アイエスケアサービス",
    "kana": "アイエスケアサービス",
    "address": "大阪府枚方市津田元町１－１５－５－３１０",
    "lat": 34.8082737,
    "lng": 135.7013993,
    "tel": "072-807-3672",
    "url": "https://www.is-kango.jp",
    "pref": "大阪府",
    "city": "枚方市",
    "category": "regular_patrol_nursing",
    "serviceType": "定期巡回・随時対応型訪問介護看護",
    "capacity": null,
    "openDays": [],
    "openDaysNote": ""
  },
  {
    "id": "2792400299",
    "name": "ケアライフ星丘",
    "kana": "ケアライフホシガオカ",
    "address": "大阪府枚方市星丘3丁目１－４６",
    "lat": 34.8077571359999,
    "lng": 135.66254882632,
    "tel": "072-898-6888",
    "url": "",
    "pref": "大阪府",
    "city": "枚方市",
    "category": "regular_patrol_nursing",
    "serviceType": "定期巡回・随時対応型訪問介護看護",
    "capacity": 30,
    "openDays": [],
    "openDaysNote": ""
  },
  {
    "id": "2792600195",
    "name": "ＳＯＭＰＯケア門真　定期巡回",
    "kana": "ソンポケアカドマ　テイキジュンカイ",
    "address": "大阪府門真市千石東町2番46号ウインズビル3階Ⅰ号室 ウインズビル3階Ⅰ号室",
    "lat": 34.7262728301877,
    "lng": 135.608649046364,
    "tel": "070‐1558‐5183",
    "url": "https://www.sompocare.com/",
    "pref": "大阪府",
    "city": "門真市",
    "category": "regular_patrol_nursing",
    "serviceType": "定期巡回・随時対応型訪問介護看護",
    "capacity": 0,
    "openDays": [],
    "openDaysNote": ""
  },
  {
    "id": "2792600104",
    "name": "けいはん医療生活協同組合定期巡回・随時対応型訪問介護看護　いつでもみどり",
    "kana": "ケイハンイリョウセイカツキョウドウクミアイテイキジュンカイ・ズイジタイオウガタホウモンカイゴカンゴ・イツデモミドリ",
    "address": "大阪府門真市上島町38-8",
    "lat": 34.7466003432084,
    "lng": 135.60835649154,
    "tel": "072-882-5588",
    "url": "http://www.keihan-healthcoop.net",
    "pref": "大阪府",
    "city": "門真市",
    "category": "regular_patrol_nursing",
    "serviceType": "定期巡回・随時対応型訪問介護看護",
    "capacity": 0,
    "openDays": [],
    "openDaysNote": ""
  },
  {
    "id": "2790500157",
    "name": "在宅サービス　コープアイメゾン和泉一条院　定期巡回",
    "kana": "ザイタクサービス　コープアイメゾンイズミイチジョウイン　テイキジュンカイ",
    "address": "大阪府和泉市一条院町131笑顔の里　和泉一条院 笑顔の里　和泉一条院",
    "lat": 34.4818819,
    "lng": 135.4409749,
    "tel": "0725-51-7001",
    "url": "http://www.izumi.coop/",
    "pref": "大阪府",
    "city": "和泉市",
    "category": "regular_patrol_nursing",
    "serviceType": "定期巡回・随時対応型訪問介護看護",
    "capacity": 0,
    "openDays": [],
    "openDaysNote": ""
  }
]