[
  {
    "id": "2990500098",
    "name": "あすならホーム畝傍　安心ケアシステム",
    "kana": "アスナラホームウネビ　アンシンケアシステム",
    "address": "奈良県橿原市大久保町287-1",
    "lat": 34.495398121117,
    "lng": 135.792879594695,
    "tel": "0744-24-1165",
    "url": "https://asunaraen.or.jp/facility/asunarahomeunebi",
    "pref": "奈良県",
    "city": "橿原市",
    "category": "regular_patrol_nursing",
    "serviceType": "定期巡回・随時対応型訪問介護看護",
    "capacity": 200,
    "openDays": [],
    "openDaysNote": ""
  },
  {
    "id": "2991000080",
    "name": "特別養護老人ホーム大和園白鳳",
    "kana": "トクベツヨウゴロウジンホームヤマトエンハクホウ",
    "address": "奈良県香芝市尼寺594-2",
    "lat": 34.5707495,
    "lng": 135.6870761,
    "tel": "0745-79-5500",
    "url": "http://www.yamatoen.or.jp/",
    "pref": "奈良県",
    "city": "香芝市",
    "category": "regular_patrol_nursing",
    "serviceType": "定期巡回・随時対応型訪問介護看護",
    "capacity": 0,
    "openDays": [],
    "openDaysNote": ""
  },
  {
    "id": "2990600260",
    "name": "あすならホーム桜井",
    "kana": "アスナラホームサクライ",
    "address": "奈良県桜井市粟殿800",
    "lat": 34.5190612,
    "lng": 135.8535498,
    "tel": "0744-43-4165",
    "url": "http://www.asunaraen.com",
    "pref": "奈良県",
    "city": "桜井市",
    "category": "regular_patrol_nursing",
    "serviceType": "定期巡回・随時対応型訪問介護看護",
    "capacity": null,
    "openDays": [],
    "openDaysNote": ""
  },
  {
    "id": "2990600153",
    "name": "ていきじゅんかいずいじほうもんしばさのさと",
    "kana": "定期巡回随時訪問芝ノ里",
    "address": "奈良県桜井市芝1025-5",
    "lat": 34.536865,
    "lng": 135.8358931,
    "tel": "0744-35-5390",
    "url": "http://shoujukai-inc.jp",
    "pref": "奈良県",
    "city": "桜井市",
    "category": "regular_patrol_nursing",
    "serviceType": "定期巡回・随時対応型訪問介護看護",
    "capacity": 0,
    "openDays": [],
    "openDaysNote": ""
  },
  {
    "id": "2991500048",
    "name": "ライフケア王寺",
    "kana": "ライフケアオウジ",
    "address": "奈良県生駒郡三郷町勢野東４丁目３番２０号",
    "lat": 34.6066817,
    "lng": 135.7008683,
    "tel": "0745-31-5799",
    "url": "http://lifecare-ouji.or.jp/",
    "pref": "奈良県",
    "city": "三郷町",
    "category": "regular_patrol_nursing",
    "serviceType": "定期巡回・随時対応型訪問介護看護",
    "capacity": 0,
    "openDays": [],
    "openDaysNote": ""
  },
  {
    "id": "2993100037",
    "name": "株式会社六花　福祉事業部　六花24時間対応型訪問介護看護センター",
    "kana": "カブシキカイシャロッカ　フクシジギョウブ　ロッカ24ジカンタイオウガタホウモンカイゴカンゴセンター",
    "address": "奈良県北葛城郡上牧町大字上牧537-16",
    "lat": 34.5618095,
    "lng": 135.7113963,
    "tel": "0745-43-6987",
    "url": "http://www.rokka-fukushi.jp",
    "pref": "奈良県",
    "city": "上牧町",
    "category": "regular_patrol_nursing",
    "serviceType": "定期巡回・随時対応型訪問介護看護",
    "capacity": 0,
    "openDays": [],
    "openDaysNote": ""
  },
  {
    "id": "2990900090",
    "name": "あすならホーム菜畑　安心ケアシステム",
    "kana": "アスナラホームナバタ　アンシンケアシステム",
    "address": "奈良県生駒市中菜畑2丁目1129-1",
    "lat": 34.6817079,
    "lng": 135.7056556,
    "tel": "0743-75-1141",
    "url": "http://www.asunaraen.or.jp/",
    "pref": "奈良県",
    "city": "生駒市",
    "category": "regular_patrol_nursing",
    "serviceType": "定期巡回・随時対応型訪問介護看護",
    "capacity": 100,
    "openDays": [],
    "openDaysNote": ""
  },
  {
    "id": "2990900181",
    "name": "いこいの家さぽーとセンター",
    "kana": "イコイノイエサポートセンター",
    "address": "奈良県生駒市上町1088-1",
    "lat": 34.7130003336516,
    "lng": 135.722492058914,
    "tel": "0743-70-8300",
    "url": "http://www.lifecarejp.com",
    "pref": "奈良県",
    "city": "生駒市",
    "category": "regular_patrol_nursing",
    "serviceType": "定期巡回・随時対応型訪問介護看護",
    "capacity": null,
    "openDays": [],
    "openDaysNote": ""
  },
  {
    "id": "2990300101",
    "name": "あすならホーム郡山　安心ケアシステム",
    "kana": "アスナラホームコオリヤマ　アンシンケアシステム",
    "address": "奈良県大和郡山市新木町361-1",
    "lat": 34.6420519,
    "lng": 135.7735117,
    "tel": "0743-51-1165",
    "url": "http://www.asunaraen.or.jp/",
    "pref": "奈良県",
    "city": "大和郡山市",
    "category": "regular_patrol_nursing",
    "serviceType": "定期巡回・随時対応型訪問介護看護",
    "capacity": 0,
    "openDays": [],
    "openDaysNote": ""
  },
  {
    "id": "2990300093",
    "name": "あすなら苑安心ケアシステム",
    "kana": "アスナラエンアンシンケアシステム",
    "address": "奈良県大和郡山市宮堂町160-7",
    "lat": 34.6019458,
    "lng": 135.7864339,
    "tel": "0743-58-4165",
    "url": "https://asunaraen.or.jp",
    "pref": "奈良県",
    "city": "大和郡山市",
    "category": "regular_patrol_nursing",
    "serviceType": "定期巡回・随時対応型訪問介護看護",
    "capacity": 0,
    "openDays": [],
    "openDaysNote": ""
  },
  {
    "id": "2990300119",
    "name": "大和園平和　定期巡回・随時対応型訪問介護看護",
    "kana": "ヤマトエンヘイワ　テイキジュンカイ・ズイジタイオウガタホウモンカイゴカンゴ",
    "address": "奈良県大和郡山市美濃庄町236-1",
    "lat": 34.6393253,
    "lng": 135.8063422,
    "tel": "0743-58-2700",
    "url": "http://www.yamatoen.or.jp/",
    "pref": "奈良県",
    "city": "大和郡山市",
    "category": "regular_patrol_nursing",
    "serviceType": "定期巡回・随時対応型訪問介護看護",
    "capacity": 0,
    "openDays": [],
    "openDaysNote": ""
  },
  {
    "id": "2990200111",
    "name": "あすならホーム高田　安心ケアシステム",
    "kana": "アスナラホームタカダ　アンシンケアシステム",
    "address": "奈良県大和高田市礒野南町5番15号",
    "lat": 34.5061646,
    "lng": 135.7405037,
    "tel": "0745-21-1165",
    "url": "https://asunaraen.or.jp/",
    "pref": "奈良県",
    "city": "大和高田市",
    "category": "regular_patrol_nursing",
    "serviceType": "定期巡回・随時対応型訪問介護看護",
    "capacity": null,
    "openDays": [],
    "openDaysNote": ""
  },
  {
    "id": "2990400166",
    "name": "あすならほーむやまのべ",
    "kana": "アスナラホーム山ノ辺",
    "address": "別所町246",
    "lat": 34.6084966413053,
    "lng": 135.833967737134,
    "tel": "0743-68-1165",
    "url": "https://asunaraen.or.jp/facility/shisetsu.html",
    "pref": "奈良県",
    "city": "天理市",
    "category": "regular_patrol_nursing",
    "serviceType": "定期巡回・随時対応型訪問介護看護",
    "capacity": 0,
    "openDays": [],
    "openDaysNote": ""
  },
  {
    "id": "2992000071",
    "name": "定期巡回愛和園",
    "kana": "テイキジュンカイアイワエン",
    "address": "奈良県磯城郡田原本町大字秦庄334-1",
    "lat": 34.5443548,
    "lng": 135.7940201,
    "tel": "0744-32-2500",
    "url": "",
    "pref": "奈良県",
    "city": "田原本町",
    "category": "regular_patrol_nursing",
    "serviceType": "定期巡回・随時対応型訪問介護看護",
    "capacity": null,
    "openDays": [],
    "openDaysNote": ""
  },
  {
    "id": "2992000055",
    "name": "福祉センターすいせんの丘",
    "kana": "フクシセンタースイセンノオカ",
    "address": "奈良県磯城郡田原本町大字平田272番地1",
    "lat": 34.5567995322347,
    "lng": 135.812553716255,
    "tel": "0744-34-2301",
    "url": "yukarinosatoen.com",
    "pref": "奈良県",
    "city": "田原本町",
    "category": "regular_patrol_nursing",
    "serviceType": "定期巡回・随時対応型訪問介護看護",
    "capacity": 40,
    "openDays": [],
    "openDaysNote": ""
  },
  {
    "id": "2990100337",
    "name": "（株）けいはんなヘルパーステーション",
    "kana": "カブシキガイシャケイハンナヘルパーステーション",
    "address": "奈良県奈良市二名3丁目952-1",
    "lat": 34.7051558,
    "lng": 135.7322839,
    "tel": "0742-52-6570",
    "url": "http://www.khs91918.com",
    "pref": "奈良県",
    "city": "奈良市",
    "category": "regular_patrol_nursing",
    "serviceType": "定期巡回・随時対応型訪問介護看護",
    "capacity": 0,
    "openDays": [],
    "openDaysNote": ""
  },
  {
    "id": "2990190148",
    "name": "SOMPOケア　三条桧町　定期巡回",
    "kana": "ソンポケア　サンジョウヒノキマチ　テイキジュンカイ",
    "address": "奈良市三条桧町２２－１２そんぽの家Ｓ三条桧町 そんぽの家Ｓ三条桧町",
    "lat": 34.677575,
    "lng": 135.8110319,
    "tel": "0742-32-5633",
    "url": "https://www.sompocare.com/service/home/satsuki/H000320/",
    "pref": "奈良県",
    "city": "奈良市",
    "category": "regular_patrol_nursing",
    "serviceType": "定期巡回・随時対応型訪問介護看護",
    "capacity": null,
    "openDays": [],
    "openDaysNote": ""
  },
  {
    "id": "2990100279",
    "name": "あすならハイツあやめ池安心ケアシステム",
    "kana": "アスナラハイツアヤメイケアンシンケアシステム",
    "address": "奈良県奈良市あやめ池南2丁目2-16",
    "lat": 34.6974791,
    "lng": 135.7625229,
    "tel": "0742-45-1165",
    "url": "http://www.asunaraen.com",
    "pref": "奈良県",
    "city": "奈良市",
    "category": "regular_patrol_nursing",
    "serviceType": "定期巡回・随時対応型訪問介護看護",
    "capacity": 0,
    "openDays": [],
    "openDaysNote": ""
  },
  {
    "id": "2990100394",
    "name": "あすならハイツ恋の窪　安心ケアシステム",
    "kana": "アスナラハイツコイノクボ　アンシンケアシステム",
    "address": "奈良県奈良市恋の窪1-2-2",
    "lat": 34.6769463,
    "lng": 135.8082585,
    "tel": "0742-32-4165",
    "url": "https://asunaraen.or.jp",
    "pref": "奈良県",
    "city": "奈良市",
    "category": "regular_patrol_nursing",
    "serviceType": "定期巡回・随時対応型訪問介護看護",
    "capacity": 0,
    "openDays": [],
    "openDaysNote": ""
  },
  {
    "id": "2990190056",
    "name": "あすならホーム今小路安心ケアシステム",
    "kana": "アスナラホームイマコウジアンシンケアシステム",
    "address": "奈良県奈良市今小路町29-1",
    "lat": 34.6912428778296,
    "lng": 135.834139701852,
    "tel": "0742-26-1165",
    "url": "https://asunaraen.or.jp/",
    "pref": "奈良県",
    "city": "奈良市",
    "category": "regular_patrol_nursing",
    "serviceType": "定期巡回・随時対応型訪問介護看護",
    "capacity": 0,
    "openDays": [],
    "openDaysNote": ""
  },
  {
    "id": "2990100311",
    "name": "あすならホーム西の京　安心ケアシステム",
    "kana": "アスナラホームニシノキョウ　アンシンケアシステム",
    "address": "奈良県奈良市六条2丁目20番65号",
    "lat": 34.6710000680656,
    "lng": 135.775729384656,
    "tel": "0742-45-6541",
    "url": "http://www.asunaraen.or.jp/",
    "pref": "奈良県",
    "city": "奈良市",
    "category": "regular_patrol_nursing",
    "serviceType": "定期巡回・随時対応型訪問介護看護",
    "capacity": 0,
    "openDays": [],
    "openDaysNote": ""
  },
  {
    "id": "2990100162",
    "name": "あすならホーム富雄　安心ケアシステム",
    "kana": "アスナラホームトミオ　アンシンケアシステム",
    "address": "奈良市鳥見町3丁目11-1",
    "lat": 34.6939735,
    "lng": 135.724943,
    "tel": "0742-53-1165",
    "url": "http://ｗｗｗ.asunaraenn.com",
    "pref": "奈良県",
    "city": "奈良市",
    "category": "regular_patrol_nursing",
    "serviceType": "定期巡回・随時対応型訪問介護看護",
    "capacity": 0,
    "openDays": [],
    "openDaysNote": ""
  },
  {
    "id": "2990100220",
    "name": "スーパー・コートＪＲ奈良駅前定期巡回随時対応型訪問介護看護事業所",
    "kana": "スーパー・コートジェーアールナラエキマエテイキジュンカイズイジタイオウガタホウモンカイゴカンゴジギョウショ",
    "address": "奈良市大宮町一丁目３－３２",
    "lat": 34.6824885795064,
    "lng": 135.818505073016,
    "tel": "0742-30-4852",
    "url": "http://www.supercourt.jp/company",
    "pref": "奈良県",
    "city": "奈良市",
    "category": "regular_patrol_nursing",
    "serviceType": "定期巡回・随時対応型訪問介護看護",
    "capacity": 0,
    "openDays": [],
    "openDaysNote": ""
  },
  {
    "id": "2990100683",
    "name": "チャームヘルパーステーション奈良学園前",
    "kana": "チャームヘルパーステーションナラガクエンマエ",
    "address": "奈良県奈良市鶴舞東町1番36号",
    "lat": 34.7025601,
    "lng": 135.7508069,
    "tel": "0742-53-2803",
    "url": "https://www.charmcc.jp/home/charmsuite_naragakuenmae/",
    "pref": "奈良県",
    "city": "奈良市",
    "category": "regular_patrol_nursing",
    "serviceType": "定期巡回・随時対応型訪問介護看護",
    "capacity": null,
    "openDays": [],
    "openDaysNote": ""
  },
  {
    "id": "2990100329",
    "name": "デイ＆ナイト訪問サービス八重桜",
    "kana": "デイアンドナイトホウモンサービスヤエザクラ",
    "address": "奈良県奈良市法蓮町410-2",
    "lat": 34.691214,
    "lng": 135.8157435,
    "tel": "0742-20-7205",
    "url": "https://yaezakura.co.jp/",
    "pref": "奈良県",
    "city": "奈良市",
    "category": "regular_patrol_nursing",
    "serviceType": "定期巡回・随時対応型訪問介護看護",
    "capacity": 0,
    "openDays": [],
    "openDaysNote": ""
  },
  {
    "id": "2970102576",
    "name": "ぽれぽれ登美ヶ丘",
    "kana": "ポレポレトミガオカ",
    "address": "奈良市登美ヶ丘二丁目2番15号",
    "lat": 34.7120649,
    "lng": 135.750081,
    "tel": "0742-30-5515",
    "url": "www:porepore.co.jp",
    "pref": "奈良県",
    "city": "奈良市",
    "category": "regular_patrol_nursing",
    "serviceType": "定期巡回・随時対応型訪問介護看護",
    "capacity": 0,
    "openDays": [],
    "openDaysNote": ""
  },
  {
    "id": "2990100246",
    "name": "安心サポートダイヤル「桜」",
    "kana": "アンシンサポートダイヤル「サクラ」",
    "address": "奈良県奈良市中山町１３２４－１有限会社ﾅｲｽｹｱｻﾎﾟｰﾄ「桜の樹」 有限会社ﾅｲｽｹｱｻﾎﾟｰﾄ「桜の樹」",
    "lat": 34.7114722,
    "lng": 135.7692693,
    "tel": "０７４２－５２－６３９９",
    "url": "http://www.nicecare-support.com/",
    "pref": "奈良県",
    "city": "奈良市",
    "category": "regular_patrol_nursing",
    "serviceType": "定期巡回・随時対応型訪問介護看護",
    "capacity": 0,
    "openDays": [],
    "openDaysNote": ""
  }
]