[
  {
    "id": "490300068",
    "name": "ケアビレッジ塩竃ケアサービスステーション定期巡回・随時対応型訪問介護看護事業所",
    "kana": "ケアビレッジシオガマケアサービスステーションテイキジュンカイ・ズイジタイオウガタホウモンカイゴカンゴジギョウショ",
    "address": "宮城県塩竈市清水沢4丁目39-1ケアビレッジ塩竃ケアサービスステーション定期巡回・随時対応型訪問介護看護事業所 ケアビレッジ塩竃ケアサービスステーション定期巡回・随時対応型訪問介護看護事業所",
    "lat": 38.3346011,
    "lng": 141.0071829,
    "tel": "022-354-0038",
    "url": "http://ritsuwa.com",
    "pref": "宮城県",
    "city": "塩竈市",
    "category": "regular_patrol_nursing",
    "serviceType": "定期巡回・随時対応型訪問介護看護",
    "capacity": 0,
    "openDays": [],
    "openDaysNote": ""
  },
  {
    "id": "490800075",
    "name": "定期巡回随時対応型ヘルパーステーション金上",
    "kana": "テイキジュンカイズイジタイオウガタヘルパーステーションカナガミ",
    "address": "宮城県角田市角田字中島上183看護小規模体機能型居宅介護金上・住宅型有料老人ホームタンポポ 看護小規模体機能型居宅介護金上・住宅型有料老人ホームタンポポ",
    "lat": 37.9720470658019,
    "lng": 140.787828556483,
    "tel": "0224-61-1688",
    "url": "http://www.kanagami.or.jp",
    "pref": "宮城県",
    "city": "角田市",
    "category": "regular_patrol_nursing",
    "serviceType": "定期巡回・随時対応型訪問介護看護",
    "capacity": 0,
    "openDays": [],
    "openDaysNote": ""
  },
  {
    "id": "490500105",
    "name": "春圃苑24時間ヘルパーステーション",
    "kana": "シュンポエンニジュウヨジカンヘルパーステーション",
    "address": "宮城県気仙沼市本吉町中島358番地6",
    "lat": 38.77633,
    "lng": 141.5172468,
    "tel": "0226-42-2109",
    "url": "",
    "pref": "宮城県",
    "city": "気仙沼市",
    "category": "regular_patrol_nursing",
    "serviceType": "定期巡回・随時対応型訪問介護看護",
    "capacity": null,
    "openDays": [],
    "openDaysNote": ""
  },
  {
    "id": "470200684",
    "name": "ぱんぷきん介護センター　ウェルキャブステーション",
    "kana": "パンプキンカイゴセンター　ウェルキャブステーション",
    "address": "宮城県石巻市門脇字二番谷地13番地21",
    "lat": 38.4324794632753,
    "lng": 141.266922256016,
    "tel": "0225-21-6711",
    "url": "http://care-net.biz/04/pumpkin/company.php",
    "pref": "宮城県",
    "city": "石巻市",
    "category": "regular_patrol_nursing",
    "serviceType": "定期巡回・随時対応型訪問介護看護",
    "capacity": 0,
    "openDays": [],
    "openDaysNote": ""
  },
  {
    "id": "495100380",
    "name": "アルテイル２４",
    "kana": "アルテイルニジュウヨン",
    "address": "宮城県仙台市青葉区荒巻字三居沢1‐16特別養護老人ホーム　アルテイル青葉 特別養護老人ホーム　アルテイル青葉",
    "lat": 38.2685654,
    "lng": 140.8381221,
    "tel": "022-212-3924",
    "url": "http://www.aofuku.or.jp/",
    "pref": "宮城県",
    "city": "仙台市青葉区",
    "category": "regular_patrol_nursing",
    "serviceType": "定期巡回・随時対応型訪問介護看護",
    "capacity": 0,
    "openDays": [],
    "openDaysNote": ""
  },
  {
    "id": "495100315",
    "name": "こ～ぷのお家桜ヶ丘定期巡回ケアステーション",
    "kana": "コ～プノオウチサクラガオカテイキジュンカイケアステーション",
    "address": "宮城県仙台市青葉区桜ヶ丘2-20-1",
    "lat": 38.2975111,
    "lng": 140.8550471,
    "tel": "022-719-1275",
    "url": "http://www.coop-fukushikai.jp",
    "pref": "宮城県",
    "city": "仙台市青葉区",
    "category": "regular_patrol_nursing",
    "serviceType": "定期巡回・随時対応型訪問介護看護",
    "capacity": 30,
    "openDays": [],
    "openDaysNote": ""
  },
  {
    "id": "495100638",
    "name": "こころ定期巡回・随時対応型訪問介護看護",
    "kana": "ココロテイキジュンカイ・ズイジタイオウガタホウモンカイゴカンゴ",
    "address": "宮城県仙台市青葉区米ケ袋２丁目１－３０",
    "lat": 38.2502551,
    "lng": 140.8747511,
    "tel": "022-741-6211",
    "url": "",
    "pref": "宮城県",
    "city": "仙台市青葉区",
    "category": "regular_patrol_nursing",
    "serviceType": "定期巡回・随時対応型訪問介護看護",
    "capacity": null,
    "openDays": [],
    "openDaysNote": ""
  },
  {
    "id": "495100307",
    "name": "せんだんの丘定期巡回随時対応型訪問介護看護",
    "kana": "センダンノオカテイキジュンカイズイジタイオウガタホウモンカイゴカンゴ",
    "address": "宮城県仙台市青葉区国見ケ丘６－１２６－５１",
    "lat": 38.2839663,
    "lng": 140.8344095,
    "tel": "022-727-8834",
    "url": "http://www.bone-info.org/sendannooka/index.html",
    "pref": "宮城県",
    "city": "仙台市青葉区",
    "category": "regular_patrol_nursing",
    "serviceType": "定期巡回・随時対応型訪問介護看護",
    "capacity": 0,
    "openDays": [],
    "openDaysNote": ""
  },
  {
    "id": "495500530",
    "name": "SOMPOケア　仙台泉　定期巡回",
    "kana": "ソンポケア　センダイイズミ　テイキジュンカイ",
    "address": "宮城県仙台市泉区松森字鹿島53-9",
    "lat": 38.3181911,
    "lng": 140.9093373,
    "tel": "022-771-7362",
    "url": "https://www.sompocare.com",
    "pref": "宮城県",
    "city": "仙台市泉区",
    "category": "regular_patrol_nursing",
    "serviceType": "定期巡回・随時対応型訪問介護看護",
    "capacity": null,
    "openDays": [],
    "openDaysNote": ""
  },
  {
    "id": "495500324",
    "name": "グッドタイムサポート泉大沢",
    "kana": "グッドタイムサポートイズミオオサワ",
    "address": "宮城県仙台市泉区大沢3-5-1グッドタイムホーム泉大沢1F グッドタイムホーム泉大沢1F",
    "lat": 38.3569431325644,
    "lng": 140.874547680313,
    "tel": "022-772-5867",
    "url": "http://souseikai-izumiosawa.com/",
    "pref": "宮城県",
    "city": "仙台市泉区",
    "category": "regular_patrol_nursing",
    "serviceType": "定期巡回・随時対応型訪問介護看護",
    "capacity": 0,
    "openDays": [],
    "openDaysNote": ""
  },
  {
    "id": "495500316",
    "name": "松田会　ホームケアステーション２４",
    "kana": "マツダカイホームケアステーション２４",
    "address": "仙台市泉区実沢字立田屋敷17番地の1",
    "lat": 38.3352416970947,
    "lng": 140.839334791551,
    "tel": "022-387-5051",
    "url": "",
    "pref": "宮城県",
    "city": "仙台市泉区",
    "category": "regular_patrol_nursing",
    "serviceType": "定期巡回・随時対応型訪問介護看護",
    "capacity": 0,
    "openDays": [],
    "openDaysNote": ""
  },
  {
    "id": "495400442",
    "name": "24ケアステーションノテ富沢",
    "kana": "ニイヨンケアステーションノテトミザワ",
    "address": "宮城県仙台市太白区富沢西3丁目10番地の1",
    "lat": 38.209451,
    "lng": 140.853715,
    "tel": "022-226-7280",
    "url": "https://www.note.or.jp/facilities/zaitaku/teiki-houmon/teiki-houmon-note-tomisawa/",
    "pref": "宮城県",
    "city": "仙台市太白区",
    "category": "regular_patrol_nursing",
    "serviceType": "定期巡回・随時対応型訪問介護看護",
    "capacity": null,
    "openDays": [],
    "openDaysNote": ""
  },
  {
    "id": "495400293",
    "name": "公益財団法人宮城厚生協会ケアステーションながまち24",
    "kana": "コウエキザイダンホウジン　ミヤギコウセイキョウカイ　ケアステーションナガマチ24",
    "address": "宮城県仙台市太白区長町３丁目7-26長町病院北棟２階 長町病院北棟２階",
    "lat": 38.2297831,
    "lng": 140.8838779,
    "tel": "022-247-2252",
    "url": "",
    "pref": "宮城県",
    "city": "仙台市太白区",
    "category": "regular_patrol_nursing",
    "serviceType": "定期巡回・随時対応型訪問介護看護",
    "capacity": 30,
    "openDays": [],
    "openDaysNote": ""
  },
  {
    "id": "495400301",
    "name": "松田会　ホームケアステーション八木山２４",
    "kana": "マツダカイホームケアステーションヤギヤマ２４",
    "address": "宮城県仙台市太白区向山2丁目11番36号向山アパート１階 向山アパート１階",
    "lat": 38.2459041464556,
    "lng": 140.865506395107,
    "tel": "022-393-8419",
    "url": "http://www.matsuda-hp.com/",
    "pref": "宮城県",
    "city": "仙台市太白区",
    "category": "regular_patrol_nursing",
    "serviceType": "定期巡回・随時対応型訪問介護看護",
    "capacity": 0,
    "openDays": [],
    "openDaysNote": ""
  },
  {
    "id": "490900081",
    "name": "公益財団法人宮城厚生協会ケアステーションつくし24",
    "kana": "コウエキザイダンホウジンミヤギコウセイキョウカイケアステーションツクシ24",
    "address": "宮城県多賀城市笠神１丁目８－２８",
    "lat": 38.3050137,
    "lng": 141.0269496,
    "tel": "022-361-1311",
    "url": "",
    "pref": "宮城県",
    "city": "多賀城市",
    "category": "regular_patrol_nursing",
    "serviceType": "定期巡回・随時対応型訪問介護看護",
    "capacity": 0,
    "openDays": [],
    "openDaysNote": ""
  },
  {
    "id": "491500377",
    "name": "ほのか定期巡回・随時対応型訪問介護ステーション",
    "kana": "ホノカテイキジュンカイ・ズイジタイオウガタホウモンカイゴカンゴステーション",
    "address": "宮城県大崎市古川北稲葉三丁目13-34",
    "lat": 38.5602674768356,
    "lng": 140.950564575957,
    "tel": "0229-25-5564",
    "url": "https://www.honoka-world.com/",
    "pref": "宮城県",
    "city": "大崎市",
    "category": "regular_patrol_nursing",
    "serviceType": "定期巡回・随時対応型訪問介護看護",
    "capacity": 15,
    "openDays": [],
    "openDaysNote": ""
  },
  {
    "id": "490600129",
    "name": "定期巡回　リズム白石蔵王",
    "kana": "テイキジュンカイリズムシロイシザオウ",
    "address": "宮城県白石市鷹巣東三丁目８番１号",
    "lat": 37.997165,
    "lng": 140.639687,
    "tel": "0224-26-6341",
    "url": "http://treetumbo-i.com",
    "pref": "宮城県",
    "city": "白石市",
    "category": "regular_patrol_nursing",
    "serviceType": "定期巡回・随時対応型訪問介護看護",
    "capacity": 0,
    "openDays": [],
    "openDaysNote": ""
  },
  {
    "id": "493100127",
    "name": "訪問介護　福寿の家",
    "kana": "ホウモンカイゴ　フクジュノイエ",
    "address": "宮城県遠田郡美里町北浦字待江82-8",
    "lat": 38.5426716,
    "lng": 141.0542036,
    "tel": "0229-87-5351",
    "url": "",
    "pref": "宮城県",
    "city": "美里町",
    "category": "regular_patrol_nursing",
    "serviceType": "定期巡回・随時対応型訪問介護看護",
    "capacity": 0,
    "openDays": [],
    "openDaysNote": ""
  }
]