[
  {
    "id": "4590900041",
    "name": "ケアステーションすまいりんぐ",
    "kana": "ケアステーションスマイリング",
    "address": "宮崎県えびの市大字原田2139番地",
    "lat": 32.0349538,
    "lng": 130.8759036,
    "tel": "984481700",
    "url": "https://arismiling.life/",
    "pref": "宮崎県",
    "city": "えびの市",
    "category": "regular_patrol_nursing",
    "serviceType": "定期巡回・随時対応型訪問介護看護",
    "capacity": null,
    "openDays": [],
    "openDaysNote": ""
  },
  {
    "id": "4590101160",
    "name": "りんくる",
    "kana": "リンクル",
    "address": "宮崎県宮崎市神宮１－２４０－１オフィスティ第１ビル3-A オフィスティ第１ビル3-A",
    "lat": 31.9327757,
    "lng": 131.4213854,
    "tel": "0985-77-5410",
    "url": "https://www.spinner-linkle.com",
    "pref": "宮崎県",
    "city": "宮崎市",
    "category": "regular_patrol_nursing",
    "serviceType": "定期巡回・随時対応型訪問介護看護",
    "capacity": 0,
    "openDays": [],
    "openDaysNote": ""
  },
  {
    "id": "4590101392",
    "name": "定期巡回・随時対応型訪問介護看護　心の葉",
    "kana": "テイキジュンカイ・ズイジタイオウガタホウモンカイゴカンゴ　コノハ",
    "address": "宮崎県宮崎市清武町加納乙82番地11",
    "lat": 31.8786767,
    "lng": 131.4106038,
    "tel": "090-8069-7827",
    "url": "",
    "pref": "宮崎県",
    "city": "宮崎市",
    "category": "regular_patrol_nursing",
    "serviceType": "定期巡回・随時対応型訪問介護看護",
    "capacity": null,
    "openDays": [],
    "openDaysNote": ""
  },
  {
    "id": "4590101277",
    "name": "定期巡回・随時対応型訪問介護看護（連携型）みまもり",
    "kana": "テイキジュンカイ・ズイジタイオウガタホウモンカイゴカンゴ（レンケイガタ）ミマモリ",
    "address": "宮崎県宮崎市清武町正手１丁目56-2あさひハウス３号室 あさひハウス３号室",
    "lat": 31.8583847,
    "lng": 131.3881501,
    "tel": "0985-41-9368",
    "url": "",
    "pref": "宮崎県",
    "city": "宮崎市",
    "category": "regular_patrol_nursing",
    "serviceType": "定期巡回・随時対応型訪問介護看護",
    "capacity": null,
    "openDays": [],
    "openDaysNote": ""
  },
  {
    "id": "4590100857",
    "name": "定期巡回・随時対応型訪問介護看護ステーション　アルバ",
    "kana": "テイキジュンカイズイジタイオウガタホウモンカイゴカンゴステーションアルバ",
    "address": "宮崎県宮崎市大字小松1133番地カーサ・アルバ壱番館3階 カーサ・アルバ壱番館3階",
    "lat": 31.9349329,
    "lng": 131.4019563,
    "tel": "0985-62-3031",
    "url": "http://www.junwakai.com",
    "pref": "宮崎県",
    "city": "宮崎市",
    "category": "regular_patrol_nursing",
    "serviceType": "定期巡回・随時対応型訪問介護看護",
    "capacity": 0,
    "openDays": [],
    "openDaysNote": ""
  },
  {
    "id": "4590101285",
    "name": "定期巡回随時対応型訪問介護事業所　輪（りん）",
    "kana": "テイキジュンカイズイジタイオウガタホウモンカイゴカンゴジギョウショ　リン（リン）",
    "address": "宮崎県宮崎市大字有田水流田ノ上324-1住宅型有料老人ホーム　輪（りん） 住宅型有料老人ホーム　輪（りん）",
    "lat": 31.9515102,
    "lng": 131.3723887,
    "tel": "0985-48-5300",
    "url": "https://www.nursing-home-rin.co.jp/",
    "pref": "宮崎県",
    "city": "宮崎市",
    "category": "regular_patrol_nursing",
    "serviceType": "定期巡回・随時対応型訪問介護看護",
    "capacity": 0,
    "openDays": [],
    "openDaysNote": ""
  },
  {
    "id": "4590600104",
    "name": "みまもりステーション　あやめ",
    "kana": "ミマモリステーション　アヤメ",
    "address": "宮崎県日向市大字財光寺972番地１０",
    "lat": 32.4067181,
    "lng": 131.6311791,
    "tel": "0982-66-6004",
    "url": "",
    "pref": "宮崎県",
    "city": "日向市",
    "category": "regular_patrol_nursing",
    "serviceType": "定期巡回・随時対応型訪問介護看護",
    "capacity": 0,
    "openDays": [],
    "openDaysNote": ""
  }
]