[
  {
    "id": "1690400062",
    "name": "魚津病院24時間訪問介護看護ステーション",
    "kana": "ウオヅビョウイン24ジカンホウモンカイゴカンゴステーション",
    "address": "富山県魚津市友道７８９番地",
    "lat": 36.8145605,
    "lng": 137.4113616,
    "tel": "0765-24-7837",
    "url": "http://www.uozubyouin.jp",
    "pref": "富山県",
    "city": "魚津市",
    "category": "regular_patrol_nursing",
    "serviceType": "定期巡回・随時対応型訪問介護看護",
    "capacity": 0,
    "openDays": [],
    "openDaysNote": ""
  },
  {
    "id": "1690200652",
    "name": "あさひの里定期巡回・随時対応型訪問介護",
    "kana": "アサヒノサトテイキジュンカイズイジタイオウガタホウモンカイゴ",
    "address": "富山県高岡市鷲北新185番地あさひの里 あさひの里",
    "lat": 36.7663859724848,
    "lng": 137.037859864843,
    "tel": "0766-26-8688",
    "url": "http://akanekai.toyama.jp/",
    "pref": "富山県",
    "city": "高岡市",
    "category": "regular_patrol_nursing",
    "serviceType": "定期巡回・随時対応型訪問介護看護",
    "capacity": 0,
    "openDays": [],
    "openDaysNote": ""
  },
  {
    "id": "1690200439",
    "name": "のむらサポートセンター定期巡回・随時対応型訪問介護看護",
    "kana": "ノムラサポートセンターテイキジュンカイ・ズイジタイオウガタホウモンカイゴカンゴ",
    "address": "富山県高岡市野村1817",
    "lat": 36.7625115565482,
    "lng": 137.042061037177,
    "tel": "0766-30-2101",
    "url": "www.imizu-manyoukai.or.jp/",
    "pref": "富山県",
    "city": "高岡市",
    "category": "regular_patrol_nursing",
    "serviceType": "定期巡回・随時対応型訪問介護看護",
    "capacity": 0,
    "openDays": [],
    "openDaysNote": ""
  },
  {
    "id": "1690200884",
    "name": "定期巡回　にこにこ",
    "kana": "テイキジュンカイニコニコ",
    "address": "富山県高岡市横田本町５番２１号サービス付き高齢者向け住宅　高志の郷 サービス付き高齢者向け住宅　高志の郷",
    "lat": 36.751607,
    "lng": 136.998962,
    "tel": "0766-30-8825",
    "url": "http://www.fukuhoukai.jp/",
    "pref": "富山県",
    "city": "高岡市",
    "category": "regular_patrol_nursing",
    "serviceType": "定期巡回・随時対応型訪問介護看護",
    "capacity": null,
    "openDays": [],
    "openDaysNote": ""
  },
  {
    "id": "1690700107",
    "name": "ケアステーション優悠",
    "kana": "ケアステーションユウユウ",
    "address": "富山県黒部市田家新738-1",
    "lat": 36.8528407,
    "lng": 137.4367789,
    "tel": "0765-32-5702",
    "url": "https://inkyokurabu.com/",
    "pref": "富山県",
    "city": "黒部市",
    "category": "regular_patrol_nursing",
    "serviceType": "定期巡回・随時対応型訪問介護看護",
    "capacity": 0,
    "openDays": [],
    "openDaysNote": ""
  },
  {
    "id": "1691100265",
    "name": "福祉プラザ七美",
    "kana": "フクシプラザシチミ",
    "address": "七美879番地1",
    "lat": 36.7522095,
    "lng": 137.1407535,
    "tel": "0766-86-4545",
    "url": "http://www.imizu-manyoukai.or.jp",
    "pref": "富山県",
    "city": "射水市",
    "category": "regular_patrol_nursing",
    "serviceType": "定期巡回・随時対応型訪問介護看護",
    "capacity": 0,
    "openDays": [],
    "openDaysNote": ""
  },
  {
    "id": "1691000218",
    "name": "福寿会南部定期巡回センター",
    "kana": "フクジュカイナンブテイキジュンカイセンター",
    "address": "富山県南砺市福光1045番地",
    "lat": 36.5547854,
    "lng": 136.8675503,
    "tel": "0763-53-1132",
    "url": "http://fukuju.jp/",
    "pref": "富山県",
    "city": "南砺市",
    "category": "regular_patrol_nursing",
    "serviceType": "定期巡回・随時対応型訪問介護看護",
    "capacity": null,
    "openDays": [],
    "openDaysNote": ""
  },
  {
    "id": "1691000168",
    "name": "福寿会北部定期巡回センター",
    "kana": "フクジュカイホクブテイキジュンカイセンター",
    "address": "富山県南砺市松原678-1",
    "lat": 36.5962314,
    "lng": 136.9287433,
    "tel": "0763－23－3650",
    "url": "htt://fukuju.jp",
    "pref": "富山県",
    "city": "南砺市",
    "category": "regular_patrol_nursing",
    "serviceType": "定期巡回・随時対応型訪問介護看護",
    "capacity": 0,
    "openDays": [],
    "openDaysNote": ""
  },
  {
    "id": "1690500192",
    "name": "あいの手ケアセンター",
    "kana": "アイノテケアセンター",
    "address": "氷見市阿尾４１０番地",
    "lat": 36.887549,
    "lng": 136.9809856,
    "tel": "0766-54-0180",
    "url": "https://himifukushikai.com/",
    "pref": "富山県",
    "city": "氷見市",
    "category": "regular_patrol_nursing",
    "serviceType": "定期巡回・随時対応型訪問介護看護",
    "capacity": 20,
    "openDays": [],
    "openDaysNote": ""
  },
  {
    "id": "1690100738",
    "name": "みずほサポートセンター",
    "kana": "ミズホサポートセンター",
    "address": "富山市婦中町上吉川132番地１",
    "lat": 36.641416293909,
    "lng": 137.136430500857,
    "tel": "076-469-1602",
    "url": "http://www.imizu-manyoukai.or.jp/",
    "pref": "富山県",
    "city": "富山市",
    "category": "regular_patrol_nursing",
    "serviceType": "定期巡回・随時対応型訪問介護看護",
    "capacity": 0,
    "openDays": [],
    "openDaysNote": ""
  },
  {
    "id": "1690100886",
    "name": "光風会みまもりステーション",
    "kana": "コウフウカイミマモリステーション",
    "address": "富山市本郷町262-15堀川南光風苑（ぬくもり館） 堀川南光風苑（ぬくもり館）",
    "lat": 36.6630292900042,
    "lng": 137.232858393362,
    "tel": "076-464-3353",
    "url": "https://koufuukai.jp/",
    "pref": "富山県",
    "city": "富山市",
    "category": "regular_patrol_nursing",
    "serviceType": "定期巡回・随時対応型訪問介護看護",
    "capacity": 23,
    "openDays": [],
    "openDaysNote": ""
  },
  {
    "id": "1690100704",
    "name": "射水万葉会　天正寺サポートセンター",
    "kana": "イミズマンヨウカイ　テンショウジサポートセンター",
    "address": "天正寺484番地1",
    "lat": 36.6870483,
    "lng": 137.2492852,
    "tel": "076-411-4343",
    "url": "http://www.imizu-manyoukai.or.jp/",
    "pref": "富山県",
    "city": "富山市",
    "category": "regular_patrol_nursing",
    "serviceType": "定期巡回・随時対応型訪問介護看護",
    "capacity": 0,
    "openDays": [],
    "openDaysNote": ""
  },
  {
    "id": "1690100977",
    "name": "定期巡回サ-ビスセンタ-　すみれ",
    "kana": "テイキジュンカイサ-ビスセンタ-　スミレ",
    "address": "冨山県富山市上大久保1581-1希望ヶ丘ハウス内 希望ヶ丘ハウス内",
    "lat": 36.5912144,
    "lng": 137.2114777,
    "tel": "076-461-5513",
    "url": "https://kibounosato.toyama.jp/kibougaokahouse/sumire/index.html",
    "pref": "富山県",
    "city": "富山市",
    "category": "regular_patrol_nursing",
    "serviceType": "定期巡回・随時対応型訪問介護看護",
    "capacity": 0,
    "openDays": [],
    "openDaysNote": ""
  },
  {
    "id": "1690101371",
    "name": "富山医療生活協同組合　定期巡回・随時対応型訪問介護看護ひまわり",
    "kana": "トヤマイリョウセイカツキョウドウクミアイ　テイキジュンカイズイジタイオウガタホウモンカイゴカンゴヒマワリ",
    "address": "富山県富山市粟島２丁目2-1",
    "lat": 36.7244437,
    "lng": 137.2311924,
    "tel": "076-441-8358",
    "url": "http://www.toyama-hcoop.com",
    "pref": "富山県",
    "city": "富山市",
    "category": "regular_patrol_nursing",
    "serviceType": "定期巡回・随時対応型訪問介護看護",
    "capacity": 0,
    "openDays": [],
    "openDaysNote": ""
  }
]