[
  {
    "id": "3590200394",
    "name": "シルバーサポートアスワン",
    "kana": "シルバーサポートアスワン",
    "address": "山口県宇部市あすとぴあ七丁目1番2号",
    "lat": 33.9801151,
    "lng": 131.2968208,
    "tel": "0836-53-5558",
    "url": "http://www.asuwansansou.jp",
    "pref": "山口県",
    "city": "宇部市",
    "category": "regular_patrol_nursing",
    "serviceType": "定期巡回・随時対応型訪問介護看護",
    "capacity": 30,
    "openDays": [],
    "openDaysNote": ""
  },
  {
    "id": "3590200345",
    "name": "むべの里在宅福祉サービスセンター上宇部",
    "kana": "ムベノサトザイタクフクシサービスセンターカミウベ",
    "address": "山口県宇部市中村２丁目７－15",
    "lat": 33.9636207095662,
    "lng": 131.262325893714,
    "tel": "0836-35-8348",
    "url": "http://www.mubenosato.com",
    "pref": "山口県",
    "city": "宇部市",
    "category": "regular_patrol_nursing",
    "serviceType": "定期巡回・随時対応型訪問介護看護",
    "capacity": 0,
    "openDays": [],
    "openDaysNote": ""
  },
  {
    "id": "3590200550",
    "name": "定期巡回・随時対応型訪問介護看護くるて",
    "kana": "テイキジュンカイ・ズイジタイオウガタホウモンカイゴカンゴクルテ",
    "address": "山口県宇部市黒石北三丁目１番５７号ホスピサイドプレイス ホスピサイドプレイス",
    "lat": 33.9839332939129,
    "lng": 131.212530206263,
    "tel": "0836-39-9528",
    "url": "",
    "pref": "山口県",
    "city": "宇部市",
    "category": "regular_patrol_nursing",
    "serviceType": "定期巡回・随時対応型訪問介護看護",
    "capacity": 0,
    "openDays": [],
    "openDaysNote": ""
  },
  {
    "id": "3590200535",
    "name": "定期巡回サービスすみれ",
    "kana": "テイキジュンカイサービススミレ",
    "address": "山口県宇部市寿町三丁目2番5号",
    "lat": 33.9514886,
    "lng": 131.2535045,
    "tel": "0836-34-3450",
    "url": "www.jinsinkai.or.jp",
    "pref": "山口県",
    "city": "宇部市",
    "category": "regular_patrol_nursing",
    "serviceType": "定期巡回・随時対応型訪問介護看護",
    "capacity": null,
    "openDays": [],
    "openDaysNote": ""
  },
  {
    "id": "3590107060",
    "name": "24時間ケアサポートよしみ・安岡",
    "kana": "24ジカンケアサポートヨシミ・ヤスオカ",
    "address": "山口県下関市横野町3丁目1番2号",
    "lat": 34.0705380978254,
    "lng": 130.902212130302,
    "tel": "083-250-6950",
    "url": "http://www.syoutoukai.or.jp/",
    "pref": "山口県",
    "city": "下関市",
    "category": "regular_patrol_nursing",
    "serviceType": "定期巡回・随時対応型訪問介護看護",
    "capacity": 0,
    "openDays": [],
    "openDaysNote": ""
  },
  {
    "id": "3590107011",
    "name": "24時間訪問サービスしものせき",
    "kana": "ニジュウヨジカンホウモンサービスシモノセキ",
    "address": "山口県下関市上新地町2-6-26在宅総合ケアセンターしものせき 在宅総合ケアセンターしものせき",
    "lat": 33.9609541991654,
    "lng": 130.921227097401,
    "tel": "083-228-0770",
    "url": "http://akn-yoshimizu.com/",
    "pref": "山口県",
    "city": "下関市",
    "category": "regular_patrol_nursing",
    "serviceType": "定期巡回・随時対応型訪問介護看護",
    "capacity": 0,
    "openDays": [],
    "openDaysNote": ""
  },
  {
    "id": "3590107029",
    "name": "ＩＭＬ安心サポート２４",
    "kana": "アイ・エム・エルアンシンサポート２４",
    "address": "山口県下関市一の宮本町一丁目７番１７号",
    "lat": 34.0022204536655,
    "lng": 130.951279157221,
    "tel": "０８３－２２７－２４２７",
    "url": "http://www.inmailife.com/",
    "pref": "山口県",
    "city": "下関市",
    "category": "regular_patrol_nursing",
    "serviceType": "定期巡回・随時対応型訪問介護看護",
    "capacity": 100,
    "openDays": [],
    "openDaysNote": ""
  },
  {
    "id": "3590107052",
    "name": "ケアサポート２４",
    "kana": "ケアサポートニジュウヨン",
    "address": "山口県下関市幡生宮の下町８番１２号",
    "lat": 33.9804273190945,
    "lng": 130.933476745972,
    "tel": "083-242-2000",
    "url": "http://www.e-saving.jp/",
    "pref": "山口県",
    "city": "下関市",
    "category": "regular_patrol_nursing",
    "serviceType": "定期巡回・随時対応型訪問介護看護",
    "capacity": 0,
    "openDays": [],
    "openDaysNote": ""
  },
  {
    "id": "3590107078",
    "name": "もりの灯台定期巡回型サービス24",
    "kana": "モリノトウダイテイキジュンカイガタサービス24",
    "address": "山口県下関市菊川町大字上田部343-2",
    "lat": 34.1089479957329,
    "lng": 131.02311576822,
    "tel": "083-227-3270",
    "url": "https://morinotoudai.jp",
    "pref": "山口県",
    "city": "下関市",
    "category": "regular_patrol_nursing",
    "serviceType": "定期巡回・随時対応型訪問介護看護",
    "capacity": null,
    "openDays": [],
    "openDaysNote": ""
  },
  {
    "id": "3590107045",
    "name": "菊川ヘルパーステーションちとせ",
    "kana": "キクガワヘルパーステーションチトセ",
    "address": "山口県下関市菊川町下岡枝389-1",
    "lat": 34.1229253,
    "lng": 131.02772,
    "tel": "083-288-2027",
    "url": "http://r.goope.jp/kaien",
    "pref": "山口県",
    "city": "下関市",
    "category": "regular_patrol_nursing",
    "serviceType": "定期巡回・随時対応型訪問介護看護",
    "capacity": 0,
    "openDays": [],
    "openDaysNote": ""
  },
  {
    "id": "3590107037",
    "name": "定期巡回・随時対応型訪問介護看護にじの丘",
    "kana": "テイキジュンカイ・ズイジタイオウガタホウモンカイゴカンゴニジノオカ",
    "address": "下関市菊川町大字田部223-1複合型ケアタウンにじの丘 複合型ケアタウンにじの丘",
    "lat": 34.1152652,
    "lng": 131.0398195,
    "tel": "083-287-2255",
    "url": "http://www.kikusuikai.jp/",
    "pref": "山口県",
    "city": "下関市",
    "category": "regular_patrol_nursing",
    "serviceType": "定期巡回・随時対応型訪問介護看護",
    "capacity": 0,
    "openDays": [],
    "openDaysNote": ""
  },
  {
    "id": "3590700195",
    "name": "ほしのさとコールケアセンター24",
    "kana": "ホシノサトコールケアセンター",
    "address": "山口県下松市生野屋南1丁目13番1号特別養護老人ホーム　ほしのさと 特別養護老人ホーム　ほしのさと",
    "lat": 34.0314425,
    "lng": 131.8741191,
    "tel": "0833-45-3100",
    "url": "http://www.hoshinosato.jp",
    "pref": "山口県",
    "city": "下松市",
    "category": "regular_patrol_nursing",
    "serviceType": "定期巡回・随時対応型訪問介護看護",
    "capacity": null,
    "openDays": [],
    "openDaysNote": ""
  },
  {
    "id": "3590800524",
    "name": "シンシアあんしんコールセンター",
    "kana": "シンシアアンシンコールセンター",
    "address": "山口県岩国市藤生３丁目２７番８号シンシアゆうわ シンシアゆうわ",
    "lat": 34.1195814,
    "lng": 132.1914209,
    "tel": "0827-34-6002",
    "url": "https://yuwaen.net/",
    "pref": "山口県",
    "city": "岩国市",
    "category": "regular_patrol_nursing",
    "serviceType": "定期巡回・随時対応型訪問介護看護",
    "capacity": null,
    "openDays": [],
    "openDaysNote": ""
  },
  {
    "id": "3590300533",
    "name": "さんコープ定期巡回・随時対応型訪問介護看護　宮野",
    "kana": "サンコープテイキジュンカイ・ズイジタイオウガタホウモンカイゴカンゴ　ミヤノ",
    "address": "桜畠二丁目９－１７福祉生活協同組合さんコープ 福祉生活協同組合さんコープ",
    "lat": 34.1945754,
    "lng": 131.501748,
    "tel": "083-941-5660",
    "url": "",
    "pref": "山口県",
    "city": "山口市",
    "category": "regular_patrol_nursing",
    "serviceType": "定期巡回・随時対応型訪問介護看護",
    "capacity": 0,
    "openDays": [],
    "openDaysNote": ""
  },
  {
    "id": "3590300392",
    "name": "青藍会在宅医療支援センター山口定期巡回・随時対応型訪問介護看護",
    "kana": "セイランカイザイタクイリョウシエンセンターヤマグチテイキジュンカイ・ズイジタイオウガタホウモンカイゴカンゴ",
    "address": "山口県山口市黒川729-2",
    "lat": 34.1440441,
    "lng": 131.4498436,
    "tel": "083-934-7600",
    "url": "http://www.seirankai.or.jp",
    "pref": "山口県",
    "city": "山口市",
    "category": "regular_patrol_nursing",
    "serviceType": "定期巡回・随時対応型訪問介護看護",
    "capacity": 0,
    "openDays": [],
    "openDaysNote": ""
  },
  {
    "id": "3590300368",
    "name": "青藍会在宅医療支援センター新山口定期巡回・随時対応型訪問介護看護",
    "kana": "セイランカイザイタクイリョウシエンセンターシンヤマグチテイキジュンカイ・ズイジタイオウガタホウモンカイゴカンゴ",
    "address": "山口県山口市小郡平成町1-18",
    "lat": 34.0877947,
    "lng": 131.4004543,
    "tel": "083-976-2400",
    "url": "http://www.seirankai.or.jp",
    "pref": "山口県",
    "city": "山口市",
    "category": "regular_patrol_nursing",
    "serviceType": "定期巡回・随時対応型訪問介護看護",
    "capacity": 0,
    "openDays": [],
    "openDaysNote": ""
  },
  {
    "id": "3590300566",
    "name": "青藍会在宅医療支援センター中央　定期巡回・随時対応型訪問介護看護",
    "kana": "セイランカイザイタクイリョウシエンセンターチュウオウテイキジュンカイズイジタイオウガタホウモンカイゴカンゴ",
    "address": "山口県山口市神田町4-8ハートホーム中央 ハートホーム中央",
    "lat": 34.1727735,
    "lng": 131.4572044,
    "tel": "083-941-6740",
    "url": "http://seirankai.or.jp",
    "pref": "山口県",
    "city": "山口市",
    "category": "regular_patrol_nursing",
    "serviceType": "定期巡回・随時対応型訪問介護看護",
    "capacity": 0,
    "openDays": [],
    "openDaysNote": ""
  },
  {
    "id": "3591600220",
    "name": "定期巡回・随時対応型訪問介護看護　そらり",
    "kana": "テイキジュンカイ・ズイジタイオウガタホウモンカイゴカンゴ　ソラリ",
    "address": "山口県山陽小野田市大字西高泊１３３４番地１介護事業所　そらり 介護事業所　そらり",
    "lat": 34.002066340349,
    "lng": 131.170621477246,
    "tel": "0836-39-5232",
    "url": "hayakawanaika.com",
    "pref": "山口県",
    "city": "山陽小野田市",
    "category": "regular_patrol_nursing",
    "serviceType": "定期巡回・随時対応型訪問介護看護",
    "capacity": 10,
    "openDays": [],
    "openDaysNote": ""
  },
  {
    "id": "3591500305",
    "name": "定期巡回随時対応型訪問介護看護元気村",
    "kana": "テイキジュンカイズイジタオウガタホウモンカイゴカンゴゲンキムラ",
    "address": "山口県周南市大字湯野27番地",
    "lat": 34.0840789116114,
    "lng": 131.680274050984,
    "tel": "0834-82-0777",
    "url": "http://www.genkimura-sa.jp",
    "pref": "山口県",
    "city": "周南市",
    "category": "regular_patrol_nursing",
    "serviceType": "定期巡回・随時対応型訪問介護看護",
    "capacity": 0,
    "openDays": [],
    "openDaysNote": ""
  },
  {
    "id": "3591500412",
    "name": "定期随時訪問ステーションこもれび",
    "kana": "テイキズイジホウモンステーションコモレビ",
    "address": "山口県周南市城ケ丘4丁目3536－1",
    "lat": 34.0474435910275,
    "lng": 131.846245560574,
    "tel": "0834-33-8788",
    "url": "http://komorebinomori.jp",
    "pref": "山口県",
    "city": "周南市",
    "category": "regular_patrol_nursing",
    "serviceType": "定期巡回・随時対応型訪問介護看護",
    "capacity": null,
    "openDays": [],
    "openDaysNote": ""
  },
  {
    "id": "3590600296",
    "name": "巡回サービス　ゆうの風三田尻",
    "kana": "ジュンカイサービス　ユウノカゼミタジリ",
    "address": "山口県防府市警固町一丁目6番42号",
    "lat": 34.0504823,
    "lng": 131.5794054,
    "tel": "０８３５－２８－１８８８",
    "url": "http://care-net.biz/35/younokaze/",
    "pref": "山口県",
    "city": "防府市",
    "category": "regular_patrol_nursing",
    "serviceType": "定期巡回・随時対応型訪問介護看護",
    "capacity": null,
    "openDays": [],
    "openDaysNote": ""
  },
  {
    "id": "3590600364",
    "name": "定期巡回　プルメリア",
    "kana": "テイキジュンカイ　プルメリア",
    "address": "山口県防府市大字新田818-1",
    "lat": 34.0298379,
    "lng": 131.564346,
    "tel": "0835-28-1192",
    "url": "nakatuka-naika.jp",
    "pref": "山口県",
    "city": "防府市",
    "category": "regular_patrol_nursing",
    "serviceType": "定期巡回・随時対応型訪問介護看護",
    "capacity": 0,
    "openDays": [],
    "openDaysNote": ""
  },
  {
    "id": "3590600403",
    "name": "定期巡回・随時対応型訪問介護看護事業所　飛梅",
    "kana": "テイキジュンカイズイジタイオウガタホウモンカイゴカンゴジギョウショ　トビウメ",
    "address": "山口県防府市大字下右田363有料老人ホーム初梅 有料老人ホーム初梅",
    "lat": 34.073245,
    "lng": 131.5564917,
    "tel": "0835-28-1257",
    "url": "https://www.anshin-cls.net/",
    "pref": "山口県",
    "city": "防府市",
    "category": "regular_patrol_nursing",
    "serviceType": "定期巡回・随時対応型訪問介護看護",
    "capacity": null,
    "openDays": [],
    "openDaysNote": ""
  },
  {
    "id": "3591200062",
    "name": "定期巡回訪問サービス　ユー・アンド２４ゆうわ",
    "kana": "テイキジュンカイホウモンサービス　ユー・アンド２４ユウワ",
    "address": "山口県柳井市伊保庄字近長浜１番４",
    "lat": 33.9099845531702,
    "lng": 132.127734974088,
    "tel": "0820-27-6001",
    "url": "http://www.yuwaen.net",
    "pref": "山口県",
    "city": "柳井市",
    "category": "regular_patrol_nursing",
    "serviceType": "定期巡回・随時対応型訪問介護看護",
    "capacity": 0,
    "openDays": [],
    "openDaysNote": ""
  }
]