[
  {
    "id": "691200117",
    "name": "定期巡回・随時対応型訪問介護看護つつじ",
    "kana": "テイキジュンカイ・ズイジタイオウガタホウモンカイゴカンゴツツジ",
    "address": "山形県寒河江市寒河江塩水6-1",
    "lat": 38.379066,
    "lng": 140.2608794,
    "tel": "0237-85-1326",
    "url": "http://www.npo-ajisai.jp/",
    "pref": "山形県",
    "city": "寒河江市",
    "category": "regular_patrol_nursing",
    "serviceType": "定期巡回・随時対応型訪問介護看護",
    "capacity": 10,
    "openDays": [],
    "openDaysNote": ""
  },
  {
    "id": "690100953",
    "name": "２４時間在宅ケアステーション敬寿園",
    "kana": "ニジュウヨジカンザイタクケアステーションケイジュエン",
    "address": "山形市大字妙見寺500-1",
    "lat": 38.2369486,
    "lng": 140.3778444,
    "tel": "023-666-6150",
    "url": "http://keijuen.or.jp/",
    "pref": "山形県",
    "city": "山形市",
    "category": "regular_patrol_nursing",
    "serviceType": "定期巡回・随時対応型訪問介護看護",
    "capacity": 0,
    "openDays": [],
    "openDaysNote": ""
  },
  {
    "id": "690100417",
    "name": "ヘルパーステーション　樫の木",
    "kana": "ヘルパーステーション　カシノキ",
    "address": "山形市上町４丁目６ー２４",
    "lat": 38.2444227,
    "lng": 140.3133296,
    "tel": "023-644-3364",
    "url": "http://daiwa-med.co.jp/",
    "pref": "山形県",
    "city": "山形市",
    "category": "regular_patrol_nursing",
    "serviceType": "定期巡回・随時対応型訪問介護看護",
    "capacity": 0,
    "openDays": [],
    "openDaysNote": ""
  },
  {
    "id": "690100961",
    "name": "定期巡回・随時対応型訪問介護看護　YONEKIプレミアム365",
    "kana": "テイキジュンカイズイジタイオウガタホウモンカイゴカンゴヨネキプレミアム365",
    "address": "山形県山形市あかねヶ丘２丁目１番４号",
    "lat": 38.247553,
    "lng": 140.308457,
    "tel": "023-616-7515",
    "url": "http://yonekiya.com/",
    "pref": "山形県",
    "city": "山形市",
    "category": "regular_patrol_nursing",
    "serviceType": "定期巡回・随時対応型訪問介護看護",
    "capacity": null,
    "openDays": [],
    "openDaysNote": ""
  },
  {
    "id": "690800321",
    "name": "コンフォート樫の木",
    "kana": "コンフォートカシノキ",
    "address": "山形県酒田市こあら２丁目４番地の６",
    "lat": 38.914895078963,
    "lng": 139.862472852254,
    "tel": "０２３４－４３－１７７１",
    "url": "http://www.kashink.jp",
    "pref": "山形県",
    "city": "酒田市",
    "category": "regular_patrol_nursing",
    "serviceType": "定期巡回・随時対応型訪問介護看護",
    "capacity": 0,
    "openDays": [],
    "openDaysNote": ""
  },
  {
    "id": "690800412",
    "name": "訪問介護事業所眺海",
    "kana": "ホウモンカイゴジギョウショチョウカイ",
    "address": "山形県酒田市山寺字宅地159番地",
    "lat": 38.8480376,
    "lng": 139.961501,
    "tel": "0234－62－3785",
    "url": "http://www.kashink.jp",
    "pref": "山形県",
    "city": "酒田市",
    "category": "regular_patrol_nursing",
    "serviceType": "定期巡回・随時対応型訪問介護看護",
    "capacity": null,
    "openDays": [],
    "openDaysNote": ""
  },
  {
    "id": "691500110",
    "name": "24時間巡回介護えがお",
    "kana": "24ジカンジュンカイカイゴエガオ",
    "address": "山形県長井市台町23番23号",
    "lat": 38.0977728195185,
    "lng": 140.030152260188,
    "tel": "0238-84-5710",
    "url": "https://takeda-carehome.jp/",
    "pref": "山形県",
    "city": "長井市",
    "category": "regular_patrol_nursing",
    "serviceType": "定期巡回・随時対応型訪問介護看護",
    "capacity": 28,
    "openDays": [],
    "openDaysNote": ""
  },
  {
    "id": "690700141",
    "name": "瑞穂の郷　24時間巡回型訪問介護",
    "kana": "ミズホノサト　２４ジカンジュンカイガタホウモンカイゴ",
    "address": "山形県鶴岡市羽黒町細谷字北田１２８－１",
    "lat": 38.7373519,
    "lng": 139.8614524,
    "tel": "0235-29-1025",
    "url": "http://www.hcp-net.co.jp",
    "pref": "山形県",
    "city": "鶴岡市",
    "category": "regular_patrol_nursing",
    "serviceType": "定期巡回・随時対応型訪問介護看護",
    "capacity": 0,
    "openDays": [],
    "openDaysNote": ""
  },
  {
    "id": "690700331",
    "name": "定期巡回事業所タカラ",
    "kana": "テイキジュンカイジギョウショタカラ",
    "address": "山形県鶴岡市切添町5番8号",
    "lat": 38.7342155775976,
    "lng": 139.844518133296,
    "tel": "0235-33-8834",
    "url": "",
    "pref": "山形県",
    "city": "鶴岡市",
    "category": "regular_patrol_nursing",
    "serviceType": "定期巡回・随時対応型訪問介護看護",
    "capacity": 0,
    "openDays": [],
    "openDaysNote": ""
  },
  {
    "id": "690700265",
    "name": "定期巡回随時対応型訪問介護看護安らぎケアちわら",
    "kana": "テイキジュンカイズイジタイオウガタホウモンカイゴカンゴヤスラギケアチワラ",
    "address": "山形県鶴岡市北茅原町5-10",
    "lat": 38.7551622334475,
    "lng": 139.842513216533,
    "tel": "0235-25-5055",
    "url": "",
    "pref": "山形県",
    "city": "鶴岡市",
    "category": "regular_patrol_nursing",
    "serviceType": "定期巡回・随時対応型訪問介護看護",
    "capacity": 0,
    "openDays": [],
    "openDaysNote": ""
  },
  {
    "id": "690700406",
    "name": "定期巡回随時対応型訪問介護看護澄花",
    "kana": "テイキジュンカイズイジタイオウガタホウモンカイゴカンゴスミカ",
    "address": "山形県鶴岡市大山字堤下2番31号",
    "lat": 38.7477731803722,
    "lng": 139.757250758367,
    "tel": "235351667",
    "url": "http://third-stage.net",
    "pref": "山形県",
    "city": "鶴岡市",
    "category": "regular_patrol_nursing",
    "serviceType": "定期巡回・随時対応型訪問介護看護",
    "capacity": null,
    "openDays": [],
    "openDaysNote": ""
  },
  {
    "id": "690400197",
    "name": "ケアセンターなごみ",
    "kana": "ケアセンターナゴミ",
    "address": "山形県米沢市泉町二丁目１番６号",
    "lat": 37.8956820734432,
    "lng": 140.103660245046,
    "tel": "0238-38-7030",
    "url": "https://nagomi-calm.com",
    "pref": "山形県",
    "city": "米沢市",
    "category": "regular_patrol_nursing",
    "serviceType": "定期巡回・随時対応型訪問介護看護",
    "capacity": 0,
    "openDays": [],
    "openDaysNote": ""
  },
  {
    "id": "690400171",
    "name": "三友堂定期巡回・随時対応型訪問介護看護ステーション",
    "kana": "サンユウドウテイキジュンカイズイジタイオウガタホウモンカイゴカンゴステーション",
    "address": "山形県米沢市大字塩野2755番地の3サービス付き高齢者向け住宅おたかぽっぽ1階事務所内 サービス付き高齢者向け住宅おたかぽっぽ1階事務所内",
    "lat": 37.9239332147762,
    "lng": 140.091796879485,
    "tel": "0238-27-7575",
    "url": "ｈｔｔｐｓ：//rehacare.sanyudo.or.jp",
    "pref": "山形県",
    "city": "米沢市",
    "category": "regular_patrol_nursing",
    "serviceType": "定期巡回・随時対応型訪問介護看護",
    "capacity": 0,
    "openDays": [],
    "openDaysNote": ""
  },
  {
    "id": "690400288",
    "name": "定期巡回ステーションさんゆう",
    "kana": "テイキジュンカイステーションサンユウ",
    "address": "山形県米沢市西大通2丁目2-30",
    "lat": 37.9162678,
    "lng": 140.0986438,
    "tel": "0238-24-5220",
    "url": "http://www.santhy-sanyou.com/",
    "pref": "山形県",
    "city": "米沢市",
    "category": "regular_patrol_nursing",
    "serviceType": "定期巡回・随時対応型訪問介護看護",
    "capacity": 0,
    "openDays": [],
    "openDaysNote": ""
  }
]