[
  {
    "id": "1991700251",
    "name": "あさがお定期巡回・随時対応型訪問介護看護事業所",
    "kana": "イリョウホウジンジンワカイ　アサガオテイキジュンカイ・ズイジタイオウガタホウモンカイゴカンゴジギョウショ",
    "address": "山梨県甲斐市篠原1895-1",
    "lat": 35.6537168644332,
    "lng": 138.519718557489,
    "tel": "055-287-6544",
    "url": "http://www.ryuo-rhp.or.jp",
    "pref": "山梨県",
    "city": "甲斐市",
    "category": "regular_patrol_nursing",
    "serviceType": "定期巡回・随時対応型訪問介護看護",
    "capacity": 0,
    "openDays": [],
    "openDaysNote": ""
  },
  {
    "id": "1990100453",
    "name": "ﾃｲｷｼﾞｭﾝｶｲｽﾞｲｼﾞﾀｲｵｳｶﾞﾀﾎｳﾓﾝｶｲｺﾞｶﾝｺﾞｼﾞｷﾞｮｳｼｮｺｽﾓ･ｱﾝｼｱ",
    "kana": "定期巡回・随時対応型訪問介護看護コスモ・アンシア",
    "address": "山梨県甲府市相生3-3-12",
    "lat": 35.6538034,
    "lng": 138.5693322,
    "tel": "055-221-8007",
    "url": "https://ikiikiclub.com",
    "pref": "山梨県",
    "city": "甲府市",
    "category": "regular_patrol_nursing",
    "serviceType": "定期巡回・随時対応型訪問介護看護",
    "capacity": 0,
    "openDays": [],
    "openDaysNote": ""
  },
  {
    "id": "1990100487",
    "name": "ヘルパーステーションいけだ（定期巡回・随時対応型訪問介護看護）",
    "kana": "ヘルパーステーションイケダ（テイキジュンカイ・ズイジタイオウガタホウモンカイゴカンゴ）",
    "address": "山梨県甲府市下飯田1-2-18",
    "lat": 35.6689024,
    "lng": 138.5450211,
    "tel": "055-236-3506",
    "url": "https://ykf.or.jp",
    "pref": "山梨県",
    "city": "甲府市",
    "category": "regular_patrol_nursing",
    "serviceType": "定期巡回・随時対応型訪問介護看護",
    "capacity": 35,
    "openDays": [],
    "openDaysNote": ""
  },
  {
    "id": "1990100552",
    "name": "定期巡回・随時対応型訪問介護看護　みんなの家　青沼",
    "kana": "テイキジュンカイズイジタイオウガタホウモンカイゴカンゴ　ミンナノイエアオヌマ",
    "address": "山梨県甲府市青沼2-22-14",
    "lat": 35.6532897,
    "lng": 138.5784844,
    "tel": "055-236-1237",
    "url": "https://www.takumi.sc/welfare",
    "pref": "山梨県",
    "city": "甲府市",
    "category": "regular_patrol_nursing",
    "serviceType": "定期巡回・随時対応型訪問介護看護",
    "capacity": 0,
    "openDays": [],
    "openDaysNote": ""
  },
  {
    "id": "1991800069",
    "name": "甲州定期巡回・随時対応型訪問介護看護ステーション",
    "kana": "コウシュウテイキジュンカイ・ズイジタイオウガタホウモンカイゴカンゴステーション",
    "address": "山梨県笛吹市石和町四日市場2031",
    "lat": 35.6457142,
    "lng": 138.6252819,
    "tel": "055-263-8000",
    "url": "https://www.krg.ne.jp/care/",
    "pref": "山梨県",
    "city": "笛吹市",
    "category": "regular_patrol_nursing",
    "serviceType": "定期巡回・随時対応型訪問介護看護",
    "capacity": 0,
    "openDays": [],
    "openDaysNote": ""
  },
  {
    "id": "1991600220",
    "name": "定期巡回・随時対応型訪問介護看護ももその",
    "kana": "テイキジュンカイズイジタイオウガタホウモンカイゴカンゴモモソノ",
    "address": "山梨県南アルプス市桃園379",
    "lat": 35.628427,
    "lng": 138.4631489,
    "tel": "055-280-1122",
    "url": "https://ykf.or.jp/",
    "pref": "山梨県",
    "city": "南アルプス市",
    "category": "regular_patrol_nursing",
    "serviceType": "定期巡回・随時対応型訪問介護看護",
    "capacity": 0,
    "openDays": [],
    "openDaysNote": ""
  }
]