[
  {
    "id": "2190400099",
    "name": "ケアハート",
    "kana": "ケアハート",
    "address": "岐阜県羽島市小熊町島2丁目102-1",
    "lat": 35.3341085,
    "lng": 136.7054267,
    "tel": "058-392-7841",
    "url": "http://hashimakikaku.com",
    "pref": "岐阜県",
    "city": "羽島市",
    "category": "regular_patrol_nursing",
    "serviceType": "定期巡回・随時対応型訪問介護看護",
    "capacity": 0,
    "openDays": [],
    "openDaysNote": ""
  },
  {
    "id": "2190500294",
    "name": "24時間訪問介護看護あすか",
    "kana": "ニジュウヨジカンホウモンカイゴカンゴアスカ",
    "address": "岐阜県各務原市鵜沼山崎町6-8-2各務原リハビリテーション病院 各務原リハビリテーション病院",
    "lat": 35.399556809161,
    "lng": 136.946870115344,
    "tel": "058-384-2455",
    "url": "http://www.seidoukai.or.jp",
    "pref": "岐阜県",
    "city": "各務原市",
    "category": "regular_patrol_nursing",
    "serviceType": "定期巡回・随時対応型訪問介護看護",
    "capacity": 30,
    "openDays": [],
    "openDaysNote": ""
  },
  {
    "id": "2190600110",
    "name": "定期巡回・随時対応型訪問介護看護事業所アライブ",
    "kana": "テイキジュンカイ・ズイジタイオウガタホウモンカイゴカンゴジギョウショアライブ",
    "address": "岐阜県羽島郡笠松町長池字宮代352-1笠松いきいき倶楽部 笠松いきいき倶楽部",
    "lat": 35.3537763847047,
    "lng": 136.751683026808,
    "tel": "058-372-3510",
    "url": "https://koukeikai.jp/",
    "pref": "岐阜県",
    "city": "笠松町",
    "category": "regular_patrol_nursing",
    "serviceType": "定期巡回・随時対応型訪問介護看護",
    "capacity": null,
    "openDays": [],
    "openDaysNote": ""
  },
  {
    "id": "2190102703",
    "name": "ケアサポート岐阜２５",
    "kana": "ケアサポートギフ２５",
    "address": "岐阜県岐阜市徹明通４丁目４番地",
    "lat": 35.4176073413658,
    "lng": 136.754590538499,
    "tel": "058-265-6662",
    "url": "https://www.wakokai.or.jp",
    "pref": "岐阜県",
    "city": "岐阜市",
    "category": "regular_patrol_nursing",
    "serviceType": "定期巡回・随時対応型訪問介護看護",
    "capacity": 70,
    "openDays": [],
    "openDaysNote": ""
  },
  {
    "id": "2190104477",
    "name": "ケアサポート長良25",
    "kana": "ケアサポートナガラニジュウゴ",
    "address": "岐阜県岐阜市長良３丁目９３",
    "lat": 35.453177,
    "lng": 136.7823171,
    "tel": "０５８－２１５－８５８５",
    "url": "http://www.wakokai.or.jp",
    "pref": "岐阜県",
    "city": "岐阜市",
    "category": "regular_patrol_nursing",
    "serviceType": "定期巡回・随時対応型訪問介護看護",
    "capacity": 0,
    "openDays": [],
    "openDaysNote": ""
  },
  {
    "id": "2190104220",
    "name": "ケアサポート島２５",
    "kana": "ケアサポートシマ２５",
    "address": "岐阜県岐阜市北島１丁目４番４",
    "lat": 35.4274679,
    "lng": 136.7296423,
    "tel": "058-216-2770",
    "url": "https://www.wakokai.or.jp",
    "pref": "岐阜県",
    "city": "岐阜市",
    "category": "regular_patrol_nursing",
    "serviceType": "定期巡回・随時対応型訪問介護看護",
    "capacity": 6,
    "openDays": [],
    "openDaysNote": ""
  },
  {
    "id": "2190104113",
    "name": "ケアステーションやすえ",
    "kana": "ケアステーションヤスエ",
    "address": "岐阜県岐阜市鏡島南１丁目２番３８号",
    "lat": 35.4085124170662,
    "lng": 136.717239685597,
    "tel": "058-214-2588",
    "url": "http://www.koukikai.gr.jp",
    "pref": "岐阜県",
    "city": "岐阜市",
    "category": "regular_patrol_nursing",
    "serviceType": "定期巡回・随時対応型訪問介護看護",
    "capacity": null,
    "openDays": [],
    "openDaysNote": ""
  },
  {
    "id": "2190102729",
    "name": "ひまわりステーションこまき",
    "kana": "ヒマワリステーションコマキ",
    "address": "岐阜県岐阜市千手堂南町３丁目３番地２すこやかホームこまき内　２F すこやかホームこまき内　２F",
    "lat": 35.4158829206691,
    "lng": 136.750217519119,
    "tel": "058(213)7825",
    "url": "https://www.tomoikikai.net",
    "pref": "岐阜県",
    "city": "岐阜市",
    "category": "regular_patrol_nursing",
    "serviceType": "定期巡回・随時対応型訪問介護看護",
    "capacity": 10,
    "openDays": [],
    "openDaysNote": ""
  },
  {
    "id": "2190102711",
    "name": "株式会社新生メディカル岐阜営業所",
    "kana": "カブシキガイシャシンセイメディカル",
    "address": "岐阜県岐阜市橋本町２丁目５２番地",
    "lat": 35.410753,
    "lng": 136.7542724,
    "tel": "058-213-1500",
    "url": "https://shinsei-md.jp/",
    "pref": "岐阜県",
    "city": "岐阜市",
    "category": "regular_patrol_nursing",
    "serviceType": "定期巡回・随時対応型訪問介護看護",
    "capacity": 0,
    "openDays": [],
    "openDaysNote": ""
  },
  {
    "id": "2190103990",
    "name": "定期巡回・随時対応型訪問介護看護すこやかヘルパーステーション",
    "kana": "テイキジュンカイ・ズイジタイオウガタホウモンカイゴカンゴスコヤカヘルパーステーション",
    "address": "岐阜県岐阜市北山1丁目13番地27有料老人ホームすこやか内 有料老人ホームすこやか内",
    "lat": 35.4581269171928,
    "lng": 136.852326239287,
    "tel": "058-243-2204",
    "url": "https://gifu-min.jp/midori/page_145.html",
    "pref": "岐阜県",
    "city": "岐阜市",
    "category": "regular_patrol_nursing",
    "serviceType": "定期巡回・随時対応型訪問介護看護",
    "capacity": 0,
    "openDays": [],
    "openDaysNote": ""
  },
  {
    "id": "2191700232",
    "name": "定期巡回ステーションくわのみ",
    "kana": "テイキジュンカイステーションクワノミ",
    "address": "岐阜県恵那市岩村町飯羽間1616",
    "lat": 35.379328728609,
    "lng": 137.42896288332,
    "tel": "0573-43-5137",
    "url": "http://kuwanomi-ena.co.jp/",
    "pref": "岐阜県",
    "city": "恵那市",
    "category": "regular_patrol_nursing",
    "serviceType": "定期巡回・随時対応型訪問介護看護",
    "capacity": null,
    "openDays": [],
    "openDaysNote": ""
  },
  {
    "id": "2192700264",
    "name": "グレースヘルパーステーション",
    "kana": "グレースヘルパーステーション",
    "address": "岐阜県高山市江名子町2980-1",
    "lat": 36.1343225,
    "lng": 137.2779067,
    "tel": "0577-34-4002",
    "url": "https://www.gracesenior-ena.com/",
    "pref": "岐阜県",
    "city": "高山市",
    "category": "regular_patrol_nursing",
    "serviceType": "定期巡回・随時対応型訪問介護看護",
    "capacity": null,
    "openDays": [],
    "openDaysNote": ""
  },
  {
    "id": "2192700215",
    "name": "ヘルパーステーションきりん",
    "kana": "ヘルパーステーションキリン",
    "address": "岐阜県高山市新宮町794喜林高山内 喜林高山内",
    "lat": 36.136016,
    "lng": 137.212752,
    "tel": "0577-33-6677",
    "url": "http://www.kirin3.com",
    "pref": "岐阜県",
    "city": "高山市",
    "category": "regular_patrol_nursing",
    "serviceType": "定期巡回・随時対応型訪問介護看護",
    "capacity": null,
    "openDays": [],
    "openDaysNote": ""
  },
  {
    "id": "2190700043",
    "name": "ケアサポート瑞穂25",
    "kana": "ケアサポートミズホニジュウゴ",
    "address": "岐阜県瑞穂市別府1494番地1　岐阜県本巣郡北方町柱本3丁目90番地",
    "lat": 35.3952108200852,
    "lng": 136.68488256972,
    "tel": "058-324-3332",
    "url": "https://www.wakokai.or.jp/search/nursing/caresupport-mizuho/",
    "pref": "岐阜県",
    "city": "瑞穂市",
    "category": "regular_patrol_nursing",
    "serviceType": "定期巡回・随時対応型訪問介護看護",
    "capacity": 0,
    "openDays": [],
    "openDaysNote": ""
  },
  {
    "id": "2191100219",
    "name": "陶の里定期巡回ステーション",
    "kana": "トウノサトテイキジュンカイステーション",
    "address": "岐阜県多治見市大畑町西仲根3-6",
    "lat": 35.3135323,
    "lng": 137.128446,
    "tel": "0572-21-6611",
    "url": "http://www.athome-tounosato.com/",
    "pref": "岐阜県",
    "city": "多治見市",
    "category": "regular_patrol_nursing",
    "serviceType": "定期巡回・随時対応型訪問介護看護",
    "capacity": 6,
    "openDays": [],
    "openDaysNote": ""
  },
  {
    "id": "2192100515",
    "name": "ケアサポート大垣２５",
    "kana": "ケアサポートオオガキニジュウゴ",
    "address": "岐阜県大垣市楽田3丁目66番地　ハイツ岡安302号ハイツ岡安302号 ハイツ岡安302号",
    "lat": 35.380531,
    "lng": 136.6284347,
    "tel": "0584-71-7781",
    "url": "https://www.wakokai.or.jp/",
    "pref": "岐阜県",
    "city": "大垣市",
    "category": "regular_patrol_nursing",
    "serviceType": "定期巡回・随時対応型訪問介護看護",
    "capacity": 0,
    "openDays": [],
    "openDaysNote": ""
  },
  {
    "id": "2191500228",
    "name": "定期巡回ステーションなでしこ",
    "kana": "テイキジュンカイステーションナデシコ",
    "address": "岐阜県中津川市手賀野228-1",
    "lat": 35.480562694577,
    "lng": 137.494945306997,
    "tel": "0573-67-9002",
    "url": "https://kuwanomi-ena.co.jp/",
    "pref": "岐阜県",
    "city": "中津川市",
    "category": "regular_patrol_nursing",
    "serviceType": "定期巡回・随時対応型訪問介護看護",
    "capacity": null,
    "openDays": [],
    "openDaysNote": ""
  }
]