[
  {
    "id": "3390102089",
    "name": "公益財団法人操風会ケアステーション操風",
    "kana": "コウエキザイダンホウジンソウフウカイケアステーションソウフウ",
    "address": "岡山県岡山市中区奥市2-8",
    "lat": 34.6562134,
    "lng": 133.9479489,
    "tel": "086-270-6200",
    "url": "http://www.okayama-happylife.jp",
    "pref": "岡山県",
    "city": "岡山市中区",
    "category": "regular_patrol_nursing",
    "serviceType": "定期巡回・随時対応型訪問介護看護",
    "capacity": 0,
    "openDays": [],
    "openDaysNote": ""
  },
  {
    "id": "3390102303",
    "name": "定期巡回・随時対応型訪問介護看護やすらぎ",
    "kana": "テイキジュンカイズイジタイオウガタホウモンカイゴカンゴヤスラギ",
    "address": "中島70-1",
    "lat": 34.6858087,
    "lng": 133.9455003,
    "tel": "086-275-7702",
    "url": "https://www.takufukai-group.or.jp/",
    "pref": "岡山県",
    "city": "岡山市中区",
    "category": "regular_patrol_nursing",
    "serviceType": "定期巡回・随時対応型訪問介護看護",
    "capacity": 0,
    "openDays": [],
    "openDaysNote": ""
  },
  {
    "id": "3390102816",
    "name": "アップルウッド定期巡回・随時対応型訪問介護看護",
    "kana": "アップルウッドテイキジュンカイ・ズイジタイオウガタホウモンカイゴカンゴ",
    "address": "岡山県岡山市東区金岡東町1－1－38",
    "lat": 34.6485821,
    "lng": 134.0288137,
    "tel": "086-942-1465",
    "url": "https://applewood.jp",
    "pref": "岡山県",
    "city": "岡山市東区",
    "category": "regular_patrol_nursing",
    "serviceType": "定期巡回・随時対応型訪問介護看護",
    "capacity": 60,
    "openDays": [],
    "openDaysNote": ""
  },
  {
    "id": "3390102758",
    "name": "ケアサポートさんさん平島",
    "kana": "ケアサポートサンサンヒラジマ",
    "address": "岡山県岡山市東区東平島706",
    "lat": 34.7148758427409,
    "lng": 134.050628157008,
    "tel": "086-297-3003",
    "url": "https://www.hirajima.com/",
    "pref": "岡山県",
    "city": "岡山市東区",
    "category": "regular_patrol_nursing",
    "serviceType": "定期巡回・随時対応型訪問介護看護",
    "capacity": 0,
    "openDays": [],
    "openDaysNote": ""
  },
  {
    "id": "3390102725",
    "name": "ヘルパーステーション我が家なださき",
    "kana": "ヘルパーステーションワガヤナダサキ",
    "address": "岡山県岡山市南区迫川２５４－１",
    "lat": 34.5354416,
    "lng": 133.8815426,
    "tel": "086-239-7768",
    "url": "https://jecs-gr.jp/",
    "pref": "岡山県",
    "city": "岡山市南区",
    "category": "regular_patrol_nursing",
    "serviceType": "定期巡回・随時対応型訪問介護看護",
    "capacity": 15,
    "openDays": [],
    "openDaysNote": ""
  },
  {
    "id": "3390103079",
    "name": "定期巡回・随時対応型訪問介護看護　いけだ",
    "kana": "テイキジュンカイ・ズイジタイオウガタホウモンカイゴカンゴ　イケダ",
    "address": "岡山県岡山市南区彦崎2801-4",
    "lat": 34.5520438,
    "lng": 133.8366246,
    "tel": "086-230-6240",
    "url": "https://ikedaiin.or.jp",
    "pref": "岡山県",
    "city": "岡山市南区",
    "category": "regular_patrol_nursing",
    "serviceType": "定期巡回・随時対応型訪問介護看護",
    "capacity": 15,
    "openDays": [],
    "openDaysNote": ""
  },
  {
    "id": "3390101339",
    "name": "24時間訪問サービス　きずな",
    "kana": "ニジュウヨジカンホウモンサービス　キズナ",
    "address": "厚生町3-8-35",
    "lat": 34.6559119,
    "lng": 133.9111973,
    "tel": "086-222-6830",
    "url": "",
    "pref": "岡山県",
    "city": "岡山市北区",
    "category": "regular_patrol_nursing",
    "serviceType": "定期巡回・随時対応型訪問介護看護",
    "capacity": 0,
    "openDays": [],
    "openDaysNote": ""
  },
  {
    "id": "3390102691",
    "name": "ケアステップ　エール",
    "kana": "ケアステップ　エール",
    "address": "岡山県岡山市北区今6丁目5-23",
    "lat": 34.6419805035678,
    "lng": 133.89831546945,
    "tel": "086-250-8115",
    "url": "https://yell-oka.com",
    "pref": "岡山県",
    "city": "岡山市北区",
    "category": "regular_patrol_nursing",
    "serviceType": "定期巡回・随時対応型訪問介護看護",
    "capacity": 0,
    "openDays": [],
    "openDaysNote": ""
  },
  {
    "id": "3390101321",
    "name": "ホームヘルパーステーション桃丘",
    "kana": "ホームヘルパーステーションモモガオカ",
    "address": "岡山県岡山市北区高松原古才４９７－１６",
    "lat": 34.6849206,
    "lng": 133.823868,
    "tel": "086-239-8686",
    "url": "gifukai.jp/facilities/",
    "pref": "岡山県",
    "city": "岡山市北区",
    "category": "regular_patrol_nursing",
    "serviceType": "定期巡回・随時対応型訪問介護看護",
    "capacity": 0,
    "openDays": [],
    "openDaysNote": ""
  },
  {
    "id": "3390101776",
    "name": "丸の内ヒルズ　定期巡回・随時対応型訪問介護看護事業所",
    "kana": "マルノウチヒルズ　テイキジュンカイ・ズイジタイオウガタホウモンカイゴカンゴジギョウショ",
    "address": "岡山県岡山市北区丸の内二丁目1番10号",
    "lat": 34.6654361756689,
    "lng": 133.933207825795,
    "tel": "086-201-1825",
    "url": "https://ryobi-hc.jp/",
    "pref": "岡山県",
    "city": "岡山市北区",
    "category": "regular_patrol_nursing",
    "serviceType": "定期巡回・随時対応型訪問介護看護",
    "capacity": 25,
    "openDays": [],
    "openDaysNote": ""
  },
  {
    "id": "3390103293",
    "name": "定期巡回サービス土屋岡山",
    "kana": "テイキジュンカイサービスツチヤオカヤマ",
    "address": "岡山県岡山市北区神田町2丁目1-25第3耐火ビル205 第3耐火ビル205",
    "lat": 34.6399255,
    "lng": 133.9233469,
    "tel": "050-1720-2733",
    "url": "https://teikijunkai.net/",
    "pref": "岡山県",
    "city": "岡山市北区",
    "category": "regular_patrol_nursing",
    "serviceType": "定期巡回・随時対応型訪問介護看護",
    "capacity": 0,
    "openDays": [],
    "openDaysNote": ""
  },
  {
    "id": "3390102071",
    "name": "北方ケアサービス",
    "kana": "キタカタケアサービス",
    "address": "岡山県岡山市北区1丁目15-28102号室 102号室",
    "lat": 34.6844367334621,
    "lng": 133.930651335582,
    "tel": "086-232-1183",
    "url": "https://www.reline-families.com",
    "pref": "岡山県",
    "city": "岡山市北区",
    "category": "regular_patrol_nursing",
    "serviceType": "定期巡回・随時対応型訪問介護看護",
    "capacity": 30,
    "openDays": [],
    "openDaysNote": ""
  },
  {
    "id": "3390400210",
    "name": "24時間訪問介護看護ハーヴィス24玉野",
    "kana": "ニジュウヨジカンホウモンカイゴカンゴハーウ”ィスニジュウヨンタマノ",
    "address": "岡山県玉野市東高崎24-8",
    "lat": 34.5399011363117,
    "lng": 133.892263382278,
    "tel": "0863-73-5177",
    "url": "http://www.rcare.jp/",
    "pref": "岡山県",
    "city": "玉野市",
    "category": "regular_patrol_nursing",
    "serviceType": "定期巡回・随時対応型訪問介護看護",
    "capacity": 0,
    "openDays": [],
    "openDaysNote": ""
  },
  {
    "id": "3390202046",
    "name": "おうじの定期巡回",
    "kana": "オウジノテイキジュンカイ",
    "address": "岡山県倉敷市児島下の町3丁目8-54フォーレス21101号室 フォーレス21101号室",
    "lat": 34.4781143849489,
    "lng": 133.820222931877,
    "tel": "086-436-8529",
    "url": "https://ohji-clinic.jp/",
    "pref": "岡山県",
    "city": "倉敷市",
    "category": "regular_patrol_nursing",
    "serviceType": "定期巡回・随時対応型訪問介護看護",
    "capacity": 0,
    "openDays": [],
    "openDaysNote": ""
  },
  {
    "id": "3390201709",
    "name": "玉島東巡回訪問ステーション",
    "kana": "タマシマヒガシジュンカイホウモンステーション",
    "address": "岡山県倉敷市船穂町船穂880-1",
    "lat": 34.568879917932,
    "lng": 133.695150759525,
    "tel": "086-552-3801",
    "url": "https://momotaro-kaigo.com/",
    "pref": "岡山県",
    "city": "倉敷市",
    "category": "regular_patrol_nursing",
    "serviceType": "定期巡回・随時対応型訪問介護看護",
    "capacity": 28,
    "openDays": [],
    "openDaysNote": ""
  },
  {
    "id": "3390201683",
    "name": "倉敷スイートホームサポートステーション",
    "kana": "クラシキスイートホームサポートステーション",
    "address": "岡山県倉敷市中庄3542番1",
    "lat": 34.6243932,
    "lng": 133.8040929,
    "tel": "086-463-7123",
    "url": "http://sweet-town.jp/station/index.html",
    "pref": "岡山県",
    "city": "倉敷市",
    "category": "regular_patrol_nursing",
    "serviceType": "定期巡回・随時対応型訪問介護看護",
    "capacity": 0,
    "openDays": [],
    "openDaysNote": ""
  },
  {
    "id": "3390201915",
    "name": "倉敷スイートホームサポートステーション　羽島",
    "kana": "クラシキスイートホームサポートステーション　ハシマ",
    "address": "岡山県倉敷市鳥羽５６",
    "lat": 34.5924437565059,
    "lng": 133.790288832746,
    "tel": "086-454-7400",
    "url": "https://www.wakokai.com/",
    "pref": "岡山県",
    "city": "倉敷市",
    "category": "regular_patrol_nursing",
    "serviceType": "定期巡回・随時対応型訪問介護看護",
    "capacity": 0,
    "openDays": [],
    "openDaysNote": ""
  },
  {
    "id": "3390201089",
    "name": "定期巡回・随時対応型訪問介護看護サービスぶどうの家ぶどうの花",
    "kana": "テイキジュンカイ・ズイジタイオウガタホウモンカイゴカンゴサービスブドウノイエブドウノハナ",
    "address": "岡山県倉敷市船穂町船穂1711-6",
    "lat": 34.5853912,
    "lng": 133.7092202,
    "tel": "086-552-2171",
    "url": "",
    "pref": "岡山県",
    "city": "倉敷市",
    "category": "regular_patrol_nursing",
    "serviceType": "定期巡回・随時対応型訪問介護看護",
    "capacity": 0,
    "openDays": [],
    "openDaysNote": ""
  },
  {
    "id": "3390201766",
    "name": "定期巡回サービスステーション　ひかりの里",
    "kana": "テイキジュンカイサービスステーション　ヒカリノ里",
    "address": "岡山県倉敷市玉島八島70番地1",
    "lat": 34.5638628,
    "lng": 133.6639164,
    "tel": "086-523-0077",
    "url": "https://onkochishinkai.or.jp/",
    "pref": "岡山県",
    "city": "倉敷市",
    "category": "regular_patrol_nursing",
    "serviceType": "定期巡回・随時対応型訪問介護看護",
    "capacity": 5,
    "openDays": [],
    "openDaysNote": ""
  },
  {
    "id": "3390201238",
    "name": "定期巡回サービス玉北",
    "kana": "テイキジュンカイサービスタマキタ",
    "address": "岡山県倉敷市玉島道口78-1",
    "lat": 34.5629553219659,
    "lng": 133.653940941139,
    "tel": "086-525-3367",
    "url": "http://www.tomicare.com/",
    "pref": "岡山県",
    "city": "倉敷市",
    "category": "regular_patrol_nursing",
    "serviceType": "定期巡回・随時対応型訪問介護看護",
    "capacity": 0,
    "openDays": [],
    "openDaysNote": ""
  },
  {
    "id": "3390201691",
    "name": "和香会ホームサポートステーション",
    "kana": "ワコウカイホームサポートステーション",
    "address": "岡山県倉敷市東塚５丁目４番１６号",
    "lat": 34.5310501139887,
    "lng": 133.762901270667,
    "tel": "086-450-1011",
    "url": "http://wakokai.com",
    "pref": "岡山県",
    "city": "倉敷市",
    "category": "regular_patrol_nursing",
    "serviceType": "定期巡回・随時対応型訪問介護看護",
    "capacity": 0,
    "openDays": [],
    "openDaysNote": ""
  }
]