[
  {
    "id": "391500345",
    "name": "ゆたかっ子指定定期巡回・随時対応型訪問介護看護事業所",
    "kana": "ユタカッコシテイテイキジュンカイズイジタイオウガタホウモンカイゴカンゴジギョウショ",
    "address": "岩手県奥州市胆沢若柳字下松原28番地3",
    "lat": 39.1321401839704,
    "lng": 141.064628195106,
    "tel": "0197-47-6010",
    "url": "http://www.yutaka-oshu.com",
    "pref": "岩手県",
    "city": "奥州市",
    "category": "regular_patrol_nursing",
    "serviceType": "定期巡回・随時対応型訪問介護看護",
    "capacity": null,
    "openDays": [],
    "openDaysNote": ""
  },
  {
    "id": "392100145",
    "name": "定期巡回随時対応型訪問介護・看護ひまわり",
    "kana": "テイキジュンカイズイジタイオウガタホウモンカイゴ・カンゴヒマワリ",
    "address": "岩手県岩手郡雫石町柿木５番地４",
    "lat": 39.7056975,
    "lng": 140.9634432,
    "tel": "019-691-1555",
    "url": "http://www.kouwa.iwate.jp",
    "pref": "岩手県",
    "city": "雫石町",
    "category": "regular_patrol_nursing",
    "serviceType": "定期巡回・随時対応型訪問介護看護",
    "capacity": 0,
    "openDays": [],
    "openDaysNote": ""
  },
  {
    "id": "390100741",
    "name": "エスコート定期巡回・随時対応型訪問介護看護ステーション",
    "kana": "エスコートテイキジュンカイズイジタイオウガタホウモンカイゴカンゴステーション",
    "address": "岩手県盛岡市みたけ2丁目10-70ナーシングホームもりおか ナーシングホームもりおか",
    "lat": 39.744119409483,
    "lng": 141.127713698148,
    "tel": "019-658-9522",
    "url": "http://life-escort.com/teikijunkai/",
    "pref": "岩手県",
    "city": "盛岡市",
    "category": "regular_patrol_nursing",
    "serviceType": "定期巡回・随時対応型訪問介護看護",
    "capacity": null,
    "openDays": [],
    "openDaysNote": ""
  },
  {
    "id": "390100378",
    "name": "みんなのものがたり",
    "kana": "ミンナノモノガタリ",
    "address": "岩手県盛岡市南青山町4－15サウザ南青山A棟 サウザ南青山A棟",
    "lat": 39.6777415,
    "lng": 141.1388248,
    "tel": "019-656-8625",
    "url": "",
    "pref": "岩手県",
    "city": "盛岡市",
    "category": "regular_patrol_nursing",
    "serviceType": "定期巡回・随時対応型訪問介護看護",
    "capacity": 0,
    "openDays": [],
    "openDaysNote": ""
  },
  {
    "id": "390100253",
    "name": "やさしい手盛岡津志田定期巡回随時対応型訪問介護看護事業所",
    "kana": "ヤサシイテモリオカツシダテイキジュンカイズイジタイオウガタホウモンカイゴカンゴジギョウショ",
    "address": "岩手県盛岡市津志田26-9-10やさしえ盛岡津志田 やさしえ盛岡津志田",
    "lat": 39.6707178,
    "lng": 141.1576484,
    "tel": "019-656-5678",
    "url": "http://www.yasashiite.com/",
    "pref": "岩手県",
    "city": "盛岡市",
    "category": "regular_patrol_nursing",
    "serviceType": "定期巡回・随時対応型訪問介護看護",
    "capacity": 0,
    "openDays": [],
    "openDaysNote": ""
  },
  {
    "id": "390600179",
    "name": "日高見ヘルパーステーション",
    "kana": "ヒダカミヘルパーステーション",
    "address": "岩手県北上市北鬼柳22-46",
    "lat": 39.292761,
    "lng": 141.0980698,
    "tel": "0197-61-3134",
    "url": "http://www.keiwakai.info",
    "pref": "岩手県",
    "city": "北上市",
    "category": "regular_patrol_nursing",
    "serviceType": "定期巡回・随時対応型訪問介護看護",
    "capacity": null,
    "openDays": [],
    "openDaysNote": ""
  }
]