[
  {
    "id": "3290800204",
    "name": "定期巡回・随時対応型訪問介護看護ステーションつむぎ",
    "kana": "テイキジュンカイズイジタイオウガタホウモンカイゴカンゴステーションツムギ",
    "address": "島根県益田市高津町イ2559-1",
    "lat": 34.6869143,
    "lng": 131.8032055,
    "tel": "0856-25-7300",
    "url": "https://akatsuki-hohoemi.jp/",
    "pref": "島根県",
    "city": "益田市",
    "category": "regular_patrol_nursing",
    "serviceType": "定期巡回・随時対応型訪問介護看護",
    "capacity": 0,
    "openDays": [],
    "openDaysNote": ""
  },
  {
    "id": "3290400492",
    "name": "ひかわ生協定期巡回随時対応型訪問介護看護事業所かざぐるま",
    "kana": "ヒカワセイキョウテイキジュンカイズイジタイオウガタホウモンカイゴカンゴジギョウショカザグルマ",
    "address": "島根県出雲市斐川町美南1507-1",
    "lat": 35.3932928597769,
    "lng": 132.823045068482,
    "tel": "080-2890-4511",
    "url": "http://www.hikawa-hp.com",
    "pref": "島根県",
    "city": "出雲市",
    "category": "regular_patrol_nursing",
    "serviceType": "定期巡回・随時対応型訪問介護看護",
    "capacity": 0,
    "openDays": [],
    "openDaysNote": ""
  },
  {
    "id": "3290400658",
    "name": "薫風24ケアサポートセンター",
    "kana": "クンプウニジュウヨンケアサポートセンター",
    "address": "島根県出雲市大津町3627番地22",
    "lat": 35.3565749,
    "lng": 132.7761744,
    "tel": "0853-25-9222",
    "url": "http://www.izumo-minami.jp/",
    "pref": "島根県",
    "city": "出雲市",
    "category": "regular_patrol_nursing",
    "serviceType": "定期巡回・随時対応型訪問介護看護",
    "capacity": 0,
    "openDays": [],
    "openDaysNote": ""
  },
  {
    "id": "3290500093",
    "name": "ホームヘルパーステーション　ながひさ",
    "kana": "ホームヘルパーステーション　ナガヒサ",
    "address": "島根県大田市長久町長久ハ24-2サービス付高齢者向け住宅　和かち逢う家 サービス付高齢者向け住宅　和かち逢う家",
    "lat": 35.2012916065233,
    "lng": 132.492820729754,
    "tel": "080-8980-2537",
    "url": "http//www.k-jinju.or.jp",
    "pref": "島根県",
    "city": "大田市",
    "category": "regular_patrol_nursing",
    "serviceType": "定期巡回・随時対応型訪問介護看護",
    "capacity": 0,
    "openDays": [],
    "openDaysNote": ""
  },
  {
    "id": "3290700156",
    "name": "24時間安心ハート",
    "kana": "24ジカンアンシンハート",
    "address": "島根県浜田市田町1466-1",
    "lat": 34.901328095595,
    "lng": 132.084620874622,
    "tel": "0855-25-5466",
    "url": "",
    "pref": "島根県",
    "city": "浜田市",
    "category": "regular_patrol_nursing",
    "serviceType": "定期巡回・随時対応型訪問介護看護",
    "capacity": 0,
    "openDays": [],
    "openDaysNote": ""
  }
]