[
  {
    "id": "3490500414",
    "name": "ルネッサンスいつでもヘルプ(定期巡回・随時対応型訪問介護看護事業所）",
    "kana": "ルネッサンスイツデモヘルプ（テイキジュンカイ・ズイジタイオウガタホウモンカイゴカンゴジギョウショ）",
    "address": "広島県呉市音戸町有清1-6-1",
    "lat": 34.1599703,
    "lng": 132.5229647,
    "tel": "0823-50-1510",
    "url": "",
    "pref": "広島県",
    "city": "呉市",
    "category": "regular_patrol_nursing",
    "serviceType": "定期巡回・随時対応型訪問介護看護",
    "capacity": 0,
    "openDays": [],
    "openDaysNote": ""
  },
  {
    "id": "3490500364",
    "name": "定期巡回・随時対応型訪問介護看護事業所e-こころ",
    "kana": "テイキジュンカイ・ズイジタイオウガタホウモンカイゴカンゴジギョウショイーココロ",
    "address": "広島県呉市広本町一丁目５番２８号",
    "lat": 34.2318628,
    "lng": 132.6183647,
    "tel": "０８２３－５５－３９９６",
    "url": "",
    "pref": "広島県",
    "city": "呉市",
    "category": "regular_patrol_nursing",
    "serviceType": "定期巡回・随時対応型訪問介護看護",
    "capacity": null,
    "openDays": [],
    "openDaysNote": ""
  },
  {
    "id": "3490100892",
    "name": "ニックス安芸ヘルパー・ナース24",
    "kana": "ニックスアキヘルパー・ナース24",
    "address": "広島県広島市安芸区船越南2丁目6-6",
    "lat": 34.3735341,
    "lng": 132.5216123,
    "tel": "082-821-1333",
    "url": "http://www.nix-net.co.jp",
    "pref": "広島県",
    "city": "広島市安芸区",
    "category": "regular_patrol_nursing",
    "serviceType": "定期巡回・随時対応型訪問介護看護",
    "capacity": 0,
    "openDays": [],
    "openDaysNote": ""
  },
  {
    "id": "3490200841",
    "name": "ＩＧＬ訪問サービス上安２４",
    "kana": "アイジイエルホウモンサービスカミヤス24",
    "address": "広島市安佐南区上安六丁目３１番２号",
    "lat": 34.4839373230464,
    "lng": 132.444401606082,
    "tel": "082-830-3324",
    "url": "http://www.igl.or.jp/kourei/teiki_junkai.html",
    "pref": "広島県",
    "city": "広島市安佐南区",
    "category": "regular_patrol_nursing",
    "serviceType": "定期巡回・随時対応型訪問介護看護",
    "capacity": null,
    "openDays": [],
    "openDaysNote": ""
  },
  {
    "id": "3490200718",
    "name": "エコールenta24安佐南",
    "kana": "エコールエンタニジュウヨンアサミナミ",
    "address": "広島市安佐南区大町東一丁目19番43号",
    "lat": 34.4533409,
    "lng": 132.466961,
    "tel": "082-830-5010",
    "url": "https://www.nihonkijun.jp/",
    "pref": "広島県",
    "city": "広島市安佐南区",
    "category": "regular_patrol_nursing",
    "serviceType": "定期巡回・随時対応型訪問介護看護",
    "capacity": 0,
    "openDays": [],
    "openDaysNote": ""
  },
  {
    "id": "3490200833",
    "name": "ふじケア24川内",
    "kana": "フジケアニジュウヨンカワウチ",
    "address": "広島県広島市安佐南区川内1丁目15-1ネクストビューふじ川内 ネクストビューふじ川内",
    "lat": 34.4586112,
    "lng": 132.4849234,
    "tel": "082-831-2166",
    "url": "http://www.fujibiru.co.jp/",
    "pref": "広島県",
    "city": "広島市安佐南区",
    "category": "regular_patrol_nursing",
    "serviceType": "定期巡回・随時対応型訪問介護看護",
    "capacity": 0,
    "openDays": [],
    "openDaysNote": ""
  },
  {
    "id": "3490201518",
    "name": "ふれあいケア24西原",
    "kana": "フレアイケア24ニシハラ",
    "address": "広島県広島市安佐南区西原八丁目33番3号西原セントラルクリニック2階 西原セントラルクリニック2階",
    "lat": 34.4431949,
    "lng": 132.4742165,
    "tel": "082-555-5808",
    "url": "",
    "pref": "広島県",
    "city": "広島市安佐南区",
    "category": "regular_patrol_nursing",
    "serviceType": "定期巡回・随時対応型訪問介護看護",
    "capacity": null,
    "openDays": [],
    "openDaysNote": ""
  },
  {
    "id": "3490201567",
    "name": "ヘルパーステーションあすか大町24",
    "kana": "ヘルパーステーションアスカオオマチニイヨン",
    "address": "広島県広島市安佐南区中須一丁目26番12号あすかケアプラザ あすかケアプラザ",
    "lat": 34.4612026,
    "lng": 132.4717039,
    "tel": "082-879-1226",
    "url": "https://asuka-net.or.jp/",
    "pref": "広島県",
    "city": "広島市安佐南区",
    "category": "regular_patrol_nursing",
    "serviceType": "定期巡回・随時対応型訪問介護看護",
    "capacity": null,
    "openDays": [],
    "openDaysNote": ""
  },
  {
    "id": "3490201294",
    "name": "メリィケア",
    "kana": "メリィケア",
    "address": "広島県広島市安佐南区大塚西三丁目1-20",
    "lat": 34.4462878782716,
    "lng": 132.391920226458,
    "tel": "082-849-2326",
    "url": "http://merry-house.jp/",
    "pref": "広島県",
    "city": "広島市安佐南区",
    "category": "regular_patrol_nursing",
    "serviceType": "定期巡回・随時対応型訪問介護看護",
    "capacity": 0,
    "openDays": [],
    "openDaysNote": ""
  },
  {
    "id": "3490200890",
    "name": "定期巡回・随時対応型訪問介護看護事業所川内",
    "kana": "テイキジュンカイ・ズイジタイオウガタホウモンカイゴカンゴジギョウショカワウチ",
    "address": "安佐南区川内五丁目1番49号",
    "lat": 34.4669706,
    "lng": 132.4889391,
    "tel": "082-846-6673",
    "url": "http://npokizuna.jp/",
    "pref": "広島県",
    "city": "広島市安佐南区",
    "category": "regular_patrol_nursing",
    "serviceType": "定期巡回・随時対応型訪問介護看護",
    "capacity": 0,
    "openDays": [],
    "openDaysNote": ""
  },
  {
    "id": "3490201609",
    "name": "定期巡回ふれあい協同",
    "kana": "テイキジュンカイ　フレアイキョウドウ",
    "address": "広島県広島市安佐南区西原9丁目8-22",
    "lat": 34.4469862,
    "lng": 132.4719208,
    "tel": "082-555-1768",
    "url": "http://www.hiroshimairyo.coop/kyodo/junkai/",
    "pref": "広島県",
    "city": "広島市安佐南区",
    "category": "regular_patrol_nursing",
    "serviceType": "定期巡回・随時対応型訪問介護看護",
    "capacity": 25,
    "openDays": [],
    "openDaysNote": ""
  },
  {
    "id": "3490101171",
    "name": "いでした定期巡回サービス",
    "kana": "イデシタテイキジュンカイサービス",
    "address": "広島県広島市安佐北区口田3丁目30-13",
    "lat": 34.4651875,
    "lng": 132.5022719,
    "tel": "082-516-8127",
    "url": "https://www.ideshita-clinic.jp/",
    "pref": "広島県",
    "city": "広島市安佐北区",
    "category": "regular_patrol_nursing",
    "serviceType": "定期巡回・随時対応型訪問介護看護",
    "capacity": null,
    "openDays": [],
    "openDaysNote": ""
  },
  {
    "id": "3490100710",
    "name": "エコールenta24安佐北",
    "kana": "エコールエンタ２４アサキタ",
    "address": "広島市安佐北区亀崎一丁目2番33号",
    "lat": 34.4818237371678,
    "lng": 132.523809379762,
    "tel": "082-841-4550",
    "url": "https://www.nihonkijun.jp/",
    "pref": "広島県",
    "city": "広島市安佐北区",
    "category": "regular_patrol_nursing",
    "serviceType": "定期巡回・随時対応型訪問介護看護",
    "capacity": 0,
    "openDays": [],
    "openDaysNote": ""
  },
  {
    "id": "3490101361",
    "name": "くらしさ介護ステーションたかとり",
    "kana": "クラシサカイゴステーションタカトリ",
    "address": "広島県広島市安佐北区三入六丁目１８番６号",
    "lat": 34.5460084724109,
    "lng": 132.529668261159,
    "tel": "082-516-4571",
    "url": "",
    "pref": "広島県",
    "city": "広島市安佐北区",
    "category": "regular_patrol_nursing",
    "serviceType": "定期巡回・随時対応型訪問介護看護",
    "capacity": null,
    "openDays": [],
    "openDaysNote": ""
  },
  {
    "id": "3490100769",
    "name": "ふかわ・くにくさ定期巡回・随時対応型訪問介護看護事業所",
    "kana": "フカワ・クニクサテイキジュンカイ・ズイジタイオウガタホウモンカイゴカンゴジギョウショ",
    "address": "広島県広島市安佐北区上深川町１８６番地１",
    "lat": 34.4734042,
    "lng": 132.5525507,
    "tel": "082-840-1840",
    "url": "https://www.kunikusa.or.jp",
    "pref": "広島県",
    "city": "広島市安佐北区",
    "category": "regular_patrol_nursing",
    "serviceType": "定期巡回・随時対応型訪問介護看護",
    "capacity": 0,
    "openDays": [],
    "openDaysNote": ""
  },
  {
    "id": "3490201021",
    "name": "ニックス佐伯ヘルパー・ナース24",
    "kana": "ニックスサエキヘルパー・ナース24",
    "address": "広島市佐伯区三筋一丁目10-27",
    "lat": 34.3653563,
    "lng": 132.3475829,
    "tel": "082-942-1112",
    "url": "https://www.nix-net.co.jp/",
    "pref": "広島県",
    "city": "広島市佐伯区",
    "category": "regular_patrol_nursing",
    "serviceType": "定期巡回・随時対応型訪問介護看護",
    "capacity": 0,
    "openDays": [],
    "openDaysNote": ""
  },
  {
    "id": "3490201682",
    "name": "定期巡回・随時対応型訪問介護看護スープ五日市",
    "kana": "テイキジュンカイ　ズイジタイオウガタホウモンカイゴカンゴスープイツカイチ",
    "address": "広島県広島市佐伯区五日市中央5丁目13－16",
    "lat": 34.373914,
    "lng": 132.3533039,
    "tel": "082-275-4695",
    "url": "https://care.s-brillant.co.jp",
    "pref": "広島県",
    "city": "広島市佐伯区",
    "category": "regular_patrol_nursing",
    "serviceType": "定期巡回・随時対応型訪問介護看護",
    "capacity": null,
    "openDays": [],
    "openDaysNote": ""
  },
  {
    "id": "3490201765",
    "name": "定期巡回メニーピープル広島西",
    "kana": "テイキジュンカイメニーピープルヒロシマニシ",
    "address": "広島県広島市佐伯区五月が丘1-33-3401 401",
    "lat": 34.4189572,
    "lng": 132.4057332,
    "tel": "082-961-4065",
    "url": "https://www.manypeople.co.jp/",
    "pref": "広島県",
    "city": "広島市佐伯区",
    "category": "regular_patrol_nursing",
    "serviceType": "定期巡回・随時対応型訪問介護看護",
    "capacity": null,
    "openDays": [],
    "openDaysNote": ""
  },
  {
    "id": "3490201724",
    "name": "定期巡回随時対応型訪問介護看護生協いつかいち24",
    "kana": "テイキジュンカイズイジタイオウガタホウモンカイゴカンゴセイキョウイツカイチ",
    "address": "広島県広島市佐伯区千同1丁目21-16",
    "lat": 34.3769346,
    "lng": 132.3521529,
    "tel": "082-943-6511",
    "url": "",
    "pref": "広島県",
    "city": "広島市佐伯区",
    "category": "regular_patrol_nursing",
    "serviceType": "定期巡回・随時対応型訪問介護看護",
    "capacity": null,
    "openDays": [],
    "openDaysNote": ""
  },
  {
    "id": "3490201252",
    "name": "定期巡回・随時対応型訪問介護看護生協かんおん24",
    "kana": "テイキジュンカイズイジタイオウガタホウモンカイゴカンゴセイキョウカンオンニジュウヨン",
    "address": "広島県広島市西区観音町16-19生協けんこうプラザ 生協けんこうプラザ",
    "lat": 34.3945054,
    "lng": 132.4370749,
    "tel": "082-563-8391",
    "url": "http://www.hch.coop/",
    "pref": "広島県",
    "city": "広島市西区",
    "category": "regular_patrol_nursing",
    "serviceType": "定期巡回・随時対応型訪問介護看護",
    "capacity": null,
    "openDays": [],
    "openDaysNote": ""
  },
  {
    "id": "3490201062",
    "name": "定期巡回・随時対応型訪問介護看護生協くさつ24",
    "kana": "テイキジュンカイズイジタイオウガタホウモンカイゴカンゴセイキョウクサツ24",
    "address": "広島市西区草津東1丁目11-19",
    "lat": 34.3788256,
    "lng": 132.4063338,
    "tel": "082-507-1222",
    "url": "http://www.hch.coop",
    "pref": "広島県",
    "city": "広島市西区",
    "category": "regular_patrol_nursing",
    "serviceType": "定期巡回・随時対応型訪問介護看護",
    "capacity": null,
    "openDays": [],
    "openDaysNote": ""
  },
  {
    "id": "3490201419",
    "name": "IGL訪問サービス舟入24",
    "kana": "アイジイエルホウモンサービスフナイリ24",
    "address": "広島県広島市中区舟入南1-8-8IGLケアホームベルビュー広島 IGLケアホームベルビュー広島",
    "lat": 34.3777694,
    "lng": 132.4404782,
    "tel": "082-235-3382",
    "url": "http://www.igl.or.jp",
    "pref": "広島県",
    "city": "広島市中区",
    "category": "regular_patrol_nursing",
    "serviceType": "定期巡回・随時対応型訪問介護看護",
    "capacity": 0,
    "openDays": [],
    "openDaysNote": ""
  },
  {
    "id": "3470214648",
    "name": "あっとほーむ24",
    "kana": "アットホーム24",
    "address": "広島県広島市中区広瀬町3番29号",
    "lat": 34.4006147,
    "lng": 132.4457236,
    "tel": "082-295-2383",
    "url": "",
    "pref": "広島県",
    "city": "広島市中区",
    "category": "regular_patrol_nursing",
    "serviceType": "定期巡回・随時対応型訪問介護看護",
    "capacity": null,
    "openDays": [],
    "openDaysNote": ""
  },
  {
    "id": "3490200817",
    "name": "エコールenta24中央",
    "kana": "エコールエンタニジュウヨンチュウオウ",
    "address": "広島市中区南竹屋町7番8号",
    "lat": 34.3805757,
    "lng": 132.4605507,
    "tel": "082-207-1565",
    "url": "https://www.nihonkijun.jp/",
    "pref": "広島県",
    "city": "広島市中区",
    "category": "regular_patrol_nursing",
    "serviceType": "定期巡回・随時対応型訪問介護看護",
    "capacity": 0,
    "openDays": [],
    "openDaysNote": ""
  },
  {
    "id": "3490200783",
    "name": "サンキ・ウエルビィ介護センター江波（定期・随時）",
    "kana": "サンキ・ウエルビィカイゴセンターエバ（テイキ・ズイジ）",
    "address": "広島県広島市中区江波二本松一丁目１０番３号ウエルビィ江波１階 ウエルビィ江波１階",
    "lat": 34.3692877,
    "lng": 132.4320994,
    "tel": "082-208-5240",
    "url": "",
    "pref": "広島県",
    "city": "広島市中区",
    "category": "regular_patrol_nursing",
    "serviceType": "定期巡回・随時対応型訪問介護看護",
    "capacity": 25,
    "openDays": [],
    "openDaysNote": ""
  },
  {
    "id": "3490201690",
    "name": "定期巡回サービス土屋広島",
    "kana": "テイキジュンカイサービスツチヤヒロシマ",
    "address": "広島県広島市中区宝町5-10ウイング宝町サード1906号室 ウイング宝町サード1906号室",
    "lat": 34.3851539,
    "lng": 132.4618023,
    "tel": "050-1808-4656",
    "url": "https://tcy.co.jp/",
    "pref": "広島県",
    "city": "広島市中区",
    "category": "regular_patrol_nursing",
    "serviceType": "定期巡回・随時対応型訪問介護看護",
    "capacity": 0,
    "openDays": [],
    "openDaysNote": ""
  },
  {
    "id": "3490101320",
    "name": "ウィズユー",
    "kana": "ウィズユー",
    "address": "広島県広島市東区矢賀新町5丁目２‐３203号 203号",
    "lat": 34.3911303,
    "lng": 132.4999285,
    "tel": "082-289-0006",
    "url": "https://www.lile-style.biz/company-infomation/",
    "pref": "広島県",
    "city": "広島市東区",
    "category": "regular_patrol_nursing",
    "serviceType": "定期巡回・随時対応型訪問介護看護",
    "capacity": null,
    "openDays": [],
    "openDaysNote": ""
  },
  {
    "id": "3490100512",
    "name": "ニックスヘルパー・ナース24",
    "kana": "ニックスヘルパー・ナース２４",
    "address": "広島市東区尾長東二丁目7番28号",
    "lat": 34.398075053352,
    "lng": 132.488258203571,
    "tel": "082-568-7300",
    "url": "http://www.nix-net.co.jp/",
    "pref": "広島県",
    "city": "広島市東区",
    "category": "regular_patrol_nursing",
    "serviceType": "定期巡回・随時対応型訪問介護看護",
    "capacity": 0,
    "openDays": [],
    "openDaysNote": ""
  },
  {
    "id": "3495000089",
    "name": "あんしん江能２４",
    "kana": "アンシンエノウニジュウヨン",
    "address": "江田島市大柿町飛渡瀬4022番地",
    "lat": 34.2145063,
    "lng": 132.4664587,
    "tel": "0823-40-3300",
    "url": "http://enou01.com/",
    "pref": "広島県",
    "city": "江田島市",
    "category": "regular_patrol_nursing",
    "serviceType": "定期巡回・随時対応型訪問介護看護",
    "capacity": 0,
    "openDays": [],
    "openDaysNote": ""
  },
  {
    "id": "3495000097",
    "name": "定期巡回サービス　やまぼうし",
    "kana": "テイキジュンカイサービス　ヤマボウシ",
    "address": "広島県江田島市江田島町津久茂二丁目5-2",
    "lat": 34.2485030795489,
    "lng": 132.450815980951,
    "tel": "0823-43-1200",
    "url": "",
    "pref": "広島県",
    "city": "江田島市",
    "category": "regular_patrol_nursing",
    "serviceType": "定期巡回・随時対応型訪問介護看護",
    "capacity": 20,
    "openDays": [],
    "openDaysNote": ""
  },
  {
    "id": "3490900309",
    "name": "定期巡回・随時対応型訪問介護サンライズみはら",
    "kana": "テイキジュンカイズイジタイオウガタホウモンカイゴサンライズミハラ",
    "address": "広島県三原市宮浦四丁目4番29号",
    "lat": 34.398783,
    "lng": 133.0632308,
    "tel": "0848-60-0631",
    "url": "http://www.snrs.or.jp",
    "pref": "広島県",
    "city": "三原市",
    "category": "regular_patrol_nursing",
    "serviceType": "定期巡回・随時対応型訪問介護看護",
    "capacity": 0,
    "openDays": [],
    "openDaysNote": ""
  },
  {
    "id": "3490900408",
    "name": "定期巡回・随時対応型訪問介護看護事業所下北方",
    "kana": "テイキジュンカイ・ズイジタイオウガタホウモンカンゴカイゴジギョウショシモキタガタ",
    "address": "広島県三原市下北方一丁目7番22号すまいる下北方 すまいる下北方",
    "lat": 34.4065506,
    "lng": 132.9746828,
    "tel": "0848-60-6808",
    "url": "http://npokizuna.jp/",
    "pref": "広島県",
    "city": "三原市",
    "category": "regular_patrol_nursing",
    "serviceType": "定期巡回・随時対応型訪問介護看護",
    "capacity": null,
    "openDays": [],
    "openDaysNote": ""
  },
  {
    "id": "3491900241",
    "name": "ＪＡひろしま定期巡回・随時対応型訪問介護看護事業所",
    "kana": "ジェイエイヒロシマテイキジュンカイズイジタイオウガタホウモンカイゴカンゴジギョウショ",
    "address": "広島県三次市十日市東三丁目１番１号",
    "lat": 34.8067662,
    "lng": 132.859866,
    "tel": "0824-63-9960",
    "url": "https://www.jahiroshima.or.jp",
    "pref": "広島県",
    "city": "三次市",
    "category": "regular_patrol_nursing",
    "serviceType": "定期巡回・随時対応型訪問介護看護",
    "capacity": null,
    "openDays": [],
    "openDaysNote": ""
  },
  {
    "id": "3491900191",
    "name": "定期巡回・随時対応型訪問介護看護事業所ゆうしゃいん",
    "kana": "テイキジュンカイ・ズイジタイオウガタホウモンカイゴカンゴジギョウショユウシャイン",
    "address": "三次市吉舎町吉舎606定期巡回・随時対応型訪問介護看護事業所ゆうしゃいん 定期巡回・随時対応型訪問介護看護事業所ゆうしゃいん",
    "lat": 34.7142669,
    "lng": 132.9928687,
    "tel": "０824-43-3110",
    "url": "http://www.yuukifukushikai.com/",
    "pref": "広島県",
    "city": "三次市",
    "category": "regular_patrol_nursing",
    "serviceType": "定期巡回・随時対応型訪問介護看護",
    "capacity": 0,
    "openDays": [],
    "openDaysNote": ""
  },
  {
    "id": "3492100189",
    "name": "定期巡回・随時対応型訪問介護看護あかり",
    "kana": "テイキジュンカイズイジタイオウガタホウモンカイゴカンゴアカリ",
    "address": "広島県庄原市川北町５３４－３",
    "lat": 34.887397,
    "lng": 133.0026139,
    "tel": "0824-74-6261",
    "url": "https://saijyofukushikai.jp/",
    "pref": "広島県",
    "city": "庄原市",
    "category": "regular_patrol_nursing",
    "serviceType": "定期巡回・随時対応型訪問介護看護",
    "capacity": null,
    "openDays": [],
    "openDaysNote": ""
  },
  {
    "id": "3492300078",
    "name": "定期巡回・随時対応型訪問介護看護かがやき２４",
    "kana": "テイキジュンカイ・ズイジタイオウガタホウモンカイゴカンゴカガヤキ２４",
    "address": "大竹市元町１丁目１－５",
    "lat": 34.2069022,
    "lng": 132.2169497,
    "tel": "０８２７－５２－８０３１",
    "url": "",
    "pref": "広島県",
    "city": "大竹市",
    "category": "regular_patrol_nursing",
    "serviceType": "定期巡回・随時対応型訪問介護看護",
    "capacity": 0,
    "openDays": [],
    "openDaysNote": ""
  },
  {
    "id": "3492500289",
    "name": "ふれあいケア２４西条",
    "kana": "フレアイケアニジュウヨンサイジョウ",
    "address": "広島県東広島市西条町寺家7429-3",
    "lat": 34.4222585,
    "lng": 132.7288495,
    "tel": "082-424-2322",
    "url": "http://koenkai-gr.jp/",
    "pref": "広島県",
    "city": "東広島市",
    "category": "regular_patrol_nursing",
    "serviceType": "定期巡回・随時対応型訪問介護看護",
    "capacity": 0,
    "openDays": [],
    "openDaysNote": ""
  },
  {
    "id": "3492700186",
    "name": "四季が丘せせらぎ園定期巡回随時対応型訪問介護看護事業所",
    "kana": "シキガオカセセラギエンテイキジュンカイズイジタイオウガタホウモンカイゴカンゴジギョウショ",
    "address": "広島県廿日市市四季が丘八丁目1番地3",
    "lat": 34.3480877,
    "lng": 132.2906872,
    "tel": "0829-39-9383",
    "url": "http://www.saikisatsukikai.jp/",
    "pref": "広島県",
    "city": "廿日市市",
    "category": "regular_patrol_nursing",
    "serviceType": "定期巡回・随時対応型訪問介護看護",
    "capacity": null,
    "openDays": [],
    "openDaysNote": ""
  },
  {
    "id": "3492700350",
    "name": "生協ひろしま地域サポート廿日市",
    "kana": "セイキョウヒロシマチイキサポートハツカイチ",
    "address": "広島県廿日市市大野原１―２―１０",
    "lat": 35.8916392,
    "lng": 140.6544105,
    "tel": "0829-30-6111",
    "url": "https://www.hiroshima.coop/",
    "pref": "広島県",
    "city": "廿日市市",
    "category": "regular_patrol_nursing",
    "serviceType": "定期巡回・随時対応型訪問介護看護",
    "capacity": 0,
    "openDays": [],
    "openDaysNote": ""
  },
  {
    "id": "3491100446",
    "name": "定期巡回　長江",
    "kana": "テイキジュンカイ　ナガエ",
    "address": "広島県尾道市山波町３４３番地",
    "lat": 34.4233412346128,
    "lng": 133.2277714097,
    "tel": "0848-36-6071",
    "url": "https://nagae.sakura.ne.jp/",
    "pref": "広島県",
    "city": "尾道市",
    "category": "regular_patrol_nursing",
    "serviceType": "定期巡回・随時対応型訪問介護看護",
    "capacity": 0,
    "openDays": [],
    "openDaysNote": ""
  },
  {
    "id": "3491100438",
    "name": "定期巡回・随時対応型訪問介護看護いちょうの樹",
    "kana": "テイキジュンカイズイジタイオウガタホウモンカイゴカンゴイチョウノキ",
    "address": "広島県尾道市向東町8614-1尾道いちょうの樹 尾道いちょうの樹",
    "lat": 34.3986103030971,
    "lng": 133.219630667778,
    "tel": "0848-38-7656",
    "url": "http://ichonoki.com/",
    "pref": "広島県",
    "city": "尾道市",
    "category": "regular_patrol_nursing",
    "serviceType": "定期巡回・随時対応型訪問介護看護",
    "capacity": 0,
    "openDays": [],
    "openDaysNote": ""
  },
  {
    "id": "3491100545",
    "name": "定期巡回随時対応型訪問介護看護　きらら",
    "kana": "テイキジュンカイズイジタイオウガタホウモンカイゴカンゴ　キララ",
    "address": "広島県尾道市門田町１番39号",
    "lat": 34.4164135,
    "lng": 133.1865062,
    "tel": "0848-38-2626",
    "url": "",
    "pref": "広島県",
    "city": "尾道市",
    "category": "regular_patrol_nursing",
    "serviceType": "定期巡回・随時対応型訪問介護看護",
    "capacity": 30,
    "openDays": [],
    "openDaysNote": ""
  },
  {
    "id": "3491100602",
    "name": "訪問介護事業所　輝き　みなりの家",
    "kana": "ホウモンカイゴジギョウショ　カガヤキ　ミナリノイエ",
    "address": "広島県尾道市美ノ郷町三成2800-1",
    "lat": 34.4448519175481,
    "lng": 133.196443035539,
    "tel": "0848-36-5188",
    "url": "https://care.s-brillant.co.jp/",
    "pref": "広島県",
    "city": "尾道市",
    "category": "regular_patrol_nursing",
    "serviceType": "定期巡回・随時対応型訪問介護看護",
    "capacity": null,
    "openDays": [],
    "openDaysNote": ""
  },
  {
    "id": "3491700104",
    "name": "いつでもサポート訪問介護看護",
    "kana": "イツデモサポートホウモンカイゴカンゴ",
    "address": "府中市高木町20番地１",
    "lat": 34.5619672,
    "lng": 133.2548614,
    "tel": "0847-40-0100",
    "url": "http://k-yuyu.com/",
    "pref": "広島県",
    "city": "府中市",
    "category": "regular_patrol_nursing",
    "serviceType": "定期巡回・随時対応型訪問介護看護",
    "capacity": 0,
    "openDays": [],
    "openDaysNote": ""
  },
  {
    "id": "3491700179",
    "name": "定期巡回随時対応型訪問介護看護事業所ゆーさぽセイワ24",
    "kana": "テイキジュンカイズイジタイオウガタホウモンカイゴカンゴジギョウショユーサポセイワニジュウヨン",
    "address": "広島県府中市土生町1636-1",
    "lat": 34.5710714,
    "lng": 133.2262643,
    "tel": "0847-44-6442",
    "url": "https://www.seiwakai-hiroshima.jp/",
    "pref": "広島県",
    "city": "府中市",
    "category": "regular_patrol_nursing",
    "serviceType": "定期巡回・随時対応型訪問介護看護",
    "capacity": 0,
    "openDays": [],
    "openDaysNote": ""
  },
  {
    "id": "3493200202",
    "name": "ニックス安芸府中ヘルパー・ナース24",
    "kana": "ニックスアキフチュウヘルパーナースニジュウヨン",
    "address": "広島県安芸郡府中町瀬戸ハイム三丁目16番2号",
    "lat": 34.3897316,
    "lng": 132.5171203,
    "tel": "082-284-2941",
    "url": "http://www.nix-net.co.jp",
    "pref": "広島県",
    "city": "府中町",
    "category": "regular_patrol_nursing",
    "serviceType": "定期巡回・随時対応型訪問介護看護",
    "capacity": null,
    "openDays": [],
    "openDaysNote": ""
  },
  {
    "id": "3491502013",
    "name": "ありがとう安心定期便",
    "kana": "アリガトウアンシンテイキビン",
    "address": "広島県福山市春日町浦上1224番地",
    "lat": 34.5242358,
    "lng": 133.4187128,
    "tel": "084-948-3412",
    "url": "https://takinouarigatou.com/s-houmon",
    "pref": "広島県",
    "city": "福山市",
    "category": "regular_patrol_nursing",
    "serviceType": "定期巡回・随時対応型訪問介護看護",
    "capacity": 0,
    "openDays": [],
    "openDaysNote": ""
  },
  {
    "id": "3491502286",
    "name": "ケアステーションざおう",
    "kana": "ケアステーションザオウ",
    "address": "広島県福山市蔵王町７１６２番地の１",
    "lat": 34.5170485211667,
    "lng": 133.40232325159,
    "tel": "084-941-1500",
    "url": "https://kenseigroup.jp/publics/index/27/",
    "pref": "広島県",
    "city": "福山市",
    "category": "regular_patrol_nursing",
    "serviceType": "定期巡回・随時対応型訪問介護看護",
    "capacity": 0,
    "openDays": [],
    "openDaysNote": ""
  },
  {
    "id": "3491502260",
    "name": "ケアステーションしんがい",
    "kana": "ケアステーションシンガイ",
    "address": "広島県福山市新涯町三丁目19番27号",
    "lat": 34.460732,
    "lng": 133.3924315,
    "tel": "084-961-3960",
    "url": "https://www.sanyo.or.jp/shingai/",
    "pref": "広島県",
    "city": "福山市",
    "category": "regular_patrol_nursing",
    "serviceType": "定期巡回・随時対応型訪問介護看護",
    "capacity": 0,
    "openDays": [],
    "openDaysNote": ""
  },
  {
    "id": "3491501502",
    "name": "てらおか定期巡回・随時対応型訪問介護看護ステーション",
    "kana": "テラオカテイキジュンカイズイジタイオウガタホウモンカイゴカンゴステーション",
    "address": "広島県福山市新市町新市56番地1ローカルコモンズ・ウィル内 ローカルコモンズ・ウィル内",
    "lat": 34.5503662,
    "lng": 133.2790457,
    "tel": "0847-54-0120",
    "url": "",
    "pref": "広島県",
    "city": "福山市",
    "category": "regular_patrol_nursing",
    "serviceType": "定期巡回・随時対応型訪問介護看護",
    "capacity": 0,
    "openDays": [],
    "openDaysNote": ""
  },
  {
    "id": "3491501247",
    "name": "永和会多機能看護介護ステーション",
    "kana": "エイワカイタキノウカンゴカイゴステーション",
    "address": "福山市東村町466番地2",
    "lat": 34.4614325339947,
    "lng": 133.240720991889,
    "tel": "084-939-9550",
    "url": "http://www.eiwa-kai.or.jp/",
    "pref": "広島県",
    "city": "福山市",
    "category": "regular_patrol_nursing",
    "serviceType": "定期巡回・随時対応型訪問介護看護",
    "capacity": 60,
    "openDays": [],
    "openDaysNote": ""
  },
  {
    "id": "3491501270",
    "name": "定期・随時訪問介護オールウェイズ",
    "kana": "テイキ・ズイジホウモンカイゴオールウェイズ",
    "address": "福山市駅家町大字法成寺125-2",
    "lat": 34.5548487607986,
    "lng": 133.32564011468,
    "tel": "080-1918-1195",
    "url": "http://ekiya-sakura.jp",
    "pref": "広島県",
    "city": "福山市",
    "category": "regular_patrol_nursing",
    "serviceType": "定期巡回・随時対応型訪問介護看護",
    "capacity": 0,
    "openDays": [],
    "openDaysNote": ""
  },
  {
    "id": "3491501874",
    "name": "定期巡回　鏡山",
    "kana": "テイキジュンカイ　カガミヤマ",
    "address": "広島県福山市神村町3704番地1ケアホーム鏡山 ケアホーム鏡山",
    "lat": 34.4588067,
    "lng": 133.2725297,
    "tel": "084-939-6860",
    "url": "https://nagae.sakura.ne.jp/",
    "pref": "広島県",
    "city": "福山市",
    "category": "regular_patrol_nursing",
    "serviceType": "定期巡回・随時対応型訪問介護看護",
    "capacity": 0,
    "openDays": [],
    "openDaysNote": ""
  },
  {
    "id": "3491502716",
    "name": "定期巡回・随時対応型訪問介護看護ゆうき",
    "kana": "テイキジュンカイ・ズイジタイオウガタホウモンカイゴカンゴユウキ",
    "address": "広島県福山市御幸町上岩成813サービス付き高齢者向け住宅かがやきの家 サービス付き高齢者向け住宅かがやきの家",
    "lat": 34.5477696,
    "lng": 133.3420809,
    "tel": "084-959-3200",
    "url": "http://yuuki-kagayaki.com",
    "pref": "広島県",
    "city": "福山市",
    "category": "regular_patrol_nursing",
    "serviceType": "定期巡回・随時対応型訪問介護看護",
    "capacity": null,
    "openDays": [],
    "openDaysNote": ""
  },
  {
    "id": "3491501825",
    "name": "定期巡回・随時対応型訪問介護看護事業所仁伍",
    "kana": "テイキジュンカイ・ズイジタイオウガタホウモンカンゴカイゴジギョウショジンゴ",
    "address": "広島県福山市木之庄町五丁目９番１８号すまいる仁伍 すまいる仁伍",
    "lat": 34.4978352,
    "lng": 133.3609166,
    "tel": "084-923-6801",
    "url": "http://npokizuna.jp/",
    "pref": "広島県",
    "city": "福山市",
    "category": "regular_patrol_nursing",
    "serviceType": "定期巡回・随時対応型訪問介護看護",
    "capacity": 48,
    "openDays": [],
    "openDaysNote": ""
  },
  {
    "id": "3491502492",
    "name": "定期巡回・随時対応型訪問介護看護事業所備後の里",
    "kana": "テイキジュンカイズイジタイオウガタホウモンカイゴカンゴジギョウショビンゴノサト",
    "address": "広島県福山市駅家町万能倉96-1",
    "lat": 34.5439169,
    "lng": 133.340745,
    "tel": "084-976-6530",
    "url": "http://www.bingonosato.jp",
    "pref": "広島県",
    "city": "福山市",
    "category": "regular_patrol_nursing",
    "serviceType": "定期巡回・随時対応型訪問介護看護",
    "capacity": 0,
    "openDays": [],
    "openDaysNote": ""
  },
  {
    "id": "3491501221",
    "name": "定期巡回随時対応型とうわ",
    "kana": "テイキジュンカイズイジタイオウガタトウワ",
    "address": "広島県福山市春日町7丁目6番27号",
    "lat": 34.5087723,
    "lng": 133.4152079,
    "tel": "084-941-5213",
    "url": "http://www.toukoukai.or.jp/",
    "pref": "広島県",
    "city": "福山市",
    "category": "regular_patrol_nursing",
    "serviceType": "定期巡回・随時対応型訪問介護看護",
    "capacity": 20,
    "openDays": [],
    "openDaysNote": ""
  },
  {
    "id": "3491502674",
    "name": "定期巡回随時対応型訪問介護看護事業所　想",
    "kana": "テイキジュンカイズイジタイオウガタホウモンカイゴカンゴジギョウショ　オモイ",
    "address": "広島県福山市御幸町大字森脇1088-1",
    "lat": 34.5331613,
    "lng": 133.3499828,
    "tel": "084-961-4320",
    "url": "https://live-salvation.co.jp",
    "pref": "広島県",
    "city": "福山市",
    "category": "regular_patrol_nursing",
    "serviceType": "定期巡回・随時対応型訪問介護看護",
    "capacity": 0,
    "openDays": [],
    "openDaysNote": ""
  },
  {
    "id": "3493500098",
    "name": "あけぼの訪問介護事業所",
    "kana": "アケボノホウモンカイゴジギョウショ",
    "address": "広島県山県郡北広島町壬生915-4",
    "lat": 34.6803683,
    "lng": 132.5530401,
    "tel": "0826-72-8122",
    "url": "https://m-meiwakai.jp/daycareservice/houmon-service/akebono_hkj/",
    "pref": "広島県",
    "city": "北広島町",
    "category": "regular_patrol_nursing",
    "serviceType": "定期巡回・随時対応型訪問介護看護",
    "capacity": 0,
    "openDays": [],
    "openDaysNote": ""
  }
]