[
  {
    "id": "3690168301",
    "name": "定期巡回ステーション　クレア城ノ内",
    "kana": "テイキジュンカイステーション　クレアジョウノウチ",
    "address": "徳島県徳島市北田宮２丁目８－８クレア城ノ内 クレア城ノ内",
    "lat": 34.09041,
    "lng": 134.5439553,
    "tel": "088-678-9852",
    "url": "https://www.crea-care.com/",
    "pref": "徳島県",
    "city": "徳島市",
    "category": "regular_patrol_nursing",
    "serviceType": "定期巡回・随時対応型訪問介護看護",
    "capacity": 49,
    "openDays": [],
    "openDaysNote": ""
  },
  {
    "id": "3690168343",
    "name": "定期巡回ステーション　クレア城南",
    "kana": "テイキジュンカイステーション　クレアジョウナン",
    "address": "徳島県徳島市八万町上福万170-30",
    "lat": 34.0540227,
    "lng": 134.528368,
    "tel": "088-679-8511",
    "url": "www.crea-care.com",
    "pref": "徳島県",
    "city": "徳島市",
    "category": "regular_patrol_nursing",
    "serviceType": "定期巡回・随時対応型訪問介護看護",
    "capacity": null,
    "openDays": [],
    "openDaysNote": ""
  },
  {
    "id": "3690200062",
    "name": "あい愛24時間ケアセンター",
    "kana": "アイアイ２４ジカンケアセンター",
    "address": "徳島県鳴門市撫養町斎田字北浜95番地",
    "lat": 34.1794049,
    "lng": 134.6044709,
    "tel": "088-686-2704",
    "url": "",
    "pref": "徳島県",
    "city": "鳴門市",
    "category": "regular_patrol_nursing",
    "serviceType": "定期巡回・随時対応型訪問介護看護",
    "capacity": 0,
    "openDays": [],
    "openDaysNote": ""
  }
]