[
  {
    "id": "3894000086",
    "name": "医師会定期巡回みなみうわ",
    "kana": "イシカイテイキジュンカイミナミウワ",
    "address": "愛媛県南宇和郡愛南町御荘深泥703番地2老人保健施設なんぐん館 老人保健施設なんぐん館",
    "lat": 32.9600672,
    "lng": 132.5426419,
    "tel": "0895-73-2527",
    "url": "http://www.nangunkan.justhpbs.jp/",
    "pref": "愛媛県",
    "city": "愛南町",
    "category": "regular_patrol_nursing",
    "serviceType": "定期巡回・随時対応型訪問介護看護",
    "capacity": 9,
    "openDays": [],
    "openDaysNote": ""
  },
  {
    "id": "3890300159",
    "name": "ラポール24訪問介護看護センター",
    "kana": "ラポールニジュウヨンホウモンカイゴカンゴセンター",
    "address": "愛媛県宇和島市恵美須町1丁目4番23号",
    "lat": 33.2234816626492,
    "lng": 132.565342323943,
    "tel": "0895-20-0194",
    "url": "http://www.apotry.net/",
    "pref": "愛媛県",
    "city": "宇和島市",
    "category": "regular_patrol_nursing",
    "serviceType": "定期巡回・随時対応型訪問介護看護",
    "capacity": 0,
    "openDays": [],
    "openDaysNote": ""
  },
  {
    "id": "3890200540",
    "name": "ココロココ２４",
    "kana": "ココロココニジュウヨン",
    "address": "愛媛県今治市山路町1-3-21",
    "lat": 34.0591538,
    "lng": 132.9776282,
    "tel": "0898-35-4155",
    "url": "https://cocolococo.co.jp/",
    "pref": "愛媛県",
    "city": "今治市",
    "category": "regular_patrol_nursing",
    "serviceType": "定期巡回・随時対応型訪問介護看護",
    "capacity": 0,
    "openDays": [],
    "openDaysNote": ""
  },
  {
    "id": "3890200722",
    "name": "定期巡回・随時対応型訪問介護看護ひうち",
    "kana": "テイキジュンカイ・ズイジタイオウガタホウモンカイゴカンゴヒウチ",
    "address": "愛媛県今治市黄金町二丁目2番地5",
    "lat": 34.0648854,
    "lng": 133.0028816,
    "tel": "0898-22-8552",
    "url": "",
    "pref": "愛媛県",
    "city": "今治市",
    "category": "regular_patrol_nursing",
    "serviceType": "定期巡回・随時対応型訪問介護看護",
    "capacity": null,
    "openDays": [],
    "openDaysNote": ""
  },
  {
    "id": "3890200763",
    "name": "定期巡回いきいき",
    "kana": "テイキジュンカイイキイキ",
    "address": "愛媛県今治市北宝来町3丁目2番地12",
    "lat": 34.0664825,
    "lng": 132.993933,
    "tel": "0898-35-2812",
    "url": "",
    "pref": "愛媛県",
    "city": "今治市",
    "category": "regular_patrol_nursing",
    "serviceType": "定期巡回・随時対応型訪問介護看護",
    "capacity": null,
    "openDays": [],
    "openDaysNote": ""
  },
  {
    "id": "3890200524",
    "name": "定期巡回くぼ",
    "kana": "テイキジュンカイクボ",
    "address": "愛媛県今治市内堀一丁目１－２",
    "lat": 34.1035381999288,
    "lng": 132.967834724606,
    "tel": "0898-55-8525",
    "url": "https://care-kubo.jp/",
    "pref": "愛媛県",
    "city": "今治市",
    "category": "regular_patrol_nursing",
    "serviceType": "定期巡回・随時対応型訪問介護看護",
    "capacity": 0,
    "openDays": [],
    "openDaysNote": ""
  },
  {
    "id": "3890200771",
    "name": "定期巡回ヒロセ",
    "kana": "テイキジュンカイヒロセ",
    "address": "愛媛県今治市喜田村6丁目4番20号",
    "lat": 34.0433753,
    "lng": 133.0232264,
    "tel": "0898-47-0002",
    "url": "http://www.hirose-youseikai.org",
    "pref": "愛媛県",
    "city": "今治市",
    "category": "regular_patrol_nursing",
    "serviceType": "定期巡回・随時対応型訪問介護看護",
    "capacity": 0,
    "openDays": [],
    "openDaysNote": ""
  },
  {
    "id": "3890200649",
    "name": "定期巡回ほほえみ",
    "kana": "テイキジュンカイホホエミ",
    "address": "愛媛県今治市片山3丁目1番40号",
    "lat": 34.0519346,
    "lng": 132.9848248,
    "tel": "0898－32－3000",
    "url": "https://www.hp-yamauchi.or.jp",
    "pref": "愛媛県",
    "city": "今治市",
    "category": "regular_patrol_nursing",
    "serviceType": "定期巡回・随時対応型訪問介護看護",
    "capacity": 0,
    "openDays": [],
    "openDaysNote": ""
  },
  {
    "id": "3891300224",
    "name": "ココロココ24",
    "kana": "ココロココニジュウヨン",
    "address": "愛媛県四国中央市妻鳥町1817‐1",
    "lat": 33.9861588146199,
    "lng": 133.574676313956,
    "tel": "0896-29‐5790",
    "url": "http://cocolococo.co.jp",
    "pref": "愛媛県",
    "city": "四国中央市",
    "category": "regular_patrol_nursing",
    "serviceType": "定期巡回・随時対応型訪問介護看護",
    "capacity": 0,
    "openDays": [],
    "openDaysNote": ""
  },
  {
    "id": "3891300232",
    "name": "定期巡回・随時対応型訪問介護看護いしかわ",
    "kana": "テイキジュンカイ・ズイジタイオウガタホウモンカイゴカンゴイシカワ",
    "address": "愛媛県四国中央市上分町716-2",
    "lat": 33.9917395,
    "lng": 133.5884965,
    "tel": "0896-58-6022",
    "url": "http://kenkou-kai.jp/",
    "pref": "愛媛県",
    "city": "四国中央市",
    "category": "regular_patrol_nursing",
    "serviceType": "定期巡回・随時対応型訪問介護看護",
    "capacity": null,
    "openDays": [],
    "openDaysNote": ""
  },
  {
    "id": "3891300307",
    "name": "定期巡回・随時対応型訪問介護看護ひまわり",
    "kana": "テイキジュンカイ・ズイジタイオウガタホウモンカイゴカンゴヒマワリ",
    "address": "愛媛県四国中央市金生町下分1348番地１サービス付き高齢者マンション　ぬくもり サービス付き高齢者マンション　ぬくもり",
    "lat": 33.9985663,
    "lng": 133.5809,
    "tel": "０８９６－２２ー３８４２",
    "url": "http://meisei-hasegawa.com/",
    "pref": "愛媛県",
    "city": "四国中央市",
    "category": "regular_patrol_nursing",
    "serviceType": "定期巡回・随時対応型訪問介護看護",
    "capacity": 0,
    "openDays": [],
    "openDaysNote": ""
  },
  {
    "id": "3890101326",
    "name": "24時間巡回介護・看護　ドマーニケア24",
    "kana": "ニジュウヨジカンジュンカイカイゴカンゴ　ドマーニケアニジュウヨン",
    "address": "愛媛県松山市小栗2丁目3-5",
    "lat": 33.8255841025144,
    "lng": 132.759226740475,
    "tel": "089-931-1515",
    "url": "http://domani.sunliberal.com/",
    "pref": "愛媛県",
    "city": "松山市",
    "category": "regular_patrol_nursing",
    "serviceType": "定期巡回・随時対応型訪問介護看護",
    "capacity": 0,
    "openDays": [],
    "openDaysNote": ""
  },
  {
    "id": "3890101839",
    "name": "定期巡回・随時対応型訪問介護看護事業所プリンス",
    "kana": "テイキジュンカイ・ズイジタイオウガタホウモンカイゴカンゴジギョウショプリンス",
    "address": "愛媛県松山市朝生田町1丁目15-1",
    "lat": 33.8238149,
    "lng": 132.7718393,
    "tel": "089-993-8080",
    "url": "http://care-life-energy.jp/publics/index/22/",
    "pref": "愛媛県",
    "city": "松山市",
    "category": "regular_patrol_nursing",
    "serviceType": "定期巡回・随時対応型訪問介護看護",
    "capacity": 0,
    "openDays": [],
    "openDaysNote": ""
  },
  {
    "id": "3893500110",
    "name": "定期巡回随時対応型訪問介護看護事業所　ヘルパーステーション元気",
    "kana": "テイキジュンカイズイジタイオウホウモンカンゴカイゴ　ヘルパーステーションゲンキ",
    "address": "愛媛県伊予郡松前町大字出作540番地6",
    "lat": 33.7906861976616,
    "lng": 132.751163469312,
    "tel": "090-9553-1836",
    "url": "https://asitamo-1117.jimdofree.com",
    "pref": "愛媛県",
    "city": "松前町",
    "category": "regular_patrol_nursing",
    "serviceType": "定期巡回・随時対応型訪問介護看護",
    "capacity": 15,
    "openDays": [],
    "openDaysNote": ""
  },
  {
    "id": "3890500410",
    "name": "ヘルパーステーション若水館",
    "kana": "ヘルパーステーションワカミズカン",
    "address": "愛媛県新居浜市若水町一丁目９番１８号",
    "lat": 33.9661435353135,
    "lng": 133.277245724467,
    "tel": "0897-31-5015",
    "url": "http://www.hapinesu.com/",
    "pref": "愛媛県",
    "city": "新居浜市",
    "category": "regular_patrol_nursing",
    "serviceType": "定期巡回・随時対応型訪問介護看護",
    "capacity": 50,
    "openDays": [],
    "openDaysNote": ""
  },
  {
    "id": "3890500428",
    "name": "ヘルパーステーション野の花",
    "kana": "ヘルパーステーションノノハナ",
    "address": "愛媛県新居浜市南小松原町5-4",
    "lat": 33.9707397710305,
    "lng": 133.295280911917,
    "tel": "0897-65-1058",
    "url": "",
    "pref": "愛媛県",
    "city": "新居浜市",
    "category": "regular_patrol_nursing",
    "serviceType": "定期巡回・随時対応型訪問介護看護",
    "capacity": 0,
    "openDays": [],
    "openDaysNote": ""
  },
  {
    "id": "3890500519",
    "name": "上部24時間ヘルパーステーション野の花",
    "kana": "ジョウブニジュウヨジカンヘルパーステーションノノハナ",
    "address": "愛媛県新居浜市萩生1061番地",
    "lat": 33.9257368707517,
    "lng": 133.266638435185,
    "tel": "0897-47-6680",
    "url": "http://www.niihama-mcoop.or.jp/",
    "pref": "愛媛県",
    "city": "新居浜市",
    "category": "regular_patrol_nursing",
    "serviceType": "定期巡回・随時対応型訪問介護看護",
    "capacity": 0,
    "openDays": [],
    "openDaysNote": ""
  },
  {
    "id": "3890600368",
    "name": "ココロココ24西条",
    "kana": "ココロココニジュウヨンサイジョウ",
    "address": "愛媛県西条市朔日市804番地3ココロココ西条 ココロココ西条",
    "lat": 33.9294559489555,
    "lng": 133.180602407515,
    "tel": "0897-66-8688",
    "url": "https://cocolococo.co.jp/",
    "pref": "愛媛県",
    "city": "西条市",
    "category": "regular_patrol_nursing",
    "serviceType": "定期巡回・随時対応型訪問介護看護",
    "capacity": 0,
    "openDays": [],
    "openDaysNote": ""
  },
  {
    "id": "3890700135",
    "name": "定期巡回　楽助",
    "kana": "テイキジュンカイ　ラクスケ",
    "address": "愛媛県大洲市五郎甲2419番地",
    "lat": 33.5298796363979,
    "lng": 132.55406992566,
    "tel": "0893-57-9001",
    "url": "rakusuke2013.grupo.jp",
    "pref": "愛媛県",
    "city": "大洲市",
    "category": "regular_patrol_nursing",
    "serviceType": "定期巡回・随時対応型訪問介護看護",
    "capacity": 0,
    "openDays": [],
    "openDaysNote": ""
  }
]