[
  {
    "id": "2397600103",
    "name": "海部東部訪問介護サービス",
    "kana": "アマトウブホウモンカイゴサービス",
    "address": "愛知県あま市新居屋鶴田１４番地",
    "lat": 35.199209,
    "lng": 136.8106423,
    "tel": "052－445－0445",
    "url": "http://yuaigroup/jp",
    "pref": "愛知県",
    "city": "あま市",
    "category": "regular_patrol_nursing",
    "serviceType": "定期巡回・随時対応型訪問介護看護",
    "capacity": 0,
    "openDays": [],
    "openDaysNote": ""
  },
  {
    "id": "2393100124",
    "name": "２４Ｈ看護・介護ステーション　オレンジ",
    "kana": "２４ジカンカンゴカイゴステーション　オレンジ",
    "address": "愛知県安城市北山崎町大山9番地1",
    "lat": 34.9676525,
    "lng": 137.1029609,
    "tel": "0566-45-5550",
    "url": "http://www.oss-kk.com/",
    "pref": "愛知県",
    "city": "安城市",
    "category": "regular_patrol_nursing",
    "serviceType": "定期巡回・随時対応型訪問介護看護",
    "capacity": 0,
    "openDays": [],
    "openDaysNote": ""
  },
  {
    "id": "2392200685",
    "name": "ほほえみ定期巡回ステーション",
    "kana": "ホホエミテイキジュンカイステーション",
    "address": "愛知県一宮市開明字郷中４３番地",
    "lat": 35.3214697,
    "lng": 136.7608475,
    "tel": "0586-64-5603",
    "url": "http://www.inouenaikacl.com/",
    "pref": "愛知県",
    "city": "一宮市",
    "category": "regular_patrol_nursing",
    "serviceType": "定期巡回・随時対応型訪問介護看護",
    "capacity": 0,
    "openDays": [],
    "openDaysNote": ""
  },
  {
    "id": "2392200511",
    "name": "まつまえ定期巡回ステーション",
    "kana": "マツマエテイキジュンカイステーション",
    "address": "愛知県一宮市浅野字佐五山６５番地",
    "lat": 35.29782418811,
    "lng": 136.831143226674,
    "tel": "0586-77-8009",
    "url": "https://www.aireikai.jp",
    "pref": "愛知県",
    "city": "一宮市",
    "category": "regular_patrol_nursing",
    "serviceType": "定期巡回・随時対応型訪問介護看護",
    "capacity": 0,
    "openDays": [],
    "openDaysNote": ""
  },
  {
    "id": "2392200644",
    "name": "メドタウン在宅介護センター",
    "kana": "メドタウンザイタクカイゴセンター",
    "address": "愛知県一宮市奥町字宮前44番地1メドタウンいちのみや メドタウンいちのみや",
    "lat": 35.3296335,
    "lng": 136.7697964,
    "tel": "0586-62-7711",
    "url": "",
    "pref": "愛知県",
    "city": "一宮市",
    "category": "regular_patrol_nursing",
    "serviceType": "定期巡回・随時対応型訪問介護看護",
    "capacity": 0,
    "openDays": [],
    "openDaysNote": ""
  },
  {
    "id": "2392200693",
    "name": "定期巡回ステーションあすなろ",
    "kana": "テイキジュンカイステーションアスナロ",
    "address": "愛知県一宮市木曽川町字宝光寺５番地22",
    "lat": 35.3446468,
    "lng": 136.7772702,
    "tel": "0586-52-3020",
    "url": "www.yugen-aozora.com",
    "pref": "愛知県",
    "city": "一宮市",
    "category": "regular_patrol_nursing",
    "serviceType": "定期巡回・随時対応型訪問介護看護",
    "capacity": null,
    "openDays": [],
    "openDaysNote": ""
  },
  {
    "id": "2392100703",
    "name": "あんじゅ定期訪問介護",
    "kana": "アンジュテイキホウモンカイゴ",
    "address": "愛知県岡崎市法性寺町字荒子16番地あんじゅ荒子 あんじゅ荒子",
    "lat": 34.9311502,
    "lng": 137.1421383,
    "tel": "0564-64-2121",
    "url": "www.ange-kaigo.co.jp",
    "pref": "愛知県",
    "city": "岡崎市",
    "category": "regular_patrol_nursing",
    "serviceType": "定期巡回・随時対応型訪問介護看護",
    "capacity": 0,
    "openDays": [],
    "openDaysNote": ""
  },
  {
    "id": "2392100943",
    "name": "おかざき介護サービス",
    "kana": "オカザキカイゴサービス",
    "address": "愛知県岡崎市稲熊町字8丁目130番地",
    "lat": 34.9657063,
    "lng": 137.1831377,
    "tel": "564735388",
    "url": "https//goodlife-okazaki.com",
    "pref": "愛知県",
    "city": "岡崎市",
    "category": "regular_patrol_nursing",
    "serviceType": "定期巡回・随時対応型訪問介護看護",
    "capacity": null,
    "openDays": [],
    "openDaysNote": ""
  },
  {
    "id": "2392100620",
    "name": "ハートケア24庄司田",
    "kana": "ハートケアニジュウヨンショウジダ",
    "address": "愛知県岡崎市庄司田2丁目10番地6ハートケアメゾンみなみの風庄司田 ハートケアメゾンみなみの風庄司田",
    "lat": 34.9198121,
    "lng": 137.1686423,
    "tel": "0564-57-3801",
    "url": "htty://www.minaminokaze.tv/syoujida/",
    "pref": "愛知県",
    "city": "岡崎市",
    "category": "regular_patrol_nursing",
    "serviceType": "定期巡回・随時対応型訪問介護看護",
    "capacity": 0,
    "openDays": [],
    "openDaysNote": ""
  },
  {
    "id": "2392100778",
    "name": "ハートケア24大友",
    "kana": "ハアートケア24オオトモ",
    "address": "愛知県岡崎市東大友町字土下17ハートケアメゾンなごみの風大友 ハートケアメゾンなごみの風大友",
    "lat": 34.9683787,
    "lng": 137.1339982,
    "tel": "0564-64-6610",
    "url": "www.nambu-y.jp",
    "pref": "愛知県",
    "city": "岡崎市",
    "category": "regular_patrol_nursing",
    "serviceType": "定期巡回・随時対応型訪問介護看護",
    "capacity": 0,
    "openDays": [],
    "openDaysNote": ""
  },
  {
    "id": "2392100299",
    "name": "ハートケア24八帖",
    "kana": "ハートケアニジュウヨンハッチョウ",
    "address": "愛知県岡崎市八帖北町14番地5ハートケアメゾンみなみの風八帖 ハートケアメゾンみなみの風八帖",
    "lat": 34.9625495,
    "lng": 137.1547697,
    "tel": "0564-65-3738",
    "url": "http://www.minaminokaze.tv/",
    "pref": "愛知県",
    "city": "岡崎市",
    "category": "regular_patrol_nursing",
    "serviceType": "定期巡回・随時対応型訪問介護看護",
    "capacity": 0,
    "openDays": [],
    "openDaysNote": ""
  },
  {
    "id": "2392100323",
    "name": "ハートケア２４竜美丘",
    "kana": "ハートケアニジュウヨンタツミガオカ",
    "address": "愛知県岡崎市戸崎町字牛転１０番地９１ハートケアメゾン　みなみの風　竜美丘 ハートケアメゾン　みなみの風　竜美丘",
    "lat": 34.9319461998859,
    "lng": 137.175880069975,
    "tel": "０５６４－７１－０１７０",
    "url": "http://www.minaminokaze.tv/tatsumigaoka/",
    "pref": "愛知県",
    "city": "岡崎市",
    "category": "regular_patrol_nursing",
    "serviceType": "定期巡回・随時対応型訪問介護看護",
    "capacity": 0,
    "openDays": [],
    "openDaysNote": ""
  },
  {
    "id": "2392101024",
    "name": "ポッジョ・デル・アルジェント　定期巡回・随時対応型訪問介護看護",
    "kana": "ポッジョ・デル・アルジェント　テイキジュンカイ・ズイジタイオウガタホウモンカイゴカンゴ",
    "address": "愛知県岡崎市真伝町荒戸21番地5",
    "lat": 34.9823920824678,
    "lng": 137.182551026344,
    "tel": "0564-25-2550",
    "url": "https://argento.shuei-sangyo.com/",
    "pref": "愛知県",
    "city": "岡崎市",
    "category": "regular_patrol_nursing",
    "serviceType": "定期巡回・随時対応型訪問介護看護",
    "capacity": null,
    "openDays": [],
    "openDaysNote": ""
  },
  {
    "id": "2392900235",
    "name": "24H介護・看護ステーションオレンジ刈谷",
    "kana": "ニジュウヨジカンカンゴカイゴステーションオレンジカリヤ",
    "address": "愛知県刈谷市高須町1丁目9－2ザ・パーク101 ザ・パーク101",
    "lat": 34.9736641,
    "lng": 137.0162699,
    "tel": "0566-45-6422",
    "url": "",
    "pref": "愛知県",
    "city": "刈谷市",
    "category": "regular_patrol_nursing",
    "serviceType": "定期巡回・随時対応型訪問介護看護",
    "capacity": 20,
    "openDays": [],
    "openDaysNote": ""
  },
  {
    "id": "2394700070",
    "name": "いわくら定期巡回ステーション",
    "kana": "イワクラテイキジュンカイステーション",
    "address": "愛知県岩倉市東新町南江向24番地5-6医療法人愛礼会いわくら定期巡回ステーション 医療法人愛礼会いわくら定期巡回ステーション",
    "lat": 35.2811673,
    "lng": 136.8838606,
    "tel": "0587-22-8200",
    "url": "aireikai.jp",
    "pref": "愛知県",
    "city": "岩倉市",
    "category": "regular_patrol_nursing",
    "serviceType": "定期巡回・随時対応型訪問介護看護",
    "capacity": 0,
    "openDays": [],
    "openDaysNote": ""
  },
  {
    "id": "2393400169",
    "name": "定期巡回ステーション　ともいき",
    "kana": "テイキジュンカイステーション　トモイキ",
    "address": "塔野地北四丁目17番地1",
    "lat": 35.3760655,
    "lng": 136.9577423,
    "tel": "0568-65-2900",
    "url": "http://www.tomoiki.co.jp",
    "pref": "愛知県",
    "city": "犬山市",
    "category": "regular_patrol_nursing",
    "serviceType": "定期巡回・随時対応型訪問介護看護",
    "capacity": null,
    "openDays": [],
    "openDaysNote": ""
  },
  {
    "id": "2396000065",
    "name": "まどかの郷定期巡回・随時対応型訪問介護看護事業所",
    "kana": "マドカノサトテイキジュンカイ・ズイジタイオウガタホウモンカイゴカンゴジギョウショ",
    "address": "愛知県額田郡幸田町大字野場字石荒２３番地",
    "lat": 34.8637527,
    "lng": 137.1522811,
    "tel": "0564-63-1626",
    "url": "https://www.wakyokai.or.jp/care/madokanosato/",
    "pref": "愛知県",
    "city": "幸田町",
    "category": "regular_patrol_nursing",
    "serviceType": "定期巡回・随時対応型訪問介護看護",
    "capacity": 0,
    "openDays": [],
    "openDaysNote": ""
  },
  {
    "id": "2394600049",
    "name": "社会福祉法人　高浜市社会福祉協議会",
    "kana": "シャカイフクシホウジン　タカハマシシャカイフクシキョウギカイ",
    "address": "愛知県高浜市沢渡町三丁目３－１",
    "lat": 34.9336567,
    "lng": 136.9925484,
    "tel": "0566-54-5480",
    "url": "",
    "pref": "愛知県",
    "city": "高浜市",
    "category": "regular_patrol_nursing",
    "serviceType": "定期巡回・随時対応型訪問介護看護",
    "capacity": 0,
    "openDays": [],
    "openDaysNote": ""
  },
  {
    "id": "2392500357",
    "name": "巡回型介護　あいゆう",
    "kana": "ジュンカイガタカイゴ　アイユウ",
    "address": "春日井市如意申町八丁目８－２",
    "lat": 35.2461464,
    "lng": 136.9558803,
    "tel": "0568-41-9756",
    "url": "https://s-aiyu.jp/service/patrol-aiyu/",
    "pref": "愛知県",
    "city": "春日井市",
    "category": "regular_patrol_nursing",
    "serviceType": "定期巡回・随時対応型訪問介護看護",
    "capacity": 0,
    "openDays": [],
    "openDaysNote": ""
  },
  {
    "id": "2395600121",
    "name": "おおはるベース",
    "kana": "オオハルベース",
    "address": "海部郡大治町三本木柳原115WHOLLY　TOP１階 WHOLLY　TOP１階",
    "lat": 35.1694872,
    "lng": 136.8176031,
    "tel": "052-880-1892",
    "url": "https://www.kango-base.com/",
    "pref": "愛知県",
    "city": "大治町",
    "category": "regular_patrol_nursing",
    "serviceType": "定期巡回・随時対応型訪問介護看護",
    "capacity": 10,
    "openDays": [],
    "openDaysNote": ""
  },
  {
    "id": "2394400051",
    "name": "24H介護・看護ステーションオレンジnoah",
    "kana": "24Hカイゴ・カンゴステーションオレンジノア",
    "address": "広見3丁目４４新星和知立コーポラス102 新星和知立コーポラス102",
    "lat": 35.0008494,
    "lng": 137.0511798,
    "tel": "0566-91-5684",
    "url": "http://www.ossn-kk.com",
    "pref": "愛知県",
    "city": "知立市",
    "category": "regular_patrol_nursing",
    "serviceType": "定期巡回・随時対応型訪問介護看護",
    "capacity": 0,
    "openDays": [],
    "openDaysNote": ""
  },
  {
    "id": "2395000066",
    "name": "とことこひだまり２４",
    "kana": "トコトコヒダマリニジュウヨン",
    "address": "愛知県長久手市下山50番地の1",
    "lat": 35.18703,
    "lng": 137.0239171,
    "tel": "0561-76-1603",
    "url": "",
    "pref": "愛知県",
    "city": "長久手市",
    "category": "regular_patrol_nursing",
    "serviceType": "定期巡回・随時対応型訪問介護看護",
    "capacity": 0,
    "openDays": [],
    "openDaysNote": ""
  },
  {
    "id": "2397100138",
    "name": "定期巡回　さんきゅう",
    "kana": "テイキジュンカイ　サンキュウ",
    "address": "田原市加治町奥恩中63-13",
    "lat": 34.6554359,
    "lng": 137.2426748,
    "tel": "0532-27-6300",
    "url": "",
    "pref": "愛知県",
    "city": "田原市",
    "category": "regular_patrol_nursing",
    "serviceType": "定期巡回・随時対応型訪問介護看護",
    "capacity": 0,
    "openDays": [],
    "openDaysNote": ""
  },
  {
    "id": "2397100153",
    "name": "定期巡回想い",
    "kana": "テイキジュンカイオモイ",
    "address": "愛知県田原市田原町中小路４番地17LUCE103号 LUCE103号",
    "lat": 34.6728134822218,
    "lng": 137.267052756483,
    "tel": "0531-27-9979",
    "url": "https://musubikaigo.com",
    "pref": "愛知県",
    "city": "田原市",
    "category": "regular_patrol_nursing",
    "serviceType": "定期巡回・随時対応型訪問介護看護",
    "capacity": 29,
    "openDays": [],
    "openDaysNote": ""
  },
  {
    "id": "2394900050",
    "name": "グランドファミリ赤池",
    "kana": "グランドファミリアアカイケ",
    "address": "愛知県日進市浅田町笹原8-3",
    "lat": 35.1202501,
    "lng": 137.0240108,
    "tel": "052-800-8088",
    "url": "http：//www.yuzankai.com",
    "pref": "愛知県",
    "city": "日進市",
    "category": "regular_patrol_nursing",
    "serviceType": "定期巡回・随時対応型訪問介護看護",
    "capacity": 0,
    "openDays": [],
    "openDaysNote": ""
  },
  {
    "id": "2392800153",
    "name": "ゴールドエイジ　地域巡回センター　碧南営業所",
    "kana": "ゴールドエイジ　チイキジュンカイセンター　ヘキナンエイギョウショ",
    "address": "愛知県碧南市山神町一丁目47番地ゴールドエイジ衣浦 ゴールドエイジ衣浦",
    "lat": 34.9020537,
    "lng": 136.9850076,
    "tel": "0566-91-4800",
    "url": "http://goldage.co.jp",
    "pref": "愛知県",
    "city": "碧南市",
    "category": "regular_patrol_nursing",
    "serviceType": "定期巡回・随時対応型訪問介護看護",
    "capacity": null,
    "openDays": [],
    "openDaysNote": ""
  },
  {
    "id": "2392000184",
    "name": "コープあいち福祉サービス豊橋北",
    "kana": "コープアイチフクシサービストヨハシキタ",
    "address": "愛知県豊橋市朝丘町132番地",
    "lat": 34.7610691182461,
    "lng": 137.41974912632,
    "tel": "0532-65-8480",
    "url": "http://coopaichi.tcoop.or.jp/",
    "pref": "愛知県",
    "city": "豊橋市",
    "category": "regular_patrol_nursing",
    "serviceType": "定期巡回・随時対応型訪問介護看護",
    "capacity": 8,
    "openDays": [],
    "openDaysNote": ""
  },
  {
    "id": "2392000499",
    "name": "定期巡回ステーション喜寿苑",
    "kana": "テイキジュンカイステーションキジュエン",
    "address": "愛知県豊橋市前芝町加藤381番地２",
    "lat": 34.7794853,
    "lng": 137.3451053,
    "tel": "0532-35-6644",
    "url": "http://juhoukai.jp",
    "pref": "愛知県",
    "city": "豊橋市",
    "category": "regular_patrol_nursing",
    "serviceType": "定期巡回・随時対応型訪問介護看護",
    "capacity": 50,
    "openDays": [],
    "openDaysNote": ""
  },
  {
    "id": "2392000291",
    "name": "定期巡回ステーション真寿苑",
    "kana": "テイキジュンカイステーションシンジュエン",
    "address": "愛知県豊橋市牟呂町字東明治郷下5-1",
    "lat": 34.7533344436919,
    "lng": 137.352197739426,
    "tel": "0532-39-5489",
    "url": "http://juhoukai.jp",
    "pref": "愛知県",
    "city": "豊橋市",
    "category": "regular_patrol_nursing",
    "serviceType": "定期巡回・随時対応型訪問介護看護",
    "capacity": 50,
    "openDays": [],
    "openDaysNote": ""
  },
  {
    "id": "2392600371",
    "name": "定期巡回ステーション光楽苑",
    "kana": "テイキジュンカイステーション　コウラクエン",
    "address": "愛知県豊川市牛久保町高原133番地1",
    "lat": 34.8076786,
    "lng": 137.3871798,
    "tel": "0533-85-0800",
    "url": "http://juhoukai.jp",
    "pref": "愛知県",
    "city": "豊川市",
    "category": "regular_patrol_nursing",
    "serviceType": "定期巡回・随時対応型訪問介護看護",
    "capacity": 0,
    "openDays": [],
    "openDaysNote": ""
  },
  {
    "id": "2393000928",
    "name": "ツクイ・ポピルスガーデン豊田　定期巡回随時対応型訪問介護看護",
    "kana": "ツクイポピルスガーデントヨタ　テイキジュンカイズイジホウモンガタホウモンカイゴカンゴ",
    "address": "愛知県豊田市金谷町7-4",
    "lat": 35.0698981,
    "lng": 137.1544234,
    "tel": "0565-36-5030",
    "url": "",
    "pref": "愛知県",
    "city": "豊田市",
    "category": "regular_patrol_nursing",
    "serviceType": "定期巡回・随時対応型訪問介護看護",
    "capacity": null,
    "openDays": [],
    "openDaysNote": ""
  },
  {
    "id": "2393000605",
    "name": "定期巡回ステーションつばさ",
    "kana": "テイキジュンカイステーションツバサ",
    "address": "愛知県豊田市下林町3丁目29番地11",
    "lat": 35.0693278,
    "lng": 137.1626353,
    "tel": "0565-41-3260",
    "url": "http://www.tsubasa13613.co.jp",
    "pref": "愛知県",
    "city": "豊田市",
    "category": "regular_patrol_nursing",
    "serviceType": "定期巡回・随時対応型訪問介護看護",
    "capacity": 18,
    "openDays": [],
    "openDaysNote": ""
  },
  {
    "id": "2393000746",
    "name": "定期巡回ステーションつばさ若林",
    "kana": "テイキジュンカイステーションツバサワカバヤシ",
    "address": "豊田市若林東町上り戸24-2PortaFortuna1階107 PortaFortuna1階107",
    "lat": 35.0276659875363,
    "lng": 137.098766943655,
    "tel": "0565-41-3072",
    "url": "http://www.tsubasa13613.co.jp/",
    "pref": "愛知県",
    "city": "豊田市",
    "category": "regular_patrol_nursing",
    "serviceType": "定期巡回・随時対応型訪問介護看護",
    "capacity": 0,
    "openDays": [],
    "openDaysNote": ""
  },
  {
    "id": "2393000654",
    "name": "定期巡回随時対応型訪問介護看護　サライ上豊田",
    "kana": "テイキジュンカイズイジタイオウガタホウモンカイゴカンゴ　サライカミトヨタ",
    "address": "愛知県豊田市上原町西山290-5",
    "lat": 35.1154369,
    "lng": 137.1581462,
    "tel": "0565-43-0128",
    "url": "https://serai.cc/",
    "pref": "愛知県",
    "city": "豊田市",
    "category": "regular_patrol_nursing",
    "serviceType": "定期巡回・随時対応型訪問介護看護",
    "capacity": null,
    "openDays": [],
    "openDaysNote": ""
  },
  {
    "id": "2397400082",
    "name": "株式会社福祉の里　定期巡回・随時対応型訪問介護看護　明日香",
    "kana": "カブシキガイシャフクシノサト　テイキジュンカイ・ズイジタイオウガタホウモンカイゴカンゴ　アスカ",
    "address": "北名古屋市北野天神13",
    "lat": 35.253557725326,
    "lng": 136.854020659389,
    "tel": "0568-23-6605",
    "url": "",
    "pref": "愛知県",
    "city": "北名古屋市",
    "category": "regular_patrol_nursing",
    "serviceType": "定期巡回・随時対応型訪問介護看護",
    "capacity": 15,
    "openDays": [],
    "openDaysNote": ""
  },
  {
    "id": "2391300130",
    "name": "あんしんネットワーク",
    "kana": "アンシンネットワーク",
    "address": "金屋二丁目388番地",
    "lat": 35.2042383624706,
    "lng": 136.957640954929,
    "tel": "052-795-2340",
    "url": "opec_20060401@yahoo.co.jp",
    "pref": "愛知県",
    "city": "名古屋市守山区",
    "category": "regular_patrol_nursing",
    "serviceType": "定期巡回・随時対応型訪問介護看護",
    "capacity": 0,
    "openDays": [],
    "openDaysNote": ""
  },
  {
    "id": "2391300338",
    "name": "愛の里名古屋東定期巡回ステーション",
    "kana": "アイノサトナゴヤヒガシテイキジュンカイステーション",
    "address": "愛知県名古屋市守山区大字上志段味字川原156番地医療対応型特別養護老人ホーム　愛の里名古屋東 医療対応型特別養護老人ホーム　愛の里名古屋東",
    "lat": 35.2562179680355,
    "lng": 137.030648336771,
    "tel": "052-736-5732",
    "url": "https://ainosato⁻nagoya.jp/",
    "pref": "愛知県",
    "city": "名古屋市守山区",
    "category": "regular_patrol_nursing",
    "serviceType": "定期巡回・随時対応型訪問介護看護",
    "capacity": 0,
    "openDays": [],
    "openDaysNote": ""
  },
  {
    "id": "2390700314",
    "name": "いりなか訪問介護ステーション",
    "kana": "イリナカホウモンカイゴウテーション",
    "address": "愛知県名古屋市昭和区滝川町32－1ＥＭＵ201 ＥＭＵ201",
    "lat": 35.1441973,
    "lng": 136.955409,
    "tel": "052-680-9461",
    "url": "http://www.med-informatics.com/irinaka-kaigo/",
    "pref": "愛知県",
    "city": "名古屋市昭和区",
    "category": "regular_patrol_nursing",
    "serviceType": "定期巡回・随時対応型訪問介護看護",
    "capacity": null,
    "openDays": [],
    "openDaysNote": ""
  },
  {
    "id": "2390700173",
    "name": "定期巡回かわな",
    "kana": "テイキジュンカイカワナ",
    "address": "名古屋市昭和区山花町62番地の1",
    "lat": 35.1512184414497,
    "lng": 136.951436650907,
    "tel": "０５２-７５９-５５３９",
    "url": "https://kawanahp.jp/center/office/teiki_junkai.php",
    "pref": "愛知県",
    "city": "名古屋市昭和区",
    "category": "regular_patrol_nursing",
    "serviceType": "定期巡回・随時対応型訪問介護看護",
    "capacity": 40,
    "openDays": [],
    "openDaysNote": ""
  },
  {
    "id": "2390800379",
    "name": "リンクケア定期巡回",
    "kana": "リンクケアテイキジュンカイ",
    "address": "愛知県名古屋市瑞穂区瑞穂通2丁目2-2サニーストン瑞穂202 サニーストン瑞穂202",
    "lat": 35.1349495,
    "lng": 136.933726,
    "tel": "528754025",
    "url": "https://welfeck.com/",
    "pref": "愛知県",
    "city": "名古屋市瑞穂区",
    "category": "regular_patrol_nursing",
    "serviceType": "定期巡回・随時対応型訪問介護看護",
    "capacity": 0,
    "openDays": [],
    "openDaysNote": ""
  },
  {
    "id": "2390400444",
    "name": "グラード定期巡回・随時対応型訪問介護看護",
    "kana": "グラードテイキジュンカイ・ズイジタイオウガタホウモンカイゴカンゴ",
    "address": "愛知県名古屋市西区浄心１丁目６番３３号",
    "lat": 35.1951234,
    "lng": 136.8903086,
    "tel": "052-508-8889",
    "url": "",
    "pref": "愛知県",
    "city": "名古屋市西区",
    "category": "regular_patrol_nursing",
    "serviceType": "定期巡回・随時対応型訪問介護看護",
    "capacity": null,
    "openDays": [],
    "openDaysNote": ""
  },
  {
    "id": "2390400345",
    "name": "ぬくケア名西定期巡回",
    "kana": "ヌクケアメイセイテイキジュンカイ",
    "address": "愛知県名古屋市西区上名古屋三丁目25番6号J-odc2階北号 J-odc2階北号",
    "lat": 35.1946453,
    "lng": 136.8909168,
    "tel": "052-522-6100",
    "url": "http://nukumoa.jp/",
    "pref": "愛知県",
    "city": "名古屋市西区",
    "category": "regular_patrol_nursing",
    "serviceType": "定期巡回・随時対応型訪問介護看護",
    "capacity": 0,
    "openDays": [],
    "openDaysNote": ""
  },
  {
    "id": "2390100325",
    "name": "SOMPOケア　名古屋　定期巡回",
    "kana": "ソンポケア　ナゴヤ　テイキジュンカイ",
    "address": "愛知県名古屋市千種区仲田二丁目14番16号G1ビル池下オフィス3階 G1ビル池下オフィス3階",
    "lat": 35.1690069668189,
    "lng": 136.942565884656,
    "tel": "052-757-5132",
    "url": "http://www.sompocare.com",
    "pref": "愛知県",
    "city": "名古屋市千種区",
    "category": "regular_patrol_nursing",
    "serviceType": "定期巡回・随時対応型訪問介護看護",
    "capacity": 0,
    "openDays": [],
    "openDaysNote": ""
  },
  {
    "id": "2390100358",
    "name": "ぬくケアちくさ定期巡回",
    "kana": "ヌクケアチクサテイキジュンカイ",
    "address": "愛知県名古屋市千種区今池三丁目13番10号清和ハイツ102号 清和ハイツ102号",
    "lat": 35.1656138,
    "lng": 136.9360456,
    "tel": "052-715-6001",
    "url": "http://nukumoa.jp/",
    "pref": "愛知県",
    "city": "名古屋市千種区",
    "category": "regular_patrol_nursing",
    "serviceType": "定期巡回・随時対応型訪問介護看護",
    "capacity": 0,
    "openDays": [],
    "openDaysNote": ""
  },
  {
    "id": "2390100366",
    "name": "めぐらす定期巡回内山",
    "kana": "メグラステイキジュンカイウチヤマ",
    "address": "愛知県名古屋市千種区内山二丁目16番3号",
    "lat": 35.1713354,
    "lng": 136.9395257,
    "tel": "052-734-3327",
    "url": "https://meglus.co.jp/",
    "pref": "愛知県",
    "city": "名古屋市千種区",
    "category": "regular_patrol_nursing",
    "serviceType": "定期巡回・随時対応型訪問介護看護",
    "capacity": 0,
    "openDays": [],
    "openDaysNote": ""
  },
  {
    "id": "2391600448",
    "name": "定期巡回・随時対応型訪問介護看護　ライフケアサポート名古屋",
    "kana": "テイキジュンカイ・ズイジタイオウガタホウモンカイゴカンゴ",
    "address": "愛知県名古屋市天白区山根町202番地",
    "lat": 35.1119585,
    "lng": 136.9721806,
    "tel": "052-718-1997",
    "url": "https//www.kk-lcs.co.jp",
    "pref": "愛知県",
    "city": "名古屋市天白区",
    "category": "regular_patrol_nursing",
    "serviceType": "定期巡回・随時対応型訪問介護看護",
    "capacity": 0,
    "openDays": [],
    "openDaysNote": ""
  },
  {
    "id": "2391200579",
    "name": "SOMPOケア名古屋さくら台定期巡回",
    "kana": "ソンポケアナゴヤサクラダイテイキジュンカイ",
    "address": "桜台一丁目１番23号",
    "lat": 35.7387314,
    "lng": 139.6657768,
    "tel": "052-829-1165",
    "url": "https://www.sompocare.com",
    "pref": "愛知県",
    "city": "名古屋市南区",
    "category": "regular_patrol_nursing",
    "serviceType": "定期巡回・随時対応型訪問介護看護",
    "capacity": null,
    "openDays": [],
    "openDaysNote": ""
  },
  {
    "id": "2390900120",
    "name": "ケア２１金山",
    "kana": "ケアニジュウイチカナヤマ",
    "address": "愛知県名古屋市熱田区池内町2番3号",
    "lat": 35.1394969,
    "lng": 136.911893,
    "tel": "052-881-1021",
    "url": "",
    "pref": "愛知県",
    "city": "名古屋市熱田区",
    "category": "regular_patrol_nursing",
    "serviceType": "定期巡回・随時対応型訪問介護看護",
    "capacity": null,
    "openDays": [],
    "openDaysNote": ""
  },
  {
    "id": "2390300511",
    "name": "SOMPOケア　名北　定期巡回",
    "kana": "ソンポケア　メイホク　テイキジュンカイ",
    "address": "愛知県名古屋市北区志賀南通1-20セノーテ黒川駅前ビル2階 セノーテ黒川駅前ビル2階",
    "lat": 35.1973927,
    "lng": 136.9112987,
    "tel": "052-938-3460",
    "url": "https://www.sompocare.com/",
    "pref": "愛知県",
    "city": "名古屋市北区",
    "category": "regular_patrol_nursing",
    "serviceType": "定期巡回・随時対応型訪問介護看護",
    "capacity": 0,
    "openDays": [],
    "openDaysNote": ""
  },
  {
    "id": "2390300313",
    "name": "ぬくケア名北定期巡回",
    "kana": "ヌクケアメイホクテイキジュンカイ",
    "address": "上飯田南町3-15アイシア上飯田 アイシア上飯田",
    "lat": 35.2011374,
    "lng": 136.9340364,
    "tel": "052-938-6670",
    "url": "http://nukumoa.jp/",
    "pref": "愛知県",
    "city": "名古屋市北区",
    "category": "regular_patrol_nursing",
    "serviceType": "定期巡回・随時対応型訪問介護看護",
    "capacity": 0,
    "openDays": [],
    "openDaysNote": ""
  },
  {
    "id": "2390300123",
    "name": "ヘルパーステーションあい",
    "kana": "ヘルパーステーションアイ",
    "address": "名古屋市北区中味鋺2丁目207番地サービス付高齢者向け住宅七福内 サービス付高齢者向け住宅七福内",
    "lat": 35.2187448956189,
    "lng": 136.921784374999,
    "tel": "052-903-0722",
    "url": "www.aiseifukusikai.jp",
    "pref": "愛知県",
    "city": "名古屋市北区",
    "category": "regular_patrol_nursing",
    "serviceType": "定期巡回・随時対応型訪問介護看護",
    "capacity": 10,
    "openDays": [],
    "openDaysNote": ""
  },
  {
    "id": "2391500242",
    "name": "かざぐるま定期巡回・随時対応型訪問介護看護事業所",
    "kana": "カザグルマテイキジュンカイ・ズイジタイオウガタホウモンカイゴカンゴジギョウショ",
    "address": "名古屋市名東区猪高台二丁目１２０１番地",
    "lat": 35.180426,
    "lng": 137.0021873,
    "tel": "052-768-5600",
    "url": "https://kaza-socio.co.jp",
    "pref": "愛知県",
    "city": "名古屋市名東区",
    "category": "regular_patrol_nursing",
    "serviceType": "定期巡回・随時対応型訪問介護看護",
    "capacity": 0,
    "openDays": [],
    "openDaysNote": ""
  },
  {
    "id": "2391500317",
    "name": "ヘルパーステーション　ソラスト高針",
    "kana": "ヘルパーステーション　ソラストタカバリ",
    "address": "愛知県名古屋市名東区高針荒田801番地ソラストリハピネス東山 ソラストリハピネス東山",
    "lat": 35.1503674,
    "lng": 136.992758,
    "tel": "052-781-9995",
    "url": "https://solasto-kaigo.com/care/area/solastotakabari2.html",
    "pref": "愛知県",
    "city": "名古屋市名東区",
    "category": "regular_patrol_nursing",
    "serviceType": "定期巡回・随時対応型訪問介護看護",
    "capacity": 0,
    "openDays": [],
    "openDaysNote": ""
  },
  {
    "id": "2391400617",
    "name": "ツクイ・サンフォレスト名古屋緑",
    "kana": "ツクイ・サンフォレストナゴヤミドリ",
    "address": "愛知県名古屋市緑区篠の風2丁目194",
    "lat": 35.0966038,
    "lng": 136.9760047,
    "tel": "052-879-3371",
    "url": "www.tsukui.net",
    "pref": "愛知県",
    "city": "名古屋市緑区",
    "category": "regular_patrol_nursing",
    "serviceType": "定期巡回・随時対応型訪問介護看護",
    "capacity": 48,
    "openDays": [],
    "openDaysNote": ""
  },
  {
    "id": "2391400237",
    "name": "南生協よってって横丁　ヘルパーステーションよってって",
    "kana": "ミナミセイキョウヨッテッテヨコチョウ　ヘルパーステーションヨッテッテ",
    "address": "愛知県名古屋市緑区南大高二丁目７０１番地南生協よってって横丁 南生協よってって横丁",
    "lat": 35.0552926,
    "lng": 136.9473882,
    "tel": "０５２－６２６－１２０７",
    "url": "https://www.minami-hp.jp",
    "pref": "愛知県",
    "city": "名古屋市緑区",
    "category": "regular_patrol_nursing",
    "serviceType": "定期巡回・随時対応型訪問介護看護",
    "capacity": 25,
    "openDays": [],
    "openDaysNote": ""
  }
]