[
  {
    "id": "1591300155",
    "name": "ホームヘルプサービスひまわりの園",
    "kana": "ホームヘルプサービスヒマワリノソノ",
    "address": "新潟県燕市吉田大保町25番15号ひまわりの園相談センター ひまわりの園相談センター",
    "lat": 37.689025,
    "lng": 138.8834123,
    "tel": "0256-94-7490",
    "url": "https://yoshihuku.com/",
    "pref": "新潟県",
    "city": "燕市",
    "category": "regular_patrol_nursing",
    "serviceType": "定期巡回・随時対応型訪問介護看護",
    "capacity": 0,
    "openDays": [],
    "openDaysNote": ""
  },
  {
    "id": "1591100084",
    "name": "ふるまい定期巡回",
    "kana": "フルマイテイキジュンカイ",
    "address": "新潟県見附市新幸町７－１１",
    "lat": 37.5391483090441,
    "lng": 138.89286711468,
    "tel": "0258-86-8009",
    "url": "http://www.hurumai.com/",
    "pref": "新潟県",
    "city": "見附市",
    "category": "regular_patrol_nursing",
    "serviceType": "定期巡回・随時対応型訪問介護看護",
    "capacity": 0,
    "openDays": [],
    "openDaysNote": ""
  },
  {
    "id": "1590400105",
    "name": "あさひケアステーション",
    "kana": "アサヒケアステーション",
    "address": "新潟県三条市直江町２－５－４８あさひ邸 あさひ邸",
    "lat": 37.624227,
    "lng": 138.9373755,
    "tel": "０２５６－４６－０８4７",
    "url": "http://asahitei.asahicommons.co.jp/",
    "pref": "新潟県",
    "city": "三条市",
    "category": "regular_patrol_nursing",
    "serviceType": "定期巡回・随時対応型訪問介護看護",
    "capacity": 0,
    "openDays": [],
    "openDaysNote": ""
  },
  {
    "id": "1590300362",
    "name": "ヘルパーステーションきずな",
    "kana": "ヘルパーステーションキズナ",
    "address": "新潟県上越市木田3丁目8番44号",
    "lat": 37.1395530870685,
    "lng": 138.24248002216,
    "tel": "025-520-8807",
    "url": "http://www.kizuna-i.com/",
    "pref": "新潟県",
    "city": "上越市",
    "category": "regular_patrol_nursing",
    "serviceType": "定期巡回・随時対応型訪問介護看護",
    "capacity": 41,
    "openDays": [],
    "openDaysNote": ""
  },
  {
    "id": "1590300321",
    "name": "やさしい手上越定期巡回随時対応型訪問介護看護事業所",
    "kana": "ヤサシイテジョウエツテイキジュンカイズイジタイオウガタホウモンカイゴカンゴジギョウショ",
    "address": "新潟県上越市木田1-1-15",
    "lat": 37.1430121138128,
    "lng": 138.235536269312,
    "tel": "050-1752-0256",
    "url": "http://www.yasashiite.com",
    "pref": "新潟県",
    "city": "上越市",
    "category": "regular_patrol_nursing",
    "serviceType": "定期巡回・随時対応型訪問介護看護",
    "capacity": 0,
    "openDays": [],
    "openDaysNote": ""
  },
  {
    "id": "1590300487",
    "name": "定期巡回訪問介護　桑の里",
    "kana": "テイキジュンカイホウモンカイゴ　クワノサト",
    "address": "新潟県上越市南本町3丁目13番45号",
    "lat": 37.0988989,
    "lng": 138.2425122,
    "tel": "025-526-3000",
    "url": "http://www.kuwanosato.jp",
    "pref": "新潟県",
    "city": "上越市",
    "category": "regular_patrol_nursing",
    "serviceType": "定期巡回・随時対応型訪問介護看護",
    "capacity": 26,
    "openDays": [],
    "openDaysNote": ""
  },
  {
    "id": "1590101406",
    "name": "ケアステーションいなほ",
    "kana": "ケアステーションイナホ",
    "address": "新潟県新潟市江南区大淵1177番地",
    "lat": 37.8953536,
    "lng": 139.1480737,
    "tel": "025-278-7770",
    "url": "http://www.inahonosato.jp/",
    "pref": "新潟県",
    "city": "新潟市江南区",
    "category": "regular_patrol_nursing",
    "serviceType": "定期巡回・随時対応型訪問介護看護",
    "capacity": 0,
    "openDays": [],
    "openDaysNote": ""
  },
  {
    "id": "1590102313",
    "name": "定期巡回シルクケア新潟",
    "kana": "テイキジュンカイシルクケアニイガタ",
    "address": "新潟県新潟市秋葉区矢代田1130番地12",
    "lat": 37.750869,
    "lng": 139.0892851,
    "tel": "0250-47-4155",
    "url": "https://hp.kaipoke.biz/h0r/",
    "pref": "新潟県",
    "city": "新潟市秋葉区",
    "category": "regular_patrol_nursing",
    "serviceType": "定期巡回・随時対応型訪問介護看護",
    "capacity": null,
    "openDays": [],
    "openDaysNote": ""
  },
  {
    "id": "1590102511",
    "name": "にしかん定期巡回介護サービス",
    "kana": "ニシカンテイキジュンカイカイゴサービス",
    "address": "新潟県西蒲区鱸60-1第２池田ハイツ　１６号室 第２池田ハイツ　１６号室",
    "lat": 37.7914527,
    "lng": 138.9126652,
    "tel": "0256-78-8880",
    "url": "https://goudoukaisyafukuei.webnode.jp/",
    "pref": "新潟県",
    "city": "新潟市西蒲区",
    "category": "regular_patrol_nursing",
    "serviceType": "定期巡回・随時対応型訪問介護看護",
    "capacity": null,
    "openDays": [],
    "openDaysNote": ""
  },
  {
    "id": "1590102412",
    "name": "ヘルパーステーション　まるっとまき",
    "kana": "ヘルパーステーション　マルットマキ",
    "address": "新潟県新潟市西蒲区巻甲5465-4",
    "lat": 37.7544794144339,
    "lng": 138.898125880415,
    "tel": "0256-77-5310",
    "url": "http://www.hakujyusou.jp/",
    "pref": "新潟県",
    "city": "新潟市西蒲区",
    "category": "regular_patrol_nursing",
    "serviceType": "定期巡回・随時対応型訪問介護看護",
    "capacity": 0,
    "openDays": [],
    "openDaysNote": ""
  },
  {
    "id": "1590102206",
    "name": "にし定期巡回介護サービス",
    "kana": "ニシテイキジュンカイカイゴサービス",
    "address": "新潟県新潟市西区寺尾台1丁目5番34号ハイツ寺尾台102号 ハイツ寺尾台102号",
    "lat": 37.8818923,
    "lng": 138.9776884,
    "tel": "025-201-7357",
    "url": "https://goudoukaisyafukuei.webnode.jp/",
    "pref": "新潟県",
    "city": "新潟市西区",
    "category": "regular_patrol_nursing",
    "serviceType": "定期巡回・随時対応型訪問介護看護",
    "capacity": 0,
    "openDays": [],
    "openDaysNote": ""
  },
  {
    "id": "1590101414",
    "name": "定期巡回ありがとう",
    "kana": "テイキジュンカイアリガトウ",
    "address": "新潟県新潟市東区上木戸5-2-1",
    "lat": 37.9205303,
    "lng": 139.1030183,
    "tel": "025-270-1355",
    "url": "http://niigata.iryo-coop.com",
    "pref": "新潟県",
    "city": "新潟市東区",
    "category": "regular_patrol_nursing",
    "serviceType": "定期巡回・随時対応型訪問介護看護",
    "capacity": 30,
    "openDays": [],
    "openDaysNote": ""
  },
  {
    "id": "1590101935",
    "name": "みなみ定期巡回介護サービス",
    "kana": "ミナミテイキジュンカイカイゴサービス",
    "address": "新潟県新潟市南区上下諏訪木28番地2田村ハイツA 田村ハイツA",
    "lat": 37.7577278,
    "lng": 139.0108267,
    "tel": "025-201-9099",
    "url": "https://goudoukaisyafukuei.webnode.jp/",
    "pref": "新潟県",
    "city": "新潟市南区",
    "category": "regular_patrol_nursing",
    "serviceType": "定期巡回・随時対応型訪問介護看護",
    "capacity": 0,
    "openDays": [],
    "openDaysNote": ""
  },
  {
    "id": "1590200760",
    "name": "グッドタイムサポート・長岡",
    "kana": "グッドタイムサポート・ナガオカ",
    "address": "新潟県長岡市下々条２丁目1373-1",
    "lat": 37.4846623,
    "lng": 138.8634537,
    "tel": "0258-25-1294",
    "url": "",
    "pref": "新潟県",
    "city": "長岡市",
    "category": "regular_patrol_nursing",
    "serviceType": "定期巡回・随時対応型訪問介護看護",
    "capacity": 0,
    "openDays": [],
    "openDaysNote": ""
  },
  {
    "id": "1590200554",
    "name": "こぶし24時間ケアサービスステーション",
    "kana": "コブシニジュウヨジカンケアサービスステーション",
    "address": "長岡市信濃２丁目６番１８号",
    "lat": 37.4506449,
    "lng": 138.8378257,
    "tel": "0258-31-7836",
    "url": "http://www.kobushien.com",
    "pref": "新潟県",
    "city": "長岡市",
    "category": "regular_patrol_nursing",
    "serviceType": "定期巡回・随時対応型訪問介護看護",
    "capacity": 0,
    "openDays": [],
    "openDaysNote": ""
  },
  {
    "id": "1590200729",
    "name": "こぶし24時間ケアサービスステーション永田",
    "kana": "コブシ２４ジカンケアサービスステーションナガタ",
    "address": "新潟県長岡市永田２丁目９番地２５号",
    "lat": 37.4650541,
    "lng": 138.8707362,
    "tel": "0258-21-2902",
    "url": "http://www.kobushien.com/",
    "pref": "新潟県",
    "city": "長岡市",
    "category": "regular_patrol_nursing",
    "serviceType": "定期巡回・随時対応型訪問介護看護",
    "capacity": 0,
    "openDays": [],
    "openDaysNote": ""
  },
  {
    "id": "1590200679",
    "name": "こぶし２４時間ケアサービスステーション喜多町",
    "kana": "コブシニジュウヨジカンケアサービスステーションキタマチ",
    "address": "新潟県長岡市喜多町2900番地",
    "lat": 37.4530009,
    "lng": 138.8052233,
    "tel": "０２５８－８４－７０１５",
    "url": "",
    "pref": "新潟県",
    "city": "長岡市",
    "category": "regular_patrol_nursing",
    "serviceType": "定期巡回・随時対応型訪問介護看護",
    "capacity": 0,
    "openDays": [],
    "openDaysNote": ""
  },
  {
    "id": "1590200711",
    "name": "こぶし24時間ケアサービスステーション三和",
    "kana": "コブシ24ジカンケアサービスステーションサンワ",
    "address": "新潟県長岡市三和3-138-2サポートセンター三和 サポートセンター三和",
    "lat": 37.432422,
    "lng": 138.8368961,
    "tel": "0258-36-8350",
    "url": "",
    "pref": "新潟県",
    "city": "長岡市",
    "category": "regular_patrol_nursing",
    "serviceType": "定期巡回・随時対応型訪問介護看護",
    "capacity": 0,
    "openDays": [],
    "openDaysNote": ""
  },
  {
    "id": "1590200547",
    "name": "こぶし２４時間ケアサービスステーション美沢",
    "kana": "コブシ２４ジカンケアサービスステーションミサワ",
    "address": "新潟県長岡市美沢４丁目２１１番６サポートセンター美沢 サポートセンター美沢",
    "lat": 37.443274,
    "lng": 138.8637647,
    "tel": "０２５８－３０－１７３０",
    "url": "http://www.nagaokafukusi.com",
    "pref": "新潟県",
    "city": "長岡市",
    "category": "regular_patrol_nursing",
    "serviceType": "定期巡回・随時対応型訪問介護看護",
    "capacity": 0,
    "openDays": [],
    "openDaysNote": ""
  },
  {
    "id": "1590200646",
    "name": "メッツ川崎ヘルパーステーション",
    "kana": "メッツカワサキヘルパーステーション",
    "address": "長岡市川崎２丁目２４７８番地１",
    "lat": 37.4515592,
    "lng": 138.867589,
    "tel": "0258-37-5533",
    "url": "https://mets-taiyo-holdings.jp/medicare-service/",
    "pref": "新潟県",
    "city": "長岡市",
    "category": "regular_patrol_nursing",
    "serviceType": "定期巡回・随時対応型訪問介護看護",
    "capacity": 30,
    "openDays": [],
    "openDaysNote": ""
  }
]