[
  {
    "id": "1395100058",
    "name": "ホームヘルパーステーション　やのくち正吉苑",
    "kana": "ホームヘルパーステーション　ヤノクチショウキチエン",
    "address": "東京都稲城市矢野口1804番地３",
    "lat": 35.6366527,
    "lng": 139.5191384,
    "tel": "０４２－３７０－２２０２",
    "url": "http://www.shoukichi.org/",
    "pref": "東京都",
    "city": "稲城市",
    "category": "regular_patrol_nursing",
    "serviceType": "定期巡回・随時対応型訪問介護看護",
    "capacity": 0,
    "openDays": [],
    "openDaysNote": ""
  },
  {
    "id": "1395100090",
    "name": "やさしい手平尾定期巡回・随時対応型訪問介護看護事業所",
    "kana": "ヤサシイテヒラオテイキジュンカイ・ズイジタイオウガタホウモンカイゴカンゴジギョウショ",
    "address": "東京都稲城市平尾３－７－４コーシャハイム平尾 コーシャハイム平尾",
    "lat": 35.6108358,
    "lng": 139.492618,
    "tel": "050-1753‐4343",
    "url": "http://www.yasashiite.com",
    "pref": "東京都",
    "city": "稲城市",
    "category": "regular_patrol_nursing",
    "serviceType": "定期巡回・随時対応型訪問介護看護",
    "capacity": 0,
    "openDays": [],
    "openDaysNote": ""
  },
  {
    "id": "1395300096",
    "name": "ひかり指定定期巡回",
    "kana": "ヒカリシテイテイキジュンカイ",
    "address": "東京都羽村市小作台1-3-9宇津木ビル201号 宇津木ビル201号",
    "lat": 35.7774268,
    "lng": 139.3021073,
    "tel": "042-570-7078",
    "url": "",
    "pref": "東京都",
    "city": "羽村市",
    "category": "regular_patrol_nursing",
    "serviceType": "定期巡回・随時対応型訪問介護看護",
    "capacity": 0,
    "openDays": [],
    "openDaysNote": ""
  },
  {
    "id": "1392200703",
    "name": "ＳＯＭＰＯケア在宅老人ホーム葛飾　定期巡回",
    "kana": "ソンポケアザイタクロウジンホームカツシカ　テイキジュンカイ",
    "address": "東京都葛飾区青戸3-33-14サンプラザビル601 サンプラザビル601",
    "lat": 35.746861892413,
    "lng": 139.855857775463,
    "tel": "03-5629-2178",
    "url": "https://www.sompocare.com/",
    "pref": "東京都",
    "city": "葛飾区",
    "category": "regular_patrol_nursing",
    "serviceType": "定期巡回・随時対応型訪問介護看護",
    "capacity": 10,
    "openDays": [],
    "openDaysNote": ""
  },
  {
    "id": "1392200943",
    "name": "ウェルフォース定期巡回・随時対応型訪問介護看護ステーション",
    "kana": "ウェルフォーステイキジュンカイズイジタイオウガタホウモンカイゴカンゴステーション",
    "address": "東京都葛飾区白鳥2-10-7",
    "lat": 35.7485202,
    "lng": 139.8440493,
    "tel": "03-6662-5285",
    "url": "",
    "pref": "東京都",
    "city": "葛飾区",
    "category": "regular_patrol_nursing",
    "serviceType": "定期巡回・随時対応型訪問介護看護",
    "capacity": null,
    "openDays": [],
    "openDaysNote": ""
  },
  {
    "id": "1392200745",
    "name": "ミアヘルサ定期巡回サービス東新小岩",
    "kana": "ミアヘルサテイキジュンカイサービスヒガシシンコイワ",
    "address": "東京都葛飾区東新小岩4-11-10ミアヘルサオアシス東新小岩 ミアヘルサオアシス東新小岩",
    "lat": 35.7260573,
    "lng": 139.8619125,
    "tel": "03-5654-7118",
    "url": "https://www.merhalsa.jp",
    "pref": "東京都",
    "city": "葛飾区",
    "category": "regular_patrol_nursing",
    "serviceType": "定期巡回・随時対応型訪問介護看護",
    "capacity": 50,
    "openDays": [],
    "openDaysNote": ""
  },
  {
    "id": "1392301097",
    "name": "しろひげレンジャー24時（定期巡回・随時対応型訪問介護看護）",
    "kana": "シロヒゲレンジャーニジュウヨジ",
    "address": "東京都江戸川区船堀1-8-18ポエールビル201号 ポエールビル201号",
    "lat": 35.6839535,
    "lng": 139.8632383,
    "tel": "03-6808-9071",
    "url": "https://shirohige.clinic",
    "pref": "東京都",
    "city": "江戸川区",
    "category": "regular_patrol_nursing",
    "serviceType": "定期巡回・随時対応型訪問介護看護",
    "capacity": 0,
    "openDays": [],
    "openDaysNote": ""
  },
  {
    "id": "1392300982",
    "name": "そよ風定期巡回　えどがわ",
    "kana": "ソヨカゼテイキジュンカイ　エドガワ",
    "address": "東京都江戸川区東小松川4丁目57-12市川第5マンション102号 市川第5マンション102号",
    "lat": 35.6905846511725,
    "lng": 139.867153288361,
    "tel": "03-5661-7701",
    "url": "",
    "pref": "東京都",
    "city": "江戸川区",
    "category": "regular_patrol_nursing",
    "serviceType": "定期巡回・随時対応型訪問介護看護",
    "capacity": 0,
    "openDays": [],
    "openDaysNote": ""
  },
  {
    "id": "1392300396",
    "name": "定期巡回・随時対応型訪問介護看護泰山",
    "kana": "テイキジュンカイ・ズイジタイオウガタホウモンカイゴカンゴタイザン",
    "address": "東京都江戸川区北小岩５－３４－１０",
    "lat": 35.739703,
    "lng": 139.8916343,
    "tel": "03-5622-1665",
    "url": "http://www.hakusyuu.jimusho.jp",
    "pref": "東京都",
    "city": "江戸川区",
    "category": "regular_patrol_nursing",
    "serviceType": "定期巡回・随時対応型訪問介護看護",
    "capacity": 0,
    "openDays": [],
    "openDaysNote": ""
  },
  {
    "id": "1390800397",
    "name": "ＳＯＭＰＯケア　江東　定期巡回",
    "kana": "ソンポケア　コウトウ　テイキジュンカイ",
    "address": "東京都江東区東陽5丁目30番13号東京原木会館７階 東京原木会館７階",
    "lat": 35.6736606853237,
    "lng": 139.815763417505,
    "tel": "03-6666-4925",
    "url": "http://www.sompocare.com",
    "pref": "東京都",
    "city": "江東区",
    "category": "regular_patrol_nursing",
    "serviceType": "定期巡回・随時対応型訪問介護看護",
    "capacity": 0,
    "openDays": [],
    "openDaysNote": ""
  },
  {
    "id": "1390800611",
    "name": "アウケアホーム江東・定期巡回",
    "kana": "アウケアホームコウトウ・テイキジュンカイ",
    "address": "東京都江東区東陽町2-4-34東郷ビル(WEST)201 東郷ビル(WEST)201",
    "lat": 35.6690288,
    "lng": 139.8171473,
    "tel": "03-6666-7405",
    "url": "",
    "pref": "東京都",
    "city": "江東区",
    "category": "regular_patrol_nursing",
    "serviceType": "定期巡回・随時対応型訪問介護看護",
    "capacity": 0,
    "openDays": [],
    "openDaysNote": ""
  },
  {
    "id": "1390800207",
    "name": "グッドライフケア24",
    "kana": "グッドライフケアニジュウヨン",
    "address": "東京都江東区豊洲4-2-2豊南堂ビル4階 豊南堂ビル4階",
    "lat": 35.655069542818,
    "lng": 139.797717660713,
    "tel": "03-6204-9633",
    "url": "https://goodlifecare.co.jp/",
    "pref": "東京都",
    "city": "江東区",
    "category": "regular_patrol_nursing",
    "serviceType": "定期巡回・随時対応型訪問介護看護",
    "capacity": 0,
    "openDays": [],
    "openDaysNote": ""
  },
  {
    "id": "1390800470",
    "name": "そよ風定期巡回　すなまち",
    "kana": "ソヨカゼテイキジュンカイスナマチ",
    "address": "東京都江東区北砂4-26-6ママダビル1F ママダビル1F",
    "lat": 35.6798219,
    "lng": 139.8334055,
    "tel": "03-5653-1325",
    "url": "http://www.unimat-rc.co.jp",
    "pref": "東京都",
    "city": "江東区",
    "category": "regular_patrol_nursing",
    "serviceType": "定期巡回・随時対応型訪問介護看護",
    "capacity": 26,
    "openDays": [],
    "openDaysNote": ""
  },
  {
    "id": "1390300216",
    "name": "グッドライフケア２４",
    "kana": "グッドライフケア　ニジュウヨン",
    "address": "東京都港区東麻布１－７－３第二渡邊ビル２Ｆ 第二渡邊ビル２Ｆ",
    "lat": 35.6576836,
    "lng": 139.7435879,
    "tel": "03-6441-0895",
    "url": "https://goodlifecare.co.jp/",
    "pref": "東京都",
    "city": "港区",
    "category": "regular_patrol_nursing",
    "serviceType": "定期巡回・随時対応型訪問介護看護",
    "capacity": 0,
    "openDays": [],
    "openDaysNote": ""
  },
  {
    "id": "1391800628",
    "name": "SOMPOケア　荒川　定期巡回",
    "kana": "ソンポケア　アラカワ　テイキジュンカイ",
    "address": "東京都荒川区東尾久6-5-5富士産業ビル2階　203号室 富士産業ビル2階　203号室",
    "lat": 35.7454578,
    "lng": 139.7749925,
    "tel": "03-6807-9390",
    "url": "https://www.sompocare.com/service/zaitaku/teikijunkai/Z000964",
    "pref": "東京都",
    "city": "荒川区",
    "category": "regular_patrol_nursing",
    "serviceType": "定期巡回・随時対応型訪問介護看護",
    "capacity": null,
    "openDays": [],
    "openDaysNote": ""
  },
  {
    "id": "1391800354",
    "name": "やさしい手日暮里定期巡回随時対応型訪問介護看護事業所",
    "kana": "ヤサシイテニッポリテイキジュンカイズイジタイオウガタホウモンカイゴカンゴジギョウショ",
    "address": "東京都荒川区東日暮里5-52-2神谷ﾋﾞﾙ501 神谷ﾋﾞﾙ501",
    "lat": 35.7278301,
    "lng": 139.7719176,
    "tel": "050-1752-1321",
    "url": "http://www.yasashiite.com/subdomains/section/038",
    "pref": "東京都",
    "city": "荒川区",
    "category": "regular_patrol_nursing",
    "serviceType": "定期巡回・随時対応型訪問介護看護",
    "capacity": 0,
    "openDays": [],
    "openDaysNote": ""
  },
  {
    "id": "1393100241",
    "name": "テイジュンこもれび家族",
    "kana": "テイジュンコモレビカゾク",
    "address": "東京都国分寺市西町3-14-7",
    "lat": 35.7097074,
    "lng": 139.4359173,
    "tel": "042-806-0350",
    "url": "",
    "pref": "東京都",
    "city": "国分寺市",
    "category": "regular_patrol_nursing",
    "serviceType": "定期巡回・随時対応型訪問介護看護",
    "capacity": null,
    "openDays": [],
    "openDaysNote": ""
  },
  {
    "id": "1393600208",
    "name": "SOMPOケア三鷹武蔵野　定期巡回",
    "kana": "ソンポケアミタカ　テイキジュンカイ",
    "address": "東京都三鷹市上連雀4-3-3川口ビル1階 川口ビル1階",
    "lat": 35.6963756485886,
    "lng": 139.558991119764,
    "tel": "0422-26-5450",
    "url": "https://www.sompocare.com",
    "pref": "東京都",
    "city": "三鷹市",
    "category": "regular_patrol_nursing",
    "serviceType": "定期巡回・随時対応型訪問介護看護",
    "capacity": 0,
    "openDays": [],
    "openDaysNote": ""
  },
  {
    "id": "1393600315",
    "name": "カイゴいるてと",
    "kana": "カイゴイルテト",
    "address": "東京都三鷹市野崎2-6-32",
    "lat": 35.6831137,
    "lng": 139.5477901,
    "tel": "0422-30-8022",
    "url": "https://iruteto.jp/",
    "pref": "東京都",
    "city": "三鷹市",
    "category": "regular_patrol_nursing",
    "serviceType": "定期巡回・随時対応型訪問介護看護",
    "capacity": 0,
    "openDays": [],
    "openDaysNote": ""
  },
  {
    "id": "1391300330",
    "name": "SOMPOケア渋谷　定期巡回",
    "kana": "ソンポケアシブヤ　テイキジュンカイ",
    "address": "東京都渋谷区代々木三丁目28番6号いちご西参道ビルA棟2階A室 いちご西参道ビルA棟2階A室",
    "lat": 35.6835778,
    "lng": 139.6921545,
    "tel": "03-6300-5848",
    "url": "https://www.sompocare.com/",
    "pref": "東京都",
    "city": "渋谷区",
    "category": "regular_patrol_nursing",
    "serviceType": "定期巡回・随時対応型訪問介護看護",
    "capacity": 0,
    "openDays": [],
    "openDaysNote": ""
  },
  {
    "id": "1394100265",
    "name": "定期巡回サービス土屋小金井",
    "kana": "テイキジュンカイサービスツチヤコガネイ",
    "address": "東京都小金井市梶野町１－３－６",
    "lat": 35.7026207,
    "lng": 139.5284844,
    "tel": "050-1809-4355",
    "url": "https://teikijunkai.net/teikijunkai-tsuchiya-koganei/",
    "pref": "東京都",
    "city": "小金井市",
    "category": "regular_patrol_nursing",
    "serviceType": "定期巡回・随時対応型訪問介護看護",
    "capacity": 30,
    "openDays": [],
    "openDaysNote": ""
  },
  {
    "id": "1394300410",
    "name": "かなでケアステーション・定期巡回",
    "kana": "カナデケアステーション・テイキジュンカイ",
    "address": "東京都小平市仲町182-3",
    "lat": 35.7308896,
    "lng": 139.4862294,
    "tel": "042-313-2830",
    "url": "https://www.kanadecare.com/",
    "pref": "東京都",
    "city": "小平市",
    "category": "regular_patrol_nursing",
    "serviceType": "定期巡回・随時対応型訪問介護看護",
    "capacity": 0,
    "openDays": [],
    "openDaysNote": ""
  },
  {
    "id": "1394300345",
    "name": "定期巡回・随時対応型訪問介護看護小平グリーンてらす",
    "kana": "テイキジュンカイ・ズイジタイオウガタホウモンカイゴカンゴコダイラグリーンテラス",
    "address": "東京都小平市鈴木町1-99-6",
    "lat": 35.7241446,
    "lng": 139.495643,
    "tel": "042-326-6801",
    "url": "https://ryokuzankai.jp/",
    "pref": "東京都",
    "city": "小平市",
    "category": "regular_patrol_nursing",
    "serviceType": "定期巡回・随時対応型訪問介護看護",
    "capacity": 0,
    "openDays": [],
    "openDaysNote": ""
  },
  {
    "id": "1394000143",
    "name": "そよ風定期巡回　あきしま",
    "kana": "ソヨカゼテイキジュンカイアキシマ",
    "address": "東京都昭島市宮沢町2-23-17",
    "lat": 35.7025509,
    "lng": 139.3616353,
    "tel": "042-546-2830",
    "url": "https://www.sykz.co.jp/",
    "pref": "東京都",
    "city": "昭島市",
    "category": "regular_patrol_nursing",
    "serviceType": "定期巡回・随時対応型訪問介護看護",
    "capacity": 0,
    "openDays": [],
    "openDaysNote": ""
  },
  {
    "id": "1394000077",
    "name": "昭和郷訪問介護センター",
    "kana": "ショウワゴウホウモンカイゴセンター",
    "address": "東京都昭島市中神町1260番地",
    "lat": 35.7093862,
    "lng": 139.382215,
    "tel": "042-519-2010",
    "url": "https://syouwagou.jp/officelist/houmonkaigo",
    "pref": "東京都",
    "city": "昭島市",
    "category": "regular_patrol_nursing",
    "serviceType": "定期巡回・随時対応型訪問介護看護",
    "capacity": 0,
    "openDays": [],
    "openDaysNote": ""
  },
  {
    "id": "1390400453",
    "name": "ＳＯＭＰＯケア　在宅老人ホーム新宿　定期巡回",
    "kana": "ソンポケア　ザイタクロウジンホームシンジュク　テイキジュンカイ",
    "address": "東京都新宿区高田馬場2-5-23第1桂城ビル4階 第1桂城ビル4階",
    "lat": 35.7141321,
    "lng": 139.7108832,
    "tel": "03-6302-1017",
    "url": "https://www.sompocare.com",
    "pref": "東京都",
    "city": "新宿区",
    "category": "regular_patrol_nursing",
    "serviceType": "定期巡回・随時対応型訪問介護看護",
    "capacity": 50,
    "openDays": [],
    "openDaysNote": ""
  },
  {
    "id": "1390400230",
    "name": "エイプレイス新宿",
    "kana": "エイプレイスシンジュク",
    "address": "東京都新宿区高田馬場4-4-11内藤ビル1階 内藤ビル1階",
    "lat": 35.7124764451254,
    "lng": 139.701606893904,
    "tel": "03-5337-5228",
    "url": "http://a-place.co.jp",
    "pref": "東京都",
    "city": "新宿区",
    "category": "regular_patrol_nursing",
    "serviceType": "定期巡回・随時対応型訪問介護看護",
    "capacity": 0,
    "openDays": [],
    "openDaysNote": ""
  },
  {
    "id": "1390400586",
    "name": "日本リック定期巡回市谷事業所",
    "kana": "ニホンリックテイキジュンカイイチガヤジギョウショ",
    "address": "東京都新宿区市谷台町4番地16号サンライズ市ヶ谷1階 サンライズ市ヶ谷1階",
    "lat": 35.6930217,
    "lng": 139.719705,
    "tel": "03-6274-8510",
    "url": "https://www.rickcare.jp/",
    "pref": "東京都",
    "city": "新宿区",
    "category": "regular_patrol_nursing",
    "serviceType": "定期巡回・随時対応型訪問介護看護",
    "capacity": 0,
    "openDays": [],
    "openDaysNote": ""
  },
  {
    "id": "1391500855",
    "name": "ＳＯＭＰＯケア　在宅老人ホーム杉並　定期巡回",
    "kana": "ソンポケア　ザイタクロウジンホームスギナミ　テイキジュンカイ",
    "address": "東京都杉並区阿佐谷南1-17-18阿佐谷下田ビル２階 阿佐谷下田ビル２階",
    "lat": 35.7007802457264,
    "lng": 139.636992692065,
    "tel": "03-5929-8685",
    "url": "https://www.sompocare.com/",
    "pref": "東京都",
    "city": "杉並区",
    "category": "regular_patrol_nursing",
    "serviceType": "定期巡回・随時対応型訪問介護看護",
    "capacity": 0,
    "openDays": [],
    "openDaysNote": ""
  },
  {
    "id": "1391501259",
    "name": "アート定期巡回・随時対応型訪問介護看護センター",
    "kana": "アートテイキジュンカイズイジタイオウガタホウモンカイゴカンゴセンター",
    "address": "東京都杉並区梅里1-21-8高杉ハイツ１F 高杉ハイツ１F",
    "lat": 35.6977023198061,
    "lng": 139.65285064418,
    "tel": "03-5929-9497",
    "url": "https://kindness-art.jp/",
    "pref": "東京都",
    "city": "杉並区",
    "category": "regular_patrol_nursing",
    "serviceType": "定期巡回・随時対応型訪問介護看護",
    "capacity": 0,
    "openDays": [],
    "openDaysNote": ""
  },
  {
    "id": "1391501515",
    "name": "アウケアホーム杉並・定期巡回",
    "kana": "アウケアホームスギナミ・テイキジュンカイ",
    "address": "東京都杉並区阿佐谷北5-1-5RICO102 RICO102",
    "lat": 35.7067458,
    "lng": 139.6414432,
    "tel": "03-5356-8190",
    "url": "https://3s.care/",
    "pref": "東京都",
    "city": "杉並区",
    "category": "regular_patrol_nursing",
    "serviceType": "定期巡回・随時対応型訪問介護看護",
    "capacity": 100,
    "openDays": [],
    "openDaysNote": ""
  },
  {
    "id": "1391500616",
    "name": "ウォームハート杉並",
    "kana": "ウォームハートスギナミ",
    "address": "東京都杉並区上井草３－１７－２４",
    "lat": 35.7208016,
    "lng": 139.6052873,
    "tel": "03-4361-2343",
    "url": "https://www.coolhead.co.jp/",
    "pref": "東京都",
    "city": "杉並区",
    "category": "regular_patrol_nursing",
    "serviceType": "定期巡回・随時対応型訪問介護看護",
    "capacity": 0,
    "openDays": [],
    "openDaysNote": ""
  },
  {
    "id": "1391501176",
    "name": "エフリオ訪問看護・定期巡回ステーション",
    "kana": "エフリオホウモンカンゴ・テイキジュンカイステーション",
    "address": "東京都杉並区阿佐谷北2-14-5大坂やビル1階 大坂やビル1階",
    "lat": 35.706043,
    "lng": 139.6362822,
    "tel": "03-5356-1267",
    "url": "https://f-reo.jp",
    "pref": "東京都",
    "city": "杉並区",
    "category": "regular_patrol_nursing",
    "serviceType": "定期巡回・随時対応型訪問介護看護",
    "capacity": 0,
    "openDays": [],
    "openDaysNote": ""
  },
  {
    "id": "1391501366",
    "name": "クリエイトケア定期巡回おぎくぼ",
    "kana": "クリエイトケアテイキジュンカイオギクボ",
    "address": "東京都杉並区南荻窪4-29-10田丸ビル403号 田丸ビル403号",
    "lat": 35.7026332,
    "lng": 139.6163031,
    "tel": "03-5344-8340",
    "url": "https://ikcare.or.jp",
    "pref": "東京都",
    "city": "杉並区",
    "category": "regular_patrol_nursing",
    "serviceType": "定期巡回・随時対応型訪問介護看護",
    "capacity": 20,
    "openDays": [],
    "openDaysNote": ""
  },
  {
    "id": "1391501077",
    "name": "スギコー定期巡回",
    "kana": "スギコーテイキジュンカイ",
    "address": "東京都杉並区高井戸東3-18-7杉並第2ビル 杉並第2ビル",
    "lat": 35.6855913,
    "lng": 139.6215947,
    "tel": "03-5344-9222",
    "url": "https://sugiko-welfare.com/",
    "pref": "東京都",
    "city": "杉並区",
    "category": "regular_patrol_nursing",
    "serviceType": "定期巡回・随時対応型訪問介護看護",
    "capacity": 0,
    "openDays": [],
    "openDaysNote": ""
  },
  {
    "id": "1391501333",
    "name": "ほっとらいふ　定期巡回",
    "kana": "ホットライフ　テイキジュンカイ",
    "address": "東京都杉並区和田1-14-3東京精機ビル4F 東京精機ビル4F",
    "lat": 35.6898416585416,
    "lng": 139.66324463373,
    "tel": "03-5328-0787",
    "url": "https://www.hotlife.biz",
    "pref": "東京都",
    "city": "杉並区",
    "category": "regular_patrol_nursing",
    "serviceType": "定期巡回・随時対応型訪問介護看護",
    "capacity": null,
    "openDays": [],
    "openDaysNote": ""
  },
  {
    "id": "1391501358",
    "name": "ユアーズ定期巡回",
    "kana": "ユアーズテイキジュンカイ",
    "address": "東京都杉並区下井草3-34-5メイベルコート101 メイベルコート101",
    "lat": 35.722422,
    "lng": 139.6215166,
    "tel": "03-6454-7465",
    "url": "",
    "pref": "東京都",
    "city": "杉並区",
    "category": "regular_patrol_nursing",
    "serviceType": "定期巡回・随時対応型訪問介護看護",
    "capacity": 0,
    "openDays": [],
    "openDaysNote": ""
  },
  {
    "id": "1391500632",
    "name": "笑生定時巡回・随時対応型訪問介護看護ステーション",
    "kana": "ショウセイテイキジュンカイ・ズイジタイオウガタホウモンカイゴカンゴステーション",
    "address": "東京都杉並区西荻南３－７－２",
    "lat": 35.7020816189751,
    "lng": 139.601085096959,
    "tel": "０３－５３４４－９８３８",
    "url": "https://shosei-tera.co.jp/",
    "pref": "東京都",
    "city": "杉並区",
    "category": "regular_patrol_nursing",
    "serviceType": "定期巡回・随時対応型訪問介護看護",
    "capacity": 0,
    "openDays": [],
    "openDaysNote": ""
  },
  {
    "id": "1391200654",
    "name": "24ケアステーション　ノテ東京",
    "kana": "ニジュウヨンケアステーション　ノテトウキョウ",
    "address": "東京都世田谷区深沢7-１7-20",
    "lat": 35.6211097132788,
    "lng": 139.647769326186,
    "tel": "03-6432-3892",
    "url": "",
    "pref": "東京都",
    "city": "世田谷区",
    "category": "regular_patrol_nursing",
    "serviceType": "定期巡回・随時対応型訪問介護看護",
    "capacity": 0,
    "openDays": [],
    "openDaysNote": ""
  },
  {
    "id": "1391201041",
    "name": "ＳＯＭＰＯケア世田谷",
    "kana": "ソンポケアセタガヤ",
    "address": "東京都世田谷区三軒茶屋1-37-8ワコーレ三軒茶屋64　10F ワコーレ三軒茶屋64　10F",
    "lat": 35.6429697702013,
    "lng": 139.670867319912,
    "tel": "03-5431-0371",
    "url": "https://www.sompocare.com/service/zaitaku/elderly/",
    "pref": "東京都",
    "city": "世田谷区",
    "category": "regular_patrol_nursing",
    "serviceType": "定期巡回・随時対応型訪問介護看護",
    "capacity": 0,
    "openDays": [],
    "openDaysNote": ""
  },
  {
    "id": "1391201678",
    "name": "ＳＯＭＰＯケア成城定期巡回",
    "kana": "ソンポケアセイジョウテイキジュンカイ",
    "address": "東京都世田谷区成城6-18-3小島ハウスA 小島ハウスA",
    "lat": 35.642117,
    "lng": 139.5980026,
    "tel": "03-6411-2144",
    "url": "https://www.sompocare.com/service/zaitaku/kaigo/Z000103",
    "pref": "東京都",
    "city": "世田谷区",
    "category": "regular_patrol_nursing",
    "serviceType": "定期巡回・随時対応型訪問介護看護",
    "capacity": null,
    "openDays": [],
    "openDaysNote": ""
  },
  {
    "id": "1391201231",
    "name": "ナーシング・ケアステーション梅ヶ丘",
    "kana": "ナーシング・ケアステーションウメガオカ",
    "address": "東京都世田谷区松原六丁目37番1号",
    "lat": 35.6576848,
    "lng": 139.6506294,
    "tel": "03-6379-0528",
    "url": "",
    "pref": "東京都",
    "city": "世田谷区",
    "category": "regular_patrol_nursing",
    "serviceType": "定期巡回・随時対応型訪問介護看護",
    "capacity": 0,
    "openDays": [],
    "openDaysNote": ""
  },
  {
    "id": "1391200399",
    "name": "やさしい手　用賀定期巡回随時対応型訪問介護看護事業所",
    "kana": "ヤサシイテ　ヨウガテイキジュンカイズイジタイオウガタホウモンカイゴカンゴジギョウショ",
    "address": "東京都世田谷区用賀2-31-7イイダアネックスⅠ　2階A イイダアネックスⅠ　2階A",
    "lat": 35.6247138,
    "lng": 139.6353914,
    "tel": "050-1743-8899",
    "url": "http://www.yasashiite.com",
    "pref": "東京都",
    "city": "世田谷区",
    "category": "regular_patrol_nursing",
    "serviceType": "定期巡回・随時対応型訪問介護看護",
    "capacity": 10,
    "openDays": [],
    "openDaysNote": ""
  },
  {
    "id": "1391200639",
    "name": "やさしい手千歳烏山定期巡回・随時対応型訪問介護看護事業所",
    "kana": "ヤサシイテチトセカラスヤマテイキジュンカイ・ズイジタイオウガタホウモンカイゴカンゴジギョウショ",
    "address": "東京都世田谷区南烏山6-10-9コーシャハイム千歳烏山9号棟１階 コーシャハイム千歳烏山9号棟１階",
    "lat": 35.6689285,
    "lng": 139.5976841,
    "tel": "050-1752-0677",
    "url": "http://www.yasashiite.com",
    "pref": "東京都",
    "city": "世田谷区",
    "category": "regular_patrol_nursing",
    "serviceType": "定期巡回・随時対応型訪問介護看護",
    "capacity": 0,
    "openDays": [],
    "openDaysNote": ""
  },
  {
    "id": "1391201033",
    "name": "社会福祉法人青藍会　在宅医療支援センター　ハートハウス成城",
    "kana": "シャカイフクシホウジンセイランカイ　ザイタクイリョウシエンセンター　ハートハウスセイジョウ",
    "address": "東京都世田谷区成城2-35-3101 101",
    "lat": 35.6395472,
    "lng": 139.5999939,
    "tel": "03-3416-4160",
    "url": "http://www.seirankai.or.jp",
    "pref": "東京都",
    "city": "世田谷区",
    "category": "regular_patrol_nursing",
    "serviceType": "定期巡回・随時対応型訪問介護看護",
    "capacity": 30,
    "openDays": [],
    "openDaysNote": ""
  },
  {
    "id": "1395400359",
    "name": "SOMPOケア在宅老人ホーム西東京　定期巡回",
    "kana": "ソンポケアザイタクロウジンホームニシトウキョウテイキジュンカイ",
    "address": "東京都西東京市田無町4-2-11Aビル2階 Aビル2階",
    "lat": 35.727997,
    "lng": 139.5391769,
    "tel": "042-439-5839",
    "url": "https://www.sompocare.com",
    "pref": "東京都",
    "city": "西東京市",
    "category": "regular_patrol_nursing",
    "serviceType": "定期巡回・随時対応型訪問介護看護",
    "capacity": 0,
    "openDays": [],
    "openDaysNote": ""
  },
  {
    "id": "1392800155",
    "name": "ここひろヘルパー24",
    "kana": "ココヒロヘルパートウエンテイ",
    "address": "東京都青梅市藤橋2-614‐18",
    "lat": 35.799762,
    "lng": 139.301238,
    "tel": "0428‐78‐2455",
    "url": "https://www.kokohiro.jp/",
    "pref": "東京都",
    "city": "青梅市",
    "category": "regular_patrol_nursing",
    "serviceType": "定期巡回・随時対応型訪問介護看護",
    "capacity": null,
    "openDays": [],
    "openDaysNote": ""
  },
  {
    "id": "1390100137",
    "name": "ＳＯＭＰＯケア　在宅老人ホーム千代田　定期巡回",
    "kana": "ソンポケア　ザイタクロウジンホームチヨダ　テイキジュンカイ",
    "address": "東京都千代田区麹町四丁目5番地4桜井ビル5階 桜井ビル5階",
    "lat": 35.6835258,
    "lng": 139.7368447,
    "tel": "03-6268-9736",
    "url": "https://www.sompocare.com/service/zaitaku/kaigo/Z000870",
    "pref": "東京都",
    "city": "千代田区",
    "category": "regular_patrol_nursing",
    "serviceType": "定期巡回・随時対応型訪問介護看護",
    "capacity": null,
    "openDays": [],
    "openDaysNote": ""
  },
  {
    "id": "1390100087",
    "name": "かんだ連雀いつでもサポートサービス",
    "kana": "カンダレンジャクイツデモサポートサービス",
    "address": "東京都千代田区神田淡路町２-８-１",
    "lat": 35.6966556,
    "lng": 139.7684442,
    "tel": "03-3252-8815",
    "url": "http://tama-dnk.or.jp",
    "pref": "東京都",
    "city": "千代田区",
    "category": "regular_patrol_nursing",
    "serviceType": "定期巡回・随時対応型訪問介護看護",
    "capacity": 0,
    "openDays": [],
    "openDaysNote": ""
  },
  {
    "id": "1390100079",
    "name": "グッドライフケア２４",
    "kana": "グッドライフケアニジュウヨン",
    "address": "東京都千代田区九段北2-3-7前川九段ビル2階 前川九段ビル2階",
    "lat": 35.6951882419084,
    "lng": 139.745551852008,
    "tel": "03-6272-6475",
    "url": "https://goodlifecare.co.jp/",
    "pref": "東京都",
    "city": "千代田区",
    "category": "regular_patrol_nursing",
    "serviceType": "定期巡回・随時対応型訪問介護看護",
    "capacity": 0,
    "openDays": [],
    "openDaysNote": ""
  },
  {
    "id": "1392100903",
    "name": "ＳＯＭＰＯケア　在宅老人ホーム足立　定期巡回",
    "kana": "ソンポケア　ザイタクロウジンホームアダチ　テイキジュンカイ",
    "address": "東京都足立区千住中居町33-3大橋ビル4階 大橋ビル4階",
    "lat": 35.7510648,
    "lng": 139.7991835,
    "tel": "03-5813-5200",
    "url": "",
    "pref": "東京都",
    "city": "足立区",
    "category": "regular_patrol_nursing",
    "serviceType": "定期巡回・随時対応型訪問介護看護",
    "capacity": null,
    "openDays": [],
    "openDaysNote": ""
  },
  {
    "id": "1392101307",
    "name": "くらしさ足立定期巡回型訪問介護看護",
    "kana": "クラシサアダチテイキジュンカイガタホウモンカイゴカンゴ",
    "address": "東京都足立区入谷2-19-10",
    "lat": 35.8091253,
    "lng": 139.7633711,
    "tel": "03-5647-8050",
    "url": "",
    "pref": "東京都",
    "city": "足立区",
    "category": "regular_patrol_nursing",
    "serviceType": "定期巡回・随時対応型訪問介護看護",
    "capacity": null,
    "openDays": [],
    "openDaysNote": ""
  },
  {
    "id": "1392101091",
    "name": "ヘルパ-ステ－ションかるがも",
    "kana": "ヘルパ-ステ-ションカルガモ",
    "address": "東京都足立区梅島1-13-17",
    "lat": 35.7728143,
    "lng": 139.7984962,
    "tel": "03-5845-8227",
    "url": "",
    "pref": "東京都",
    "city": "足立区",
    "category": "regular_patrol_nursing",
    "serviceType": "定期巡回・随時対応型訪問介護看護",
    "capacity": 0,
    "openDays": [],
    "openDaysNote": ""
  },
  {
    "id": "1392100440",
    "name": "やなかナイトケア",
    "kana": "ヤナカナイトケア",
    "address": "東京都足立区谷中1-17-7",
    "lat": 35.7715485,
    "lng": 139.8321042,
    "tel": "03-5613-5507",
    "url": "https://www.chojumura.or.jp/ayase/night-care.html",
    "pref": "東京都",
    "city": "足立区",
    "category": "regular_patrol_nursing",
    "serviceType": "定期巡回・随時対応型訪問介護看護",
    "capacity": 32,
    "openDays": [],
    "openDaysNote": ""
  },
  {
    "id": "1392100960",
    "name": "らうんど千寿",
    "kana": "ラウンドセンジュ",
    "address": "東京都足立区柳原2－33－6介護老人保健施設千寿の郷内 介護老人保健施設千寿の郷内",
    "lat": 35.7479349,
    "lng": 139.814416,
    "tel": "03－5284－2610",
    "url": "http://www.kenwa.or.jp/index.html#anew",
    "pref": "東京都",
    "city": "足立区",
    "category": "regular_patrol_nursing",
    "serviceType": "定期巡回・随時対応型訪問介護看護",
    "capacity": 15,
    "openDays": [],
    "openDaysNote": ""
  },
  {
    "id": "1395000290",
    "name": "そよ風定期巡回たま",
    "kana": "ソヨカゼテイキジュンカイ　タマ",
    "address": "東京都多摩市落合４－１６－１16号棟　１０２号棟 16号棟　１０２号棟",
    "lat": 35.6156453,
    "lng": 139.4302787,
    "tel": "042-355-8266",
    "url": "",
    "pref": "東京都",
    "city": "多摩市",
    "category": "regular_patrol_nursing",
    "serviceType": "定期巡回・随時対応型訪問介護看護",
    "capacity": 0,
    "openDays": [],
    "openDaysNote": ""
  },
  {
    "id": "1390600367",
    "name": "SOMPOケア台東　定期巡回・随時対応型訪問介護看護",
    "kana": "ソンポケアタイトウテイキジュンカイズイジタイオウガタホウモンカイゴカンゴ",
    "address": "東京都台東区寿1-5-9盛光伸光ビル8階 盛光伸光ビル8階",
    "lat": 35.7068587,
    "lng": 139.7904714,
    "tel": "03-6231-6120",
    "url": "https://www.sompocare.com/service/zaitaku/kaigo/Z000044",
    "pref": "東京都",
    "city": "台東区",
    "category": "regular_patrol_nursing",
    "serviceType": "定期巡回・随時対応型訪問介護看護",
    "capacity": 9,
    "openDays": [],
    "openDaysNote": ""
  },
  {
    "id": "1391101118",
    "name": "SOMPOケア在宅老人ホーム大田　定期巡回",
    "kana": "ソンポケア　ザイタクロウジンホームオオタ　テイキジュンカイ",
    "address": "東京都大田区西蒲田6-36-11西蒲田NSビル　５階 西蒲田NSビル　５階",
    "lat": 35.5646162570134,
    "lng": 139.712880881158,
    "tel": "03-6428-7610",
    "url": "https://www.sompocare.com",
    "pref": "東京都",
    "city": "大田区",
    "category": "regular_patrol_nursing",
    "serviceType": "定期巡回・随時対応型訪問介護看護",
    "capacity": 0,
    "openDays": [],
    "openDaysNote": ""
  },
  {
    "id": "1391101522",
    "name": "カラーズ２４",
    "kana": "カラーズ２４",
    "address": "東京都大田区大森西3-19-21",
    "lat": 35.5725245,
    "lng": 139.7299213,
    "tel": "03-6450-0164",
    "url": "https://www.colors-g.co.jp/",
    "pref": "東京都",
    "city": "大田区",
    "category": "regular_patrol_nursing",
    "serviceType": "定期巡回・随時対応型訪問介護看護",
    "capacity": null,
    "openDays": [],
    "openDaysNote": ""
  },
  {
    "id": "1391101415",
    "name": "そよ風定期巡回　かまた",
    "kana": "ソヨカゼテイキジュンカイ　カマタ",
    "address": "東京都大田区南蒲田2-8-10",
    "lat": 35.5555997,
    "lng": 139.7258564,
    "tel": "03-5480-7050",
    "url": "https://www.unimat-rc.co.jp/shisetsu-zaitaku/134315",
    "pref": "東京都",
    "city": "大田区",
    "category": "regular_patrol_nursing",
    "serviceType": "定期巡回・随時対応型訪問介護看護",
    "capacity": 0,
    "openDays": [],
    "openDaysNote": ""
  },
  {
    "id": "1391100839",
    "name": "定期巡回池上長寿園24",
    "kana": "テイキジュンカイイケガミチョウジュエンニジュウヨン",
    "address": "東京都大田区仲池上2-24-8特別養護老人ホーム池上　1階 特別養護老人ホーム池上　1階",
    "lat": 35.5847507,
    "lng": 139.6978433,
    "tel": "03-6410-5711",
    "url": "http://www.ikegami.or.jp",
    "pref": "東京都",
    "city": "大田区",
    "category": "regular_patrol_nursing",
    "serviceType": "定期巡回・随時対応型訪問介護看護",
    "capacity": 15,
    "openDays": [],
    "openDaysNote": ""
  },
  {
    "id": "1390200101",
    "name": "定期巡回ステーションあいおい",
    "kana": "テイキジュンカイステーションアイオイ",
    "address": "東京都中央区佃3丁目１－１５",
    "lat": 35.6658733685226,
    "lng": 139.787315323943,
    "tel": "03-5548-2491",
    "url": "http://www.aioinosato.jp",
    "pref": "東京都",
    "city": "中央区",
    "category": "regular_patrol_nursing",
    "serviceType": "定期巡回・随時対応型訪問介護看護",
    "capacity": 0,
    "openDays": [],
    "openDaysNote": ""
  },
  {
    "id": "1391400742",
    "name": "SOMPOケア中野定期巡回",
    "kana": "ソンポケアナカノテイキジュンカイ",
    "address": "東京都中野区中野三丁目33番18号フェルテ中野302号室 フェルテ中野302号室",
    "lat": 35.7029854,
    "lng": 139.6653383,
    "tel": "03-6382-8202",
    "url": "https://www.sompocare.com",
    "pref": "東京都",
    "city": "中野区",
    "category": "regular_patrol_nursing",
    "serviceType": "定期巡回・随時対応型訪問介護看護",
    "capacity": null,
    "openDays": [],
    "openDaysNote": ""
  },
  {
    "id": "1391400825",
    "name": "エイプレイス中野",
    "kana": "エイプレイスナカノ",
    "address": "東京都中野区中野5-24-18クロス・スクエアNAKANO901号 クロス・スクエアNAKANO901号",
    "lat": 35.7096374,
    "lng": 139.6694048,
    "tel": "03-5318-2550",
    "url": "https://www.a-place.co.jp/",
    "pref": "東京都",
    "city": "中野区",
    "category": "regular_patrol_nursing",
    "serviceType": "定期巡回・随時対応型訪問介護看護",
    "capacity": 0,
    "openDays": [],
    "openDaysNote": ""
  },
  {
    "id": "1391400585",
    "name": "やさしい手中野南口定期巡回・随時対応型訪問介護看護事業所",
    "kana": "ヤサシイテナカノミナミグチテイキジュンカイ・ズイジタイオウガタホウモンカイゴカンゴジギョウショ",
    "address": "東京都中野区中央3-50-9ワタナベセカンドビル2階 ワタナベセカンドビル2階",
    "lat": 35.7022025,
    "lng": 139.6731232,
    "tel": "050-1752-0657",
    "url": "https://search.yasashiite.com/detail/homonkaigo_nakanominamiguchi/",
    "pref": "東京都",
    "city": "中野区",
    "category": "regular_patrol_nursing",
    "serviceType": "定期巡回・随時対応型訪問介護看護",
    "capacity": 0,
    "openDays": [],
    "openDaysNote": ""
  },
  {
    "id": "1393200710",
    "name": "スマイル本町田",
    "kana": "スマイルホンマチダ",
    "address": "東京都町田市本町田1747-1スマイルClass本町田 スマイルClass本町田",
    "lat": 35.5599132,
    "lng": 139.4372675,
    "tel": "042-710-2220",
    "url": "",
    "pref": "東京都",
    "city": "町田市",
    "category": "regular_patrol_nursing",
    "serviceType": "定期巡回・随時対応型訪問介護看護",
    "capacity": 0,
    "openDays": [],
    "openDaysNote": ""
  },
  {
    "id": "1393200629",
    "name": "そよ風定期巡回まちだ",
    "kana": "ソヨカゼテイキジュンカイマチダ",
    "address": "東京都町田市成瀬が丘2－3－3SKlani102 SKlani102",
    "lat": 35.5336738,
    "lng": 139.4731182,
    "tel": "042－788－7220",
    "url": "",
    "pref": "東京都",
    "city": "町田市",
    "category": "regular_patrol_nursing",
    "serviceType": "定期巡回・随時対応型訪問介護看護",
    "capacity": 14,
    "openDays": [],
    "openDaysNote": ""
  },
  {
    "id": "1393200371",
    "name": "社会福祉法人賛育会　訪問巡回ステーション清風園",
    "kana": "シャカイフクシホウジンサンイクカイ　ホウモンジュンカイステーションセイフウエン",
    "address": "東京都町田市金井7-17-20",
    "lat": 35.5744124,
    "lng": 139.4622826,
    "tel": "042-737-5501",
    "url": "https://www.san-ikukai.or.jp/seifu-en/",
    "pref": "東京都",
    "city": "町田市",
    "category": "regular_patrol_nursing",
    "serviceType": "定期巡回・随時対応型訪問介護看護",
    "capacity": 0,
    "openDays": [],
    "openDaysNote": ""
  },
  {
    "id": "1393200728",
    "name": "町田せりがやVILLAGE定期巡回センター",
    "kana": "マチダセリガヤヴィレッジテイキジュンカイセンター",
    "address": "東京都町田市原町田4-27-33町田せりがやvillage 町田せりがやvillage",
    "lat": 35.5435886,
    "lng": 139.454497,
    "tel": "042‐707‐6120",
    "url": "",
    "pref": "東京都",
    "city": "町田市",
    "category": "regular_patrol_nursing",
    "serviceType": "定期巡回・随時対応型訪問介護看護",
    "capacity": null,
    "openDays": [],
    "openDaysNote": ""
  },
  {
    "id": "1393200678",
    "name": "定期巡回随時対応型訪問介護看護アットプレオ根岸",
    "kana": "テイキジュンカイズイジタイオウガタホウモンカイゴカンゴアットプレオネギシ",
    "address": "東京都町田市根岸2-30-10",
    "lat": 35.5750033,
    "lng": 139.4158142,
    "tel": "042-861-9170",
    "url": "https://at-care.co.jp/",
    "pref": "東京都",
    "city": "町田市",
    "category": "regular_patrol_nursing",
    "serviceType": "定期巡回・随時対応型訪問介護看護",
    "capacity": 0,
    "openDays": [],
    "openDaysNote": ""
  },
  {
    "id": "1394200206",
    "name": "SOMPOケア　調布　定期巡回",
    "kana": "ソンポケア　チョウフ　テイキジュンカイ",
    "address": "東京都調布市布田1-50-1フジヨシビル　501 フジヨシビル　501",
    "lat": 35.6575497,
    "lng": 139.5638102,
    "tel": "042-444-0926",
    "url": "",
    "pref": "東京都",
    "city": "調布市",
    "category": "regular_patrol_nursing",
    "serviceType": "定期巡回・随時対応型訪問介護看護",
    "capacity": 0,
    "openDays": [],
    "openDaysNote": ""
  },
  {
    "id": "1394200255",
    "name": "そよ風定期巡回　ちょうふ中央",
    "kana": "ソヨカゼテイキジュンカイ　チョウフチュウオウ",
    "address": "東京都調布市国領町1-4-3コーポエバグリーン1階 コーポエバグリーン1階",
    "lat": 35.6509381,
    "lng": 139.5518087,
    "tel": "042-443-6080",
    "url": "https://www.unimat-rc.co.jp/shisetsu-zaitaku/134615",
    "pref": "東京都",
    "city": "調布市",
    "category": "regular_patrol_nursing",
    "serviceType": "定期巡回・随時対応型訪問介護看護",
    "capacity": 0,
    "openDays": [],
    "openDaysNote": ""
  },
  {
    "id": "1394800161",
    "name": "ヘルパーステーションアルゴ",
    "kana": "ヘルパーステーションアルゴ",
    "address": "東京都東久留米市本町1-4-45アーク東久留米1階 アーク東久留米1階",
    "lat": 35.7588779,
    "lng": 139.531976,
    "tel": "042-420-1058",
    "url": "",
    "pref": "東京都",
    "city": "東久留米市",
    "category": "regular_patrol_nursing",
    "serviceType": "定期巡回・随時対応型訪問介護看護",
    "capacity": 0,
    "openDays": [],
    "openDaysNote": ""
  },
  {
    "id": "1392700090",
    "name": "ヘルパーステーション白光園",
    "kana": "ヘルパーステーションハッコウエン",
    "address": "東京都東村山市諏訪町２－２６－１",
    "lat": 35.7718922,
    "lng": 139.4636753,
    "tel": "０４２－３９７－５１２４",
    "url": "http://www.hakujujikai.or.jp",
    "pref": "東京都",
    "city": "東村山市",
    "category": "regular_patrol_nursing",
    "serviceType": "定期巡回・随時対応型訪問介護看護",
    "capacity": 0,
    "openDays": [],
    "openDaysNote": ""
  },
  {
    "id": "1393500093",
    "name": "やさしい手日野南平定期巡回・随時対応型訪問介護看護事業所",
    "kana": "ヤサシイテヒノミナミダイラテイキジュンカイ・ズイジタイオウガタホウモンカイゴカンゴジギョウショ",
    "address": "東京都日野市南平4－40－5ディーフェスタ日野 ディーフェスタ日野",
    "lat": 35.6582509,
    "lng": 139.398079,
    "tel": "050-1752－0664",
    "url": "http://www.yasashiite.com",
    "pref": "東京都",
    "city": "日野市",
    "category": "regular_patrol_nursing",
    "serviceType": "定期巡回・随時対応型訪問介護看護",
    "capacity": 0,
    "openDays": [],
    "openDaysNote": ""
  },
  {
    "id": "1392900831",
    "name": "ジョイステージ八王子24時間訪問介護看護ステーション",
    "kana": "ジョイステージハチオウジニジュウヨジカンホウモンカイゴカンゴステーション",
    "address": "東京都八王子市横川町924番地2",
    "lat": 35.66332,
    "lng": 139.2950042,
    "tel": "042-622-0101",
    "url": "http://www.joystage.com/",
    "pref": "東京都",
    "city": "八王子市",
    "category": "regular_patrol_nursing",
    "serviceType": "定期巡回・随時対応型訪問介護看護",
    "capacity": 0,
    "openDays": [],
    "openDaysNote": ""
  },
  {
    "id": "1392900344",
    "name": "城山介護24時間サービス",
    "kana": "シロヤマカイゴニジュウヨジカンサービス",
    "address": "東京都八王子市川町843-4ディーフェスタ高尾 ディーフェスタ高尾",
    "lat": 35.6722821713354,
    "lng": 139.282666675671,
    "tel": "042-668-7322",
    "url": "http://www.hachisei.or.jp",
    "pref": "東京都",
    "city": "八王子市",
    "category": "regular_patrol_nursing",
    "serviceType": "定期巡回・随時対応型訪問介護看護",
    "capacity": 70,
    "openDays": [],
    "openDaysNote": ""
  },
  {
    "id": "1392901037",
    "name": "定期巡回随時対応型訪問介護看護アットプレオ石川町",
    "kana": "テイキジュンカイズイジタイオウガタホウモンカイゴカンゴアットプレオイシカワマチ",
    "address": "東京都八王子市石川町702‐1",
    "lat": 35.6826063,
    "lng": 139.3683491,
    "tel": "042－649-9093",
    "url": "https://at-care.co.jp/",
    "pref": "東京都",
    "city": "八王子市",
    "category": "regular_patrol_nursing",
    "serviceType": "定期巡回・随時対応型訪問介護看護",
    "capacity": 0,
    "openDays": [],
    "openDaysNote": ""
  },
  {
    "id": "1392900773",
    "name": "偕楽園ホーム　定期巡回・随時対応型訪問介護看護事業所",
    "kana": "カイラクエンホーム　テイキジュンカイ・ズイジタイオウガタカイゴカンゴジギョウショ",
    "address": "東京都八王子宮下町９８３番地偕楽園ホーム 偕楽園ホーム",
    "lat": 35.7004824,
    "lng": 139.3123494,
    "tel": "042-659-3366",
    "url": "https://www.kairakuenhome.or.jp",
    "pref": "東京都",
    "city": "八王子市",
    "category": "regular_patrol_nursing",
    "serviceType": "定期巡回・随時対応型訪問介護看護",
    "capacity": null,
    "openDays": [],
    "openDaysNote": ""
  },
  {
    "id": "1391901194",
    "name": "Link板橋定期巡回",
    "kana": "リンクイタバシテイキジュンカイ",
    "address": "東京都板橋区中板橋４－１５藤井ビル１０５ 藤井ビル１０５",
    "lat": 35.7562263,
    "lng": 139.7004909,
    "tel": "03－6905－7119",
    "url": "https://carelinkteizyun.com/",
    "pref": "東京都",
    "city": "板橋区",
    "category": "regular_patrol_nursing",
    "serviceType": "定期巡回・随時対応型訪問介護看護",
    "capacity": 0,
    "openDays": [],
    "openDaysNote": ""
  },
  {
    "id": "1391900758",
    "name": "SOMPOケア　徳丸　定期巡回",
    "kana": "ソンポケア　トクマル　テイキジュンカイ",
    "address": "東京都板橋区徳丸2-17-9",
    "lat": 35.773858,
    "lng": 139.662725,
    "tel": "03-5922-6247",
    "url": "https://www.sompocare.com/",
    "pref": "東京都",
    "city": "板橋区",
    "category": "regular_patrol_nursing",
    "serviceType": "定期巡回・随時対応型訪問介護看護",
    "capacity": 0,
    "openDays": [],
    "openDaysNote": ""
  },
  {
    "id": "1391900881",
    "name": "SOMPOケア若木　定期巡回",
    "kana": "ソンポケアワカギ　テイキジュンカイ",
    "address": "東京都板橋区若木3-3-1",
    "lat": 35.7736762,
    "lng": 139.6772952,
    "tel": "03-5922-3397",
    "url": "https://www.sompocare.com",
    "pref": "東京都",
    "city": "板橋区",
    "category": "regular_patrol_nursing",
    "serviceType": "定期巡回・随時対応型訪問介護看護",
    "capacity": 10,
    "openDays": [],
    "openDaysNote": ""
  },
  {
    "id": "1391901020",
    "name": "アウケアホーム板橋・定期巡回",
    "kana": "アウケアホームイタバシ・テイキジュンカイ",
    "address": "東京都板橋区前野町2-4-5大商第一マンション201 大商第一マンション201",
    "lat": 35.7637529,
    "lng": 139.6902085,
    "tel": "03-6279-8670",
    "url": "https://pages.3s.care/hr/2022/",
    "pref": "東京都",
    "city": "板橋区",
    "category": "regular_patrol_nursing",
    "serviceType": "定期巡回・随時対応型訪問介護看護",
    "capacity": 100,
    "openDays": [],
    "openDaysNote": ""
  },
  {
    "id": "1391901236",
    "name": "アウケアホーム板橋北・定期巡回",
    "kana": "アウケアホームイタバシキタ・テイキジュンカイ",
    "address": "東京都板橋区高島平1-78-11エスタールビル302 エスタールビル302",
    "lat": 35.785791,
    "lng": 139.6728336,
    "tel": "03-6912-3090",
    "url": "https://3s.care/",
    "pref": "東京都",
    "city": "板橋区",
    "category": "regular_patrol_nursing",
    "serviceType": "定期巡回・随時対応型訪問介護看護",
    "capacity": 100,
    "openDays": [],
    "openDaysNote": ""
  },
  {
    "id": "1391900410",
    "name": "セントケア巡回ステーション板橋",
    "kana": "セントケアジュンカイステーションイタバシ",
    "address": "東京都板橋区上板橋1-16-6町田ビル１階 町田ビル１階",
    "lat": 35.7615721,
    "lng": 139.6776383,
    "tel": "359221091",
    "url": "",
    "pref": "東京都",
    "city": "板橋区",
    "category": "regular_patrol_nursing",
    "serviceType": "定期巡回・随時対応型訪問介護看護",
    "capacity": 35,
    "openDays": [],
    "openDaysNote": ""
  },
  {
    "id": "1391901244",
    "name": "ホームケア　ひより",
    "kana": "ホームケア　ヒヨリ",
    "address": "東京都板橋区幸町1-4",
    "lat": 35.7449974,
    "lng": 139.7011959,
    "tel": "368252642",
    "url": "https://kaigohiyori.com/",
    "pref": "東京都",
    "city": "板橋区",
    "category": "regular_patrol_nursing",
    "serviceType": "定期巡回・随時対応型訪問介護看護",
    "capacity": null,
    "openDays": [],
    "openDaysNote": ""
  },
  {
    "id": "1391900493",
    "name": "定期巡回・随時対応型サービスたかしまだいら",
    "kana": "テイキジュンカイ・ズイジタイオウガタサービスタカシマダイラ",
    "address": "東京都板橋区高島平5‐31‐8",
    "lat": 35.7876,
    "lng": 139.646462,
    "tel": "03-5968-5203",
    "url": "",
    "pref": "東京都",
    "city": "板橋区",
    "category": "regular_patrol_nursing",
    "serviceType": "定期巡回・随時対応型訪問介護看護",
    "capacity": 0,
    "openDays": [],
    "openDaysNote": ""
  },
  {
    "id": "1391900394",
    "name": "定期巡回・随時対応型訪問介護看護事業所むかいはら",
    "kana": "テイキジュンカイ・ズイジタイオウガタホウモンカイゴカンゴジギョウショムカイハラ",
    "address": "東京都板橋区向原3-7-7",
    "lat": 35.7466700325992,
    "lng": 139.684639585181,
    "tel": "03-5917-0751",
    "url": "http://www.kohoen.jp/",
    "pref": "東京都",
    "city": "板橋区",
    "category": "regular_patrol_nursing",
    "serviceType": "定期巡回・随時対応型訪問介護看護",
    "capacity": 0,
    "openDays": [],
    "openDaysNote": ""
  },
  {
    "id": "1391901087",
    "name": "定期巡回サービス土屋板橋",
    "kana": "テイキジュンカイサービスツチヤイタバシ",
    "address": "東京都板橋区小豆沢3-6-7小豆沢ローズハイム103 小豆沢ローズハイム103",
    "lat": 35.7767307,
    "lng": 139.6948866,
    "tel": "050-3188-5532",
    "url": "https://tcy.co.jp/service/teikijyunkai/",
    "pref": "東京都",
    "city": "板橋区",
    "category": "regular_patrol_nursing",
    "serviceType": "定期巡回・随時対応型訪問介護看護",
    "capacity": 0,
    "openDays": [],
    "openDaysNote": ""
  },
  {
    "id": "1390900460",
    "name": "ＳＯＭＰＯケア　品川　定期巡回",
    "kana": "ソンポケア　シナガワ　テイキジュンカイ",
    "address": "東京都品川区北品川3-11-16品川第一地域センタービル１階 品川第一地域センタービル１階",
    "lat": 35.6167270549151,
    "lng": 139.740053273507,
    "tel": "03-5479-7013",
    "url": "",
    "pref": "東京都",
    "city": "品川区",
    "category": "regular_patrol_nursing",
    "serviceType": "定期巡回・随時対応型訪問介護看護",
    "capacity": 0,
    "openDays": [],
    "openDaysNote": ""
  },
  {
    "id": "1393800345",
    "name": "ＳＯＭＰＯケア　府中　定期巡回",
    "kana": "ソンポケア　フチュウ　テイキジュンカイ",
    "address": "東京都府中市宮西町2-16-2府中第一生命ビル2階 府中第一生命ビル2階",
    "lat": 35.6698001,
    "lng": 139.4781053,
    "tel": "042-370-1992",
    "url": "https://www.sompocare.com",
    "pref": "東京都",
    "city": "府中市",
    "category": "regular_patrol_nursing",
    "serviceType": "定期巡回・随時対応型訪問介護看護",
    "capacity": 20,
    "openDays": [],
    "openDaysNote": ""
  },
  {
    "id": "1393300064",
    "name": "やさしい手　吉祥寺定期巡回随時対応型訪問介護看護事業所",
    "kana": "ヤサシイテ　キチジョウジテイキジュンカイズイジタイオウガタホウモンカイゴカンゴジギョウショ",
    "address": "東京都武蔵野市吉祥寺東町1-10-21西郊ﾋﾞﾙ3階 西郊ﾋﾞﾙ3階",
    "lat": 35.7060805,
    "lng": 139.582437,
    "tel": "050-1752-1340",
    "url": "http://www.yasashiite.com/subdomains/section/020/",
    "pref": "東京都",
    "city": "武蔵野市",
    "category": "regular_patrol_nursing",
    "serviceType": "定期巡回・随時対応型訪問介護看護",
    "capacity": 0,
    "openDays": [],
    "openDaysNote": ""
  },
  {
    "id": "1390500153",
    "name": "グッドライフケア２４",
    "kana": "グッドライフケア　ニジュウヨン",
    "address": "東京都文京区西片2-19-15",
    "lat": 35.7164002888946,
    "lng": 139.756982561386,
    "tel": "03-5844-6093",
    "url": "https://goodlifecare.co.jp/",
    "pref": "東京都",
    "city": "文京区",
    "category": "regular_patrol_nursing",
    "serviceType": "定期巡回・随時対応型訪問介護看護",
    "capacity": 0,
    "openDays": [],
    "openDaysNote": ""
  },
  {
    "id": "1390500351",
    "name": "せら定期巡回・随時訪問介護看護",
    "kana": "セラテイキジュンカイ・ズイジホウモンカイゴカンゴ",
    "address": "東京都文京区本郷3丁目15－2本郷二村ビル201 本郷二村ビル201",
    "lat": 35.7047421195209,
    "lng": 139.76163343373,
    "tel": "03－5840－7040",
    "url": "https://houkankesera.net",
    "pref": "東京都",
    "city": "文京区",
    "category": "regular_patrol_nursing",
    "serviceType": "定期巡回・随時対応型訪問介護看護",
    "capacity": 30,
    "openDays": [],
    "openDaysNote": ""
  },
  {
    "id": "1391600267",
    "name": "SOMPOケア　在宅老人ホーム　豊島　定期巡回",
    "kana": "ソンポケア　ザイタクロウジンホーム　トシマ　テイキジュンカイ",
    "address": "東京都豊島区東池袋5-44-15東信東池袋ビル４階 東信東池袋ビル４階",
    "lat": 35.7278009559944,
    "lng": 139.72657109348,
    "tel": "03-5962-0187",
    "url": "https://www.sompocare.com",
    "pref": "東京都",
    "city": "豊島区",
    "category": "regular_patrol_nursing",
    "serviceType": "定期巡回・随時対応型訪問介護看護",
    "capacity": 0,
    "openDays": [],
    "openDaysNote": ""
  },
  {
    "id": "1391600176",
    "name": "セントケア巡回ステーション豊島",
    "kana": "セントケアジュンカイステーショントシマ",
    "address": "東京都豊島区東池袋3-20-21広宣ビル2F 広宣ビル2F",
    "lat": 35.7302509,
    "lng": 139.7206072,
    "tel": "03-5928-2977",
    "url": "",
    "pref": "東京都",
    "city": "豊島区",
    "category": "regular_patrol_nursing",
    "serviceType": "定期巡回・随時対応型訪問介護看護",
    "capacity": 44,
    "openDays": [],
    "openDaysNote": ""
  },
  {
    "id": "1391700463",
    "name": "SOMPOケア　中十条　定期巡回",
    "kana": "ソンポケア　ナカジュウジョウ　テイキジュンカイ",
    "address": "東京都北区中十条1-4-7ｲﾝｸﾘｰｽﾋﾞﾙ301号室 ｲﾝｸﾘｰｽﾋﾞﾙ301号室",
    "lat": 35.7579341,
    "lng": 139.7301583,
    "tel": "03-5963-6809",
    "url": "",
    "pref": "東京都",
    "city": "北区",
    "category": "regular_patrol_nursing",
    "serviceType": "定期巡回・随時対応型訪問介護看護",
    "capacity": 14,
    "openDays": [],
    "openDaysNote": ""
  },
  {
    "id": "1391700620",
    "name": "エイプレイス赤羽",
    "kana": "エイプレイスアカバネ",
    "address": "東京都北区志茂4-39-5サンセゾン・Ⅰ　B1F サンセゾン・Ⅰ　B1F",
    "lat": 35.7803282,
    "lng": 139.7326901,
    "tel": "03-5939-1555",
    "url": "http://www.a-place.co.jp",
    "pref": "東京都",
    "city": "北区",
    "category": "regular_patrol_nursing",
    "serviceType": "定期巡回・随時対応型訪問介護看護",
    "capacity": 50,
    "openDays": [],
    "openDaysNote": ""
  },
  {
    "id": "1390700589",
    "name": "SOMPOケア東墨田　定期巡回",
    "kana": "ソンポケアヒガシスミダ　テイキジュンカイ",
    "address": "東京都墨田区東墨田2-3-18そんぽの家Ｓ東墨田ヒカリ そんぽの家Ｓ東墨田ヒカリ",
    "lat": 35.7183182776069,
    "lng": 139.832661914095,
    "tel": "03-5631-2258",
    "url": "https://www.sompocare.com/service/home/satsuki/H000309",
    "pref": "東京都",
    "city": "墨田区",
    "category": "regular_patrol_nursing",
    "serviceType": "定期巡回・随時対応型訪問介護看護",
    "capacity": 50,
    "openDays": [],
    "openDaysNote": ""
  },
  {
    "id": "1391000435",
    "name": "ＳＯＭＰＯケア　目黒　定期巡回",
    "kana": "ソンポケア　メグロ　テイキジュンカイ",
    "address": "東京都目黒区自由が丘1－20－19光進自由が丘ビルB1階一号室 光進自由が丘ビルB1階一号室",
    "lat": 35.6262695,
    "lng": 139.6724378,
    "tel": "03ｰ6421-1559",
    "url": "http://www.sompocare.com",
    "pref": "東京都",
    "city": "目黒区",
    "category": "regular_patrol_nursing",
    "serviceType": "定期巡回・随時対応型訪問介護看護",
    "capacity": 0,
    "openDays": [],
    "openDaysNote": ""
  },
  {
    "id": "1391000179",
    "name": "やさしい手学芸大学定期巡回・随時対応型訪問介護看護事業所",
    "kana": "ヤサシイテガクゲイガイガクテイキジュンカイズイジタイオウガタホウモンカイゴカンゴジギョウショ",
    "address": "東京都目黒区碑文谷５－２０－１ドゥオールビル２階２０１号 ドゥオールビル２階２０１号",
    "lat": 35.6245311,
    "lng": 139.6822565,
    "tel": "050-1752-0680",
    "url": "http://www.yasashiite.com/subdomains/section/211/",
    "pref": "東京都",
    "city": "目黒区",
    "category": "regular_patrol_nursing",
    "serviceType": "定期巡回・随時対応型訪問介護看護",
    "capacity": 0,
    "openDays": [],
    "openDaysNote": ""
  },
  {
    "id": "1393000227",
    "name": "SOMPOケア　立川　定期巡回",
    "kana": "ソンポケア　タチカワ　テイキジュンカイ",
    "address": "東京都立川市柏町4丁目75番3号",
    "lat": 35.7298976315409,
    "lng": 139.412185109002,
    "tel": "042-842-3967",
    "url": "https://www.sompocare.com/service/zaitaku/teikijunkai/Z000603",
    "pref": "東京都",
    "city": "立川市",
    "category": "regular_patrol_nursing",
    "serviceType": "定期巡回・随時対応型訪問介護看護",
    "capacity": 0,
    "openDays": [],
    "openDaysNote": ""
  },
  {
    "id": "1393000151",
    "name": "社会福祉法人三多摩福祉会　定期巡回・随時対応型訪問介護看護事業所コスモス立川",
    "kana": "シャカイフクシホウジンサンタマフクシカイ　テイキジュンカイ・ズイジタイオウガタホウモンカイゴカンゴジギョウショコスモスタチカワ",
    "address": "東京都立川市錦町1-16-14齋藤ビル101 齋藤ビル101",
    "lat": 35.6963387,
    "lng": 139.422559,
    "tel": "042-512-7877",
    "url": "http://3fuku.com",
    "pref": "東京都",
    "city": "立川市",
    "category": "regular_patrol_nursing",
    "serviceType": "定期巡回・随時対応型訪問介護看護",
    "capacity": 0,
    "openDays": [],
    "openDaysNote": ""
  },
  {
    "id": "1392000897",
    "name": "ＳＯＭＰＯケア　上石神井　定期巡回",
    "kana": "ソンポケアカミシャクジイテイキジュンカイ",
    "address": "東京都練馬区上石神井4-1-5成昇ビル1階 成昇ビル1階",
    "lat": 35.7268028150894,
    "lng": 139.590382702464,
    "tel": "03-5927-2231",
    "url": "http://www.sompocare.com",
    "pref": "東京都",
    "city": "練馬区",
    "category": "regular_patrol_nursing",
    "serviceType": "定期巡回・随時対応型訪問介護看護",
    "capacity": 25,
    "openDays": [],
    "openDaysNote": ""
  },
  {
    "id": "1392000855",
    "name": "SOMPOケア　大泉学園　定期巡回",
    "kana": "ソンポケアオオイズミガクエンテイキジュンカイ",
    "address": "東京都練馬区東大泉5-4-5田﨑店舗1階 田﨑店舗1階",
    "lat": 35.7472548575886,
    "lng": 139.590917635394,
    "tel": "03-5935-6023",
    "url": "http://www.sompocare.com",
    "pref": "東京都",
    "city": "練馬区",
    "category": "regular_patrol_nursing",
    "serviceType": "定期巡回・随時対応型訪問介護看護",
    "capacity": 0,
    "openDays": [],
    "openDaysNote": ""
  },
  {
    "id": "1392000889",
    "name": "SOMPOケア光が丘　定期巡回",
    "kana": "ソンポケアヒカリガオカテイキジュンカイ",
    "address": "東京都練馬区田柄5-14-11グリーンシティ恵マンション2階 グリーンシティ恵マンション2階",
    "lat": 35.7634141,
    "lng": 139.6359994,
    "tel": "03-5848-2782",
    "url": "https://www.sompocare.com",
    "pref": "東京都",
    "city": "練馬区",
    "category": "regular_patrol_nursing",
    "serviceType": "定期巡回・随時対応型訪問介護看護",
    "capacity": 0,
    "openDays": [],
    "openDaysNote": ""
  },
  {
    "id": "1392000863",
    "name": "ＳＯＭＰＯケア練馬　定期巡回",
    "kana": "ソンポケアネリマ　テイキジュンカイ",
    "address": "東京都練馬区豊玉北4-11-10東洋ライス東日本支店　1階 東洋ライス東日本支店　1階",
    "lat": 35.7353100748051,
    "lng": 139.6589903315,
    "tel": "03-6915-8786",
    "url": "http://www.sompocare.com",
    "pref": "東京都",
    "city": "練馬区",
    "category": "regular_patrol_nursing",
    "serviceType": "定期巡回・随時対応型訪問介護看護",
    "capacity": 14,
    "openDays": [],
    "openDaysNote": ""
  },
  {
    "id": "1392001218",
    "name": "そよ風定期巡回　えごたの森",
    "kana": "ソヨカゼテイキジュンカイ　エゴタノモリ",
    "address": "東京都練馬区豊玉中１－４ー１７デュオセーヌ江古田の森公園１階 デュオセーヌ江古田の森公園１階",
    "lat": 35.7293748,
    "lng": 139.6618376,
    "tel": "０３－５９１２－６９３７",
    "url": "http://www.sykz.co.jp",
    "pref": "東京都",
    "city": "練馬区",
    "category": "regular_patrol_nursing",
    "serviceType": "定期巡回・随時対応型訪問介護看護",
    "capacity": 0,
    "openDays": [],
    "openDaysNote": ""
  },
  {
    "id": "1392001184",
    "name": "定期巡回・随時対応サービスひのき大泉学園",
    "kana": "テイキジュンカイ・ズイジタイオウサービスヒノキオオイズミガクエン",
    "address": "東京都練馬区大泉学園町5-29-10",
    "lat": 35.7670686,
    "lng": 139.5794339,
    "tel": "03-5933-0177",
    "url": "https://c-connect-ooizumigakuen.com/",
    "pref": "東京都",
    "city": "練馬区",
    "category": "regular_patrol_nursing",
    "serviceType": "定期巡回・随時対応型訪問介護看護",
    "capacity": 0,
    "openDays": [],
    "openDaysNote": ""
  },
  {
    "id": "1392000608",
    "name": "定期巡回めぐみの会",
    "kana": "テイキジュンカイメグミノカイ",
    "address": "東京都練馬区石神井町５丁目３番１２号⽯神井公園ハイム1階 ⽯神井公園ハイム1階",
    "lat": 35.7388661000002,
    "lng": 139.606110450263,
    "tel": "03-6913-1632",
    "url": "https://www.meguminokai.info/",
    "pref": "東京都",
    "city": "練馬区",
    "category": "regular_patrol_nursing",
    "serviceType": "定期巡回・随時対応型訪問介護看護",
    "capacity": 30,
    "openDays": [],
    "openDaysNote": ""
  },
  {
    "id": "1392001325",
    "name": "定期巡回めぐみの会練馬",
    "kana": "テイキジュンカイメグミノカイネリマ",
    "address": "東京都練馬区中村3-5-10第2メディカルビル　201 第2メディカルビル　201",
    "lat": 35.7318487,
    "lng": 139.6411942,
    "tel": "03-5848-4402",
    "url": "http://www.medicalart.co.jp",
    "pref": "東京都",
    "city": "練馬区",
    "category": "regular_patrol_nursing",
    "serviceType": "定期巡回・随時対応型訪問介護看護",
    "capacity": 25,
    "openDays": [],
    "openDaysNote": ""
  }
]