[
  {
    "id": "990100455",
    "name": "コープ安心ケアシステムみどり",
    "kana": "コープアンシンケアシステムミドリ",
    "address": "栃木県宇都宮市緑5丁目13番8号特別養護老人ホームみどり内 特別養護老人ホームみどり内",
    "lat": 36.5140332,
    "lng": 139.8595746,
    "tel": "028-616-6551",
    "url": "http://fureai-coop.com/",
    "pref": "栃木県",
    "city": "宇都宮市",
    "category": "regular_patrol_nursing",
    "serviceType": "定期巡回・随時対応型訪問介護看護",
    "capacity": 0,
    "openDays": [],
    "openDaysNote": ""
  },
  {
    "id": "990100463",
    "name": "コミュニティーケア・イースト",
    "kana": "コミュニティーケア・イースト",
    "address": "栃木県宇都宮市鐺山町1983特別養護老人ホームマイホームきよはら 特別養護老人ホームマイホームきよはら",
    "lat": 36.5387033,
    "lng": 139.9759271,
    "tel": "028-667-9258",
    "url": "www.kiyohara.jp",
    "pref": "栃木県",
    "city": "宇都宮市",
    "category": "regular_patrol_nursing",
    "serviceType": "定期巡回・随時対応型訪問介護看護",
    "capacity": null,
    "openDays": [],
    "openDaysNote": ""
  },
  {
    "id": "990100620",
    "name": "さくらがおか定期巡回型訪問介護看護",
    "kana": "サクラガオカテイキジュンカイガタホウモンカイゴカンゴ",
    "address": "栃木県宇都宮市桜2-3-5さくらがおか定期巡回型訪問介護看護 さくらがおか定期巡回型訪問介護看護",
    "lat": 36.5656801,
    "lng": 139.8680438,
    "tel": "028-688-0116",
    "url": "",
    "pref": "栃木県",
    "city": "宇都宮市",
    "category": "regular_patrol_nursing",
    "serviceType": "定期巡回・随時対応型訪問介護看護",
    "capacity": 0,
    "openDays": [],
    "openDaysNote": ""
  },
  {
    "id": "990100950",
    "name": "定期巡回型訪問介護看護ひだまり",
    "kana": "テイキジュンカイガタホウモンカイゴカンゴヒダマリ",
    "address": "栃木県宇都宮市川俣町900‐1",
    "lat": 36.6047504810997,
    "lng": 139.908014237959,
    "tel": "028‐616‐3460",
    "url": "https://www.toyosato-g.or.jp",
    "pref": "栃木県",
    "city": "宇都宮市",
    "category": "regular_patrol_nursing",
    "serviceType": "定期巡回・随時対応型訪問介護看護",
    "capacity": 30,
    "openDays": [],
    "openDaysNote": ""
  },
  {
    "id": "992600098",
    "name": "湯ったり・しおや",
    "kana": "ユッタリ　シオヤ",
    "address": "栃木県塩谷郡塩谷町大字玉生915番地サービス付き高齢者向け住宅　湯ったり・しおや　内 サービス付き高齢者向け住宅　湯ったり・しおや　内",
    "lat": 36.7753657803793,
    "lng": 139.860998410951,
    "tel": "0287-46-5563",
    "url": "",
    "pref": "栃木県",
    "city": "塩谷町",
    "category": "regular_patrol_nursing",
    "serviceType": "定期巡回・随時対応型訪問介護看護",
    "capacity": null,
    "openDays": [],
    "openDaysNote": ""
  },
  {
    "id": "990800286",
    "name": "コープ安心ケアシステム喜沢",
    "kana": "コープアンシンケアシステムキザワ",
    "address": "栃木県小山市大字喜沢1475-98",
    "lat": 36.3298589,
    "lng": 139.8024793,
    "tel": "0285-39-8557",
    "url": "https://fureai-coop.com/",
    "pref": "栃木県",
    "city": "小山市",
    "category": "regular_patrol_nursing",
    "serviceType": "定期巡回・随時対応型訪問介護看護",
    "capacity": 0,
    "openDays": [],
    "openDaysNote": ""
  },
  {
    "id": "990200263",
    "name": "足利ケアサービス24",
    "kana": "アシカガケアサービスニジュウヨン",
    "address": "栃木県足利市五十部町809-3",
    "lat": 36.3463333,
    "lng": 139.4236904,
    "tel": "0284-21-7630",
    "url": "",
    "pref": "栃木県",
    "city": "足利市",
    "category": "regular_patrol_nursing",
    "serviceType": "定期巡回・随時対応型訪問介護看護",
    "capacity": 24,
    "openDays": [],
    "openDaysNote": ""
  },
  {
    "id": "990300279",
    "name": "安心ネットとちぎ",
    "kana": "アンシンネットトチギ",
    "address": "栃木県栃木市城内町２丁目１７番２３号",
    "lat": 36.3709854,
    "lng": 139.7520313,
    "tel": "0282-21-8488",
    "url": "",
    "pref": "栃木県",
    "city": "栃木市",
    "category": "regular_patrol_nursing",
    "serviceType": "定期巡回・随時対応型訪問介護看護",
    "capacity": null,
    "openDays": [],
    "openDaysNote": ""
  },
  {
    "id": "991300351",
    "name": "定期巡回・随時対応型訪問介護看護事業所なすの",
    "kana": "テイキジュンカイ・ズイジタイオウガタホウモンカイゴカンゴジギョウショナスノ",
    "address": "栃木県那須塩原市埼玉6-1619",
    "lat": 36.9803936349234,
    "lng": 140.02324196627,
    "tel": "0287-74-2049",
    "url": "",
    "pref": "栃木県",
    "city": "那須塩原市",
    "category": "regular_patrol_nursing",
    "serviceType": "定期巡回・随時対応型訪問介護看護",
    "capacity": null,
    "openDays": [],
    "openDaysNote": ""
  },
  {
    "id": "992500165",
    "name": "ワンランドケア那須",
    "kana": "ワンランドケアナス",
    "address": "栃木県那須郡那須町大字豊原丙１３４０番地",
    "lat": 37.0582749,
    "lng": 140.111013,
    "tel": "287735960",
    "url": "http://www.oneland.co.jp",
    "pref": "栃木県",
    "city": "那須町",
    "category": "regular_patrol_nursing",
    "serviceType": "定期巡回・随時対応型訪問介護看護",
    "capacity": null,
    "openDays": [],
    "openDaysNote": ""
  }
]