[
  {
    "id": "4790300109",
    "name": "うるまケアセンター定期巡回・随時対応型訪問介護看護",
    "kana": "ウルマケアセンターテイキジュンカイズイジタイオウガタホウモンカイゴカンゴ",
    "address": "みどり町5丁目14番7号",
    "lat": 26.3765983,
    "lng": 127.8527223,
    "tel": "098-972-3661",
    "url": "",
    "pref": "沖縄県",
    "city": "うるま市",
    "category": "regular_patrol_nursing",
    "serviceType": "定期巡回・随時対応型訪問介護看護",
    "capacity": 0,
    "openDays": [],
    "openDaysNote": ""
  },
  {
    "id": "4790400347",
    "name": "たぴっく定期巡回ケアステーション",
    "kana": "タピックテイキジュンンカイケアステーション",
    "address": "沖縄県沖縄市比屋根2丁目1番22号地域ケアホームひやごん 地域ケアホームひやごん",
    "lat": 26.3164312,
    "lng": 127.8248614,
    "tel": "098-989-3779",
    "url": "",
    "pref": "沖縄県",
    "city": "沖縄市",
    "category": "regular_patrol_nursing",
    "serviceType": "定期巡回・随時対応型訪問介護看護",
    "capacity": 20,
    "openDays": [],
    "openDaysNote": ""
  },
  {
    "id": "4790100590",
    "name": "なは定期巡回ステーション",
    "kana": "ナハテイキジュンカイステーション",
    "address": "那覇市古島2丁目19番7号",
    "lat": 26.2272716,
    "lng": 127.7079647,
    "tel": "098-943-1132",
    "url": "http://nsleep.com/",
    "pref": "沖縄県",
    "city": "那覇市",
    "category": "regular_patrol_nursing",
    "serviceType": "定期巡回・随時対応型訪問介護看護",
    "capacity": 0,
    "openDays": [],
    "openDaysNote": ""
  },
  {
    "id": "4790100657",
    "name": "まつりか定期巡回ステーション",
    "kana": "マツリカテイキジュンカイステーション",
    "address": "沖縄県那覇市首里金城町三丁目32番地",
    "lat": 26.2147816,
    "lng": 127.7159995,
    "tel": "098-885-0992",
    "url": "https://shinseikai.okinawa/",
    "pref": "沖縄県",
    "city": "那覇市",
    "category": "regular_patrol_nursing",
    "serviceType": "定期巡回・随時対応型訪問介護看護",
    "capacity": 0,
    "openDays": [],
    "openDaysNote": ""
  },
  {
    "id": "4790100780",
    "name": "定期巡回ステーションいのり",
    "kana": "テイキジュンカイステーションイノリ",
    "address": "沖縄県那覇市若狭Ⅰ-18-11コーポグランソロ101 コーポグランソロ101",
    "lat": 26.2230215,
    "lng": 127.6745788,
    "tel": "098-955-3484",
    "url": "https://teijuninori.com",
    "pref": "沖縄県",
    "city": "那覇市",
    "category": "regular_patrol_nursing",
    "serviceType": "定期巡回・随時対応型訪問介護看護",
    "capacity": 30,
    "openDays": [],
    "openDaysNote": ""
  }
]