[
  {
    "id": "2591200056",
    "name": "訪問介護センターなでしこ",
    "kana": "ホウモンカイゴセンターナデシコ",
    "address": "滋賀県栗東市小柿4丁目1-1",
    "lat": 35.0242828,
    "lng": 135.9764147,
    "tel": "077-552-9930",
    "url": "http://www.saiseikai-shiga.jp/tankaiso/",
    "pref": "滋賀県",
    "city": "栗東市",
    "category": "regular_patrol_nursing",
    "serviceType": "定期巡回・随時対応型訪問介護看護",
    "capacity": 0,
    "openDays": [],
    "openDaysNote": ""
  },
  {
    "id": "2590700056",
    "name": "ゆうらいふケアステーション",
    "kana": "ユウライフケアステーション",
    "address": "守山市石田町735-3",
    "lat": 35.0749105835638,
    "lng": 135.972560765576,
    "tel": "077-599-0536",
    "url": "http://www.youlife.ne.jp",
    "pref": "滋賀県",
    "city": "守山市",
    "category": "regular_patrol_nursing",
    "serviceType": "定期巡回・随時対応型訪問介護看護",
    "capacity": 0,
    "openDays": [],
    "openDaysNote": ""
  },
  {
    "id": "2590600256",
    "name": "訪問介護センターなでしこ草津",
    "kana": "ホウモンカイゴセンターナデシコクサツ",
    "address": "草津市西渋川2丁目９－４８－１１",
    "lat": 35.0295262,
    "lng": 135.9638962,
    "tel": "077-516-0387",
    "url": "http://www.saiseikai-shiga.jp/tankaiso/",
    "pref": "滋賀県",
    "city": "草津市",
    "category": "regular_patrol_nursing",
    "serviceType": "定期巡回・随時対応型訪問介護看護",
    "capacity": 0,
    "openDays": [],
    "openDaysNote": ""
  },
  {
    "id": "2590101164",
    "name": "そよ風定期巡回おおつ月輪",
    "kana": "ソヨカゼテイキジュンカイオオツツキノワ",
    "address": "月輪三丁目２４－２",
    "lat": 34.9850472,
    "lng": 135.941,
    "tel": "077-544-5830",
    "url": "https://www.sykz.co.jp/shisetsu-zaitaku/253335",
    "pref": "滋賀県",
    "city": "大津市",
    "category": "regular_patrol_nursing",
    "serviceType": "定期巡回・随時対応型訪問介護看護",
    "capacity": null,
    "openDays": [],
    "openDaysNote": ""
  },
  {
    "id": "2590101008",
    "name": "トゥインクル定期巡回サービス瀬田",
    "kana": "トゥインクルテイキジュンカイサービスセタ",
    "address": "滋賀県大津市大萱4丁目6番地1号",
    "lat": 34.9862486,
    "lng": 135.9174885,
    "tel": "077-526-7787",
    "url": "",
    "pref": "滋賀県",
    "city": "大津市",
    "category": "regular_patrol_nursing",
    "serviceType": "定期巡回・随時対応型訪問介護看護",
    "capacity": null,
    "openDays": [],
    "openDaysNote": ""
  },
  {
    "id": "2590200339",
    "name": "定期巡回・随時対応型訪問介護看護事業所あったかステーション24Nひこね",
    "kana": "テイキジュンカイズイジタイオウガタホウモンカイゴカンゴジギョウショアッタカステーション２４エヌヒコネ",
    "address": "滋賀県彦根市地蔵町73-2",
    "lat": 35.256272,
    "lng": 136.2693413,
    "tel": "0749-23-3039",
    "url": "wttps://www.iscare.co.jp",
    "pref": "滋賀県",
    "city": "彦根市",
    "category": "regular_patrol_nursing",
    "serviceType": "定期巡回・随時対応型訪問介護看護",
    "capacity": 25,
    "openDays": [],
    "openDaysNote": ""
  },
  {
    "id": "2590200180",
    "name": "定期巡回・随時対応型訪問介護看護事業所あったかステーション２４Sひこね",
    "kana": "テイキジュンカイ・ズイジタイオウガタホウモンカイゴカンゴジギョウショアッタカステーション２４エスヒコネ",
    "address": "滋賀県彦根市甘呂町491",
    "lat": 35.2466417850449,
    "lng": 136.22461948903,
    "tel": "0749-25-0611",
    "url": "",
    "pref": "滋賀県",
    "city": "彦根市",
    "category": "regular_patrol_nursing",
    "serviceType": "定期巡回・随時対応型訪問介護看護",
    "capacity": 0,
    "openDays": [],
    "openDaysNote": ""
  },
  {
    "id": "2591300070",
    "name": "あいむ野洲定期巡回・随時対応訪問介護看護",
    "kana": "アイムヤステイキジュンカイ・ズイジタイオウガタホウモンカイゴカンゴ",
    "address": "富波乙190番地",
    "lat": 35.0760584,
    "lng": 136.032383,
    "tel": "077-518-1171",
    "url": "http://k-aimu.co.jp",
    "pref": "滋賀県",
    "city": "野洲市",
    "category": "regular_patrol_nursing",
    "serviceType": "定期巡回・随時対応型訪問介護看護",
    "capacity": 0,
    "openDays": [],
    "openDaysNote": ""
  }
]