[
  {
    "id": "4391100080",
    "name": "金森会２４時間ケアサービス(サテライト)",
    "kana": "カナモリカイニジュウヨジカンケアサービス（サテライト）",
    "address": "熊本県宇土市築籠町139番地4",
    "lat": 32.6894766054015,
    "lng": 130.661878202118,
    "tel": "0964-23-5266",
    "url": "http://www.kanamori.or.jp/",
    "pref": "熊本県",
    "city": "宇土市",
    "category": "regular_patrol_nursing",
    "serviceType": "定期巡回・随時対応型訪問介護看護",
    "capacity": 0,
    "openDays": [],
    "openDaysNote": ""
  },
  {
    "id": "4392600187",
    "name": "定期巡回・随時対応型訪問介護看護ステーションひかり野Ⅱ",
    "kana": "テイキジュンカイズイジタイオウガタホウモンカイゴカンゴステイションヒカリノ２",
    "address": "熊本県菊池郡菊陽町光の森１丁目16-5ダイコー光の森303号",
    "lat": 32.8589805,
    "lng": 130.7783426,
    "tel": "０９６－２８５－７２８４",
    "url": "",
    "pref": "熊本県",
    "city": "菊陽町",
    "category": "regular_patrol_nursing",
    "serviceType": "定期巡回・随時対応型訪問介護看護",
    "capacity": 10,
    "openDays": [],
    "openDaysNote": ""
  },
  {
    "id": "4390103010",
    "name": "ケアネットはなぞの",
    "kana": "ケアネットハナゾノ",
    "address": "熊本県熊本市西区花園1-12-8",
    "lat": 32.812385735917,
    "lng": 130.696496345369,
    "tel": "096-247-6520",
    "url": "",
    "pref": "熊本県",
    "city": "熊本市西区",
    "category": "regular_patrol_nursing",
    "serviceType": "定期巡回・随時対応型訪問介護看護",
    "capacity": 0,
    "openDays": [],
    "openDaysNote": ""
  },
  {
    "id": "4390101394",
    "name": "せいじのヘルパーステーション",
    "kana": "セイジノヘルパーステーション",
    "address": "熊本県熊本市西区島崎２丁目１１－１３",
    "lat": 32.8094659,
    "lng": 130.6907038,
    "tel": "090-3935-3664",
    "url": "http://www.seijino.or.jp",
    "pref": "熊本県",
    "city": "熊本市西区",
    "category": "regular_patrol_nursing",
    "serviceType": "定期巡回・随時対応型訪問介護看護",
    "capacity": null,
    "openDays": [],
    "openDaysNote": ""
  },
  {
    "id": "4390102871",
    "name": "ケアコールセンター結",
    "kana": "ケアコールセンターユイ",
    "address": "帯山4-29-25カーサ帯山A-102号室 カーサ帯山A-102号室",
    "lat": 32.8021738245882,
    "lng": 130.751249133679,
    "tel": "096-285-6368",
    "url": "https://soshin-care.co.jp/index.html",
    "pref": "熊本県",
    "city": "熊本市中央区",
    "category": "regular_patrol_nursing",
    "serviceType": "定期巡回・随時対応型訪問介護看護",
    "capacity": null,
    "openDays": [],
    "openDaysNote": ""
  },
  {
    "id": "4390103531",
    "name": "テージュン",
    "kana": "テージュン",
    "address": "九品寺2丁目2-21",
    "lat": 32.7982956,
    "lng": 130.7177727,
    "tel": "096-223-5864",
    "url": "https://www.te-jun.com/",
    "pref": "熊本県",
    "city": "熊本市中央区",
    "category": "regular_patrol_nursing",
    "serviceType": "定期巡回・随時対応型訪問介護看護",
    "capacity": 20,
    "openDays": [],
    "openDaysNote": ""
  },
  {
    "id": "4390102806",
    "name": "定期巡回サービス　グッドファイブ",
    "kana": "テイキジュンカイサービスグッドファイブ",
    "address": "熊本県熊本市中央区琴平2-6-44",
    "lat": 32.7857829,
    "lng": 130.7065288,
    "tel": "096-374-8778",
    "url": "http://www.good-five.com",
    "pref": "熊本県",
    "city": "熊本市中央区",
    "category": "regular_patrol_nursing",
    "serviceType": "定期巡回・随時対応型訪問介護看護",
    "capacity": 0,
    "openDays": [],
    "openDaysNote": ""
  },
  {
    "id": "4390102509",
    "name": "ライフサポート訪問介護ステーション",
    "kana": "ライフサポートホウモンカイゴステーション",
    "address": "熊本県熊本市東区戸島西1丁目23番63号小規模多機能ホームいつでんきなっせ　２Ｆ 小規模多機能ホームいつでんきなっせ　２Ｆ",
    "lat": 32.8094165,
    "lng": 130.7860164,
    "tel": "096-214-6600",
    "url": "http://www.kinasse.jp",
    "pref": "熊本県",
    "city": "熊本市東区",
    "category": "regular_patrol_nursing",
    "serviceType": "定期巡回・随時対応型訪問介護看護",
    "capacity": null,
    "openDays": [],
    "openDaysNote": ""
  },
  {
    "id": "4390103242",
    "name": "定期巡回サービス土屋熊本",
    "kana": "テイキンジュンカイサービスツチヤクマモト",
    "address": "熊本県熊本市東区花立2丁目11-29",
    "lat": 32.7802418,
    "lng": 130.7757719,
    "tel": "050-3188-8269",
    "url": "https://teikijunkai.net/",
    "pref": "熊本県",
    "city": "熊本市東区",
    "category": "regular_patrol_nursing",
    "serviceType": "定期巡回・随時対応型訪問介護看護",
    "capacity": 45,
    "openDays": [],
    "openDaysNote": ""
  },
  {
    "id": "4390103564",
    "name": "ケアネットワークひゅうが　田迎",
    "kana": "ケアネットワーク　ヒュウガ　タムカエ",
    "address": "熊本県熊本市南区田迎3丁目11－18",
    "lat": 32.7772725,
    "lng": 130.7146971,
    "tel": "096-283-6031",
    "url": "https://www.hyuga-primary.care/ja/index.html",
    "pref": "熊本県",
    "city": "熊本市南区",
    "category": "regular_patrol_nursing",
    "serviceType": "定期巡回・随時対応型訪問介護看護",
    "capacity": 0,
    "openDays": [],
    "openDaysNote": ""
  },
  {
    "id": "4390103556",
    "name": "御幸病院訪問介護事業所",
    "kana": "ミユキビョウインホウモンカイゴジギョウショ",
    "address": "熊本県熊本市南区御幸笛田3丁目10番10号",
    "lat": 32.7563132,
    "lng": 130.7033419,
    "tel": "096-284-1050",
    "url": "ｗｗｗ.miyukinosato.or.jp",
    "pref": "熊本県",
    "city": "熊本市南区",
    "category": "regular_patrol_nursing",
    "serviceType": "定期巡回・随時対応型訪問介護看護",
    "capacity": 0,
    "openDays": [],
    "openDaysNote": ""
  },
  {
    "id": "4390103549",
    "name": "定期巡回サービス　クルト",
    "kana": "テイキジュンカイサービス　クルト",
    "address": "熊本市南区城南町下宮地497-1",
    "lat": 32.7018286,
    "lng": 130.7307869,
    "tel": "964280909",
    "url": "",
    "pref": "熊本県",
    "city": "熊本市南区",
    "category": "regular_patrol_nursing",
    "serviceType": "定期巡回・随時対応型訪問介護看護",
    "capacity": 0,
    "openDays": [],
    "openDaysNote": ""
  },
  {
    "id": "4390103580",
    "name": "むべの里定期巡回・随時対応型訪問介護事業所うえき",
    "kana": "ムベノサトテイキジュンカイ・ズイジタイオウガタホウモンカイゴジギョウショウエキ",
    "address": "熊本県北区植木町大和24番地5",
    "lat": 32.8836524,
    "lng": 130.6705645,
    "tel": "096-327-8488",
    "url": "",
    "pref": "熊本県",
    "city": "熊本市北区",
    "category": "regular_patrol_nursing",
    "serviceType": "定期巡回・随時対応型訪問介護看護",
    "capacity": 0,
    "openDays": [],
    "openDaysNote": ""
  },
  {
    "id": "4390103168",
    "name": "定期巡回サービス　ケンプロ２４",
    "kana": "テイキジュンカイサービス　ケンプロ２４",
    "address": "熊本県熊本市北区飛田4-5-25",
    "lat": 32.852165,
    "lng": 130.7252507,
    "tel": "096-341-2400",
    "url": "http://kenpro24.com/",
    "pref": "熊本県",
    "city": "熊本市北区",
    "category": "regular_patrol_nursing",
    "serviceType": "定期巡回・随時対応型訪問介護看護",
    "capacity": 0,
    "openDays": [],
    "openDaysNote": ""
  },
  {
    "id": "4390103457",
    "name": "定期巡回随時対応型訪問介護看護　ステーション　ひかり野Ⅲ",
    "kana": "テイキジュンカイズイジタイオウガタホウモンカイゴカンゴ　ステーション　ヒカリノスリー",
    "address": "熊本県熊本市北区八景水谷1丁目24番26号",
    "lat": 32.849835,
    "lng": 130.7251936,
    "tel": "096-343-5511",
    "url": "https://www.office-hikarino.jp/",
    "pref": "熊本県",
    "city": "熊本市北区",
    "category": "regular_patrol_nursing",
    "serviceType": "定期巡回・随時対応型訪問介護看護",
    "capacity": 0,
    "openDays": [],
    "openDaysNote": ""
  },
  {
    "id": "4391600147",
    "name": "むべの里　訪問介護事業所合志定期巡回随時対応型訪問介護看護",
    "kana": "ムベノサト　ホウモンカイゴジギョウショコウシテイキジュンカイズイジタイオウガタホウモンカイゴカンゴ",
    "address": "熊本県合志市豊岡1900番地の6",
    "lat": 32.872905,
    "lng": 130.7586562,
    "tel": "096-223-5248",
    "url": "",
    "pref": "熊本県",
    "city": "合志市",
    "category": "regular_patrol_nursing",
    "serviceType": "定期巡回・随時対応型訪問介護看護",
    "capacity": 0,
    "openDays": [],
    "openDaysNote": ""
  },
  {
    "id": "4391600139",
    "name": "定期巡回・随時対応型訪問介護看護ステーションひかり野Ⅰ",
    "kana": "テイキジュンカイ・ズイジタイオウガタホウモンカイゴカンゴステーションヒカリノワン",
    "address": "熊本県合志市須屋622-3ライフサポート須屋１F ライフサポート須屋１F",
    "lat": 32.8528787,
    "lng": 130.7265895,
    "tel": "096‐346‐9611",
    "url": "www.office-hikarino.com",
    "pref": "熊本県",
    "city": "合志市",
    "category": "regular_patrol_nursing",
    "serviceType": "定期巡回・随時対応型訪問介護看護",
    "capacity": 0,
    "openDays": [],
    "openDaysNote": ""
  },
  {
    "id": "4392800290",
    "name": "定期巡回・随時対応型訪問介護看護ステーションSUMUTOCODE",
    "kana": "テイキジュンカイズイジタイオウガタホウモンカイゴカンゴステーションスムトコデ",
    "address": "熊本県上益城郡山都町城平340番地1",
    "lat": 32.6893332,
    "lng": 130.9889357,
    "tel": "0967-72-9525",
    "url": "http://uniteon.jp",
    "pref": "熊本県",
    "city": "山都町",
    "category": "regular_patrol_nursing",
    "serviceType": "定期巡回・随時対応型訪問介護看護",
    "capacity": 0,
    "openDays": [],
    "openDaysNote": ""
  },
  {
    "id": "4392700169",
    "name": "24時間介護看護サービスはな",
    "kana": "２４ジカンカイゴカンゴサービスハナ",
    "address": "熊本県阿蘇郡南阿蘇村久石2715-1",
    "lat": 32.8196399530738,
    "lng": 131.03696965582,
    "tel": "080-4354-0024",
    "url": "https://www.minamiasocare.com/",
    "pref": "熊本県",
    "city": "南阿蘇村",
    "category": "regular_patrol_nursing",
    "serviceType": "定期巡回・随時対応型訪問介護看護",
    "capacity": 0,
    "openDays": [],
    "openDaysNote": ""
  },
  {
    "id": "4390200477",
    "name": "定期巡回ケアしらさぎおざや",
    "kana": "テイキジュンカイケアシラサギオザヤ",
    "address": "熊本県八代市千丁町太牟田1220-1",
    "lat": 32.5454852,
    "lng": 130.6409118,
    "tel": "0965-30-1251",
    "url": "http://www.sirasagi-care.co.jp/",
    "pref": "熊本県",
    "city": "八代市",
    "category": "regular_patrol_nursing",
    "serviceType": "定期巡回・随時対応型訪問介護看護",
    "capacity": null,
    "openDays": [],
    "openDaysNote": ""
  }
]