[
  {
    "id": "1790700106",
    "name": "コールナウ福の神",
    "kana": "コールナウフクノカミ",
    "address": "石川県羽咋市四柳町つ17番地",
    "lat": 36.9337234,
    "lng": 136.8579364,
    "tel": "0767-26-8010",
    "url": "http://www.swkouwa.com",
    "pref": "石川県",
    "city": "羽咋市",
    "category": "regular_patrol_nursing",
    "serviceType": "定期巡回・随時対応型訪問介護看護",
    "capacity": 30,
    "openDays": [],
    "openDaysNote": ""
  },
  {
    "id": "1790600314",
    "name": "いまケア２４",
    "kana": "イマケア　ニジュウヨン",
    "address": "石川県加賀市作見町リ77萌和会介護サポートセンター　２階 萌和会介護サポートセンター　２階",
    "lat": 36.3167299,
    "lng": 136.3502661,
    "tel": "0761-75-2101",
    "url": "http://houwakai-g.com/",
    "pref": "石川県",
    "city": "加賀市",
    "category": "regular_patrol_nursing",
    "serviceType": "定期巡回・随時対応型訪問介護看護",
    "capacity": 0,
    "openDays": [],
    "openDaysNote": ""
  },
  {
    "id": "1790100620",
    "name": "24時間定期巡回・随時対応型訪問介護看護事業所ほがらかケア24",
    "kana": "24ジカンテイキジュンカイ・ズイジタイオウガタホウモンカイゴカンゴジギョウショホガラカケア24",
    "address": "石川県金沢市本江町12番10号",
    "lat": 36.5685461,
    "lng": 136.6325702,
    "tel": "076-291-2901",
    "url": "http://www.kma.jp/yasuda/",
    "pref": "石川県",
    "city": "金沢市",
    "category": "regular_patrol_nursing",
    "serviceType": "定期巡回・随時対応型訪問介護看護",
    "capacity": 0,
    "openDays": [],
    "openDaysNote": ""
  },
  {
    "id": "1790101412",
    "name": "ミルス定期巡回・随時対応型訪問介護",
    "kana": "ミルステイキジュンカイ・ズイジタイオウガタホウモンカイゴカンゴ",
    "address": "松村５丁目２番地桑沢ビル３０２号 桑沢ビル３０２号",
    "lat": 36.5907158,
    "lng": 136.6131106,
    "tel": "076-218-4301",
    "url": "",
    "pref": "石川県",
    "city": "金沢市",
    "category": "regular_patrol_nursing",
    "serviceType": "定期巡回・随時対応型訪問介護看護",
    "capacity": null,
    "openDays": [],
    "openDaysNote": ""
  },
  {
    "id": "1791300054",
    "name": "定期巡回・随時対応型訪問介護看護",
    "kana": "テイキジュンカイ・ズイジタイオウガタホウモンカイゴカンゴ",
    "address": "石川県野々市市押野1丁目３１番地",
    "lat": 36.5426253,
    "lng": 136.6118914,
    "tel": "076－287－5810",
    "url": "oshino@temariyakkyoku.com",
    "pref": "石川県",
    "city": "野々市市",
    "category": "regular_patrol_nursing",
    "serviceType": "定期巡回・随時対応型訪問介護看護",
    "capacity": null,
    "openDays": [],
    "openDaysNote": ""
  },
  {
    "id": "1790400137",
    "name": "コールナウみんなの詩",
    "kana": "コールナウミンナノウタ",
    "address": "石川県輪島市堀町12字6番地",
    "lat": 37.3949366,
    "lng": 136.8921238,
    "tel": "0768-22-1313",
    "url": "http://www.swkouwa.com",
    "pref": "石川県",
    "city": "輪島市",
    "category": "regular_patrol_nursing",
    "serviceType": "定期巡回・随時対応型訪問介護看護",
    "capacity": 0,
    "openDays": [],
    "openDaysNote": ""
  }
]