[
  {
    "id": "1494000175",
    "name": "クローバーいせはら療養支援事業所",
    "kana": "クローバーイセハラリョウヨウシエンジギョウショ",
    "address": "神奈川県伊勢原市上粕屋2545番地1",
    "lat": 35.4208092,
    "lng": 139.2912331,
    "tel": "0463-92-3287",
    "url": "https://clover-houmon.jala.co.jp/",
    "pref": "神奈川県",
    "city": "伊勢原市",
    "category": "regular_patrol_nursing",
    "serviceType": "定期巡回・随時対応型訪問介護看護",
    "capacity": 0,
    "openDays": [],
    "openDaysNote": ""
  },
  {
    "id": "1494000126",
    "name": "定期巡回・随時対応型訪問介護看護　絆",
    "kana": "テイキジュンカイ・ズイジタイオウガタホウモンカイゴカンゴ　キズナ",
    "address": "神奈川県伊勢原市高森3004-2",
    "lat": 35.4091004183634,
    "lng": 139.332108853473,
    "tel": "0463-75-9850",
    "url": "https://well-age.com/",
    "pref": "神奈川県",
    "city": "伊勢原市",
    "category": "regular_patrol_nursing",
    "serviceType": "定期巡回・随時対応型訪問介護看護",
    "capacity": 0,
    "openDays": [],
    "openDaysNote": ""
  },
  {
    "id": "1474001508",
    "name": "宝命24",
    "kana": "ホウメイトゥエンティフォー",
    "address": "神奈川県伊勢原市下糟屋3005-2",
    "lat": 35.4068201,
    "lng": 139.320474,
    "tel": "0463-92-3773",
    "url": "https://homeikango.com/",
    "pref": "神奈川県",
    "city": "伊勢原市",
    "category": "regular_patrol_nursing",
    "serviceType": "定期巡回・随時対応型訪問介護看護",
    "capacity": 0,
    "openDays": [],
    "openDaysNote": ""
  },
  {
    "id": "1491900914",
    "name": "よこすか　みかん",
    "kana": "ヨコスカ　ミカン",
    "address": "神奈川県横須賀市長沢１丁目3-15",
    "lat": 35.2019238,
    "lng": 139.6757642,
    "tel": "046-884-8453",
    "url": "https://kango-mikan.com/yokosuka/",
    "pref": "神奈川県",
    "city": "横須賀市",
    "category": "regular_patrol_nursing",
    "serviceType": "定期巡回・随時対応型訪問介護看護",
    "capacity": 0,
    "openDays": [],
    "openDaysNote": ""
  },
  {
    "id": "1491900492",
    "name": "太陽の家浦賀　定期巡回・随時対応型訪問介護看護",
    "kana": "タイヨウノイエウラガ　テイキジュンカイ・ズイジタイオウガタホウモンカイゴカンゴ",
    "address": "神奈川県横須賀市浦賀2－3－20太陽の家浦賀 太陽の家浦賀",
    "lat": 35.2538907,
    "lng": 139.708719,
    "tel": "046-874-9641",
    "url": "http://www.ui21.or.jp",
    "pref": "神奈川県",
    "city": "横須賀市",
    "category": "regular_patrol_nursing",
    "serviceType": "定期巡回・随時対応型訪問介護看護",
    "capacity": 0,
    "openDays": [],
    "openDaysNote": ""
  },
  {
    "id": "1493200354",
    "name": "横浜市福祉サービス協会　訪問介護看護あさひ",
    "kana": "ヨコハマシフクシサービスキョウカイ　ホウモンカイゴカンゴアサヒ",
    "address": "神奈川県横浜市旭区柏町１３１－５",
    "lat": 35.4518586,
    "lng": 139.5273798,
    "tel": "045-360-3296",
    "url": "http://www.hama-wel.or.jp/branch/detail/visitkaigoasahi/",
    "pref": "神奈川県",
    "city": "横浜市旭区",
    "category": "regular_patrol_nursing",
    "serviceType": "定期巡回・随時対応型訪問介護看護",
    "capacity": 0,
    "openDays": [],
    "openDaysNote": ""
  },
  {
    "id": "1493200305",
    "name": "銀の舞ケア24",
    "kana": "ギンノマイケア24",
    "address": "神奈川県横浜市旭区二俣川2-50-14コプレ二俣川オフィス905号 コプレ二俣川オフィス905号",
    "lat": 35.4641991803608,
    "lng": 139.532701866795,
    "tel": "045-364-9955",
    "url": "https://shuhokai.or.jp/office/asahi-ku/tz-ginmai.php",
    "pref": "神奈川県",
    "city": "横浜市旭区",
    "category": "regular_patrol_nursing",
    "serviceType": "定期巡回・随時対応型訪問介護看護",
    "capacity": 0,
    "openDays": [],
    "openDaysNote": ""
  },
  {
    "id": "1490700513",
    "name": "アイナース　磯子",
    "kana": "アイナース　イソゴ",
    "address": "神奈川県横浜市磯子区上町１－２８",
    "lat": 35.4256683,
    "lng": 139.6239416,
    "tel": "045-353-8156",
    "url": "https://inurse.life/",
    "pref": "神奈川県",
    "city": "横浜市磯子区",
    "category": "regular_patrol_nursing",
    "serviceType": "定期巡回・随時対応型訪問介護看護",
    "capacity": null,
    "openDays": [],
    "openDaysNote": ""
  },
  {
    "id": "1490700232",
    "name": "ハートケア　磯子",
    "kana": "ハートケア　イソゴ",
    "address": "神奈川県横浜市磯子区広地町7-12",
    "lat": 35.4169394,
    "lng": 139.6231851,
    "tel": "045-754-2911",
    "url": "http://kaigo-heart.wixsite.com/tukusiisogo",
    "pref": "神奈川県",
    "city": "横浜市磯子区",
    "category": "regular_patrol_nursing",
    "serviceType": "定期巡回・随時対応型訪問介護看護",
    "capacity": 0,
    "openDays": [],
    "openDaysNote": ""
  },
  {
    "id": "1490700158",
    "name": "磯風の謡ケア24",
    "kana": "イソカゼノウタケアニジュウヨン",
    "address": "神奈川県横浜市磯子区磯子3-8-20サムティレジデンス横濱磯子1階 サムティレジデンス横濱磯子1階",
    "lat": 35.4047884,
    "lng": 139.6194216,
    "tel": "045-353-8881",
    "url": "http://shuhokai.or.jp/office/isogo-ku/tz-isokaze.php",
    "pref": "神奈川県",
    "city": "横浜市磯子区",
    "category": "regular_patrol_nursing",
    "serviceType": "定期巡回・随時対応型訪問介護看護",
    "capacity": 0,
    "openDays": [],
    "openDaysNote": ""
  },
  {
    "id": "1490700406",
    "name": "悠ケア24",
    "kana": "ユウケアニジュウヨン",
    "address": "神奈川県横浜市磯子区原町6-15ラインズマンション102 ラインズマンション102",
    "lat": 35.4174176,
    "lng": 139.6282284,
    "tel": "045-750-5124",
    "url": "https://yu-noki.co.jp",
    "pref": "神奈川県",
    "city": "横浜市磯子区",
    "category": "regular_patrol_nursing",
    "serviceType": "定期巡回・随時対応型訪問介護看護",
    "capacity": null,
    "openDays": [],
    "openDaysNote": ""
  },
  {
    "id": "1493500449",
    "name": "SOMPOケア　横浜本郷台　定期巡回",
    "kana": "ソンポケア　ヨコハマホンゴウダイ　テイキジュンカイ",
    "address": "神奈川県横浜市栄区小菅ヶ谷1丁目22番5号",
    "lat": 35.3648879,
    "lng": 139.5449849,
    "tel": "045-892-0801",
    "url": "https://www.sompocare.com/service/zaitaku/teikijunkai/Z000946",
    "pref": "神奈川県",
    "city": "横浜市栄区",
    "category": "regular_patrol_nursing",
    "serviceType": "定期巡回・随時対応型訪問介護看護",
    "capacity": 0,
    "openDays": [],
    "openDaysNote": ""
  },
  {
    "id": "1493500175",
    "name": "フルライフ本郷台",
    "kana": "フルライフホンゴウダイ",
    "address": "神奈川県横浜市栄区公田町596-7橋本ビル201 橋本ビル201",
    "lat": 35.3630341,
    "lng": 139.5552061,
    "tel": "045-890-4322",
    "url": "https://www.fulllife.co.jp",
    "pref": "神奈川県",
    "city": "横浜市栄区",
    "category": "regular_patrol_nursing",
    "serviceType": "定期巡回・随時対応型訪問介護看護",
    "capacity": null,
    "openDays": [],
    "openDaysNote": ""
  },
  {
    "id": "1493500480",
    "name": "定期巡回・随時対応型訪問介護看護クロスハート栄・横浜",
    "kana": "テイキジュンカイ・ズイジタイオウガタホウモンカイゴカンゴクロスハートサカエ・ヨコハマ",
    "address": "神奈川県横浜市栄区公田町1020-5クロスハート栄・横浜 クロスハート栄・横浜",
    "lat": 35.3510391,
    "lng": 139.5584341,
    "tel": "045-894-5515",
    "url": "https://www.shinkoufukushikai.com/care/regularpatrol/sakae-patrol",
    "pref": "神奈川県",
    "city": "横浜市栄区",
    "category": "regular_patrol_nursing",
    "serviceType": "定期巡回・随時対応型訪問介護看護",
    "capacity": null,
    "openDays": [],
    "openDaysNote": ""
  },
  {
    "id": "1490800180",
    "name": "横浜市福祉サービス協会　訪問介護看護かなざわ",
    "kana": "ヨコハマシフクシサービスキョウカイ　ホウモンカイゴカンゴカナザワ",
    "address": "神奈川県横浜市金沢区泥亀1-17-15大西第3ビル2階 大西第3ビル2階",
    "lat": 35.3402388,
    "lng": 139.6236055,
    "tel": "045-780-5139",
    "url": "http://www.hama-wel.or.jp/branch/detail/visitkaigokanazawa/",
    "pref": "神奈川県",
    "city": "横浜市金沢区",
    "category": "regular_patrol_nursing",
    "serviceType": "定期巡回・随時対応型訪問介護看護",
    "capacity": 0,
    "openDays": [],
    "openDaysNote": ""
  },
  {
    "id": "1490800255",
    "name": "陽光の大地ケア24",
    "kana": "ヨウコウノダイチ　ケアニジュウヨン",
    "address": "神奈川県横浜市金沢区釜利谷東2-3-10いしかたビル4F いしかたビル4F",
    "lat": 35.3427688,
    "lng": 139.6183171,
    "tel": "045-349-4410",
    "url": "http://shuhokai.or.jp/maps/details/TZ_yoko.html",
    "pref": "神奈川県",
    "city": "横浜市金沢区",
    "category": "regular_patrol_nursing",
    "serviceType": "定期巡回・随時対応型訪問介護看護",
    "capacity": 30,
    "openDays": [],
    "openDaysNote": ""
  },
  {
    "id": "1491000640",
    "name": "ＳＯＭＰＯケア　横浜戸塚　定期巡回",
    "kana": "ソンポケア　ヨコハマトツカ　テイキジュンカイ",
    "address": "神奈川県横浜市戸塚区戸塚町145番地秀文堂ビル202号 秀文堂ビル202号",
    "lat": 35.3969878,
    "lng": 139.5315325,
    "tel": "045-869-2161",
    "url": "https://www.sompocare.com/",
    "pref": "神奈川県",
    "city": "横浜市戸塚区",
    "category": "regular_patrol_nursing",
    "serviceType": "定期巡回・随時対応型訪問介護看護",
    "capacity": null,
    "openDays": [],
    "openDaysNote": ""
  },
  {
    "id": "1491000467",
    "name": "希望の大地ケア24",
    "kana": "キボウノダイチケアニジュウヨン",
    "address": "神奈川県横浜市戸塚区品濃町545-30クライテリア東戸塚1階 クライテリア東戸塚1階",
    "lat": 35.4332388,
    "lng": 139.5587522,
    "tel": "045-443-5021",
    "url": "https://www.shuhokai.or.jp/office/totsuka-ku/tz-kibo.php",
    "pref": "神奈川県",
    "city": "横浜市戸塚区",
    "category": "regular_patrol_nursing",
    "serviceType": "定期巡回・随時対応型訪問介護看護",
    "capacity": 0,
    "openDays": [],
    "openDaysNote": ""
  },
  {
    "id": "1493100711",
    "name": "横浜市福祉サービス協会　訪問介護看護こうなん",
    "kana": "ヨコハマシフクシサービスキョウカイ　ホウモンカイゴコウナン",
    "address": "神奈川県横浜市港南区上大岡西1-12-5朝日生命上大岡ビル4階 朝日生命上大岡ビル4階",
    "lat": 35.3995024,
    "lng": 139.5883071,
    "tel": "045-556-5664",
    "url": "http://www.hama-wel.or.jp/",
    "pref": "神奈川県",
    "city": "横浜市港南区",
    "category": "regular_patrol_nursing",
    "serviceType": "定期巡回・随時対応型訪問介護看護",
    "capacity": 15,
    "openDays": [],
    "openDaysNote": ""
  },
  {
    "id": "1493100240",
    "name": "瑞穂の大地ケア24",
    "kana": "ミズホノダイチケアニジュウヨン",
    "address": "神奈川県横浜市港南区日野１－９－３３ＮＴＴ港南ビル１階 ＮＴＴ港南ビル１階",
    "lat": 35.3957608,
    "lng": 139.5868977,
    "tel": "045-349-4040",
    "url": "http://shuhokai.or.jp/maps/details/TZ_mizuho.html",
    "pref": "神奈川県",
    "city": "横浜市港南区",
    "category": "regular_patrol_nursing",
    "serviceType": "定期巡回・随時対応型訪問介護看護",
    "capacity": 0,
    "openDays": [],
    "openDaysNote": ""
  },
  {
    "id": "1490900816",
    "name": "横浜市福祉サービス協会　訪問介護看護こうほく",
    "kana": "ヨコハマシフクシサービスキョウカイホウモンカイゴカンゴコウホク",
    "address": "神奈川県横浜市港北区新横浜2-5-9新横浜フジカビル8階 新横浜フジカビル8階",
    "lat": 35.5096779,
    "lng": 139.615634,
    "tel": "045-273-7832",
    "url": "https://www.hama-wel.or.jp/branch/visitkaigokohoku/news/",
    "pref": "神奈川県",
    "city": "横浜市港北区",
    "category": "regular_patrol_nursing",
    "serviceType": "定期巡回・随時対応型訪問介護看護",
    "capacity": 0,
    "openDays": [],
    "openDaysNote": ""
  },
  {
    "id": "1490900261",
    "name": "定期巡回　ゆい　港北",
    "kana": "テイキジュンカイ　ユイ　コウホク",
    "address": "神奈川県横浜市港北区日吉本町1-27-37",
    "lat": 35.5524031,
    "lng": 139.6447168,
    "tel": "045-534-5511",
    "url": "http://www.welfare-yui.com/patrol.html#patrol_kohoku",
    "pref": "神奈川県",
    "city": "横浜市港北区",
    "category": "regular_patrol_nursing",
    "serviceType": "定期巡回・随時対応型訪問介護看護",
    "capacity": 0,
    "openDays": [],
    "openDaysNote": ""
  },
  {
    "id": "1490900808",
    "name": "定期巡回サービス土屋横浜港北",
    "kana": "テイキジュンカイサービスツチヤヨコハマコウホク",
    "address": "神奈川県横浜市港北区小机町2557-1テラスアルコⅠC テラスアルコⅠC",
    "lat": 35.5075725,
    "lng": 139.6013278,
    "tel": "050-1809-2750",
    "url": "https://teikijunkai.net/",
    "pref": "神奈川県",
    "city": "横浜市港北区",
    "category": "regular_patrol_nursing",
    "serviceType": "定期巡回・随時対応型訪問介護看護",
    "capacity": 20,
    "openDays": [],
    "openDaysNote": ""
  },
  {
    "id": "1490900774",
    "name": "福祉クラブ生協　定期巡回・随時対応サービス　港北事業所",
    "kana": "フクシクラブセイキョウ　テイキジュンカイ・ズイジタイオウサービス　コウホクジギョウショ",
    "address": "神奈川県横浜市港北区新羽町868有料老人ホーム　きらり港北 有料老人ホーム　きらり港北",
    "lat": 35.5239424,
    "lng": 139.6144111,
    "tel": "045-642-3364",
    "url": "",
    "pref": "神奈川県",
    "city": "横浜市港北区",
    "category": "regular_patrol_nursing",
    "serviceType": "定期巡回・随時対応型訪問介護看護",
    "capacity": null,
    "openDays": [],
    "openDaysNote": ""
  },
  {
    "id": "1490900303",
    "name": "楡の大樹ケア２４",
    "kana": "ニレノタイジュ　ケア24",
    "address": "神奈川県横浜市港北区新横浜2-4-17新横浜千歳観光第2ビル3階 新横浜千歳観光第2ビル3階",
    "lat": 35.5088620960426,
    "lng": 139.616713936277,
    "tel": "045-642-8309",
    "url": "https://shuhokai.or.jp/office/kohoku-ku/tz-nire.php",
    "pref": "神奈川県",
    "city": "横浜市港北区",
    "category": "regular_patrol_nursing",
    "serviceType": "定期巡回・随時対応型訪問介護看護",
    "capacity": 0,
    "openDays": [],
    "openDaysNote": ""
  },
  {
    "id": "1490200191",
    "name": "わかたけ24ケアステーション神奈川",
    "kana": "ワカタケニジュウヨンケアステーションカナガワ",
    "address": "神奈川県横浜市神奈川区平川町２-４ヤマザキビル2階 ヤマザキビル2階",
    "lat": 35.4794425,
    "lng": 139.6287558,
    "tel": "045-488-5300",
    "url": "https://wakatake.net/",
    "pref": "神奈川県",
    "city": "横浜市神奈川区",
    "category": "regular_patrol_nursing",
    "serviceType": "定期巡回・随時対応型訪問介護看護",
    "capacity": 0,
    "openDays": [],
    "openDaysNote": ""
  },
  {
    "id": "1490200738",
    "name": "横浜市福祉サービス協会訪問介護看護かながわ",
    "kana": "ヨコハマシフクシサービスキョウカイホウモンカイゴカンゴカナガワ",
    "address": "神奈川県横浜市神奈川区反町1-7-1US-1ビル7階 US-1ビル7階",
    "lat": 35.474406,
    "lng": 139.6282074,
    "tel": "045-279-0638",
    "url": "https://www.hama-wel.or.jp/",
    "pref": "神奈川県",
    "city": "横浜市神奈川区",
    "category": "regular_patrol_nursing",
    "serviceType": "定期巡回・随時対応型訪問介護看護",
    "capacity": 0,
    "openDays": [],
    "openDaysNote": ""
  },
  {
    "id": "1490200266",
    "name": "椚の大樹ケア24",
    "kana": "クヌギノタイジュケアニジュウヨン",
    "address": "神奈川県横浜市神奈川区西神奈川1-9-2グレース竹和壱番館2階 グレース竹和壱番館2階",
    "lat": 35.4790148,
    "lng": 139.6308695,
    "tel": "045-620-4447",
    "url": "http://www.care-net.co.jp/shonandai/",
    "pref": "神奈川県",
    "city": "横浜市神奈川区",
    "category": "regular_patrol_nursing",
    "serviceType": "定期巡回・随時対応型訪問介護看護",
    "capacity": 0,
    "openDays": [],
    "openDaysNote": ""
  },
  {
    "id": "1493400285",
    "name": "横浜市福祉サービス協会　訪問介護看護せや",
    "kana": "ヨコハマシフクシサービスキョウカイ　ホウモンカイゴカンゴセヤ",
    "address": "神奈川県横浜市瀬谷区三ツ境100-6海發ビル１階 海發ビル１階",
    "lat": 35.4669279745015,
    "lng": 139.501595750411,
    "tel": "045-369-7135",
    "url": "http://www.hama-wel.or.jp",
    "pref": "神奈川県",
    "city": "横浜市瀬谷区",
    "category": "regular_patrol_nursing",
    "serviceType": "定期巡回・随時対応型訪問介護看護",
    "capacity": 0,
    "openDays": [],
    "openDaysNote": ""
  },
  {
    "id": "1490300082",
    "name": "横浜市福祉サービス協会　訪問介護看護にし",
    "kana": "ヨコハマシフクシサービスキョウカイ　ホウモンカイゴカンゴニシ",
    "address": "神奈川県横浜市西区桜木町六丁目３１番地５階 ５階",
    "lat": 35.4616279,
    "lng": 139.6191931,
    "tel": "045-227-6687",
    "url": "http://www.hama-wel.or.jp",
    "pref": "神奈川県",
    "city": "横浜市西区",
    "category": "regular_patrol_nursing",
    "serviceType": "定期巡回・随時対応型訪問介護看護",
    "capacity": 0,
    "openDays": [],
    "openDaysNote": ""
  },
  {
    "id": "1490300116",
    "name": "銀鈴の詩ケア24",
    "kana": "ギンレイノウタケアニジュウヨン",
    "address": "神奈川県横浜市西区平沼1-1-15ルピナス平沼2階 ルピナス平沼2階",
    "lat": 35.4608419,
    "lng": 139.6216623,
    "tel": "045-594-9531",
    "url": "http://shuhokai.or.jp/maps/details/TZ_ginrei.html",
    "pref": "神奈川県",
    "city": "横浜市西区",
    "category": "regular_patrol_nursing",
    "serviceType": "定期巡回・随時対応型訪問介護看護",
    "capacity": 0,
    "openDays": [],
    "openDaysNote": ""
  },
  {
    "id": "1493700247",
    "name": "エヌアイ在宅サービスステーション",
    "kana": "エヌアイザイタクサービスステーション",
    "address": "神奈川県横浜市青葉区市ケ尾町25-6",
    "lat": 35.5491415609092,
    "lng": 139.538549455785,
    "tel": "045-507-7712",
    "url": "http://www.nakagawa-tokushokai.com/",
    "pref": "神奈川県",
    "city": "横浜市青葉区",
    "category": "regular_patrol_nursing",
    "serviceType": "定期巡回・随時対応型訪問介護看護",
    "capacity": 0,
    "openDays": [],
    "openDaysNote": ""
  },
  {
    "id": "1493700346",
    "name": "わかたけ24ケアステーション　青葉",
    "kana": "ワカタケニジュウヨンケアステーション　アオバ",
    "address": "神奈川県横浜市青葉区奈良4-6-12",
    "lat": 35.5509163,
    "lng": 139.4827658,
    "tel": "045-962-3111",
    "url": "http://www.wakatake.net",
    "pref": "神奈川県",
    "city": "横浜市青葉区",
    "category": "regular_patrol_nursing",
    "serviceType": "定期巡回・随時対応型訪問介護看護",
    "capacity": 0,
    "openDays": [],
    "openDaysNote": ""
  },
  {
    "id": "1493700460",
    "name": "定期巡回　ゆい　青葉",
    "kana": "テイキジュンカイ　ユイ　アオバ",
    "address": "神奈川県横浜市青葉区あざみ野2-12-4小川ビル205 小川ビル205",
    "lat": 35.5684528,
    "lng": 139.5492757,
    "tel": "045-532-4747",
    "url": "http://www.welfare-yui.com/service/patrol.html",
    "pref": "神奈川県",
    "city": "横浜市青葉区",
    "category": "regular_patrol_nursing",
    "serviceType": "定期巡回・随時対応型訪問介護看護",
    "capacity": 30,
    "openDays": [],
    "openDaysNote": ""
  },
  {
    "id": "1493600264",
    "name": "横浜市福祉サービス協会　訪問介護看護いずみ",
    "kana": "ヨコハマシフクシサービスキョウカイ　ホウモンカイゴカンゴイズミ",
    "address": "神奈川県横浜市泉区和泉中央南4-1-3武藤ビル２階 武藤ビル２階",
    "lat": 35.41671,
    "lng": 139.4883694,
    "tel": "045-286-0016",
    "url": "http://www.hama-wel.or.jp/branch/detail/visitkaigoizumi/",
    "pref": "神奈川県",
    "city": "横浜市泉区",
    "category": "regular_patrol_nursing",
    "serviceType": "定期巡回・随時対応型訪問介護看護",
    "capacity": 0,
    "openDays": [],
    "openDaysNote": ""
  },
  {
    "id": "1493600207",
    "name": "花の生活館ケア24",
    "kana": "ハナノセイカツカンケアニジュウヨン",
    "address": "神奈川県横浜市泉区弥生台13-4横山ビル202 横山ビル202",
    "lat": 35.428217,
    "lng": 139.5065817,
    "tel": "045-810-5115",
    "url": "http://shuhokai.or.jp/",
    "pref": "神奈川県",
    "city": "横浜市泉区",
    "category": "regular_patrol_nursing",
    "serviceType": "定期巡回・随時対応型訪問介護看護",
    "capacity": 0,
    "openDays": [],
    "openDaysNote": ""
  },
  {
    "id": "1490400411",
    "name": "横浜市福祉サービス協会　訪問介護看護なか",
    "kana": "ヨコハマシフクシサービスキョウカイ　ホウモンカイゴカンゴナカ",
    "address": "神奈川県横浜市中区扇町2-5-15リラックスビル3階 リラックスビル3階",
    "lat": 35.4406009,
    "lng": 139.6383398,
    "tel": "045-640-6732",
    "url": "http://www.hama-wel.or.jp",
    "pref": "神奈川県",
    "city": "横浜市中区",
    "category": "regular_patrol_nursing",
    "serviceType": "定期巡回・随時対応型訪問介護看護",
    "capacity": 0,
    "openDays": [],
    "openDaysNote": ""
  },
  {
    "id": "1490400197",
    "name": "銀杏の大樹ケア24",
    "kana": "イチョウノタイジュケアニジュウヨン",
    "address": "神奈川県横浜市中区山下町252グランベル横浜ビル3階ＥＦ グランベル横浜ビル3階ＥＦ",
    "lat": 35.4423913,
    "lng": 139.6410754,
    "tel": "045-306-9161",
    "url": "https://shuhokai.or.jp",
    "pref": "神奈川県",
    "city": "横浜市中区",
    "category": "regular_patrol_nursing",
    "serviceType": "定期巡回・随時対応型訪問介護看護",
    "capacity": 0,
    "openDays": [],
    "openDaysNote": ""
  },
  {
    "id": "1490100219",
    "name": "横浜市福祉サービス協会　訪問介護看護つるみ",
    "kana": "ヨコハマシフクシサービスキョウカイ　ホウモンカイゴカンゴツルミ",
    "address": "神奈川県横浜市鶴見区鶴見中央1-28-2ニッコービル1F ニッコービル1F",
    "lat": 35.5086453,
    "lng": 139.6786678,
    "tel": "045-276-4300",
    "url": "http://www.hama-wel.or.jp/branch/detail/visitkaigoturumi/",
    "pref": "神奈川県",
    "city": "横浜市鶴見区",
    "category": "regular_patrol_nursing",
    "serviceType": "定期巡回・随時対応型訪問介護看護",
    "capacity": 0,
    "openDays": [],
    "openDaysNote": ""
  },
  {
    "id": "1490100243",
    "name": "銀河の詩ケア24",
    "kana": "ギンガノウタケア",
    "address": "神奈川県横浜市鶴見区鶴見中央4-32-1ＵＮＥＸビル8階 ＵＮＥＸビル8階",
    "lat": 35.5090552143538,
    "lng": 139.68134408515,
    "tel": "045-521-7110",
    "url": "http://shuhokai.or.jp/maps/details/TZ_ginga.html",
    "pref": "神奈川県",
    "city": "横浜市鶴見区",
    "category": "regular_patrol_nursing",
    "serviceType": "定期巡回・随時対応型訪問介護看護",
    "capacity": 0,
    "openDays": [],
    "openDaysNote": ""
  },
  {
    "id": "1490100383",
    "name": "福祉協会つるみ24",
    "kana": "フクシキョウカイツルミ24",
    "address": "神奈川県横浜市鶴見区豊岡町7-10パーライトビル8F パーライトビル8F",
    "lat": 35.5078830979772,
    "lng": 139.674479568865,
    "tel": "045-947-4180",
    "url": "https://home-help.jp",
    "pref": "神奈川県",
    "city": "横浜市鶴見区",
    "category": "regular_patrol_nursing",
    "serviceType": "定期巡回・随時対応型訪問介護看護",
    "capacity": 0,
    "openDays": [],
    "openDaysNote": ""
  },
  {
    "id": "1490100565",
    "name": "訪問介護輝",
    "kana": "ホウモンカイゴ　カガヤキ",
    "address": "神奈川県横浜市鶴見区平安町2-28-1ヨコハマアイランドガーデン162 ヨコハマアイランドガーデン162",
    "lat": 35.5078124,
    "lng": 139.6940599,
    "tel": "045-510-4163",
    "url": "https://www.kyoumaru.co.jp/",
    "pref": "神奈川県",
    "city": "横浜市鶴見区",
    "category": "regular_patrol_nursing",
    "serviceType": "定期巡回・随時対応型訪問介護看護",
    "capacity": null,
    "openDays": [],
    "openDaysNote": ""
  },
  {
    "id": "1493800641",
    "name": "GTLケアサービス横浜都筑",
    "kana": "ジーティーエルケアサービスヨコハマツヅキ",
    "address": "神奈川県横浜市都筑区大丸１番24号",
    "lat": 35.5388465211508,
    "lng": 139.560319626984,
    "tel": "045-948-5264",
    "url": "",
    "pref": "神奈川県",
    "city": "横浜市都筑区",
    "category": "regular_patrol_nursing",
    "serviceType": "定期巡回・随時対応型訪問介護看護",
    "capacity": null,
    "openDays": [],
    "openDaysNote": ""
  },
  {
    "id": "1490500327",
    "name": "おひさまネット２４",
    "kana": "オヒサマネットニジュウヨン",
    "address": "神奈川県横浜市南区大岡5-14-21包括ステーション 包括ステーション",
    "lat": 35.4119729,
    "lng": 139.5983852,
    "tel": "045-315-7779",
    "url": "http://www.hakuhouen.or.jp/ohisamanet24.html",
    "pref": "神奈川県",
    "city": "横浜市南区",
    "category": "regular_patrol_nursing",
    "serviceType": "定期巡回・随時対応型訪問介護看護",
    "capacity": 0,
    "openDays": [],
    "openDaysNote": ""
  },
  {
    "id": "1490500111",
    "name": "フルライフ横浜",
    "kana": "フルライフヨコハマ",
    "address": "神奈川県横浜市南区山王町３－２４－８港横浜ビル4階 港横浜ビル4階",
    "lat": 35.4361615,
    "lng": 139.6192355,
    "tel": "045-250-1855",
    "url": "https://www.fulllife.co.jp/branch/",
    "pref": "神奈川県",
    "city": "横浜市南区",
    "category": "regular_patrol_nursing",
    "serviceType": "定期巡回・随時対応型訪問介護看護",
    "capacity": null,
    "openDays": [],
    "openDaysNote": ""
  },
  {
    "id": "1490500228",
    "name": "桜樹の森ケア24",
    "kana": "オウジュノモリ　ケアニジュウヨン",
    "address": "神奈川県横浜市南区通町4-94神奈中弘明寺ビル2階 神奈中弘明寺ビル2階",
    "lat": 35.4242436,
    "lng": 139.6022098,
    "tel": "045-720-6663",
    "url": "http://www.shuhokai.or.jp",
    "pref": "神奈川県",
    "city": "横浜市南区",
    "category": "regular_patrol_nursing",
    "serviceType": "定期巡回・随時対応型訪問介護看護",
    "capacity": 0,
    "openDays": [],
    "openDaysNote": ""
  },
  {
    "id": "1490500640",
    "name": "定期巡回ケアコールセンターはぴねす横浜永田",
    "kana": "テイキジュンカイケアコールセンターハピネスヨコハマナガタ",
    "address": "神奈川県横浜市南区永田北１丁目３１番１９号",
    "lat": 35.4418780633178,
    "lng": 139.5893012,
    "tel": "045-334-8188",
    "url": "https://villa-life-support.co.jp/",
    "pref": "神奈川県",
    "city": "横浜市南区",
    "category": "regular_patrol_nursing",
    "serviceType": "定期巡回・随時対応型訪問介護看護",
    "capacity": 0,
    "openDays": [],
    "openDaysNote": ""
  },
  {
    "id": "1490600234",
    "name": "フルライフ保土ヶ谷",
    "kana": "フルライフホドガヤ",
    "address": "神奈川県横浜市保土ケ谷区岩井町1-7保土ヶ谷駅ビル6階 保土ヶ谷駅ビル6階",
    "lat": 35.4470726153803,
    "lng": 139.599485012693,
    "tel": "045-340-2338",
    "url": "https://www.fulllife.co.jp",
    "pref": "神奈川県",
    "city": "横浜市保土ケ谷区",
    "category": "regular_patrol_nursing",
    "serviceType": "定期巡回・随時対応型訪問介護看護",
    "capacity": null,
    "openDays": [],
    "openDaysNote": ""
  },
  {
    "id": "1490600697",
    "name": "定期巡回・随時対応型訪問介護看護ラポール三ツ沢",
    "kana": "テイキジュンカイ・ズイジタイオウガタホウモンカイゴカンゴラポールミツザワ",
    "address": "神奈川県横浜市保土ヶ谷区峰沢町325‐1特別養護老人ホームラポール三ッ沢 特別養護老人ホームラポール三ッ沢",
    "lat": 35.4777219,
    "lng": 139.5945835,
    "tel": "045‐337-3366",
    "url": "https://www.rapport.or.jp",
    "pref": "神奈川県",
    "city": "横浜市保土ケ谷区",
    "category": "regular_patrol_nursing",
    "serviceType": "定期巡回・随時対応型訪問介護看護",
    "capacity": null,
    "openDays": [],
    "openDaysNote": ""
  },
  {
    "id": "1490600143",
    "name": "豊穣の大地　ケア24",
    "kana": "ホウジョウノダイチ　ケア24",
    "address": "神奈川県横浜市保土ヶ谷区和田1-13-1朋和ビル201号 朋和ビル201号",
    "lat": 35.4646608,
    "lng": 139.58878,
    "tel": "045-442-6610",
    "url": "http://shuhokai.or.jp/",
    "pref": "神奈川県",
    "city": "横浜市保土ケ谷区",
    "category": "regular_patrol_nursing",
    "serviceType": "定期巡回・随時対応型訪問介護看護",
    "capacity": 0,
    "openDays": [],
    "openDaysNote": ""
  },
  {
    "id": "1493300394",
    "name": "ＳＯＭＰＯケア　横浜十日市場　定期巡回",
    "kana": "ソンポケア　ヨコハマトオカイチバ　テイキジュンカイ",
    "address": "神奈川県横浜市緑区十日市場町824-2",
    "lat": 35.5247001183001,
    "lng": 139.518132369038,
    "tel": "045-988-4855",
    "url": "https://www.sompocare.com",
    "pref": "神奈川県",
    "city": "横浜市緑区",
    "category": "regular_patrol_nursing",
    "serviceType": "定期巡回・随時対応型訪問介護看護",
    "capacity": null,
    "openDays": [],
    "openDaysNote": ""
  },
  {
    "id": "1493300428",
    "name": "ホームケア緑",
    "kana": "ホームケアミドリ",
    "address": "神奈川県横浜市緑区十日市場町1258-92クレールレジデンス横浜十日市場 クレールレジデンス横浜十日市場",
    "lat": 35.5217093,
    "lng": 139.5149194,
    "tel": "045-511-7066",
    "url": "https://www.e-life-design.co.jp/",
    "pref": "神奈川県",
    "city": "横浜市緑区",
    "category": "regular_patrol_nursing",
    "serviceType": "定期巡回・随時対応型訪問介護看護",
    "capacity": 0,
    "openDays": [],
    "openDaysNote": ""
  },
  {
    "id": "1493300246",
    "name": "横浜市福祉サービス協会　訪問介護看護みどり",
    "kana": "ヨコハマシフクシサービスキョウカイ　ホウモンカイゴカンゴミドリ",
    "address": "神奈川県横浜市緑区中山一丁目6番5号静銀中山ビル3階 静銀中山ビル3階",
    "lat": 35.5156299281678,
    "lng": 139.54091467791,
    "tel": "045-929-5708",
    "url": "http://www.hama-wel.or.jp/",
    "pref": "神奈川県",
    "city": "横浜市緑区",
    "category": "regular_patrol_nursing",
    "serviceType": "定期巡回・随時対応型訪問介護看護",
    "capacity": 0,
    "openDays": [],
    "openDaysNote": ""
  },
  {
    "id": "1493300634",
    "name": "訪問介護看護事業所けやき",
    "kana": "ホウモンカイゴカンゴジギョウショケヤキ",
    "address": "神奈川県横浜市緑区上山二丁目35番1号",
    "lat": 35.50657,
    "lng": 139.5498261,
    "tel": "045-507-5256",
    "url": "",
    "pref": "神奈川県",
    "city": "横浜市緑区",
    "category": "regular_patrol_nursing",
    "serviceType": "定期巡回・随時対応型訪問介護看護",
    "capacity": 0,
    "openDays": [],
    "openDaysNote": ""
  },
  {
    "id": "1493300469",
    "name": "翡翠の舞ケア24",
    "kana": "ヒスイノマイケア24",
    "address": "神奈川県横浜市緑区台村町337台和ビル1F 台和ビル1F",
    "lat": 35.5133305,
    "lng": 139.537619,
    "tel": "045-482-7133",
    "url": "http://www.shuhokai.or.jp",
    "pref": "神奈川県",
    "city": "横浜市緑区",
    "category": "regular_patrol_nursing",
    "serviceType": "定期巡回・随時対応型訪問介護看護",
    "capacity": 0,
    "openDays": [],
    "openDaysNote": ""
  },
  {
    "id": "1491400154",
    "name": "２４ヘルパーステーション開成",
    "kana": "ニイヨンヘルパーステーションカイセイ",
    "address": "神奈川県足柄上郡開成町みなみ5-4-17サウスポート　1階 サウスポート　1階",
    "lat": 35.3207132794803,
    "lng": 139.128177704369,
    "tel": "0465-85-3255",
    "url": "http://www.southport.jp",
    "pref": "神奈川県",
    "city": "開成町",
    "category": "regular_patrol_nursing",
    "serviceType": "定期巡回・随時対応型訪問介護看護",
    "capacity": 50,
    "openDays": [],
    "openDaysNote": ""
  },
  {
    "id": "1492100209",
    "name": "みどりの園鎌倉",
    "kana": "ミドリノソノカマクラ",
    "address": "神奈川県鎌倉市常盤165-8",
    "lat": 35.3297600811859,
    "lng": 139.520684756917,
    "tel": "0467-33-3913",
    "url": "https://midorinosono.or.jp/事業者向け情報",
    "pref": "神奈川県",
    "city": "鎌倉市",
    "category": "regular_patrol_nursing",
    "serviceType": "定期巡回・随時対応型訪問介護看護",
    "capacity": 0,
    "openDays": [],
    "openDaysNote": ""
  },
  {
    "id": "1492400278",
    "name": "リフシア浜之郷",
    "kana": "リフシアハマノゴウ",
    "address": "神奈川県茅ヶ崎市浜之郷７３８－１",
    "lat": 35.3329339,
    "lng": 139.3907255,
    "tel": "0467-59-3000",
    "url": "http://lifsea.co.jp",
    "pref": "神奈川県",
    "city": "茅ヶ崎市",
    "category": "regular_patrol_nursing",
    "serviceType": "定期巡回・随時対応型訪問介護看護",
    "capacity": 0,
    "openDays": [],
    "openDaysNote": ""
  },
  {
    "id": "1492900145",
    "name": "スマイルサポート",
    "kana": "スマイルサポート",
    "address": "神奈川県厚木市船子579-1",
    "lat": 35.4283304,
    "lng": 139.3566167,
    "tel": "046-220-1175",
    "url": "http://www.ims-inc.co.jp/",
    "pref": "神奈川県",
    "city": "厚木市",
    "category": "regular_patrol_nursing",
    "serviceType": "定期巡回・随時対応型訪問介護看護",
    "capacity": 0,
    "openDays": [],
    "openDaysNote": ""
  },
  {
    "id": "1492700206",
    "name": "みかん",
    "kana": "ミカン",
    "address": "神奈川県三浦市初声町下宮田489-11-3F長嶋ビル3階 長嶋ビル3階",
    "lat": 35.1765817,
    "lng": 139.6335516,
    "tel": "046-887-0295",
    "url": "https://kango-mikan.com/",
    "pref": "神奈川県",
    "city": "三浦市",
    "category": "regular_patrol_nursing",
    "serviceType": "定期巡回・随時対応型訪問介護看護",
    "capacity": 0,
    "openDays": [],
    "openDaysNote": ""
  },
  {
    "id": "1492300015",
    "name": "潤生園ホームヘルプサービス",
    "kana": "ジュンセイエンホームヘルプサービス",
    "address": "神奈川県小田原市蓮正寺９９７-１",
    "lat": 35.2848331,
    "lng": 139.1485251,
    "tel": "0465-39-3101",
    "url": "http://www.junseien.jp",
    "pref": "神奈川県",
    "city": "小田原市",
    "category": "regular_patrol_nursing",
    "serviceType": "定期巡回・随時対応型訪問介護看護",
    "capacity": 100,
    "openDays": [],
    "openDaysNote": ""
  },
  {
    "id": "1452880029",
    "name": "医療法人社団　三喜会　介護老人保健施設　ライフプラザ鶴巻",
    "kana": "イリョウホウジンシャダンサンキカイカイゴロウジンホケンシセツライフプラザツルマキ",
    "address": "神奈川県秦野市鶴巻北3-1-3",
    "lat": 35.3821699,
    "lng": 139.2761855,
    "tel": "0463-69-3741",
    "url": "http://www.sankikai.or.jp/life-tsurumaki/",
    "pref": "神奈川県",
    "city": "秦野市",
    "category": "regular_patrol_nursing",
    "serviceType": "定期巡回・随時対応型訪問介護看護",
    "capacity": 0,
    "openDays": [],
    "openDaysNote": ""
  },
  {
    "id": "1492800220",
    "name": "定期巡回・随時対応型訪問介護看護みちびき",
    "kana": "テイキジュンカイ・ズイジタイオウガタホウモンカイゴカンゴミチビキ",
    "address": "神奈川県秦野市曽屋二丁目6-30清水ハイツ101号 清水ハイツ101号",
    "lat": 35.3799245,
    "lng": 139.2273536,
    "tel": "0463-67-7376",
    "url": "https://michibiki-care.jp/",
    "pref": "神奈川県",
    "city": "秦野市",
    "category": "regular_patrol_nursing",
    "serviceType": "定期巡回・随時対応型訪問介護看護",
    "capacity": 10,
    "openDays": [],
    "openDaysNote": ""
  },
  {
    "id": "1492500093",
    "name": "有限会社猫の手",
    "kana": "ユウゲンガイシャネコノテ",
    "address": "神奈川県逗子市逗子2-6-26逗子駅前クリニックビル3階 逗子駅前クリニックビル3階",
    "lat": 35.2967575325823,
    "lng": 139.580514507969,
    "tel": "046-873-5903",
    "url": "http://www.kaigo-nekonote.jp/nekonote24.html",
    "pref": "神奈川県",
    "city": "逗子市",
    "category": "regular_patrol_nursing",
    "serviceType": "定期巡回・随時対応型訪問介護看護",
    "capacity": null,
    "openDays": [],
    "openDaysNote": ""
  },
  {
    "id": "1495500454",
    "name": "SOMPOケア　川崎宮前　定期巡回",
    "kana": "ソンポケア　カワサキミヤマエ　テイキジュンカイ",
    "address": "神奈川県川崎市宮前区野川本町3-24-13そんぽの家S川崎宮前 そんぽの家S川崎宮前",
    "lat": 35.5735467,
    "lng": 139.617377,
    "tel": "044-740-7661",
    "url": "https://www.sompocare.com",
    "pref": "神奈川県",
    "city": "川崎市宮前区",
    "category": "regular_patrol_nursing",
    "serviceType": "定期巡回・随時対応型訪問介護看護",
    "capacity": 0,
    "openDays": [],
    "openDaysNote": ""
  },
  {
    "id": "1495500439",
    "name": "SOMPOケア宮前菅生　定期巡回",
    "kana": "ソンポケアミヤマエスガオ　テイキジュンカイ",
    "address": "神奈川県川崎市宮前区菅生5-23-23そんぽの家S宮前菅生 そんぽの家S宮前菅生",
    "lat": 35.5914162,
    "lng": 139.5547046,
    "tel": "044-978-2233",
    "url": "http://www.sompocare.com/",
    "pref": "神奈川県",
    "city": "川崎市宮前区",
    "category": "regular_patrol_nursing",
    "serviceType": "定期巡回・随時対応型訪問介護看護",
    "capacity": 0,
    "openDays": [],
    "openDaysNote": ""
  },
  {
    "id": "1495500413",
    "name": "ＳＯＭＰＯケア川崎鷺沼　定期巡回",
    "kana": "ソンポケアカワサキサギヌマテイキジュンカイ",
    "address": "神奈川県川崎市宮前区有馬1-7-5サンプラザ鷺沼１F サンプラザ鷺沼１F",
    "lat": 35.5793263,
    "lng": 139.5778921,
    "tel": "044-860-6530",
    "url": "",
    "pref": "神奈川県",
    "city": "川崎市宮前区",
    "category": "regular_patrol_nursing",
    "serviceType": "定期巡回・随時対応型訪問介護看護",
    "capacity": 0,
    "openDays": [],
    "openDaysNote": ""
  },
  {
    "id": "1495500322",
    "name": "カーサプラチナ宮前平",
    "kana": "カーサプラチナミヤマエダイラ",
    "address": "神奈川県川崎市宮前区平3-2-25カーサプラチナ宮前平 カーサプラチナ宮前平",
    "lat": 35.600416,
    "lng": 139.5691396,
    "tel": "044-862-8550",
    "url": "http://www.platinum-care.jp/",
    "pref": "神奈川県",
    "city": "川崎市宮前区",
    "category": "regular_patrol_nursing",
    "serviceType": "定期巡回・随時対応型訪問介護看護",
    "capacity": null,
    "openDays": [],
    "openDaysNote": ""
  },
  {
    "id": "1495100370",
    "name": "SOMPOケア　川崎小倉　定期巡回",
    "kana": "ソンポケア　カワサキオグラ　テイキジュンカイ",
    "address": "神奈川県川崎市幸区小倉5丁目31-11",
    "lat": 35.5373809,
    "lng": 139.6623085,
    "tel": "044-589-0724",
    "url": "",
    "pref": "神奈川県",
    "city": "川崎市幸区",
    "category": "regular_patrol_nursing",
    "serviceType": "定期巡回・随時対応型訪問介護看護",
    "capacity": 0,
    "openDays": [],
    "openDaysNote": ""
  },
  {
    "id": "1495100388",
    "name": "SOMPOケア　北加瀬　定期巡回",
    "kana": "ソンポケア　キタカセ　テイキジュンカイ",
    "address": "神奈川県川崎市幸区北加瀬3-18-18そんぽの家S北加瀬・1F事務所 そんぽの家S北加瀬・1F事務所",
    "lat": 35.5548026,
    "lng": 139.6598431,
    "tel": "044-431-3670",
    "url": "https://www.sompocare.com",
    "pref": "神奈川県",
    "city": "川崎市幸区",
    "category": "regular_patrol_nursing",
    "serviceType": "定期巡回・随時対応型訪問介護看護",
    "capacity": 0,
    "openDays": [],
    "openDaysNote": ""
  },
  {
    "id": "1495100271",
    "name": "フルライフ川崎",
    "kana": "フルライフカワサキ",
    "address": "神奈川県川崎市幸区幸町2丁目593モリファーストビル3階Ｂ モリファーストビル3階Ｂ",
    "lat": 35.5375715,
    "lng": 139.6988873,
    "tel": "044-520-2091",
    "url": "https://www.fulllife.co.jp",
    "pref": "神奈川県",
    "city": "川崎市幸区",
    "category": "regular_patrol_nursing",
    "serviceType": "定期巡回・随時対応型訪問介護看護",
    "capacity": null,
    "openDays": [],
    "openDaysNote": ""
  },
  {
    "id": "1495300434",
    "name": "ＳＯＭＰＯケア　川崎高津　定期巡回",
    "kana": "ソンポケア　カワサキタカツ　テイキジュンカイ",
    "address": "神奈川県川崎市高津区溝口3-11-17溝口パークホームズ2-B 溝口パークホームズ2-B",
    "lat": 35.6031144,
    "lng": 139.6131062,
    "tel": "044-850-9151",
    "url": "https://www.sompocare.com",
    "pref": "神奈川県",
    "city": "川崎市高津区",
    "category": "regular_patrol_nursing",
    "serviceType": "定期巡回・随時対応型訪問介護看護",
    "capacity": 10,
    "openDays": [],
    "openDaysNote": ""
  },
  {
    "id": "1495300467",
    "name": "SOMPOケア　多摩川　定期巡回",
    "kana": "ソンポケア　タマガワ　テイキジュンカイ",
    "address": "神奈川県川崎市高津区宇奈根635-1",
    "lat": 35.6134149,
    "lng": 139.6002326,
    "tel": "044-829-2868",
    "url": "https://www.sompocare.com/service/home/satsuki/H000317",
    "pref": "神奈川県",
    "city": "川崎市高津区",
    "category": "regular_patrol_nursing",
    "serviceType": "定期巡回・随時対応型訪問介護看護",
    "capacity": 0,
    "openDays": [],
    "openDaysNote": ""
  },
  {
    "id": "1495300459",
    "name": "ＳＯＭＰＯケア梶が谷　定期巡回・随時対応型訪問介護看護",
    "kana": "ソンポケアカジガヤテイキジュンカイ・ズイジタイオウガタホウモンカイゴカンゴ",
    "address": "神奈川県川崎市高津区新作1丁目22-21",
    "lat": 35.5878556,
    "lng": 139.6079911,
    "tel": "044-870-2281",
    "url": "https://www.sompocare.com/",
    "pref": "神奈川県",
    "city": "川崎市高津区",
    "category": "regular_patrol_nursing",
    "serviceType": "定期巡回・随時対応型訪問介護看護",
    "capacity": 0,
    "openDays": [],
    "openDaysNote": ""
  },
  {
    "id": "1495600304",
    "name": "クローバーかわさき療養支援事業所",
    "kana": "クローバーカワサキリョウヨウシエンジギョウショ",
    "address": "神奈川県川崎市高津区宇奈根635-2",
    "lat": 35.6130884771499,
    "lng": 139.60039499065,
    "tel": "044-850-8487",
    "url": "",
    "pref": "神奈川県",
    "city": "川崎市高津区",
    "category": "regular_patrol_nursing",
    "serviceType": "定期巡回・随時対応型訪問介護看護",
    "capacity": 0,
    "openDays": [],
    "openDaysNote": ""
  },
  {
    "id": "1495300400",
    "name": "定期巡回随時対応型訪問介護看護アットプレオ新城",
    "kana": "テイキジュンカイズイジタイオウガタホウモンカイゴカンゴアットプレオシンジョウ",
    "address": "神奈川県川崎市高津区新作6-8-333Ｆ 3Ｆ",
    "lat": 35.5863724,
    "lng": 139.626128,
    "tel": "044-948-6774",
    "url": "http://care-net.biz/14/at/index.php",
    "pref": "神奈川県",
    "city": "川崎市高津区",
    "category": "regular_patrol_nursing",
    "serviceType": "定期巡回・随時対応型訪問介護看護",
    "capacity": null,
    "openDays": [],
    "openDaysNote": ""
  },
  {
    "id": "1495000646",
    "name": "SOMPOケア　川崎観音　定期巡回",
    "kana": "ソンポケア　カワサキカンノン　テイキジュンカイ",
    "address": "神奈川県川崎市川崎区観音1丁目2-5",
    "lat": 35.5285283,
    "lng": 139.7249159,
    "tel": "044-280-1555",
    "url": "https://www.sompocare.com/service/home/satsuki/H000348/",
    "pref": "神奈川県",
    "city": "川崎市川崎区",
    "category": "regular_patrol_nursing",
    "serviceType": "定期巡回・随時対応型訪問介護看護",
    "capacity": 0,
    "openDays": [],
    "openDaysNote": ""
  },
  {
    "id": "1495000620",
    "name": "SOMPOケア川崎日進　定期巡回",
    "kana": "ソンポケアカワサキニッシン　テイキジュンカイ",
    "address": "神奈川県川崎市川崎区日進町22-3吉田貸事務所 吉田貸事務所",
    "lat": 35.5240512,
    "lng": 139.6966074,
    "tel": "044-221-0204",
    "url": "https://www.sompocare.com",
    "pref": "神奈川県",
    "city": "川崎市川崎区",
    "category": "regular_patrol_nursing",
    "serviceType": "定期巡回・随時対応型訪問介護看護",
    "capacity": 0,
    "openDays": [],
    "openDaysNote": ""
  },
  {
    "id": "1495000778",
    "name": "太陽ケアセンター",
    "kana": "タイヨウケアセンター",
    "address": "神奈川県川崎市川崎区渡田新町2-1-9",
    "lat": 35.522248,
    "lng": 139.6983417,
    "tel": "044-589-3321",
    "url": "https://www.taiyocare.com",
    "pref": "神奈川県",
    "city": "川崎市川崎区",
    "category": "regular_patrol_nursing",
    "serviceType": "定期巡回・随時対応型訪問介護看護",
    "capacity": null,
    "openDays": [],
    "openDaysNote": ""
  },
  {
    "id": "1495000711",
    "name": "定期巡回・随時対応型訪問介護看護川崎ラシクル",
    "kana": "テイキジュンカイ・ズイジタイオウガタホウモンカイゴカンゴ",
    "address": "川崎市川崎区日進町5-1川崎市複合福祉センターふくふく 川崎市複合福祉センターふくふく",
    "lat": 35.5259468,
    "lng": 139.6928817,
    "tel": "044-589-3880",
    "url": "https://nissintyou.misasakai.or.jp/",
    "pref": "神奈川県",
    "city": "川崎市川崎区",
    "category": "regular_patrol_nursing",
    "serviceType": "定期巡回・随時対応型訪問介護看護",
    "capacity": 0,
    "openDays": [],
    "openDaysNote": ""
  },
  {
    "id": "1495200402",
    "name": "SOMPOケア元住吉西　定期巡回",
    "kana": "ソンポケアモトスミヨシニシ　テイキジュンカイ",
    "address": "神奈川県川崎市中原区井田2丁目34-22そんぽの家S元住吉西 そんぽの家S元住吉西",
    "lat": 35.562694123894,
    "lng": 139.640251444705,
    "tel": "044-788-2256",
    "url": "https://www.sompocare.com/service/home/satsuki/H000423",
    "pref": "神奈川県",
    "city": "川崎市中原区",
    "category": "regular_patrol_nursing",
    "serviceType": "定期巡回・随時対応型訪問介護看護",
    "capacity": 0,
    "openDays": [],
    "openDaysNote": ""
  },
  {
    "id": "1495200139",
    "name": "フルライフ中原",
    "kana": "フルライフナカハラ",
    "address": "神奈川県川崎市中原区丸子通1-627-8トーシンビル トーシンビル",
    "lat": 35.5815508155461,
    "lng": 139.665325928509,
    "tel": "044-948-6711",
    "url": "https://www.fulllife.co.jp/",
    "pref": "神奈川県",
    "city": "川崎市中原区",
    "category": "regular_patrol_nursing",
    "serviceType": "定期巡回・随時対応型訪問介護看護",
    "capacity": 30,
    "openDays": [],
    "openDaysNote": ""
  },
  {
    "id": "1495200527",
    "name": "定期巡回・随時対応型訪問介護看護事業所　フローレンスケア武蔵小杉",
    "kana": "テイキジュンカイ・ズイジタイオウガタホウモンカイゴカンゴジギョウショ　フローレンスケアムサシコスギ",
    "address": "神奈川県川崎市中原区今井上町8-24",
    "lat": 35.5788168,
    "lng": 139.6517454,
    "tel": "044-322-8517",
    "url": "https://www.good-care.jp/facilities/musashikosugi/",
    "pref": "神奈川県",
    "city": "川崎市中原区",
    "category": "regular_patrol_nursing",
    "serviceType": "定期巡回・随時対応型訪問介護看護",
    "capacity": null,
    "openDays": [],
    "openDaysNote": ""
  },
  {
    "id": "1495200451",
    "name": "定期巡回・随時対応型訪問介護看護事業所　桜の丘",
    "kana": "テイキジュンカイ・ズイジタイオウガタホウモンカイゴカンゴジギョウショ　サクラノオカ",
    "address": "神奈川県川崎市中原区井田3-16-1",
    "lat": 35.5637898,
    "lng": 139.6362492,
    "tel": "044-982-1201",
    "url": "http://hakusan-fukushikai.com/",
    "pref": "神奈川県",
    "city": "川崎市中原区",
    "category": "regular_patrol_nursing",
    "serviceType": "定期巡回・随時対応型訪問介護看護",
    "capacity": null,
    "openDays": [],
    "openDaysNote": ""
  },
  {
    "id": "1495600759",
    "name": "GTLケアサービス新百合ヶ丘",
    "kana": "ジーティーエルケアサービスシンユリガオカ",
    "address": "神奈川県川崎市麻生区万福寺1-12-7山田ビル3階 山田ビル3階",
    "lat": 35.6050084,
    "lng": 139.5052999,
    "tel": "044-959-0920",
    "url": "",
    "pref": "神奈川県",
    "city": "川崎市麻生区",
    "category": "regular_patrol_nursing",
    "serviceType": "定期巡回・随時対応型訪問介護看護",
    "capacity": null,
    "openDays": [],
    "openDaysNote": ""
  },
  {
    "id": "1495600460",
    "name": "ＳＯＭＰＯケア川崎新百合ヶ丘定期巡回",
    "kana": "ソンポケアカワサキシンユリガオカテイキジュンカイ",
    "address": "神奈川県川崎市麻生区万福寺4-1-8グラードビュウ百合丘2階201号室 グラードビュウ百合丘2階201号室",
    "lat": 35.6081170908363,
    "lng": 139.512796672353,
    "tel": "044-969-9851",
    "url": "https://www.sompocare.com/",
    "pref": "神奈川県",
    "city": "川崎市麻生区",
    "category": "regular_patrol_nursing",
    "serviceType": "定期巡回・随時対応型訪問介護看護",
    "capacity": 0,
    "openDays": [],
    "openDaysNote": ""
  },
  {
    "id": "1495600353",
    "name": "エイプレイス麻生",
    "kana": "エイプレイスアサオ",
    "address": "神奈川県川崎市麻生区万福寺1丁目8番7号パストラル新百合ヶ丘310号室 パストラル新百合ヶ丘310号室",
    "lat": 35.6034690746686,
    "lng": 139.503997200901,
    "tel": "044-959-6460",
    "url": "http://www.a-place.co.jp",
    "pref": "神奈川県",
    "city": "川崎市麻生区",
    "category": "regular_patrol_nursing",
    "serviceType": "定期巡回・随時対応型訪問介護看護",
    "capacity": 0,
    "openDays": [],
    "openDaysNote": ""
  },
  {
    "id": "1495600643",
    "name": "ミアヘルサ　定期巡回サービス新百合ヶ丘",
    "kana": "ミアヘルサ　テイキジュンカイサービスシンユリガオカ",
    "address": "神奈川県川崎市麻生区白鳥1丁目4-1",
    "lat": 35.6002379,
    "lng": 139.485543,
    "tel": "044-712-0249",
    "url": "https://www.merhalsa.jp/oasis",
    "pref": "神奈川県",
    "city": "川崎市麻生区",
    "category": "regular_patrol_nursing",
    "serviceType": "定期巡回・随時対応型訪問介護看護",
    "capacity": 0,
    "openDays": [],
    "openDaysNote": ""
  },
  {
    "id": "1495600718",
    "name": "巡回ゆらりん",
    "kana": "ジュンカイユラリン",
    "address": "神奈川県川崎市麻生区岡上4-2-26",
    "lat": 35.5804560180921,
    "lng": 139.48051820102,
    "tel": "044-455-4130",
    "url": "http://yurarin.jp/",
    "pref": "神奈川県",
    "city": "川崎市麻生区",
    "category": "regular_patrol_nursing",
    "serviceType": "定期巡回・随時対応型訪問介護看護",
    "capacity": 10,
    "openDays": [],
    "openDaysNote": ""
  },
  {
    "id": "1495600734",
    "name": "定期巡回随時対応型訪問介護看護　スマイルT麻生",
    "kana": "テイキジュンカイ・ズイジタイオウガタホウモンカイゴカンゴ　スマイルティーアサオ",
    "address": "神奈川県川崎市麻生区下麻生2-3-8和気ハウス 和気ハウス",
    "lat": 35.5822966,
    "lng": 139.5071223,
    "tel": "044-874-0706",
    "url": "https://c-net.jp/info/archives/3650",
    "pref": "神奈川県",
    "city": "川崎市麻生区",
    "category": "regular_patrol_nursing",
    "serviceType": "定期巡回・随時対応型訪問介護看護",
    "capacity": null,
    "openDays": [],
    "openDaysNote": ""
  },
  {
    "id": "1492600711",
    "name": "相模原ケアコミュニティそよ風　定期巡回・随時対応型訪問介護看護",
    "kana": "サガミハラケアコミュニティソヨカゼ　テイキジュンカイ・ズイジタイオウガタホウモンカイゴカンゴ",
    "address": "神奈川県相模原市中央区矢部1-5-20相模原ケアコミュニティそよ風 相模原ケアコミュニティそよ風",
    "lat": 35.5731394,
    "lng": 139.3760762,
    "tel": "042-786-6511",
    "url": "https://www.unimat-rc.co.jp/shisetsu-zaitaku/143235",
    "pref": "神奈川県",
    "city": "相模原市中央区",
    "category": "regular_patrol_nursing",
    "serviceType": "定期巡回・随時対応型訪問介護看護",
    "capacity": 0,
    "openDays": [],
    "openDaysNote": ""
  },
  {
    "id": "1462690030",
    "name": "相和会訪問看護ステーション",
    "kana": "ソウワカイホウモンカンゴステーション",
    "address": "神奈川県相模原市中央区淵野辺三丁目3番6号第5SKビル内 第5SKビル内",
    "lat": 35.5713101,
    "lng": 139.3924046,
    "tel": "042-730-5624",
    "url": "https://www.sowa-kai.jp/sowa-houmon/",
    "pref": "神奈川県",
    "city": "相模原市中央区",
    "category": "regular_patrol_nursing",
    "serviceType": "定期巡回・随時対応型訪問介護看護",
    "capacity": null,
    "openDays": [],
    "openDaysNote": ""
  },
  {
    "id": "1492602014",
    "name": "定期巡回・随時対応型訪問介護看護　ゆずりは　田名",
    "kana": "テイキジュンカイズイジタイオウガタホウモンカイゴカンゴ　ユズリハ　タナ",
    "address": "神奈川県相模原市中央区田名5878－2",
    "lat": 35.540589,
    "lng": 139.3389255,
    "tel": "042-785-2264",
    "url": "https://ever-lasting.co.jp/pages/46/",
    "pref": "神奈川県",
    "city": "相模原市中央区",
    "category": "regular_patrol_nursing",
    "serviceType": "定期巡回・随時対応型訪問介護看護",
    "capacity": 30,
    "openDays": [],
    "openDaysNote": ""
  },
  {
    "id": "1492602113",
    "name": "定期巡回・随時対応型訪問介護看護アットプレオ光が丘",
    "kana": "テイキジュンカイズイジタイオウガタホウモンカンゴカイゴアットプレオヒカリガオカ",
    "address": "神奈川県相模原市中央区光が丘1-8-7",
    "lat": 35.5579074,
    "lng": 139.3791557,
    "tel": "042-851-4942",
    "url": "https://at-care.co.jp",
    "pref": "神奈川県",
    "city": "相模原市中央区",
    "category": "regular_patrol_nursing",
    "serviceType": "定期巡回・随時対応型訪問介護看護",
    "capacity": 44,
    "openDays": [],
    "openDaysNote": ""
  },
  {
    "id": "1492601198",
    "name": "そよ風定期巡回　さがみはら南",
    "kana": "ソヨカゼテイキジュンカイ　サガミハラミナミ",
    "address": "神奈川県相模原市南区相模台1丁目8番16号フィールデンス小田急相模原301号室 フィールデンス小田急相模原301号室",
    "lat": 35.5187728,
    "lng": 139.4131162,
    "tel": "042-701-8077",
    "url": "http://www.unimat-rc.co.jp/",
    "pref": "神奈川県",
    "city": "相模原市南区",
    "category": "regular_patrol_nursing",
    "serviceType": "定期巡回・随時対応型訪問介護看護",
    "capacity": 0,
    "openDays": [],
    "openDaysNote": ""
  },
  {
    "id": "1492601818",
    "name": "ライブラリ相模大野　定期巡回随時対応型訪問介護看護事業所",
    "kana": "ライブラリサガミオオノ　テイキジュンカイズイジタイオウガタホウモンカンゴカイゴジギョウショ",
    "address": "神奈川県相模原市南区相模大野7丁目37-10ライブラリ相模大野南 ライブラリ相模大野南",
    "lat": 35.529139,
    "lng": 139.4432642,
    "tel": "042-702-5351",
    "url": "http://www.living-platform.com/",
    "pref": "神奈川県",
    "city": "相模原市南区",
    "category": "regular_patrol_nursing",
    "serviceType": "定期巡回・随時対応型訪問介護看護",
    "capacity": null,
    "openDays": [],
    "openDaysNote": ""
  },
  {
    "id": "1492601263",
    "name": "そよ風定期巡回　さがみはら緑",
    "kana": "ソヨカゼテイキジュンカイ　サガミハラミドリ",
    "address": "神奈川県相模原市緑区二本松4-26-22第一ユーハンビル１０１ 第一ユーハンビル１０１",
    "lat": 35.5952732,
    "lng": 139.3211,
    "tel": "042-700-1757",
    "url": "https://www.sykz-sc.co.jp",
    "pref": "神奈川県",
    "city": "相模原市緑区",
    "category": "regular_patrol_nursing",
    "serviceType": "定期巡回・随時対応型訪問介護看護",
    "capacity": 0,
    "openDays": [],
    "openDaysNote": ""
  },
  {
    "id": "1462691574",
    "name": "ひまわり倶楽部　さがみ湖",
    "kana": "ヒマワリクラブ　サガミコ",
    "address": "神奈川県相模原市緑区寸沢嵐3333-1",
    "lat": 35.6027242,
    "lng": 139.1979041,
    "tel": "042-699-1115",
    "url": "https://ksk-g.jp/",
    "pref": "神奈川県",
    "city": "相模原市緑区",
    "category": "regular_patrol_nursing",
    "serviceType": "定期巡回・随時対応型訪問介護看護",
    "capacity": null,
    "openDays": [],
    "openDaysNote": ""
  },
  {
    "id": "1492601826",
    "name": "ライブラリ相模原定期巡回随時対応型訪問介護看護事業所",
    "kana": "ライブラリサガミハラテイキジュンカイズイジタイオウガタホウモンカイゴカンゴジギョウショ",
    "address": "神奈川県相模原市緑区二本松4-8-16ライブラリ橋本二番館 ライブラリ橋本二番館",
    "lat": 35.5948621,
    "lng": 139.3180426,
    "tel": "042-700-6200",
    "url": "https://www.living-platform.com/care/49",
    "pref": "神奈川県",
    "city": "相模原市緑区",
    "category": "regular_patrol_nursing",
    "serviceType": "定期巡回・随時対応型訪問介護看護",
    "capacity": null,
    "openDays": [],
    "openDaysNote": ""
  },
  {
    "id": "1493000598",
    "name": "やまとみかん",
    "kana": "ヤマトミカン",
    "address": "神奈川県大和市南林間2-13-20-101",
    "lat": 35.4953409,
    "lng": 139.4455877,
    "tel": "046-206-7298",
    "url": "https://yamato-mikan.com",
    "pref": "神奈川県",
    "city": "大和市",
    "category": "regular_patrol_nursing",
    "serviceType": "定期巡回・随時対応型訪問介護看護",
    "capacity": 0,
    "openDays": [],
    "openDaysNote": ""
  },
  {
    "id": "1493000564",
    "name": "らんたん",
    "kana": "ランタン",
    "address": "神奈川県大和市中央3丁目2-30クリオ大和壱番館102号室 クリオ大和壱番館102号室",
    "lat": 35.4704297,
    "lng": 139.4558058,
    "tel": "046-205-4500",
    "url": "https://ordinarydays.life",
    "pref": "神奈川県",
    "city": "大和市",
    "category": "regular_patrol_nursing",
    "serviceType": "定期巡回・随時対応型訪問介護看護",
    "capacity": 30,
    "openDays": [],
    "openDaysNote": ""
  },
  {
    "id": "1493000614",
    "name": "定期巡回・ぷらすわん",
    "kana": "テイキジュンカイ・プラスワン",
    "address": "神奈川県大和市林間1-3-3南林間駅前店舗2階 南林間駅前店舗2階",
    "lat": 35.4957698,
    "lng": 139.4504135,
    "tel": "046-240-7474",
    "url": "https://plus-one.help/",
    "pref": "神奈川県",
    "city": "大和市",
    "category": "regular_patrol_nursing",
    "serviceType": "定期巡回・随時対応型訪問介護看護",
    "capacity": 0,
    "openDays": [],
    "openDaysNote": ""
  },
  {
    "id": "1492200934",
    "name": "リフシア辻堂",
    "kana": "リフシアツジドウ",
    "address": "神奈川県藤沢市辻堂5-4-11塩瀬マンション102 塩瀬マンション102",
    "lat": 35.3299255,
    "lng": 139.4516918,
    "tel": "0466-47-7530",
    "url": "",
    "pref": "神奈川県",
    "city": "藤沢市",
    "category": "regular_patrol_nursing",
    "serviceType": "定期巡回・随時対応型訪問介護看護",
    "capacity": 0,
    "openDays": [],
    "openDaysNote": ""
  },
  {
    "id": "1492200694",
    "name": "定期巡回・随時対応型訪問介護看護コンフォータス湘南台",
    "kana": "テイキジュンカイ・ズイジタイオウガタホウモンカイゴカンゴコンフォータスショウナンダイ",
    "address": "神奈川県藤沢市湘南台2-23-2",
    "lat": 35.3942517,
    "lng": 139.4640905,
    "tel": "0466-53-8193",
    "url": "http://care-net.co.jp",
    "pref": "神奈川県",
    "city": "藤沢市",
    "category": "regular_patrol_nursing",
    "serviceType": "定期巡回・随時対応型訪問介護看護",
    "capacity": 0,
    "openDays": [],
    "openDaysNote": ""
  },
  {
    "id": "1492200546",
    "name": "定期巡回随時対応型訪問介護看護ラポール城南",
    "kana": "テイキジュンカイズイジタイオウガタホウモンカイゴカンゴラポールジョウナン",
    "address": "神奈川県藤沢市城南4-9-8城東ビル１F 城東ビル１F",
    "lat": 35.347238,
    "lng": 139.4617663,
    "tel": "0466-31-0755",
    "url": "http://www.rapport.or.jp",
    "pref": "神奈川県",
    "city": "藤沢市",
    "category": "regular_patrol_nursing",
    "serviceType": "定期巡回・随時対応型訪問介護看護",
    "capacity": 2,
    "openDays": [],
    "openDaysNote": ""
  },
  {
    "id": "1491500078",
    "name": "あこもけあ箱根「CASA　ENFERMERA」",
    "kana": "アコモケアハコネカーサエンフェルメーラ",
    "address": "神奈川県足柄下郡箱根町仙石原1291-54あこもけあ箱根「CASA　ENFERMERA」 あこもけあ箱根「CASA　ENFERMERA」",
    "lat": 35.2643776791898,
    "lng": 139.02805338623,
    "tel": "0460-83-8105",
    "url": "http://www.accommocare.com/",
    "pref": "神奈川県",
    "city": "箱根町",
    "category": "regular_patrol_nursing",
    "serviceType": "定期巡回・随時対応型訪問介護看護",
    "capacity": null,
    "openDays": [],
    "openDaysNote": ""
  },
  {
    "id": "1492000177",
    "name": "SMC定期巡回・随時対応型ケアステーションひらつか",
    "kana": "エスエムシーテイキジュンカイ・ズイジタイオウガタケアステーションヒラツカ",
    "address": "神奈川県平塚市真田２丁目６番２７号",
    "lat": 35.3717853,
    "lng": 139.2835293,
    "tel": "0463-50-5733",
    "url": "http://www.smcg.jp/care_station_hiratuka/about.html",
    "pref": "神奈川県",
    "city": "平塚市",
    "category": "regular_patrol_nursing",
    "serviceType": "定期巡回・随時対応型訪問介護看護",
    "capacity": 0,
    "openDays": [],
    "openDaysNote": ""
  },
  {
    "id": "1491100036",
    "name": "葉山オハナ　２４在宅サポート",
    "kana": "ハヤマオハナ　２４ザイタクサポート",
    "address": "神奈川県三浦郡葉山町堀内2184-30",
    "lat": 35.2720886,
    "lng": 139.5861995,
    "tel": "046-876-0872",
    "url": "http://www.joyhope-ohana.com/",
    "pref": "神奈川県",
    "city": "葉山町",
    "category": "regular_patrol_nursing",
    "serviceType": "定期巡回・随時対応型訪問介護看護",
    "capacity": 0,
    "openDays": [],
    "openDaysNote": ""
  }
]