[
  {
    "id": "1890300245",
    "name": "レッツ定期巡回ステーション",
    "kana": "レッツテイキジュンカイステーション",
    "address": "福井県越前市横根町12-4-1",
    "lat": 35.9119682,
    "lng": 136.126413,
    "tel": "0778-43-5633",
    "url": "http://lifemore.ne.jp/",
    "pref": "福井県",
    "city": "越前市",
    "category": "regular_patrol_nursing",
    "serviceType": "定期巡回・随時対応型訪問介護看護",
    "capacity": 20,
    "openDays": [],
    "openDaysNote": ""
  },
  {
    "id": "1890300229",
    "name": "定期巡回ステーションひだまり",
    "kana": "テイキジュンカイステーションヒダマリ",
    "address": "福井県越前市本多１丁目８－４１",
    "lat": 35.905365,
    "lng": 136.163789,
    "tel": "0778-25-6112",
    "url": "www.tsukioka-med.com",
    "pref": "福井県",
    "city": "越前市",
    "category": "regular_patrol_nursing",
    "serviceType": "定期巡回・随時対応型訪問介護看護",
    "capacity": 20,
    "openDays": [],
    "openDaysNote": ""
  },
  {
    "id": "1892300094",
    "name": "ケアセンターグっとサポート",
    "kana": "ケアセンターグットサポート",
    "address": "福井県大飯郡高浜町薗部47-4",
    "lat": 35.4869158,
    "lng": 135.5594343,
    "tel": "0770-72-3103",
    "url": "https://g-support-takahama.com/",
    "pref": "福井県",
    "city": "高浜町",
    "category": "regular_patrol_nursing",
    "serviceType": "定期巡回・随時対応型訪問介護看護",
    "capacity": null,
    "openDays": [],
    "openDaysNote": ""
  },
  {
    "id": "1891700229",
    "name": "訪問サービス生喜庵",
    "kana": "ホウモンサービスセイキアン",
    "address": "福井県坂井市丸岡町長畝16字八ツ割3番1生喜庵 生喜庵",
    "lat": 36.1694577697826,
    "lng": 136.274398604102,
    "tel": "0776-68-0058",
    "url": "http://seikikai-sakai.jp/",
    "pref": "福井県",
    "city": "坂井市",
    "category": "regular_patrol_nursing",
    "serviceType": "定期巡回・随時対応型訪問介護看護",
    "capacity": 0,
    "openDays": [],
    "openDaysNote": ""
  },
  {
    "id": "1890700105",
    "name": "２４時間訪問ステーション　鯖江きらめき",
    "kana": "ニジュウヨジカンホウモンステーション　サバエキラメキ",
    "address": "福井県鯖江市小黒町３丁目１０－２１県民せいきょう　鯖江きらめき 県民せいきょう　鯖江きらめき",
    "lat": 35.9558179864655,
    "lng": 136.173657219049,
    "tel": "0778-52-8050",
    "url": "http://www.fukui.coop/",
    "pref": "福井県",
    "city": "鯖江市",
    "category": "regular_patrol_nursing",
    "serviceType": "定期巡回・随時対応型訪問介護看護",
    "capacity": 0,
    "openDays": [],
    "openDaysNote": ""
  },
  {
    "id": "1890200239",
    "name": "定期巡回・随時対応型訪問介護看護「めいほう」",
    "kana": "テイキジュンカイ・ズイジタイオウガタホウモンカイゴカンゴ「メイホウ」",
    "address": "福井県敦賀市昭和町２丁目２９０８",
    "lat": 35.6405349,
    "lng": 136.0637465,
    "tel": "0770-20-1161",
    "url": "http:/meihoukai.com",
    "pref": "福井県",
    "city": "敦賀市",
    "category": "regular_patrol_nursing",
    "serviceType": "定期巡回・随時対応型訪問介護看護",
    "capacity": null,
    "openDays": [],
    "openDaysNote": ""
  },
  {
    "id": "1890100561",
    "name": "24時間サポートセンター仁愛",
    "kana": "24ジカンサポートセンタージンアイ",
    "address": "福井県福井市乾徳4丁目4番7号仁愛ビル 仁愛ビル",
    "lat": 36.0711715,
    "lng": 136.2056091,
    "tel": "0776-26-6000",
    "url": "http://www.jinai-cs.co.jp/",
    "pref": "福井県",
    "city": "福井市",
    "category": "regular_patrol_nursing",
    "serviceType": "定期巡回・随時対応型訪問介護看護",
    "capacity": 0,
    "openDays": [],
    "openDaysNote": ""
  },
  {
    "id": "1890100017",
    "name": "ケア・フレンズ　定期巡回随時対応型訪問介護看護",
    "kana": "ケア・フレンズ　テイキジュンカイズイジタイオウガタホウモンカイゴカンゴ",
    "address": "福井県福井市松本2丁目25－16",
    "lat": 36.0746095246061,
    "lng": 136.226063240475,
    "tel": "0776-27-1314",
    "url": "https://care-friends.com/",
    "pref": "福井県",
    "city": "福井市",
    "category": "regular_patrol_nursing",
    "serviceType": "定期巡回・随時対応型訪問介護看護",
    "capacity": 0,
    "openDays": [],
    "openDaysNote": ""
  },
  {
    "id": "1890100975",
    "name": "千寿の森訪問介護ステーション",
    "kana": "センジュノモリホウモンカイゴステーション",
    "address": "福井県福井市栗森２丁目２７１１",
    "lat": 36.1173146399309,
    "lng": 136.239612659525,
    "tel": "0776-56-1027",
    "url": "https://www.tanpopoen-senjukai.com",
    "pref": "福井県",
    "city": "福井市",
    "category": "regular_patrol_nursing",
    "serviceType": "定期巡回・随時対応型訪問介護看護",
    "capacity": 49,
    "openDays": [],
    "openDaysNote": ""
  }
]