[
  {
    "id": "791300122",
    "name": "指定定期巡回・随時対応型訪問介護看護事業所「向日葵」",
    "kana": "シテイテイキジュンカイ・ズイジタイオウガタホウモンカイゴカンゴジギョウショ「ヒマワリ」",
    "address": "福島県伊達市霊山町掛田字岡３０−９",
    "lat": 37.7821627,
    "lng": 140.593701,
    "tel": "024-586-3810",
    "url": "https://youi-kai.org",
    "pref": "福島県",
    "city": "伊達市",
    "category": "regular_patrol_nursing",
    "serviceType": "定期巡回・随時対応型訪問介護看護",
    "capacity": 20,
    "openDays": [],
    "openDaysNote": ""
  },
  {
    "id": "791300254",
    "name": "指定定期巡回・随時対応型訪問介護看護事業所桜",
    "kana": "シテイテイキジュンカイ・ズイジタイオウガタホウモンカイゴカンゴジギョウショサクラ",
    "address": "福島県伊達市梁川町上町36",
    "lat": 37.8597436921198,
    "lng": 140.611281745405,
    "tel": "024-573-4980",
    "url": "https://kakeikai.or.jp/",
    "pref": "福島県",
    "city": "伊達市",
    "category": "regular_patrol_nursing",
    "serviceType": "定期巡回・随時対応型訪問介護看護",
    "capacity": 0,
    "openDays": [],
    "openDaysNote": ""
  },
  {
    "id": "791300221",
    "name": "定期巡回・随時対応型訪問介護看護ステーション　やながわ大生苑",
    "kana": "テイキジュンカイズイジタイオウガタホウモンカイゴカンゴステーションヤナガワタイセイエン",
    "address": "福島県伊達市梁川町字南本町46-1",
    "lat": 37.8548387,
    "lng": 140.6017064,
    "tel": "024-573-0122",
    "url": "www.yanagawa-taiseien.jp",
    "pref": "福島県",
    "city": "伊達市",
    "category": "regular_patrol_nursing",
    "serviceType": "定期巡回・随時対応型訪問介護看護",
    "capacity": 0,
    "openDays": [],
    "openDaysNote": ""
  },
  {
    "id": "790301147",
    "name": "いちかわ定期巡回KAISEI",
    "kana": "イチカワテイキジュンカイカイセイ",
    "address": "福島県郡山市開成5丁目26－23ベルトピア開成203号 ベルトピア開成203号",
    "lat": 37.3903104,
    "lng": 140.3489697,
    "tel": "024-983-5700",
    "url": "http://care-itikawa.com",
    "pref": "福島県",
    "city": "郡山市",
    "category": "regular_patrol_nursing",
    "serviceType": "定期巡回・随時対応型訪問介護看護",
    "capacity": null,
    "openDays": [],
    "openDaysNote": ""
  },
  {
    "id": "790300933",
    "name": "ワンランド定期巡回郡山",
    "kana": "ワンランドテイキジュンカイコオリヤマ",
    "address": "福島県郡山市小原田三丁目22-22サンライズ103 サンライズ103",
    "lat": 37.3778272,
    "lng": 140.3873495,
    "tel": "249736656",
    "url": "http://www.oneland.co.jp",
    "pref": "福島県",
    "city": "郡山市",
    "category": "regular_patrol_nursing",
    "serviceType": "定期巡回・随時対応型訪問介護看護",
    "capacity": 0,
    "openDays": [],
    "openDaysNote": ""
  },
  {
    "id": "790301014",
    "name": "ワンランド定期巡回郡山南",
    "kana": "ワンランドテイキジュンカイコオリヤマミナミ",
    "address": "福島県郡山市賀庄153-1パルク賀庄1-C パルク賀庄1-C",
    "lat": 37.3699315,
    "lng": 140.3678833,
    "tel": "024-983-7300",
    "url": "http://www.oneland.co.jp",
    "pref": "福島県",
    "city": "郡山市",
    "category": "regular_patrol_nursing",
    "serviceType": "定期巡回・随時対応型訪問介護看護",
    "capacity": 0,
    "openDays": [],
    "openDaysNote": ""
  },
  {
    "id": "790300941",
    "name": "繋ケアステーション",
    "kana": "ツナグケアステーション",
    "address": "福島県郡山市桜木一丁目12番7号",
    "lat": 37.4080984,
    "lng": 140.3711888,
    "tel": "024-954-4443",
    "url": "www.enjyu-enjoy.com",
    "pref": "福島県",
    "city": "郡山市",
    "category": "regular_patrol_nursing",
    "serviceType": "定期巡回・随時対応型訪問介護看護",
    "capacity": 40,
    "openDays": [],
    "openDaysNote": ""
  },
  {
    "id": "790301071",
    "name": "定期巡回　希",
    "kana": "テイキジュンカイ　ノゾミ",
    "address": "福島県郡山市並木１丁目18-1ベル並木１F ベル並木１F",
    "lat": 37.4115777,
    "lng": 140.3631985,
    "tel": "070-8839-4351",
    "url": "",
    "pref": "福島県",
    "city": "郡山市",
    "category": "regular_patrol_nursing",
    "serviceType": "定期巡回・随時対応型訪問介護看護",
    "capacity": 0,
    "openDays": [],
    "openDaysNote": ""
  },
  {
    "id": "790300651",
    "name": "定期巡回・随時対応型訪問介護看護事業所　おおつき",
    "kana": "テイキジュンカイ・ズイジタオウガタホウモンカイゴカンゴジギョウショ　オオツキ",
    "address": "福島県郡山市大槻町字西勝ノ木5-1",
    "lat": 37.3935322,
    "lng": 140.306319,
    "tel": "050-5305-6677",
    "url": "http://kuwano-fukushikai:jp",
    "pref": "福島県",
    "city": "郡山市",
    "category": "regular_patrol_nursing",
    "serviceType": "定期巡回・随時対応型訪問介護看護",
    "capacity": 0,
    "openDays": [],
    "openDaysNote": ""
  },
  {
    "id": "790300602",
    "name": "定期巡回・随時対応型訪問介護看護事業所　ふじ",
    "kana": "テイキジュンカイ・ズイジタイオウガタホウモンカイゴカンゴジギョウショ　フジ",
    "address": "福島県郡山市八山田西二丁目159",
    "lat": 37.4296080758752,
    "lng": 140.360786859633,
    "tel": "024-953-4785",
    "url": "",
    "pref": "福島県",
    "city": "郡山市",
    "category": "regular_patrol_nursing",
    "serviceType": "定期巡回・随時対応型訪問介護看護",
    "capacity": 0,
    "openDays": [],
    "openDaysNote": ""
  },
  {
    "id": "790300750",
    "name": "定期巡回・随時対応型訪問介護看護事業所あさか",
    "kana": "テイキジュンカイ・ズイジタイオウガタホウモンカイゴカンゴジギヨウショアサカ",
    "address": "福島県郡山市安積荒井3-64エターナル弁天　１F号棟A号室 エターナル弁天　１F号棟A号室",
    "lat": 37.3701044190872,
    "lng": 140.359568584775,
    "tel": "024-953-6777",
    "url": "",
    "pref": "福島県",
    "city": "郡山市",
    "category": "regular_patrol_nursing",
    "serviceType": "定期巡回・随時対応型訪問介護看護",
    "capacity": 10,
    "openDays": [],
    "openDaysNote": ""
  },
  {
    "id": "790300875",
    "name": "定期巡回・随時対応型訪問介護看護事業所とみた",
    "kana": "テイキジュンカイ・ズイジタイオウガタホウモンカイゴカンゴジギョウショトミタ",
    "address": "冨田町字十文字49番地1エムズアパートメント101 エムズアパートメント101",
    "lat": 37.4119619,
    "lng": 140.3449075,
    "tel": "024-953-5130",
    "url": "http://eco-kaigo.com",
    "pref": "福島県",
    "city": "郡山市",
    "category": "regular_patrol_nursing",
    "serviceType": "定期巡回・随時対応型訪問介護看護",
    "capacity": 5,
    "openDays": [],
    "openDaysNote": ""
  },
  {
    "id": "790301220",
    "name": "定期巡回お花畑",
    "kana": "テイキジュンカイオハナバタケ",
    "address": "福島県郡山市熱海町熱海2－56",
    "lat": 37.4816500984783,
    "lng": 140.273146862566,
    "tel": "070‐3276‐6077",
    "url": "https://ohana-batake.net/",
    "pref": "福島県",
    "city": "郡山市",
    "category": "regular_patrol_nursing",
    "serviceType": "定期巡回・随時対応型訪問介護看護",
    "capacity": 0,
    "openDays": [],
    "openDaysNote": ""
  },
  {
    "id": "790300271",
    "name": "定期巡回随時対応型訪問介護看護事業所なのはな",
    "kana": "テイキジュンカイズイジタイオウカタホウモンカイゴカンゴジギョウショナノハナ",
    "address": "福島県郡山市鳴神一丁目６３番地医療生協サービス付高齢者住宅なのはな 医療生協サービス付高齢者住宅なのはな",
    "lat": 37.395104,
    "lng": 140.338572,
    "tel": "024-953-4005",
    "url": "koriyama-h-coop.or.jp/",
    "pref": "福島県",
    "city": "郡山市",
    "category": "regular_patrol_nursing",
    "serviceType": "定期巡回・随時対応型訪問介護看護",
    "capacity": 0,
    "openDays": [],
    "openDaysNote": ""
  },
  {
    "id": "793100165",
    "name": "定期巡回・随時対応型訪問介護看護ほほえみの里みはる",
    "kana": "テイキジュンカイ・ズイジタイオウガタホウモンカイゴカンゴホホエミノサトミハル",
    "address": "福島県田村郡三春町大字熊耳字神山２８７番",
    "lat": 37.4438141,
    "lng": 140.5197853,
    "tel": "0247-61-5622",
    "url": "https://hohoemifukushikai.com/",
    "pref": "福島県",
    "city": "三春町",
    "category": "regular_patrol_nursing",
    "serviceType": "定期巡回・随時対応型訪問介護看護",
    "capacity": null,
    "openDays": [],
    "openDaysNote": ""
  },
  {
    "id": "793110065",
    "name": "定期巡回・随時対応型訪問介護看護事業所　えがおの里",
    "kana": "テイキジュンカイ・ズイジタイオウガタホウモンカイゴカンゴジギョウショ　エガオノサト",
    "address": "福島県田村郡小野町大字谷津作字高山３-５",
    "lat": 37.2710091876605,
    "lng": 140.628385290651,
    "tel": "0247-61-6203",
    "url": "",
    "pref": "福島県",
    "city": "小野町",
    "category": "regular_patrol_nursing",
    "serviceType": "定期巡回・随時対応型訪問介護看護",
    "capacity": 0,
    "openDays": [],
    "openDaysNote": ""
  },
  {
    "id": "790700116",
    "name": "ワンランド定期巡回須賀川",
    "kana": "ワンランドテイキジュンカイスカガワ",
    "address": "福島県須賀川市森宿字安積田２１１－２シニアパンション須賀川・森宿　内 シニアパンション須賀川・森宿　内",
    "lat": 37.3163700096378,
    "lng": 140.363146894676,
    "tel": "0248-94-5590",
    "url": "http://www.oanlando.co.jp",
    "pref": "福島県",
    "city": "須賀川市",
    "category": "regular_patrol_nursing",
    "serviceType": "定期巡回・随時対応型訪問介護看護",
    "capacity": 0,
    "openDays": [],
    "openDaysNote": ""
  },
  {
    "id": "790700074",
    "name": "定期巡回随時対応型訪問介護看護事業所「ひかり」",
    "kana": "テキジュンカイズイジタイオウガタホウモンカイゴカンゴジギョウショヒカリ",
    "address": "福島県須賀川市陣場町108番地",
    "lat": 37.2983722604458,
    "lng": 140.363868365633,
    "tel": "0248-94-4382",
    "url": "https://www.clover-kaigo.jp/",
    "pref": "福島県",
    "city": "須賀川市",
    "category": "regular_patrol_nursing",
    "serviceType": "定期巡回・随時対応型訪問介護看護",
    "capacity": 0,
    "openDays": [],
    "openDaysNote": ""
  },
  {
    "id": "792800062",
    "name": "定期巡回・随時対応型訪問介護事業所たんぽぽ",
    "kana": "テイキジュンカイ・ズイジタイオウガタホウモンカイゴカンゴジギョウショタンポポ",
    "address": "福島県西白河郡西郷村大字小田倉字小田倉原35－7シニアホームこもれび シニアホームこもれび",
    "lat": 37.1226423,
    "lng": 140.165533,
    "tel": "0248－21－9500",
    "url": "",
    "pref": "福島県",
    "city": "西郷村",
    "category": "regular_patrol_nursing",
    "serviceType": "定期巡回・随時対応型訪問介護看護",
    "capacity": 0,
    "openDays": [],
    "openDaysNote": ""
  },
  {
    "id": "791100100",
    "name": "定期巡回すみれ",
    "kana": "テイキジュンカイスミレ",
    "address": "福島県田村市船引町船引字砂子田198",
    "lat": 37.444921,
    "lng": 140.5724917,
    "tel": "0247-82-5369",
    "url": "https://funehiki.clinic/",
    "pref": "福島県",
    "city": "田村市",
    "category": "regular_patrol_nursing",
    "serviceType": "定期巡回・随時対応型訪問介護看護",
    "capacity": null,
    "openDays": [],
    "openDaysNote": ""
  },
  {
    "id": "791000086",
    "name": "JWS陽だまりの郷　定期巡回・随時対応型訪問介護看護事業所",
    "kana": "ジェイダブリューエスヒダマリノサト　テイキジュンカイ・ズイジタイオウガタホウモンカイゴカンゴジギョウショ",
    "address": "福島県二本松市表2丁目775番地",
    "lat": 37.6043905,
    "lng": 140.4361052,
    "tel": "0243-62-1031",
    "url": "http://jws-c.jp",
    "pref": "福島県",
    "city": "二本松市",
    "category": "regular_patrol_nursing",
    "serviceType": "定期巡回・随時対応型訪問介護看護",
    "capacity": 0,
    "openDays": [],
    "openDaysNote": ""
  },
  {
    "id": "790500292",
    "name": "ワンランドケア白河",
    "kana": "ワンランドケアシラカワ",
    "address": "福島県白河市昭和町273-1",
    "lat": 37.1309436207106,
    "lng": 140.198178259525,
    "tel": "248230028",
    "url": "http://www.oneland.co.jp",
    "pref": "福島県",
    "city": "白河市",
    "category": "regular_patrol_nursing",
    "serviceType": "定期巡回・随時対応型訪問介護看護",
    "capacity": null,
    "openDays": [],
    "openDaysNote": ""
  },
  {
    "id": "790500177",
    "name": "定期巡回・随時対応型訪問介護看護事業所みさか",
    "kana": "テイキジュンカイ・ズイジタイオウガタホウモンカイゴカンゴジギョウショミサカ",
    "address": "福島県白河市みさか2丁目48－35",
    "lat": 37.1060837,
    "lng": 140.1963421,
    "tel": "0248-21-5635",
    "url": "",
    "pref": "福島県",
    "city": "白河市",
    "category": "regular_patrol_nursing",
    "serviceType": "定期巡回・随時対応型訪問介護看護",
    "capacity": null,
    "openDays": [],
    "openDaysNote": ""
  },
  {
    "id": "793200056",
    "name": "はま福TOMIOKA",
    "kana": "ハマフクトミオカ",
    "address": "福島県双葉郡富岡町夜の森南二丁目1番１",
    "lat": 37.3653388,
    "lng": 140.9961503,
    "tel": "050-8888-5536",
    "url": "https://www.hamafuku-tomi.com/",
    "pref": "福島県",
    "city": "富岡町",
    "category": "regular_patrol_nursing",
    "serviceType": "定期巡回・随時対応型訪問介護看護",
    "capacity": null,
    "openDays": [],
    "openDaysNote": ""
  },
  {
    "id": "790100820",
    "name": "24時間訪問介護看護ステーション　花桃館",
    "kana": "ニジュウヨジカンホウモンカイゴカンゴステーションハナモモカン",
    "address": "福島県福島市飯坂町湯野字湯ノ上13-1",
    "lat": 37.8309425,
    "lng": 140.4553685,
    "tel": "024-563-3900",
    "url": "http://iizaka-hanamomo.jp",
    "pref": "福島県",
    "city": "福島市",
    "category": "regular_patrol_nursing",
    "serviceType": "定期巡回・随時対応型訪問介護看護",
    "capacity": 60,
    "openDays": [],
    "openDaysNote": ""
  },
  {
    "id": "790101166",
    "name": "エルタガーデン定期巡回・随時対応型訪問介護看護事業所",
    "kana": "エルタガーデンテイキジュンカイ・ズイジタイオウガタホウモンカイゴカンゴジギョウショ",
    "address": "福島県福島市八島田字樋ノ口８０",
    "lat": 37.7682088,
    "lng": 140.4341909,
    "tel": "024-563-6831",
    "url": "https://f-elta.net/",
    "pref": "福島県",
    "city": "福島市",
    "category": "regular_patrol_nursing",
    "serviceType": "定期巡回・随時対応型訪問介護看護",
    "capacity": 0,
    "openDays": [],
    "openDaysNote": ""
  },
  {
    "id": "790101059",
    "name": "エルタ定期巡回・随時対応型訪問介護看護事業所",
    "kana": "エルタテイキジュンカイ・ズイジタイオウガタホウモンカイゴカンゴジギョウショ",
    "address": "福島県福島市東浜町10-16エルフィリア エルフィリア",
    "lat": 37.7631913,
    "lng": 140.4867542,
    "tel": "024-573-0679",
    "url": "https://f-elta.net/",
    "pref": "福島県",
    "city": "福島市",
    "category": "regular_patrol_nursing",
    "serviceType": "定期巡回・随時対応型訪問介護看護",
    "capacity": null,
    "openDays": [],
    "openDaysNote": ""
  },
  {
    "id": "790100382",
    "name": "グリーンライト定期巡回・随時対応型訪問介護看護事業所",
    "kana": "グリーンライトテイキジュンカイ・ズイジタイオウガタホウモンカイゴカンゴジギョウショ",
    "address": "福島県福島市飯坂町湯野字梁尻１－１",
    "lat": 37.8225325,
    "lng": 140.4562745,
    "tel": "024-542-7777",
    "url": "http://care-net.biz/07/ryokukouen/",
    "pref": "福島県",
    "city": "福島市",
    "category": "regular_patrol_nursing",
    "serviceType": "定期巡回・随時対応型訪問介護看護",
    "capacity": 0,
    "openDays": [],
    "openDaysNote": ""
  },
  {
    "id": "790100663",
    "name": "ハッピー愛ランド　24時間訪問介護看護ステーション",
    "kana": "ハッピーアイランド　ニジュウヨジカンホウモンカイゴカンゴステーション",
    "address": "福島市本内字西河原5-76ハッピー愛ランド地域交流センター ハッピー愛ランド地域交流センター",
    "lat": 37.7817704914705,
    "lng": 140.481647657014,
    "tel": "024-573-0201",
    "url": "http://www.happyisland.org/",
    "pref": "福島県",
    "city": "福島市",
    "category": "regular_patrol_nursing",
    "serviceType": "定期巡回・随時対応型訪問介護看護",
    "capacity": 0,
    "openDays": [],
    "openDaysNote": ""
  },
  {
    "id": "790100614",
    "name": "リブレ松川24時間訪問介護看護事業所",
    "kana": "リブレマツカワ２４ジカンホウモンカイゴカンゴジギョウショ",
    "address": "福島県福島市松川町美郷4丁目13番8",
    "lat": 37.6657277,
    "lng": 140.4728719,
    "tel": "024-573-6522",
    "url": "",
    "pref": "福島県",
    "city": "福島市",
    "category": "regular_patrol_nursing",
    "serviceType": "定期巡回・随時対応型訪問介護看護",
    "capacity": null,
    "openDays": [],
    "openDaysNote": ""
  },
  {
    "id": "790100341",
    "name": "ロング・ライフ24時間訪問介護看護事業所",
    "kana": "ロング・ライフ24ジカンホウモンカイゴカンゴジギョウショ",
    "address": "福島市松川町字産子内１番地の１",
    "lat": 37.6672997,
    "lng": 140.4780434,
    "tel": "024-567-5800",
    "url": "http://www.life-time-fukushima.jp/",
    "pref": "福島県",
    "city": "福島市",
    "category": "regular_patrol_nursing",
    "serviceType": "定期巡回・随時対応型訪問介護看護",
    "capacity": 5,
    "openDays": [],
    "openDaysNote": ""
  },
  {
    "id": "790101158",
    "name": "愛ホームケアすかわ　定期巡回随時対応型訪問介護看護",
    "kana": "アイホームケアスカワテイキジュンカイズイジタイオウガタホウモンカイゴカンゴ",
    "address": "福島県福島市野田町１丁目１３－５８",
    "lat": 37.7546018,
    "lng": 140.4494759,
    "tel": "024-563-3611",
    "url": "",
    "pref": "福島県",
    "city": "福島市",
    "category": "regular_patrol_nursing",
    "serviceType": "定期巡回・随時対応型訪問介護看護",
    "capacity": 0,
    "openDays": [],
    "openDaysNote": ""
  },
  {
    "id": "790100853",
    "name": "愛ホームケアにじのまち定期巡回・随時対応型訪問介護看護",
    "kana": "アイホームケアニジノマチテイキジュンカイズイジタイオウガタホウモンカイゴカンゴ",
    "address": "福島県福島市南沢又字上並8－6",
    "lat": 37.784611384383,
    "lng": 140.442486786249,
    "tel": "024-555-2626",
    "url": "",
    "pref": "福島県",
    "city": "福島市",
    "category": "regular_patrol_nursing",
    "serviceType": "定期巡回・随時対応型訪問介護看護",
    "capacity": 50,
    "openDays": [],
    "openDaysNote": ""
  },
  {
    "id": "790100556",
    "name": "定期巡回・随時対応型訪問介護看護ステーション湯の里大生苑",
    "kana": "テイキジュンカイズイジタイオウガタホウモンカイゴカンゴステーションユノサトタイセイエン",
    "address": "福島県福島市飯坂町湯野字切湯ノ上2-6",
    "lat": 37.8326483476038,
    "lng": 140.454778789549,
    "tel": "024-542-0606",
    "url": "http://www.yunosato-taiseien.jp/",
    "pref": "福島県",
    "city": "福島市",
    "category": "regular_patrol_nursing",
    "serviceType": "定期巡回・随時対応型訪問介護看護",
    "capacity": 0,
    "openDays": [],
    "openDaysNote": ""
  },
  {
    "id": "790100762",
    "name": "定期巡回・随時対応型訪問介護看護事業所　ひかり",
    "kana": "テイキジュンカイズイジタイオウガタホウモンカイゴカンゴジギョウショ　ヒカリ",
    "address": "福島県福島市小倉寺字美濃輪下1-3",
    "lat": 37.7292095,
    "lng": 140.4743484,
    "tel": "024-572-5681",
    "url": "http://ai-nosato.jp",
    "pref": "福島県",
    "city": "福島市",
    "category": "regular_patrol_nursing",
    "serviceType": "定期巡回・随時対応型訪問介護看護",
    "capacity": 0,
    "openDays": [],
    "openDaysNote": ""
  },
  {
    "id": "790100846",
    "name": "定期巡回・随時対応型訪問介護看護事業所　森の風",
    "kana": "テイキジュンカイ・ズイジタイオウガタホウモンカイゴカンゴジギョウショ　モリノカゼ",
    "address": "福島県福島市南沢又字水門下160番地の3",
    "lat": 37.7820773691551,
    "lng": 140.411312213492,
    "tel": "024-572-3668",
    "url": "http://youkoukai.jp/",
    "pref": "福島県",
    "city": "福島市",
    "category": "regular_patrol_nursing",
    "serviceType": "定期巡回・随時対応型訪問介護看護",
    "capacity": 25,
    "openDays": [],
    "openDaysNote": ""
  },
  {
    "id": "790100531",
    "name": "定期巡回・随時対応型訪問介護看護事業所ひだまり",
    "kana": "テイキジュンカイ・ズイジタイオウガタホウモンカイゴカンゴジギョウショヒダマリ",
    "address": "福島県福島市渡利字中江町40-1",
    "lat": 37.7481962,
    "lng": 140.4830782,
    "tel": "024-563-5762",
    "url": "",
    "pref": "福島県",
    "city": "福島市",
    "category": "regular_patrol_nursing",
    "serviceType": "定期巡回・随時対応型訪問介護看護",
    "capacity": 0,
    "openDays": [],
    "openDaysNote": ""
  },
  {
    "id": "790101034",
    "name": "定期巡回ステーション　スマイル飯坂",
    "kana": "テイキジュンカイステーション　スマイルイイザカ",
    "address": "福島市飯坂町湯野字上川原1",
    "lat": 37.8371951,
    "lng": 140.4508449,
    "tel": "024-542-3997",
    "url": "",
    "pref": "福島県",
    "city": "福島市",
    "category": "regular_patrol_nursing",
    "serviceType": "定期巡回・随時対応型訪問介護看護",
    "capacity": 0,
    "openDays": [],
    "openDaysNote": ""
  },
  {
    "id": "790101083",
    "name": "定期巡回ステーション明日の樹",
    "kana": "テイキジュンカイステーションアスノキ",
    "address": "福島県福島市南矢野目字中江10-12",
    "lat": 37.7870041598669,
    "lng": 140.454265776092,
    "tel": "04-572-4557",
    "url": "",
    "pref": "福島県",
    "city": "福島市",
    "category": "regular_patrol_nursing",
    "serviceType": "定期巡回・随時対応型訪問介護看護",
    "capacity": 0,
    "openDays": [],
    "openDaysNote": ""
  },
  {
    "id": "792800112",
    "name": "定期巡回・随時対応型訪問介護看護事業所おおまち",
    "kana": "テイキジュンカイ・ズイジタイオウガタホウモンカイゴカンゴジギョウショオオマチ",
    "address": "福島県西白河郡矢吹町大町227-2シニアホームおおまち シニアホームおおまち",
    "lat": 37.2036635,
    "lng": 140.3185145,
    "tel": "0248-21-6163",
    "url": "https://www.clover-kaigo.jp/",
    "pref": "福島県",
    "city": "矢吹町",
    "category": "regular_patrol_nursing",
    "serviceType": "定期巡回・随時対応型訪問介護看護",
    "capacity": null,
    "openDays": [],
    "openDaysNote": ""
  }
]