[
  {
    "id": "4097300075",
    "name": "ひじり会24時間ケアセンターにじの家",
    "kana": "ヒジリカイ24ジカンケアセンターニジノイエ",
    "address": "福岡県うきは市吉井町八和田876－1",
    "lat": 33.3551656,
    "lng": 130.7432867,
    "tel": "0943-74-2233",
    "url": "http://hijirikai.com/",
    "pref": "福岡県",
    "city": "うきは市",
    "category": "regular_patrol_nursing",
    "serviceType": "定期巡回・随時対応型訪問介護看護",
    "capacity": 0,
    "openDays": [],
    "openDaysNote": ""
  },
  {
    "id": "4098700158",
    "name": "ライフサポート　すいせん",
    "kana": "ライフサポート　スイセン",
    "address": "福岡県みやま市　高田町濃施480番地２",
    "lat": 33.1011916,
    "lng": 130.456805,
    "tel": "0944-32-8062",
    "url": "",
    "pref": "福岡県",
    "city": "みやま市",
    "category": "regular_patrol_nursing",
    "serviceType": "定期巡回・随時対応型訪問介護看護",
    "capacity": 0,
    "openDays": [],
    "openDaysNote": ""
  },
  {
    "id": "4098700166",
    "name": "定期巡回型訪問サービス「やまびこ」",
    "kana": "テイキジュンカイガタホウモンサービスヤマビコ",
    "address": "福岡県みやま市山川町尾野1553番地2",
    "lat": 33.1242783,
    "lng": 130.5102773,
    "tel": "0944-67-1381",
    "url": "https://www.yamabiko-care.com/",
    "pref": "福岡県",
    "city": "みやま市",
    "category": "regular_patrol_nursing",
    "serviceType": "定期巡回・随時対応型訪問介護看護",
    "capacity": null,
    "openDays": [],
    "openDaysNote": ""
  },
  {
    "id": "4092100082",
    "name": "嘉麻赤十字24時間在宅ケアステーション",
    "kana": "カマセキジュウジニジュウヨジカンザイタクケアステーション",
    "address": "上山田1237",
    "lat": 33.5617975,
    "lng": 130.7618619,
    "tel": "0948-52-0883",
    "url": "http://www.kama-jrc.jp/",
    "pref": "福岡県",
    "city": "嘉麻市",
    "category": "regular_patrol_nursing",
    "serviceType": "定期巡回・随時対応型訪問介護看護",
    "capacity": 0,
    "openDays": [],
    "openDaysNote": ""
  },
  {
    "id": "4091601734",
    "name": "ぐるっと　たんがく",
    "kana": "グルット　タンガク",
    "address": "福岡県久留米市上津1丁目23-10",
    "lat": 33.2871108,
    "lng": 130.5307173,
    "tel": "0942-65-9891",
    "url": "tangaku.com",
    "pref": "福岡県",
    "city": "久留米市",
    "category": "regular_patrol_nursing",
    "serviceType": "定期巡回・随時対応型訪問介護看護",
    "capacity": 0,
    "openDays": [],
    "openDaysNote": ""
  },
  {
    "id": "4091601510",
    "name": "ケアコールセンター江戸くま",
    "kana": "ケアコールセンターエドクマ",
    "address": "福岡県久留米市津福今町458-3",
    "lat": 33.2928860279971,
    "lng": 130.499937564683,
    "tel": "0942-65-8263",
    "url": "",
    "pref": "福岡県",
    "city": "久留米市",
    "category": "regular_patrol_nursing",
    "serviceType": "定期巡回・随時対応型訪問介護看護",
    "capacity": 70,
    "openDays": [],
    "openDaysNote": ""
  },
  {
    "id": "4091601338",
    "name": "こがラウンドケア大石町",
    "kana": "コガラウンドケアオオイシマチ",
    "address": "福岡県久留米市大石町23－5",
    "lat": 33.3146645,
    "lng": 130.4983577,
    "tel": "0942‐38‐3930",
    "url": "",
    "pref": "福岡県",
    "city": "久留米市",
    "category": "regular_patrol_nursing",
    "serviceType": "定期巡回・随時対応型訪問介護看護",
    "capacity": 0,
    "openDays": [],
    "openDaysNote": ""
  },
  {
    "id": "4091600728",
    "name": "ヘルパーステーション「きらら」",
    "kana": "ヘルパーステーション「キララ」",
    "address": "久留米市北野町八重亀391番地１グループホームくましろ１階 グループホームくましろ１階",
    "lat": 33.3542018145875,
    "lng": 130.625611349213,
    "tel": "0942-23-1212",
    "url": "http://kumashiro-hospital.or.jp",
    "pref": "福岡県",
    "city": "久留米市",
    "category": "regular_patrol_nursing",
    "serviceType": "定期巡回・随時対応型訪問介護看護",
    "capacity": 0,
    "openDays": [],
    "openDaysNote": ""
  },
  {
    "id": "4091601429",
    "name": "みづまの杜定期巡回訪問介護看護ステーション",
    "kana": "ミヅマノモリテイキジュンカイホウモンカイゴカンゴステーション",
    "address": "福岡県久留米市三潴町高三潴1303-1有料老人ホームみづまの杜 有料老人ホームみづまの杜",
    "lat": 33.2621414,
    "lng": 130.4528265,
    "tel": "0942-54-6350",
    "url": "http://zensikai.jp/miduma/",
    "pref": "福岡県",
    "city": "久留米市",
    "category": "regular_patrol_nursing",
    "serviceType": "定期巡回・随時対応型訪問介護看護",
    "capacity": 0,
    "openDays": [],
    "openDaysNote": ""
  },
  {
    "id": "4091601312",
    "name": "メディケアサービス　いつき",
    "kana": "メディケアサービス　イツキ",
    "address": "福岡県久留米市梅満町260番地1",
    "lat": 33.3116071,
    "lng": 130.4916849,
    "tel": "0942-48-2021",
    "url": "http://www.kurumedi.com",
    "pref": "福岡県",
    "city": "久留米市",
    "category": "regular_patrol_nursing",
    "serviceType": "定期巡回・随時対応型訪問介護看護",
    "capacity": 58,
    "openDays": [],
    "openDaysNote": ""
  },
  {
    "id": "4091600918",
    "name": "ラウンドケアサービスこが",
    "kana": "ラウンドケアサービスコガ",
    "address": "久留米市宮ノ陣4丁目30番10号",
    "lat": 33.3334915,
    "lng": 130.5396321,
    "tel": "0942-38-2525",
    "url": "http://www.tenjinkai.or.jp",
    "pref": "福岡県",
    "city": "久留米市",
    "category": "regular_patrol_nursing",
    "serviceType": "定期巡回・随時対応型訪問介護看護",
    "capacity": 0,
    "openDays": [],
    "openDaysNote": ""
  },
  {
    "id": "4091601031",
    "name": "社会医療法人天神会　こがラウンドケア野伏間",
    "kana": "シャカイイリョウホウジンテンジンカイ　コガラウンドケアノブスマ",
    "address": "福岡県久留米市野伏間１丁目９番６号",
    "lat": 33.285052,
    "lng": 130.5117205,
    "tel": "0942-26-6169",
    "url": "http://www.tenjinkai.or.jp",
    "pref": "福岡県",
    "city": "久留米市",
    "category": "regular_patrol_nursing",
    "serviceType": "定期巡回・随時対応型訪問介護看護",
    "capacity": 4,
    "openDays": [],
    "openDaysNote": ""
  },
  {
    "id": "4091600819",
    "name": "聖マリアヘルパーステーション",
    "kana": "セイマリアヘルパーステーション",
    "address": "福岡県久留米市津福本町422聖マリア病院　聖母病棟１階 聖マリア病院　聖母病棟１階",
    "lat": 33.3045323612356,
    "lng": 130.50722703782,
    "tel": "0942-46-1600",
    "url": "http://www.st-mary-med.or.jp",
    "pref": "福岡県",
    "city": "久留米市",
    "category": "regular_patrol_nursing",
    "serviceType": "定期巡回・随時対応型訪問介護看護",
    "capacity": 0,
    "openDays": [],
    "openDaysNote": ""
  },
  {
    "id": "4091601379",
    "name": "定期巡回・随時対応型訪問介護看護　エバーガーデン久留米市中央町",
    "kana": "テイキジュンカイ・ズイジタイオウガタホウモンカイゴカンゴ　エバーガーデンクルメチュウオウマチ",
    "address": "福岡県久留米市中央町16番地33有料老人ホーム　エバーガーデン久留米中央町 有料老人ホーム　エバーガーデン久留米中央町",
    "lat": 33.3186480693568,
    "lng": 130.504805169312,
    "tel": "0942-65-3097",
    "url": "https://evergarden-kurume.jp/",
    "pref": "福岡県",
    "city": "久留米市",
    "category": "regular_patrol_nursing",
    "serviceType": "定期巡回・随時対応型訪問介護看護",
    "capacity": 0,
    "openDays": [],
    "openDaysNote": ""
  },
  {
    "id": "4091601528",
    "name": "定期巡回・随時対応型訪問介護看護コロボックル",
    "kana": "テイキジュンカイ・ズイジタイオウガタホウモンカイゴカンゴ　コロボックル",
    "address": "福岡県久留米市荒木町白口2324-3古賀第2ビル1階 古賀第2ビル1階",
    "lat": 33.2752769,
    "lng": 130.4992834,
    "tel": "0942-26-7115",
    "url": "https://kiccho.org/",
    "pref": "福岡県",
    "city": "久留米市",
    "category": "regular_patrol_nursing",
    "serviceType": "定期巡回・随時対応型訪問介護看護",
    "capacity": 0,
    "openDays": [],
    "openDaysNote": ""
  },
  {
    "id": "4093600049",
    "name": "豊資会定期巡回訪問介護ステーション",
    "kana": "ホウシカイテイキジュンカイホウモンカイゴステーション",
    "address": "福岡県古賀市花見南2丁目11-1ルーエハイム安心 ルーエハイム安心",
    "lat": 33.7421469496075,
    "lng": 130.468308353967,
    "tel": "092-943-7754",
    "url": "http://www.houshikai.or.jp/",
    "pref": "福岡県",
    "city": "古賀市",
    "category": "regular_patrol_nursing",
    "serviceType": "定期巡回・随時対応型訪問介護看護",
    "capacity": 0,
    "openDays": [],
    "openDaysNote": ""
  },
  {
    "id": "4098400031",
    "name": "24時間ケアセンターひめの",
    "kana": "ニジュウヨジカンケアセンターヒメノ",
    "address": "福岡県八女郡広川町大字新代2316八女発心会 八女発心会",
    "lat": 33.2371261218042,
    "lng": 130.552928515344,
    "tel": "0943-32-7114",
    "url": "",
    "pref": "福岡県",
    "city": "広川町",
    "category": "regular_patrol_nursing",
    "serviceType": "定期巡回・随時対応型訪問介護看護",
    "capacity": 0,
    "openDays": [],
    "openDaysNote": ""
  },
  {
    "id": "4092600214",
    "name": "ナースケアセンターゆくはし",
    "kana": "ナースケアセンターユクハシ",
    "address": "福岡県行橋市東徳永167番地13",
    "lat": 33.6861073,
    "lng": 131.0076705,
    "tel": "0930-25-6557",
    "url": "zuihoukai@.mx36.tiki.ne.jp",
    "pref": "福岡県",
    "city": "行橋市",
    "category": "regular_patrol_nursing",
    "serviceType": "定期巡回・随時対応型訪問介護看護",
    "capacity": null,
    "openDays": [],
    "openDaysNote": ""
  },
  {
    "id": "4092600206",
    "name": "地域巡回ケアステーションりふる",
    "kana": "チイキジュンカイケアステーションリフル",
    "address": "道場寺1589-1",
    "lat": 33.6975978,
    "lng": 131.0075326,
    "tel": "0930-55-2222",
    "url": "https://re-full.com",
    "pref": "福岡県",
    "city": "行橋市",
    "category": "regular_patrol_nursing",
    "serviceType": "定期巡回・随時対応型訪問介護看護",
    "capacity": 0,
    "openDays": [],
    "openDaysNote": ""
  },
  {
    "id": "4099500011",
    "name": "ケアステーションほうじゅ",
    "kana": "ケアステーションホウジュ",
    "address": "福岡県田川郡糸田町1704番地複合型特別養護老人ホーム豊寿園 複合型特別養護老人ホーム豊寿園",
    "lat": 33.654889,
    "lng": 130.775236,
    "tel": "0947-26-5300",
    "url": "http://houjuen.sakura.ne.jp",
    "pref": "福岡県",
    "city": "糸田町",
    "category": "regular_patrol_nursing",
    "serviceType": "定期巡回・随時対応型訪問介護看護",
    "capacity": 10,
    "openDays": [],
    "openDaysNote": ""
  },
  {
    "id": "4093500108",
    "name": "ヘルパーステーション　それいゆ",
    "kana": "ヘルパーステーション　ソレイユ",
    "address": "福岡県糸島市前原東一丁目5－17",
    "lat": 33.5596871,
    "lng": 130.2060594,
    "tel": "092－329－8855",
    "url": "",
    "pref": "福岡県",
    "city": "糸島市",
    "category": "regular_patrol_nursing",
    "serviceType": "定期巡回・随時対応型訪問介護看護",
    "capacity": 0,
    "openDays": [],
    "openDaysNote": ""
  },
  {
    "id": "4093100156",
    "name": "24時間看護介護サービス・煌（きらめき）",
    "kana": "ニジュウヨジカンカンゴカイゴサービスキラメキ",
    "address": "福岡県春日市春日1丁目40番地",
    "lat": 33.5249381077609,
    "lng": 130.46910424418,
    "tel": "092-707-9070",
    "url": "",
    "pref": "福岡県",
    "city": "春日市",
    "category": "regular_patrol_nursing",
    "serviceType": "定期巡回・随時対応型訪問介護看護",
    "capacity": 0,
    "openDays": [],
    "openDaysNote": ""
  },
  {
    "id": "4093100206",
    "name": "ケアネットワークひゅうが",
    "kana": "ケアネットワークヒュウガ",
    "address": "福岡県春日市ちくし台5丁目132番1",
    "lat": 33.520572760786,
    "lng": 130.465033474344,
    "tel": "092-592-8701",
    "url": "https://www.hyuga-primary.care",
    "pref": "福岡県",
    "city": "春日市",
    "category": "regular_patrol_nursing",
    "serviceType": "定期巡回・随時対応型訪問介護看護",
    "capacity": 46,
    "openDays": [],
    "openDaysNote": ""
  },
  {
    "id": "4093100099",
    "name": "医療法人徳洲会　福岡徳洲会定期巡回ケアステーションぴーす",
    "kana": "イリョウホウジントクシュウカイ　フクオカトクシュウカイテイキジュンカイケアステーションピース",
    "address": "福岡県春日市桜ヶ丘４丁目２３番地",
    "lat": 33.5440565055447,
    "lng": 130.448082971164,
    "tel": "０９２－５８２－１１６６",
    "url": "",
    "pref": "福岡県",
    "city": "春日市",
    "category": "regular_patrol_nursing",
    "serviceType": "定期巡回・随時対応型訪問介護看護",
    "capacity": 20,
    "openDays": [],
    "openDaysNote": ""
  },
  {
    "id": "4094100056",
    "name": "あすなろヘルパーステーション",
    "kana": "アスナロヘルパーステーション",
    "address": "福岡県糟屋郡須恵町大字旅石68-261コンフォート須恵　　1Ｆ コンフォート須恵　　1Ｆ",
    "lat": 33.5850041,
    "lng": 130.4968932,
    "tel": "092-935-3896",
    "url": "",
    "pref": "福岡県",
    "city": "須恵町",
    "category": "regular_patrol_nursing",
    "serviceType": "定期巡回・随時対応型訪問介護看護",
    "capacity": null,
    "openDays": [],
    "openDaysNote": ""
  },
  {
    "id": "4093400127",
    "name": "ケアネットてんまんぐう",
    "kana": "ケアネットテンマングウ",
    "address": "福岡県太宰府市向佐野4丁目10-1",
    "lat": 33.509607,
    "lng": 130.4937927,
    "tel": "092-408-6900",
    "url": "",
    "pref": "福岡県",
    "city": "太宰府市",
    "category": "regular_patrol_nursing",
    "serviceType": "定期巡回・随時対応型訪問介護看護",
    "capacity": null,
    "openDays": [],
    "openDaysNote": ""
  },
  {
    "id": "4092500141",
    "name": "訪問介看護ステーション木輪",
    "kana": "ホウモンカイカンゴステーションキリン",
    "address": "福岡県大川市大字向島1407番地2階",
    "lat": 33.2092821330841,
    "lng": 130.374979322896,
    "tel": "0944-85-0921",
    "url": "",
    "pref": "福岡県",
    "city": "大川市",
    "category": "regular_patrol_nursing",
    "serviceType": "定期巡回・随時対応型訪問介護看護",
    "capacity": 0,
    "openDays": [],
    "openDaysNote": ""
  },
  {
    "id": "4091500548",
    "name": "ヘルパーステーションこもれび",
    "kana": "ヘルパーステーションコモレビ",
    "address": "福岡県大牟田市中町１丁目5-1",
    "lat": 33.0401889,
    "lng": 130.4437462,
    "tel": "0944-55-5233",
    "url": "info＠s-soreiyu.com",
    "pref": "福岡県",
    "city": "大牟田市",
    "category": "regular_patrol_nursing",
    "serviceType": "定期巡回・随時対応型訪問介護看護",
    "capacity": 0,
    "openDays": [],
    "openDaysNote": ""
  },
  {
    "id": "4093200238",
    "name": "ケアネットおおのじょう",
    "kana": "ケアネットオオノジョウ",
    "address": "福岡県大野城市御笠川１丁目3-6　オフィスパレア御笠川Ⅻ　2階(4号室)ナーシングホームおおのじょう ナーシングホームおおのじょう",
    "lat": 33.5520674753991,
    "lng": 130.47687845582,
    "tel": "092-558-6237",
    "url": "",
    "pref": "福岡県",
    "city": "大野城市",
    "category": "regular_patrol_nursing",
    "serviceType": "定期巡回・随時対応型訪問介護看護",
    "capacity": 5,
    "openDays": [],
    "openDaysNote": ""
  },
  {
    "id": "4093200261",
    "name": "定期巡回　こよいの里",
    "kana": "テイキジュンカイ　コヨイノサト",
    "address": "大野城市白木原3丁目2-6-102102 102",
    "lat": 33.5305615,
    "lng": 130.4816844,
    "tel": "092-558-7438",
    "url": "https://pmind-koyoi.com/",
    "pref": "福岡県",
    "city": "大野城市",
    "category": "regular_patrol_nursing",
    "serviceType": "定期巡回・随時対応型訪問介護看護",
    "capacity": 0,
    "openDays": [],
    "openDaysNote": ""
  },
  {
    "id": "4092400128",
    "name": "ヘルパーステーションはーとはんどChikugo",
    "kana": "ヘルパーステーションハートハンドチクゴ",
    "address": "福岡県筑後市大字野町389-1",
    "lat": 33.1962312205408,
    "lng": 130.501785392871,
    "tel": "0942-65-8025",
    "url": "http://mikikaku.com",
    "pref": "福岡県",
    "city": "筑後市",
    "category": "regular_patrol_nursing",
    "serviceType": "定期巡回・随時対応型訪問介護看護",
    "capacity": 0,
    "openDays": [],
    "openDaysNote": ""
  },
  {
    "id": "4092400169",
    "name": "定期巡回随時対応型訪問介護看護　ちっこりーの",
    "kana": "テイキジュンカイズイジタイオウガタホウモンカイゴカンゴ",
    "address": "福岡県筑後市蔵数521-7松福園八番館101号 松福園八番館101号",
    "lat": 33.2394095,
    "lng": 130.5071405,
    "tel": "080-9241-1940",
    "url": "kiccho.org",
    "pref": "福岡県",
    "city": "筑後市",
    "category": "regular_patrol_nursing",
    "serviceType": "定期巡回・随時対応型訪問介護看護",
    "capacity": 0,
    "openDays": [],
    "openDaysNote": ""
  },
  {
    "id": "4093000216",
    "name": "定期巡回こよいの里筑紫野",
    "kana": "テイキジュンカイコヨイノサトチクシノ",
    "address": "筑紫野市針摺中央2丁目15-5松尾ビル104号 松尾ビル104号",
    "lat": 33.4840303086489,
    "lng": 130.53431027791,
    "tel": "092-408-8618",
    "url": "https://pmind-koyoi.com/",
    "pref": "福岡県",
    "city": "筑紫野市",
    "category": "regular_patrol_nursing",
    "serviceType": "定期巡回・随時対応型訪問介護看護",
    "capacity": 40,
    "openDays": [],
    "openDaysNote": ""
  },
  {
    "id": "4092800178",
    "name": "定期巡回ステーション　コピーヌ",
    "kana": "テイキジュンカイステーション　コピーヌ",
    "address": "福岡県中間市中鶴１丁目２４ー１",
    "lat": 33.8288522,
    "lng": 130.7038293,
    "tel": "093-701-8900",
    "url": "https://www.crane-n.jp/home-care",
    "pref": "福岡県",
    "city": "中間市",
    "category": "regular_patrol_nursing",
    "serviceType": "定期巡回・随時対応型訪問介護看護",
    "capacity": 0,
    "openDays": [],
    "openDaysNote": ""
  },
  {
    "id": "4092200106",
    "name": "医療法人社団　医王会　巡回サポートけんせい　笑ライフ",
    "kana": "イリョウホウジンシャダン　イオウカイ　ジュンカイサポートケンセイ　ワライフ",
    "address": "福岡県朝倉市甘木151番地4",
    "lat": 33.4149345805346,
    "lng": 130.662625910451,
    "tel": "0946-24-1600",
    "url": "http://www.a-kensei.jp",
    "pref": "福岡県",
    "city": "朝倉市",
    "category": "regular_patrol_nursing",
    "serviceType": "定期巡回・随時対応型訪問介護看護",
    "capacity": 0,
    "openDays": [],
    "openDaysNote": ""
  },
  {
    "id": "4091700098",
    "name": "定期巡回・随時対応型サービス　あおぞら",
    "kana": "テイキジュンカイズイジタイオウガタサービスアオゾラ",
    "address": "福岡県直方市植木５０９番地",
    "lat": 33.7732935,
    "lng": 130.7135795,
    "tel": "0949-22-3300",
    "url": "www.nogata-medical.com",
    "pref": "福岡県",
    "city": "直方市",
    "category": "regular_patrol_nursing",
    "serviceType": "定期巡回・随時対応型訪問介護看護",
    "capacity": 0,
    "openDays": [],
    "openDaysNote": ""
  },
  {
    "id": "4091900060",
    "name": "暖家の丘巡回サービス",
    "kana": "ダンケノオカジュンカイサービス",
    "address": "福岡県田川市大字糒８２４－２０サンフェロー暖家の丘 サンフェロー暖家の丘",
    "lat": 33.6575281487943,
    "lng": 130.80546717791,
    "tel": "0947-50-7070",
    "url": "http://dankenooka.net/",
    "pref": "福岡県",
    "city": "田川市",
    "category": "regular_patrol_nursing",
    "serviceType": "定期巡回・随時対応型訪問介護看護",
    "capacity": 0,
    "openDays": [],
    "openDaysNote": ""
  },
  {
    "id": "4093700138",
    "name": "定期巡回ステーション　グランドG1",
    "kana": "テイキジュンカイステーション　グランドジーワン",
    "address": "福岡県那珂川市道善1丁目121番地",
    "lat": 33.5118951,
    "lng": 130.4234978,
    "tel": "092-951-1165",
    "url": "",
    "pref": "福岡県",
    "city": "那珂川市",
    "category": "regular_patrol_nursing",
    "serviceType": "定期巡回・随時対応型訪問介護看護",
    "capacity": null,
    "openDays": [],
    "openDaysNote": ""
  },
  {
    "id": "4094400068",
    "name": "定期巡回サービス土屋粕屋",
    "kana": "テイキジュンカイサービスツチヤカスヤ",
    "address": "福岡県糟屋郡粕屋町内橋西3-12-1カレンシーハイツ西村203号 カレンシーハイツ西村203号",
    "lat": 33.6230562,
    "lng": 130.4602263,
    "tel": "050-3188-1125",
    "url": "https://teikijunkai.net/",
    "pref": "福岡県",
    "city": "粕屋町",
    "category": "regular_patrol_nursing",
    "serviceType": "定期巡回・随時対応型訪問介護看護",
    "capacity": 20,
    "openDays": [],
    "openDaysNote": ""
  },
  {
    "id": "4092300138",
    "name": "24時間在宅ケアかつき苑",
    "kana": "２４ジカンザイタクケアカツキエン",
    "address": "福岡県八女市立花町山崎1918",
    "lat": 33.2020229317528,
    "lng": 130.57449206201,
    "tel": "0943-22-2928",
    "url": "http://care-net.biz/40/katukien/",
    "pref": "福岡県",
    "city": "八女市",
    "category": "regular_patrol_nursing",
    "serviceType": "定期巡回・随時対応型訪問介護看護",
    "capacity": 0,
    "openDays": [],
    "openDaysNote": ""
  },
  {
    "id": "4092300161",
    "name": "毎日介護定期巡回随時対応型訪問介護看護",
    "kana": "マイニチカイゴテイキジュンカイズイジタイオウガタホウモンカイゴカンゴ",
    "address": "福岡県八女市本町553-2",
    "lat": 33.211364,
    "lng": 130.5550875,
    "tel": "0943-24-8730",
    "url": "http://yametsuhime.com",
    "pref": "福岡県",
    "city": "八女市",
    "category": "regular_patrol_nursing",
    "serviceType": "定期巡回・随時対応型訪問介護看護",
    "capacity": 0,
    "openDays": [],
    "openDaysNote": ""
  },
  {
    "id": "4091800294",
    "name": "アップルハート飯塚24時間在宅ケアステーション",
    "kana": "アップハートイイヅカニジュウヨジカンザイタクケアステーション",
    "address": "福岡県飯塚市芳雄町６番２号アップルハートリビング飯塚2号館内 アップルハートリビング飯塚2号館内",
    "lat": 33.6408377635556,
    "lng": 130.692582083467,
    "tel": "0948-25-2412",
    "url": "http://www.aso-group.co.jp/ams/",
    "pref": "福岡県",
    "city": "飯塚市",
    "category": "regular_patrol_nursing",
    "serviceType": "定期巡回・随時対応型訪問介護看護",
    "capacity": 0,
    "openDays": [],
    "openDaysNote": ""
  },
  {
    "id": "4091300295",
    "name": "ウエストライフ　巡回ケアステーション",
    "kana": "ウエストライフ　ジュンカイケアステーション",
    "address": "福岡県福岡市城南区南片江六丁目１２番１号",
    "lat": 33.5440293104995,
    "lng": 130.371077174249,
    "tel": "092-865-4182",
    "url": "",
    "pref": "福岡県",
    "city": "福岡市城南区",
    "category": "regular_patrol_nursing",
    "serviceType": "定期巡回・随時対応型訪問介護看護",
    "capacity": 0,
    "openDays": [],
    "openDaysNote": ""
  },
  {
    "id": "4091300261",
    "name": "サンカルナ福岡城南　定期巡回・随時対応型訪問介護看護事業所",
    "kana": "サンカルナフクオカジョウナン　テイキジュンカイ・ズイジタイオウガタホウモンカイゴカンゴジギョウショ",
    "address": "福岡県福岡市城南区茶山一丁目6番1号サンカルナ福岡城南 サンカルナ福岡城南",
    "lat": 33.5651848,
    "lng": 130.3644045,
    "tel": "092-851-0631",
    "url": "",
    "pref": "福岡県",
    "city": "福岡市城南区",
    "category": "regular_patrol_nursing",
    "serviceType": "定期巡回・随時対応型訪問介護看護",
    "capacity": 0,
    "openDays": [],
    "openDaysNote": ""
  },
  {
    "id": "4091300352",
    "name": "医療法人社団江頭会さくら病院　24時間ヘルパーステーションさくら",
    "kana": "イリョウホウジンシャダンエガシラカイサクラビョウイン　24ジカンヘルパーステーションサクラ",
    "address": "福岡県福岡市城南区長尾5丁目8番10号",
    "lat": 33.5529087,
    "lng": 130.3807232,
    "tel": "092-801-8013",
    "url": "",
    "pref": "福岡県",
    "city": "福岡市城南区",
    "category": "regular_patrol_nursing",
    "serviceType": "定期巡回・随時対応型訪問介護看護",
    "capacity": null,
    "openDays": [],
    "openDaysNote": ""
  },
  {
    "id": "4091200396",
    "name": "かがやき巡回ステーション",
    "kana": "カガヤキジュンカイステーション",
    "address": "福岡県福岡市西区今宿町583",
    "lat": 33.5719609,
    "lng": 130.2670217,
    "tel": "092-807-5588",
    "url": "http://www.kisyoukai.jp/kagayaki/",
    "pref": "福岡県",
    "city": "福岡市西区",
    "category": "regular_patrol_nursing",
    "serviceType": "定期巡回・随時対応型訪問介護看護",
    "capacity": 0,
    "openDays": [],
    "openDaysNote": ""
  },
  {
    "id": "4091200420",
    "name": "ケアネットしもやまと",
    "kana": "ケアネットシモヤマト",
    "address": "福岡市西区生の松原2丁目5-1コーポシャルム302号 コーポシャルム302号",
    "lat": 33.5778453,
    "lng": 130.3043182,
    "tel": "092-836-6351",
    "url": "",
    "pref": "福岡県",
    "city": "福岡市西区",
    "category": "regular_patrol_nursing",
    "serviceType": "定期巡回・随時対応型訪問介護看護",
    "capacity": null,
    "openDays": [],
    "openDaysNote": ""
  },
  {
    "id": "4091200388",
    "name": "ベースキャンプ楽居ときつ",
    "kana": "ベースキャンプラッキョトキツ",
    "address": "福岡県福岡市西区内浜２丁目６番７号",
    "lat": 33.5837514,
    "lng": 130.3184645,
    "tel": "092-882-3321",
    "url": "",
    "pref": "福岡県",
    "city": "福岡市西区",
    "category": "regular_patrol_nursing",
    "serviceType": "定期巡回・随時対応型訪問介護看護",
    "capacity": 0,
    "openDays": [],
    "openDaysNote": ""
  },
  {
    "id": "4091200271",
    "name": "社会医療法人財団白十字会24時間対応ヘルパーステーション白十字",
    "kana": "シャカイイリョウホウジンザイダンハクジュウジカイニジュウヨジカンタイオウヘルパーステーションハクジュウジ",
    "address": "福岡県福岡市西区石丸3丁目7-31",
    "lat": 33.5739082811846,
    "lng": 130.314822092521,
    "tel": "092-894-6100",
    "url": "https://www.fukuoka.hakujyujikai.or.jp/homecare/service.html",
    "pref": "福岡県",
    "city": "福岡市西区",
    "category": "regular_patrol_nursing",
    "serviceType": "定期巡回・随時対応型訪問介護看護",
    "capacity": 3,
    "openDays": [],
    "openDaysNote": ""
  },
  {
    "id": "4091200214",
    "name": "巡回サービス創生会　西の丘",
    "kana": "ジュンカイサービスソウセイカイ　ニシノオカ",
    "address": "西の丘2-1-1グットタイムホーム西の丘内 グットタイムホーム西の丘内",
    "lat": 33.5685721769012,
    "lng": 130.296907695106,
    "tel": "092-892-1550",
    "url": "http://www.souseikai.or.jp/",
    "pref": "福岡県",
    "city": "福岡市西区",
    "category": "regular_patrol_nursing",
    "serviceType": "定期巡回・随時対応型訪問介護看護",
    "capacity": 0,
    "openDays": [],
    "openDaysNote": ""
  },
  {
    "id": "4091200438",
    "name": "定期巡回サービス　グッドファイブ福岡",
    "kana": "テイキジュンカイサービス　グッドファイブフクオカ",
    "address": "福岡県福岡市西区周船寺1丁目1番32号ウエストフィールズ102号 ウエストフィールズ102号",
    "lat": 33.5711123918964,
    "lng": 130.245793515344,
    "tel": "092-407-8292",
    "url": "",
    "pref": "福岡県",
    "city": "福岡市西区",
    "category": "regular_patrol_nursing",
    "serviceType": "定期巡回・随時対応型訪問介護看護",
    "capacity": 0,
    "openDays": [],
    "openDaysNote": ""
  },
  {
    "id": "4091200560",
    "name": "定期巡回ステーション　テラシス桜花",
    "kana": "テイキジュンカイステーション　テラシスオウカ",
    "address": "福岡県福岡市西区愛宕2丁目19-6",
    "lat": 33.5858091,
    "lng": 130.3324383,
    "tel": "092-894-3755",
    "url": "https://terrasis-ohka.jp/",
    "pref": "福岡県",
    "city": "福岡市西区",
    "category": "regular_patrol_nursing",
    "serviceType": "定期巡回・随時対応型訪問介護看護",
    "capacity": 0,
    "openDays": [],
    "openDaysNote": ""
  },
  {
    "id": "4091400392",
    "name": "エフコープ介護サービス福岡西(定巡）",
    "kana": "エフコープカイゴサービスフクオカニシ　テイジュン",
    "address": "福岡県福岡市早良区次郎丸4丁目10-50",
    "lat": 33.5476972,
    "lng": 130.3275968,
    "tel": "092-874-0096",
    "url": "http://www.fcoop.or.jp/",
    "pref": "福岡県",
    "city": "福岡市早良区",
    "category": "regular_patrol_nursing",
    "serviceType": "定期巡回・随時対応型訪問介護看護",
    "capacity": 10,
    "openDays": [],
    "openDaysNote": ""
  },
  {
    "id": "4091400194",
    "name": "定期巡回・随時対応型訪問介護看護ケアネットワークいやし早良",
    "kana": "テイキジュンカイ・ズイジタイオウガタホウモンカイゴカンゴケアネットワークイヤシサワラ",
    "address": "福岡県福岡市早良区重留6-6-10メディケア癒やし弐番館 メディケア癒やし弐番館",
    "lat": 33.5304674306406,
    "lng": 130.339059825795,
    "tel": "092-872-8072",
    "url": "https://www.dandm.co.jp",
    "pref": "福岡県",
    "city": "福岡市早良区",
    "category": "regular_patrol_nursing",
    "serviceType": "定期巡回・随時対応型訪問介護看護",
    "capacity": 234,
    "openDays": [],
    "openDaysNote": ""
  },
  {
    "id": "4091000192",
    "name": "巡回サービス　グッドタイム薬院",
    "kana": "ジュンカイサービス　グッドタイムヤクイン",
    "address": "福岡県福岡市中央区薬院2丁目11番15号",
    "lat": 33.581666,
    "lng": 130.3929717,
    "tel": "092-711-7982",
    "url": "",
    "pref": "福岡県",
    "city": "福岡市中央区",
    "category": "regular_patrol_nursing",
    "serviceType": "定期巡回・随時対応型訪問介護看護",
    "capacity": 0,
    "openDays": [],
    "openDaysNote": ""
  },
  {
    "id": "4090800675",
    "name": "テポーレ巡回サービス",
    "kana": "テポーレジュンカイサービス",
    "address": "福岡県福岡市東区千早2丁目3-28",
    "lat": 33.6452359,
    "lng": 130.4324802,
    "tel": "092-692-1001",
    "url": "",
    "pref": "福岡県",
    "city": "福岡市東区",
    "category": "regular_patrol_nursing",
    "serviceType": "定期巡回・随時対応型訪問介護看護",
    "capacity": null,
    "openDays": [],
    "openDaysNote": ""
  },
  {
    "id": "4090800766",
    "name": "テポーレ巡回サービス原田",
    "kana": "テポーレジュンカイサービスハラダ",
    "address": "福岡県福岡市東区原田4丁目16-1",
    "lat": 33.6240474,
    "lng": 130.4436348,
    "tel": "092-405-5559",
    "url": "http://www.tepore.jp/",
    "pref": "福岡県",
    "city": "福岡市東区",
    "category": "regular_patrol_nursing",
    "serviceType": "定期巡回・随時対応型訪問介護看護",
    "capacity": null,
    "openDays": [],
    "openDaysNote": ""
  },
  {
    "id": "4090800386",
    "name": "巡回サービス　創生会　海の中道",
    "kana": "ジュンカイサービス　ソウセイカイ　ウミノナカミチ",
    "address": "福岡市東区奈多1丁目2-2-2階グッドタイムホームⅠ　海の中道 グッドタイムホームⅠ　海の中道",
    "lat": 33.6900962,
    "lng": 130.4189657,
    "tel": "092-605-6001",
    "url": "http://www.souseikai.or.jp/",
    "pref": "福岡県",
    "city": "福岡市東区",
    "category": "regular_patrol_nursing",
    "serviceType": "定期巡回・随時対応型訪問介護看護",
    "capacity": 0,
    "openDays": [],
    "openDaysNote": ""
  },
  {
    "id": "4090800774",
    "name": "定期巡回げんき",
    "kana": "テイキジュンカイゲンキ",
    "address": "西戸崎6丁目-17有料老人ホームげんき内 有料老人ホームげんき内",
    "lat": 33.652858665806,
    "lng": 130.348610687805,
    "tel": "092-603-1465",
    "url": "",
    "pref": "福岡県",
    "city": "福岡市東区",
    "category": "regular_patrol_nursing",
    "serviceType": "定期巡回・随時対応型訪問介護看護",
    "capacity": null,
    "openDays": [],
    "openDaysNote": ""
  },
  {
    "id": "4090800741",
    "name": "定期巡回サービス　ファミリア",
    "kana": "テイキジュンカイサービス　ファミリア",
    "address": "香椎駅東3-12-51ステラ香椎101 ステラ香椎101",
    "lat": 33.6637911,
    "lng": 130.4492466,
    "tel": "092-410-6660",
    "url": "https://familia-teiki.co.jp/",
    "pref": "福岡県",
    "city": "福岡市東区",
    "category": "regular_patrol_nursing",
    "serviceType": "定期巡回・随時対応型訪問介護看護",
    "capacity": 0,
    "openDays": [],
    "openDaysNote": ""
  },
  {
    "id": "4090800840",
    "name": "定巡宮前",
    "kana": "テイジュンミヤマエ",
    "address": "福岡県福岡市東区馬出2丁目29番１０ソルヴェール馬出101 ソルヴェール馬出101",
    "lat": 33.6137467,
    "lng": 130.4186998,
    "tel": "092-409-7777",
    "url": "http//www.ober.co.jp",
    "pref": "福岡県",
    "city": "福岡市東区",
    "category": "regular_patrol_nursing",
    "serviceType": "定期巡回・随時対応型訪問介護看護",
    "capacity": 0,
    "openDays": [],
    "openDaysNote": ""
  },
  {
    "id": "4090800618",
    "name": "定巡名島町",
    "kana": "テイジュンナジマチョウ",
    "address": "福岡県福岡市東区名島2丁目35番21号",
    "lat": 33.6431567,
    "lng": 130.4292934,
    "tel": "092-674-0013",
    "url": "http://www.ober.co.jp/",
    "pref": "福岡県",
    "city": "福岡市東区",
    "category": "regular_patrol_nursing",
    "serviceType": "定期巡回・随時対応型訪問介護看護",
    "capacity": 0,
    "openDays": [],
    "openDaysNote": ""
  },
  {
    "id": "4091100133",
    "name": "ケアネットワークいやし",
    "kana": "ケアネットワークイヤシ",
    "address": "福岡市南区三宅1丁目25-13",
    "lat": 33.5499177,
    "lng": 130.4238594,
    "tel": "092-562-0700",
    "url": "www.d--m.jp/page4.html",
    "pref": "福岡県",
    "city": "福岡市南区",
    "category": "regular_patrol_nursing",
    "serviceType": "定期巡回・随時対応型訪問介護看護",
    "capacity": 40,
    "openDays": [],
    "openDaysNote": ""
  },
  {
    "id": "4091100604",
    "name": "ささえあい太陽　巡回サービス穂希",
    "kana": "ササエアイタイヨウ　ジュンカイサービスホマレ",
    "address": "福岡県福岡市南区的場2-37-2ささえあい太陽まとば ささえあい太陽まとば",
    "lat": 33.5401215,
    "lng": 130.4340842,
    "tel": "092-588-7811",
    "url": "https://yu-sei.or.jp/",
    "pref": "福岡県",
    "city": "福岡市南区",
    "category": "regular_patrol_nursing",
    "serviceType": "定期巡回・随時対応型訪問介護看護",
    "capacity": 10,
    "openDays": [],
    "openDaysNote": ""
  },
  {
    "id": "4091100158",
    "name": "ヘルパーネットえがおで寺塚",
    "kana": "ヘルパーネットエガオデテラツカ",
    "address": "福岡県福岡市南区寺塚2丁目8-15金子アベニュー300棟1階1号 金子アベニュー300棟1階1号",
    "lat": 33.5581422597845,
    "lng": 130.403044608598,
    "tel": "092-555-8533",
    "url": "http://www.egaode.jp.net/",
    "pref": "福岡県",
    "city": "福岡市南区",
    "category": "regular_patrol_nursing",
    "serviceType": "定期巡回・随時対応型訪問介護看護",
    "capacity": 0,
    "openDays": [],
    "openDaysNote": ""
  },
  {
    "id": "4091100687",
    "name": "定巡大橋",
    "kana": "テイジュンオオハシ",
    "address": "福岡県福岡市南区大橋1丁目19番18-105号ロワールマンション大橋105号 ロワールマンション大橋105号",
    "lat": 33.5578882202402,
    "lng": 130.425378929222,
    "tel": "092-555-3755",
    "url": "",
    "pref": "福岡県",
    "city": "福岡市南区",
    "category": "regular_patrol_nursing",
    "serviceType": "定期巡回・随時対応型訪問介護看護",
    "capacity": 0,
    "openDays": [],
    "openDaysNote": ""
  },
  {
    "id": "4090900392",
    "name": "ケアネットワークひゅうが博多",
    "kana": "ケアネットワークヒュウガハカタ",
    "address": "福岡県福岡博多区月隈6丁目22-20フットワーク空港南303号 フットワーク空港南303号",
    "lat": 33.5693724,
    "lng": 130.4695753,
    "tel": "092-558-2348",
    "url": "",
    "pref": "福岡県",
    "city": "福岡市博多区",
    "category": "regular_patrol_nursing",
    "serviceType": "定期巡回・随時対応型訪問介護看護",
    "capacity": 46,
    "openDays": [],
    "openDaysNote": ""
  },
  {
    "id": "4090900335",
    "name": "さくら巡回サービス",
    "kana": "サクラジュンカイサービス",
    "address": "福岡県福岡市博多区麦野4-33-24サンホームさくら サンホームさくら",
    "lat": 33.5482777421096,
    "lng": 130.460746615344,
    "tel": "925582658",
    "url": "http://www.houshikai.info/",
    "pref": "福岡県",
    "city": "福岡市博多区",
    "category": "regular_patrol_nursing",
    "serviceType": "定期巡回・随時対応型訪問介護看護",
    "capacity": null,
    "openDays": [],
    "openDaysNote": ""
  },
  {
    "id": "4090900459",
    "name": "ふくおか福祉サービス協会　定巡東部",
    "kana": "フクオカフクシサービスキョウカイ　テイジュントウブ",
    "address": "福岡県福岡市博多区東光２丁目8-17古門ビル 古門ビル",
    "lat": 33.5946782,
    "lng": 130.4269776,
    "tel": "092-409-2188",
    "url": "http://www.fukuwel.or.jp",
    "pref": "福岡県",
    "city": "福岡市博多区",
    "category": "regular_patrol_nursing",
    "serviceType": "定期巡回・随時対応型訪問介護看護",
    "capacity": null,
    "openDays": [],
    "openDaysNote": ""
  },
  {
    "id": "4090900152",
    "name": "巡回介護ひまわり",
    "kana": "ジュンカイカイゴヒマワリ",
    "address": "福岡市博多区千代5－18－7－3階ＦＨＫビル3階 ＦＨＫビル3階",
    "lat": 33.6082323,
    "lng": 130.4115299,
    "tel": "092-651-9901",
    "url": "http://www.npo-hima.net/hs_himawari.html",
    "pref": "福岡県",
    "city": "福岡市博多区",
    "category": "regular_patrol_nursing",
    "serviceType": "定期巡回・随時対応型訪問介護看護",
    "capacity": 0,
    "openDays": [],
    "openDaysNote": ""
  },
  {
    "id": "4090900210",
    "name": "定期巡回・随時対応型訪問介護看護南福岡",
    "kana": "テイキジュンカイズイジタイオウガタホウモンカイゴカンゴミナミフクオカ",
    "address": "元町2-1-6アンリ南福岡 アンリ南福岡",
    "lat": 33.5424947,
    "lng": 130.4629118,
    "tel": "092-574-8181",
    "url": "http://care-net.co.jp/",
    "pref": "福岡県",
    "city": "福岡市博多区",
    "category": "regular_patrol_nursing",
    "serviceType": "定期巡回・随時対応型訪問介護看護",
    "capacity": 20,
    "openDays": [],
    "openDaysNote": ""
  },
  {
    "id": "4090900418",
    "name": "定期巡回サービス土屋　福岡",
    "kana": "テイキジュンカイサービスツチヤ　フクオカ",
    "address": "福岡県福岡市博多区吉塚本町2-28ラピス博多駅東2F ラピス博多駅東2F",
    "lat": 33.6049870072801,
    "lng": 130.425156435582,
    "tel": "050-1720-2433",
    "url": "https://teikijunkai.net/",
    "pref": "福岡県",
    "city": "福岡市博多区",
    "category": "regular_patrol_nursing",
    "serviceType": "定期巡回・随時対応型訪問介護看護",
    "capacity": 50,
    "openDays": [],
    "openDaysNote": ""
  },
  {
    "id": "4094500081",
    "name": "24時間訪問サービス　しらゆり",
    "kana": "24ジカンホウモンサービス　シラユリ",
    "address": "宮司浜2丁目35-11",
    "lat": 33.777209,
    "lng": 130.473555,
    "tel": "0940-51-3783",
    "url": "http://kaigo-sirayuri.co.jp/",
    "pref": "福岡県",
    "city": "福津市",
    "category": "regular_patrol_nursing",
    "serviceType": "定期巡回・随時対応型訪問介護看護",
    "capacity": 0,
    "openDays": [],
    "openDaysNote": ""
  },
  {
    "id": "4090300148",
    "name": "あやめ巡回ステーション",
    "kana": "アヤメジュンカイステーション",
    "address": "福岡県北九州市戸畑区明治町10番18号明治町クリニック4階 明治町クリニック4階",
    "lat": 33.8991404,
    "lng": 130.8234086,
    "tel": "093-871-4571",
    "url": "http://www.kyoaikai.com/",
    "pref": "福岡県",
    "city": "北九州市戸畑区",
    "category": "regular_patrol_nursing",
    "serviceType": "定期巡回・随時対応型訪問介護看護",
    "capacity": 0,
    "openDays": [],
    "openDaysNote": ""
  },
  {
    "id": "4090300213",
    "name": "定期巡回・随時対応型訪問介護看護ナースケア北九州",
    "kana": "テイキジュンカイ・ズイジタイオウガタホウモンカイゴカンゴナースケアキタキュウシュウ",
    "address": "福岡県北九州市戸畑区境川２丁目１４－３１サンドリームビル2F サンドリームビル2F",
    "lat": 33.8936437,
    "lng": 130.8448336,
    "tel": "093-967-3722",
    "url": "http://fukuoka-zaitaku.com",
    "pref": "福岡県",
    "city": "北九州市戸畑区",
    "category": "regular_patrol_nursing",
    "serviceType": "定期巡回・随時対応型訪問介護看護",
    "capacity": 64,
    "openDays": [],
    "openDaysNote": ""
  },
  {
    "id": "4090200215",
    "name": "ケアネットわかまつ",
    "kana": "ケアネットワカマツ",
    "address": "福岡県北九州市若松区花野路一丁目3-1ナーシングホームわかまつ ナーシングホームわかまつ",
    "lat": 33.9070065273878,
    "lng": 130.682054535443,
    "tel": "093-701-6607",
    "url": "https://www.iwasaki-group.co.jp/",
    "pref": "福岡県",
    "city": "北九州市若松区",
    "category": "regular_patrol_nursing",
    "serviceType": "定期巡回・随時対応型訪問介護看護",
    "capacity": 0,
    "openDays": [],
    "openDaysNote": ""
  },
  {
    "id": "4090200132",
    "name": "だから安心",
    "kana": "ダカラアンシン",
    "address": "福岡県北九州市若松区東小石町６－３６サービス付き高齢者向け住宅そよ風 サービス付き高齢者向け住宅そよ風",
    "lat": 33.9183021,
    "lng": 130.7949001,
    "tel": "093－771－7145",
    "url": "",
    "pref": "福岡県",
    "city": "北九州市若松区",
    "category": "regular_patrol_nursing",
    "serviceType": "定期巡回・随時対応型訪問介護看護",
    "capacity": 0,
    "openDays": [],
    "openDaysNote": ""
  },
  {
    "id": "4090200298",
    "name": "定期巡回ステーション彩生",
    "kana": "テイキジュンカイステーションサイセイ",
    "address": "福岡県北九州市若松区上原町8-1メディカルケアホーム彩生 メディカルケアホーム彩生",
    "lat": 33.9140829,
    "lng": 130.7925293,
    "tel": "093-752-5080",
    "url": "https://wakazono-mch.com/saisei/",
    "pref": "福岡県",
    "city": "北九州市若松区",
    "category": "regular_patrol_nursing",
    "serviceType": "定期巡回・随時対応型訪問介護看護",
    "capacity": null,
    "openDays": [],
    "openDaysNote": ""
  },
  {
    "id": "4090500838",
    "name": "定期巡回ステーションずっといえ",
    "kana": "テイキジュンカイステーションズットイエ",
    "address": "福岡県北九州市小倉南区若園2丁目13番24号スエヒロビル201 スエヒロビル201",
    "lat": 33.850717,
    "lng": 130.8896046,
    "tel": "093-981-7133",
    "url": "",
    "pref": "福岡県",
    "city": "北九州市小倉南区",
    "category": "regular_patrol_nursing",
    "serviceType": "定期巡回・随時対応型訪問介護看護",
    "capacity": 0,
    "openDays": [],
    "openDaysNote": ""
  },
  {
    "id": "4090400740",
    "name": "HASC小倉",
    "kana": "ハスクコクラ",
    "address": "福岡県北九州市小倉北区下到津３丁目5-8",
    "lat": 33.8781057,
    "lng": 130.8544891,
    "tel": "935922270",
    "url": "http://www.hinata-scs.com",
    "pref": "福岡県",
    "city": "北九州市小倉北区",
    "category": "regular_patrol_nursing",
    "serviceType": "定期巡回・随時対応型訪問介護看護",
    "capacity": 0,
    "openDays": [],
    "openDaysNote": ""
  },
  {
    "id": "4090500309",
    "name": "ケアネットいわさき",
    "kana": "ケアネットイワサキ",
    "address": "福岡県北九州市小倉北区篠崎2-48-32",
    "lat": 33.8618204732553,
    "lng": 130.871787767757,
    "tel": "093-562-3750",
    "url": "",
    "pref": "福岡県",
    "city": "北九州市小倉北区",
    "category": "regular_patrol_nursing",
    "serviceType": "定期巡回・随時対応型訪問介護看護",
    "capacity": 150,
    "openDays": [],
    "openDaysNote": ""
  },
  {
    "id": "4090400682",
    "name": "ケアネットこくら",
    "kana": "ケアネットコクラ",
    "address": "下冨野3丁目11番8号",
    "lat": 33.8806359960621,
    "lng": 130.897125365592,
    "tel": "093-482-3762",
    "url": "",
    "pref": "福岡県",
    "city": "北九州市小倉北区",
    "category": "regular_patrol_nursing",
    "serviceType": "定期巡回・随時対応型訪問介護看護",
    "capacity": 160,
    "openDays": [],
    "openDaysNote": ""
  },
  {
    "id": "4090400344",
    "name": "ライフサポートセンター　おおごう",
    "kana": "ライフサポートセンター　オオゴウ",
    "address": "清水五丁目11-35ねむの郷 ねむの郷",
    "lat": 33.8704084926507,
    "lng": 130.853221918702,
    "tel": "０９３（５６２）３５３０",
    "url": "ｈｔｔｐ：//www.ohgokai.or.jp",
    "pref": "福岡県",
    "city": "北九州市小倉北区",
    "category": "regular_patrol_nursing",
    "serviceType": "定期巡回・随時対応型訪問介護看護",
    "capacity": 0,
    "openDays": [],
    "openDaysNote": ""
  },
  {
    "id": "4090400419",
    "name": "株式会社　モナトリエ・デフォレ",
    "kana": "カブシキガイシャ　モナトリエ・デフォレ",
    "address": "魚町４丁目３－８",
    "lat": 33.8813244,
    "lng": 130.8803614,
    "tel": "093－512－5001",
    "url": "www.monatelier.jp",
    "pref": "福岡県",
    "city": "北九州市小倉北区",
    "category": "regular_patrol_nursing",
    "serviceType": "定期巡回・随時対応型訪問介護看護",
    "capacity": 0,
    "openDays": [],
    "openDaysNote": ""
  },
  {
    "id": "4090400369",
    "name": "巡回ステーションけんわ大手町",
    "kana": "ジュンカイステーションケンワオオテマチ",
    "address": "福岡県北九州市小倉北区大手町14番22号",
    "lat": 33.8748851,
    "lng": 130.8698472,
    "tel": "093-571-2828",
    "url": "care-net.biz/40/kitakyulife/",
    "pref": "福岡県",
    "city": "北九州市小倉北区",
    "category": "regular_patrol_nursing",
    "serviceType": "定期巡回・随時対応型訪問介護看護",
    "capacity": 30,
    "openDays": [],
    "openDaysNote": ""
  },
  {
    "id": "4090400609",
    "name": "巡回ステーションつむぎ",
    "kana": "ジュンカイステーションツムギ",
    "address": "福岡県北九州市小倉北区下富野２丁目10－31",
    "lat": 33.8814733,
    "lng": 130.8986217,
    "tel": "093－953－8226",
    "url": "https://www.medicarehouse-tomino.jp",
    "pref": "福岡県",
    "city": "北九州市小倉北区",
    "category": "regular_patrol_nursing",
    "serviceType": "定期巡回・随時対応型訪問介護看護",
    "capacity": 45,
    "openDays": [],
    "openDaysNote": ""
  },
  {
    "id": "4090700669",
    "name": "グリーンコープ定期巡回センターおひらき",
    "kana": "グリーコープテイキジュンカイセンターオヒラキ",
    "address": "福岡県北九州市八幡西区御開三丁目40-47",
    "lat": 33.890481,
    "lng": 130.7376718,
    "tel": "934825084",
    "url": "http://www.hukushi-greencoop.or.jp/",
    "pref": "福岡県",
    "city": "北九州市八幡西区",
    "category": "regular_patrol_nursing",
    "serviceType": "定期巡回・随時対応型訪問介護看護",
    "capacity": 0,
    "openDays": [],
    "openDaysNote": ""
  },
  {
    "id": "4090701113",
    "name": "けあこーるせんたー　ここっちゃ",
    "kana": "ケアコールセンター　ココッチャ",
    "address": "福岡県北九州市八幡西区中の原3-1-10",
    "lat": 33.8333428257701,
    "lng": 130.751724045817,
    "tel": "093-614-1388",
    "url": "",
    "pref": "福岡県",
    "city": "北九州市八幡西区",
    "category": "regular_patrol_nursing",
    "serviceType": "定期巡回・随時対応型訪問介護看護",
    "capacity": null,
    "openDays": [],
    "openDaysNote": ""
  },
  {
    "id": "4090700370",
    "name": "ほほえみ24時間在宅ケアセンター",
    "kana": "ホホエミニジュウヨジカンザイタクケアセンター",
    "address": "永犬丸南町2－2－41",
    "lat": 33.8340233,
    "lng": 130.7299384,
    "tel": "093-614-2022",
    "url": "ｈｔｔｐｓ：//www.hhohoemi-gr.com",
    "pref": "福岡県",
    "city": "北九州市八幡西区",
    "category": "regular_patrol_nursing",
    "serviceType": "定期巡回・随時対応型訪問介護看護",
    "capacity": 0,
    "openDays": [],
    "openDaysNote": ""
  },
  {
    "id": "4090701022",
    "name": "ほほえみ２４時間在宅ケアセンター",
    "kana": "ホホエミ２４ジカンザイタクケアセンター",
    "address": "北九州市八幡西区永犬丸南町２丁目２番４１号",
    "lat": 33.8340433,
    "lng": 130.729897,
    "tel": "093-614-2022",
    "url": "https://www.hohoemi-gr.com/",
    "pref": "福岡県",
    "city": "北九州市八幡西区",
    "category": "regular_patrol_nursing",
    "serviceType": "定期巡回・随時対応型訪問介護看護",
    "capacity": null,
    "openDays": [],
    "openDaysNote": ""
  },
  {
    "id": "4090700693",
    "name": "医療法人慈恵睦会　むつみ定期巡回サービス",
    "kana": "イリョウホウジンジケイ　ムツミテイキジュンカイサービス",
    "address": "北九州市八幡西区３丁目２番30号",
    "lat": 33.7824208,
    "lng": 130.7195903,
    "tel": "093-619-5522",
    "url": "mutsumi.or.jp",
    "pref": "福岡県",
    "city": "北九州市八幡西区",
    "category": "regular_patrol_nursing",
    "serviceType": "定期巡回・随時対応型訪問介護看護",
    "capacity": 0,
    "openDays": [],
    "openDaysNote": ""
  },
  {
    "id": "4090700891",
    "name": "定期巡回サービスあおぞら　八幡営業所",
    "kana": "テイキジュンカイサービスアオゾラ　ヤハタエイギョウショ",
    "address": "福岡県北九州市八幡西区町上津役西1丁目3-8",
    "lat": 33.8251091,
    "lng": 130.7514592,
    "tel": "093-883-7822",
    "url": "www.nogata-medical.com",
    "pref": "福岡県",
    "city": "北九州市八幡西区",
    "category": "regular_patrol_nursing",
    "serviceType": "定期巡回・随時対応型訪問介護看護",
    "capacity": null,
    "openDays": [],
    "openDaysNote": ""
  },
  {
    "id": "4090700735",
    "name": "定期巡回ステーション　ひねもすの和",
    "kana": "テイキジュンカイステーション　ヒネモスノナゴミ",
    "address": "福岡県北九州市八幡西区茶屋の原２丁目６－６",
    "lat": 33.7921967315169,
    "lng": 130.740241974869,
    "tel": "093-617-6632",
    "url": "minori2009.com",
    "pref": "福岡県",
    "city": "北九州市八幡西区",
    "category": "regular_patrol_nursing",
    "serviceType": "定期巡回・随時対応型訪問介護看護",
    "capacity": 30,
    "openDays": [],
    "openDaysNote": ""
  },
  {
    "id": "4090600133",
    "name": "定期巡回随時対応型訪問介護看護事業所かなた",
    "kana": "テイキジュンカイズイジタイオウガタホウモンカイゴカンゴジギョウショカナタ",
    "address": "福岡県北九州市八幡東区桃園1丁目５－１メディカルビレッジ桃園 メディカルビレッジ桃園",
    "lat": 33.8632102,
    "lng": 130.7846132,
    "tel": "093-671-1141",
    "url": "http://www.haruka-mc..jp/",
    "pref": "福岡県",
    "city": "北九州市八幡東区",
    "category": "regular_patrol_nursing",
    "serviceType": "定期巡回・随時対応型訪問介護看護",
    "capacity": 111,
    "openDays": [],
    "openDaysNote": ""
  },
  {
    "id": "4090100563",
    "name": "健生見回り訪問サービス",
    "kana": "ケンセイミマワリホウモンサービス",
    "address": "東新町二丁目3番31-102号",
    "lat": 33.891099133359,
    "lng": 130.925229019165,
    "tel": "093-967-0107",
    "url": "",
    "pref": "福岡県",
    "city": "北九州市門司区",
    "category": "regular_patrol_nursing",
    "serviceType": "定期巡回・随時対応型訪問介護看護",
    "capacity": null,
    "openDays": [],
    "openDaysNote": ""
  },
  {
    "id": "4090100472",
    "name": "春風巡回サービス",
    "kana": "ハルカゼジュンカイサービス",
    "address": "福岡県北九州市門司区春日町22-1",
    "lat": 33.9295537,
    "lng": 130.9727353,
    "tel": "093-341-8555",
    "url": "",
    "pref": "福岡県",
    "city": "北九州市門司区",
    "category": "regular_patrol_nursing",
    "serviceType": "定期巡回・随時対応型訪問介護看護",
    "capacity": 0,
    "openDays": [],
    "openDaysNote": ""
  },
  {
    "id": "4092000159",
    "name": "生き活きケアステーション",
    "kana": "イキイキケアステーション",
    "address": "福岡県柳川市三橋町吉開745番地1",
    "lat": 33.1786311649301,
    "lng": 130.449031630452,
    "tel": "0944-72-0600",
    "url": "https://yanagawa-kaigo.com/shintaku-kaigo-honsya",
    "pref": "福岡県",
    "city": "柳川市",
    "category": "regular_patrol_nursing",
    "serviceType": "定期巡回・随時対応型訪問介護看護",
    "capacity": null,
    "openDays": [],
    "openDaysNote": ""
  }
]