[
  {
    "id": "591300033",
    "name": "定期巡回・随時対応型訪問介護看護事業所　ハルモニア・にかほ",
    "kana": "テイキジュンカイ・ズイジタイオウガタホウモンカイゴカンゴジギョウショ　ハルモニア・ニカホ",
    "address": "秋田県にかほ市院内字嶋田４２番地１",
    "lat": 39.2822622040073,
    "lng": 139.963730749738,
    "tel": "０１８４－４４－８４４８",
    "url": "https://harmonia-nikaho.com",
    "pref": "秋田県",
    "city": "にかほ市",
    "category": "regular_patrol_nursing",
    "serviceType": "定期巡回・随時対応型訪問介護看護",
    "capacity": 0,
    "openDays": [],
    "openDaysNote": ""
  },
  {
    "id": "591300082",
    "name": "定期巡回naniku24",
    "kana": "テイキジュンカイナニクニジュウヨン",
    "address": "秋田県にかほ市平沢字宮田6-5宮田テナント２階 宮田テナント２階",
    "lat": 39.2869576,
    "lng": 139.9660256,
    "tel": "0184-74-8150",
    "url": "",
    "pref": "秋田県",
    "city": "にかほ市",
    "category": "regular_patrol_nursing",
    "serviceType": "定期巡回・随時対応型訪問介護看護",
    "capacity": 0,
    "openDays": [],
    "openDaysNote": ""
  },
  {
    "id": "590300489",
    "name": "０１３ｃａｒｅ",
    "kana": "ゼロイチサンケア",
    "address": "秋田県横手市中央町６−２３２階 ２階",
    "lat": 39.3143215,
    "lng": 140.5664108,
    "tel": "0182-38-8708",
    "url": "",
    "pref": "秋田県",
    "city": "横手市",
    "category": "regular_patrol_nursing",
    "serviceType": "定期巡回・随時対応型訪問介護看護",
    "capacity": null,
    "openDays": [],
    "openDaysNote": ""
  },
  {
    "id": "590300299",
    "name": "街かどケアステーションさらさ",
    "kana": "マチカドケアステーションサラサ",
    "address": "秋田県横手市駅前町7-17ウェルフェア横手 ウェルフェア横手",
    "lat": 39.3081712,
    "lng": 140.5619111,
    "tel": "182238430",
    "url": "",
    "pref": "秋田県",
    "city": "横手市",
    "category": "regular_patrol_nursing",
    "serviceType": "定期巡回・随時対応型訪問介護看護",
    "capacity": 0,
    "openDays": [],
    "openDaysNote": ""
  },
  {
    "id": "590300323",
    "name": "条里ケアセンター",
    "kana": "ジョウリケアセンター",
    "address": "秋田県横手市条里１丁目１５番７号",
    "lat": 39.3084542,
    "lng": 140.5509014,
    "tel": "0182-23-5304",
    "url": "",
    "pref": "秋田県",
    "city": "横手市",
    "category": "regular_patrol_nursing",
    "serviceType": "定期巡回・随時対応型訪問介護看護",
    "capacity": 0,
    "openDays": [],
    "openDaysNote": ""
  },
  {
    "id": "591000062",
    "name": "定期巡回・随時対応型訪問介護看護はやぶさ",
    "kana": "テイキジュンカイズイジタイオウガタホウモンカイゴカンゴハヤブサ",
    "address": "秋田県潟上市昭和大久保字街道下84－6",
    "lat": 39.8706564,
    "lng": 140.0598963,
    "tel": "018-877-2675",
    "url": "http://www.seiwakai-net.com/",
    "pref": "秋田県",
    "city": "潟上市",
    "category": "regular_patrol_nursing",
    "serviceType": "定期巡回・随時対応型訪問介護看護",
    "capacity": 50,
    "openDays": [],
    "openDaysNote": ""
  },
  {
    "id": "590100681",
    "name": "２４時間ケアコールセンターふきのとう",
    "kana": "24ジカンケアコールセンターフキノトウ",
    "address": "秋田県秋田市金足小泉字潟向８６－１",
    "lat": 39.8166379,
    "lng": 140.0594347,
    "tel": "018-827-5619",
    "url": "http://fukinotou-akita.jp",
    "pref": "秋田県",
    "city": "秋田市",
    "category": "regular_patrol_nursing",
    "serviceType": "定期巡回・随時対応型訪問介護看護",
    "capacity": 35,
    "openDays": [],
    "openDaysNote": ""
  },
  {
    "id": "590800389",
    "name": "オオマガリライフ定期巡回・随時対応サービスセンター",
    "kana": "オオマガリライフテイキジュンカイ・ズイジタイオウサービスセンター",
    "address": "秋田県大仙市大曲丸の内町６番２４号",
    "lat": 39.4623360444825,
    "lng": 140.477001154002,
    "tel": "0187-63-6666",
    "url": "",
    "pref": "秋田県",
    "city": "大仙市",
    "category": "regular_patrol_nursing",
    "serviceType": "定期巡回・随時対応型訪問介護看護",
    "capacity": null,
    "openDays": [],
    "openDaysNote": ""
  },
  {
    "id": "590800421",
    "name": "定期巡回・随時対応型訪問介護看護　ロクス",
    "kana": "テイキジュンカイズイジタイオウガタホウモンカイゴカンゴロクス",
    "address": "秋田県大仙市大曲日の出町1丁目30-1",
    "lat": 39.4457615,
    "lng": 140.475723,
    "tel": "0187-73-7702",
    "url": "",
    "pref": "秋田県",
    "city": "大仙市",
    "category": "regular_patrol_nursing",
    "serviceType": "定期巡回・随時対応型訪問介護看護",
    "capacity": 0,
    "openDays": [],
    "openDaysNote": ""
  },
  {
    "id": "592200125",
    "name": "藤里町社会福祉協議会指定定期巡回・随時対応型訪問介護看護事業所",
    "kana": "フジサトマチシャカイフクシキョウギカイシテイテイキジュンカイズイジタイオウガタホウモンカイゴカンゴジギョウショ",
    "address": "秋田県山本郡藤里町藤琴字三ツ谷脇４０番地総合福祉センター 総合福祉センター",
    "lat": 40.281971,
    "lng": 140.2615649,
    "tel": "0185-79-2848",
    "url": "http://www.fujisato-shakyo.jp/",
    "pref": "秋田県",
    "city": "藤里町",
    "category": "regular_patrol_nursing",
    "serviceType": "定期巡回・随時対応型訪問介護看護",
    "capacity": 0,
    "openDays": [],
    "openDaysNote": ""
  },
  {
    "id": "590200192",
    "name": "街かどケアステーションさらさ能代",
    "kana": "マチカドケアステーションサラサノシロ",
    "address": "秋田県能代市元町14番126号特別養護老人ホームさらさ能代 特別養護老人ホームさらさ能代",
    "lat": 40.207288,
    "lng": 140.0330566,
    "tel": "0185-74-6755",
    "url": "https://jawa-akita.com",
    "pref": "秋田県",
    "city": "能代市",
    "category": "regular_patrol_nursing",
    "serviceType": "定期巡回・随時対応型訪問介護看護",
    "capacity": null,
    "openDays": [],
    "openDaysNote": ""
  },
  {
    "id": "593900145",
    "name": "ミサトライフ定期巡回・随時対応サービスセンター",
    "kana": "ミサトライフテイキジュンカイ・ズイジタイオウサービスセンター",
    "address": "秋田県仙北郡美郷町六郷字熊野１５２−１",
    "lat": 39.4134462,
    "lng": 140.5531199,
    "tel": "0187-84-0100",
    "url": "https://lifeakita.com",
    "pref": "秋田県",
    "city": "美郷町",
    "category": "regular_patrol_nursing",
    "serviceType": "定期巡回・随時対応型訪問介護看護",
    "capacity": null,
    "openDays": [],
    "openDaysNote": ""
  },
  {
    "id": "590500344",
    "name": "ほのぼの定期巡回ステーション",
    "kana": "ホノボノテイキジュンカイステーション",
    "address": "秋田県由利本荘市東梵天95-2",
    "lat": 39.3829698,
    "lng": 140.0621597,
    "tel": "0184-28-0008",
    "url": "http://www.yoro-duya.com/",
    "pref": "秋田県",
    "city": "由利本荘市",
    "category": "regular_patrol_nursing",
    "serviceType": "定期巡回・随時対応型訪問介護看護",
    "capacity": 0,
    "openDays": [],
    "openDaysNote": ""
  },
  {
    "id": "590500237",
    "name": "定期巡回・随時対応型訪問介護看護「わかば」",
    "kana": "テイキジュンカイズイジタイオウガタホウモンカイゴカンゴワカバ",
    "address": "秋田県由利本荘市石脇字田尻野7-3",
    "lat": 39.4047859,
    "lng": 140.0313836,
    "tel": "0184-74-5474",
    "url": "http://www.ikeyaku.co.jp",
    "pref": "秋田県",
    "city": "由利本荘市",
    "category": "regular_patrol_nursing",
    "serviceType": "定期巡回・随時対応型訪問介護看護",
    "capacity": null,
    "openDays": [],
    "openDaysNote": ""
  }
]