[
  {
    "id": "1092700101",
    "name": "月夜野トータルケアステーションさくらんぼ",
    "kana": "ツキヨノトータルケアステーションサクランボ",
    "address": "群馬県利根郡みなかみ町真庭377-5",
    "lat": 36.675188,
    "lng": 139.004246,
    "tel": "0278-62-2001",
    "url": "http://moon-hp.or.jp/",
    "pref": "群馬県",
    "city": "みなかみ町",
    "category": "regular_patrol_nursing",
    "serviceType": "定期巡回・随時対応型訪問介護看護",
    "capacity": 0,
    "openDays": [],
    "openDaysNote": ""
  },
  {
    "id": "1090400563",
    "name": "ケアサポ２４",
    "kana": "ケアサポ２４",
    "address": "群馬県伊勢崎市三光町20-9",
    "lat": 36.3161132366706,
    "lng": 139.1919921,
    "tel": "0270-61-8548",
    "url": "https://www.caresapo24.net/",
    "pref": "群馬県",
    "city": "伊勢崎市",
    "category": "regular_patrol_nursing",
    "serviceType": "定期巡回・随時対応型訪問介護看護",
    "capacity": 0,
    "openDays": [],
    "openDaysNote": ""
  },
  {
    "id": "1090300367",
    "name": "社会福祉法人邦知会　グレイス広沢",
    "kana": "シャカイフクシホウジンホウチカイ　グレイスヒロサワ",
    "address": "群馬県桐生市広沢町6-307-11",
    "lat": 36.3722576703271,
    "lng": 139.35877846005,
    "tel": "0277-53-7373",
    "url": "http://www.houchikai.or.jp",
    "pref": "群馬県",
    "city": "桐生市",
    "category": "regular_patrol_nursing",
    "serviceType": "定期巡回・随時対応型訪問介護看護",
    "capacity": 0,
    "openDays": [],
    "openDaysNote": ""
  },
  {
    "id": "1090200864",
    "name": "アムールフィーリングケア高崎",
    "kana": "アムールフィーリングケアタカサキ",
    "address": "群馬県高崎市問屋町1-6-4",
    "lat": 36.3495238,
    "lng": 139.0094254,
    "tel": "027-362-1612",
    "url": "http://takumikk.co.jp",
    "pref": "群馬県",
    "city": "高崎市",
    "category": "regular_patrol_nursing",
    "serviceType": "定期巡回・随時対応型訪問介護看護",
    "capacity": 49,
    "openDays": [],
    "openDaysNote": ""
  },
  {
    "id": "1090200518",
    "name": "キュアステーションようざん",
    "kana": "キュアステーションヨウザン",
    "address": "群馬県高崎市飯塚町1030-1",
    "lat": 36.3400161,
    "lng": 139.0032372,
    "tel": "027-381-6136",
    "url": "www.youzan.jp",
    "pref": "群馬県",
    "city": "高崎市",
    "category": "regular_patrol_nursing",
    "serviceType": "定期巡回・随時対応型訪問介護看護",
    "capacity": 0,
    "openDays": [],
    "openDaysNote": ""
  },
  {
    "id": "1090200807",
    "name": "グランドケア箕輪",
    "kana": "グランドケアミノワ",
    "address": "群馬県高崎市箕郷町上芝８４５番３グランドホーム箕輪 グランドホーム箕輪",
    "lat": 36.3852292,
    "lng": 138.9595783,
    "tel": "027-371-3717",
    "url": "http://www.e-verde.co.jp/",
    "pref": "群馬県",
    "city": "高崎市",
    "category": "regular_patrol_nursing",
    "serviceType": "定期巡回・随時対応型訪問介護看護",
    "capacity": 48,
    "openDays": [],
    "openDaysNote": ""
  },
  {
    "id": "1090201243",
    "name": "関越中央病院　介護・福祉村北原の里　定期巡回･随時対応型訪問介護看護「北原の里」",
    "kana": "カンエツチュウオウビョインカイゴフクシムラキタハラノサト　テイキジュンカイズイジタイオウガタホウモンカイゴカンゴキタハラノサト",
    "address": "群馬県高崎市北原町179-1",
    "lat": 36.4065638,
    "lng": 139.0223842,
    "tel": "027-384-4611",
    "url": "http://www.kan-etsu-hospital.com/",
    "pref": "群馬県",
    "city": "高崎市",
    "category": "regular_patrol_nursing",
    "serviceType": "定期巡回・随時対応型訪問介護看護",
    "capacity": 0,
    "openDays": [],
    "openDaysNote": ""
  },
  {
    "id": "1090200567",
    "name": "定期巡回訪問みのわ",
    "kana": "テイキジュンカイホウモンミノワ",
    "address": "群馬県高崎市箕郷町東明屋452-7",
    "lat": 36.3991047903946,
    "lng": 138.959329780318,
    "tel": "027-388-9516",
    "url": "http://www.minowa-takasaki.com",
    "pref": "群馬県",
    "city": "高崎市",
    "category": "regular_patrol_nursing",
    "serviceType": "定期巡回・随時対応型訪問介護看護",
    "capacity": 0,
    "openDays": [],
    "openDaysNote": ""
  },
  {
    "id": "1090200732",
    "name": "訪問介護看護じゃんけんぽん金井淵",
    "kana": "ホウモンカイゴカンゴジャンケンポンカナイブチ",
    "address": "群馬県高崎市金井淵町137-5",
    "lat": 36.3497974144353,
    "lng": 138.956660151468,
    "tel": "027-343-5552",
    "url": "http://www.jankenpon.jp",
    "pref": "群馬県",
    "city": "高崎市",
    "category": "regular_patrol_nursing",
    "serviceType": "定期巡回・随時対応型訪問介護看護",
    "capacity": 5,
    "openDays": [],
    "openDaysNote": ""
  },
  {
    "id": "1090800101",
    "name": "ナーシングホーム石原の里",
    "kana": "ナーシングホームイシハラノサト",
    "address": "群馬県渋川市石原３４３－１ナーシングホーム石原の里 ナーシングホーム石原の里",
    "lat": 36.4868626,
    "lng": 139.0035563,
    "tel": "0279-30-1165",
    "url": "http://nh-ishihara.com/",
    "pref": "群馬県",
    "city": "渋川市",
    "category": "regular_patrol_nursing",
    "serviceType": "定期巡回・随時対応型訪問介護看護",
    "capacity": 0,
    "openDays": [],
    "openDaysNote": ""
  },
  {
    "id": "1090800093",
    "name": "ベルジ南渋川",
    "kana": "ベルジミナミシブカワ",
    "address": "群馬県渋川市半田2726-1",
    "lat": 36.4665569,
    "lng": 139.0264411,
    "tel": "0279-25-0077",
    "url": "http://www.e-verde.co.jp",
    "pref": "群馬県",
    "city": "渋川市",
    "category": "regular_patrol_nursing",
    "serviceType": "定期巡回・随時対応型訪問介護看護",
    "capacity": 0,
    "openDays": [],
    "openDaysNote": ""
  },
  {
    "id": "1090600154",
    "name": "定期巡回・随時対応型訪問介護看護24サービス",
    "kana": "テイキジュンカイ・ズイジタイオウガタホウモンカイゴカンゴニーヨンサービス",
    "address": "群馬県沼田市久屋原345番地1",
    "lat": 36.6655403556539,
    "lng": 139.104536098534,
    "tel": "0278-25-3888",
    "url": "http://taiseikai-group.com/",
    "pref": "群馬県",
    "city": "沼田市",
    "category": "regular_patrol_nursing",
    "serviceType": "定期巡回・随時対応型訪問介護看護",
    "capacity": 10,
    "openDays": [],
    "openDaysNote": ""
  },
  {
    "id": "1090100379",
    "name": "エムダブルエス日高サポートセンター",
    "kana": "エムダブルエスヒダカサポートセンター",
    "address": "群馬県前橋市元総社町1213-2元総社公社賃貸住宅 元総社公社賃貸住宅",
    "lat": 36.3859280819768,
    "lng": 139.028170569606,
    "tel": "027-212-9711",
    "url": "http://www.hidaka-kai.com/mws/",
    "pref": "群馬県",
    "city": "前橋市",
    "category": "regular_patrol_nursing",
    "serviceType": "定期巡回・随時対応型訪問介護看護",
    "capacity": 0,
    "openDays": [],
    "openDaysNote": ""
  },
  {
    "id": "1090100775",
    "name": "定期巡回・随時対応型訪問介護看護グランポルト前橋",
    "kana": "テイキジュンカイ・ズイジタイオウガタホウモンカイゴカンゴグランポルトマエバシ",
    "address": "群馬県前橋市昭和町3-11-18",
    "lat": 36.4054292,
    "lng": 139.0629374,
    "tel": "027-212-6555",
    "url": "https://hotakakai.or.jp",
    "pref": "群馬県",
    "city": "前橋市",
    "category": "regular_patrol_nursing",
    "serviceType": "定期巡回・随時対応型訪問介護看護",
    "capacity": 0,
    "openDays": [],
    "openDaysNote": ""
  },
  {
    "id": "1090101013",
    "name": "定期巡回・随時対応型訪問介護看護メディカルケア片貝",
    "kana": "テイキジュンカイ・ズイジタイオウガタホウモンカイゴカンゴメディカルケアカタガイ",
    "address": "群馬県前橋市東片貝町1079",
    "lat": 36.3842464,
    "lng": 139.111913,
    "tel": "272122866",
    "url": "https//medical-katakai.com",
    "pref": "群馬県",
    "city": "前橋市",
    "category": "regular_patrol_nursing",
    "serviceType": "定期巡回・随時対応型訪問介護看護",
    "capacity": 24,
    "openDays": [],
    "openDaysNote": ""
  }
]