[
  {
    "id": "892100413",
    "name": "医療法人博仁会　定期巡回・随時対応型訪問介護看護事業所　フロイデひたちなか定期巡回サービス",
    "kana": "イリョウホウジンハクジンカイ　テイキジュンカイ　ズイジタイオウガタホウモンカイゴカンゴジギョウショ　フロイデヒタチナカテイキジュンカイサービス",
    "address": "茨城県ひたちなか市足崎1474番地8フロイデひたちなかメディカルプラザ　ベルリン棟 フロイデひたちなかメディカルプラザ　ベルリン棟",
    "lat": 36.4037835,
    "lng": 140.5526755,
    "tel": "029-229-3838",
    "url": "https://www.hakujinkai.com/satellite_mp_hitachinaka.php",
    "pref": "茨城県",
    "city": "ひたちなか市",
    "category": "regular_patrol_nursing",
    "serviceType": "定期巡回・随時対応型訪問介護看護",
    "capacity": 0,
    "openDays": [],
    "openDaysNote": ""
  },
  {
    "id": "891600231",
    "name": "フロイデともべ定期巡回サービス",
    "kana": "フロイデトモベテイキジュンカイサービス",
    "address": "茨城県笠間市鯉淵6526-19",
    "lat": 36.3494962,
    "lng": 140.3203987,
    "tel": "0296-73-5333",
    "url": "https://www.hakuyukai-sfg.com",
    "pref": "茨城県",
    "city": "笠間市",
    "category": "regular_patrol_nursing",
    "serviceType": "定期巡回・随時対応型訪問介護看護",
    "capacity": 0,
    "openDays": [],
    "openDaysNote": ""
  },
  {
    "id": "890700057",
    "name": "やさしい手結城定期巡回・訪問介護看護事業所",
    "kana": "ヤサシイテユウキテイキジュンカイホウモンカイゴカンゴジギョウショ",
    "address": "茨城県結城市結城9802-1やさしい手シニアリビングやさしえ結城 やさしい手シニアリビングやさしえ結城",
    "lat": 36.2904288,
    "lng": 139.8602473,
    "tel": "0296-34-8531",
    "url": "sp.yasashiite.com/subdomains/section/228/",
    "pref": "茨城県",
    "city": "結城市",
    "category": "regular_patrol_nursing",
    "serviceType": "定期巡回・随時対応型訪問介護看護",
    "capacity": 100,
    "openDays": [],
    "openDaysNote": ""
  },
  {
    "id": "892200023",
    "name": "ふくふく鹿嶋",
    "kana": "フクフクカシマ",
    "address": "茨城県鹿嶋市大字宮中字宮中野3820番地1",
    "lat": 35.9741848,
    "lng": 140.6404731,
    "tel": "0299-94-8800",
    "url": "http://www.ns-group.co.jp",
    "pref": "茨城県",
    "city": "鹿嶋市",
    "category": "regular_patrol_nursing",
    "serviceType": "定期巡回・随時対応型訪問介護看護",
    "capacity": 0,
    "openDays": [],
    "openDaysNote": ""
  },
  {
    "id": "891200099",
    "name": "ナザレ園サポート24常陸太田",
    "kana": "ナザレエンサポート24ヒタチオオタ",
    "address": "茨城県常陸太田市磯部町字腰巻57番地ナザレ園ホーム・ライフ・サービス常陸太田 ナザレ園ホーム・ライフ・サービス常陸太田",
    "lat": 36.5193248137753,
    "lng": 140.530956259277,
    "tel": "0294-87-6600",
    "url": "https://nazareen.or.jp/",
    "pref": "茨城県",
    "city": "常陸太田市",
    "category": "regular_patrol_nursing",
    "serviceType": "定期巡回・随時対応型訪問介護看護",
    "capacity": 0,
    "openDays": [],
    "openDaysNote": ""
  },
  {
    "id": "892500133",
    "name": "おおみやホームヘルパーステーション",
    "kana": "オオミヤホームヘルパーステーション",
    "address": "茨城県常陸大宮市上町３２１番地ＮＴＴ常陸大宮ビル１階 ＮＴＴ常陸大宮ビル１階",
    "lat": 36.5492584370596,
    "lng": 140.412744964418,
    "tel": "0295-53-1192",
    "url": "http://www.hakujinkai.com/",
    "pref": "茨城県",
    "city": "常陸大宮市",
    "category": "regular_patrol_nursing",
    "serviceType": "定期巡回・随時対応型訪問介護看護",
    "capacity": 0,
    "openDays": [],
    "openDaysNote": ""
  },
  {
    "id": "895200095",
    "name": "ふくふく神栖",
    "kana": "フクフクカミス",
    "address": "茨城県神栖市若松中央2-20",
    "lat": 35.8351411,
    "lng": 140.7341442,
    "tel": "0479-46-0081",
    "url": "http://www.ns-group.co.jp",
    "pref": "茨城県",
    "city": "神栖市",
    "category": "regular_patrol_nursing",
    "serviceType": "定期巡回・随時対応型訪問介護看護",
    "capacity": 20,
    "openDays": [],
    "openDaysNote": ""
  },
  {
    "id": "890100357",
    "name": "ナザレ園サポート24水戸",
    "kana": "ナザレエンサポートニジュウヨンミト",
    "address": "茨城県水戸市石川1-3829-3",
    "lat": 36.3919361,
    "lng": 140.4300286,
    "tel": "029-306-6081",
    "url": "www.nazareen.or.jp",
    "pref": "茨城県",
    "city": "水戸市",
    "category": "regular_patrol_nursing",
    "serviceType": "定期巡回・随時対応型訪問介護看護",
    "capacity": 0,
    "openDays": [],
    "openDaysNote": ""
  },
  {
    "id": "890100514",
    "name": "フロイデみと定期巡回サービス",
    "kana": "フロイデミトテイキジュンカイサービス",
    "address": "茨城県水戸市堀町967-1",
    "lat": 36.4029035,
    "lng": 140.4335211,
    "tel": "029-353-8155",
    "url": "https://www.hakujinkai.com",
    "pref": "茨城県",
    "city": "水戸市",
    "category": "regular_patrol_nursing",
    "serviceType": "定期巡回・随時対応型訪問介護看護",
    "capacity": 0,
    "openDays": [],
    "openDaysNote": ""
  },
  {
    "id": "890100415",
    "name": "ゆりかご☆いんくる",
    "kana": "ユリカゴインクル",
    "address": "茨城県水戸市飯富町3467-1",
    "lat": 36.4222624,
    "lng": 140.4150447,
    "tel": "029-229-7562",
    "url": "https://www.yurikago-kaigo.com/kaigo/incl/index.html",
    "pref": "茨城県",
    "city": "水戸市",
    "category": "regular_patrol_nursing",
    "serviceType": "定期巡回・随時対応型訪問介護看護",
    "capacity": 0,
    "openDays": [],
    "openDaysNote": ""
  },
  {
    "id": "892700170",
    "name": "定期巡回・随時対応型訪問介護看護　リアン",
    "kana": "テイキジュンカイ・ズイジタイオウガタホウモンカイゴカンゴ　リアン",
    "address": "茨城県筑西市藤ヶ谷2264番地2",
    "lat": 36.2600972,
    "lng": 139.9501678,
    "tel": "0296-37-4507",
    "url": "",
    "pref": "茨城県",
    "city": "筑西市",
    "category": "regular_patrol_nursing",
    "serviceType": "定期巡回・随時対応型訪問介護看護",
    "capacity": null,
    "openDays": [],
    "openDaysNote": ""
  },
  {
    "id": "893300038",
    "name": "在宅サポート　オークス東海",
    "kana": "ザイタクサポート　オークストウカイ",
    "address": "茨城県那珂郡東海村大字船場字八枚割５８８番地７",
    "lat": 36.4498886297226,
    "lng": 140.546577170021,
    "tel": "029-352-3260",
    "url": "",
    "pref": "茨城県",
    "city": "東海村",
    "category": "regular_patrol_nursing",
    "serviceType": "定期巡回・随時対応型訪問介護看護",
    "capacity": 0,
    "openDays": [],
    "openDaysNote": ""
  },
  {
    "id": "892600081",
    "name": "ナザレ園定期巡回・随時対応型訪問介護看護事業所",
    "kana": "ナザレエンテイキジュンカイ・ズイジタイオウガタホウモンカイゴカンゴジギョウショ",
    "address": "茨城県那珂市中里342-3",
    "lat": 36.4851895,
    "lng": 140.4571688,
    "tel": "029-296-0034",
    "url": "www.nazareen.or.jp",
    "pref": "茨城県",
    "city": "那珂市",
    "category": "regular_patrol_nursing",
    "serviceType": "定期巡回・随時対応型訪問介護看護",
    "capacity": 30,
    "openDays": [],
    "openDaysNote": ""
  }
]