[
  {
    "id": "4292100023",
    "name": "社会医療法人　玄州会　ホームヘルパーステーションリバティ",
    "kana": "シャカイイリョウホウジン　ゲンシュウカイ　ホームヘルパーステーションリバティ",
    "address": "長崎県壱岐市郷ノ浦町永田触字八枝275番地2",
    "lat": 33.7517286915058,
    "lng": 129.699420951204,
    "tel": "0920-47-3607",
    "url": "http://www.gensyukai.or.jp/",
    "pref": "長崎県",
    "city": "壱岐市",
    "category": "regular_patrol_nursing",
    "serviceType": "定期巡回・随時対応型訪問介護看護",
    "capacity": 0,
    "openDays": [],
    "openDaysNote": ""
  },
  {
    "id": "4292200187",
    "name": "定期巡回・随時対応型訪問介護看護事業所あいばな",
    "kana": "テイキジュンカイ・ズイジタイオウガタホウモンカイゴカンゴジギョウショアイバナ",
    "address": "長崎県五島市岐宿町松山1571番地2",
    "lat": 32.707046474591,
    "lng": 128.734222834775,
    "tel": "0959-83-1113",
    "url": "",
    "pref": "長崎県",
    "city": "五島市",
    "category": "regular_patrol_nursing",
    "serviceType": "定期巡回・随時対応型訪問介護看護",
    "capacity": 0,
    "openDays": [],
    "openDaysNote": ""
  },
  {
    "id": "4291500082",
    "name": "「24時間対応」訪問看介護ステーションさざ",
    "kana": "ニジュウヨジカンタイオウホウモンカンカイゴステーションサザ",
    "address": "長崎県北松浦郡佐々町羽須和免732-1ゆうあいホームはなぶさ ゆうあいホームはなぶさ",
    "lat": 33.2357872962473,
    "lng": 129.651004882803,
    "tel": "0956-59-8723",
    "url": "",
    "pref": "長崎県",
    "city": "佐々町",
    "category": "regular_patrol_nursing",
    "serviceType": "定期巡回・随時対応型訪問介護看護",
    "capacity": 24,
    "openDays": [],
    "openDaysNote": ""
  },
  {
    "id": "4290200999",
    "name": "24時間在宅ケア　サクラ",
    "kana": "２４ジカン　ザイタクケア　サクラ",
    "address": "長崎県佐世保市花園町２０１番地",
    "lat": 33.1811263,
    "lng": 129.7224731,
    "tel": "0956-24-1991",
    "url": "",
    "pref": "長崎県",
    "city": "佐世保市",
    "category": "regular_patrol_nursing",
    "serviceType": "定期巡回・随時対応型訪問介護看護",
    "capacity": 30,
    "openDays": [],
    "openDaysNote": ""
  },
  {
    "id": "4290201344",
    "name": "巡回ステーションのなか",
    "kana": "ジュンカイステーションノナカ",
    "address": "野中町171-1サービス付高齢者向け住宅のなか サービス付高齢者向け住宅のなか",
    "lat": 33.2148241,
    "lng": 129.7071192,
    "tel": "0956-41-0339",
    "url": "https://yen-nonaka.co.jp/",
    "pref": "長崎県",
    "city": "佐世保市",
    "category": "regular_patrol_nursing",
    "serviceType": "定期巡回・随時対応型訪問介護看護",
    "capacity": null,
    "openDays": [],
    "openDaysNote": ""
  },
  {
    "id": "4290201161",
    "name": "長崎友愛会「24時間対応」訪問看介護ステーション",
    "kana": "ナガサキユウアイカイ「24ジカンタイオウ」ホウモンカンカイゴステーション",
    "address": "長崎県佐世保市長坂町681-24",
    "lat": 33.1661548272365,
    "lng": 129.689242671529,
    "tel": "0956-29-2233",
    "url": "",
    "pref": "長崎県",
    "city": "佐世保市",
    "category": "regular_patrol_nursing",
    "serviceType": "定期巡回・随時対応型訪問介護看護",
    "capacity": 0,
    "openDays": [],
    "openDaysNote": ""
  },
  {
    "id": "4290201468",
    "name": "定期巡回・随時対応型訪問介護看護　笑くる",
    "kana": "テイキジュンカイ　ズイジタイオウガタホウモンカイゴカンゴ　エミクル",
    "address": "長崎県佐世保市吉井町田原70-1",
    "lat": 33.2540996,
    "lng": 129.7072729,
    "tel": "0956-80-3724",
    "url": "",
    "pref": "長崎県",
    "city": "佐世保市",
    "category": "regular_patrol_nursing",
    "serviceType": "定期巡回・随時対応型訪問介護看護",
    "capacity": 0,
    "openDays": [],
    "openDaysNote": ""
  },
  {
    "id": "4290201351",
    "name": "定期巡回・随時対応型訪問介護看護事業所",
    "kana": "テイキジュンカイ・ズイジタイオウガタホウモンカイゴカンゴジギョウショ",
    "address": "長崎県佐世保市鹿子前町904-1",
    "lat": 33.1617961,
    "lng": 129.6853946,
    "tel": "0956-37-6661",
    "url": "www.hakuzyusou.or.jp",
    "pref": "長崎県",
    "city": "佐世保市",
    "category": "regular_patrol_nursing",
    "serviceType": "定期巡回・随時対応型訪問介護看護",
    "capacity": 26,
    "openDays": [],
    "openDaysNote": ""
  },
  {
    "id": "4290201401",
    "name": "定期巡回サービス　さくらプレイス広田",
    "kana": "テイキジュンカイサービス　サクラプレイスヒロタ",
    "address": "長崎県佐世保市広田４丁目３番２号",
    "lat": 33.1247863,
    "lng": 129.7946963,
    "tel": "0956-56-6100",
    "url": "",
    "pref": "長崎県",
    "city": "佐世保市",
    "category": "regular_patrol_nursing",
    "serviceType": "定期巡回・随時対応型訪問介護看護",
    "capacity": 0,
    "openDays": [],
    "openDaysNote": ""
  },
  {
    "id": "4290201088",
    "name": "定期巡回随時対応サービス　やまずみ荘",
    "kana": "テイキジュンカイズイジタイオウサービスヤマズミソウ",
    "address": "長崎県佐世保市山祇町390番地",
    "lat": 33.1689745246739,
    "lng": 129.733220345192,
    "tel": "0956-34-8006",
    "url": "http://www.yamazumiso.or.jp",
    "pref": "長崎県",
    "city": "佐世保市",
    "category": "regular_patrol_nursing",
    "serviceType": "定期巡回・随時対応型訪問介護看護",
    "capacity": 11,
    "openDays": [],
    "openDaysNote": ""
  },
  {
    "id": "4290201096",
    "name": "白十字会24時間対応ヘルパーステーション",
    "kana": "ハクジュウジカイニジュウヨジカンタイオウヘルパーステーション",
    "address": "長崎県佐世保市日宇町2835番地介護老人保健施設長寿苑　３階 介護老人保健施設長寿苑　３階",
    "lat": 33.1554688,
    "lng": 129.7668258,
    "tel": "0956-46-5111",
    "url": "",
    "pref": "長崎県",
    "city": "佐世保市",
    "category": "regular_patrol_nursing",
    "serviceType": "定期巡回・随時対応型訪問介護看護",
    "capacity": 0,
    "openDays": [],
    "openDaysNote": ""
  },
  {
    "id": "4290500166",
    "name": "ヘルパーステーション秋櫻",
    "kana": "ヘルパーステーションコスモス",
    "address": "長崎県大村市諏訪2丁目576-4",
    "lat": 32.9296541,
    "lng": 129.9526272,
    "tel": "0957-54-5759",
    "url": "http://www.midori-group.com/",
    "pref": "長崎県",
    "city": "大村市",
    "category": "regular_patrol_nursing",
    "serviceType": "定期巡回・随時対応型訪問介護看護",
    "capacity": 0,
    "openDays": [],
    "openDaysNote": ""
  },
  {
    "id": "4290500331",
    "name": "定期巡回サービスはーとらいん",
    "kana": "テイキジュンカイサービスハートライン",
    "address": "長崎県大村市原口町579-10",
    "lat": 32.9359468,
    "lng": 129.9425052,
    "tel": "0957‐46-5390",
    "url": "https://heartline-omura.com/",
    "pref": "長崎県",
    "city": "大村市",
    "category": "regular_patrol_nursing",
    "serviceType": "定期巡回・随時対応型訪問介護看護",
    "capacity": 0,
    "openDays": [],
    "openDaysNote": ""
  },
  {
    "id": "4290101007",
    "name": "24時間安心ｾﾝﾀｰ　ﾗｲﾌｹｱ",
    "kana": "ニジュウヨジカンアンシンセンター　ライフケア",
    "address": "長崎県長崎市松ヶ枝町3番20号南長崎クリニック 南長崎クリニック",
    "lat": 32.73490565095,
    "lng": 129.871448908598,
    "tel": "095-893-5112",
    "url": "www.syunnjyu-kai.or.jp",
    "pref": "長崎県",
    "city": "長崎市",
    "category": "regular_patrol_nursing",
    "serviceType": "定期巡回・随時対応型訪問介護看護",
    "capacity": 0,
    "openDays": [],
    "openDaysNote": ""
  },
  {
    "id": "4290101015",
    "name": "24時間在宅ケアセンター　琴の浦荘",
    "kana": "２４ジカンザイタクケアセンター　コトノウラソウ",
    "address": "長崎県長崎市琴海戸根町743番地47",
    "lat": 32.8875374,
    "lng": 129.7919244,
    "tel": "095-801-3640",
    "url": "http://www.gounkai.or.jp/",
    "pref": "長崎県",
    "city": "長崎市",
    "category": "regular_patrol_nursing",
    "serviceType": "定期巡回・随時対応型訪問介護看護",
    "capacity": 0,
    "openDays": [],
    "openDaysNote": ""
  },
  {
    "id": "4290100835",
    "name": "２４時間巡回型ケアステーションロジ",
    "kana": "ニジュウヨジカンジュンカイガタケアステーションロジ",
    "address": "長崎県長崎市赤迫2丁目４番１０号",
    "lat": 32.7982659,
    "lng": 129.8553308,
    "tel": "095-865-6669",
    "url": "http://logi-support.co.jp/",
    "pref": "長崎県",
    "city": "長崎市",
    "category": "regular_patrol_nursing",
    "serviceType": "定期巡回・随時対応型訪問介護看護",
    "capacity": 0,
    "openDays": [],
    "openDaysNote": ""
  },
  {
    "id": "4290101049",
    "name": "喜楽苑　桃花",
    "kana": "キラクエンモモノカ",
    "address": "長崎県長崎市末石町154番地1",
    "lat": 32.6797461622984,
    "lng": 129.841429679189,
    "tel": "095-895-7756",
    "url": "http:/www.kirakuen-nagasaki.jp/",
    "pref": "長崎県",
    "city": "長崎市",
    "category": "regular_patrol_nursing",
    "serviceType": "定期巡回・随時対応型訪問介護看護",
    "capacity": 0,
    "openDays": [],
    "openDaysNote": ""
  },
  {
    "id": "4290100967",
    "name": "定期巡回・随時対応型訪問介護看護　プライエム横尾",
    "kana": "テイキジュンカイ・ズイジタイオウガタホウモンカイゴカンゴ　プライエムヨコオ",
    "address": "長崎県長崎市横尾3丁目26番2号介護老人保健施設ナーシングケア横尾1階 介護老人保健施設ナーシングケア横尾1階",
    "lat": 32.8169523511147,
    "lng": 129.839364695323,
    "tel": "095-865‐6880",
    "url": "http://www.heisei-kai.or.jp/",
    "pref": "長崎県",
    "city": "長崎市",
    "category": "regular_patrol_nursing",
    "serviceType": "定期巡回・随時対応型訪問介護看護",
    "capacity": 11,
    "openDays": [],
    "openDaysNote": ""
  },
  {
    "id": "4290101122",
    "name": "定期巡回・随時対応型訪問介護看護いこい",
    "kana": "テイキジュンカイ・ズイジタイオウガタホウモンカイゴカンゴイコイ",
    "address": "長崎県長崎市高尾町46番33号",
    "lat": 32.7803993,
    "lng": 129.8766607,
    "tel": "095-848-0151",
    "url": "http://yuujyu-m.jp/",
    "pref": "長崎県",
    "city": "長崎市",
    "category": "regular_patrol_nursing",
    "serviceType": "定期巡回・随時対応型訪問介護看護",
    "capacity": 0,
    "openDays": [],
    "openDaysNote": ""
  },
  {
    "id": "4290101130",
    "name": "定期巡回・随時対応型訪問介護看護センター　かもめ",
    "kana": "テイキジュカイ・ズイジタイオウガタホウモンカイゴカンゴセンター　カモメ",
    "address": "長崎県長崎市大浜町846－22",
    "lat": 32.7455019288222,
    "lng": 129.83205028941,
    "tel": "０９５－８６５－５８６５",
    "url": "http://oohama50.sakura.ne.jp",
    "pref": "長崎県",
    "city": "長崎市",
    "category": "regular_patrol_nursing",
    "serviceType": "定期巡回・随時対応型訪問介護看護",
    "capacity": 0,
    "openDays": [],
    "openDaysNote": ""
  },
  {
    "id": "4290100959",
    "name": "定期巡回・随時対応型訪問介護看護事業所　日見やすらぎ荘",
    "kana": "テイキジュンカイ・ズイジタイオウガタホウモンカイゴカンゴジギョウショ　ヒミヤスラギソウ",
    "address": "長崎県長崎市宿町６１６番地養護老人ホーム・日見やすらぎ荘 養護老人ホーム・日見やすらぎ荘",
    "lat": 32.7601939,
    "lng": 129.9370259,
    "tel": "095-849-4039",
    "url": "http://www.heisei-kai.or.jp/",
    "pref": "長崎県",
    "city": "長崎市",
    "category": "regular_patrol_nursing",
    "serviceType": "定期巡回・随時対応型訪問介護看護",
    "capacity": 1,
    "openDays": [],
    "openDaysNote": ""
  },
  {
    "id": "4290100876",
    "name": "定期巡回・随時対応型訪問介護看護事業所うぇるずらいふ大手",
    "kana": "テイキジュンカイ・ズイジタイオウガタホウモンカイゴカンゴジギョウショウェルズライフオオテ",
    "address": "長崎県長崎市大手１丁目２９番６号ウェルズライフ大手 ウェルズライフ大手",
    "lat": 32.7899616800555,
    "lng": 129.876242579971,
    "tel": "095-894-8821",
    "url": "https://wellslife.jp/",
    "pref": "長崎県",
    "city": "長崎市",
    "category": "regular_patrol_nursing",
    "serviceType": "定期巡回・随時対応型訪問介護看護",
    "capacity": 60,
    "openDays": [],
    "openDaysNote": ""
  },
  {
    "id": "4290100850",
    "name": "定期巡回・随時対応型訪問介護看護事業所サンハイツ",
    "kana": "テイキジュンカイ・ズイジタイオウガタホウモンカイゴカンゴジギョウショサンハイツ",
    "address": "長崎県長崎市油木町６５番地１４",
    "lat": 32.7803067,
    "lng": 129.8441103,
    "tel": "095-843-3812",
    "url": "http://www.sanhaitsu.jp/",
    "pref": "長崎県",
    "city": "長崎市",
    "category": "regular_patrol_nursing",
    "serviceType": "定期巡回・随時対応型訪問介護看護",
    "capacity": 0,
    "openDays": [],
    "openDaysNote": ""
  },
  {
    "id": "4291100123",
    "name": "定期巡回・随時対応型訪問介護看護　きらり",
    "kana": "テイキジュンカイ・ズイジタイオウガタホウモンカイゴカンゴ　キラリ",
    "address": "長崎県西彼杵郡長与町高田郷2118-1",
    "lat": 32.8062544,
    "lng": 129.8571411,
    "tel": "095－865-9687",
    "url": "",
    "pref": "長崎県",
    "city": "長与町",
    "category": "regular_patrol_nursing",
    "serviceType": "定期巡回・随時対応型訪問介護看護",
    "capacity": null,
    "openDays": [],
    "openDaysNote": ""
  },
  {
    "id": "4290300963",
    "name": "巡回型訪問介護　リハサポート",
    "kana": "ジュンカイガタホウモンカイゴ　リハサポート",
    "address": "長崎県島原市加美町999番地リハサポート3 リハサポート3",
    "lat": 32.7848946,
    "lng": 130.3681945,
    "tel": "0957-73-9204",
    "url": "",
    "pref": "長崎県",
    "city": "島原市",
    "category": "regular_patrol_nursing",
    "serviceType": "定期巡回・随時対応型訪問介護看護",
    "capacity": 15,
    "openDays": [],
    "openDaysNote": ""
  },
  {
    "id": "4290400532",
    "name": "24時間訪問看介護ステーション　きらら",
    "kana": "24ジカンホウモンカンカイゴステーション　キララ",
    "address": "栄田町25-24",
    "lat": 32.8602641,
    "lng": 130.0375521,
    "tel": "0957-25-5880",
    "url": "",
    "pref": "長崎県",
    "city": "諫早市",
    "category": "regular_patrol_nursing",
    "serviceType": "定期巡回・随時対応型訪問介護看護",
    "capacity": 0,
    "openDays": [],
    "openDaysNote": ""
  },
  {
    "id": "4290400243",
    "name": "七久会訪問看護介護センター",
    "kana": "シチキュウカイホウモンカンゴカイゴセンター",
    "address": "長崎県諫早市小長井町小川原浦656医療法人七久会　山﨑病院 医療法人七久会　山﨑病院",
    "lat": 32.9269338,
    "lng": 130.1881812,
    "tel": "0957-34-2007",
    "url": "",
    "pref": "長崎県",
    "city": "諫早市",
    "category": "regular_patrol_nursing",
    "serviceType": "定期巡回・随時対応型訪問介護看護",
    "capacity": 11,
    "openDays": [],
    "openDaysNote": ""
  }
]