[
  {
    "id": "2094000359",
    "name": "サンクスあんしんサポ",
    "kana": "サンクスアンシンサポ",
    "address": "長野県安曇野市穂高有明9990-1",
    "lat": 36.345989,
    "lng": 137.8615398,
    "tel": "0263-88-8860",
    "url": "https://thanks-saiwainomachi.com",
    "pref": "長野県",
    "city": "安曇野市",
    "category": "regular_patrol_nursing",
    "serviceType": "定期巡回・随時対応型訪問介護看護",
    "capacity": 3,
    "openDays": [],
    "openDaysNote": ""
  },
  {
    "id": "2094000177",
    "name": "愛光苑安曇野サポートセンター",
    "kana": "アイコウエンアヅミノサポートセンター",
    "address": "長野県安曇野市明科中川手147-2",
    "lat": 36.3355283923046,
    "lng": 137.927354604893,
    "tel": "0263-88-7676",
    "url": "http://www.miraisai.co.jp",
    "pref": "長野県",
    "city": "安曇野市",
    "category": "regular_patrol_nursing",
    "serviceType": "定期巡回・随時対応型訪問介護看護",
    "capacity": 0,
    "openDays": [],
    "openDaysNote": ""
  },
  {
    "id": "2090900107",
    "name": "24時間定期巡回訪問介護ゆりかご伊那",
    "kana": "24ジカンテイキジュンカイホウモンカイゴイナ",
    "address": "長野県伊那市荒井3463‐1メディカルホームゆりかご2F メディカルホームゆりかご2F",
    "lat": 35.839100084759,
    "lng": 137.958441820079,
    "tel": "0265‐73‐8228",
    "url": "",
    "pref": "長野県",
    "city": "伊那市",
    "category": "regular_patrol_nursing",
    "serviceType": "定期巡回・随時対応型訪問介護看護",
    "capacity": null,
    "openDays": [],
    "openDaysNote": ""
  },
  {
    "id": "2090400249",
    "name": "定期巡回ケアステーション和が家",
    "kana": "テイキジュンカイケアステーションワガヤ",
    "address": "長野県岡谷市山下町1-1-22和が家日和2階 和が家日和2階",
    "lat": 36.0653565,
    "lng": 138.0424964,
    "tel": "0266-75-2343",
    "url": "https://wagaya.co.jp/",
    "pref": "長野県",
    "city": "岡谷市",
    "category": "regular_patrol_nursing",
    "serviceType": "定期巡回・随時対応型訪問介護看護",
    "capacity": null,
    "openDays": [],
    "openDaysNote": ""
  },
  {
    "id": "2092300173",
    "name": "諏訪共立定期巡回ケア　えにし",
    "kana": "スワキョウリツテイキジュンカイケア　エニシ",
    "address": "長野県諏訪郡下諏訪町西弥生町4928-1複合型施設　ゆいまーる　2F 複合型施設　ゆいまーる　2F",
    "lat": 36.073077145523,
    "lng": 138.079142791679,
    "tel": "0266-26-3008",
    "url": "httt;//www.skhp.or.jp/",
    "pref": "長野県",
    "city": "下諏訪町",
    "category": "regular_patrol_nursing",
    "serviceType": "定期巡回・随時対応型訪問介護看護",
    "capacity": 28,
    "openDays": [],
    "openDaysNote": ""
  },
  {
    "id": "2091400107",
    "name": "定期巡回随時対応型事業所寿和寮",
    "kana": "テイキジュンカイズイジタイオウガタジギョウショスワリョウ",
    "address": "長野県茅野市宮川5010-1",
    "lat": 35.98717080661,
    "lng": 138.162721893115,
    "tel": "0266-71-1610",
    "url": "http://www.heisei-kai.jp",
    "pref": "長野県",
    "city": "茅野市",
    "category": "regular_patrol_nursing",
    "serviceType": "定期巡回・随時対応型訪問介護看護",
    "capacity": 20,
    "openDays": [],
    "openDaysNote": ""
  },
  {
    "id": "2091700159",
    "name": "24時間地域サポートステイションさくだいら敬老園",
    "kana": "ニジュウヨジカンチイキサポートステイションサクダイラケイロウエン",
    "address": "長野県佐久市佐久平駅北17-4パストラルさくだいら パストラルさくだいら",
    "lat": 36.280634,
    "lng": 138.460951,
    "tel": "0267-66-6541",
    "url": "p-saku@keiroen.or.jp",
    "pref": "長野県",
    "city": "佐久市",
    "category": "regular_patrol_nursing",
    "serviceType": "定期巡回・随時対応型訪問介護看護",
    "capacity": 0,
    "openDays": [],
    "openDaysNote": ""
  },
  {
    "id": "2090800109",
    "name": "定期巡回随時対応型訪問介護事業所タブノキ",
    "kana": "テイキジュンカイズイジタイオウガタホウモンカイゴジギョウショタブノキ",
    "address": "長野県小諸市市97番地",
    "lat": 36.2863499,
    "lng": 138.4374903,
    "tel": "0267-31-5605",
    "url": "",
    "pref": "長野県",
    "city": "小諸市",
    "category": "regular_patrol_nursing",
    "serviceType": "定期巡回・随時対応型訪問介護看護",
    "capacity": null,
    "openDays": [],
    "openDaysNote": ""
  },
  {
    "id": "2090200532",
    "name": "愛光苑蟻ケ崎サポートセンター",
    "kana": "アイコウエンアリガサキサポートセンター",
    "address": "長野県松本市蟻ケ崎5-4-10",
    "lat": 36.2504936,
    "lng": 137.9617214,
    "tel": "0263-87-5700",
    "url": "http://miraisai.co.jp",
    "pref": "長野県",
    "city": "松本市",
    "category": "regular_patrol_nursing",
    "serviceType": "定期巡回・随時対応型訪問介護看護",
    "capacity": null,
    "openDays": [],
    "openDaysNote": ""
  },
  {
    "id": "2090200342",
    "name": "愛光苑松本サポートセンター",
    "kana": "アイコウエンマツモトサポートセンター",
    "address": "長野県松本市浅間温泉1-28-22愛光苑まつもと 愛光苑まつもと",
    "lat": 36.2604853552661,
    "lng": 137.9861977,
    "tel": "0263-87-7123",
    "url": "http://www.miraisai.co.jp",
    "pref": "長野県",
    "city": "松本市",
    "category": "regular_patrol_nursing",
    "serviceType": "定期巡回・随時対応型訪問介護看護",
    "capacity": null,
    "openDays": [],
    "openDaysNote": ""
  },
  {
    "id": "2090200268",
    "name": "相澤地域密着型サービス事業所",
    "kana": "アイザワチイキミッチャクガタサービスジギョウショ",
    "address": "長野県松本市本庄2-10-21",
    "lat": 36.2275120867299,
    "lng": 137.975273674869,
    "tel": "0263-34-7391",
    "url": "https://jisenkai.aizawahospital.jp/home_medical/",
    "pref": "長野県",
    "city": "松本市",
    "category": "regular_patrol_nursing",
    "serviceType": "定期巡回・随時対応型訪問介護看護",
    "capacity": 0,
    "openDays": [],
    "openDaysNote": ""
  },
  {
    "id": "2090300142",
    "name": "24時間型ホームヘルパーステーションアザレアン",
    "kana": "24ジカンガタホームヘルパーステーションアザレアン",
    "address": "長野県上田市真田町長7329－4サービス付き高齢者向け住宅アザレアン サービス付き高齢者向け住宅アザレアン",
    "lat": 36.443335,
    "lng": 138.3057788,
    "tel": "0268-75-1203",
    "url": "http://www.azarean.jp/",
    "pref": "長野県",
    "city": "上田市",
    "category": "regular_patrol_nursing",
    "serviceType": "定期巡回・随時対応型訪問介護看護",
    "capacity": 0,
    "openDays": [],
    "openDaysNote": ""
  },
  {
    "id": "2090300654",
    "name": "ていきじゅんかいすてーしょんはるかぜ",
    "kana": "定期巡回ステーションハルカゼ",
    "address": "長野県上田市保野803-1",
    "lat": 36.373988,
    "lng": 138.201255,
    "tel": "0268-38-3355",
    "url": "",
    "pref": "長野県",
    "city": "上田市",
    "category": "regular_patrol_nursing",
    "serviceType": "定期巡回・随時対応型訪問介護看護",
    "capacity": 15,
    "openDays": [],
    "openDaysNote": ""
  },
  {
    "id": "2090300449",
    "name": "ほほ笑み介護24",
    "kana": "ホホエミカイゴ　ニジュウヨン",
    "address": "長野県上田市福田50-3",
    "lat": 36.3874514,
    "lng": 138.2018824,
    "tel": "0268-75-8039",
    "url": "http://hohoemikaigo.com/",
    "pref": "長野県",
    "city": "上田市",
    "category": "regular_patrol_nursing",
    "serviceType": "定期巡回・随時対応型訪問介護看護",
    "capacity": 0,
    "openDays": [],
    "openDaysNote": ""
  },
  {
    "id": "2090600178",
    "name": "イリーゼ諏訪定期巡回・随時対応型訪問介護看護センター",
    "kana": "イリーゼスワテイキジュンカイ・ズイジタイオウガタホウモンカイゴカンゴセンター",
    "address": "長野県諏訪市高島２－１２８４－１",
    "lat": 36.0396250395225,
    "lng": 138.110271610451,
    "tel": "0266-56-1885",
    "url": "http://www.irs.jp",
    "pref": "長野県",
    "city": "諏訪市",
    "category": "regular_patrol_nursing",
    "serviceType": "定期巡回・随時対応型訪問介護看護",
    "capacity": 10,
    "openDays": [],
    "openDaysNote": ""
  },
  {
    "id": "2090700119",
    "name": "となりのきんぎょ",
    "kana": "トナリノキンギョ",
    "address": "長野県須坂市大字豊丘2755番地",
    "lat": 36.6370437,
    "lng": 138.3438914,
    "tel": "026-247-8823",
    "url": "http://www.i-nazuna.jp/kingyo/",
    "pref": "長野県",
    "city": "須坂市",
    "category": "regular_patrol_nursing",
    "serviceType": "定期巡回・随時対応型訪問介護看護",
    "capacity": 0,
    "openDays": [],
    "openDaysNote": ""
  },
  {
    "id": "2091800108",
    "name": "定期巡回随時対応型訪問介護看護",
    "kana": "テイキジュンカイ　ズイジタイオウガタホウモンカイゴカンゴ",
    "address": "長野県千曲市上山田温泉3-34-3あっとほーむ戸倉上山田温泉　　1階 あっとほーむ戸倉上山田温泉　　1階",
    "lat": 36.4757367,
    "lng": 138.1459706,
    "tel": "026-214-2212",
    "url": "",
    "pref": "長野県",
    "city": "千曲市",
    "category": "regular_patrol_nursing",
    "serviceType": "定期巡回・随時対応型訪問介護看護",
    "capacity": 0,
    "openDays": [],
    "openDaysNote": ""
  },
  {
    "id": "2091100095",
    "name": "24時間地域サポートステーションみよしちょう敬老園",
    "kana": "ニジュウヨジカンチイキサポートステーションミヨシチョウケイロウエン",
    "address": "長野県中野市西一丁目6-5ハートネット信州中野1階 ハートネット信州中野1階",
    "lat": 36.7457408823276,
    "lng": 138.364287517791,
    "tel": "0269-23-1280",
    "url": "",
    "pref": "長野県",
    "city": "中野市",
    "category": "regular_patrol_nursing",
    "serviceType": "定期巡回・随時対応型訪問介護看護",
    "capacity": 5,
    "openDays": [],
    "openDaysNote": ""
  },
  {
    "id": "2090101052",
    "name": "アムール長野定期巡回訪問介護看護",
    "kana": "アムールナガノテイキジュンカイホウモンカイゴカンゴ",
    "address": "長野市大字栗田1568番地アムール長野駅東口 アムール長野駅東口",
    "lat": 36.6393834,
    "lng": 138.18743,
    "tel": "026-217-1512",
    "url": "",
    "pref": "長野県",
    "city": "長野市",
    "category": "regular_patrol_nursing",
    "serviceType": "定期巡回・随時対応型訪問介護看護",
    "capacity": 0,
    "openDays": [],
    "openDaysNote": ""
  },
  {
    "id": "2090100542",
    "name": "巡回訪問２４　コスモス",
    "kana": "ジュンカイホウモンニジュウヨン　コスモス",
    "address": "長野県長野県長野市小島田町４４９住宅型有料老人ホームコスモスさいなみ　１階 住宅型有料老人ホームコスモスさいなみ　１階",
    "lat": 36.5953818929187,
    "lng": 138.18063367029,
    "tel": "026-283-2237",
    "url": "http://www.cosmosnet.or.jp/",
    "pref": "長野県",
    "city": "長野市",
    "category": "regular_patrol_nursing",
    "serviceType": "定期巡回・随時対応型訪問介護看護",
    "capacity": 0,
    "openDays": [],
    "openDaysNote": ""
  },
  {
    "id": "2090500386",
    "name": "定期巡回ステーションOneMade",
    "kana": "テイキジュンカイステーションワンメイド",
    "address": "長野県飯田市八幡町2038-2",
    "lat": 35.4971597,
    "lng": 137.8392182,
    "tel": "0265-54-0010",
    "url": "https://www.mirai-no-kurashi.online/",
    "pref": "長野県",
    "city": "飯田市",
    "category": "regular_patrol_nursing",
    "serviceType": "定期巡回・随時対応型訪問介護看護",
    "capacity": null,
    "openDays": [],
    "openDaysNote": ""
  },
  {
    "id": "2090500436",
    "name": "定期巡回ステーション青空",
    "kana": "テイキジュンカイステーション　アオゾラ",
    "address": "長野県飯田市鼎下山270-1",
    "lat": 35.5058870801425,
    "lng": 137.839129778574,
    "tel": "0265-49-4416",
    "url": "",
    "pref": "長野県",
    "city": "飯田市",
    "category": "regular_patrol_nursing",
    "serviceType": "定期巡回・随時対応型訪問介護看護",
    "capacity": 9,
    "openDays": [],
    "openDaysNote": ""
  },
  {
    "id": "2092300165",
    "name": "24時間ケアサポートふじみ",
    "kana": "ニジュウヨジカンケアサポートフジミ",
    "address": "長野県諏訪郡富士見町立沢815番地65",
    "lat": 53.41291,
    "lng": -8.24388999999997,
    "tel": "0266-78-5551",
    "url": "",
    "pref": "長野県",
    "city": "富士見町",
    "category": "regular_patrol_nursing",
    "serviceType": "定期巡回・随時対応型訪問介護看護",
    "capacity": 0,
    "openDays": [],
    "openDaysNote": ""
  }
]