[
  {
    "id": "290200260",
    "name": "ホームヘルパーステーション北星",
    "kana": "ホームヘルパーステーションホクセイ",
    "address": "青森県弘前市新寺町62-1",
    "lat": 40.5946592,
    "lng": 140.4644008,
    "tel": "0172-33-3555",
    "url": "http://www.hokuseikotsu.co.jp",
    "pref": "青森県",
    "city": "弘前市",
    "category": "regular_patrol_nursing",
    "serviceType": "定期巡回・随時対応型訪問介護看護",
    "capacity": null,
    "openDays": [],
    "openDaysNote": ""
  },
  {
    "id": "290600188",
    "name": "あんしんコールセンター生きがい十和田",
    "kana": "アンシンコールセンターイキガイトワダ",
    "address": "青森県十和田市三本木字一本木沢93-7",
    "lat": 40.6250864,
    "lng": 141.2036341,
    "tel": "0176-23-3443",
    "url": "http://ikigai-towada.net",
    "pref": "青森県",
    "city": "十和田市",
    "category": "regular_patrol_nursing",
    "serviceType": "定期巡回・随時対応型訪問介護看護",
    "capacity": null,
    "openDays": [],
    "openDaysNote": ""
  },
  {
    "id": "290100361",
    "name": "じけいかい定期巡回・随時対応型訪問介護看護事業所",
    "kana": "ジケイカイテイキジュンカイ・ズイジタイオウガタホウモンカイゴカンゴジギョウショ",
    "address": "青森県青森市大字安田字近野136番地2",
    "lat": 40.8014068,
    "lng": 140.7034458,
    "tel": "017-718-5230",
    "url": "http://www.jikei-kai.org",
    "pref": "青森県",
    "city": "青森市",
    "category": "regular_patrol_nursing",
    "serviceType": "定期巡回・随時対応型訪問介護看護",
    "capacity": 50,
    "openDays": [],
    "openDaysNote": ""
  },
  {
    "id": "290100767",
    "name": "社会福祉法人　緑鴎会　みどり定期巡回サービス",
    "kana": "シャカイフクシホウジン　リョクオウカイ　ミドリテイキジュンカイサービス",
    "address": "青森市大字羽白字沢田55番地5",
    "lat": 40.8557234,
    "lng": 140.6893153,
    "tel": "080-1012-5876",
    "url": "",
    "pref": "青森県",
    "city": "青森市",
    "category": "regular_patrol_nursing",
    "serviceType": "定期巡回・随時対応型訪問介護看護",
    "capacity": null,
    "openDays": [],
    "openDaysNote": ""
  },
  {
    "id": "290100692",
    "name": "定期巡回サービス和幸",
    "kana": "テイキジュンカイサービスワコウ",
    "address": "青森市大字矢田字下野尻48番2",
    "lat": 40.846654572314,
    "lng": 140.846969924467,
    "tel": "017-752-6248",
    "url": "http://www.wakouen.or.jp",
    "pref": "青森県",
    "city": "青森市",
    "category": "regular_patrol_nursing",
    "serviceType": "定期巡回・随時対応型訪問介護看護",
    "capacity": 0,
    "openDays": [],
    "openDaysNote": ""
  },
  {
    "id": "290300326",
    "name": "ビリーブ定期巡回ケア八戸中央",
    "kana": "ビリーブテイキジュンカイケアハチノヘチュウオウ",
    "address": "類家５丁目27-1",
    "lat": 40.5058876792747,
    "lng": 141.510499111253,
    "tel": "0178-20-7750",
    "url": "http://believecare.jp/",
    "pref": "青森県",
    "city": "八戸市",
    "category": "regular_patrol_nursing",
    "serviceType": "定期巡回・随時対応型訪問介護看護",
    "capacity": 20,
    "openDays": [],
    "openDaysNote": ""
  },
  {
    "id": "290300268",
    "name": "瑞光園ホームヘルパーステーション",
    "kana": "ズイコウエンホームヘルパーステーション",
    "address": "八戸市大字大久保字大山32番1",
    "lat": 40.4889081,
    "lng": 141.5780708,
    "tel": "0178-25-8517",
    "url": "http://zuikoen.or.jp/",
    "pref": "青森県",
    "city": "八戸市",
    "category": "regular_patrol_nursing",
    "serviceType": "定期巡回・随時対応型訪問介護看護",
    "capacity": 30,
    "openDays": [],
    "openDaysNote": ""
  }
]