[
  {
    "id": "2290400049",
    "name": "伊豆介護センター",
    "kana": "イズカイゴセンター",
    "address": "音無町5-6有限会社伊豆介護センター（本社） 有限会社伊豆介護センター（本社）",
    "lat": 34.9654868,
    "lng": 139.0956395,
    "tel": "0557-36-9069",
    "url": "http://www.izukaigo.com/",
    "pref": "静岡県",
    "city": "伊東市",
    "category": "regular_patrol_nursing",
    "serviceType": "定期巡回・随時対応型訪問介護看護",
    "capacity": 40,
    "openDays": [],
    "openDaysNote": ""
  },
  {
    "id": "2290600093",
    "name": "いづテラス定期巡回・随時対応型訪問介護看護事業所",
    "kana": "イヅテラステイキジュンカイ・ズイジタイオウガタホウモンカイゴカンゴジギョウショ",
    "address": "静岡県三島市松本39-3",
    "lat": 35.0934063333858,
    "lng": 138.917731355295,
    "tel": "055-939-6006",
    "url": "",
    "pref": "静岡県",
    "city": "三島市",
    "category": "regular_patrol_nursing",
    "serviceType": "定期巡回・随時対応型訪問介護看護",
    "capacity": 0,
    "openDays": [],
    "openDaysNote": ""
  },
  {
    "id": "2291100135",
    "name": "あしたかホーム巡回型ホームヘルプサービス",
    "kana": "アシタカホーム　ジュンカイガタホームヘルプサービス",
    "address": "静岡県沼津市東椎路1639-1プレーゲあしたか内 プレーゲあしたか内",
    "lat": 35.130406,
    "lng": 138.8325602,
    "tel": "055-967-8560",
    "url": "pflege-ashitaka@lake.ocn.jp",
    "pref": "静岡県",
    "city": "沼津市",
    "category": "regular_patrol_nursing",
    "serviceType": "定期巡回・随時対応型訪問介護看護",
    "capacity": 5,
    "openDays": [],
    "openDaysNote": ""
  },
  {
    "id": "2291100150",
    "name": "きせがわ定期巡回・随時対応型訪問介護看護事業所",
    "kana": "キセガワテイキジュンカイズイジタイオウガタホウモンカイゴカンゴジギョウショ",
    "address": "静岡県沼津市大岡1155",
    "lat": 35.1041564,
    "lng": 138.8810356,
    "tel": "055-954-0003",
    "url": "http://shinyoukai.or.jp/kisegawa/supportcenter/regularvisit.php",
    "pref": "静岡県",
    "city": "沼津市",
    "category": "regular_patrol_nursing",
    "serviceType": "定期巡回・随時対応型訪問介護看護",
    "capacity": 0,
    "openDays": [],
    "openDaysNote": ""
  },
  {
    "id": "2291100432",
    "name": "定期巡回アウラ",
    "kana": "テイキジュンカイアウラ",
    "address": "静岡県沼津市三枚橋日の出町386-7コーポ甲南201号 コーポ甲南201号",
    "lat": 35.1114831759974,
    "lng": 138.867556091849,
    "tel": "055-939-7380",
    "url": "https://www.lotuscare-aura.com/",
    "pref": "静岡県",
    "city": "沼津市",
    "category": "regular_patrol_nursing",
    "serviceType": "定期巡回・随時対応型訪問介護看護",
    "capacity": 18,
    "openDays": [],
    "openDaysNote": ""
  },
  {
    "id": "2295100297",
    "name": "こころとからだ　やさしさに包まれて",
    "kana": "ココロトカラダ　ヤサシサニツツマレテ",
    "address": "静岡県焼津市下江留1398-1",
    "lat": 34.8036525,
    "lng": 138.2766859,
    "tel": "054－664-3100",
    "url": "https://www.gonbee.info",
    "pref": "静岡県",
    "city": "焼津市",
    "category": "regular_patrol_nursing",
    "serviceType": "定期巡回・随時対応型訪問介護看護",
    "capacity": 0,
    "openDays": [],
    "openDaysNote": ""
  },
  {
    "id": "2294201120",
    "name": "アクタガワ　ハートライフ千代田",
    "kana": "アクタガワ　ハートライフチヨダ",
    "address": "静岡市葵区千代田6-14-4",
    "lat": 34.9981972438204,
    "lng": 138.407216890213,
    "tel": "054-265-1700",
    "url": "https://www.akutagawa-heartlife.jp",
    "pref": "静岡県",
    "city": "静岡市葵区",
    "category": "regular_patrol_nursing",
    "serviceType": "定期巡回・随時対応型訪問介護看護",
    "capacity": 0,
    "openDays": [],
    "openDaysNote": ""
  },
  {
    "id": "2294202722",
    "name": "スマイル岳美",
    "kana": "スマイルタケミ",
    "address": "静岡県静岡市葵区岳美1-11-23",
    "lat": 35.0070574,
    "lng": 138.3881281,
    "tel": "054-295-5710",
    "url": "smile-kaigo.net",
    "pref": "静岡県",
    "city": "静岡市葵区",
    "category": "regular_patrol_nursing",
    "serviceType": "定期巡回・随時対応型訪問介護看護",
    "capacity": 0,
    "openDays": [],
    "openDaysNote": ""
  },
  {
    "id": "2294201823",
    "name": "定期巡回随時対応型訪問介護看護　国吉田",
    "kana": "テイキジュンカイズイジタイオウガタホウモンカイゴカンゴ　クニヨシダ",
    "address": "静岡県静岡市駿河区国吉田6丁目6番6号",
    "lat": 34.9880583361755,
    "lng": 138.436178739065,
    "tel": "054-207-9016",
    "url": "http://www.shujikai.jp",
    "pref": "静岡県",
    "city": "静岡市駿河区",
    "category": "regular_patrol_nursing",
    "serviceType": "定期巡回・随時対応型訪問介護看護",
    "capacity": null,
    "openDays": [],
    "openDaysNote": ""
  },
  {
    "id": "2294202789",
    "name": "元気ケア24草薙",
    "kana": "ゲンキケア24クサナギ",
    "address": "静岡県静岡市清水区楠新田370-2",
    "lat": 35.0076717,
    "lng": 138.4428181,
    "tel": "054-368-6302",
    "url": "http://www.genkihiroba.jp/genkicare24",
    "pref": "静岡県",
    "city": "静岡市清水区",
    "category": "regular_patrol_nursing",
    "serviceType": "定期巡回・随時対応型訪問介護看護",
    "capacity": 0,
    "openDays": [],
    "openDaysNote": ""
  },
  {
    "id": "2294201112",
    "name": "静岡市清水区長崎新田３１１",
    "kana": "24時間定期巡回訪問　有度ノ里",
    "address": "静岡市清水区長崎新田３１１",
    "lat": 35.0166922,
    "lng": 138.4483505,
    "tel": "054-344-7722",
    "url": "http://www.udonosato.com/",
    "pref": "静岡県",
    "city": "静岡市清水区",
    "category": "regular_patrol_nursing",
    "serviceType": "定期巡回・随時対応型訪問介護看護",
    "capacity": 0,
    "openDays": [],
    "openDaysNote": ""
  },
  {
    "id": "2295300301",
    "name": "定期巡回・随時対応型訪問介護看護",
    "kana": "テイキジュンカイ・ズイジタイオウガタホウモンカイゴカンゴ",
    "address": "藤枝市小石川町2-8-13",
    "lat": 34.8565868,
    "lng": 138.2565083,
    "tel": "054-647-3833",
    "url": "http://www.forestafujieda.jp",
    "pref": "静岡県",
    "city": "藤枝市",
    "category": "regular_patrol_nursing",
    "serviceType": "定期巡回・随時対応型訪問介護看護",
    "capacity": 0,
    "openDays": [],
    "openDaysNote": ""
  },
  {
    "id": "2296900117",
    "name": "巡回型訪問サービスセンターアイケア磐田",
    "kana": "ジュンカイガタホウモンサービスセンター　アイケアイワタ",
    "address": "静岡県磐田市新貝２丁目１番地3おおるり新貝 おおるり新貝",
    "lat": 34.7231229,
    "lng": 137.886079,
    "tel": "（０５３８）３１－３３１３",
    "url": "http://www.aicare.co.jp/",
    "pref": "静岡県",
    "city": "磐田市",
    "category": "regular_patrol_nursing",
    "serviceType": "定期巡回・随時対応型訪問介護看護",
    "capacity": 0,
    "openDays": [],
    "openDaysNote": ""
  },
  {
    "id": "2297200509",
    "name": "巡回型訪問サービスセンターアイケア浜松",
    "kana": "ジュンカイガタホウモンサービスセンターアイケアハママツ",
    "address": "浜松市中央区上島五丁目12番1号",
    "lat": 34.7431229,
    "lng": 137.7436078,
    "tel": "053-523-6789",
    "url": "https://www.aicare.co.jp/about/",
    "pref": "静岡県",
    "city": "浜松市中央区",
    "category": "regular_patrol_nursing",
    "serviceType": "定期巡回・随時対応型訪問介護看護",
    "capacity": 0,
    "openDays": [],
    "openDaysNote": ""
  },
  {
    "id": "2297200731",
    "name": "長上苑巡回型ケアセンター",
    "kana": "ナガカミエンジュンカイガタケアセンター",
    "address": "中島二丁目7番8号",
    "lat": 35.5286838,
    "lng": 139.7162499,
    "tel": "053-467-5550",
    "url": "https://www.nanakeikai.jp/elderly/teiki/",
    "pref": "静岡県",
    "city": "浜松市中央区",
    "category": "regular_patrol_nursing",
    "serviceType": "定期巡回・随時対応型訪問介護看護",
    "capacity": 0,
    "openDays": [],
    "openDaysNote": ""
  },
  {
    "id": "2297200665",
    "name": "櫻乃苑　浜松富塚",
    "kana": "サクラノソノ　ハママツトミツカ",
    "address": "静岡県浜松市中央区富塚町1040-3",
    "lat": 34.730974,
    "lng": 137.7145977,
    "tel": "053-475-0939",
    "url": "http://www.sakuranosono.jp",
    "pref": "静岡県",
    "city": "浜松市中央区",
    "category": "regular_patrol_nursing",
    "serviceType": "定期巡回・随時対応型訪問介護看護",
    "capacity": 82,
    "openDays": [],
    "openDaysNote": ""
  },
  {
    "id": "2297200525",
    "name": "櫻乃苑　浜松天竜",
    "kana": "サクラノソノ　ハママツテンリュウ",
    "address": "静岡県浜松市天竜区二俣町二俣56-1",
    "lat": 34.8595592,
    "lng": 137.8167928,
    "tel": "053-925-0939",
    "url": "http://www.sakuranosono.jp/",
    "pref": "静岡県",
    "city": "浜松市天竜区",
    "category": "regular_patrol_nursing",
    "serviceType": "定期巡回・随時対応型訪問介護看護",
    "capacity": 0,
    "openDays": [],
    "openDaysNote": ""
  },
  {
    "id": "2292300551",
    "name": "ヒューマンヒルズ新富士",
    "kana": "ヒューマンヒルズシンフジ",
    "address": "静岡県富士市柳島198番地3",
    "lat": 35.1433784,
    "lng": 138.666557,
    "tel": "0545-66-2766",
    "url": "http://fmc-hh.co.jp/index.html",
    "pref": "静岡県",
    "city": "富士市",
    "category": "regular_patrol_nursing",
    "serviceType": "定期巡回・随時対応型訪問介護看護",
    "capacity": null,
    "openDays": [],
    "openDaysNote": ""
  }
]