[
  {
    "id": "3790600096",
    "name": "タイガーケアさぬき",
    "kana": "カガワケンサヌキシシド",
    "address": "香川県さぬき市志度1078‐1フォブール平岡A201 フォブール平岡A201",
    "lat": 34.324084095607,
    "lng": 134.184120228175,
    "tel": "878147039",
    "url": "https://tigercare4165.com/",
    "pref": "香川県",
    "city": "さぬき市",
    "category": "regular_patrol_nursing",
    "serviceType": "定期巡回・随時対応型訪問介護看護",
    "capacity": 0,
    "openDays": [],
    "openDaysNote": ""
  },
  {
    "id": "3790200400",
    "name": "ココロココ24",
    "kana": "ココロココニジュウヨン",
    "address": "香川県丸亀市金倉町1560番地1",
    "lat": 34.2652991,
    "lng": 133.778885,
    "tel": "0877-85-8070",
    "url": "https://cocolococo.co.jp/",
    "pref": "香川県",
    "city": "丸亀市",
    "category": "regular_patrol_nursing",
    "serviceType": "定期巡回・随時対応型訪問介護看護",
    "capacity": 0,
    "openDays": [],
    "openDaysNote": ""
  },
  {
    "id": "3790100501",
    "name": "あかね在宅ケアステーション",
    "kana": "アカネザイタクケアステーション",
    "address": "香川県高松市西町4番1号特別養護老人ホームあかね内 特別養護老人ホームあかね内",
    "lat": 34.3464770665865,
    "lng": 134.028010600213,
    "tel": "087-834-1166",
    "url": "http://www.sw-akane.jp/",
    "pref": "香川県",
    "city": "高松市",
    "category": "regular_patrol_nursing",
    "serviceType": "定期巡回・随時対応型訪問介護看護",
    "capacity": 5,
    "openDays": [],
    "openDaysNote": ""
  },
  {
    "id": "3790100691",
    "name": "ココロココ２４",
    "kana": "ココロココニジュウヨン",
    "address": "香川県高松市太田下町3032-2メゾンブランシュ太田１Ｆ メゾンブランシュ太田１Ｆ",
    "lat": 34.303410022563,
    "lng": 134.053475592642,
    "tel": "087-814-7602",
    "url": "https://cocolococo.co.jp/",
    "pref": "香川県",
    "city": "高松市",
    "category": "regular_patrol_nursing",
    "serviceType": "定期巡回・随時対応型訪問介護看護",
    "capacity": 0,
    "openDays": [],
    "openDaysNote": ""
  },
  {
    "id": "3790100287",
    "name": "ハピネス地域サポートセンター",
    "kana": "ハピネスチイキサポートセンター",
    "address": "香川県高松市中山町７７２番地１",
    "lat": 34.3568903,
    "lng": 133.9730471,
    "tel": "087-881-1701",
    "url": "http://www.shinboukai.net/",
    "pref": "香川県",
    "city": "高松市",
    "category": "regular_patrol_nursing",
    "serviceType": "定期巡回・随時対応型訪問介護看護",
    "capacity": 0,
    "openDays": [],
    "openDaysNote": ""
  },
  {
    "id": "3790100311",
    "name": "定期巡回・随時対応型訪問介護看護事業所　愛の手こくぶんじ",
    "kana": "テイキジュンカイ・ズイジタイオウガタホウモンカイゴカンゴジギョウショ　アイノテコクブンジ",
    "address": "香川県高松市国分寺町新名２０８１－１",
    "lat": 34.2725888,
    "lng": 133.9527016,
    "tel": "087-874-3322",
    "url": "",
    "pref": "香川県",
    "city": "高松市",
    "category": "regular_patrol_nursing",
    "serviceType": "定期巡回・随時対応型訪問介護看護",
    "capacity": null,
    "openDays": [],
    "openDaysNote": ""
  },
  {
    "id": "3790100881",
    "name": "定期巡回ステーションりあん",
    "kana": "テイキジュンカイステーションリアン",
    "address": "香川県高松市福岡町2丁目12番1号福栄ビル4F　403号室 福栄ビル4F　403号室",
    "lat": 34.3457254,
    "lng": 134.0659442,
    "tel": "087ｰ802ｰ8102",
    "url": "",
    "pref": "香川県",
    "city": "高松市",
    "category": "regular_patrol_nursing",
    "serviceType": "定期巡回・随時対応型訪問介護看護",
    "capacity": 0,
    "openDays": [],
    "openDaysNote": ""
  },
  {
    "id": "3790100774",
    "name": "定期巡回トゥーユー",
    "kana": "テイキジュンカイトゥーユー",
    "address": "香川県高松市香川町463-3住宅型有料老人ホーム　さくらガーデン喜楽　１F 住宅型有料老人ホーム　さくらガーデン喜楽　１F",
    "lat": 34.2566783236264,
    "lng": 134.027628457672,
    "tel": "087-887-8411",
    "url": "https://toyou.akiyama-clinic.com/",
    "pref": "香川県",
    "city": "高松市",
    "category": "regular_patrol_nursing",
    "serviceType": "定期巡回・随時対応型訪問介護看護",
    "capacity": 3,
    "openDays": [],
    "openDaysNote": ""
  },
  {
    "id": "3790300135",
    "name": "巡回ケア　きやま",
    "kana": "ジュンカイケア　キヤマ",
    "address": "香川県坂出市川津町1986番地22ケアハウス　ハイツ城山 ケアハウス　ハイツ城山",
    "lat": 34.2917282,
    "lng": 133.8699857,
    "tel": "0877-45-1173",
    "url": "http://www.nagai-group.com/",
    "pref": "香川県",
    "city": "坂出市",
    "category": "regular_patrol_nursing",
    "serviceType": "定期巡回・随時対応型訪問介護看護",
    "capacity": 25,
    "openDays": [],
    "openDaysNote": ""
  },
  {
    "id": "3790300143",
    "name": "松寿会定期巡回サービスセンター",
    "kana": "ショウジュカイテイキジュンカイサービスセンター",
    "address": "香川県坂出市大屋冨町３１００番地１３",
    "lat": 34.3556154714003,
    "lng": 133.894131237434,
    "tel": "0877-47-2677",
    "url": "http://care-net.biz/37/shoujyukai/",
    "pref": "香川県",
    "city": "坂出市",
    "category": "regular_patrol_nursing",
    "serviceType": "定期巡回・随時対応型訪問介護看護",
    "capacity": 0,
    "openDays": [],
    "openDaysNote": ""
  },
  {
    "id": "3791200151",
    "name": "オリーブケア24",
    "kana": "オリーブケアニジュウヨン",
    "address": "香川県小豆郡小豆島蒲生甲2020-1",
    "lat": 34.4843208,
    "lng": 134.2076914,
    "tel": "0879-62-8031",
    "url": "",
    "pref": "香川県",
    "city": "小豆島町",
    "category": "regular_patrol_nursing",
    "serviceType": "定期巡回・随時対応型訪問介護看護",
    "capacity": 50,
    "openDays": [],
    "openDaysNote": ""
  },
  {
    "id": "3790400091",
    "name": "定期巡回・随時対応型訪問介護看護事業所　愛の手ねんりん",
    "kana": "テイキジュンカイズイジタイオウガタホウモンカイゴカンゴジギョウショアイノテネンリン",
    "address": "香川県善通寺市中村町851-1",
    "lat": 34.244683,
    "lng": 133.763865,
    "tel": "0877-63-3122",
    "url": "http://www.junshinkai.com",
    "pref": "香川県",
    "city": "善通寺市",
    "category": "regular_patrol_nursing",
    "serviceType": "定期巡回・随時対応型訪問介護看護",
    "capacity": 0,
    "openDays": [],
    "openDaysNote": ""
  }
]