[
  {
    "id": "3990101697",
    "name": "K定期巡回・随時対応型訪問介護看護",
    "kana": "ケーテイキジュンカイ・ズイジタイオウガタホウモンカイゴカンゴ",
    "address": "高知県高知市北新田10-25",
    "lat": 33.5529343,
    "lng": 133.550491,
    "tel": "088-802-8163",
    "url": "",
    "pref": "高知県",
    "city": "高知市",
    "category": "regular_patrol_nursing",
    "serviceType": "定期巡回・随時対応型訪問介護看護",
    "capacity": 0,
    "openDays": [],
    "openDaysNote": ""
  },
  {
    "id": "3990101366",
    "name": "アート定期巡回・随時対応型訪問介護看護センター高知",
    "kana": "アートテイキジュンカイ・ズイジタイオウガタホウモンカイゴカンゴセンターコウチ",
    "address": "北御座11-8",
    "lat": 33.5679968,
    "lng": 133.5611264,
    "tel": "088-856-7217",
    "url": "https://kindness-art.jp",
    "pref": "高知県",
    "city": "高知市",
    "category": "regular_patrol_nursing",
    "serviceType": "定期巡回・随時対応型訪問介護看護",
    "capacity": 0,
    "openDays": [],
    "openDaysNote": ""
  },
  {
    "id": "3990101663",
    "name": "あんぱん定期巡回・随時対応型訪問介護看護",
    "kana": "アンパンテイキジュンカイ・ズイジタイオウガタホウモンカイゴカンゴ",
    "address": "高知県高知市介良乙820-1",
    "lat": 33.5630966,
    "lng": 133.6006367,
    "tel": "088-803-5808",
    "url": "https://houjin.fuku-no-tane.com/",
    "pref": "高知県",
    "city": "高知市",
    "category": "regular_patrol_nursing",
    "serviceType": "定期巡回・随時対応型訪問介護看護",
    "capacity": 0,
    "openDays": [],
    "openDaysNote": ""
  },
  {
    "id": "3990101341",
    "name": "ベル定期巡回・随時対応型訪問介護看護",
    "kana": "ベルテイキジュンカイズイジタイオウガタホウモンカイゴカンゴ",
    "address": "桟橋通１丁目８－１９",
    "lat": 33.5511786308715,
    "lng": 133.546882654644,
    "tel": "088-881-7892",
    "url": "",
    "pref": "高知県",
    "city": "高知市",
    "category": "regular_patrol_nursing",
    "serviceType": "定期巡回・随時対応型訪問介護看護",
    "capacity": null,
    "openDays": [],
    "openDaysNote": ""
  },
  {
    "id": "3990100996",
    "name": "指定定期巡回・随時対応型訪問介護看護　瀬戸虹の夢",
    "kana": "シテイテイキジュンカイ・ズイジタイオウガタホウモンカイゴカンゴセトニジノユメ",
    "address": "高知県高知市横浜新町4丁目2403A-MAX2階テナント A-MAX2階テナント",
    "lat": 33.5171667866103,
    "lng": 133.535111950636,
    "tel": "088-855-9170",
    "url": "http://nijinoyume-g.jp",
    "pref": "高知県",
    "city": "高知市",
    "category": "regular_patrol_nursing",
    "serviceType": "定期巡回・随時対応型訪問介護看護",
    "capacity": 0,
    "openDays": [],
    "openDaysNote": ""
  },
  {
    "id": "3990101689",
    "name": "定期巡回・随時対応型訪問介護看護ケアビレッジ",
    "kana": "テイキジュンカイズイジタイオウガタホウモンカイゴカンゴケアビレッジ",
    "address": "高知県高知市朝倉丙416-1",
    "lat": 33.5532274916306,
    "lng": 133.489990933327,
    "tel": "088-856-6003",
    "url": "http://www.mizuho-medicare.com/",
    "pref": "高知県",
    "city": "高知市",
    "category": "regular_patrol_nursing",
    "serviceType": "定期巡回・随時対応型訪問介護看護",
    "capacity": 0,
    "openDays": [],
    "openDaysNote": ""
  },
  {
    "id": "3990100582",
    "name": "定期巡回ナースケア",
    "kana": "テイキジュンカイナースケア",
    "address": "高知県高知市永国寺町2番2号ノアハウス2A ノアハウス2A",
    "lat": 33.564144022076,
    "lng": 133.536610746891,
    "tel": "088-855-3012",
    "url": "nurse-care.net",
    "pref": "高知県",
    "city": "高知市",
    "category": "regular_patrol_nursing",
    "serviceType": "定期巡回・随時対応型訪問介護看護",
    "capacity": 0,
    "openDays": [],
    "openDaysNote": ""
  },
  {
    "id": "3990101325",
    "name": "定期巡回随時対応型訪問介護ステーションはっぴぃ＆へるす",
    "kana": "テイキジュンカイジュイジタイオウガタホウモンカンゴカイゴステーションハッピィアンドヘルス",
    "address": "高知県高知市仁井田1894‐3",
    "lat": 33.5153412,
    "lng": 133.5740033,
    "tel": "088‐881-5447",
    "url": "",
    "pref": "高知県",
    "city": "高知市",
    "category": "regular_patrol_nursing",
    "serviceType": "定期巡回・随時対応型訪問介護看護",
    "capacity": 0,
    "openDays": [],
    "openDaysNote": ""
  },
  {
    "id": "3990101317",
    "name": "定期巡回随時対応型訪問介護看護アズール",
    "kana": "テイキジュンカイズイジタイオウガタホウモンカイゴカンゴアズール",
    "address": "高知県高知市北秦泉寺87番地1コーポ泉2階西 コーポ泉2階西",
    "lat": 33.5813483230598,
    "lng": 133.537300277007,
    "tel": "088-856-8081",
    "url": "",
    "pref": "高知県",
    "city": "高知市",
    "category": "regular_patrol_nursing",
    "serviceType": "定期巡回・随時対応型訪問介護看護",
    "capacity": 0,
    "openDays": [],
    "openDaysNote": ""
  },
  {
    "id": "3990101432",
    "name": "定期巡回随時対応型訪問介護看護ｻｰﾋﾞｽtiptop！",
    "kana": "テイキジュンカイズイジタイオウガタホウモンカイゴカンゴサービスティップトップ",
    "address": "高知県高知市吉田町9－9１F １F",
    "lat": 33.5724014565446,
    "lng": 133.533920374653,
    "tel": "088-855-7151",
    "url": "https://tiptopllc21.wixsite.com/my-site",
    "pref": "高知県",
    "city": "高知市",
    "category": "regular_patrol_nursing",
    "serviceType": "定期巡回・随時対応型訪問介護看護",
    "capacity": 0,
    "openDays": [],
    "openDaysNote": ""
  },
  {
    "id": "3990100632",
    "name": "定期巡回随時対応型訪問介護看護つなぐ",
    "kana": "テイキジュンカイズイジタイウガタホウモンカイゴカンゴツナグ",
    "address": "高知県高知市春野町西分695番1",
    "lat": 33.5085216,
    "lng": 133.494144,
    "tel": "088-855-6026",
    "url": "http：//furusatokai.or.jp",
    "pref": "高知県",
    "city": "高知市",
    "category": "regular_patrol_nursing",
    "serviceType": "定期巡回・随時対応型訪問介護看護",
    "capacity": 20,
    "openDays": [],
    "openDaysNote": ""
  },
  {
    "id": "3990400081",
    "name": "２４時間在宅介護・看護ちどり",
    "kana": "ニジュウヨジカン　ザイタクカイゴカンゴ　チドリ",
    "address": "高知県南国市篠原１８１８－１コーポスカイラーク１０５ コーポスカイラーク１０５",
    "lat": 33.5762689,
    "lng": 133.6384499,
    "tel": "050-4560-3807",
    "url": "https://www.kochi-chidori.com/",
    "pref": "高知県",
    "city": "南国市",
    "category": "regular_patrol_nursing",
    "serviceType": "定期巡回・随時対応型訪問介護看護",
    "capacity": 0,
    "openDays": [],
    "openDaysNote": ""
  },
  {
    "id": "3990400057",
    "name": "定期巡回・随時対応型訪問介護看護ステーション　ナースケア　南国",
    "kana": "テイキジュンカイ・ズイジタイオウガタホウモンカイゴカンゴステーション　ナースケア　ナンゴク",
    "address": "高知県南国市小籠853-6",
    "lat": 33.577359,
    "lng": 133.6292189,
    "tel": "088-802-8686",
    "url": "nurse-care.net",
    "pref": "高知県",
    "city": "南国市",
    "category": "regular_patrol_nursing",
    "serviceType": "定期巡回・随時対応型訪問介護看護",
    "capacity": 0,
    "openDays": [],
    "openDaysNote": ""
  }
]