[
  {
    "id": "3190400063",
    "name": "訪問介護事業所さかい幸朋苑",
    "kana": "ホウモンカイゴジギョウショサカイコウホウエン",
    "address": "鳥取県境港市誠道町２０８３番地",
    "lat": 35.5185576,
    "lng": 133.2353198,
    "tel": "0859-45-6830",
    "url": "http://www.kohoen.jp",
    "pref": "鳥取県",
    "city": "境港市",
    "category": "regular_patrol_nursing",
    "serviceType": "定期巡回・随時対応型訪問介護看護",
    "capacity": 0,
    "openDays": [],
    "openDaysNote": ""
  },
  {
    "id": "3190100531",
    "name": "定期巡回・随時対応型訪問介護看護　ガーデンハウスはまむら",
    "kana": "テイキジュンカイ・ズイジタイオウガタホウモンカイゴカンゴ　ガーデンハウスハマムラ",
    "address": "鳥取県鳥取市気高町新町二丁目11番地ガーデンハウスはまむら ガーデンハウスはまむら",
    "lat": 35.5133086,
    "lng": 134.0473947,
    "tel": "0857-82-6500",
    "url": "https://www.med-wel.jp/gardenhama/",
    "pref": "鳥取県",
    "city": "鳥取市",
    "category": "regular_patrol_nursing",
    "serviceType": "定期巡回・随時対応型訪問介護看護",
    "capacity": 0,
    "openDays": [],
    "openDaysNote": ""
  },
  {
    "id": "3190200208",
    "name": "エルルの24時間ホームヘルパー",
    "kana": "エルルノ24ジカンホームヘルパー",
    "address": "鳥取県米子市両三柳206-1",
    "lat": 35.4484323030237,
    "lng": 133.327035137048,
    "tel": "0859-21-5010",
    "url": "http://elfith.com",
    "pref": "鳥取県",
    "city": "米子市",
    "category": "regular_patrol_nursing",
    "serviceType": "定期巡回・随時対応型訪問介護看護",
    "capacity": 0,
    "openDays": [],
    "openDaysNote": ""
  },
  {
    "id": "3190200182",
    "name": "ガーデンハウスよどえ",
    "kana": "ガーデンハウスヨデドエ",
    "address": "鳥取県米子市淀江町佐陀1423",
    "lat": 35.4519341,
    "lng": 133.3938119,
    "tel": "0859-56-5210",
    "url": "https://www.med-wel.jp/gardenyodoe/",
    "pref": "鳥取県",
    "city": "米子市",
    "category": "regular_patrol_nursing",
    "serviceType": "定期巡回・随時対応型訪問介護看護",
    "capacity": 0,
    "openDays": [],
    "openDaysNote": ""
  },
  {
    "id": "3190200729",
    "name": "ヘルパーステーションおおたか",
    "kana": "ヘルパーステーションオオタカ",
    "address": "鳥取県米子市尾高1812メディケアコートにじの里おおたか メディケアコートにじの里おおたか",
    "lat": 35.4241582,
    "lng": 133.4066036,
    "tel": "0859-21-0041",
    "url": "https://www.ymc-net.or.jp/",
    "pref": "鳥取県",
    "city": "米子市",
    "category": "regular_patrol_nursing",
    "serviceType": "定期巡回・随時対応型訪問介護看護",
    "capacity": null,
    "openDays": [],
    "openDaysNote": ""
  },
  {
    "id": "3190200190",
    "name": "定期巡回随時対応型訪問介護看護真誠会",
    "kana": "テイキジュンカイズイジタイオウガタホウモンカイゴカンゴシンセイカイ",
    "address": "鳥取県米子市河崎555番地2",
    "lat": 35.4570187,
    "lng": 133.3110285,
    "tel": "０８５９－４８－２３３６",
    "url": "http://www.hospitown.or.jp/",
    "pref": "鳥取県",
    "city": "米子市",
    "category": "regular_patrol_nursing",
    "serviceType": "定期巡回・随時対応型訪問介護看護",
    "capacity": 0,
    "openDays": [],
    "openDaysNote": ""
  },
  {
    "id": "3190200166",
    "name": "訪問介護事業所なんぶ幸朋苑",
    "kana": "ホウモンカイゴジギョウショナンブコウホウエン",
    "address": "鳥取県米子市石井1238",
    "lat": 35.4022552,
    "lng": 133.3514525,
    "tel": "0859-26-5588",
    "url": "http:/www.kohoen.jp",
    "pref": "鳥取県",
    "city": "米子市",
    "category": "regular_patrol_nursing",
    "serviceType": "定期巡回・随時対応型訪問介護看護",
    "capacity": 4,
    "openDays": [],
    "openDaysNote": ""
  },
  {
    "id": "3190200174",
    "name": "訪問介護仁風荘こうやまち",
    "kana": "ホウモンカイゴジンプウソウコウヤマチ",
    "address": "鳥取県米子市紺屋町104-2",
    "lat": 35.4289134,
    "lng": 133.3346111,
    "tel": "0859-38-1765",
    "url": "http://www.yowakai.com/",
    "pref": "鳥取県",
    "city": "米子市",
    "category": "regular_patrol_nursing",
    "serviceType": "定期巡回・随時対応型訪問介護看護",
    "capacity": 0,
    "openDays": [],
    "openDaysNote": ""
  }
]