[
  {
    "id": "4694500168",
    "name": "定期巡回随時対応型訪問介護看護あいら",
    "kana": "テイキジュンカイズイジタイオウガタホウモンカイゴカンゴアイラ",
    "address": "鹿児島県姶良市西餅田110-1　ガーデンプレイスあいら　301号室",
    "lat": 31.7364697,
    "lng": 130.628081,
    "tel": "0995-56-8160",
    "url": "https://eiwakai.jp/",
    "pref": "鹿児島県",
    "city": "姶良市",
    "category": "regular_patrol_nursing",
    "serviceType": "定期巡回・随時対応型訪問介護看護",
    "capacity": 140,
    "openDays": [],
    "openDaysNote": ""
  },
  {
    "id": "4691500351",
    "name": "グレースガーデン定期巡回ステーション",
    "kana": "グレースガーデンテイキジュンカイステーション",
    "address": "鹿児島県薩摩川内市平佐町2850",
    "lat": 31.8168326,
    "lng": 130.3143767,
    "tel": "0996-20-2200",
    "url": "",
    "pref": "鹿児島県",
    "city": "薩摩川内市",
    "category": "regular_patrol_nursing",
    "serviceType": "定期巡回・随時対応型訪問介護看護",
    "capacity": null,
    "openDays": [],
    "openDaysNote": ""
  },
  {
    "id": "4690300266",
    "name": "ホームヘルパーステーション鹿屋長寿園",
    "kana": "ホームヘルパーステーションカノヤチョウジュエン",
    "address": "笠之原町４５番５２－３号",
    "lat": 31.382654,
    "lng": 130.8909934,
    "tel": "0994－41－3880",
    "url": "helperkanoya@kanoya-choujuen.jp",
    "pref": "鹿児島県",
    "city": "鹿屋市",
    "category": "regular_patrol_nursing",
    "serviceType": "定期巡回・随時対応型訪問介護看護",
    "capacity": 0,
    "openDays": [],
    "openDaysNote": ""
  },
  {
    "id": "4690101631",
    "name": "ひなた　あんしんサポートセンター",
    "kana": "ヒナタ　アンシンサポートセンター",
    "address": "鹿児島県鹿児島市田上５丁目2-17カーサ大和Ⅲ1階",
    "lat": 31.5726443,
    "lng": 130.5189358,
    "tel": "099-813-8721",
    "url": "",
    "pref": "鹿児島県",
    "city": "鹿児島市",
    "category": "regular_patrol_nursing",
    "serviceType": "定期巡回・随時対応型訪問介護看護",
    "capacity": 0,
    "openDays": [],
    "openDaysNote": ""
  },
  {
    "id": "4690102852",
    "name": "ホームケアセンター附属小前",
    "kana": "ホームケアセンターフゾクショウマエ",
    "address": "鹿児島県鹿児島市鴨池1丁目25-8",
    "lat": 31.5674609,
    "lng": 130.5471126,
    "tel": "099-251-8071",
    "url": "",
    "pref": "鹿児島県",
    "city": "鹿児島市",
    "category": "regular_patrol_nursing",
    "serviceType": "定期巡回・随時対応型訪問介護看護",
    "capacity": 0,
    "openDays": [],
    "openDaysNote": ""
  },
  {
    "id": "4690100971",
    "name": "済生会サポートセンターなでしこ",
    "kana": "サイセイカイサポートセンターナデシコ",
    "address": "小野町２４２７－２",
    "lat": 31.5996135,
    "lng": 130.5124024,
    "tel": "099-283-6875",
    "url": "http://www.saiseikai-kg.jp/",
    "pref": "鹿児島県",
    "city": "鹿児島市",
    "category": "regular_patrol_nursing",
    "serviceType": "定期巡回・随時対応型訪問介護看護",
    "capacity": 0,
    "openDays": [],
    "openDaysNote": ""
  },
  {
    "id": "4690100963",
    "name": "生協ヘルパーステーション・たにやま24時間センター",
    "kana": "セイキョウヘルパーステーション・タニヤマ24ジカンセンター",
    "address": "鹿児島市谷山中央三丁目4582番地",
    "lat": 31.5200861,
    "lng": 130.5186244,
    "tel": "099-210-2803",
    "url": "",
    "pref": "鹿児島県",
    "city": "鹿児島市",
    "category": "regular_patrol_nursing",
    "serviceType": "定期巡回・随時対応型訪問介護看護",
    "capacity": 20,
    "openDays": [],
    "openDaysNote": ""
  },
  {
    "id": "4690101383",
    "name": "千年定期巡回随時対応型訪問介護看護事業所",
    "kana": "センネンテイキジュンカイズイジタイオウガタホウモンカイゴカンゴジギョウショ",
    "address": "鹿児島県鹿児島市千年2丁目14番4号102号",
    "lat": 31.6404093762337,
    "lng": 130.525521885072,
    "tel": "099-221-1799",
    "url": "http://www.sen-nen.jp",
    "pref": "鹿児島県",
    "city": "鹿児島市",
    "category": "regular_patrol_nursing",
    "serviceType": "定期巡回・随時対応型訪問介護看護",
    "capacity": 0,
    "openDays": [],
    "openDaysNote": ""
  },
  {
    "id": "4690100997",
    "name": "地域ケアセンターはっぴー",
    "kana": "チイキケアセンターハッピー",
    "address": "下福元町９５５８番地１０サンヒルズはっぴー サンヒルズはっぴー",
    "lat": 31.5041838,
    "lng": 130.4893108,
    "tel": "０９９－２８４－６６３５",
    "url": "",
    "pref": "鹿児島県",
    "city": "鹿児島市",
    "category": "regular_patrol_nursing",
    "serviceType": "定期巡回・随時対応型訪問介護看護",
    "capacity": 0,
    "openDays": [],
    "openDaysNote": ""
  },
  {
    "id": "4690101003",
    "name": "定期巡回・随時対応型訪問介護看護きいれ",
    "kana": "テイキジュンカイズイジタイオウガタホウモンカイゴカンゴキイレ",
    "address": "喜入前之浜町7808-1ｻﾝｼｬｲﾝきいれ ｻﾝｼｬｲﾝきいれ",
    "lat": 31.3508791,
    "lng": 130.5529946,
    "tel": "099-343-1176",
    "url": "http://kiire.jp/",
    "pref": "鹿児島県",
    "city": "鹿児島市",
    "category": "regular_patrol_nursing",
    "serviceType": "定期巡回・随時対応型訪問介護看護",
    "capacity": 0,
    "openDays": [],
    "openDaysNote": ""
  },
  {
    "id": "4690102050",
    "name": "定期巡回・随時対応型訪問介護看護ステーションてあて",
    "kana": "テイキジュンカイ・ズイジタイオウガタホウモンカンゴステーションテアテ",
    "address": "鹿児島市坂之上3丁目8番1",
    "lat": 31.506853607126,
    "lng": 130.502165947839,
    "tel": "099-204-9808",
    "url": "https://cure-connect.jp/",
    "pref": "鹿児島県",
    "city": "鹿児島市",
    "category": "regular_patrol_nursing",
    "serviceType": "定期巡回・随時対応型訪問介護看護",
    "capacity": 0,
    "openDays": [],
    "openDaysNote": ""
  },
  {
    "id": "4690101284",
    "name": "定期巡回随時対応型訪問介護看護コンフォート",
    "kana": "テイキジュンカイズイジタイオウガタホウモンカイゴカンゴコンフォート",
    "address": "鹿児島県鹿児島市武岡１丁目１１３番30号",
    "lat": 31.5877981,
    "lng": 130.5256874,
    "tel": "099-296-7771",
    "url": "",
    "pref": "鹿児島県",
    "city": "鹿児島市",
    "category": "regular_patrol_nursing",
    "serviceType": "定期巡回・随時対応型訪問介護看護",
    "capacity": 0,
    "openDays": [],
    "openDaysNote": ""
  },
  {
    "id": "4690800174",
    "name": "ヘルパーステーションさくら彩",
    "kana": "ヘルパーステーションサクライロ",
    "address": "鹿児島県出水市高尾野町柴引3522番地",
    "lat": 32.0473473,
    "lng": 130.3057914,
    "tel": "0996-82-1686",
    "url": "http://sakura-izumi.com",
    "pref": "鹿児島県",
    "city": "出水市",
    "category": "regular_patrol_nursing",
    "serviceType": "定期巡回・随時対応型訪問介護看護",
    "capacity": null,
    "openDays": [],
    "openDaysNote": ""
  },
  {
    "id": "4694300098",
    "name": "すまいる",
    "kana": "スマイル",
    "address": "鹿児島県南九州市頴娃町郡854番地1-3こおり幸楽苑内 こおり幸楽苑内",
    "lat": 31.2361705,
    "lng": 130.5055941,
    "tel": "0993-27-3800",
    "url": "",
    "pref": "鹿児島県",
    "city": "南九州市",
    "category": "regular_patrol_nursing",
    "serviceType": "定期巡回・随時対応型訪問介護看護",
    "capacity": 0,
    "openDays": [],
    "openDaysNote": ""
  }
]