[
  {
    "id": "2452180025",
    "name": "医療法人（社団）大和会　介護老人保健施設銀花",
    "kana": "ヤマトカイ　カイゴロウジンホケンシセツギンカ",
    "address": "三重県いなべ市北勢町阿下喜６８０番地",
    "lat": 35.1450803,
    "lng": 136.5177768,
    "tel": "0594-72-6811",
    "url": "http://www.kusaka-hp.jp/ginka.html",
    "pref": "三重県",
    "city": "いなべ市",
    "category": "rouken",
    "serviceType": "介護老人保健施設",
    "capacity": 0,
    "openDays": [],
    "openDaysNote": ""
  },
  {
    "id": "2451480012",
    "name": "介護老人保健施設　オアシス",
    "kana": "カイゴロウジンホケンシセツ　オアシス",
    "address": "いなべ市北勢町阿下喜3732番地",
    "lat": 35.1447691567633,
    "lng": 136.517636878296,
    "tel": "0594-82-1211",
    "url": "http://www.kusaka-hp.jp/oasisu/index.html",
    "pref": "三重県",
    "city": "いなべ市",
    "category": "rouken",
    "serviceType": "介護老人保健施設",
    "capacity": 80,
    "openDays": [],
    "openDaysNote": ""
  },
  {
    "id": "2451280040",
    "name": "介護老人保健施設　伊賀さくら苑",
    "kana": "カイゴロウジンホケンシセツ　イガサクラエン",
    "address": "三重県伊賀市円徳院324番地1",
    "lat": 34.811718,
    "lng": 136.1838755,
    "tel": "0595-43-9700",
    "url": "http://www.ohrin-mc.jp/iga/",
    "pref": "三重県",
    "city": "伊賀市",
    "category": "rouken",
    "serviceType": "介護老人保健施設",
    "capacity": 100,
    "openDays": [],
    "openDaysNote": ""
  },
  {
    "id": "2451280016",
    "name": "介護老人保健施設おかなみ",
    "kana": "カイゴロウジンホケンシセツオカナミ",
    "address": "三重県伊賀市上之庄2711番地1",
    "lat": 34.7297095,
    "lng": 136.1142299,
    "tel": "0595-23-7111",
    "url": "http://www.okanami.com/",
    "pref": "三重県",
    "city": "伊賀市",
    "category": "rouken",
    "serviceType": "介護老人保健施設",
    "capacity": 0,
    "openDays": [],
    "openDaysNote": ""
  },
  {
    "id": "2451280032",
    "name": "介護老人保健施設伊賀ゆめが丘",
    "kana": "カイゴロウジンホケンシセツイガユメガオカ",
    "address": "三重県伊賀市ゆめが丘４丁目１－５",
    "lat": 34.7369767,
    "lng": 136.1569541,
    "tel": "0595-21-7322",
    "url": "http://www.okanami.com",
    "pref": "三重県",
    "city": "伊賀市",
    "category": "rouken",
    "serviceType": "介護老人保健施設",
    "capacity": 0,
    "openDays": [],
    "openDaysNote": ""
  },
  {
    "id": "2451280024",
    "name": "介護老人保健施設第２おかなみ",
    "kana": "カイゴロウジンホケンシセツダイニオカナミ",
    "address": "三重県伊賀市下友生字鳥ケ峯2916番地",
    "lat": 34.7539815052518,
    "lng": 136.157279560788,
    "tel": "0595-24-6300",
    "url": "http://www.okanami.com",
    "pref": "三重県",
    "city": "伊賀市",
    "category": "rouken",
    "serviceType": "介護老人保健施設",
    "capacity": 0,
    "openDays": [],
    "openDaysNote": ""
  },
  {
    "id": "2452880061",
    "name": "ふたみ介護老人保健施設シルバーケア豊壽園",
    "kana": "フタミカイゴロウジンホケンシセツシルバーケアホウジュエン",
    "address": "三重県伊勢市二見町三津字池田855番地",
    "lat": 34.5002002,
    "lng": 136.7730469,
    "tel": "0596-44-2525",
    "url": "",
    "pref": "三重県",
    "city": "伊勢市",
    "category": "rouken",
    "serviceType": "介護老人保健施設",
    "capacity": 0,
    "openDays": [],
    "openDaysNote": ""
  },
  {
    "id": "2450880030",
    "name": "医療法人全心会　伊勢老健ひかり",
    "kana": "イセロウケンヒカリ",
    "address": "三重県伊勢市御薗町高向775番地1",
    "lat": 34.5010574,
    "lng": 136.6972204,
    "tel": "0596-27-5015",
    "url": "https://ise-rouken-hikari.com/about/",
    "pref": "三重県",
    "city": "伊勢市",
    "category": "rouken",
    "serviceType": "介護老人保健施設",
    "capacity": 0,
    "openDays": [],
    "openDaysNote": ""
  },
  {
    "id": "2450880022",
    "name": "介護老人保健施設　上野の郷",
    "kana": "カイゴロウジンホケンシセツ　ウエノノサト",
    "address": "三重県伊勢市上野町２８５５－１",
    "lat": 34.4350997,
    "lng": 136.6534308,
    "tel": "0596-39-8088",
    "url": "www.uenonosato.jp/",
    "pref": "三重県",
    "city": "伊勢市",
    "category": "rouken",
    "serviceType": "介護老人保健施設",
    "capacity": 100,
    "openDays": [],
    "openDaysNote": ""
  },
  {
    "id": "2450880014",
    "name": "介護老人保健施設山咲苑",
    "kana": "カイゴロウジンホケンシセツヤマサキエン",
    "address": "三重県伊勢市楠部町若ノ山２６０５－１３",
    "lat": 34.4802101561746,
    "lng": 136.74739970581,
    "tel": "0596-23-8000",
    "url": "https://yamasakien.biz/",
    "pref": "三重県",
    "city": "伊勢市",
    "category": "rouken",
    "serviceType": "介護老人保健施設",
    "capacity": 0,
    "openDays": [],
    "openDaysNote": ""
  },
  {
    "id": "2453080026",
    "name": "介護老人保健施設　輝",
    "kana": "カイゴロウジンホケンシセツ　キラリ",
    "address": "三重県北牟婁郡紀北町東長島2482",
    "lat": 34.2082228,
    "lng": 136.3398352,
    "tel": "0597-46-2255",
    "url": "http://www.kaiseihp.com/kirari/index.html",
    "pref": "三重県",
    "city": "紀北町",
    "category": "rouken",
    "serviceType": "介護老人保健施設",
    "capacity": 0,
    "openDays": [],
    "openDaysNote": ""
  },
  {
    "id": "2453080034",
    "name": "介護老人保健施設　菖蒲園",
    "kana": "カイゴロウジンホケンシセツ　ショウブエン",
    "address": "三重県北牟婁郡紀北町上里239-8",
    "lat": 34.1444952,
    "lng": 136.2334042,
    "tel": "0597-36-1230",
    "url": "",
    "pref": "三重県",
    "city": "紀北町",
    "category": "rouken",
    "serviceType": "介護老人保健施設",
    "capacity": 0,
    "openDays": [],
    "openDaysNote": ""
  },
  {
    "id": "2450480013",
    "name": "亀山老人保健施設",
    "kana": "カメヤマロウジンホケンシセツ",
    "address": "亀山市羽若町松本645-14",
    "lat": 34.8646211,
    "lng": 136.4527447,
    "tel": "0595-83-5921",
    "url": "http://www.seizanrikai.jp",
    "pref": "三重県",
    "city": "亀山市",
    "category": "rouken",
    "serviceType": "介護老人保健施設",
    "capacity": 0,
    "openDays": [],
    "openDaysNote": ""
  },
  {
    "id": "2452880038",
    "name": "介護老人保健施設　弘樹苑",
    "kana": "カイゴロウジンホケンシセツ　コウジュエン",
    "address": "三重県度会郡玉城町原字風呂山2835",
    "lat": 34.471560338507,
    "lng": 136.590276563269,
    "tel": "0596-58-5689",
    "url": "http://www.amigo2.ne.jp/~a2880038/",
    "pref": "三重県",
    "city": "玉城町",
    "category": "rouken",
    "serviceType": "介護老人保健施設",
    "capacity": 0,
    "openDays": [],
    "openDaysNote": ""
  },
  {
    "id": "2452880012",
    "name": "玉城町介護老人保健施設ケアハイツ玉城",
    "kana": "タマキチョウカイゴロウジンホケンシセツケアハイツタマキ",
    "address": "三重県度会郡玉城町佐田８８１",
    "lat": 34.4896269592717,
    "lng": 136.639008798672,
    "tel": "0596-58-3770",
    "url": "http://www.tamaki-hsp.jp/care/index.html",
    "pref": "三重県",
    "city": "玉城町",
    "category": "rouken",
    "serviceType": "介護老人保健施設",
    "capacity": 0,
    "openDays": [],
    "openDaysNote": ""
  },
  {
    "id": "2451180018",
    "name": "医療法人紀南会介護老人保健施設オレンジロードむつみ苑",
    "kana": "イリョウホウジンキナンカイカイゴロウジンホケンシセツオレンジロードムツミエン",
    "address": "三重県熊野市久生屋町847番地2",
    "lat": 33.8651833,
    "lng": 136.0743002,
    "tel": "0597-89-1904",
    "url": "https://www.mutsumien-kumano.jp/",
    "pref": "三重県",
    "city": "熊野市",
    "category": "rouken",
    "serviceType": "介護老人保健施設",
    "capacity": 0,
    "openDays": [],
    "openDaysNote": ""
  },
  {
    "id": "2450180068",
    "name": "ケアセンター　ビオトープ",
    "kana": "ケアセンター　ビオトープ",
    "address": "三重県桑名市内堀28番地の1",
    "lat": 35.0623914,
    "lng": 136.6939408,
    "tel": "0594-25-8140",
    "url": "http://www.moriei.jp",
    "pref": "三重県",
    "city": "桑名市",
    "category": "rouken",
    "serviceType": "介護老人保健施設",
    "capacity": 100,
    "openDays": [],
    "openDaysNote": ""
  },
  {
    "id": "2450180035",
    "name": "ヨナハ介護老人保健施設",
    "kana": "ヨナハカイゴロウジンホケンシセツ",
    "address": "三重県桑名市大字大福字雀塚４７１番地2",
    "lat": 35.0457890248263,
    "lng": 136.68563349682,
    "tel": "0594-24-0478",
    "url": "https://yonaha.or.jp/ynr/",
    "pref": "三重県",
    "city": "桑名市",
    "category": "rouken",
    "serviceType": "介護老人保健施設",
    "capacity": 100,
    "openDays": [],
    "openDaysNote": ""
  },
  {
    "id": "2452080019",
    "name": "介護老人保健施設　ながしま",
    "kana": "カイゴロウジンホケンシセツ　ナガシマ",
    "address": "桑名市長島町福吉271",
    "lat": 35.0570317,
    "lng": 136.7156913,
    "tel": "0594-45-1200",
    "url": "http://www.sato-group.jp",
    "pref": "三重県",
    "city": "桑名市",
    "category": "rouken",
    "serviceType": "介護老人保健施設",
    "capacity": 5,
    "openDays": [],
    "openDaysNote": ""
  },
  {
    "id": "2450180043",
    "name": "介護老人保健施設ことぶき",
    "kana": "カイゴロウジンホケンシセツコトブキ",
    "address": "三重県桑名市大央町21番地15",
    "lat": 35.0620357,
    "lng": 136.6895913,
    "tel": "0594-23-6811",
    "url": "http://www.sato-group.jp/kotobuki.html",
    "pref": "三重県",
    "city": "桑名市",
    "category": "rouken",
    "serviceType": "介護老人保健施設",
    "capacity": 100,
    "openDays": [],
    "openDaysNote": ""
  },
  {
    "id": "2450180076",
    "name": "介護老人保健施設だいそう",
    "kana": "カイゴロウジンホケンシセツダイソウ",
    "address": "三重県桑名市多度町柚井字境川１３２番地",
    "lat": 35.140499,
    "lng": 136.64661,
    "tel": "0594-48-5323",
    "url": "http://www.daiso-cn.com",
    "pref": "三重県",
    "city": "桑名市",
    "category": "rouken",
    "serviceType": "介護老人保健施設",
    "capacity": null,
    "openDays": [],
    "openDaysNote": ""
  },
  {
    "id": "2450180027",
    "name": "介護老人保健施設ハート",
    "kana": "カイゴロウジンホケンシセツハート",
    "address": "三重県桑名市大字西方字斧峠1306-10",
    "lat": 35.0661209,
    "lng": 136.6691543,
    "tel": "0594-22-6111",
    "url": "http://www.aoki-naika.jp/heart/index.html",
    "pref": "三重県",
    "city": "桑名市",
    "category": "rouken",
    "serviceType": "介護老人保健施設",
    "capacity": 100,
    "openDays": [],
    "openDaysNote": ""
  },
  {
    "id": "2450180019",
    "name": "東新苑介護老人保健施設",
    "kana": "トウシンエンカイゴロウジンホケンシセツ",
    "address": "三重県桑名市大字江場20番地",
    "lat": 35.0553477,
    "lng": 136.6950241,
    "tel": "0594-21-3113",
    "url": "http://www.toushinen.jp",
    "pref": "三重県",
    "city": "桑名市",
    "category": "rouken",
    "serviceType": "介護老人保健施設",
    "capacity": 0,
    "openDays": [],
    "openDaysNote": ""
  },
  {
    "id": "2452280023",
    "name": "介護老人保健施設　聖十字ハイツ",
    "kana": "カイゴロウジンホケンシセツ　セイジュウジハイツ",
    "address": "三重県三重郡菰野町宿野1641-10",
    "lat": 35.0039677584321,
    "lng": 136.518571679762,
    "tel": "059-394-5880",
    "url": "https://www.suzukaseijujikai.jp/",
    "pref": "三重県",
    "city": "菰野町",
    "category": "rouken",
    "serviceType": "介護老人保健施設",
    "capacity": 100,
    "openDays": [],
    "openDaysNote": ""
  },
  {
    "id": "2452280015",
    "name": "湯の山介護老人保健施設",
    "kana": "ユノヤマカイゴロウジンホケンシセツ",
    "address": "三重県三重郡菰野町千草字東江野7045-73",
    "lat": 35.0339631,
    "lng": 136.4897204,
    "tel": "059-392-2500",
    "url": "https://yonaha.or.jp/yrr/",
    "pref": "三重県",
    "city": "菰野町",
    "category": "rouken",
    "serviceType": "介護老人保健施設",
    "capacity": 0,
    "openDays": [],
    "openDaysNote": ""
  },
  {
    "id": "2452280031",
    "name": "老人保健施設友愛トピア",
    "kana": "ロウジンホケンシセツユウアイトピア",
    "address": "三重県三重郡菰野町大字宿野字神明田371",
    "lat": 35.0058813812049,
    "lng": 136.5276850454,
    "tel": "059-394-4000",
    "url": "http://www.yuuaitopia.com",
    "pref": "三重県",
    "city": "菰野町",
    "category": "rouken",
    "serviceType": "介護老人保健施設",
    "capacity": 100,
    "openDays": [],
    "openDaysNote": ""
  },
  {
    "id": "2453180016",
    "name": "老人保健施設きなん苑",
    "kana": "ロウジンホケンシセツキナンエン",
    "address": "三重県南牟婁郡御浜町阿田和１７７",
    "lat": 33.8017149,
    "lng": 136.0353253,
    "tel": "05979-2-4165",
    "url": "http;//www.kinan-hp-mie.jp/",
    "pref": "三重県",
    "city": "御浜町",
    "category": "rouken",
    "serviceType": "介護老人保健施設",
    "capacity": 0,
    "openDays": [],
    "openDaysNote": ""
  },
  {
    "id": "2450280033",
    "name": "介護老人保健施設　みえ川村老健",
    "kana": "カイゴロウジンホケンシセツミエカワムラロウケン",
    "address": "四日市市城東町３番２１号",
    "lat": 34.9646841,
    "lng": 136.6095973,
    "tel": "059-355-3838",
    "url": "http://www.syutaikai.jp",
    "pref": "三重県",
    "city": "四日市市",
    "category": "rouken",
    "serviceType": "介護老人保健施設",
    "capacity": 0,
    "openDays": [],
    "openDaysNote": ""
  },
  {
    "id": "2450280074",
    "name": "介護老人保健施設　老健クローバー",
    "kana": "カイゴロウジンホケンシセツ　ロウケンクローバー",
    "address": "四日市市小古曽町2728－1",
    "lat": 34.9194483691573,
    "lng": 136.594655872353,
    "tel": "059－347－9608",
    "url": "http://shouwa-cl.or.jp",
    "pref": "三重県",
    "city": "四日市市",
    "category": "rouken",
    "serviceType": "介護老人保健施設",
    "capacity": 40,
    "openDays": [],
    "openDaysNote": ""
  },
  {
    "id": "2450280058",
    "name": "介護老人保健施設ちゅうぶ",
    "kana": "カイゴロウジンホケンシセツチュウブ",
    "address": "三重県四日市市中部８－１５",
    "lat": 34.9686286456633,
    "lng": 136.625333793254,
    "tel": "059-355-5611",
    "url": "http://www.rijinkai.jp/",
    "pref": "三重県",
    "city": "四日市市",
    "category": "rouken",
    "serviceType": "介護老人保健施設",
    "capacity": 0,
    "openDays": [],
    "openDaysNote": ""
  },
  {
    "id": "2450280025",
    "name": "介護老人保健施設みえの郷",
    "kana": "カイゴロウジンホケンシセツミエノサト",
    "address": "三重県四日市市山田町5538番地の1",
    "lat": 34.945271,
    "lng": 136.5271922,
    "tel": "059-328-2116",
    "url": "http://www.syutaikai.jp/n_mie/",
    "pref": "三重県",
    "city": "四日市市",
    "category": "rouken",
    "serviceType": "介護老人保健施設",
    "capacity": 0,
    "openDays": [],
    "openDaysNote": ""
  },
  {
    "id": "2450280041",
    "name": "四日市羽津医療センター附属介護老人保健施設",
    "kana": "ヨッカイチハヅイリョウセンターフゾクカイゴロウジンホケンシセツ",
    "address": "四日市市羽津山町10-8",
    "lat": 34.9896899,
    "lng": 136.6263504,
    "tel": "059-334-3388",
    "url": "http://yokkaichi.jcho.go.jp/rouken/",
    "pref": "三重県",
    "city": "四日市市",
    "category": "rouken",
    "serviceType": "介護老人保健施設",
    "capacity": 0,
    "openDays": [],
    "openDaysNote": ""
  },
  {
    "id": "2450280090",
    "name": "小規模介護老人保健施設　浜っこサテライト",
    "kana": "ショウキボカイゴロウジンホケンシセツ　ハマッコサテライト",
    "address": "三重県四日市市富田浜町29-20",
    "lat": 34.9988833,
    "lng": 136.6528207,
    "tel": "059-361-2251",
    "url": "https://tomidahama.jp",
    "pref": "三重県",
    "city": "四日市市",
    "category": "rouken",
    "serviceType": "介護老人保健施設",
    "capacity": null,
    "openDays": [],
    "openDaysNote": ""
  },
  {
    "id": "2450280017",
    "name": "小山田老人保健施設",
    "kana": "オヤマダロウジンホケンシセツ",
    "address": "四日市市山田町5501-1",
    "lat": 34.9461681,
    "lng": 136.5278005,
    "tel": "059-328-2847",
    "url": "https://seizanrikai.jp/service/",
    "pref": "三重県",
    "city": "四日市市",
    "category": "rouken",
    "serviceType": "介護老人保健施設",
    "capacity": 100,
    "openDays": [],
    "openDaysNote": ""
  },
  {
    "id": "2450280082",
    "name": "富田浜老人保健施設（ユニット型）",
    "kana": "トミダハマロウジンホケンシセツ",
    "address": "三重県四日市市富田浜町２６－１４",
    "lat": 34.9979090584807,
    "lng": 136.652389901328,
    "tel": "059-365-0066",
    "url": "http://tomidahama.jp/",
    "pref": "三重県",
    "city": "四日市市",
    "category": "rouken",
    "serviceType": "介護老人保健施設",
    "capacity": 30,
    "openDays": [],
    "openDaysNote": ""
  },
  {
    "id": "2450280066",
    "name": "富田浜老人保健施設（従来型）",
    "kana": "トミダハマロウジンホケンシセツ",
    "address": "三重県四日市市富田浜町２６－１４",
    "lat": 34.9978695089947,
    "lng": 136.652400630164,
    "tel": "059-365-0066",
    "url": "http://tomidahama.jp/",
    "pref": "三重県",
    "city": "四日市市",
    "category": "rouken",
    "serviceType": "介護老人保健施設",
    "capacity": 0,
    "openDays": [],
    "openDaysNote": ""
  },
  {
    "id": "2452980010",
    "name": "介護老人保健施設志摩豊和苑",
    "kana": "カイゴロウジンホケンシセツシマホウワエン",
    "address": "三重県志摩市阿児町国府1061-152",
    "lat": 34.3369007,
    "lng": 136.8742951,
    "tel": "0599-46-1122",
    "url": "http://www.houwakai.or.jp/m-shimahou.html",
    "pref": "三重県",
    "city": "志摩市",
    "category": "rouken",
    "serviceType": "介護老人保健施設",
    "capacity": 0,
    "openDays": [],
    "openDaysNote": ""
  },
  {
    "id": "2452980028",
    "name": "志摩地域医療福祉センター　志摩市介護老人保健施設　志摩の里",
    "kana": "シマチイキイリョウフクシセンター　シマシカイゴロウジンホケンシセツ　シマノサト",
    "address": "三重県志摩市志摩町片田4807番地1",
    "lat": 34.2612293,
    "lng": 136.8320874,
    "tel": "0599-84-1000",
    "url": "https://www.jadecom.or.jp/jadecomhp/shimanosato/html/",
    "pref": "三重県",
    "city": "志摩市",
    "category": "rouken",
    "serviceType": "介護老人保健施設",
    "capacity": 0,
    "openDays": [],
    "openDaysNote": ""
  },
  {
    "id": "2450780032",
    "name": "医療法人　松徳会　介護老人保健施設　カトレア",
    "kana": "イリョウホウジン　ショウトクカイ　カイゴロウジンホケンシセツ　カトレア",
    "address": "松阪市山室町６９０番地１",
    "lat": 34.5299505,
    "lng": 136.5022965,
    "tel": "0598-20-0088",
    "url": "http://www.shoutoku.or.jp/",
    "pref": "三重県",
    "city": "松阪市",
    "category": "rouken",
    "serviceType": "介護老人保健施設",
    "capacity": 0,
    "openDays": [],
    "openDaysNote": ""
  },
  {
    "id": "2450780040",
    "name": "介護老人保健施設　やまゆりの里",
    "kana": "カイゴロウジンホケンシセツ　ヤマユリノサト",
    "address": "三重県松阪市嬉野中川町１５２９－１",
    "lat": 34.6341892,
    "lng": 136.4753721,
    "tel": "0598-48-3000",
    "url": "http://www.akeai.or.jp/",
    "pref": "三重県",
    "city": "松阪市",
    "category": "rouken",
    "serviceType": "介護老人保健施設",
    "capacity": 0,
    "openDays": [],
    "openDaysNote": ""
  },
  {
    "id": "2450780024",
    "name": "介護老人保健施設　緑風苑",
    "kana": "カイゴロウジンホケンシセツ　リョクフウエン",
    "address": "三重県松阪市久保町1927－6",
    "lat": 34.5373837,
    "lng": 136.5266496,
    "tel": "0598-29-6775",
    "url": "https://aikeikai.or.jp/",
    "pref": "三重県",
    "city": "松阪市",
    "category": "rouken",
    "serviceType": "介護老人保健施設",
    "capacity": 0,
    "openDays": [],
    "openDaysNote": ""
  },
  {
    "id": "2450780065",
    "name": "介護老人保健施設まとかた",
    "kana": "カイゴロウジンホケンシセツマトカタ",
    "address": "三重県松阪市東黒部町835",
    "lat": 34.591504102555,
    "lng": 136.591302258336,
    "tel": "0598-59-0312",
    "url": "http://www.matokata.com",
    "pref": "三重県",
    "city": "松阪市",
    "category": "rouken",
    "serviceType": "介護老人保健施設",
    "capacity": 0,
    "openDays": [],
    "openDaysNote": ""
  },
  {
    "id": "2450780016",
    "name": "介護老人保健施設嘉祥苑",
    "kana": "カイゴロウジンホケンシセツカショウエン",
    "address": "三重県松阪市鎌田町２３４番地の１",
    "lat": 34.5817967497758,
    "lng": 136.535973332207,
    "tel": "0598-51-5711",
    "url": "http://www.kashouen.or.jp",
    "pref": "三重県",
    "city": "松阪市",
    "category": "rouken",
    "serviceType": "介護老人保健施設",
    "capacity": 0,
    "openDays": [],
    "openDaysNote": ""
  },
  {
    "id": "2450780057",
    "name": "老人保健施設さくらんぼ",
    "kana": "ロウジンホケンシセツサクランボ",
    "address": "三重県松阪市飯南町粥見5471-18",
    "lat": 34.4456662,
    "lng": 136.3759151,
    "tel": "0598-32-5151",
    "url": "http://www.sakuraen.com/sakuranbo/",
    "pref": "三重県",
    "city": "松阪市",
    "category": "rouken",
    "serviceType": "介護老人保健施設",
    "capacity": 0,
    "openDays": [],
    "openDaysNote": ""
  },
  {
    "id": "2452280049",
    "name": "介護老人保健施設　あさけ",
    "kana": "カイゴロウジンホケンシセツ　アサケ",
    "address": "三重県三重郡川越町大字豊田３０２番地１",
    "lat": 35.0161436660379,
    "lng": 136.661273697562,
    "tel": "059-363-3240",
    "url": "",
    "pref": "三重県",
    "city": "川越町",
    "category": "rouken",
    "serviceType": "介護老人保健施設",
    "capacity": 80,
    "openDays": [],
    "openDaysNote": ""
  },
  {
    "id": "2452780022",
    "name": "介護老人保健施設　なごみの里",
    "kana": "カイゴロウジンホケンシセツ　ナゴミノサト",
    "address": "三重県多気郡多気町古江大字東山1512-1",
    "lat": 34.4610221,
    "lng": 136.4804391,
    "tel": "0598-49-8858",
    "url": "http://www.pmc.or.jp/nagomi/",
    "pref": "三重県",
    "city": "多気町",
    "category": "rouken",
    "serviceType": "介護老人保健施設",
    "capacity": 0,
    "openDays": [],
    "openDaysNote": ""
  },
  {
    "id": "2452780014",
    "name": "介護老人保健施設　みずほの里",
    "kana": "カイゴロウジンホケンシセツ　ミズホノサト",
    "address": "三重県多気郡多気町仁田706番7号",
    "lat": 34.4922008,
    "lng": 136.5457072,
    "tel": "0598-37-2566",
    "url": "http://www.mizuhonosato.or.jp",
    "pref": "三重県",
    "city": "多気町",
    "category": "rouken",
    "serviceType": "介護老人保健施設",
    "capacity": 0,
    "openDays": [],
    "openDaysNote": ""
  },
  {
    "id": "2452880020",
    "name": "介護老人保健施設　暁",
    "kana": "カイゴロウジンホケンシセツ　アカツキ",
    "address": "三重県度会郡大紀町大内山2951番1",
    "lat": 34.2616958895542,
    "lng": 136.351785226984,
    "tel": "0598-72-2888",
    "url": "http://www.sw-jsk.or.jp/",
    "pref": "三重県",
    "city": "大紀町",
    "category": "rouken",
    "serviceType": "介護老人保健施設",
    "capacity": 0,
    "openDays": [],
    "openDaysNote": ""
  },
  {
    "id": "2452780055",
    "name": "大台町介護老人保健施設みやがわ（ユニット型）",
    "kana": "オオダイチョウカイゴロウジンホケンシセツミヤガワ",
    "address": "三重県多気郡大台町江馬114",
    "lat": 34.3637893985214,
    "lng": 136.339459229056,
    "tel": "0598ー76ー8110",
    "url": "http.//www.akeai.or.jp/",
    "pref": "三重県",
    "city": "大台町",
    "category": "rouken",
    "serviceType": "介護老人保健施設",
    "capacity": 0,
    "openDays": [],
    "openDaysNote": ""
  },
  {
    "id": "2452780048",
    "name": "大台町介護老人保健施設みやがわ（従来型）",
    "kana": "オオダイチョウカイゴロウジンホケンシセツミヤガワ",
    "address": "三重県多気郡大台町江馬114",
    "lat": 34.3640507043656,
    "lng": 136.339600635037,
    "tel": "0598ー76ー8110",
    "url": "http://www.akeai.or.jp/",
    "pref": "三重県",
    "city": "大台町",
    "category": "rouken",
    "serviceType": "介護老人保健施設",
    "capacity": 0,
    "openDays": [],
    "openDaysNote": ""
  },
  {
    "id": "2450980012",
    "name": "介護老人保健施設　鳥羽豊和苑",
    "kana": "カイゴロウジンホケンシセツ　トバホウワエン",
    "address": "三重県鳥羽市安楽島町字腰掛1045-77",
    "lat": 34.4745261430935,
    "lng": 136.862155978374,
    "tel": "0599-26-7711",
    "url": "http://www.houwakai.or.jp",
    "pref": "三重県",
    "city": "鳥羽市",
    "category": "rouken",
    "serviceType": "介護老人保健施設",
    "capacity": 0,
    "openDays": [],
    "openDaysNote": ""
  },
  {
    "id": "2450980020",
    "name": "介護老人保健施設　鳥羽豊和苑　ユニット",
    "kana": "カイゴロウジンホケンシセツ　トバホウワエン　ユニット",
    "address": "三重県鳥羽市安楽島町字腰掛1045－77",
    "lat": 34.4633458,
    "lng": 136.8708517,
    "tel": "0599-26-7711",
    "url": "http://www.houwakai.or.jp",
    "pref": "三重県",
    "city": "鳥羽市",
    "category": "rouken",
    "serviceType": "介護老人保健施設",
    "capacity": 0,
    "openDays": [],
    "openDaysNote": ""
  },
  {
    "id": "2452480037",
    "name": "介護老人保健施設　あのう",
    "kana": "カイゴロウジンホケンシセツ　アノウ",
    "address": "三重県津市安濃町東観音寺３５３番地",
    "lat": 34.7642044,
    "lng": 136.4409935,
    "tel": "059-267-1800",
    "url": "http://www.akeai.or.jp",
    "pref": "三重県",
    "city": "津市",
    "category": "rouken",
    "serviceType": "介護老人保健施設",
    "capacity": 0,
    "openDays": [],
    "openDaysNote": ""
  },
  {
    "id": "2452480029",
    "name": "介護老人保健施設　いこいの森",
    "kana": "カイゴロウジンホケンシセツ　イコイノモリ",
    "address": "三重県津市河芸町東千里3番地の１",
    "lat": 34.8031044,
    "lng": 136.5520715,
    "tel": "059-245-6777",
    "url": "https://www.mie-ikoinomori.or.jp",
    "pref": "三重県",
    "city": "津市",
    "category": "rouken",
    "serviceType": "介護老人保健施設",
    "capacity": 100,
    "openDays": [],
    "openDaysNote": ""
  },
  {
    "id": "2450580051",
    "name": "介護老人保健施設　第二さくら苑",
    "kana": "カイゴロウジンホケンシセツ　ダイニサクラエン",
    "address": "三重県津市榊原町5599番地",
    "lat": 34.7004203285513,
    "lng": 136.368659863338,
    "tel": "059-252-3230",
    "url": "http://ohrin-mc.jp/sakuraen_dai2/",
    "pref": "三重県",
    "city": "津市",
    "category": "rouken",
    "serviceType": "介護老人保健施設",
    "capacity": 0,
    "openDays": [],
    "openDaysNote": ""
  },
  {
    "id": "2452580034",
    "name": "介護老人保健施設　万葉の里",
    "kana": "カイゴロウジンホケンシセツ　マンヨウノサト",
    "address": "三重県津市一志町高野２３６－５",
    "lat": 34.6596328,
    "lng": 136.4325862,
    "tel": "059-295-1600",
    "url": "",
    "pref": "三重県",
    "city": "津市",
    "category": "rouken",
    "serviceType": "介護老人保健施設",
    "capacity": 0,
    "openDays": [],
    "openDaysNote": ""
  },
  {
    "id": "2450580069",
    "name": "介護老人保健施設　万葉の里（ユニット型）",
    "kana": "カイゴロウジンホケンシセツ　マンヨウノサト（ユニットガタ）",
    "address": "三重県津市一志町高野236-5",
    "lat": 34.6596328,
    "lng": 136.4325862,
    "tel": "059-295-1600",
    "url": "",
    "pref": "三重県",
    "city": "津市",
    "category": "rouken",
    "serviceType": "介護老人保健施設",
    "capacity": 0,
    "openDays": [],
    "openDaysNote": ""
  },
  {
    "id": "2450680059",
    "name": "介護老人保健施設さくら苑",
    "kana": "カイゴロウジンホケンシセツサクラエン",
    "address": "三重県津市榊原町5630番地",
    "lat": 34.700816,
    "lng": 136.3689254,
    "tel": "059-252-2751",
    "url": "http://www.ohrin-mc.jp/sakuraen/",
    "pref": "三重県",
    "city": "津市",
    "category": "rouken",
    "serviceType": "介護老人保健施設",
    "capacity": 75,
    "openDays": [],
    "openDaysNote": ""
  },
  {
    "id": "2450580044",
    "name": "介護老人保健施設つつじの里",
    "kana": "カイゴロウジンホケンシセツツツジノサト",
    "address": "三重県津市白山町二本木1163",
    "lat": 34.6680964,
    "lng": 136.3711877,
    "tel": "059-264-0111",
    "url": "http://www.akeai.or.jp/",
    "pref": "三重県",
    "city": "津市",
    "category": "rouken",
    "serviceType": "介護老人保健施設",
    "capacity": 0,
    "openDays": [],
    "openDaysNote": ""
  },
  {
    "id": "2450580010",
    "name": "介護老人保健施設トマト",
    "kana": "カイゴロウジンホケンシセツトマト",
    "address": "三重県津市殿村８６０番地２",
    "lat": 34.7265277350185,
    "lng": 136.463696999475,
    "tel": "059-237-5050",
    "url": "http://www.tomato.or.jp/",
    "pref": "三重県",
    "city": "津市",
    "category": "rouken",
    "serviceType": "介護老人保健施設",
    "capacity": 100,
    "openDays": [],
    "openDaysNote": ""
  },
  {
    "id": "2452480011",
    "name": "介護老人保健施設ロマン",
    "kana": "カイゴロウジンホケンシセツロマン",
    "address": "津市芸濃町椋本6176",
    "lat": 34.8105064911482,
    "lng": 136.44258923373,
    "tel": "059-265-6500",
    "url": "http://www.roman.or.jp",
    "pref": "三重県",
    "city": "津市",
    "category": "rouken",
    "serviceType": "介護老人保健施設",
    "capacity": 100,
    "openDays": [],
    "openDaysNote": ""
  },
  {
    "id": "2450680018",
    "name": "芹の里介護老人保健施設",
    "kana": "セリノサトカイゴロウジンホケンシセツ",
    "address": "三重県津市久居井戸山町　７５９番地の７",
    "lat": 34.6691686,
    "lng": 136.483456,
    "tel": "059-256-8180",
    "url": "https://www.seri-roken.or.jp",
    "pref": "三重県",
    "city": "津市",
    "category": "rouken",
    "serviceType": "介護老人保健施設",
    "capacity": 0,
    "openDays": [],
    "openDaysNote": ""
  },
  {
    "id": "2450580036",
    "name": "地域総合ケアセンター津介護老人保健施設シルバーケア豊壽園",
    "kana": "チイキソウゴウケアセンターツカイゴロウジンホケンシセツシルバーケアホウジュエン",
    "address": "三重県津市高茶屋小森上野町野田737",
    "lat": 34.6784929,
    "lng": 136.5202392,
    "tel": "059-235-5511",
    "url": "http://www.sensin.or.jp/",
    "pref": "三重県",
    "city": "津市",
    "category": "rouken",
    "serviceType": "介護老人保健施設",
    "capacity": 0,
    "openDays": [],
    "openDaysNote": ""
  },
  {
    "id": "2450580028",
    "name": "津老人保健施設アルカディア",
    "kana": "ツロウジンホケンシセツアルカディア",
    "address": "津市乙部１１－５",
    "lat": 34.7173659,
    "lng": 136.5200262,
    "tel": "059-227-6681",
    "url": "https://www.arcadia-mie.jp/",
    "pref": "三重県",
    "city": "津市",
    "category": "rouken",
    "serviceType": "介護老人保健施設",
    "capacity": 100,
    "openDays": [],
    "openDaysNote": ""
  },
  {
    "id": "2450680034",
    "name": "萩の原介護老人保健施設",
    "kana": "ハギノハラカイゴロウジンホケンシセツ",
    "address": "三重県津市久居井戸山町759番地",
    "lat": 34.6691352,
    "lng": 136.4828394,
    "tel": "059-256-5515",
    "url": "http://www.inoue-med.com",
    "pref": "三重県",
    "city": "津市",
    "category": "rouken",
    "serviceType": "介護老人保健施設",
    "capacity": 0,
    "openDays": [],
    "openDaysNote": ""
  },
  {
    "id": "2452880095",
    "name": "介護老人保健施設　水脈の郷",
    "kana": "カイゴロウジンホケンシセツ　ミオノサト",
    "address": "三重県度会郡南伊勢町慥柄浦1－1",
    "lat": 34.290390085362,
    "lng": 136.56962304989,
    "tel": "0596-72-0028",
    "url": "http://www.miekosei.or.jp/6_nah/",
    "pref": "三重県",
    "city": "南伊勢町",
    "category": "rouken",
    "serviceType": "介護老人保健施設",
    "capacity": 29,
    "openDays": [],
    "openDaysNote": ""
  },
  {
    "id": "2451380030",
    "name": "介護老人保健施設　憩いの街",
    "kana": "カイゴロウジンホケンシセツ　イコイノマチ",
    "address": "三重県名張市鴻之台1番町72番地",
    "lat": 34.6301912108003,
    "lng": 136.111522773051,
    "tel": "0595-41-0380",
    "url": "http://www.keihoukai.net/",
    "pref": "三重県",
    "city": "名張市",
    "category": "rouken",
    "serviceType": "介護老人保健施設",
    "capacity": 80,
    "openDays": [],
    "openDaysNote": ""
  },
  {
    "id": "2452780030",
    "name": "介護老人保健施設第二嘉祥苑「アコラス」",
    "kana": "カイゴロウジンホケンシセツダイニカショウエン「アコラス」",
    "address": "三重県多気郡明和町大字南藤原字一水口７５１番地",
    "lat": 34.5837653021991,
    "lng": 136.620268885428,
    "tel": "0596-55-5550",
    "url": "http://www.kashouen.or.jp",
    "pref": "三重県",
    "city": "明和町",
    "category": "rouken",
    "serviceType": "介護老人保健施設",
    "capacity": 0,
    "openDays": [],
    "openDaysNote": ""
  },
  {
    "id": "2452080027",
    "name": "ビオトープさくら",
    "kana": "ビオトープサクラ",
    "address": "三重県桑名郡木曽岬町大字和富１０番１７",
    "lat": 35.0668622,
    "lng": 136.7512182,
    "tel": "0567-68-7321",
    "url": "http://www.wangansakuraclinic.jp/",
    "pref": "三重県",
    "city": "木曽岬町",
    "category": "rouken",
    "serviceType": "介護老人保健施設",
    "capacity": 60,
    "openDays": [],
    "openDaysNote": ""
  },
  {
    "id": "2452080035",
    "name": "老健きそさき",
    "kana": "ロウケンキソサキ",
    "address": "三重県桑名郡木曽岬町大字和富１０番17",
    "lat": 35.0668622,
    "lng": 136.7512182,
    "tel": "0567-68-7234",
    "url": "http://www.wangansakuraclinic.jp/",
    "pref": "三重県",
    "city": "木曽岬町",
    "category": "rouken",
    "serviceType": "介護老人保健施設",
    "capacity": 29,
    "openDays": [],
    "openDaysNote": ""
  },
  {
    "id": "2450380015",
    "name": "介護老人保健施設　アルテハイム鈴鹿",
    "kana": "カイゴロウジンホケンシセツ　アルテハイムスズカ",
    "address": "鈴鹿市平田１丁目3番５号",
    "lat": 34.8745216,
    "lng": 136.5398119,
    "tel": "059-370-0653",
    "url": "",
    "pref": "三重県",
    "city": "鈴鹿市",
    "category": "rouken",
    "serviceType": "介護老人保健施設",
    "capacity": 0,
    "openDays": [],
    "openDaysNote": ""
  },
  {
    "id": "2450380031",
    "name": "介護老人保健施設　鈴の丘",
    "kana": "カイゴロウジンホケンシセツ　スズノオカ",
    "address": "三重県鈴鹿市庄野町2550番地",
    "lat": 34.8879088833181,
    "lng": 136.508813420901,
    "tel": "059-375-2350",
    "url": "http://www.mecha.ne.jp/~suzu-oka/",
    "pref": "三重県",
    "city": "鈴鹿市",
    "category": "rouken",
    "serviceType": "介護老人保健施設",
    "capacity": 0,
    "openDays": [],
    "openDaysNote": ""
  },
  {
    "id": "2450380056",
    "name": "介護老人保健施設　鈴の丘（ユニット型）",
    "kana": "カイゴロウジンホケンシセツ　スズノオカ（ユニットガタ）",
    "address": "三重県鈴鹿市庄野町2550番地",
    "lat": 34.8878853881804,
    "lng": 136.508812979098,
    "tel": "059-375-2350",
    "url": "http://www.mecha.ne.jp/~suzu-oka/",
    "pref": "三重県",
    "city": "鈴鹿市",
    "category": "rouken",
    "serviceType": "介護老人保健施設",
    "capacity": null,
    "openDays": [],
    "openDaysNote": ""
  },
  {
    "id": "2450380049",
    "name": "介護老人保健施設パークヒルズ高塚",
    "kana": "カイゴロウジンホケンシセツパークヒルズタカツカ",
    "address": "三重県鈴鹿市高塚町字北新地２０３６",
    "lat": 34.9099799581021,
    "lng": 136.512018100911,
    "tel": "059-375-5525",
    "url": "www.shiokawa-hp.jp",
    "pref": "三重県",
    "city": "鈴鹿市",
    "category": "rouken",
    "serviceType": "介護老人保健施設",
    "capacity": 150,
    "openDays": [],
    "openDaysNote": ""
  },
  {
    "id": "2450380023",
    "name": "介護老人保健施設ひまわり",
    "kana": "カイゴロウジンホケンシセツヒマワリ",
    "address": "鈴鹿市神戸三丁目１２－１０",
    "lat": 34.8784021,
    "lng": 136.5840287,
    "tel": "059-382-8300",
    "url": "http://www.murase.or.jp/",
    "pref": "三重県",
    "city": "鈴鹿市",
    "category": "rouken",
    "serviceType": "介護老人保健施設",
    "capacity": 0,
    "openDays": [],
    "openDaysNote": ""
  }
]