[
  {
    "id": "2651880029",
    "name": "介護老人保健施設　京都綾部さくらホーム",
    "kana": "カイゴロウジンホケンシセツ　キョウトアヤベサクラホーム",
    "address": "綾部市高津町遠所1番地611",
    "lat": 35.3041432,
    "lng": 135.2170489,
    "tel": "0773-40-1066",
    "url": "http://ayabesakura.jp/",
    "pref": "京都府",
    "city": "綾部市",
    "category": "rouken",
    "serviceType": "介護老人保健施設",
    "capacity": 0,
    "openDays": [],
    "openDaysNote": ""
  },
  {
    "id": "2651880011",
    "name": "老人保健施設あやべ",
    "kana": "ロウジンホケンシセツアヤベ",
    "address": "綾部市小畑町うずいの98番地の1",
    "lat": 35.344468,
    "lng": 135.2038855,
    "tel": "0773-48-0186",
    "url": "http://ninokunifukusikai.com/",
    "pref": "京都府",
    "city": "綾部市",
    "category": "rouken",
    "serviceType": "介護老人保健施設",
    "capacity": 90,
    "openDays": [],
    "openDaysNote": ""
  },
  {
    "id": "2651280048",
    "name": "医療法人徳洲会　宇治徳洲苑",
    "kana": "イリョウホウジントクシュウカイ　ウジトクシュウエン",
    "address": "槇島町石橋１４５番",
    "lat": 34.9031792187927,
    "lng": 135.787115839603,
    "tel": "０７７４－２５－７１１０",
    "url": "https://www.ujitoku.or.jp/md-intro/medical-department/tokusyuuen/",
    "pref": "京都府",
    "city": "宇治市",
    "category": "rouken",
    "serviceType": "介護老人保健施設",
    "capacity": 0,
    "openDays": [],
    "openDaysNote": ""
  },
  {
    "id": "2651280014",
    "name": "志津川五和の園老人保健施設",
    "kana": "シヅガワイツワノソノロウジンホケンシセツ",
    "address": "京都府宇治市志津川南詰12番地",
    "lat": 34.8867468,
    "lng": 135.8246656,
    "tel": "0774-23-5070",
    "url": "http://ituwanosono.sakura.ne.jp",
    "pref": "京都府",
    "city": "宇治市",
    "category": "rouken",
    "serviceType": "介護老人保健施設",
    "capacity": 152,
    "openDays": [],
    "openDaysNote": ""
  },
  {
    "id": "2651280030",
    "name": "平成老人保健施設",
    "kana": "ヘイセイロウジンホケンシセツ",
    "address": "京都府宇治市五ケ庄芝ノ東５４－２",
    "lat": 34.917386345858,
    "lng": 135.801778785844,
    "tel": "０７７４－３３－５０００",
    "url": "http://www.uji-hosp.or.jp/",
    "pref": "京都府",
    "city": "宇治市",
    "category": "rouken",
    "serviceType": "介護老人保健施設",
    "capacity": 0,
    "openDays": [],
    "openDaysNote": ""
  },
  {
    "id": "2651680023",
    "name": "介護老人保健施設　陽生苑",
    "kana": "カイゴロウジンホケンシセツ　ヨウセイエン",
    "address": "京都府亀岡市篠町篠洗川47-1",
    "lat": 34.9989933,
    "lng": 135.603348,
    "tel": "0771-23-2811",
    "url": "https://youseien.sakura.ne.jp/",
    "pref": "京都府",
    "city": "亀岡市",
    "category": "rouken",
    "serviceType": "介護老人保健施設",
    "capacity": 0,
    "openDays": [],
    "openDaysNote": ""
  },
  {
    "id": "2651680015",
    "name": "介護老人保健施設こもれび",
    "kana": "カイゴロウジンホケンシセツコモレビ",
    "address": "京都府亀岡市千代川町北ノ庄向条24番地",
    "lat": 35.052152,
    "lng": 135.528977,
    "tel": "0771-29-1121",
    "url": "http://www.osawa-komorebi.com",
    "pref": "京都府",
    "city": "亀岡市",
    "category": "rouken",
    "serviceType": "介護老人保健施設",
    "capacity": 100,
    "openDays": [],
    "openDaysNote": ""
  },
  {
    "id": "2651180016",
    "name": "医療法人啓信会介護老人保健施設ひしの里",
    "kana": "イリョウホウジンケイシンカイカイゴロウジンホケンシセツヒシノサト",
    "address": "京都府久世郡久御山町佐古内屋敷81-1",
    "lat": 34.8797971,
    "lng": 135.752459,
    "tel": "0774-43-2626",
    "url": "http://www.kyoto-keishinkai.or.jp/",
    "pref": "京都府",
    "city": "久御山町",
    "category": "rouken",
    "serviceType": "介護老人保健施設",
    "capacity": 100,
    "openDays": [],
    "openDaysNote": ""
  },
  {
    "id": "2652180015",
    "name": "介護老人保健施設リハ・ヴィラなぎさ苑",
    "kana": "カイゴロウジンホケンシセツリハ・ビラナギサエン",
    "address": "京都府宮津市字須津2268番地の1",
    "lat": 35.5534904,
    "lng": 135.1598329,
    "tel": "0772-46-1200",
    "url": "http://www.hokuseikai.or.jp/nagisaen/",
    "pref": "京都府",
    "city": "宮津市",
    "category": "rouken",
    "serviceType": "介護老人保健施設",
    "capacity": 0,
    "openDays": [],
    "openDaysNote": ""
  },
  {
    "id": "2653380010",
    "name": "京丹後市やさか老人保健施設ふくじゅ",
    "kana": "キョウタンゴシヤサカロウジンホケンシセツフクジュ",
    "address": "京都府京丹後市弥栄町溝谷5422番地の1",
    "lat": 35.6579286,
    "lng": 135.0896116,
    "tel": "0772-65-2200",
    "url": "https://yasaka-fukujyu.jp",
    "pref": "京都府",
    "city": "京丹後市",
    "category": "rouken",
    "serviceType": "介護老人保健施設",
    "capacity": 0,
    "openDays": [],
    "openDaysNote": ""
  },
  {
    "id": "2651580033",
    "name": "京丹波町介護療養型老人保健施設",
    "kana": "キョウタンバチョウカイゴリョウヨウガタロウジンホケンシセツ",
    "address": "京都府船井郡京丹波町本庄今福５番地",
    "lat": 35.2600786,
    "lng": 135.3991957,
    "tel": "0771-84-1112",
    "url": "https://www.town.kyotamba.kyoto.jp",
    "pref": "京都府",
    "city": "京丹波町",
    "category": "rouken",
    "serviceType": "介護老人保健施設",
    "capacity": 0,
    "openDays": [],
    "openDaysNote": ""
  },
  {
    "id": "2653280012",
    "name": "医療法人社団石鎚会　介護老人保健施設やすらぎ苑",
    "kana": "イリョウホウジンシャダンセキテツカイ　カイゴロウジンホケンシセツヤスラギエン",
    "address": "京田辺市同志社山手二丁目2番",
    "lat": 34.7898224832688,
    "lng": 135.776252210418,
    "tel": "0774-62-7722",
    "url": "http://www.sekitetsukai.or.jp/",
    "pref": "京都府",
    "city": "京田辺市",
    "category": "rouken",
    "serviceType": "介護老人保健施設",
    "capacity": 0,
    "openDays": [],
    "openDaysNote": ""
  },
  {
    "id": "2650780022",
    "name": "介護老人保健施設　ケア・スポット梅津",
    "kana": "カイゴロウジンホケンシセツ　ケア・スポットウメヅ",
    "address": "京都府京都市右京区梅津尻溝町66-1",
    "lat": 35.0006169,
    "lng": 135.6961582,
    "tel": "075-863-2185",
    "url": "http://carespotumezu.jimdo.com/",
    "pref": "京都府",
    "city": "京都市右京区",
    "category": "rouken",
    "serviceType": "介護老人保健施設",
    "capacity": 100,
    "openDays": [],
    "openDaysNote": ""
  },
  {
    "id": "2650780048",
    "name": "介護老人保健施設　マリアンヌ",
    "kana": "カイゴロウジンホケンシセツ　マリアンヌ",
    "address": "京都府京都市右京区梅津中倉町１０",
    "lat": 35.0025806,
    "lng": 135.6920114,
    "tel": "０７５－８６５－８５００",
    "url": "http://www.kenshokai.group",
    "pref": "京都府",
    "city": "京都市右京区",
    "category": "rouken",
    "serviceType": "介護老人保健施設",
    "capacity": 120,
    "openDays": [],
    "openDaysNote": ""
  },
  {
    "id": "2650780014",
    "name": "介護老人保健施設　リーベン嵯峨野",
    "kana": "カイゴロウジンホケンシセツ　リーベンサガノ",
    "address": "京都市右京区常盤東ノ町22番5",
    "lat": 35.0199013,
    "lng": 135.7093565,
    "tel": "075-862-5770",
    "url": "http://lieben.kyoto",
    "pref": "京都府",
    "city": "京都市右京区",
    "category": "rouken",
    "serviceType": "介護老人保健施設",
    "capacity": 0,
    "openDays": [],
    "openDaysNote": ""
  },
  {
    "id": "2650780030",
    "name": "京都市京北介護老人保健施設",
    "kana": "キョウトシケイホクカイゴロウジンホケンシセツ",
    "address": "京都市右京区京北下中町鳥谷3番地",
    "lat": 35.1980529,
    "lng": 135.6343922,
    "tel": "075-854-0221",
    "url": "http://www.kch-org.jp/keihoku/",
    "pref": "京都府",
    "city": "京都市右京区",
    "category": "rouken",
    "serviceType": "介護老人保健施設",
    "capacity": null,
    "openDays": [],
    "openDaysNote": ""
  },
  {
    "id": "2650480037",
    "name": "介護老人保健施設じゅんぷう",
    "kana": "カイゴロウジンホケンシセツジュンプウ",
    "address": "京都府京都市下京区西堀川通松原下る橋橘町1番地",
    "lat": 34.998659382114,
    "lng": 135.751772942961,
    "tel": "075-813-2323",
    "url": "http://www.junepooh.com",
    "pref": "京都府",
    "city": "京都市下京区",
    "category": "rouken",
    "serviceType": "介護老人保健施設",
    "capacity": 98,
    "openDays": [],
    "openDaysNote": ""
  },
  {
    "id": "2650480029",
    "name": "社会医療法人健康会　介護老人保健施設ぬくもりの里",
    "kana": "シャカイイリョウホウジンケンコウカイ　カイゴロウジンホケンシセツヌクモリノサト",
    "address": "京都市下京区七条御所ノ内西町68",
    "lat": 34.9873464899073,
    "lng": 135.728221463893,
    "tel": "075-321-0295",
    "url": "http://www.kyotominami.or.jp/",
    "pref": "京都府",
    "city": "京都市下京区",
    "category": "rouken",
    "serviceType": "介護老人保健施設",
    "capacity": 98,
    "openDays": [],
    "openDaysNote": ""
  },
  {
    "id": "2650680057",
    "name": "バプテスト老人保健施設",
    "kana": "バプテストロウジンホケンシセツ",
    "address": "京都府京都市左京区北白川山ノ元町47",
    "lat": 35.0339788408342,
    "lng": 135.796287442988,
    "tel": "075-702-5980",
    "url": "http://www.jbh.or.jp/roken/",
    "pref": "京都府",
    "city": "京都市左京区",
    "category": "rouken",
    "serviceType": "介護老人保健施設",
    "capacity": 100,
    "openDays": [],
    "openDaysNote": ""
  },
  {
    "id": "2650680081",
    "name": "医療法人稲門会　介護老人保健施設フェアウインドきの",
    "kana": "カイゴロウジンホケンシセツフェアウインドキノ",
    "address": "京都市左京区岩倉幡枝町2250",
    "lat": 35.069843892577,
    "lng": 135.774265820238,
    "tel": "075-712-5252",
    "url": "https://www.toumonkai.net/",
    "pref": "京都府",
    "city": "京都市左京区",
    "category": "rouken",
    "serviceType": "介護老人保健施設",
    "capacity": 100,
    "openDays": [],
    "openDaysNote": ""
  },
  {
    "id": "2650680024",
    "name": "医療法人三幸会　介護老人保健施設紫雲苑",
    "kana": "イリョウホウジンサンコウカイ　カイゴロウジンホケンシセツシウンエン",
    "address": "京都府京都市左京区岩倉上蔵町303番地",
    "lat": 35.0800955,
    "lng": 135.7808274,
    "tel": "075-724-1188",
    "url": "http://www.sankokai.jp/",
    "pref": "京都府",
    "city": "京都市左京区",
    "category": "rouken",
    "serviceType": "介護老人保健施設",
    "capacity": 0,
    "openDays": [],
    "openDaysNote": ""
  },
  {
    "id": "2650680073",
    "name": "介護老人保健施設　おおはら雅の郷",
    "kana": "カイゴロウジンホケンシセツ　オオハラミヤビノサト",
    "address": "京都府京都市左京区大原野村町514",
    "lat": 35.1120065,
    "lng": 135.8192813,
    "tel": "075-744-3100",
    "url": "http://www.kouryokai.jp/",
    "pref": "京都府",
    "city": "京都市左京区",
    "category": "rouken",
    "serviceType": "介護老人保健施設",
    "capacity": null,
    "openDays": [],
    "openDaysNote": ""
  },
  {
    "id": "2650680032",
    "name": "介護老人保健施設　しずはうす",
    "kana": "カイゴロウジンホケンシセツ　シズハウス",
    "address": "京都市左京区静市静原町548",
    "lat": 35.1034372,
    "lng": 135.7799024,
    "tel": "075-741-1727",
    "url": "http://www.toumonkai.net/",
    "pref": "京都府",
    "city": "京都市左京区",
    "category": "rouken",
    "serviceType": "介護老人保健施設",
    "capacity": 100,
    "openDays": [],
    "openDaysNote": ""
  },
  {
    "id": "2650680016",
    "name": "介護老人保健施設　博寿苑",
    "kana": "カイゴロウジンホケンシセツハクジュエン",
    "address": "京都市左京区大原戸寺町383",
    "lat": 35.1044158,
    "lng": 135.8217588,
    "tel": "075-744-3196",
    "url": "http://www.kouryokai.jp",
    "pref": "京都府",
    "city": "京都市左京区",
    "category": "rouken",
    "serviceType": "介護老人保健施設",
    "capacity": 0,
    "openDays": [],
    "openDaysNote": ""
  },
  {
    "id": "2650680040",
    "name": "介護老人保健施設　友々苑",
    "kana": "カイゴロウジンホケンシセツ　ユウユウエン",
    "address": "京都市左京区静市市原町447-1",
    "lat": 35.0835007,
    "lng": 135.7562463,
    "tel": "075-741-5236",
    "url": "http://www.kyoto.zaq.ne.jp/",
    "pref": "京都府",
    "city": "京都市左京区",
    "category": "rouken",
    "serviceType": "介護老人保健施設",
    "capacity": 0,
    "openDays": [],
    "openDaysNote": ""
  },
  {
    "id": "2654180013",
    "name": "医療法人医仁会　老人保健施設いわやの里",
    "kana": "イリョウホウジンイジンカイ　ロウジンホケンシセツイワヤノサト",
    "address": "京都府京都市山科区大宅古海道町52番地",
    "lat": 34.9707753,
    "lng": 135.8264316,
    "tel": "075-572-1811",
    "url": "http://www.takedahp.or.jp/",
    "pref": "京都府",
    "city": "京都市山科区",
    "category": "rouken",
    "serviceType": "介護老人保健施設",
    "capacity": 76,
    "openDays": [],
    "openDaysNote": ""
  },
  {
    "id": "2654180062",
    "name": "医療法人社団洛和会介護老人保健施設洛和ヴィラアエル",
    "kana": "イリョウホウジンシャダンラクワカイカイゴロウジンホケンシセツラクワウ゛ィラアエル",
    "address": "京都市山科区小山鎮守町29番1",
    "lat": 34.9878773983727,
    "lng": 135.833576262219,
    "tel": "075-594-8020",
    "url": "http://www.rakuwa.or.jp",
    "pref": "京都府",
    "city": "京都市山科区",
    "category": "rouken",
    "serviceType": "介護老人保健施設",
    "capacity": 100,
    "openDays": [],
    "openDaysNote": ""
  },
  {
    "id": "2654180021",
    "name": "一般社団法人愛生会　介護老人保健施設おおやけの里",
    "kana": "イッパンシャダンホウジンアイセイカイ　カイゴロウジンホケンシセツオオヤケノサト",
    "address": "京都市山科区大宅向山10番5",
    "lat": 34.9646703,
    "lng": 135.8208377,
    "tel": "075-575-4111",
    "url": "http://www.aiseikaihp.or.jp/",
    "pref": "京都府",
    "city": "京都市山科区",
    "category": "rouken",
    "serviceType": "介護老人保健施設",
    "capacity": 150,
    "openDays": [],
    "openDaysNote": ""
  },
  {
    "id": "2654180047",
    "name": "介護老人保健施設　はーとふる東山",
    "kana": "カイゴロウジンホケンシセツ　ハートフルヒガシヤマ",
    "address": "京都市山科区日ノ岡夷谷町11番地",
    "lat": 35.0003876,
    "lng": 135.7943603,
    "tel": "075-771-4300",
    "url": "http://www.juzenkai.or.jp/",
    "pref": "京都府",
    "city": "京都市山科区",
    "category": "rouken",
    "serviceType": "介護老人保健施設",
    "capacity": 0,
    "openDays": [],
    "openDaysNote": ""
  },
  {
    "id": "2654180070",
    "name": "介護老人保健施設　香東園やましな",
    "kana": "カイゴロウジンホケンシセツ　コウトウエンヤマシナ",
    "address": "京都府京都市山科区西野野色町15-88",
    "lat": 34.9856813,
    "lng": 135.8045591,
    "tel": "075-595-6511",
    "url": "http://www.koutouen.com/yamashina/",
    "pref": "京都府",
    "city": "京都市山科区",
    "category": "rouken",
    "serviceType": "介護老人保健施設",
    "capacity": 100,
    "openDays": [],
    "openDaysNote": ""
  },
  {
    "id": "2654180054",
    "name": "介護老人保健施設アビイロードやましな",
    "kana": "カイゴロウジンホケンシセツアビイロードヤマシナ",
    "address": "京都府京都市山科区勧修寺南大日33-1",
    "lat": 34.9551595,
    "lng": 135.8024674,
    "tel": "075-573-1117",
    "url": "http://www.toumonkai.net/",
    "pref": "京都府",
    "city": "京都市山科区",
    "category": "rouken",
    "serviceType": "介護老人保健施設",
    "capacity": 100,
    "openDays": [],
    "openDaysNote": ""
  },
  {
    "id": "2654080015",
    "name": "医療法人啓友会　洛西けいゆうの里",
    "kana": "イリョウホウジン　ケイユウカイ　ラクサイケイユウノサト",
    "address": "京都府京都市西京区大枝東長町1-36",
    "lat": 34.9671865,
    "lng": 135.67909,
    "tel": "075-333-5290",
    "url": "http://www.keiyukai-nakajima.jp",
    "pref": "京都府",
    "city": "京都市西京区",
    "category": "rouken",
    "serviceType": "介護老人保健施設",
    "capacity": 0,
    "openDays": [],
    "openDaysNote": ""
  },
  {
    "id": "2654080023",
    "name": "医療法人清仁会　介護老人保健施設シミズひまわりの里",
    "kana": "イリョウホウジンセイジンカイ　カイゴロウジンホケンシセツシミズヒマワリノサト",
    "address": "京都市西京区大枝沓掛町13-362",
    "lat": 34.974847,
    "lng": 135.6657046,
    "tel": "075-331-8900",
    "url": "https://www.shimizu-hospital.or.jp./",
    "pref": "京都府",
    "city": "京都市西京区",
    "category": "rouken",
    "serviceType": "介護老人保健施設",
    "capacity": 174,
    "openDays": [],
    "openDaysNote": ""
  },
  {
    "id": "2650380013",
    "name": "介護老人保健施設　洛和ヴィライリオス",
    "kana": "カイゴロウジンホケンシセツ　ラクワウ゛ィライリオス",
    "address": "京都市中京区聚楽廻西町186",
    "lat": 35.0173381,
    "lng": 135.7394011,
    "tel": "075-801-0377",
    "url": "http://www.rakuwa.or.jp",
    "pref": "京都府",
    "city": "京都市中京区",
    "category": "rouken",
    "serviceType": "介護老人保健施設",
    "capacity": 100,
    "openDays": [],
    "openDaysNote": ""
  },
  {
    "id": "2650380021",
    "name": "介護老人保健施設西の京",
    "kana": "カイゴロウジンホケンシセツニシノキョウ",
    "address": "京都市中京区西ノ京小堀池町16番地",
    "lat": 35.0145713,
    "lng": 135.7264079,
    "tel": "075-821-3388",
    "url": "http://www.hoken-fukushi.or.jp",
    "pref": "京都府",
    "city": "京都市中京区",
    "category": "rouken",
    "serviceType": "介護老人保健施設",
    "capacity": 98,
    "openDays": [],
    "openDaysNote": ""
  },
  {
    "id": "2650580018",
    "name": "介護老人保健施設　マムクオーレ",
    "kana": "カイゴロウジンホケンシセツ　マムクオーレ",
    "address": "京都市南区吉祥院南落合町40番地3",
    "lat": 34.9729894,
    "lng": 135.7404376,
    "tel": "075-691-7755",
    "url": "http://www.dojinkai.com/mam/",
    "pref": "京都府",
    "city": "京都市南区",
    "category": "rouken",
    "serviceType": "介護老人保健施設",
    "capacity": 0,
    "openDays": [],
    "openDaysNote": ""
  },
  {
    "id": "2650580026",
    "name": "介護老人保健施設マムクオーレII",
    "kana": "カイゴロウジンホケンシセツ　マムクオーレ　ツー",
    "address": "京都市南区唐橋羅城門町３８マム・スクエア内 マム・スクエア内",
    "lat": 34.9793284498514,
    "lng": 135.740414577632,
    "tel": "075-694-6655",
    "url": "http://www.dojinkai.com",
    "pref": "京都府",
    "city": "京都市南区",
    "category": "rouken",
    "serviceType": "介護老人保健施設",
    "capacity": null,
    "openDays": [],
    "openDaysNote": ""
  },
  {
    "id": "2650980135",
    "name": "医療法人社団千春会　介護老人保健施設桃山",
    "kana": "イリョウホウジンシャダンセンシュンカイカイゴロウジンホケンシセツモモヤマ",
    "address": "京都府京都市伏見区桃山与五郎町1-589",
    "lat": 34.9297168027413,
    "lng": 135.781740461563,
    "tel": "075-621-1165",
    "url": "http://www.senshunkai.or.jp/",
    "pref": "京都府",
    "city": "京都市伏見区",
    "category": "rouken",
    "serviceType": "介護老人保健施設",
    "capacity": null,
    "openDays": [],
    "openDaysNote": ""
  },
  {
    "id": "2650980044",
    "name": "介護老人保健施設　京しみず",
    "kana": "カイゴロウジンホケンシセツ　　キョウシミズ",
    "address": "京都府京都市伏見区羽束師古川町177番地",
    "lat": 34.9250334,
    "lng": 135.7230072,
    "tel": "075-924-5800",
    "url": "https://ksmcs.jp/ks/",
    "pref": "京都府",
    "city": "京都市伏見区",
    "category": "rouken",
    "serviceType": "介護老人保健施設",
    "capacity": 100,
    "openDays": [],
    "openDaysNote": ""
  },
  {
    "id": "2650980077",
    "name": "介護老人保健施設　第二京しみず",
    "kana": "カイゴロウジンホケンシセツ　ダイニキョウシミズ",
    "address": "京都市伏見区向島清水町45-1",
    "lat": 34.9198677,
    "lng": 135.783441,
    "tel": "075-605-7770",
    "url": "https://ksmcs.jp/ks2/",
    "pref": "京都府",
    "city": "京都市伏見区",
    "category": "rouken",
    "serviceType": "介護老人保健施設",
    "capacity": 100,
    "openDays": [],
    "openDaysNote": ""
  },
  {
    "id": "2650980085",
    "name": "介護老人保健施設　醍醐の里",
    "kana": "カイゴロウジンホケンシセツ　ダイゴノサト",
    "address": "京都府京都市伏見区醍醐内ケ井戸19番地1",
    "lat": 34.9636621,
    "lng": 135.8230458,
    "tel": "075-571-5222",
    "url": "http://www.daigonosato.or.jp",
    "pref": "京都府",
    "city": "京都市伏見区",
    "category": "rouken",
    "serviceType": "介護老人保健施設",
    "capacity": 0,
    "openDays": [],
    "openDaysNote": ""
  },
  {
    "id": "2650980143",
    "name": "介護老人保健施設　洛和ヴィラウラノス",
    "kana": "カイゴロウジンホケンシセツ　ラクワゔィラウラノス",
    "address": "淀美豆町1133番地",
    "lat": 34.8956882,
    "lng": 135.7064797,
    "tel": "075-633-6010",
    "url": "www.rakuwa.or.jp",
    "pref": "京都府",
    "city": "京都市伏見区",
    "category": "rouken",
    "serviceType": "介護老人保健施設",
    "capacity": 0,
    "openDays": [],
    "openDaysNote": ""
  },
  {
    "id": "2650980069",
    "name": "介護老人保健施設あじさいガーデン伏見",
    "kana": "カイゴロウジンホケンシセツアジサイガーデンフシミ",
    "address": "京都府京都市伏見区向島ニノ丸町151番81",
    "lat": 34.914968,
    "lng": 135.769515,
    "tel": "075-601-6100",
    "url": "http://www.ajisai-kosyokai.com",
    "pref": "京都府",
    "city": "京都市伏見区",
    "category": "rouken",
    "serviceType": "介護老人保健施設",
    "capacity": 0,
    "openDays": [],
    "openDaysNote": ""
  },
  {
    "id": "2650980051",
    "name": "介護老人保健施設ハーモニーこが",
    "kana": "カイゴロウジンホケンシセツハーモニーコガ",
    "address": "京都市伏見区久我森の宮町3-6",
    "lat": 34.9415231,
    "lng": 135.7305987,
    "tel": "075-935-7100",
    "url": "http://kurashino-harmony.or.jp",
    "pref": "京都府",
    "city": "京都市伏見区",
    "category": "rouken",
    "serviceType": "介護老人保健施設",
    "capacity": 0,
    "openDays": [],
    "openDaysNote": ""
  },
  {
    "id": "2650980127",
    "name": "介護老人保健施設深草京しみず",
    "kana": "カイゴロウジンホケンシセツフカクサキョウシミズ",
    "address": "京都府京都市伏見区深草越後屋敷町17番地",
    "lat": 34.9493644,
    "lng": 135.7639459,
    "tel": "756461414",
    "url": "http://ksmcs.jp",
    "pref": "京都府",
    "city": "京都市伏見区",
    "category": "rouken",
    "serviceType": "介護老人保健施設",
    "capacity": 120,
    "openDays": [],
    "openDaysNote": ""
  },
  {
    "id": "2650980036",
    "name": "特定医療法人　桃仁会　老人保健施設　桃寿苑",
    "kana": "トクテイイリョウホウジン　トウジンカイ　ロウジンホケンシセツ　トウジュエン",
    "address": "京都府京都市伏見区向島津田町235-1",
    "lat": 34.9179121,
    "lng": 135.7623818,
    "tel": "075-612-3100",
    "url": "http://www.tojinkai.jp",
    "pref": "京都府",
    "city": "京都市伏見区",
    "category": "rouken",
    "serviceType": "介護老人保健施設",
    "capacity": 0,
    "openDays": [],
    "openDaysNote": ""
  },
  {
    "id": "2650980028",
    "name": "老人保健施設　第2アールそせい",
    "kana": "ロウジンホケンシセツ　ダイ２アールソセイ",
    "address": "京都市伏見区下鳥羽上三栖町129番地",
    "lat": 34.9332713,
    "lng": 135.7462194,
    "tel": "075-603-0851",
    "url": "http://www.soseikai.or.jp",
    "pref": "京都府",
    "city": "京都市伏見区",
    "category": "rouken",
    "serviceType": "介護老人保健施設",
    "capacity": 90,
    "openDays": [],
    "openDaysNote": ""
  },
  {
    "id": "2650980119",
    "name": "老人保健施設　白寿",
    "kana": "ロウジンホケンシセツ　ハクジュ",
    "address": "京都市伏見区石田森南町9番地",
    "lat": 34.9390305,
    "lng": 135.8050613,
    "tel": "075-572-8207",
    "url": "http://www.takedahp.or.jp/group/welfare/hakuju/index.html",
    "pref": "京都府",
    "city": "京都市伏見区",
    "category": "rouken",
    "serviceType": "介護老人保健施設",
    "capacity": 0,
    "openDays": [],
    "openDaysNote": ""
  },
  {
    "id": "2650980010",
    "name": "老人保健施設アールそせい",
    "kana": "ロウジンホケンシセツアールソセイ",
    "address": "京都市伏見区中島中道町87",
    "lat": 34.9466454961832,
    "lng": 135.745892769988,
    "tel": "075-603-7511",
    "url": "http://www.soseikai.or.jp/rsosei",
    "pref": "京都府",
    "city": "京都市伏見区",
    "category": "rouken",
    "serviceType": "介護老人保健施設",
    "capacity": 0,
    "openDays": [],
    "openDaysNote": ""
  },
  {
    "id": "2650180025",
    "name": "介護老人保健施設「がくさい」",
    "kana": "カイゴロウジンホケンシセツ「ガクサイ」",
    "address": "京都市北区鷹峯土天井町54番地",
    "lat": 35.0527762,
    "lng": 135.7325984,
    "tel": "075-494-0318",
    "url": "https://gakusai.or.jp/rouken",
    "pref": "京都府",
    "city": "京都市北区",
    "category": "rouken",
    "serviceType": "介護老人保健施設",
    "capacity": 100,
    "openDays": [],
    "openDaysNote": ""
  },
  {
    "id": "2650180017",
    "name": "介護老人保健施設ライブリィきぬかけ",
    "kana": "カイゴロウジンホケンシセツ　ライブリィキヌカケ",
    "address": "京都市北区大北山原谷乾町127-1",
    "lat": 35.0443629,
    "lng": 135.7187885,
    "tel": "075-466-5066",
    "url": "http://www.nananokai.com/",
    "pref": "京都府",
    "city": "京都市北区",
    "category": "rouken",
    "serviceType": "介護老人保健施設",
    "capacity": 0,
    "openDays": [],
    "openDaysNote": ""
  },
  {
    "id": "2653180014",
    "name": "介護老人保健施設　ケアセンター回生",
    "kana": "カイゴロウジンホケンシセツ　ケアセンターカイセイ",
    "address": "京都府向日市物集女町中海道19番地の5",
    "lat": 34.9627287,
    "lng": 135.691264,
    "tel": "075-934-6888",
    "url": "http://www.kaiseikai.or.jp/care-center/",
    "pref": "京都府",
    "city": "向日市",
    "category": "rouken",
    "serviceType": "介護老人保健施設",
    "capacity": 96,
    "openDays": [],
    "openDaysNote": ""
  },
  {
    "id": "2652880010",
    "name": "医療法人啓信会介護老人保健施設萌木の村",
    "kana": "イリョウホウジンケイシンカイカイゴロウジンホケンシセツモエギノムラ",
    "address": "京都府城陽市寺田奥山1-6",
    "lat": 34.8570274,
    "lng": 135.8020522,
    "tel": "0774-52-0011",
    "url": "http://www.kyoto-keishinkai.or.jp/moegi/shisetu/index.html",
    "pref": "京都府",
    "city": "城陽市",
    "category": "rouken",
    "serviceType": "介護老人保健施設",
    "capacity": 100,
    "openDays": [],
    "openDaysNote": ""
  },
  {
    "id": "2652880028",
    "name": "介護老人保健施設　煌",
    "kana": "カイゴロウジンホケンシセツ　キラメキ",
    "address": "城陽市長池五社ヶ谷14番地１",
    "lat": 34.8405679,
    "lng": 135.7986888,
    "tel": "0774-54-7211",
    "url": "http://minamiyamashiro.com/",
    "pref": "京都府",
    "city": "城陽市",
    "category": "rouken",
    "serviceType": "介護老人保健施設",
    "capacity": 100,
    "openDays": [],
    "openDaysNote": ""
  },
  {
    "id": "2651480010",
    "name": "介護老人保健施設　とちのき",
    "kana": "カイゴロウジンホケンシセツ　トチノキ",
    "address": "京都府相楽郡精華町精華台7丁目４－１",
    "lat": 34.7489803453983,
    "lng": 135.785847801714,
    "tel": "0774-98-2600",
    "url": "https://iseikai.jp",
    "pref": "京都府",
    "city": "精華町",
    "category": "rouken",
    "serviceType": "介護老人保健施設",
    "capacity": 0,
    "openDays": [],
    "openDaysNote": ""
  },
  {
    "id": "2653080024",
    "name": "医療法人同仁会（社団）介護老人保健施設マムフローラ",
    "kana": "イリョウホウジンドウジンカイ（シャダン）カイゴロウジンホケンシセツマムフローラ",
    "address": "長岡京市奥海印寺奥ノ院25-2",
    "lat": 34.9284259,
    "lng": 135.6752732,
    "tel": "075-958-3388",
    "url": "http://www.dojinkai.com",
    "pref": "京都府",
    "city": "長岡京市",
    "category": "rouken",
    "serviceType": "介護老人保健施設",
    "capacity": 0,
    "openDays": [],
    "openDaysNote": ""
  },
  {
    "id": "2653080032",
    "name": "介護老人保健施設　春風",
    "kana": "カイゴロウジンホケンシセツ　ハルカゼ",
    "address": "京都府長岡京市久貝1丁目6-23",
    "lat": 34.9118763492233,
    "lng": 135.696902541139,
    "tel": "075-953-6301",
    "url": "http://www.senshunkai.or.jp/",
    "pref": "京都府",
    "city": "長岡京市",
    "category": "rouken",
    "serviceType": "介護老人保健施設",
    "capacity": 0,
    "openDays": [],
    "openDaysNote": ""
  },
  {
    "id": "2653080040",
    "name": "介護老人保健施設　西山天王山",
    "kana": "カイゴロウジンホケンシセツニシヤマテンノウザン",
    "address": "友岡川原25-3",
    "lat": 34.9136985,
    "lng": 135.6878675,
    "tel": "075-959-1001",
    "url": "http://www.senshunkai.or.jp/",
    "pref": "京都府",
    "city": "長岡京市",
    "category": "rouken",
    "serviceType": "介護老人保健施設",
    "capacity": 0,
    "openDays": [],
    "openDaysNote": ""
  },
  {
    "id": "2653080016",
    "name": "老人保健施設　アゼリアガーデン",
    "kana": "ロウジンホケンシセツ　アゼリアガーデン",
    "address": "長岡京市友岡4丁目114番地",
    "lat": 34.9132546529411,
    "lng": 135.690064067459,
    "tel": "075-957-1112",
    "url": "http://www.nagaoka.or.jp",
    "pref": "京都府",
    "city": "長岡京市",
    "category": "rouken",
    "serviceType": "介護老人保健施設",
    "capacity": 0,
    "openDays": [],
    "openDaysNote": ""
  },
  {
    "id": "2653480018",
    "name": "介護老人保健施設　シミズふないの里",
    "kana": "カイゴロウジホケンシセツ　シミズフナイノサト",
    "address": "京都府南丹市八木町西田山崎16",
    "lat": 35.0775755682661,
    "lng": 135.540179676721,
    "tel": "0771-43-2111",
    "url": "http://www.shimizu-hospital.or.jp/kaigo/care/funai/index.php",
    "pref": "京都府",
    "city": "南丹市",
    "category": "rouken",
    "serviceType": "介護老人保健施設",
    "capacity": 150,
    "openDays": [],
    "openDaysNote": ""
  },
  {
    "id": "2653480026",
    "name": "老人保健施設　はぎの里",
    "kana": "ロウジンホケンシセツ　ハギノサト",
    "address": "京都府南丹市日吉町保野田萩原1番地1",
    "lat": 35.1838936,
    "lng": 135.487266,
    "tel": "0771-72-1510",
    "url": "http://web1.kcn.jp/haginosato/",
    "pref": "京都府",
    "city": "南丹市",
    "category": "rouken",
    "serviceType": "介護老人保健施設",
    "capacity": 100,
    "openDays": [],
    "openDaysNote": ""
  },
  {
    "id": "2652980026",
    "name": "医療法人社団医聖会　介護老人保健施設梨の里",
    "kana": "イリョウホウジンシャダンイセイカイ　カイゴロウジンホケンシセツナシノサト",
    "address": "京都府八幡市八幡柿木垣内25番地1",
    "lat": 34.8704660488663,
    "lng": 135.707498358197,
    "tel": "075-982-0125",
    "url": "http://www.iseikai.jp",
    "pref": "京都府",
    "city": "八幡市",
    "category": "rouken",
    "serviceType": "介護老人保健施設",
    "capacity": 100,
    "openDays": [],
    "openDaysNote": ""
  },
  {
    "id": "2652980018",
    "name": "介護老人保健施設　石清水",
    "kana": "カイゴロウジンホケンシセツ　イワシミズ",
    "address": "京都府八幡市川口別所66",
    "lat": 34.8743808,
    "lng": 135.7169839,
    "tel": "075-972-2111",
    "url": "http://www.iseikai.jp/sisetsu/shimizu/",
    "pref": "京都府",
    "city": "八幡市",
    "category": "rouken",
    "serviceType": "介護老人保健施設",
    "capacity": 100,
    "openDays": [],
    "openDaysNote": ""
  },
  {
    "id": "2652780020",
    "name": "介護老人保健施設アザレア舞鶴",
    "kana": "カイゴロウジンホケンシセツアザレアマイヅル",
    "address": "京都府舞鶴市大字和田小字中田１０５５－１",
    "lat": 35.4721977256293,
    "lng": 135.341676342656,
    "tel": "0773-66-6680",
    "url": "https://seihoukai-grp.jp/facility_post/maizuru",
    "pref": "京都府",
    "city": "舞鶴市",
    "category": "rouken",
    "serviceType": "介護老人保健施設",
    "capacity": 0,
    "openDays": [],
    "openDaysNote": ""
  },
  {
    "id": "2652780038",
    "name": "介護老人保健施設エスペラル東舞鶴",
    "kana": "カイゴロウジンホケンシセツエスペラルヒガシマイヅル",
    "address": "京都府舞鶴市字大波下小字前田765番16",
    "lat": 35.5023496028794,
    "lng": 135.39924746624,
    "tel": "0773-66-6700",
    "url": "https://esp.iseikaihp.com/fcl/esp-hm/",
    "pref": "京都府",
    "city": "舞鶴市",
    "category": "rouken",
    "serviceType": "介護老人保健施設",
    "capacity": 150,
    "openDays": [],
    "openDaysNote": ""
  },
  {
    "id": "2652780012",
    "name": "舞鶴共済病院　介護老人保健施設　すこやかの森",
    "kana": "マイヅルキョウサイビョウイン　カイゴロウジンホケンシセツ　スコヤカノモリ",
    "address": "京都府舞鶴市字引土630番地",
    "lat": 35.4364508,
    "lng": 135.3235929,
    "tel": "0773-78-3001",
    "url": "https://www.sukoyakanomori.com",
    "pref": "京都府",
    "city": "舞鶴市",
    "category": "rouken",
    "serviceType": "介護老人保健施設",
    "capacity": 0,
    "openDays": [],
    "openDaysNote": ""
  },
  {
    "id": "2652680022",
    "name": "介護老人保健施設「さくら苑」",
    "kana": "カイゴロウジンホケンシセツサクラエン",
    "address": "京都府福知山市字堀小字大岩谷3374番地",
    "lat": 35.2705486781732,
    "lng": 135.12397715051,
    "tel": "0773-22-2120",
    "url": "https://fukuchikai.or.jp/sakura/index.php",
    "pref": "京都府",
    "city": "福知山市",
    "category": "rouken",
    "serviceType": "介護老人保健施設",
    "capacity": 0,
    "openDays": [],
    "openDaysNote": ""
  },
  {
    "id": "2652680014",
    "name": "老人保健施設　第一緑風苑",
    "kana": "ロウジンホケンシセツダイイチリョクフウエン",
    "address": "福知山市土師宮町2丁目173番地",
    "lat": 35.2918679,
    "lng": 135.1442502,
    "tel": "0773-27-6100",
    "url": "http://www.suiseikai-group.org/",
    "pref": "京都府",
    "city": "福知山市",
    "category": "rouken",
    "serviceType": "介護老人保健施設",
    "capacity": 0,
    "openDays": [],
    "openDaysNote": ""
  },
  {
    "id": "2653580015",
    "name": "介護老人保健施設　やましろ",
    "kana": "カイゴロウジンホケンシセツ　ヤマシロ",
    "address": "京都府木津川市木津駅前一丁目27番地",
    "lat": 34.7359548022548,
    "lng": 135.823587317197,
    "tel": "0774-73-0359",
    "url": "http://www.yamashiro-hp.jp",
    "pref": "京都府",
    "city": "木津川市",
    "category": "rouken",
    "serviceType": "介護老人保健施設",
    "capacity": 66,
    "openDays": [],
    "openDaysNote": ""
  }
]