[
  {
    "id": "4151280015",
    "name": "介護老人保健施設　アザレア",
    "kana": "カイゴロウジンホケンシセツ　アザレア",
    "address": "佐賀県三養基郡みやき町大字簑原1116－1",
    "lat": 33.349077,
    "lng": 130.4434482,
    "tel": "0942-94-4488",
    "url": "https://www.gajumaru.or.jp/yume/",
    "pref": "佐賀県",
    "city": "みやき町",
    "category": "rouken",
    "serviceType": "介護老人保健施設",
    "capacity": 80,
    "openDays": [],
    "openDaysNote": ""
  },
  {
    "id": "4150580027",
    "name": "介護老人保健施設　ケアポート楽寿園",
    "kana": "カイゴロウジンホケンシセツ　ケアポート　ラクジュエン",
    "address": "佐賀県伊万里市二里町八谷搦1224番地",
    "lat": 33.2791334,
    "lng": 129.8659981,
    "tel": "0955-23-1680",
    "url": "http://www.kenjin-kai.com/rakujyuen/",
    "pref": "佐賀県",
    "city": "伊万里市",
    "category": "rouken",
    "serviceType": "介護老人保健施設",
    "capacity": 0,
    "openDays": [],
    "openDaysNote": ""
  },
  {
    "id": "4150580019",
    "name": "介護老人保健施設　西光苑",
    "kana": "カイゴロウジンホケンシセツ　セイコウエン",
    "address": "佐賀県伊万里市山代町峰6545番地11",
    "lat": 33.2988472,
    "lng": 129.8172183,
    "tel": "0955-28-1115",
    "url": "http://imari-seikouen.com",
    "pref": "佐賀県",
    "city": "伊万里市",
    "category": "rouken",
    "serviceType": "介護老人保健施設",
    "capacity": 0,
    "openDays": [],
    "openDaysNote": ""
  },
  {
    "id": "4151280023",
    "name": "老人保健施設あおぞら",
    "kana": "ロウジンホケンシセツアオゾラ",
    "address": "佐賀県三養基郡基山町大字園部2307番地",
    "lat": 33.4181642,
    "lng": 130.5012952,
    "tel": "0942-92-2626",
    "url": "http://www.jurakuen.jp/",
    "pref": "佐賀県",
    "city": "基山町",
    "category": "rouken",
    "serviceType": "介護老人保健施設",
    "capacity": 80,
    "openDays": [],
    "openDaysNote": ""
  },
  {
    "id": "4151780014",
    "name": "介護老人保健施設　朋寿苑",
    "kana": "カイゴロウジンホケンシセツ　ホウジュエン",
    "address": "佐賀県嬉野市嬉野町大字下宿乙1919番地",
    "lat": 33.1010402,
    "lng": 129.9754322,
    "tel": "0954-42-2900",
    "url": "http://www.yuhokai.com",
    "pref": "佐賀県",
    "city": "嬉野市",
    "category": "rouken",
    "serviceType": "介護老人保健施設",
    "capacity": 80,
    "openDays": [],
    "openDaysNote": ""
  },
  {
    "id": "4151680057",
    "name": "ユートピアしゃくなげ",
    "kana": "ユートピアシャクナゲ",
    "address": "佐賀県杵島郡江北町大字惣領分２４２０番地１",
    "lat": 33.2240116,
    "lng": 130.1731045,
    "tel": "０９５２－７１－６１６１",
    "url": "www.keitendo.jp",
    "pref": "佐賀県",
    "city": "江北町",
    "category": "rouken",
    "serviceType": "介護老人保健施設",
    "capacity": null,
    "openDays": [],
    "openDaysNote": ""
  },
  {
    "id": "4151080068",
    "name": "医療法人社団　杠葉会　介護老人保健施設　白寿園",
    "kana": "イリョウホウジン　シャダン　ユズリハカイ　カイゴロウジンホケンシセツハクジュエン",
    "address": "佐賀県佐賀市諸富町大字諸富津220番地",
    "lat": 33.2210926,
    "lng": 130.361822,
    "tel": "0952-47-5115",
    "url": "http://www.morodomi-ch.or.jp",
    "pref": "佐賀県",
    "city": "佐賀市",
    "category": "rouken",
    "serviceType": "介護老人保健施設",
    "capacity": null,
    "openDays": [],
    "openDaysNote": ""
  },
  {
    "id": "4150180042",
    "name": "介護老人保健施設　きりん",
    "kana": "カイゴロウジンホケンシセツ　キリン",
    "address": "佐賀市金立町大字薬師丸1274-1",
    "lat": 33.3023567,
    "lng": 130.3146885,
    "tel": "0952-98-0120",
    "url": "http://www.kirin-saga.or.jp",
    "pref": "佐賀県",
    "city": "佐賀市",
    "category": "rouken",
    "serviceType": "介護老人保健施設",
    "capacity": 80,
    "openDays": [],
    "openDaysNote": ""
  },
  {
    "id": "4151080027",
    "name": "介護老人保健施設　しょうぶ苑",
    "kana": "カイゴロウジンホケンシセツショウブエン",
    "address": "佐賀県佐賀市大和町大字尼寺3227-1",
    "lat": 33.3024226,
    "lng": 130.2758333,
    "tel": "0952-62-6511",
    "url": "https://shobuen.com/",
    "pref": "佐賀県",
    "city": "佐賀市",
    "category": "rouken",
    "serviceType": "介護老人保健施設",
    "capacity": 0,
    "openDays": [],
    "openDaysNote": ""
  },
  {
    "id": "4150180026",
    "name": "介護老人保健施設　シルバーケア佐賀",
    "kana": "カイゴロウジンホケンシセツ　　シルバーケアサガ",
    "address": "佐賀市高木瀬町大字長瀬1307番地",
    "lat": 33.2911931,
    "lng": 130.2873857,
    "tel": "0952-37-8783",
    "url": "http://silvercare-saga.com/",
    "pref": "佐賀県",
    "city": "佐賀市",
    "category": "rouken",
    "serviceType": "介護老人保健施設",
    "capacity": 0,
    "openDays": [],
    "openDaysNote": ""
  },
  {
    "id": "4150180034",
    "name": "介護老人保健施設　みどりの園",
    "kana": "カイゴロウジンホケンシセツ　ミドリノソノ",
    "address": "佐賀市兵庫町大字渕1912番地１",
    "lat": 33.281453,
    "lng": 130.3134698,
    "tel": "0952-33-9977",
    "url": "http://shunyoukai.jp",
    "pref": "佐賀県",
    "city": "佐賀市",
    "category": "rouken",
    "serviceType": "介護老人保健施設",
    "capacity": 0,
    "openDays": [],
    "openDaysNote": ""
  },
  {
    "id": "4151080043",
    "name": "介護老人保健施設　メイプルハウス",
    "kana": "カイゴロウジンホケンシセツ　メイプルハウス",
    "address": "佐賀県佐賀市川副町大字早津江265番地",
    "lat": 33.2048939,
    "lng": 130.3360469,
    "tel": "0952-45-8161",
    "url": "http://www.",
    "pref": "佐賀県",
    "city": "佐賀市",
    "category": "rouken",
    "serviceType": "介護老人保健施設",
    "capacity": null,
    "openDays": [],
    "openDaysNote": ""
  },
  {
    "id": "4151080035",
    "name": "介護老人保健施設　レストピア",
    "kana": "カイゴロウジンホケンシセツ　レストピア",
    "address": "佐賀市東与賀町大字下古賀1349番地",
    "lat": 33.2004911,
    "lng": 130.2925712,
    "tel": "0952-45-8181",
    "url": "",
    "pref": "佐賀県",
    "city": "佐賀市",
    "category": "rouken",
    "serviceType": "介護老人保健施設",
    "capacity": 0,
    "openDays": [],
    "openDaysNote": ""
  },
  {
    "id": "4151080076",
    "name": "介護老人保健施設　徐福の里",
    "kana": "カイゴ　ロウジン　ホケン　シセツ　ジョフクノサト",
    "address": "佐賀県　佐賀市　諸富町大字　大堂　１０４９－４",
    "lat": 33.2360213,
    "lng": 130.3544425,
    "tel": "0952-34-8880",
    "url": "http://moriyama-clinic.com",
    "pref": "佐賀県",
    "city": "佐賀市",
    "category": "rouken",
    "serviceType": "介護老人保健施設",
    "capacity": 79,
    "openDays": [],
    "openDaysNote": ""
  },
  {
    "id": "4150180059",
    "name": "介護老人保健施設エバーグリーン",
    "kana": "カイゴロウジンホケンシセツエバーグリーン",
    "address": "佐賀県佐賀市嘉瀬町中原1965-1",
    "lat": 33.2429048,
    "lng": 130.2587507,
    "tel": "0952-22-2300",
    "url": "http://www.shimada.or.jp/",
    "pref": "佐賀県",
    "city": "佐賀市",
    "category": "rouken",
    "serviceType": "介護老人保健施設",
    "capacity": 0,
    "openDays": [],
    "openDaysNote": ""
  },
  {
    "id": "4151080050",
    "name": "介護老人保健施設シンフォニー佐賀",
    "kana": "カイゴロウジンホケンシセツシンフォニーサガ",
    "address": "佐賀県佐賀市久保田町大字新田３６７９",
    "lat": 33.2247053874838,
    "lng": 130.241914613492,
    "tel": "0952-68-4070",
    "url": "http://www.youyuukai-heiseikai.jp/",
    "pref": "佐賀県",
    "city": "佐賀市",
    "category": "rouken",
    "serviceType": "介護老人保健施設",
    "capacity": 0,
    "openDays": [],
    "openDaysNote": ""
  },
  {
    "id": "4150180018",
    "name": "介護老人保健施設ライフエイド",
    "kana": "カイゴロウジンホケンシセツライフエイド",
    "address": "佐賀市久保泉町大字川久保5403",
    "lat": 33.3401702,
    "lng": 130.3239855,
    "tel": "0952-98-3377",
    "url": "http://seiyuukai.org/",
    "pref": "佐賀県",
    "city": "佐賀市",
    "category": "rouken",
    "serviceType": "介護老人保健施設",
    "capacity": 0,
    "openDays": [],
    "openDaysNote": ""
  },
  {
    "id": "4150180067",
    "name": "独立行政法人地域医療機能推進機構　佐賀中部病院附属介護老人保健施設",
    "kana": "ドクリツギョウセイホウジンチイキイリョウキノウスイシンキコウ　サガチュウブビョウインフゾクカイゴロウジンホケンシセツ",
    "address": "佐賀市兵庫南三丁目8-1",
    "lat": 33.2645908,
    "lng": 130.3184143,
    "tel": "0952-22-3121",
    "url": "http://saga.jcho.go.jp.rouken/",
    "pref": "佐賀県",
    "city": "佐賀市",
    "category": "rouken",
    "serviceType": "介護老人保健施設",
    "capacity": 0,
    "openDays": [],
    "openDaysNote": ""
  },
  {
    "id": "4150780015",
    "name": "ケアコートゆうあい",
    "kana": "ケアコートユウアイ",
    "address": "佐賀県鹿島市大字高津原2962番地1",
    "lat": 33.1049319,
    "lng": 130.0845205,
    "tel": "0954-63-5533",
    "url": "http://www.yuaivillage.com/",
    "pref": "佐賀県",
    "city": "鹿島市",
    "category": "rouken",
    "serviceType": "介護老人保健施設",
    "capacity": 80,
    "openDays": [],
    "openDaysNote": ""
  },
  {
    "id": "4151380021",
    "name": "介護老人保健施設　徳富医院",
    "kana": "カイゴロウジンホケンシセツ　トクトミイイン",
    "address": "佐賀県小城市芦刈町三王崎３１６－３",
    "lat": 33.22205,
    "lng": 130.2086336,
    "tel": "0952-66-1547",
    "url": "http://www.harano-clinic.org/tokutomi",
    "pref": "佐賀県",
    "city": "小城市",
    "category": "rouken",
    "serviceType": "介護老人保健施設",
    "capacity": 14,
    "openDays": [],
    "openDaysNote": ""
  },
  {
    "id": "4151380013",
    "name": "介護老人保健施設蛍水荘",
    "kana": "カイゴロウジンホケンシセツケイスイソウ",
    "address": "佐賀県小城市小城町８１４－１",
    "lat": 33.3013679,
    "lng": 130.2052048,
    "tel": "0952-72-1717",
    "url": "http://www.keisuiso@po.hagakure.ne.jp",
    "pref": "佐賀県",
    "city": "小城市",
    "category": "rouken",
    "serviceType": "介護老人保健施設",
    "capacity": 0,
    "openDays": [],
    "openDaysNote": ""
  },
  {
    "id": "4151180017",
    "name": "介護老人保健施設　うぶすな",
    "kana": "カイゴロウジンホケンシセツ　ウブスナ",
    "address": "佐賀県神埼市神埼町永歌1021",
    "lat": 33.2973223,
    "lng": 130.3762105,
    "tel": "0952-52-8990",
    "url": "https://kyuwakai.jp/wada_memorial_clinic/",
    "pref": "佐賀県",
    "city": "神埼市",
    "category": "rouken",
    "serviceType": "介護老人保健施設",
    "capacity": 0,
    "openDays": [],
    "openDaysNote": ""
  },
  {
    "id": "4150480012",
    "name": "介護老人保健施設　ケアハイツやすらぎ",
    "kana": "カイゴロウジンホケンシセツ　ケアハイツヤスラギ",
    "address": "佐賀県多久市南多久町大字下多久２１１８番地１７３",
    "lat": 33.2837214,
    "lng": 130.1168573,
    "tel": "0952-75-4165",
    "url": "http://yasuragi.tenjyukai.com/",
    "pref": "佐賀県",
    "city": "多久市",
    "category": "rouken",
    "serviceType": "介護老人保健施設",
    "capacity": 0,
    "openDays": [],
    "openDaysNote": ""
  },
  {
    "id": "4150480020",
    "name": "介護老人保健施設　多久いこいの里",
    "kana": "カイゴロウジンホケンシセツ　タクイコイノサト",
    "address": "佐賀県多久市北多久町多久原2512-24",
    "lat": 33.2848158,
    "lng": 130.1130743,
    "tel": "0952-75-3551",
    "url": "http://www.koujinkai.net/",
    "pref": "佐賀県",
    "city": "多久市",
    "category": "rouken",
    "serviceType": "介護老人保健施設",
    "capacity": 0,
    "openDays": [],
    "openDaysNote": ""
  },
  {
    "id": "4150480038",
    "name": "介護老人保健施設　多久いこいの里",
    "kana": "カイゴロウジンホケンシセツ　タクイコイノサト",
    "address": "佐賀県多久市北多久町多久原2512-24",
    "lat": 33.2848158,
    "lng": 130.1130743,
    "tel": "0952-75-3551",
    "url": "http://www.koujinkai.net/",
    "pref": "佐賀県",
    "city": "多久市",
    "category": "rouken",
    "serviceType": "介護老人保健施設",
    "capacity": 0,
    "openDays": [],
    "openDaysNote": ""
  },
  {
    "id": "4151780022",
    "name": "介護老人保健施設ふるさとの森",
    "kana": "カイゴロウジンホケンシセツフルサトノモリ",
    "address": "佐賀県藤津郡太良町大字糸岐6797番地１",
    "lat": 33.0159017,
    "lng": 130.1630413,
    "tel": "0954-67-9002",
    "url": "https://furusatonomori1998.com/",
    "pref": "佐賀県",
    "city": "太良町",
    "category": "rouken",
    "serviceType": "介護老人保健施設",
    "capacity": 0,
    "openDays": [],
    "openDaysNote": ""
  },
  {
    "id": "4151680032",
    "name": "介護老人保健施設敬松苑",
    "kana": "カイゴロウジンホケンシセツ　ケイショウエン",
    "address": "佐賀県杵島郡大町町大字福母７０７番地１",
    "lat": 33.2079735,
    "lng": 130.1025236,
    "tel": "0952-82-3162",
    "url": "http://www.juntendo.or.jp",
    "pref": "佐賀県",
    "city": "大町町",
    "category": "rouken",
    "serviceType": "介護老人保健施設",
    "capacity": 70,
    "openDays": [],
    "openDaysNote": ""
  },
  {
    "id": "4150380014",
    "name": "介護老人保健施設　寿夢の郷",
    "kana": "カイゴロウジンホケンシセツ　スムノサト",
    "address": "佐賀県鳥栖市高田町205-1",
    "lat": 33.3476461,
    "lng": 130.5255312,
    "tel": "0942-84-5888",
    "url": "http://www.koukodou.or.jp/",
    "pref": "佐賀県",
    "city": "鳥栖市",
    "category": "rouken",
    "serviceType": "介護老人保健施設",
    "capacity": 0,
    "openDays": [],
    "openDaysNote": ""
  },
  {
    "id": "4150380022",
    "name": "介護老人保健施設　寿夢の郷",
    "kana": "カイゴロウジンホケンシセツ　スムノサト",
    "address": "佐賀県鳥栖市高田町205番地1",
    "lat": 33.3476461,
    "lng": 130.5255312,
    "tel": "0942-84-5888",
    "url": "www.koukodou.or.jp",
    "pref": "佐賀県",
    "city": "鳥栖市",
    "category": "rouken",
    "serviceType": "介護老人保健施設",
    "capacity": 0,
    "openDays": [],
    "openDaysNote": ""
  },
  {
    "id": "4151480011",
    "name": "介護老人保健施設　ケアハイツ虹",
    "kana": "カイゴロウジンホケンシセツ　ケアハイツニジ",
    "address": "唐津市浜玉町横田下177",
    "lat": 33.4314261,
    "lng": 130.0434582,
    "tel": "0955-56-2572",
    "url": "http://www.shouraikai.jp/",
    "pref": "佐賀県",
    "city": "唐津市",
    "category": "rouken",
    "serviceType": "介護老人保健施設",
    "capacity": null,
    "openDays": [],
    "openDaysNote": ""
  },
  {
    "id": "4150280040",
    "name": "介護老人保健施設　城内荘",
    "kana": "カイゴロウジンホケンシセツ　ジョウナイソウ",
    "address": "唐津市　南城内３番４０号",
    "lat": 33.4503377,
    "lng": 129.9697445,
    "tel": "0955-75-5070",
    "url": "http://sankenkai.jimdo.com/",
    "pref": "佐賀県",
    "city": "唐津市",
    "category": "rouken",
    "serviceType": "介護老人保健施設",
    "capacity": 50,
    "openDays": [],
    "openDaysNote": ""
  },
  {
    "id": "4151480029",
    "name": "介護老人保健施設アメニティきゅうらぎ",
    "kana": "カイゴロウジンホケンシセツアメニティキュウラギ",
    "address": "佐賀県唐津市厳木町岩屋５０５番地",
    "lat": 33.316529,
    "lng": 130.0325001,
    "tel": "0955-51-5222",
    "url": "https://www.hp-hirakawa.com/kyuragi",
    "pref": "佐賀県",
    "city": "唐津市",
    "category": "rouken",
    "serviceType": "介護老人保健施設",
    "capacity": 70,
    "openDays": [],
    "openDaysNote": ""
  },
  {
    "id": "4150280024",
    "name": "介護老人保健施設セントポーリア",
    "kana": "カイゴロウジンホケンシセツ　セントポーリア",
    "address": "佐賀県唐津市佐志石ヶ元2119-2",
    "lat": 33.4679389082263,
    "lng": 129.928964494217,
    "tel": "0955-74-2622",
    "url": "http://karatsu-kaigo.com/facility/",
    "pref": "佐賀県",
    "city": "唐津市",
    "category": "rouken",
    "serviceType": "介護老人保健施設",
    "capacity": 0,
    "openDays": [],
    "openDaysNote": ""
  },
  {
    "id": "4150280032",
    "name": "介護老人保健施設のぞみ",
    "kana": "カイゴロウジンホケンシセツ　ノゾミ",
    "address": "佐賀県唐津市養母田553-1",
    "lat": 33.4127368,
    "lng": 129.9844631,
    "tel": "0955-73-7000",
    "url": "http://www.shujinkai.or.jp",
    "pref": "佐賀県",
    "city": "唐津市",
    "category": "rouken",
    "serviceType": "介護老人保健施設",
    "capacity": 0,
    "openDays": [],
    "openDaysNote": ""
  },
  {
    "id": "4150280016",
    "name": "済生会介護老人保健施設まつら荘",
    "kana": "サイセイカイカイゴロウジンホケンシセツマツラソウ",
    "address": "唐津市江川町６９４番地1",
    "lat": 33.4540848251409,
    "lng": 129.963461264748,
    "tel": "0955-74-3138",
    "url": "http://matsurasou.jp/",
    "pref": "佐賀県",
    "city": "唐津市",
    "category": "rouken",
    "serviceType": "介護老人保健施設",
    "capacity": 0,
    "openDays": [],
    "openDaysNote": ""
  },
  {
    "id": "4150280057",
    "name": "済生会介護老人保健施設ユニット型まつら荘",
    "kana": "サイセイカイカイゴロウジンホケンシセツユニットガタマツラソウ",
    "address": "唐津市江川町６９４番地１",
    "lat": 33.4540175769141,
    "lng": 129.963336539846,
    "tel": "0955-74-3138",
    "url": "http://matsurasou.jp/",
    "pref": "佐賀県",
    "city": "唐津市",
    "category": "rouken",
    "serviceType": "介護老人保健施設",
    "capacity": 60,
    "openDays": [],
    "openDaysNote": ""
  },
  {
    "id": "4151680065",
    "name": "介護老人保健施設　清涼荘",
    "kana": "カイゴロウジンホケンシセツ　セイリョウソウ",
    "address": "佐賀県杵島郡白石町大字戸ヶ里1831番地18",
    "lat": 33.1548033,
    "lng": 130.1247696,
    "tel": "0954-65-4807",
    "url": "https://shijikai.com/",
    "pref": "佐賀県",
    "city": "白石町",
    "category": "rouken",
    "serviceType": "介護老人保健施設",
    "capacity": null,
    "openDays": [],
    "openDaysNote": ""
  },
  {
    "id": "4151680024",
    "name": "介護老人保健施設　白い石",
    "kana": "カイゴロウジンホケンシセツ　シロイイシ",
    "address": "佐賀県杵島郡白石町福吉1808",
    "lat": 33.185696,
    "lng": 130.1534424,
    "tel": "0952-84-7000",
    "url": "https://tougen.or.jp",
    "pref": "佐賀県",
    "city": "白石町",
    "category": "rouken",
    "serviceType": "介護老人保健施設",
    "capacity": 80,
    "openDays": [],
    "openDaysNote": ""
  },
  {
    "id": "4150680017",
    "name": "介護老人保健施設　コスモス",
    "kana": "カイゴロウジンホケンシセツ　コスモス",
    "address": "佐賀県武雄市武雄町大字永島13821番地",
    "lat": 33.1928046,
    "lng": 130.034638,
    "tel": "0954-20-1231",
    "url": "http://shinoda-seikei.com/",
    "pref": "佐賀県",
    "city": "武雄市",
    "category": "rouken",
    "serviceType": "介護老人保健施設",
    "capacity": 80,
    "openDays": [],
    "openDaysNote": ""
  },
  {
    "id": "4150680025",
    "name": "介護老人保健施設たんぽぽ",
    "kana": "カイゴロウジンホケンシセツタンポポ",
    "address": "佐賀県武雄市朝日町大字中野１１２９６－１",
    "lat": 33.2272036,
    "lng": 130.0303764,
    "tel": "0954-26-0311",
    "url": "https://www.ufokai.com",
    "pref": "佐賀県",
    "city": "武雄市",
    "category": "rouken",
    "serviceType": "介護老人保健施設",
    "capacity": 80,
    "openDays": [],
    "openDaysNote": ""
  },
  {
    "id": "4151580018",
    "name": "介護老人保健施設　グリーンヒル幸寿園",
    "kana": "カイゴロウジンホケンシセツ　グリーンヒルコウジュエン",
    "address": "西松浦郡有田町南原甲678番地1",
    "lat": 33.1936192924124,
    "lng": 129.86264584202,
    "tel": "0955-41-1070",
    "url": "http://www.kenjin-kai.com/koujyuen/",
    "pref": "佐賀県",
    "city": "有田町",
    "category": "rouken",
    "serviceType": "介護老人保健施設",
    "capacity": 0,
    "openDays": [],
    "openDaysNote": ""
  }
]