[
  {
    "id": "2854180037",
    "name": "介護老人保健施設　シルバーケア揖保川",
    "kana": "カイゴロウジンホケンシセツ　シルバーケアイボガワ",
    "address": "兵庫県たつの市揖保川町半田７０３番地１シルバーケア揖保川 シルバーケア揖保川",
    "lat": 34.8468219309705,
    "lng": 134.537348763368,
    "tel": "0791-72-6260",
    "url": "https://www.ibogawa-hospital.jp/silvercare/index.html",
    "pref": "兵庫県",
    "city": "たつの市",
    "category": "rouken",
    "serviceType": "介護老人保健施設",
    "capacity": 0,
    "openDays": [],
    "openDaysNote": ""
  },
  {
    "id": "2853680011",
    "name": "老人保健施設　旭陽",
    "kana": "ロウジンホケンシセツ　アサヒ",
    "address": "たつの市揖西町小神字塚原１５５６－１",
    "lat": 34.8603788,
    "lng": 134.5330306,
    "tel": "0791-66-1472",
    "url": "http//www.kuwanomien.jp/",
    "pref": "兵庫県",
    "city": "たつの市",
    "category": "rouken",
    "serviceType": "介護老人保健施設",
    "capacity": 0,
    "openDays": [],
    "openDaysNote": ""
  },
  {
    "id": "2851080024",
    "name": "エルステイ芦屋",
    "kana": "エルステイアシヤ",
    "address": "兵庫県芦屋市浜町12番3号",
    "lat": 34.7259608,
    "lng": 135.3166861,
    "tel": "0797-35-8341",
    "url": "https://ellehome.jp/",
    "pref": "兵庫県",
    "city": "芦屋市",
    "category": "rouken",
    "serviceType": "介護老人保健施設",
    "capacity": 0,
    "openDays": [],
    "openDaysNote": ""
  },
  {
    "id": "2851080016",
    "name": "医療法人昭圭会　介護老人保健施設さくらの園",
    "kana": "イリョウホウジンショウケイカイ　カイゴロウジンホケンシセツサクラノソノ",
    "address": "芦屋市陽光町3番21号",
    "lat": 34.7128676,
    "lng": 135.3140698,
    "tel": "0797-21-5181",
    "url": "www.s-ashiyahama-hp.or.jp",
    "pref": "兵庫県",
    "city": "芦屋市",
    "category": "rouken",
    "serviceType": "介護老人保健施設",
    "capacity": 0,
    "openDays": [],
    "openDaysNote": ""
  },
  {
    "id": "2851080032",
    "name": "介護老人保健施設　マイライフ芦屋",
    "kana": "カイゴロウジンホケンシセツ　マイライフアシヤ",
    "address": "芦屋市陽光町8-30",
    "lat": 34.7136508,
    "lng": 135.3200497,
    "tel": "0797-38-8840",
    "url": "https://www.keijin-kai.com/",
    "pref": "兵庫県",
    "city": "芦屋市",
    "category": "rouken",
    "serviceType": "介護老人保健施設",
    "capacity": 0,
    "openDays": [],
    "openDaysNote": ""
  },
  {
    "id": "2851080040",
    "name": "介護老人保健施設　愛しや",
    "kana": "カイゴロウジンホケンシセツ　アシヤ",
    "address": "兵庫県芦屋市浜風町３１－３",
    "lat": 34.7181227,
    "lng": 135.3212218,
    "tel": "0797-23-7300",
    "url": "http://meirinfukushi.or.jp/ashiya/",
    "pref": "兵庫県",
    "city": "芦屋市",
    "category": "rouken",
    "serviceType": "介護老人保健施設",
    "capacity": 0,
    "openDays": [],
    "openDaysNote": ""
  },
  {
    "id": "2853380042",
    "name": "介護老人保健施設　伊丹ゆうあい",
    "kana": "カイゴロウジンホケンシセツ　イタミユウアイ",
    "address": "兵庫県伊丹市荒牧６丁目16-2伊丹ゆうあい 伊丹ゆうあい",
    "lat": 34.8123583,
    "lng": 135.3876534,
    "tel": "072-781-2587",
    "url": "http://seishokai-gr.or.jp/index.htm",
    "pref": "兵庫県",
    "city": "伊丹市",
    "category": "rouken",
    "serviceType": "介護老人保健施設",
    "capacity": 100,
    "openDays": [],
    "openDaysNote": ""
  },
  {
    "id": "2853380059",
    "name": "介護老人保健施設グリーンアルス伊丹",
    "kana": "カイゴロウジンホケンシセツグリーンアルスイタミ",
    "address": "伊丹市西野３丁目２４０番地",
    "lat": 34.79083,
    "lng": 135.3754746,
    "tel": "072-779-6600",
    "url": "http://www.ryokushinkai.jp",
    "pref": "兵庫県",
    "city": "伊丹市",
    "category": "rouken",
    "serviceType": "介護老人保健施設",
    "capacity": 0,
    "openDays": [],
    "openDaysNote": ""
  },
  {
    "id": "2852880018",
    "name": "介護老人保健施設　サンライズ",
    "kana": "カイゴロウジンホケンシセツ　サンライズ",
    "address": "兵庫県加古郡稲美町国安１２３７番地",
    "lat": 34.7464658,
    "lng": 134.9174728,
    "tel": "079-496-5211",
    "url": "https://hinode.or.jp/establishment/sunrize/",
    "pref": "兵庫県",
    "city": "稲美町",
    "category": "rouken",
    "serviceType": "介護老人保健施設",
    "capacity": 0,
    "openDays": [],
    "openDaysNote": ""
  },
  {
    "id": "2852280029",
    "name": "介護老人保健施設　ハイムゾンネ宝寿苑",
    "kana": "カイゴロウジンホケンシセツ　ハイムゾンネホウジュエン",
    "address": "兵庫県加古川市東神吉町神吉７０８－１",
    "lat": 34.7892501,
    "lng": 134.8202208,
    "tel": "079-432-2051",
    "url": "https://kyoritsukai.or.jp/houju/index.html",
    "pref": "兵庫県",
    "city": "加古川市",
    "category": "rouken",
    "serviceType": "介護老人保健施設",
    "capacity": 0,
    "openDays": [],
    "openDaysNote": ""
  },
  {
    "id": "2852280045",
    "name": "介護老人保健施設　加古川白寿苑",
    "kana": "カイゴロウジンホケンシセツ　カコガワハクジュエン",
    "address": "兵庫県加古川市野口町坂井字西ノ大町58-1",
    "lat": 34.7384026682856,
    "lng": 134.846960638236,
    "tel": "079-430-0033",
    "url": "http://www.junshin.or.jp",
    "pref": "兵庫県",
    "city": "加古川市",
    "category": "rouken",
    "serviceType": "介護老人保健施設",
    "capacity": 70,
    "openDays": [],
    "openDaysNote": ""
  },
  {
    "id": "2872203548",
    "name": "介護老人保健施設　加古川白寿苑",
    "kana": "カイゴロウジンホケンシセツ　カコガワハクジュエン",
    "address": "兵庫県加古川市野口町坂井字西ノ大町58-1",
    "lat": 34.7382574404507,
    "lng": 134.846659481486,
    "tel": "079-430-0033",
    "url": "http://www.junshin.or.jp",
    "pref": "兵庫県",
    "city": "加古川市",
    "category": "rouken",
    "serviceType": "介護老人保健施設",
    "capacity": 30,
    "openDays": [],
    "openDaysNote": ""
  },
  {
    "id": "2852280011",
    "name": "介護老人保健施設　白寿苑",
    "kana": "カイゴロウジンホケンシセツ　ハクジュエン",
    "address": "兵庫県加古川市神野町石守１６３２",
    "lat": 34.7726266,
    "lng": 134.8841424,
    "tel": "079-438-2999",
    "url": "http://www.junshin.or.jp",
    "pref": "兵庫県",
    "city": "加古川市",
    "category": "rouken",
    "serviceType": "介護老人保健施設",
    "capacity": 200,
    "openDays": [],
    "openDaysNote": ""
  },
  {
    "id": "2852280037",
    "name": "老人保健施設　緑寿苑",
    "kana": "ロウジンホケンシセツ　リョクジュエン",
    "address": "兵庫県加古川市平岡町新在家1197－3",
    "lat": 34.7509955,
    "lng": 134.8700054,
    "tel": "079-425-2270",
    "url": "http://www.tatsumakai.jp",
    "pref": "兵庫県",
    "city": "加古川市",
    "category": "rouken",
    "serviceType": "介護老人保健施設",
    "capacity": 0,
    "openDays": [],
    "openDaysNote": ""
  },
  {
    "id": "2852680053",
    "name": "介護老人保健施設　　加西白寿苑",
    "kana": "カイゴロウジンホケンシセツ　カサイハクジュエン",
    "address": "北条町東高室字四ツ池1231-1",
    "lat": 34.9143128,
    "lng": 134.8395056,
    "tel": "0790-43-9800",
    "url": "kasaihaku@junshin.or.jp",
    "pref": "兵庫県",
    "city": "加西市",
    "category": "rouken",
    "serviceType": "介護老人保健施設",
    "capacity": 50,
    "openDays": [],
    "openDaysNote": ""
  },
  {
    "id": "2852680012",
    "name": "介護老人保健施設　加西シニアコミュニティ",
    "kana": "カイゴロウジンホケンシセツ　カサイシニアコミュニティ",
    "address": "兵庫県加西市中西町字広野616-1",
    "lat": 34.8948679,
    "lng": 134.841786,
    "tel": "0790-48-8190",
    "url": "",
    "pref": "兵庫県",
    "city": "加西市",
    "category": "rouken",
    "serviceType": "介護老人保健施設",
    "capacity": 0,
    "openDays": [],
    "openDaysNote": ""
  },
  {
    "id": "2852500012",
    "name": "加東市介護老人保健施設ケアホームかとう",
    "kana": "カトウシカイゴロウジンホケンシセツケアホームカトウ",
    "address": "兵庫県加東市家原130番地",
    "lat": 34.9230872362053,
    "lng": 134.962344308598,
    "tel": "0795-42-5177",
    "url": "https://www.city.kato.lg.jp/",
    "pref": "兵庫県",
    "city": "加東市",
    "category": "rouken",
    "serviceType": "介護老人保健施設",
    "capacity": 0,
    "openDays": [],
    "openDaysNote": ""
  },
  {
    "id": "2852580030",
    "name": "介護老人保健施設ｻﾝｽﾏｲﾙ北野",
    "kana": "カイゴロウジンホケンシセツサンスマイルキタノ",
    "address": "兵庫県加東市北野55番地1",
    "lat": 34.9340129,
    "lng": 134.9544889,
    "tel": "0795－48－2666",
    "url": "http://kasuganokai.com/sskitano/",
    "pref": "兵庫県",
    "city": "加東市",
    "category": "rouken",
    "serviceType": "介護老人保健施設",
    "capacity": 0,
    "openDays": [],
    "openDaysNote": ""
  },
  {
    "id": "2854780034",
    "name": "公立香住病院介護老人保健施設「ゆうすげ」",
    "kana": "コウリツカスミビョウインカイゴロウジンホケンシセツ「ユウスゲ」",
    "address": "兵庫県美方郡香美町香住区若松540",
    "lat": 35.6432513,
    "lng": 134.6338081,
    "tel": "0796-36-1166",
    "url": "",
    "pref": "兵庫県",
    "city": "香美町",
    "category": "rouken",
    "serviceType": "介護老人保健施設",
    "capacity": 0,
    "openDays": [],
    "openDaysNote": ""
  },
  {
    "id": "2852180021",
    "name": "介護老人保健施設　播磨高砂苑",
    "kana": "カイゴロウジンホケンシセツ　ハリマタカサゴエン",
    "address": "高砂市伊保1丁目6-16",
    "lat": 34.7693953,
    "lng": 134.7858172,
    "tel": "079-448-6003",
    "url": "http://www.mycaregarden.jp/sizutanien/pc/",
    "pref": "兵庫県",
    "city": "高砂市",
    "category": "rouken",
    "serviceType": "介護老人保健施設",
    "capacity": 100,
    "openDays": [],
    "openDaysNote": ""
  },
  {
    "id": "2852180013",
    "name": "介護老人保健施設まごころハーモニー",
    "kana": "カイゴロウジンホケンシセツマゴコロハーモニー",
    "address": "兵庫県高砂市高砂町松波町440番6介護老人保健施設まごころハーモニー 介護老人保健施設まごころハーモニー",
    "lat": 34.7521550253796,
    "lng": 134.79773444949,
    "tel": "079-444-2828",
    "url": "http://www.harmony-en.com",
    "pref": "兵庫県",
    "city": "高砂市",
    "category": "rouken",
    "serviceType": "介護老人保健施設",
    "capacity": 0,
    "openDays": [],
    "openDaysNote": ""
  },
  {
    "id": "2852180039",
    "name": "社会医療法人社団　順心会　介護老人保健施設　高砂白寿苑",
    "kana": "シャカイイリョウホウジンシャダン　ジュンシンカイ　カイゴロウジンホケンシセツタカサゴハクジュエン",
    "address": "兵庫県高砂市北浜町西浜773-1",
    "lat": 34.7849426,
    "lng": 134.7478575,
    "tel": "079-247-9811",
    "url": "http://www.junshin.or.jp",
    "pref": "兵庫県",
    "city": "高砂市",
    "category": "rouken",
    "serviceType": "介護老人保健施設",
    "capacity": 100,
    "openDays": [],
    "openDaysNote": ""
  },
  {
    "id": "2853780027",
    "name": "介護老人保健施設　浩陽園",
    "kana": "カイゴロウジンホケンシセツ　コウヨウエン",
    "address": "兵庫県佐用郡佐用町佐用3529番地3",
    "lat": 35.0079872,
    "lng": 134.3658447,
    "tel": "0790-82-0321",
    "url": "http://www.sayochuo-hospital.or.jp",
    "pref": "兵庫県",
    "city": "佐用町",
    "category": "rouken",
    "serviceType": "介護老人保健施設",
    "capacity": 0,
    "openDays": [],
    "openDaysNote": ""
  },
  {
    "id": "2853780019",
    "name": "老人保健施設　ハイム・ゾンネ",
    "kana": "ロウジンホケンシセツ　ハイム　ゾンネ",
    "address": "兵庫県佐用郡佐用町林崎662番３",
    "lat": 34.992331,
    "lng": 134.3946517,
    "tel": "0790-78-0001",
    "url": "http://www.heiseihukusi.or.jp/",
    "pref": "兵庫県",
    "city": "佐用町",
    "category": "rouken",
    "serviceType": "介護老人保健施設",
    "capacity": 74,
    "openDays": [],
    "openDaysNote": ""
  },
  {
    "id": "2851280020",
    "name": "介護老人保健施設　アルカディア",
    "kana": "カイゴロウジンホケンシセツ　アルカディア",
    "address": "兵庫県三田市東本庄2493番地",
    "lat": 34.9514651,
    "lng": 135.1619331,
    "tel": "079-568-5879",
    "url": "http://www.ainokai.jp",
    "pref": "兵庫県",
    "city": "三田市",
    "category": "rouken",
    "serviceType": "介護老人保健施設",
    "capacity": 0,
    "openDays": [],
    "openDaysNote": ""
  },
  {
    "id": "2851280038",
    "name": "介護老人保健施設　愛",
    "kana": "カイゴロウジンホケンシセツ　アイ",
    "address": "兵庫県三田市東本庄1188番地",
    "lat": 34.955583906686,
    "lng": 135.164265885042,
    "tel": "079-568-5327",
    "url": "https://www.hirakataryoiku-med.or.jp/sanda/ai/",
    "pref": "兵庫県",
    "city": "三田市",
    "category": "rouken",
    "serviceType": "介護老人保健施設",
    "capacity": 100,
    "openDays": [],
    "openDaysNote": ""
  },
  {
    "id": "2851280012",
    "name": "三田温泉シルバーステイ",
    "kana": "サンダオンセンシルバーステイ",
    "address": "兵庫県三田市東山897-1",
    "lat": 34.9411978,
    "lng": 135.1915221,
    "tel": "079-568-5260",
    "url": "http://www.keiai-kai.jp/",
    "pref": "兵庫県",
    "city": "三田市",
    "category": "rouken",
    "serviceType": "介護老人保健施設",
    "capacity": 0,
    "openDays": [],
    "openDaysNote": ""
  },
  {
    "id": "2852380019",
    "name": "医療法人社団　仁恵会　介護老人保健施設　サンビラ三木",
    "kana": "イリョウホウジンシャダン　ジンケイカイ　カイゴロウジンホケンシセツ　サンビラミキ",
    "address": "兵庫県三木市与呂木字高野越６８３－４",
    "lat": 34.8076262435187,
    "lng": 135.008712095493,
    "tel": "0794-83-8118",
    "url": "http://www.jinkeikai-group.or.jp/sunvilla/",
    "pref": "兵庫県",
    "city": "三木市",
    "category": "rouken",
    "serviceType": "介護老人保健施設",
    "capacity": 0,
    "openDays": [],
    "openDaysNote": ""
  },
  {
    "id": "2852380035",
    "name": "介護老人保健施設　サンスマイル三木",
    "kana": "カイゴロウジンホケンシセツ　サンスマイルミキ",
    "address": "兵庫県三木市志染町吉田1213-1",
    "lat": 34.7908034610643,
    "lng": 135.013520005557,
    "tel": "0794-87-8720",
    "url": "http://www.hoyukai.or.jp/sunsmile/",
    "pref": "兵庫県",
    "city": "三木市",
    "category": "rouken",
    "serviceType": "介護老人保健施設",
    "capacity": 50,
    "openDays": [],
    "openDaysNote": ""
  },
  {
    "id": "2852380027",
    "name": "介護老人保健施設セントクリストファーズホーム",
    "kana": "カイゴロウジンホケンシセツセントクリストファーズホーム",
    "address": "三木市志染町細目字橋ヶ谷２８－２６",
    "lat": 34.7889391,
    "lng": 135.0259463,
    "tel": "0794-84-2211",
    "url": "http://www.nogi-hospital.or.jp/",
    "pref": "兵庫県",
    "city": "三木市",
    "category": "rouken",
    "serviceType": "介護老人保健施設",
    "capacity": 0,
    "openDays": [],
    "openDaysNote": ""
  },
  {
    "id": "2853880017",
    "name": "老人保健施設むつみ園",
    "kana": "ロウジンホケンシセツムツミエン",
    "address": "兵庫県宍粟市波賀町飯見36-30",
    "lat": 35.1715323,
    "lng": 134.5423453,
    "tel": "0790-75-2810",
    "url": "http://www.mutsumien.jp/",
    "pref": "兵庫県",
    "city": "宍粟市",
    "category": "rouken",
    "serviceType": "介護老人保健施設",
    "capacity": 0,
    "openDays": [],
    "openDaysNote": ""
  },
  {
    "id": "2851580023",
    "name": "介護老人保健施設せんけい苑",
    "kana": "カイゴロウジンホケンシセツセンケイエン",
    "address": "兵庫県洲本市桑間字太田495-1",
    "lat": 34.3454831469184,
    "lng": 134.865812293588,
    "tel": "0799-26-0780",
    "url": "http://senkeien.jp",
    "pref": "兵庫県",
    "city": "洲本市",
    "category": "rouken",
    "serviceType": "介護老人保健施設",
    "capacity": 92,
    "openDays": [],
    "openDaysNote": ""
  },
  {
    "id": "2851980025",
    "name": "介護老人保健施設　オパール",
    "kana": "カイゴロウジンホケンシセツ　オパール",
    "address": "兵庫県小野市復井町９１６－１",
    "lat": 34.8995327,
    "lng": 134.9351877,
    "tel": "0794-66-0951",
    "url": "https://seizankai-mc.com/",
    "pref": "兵庫県",
    "city": "小野市",
    "category": "rouken",
    "serviceType": "介護老人保健施設",
    "capacity": 0,
    "openDays": [],
    "openDaysNote": ""
  },
  {
    "id": "2851980017",
    "name": "介護老人保健施設　シルバーランド",
    "kana": "カイゴロウジンホケンシセツ　シルバーランド",
    "address": "小野市葉多町２６１－１",
    "lat": 34.8476047,
    "lng": 134.9208298,
    "tel": "0794-63-5628",
    "url": "https://silverland.or.jp/",
    "pref": "兵庫県",
    "city": "小野市",
    "category": "rouken",
    "serviceType": "介護老人保健施設",
    "capacity": 0,
    "openDays": [],
    "openDaysNote": ""
  },
  {
    "id": "2851980033",
    "name": "介護老人保健施設　薫楓苑",
    "kana": "カイゴロウジンホケンシセツ　クンプウエン",
    "address": "兵庫県小野市復井町1741",
    "lat": 34.9060383,
    "lng": 134.9273057,
    "tel": "0794-66-2020",
    "url": "http://kunpu-en.jp/",
    "pref": "兵庫県",
    "city": "小野市",
    "category": "rouken",
    "serviceType": "介護老人保健施設",
    "capacity": 80,
    "openDays": [],
    "openDaysNote": ""
  },
  {
    "id": "2853980015",
    "name": "介護老人保健施設　　高嶺の郷",
    "kana": "カイゴロウジンホケンシセツ　タカミネノサト",
    "address": "兵庫県赤穂郡上郡町山野里２３０５番地１",
    "lat": 34.869544,
    "lng": 134.3507258,
    "tel": "0791-57-3250",
    "url": "https://youandi.takaminefukusikai.com/",
    "pref": "兵庫県",
    "city": "上郡町",
    "category": "rouken",
    "serviceType": "介護老人保健施設",
    "capacity": 0,
    "openDays": [],
    "openDaysNote": ""
  },
  {
    "id": "2854780026",
    "name": "介護老人保健施設ささゆり",
    "kana": "カイゴロウジンホケンシセツササユリ",
    "address": "兵庫県美方郡新温泉町二日市177",
    "lat": 35.6188102,
    "lng": 134.4763282,
    "tel": "0796-83-2311",
    "url": "http://www.town.shinonsen.hyogo.jp/",
    "pref": "兵庫県",
    "city": "新温泉町",
    "category": "rouken",
    "serviceType": "介護老人保健施設",
    "capacity": 0,
    "openDays": [],
    "openDaysNote": ""
  },
  {
    "id": "2853480032",
    "name": "介護老人保健施設　かみかわ",
    "kana": "カイゴロウジンホケンシセツ　カミカワ",
    "address": "兵庫県神崎郡神河町粟賀町４２２番地",
    "lat": 35.0675686,
    "lng": 134.7721162,
    "tel": "0790-31-3880",
    "url": "http/www.hakuho.or.jp/",
    "pref": "兵庫県",
    "city": "神河町",
    "category": "rouken",
    "serviceType": "介護老人保健施設",
    "capacity": 0,
    "openDays": [],
    "openDaysNote": ""
  },
  {
    "id": "2850780046",
    "name": "グリーンリーフ高倉",
    "kana": "グリーンリーフ　タカクラ",
    "address": "神戸市須磨区高倉町1丁目6-24",
    "lat": 34.6472196,
    "lng": 135.1080999,
    "tel": "078-739-7272",
    "url": "http://www.nadeshikolh.jp/",
    "pref": "兵庫県",
    "city": "神戸市須磨区",
    "category": "rouken",
    "serviceType": "介護老人保健施設",
    "capacity": 0,
    "openDays": [],
    "openDaysNote": ""
  },
  {
    "id": "2850780012",
    "name": "介護老人保健施設　いきいきの郷",
    "kana": "カイゴロウジンホケンシセツ　イキイキノサト",
    "address": "神戸市須磨区友が丘７丁目１－２５",
    "lat": 34.6703003,
    "lng": 135.1010249,
    "tel": "078-795-8080",
    "url": "http://www.jikeikai-group.or.jp/ikiiki/",
    "pref": "兵庫県",
    "city": "神戸市須磨区",
    "category": "rouken",
    "serviceType": "介護老人保健施設",
    "capacity": 0,
    "openDays": [],
    "openDaysNote": ""
  },
  {
    "id": "2850780020",
    "name": "介護老人保健施設　コスモス苑",
    "kana": "カイゴロウジンホケンシセツ　コスモスエン",
    "address": "神戸市須磨区妙法寺字荒打３０８－１",
    "lat": 34.6750141873799,
    "lng": 135.107744745369,
    "tel": "078-747-2520",
    "url": "http://www.tsukasakai.jp",
    "pref": "兵庫県",
    "city": "神戸市須磨区",
    "category": "rouken",
    "serviceType": "介護老人保健施設",
    "capacity": 100,
    "openDays": [],
    "openDaysNote": ""
  },
  {
    "id": "2850780053",
    "name": "介護老人保健施設　すま松の郷",
    "kana": "カイゴロウジンホケンシセツ　スママツノサト",
    "address": "神戸市須磨区妙法寺字樫原２－１",
    "lat": 34.6711397,
    "lng": 135.1230812,
    "tel": "078-741-8585",
    "url": "https://shouzenkai.or.jp",
    "pref": "兵庫県",
    "city": "神戸市須磨区",
    "category": "rouken",
    "serviceType": "介護老人保健施設",
    "capacity": 82,
    "openDays": [],
    "openDaysNote": ""
  },
  {
    "id": "2850780079",
    "name": "介護老人保健施設　すま松の郷",
    "kana": "カイゴロウジンホケンシセツ　スママツノサト",
    "address": "神戸市須磨区妙法寺字樫原２－１",
    "lat": 34.6711397,
    "lng": 135.1230812,
    "tel": "078-741-8585",
    "url": "https://shouzenkai.or.jp",
    "pref": "兵庫県",
    "city": "神戸市須磨区",
    "category": "rouken",
    "serviceType": "介護老人保健施設",
    "capacity": 18,
    "openDays": [],
    "openDaysNote": ""
  },
  {
    "id": "2850780038",
    "name": "介護老人保健施設　すみれ苑",
    "kana": "カイゴロウジンホケンシセツ　スミレエン",
    "address": "神戸市須磨区東白川台２丁目１２－１",
    "lat": 34.6922065,
    "lng": 135.104652,
    "tel": "078-747-1702",
    "url": "http://www.sumire.or.jp/sumire-en/",
    "pref": "兵庫県",
    "city": "神戸市須磨区",
    "category": "rouken",
    "serviceType": "介護老人保健施設",
    "capacity": 0,
    "openDays": [],
    "openDaysNote": ""
  },
  {
    "id": "2850780061",
    "name": "介護老人保健施設オラージュ須磨",
    "kana": "カイゴロウジンホケンシセツオラージュスマ",
    "address": "若草町3-622-11",
    "lat": 34.6920899,
    "lng": 135.1155036,
    "tel": "078-747-1136",
    "url": "http://www.souseikai.jp/",
    "pref": "兵庫県",
    "city": "神戸市須磨区",
    "category": "rouken",
    "serviceType": "介護老人保健施設",
    "capacity": 100,
    "openDays": [],
    "openDaysNote": ""
  },
  {
    "id": "2850880119",
    "name": "ふぇにっくすたるみきゅあせんたー",
    "kana": "フェニックス垂水キュアセンター",
    "address": "神戸市垂水区塩屋北町2-24-16",
    "lat": 34.6487664,
    "lng": 135.0866824,
    "tel": "078　751-0036",
    "url": "www.ikkoukai.jp",
    "pref": "兵庫県",
    "city": "神戸市垂水区",
    "category": "rouken",
    "serviceType": "介護老人保健施設",
    "capacity": null,
    "openDays": [],
    "openDaysNote": ""
  },
  {
    "id": "2850880069",
    "name": "フェニックス垂水キュアセンター",
    "kana": "フェニックスタルミキュアセンター",
    "address": "神戸市垂水区塩屋北町2-24-16",
    "lat": 34.6487664,
    "lng": 135.0866824,
    "tel": "078-751-0036",
    "url": "http://www.ikkoukai.jp/",
    "pref": "兵庫県",
    "city": "神戸市垂水区",
    "category": "rouken",
    "serviceType": "介護老人保健施設",
    "capacity": null,
    "openDays": [],
    "openDaysNote": ""
  },
  {
    "id": "2850880093",
    "name": "みどりの丘",
    "kana": "ミドリノオカ",
    "address": "神戸市垂水区小束台868番1130",
    "lat": 34.674128141821,
    "lng": 135.052760218663,
    "tel": "078-798-3600",
    "url": "http://www.rouken-midori.jp/",
    "pref": "兵庫県",
    "city": "神戸市垂水区",
    "category": "rouken",
    "serviceType": "介護老人保健施設",
    "capacity": 0,
    "openDays": [],
    "openDaysNote": ""
  },
  {
    "id": "2850880101",
    "name": "介護老人保健施設　フローラルヴィラ垂水",
    "kana": "カイゴロウジンホケンシセツフローラルヴィラタルミ",
    "address": "兵庫県神戸市垂水区下畑町西砂山301－1",
    "lat": 34.6470556,
    "lng": 135.0935096,
    "tel": "078-755-0511",
    "url": "https://seihoukai-grp.jp",
    "pref": "兵庫県",
    "city": "神戸市垂水区",
    "category": "rouken",
    "serviceType": "介護老人保健施設",
    "capacity": 0,
    "openDays": [],
    "openDaysNote": ""
  },
  {
    "id": "2850880135",
    "name": "介護老人保健施設　フローラルヴィラ桃山台",
    "kana": "カイゴロウジンホケンシセツ　フローラルゔィラモモヤマダイ",
    "address": "兵庫県神戸市垂水区桃山台5丁目1117-1",
    "lat": 34.657427,
    "lng": 135.0857389,
    "tel": "078-751-7200",
    "url": "https://seihoukai-grp.jp",
    "pref": "兵庫県",
    "city": "神戸市垂水区",
    "category": "rouken",
    "serviceType": "介護老人保健施設",
    "capacity": 0,
    "openDays": [],
    "openDaysNote": ""
  },
  {
    "id": "2850880077",
    "name": "介護老人保健施設　四季の郷",
    "kana": "カイゴロウジンホケンシセツ　シキノサト",
    "address": "神戸市垂水区南多聞台2-9-3",
    "lat": 34.6544568,
    "lng": 135.0350144,
    "tel": "078-782-8245",
    "url": "https://www.kisshokai.or.jp/facilities2/index.html",
    "pref": "兵庫県",
    "city": "神戸市垂水区",
    "category": "rouken",
    "serviceType": "介護老人保健施設",
    "capacity": 0,
    "openDays": [],
    "openDaysNote": ""
  },
  {
    "id": "2850880085",
    "name": "介護老人保健施設　垂水すみれ苑",
    "kana": "カイゴロウジンホケンシセツ　タルミスミレエン",
    "address": "神戸市垂水区名谷町字猿倉241-5",
    "lat": 34.6493302,
    "lng": 135.0636011,
    "tel": "078-706-1002",
    "url": "http/www.sumire.or.jp",
    "pref": "兵庫県",
    "city": "神戸市垂水区",
    "category": "rouken",
    "serviceType": "介護老人保健施設",
    "capacity": 0,
    "openDays": [],
    "openDaysNote": ""
  },
  {
    "id": "2850880044",
    "name": "介護老人保健施設　名谷すみれ苑",
    "kana": "カイゴロウジンホケンシセツ　ミョウダニスミレエン",
    "address": "神戸市垂水区名谷町字梨原２３５０－１",
    "lat": 34.667645,
    "lng": 135.074611,
    "tel": "078-797-9770",
    "url": "http//www.sumire.or.jp/",
    "pref": "兵庫県",
    "city": "神戸市垂水区",
    "category": "rouken",
    "serviceType": "介護老人保健施設",
    "capacity": 0,
    "openDays": [],
    "openDaysNote": ""
  },
  {
    "id": "2850880051",
    "name": "介護老人保健施設フローラルヴィラ垂水",
    "kana": "カイゴロウジンホケンシセツフローラルヴィラタルミ",
    "address": "兵庫県神戸市垂水区下畑町西砂山301-1",
    "lat": 34.6470556,
    "lng": 135.0935096,
    "tel": "078-755-0511",
    "url": "https://seihoukai-grp.jp",
    "pref": "兵庫県",
    "city": "神戸市垂水区",
    "category": "rouken",
    "serviceType": "介護老人保健施設",
    "capacity": 0,
    "openDays": [],
    "openDaysNote": ""
  },
  {
    "id": "2850880127",
    "name": "四季の郷（ユニット）",
    "kana": "シキノサト（ユニット）",
    "address": "兵庫県神戸市垂水区南多聞台2-9-3",
    "lat": 34.6544568,
    "lng": 135.0350144,
    "tel": "078-782-8245",
    "url": "https://www.kisshokai.or.jp/facilities2/index.html",
    "pref": "兵庫県",
    "city": "神戸市垂水区",
    "category": "rouken",
    "serviceType": "介護老人保健施設",
    "capacity": 0,
    "openDays": [],
    "openDaysNote": ""
  },
  {
    "id": "2850880028",
    "name": "老人保健施設　マイン・レーベン",
    "kana": "ロウジンホケンシセツ　マイン・レーベン",
    "address": "神戸市垂水区清水が丘２丁目５番１号",
    "lat": 34.6503408,
    "lng": 135.0404779,
    "tel": "078-785-1002",
    "url": "http:/www.mein-leben.jp/",
    "pref": "兵庫県",
    "city": "神戸市垂水区",
    "category": "rouken",
    "serviceType": "介護老人保健施設",
    "capacity": 67,
    "openDays": [],
    "openDaysNote": ""
  },
  {
    "id": "2850880036",
    "name": "老人保健施設　舞子台",
    "kana": "ロウジンホケンシセツ　マイコダイ",
    "address": "神戸市垂水区舞子台７丁目２－１",
    "lat": 34.6399198,
    "lng": 135.0414002,
    "tel": "078-785-5577",
    "url": "http://www32.ocn.ne.jp/~maikodai/rouken.htm",
    "pref": "兵庫県",
    "city": "神戸市垂水区",
    "category": "rouken",
    "serviceType": "介護老人保健施設",
    "capacity": 100,
    "openDays": [],
    "openDaysNote": ""
  },
  {
    "id": "2855280075",
    "name": "フェニックス西神戸キュアセンター",
    "kana": "フェニックスニシコウベキュアセンター",
    "address": "神戸市西区岩岡町岩岡654-7介護老人保健施設　フェニックス西神戸キュアセンター 介護老人保健施設　フェニックス西神戸キュアセンター",
    "lat": 34.7153689,
    "lng": 134.9478848,
    "tel": "078-967-0306",
    "url": "http://www.ikkoukai.jp/",
    "pref": "兵庫県",
    "city": "神戸市西区",
    "category": "rouken",
    "serviceType": "介護老人保健施設",
    "capacity": 0,
    "openDays": [],
    "openDaysNote": ""
  },
  {
    "id": "2855280083",
    "name": "介護老人保健施設　エルダービレッジ",
    "kana": "カイゴロウジンホケンシセツ　エルダービレッジ",
    "address": "兵庫県神戸市西区櫨谷町福谷8822番",
    "lat": 34.7276319,
    "lng": 135.032549,
    "tel": "078-996-1200",
    "url": "https://www.asunaro-grp.jp/home-index",
    "pref": "兵庫県",
    "city": "神戸市西区",
    "category": "rouken",
    "serviceType": "介護老人保健施設",
    "capacity": 0,
    "openDays": [],
    "openDaysNote": ""
  },
  {
    "id": "2855280026",
    "name": "介護老人保健施設　ハーベスピア",
    "kana": "カイゴロウジンホケンシセツ　ハーベスピア",
    "address": "神戸市西区伊川谷町有瀬字屋敷前１４３２－１",
    "lat": 34.6613864,
    "lng": 135.030698,
    "tel": "078-976-2626",
    "url": "http://ha-besupia.com/",
    "pref": "兵庫県",
    "city": "神戸市西区",
    "category": "rouken",
    "serviceType": "介護老人保健施設",
    "capacity": 0,
    "openDays": [],
    "openDaysNote": ""
  },
  {
    "id": "2855280067",
    "name": "介護老人保健施設　風と緑",
    "kana": "カイゴロウジンホケンシセツ　カゼトミドリ",
    "address": "神戸市西区伊川谷町有瀬３１７‐２",
    "lat": 34.6689605,
    "lng": 135.0322616,
    "tel": "078-974-6541",
    "url": "http://www.yasosima.com/",
    "pref": "兵庫県",
    "city": "神戸市西区",
    "category": "rouken",
    "serviceType": "介護老人保健施設",
    "capacity": 100,
    "openDays": [],
    "openDaysNote": ""
  },
  {
    "id": "2855280059",
    "name": "老人保健施設　ひらの",
    "kana": "ロウジンホケンシセツヒラノ",
    "address": "神戸市西区平野町大畑６番１",
    "lat": 34.715694,
    "lng": 134.9941918,
    "tel": "078-963-2270",
    "url": "http://www.seijinkai.or.jp",
    "pref": "兵庫県",
    "city": "神戸市西区",
    "category": "rouken",
    "serviceType": "介護老人保健施設",
    "capacity": 0,
    "openDays": [],
    "openDaysNote": ""
  },
  {
    "id": "2855280018",
    "name": "老人保健施設　安田記念　緑風苑",
    "kana": "ロウジンホケンシセツ　ヤスダキネン　リョクフウエン",
    "address": "兵庫県神戸市　西区　北山台　3丁目1番1号",
    "lat": 34.7643489081795,
    "lng": 135.036661631352,
    "tel": "078-995-1222",
    "url": "http://hironokogen.jp/",
    "pref": "兵庫県",
    "city": "神戸市西区",
    "category": "rouken",
    "serviceType": "介護老人保健施設",
    "capacity": 0,
    "openDays": [],
    "openDaysNote": ""
  },
  {
    "id": "2855180077",
    "name": "ポート愛ランド。老健",
    "kana": "ポートアイランド。ロウケン",
    "address": "兵庫県神戸市中央区港島中町4-6",
    "lat": 34.6685104,
    "lng": 135.2091662,
    "tel": "078-303-8700",
    "url": "http://kobe-seikoukai-port-island-rouken.jp/",
    "pref": "兵庫県",
    "city": "神戸市中央区",
    "category": "rouken",
    "serviceType": "介護老人保健施設",
    "capacity": 80,
    "openDays": [],
    "openDaysNote": ""
  },
  {
    "id": "2855180093",
    "name": "ポート愛ランド。老健ムーチョ",
    "kana": "ポートアイランドロウケンムーチョ",
    "address": "兵庫県神戸市中央区港島中町4-6",
    "lat": 34.6686904,
    "lng": 135.2090473,
    "tel": "078-303-8700",
    "url": "kobe-seikoukai-port-island-rouken.jp/",
    "pref": "兵庫県",
    "city": "神戸市中央区",
    "category": "rouken",
    "serviceType": "介護老人保健施設",
    "capacity": 0,
    "openDays": [],
    "openDaysNote": ""
  },
  {
    "id": "2855180036",
    "name": "医療法人敬愛会　介護老人保健施設　神戸ポートピアステイ",
    "kana": "イリョウホウジンケイアイカイ　カイゴロウジンホケンシセツ　コウベポートピアステイ",
    "address": "兵庫県神戸市中央区港島中町５丁目２番地３",
    "lat": 34.6632831,
    "lng": 135.2093273,
    "tel": "078-304-7733",
    "url": "http://www.keiai-kai.jp",
    "pref": "兵庫県",
    "city": "神戸市中央区",
    "category": "rouken",
    "serviceType": "介護老人保健施設",
    "capacity": 0,
    "openDays": [],
    "openDaysNote": ""
  },
  {
    "id": "2855180051",
    "name": "介護老人保健施設　いつでも夢を",
    "kana": "カイゴロウジンホケンシセツ　イツデモユメヲ",
    "address": "神戸市中央区下山手通7丁目17-1",
    "lat": 34.6873025,
    "lng": 135.1763129,
    "tel": "078-351-2355",
    "url": "http://itsuyume.jp",
    "pref": "兵庫県",
    "city": "神戸市中央区",
    "category": "rouken",
    "serviceType": "介護老人保健施設",
    "capacity": 100,
    "openDays": [],
    "openDaysNote": ""
  },
  {
    "id": "2855180010",
    "name": "介護老人保健施設サニーピア",
    "kana": "カイゴロウジンホケンシセツサニーピア",
    "address": "神戸市中央区波止場町3番12号",
    "lat": 34.6849786920579,
    "lng": 135.18886387879,
    "tel": "078-331-8624",
    "url": "http://www.sunny-pier.or.jp/",
    "pref": "兵庫県",
    "city": "神戸市中央区",
    "category": "rouken",
    "serviceType": "介護老人保健施設",
    "capacity": 0,
    "openDays": [],
    "openDaysNote": ""
  },
  {
    "id": "2855180085",
    "name": "介護老人保健施設サニーピア",
    "kana": "カイゴロウジンホケンシセツサニーピア",
    "address": "兵庫県神戸市中央区波止場町3番12号",
    "lat": 34.6849863,
    "lng": 135.1887703,
    "tel": "078-331-8624",
    "url": "http://www.sunny-pier.or.jp/",
    "pref": "兵庫県",
    "city": "神戸市中央区",
    "category": "rouken",
    "serviceType": "介護老人保健施設",
    "capacity": 0,
    "openDays": [],
    "openDaysNote": ""
  },
  {
    "id": "2855180069",
    "name": "介護老人保健施設プリエール",
    "kana": "カイゴロウジンホケンシセツ　プリエール",
    "address": "神戸市中央区籠池通５丁目１－２",
    "lat": 34.7099977,
    "lng": 135.206257,
    "tel": "078-222-2140",
    "url": "http://priere.ojikai.or.jp/",
    "pref": "兵庫県",
    "city": "神戸市中央区",
    "category": "rouken",
    "serviceType": "介護老人保健施設",
    "capacity": 70,
    "openDays": [],
    "openDaysNote": ""
  },
  {
    "id": "2850680055",
    "name": "フェニックス長田キュアセンター",
    "kana": "フェニックスナガタキュアセンター",
    "address": "神戸市長田区林山町4番22",
    "lat": 34.6787501,
    "lng": 135.1422905,
    "tel": "078-631-1777",
    "url": "http://www.ikkoukai.jp/",
    "pref": "兵庫県",
    "city": "神戸市長田区",
    "category": "rouken",
    "serviceType": "介護老人保健施設",
    "capacity": null,
    "openDays": [],
    "openDaysNote": ""
  },
  {
    "id": "2850680030",
    "name": "介護老人保健施設　神戸長者町白寿苑",
    "kana": "カイゴロウジンホケンシセツ　コウベチョウジャマチハクジュエン",
    "address": "神戸市長田区長者町19-1",
    "lat": 34.6814460905119,
    "lng": 135.132146428836,
    "tel": "078-646-9890",
    "url": "http://www.nojigiku.or.jp",
    "pref": "兵庫県",
    "city": "神戸市長田区",
    "category": "rouken",
    "serviceType": "介護老人保健施設",
    "capacity": 100,
    "openDays": [],
    "openDaysNote": ""
  },
  {
    "id": "2850680014",
    "name": "介護老人保健施設サニーヒル",
    "kana": "カイゴロウジンホケンシセツサニーヒル",
    "address": "神戸市長田区大日丘町３丁目２番１号",
    "lat": 34.6881518,
    "lng": 135.1356909,
    "tel": "078-647-3255",
    "url": "https://www.seishunkai.jp/",
    "pref": "兵庫県",
    "city": "神戸市長田区",
    "category": "rouken",
    "serviceType": "介護老人保健施設",
    "capacity": 150,
    "openDays": [],
    "openDaysNote": ""
  },
  {
    "id": "2850180023",
    "name": "アトレーユうおざき",
    "kana": "アトレーユウオザキ",
    "address": "兵庫県神戸市東灘区魚崎南町3-7-18",
    "lat": 34.7104733,
    "lng": 135.2758377,
    "tel": "078-411-9597",
    "url": "http://www.daichikai.or.jp/atreju/",
    "pref": "兵庫県",
    "city": "神戸市東灘区",
    "category": "rouken",
    "serviceType": "介護老人保健施設",
    "capacity": 0,
    "openDays": [],
    "openDaysNote": ""
  },
  {
    "id": "2850180015",
    "name": "医療法人明倫会　老人保健施設あずさ",
    "kana": "イリョウホウジンメイリンカイ　ロウジンホケンシセツアズサ",
    "address": "兵庫県神戸市東灘区青木3丁目1－48",
    "lat": 34.7145938895259,
    "lng": 135.283043641367,
    "tel": "078-451-0004",
    "url": "https://meirinkai.or.jp/azusa/",
    "pref": "兵庫県",
    "city": "神戸市東灘区",
    "category": "rouken",
    "serviceType": "介護老人保健施設",
    "capacity": 0,
    "openDays": [],
    "openDaysNote": ""
  },
  {
    "id": "2850180056",
    "name": "介護老人保健施設　アネシス御影",
    "kana": "カイゴロウジンホケンシセツ　アネシスミカゲ",
    "address": "兵庫県神戸市東灘区御影石町1丁目1-32",
    "lat": 34.7093669636845,
    "lng": 135.253703871828,
    "tel": "078-811-1100",
    "url": "http://www.kouyukai.jp",
    "pref": "兵庫県",
    "city": "神戸市東灘区",
    "category": "rouken",
    "serviceType": "介護老人保健施設",
    "capacity": 100,
    "openDays": [],
    "openDaysNote": ""
  },
  {
    "id": "2850180049",
    "name": "介護老人保健施設すばる魚崎の郷",
    "kana": "カイゴロウジンホケンシセツスバルウオザキノサト",
    "address": "神戸市東灘区魚崎西町２丁目3－19",
    "lat": 34.7101454,
    "lng": 135.2661886,
    "tel": "078-811-8900",
    "url": "http://www.uozakinosato.jp",
    "pref": "兵庫県",
    "city": "神戸市東灘区",
    "category": "rouken",
    "serviceType": "介護老人保健施設",
    "capacity": 0,
    "openDays": [],
    "openDaysNote": ""
  },
  {
    "id": "2850180031",
    "name": "公益財団法人甲南会　甲南介護老人保健施設",
    "kana": "コウエキザイダンホウジンコウナンカイ　コウナンカイゴロウジンホケンシセツ",
    "address": "神戸市東灘区向洋町中３丁目２番地５",
    "lat": 34.6868694280997,
    "lng": 135.271530681754,
    "tel": "078-858-1180",
    "url": "https://kohnan.or.jp/kohnan_hoken/",
    "pref": "兵庫県",
    "city": "神戸市東灘区",
    "category": "rouken",
    "serviceType": "介護老人保健施設",
    "capacity": 0,
    "openDays": [],
    "openDaysNote": ""
  },
  {
    "id": "2850280039",
    "name": "カネディアンヒル介護老人保健施設",
    "kana": "カネディアンヒルカイゴロウジンホケンシセツ",
    "address": "兵庫県神戸市灘区長峰台2丁目3-1",
    "lat": 34.7259683927378,
    "lng": 135.221799734918,
    "tel": "078-801-1111",
    "url": "http://www.souseikai.jp/",
    "pref": "兵庫県",
    "city": "神戸市灘区",
    "category": "rouken",
    "serviceType": "介護老人保健施設",
    "capacity": 115,
    "openDays": [],
    "openDaysNote": ""
  },
  {
    "id": "2850280013",
    "name": "介護老人保健施設　ケアホーム　すばる",
    "kana": "カイゴロウジンホケンシセツ　ケアホーム　スバル",
    "address": "兵庫県神戸市灘区大和町1丁目2番1号",
    "lat": 34.7177195,
    "lng": 135.2477731,
    "tel": "078-858-6185",
    "url": "http://www.carehome-subaru.jp/",
    "pref": "兵庫県",
    "city": "神戸市灘区",
    "category": "rouken",
    "serviceType": "介護老人保健施設",
    "capacity": 0,
    "openDays": [],
    "openDaysNote": ""
  },
  {
    "id": "2850280021",
    "name": "介護老人保健施設　神戸日の出苑",
    "kana": "カイゴロウジンホケンシセツ　コウベヒノデエン",
    "address": "神戸市灘区大石南町2-1-1",
    "lat": 34.7027824,
    "lng": 135.2321106,
    "tel": "078-803-2001",
    "url": "http://www.shizutanikai.com",
    "pref": "兵庫県",
    "city": "神戸市灘区",
    "category": "rouken",
    "serviceType": "介護老人保健施設",
    "capacity": 100,
    "openDays": [],
    "openDaysNote": ""
  },
  {
    "id": "2850280047",
    "name": "介護老人保健施設すばる六甲",
    "kana": "カイゴロウジンホケンシセツスバルロッコウ",
    "address": "兵庫県神戸市灘区鶴甲１丁目３番１０号",
    "lat": 34.7319678,
    "lng": 135.2388955,
    "tel": "078-843-0501",
    "url": "http://www.subaru-rokko.coｍ",
    "pref": "兵庫県",
    "city": "神戸市灘区",
    "category": "rouken",
    "serviceType": "介護老人保健施設",
    "capacity": 100,
    "openDays": [],
    "openDaysNote": ""
  },
  {
    "id": "2850580032",
    "name": "介護老人保健施設　アネシス兵庫",
    "kana": "カイゴロウジンホケンシセツ　アネシスヒョウゴ",
    "address": "神戸市兵庫区吉田町1-8-21",
    "lat": 34.6534221,
    "lng": 135.1704277,
    "tel": "078-652-8666",
    "url": "http://i-souseikai.jp/",
    "pref": "兵庫県",
    "city": "神戸市兵庫区",
    "category": "rouken",
    "serviceType": "介護老人保健施設",
    "capacity": 100,
    "openDays": [],
    "openDaysNote": ""
  },
  {
    "id": "2850580040",
    "name": "介護老人保健施設　ドリームヒルズ滝山",
    "kana": "カイゴロウジンホイケンシセツ　ドリームヒルズタキヤマ",
    "address": "神戸市兵庫区滝山町７－２",
    "lat": 34.6839608,
    "lng": 135.1522369,
    "tel": "078-579-4130",
    "url": "https://taiyukai.jp/dreamhills/",
    "pref": "兵庫県",
    "city": "神戸市兵庫区",
    "category": "rouken",
    "serviceType": "介護老人保健施設",
    "capacity": 0,
    "openDays": [],
    "openDaysNote": ""
  },
  {
    "id": "2850580065",
    "name": "介護老人保健施設　ドリームヒルズ滝山",
    "kana": "カイゴロウジンホケンシセツ　ドリームヒルズタキヤマ",
    "address": "神戸市兵庫区滝山町７－２",
    "lat": 34.683947,
    "lng": 135.152155,
    "tel": "078-579-4130",
    "url": "https://taiyukai.jp/dreamhills/",
    "pref": "兵庫県",
    "city": "神戸市兵庫区",
    "category": "rouken",
    "serviceType": "介護老人保健施設",
    "capacity": 0,
    "openDays": [],
    "openDaysNote": ""
  },
  {
    "id": "2850580081",
    "name": "介護老人保健施設　鵠芭（従来型）",
    "kana": "カイゴロウジンホケンシセツ　タヅハ",
    "address": "兵庫県神戸市兵庫区湊川町6丁目4‐12",
    "lat": 34.6829156315057,
    "lng": 135.160137391402,
    "tel": "078-578-3333",
    "url": "https://konshinkai.or.jp/tazuha/",
    "pref": "兵庫県",
    "city": "神戸市兵庫区",
    "category": "rouken",
    "serviceType": "介護老人保健施設",
    "capacity": null,
    "openDays": [],
    "openDaysNote": ""
  },
  {
    "id": "2850580024",
    "name": "介護老人保健施設　兵庫みどり苑",
    "kana": "カイゴロウジンホケンシセツ　ヒョウゴミドリエン",
    "address": "神戸市兵庫区大開通2丁目2番1号",
    "lat": 34.6751186864265,
    "lng": 135.169152601852,
    "tel": "078-575-2120",
    "url": "http://www.sendankai.or.jp",
    "pref": "兵庫県",
    "city": "神戸市兵庫区",
    "category": "rouken",
    "serviceType": "介護老人保健施設",
    "capacity": 100,
    "openDays": [],
    "openDaysNote": ""
  },
  {
    "id": "2850580073",
    "name": "介護老人保健施設フローラルヴィラ兵庫",
    "kana": "カイゴロウジンホケンシセツフローラルヴィラヒョウゴ",
    "address": "神戸市兵庫区塚本通3-1-7",
    "lat": 34.6720872,
    "lng": 135.1675887,
    "tel": "078-575-0561",
    "url": "http://www.seihoukai.com",
    "pref": "兵庫県",
    "city": "神戸市兵庫区",
    "category": "rouken",
    "serviceType": "介護老人保健施設",
    "capacity": 0,
    "openDays": [],
    "openDaysNote": ""
  },
  {
    "id": "2855080103",
    "name": "介護老人保健施設　あすなろ旭",
    "kana": "カイゴロウジンホケンシセツ　アスナロアサヒ",
    "address": "神戸市北区西大池1丁目31番28号",
    "lat": 34.7785281,
    "lng": 135.1981538,
    "tel": "078-581-7931",
    "url": "http://www.asunaro-asahi.com/",
    "pref": "兵庫県",
    "city": "神戸市北区",
    "category": "rouken",
    "serviceType": "介護老人保健施設",
    "capacity": 82,
    "openDays": [],
    "openDaysNote": ""
  },
  {
    "id": "2855080111",
    "name": "介護老人保健施設　あすなろ旭",
    "kana": "カイゴロウジンホケンシセツ　アスナロアサヒ",
    "address": "神戸市　北区　西大池　１丁目３１番２８号",
    "lat": 34.7785281,
    "lng": 135.1981538,
    "tel": "０７８－５８１－７９３１",
    "url": "http://www.asunaro-asahi.com/",
    "pref": "兵庫県",
    "city": "神戸市北区",
    "category": "rouken",
    "serviceType": "介護老人保健施設",
    "capacity": 0,
    "openDays": [],
    "openDaysNote": ""
  },
  {
    "id": "2855080129",
    "name": "介護老人保健施設　カトレア六甲",
    "kana": "カイゴロウジンホケンシセツカトレアロッコウ",
    "address": "神戸市北区唐櫃台4丁目39番1",
    "lat": 34.7867623,
    "lng": 135.2103454,
    "tel": "078-987-0036",
    "url": "http://www.imwg.or.jp/",
    "pref": "兵庫県",
    "city": "神戸市北区",
    "category": "rouken",
    "serviceType": "介護老人保健施設",
    "capacity": 100,
    "openDays": [],
    "openDaysNote": ""
  },
  {
    "id": "2855080079",
    "name": "介護老人保健施設　リハ・神戸",
    "kana": "カイゴロウジンホケンシセツリハコウベ",
    "address": "神戸市北区しあわせの村1-19",
    "lat": 34.7054226593848,
    "lng": 135.114947356345,
    "tel": "078-743-8500",
    "url": "http://kzc.jp/r-kobe",
    "pref": "兵庫県",
    "city": "神戸市北区",
    "category": "rouken",
    "serviceType": "介護老人保健施設",
    "capacity": 90,
    "openDays": [],
    "openDaysNote": ""
  },
  {
    "id": "2855080038",
    "name": "介護老人保健施設　向陽りんどう苑",
    "kana": "カイゴロウジンホケンシセツ　コウヨウリンドウエン",
    "address": "兵庫県神戸市北区有野町有野１４８４－１",
    "lat": 34.8161133,
    "lng": 135.2243201,
    "tel": "078-981-5252",
    "url": "http://www.rindouen.or.jp/",
    "pref": "兵庫県",
    "city": "神戸市北区",
    "category": "rouken",
    "serviceType": "介護老人保健施設",
    "capacity": 0,
    "openDays": [],
    "openDaysNote": ""
  },
  {
    "id": "2855080095",
    "name": "介護老人保健施設うらら",
    "kana": "カイゴロウジンホケンシセツウララ",
    "address": "神戸市北区淡河町淡河574",
    "lat": 34.8124566,
    "lng": 135.1001062,
    "tel": "078-950-5177",
    "url": "http://www.roken-urara.jp",
    "pref": "兵庫県",
    "city": "神戸市北区",
    "category": "rouken",
    "serviceType": "介護老人保健施設",
    "capacity": 100,
    "openDays": [],
    "openDaysNote": ""
  },
  {
    "id": "2855080061",
    "name": "介護老人保健施設シルバーステイあじさい",
    "kana": "カイゴロウジンホケンシセツシルバーステイアジサイ",
    "address": "神戸市北区緑町8丁目12番1号介護老人保健施設シルバーステイあじさい 介護老人保健施設シルバーステイあじさい",
    "lat": 34.7513478,
    "lng": 135.1553135,
    "tel": "078-583-2233",
    "url": "http://www.hokuto-hp.or.jp",
    "pref": "兵庫県",
    "city": "神戸市北区",
    "category": "rouken",
    "serviceType": "介護老人保健施設",
    "capacity": 0,
    "openDays": [],
    "openDaysNote": ""
  },
  {
    "id": "2855080145",
    "name": "介護老人保健施設らぽーと",
    "kana": "カイゴロウジンホケンシセツラポート",
    "address": "神戸市北区大沢町中大沢字向井新田2238-3",
    "lat": 34.8482626,
    "lng": 135.1611468,
    "tel": "078-950-7070",
    "url": "http://xn--o9jyb9a67a.jp/",
    "pref": "兵庫県",
    "city": "神戸市北区",
    "category": "rouken",
    "serviceType": "介護老人保健施設",
    "capacity": null,
    "openDays": [],
    "openDaysNote": ""
  },
  {
    "id": "2855080020",
    "name": "社会医療法人　寿栄会　介護老人保健施設　青い空の郷",
    "kana": "シャカイイリョウホウジンジュエイカイカイゴロウジンホケンシセツアオイソラノサト",
    "address": "兵庫県神戸市北区長尾町上津４６６３番地の３",
    "lat": 34.8890205,
    "lng": 135.1667473,
    "tel": "078-986-3711",
    "url": "http://www.aoisoranosato.com/",
    "pref": "兵庫県",
    "city": "神戸市北区",
    "category": "rouken",
    "serviceType": "介護老人保健施設",
    "capacity": 0,
    "openDays": [],
    "openDaysNote": ""
  },
  {
    "id": "2855080012",
    "name": "神戸中央病院附属介護老人保健施設",
    "kana": "コウベチュウオウビョウインフゾクカイゴロウジンホケンシセツ",
    "address": "兵庫県神戸市北区惣山町２－１－９",
    "lat": 34.7371244,
    "lng": 135.154308,
    "tel": "078-595-2323",
    "url": "http://kobe.jcho.go.jp",
    "pref": "兵庫県",
    "city": "神戸市北区",
    "category": "rouken",
    "serviceType": "介護老人保健施設",
    "capacity": 100,
    "openDays": [],
    "openDaysNote": ""
  },
  {
    "id": "2855080046",
    "name": "老人保健施設　桃源の郷",
    "kana": "ロウジンホケンシセツ　トウゲンノサト",
    "address": "神戸市北区有野中町４丁目１８番２１号",
    "lat": 34.8343778,
    "lng": 135.226256,
    "tel": "078-987-2521",
    "url": "http://www.keishuukai.com/",
    "pref": "兵庫県",
    "city": "神戸市北区",
    "category": "rouken",
    "serviceType": "介護老人保健施設",
    "capacity": 0,
    "openDays": [],
    "openDaysNote": ""
  },
  {
    "id": "2850980067",
    "name": "医療法人　協和会　介護老人保健施設ウエルハウス西宮",
    "kana": "イリョウホウジンキョウワカイカイゴロウジンホケンシセツウエルハウスニシノミヤ",
    "address": "兵庫県西宮市西宮浜4丁目１５－１",
    "lat": 34.712076,
    "lng": 135.3311183,
    "tel": "0798-32-1113",
    "url": "https://www.kyowakai.com/wh_nishinomiya",
    "pref": "兵庫県",
    "city": "西宮市",
    "category": "rouken",
    "serviceType": "介護老人保健施設",
    "capacity": 129,
    "openDays": [],
    "openDaysNote": ""
  },
  {
    "id": "2850980042",
    "name": "介護老人保健施設　　陽喜な家",
    "kana": "カイゴロウジンホケンシセツ　　ヨウキナイエ",
    "address": "西宮市上ヶ原十番町１番85号",
    "lat": 34.7599135,
    "lng": 135.3397892,
    "tel": "0798-52-2003",
    "url": "http://www.uegahara.net",
    "pref": "兵庫県",
    "city": "西宮市",
    "category": "rouken",
    "serviceType": "介護老人保健施設",
    "capacity": 73,
    "openDays": [],
    "openDaysNote": ""
  },
  {
    "id": "2870905862",
    "name": "介護老人保健施設　サン",
    "kana": "カイゴロウジンホケンシセツ　サン",
    "address": "兵庫県西宮市甲子園口3丁目3−33",
    "lat": 34.738594,
    "lng": 135.3733981,
    "tel": "0798−65−3600",
    "url": "https://www.roken-sun.com",
    "pref": "兵庫県",
    "city": "西宮市",
    "category": "rouken",
    "serviceType": "介護老人保健施設",
    "capacity": 18,
    "openDays": [],
    "openDaysNote": ""
  },
  {
    "id": "2850980018",
    "name": "介護老人保健施設　シルバーハウス",
    "kana": "カイゴロウジンホケンシセツ　シルバーハウス",
    "address": "兵庫県西宮市塩瀬町生瀬1281番地の5",
    "lat": 34.8218201,
    "lng": 135.3298857,
    "tel": "0797-85-8591",
    "url": "http://www.ryokusuikai.or.jp",
    "pref": "兵庫県",
    "city": "西宮市",
    "category": "rouken",
    "serviceType": "介護老人保健施設",
    "capacity": 96,
    "openDays": [],
    "openDaysNote": ""
  },
  {
    "id": "2850980091",
    "name": "介護老人保健施設　ハートケア西宮わたなべ",
    "kana": "カイゴロウジンホケンシセツハートケアニシノミヤワタナベ",
    "address": "西宮市前浜町4-3",
    "lat": 34.7275825760727,
    "lng": 135.333329136246,
    "tel": "0798-39-0170",
    "url": "http://www.n-watanabe-hosp.jp/koumeikai/heartcare/",
    "pref": "兵庫県",
    "city": "西宮市",
    "category": "rouken",
    "serviceType": "介護老人保健施設",
    "capacity": 0,
    "openDays": [],
    "openDaysNote": ""
  },
  {
    "id": "2850980117",
    "name": "介護老人保健施設　ふるさとの家",
    "kana": "カイゴロウジンホケンシセツ　フルサトノイエ",
    "address": "兵庫県西宮市山口町船坂1825-3",
    "lat": 34.8027535,
    "lng": 135.2874279,
    "tel": "078-903-2526",
    "url": "https://furusato.rouken.jp/",
    "pref": "兵庫県",
    "city": "西宮市",
    "category": "rouken",
    "serviceType": "介護老人保健施設",
    "capacity": null,
    "openDays": [],
    "openDaysNote": ""
  },
  {
    "id": "2850980026",
    "name": "介護老人保健施設　幸泉エルズ",
    "kana": "カイゴロウジンホケンシセツ　コウセンエルズ",
    "address": "兵庫県西宮市山口町上山口4丁目26番14号",
    "lat": 34.8247372,
    "lng": 135.2465504,
    "tel": "078-904-1338",
    "url": "http://www.else-hp.jp/index.html",
    "pref": "兵庫県",
    "city": "西宮市",
    "category": "rouken",
    "serviceType": "介護老人保健施設",
    "capacity": 0,
    "openDays": [],
    "openDaysNote": ""
  },
  {
    "id": "2850980083",
    "name": "介護老人保健施設清和香櫨園",
    "kana": "カイゴロウジンホケンシセツセイワコウロエン",
    "address": "西宮市弓場町１－１５",
    "lat": 34.7337713,
    "lng": 135.3242104,
    "tel": "０７９８－３４－０００１",
    "url": "http://www.saso.or.jp/kouroen/",
    "pref": "兵庫県",
    "city": "西宮市",
    "category": "rouken",
    "serviceType": "介護老人保健施設",
    "capacity": 0,
    "openDays": [],
    "openDaysNote": ""
  },
  {
    "id": "2850980034",
    "name": "西宮市立介護老人保健施設　すこやかケア西宮",
    "kana": "ニシノミヤシリツカイゴロウジンホケンシセツスコヤカケアニシノミヤ",
    "address": "兵庫県西宮市林田町7-17",
    "lat": 34.7574529,
    "lng": 135.3610266,
    "tel": "0798-68-2700",
    "url": "https://www.nishinomiya-fukushi.jp",
    "pref": "兵庫県",
    "city": "西宮市",
    "category": "rouken",
    "serviceType": "介護老人保健施設",
    "capacity": 0,
    "openDays": [],
    "openDaysNote": ""
  },
  {
    "id": "2851880027",
    "name": "西脇市立老人保健施設しばざくら荘",
    "kana": "ニシワキシリツロウジンホケンシセツシバザクラソウ",
    "address": "西脇市上戸田194-1",
    "lat": 34.9883617,
    "lng": 134.9854095,
    "tel": "0795-23-5958",
    "url": "URL.http://www.city.nishiwaki.lg.jp/",
    "pref": "兵庫県",
    "city": "西脇市",
    "category": "rouken",
    "serviceType": "介護老人保健施設",
    "capacity": 100,
    "openDays": [],
    "openDaysNote": ""
  },
  {
    "id": "2854380017",
    "name": "介護老人保健施設　伯鳳会プラザ",
    "kana": "カイゴロウジンホケンシセツ　ハクホウカイプラザ",
    "address": "兵庫県赤穂市片浜町232",
    "lat": 34.7547087,
    "lng": 134.3746771,
    "tel": "0791-45-0015",
    "url": "www//hakuho.jp",
    "pref": "兵庫県",
    "city": "赤穂市",
    "category": "rouken",
    "serviceType": "介護老人保健施設",
    "capacity": 0,
    "openDays": [],
    "openDaysNote": ""
  },
  {
    "id": "2854380033",
    "name": "介護老人保健施設　伯鳳会プラザ",
    "kana": "カイゴロウジンホケンシセツ　ハクホウカイプラザ",
    "address": "兵庫県赤穂市片浜町232",
    "lat": 34.7552225,
    "lng": 134.3741493,
    "tel": "0791-45-0015",
    "url": "www//hakuho.or.jp",
    "pref": "兵庫県",
    "city": "赤穂市",
    "category": "rouken",
    "serviceType": "介護老人保健施設",
    "capacity": 0,
    "openDays": [],
    "openDaysNote": ""
  },
  {
    "id": "2854380025",
    "name": "赤穂市立介護老人保健施設",
    "kana": "アコウシリツカイゴロウジンホケンシセツ",
    "address": "兵庫県赤穂市中広１０９２番地",
    "lat": 34.7427214,
    "lng": 134.3897207,
    "tel": "0791-42-1005",
    "url": "http://www.amh.ako.hyogo.jp",
    "pref": "兵庫県",
    "city": "赤穂市",
    "category": "rouken",
    "serviceType": "介護老人保健施設",
    "capacity": 0,
    "openDays": [],
    "openDaysNote": ""
  },
  {
    "id": "2853180020",
    "name": "医療法人協和会　介護老人保健施設ウエルハウス清和台",
    "kana": "イリョウホウジンキョウワカイ　カイゴロウジンホケンシセツウエルハウスセイワダイ",
    "address": "兵庫県川西市清和台東2丁目1番2号",
    "lat": 34.8773214,
    "lng": 135.3859778,
    "tel": "072-799-8811",
    "url": "http://www.kyowakai.com/welhouse-seiwadai/",
    "pref": "兵庫県",
    "city": "川西市",
    "category": "rouken",
    "serviceType": "介護老人保健施設",
    "capacity": 100,
    "openDays": [],
    "openDaysNote": ""
  },
  {
    "id": "2853180012",
    "name": "介護老人保健施設ウエルハウス川西",
    "kana": "カイゴロウジンホケンシセツウエルハウスカワニシ",
    "address": "川西市中央町１５番２５号",
    "lat": 34.8308401,
    "lng": 135.4153087,
    "tel": "072-755-1031",
    "url": "http://www.kyowakai.com/",
    "pref": "兵庫県",
    "city": "川西市",
    "category": "rouken",
    "serviceType": "介護老人保健施設",
    "capacity": 0,
    "openDays": [],
    "openDaysNote": ""
  },
  {
    "id": "2854280027",
    "name": "老人保健施設　ハイマート",
    "kana": "ロウジンホケンシセツハイマート",
    "address": "相生市若狭野町若狭野235-24",
    "lat": 34.8258751,
    "lng": 134.4176018,
    "tel": "0791-28-1735",
    "url": "hai10122@ninus.ocn.ne.jp",
    "pref": "兵庫県",
    "city": "相生市",
    "category": "rouken",
    "serviceType": "介護老人保健施設",
    "capacity": 70,
    "openDays": [],
    "openDaysNote": ""
  },
  {
    "id": "2854280035",
    "name": "老人保健施設　ハイマート",
    "kana": "ロウジンホケンシセツハイマート",
    "address": "兵庫県相生市若狭野町若狭野235-24",
    "lat": 34.8258751,
    "lng": 134.4176018,
    "tel": "0791-28-1735",
    "url": "hai10122@ninus.ocn.ne.jp",
    "pref": "兵庫県",
    "city": "相生市",
    "category": "rouken",
    "serviceType": "介護老人保健施設",
    "capacity": 0,
    "openDays": [],
    "openDaysNote": ""
  },
  {
    "id": "2854280019",
    "name": "老人保健施設アルテハイムやまて",
    "kana": "ロウジンホケンシセツアルテハイムヤマテ",
    "address": "兵庫県相生市山手2丁目221番地",
    "lat": 34.8218433,
    "lng": 134.4820952,
    "tel": "0791-22-0755",
    "url": "https://hakuyukai-med.or.jp",
    "pref": "兵庫県",
    "city": "相生市",
    "category": "rouken",
    "serviceType": "介護老人保健施設",
    "capacity": 0,
    "openDays": [],
    "openDaysNote": ""
  },
  {
    "id": "2852780010",
    "name": "多可赤十字老人保健施設",
    "kana": "タカセキジュウジロウジンホケンシセツ",
    "address": "兵庫県多可郡多可町中区岸上２８０－１９",
    "lat": 35.0541206,
    "lng": 134.9233114,
    "tel": "0795-32-1265",
    "url": "http://www.taka.jrc.or.jp",
    "pref": "兵庫県",
    "city": "多可町",
    "category": "rouken",
    "serviceType": "介護老人保健施設",
    "capacity": 0,
    "openDays": [],
    "openDaysNote": ""
  },
  {
    "id": "2851380010",
    "name": "医療法人敬愛会　介護老人保健施設ひかみシルバーステイ",
    "kana": "イリョウホウジンケイアイカイカイゴロウジンホケンシセツヒカミシルバーステイ",
    "address": "兵庫県丹波市氷上町絹山５２３",
    "lat": 35.1978337,
    "lng": 135.0479412,
    "tel": "0795-82-8900",
    "url": "http://www.keiai-kai.jp/　又はhttp://www.otsuka-hp.or.jp/",
    "pref": "兵庫県",
    "city": "丹波市",
    "category": "rouken",
    "serviceType": "介護老人保健施設",
    "capacity": 0,
    "openDays": [],
    "openDaysNote": ""
  },
  {
    "id": "2851380028",
    "name": "老人保健施設　さんなん桜の里",
    "kana": "ロウジンホケンシセツ　サンナンサクラノサト",
    "address": "兵庫県丹波市山南町野坂211番地5",
    "lat": 35.0854107,
    "lng": 135.0008843,
    "tel": "0795-70-5700",
    "url": "http://www.seihoukai.com/sannan/",
    "pref": "兵庫県",
    "city": "丹波市",
    "category": "rouken",
    "serviceType": "介護老人保健施設",
    "capacity": 76,
    "openDays": [],
    "openDaysNote": ""
  },
  {
    "id": "2851480018",
    "name": "介護老人保健施設　咲楽荘",
    "kana": "カイゴロウジンホケンシセツ　サクラソウ",
    "address": "兵庫県丹波篠山市東吹976-1",
    "lat": 35.0702278,
    "lng": 135.199025,
    "tel": "079-590-2121",
    "url": "http://www.kiyoukai.com",
    "pref": "兵庫県",
    "city": "丹波篠山市",
    "category": "rouken",
    "serviceType": "介護老人保健施設",
    "capacity": 96,
    "openDays": [],
    "openDaysNote": ""
  },
  {
    "id": "2851480026",
    "name": "兵庫医科大学ささやま老人保健施設",
    "kana": "ヒョウゴイカダイガクササヤマロウジンホケンシセツ",
    "address": "兵庫県丹波篠山市黒岡36番地",
    "lat": 35.0798242,
    "lng": 135.2152426,
    "tel": "079-552-6840",
    "url": "http://www.sasayama.hyo-med.ac.jp/health_service.html",
    "pref": "兵庫県",
    "city": "丹波篠山市",
    "category": "rouken",
    "serviceType": "介護老人保健施設",
    "capacity": 0,
    "openDays": [],
    "openDaysNote": ""
  },
  {
    "id": "2851680021",
    "name": "介護老人保健施設　ケアホーム東浦",
    "kana": "カイゴロウジンホケンシセツ　ケアホームヒガシウラ",
    "address": "兵庫県淡路市久留麻1869",
    "lat": 34.5244293,
    "lng": 134.9866653,
    "tel": "0799-74-0504",
    "url": "https://www.higashiura.rouken.jp/",
    "pref": "兵庫県",
    "city": "淡路市",
    "category": "rouken",
    "serviceType": "介護老人保健施設",
    "capacity": 0,
    "openDays": [],
    "openDaysNote": ""
  },
  {
    "id": "2853280036",
    "name": "介護老人保健施設せいふう若葉",
    "kana": "カイゴロウジンホケンシセツ　セイフウワカバ",
    "address": "柏梨田字イハノ谷250番地",
    "lat": 34.899048,
    "lng": 135.372004,
    "tel": "072-766-7410",
    "url": "https://www.seifu-wakaba-rk.jp/",
    "pref": "兵庫県",
    "city": "猪名川町",
    "category": "rouken",
    "serviceType": "介護老人保健施設",
    "capacity": 0,
    "openDays": [],
    "openDaysNote": ""
  },
  {
    "id": "2853280010",
    "name": "介護老人保健施設せいふう猪名川",
    "kana": "カイゴロウジンホケンシセツセイフウイナガワ",
    "address": "兵庫県川辺郡猪名川町北田原字屏風岳３番地",
    "lat": 34.9168353,
    "lng": 135.3591802,
    "tel": "072-766-0002",
    "url": "https://www.seifu-inagawa-rk.jp/",
    "pref": "兵庫県",
    "city": "猪名川町",
    "category": "rouken",
    "serviceType": "介護老人保健施設",
    "capacity": 0,
    "openDays": [],
    "openDaysNote": ""
  },
  {
    "id": "2853280028",
    "name": "小規模介護老人保健施設ふれあい大島",
    "kana": "ショウキボカイゴロウジンホケンシセツフレアイオオシマ",
    "address": "兵庫県川辺郡猪名川町鎌倉字横大道20番地の2",
    "lat": 34.9798704,
    "lng": 135.3282492,
    "tel": "072-769-0021",
    "url": "https://www.fureaioshima-rk.jp/",
    "pref": "兵庫県",
    "city": "猪名川町",
    "category": "rouken",
    "serviceType": "介護老人保健施設",
    "capacity": 0,
    "openDays": [],
    "openDaysNote": ""
  },
  {
    "id": "2854980014",
    "name": "介護老人保健施設　あさご長寿苑",
    "kana": "カイゴロウジンホケンシセツ　アサゴチョウジュエン",
    "address": "兵庫県朝来市多々良木1523",
    "lat": 35.2447289,
    "lng": 134.8129474,
    "tel": "079-678-1181",
    "url": "http://www.shunjin-kai.or.jp/",
    "pref": "兵庫県",
    "city": "朝来市",
    "category": "rouken",
    "serviceType": "介護老人保健施設",
    "capacity": 0,
    "openDays": [],
    "openDaysNote": ""
  },
  {
    "id": "2851780037",
    "name": "介護老人保健施設　ケアホーム南淡路",
    "kana": "カイゴロウジンホケンシセツ　ケアホームミナミアワジ",
    "address": "兵庫県南あわじ市賀集福井564-7",
    "lat": 34.2595885,
    "lng": 134.7530034,
    "tel": "0799-53-1653",
    "url": "https://www.minamiawaji.rouken.jp/",
    "pref": "兵庫県",
    "city": "南あわじ市",
    "category": "rouken",
    "serviceType": "介護老人保健施設",
    "capacity": 100,
    "openDays": [],
    "openDaysNote": ""
  },
  {
    "id": "2851780045",
    "name": "老人保健施設ひまわり",
    "kana": "ロウジンホケンシセツヒマワリ",
    "address": "兵庫県南あわじ市八木寺内347-4",
    "lat": 34.2798744,
    "lng": 134.797732,
    "tel": "0799-42-7801",
    "url": "https://yagi-hp.com/pages/57/",
    "pref": "兵庫県",
    "city": "南あわじ市",
    "category": "rouken",
    "serviceType": "介護老人保健施設",
    "capacity": 0,
    "openDays": [],
    "openDaysNote": ""
  },
  {
    "id": "2853080121",
    "name": "フローリス介護老人保健施設",
    "kana": "フローリス　カイゴロウジンホケンシセツ",
    "address": "兵庫県尼崎市西難波町6丁目11番6号",
    "lat": 34.7297149,
    "lng": 135.4079201,
    "tel": "06-4868-3800",
    "url": "http://www.floris-care.jp",
    "pref": "兵庫県",
    "city": "尼崎市",
    "category": "rouken",
    "serviceType": "介護老人保健施設",
    "capacity": 0,
    "openDays": [],
    "openDaysNote": ""
  },
  {
    "id": "2853080071",
    "name": "医療法人旭会　そのだ介護老人保健施設",
    "kana": "イリョウホウジンアサヒカイ　ソノダカイゴロウジンホケンシセツ",
    "address": "尼崎市東園田町２－４８－８",
    "lat": 34.7579459,
    "lng": 135.4481077,
    "tel": "06-6491-3911",
    "url": "http://www.sonodamedic.or.jp",
    "pref": "兵庫県",
    "city": "尼崎市",
    "category": "rouken",
    "serviceType": "介護老人保健施設",
    "capacity": 0,
    "openDays": [],
    "openDaysNote": ""
  },
  {
    "id": "2853080014",
    "name": "医療法人尼崎厚生会　立花介護老人保健施設",
    "kana": "イリョウホウジンアマガサキコウセイカイ　タチバナカイゴロウジンホケンシセツ",
    "address": "兵庫県尼崎市立花町４丁目４番２３号",
    "lat": 34.7405247,
    "lng": 135.3983432,
    "tel": "06-6436-3238",
    "url": "http://www.tachibanarouken.or.jp",
    "pref": "兵庫県",
    "city": "尼崎市",
    "category": "rouken",
    "serviceType": "介護老人保健施設",
    "capacity": 68,
    "openDays": [],
    "openDaysNote": ""
  },
  {
    "id": "2853080022",
    "name": "介護老人保健施設サンプラザ平成",
    "kana": "カイゴロウジンホケンシセツサンプラザヘイセイ",
    "address": "兵庫県尼崎市大庄西町４丁目３番９号",
    "lat": 34.7174988,
    "lng": 135.3908948,
    "tel": "06-6417-0700",
    "url": "https://ask-sunshine.jp/office/heisei/",
    "pref": "兵庫県",
    "city": "尼崎市",
    "category": "rouken",
    "serviceType": "介護老人保健施設",
    "capacity": 0,
    "openDays": [],
    "openDaysNote": ""
  },
  {
    "id": "2853080097",
    "name": "介護老人保健施設なにわローランド",
    "kana": "カイゴロウジンホケンシセツナニワローランド",
    "address": "兵庫県尼崎市東難波町１丁目３番１０号",
    "lat": 34.7322592,
    "lng": 135.4138693,
    "tel": "06-6481-8010",
    "url": "http://www.chuoukai.or.jp/",
    "pref": "兵庫県",
    "city": "尼崎市",
    "category": "rouken",
    "serviceType": "介護老人保健施設",
    "capacity": 0,
    "openDays": [],
    "openDaysNote": ""
  },
  {
    "id": "2853080147",
    "name": "介護老人保健施設はくほう",
    "kana": "カイゴロウジンホケンシセツハクホウ",
    "address": "兵庫県尼崎市若王寺３丁目１３番２０号",
    "lat": 34.7466199394875,
    "lng": 135.441036914879,
    "tel": "06-4960－8940",
    "url": "https://www.hakuho.or.jp/",
    "pref": "兵庫県",
    "city": "尼崎市",
    "category": "rouken",
    "serviceType": "介護老人保健施設",
    "capacity": 0,
    "openDays": [],
    "openDaysNote": ""
  },
  {
    "id": "2853080162",
    "name": "介護老人保健施設はくほう",
    "kana": "カイゴロウジンホケンシセツハクホウ",
    "address": "兵庫県尼崎市若王寺3丁目13番20号",
    "lat": 34.7465506,
    "lng": 135.4411818,
    "tel": "06－4960－8940",
    "url": "https://www.hakuhou.or.jp/",
    "pref": "兵庫県",
    "city": "尼崎市",
    "category": "rouken",
    "serviceType": "介護老人保健施設",
    "capacity": 0,
    "openDays": [],
    "openDaysNote": ""
  },
  {
    "id": "2853080030",
    "name": "介護老人保健施設ローランド",
    "kana": "カイゴロウジンホケンシセツローランド",
    "address": "兵庫県尼崎市潮江2丁目1番10号",
    "lat": 34.736823,
    "lng": 135.42934,
    "tel": "06-6499-8500",
    "url": "http://www.chuoukai.or.jp",
    "pref": "兵庫県",
    "city": "尼崎市",
    "category": "rouken",
    "serviceType": "介護老人保健施設",
    "capacity": 0,
    "openDays": [],
    "openDaysNote": ""
  },
  {
    "id": "2853080105",
    "name": "介護老人保健施設武庫之荘",
    "kana": "カイゴロウジンホケンシセツムコノソウ",
    "address": "尼崎市南武庫之荘２－１０－３０",
    "lat": 34.7508486,
    "lng": 135.3968292,
    "tel": "06-6432-0032",
    "url": "",
    "pref": "兵庫県",
    "city": "尼崎市",
    "category": "rouken",
    "serviceType": "介護老人保健施設",
    "capacity": 54,
    "openDays": [],
    "openDaysNote": ""
  },
  {
    "id": "2853080154",
    "name": "社会医療法人愛仁会介護老人保健施設だいもつ",
    "kana": "シャカイイリョウホウジンアイジンカイカイゴロウジンホケンシセツダイモツ",
    "address": "兵庫県尼崎市東大物町1丁目1番1号",
    "lat": 34.7170026,
    "lng": 135.4275878,
    "tel": "06-6482-0207",
    "url": "https://www.roukendaimotsu.aijinkai.or.jp",
    "pref": "兵庫県",
    "city": "尼崎市",
    "category": "rouken",
    "serviceType": "介護老人保健施設",
    "capacity": 0,
    "openDays": [],
    "openDaysNote": ""
  },
  {
    "id": "2853080139",
    "name": "尼崎医療生協介護老人保健施設ひだまりの里",
    "kana": "アマガサキイリョウセイキョウカイゴロウジンホケンシエツヒダマリノサト",
    "address": "兵庫県尼崎市南武庫之荘11丁目１２－１あおぞら会館 あおぞら会館",
    "lat": 34.7398328,
    "lng": 135.3859779,
    "tel": "06-4962-5920",
    "url": "http://www.amagasaki.coop/",
    "pref": "兵庫県",
    "city": "尼崎市",
    "category": "rouken",
    "serviceType": "介護老人保健施設",
    "capacity": 0,
    "openDays": [],
    "openDaysNote": ""
  },
  {
    "id": "2853080063",
    "name": "尼崎老人保健施設ブルーベリー",
    "kana": "アマガサキロウジンホケンシセツブルーベリー",
    "address": "兵庫県尼崎市上坂部2丁目24番5号",
    "lat": 34.7477161,
    "lng": 135.4262371,
    "tel": "06-6494-0015",
    "url": "http://www.kensei-kai.or.jp",
    "pref": "兵庫県",
    "city": "尼崎市",
    "category": "rouken",
    "serviceType": "介護老人保健施設",
    "capacity": 0,
    "openDays": [],
    "openDaysNote": ""
  },
  {
    "id": "2853080048",
    "name": "老人保健施設　南野の郷",
    "kana": "ロウジンホケンシセツ　ミナミノノサト",
    "address": "兵庫県尼崎市富松町３丁目３３－２２",
    "lat": 34.7603033,
    "lng": 135.4020366,
    "tel": "06-4961-8300",
    "url": "",
    "pref": "兵庫県",
    "city": "尼崎市",
    "category": "rouken",
    "serviceType": "介護老人保健施設",
    "capacity": 0,
    "openDays": [],
    "openDaysNote": ""
  },
  {
    "id": "2853080055",
    "name": "老人保健施設友の家",
    "kana": "ロウジンホケンシセツトモノイエ",
    "address": "尼崎市東本町2-51",
    "lat": 34.7122975,
    "lng": 135.4252659,
    "tel": "06-4868-0823",
    "url": "http://tomonoie.web.fc2.com",
    "pref": "兵庫県",
    "city": "尼崎市",
    "category": "rouken",
    "serviceType": "介護老人保健施設",
    "capacity": 0,
    "openDays": [],
    "openDaysNote": ""
  },
  {
    "id": "2854080088",
    "name": "しおさきヴィラ",
    "kana": "シオサキヴィラ",
    "address": "姫路市大塩町汐咲１－２５",
    "lat": 34.778888,
    "lng": 134.7558845,
    "tel": "079-254-5767",
    "url": "http://www.inohos.com",
    "pref": "兵庫県",
    "city": "姫路市",
    "category": "rouken",
    "serviceType": "介護老人保健施設",
    "capacity": 0,
    "openDays": [],
    "openDaysNote": ""
  },
  {
    "id": "2854080013",
    "name": "医療法人　松浦会　光が丘老人保健施設",
    "kana": "イリョウホウジン　マツウラカイ　ヒカリガオカロウジンホケンシセツ",
    "address": "兵庫県姫路市御国野町国分寺２６７",
    "lat": 34.825057,
    "lng": 134.7323222,
    "tel": "079-252-6601",
    "url": "http://www.hikari-gaoka.jp",
    "pref": "兵庫県",
    "city": "姫路市",
    "category": "rouken",
    "serviceType": "介護老人保健施設",
    "capacity": 100,
    "openDays": [],
    "openDaysNote": ""
  },
  {
    "id": "2854080070",
    "name": "医療法人真和会　介護老人保健施設　エスコート船場",
    "kana": "イリョウホウジンシンワカイ　カイゴロウジンホケンシセツ　エスコートセンバ",
    "address": "姫路市東雲町４丁目1-20",
    "lat": 34.833594,
    "lng": 134.679475,
    "tel": "079-293-2223",
    "url": "",
    "pref": "兵庫県",
    "city": "姫路市",
    "category": "rouken",
    "serviceType": "介護老人保健施設",
    "capacity": 50,
    "openDays": [],
    "openDaysNote": ""
  },
  {
    "id": "2854080054",
    "name": "医療法人仁寿会　老人保健施設カノープス姫路",
    "kana": "イリョウホウジンジンジュカイ　ロウジンホケンシセツカノープスヒメジ",
    "address": "兵庫県姫路市別所町別所960-1医療法人仁寿会　老人保健施設カノープス姫路 医療法人仁寿会　老人保健施設カノープス姫路",
    "lat": 34.7995941,
    "lng": 134.7502595,
    "tel": "079-252-7111",
    "url": "http://www.canopushimeji.jp/",
    "pref": "兵庫県",
    "city": "姫路市",
    "category": "rouken",
    "serviceType": "介護老人保健施設",
    "capacity": 100,
    "openDays": [],
    "openDaysNote": ""
  },
  {
    "id": "2854080062",
    "name": "介護老人保健施設　ゆめさき",
    "kana": "カイゴロウジンホケンシセツ　ユメサキ",
    "address": "姫路市広畑区西夢前台6丁目56番1",
    "lat": 34.8178872,
    "lng": 134.6359822,
    "tel": "079-237-8735",
    "url": "http://www.yumesaki.gr.jp/",
    "pref": "兵庫県",
    "city": "姫路市",
    "category": "rouken",
    "serviceType": "介護老人保健施設",
    "capacity": 100,
    "openDays": [],
    "openDaysNote": ""
  },
  {
    "id": "2854080021",
    "name": "介護老人保健施設　愛和ケアホーム",
    "kana": "カイゴロウジンホケンシセツ　アイワケアホーム",
    "address": "姫路市飯田3丁目95－1",
    "lat": 34.813102,
    "lng": 134.675451,
    "tel": "079-234-2119",
    "url": "http://www.aiwahp.or.jp",
    "pref": "兵庫県",
    "city": "姫路市",
    "category": "rouken",
    "serviceType": "介護老人保健施設",
    "capacity": 0,
    "openDays": [],
    "openDaysNote": ""
  },
  {
    "id": "2853580013",
    "name": "介護老人保健施設　夢前白寿苑",
    "kana": "カイゴロウジンホケンシセツ　ユメサキハクジュエン",
    "address": "兵庫県姫路市夢前町塚本77-9079-335-3320 079-335-3320",
    "lat": 34.9362061,
    "lng": 134.6401146,
    "tel": "079-335-3320",
    "url": "",
    "pref": "兵庫県",
    "city": "姫路市",
    "category": "rouken",
    "serviceType": "介護老人保健施設",
    "capacity": 0,
    "openDays": [],
    "openDaysNote": ""
  },
  {
    "id": "2854080047",
    "name": "介護老人保健施設マリア・ヴィラ",
    "kana": "カイゴロウジンホケンシセツ　マリア・ヴィラ",
    "address": "兵庫県姫路市仁豊野650番地",
    "lat": 34.878267,
    "lng": 134.7314751,
    "tel": "079-265-5131",
    "url": "http://himemaria.or.jp",
    "pref": "兵庫県",
    "city": "姫路市",
    "category": "rouken",
    "serviceType": "介護老人保健施設",
    "capacity": 100,
    "openDays": [],
    "openDaysNote": ""
  },
  {
    "id": "2854080039",
    "name": "社会医療法人恵風会　老人保健施設　老人ケアセンター緑ヶ丘",
    "kana": "シャカイイリョウホウジンケイフウカイロウジンホケンシセツロウジンケアセンターミドリガオカ",
    "address": "兵庫県姫路市西今宿5丁目3番8号",
    "lat": 34.8445205,
    "lng": 134.6611736,
    "tel": "079-293-3211",
    "url": "http://www.keifukai.or.jp",
    "pref": "兵庫県",
    "city": "姫路市",
    "category": "rouken",
    "serviceType": "介護老人保健施設",
    "capacity": 94,
    "openDays": [],
    "openDaysNote": ""
  },
  {
    "id": "2854080104",
    "name": "老人保健施設つなしま",
    "kana": "ロウジンホケンシセツツナシマ",
    "address": "兵庫県姫路市御立西４丁目１番２５号",
    "lat": 34.8616574,
    "lng": 134.6600537,
    "tel": "079-291-3181",
    "url": "http://www.Kousei-hp.jp/",
    "pref": "兵庫県",
    "city": "姫路市",
    "category": "rouken",
    "serviceType": "介護老人保健施設",
    "capacity": 0,
    "openDays": [],
    "openDaysNote": ""
  },
  {
    "id": "2854080096",
    "name": "老人保健施設ハピネス五葉",
    "kana": "ロウジンホケンシセツハピネスイツハ",
    "address": "兵庫県姫路市本町165番地",
    "lat": 34.8326747,
    "lng": 134.689613,
    "tel": "079-288-9881",
    "url": "https://www.itsuhakai.or.jp",
    "pref": "兵庫県",
    "city": "姫路市",
    "category": "rouken",
    "serviceType": "介護老人保健施設",
    "capacity": 0,
    "openDays": [],
    "openDaysNote": ""
  },
  {
    "id": "2851180022",
    "name": "介護老人保健施設　エスペランサ",
    "kana": "カイゴロウジンホケンシセツ　エスペランサ",
    "address": "宝塚市山本丸橋2-22-1",
    "lat": 34.813386,
    "lng": 135.394761,
    "tel": "0797-82-3338",
    "url": "http://www.esperanza.or.jp",
    "pref": "兵庫県",
    "city": "宝塚市",
    "category": "rouken",
    "serviceType": "介護老人保健施設",
    "capacity": 0,
    "openDays": [],
    "openDaysNote": ""
  },
  {
    "id": "2851180030",
    "name": "介護老人保健施設　西谷憩いの家",
    "kana": "カイゴロウジンホケンシセツ　ニシタニイコイノイエ",
    "address": "兵庫県宝塚市大原野字波坂2-7",
    "lat": 34.9092934,
    "lng": 135.2992088,
    "tel": "0797-91-1234",
    "url": "https://www.nisitanikai.jp",
    "pref": "兵庫県",
    "city": "宝塚市",
    "category": "rouken",
    "serviceType": "介護老人保健施設",
    "capacity": 100,
    "openDays": [],
    "openDaysNote": ""
  },
  {
    "id": "2851180048",
    "name": "介護老人保健施設ケアヴィラ宝塚",
    "kana": "カイゴロウジンホケンシセツケアウ゛ィラタカラヅカ",
    "address": "兵庫県宝塚市亀井町10-51",
    "lat": 34.7924877,
    "lng": 135.3630534,
    "tel": "0797-71-6510",
    "url": "http://www.carevilla.com/takarazuka/",
    "pref": "兵庫県",
    "city": "宝塚市",
    "category": "rouken",
    "serviceType": "介護老人保健施設",
    "capacity": 0,
    "openDays": [],
    "openDaysNote": ""
  },
  {
    "id": "2851180063",
    "name": "介護老人保健施設ケアヴィラ宝塚",
    "kana": "カイゴロウジンホケンシセツケアゔィラタカラヅカ",
    "address": "兵庫県宝塚市亀井町10-51",
    "lat": 34.7924877,
    "lng": 135.3630534,
    "tel": "0797-71-6510",
    "url": "http：//www.carevilla.com/takarazuka/",
    "pref": "兵庫県",
    "city": "宝塚市",
    "category": "rouken",
    "serviceType": "介護老人保健施設",
    "capacity": null,
    "openDays": [],
    "openDaysNote": ""
  },
  {
    "id": "2851180055",
    "name": "介護老人保健施設ステップハウス宝塚",
    "kana": "カイゴロウジンホケンシセツステップハウスタカラヅカ",
    "address": "兵庫県宝塚市小浜４丁目５番６号",
    "lat": 34.8049558,
    "lng": 135.3660889,
    "tel": "0797-86-8823",
    "url": "www.takarazuka-fukushi.or.jp/",
    "pref": "兵庫県",
    "city": "宝塚市",
    "category": "rouken",
    "serviceType": "介護老人保健施設",
    "capacity": 0,
    "openDays": [],
    "openDaysNote": ""
  },
  {
    "id": "2854480015",
    "name": "医療法人敬愛会介護老人保健施設豊岡シルバーステイ",
    "kana": "イリョウホウジンケイアイカイカイゴロウジンホケンシセツトヨオカシルバーステイ",
    "address": "兵庫県豊岡市戸牧1132-2",
    "lat": 35.5278849,
    "lng": 134.8050474,
    "tel": "0796-26-8686",
    "url": "http://www.keiai-kai.jp/",
    "pref": "兵庫県",
    "city": "豊岡市",
    "category": "rouken",
    "serviceType": "介護老人保健施設",
    "capacity": 0,
    "openDays": [],
    "openDaysNote": ""
  },
  {
    "id": "2854680010",
    "name": "介護老人保健施設　出石愛の園",
    "kana": "カイゴロウジンホケンシセツ　イズシアイノソノ",
    "address": "兵庫県豊岡市出石町福住１３１３",
    "lat": 35.46769,
    "lng": 134.859093,
    "tel": "0796-52-7001",
    "url": "http://www.izushi-ainosono.com",
    "pref": "兵庫県",
    "city": "豊岡市",
    "category": "rouken",
    "serviceType": "介護老人保健施設",
    "capacity": 0,
    "openDays": [],
    "openDaysNote": ""
  },
  {
    "id": "2852080031",
    "name": "介護老人保健施設　ライフ明海",
    "kana": "カイゴロウジンホケンシセツ　ライフメイカイ",
    "address": "兵庫県明石市藤江201",
    "lat": 34.6560915,
    "lng": 134.9536709,
    "tel": "078-925-2005",
    "url": "http://www.meikai.or.jp",
    "pref": "兵庫県",
    "city": "明石市",
    "category": "rouken",
    "serviceType": "介護老人保健施設",
    "capacity": 0,
    "openDays": [],
    "openDaysNote": ""
  },
  {
    "id": "2852080064",
    "name": "介護老人保健施設　希望",
    "kana": "カイゴロウジンホケンシセツ　キボウ",
    "address": "明石市魚住町清水2744-30",
    "lat": 34.7222988,
    "lng": 134.9058884,
    "tel": "078-944-1511",
    "url": "http://www.athp.jp/kibou.html",
    "pref": "兵庫県",
    "city": "明石市",
    "category": "rouken",
    "serviceType": "介護老人保健施設",
    "capacity": 0,
    "openDays": [],
    "openDaysNote": ""
  },
  {
    "id": "2852080072",
    "name": "介護老人保健施設　清華苑養力センター",
    "kana": "カイゴロウジンホケンシセツ　セイカエンヨウリキセンター",
    "address": "兵庫県明石市大久保町大窪３１０７－５",
    "lat": 34.7081557,
    "lng": 134.9471627,
    "tel": "078-934-0070",
    "url": "http://www.seikaen.jp",
    "pref": "兵庫県",
    "city": "明石市",
    "category": "rouken",
    "serviceType": "介護老人保健施設",
    "capacity": 0,
    "openDays": [],
    "openDaysNote": ""
  },
  {
    "id": "2852080015",
    "name": "介護老人保健施設恵泉",
    "kana": "カイゴロウジンホケンシセツケイセン",
    "address": "明石市大久保町大窪3101-1",
    "lat": 34.709825,
    "lng": 134.9472682,
    "tel": "078-936-8003",
    "url": "http://www.akashi-keisen.com",
    "pref": "兵庫県",
    "city": "明石市",
    "category": "rouken",
    "serviceType": "介護老人保健施設",
    "capacity": 186,
    "openDays": [],
    "openDaysNote": ""
  },
  {
    "id": "2852080049",
    "name": "老人保健施設　あさぎりむつみ荘",
    "kana": "ロウジンホケンシセツ　アサギリムツミソウ",
    "address": "明石市朝霧台１１２０－４",
    "lat": 34.655109,
    "lng": 135.0176518,
    "tel": "078-911-0623",
    "url": "http://www.nagomikai.or.jp/",
    "pref": "兵庫県",
    "city": "明石市",
    "category": "rouken",
    "serviceType": "介護老人保健施設",
    "capacity": 60,
    "openDays": [],
    "openDaysNote": ""
  },
  {
    "id": "2852080056",
    "name": "老人保健施設　エスポアール遙",
    "kana": "ロウジンホケンシセツ　エスポアールハルカ",
    "address": "兵庫県明石市魚住町清水2183",
    "lat": 34.7205601,
    "lng": 134.8916205,
    "tel": "078-944-3377",
    "url": "http:www.akashidoujin.jp",
    "pref": "兵庫県",
    "city": "明石市",
    "category": "rouken",
    "serviceType": "介護老人保健施設",
    "capacity": 50,
    "openDays": [],
    "openDaysNote": ""
  },
  {
    "id": "2854880016",
    "name": "公立八鹿病院　老人保健施設",
    "kana": "コウリツヨウカビョウインロウジンホケンシセツ",
    "address": "兵庫県養父市八鹿町下網場413番地",
    "lat": 35.4041462,
    "lng": 134.774254,
    "tel": "079-662-2355",
    "url": "http://www.hosp.yoka.hyogo.jp/kaigorouken",
    "pref": "兵庫県",
    "city": "養父市",
    "category": "rouken",
    "serviceType": "介護老人保健施設",
    "capacity": 98,
    "openDays": [],
    "openDaysNote": ""
  }
]