[
  {
    "id": "152980017",
    "name": "旭川老人保健施設　ふれあい",
    "kana": "アサヒカワロウジンホケンシセツフレアイ",
    "address": "旭川市錦町18丁目2150番地",
    "lat": 43.7916903,
    "lng": 142.3323598,
    "tel": "0166-51-1818",
    "url": "http://www.keishinkai.jp.net/",
    "pref": "北海道",
    "city": "旭川市",
    "category": "rouken",
    "serviceType": "介護老人保健施設",
    "capacity": 0,
    "openDays": [],
    "openDaysNote": ""
  },
  {
    "id": "152980132",
    "name": "医療法人仁友会　介護老人保健施設みやびの森",
    "kana": "イリョウホウジンジンユウカイ　カイゴロウジンホケンシセツミヤビノモリ",
    "address": "北海道旭川市東旭川町下兵村320番18",
    "lat": 43.7730937,
    "lng": 142.4321168,
    "tel": "0166-36-6520",
    "url": "https://miyabi.jinyukai.jp/",
    "pref": "北海道",
    "city": "旭川市",
    "category": "rouken",
    "serviceType": "介護老人保健施設",
    "capacity": 0,
    "openDays": [],
    "openDaysNote": ""
  },
  {
    "id": "152980108",
    "name": "介護老人保健施設　ことぶき",
    "kana": "カイゴロウジンホケンシセツ　コトブキ",
    "address": "旭川市東旭川町上兵村35番地5",
    "lat": 43.779830631976,
    "lng": 142.439013134393,
    "tel": "0166-36-1940",
    "url": "http://www.keisenkai.or.jp",
    "pref": "北海道",
    "city": "旭川市",
    "category": "rouken",
    "serviceType": "介護老人保健施設",
    "capacity": 0,
    "openDays": [],
    "openDaysNote": ""
  },
  {
    "id": "152980074",
    "name": "介護老人保健施設　フェニックス",
    "kana": "カイゴロウジンホケンシセツ　フェニックス",
    "address": "旭川市豊岡１３条１丁目１番１７号",
    "lat": 43.7711474,
    "lng": 142.390141,
    "tel": "0166-34-8181",
    "url": "http://www.328181.com",
    "pref": "北海道",
    "city": "旭川市",
    "category": "rouken",
    "serviceType": "介護老人保健施設",
    "capacity": 100,
    "openDays": [],
    "openDaysNote": ""
  },
  {
    "id": "152980033",
    "name": "介護老人保健施設旭泉苑",
    "kana": "カイゴロウジンホケンシセツキョクセンエン",
    "address": "旭川市永山4条6丁目3番24号",
    "lat": 43.7920907,
    "lng": 142.4094908,
    "tel": "0166-47-8000",
    "url": "http://kyokuhoukai.or.jp",
    "pref": "北海道",
    "city": "旭川市",
    "category": "rouken",
    "serviceType": "介護老人保健施設",
    "capacity": 0,
    "openDays": [],
    "openDaysNote": ""
  },
  {
    "id": "152980124",
    "name": "介護老人保健施設旭泉苑　（ユニット型）",
    "kana": "カイゴロウジンホケンシセツキョクセンエン　（ユニットガタ）",
    "address": "北海道旭川市永山四条6丁目3番24号",
    "lat": 43.7920907,
    "lng": 142.4094908,
    "tel": "0166-47-8000",
    "url": "http://kyokuhoukai.or.jp",
    "pref": "北海道",
    "city": "旭川市",
    "category": "rouken",
    "serviceType": "介護老人保健施設",
    "capacity": null,
    "openDays": [],
    "openDaysNote": ""
  },
  {
    "id": "152980041",
    "name": "老人保健施設　グリーンライフ",
    "kana": "ロウジンホケンシセツ　グリーンライフ",
    "address": "北海道旭川市神楽岡１４条７丁目１番１号",
    "lat": 43.7348758,
    "lng": 142.3624762,
    "tel": "0166-65-7700",
    "url": "https://sousei-hp.com/greenlife/",
    "pref": "北海道",
    "city": "旭川市",
    "category": "rouken",
    "serviceType": "介護老人保健施設",
    "capacity": 0,
    "openDays": [],
    "openDaysNote": ""
  },
  {
    "id": "152980025",
    "name": "老人保健施設　サニーヒル",
    "kana": "ロウジンホケンシセツ　サニーヒル",
    "address": "旭川市末広８条６丁目５３０７",
    "lat": 43.8196834,
    "lng": 142.3733484,
    "tel": "0166-51-1127",
    "url": "http://www.a-fukushi.or.jp/",
    "pref": "北海道",
    "city": "旭川市",
    "category": "rouken",
    "serviceType": "介護老人保健施設",
    "capacity": 0,
    "openDays": [],
    "openDaysNote": ""
  },
  {
    "id": "152980082",
    "name": "老人保健施設かたくりの郷",
    "kana": "ロウジンホケンシセツカタクリノサト",
    "address": "北海道旭川市神楽３条４丁目２番１４号",
    "lat": 43.7622248,
    "lng": 142.3480517,
    "tel": "0166-63-1165",
    "url": "http://www.dohoku-kinikyo.or.jp",
    "pref": "北海道",
    "city": "旭川市",
    "category": "rouken",
    "serviceType": "介護老人保健施設",
    "capacity": 0,
    "openDays": [],
    "openDaysNote": ""
  },
  {
    "id": "152980058",
    "name": "老人保健施設さくら館",
    "kana": "ロウジンホケンシセツサクラカン",
    "address": "旭川市４条西４丁目２番１号",
    "lat": 43.7737345,
    "lng": 142.3458041,
    "tel": "0166-27-0200",
    "url": "http://www.keiyukai-group.com/sakurakan",
    "pref": "北海道",
    "city": "旭川市",
    "category": "rouken",
    "serviceType": "介護老人保健施設",
    "capacity": 86,
    "openDays": [],
    "openDaysNote": ""
  },
  {
    "id": "152980066",
    "name": "老人保健施設愛善ハイツ",
    "kana": "ロウジンホケンシセツアイゼンハイツ",
    "address": "北海道旭川市春光台4条11丁目5249番地の2老人保健施設　愛善ハイツ 老人保健施設　愛善ハイツ",
    "lat": 43.8316737,
    "lng": 142.3719585,
    "tel": "0166-54-7371",
    "url": "http://aizenkai-swc.jp/",
    "pref": "北海道",
    "city": "旭川市",
    "category": "rouken",
    "serviceType": "介護老人保健施設",
    "capacity": 0,
    "openDays": [],
    "openDaysNote": ""
  },
  {
    "id": "157380015",
    "name": "芦別市介護老人保健施設",
    "kana": "アシベツシカイゴロウジンホケンシセツ",
    "address": "北海道芦別市本町１４番地",
    "lat": 43.5183024,
    "lng": 142.1956692,
    "tel": "0124-22-1816",
    "url": "http://www.ans.co.jp/u/rouken-subaru/",
    "pref": "北海道",
    "city": "芦別市",
    "category": "rouken",
    "serviceType": "介護老人保健施設",
    "capacity": 0,
    "openDays": [],
    "openDaysNote": ""
  },
  {
    "id": "153780028",
    "name": "介護老人保健施設　プライムヘルシータウン湘南",
    "kana": "カイゴロウジンホケンシセツ　プライムヘルシータウンショウナン",
    "address": "北海道伊達市松ヶ枝町157番地110",
    "lat": 42.4765841,
    "lng": 140.8839048,
    "tel": "0142-22-1200",
    "url": "http://www.koseikai-wel.or.jp/",
    "pref": "北海道",
    "city": "伊達市",
    "category": "rouken",
    "serviceType": "介護老人保健施設",
    "capacity": 100,
    "openDays": [],
    "openDaysNote": ""
  },
  {
    "id": "153780044",
    "name": "社会医療法人慈恵会　介護老人保健施設　セイント・ヴィレッジ",
    "kana": "シャカイイリョウホウジン　ジケイカイ　カイゴロウジンホケンシセツ　セイント・ビレッジ",
    "address": "伊達市舟岡町214番地28",
    "lat": 42.4669499599985,
    "lng": 140.882992976819,
    "tel": "0142-82-9351",
    "url": "http://www.jikeikai.or.jp",
    "pref": "北海道",
    "city": "伊達市",
    "category": "rouken",
    "serviceType": "介護老人保健施設",
    "capacity": 80,
    "openDays": [],
    "openDaysNote": ""
  },
  {
    "id": "153880067",
    "name": "介護老人保健施設浦河緑苑",
    "kana": "カイゴロウジンホケンシセツウラカワリョクエン",
    "address": "北海道浦河郡浦河町字東栄571番3",
    "lat": 42.1953432,
    "lng": 142.6949208,
    "tel": "0146-26-3911",
    "url": "http://www.sanseikai-med.jp/urakawaryokuen/",
    "pref": "北海道",
    "city": "浦河町",
    "category": "rouken",
    "serviceType": "介護老人保健施設",
    "capacity": 0,
    "openDays": [],
    "openDaysNote": ""
  },
  {
    "id": "155480015",
    "name": "介護老人保健施設　プライム　いくたはら",
    "kana": "カイゴロウジンホケンシセツ　プライム　イクタハラ",
    "address": "北海道紋別郡遠軽町生田原伊吹6番地1",
    "lat": 43.9057259,
    "lng": 143.5306222,
    "tel": "0158-45-2600",
    "url": "http://koyukai-g.jp/puraimu/",
    "pref": "北海道",
    "city": "遠軽町",
    "category": "rouken",
    "serviceType": "介護老人保健施設",
    "capacity": 100,
    "openDays": [],
    "openDaysNote": ""
  },
  {
    "id": "154780019",
    "name": "介護老人保健施設とかち",
    "kana": "カイゴロウジンホケンシセツトカチ",
    "address": "北海道河東郡音更町緑陽台南区2番地6",
    "lat": 42.9639250630342,
    "lng": 143.198648916672,
    "tel": "0155-30-2300",
    "url": "https://www.zhi.or.jp/t/",
    "pref": "北海道",
    "city": "音更町",
    "category": "rouken",
    "serviceType": "介護老人保健施設",
    "capacity": 0,
    "openDays": [],
    "openDaysNote": ""
  },
  {
    "id": "154780068",
    "name": "社会福祉法人手稲ロータス会　介護老人保健施設あんじゅ音更",
    "kana": "シャカイフクシホウジンテイネロータスカイ　カイゴロウジンホケンシセツアンジュオトフケ",
    "address": "北海道河東郡音更町中鈴蘭元町2番地9",
    "lat": 42.9548715380471,
    "lng": 143.190805846033,
    "tel": "0155-30-8211",
    "url": "http://www.teinelotuskai.com/anju.otofuke/",
    "pref": "北海道",
    "city": "音更町",
    "category": "rouken",
    "serviceType": "介護老人保健施設",
    "capacity": 0,
    "openDays": [],
    "openDaysNote": ""
  },
  {
    "id": "154780035",
    "name": "介護老人保健施設りらく",
    "kana": "カイゴロウジンホケンシセツリラク",
    "address": "河西郡芽室町東芽室南2線16-2",
    "lat": 42.9132552,
    "lng": 143.0934506,
    "tel": "0155-61-2266",
    "url": "http://www.riraku.jp",
    "pref": "北海道",
    "city": "芽室町",
    "category": "rouken",
    "serviceType": "介護老人保健施設",
    "capacity": 100,
    "openDays": [],
    "openDaysNote": ""
  },
  {
    "id": "155780034",
    "name": "介護老人保健施設　ゆあみーる",
    "kana": "カイゴロウジンホケンシセツ　ユアミール",
    "address": "岩見沢市８条西１９丁目８－１",
    "lat": 43.1910026,
    "lng": 141.7525437,
    "tel": "0126-20-2311",
    "url": "http://www.iwamizawanouge.com/facilities/index.shtml",
    "pref": "北海道",
    "city": "岩見沢市",
    "category": "rouken",
    "serviceType": "介護老人保健施設",
    "capacity": 0,
    "openDays": [],
    "openDaysNote": ""
  },
  {
    "id": "155780026",
    "name": "介護老人保健施設　北翔館",
    "kana": "カイゴロウジンホケンシセツ　ホクショウカン",
    "address": "北海道岩見沢市１０条西２１丁目２番地",
    "lat": 43.187651093945,
    "lng": 141.753164243517,
    "tel": "0126-32-2177",
    "url": "http://www.hokushokai.or.jp/",
    "pref": "北海道",
    "city": "岩見沢市",
    "category": "rouken",
    "serviceType": "介護老人保健施設",
    "capacity": 150,
    "openDays": [],
    "openDaysNote": ""
  },
  {
    "id": "155780018",
    "name": "北村温泉ナーシングホーム",
    "kana": "キタムラオンセンナーシングホーム",
    "address": "北海道岩見沢市北村赤川５８６番地６３",
    "lat": 43.2603464,
    "lng": 141.7013213,
    "tel": "0126-56-2241",
    "url": "http://www.kitamura-yuai.jp/",
    "pref": "北海道",
    "city": "岩見沢市",
    "category": "rouken",
    "serviceType": "介護老人保健施設",
    "capacity": 0,
    "openDays": [],
    "openDaysNote": ""
  },
  {
    "id": "152380028",
    "name": "社会福祉法人渓仁会　介護老人保健施設コミュニティホーム岩内",
    "kana": "シャカイフクシホウジンケイジンカイ　カイゴロウジンホケンシセツコミュニティホームイワナイ",
    "address": "岩内郡岩内町字野束69番地26",
    "lat": 42.9667642,
    "lng": 140.5099264,
    "tel": "0135-62-3800",
    "url": "https://www.keijinkai.com/shafuku/c-iwanai/",
    "pref": "北海道",
    "city": "岩内町",
    "category": "rouken",
    "serviceType": "介護老人保健施設",
    "capacity": 0,
    "openDays": [],
    "openDaysNote": ""
  },
  {
    "id": "152280012",
    "name": "介護老人保健施設　麓華苑",
    "kana": "カイゴロウジンホケンシセツ　ロッカエン",
    "address": "北海道虻田郡倶知安町南3条東5丁目1番地2",
    "lat": 42.8994327,
    "lng": 140.7621617,
    "tel": "0136-22-0003",
    "url": "http://www.shirakaba-group.jp",
    "pref": "北海道",
    "city": "倶知安町",
    "category": "rouken",
    "serviceType": "介護老人保健施設",
    "capacity": 0,
    "openDays": [],
    "openDaysNote": ""
  },
  {
    "id": "154180038",
    "name": "介護老人保健施設　老健たいよう",
    "kana": "カイゴロウジンホケンシセツ　ロウケンタイヨウ",
    "address": "北海道釧路市春採７丁目９番８号",
    "lat": 42.9784487,
    "lng": 144.419532,
    "tel": "0154-46-7233",
    "url": "http://www.kushiro-souseikai.com",
    "pref": "北海道",
    "city": "釧路市",
    "category": "rouken",
    "serviceType": "介護老人保健施設",
    "capacity": 0,
    "openDays": [],
    "openDaysNote": ""
  },
  {
    "id": "154180012",
    "name": "介護老人保健施設老健くしろ",
    "kana": "カイゴロウジンホケンシセツロウケンクシロ",
    "address": "北海道釧路市昭和１９０番地４４６２",
    "lat": 43.0324237,
    "lng": 144.3558287,
    "tel": "0154-55-2331",
    "url": "http://www.hjg.jp",
    "pref": "北海道",
    "city": "釧路市",
    "category": "rouken",
    "serviceType": "介護老人保健施設",
    "capacity": 100,
    "openDays": [],
    "openDaysNote": ""
  },
  {
    "id": "154180020",
    "name": "道東勤医協老人保健施設ケアコートひまわり",
    "kana": "ドウトウキンイキョウ　ロウジンホケンシセツケアコートヒマワリ",
    "address": "北海道釧路市堀川町8番43号",
    "lat": 42.9983536444247,
    "lng": 144.392599307935,
    "tel": "0154-24-1165",
    "url": "http://dotokin-kaigo.com/",
    "pref": "北海道",
    "city": "釧路市",
    "category": "rouken",
    "serviceType": "介護老人保健施設",
    "capacity": 0,
    "openDays": [],
    "openDaysNote": ""
  },
  {
    "id": "154180046",
    "name": "老人保健施設　星が浦",
    "kana": "ロウジンホケンシセツ　ホシガウラ",
    "address": "北海道釧路市星が浦大通３丁目９番３５号",
    "lat": 43.0165404,
    "lng": 144.3169078,
    "tel": "0154-55-2800",
    "url": "http://www.kojinkai.or.jp",
    "pref": "北海道",
    "city": "釧路市",
    "category": "rouken",
    "serviceType": "介護老人保健施設",
    "capacity": 86,
    "openDays": [],
    "openDaysNote": ""
  },
  {
    "id": "154380026",
    "name": "介護老人保健施設　ナーシングホームコスモス",
    "kana": "カイゴロウジンホケンシセツ　ナーシングホームコスモス",
    "address": "釧路郡釧路町陸2丁目1番地１０",
    "lat": 43.0106144,
    "lng": 144.41682,
    "tel": "0154-38-5457",
    "url": "http://www.fuukikai.com/",
    "pref": "北海道",
    "city": "釧路町",
    "category": "rouken",
    "serviceType": "介護老人保健施設",
    "capacity": 100,
    "openDays": [],
    "openDaysNote": ""
  },
  {
    "id": "155880016",
    "name": "介護老人保健施設ガーデンハウスくりやま",
    "kana": "カイゴロウジンホケンシセツガーデンハウスクリヤマ",
    "address": "夕張郡栗山町朝日4丁目9番33号",
    "lat": 43.0554154,
    "lng": 141.7952875,
    "tel": "0123-72-2600",
    "url": "http://www.aizenkai.or.jp/",
    "pref": "北海道",
    "city": "栗山町",
    "category": "rouken",
    "serviceType": "介護老人保健施設",
    "capacity": 0,
    "openDays": [],
    "openDaysNote": ""
  },
  {
    "id": "151280013",
    "name": "介護老人保健施設アートライフ恵庭",
    "kana": "カイゴロウジンホケンシセツ　アートライフエニワ",
    "address": "北海道恵庭市西島松567番地1",
    "lat": 42.9102885,
    "lng": 141.5617658,
    "tel": "0123-37-1511",
    "url": "http://www.artlife-eniwa.jp/",
    "pref": "北海道",
    "city": "恵庭市",
    "category": "rouken",
    "serviceType": "介護老人保健施設",
    "capacity": null,
    "openDays": [],
    "openDaysNote": ""
  },
  {
    "id": "151280021",
    "name": "社会医療法人北晨会　介護老人保健施設　恵み野ケアサポート",
    "kana": "シャカイイリョウホウジンホクシンカイカイゴロウジンホケンシセツメグミノケアサポート",
    "address": "恵庭市恵み野西２丁目３番地４",
    "lat": 42.899985737346,
    "lng": 141.577228428836,
    "tel": "0123-37-5060",
    "url": "http://www.megumino.or.jp/caresupport/cs_top.html",
    "pref": "北海道",
    "city": "恵庭市",
    "category": "rouken",
    "serviceType": "介護老人保健施設",
    "capacity": 0,
    "openDays": [],
    "openDaysNote": ""
  },
  {
    "id": "156180036",
    "name": "介護老人保健施設　月形緑苑",
    "kana": "カイゴロウジンホケンシセツ　ツキガタリョクエン",
    "address": "北海道樺戸郡月形町８１番７２",
    "lat": 43.3414576,
    "lng": 141.6821199,
    "tel": "0126-53-2222",
    "url": "https://www.sanseikai-med.jp/tsukigataryokuen/",
    "pref": "北海道",
    "city": "月形町",
    "category": "rouken",
    "serviceType": "介護老人保健施設",
    "capacity": 70,
    "openDays": [],
    "openDaysNote": ""
  },
  {
    "id": "154380034",
    "name": "厚岸町介護老人保健施設",
    "kana": "アッケシチョウカイゴロウジンホケンシセツ",
    "address": "北海道厚岸郡厚岸町住の江１丁目１番地",
    "lat": 43.057492,
    "lng": 144.8470043,
    "tel": "0153-52-3145",
    "url": "http://www.akkeshi-town.jp/byoin",
    "pref": "北海道",
    "city": "厚岸町",
    "category": "rouken",
    "serviceType": "介護老人保健施設",
    "capacity": null,
    "openDays": [],
    "openDaysNote": ""
  },
  {
    "id": "151680014",
    "name": "介護老人保健施設　カタセールえさし",
    "kana": "カイゴロウジンホケンシセツ　カタセールエサシ",
    "address": "北海道檜山郡江差町字尾山町153番地1",
    "lat": 41.8991391,
    "lng": 140.1440553,
    "tel": "0139-54-2121",
    "url": "https://www.kei-ai-kai.jp/sasaki-hospital/kataseru_esashi/",
    "pref": "北海道",
    "city": "江差町",
    "category": "rouken",
    "serviceType": "介護老人保健施設",
    "capacity": 80,
    "openDays": [],
    "openDaysNote": ""
  },
  {
    "id": "151080082",
    "name": "介護老人保健施設　日本介護江別",
    "kana": "カイゴロウジンホケンシセツ　ニホンカイゴエベツ",
    "address": "北海道江別市大麻元町154番地12",
    "lat": 43.0851372,
    "lng": 141.4973064,
    "tel": "011-802-6550",
    "url": "https://tsushima-group.com/business/agency/",
    "pref": "北海道",
    "city": "江別市",
    "category": "rouken",
    "serviceType": "介護老人保健施設",
    "capacity": 0,
    "openDays": [],
    "openDaysNote": ""
  },
  {
    "id": "151080025",
    "name": "介護老人保健施設　友愛ナーシングホーム",
    "kana": "カイゴロウジンホケンシセツ　ユウアイナーシングホーム",
    "address": "江別市新栄台46番地の12",
    "lat": 43.1081016,
    "lng": 141.5113542,
    "tel": "011-382-1110",
    "url": "http://www.yuaifukushi/",
    "pref": "北海道",
    "city": "江別市",
    "category": "rouken",
    "serviceType": "介護老人保健施設",
    "capacity": 0,
    "openDays": [],
    "openDaysNote": ""
  },
  {
    "id": "151080033",
    "name": "介護老人保健施設はるにれ",
    "kana": "カイゴロウジンホケンシセツハルニレ",
    "address": "北海道江別市大麻北町607番地2",
    "lat": 43.0891781,
    "lng": 141.4993484,
    "tel": "011-386-0550",
    "url": "http://www.irryo-harunire.or.jp",
    "pref": "北海道",
    "city": "江別市",
    "category": "rouken",
    "serviceType": "介護老人保健施設",
    "capacity": 100,
    "openDays": [],
    "openDaysNote": ""
  },
  {
    "id": "151080074",
    "name": "介護老人保健施設葵の園・江別",
    "kana": "カイゴロウジンホケンシセツアオイノソノ・エベツ",
    "address": "北海道江別市大麻南樹町１－１",
    "lat": 43.0823899,
    "lng": 141.5026429,
    "tel": "011-387-6655",
    "url": "https://www.aoikai.jp/ebetsu/",
    "pref": "北海道",
    "city": "江別市",
    "category": "rouken",
    "serviceType": "介護老人保健施設",
    "capacity": 0,
    "openDays": [],
    "openDaysNote": ""
  },
  {
    "id": "151080041",
    "name": "老健のっぽろ",
    "kana": "ロウケンノッポロ",
    "address": "江別市東野幌396番地32",
    "lat": 43.0725671,
    "lng": 141.5457536,
    "tel": "011-381-1133",
    "url": "http://www.nopporo.or.jp/rouken_k/index.html",
    "pref": "北海道",
    "city": "江別市",
    "category": "rouken",
    "serviceType": "介護老人保健施設",
    "capacity": 52,
    "openDays": [],
    "openDaysNote": ""
  },
  {
    "id": "151080066",
    "name": "老健のっぽろ（ユニット）",
    "kana": "ロウケン　ノッポロ　（ユニット）",
    "address": "江別市東野幌396番地32",
    "lat": 43.0725671,
    "lng": 141.5457536,
    "tel": "011-381-1133",
    "url": "http://www.nopporo.or.jp/rouken_k/index.html",
    "pref": "北海道",
    "city": "江別市",
    "category": "rouken",
    "serviceType": "介護老人保健施設",
    "capacity": 48,
    "openDays": [],
    "openDaysNote": ""
  },
  {
    "id": "152180022",
    "name": "ユニット型介護老人保健施設湯の里・黒松内",
    "kana": "ユニットガタカイゴロウジンホケンシセツユノサト・クロマツナイ",
    "address": "北海道寿都郡黒松内町字黒松内５６５番地１１",
    "lat": 42.6576962,
    "lng": 140.3129454,
    "tel": "0136-77-2120",
    "url": "https://tsukushien.or.jp/",
    "pref": "北海道",
    "city": "黒松内町",
    "category": "rouken",
    "serviceType": "介護老人保健施設",
    "capacity": 0,
    "openDays": [],
    "openDaysNote": ""
  },
  {
    "id": "152180014",
    "name": "湯の里・黒松内",
    "kana": "ユノサト・クロマツナイ",
    "address": "北海道寿都郡黒松内町字黒松内５６５番１１",
    "lat": 42.6576962,
    "lng": 140.3129454,
    "tel": "0136-77-2120",
    "url": "http://www.tukusien.com/",
    "pref": "北海道",
    "city": "黒松内町",
    "category": "rouken",
    "serviceType": "介護老人保健施設",
    "capacity": 0,
    "openDays": [],
    "openDaysNote": ""
  },
  {
    "id": "151780012",
    "name": "今金町介護老人保健施設",
    "kana": "イマカネチョウカイゴロウジンホケンシセツ",
    "address": "北海道瀬棚郡今金町字今金１７－２",
    "lat": 42.4297362,
    "lng": 140.0074612,
    "tel": "0137-82-2780",
    "url": "http://www.town.imakane.lg.jp/",
    "pref": "北海道",
    "city": "今金町",
    "category": "rouken",
    "serviceType": "介護老人保健施設",
    "capacity": 80,
    "openDays": [],
    "openDaysNote": ""
  },
  {
    "id": "154280028",
    "name": "社会福法人根室恵徳会介護老人保健施設セラピーこざくら",
    "kana": "シャカイフクシホウジンネムロケイトクカイカイゴロウジンホケンシセツセラピーコザクラ",
    "address": "北海道根室市西浜町５丁目８９番地１",
    "lat": 43.3143274,
    "lng": 145.5655863,
    "tel": "0153-23-5522",
    "url": "",
    "pref": "北海道",
    "city": "根室市",
    "category": "rouken",
    "serviceType": "介護老人保健施設",
    "capacity": 0,
    "openDays": [],
    "openDaysNote": ""
  },
  {
    "id": "157180035",
    "name": "砂川介護老人保健施設みやかわ",
    "kana": "スナガワカイゴロウジンホケンシセツミヤカワ",
    "address": "北海道砂川市西3条南10丁目3番1号",
    "lat": 43.4792803,
    "lng": 141.9007667,
    "tel": "0125-55-2111",
    "url": "http://sunagawafukushikai.jp/",
    "pref": "北海道",
    "city": "砂川市",
    "category": "rouken",
    "serviceType": "介護老人保健施設",
    "capacity": 62,
    "openDays": [],
    "openDaysNote": ""
  },
  {
    "id": "150380095",
    "name": "医療法人徳洲会　介護老人保健施設コスモス",
    "kana": "イリョウホウジントクシュウカイ　カイゴロウジンホケンシセツコスモス",
    "address": "札幌市厚別区厚別町山本１０６３―２８",
    "lat": 43.0671567,
    "lng": 141.4604361,
    "tel": "011-895-1110",
    "url": "http://www.cosmoskaigo.com/",
    "pref": "北海道",
    "city": "札幌市厚別区",
    "category": "rouken",
    "serviceType": "介護老人保健施設",
    "capacity": 0,
    "openDays": [],
    "openDaysNote": ""
  },
  {
    "id": "150380087",
    "name": "介護老人保健施設あつべつ",
    "kana": "カイゴロウジンホケンシセツアツベツ",
    "address": "札幌市厚別区厚別町山本750番地6号",
    "lat": 43.0585439,
    "lng": 141.4625669,
    "tel": "011-896-5020",
    "url": "https://www.eiwakai.or.jp/",
    "pref": "北海道",
    "city": "札幌市厚別区",
    "category": "rouken",
    "serviceType": "介護老人保健施設",
    "capacity": 0,
    "openDays": [],
    "openDaysNote": ""
  },
  {
    "id": "150380038",
    "name": "介護老人保健施設ナーシングヴィラ大谷地",
    "kana": "カイゴロウジンホケンシセツナーシングウ゛ィラオオヤチ",
    "address": "札幌市厚別区大谷地東5丁目7番10号",
    "lat": 43.0229235167841,
    "lng": 141.457518331144,
    "tel": "011-892-3737",
    "url": "http://www.ohyachi-hp.or.jp/villa/",
    "pref": "北海道",
    "city": "札幌市厚別区",
    "category": "rouken",
    "serviceType": "介護老人保健施設",
    "capacity": 0,
    "openDays": [],
    "openDaysNote": ""
  },
  {
    "id": "150380046",
    "name": "厚別老人保健施設ディ・グリューネン",
    "kana": "アツベツロウジンホケンシセツ　ディ・グリューネン",
    "address": "札幌市厚別区下野幌38-18",
    "lat": 43.039333,
    "lng": 141.5021728,
    "tel": "011-898-5580",
    "url": "http://www.d-grunen.com",
    "pref": "北海道",
    "city": "札幌市厚別区",
    "category": "rouken",
    "serviceType": "介護老人保健施設",
    "capacity": 100,
    "openDays": [],
    "openDaysNote": ""
  },
  {
    "id": "150480036",
    "name": "介護老人保健施設　ほくと",
    "kana": "カイゴロウジンホケンシセツ　ホクト",
    "address": "札幌市手稲区手稲山口550番2",
    "lat": 43.1414931,
    "lng": 141.210103,
    "tel": "011-681-5556",
    "url": "http://www.hokubukai.or.jp/",
    "pref": "北海道",
    "city": "札幌市手稲区",
    "category": "rouken",
    "serviceType": "介護老人保健施設",
    "capacity": 0,
    "openDays": [],
    "openDaysNote": ""
  },
  {
    "id": "150480069",
    "name": "介護老人保健施設　ライフほしおき",
    "kana": "カイゴロウジンホケンシセツ　ライフホシオキ",
    "address": "札幌市手稲区星置1条4丁目2番10号",
    "lat": 43.132533,
    "lng": 141.2087536,
    "tel": "011-694-6668",
    "url": "http://tenboukai.com/",
    "pref": "北海道",
    "city": "札幌市手稲区",
    "category": "rouken",
    "serviceType": "介護老人保健施設",
    "capacity": 0,
    "openDays": [],
    "openDaysNote": ""
  },
  {
    "id": "150480028",
    "name": "介護老人保健施設　愛の里",
    "kana": "カイゴロウジンホケンシセツ　アイノサト",
    "address": "北海道札幌市手稲区西宮の沢1条4丁目14番5号",
    "lat": 43.1071152,
    "lng": 141.2629207,
    "tel": "011-681-6678",
    "url": "http://www.tanakamedical.net/ainosato/index.html",
    "pref": "北海道",
    "city": "札幌市手稲区",
    "category": "rouken",
    "serviceType": "介護老人保健施設",
    "capacity": 0,
    "openDays": [],
    "openDaysNote": ""
  },
  {
    "id": "150480051",
    "name": "介護老人保健施設　手稲あんじゅ",
    "kana": "カイゴロウジンホケンシセツ　テイネアンジュ",
    "address": "札幌市手稲区稲穂5条2丁目6番1号介護老人保健施設　手稲あんじゅ 介護老人保健施設　手稲あんじゅ",
    "lat": 43.1175687,
    "lng": 141.227803,
    "tel": "011-685-8200",
    "url": "http://teinelotuskai.com/",
    "pref": "北海道",
    "city": "札幌市手稲区",
    "category": "rouken",
    "serviceType": "介護老人保健施設",
    "capacity": 0,
    "openDays": [],
    "openDaysNote": ""
  },
  {
    "id": "150380145",
    "name": "医療法人社団　エス・エス・ジェイ　介護老人保健施設　北野の四季",
    "kana": "イリョウホウジンシャダンエスエスジェイカイゴロウジンホケンシセツキタノノシキ",
    "address": "北海道札幌市清田区北野１条２丁目１１番５０号",
    "lat": 43.0064899,
    "lng": 141.4309672,
    "tel": "011-881-2255",
    "url": "http://ssj-h.com/kitanonoshiki/",
    "pref": "北海道",
    "city": "札幌市清田区",
    "category": "rouken",
    "serviceType": "介護老人保健施設",
    "capacity": 0,
    "openDays": [],
    "openDaysNote": ""
  },
  {
    "id": "150580058",
    "name": "介護老人保健施設　清田北翔館　まいあの里",
    "kana": "カイゴロウジンホケンシセツ　キヨタホクショウカン　マイアノサト",
    "address": "札幌市清田区里塚２条４丁目２番５３号",
    "lat": 42.9840991,
    "lng": 141.4638185,
    "tel": "011-885-6540",
    "url": "http://www.hokushokai.or.jp/maianosato/",
    "pref": "北海道",
    "city": "札幌市清田区",
    "category": "rouken",
    "serviceType": "介護老人保健施設",
    "capacity": 0,
    "openDays": [],
    "openDaysNote": ""
  },
  {
    "id": "150380061",
    "name": "介護老人保健施設ノテげんきのでる里",
    "kana": "カイゴロウジンホケンシセツノテゲンキノデルサト",
    "address": "札幌市清田区真栄434番地6",
    "lat": 42.9725764047659,
    "lng": 141.432748016008,
    "tel": "011-885-5577",
    "url": "http://www.note.or.jp/facilities/type/02/",
    "pref": "北海道",
    "city": "札幌市清田区",
    "category": "rouken",
    "serviceType": "介護老人保健施設",
    "capacity": 0,
    "openDays": [],
    "openDaysNote": ""
  },
  {
    "id": "150480127",
    "name": "ヴェラス八軒",
    "kana": "ヴェラスハチケン",
    "address": "八軒６条東４丁目4-22",
    "lat": 43.0837063,
    "lng": 141.3229213,
    "tel": "011-728-1165",
    "url": "",
    "pref": "北海道",
    "city": "札幌市西区",
    "category": "rouken",
    "serviceType": "介護老人保健施設",
    "capacity": 0,
    "openDays": [],
    "openDaysNote": ""
  },
  {
    "id": "150480077",
    "name": "介護老人保健施設　エル・クォール平和",
    "kana": "カイゴロウジンホケンシセツ　エルクォールヘイワ",
    "address": "札幌市西区平和２条１１丁目２番５号",
    "lat": 43.0567205,
    "lng": 141.24383,
    "tel": "011-667-8111",
    "url": "http://www.seiwa-kai.or.jp/elqol",
    "pref": "北海道",
    "city": "札幌市西区",
    "category": "rouken",
    "serviceType": "介護老人保健施設",
    "capacity": 100,
    "openDays": [],
    "openDaysNote": ""
  },
  {
    "id": "150480010",
    "name": "介護老人保健施設セージュ山の手",
    "kana": "カイゴロウジンホケンシセツ　セージュヤマノテ",
    "address": "北海道札幌市西区山の手4条5丁目3-1",
    "lat": 43.0704561,
    "lng": 141.2940035,
    "tel": "011-614-2111",
    "url": "https://www.seijyu-yama.jp/",
    "pref": "北海道",
    "city": "札幌市西区",
    "category": "rouken",
    "serviceType": "介護老人保健施設",
    "capacity": 0,
    "openDays": [],
    "openDaysNote": ""
  },
  {
    "id": "150480085",
    "name": "介護老人保健施設ぴあケアさくら",
    "kana": "カイゴロウジンホケンシセツピアケアサクラ",
    "address": "北海道札幌市西区小別沢９７番地",
    "lat": 43.0490612007673,
    "lng": 141.267377622754,
    "tel": "011-668-2777",
    "url": "http://piacare.sub.jp/",
    "pref": "北海道",
    "city": "札幌市西区",
    "category": "rouken",
    "serviceType": "介護老人保健施設",
    "capacity": 80,
    "openDays": [],
    "openDaysNote": ""
  },
  {
    "id": "150480119",
    "name": "介護老人保健施設平和の杜",
    "kana": "カイゴロウジンホケンシセツヘイワノモリ",
    "address": "北海道札幌市西区平和420番地",
    "lat": 43.0577399930283,
    "lng": 141.226036673364,
    "tel": "011-668-2020",
    "url": "https://www.morinokai1001.jp",
    "pref": "北海道",
    "city": "札幌市西区",
    "category": "rouken",
    "serviceType": "介護老人保健施設",
    "capacity": 0,
    "openDays": [],
    "openDaysNote": ""
  },
  {
    "id": "150180065",
    "name": "介護療養型老人保健施設宮の森",
    "kana": "カイゴリョウヨウガタロウジンホケンシセツミヤノモリ",
    "address": "北海道札幌市中央区宮の森1237番地1",
    "lat": 43.0570357,
    "lng": 141.2921378,
    "tel": "011-611-2211",
    "url": "http://www.miyanomori-hp.or.jp",
    "pref": "北海道",
    "city": "札幌市中央区",
    "category": "rouken",
    "serviceType": "介護老人保健施設",
    "capacity": 0,
    "openDays": [],
    "openDaysNote": ""
  },
  {
    "id": "150180057",
    "name": "介護老人保健施設　フォーシーズン山鼻",
    "kana": "カイゴロウジンホケンシセツ　フォーシーズンヤマハナ",
    "address": "北海道札幌市中央区南１７条西９丁目１-１３",
    "lat": 43.0371071980703,
    "lng": 141.346576274869,
    "tel": "011-561-1200",
    "url": "http://fourseason.or.jp/",
    "pref": "北海道",
    "city": "札幌市中央区",
    "category": "rouken",
    "serviceType": "介護老人保健施設",
    "capacity": 80,
    "openDays": [],
    "openDaysNote": ""
  },
  {
    "id": "170103675",
    "name": "介護老人保健施設けあ・ばんけい",
    "kana": "カイゴロウジンホケンシセツケア・バンケイ",
    "address": "北海道札幌市中央区盤渓232番地7",
    "lat": 43.0326498,
    "lng": 141.2772013,
    "tel": "011-615-9623",
    "url": "http://www.carebankei.jp",
    "pref": "北海道",
    "city": "札幌市中央区",
    "category": "rouken",
    "serviceType": "介護老人保健施設",
    "capacity": 0,
    "openDays": [],
    "openDaysNote": ""
  },
  {
    "id": "150180032",
    "name": "慈啓会老人保健施設",
    "kana": "ジケイカイロウジンホケンシセツ",
    "address": "札幌市中央区旭ヶ丘5丁目6-48",
    "lat": 43.0362424,
    "lng": 141.3225252,
    "tel": "011-520-8085",
    "url": "http://www.sapporojikeikai.or.jp",
    "pref": "北海道",
    "city": "札幌市中央区",
    "category": "rouken",
    "serviceType": "介護老人保健施設",
    "capacity": 0,
    "openDays": [],
    "openDaysNote": ""
  },
  {
    "id": "150180040",
    "name": "老人保健施設　えん",
    "kana": "ロウジンホケンシセツ　エン",
    "address": "札幌市中央区宮の森１２３８番地１",
    "lat": 43.0387132,
    "lng": 141.2874671,
    "tel": "011-611-5522",
    "url": "http://www.miyanomori-hp.or.jp/",
    "pref": "北海道",
    "city": "札幌市中央区",
    "category": "rouken",
    "serviceType": "介護老人保健施設",
    "capacity": 0,
    "openDays": [],
    "openDaysNote": ""
  },
  {
    "id": "150280089",
    "name": "医療法人徳洲会　介護老人保健施設徳洲苑なえぼ",
    "kana": "イリョウホウジントクシュウカイ　カイゴロウジンホケンシセツトクシュウエンナエボ",
    "address": "北海道札幌市東区北7条東18丁目2番30号",
    "lat": 43.07527,
    "lng": 141.381296,
    "tel": "011-753-0011",
    "url": "http://www.tokushukai.or.jp/hsp/r_naebo/index.html",
    "pref": "北海道",
    "city": "札幌市東区",
    "category": "rouken",
    "serviceType": "介護老人保健施設",
    "capacity": 0,
    "openDays": [],
    "openDaysNote": ""
  },
  {
    "id": "150280121",
    "name": "介護老人保健施設　あすかHOUSE東苗穂",
    "kana": "カイゴロウジンホケンシセツ　アスカハウスヒガシナエボ",
    "address": "北海道札幌市東区東苗穂６条３丁目１１番５５号",
    "lat": 43.0898192321034,
    "lng": 141.413106749738,
    "tel": "011-789-0100",
    "url": "https://asuka-gp.or.jp/asukahouse/",
    "pref": "北海道",
    "city": "札幌市東区",
    "category": "rouken",
    "serviceType": "介護老人保健施設",
    "capacity": 0,
    "openDays": [],
    "openDaysNote": ""
  },
  {
    "id": "150280147",
    "name": "介護老人保健施設おおぞら",
    "kana": "カイゴロウジンホケンシセツオオゾラ",
    "address": "丘珠町167番地10",
    "lat": 43.1076146,
    "lng": 141.384794,
    "tel": "011-786-0020",
    "url": "https://sapporo-oozora.com/",
    "pref": "北海道",
    "city": "札幌市東区",
    "category": "rouken",
    "serviceType": "介護老人保健施設",
    "capacity": 0,
    "openDays": [],
    "openDaysNote": ""
  },
  {
    "id": "150280048",
    "name": "介護老人保健施設さっぽろ東ナーシング",
    "kana": "カイゴロウジンホケンシセツサッポロヒガシナーシング",
    "address": "札幌市東区丘珠町291番地3 3",
    "lat": 43.1163125,
    "lng": 141.3973525,
    "tel": "011-785-8200",
    "url": "http://www.h-nashing.jp",
    "pref": "北海道",
    "city": "札幌市東区",
    "category": "rouken",
    "serviceType": "介護老人保健施設",
    "capacity": 0,
    "openDays": [],
    "openDaysNote": ""
  },
  {
    "id": "150280022",
    "name": "介護老人保健施設もえれパークサイド",
    "kana": "カイゴロウジンホケンシセツモエレパークサイド",
    "address": "札幌市東区中沼町１０５－４３",
    "lat": 43.1287982,
    "lng": 141.4213302,
    "tel": "011-791-2311",
    "url": "https://www.moereparkside.jp/",
    "pref": "北海道",
    "city": "札幌市東区",
    "category": "rouken",
    "serviceType": "介護老人保健施設",
    "capacity": 0,
    "openDays": [],
    "openDaysNote": ""
  },
  {
    "id": "150280071",
    "name": "社会医療法人豊生会　介護老人保健施設ひまわり",
    "kana": "シャカイイリョウホウジンホウセイカイカイゴロウジンホケンシセツヒマワリ",
    "address": "札幌市東区東苗穂4条1丁目1-68",
    "lat": 43.0885537666345,
    "lng": 141.400883459261,
    "tel": "011-781-8800",
    "url": "https://www.houseikai.or.jp/himawari/",
    "pref": "北海道",
    "city": "札幌市東区",
    "category": "rouken",
    "serviceType": "介護老人保健施設",
    "capacity": 0,
    "openDays": [],
    "openDaysNote": ""
  },
  {
    "id": "150580074",
    "name": "医療法人　晴生会　介護老人保健施設グラーネ北の沢",
    "kana": "イリョウホウジン　セイセイカイ　カイゴロウジンホケンシセツグラーネキタノサワ",
    "address": "北海道札幌市南区北の沢1804番52",
    "lat": 43.0079501,
    "lng": 141.3082306,
    "tel": "011-572-2002",
    "url": "https://www.aoikai.jp/grane/",
    "pref": "北海道",
    "city": "札幌市南区",
    "category": "rouken",
    "serviceType": "介護老人保健施設",
    "capacity": 100,
    "openDays": [],
    "openDaysNote": ""
  },
  {
    "id": "150580025",
    "name": "介護老人保健施設　フォーシーズン真駒内",
    "kana": "カイゴロウジンホケンシセツ　フォーシーズンマコマナイ",
    "address": "北海道札幌市南区真駒内南町4丁目3番3号",
    "lat": 42.980674,
    "lng": 141.3519085,
    "tel": "011-588-1200",
    "url": "https://fourseason.or.jp/",
    "pref": "北海道",
    "city": "札幌市南区",
    "category": "rouken",
    "serviceType": "介護老人保健施設",
    "capacity": 76,
    "openDays": [],
    "openDaysNote": ""
  },
  {
    "id": "150580082",
    "name": "介護老人保健施設　フォーシーズン南34条",
    "kana": "カイゴロウジンホケンシセツ　フォーシーズンミナミ34ジョウ",
    "address": "北海道札幌市南区南34条西10丁目3番35号",
    "lat": 43.012487,
    "lng": 141.3476578,
    "tel": "011-581-1200",
    "url": "http://fourseason.or.jp/",
    "pref": "北海道",
    "city": "札幌市南区",
    "category": "rouken",
    "serviceType": "介護老人保健施設",
    "capacity": 80,
    "openDays": [],
    "openDaysNote": ""
  },
  {
    "id": "150180016",
    "name": "介護老人保健施設　リラコート愛全",
    "kana": "カイゴロウジンホケンシセツ　リラコートアイゼン",
    "address": "札幌市南区川沿13条2丁目4-45",
    "lat": 42.9783848,
    "lng": 141.3338158,
    "tel": "011-571-7151",
    "url": "http://www.aizenkai.or.jp",
    "pref": "北海道",
    "city": "札幌市南区",
    "category": "rouken",
    "serviceType": "介護老人保健施設",
    "capacity": 0,
    "openDays": [],
    "openDaysNote": ""
  },
  {
    "id": "150380079",
    "name": "介護老人保健施設アートヒルズ",
    "kana": "カイゴロウジンホケンシセツアートヒルズ",
    "address": "北海道札幌市南区石山８３７番地４７",
    "lat": 42.9588068,
    "lng": 141.3406715,
    "tel": "011-592-8500",
    "url": "http://www.aizenkai.or.jp",
    "pref": "北海道",
    "city": "札幌市南区",
    "category": "rouken",
    "serviceType": "介護老人保健施設",
    "capacity": 0,
    "openDays": [],
    "openDaysNote": ""
  },
  {
    "id": "150380103",
    "name": "介護老人保健施設　生きがい",
    "kana": "カイゴロウジンホケンシセツ　イキガイ",
    "address": "札幌市白石区北郷2条11丁目3番20号",
    "lat": 43.0501965,
    "lng": 141.4329061,
    "tel": "011-871-2001",
    "url": "http://www.kokeikai.com",
    "pref": "北海道",
    "city": "札幌市白石区",
    "category": "rouken",
    "serviceType": "介護老人保健施設",
    "capacity": 0,
    "openDays": [],
    "openDaysNote": ""
  },
  {
    "id": "150380012",
    "name": "介護老人保健施設コミュニティホーム白石",
    "kana": "カイゴロウジンホケンシセツコミュニティホームシロイシ",
    "address": "札幌市白石区本郷通３丁目南１番３５号",
    "lat": 43.0459884355066,
    "lng": 141.404186023943,
    "tel": "011-864-5321",
    "url": "http://www.keijinkai.com/c-shiroishi/",
    "pref": "北海道",
    "city": "札幌市白石区",
    "category": "rouken",
    "serviceType": "介護老人保健施設",
    "capacity": 0,
    "openDays": [],
    "openDaysNote": ""
  },
  {
    "id": "150380129",
    "name": "介護老人保健施設ぼだい樹",
    "kana": "カイゴロウジンホケンシセツボダイジュ",
    "address": "北海道札幌市白石区川下577番地9",
    "lat": 43.0676006,
    "lng": 141.4431735,
    "tel": "011-873-2345",
    "url": "http://www.kyoueikai.or.jp/",
    "pref": "北海道",
    "city": "札幌市白石区",
    "category": "rouken",
    "serviceType": "介護老人保健施設",
    "capacity": 100,
    "openDays": [],
    "openDaysNote": ""
  },
  {
    "id": "150380137",
    "name": "勤医協老人保健施設柏ヶ丘",
    "kana": "キンイキョウロウジンホケンシセツカシワガオカ",
    "address": "札幌市白石区平和通7丁目南5-１勤医協老人保健施設　柏ヶ丘 勤医協老人保健施設　柏ヶ丘",
    "lat": 43.0470877,
    "lng": 141.4172744,
    "tel": "011-865-0010",
    "url": "http://www.rouken-kashiwa.jp/",
    "pref": "北海道",
    "city": "札幌市白石区",
    "category": "rouken",
    "serviceType": "介護老人保健施設",
    "capacity": 0,
    "openDays": [],
    "openDaysNote": ""
  },
  {
    "id": "150380020",
    "name": "介護老人保健施設　アメニティ西岡",
    "kana": "カイゴロウジンホケンシセツ　アメニティニシオカ",
    "address": "札幌市豊平区西岡４条４丁目１番５号",
    "lat": 43.0163807603689,
    "lng": 141.389218033835,
    "tel": "011-854-5510",
    "url": "http://www.keiwakai.jp/",
    "pref": "北海道",
    "city": "札幌市豊平区",
    "category": "rouken",
    "serviceType": "介護老人保健施設",
    "capacity": 0,
    "openDays": [],
    "openDaysNote": ""
  },
  {
    "id": "150580124",
    "name": "介護老人保健施設　ノテ日本医療だ額リハビリ",
    "kana": "カイゴロウジンホケンシセツ　ノテニホンイリョウダイガクリハビリ",
    "address": "月寒東3条11丁目1-55",
    "lat": 43.0290644301296,
    "lng": 141.414840492065,
    "tel": "011-350-6700",
    "url": "https://www.note.or.jp",
    "pref": "北海道",
    "city": "札幌市豊平区",
    "category": "rouken",
    "serviceType": "介護老人保健施設",
    "capacity": null,
    "openDays": [],
    "openDaysNote": ""
  },
  {
    "id": "150580033",
    "name": "介護老人保健施設　豊平北翔館　豊翔の郷",
    "kana": "カイゴロウジンホケンシセツ　トヨヒラホクショウカン　ホウショウノサト",
    "address": "札幌市豊平区旭町５丁目５－１",
    "lat": 43.0446102544652,
    "lng": 141.366690537434,
    "tel": "011-837-7500",
    "url": "http://www.hokushokai.or.jp",
    "pref": "北海道",
    "city": "札幌市豊平区",
    "category": "rouken",
    "serviceType": "介護老人保健施設",
    "capacity": 0,
    "openDays": [],
    "openDaysNote": ""
  },
  {
    "id": "150580090",
    "name": "介護老人保健施設ライフふくまつ",
    "kana": "カイゴロウジンホケンシセツライフフクマツ",
    "address": "北海道札幌市豊平区西岡４９７－１０",
    "lat": 42.989865,
    "lng": 141.3694485,
    "tel": "０１１－５８３－５０００",
    "url": "http://www.keiwakai.jp/",
    "pref": "北海道",
    "city": "札幌市豊平区",
    "category": "rouken",
    "serviceType": "介護老人保健施設",
    "capacity": 85,
    "openDays": [],
    "openDaysNote": ""
  },
  {
    "id": "150580066",
    "name": "介護老人保健施設福住の丘",
    "kana": "カイゴロウジンホケンシセツフクズミノオカ",
    "address": "北海道札幌市豊平区月寒西1条11丁目3-10",
    "lat": 43.0233043474622,
    "lng": 141.39844272429,
    "tel": "011-857-7800",
    "url": "http://www.siseikai.or.jp",
    "pref": "北海道",
    "city": "札幌市豊平区",
    "category": "rouken",
    "serviceType": "介護老人保健施設",
    "capacity": 80,
    "openDays": [],
    "openDaysNote": ""
  },
  {
    "id": "150580017",
    "name": "北海道病院附属介護老人保健施設",
    "kana": "ホッカイドウビョウインフゾクカイゴロウジンホケンシセツ",
    "address": "札幌市豊平区中の島1条8丁目3番18号",
    "lat": 43.0257499,
    "lng": 141.3560839,
    "tel": "011-813-2222",
    "url": "https://hokkaido.jcho.go.jp/rouken/",
    "pref": "北海道",
    "city": "札幌市豊平区",
    "category": "rouken",
    "serviceType": "介護老人保健施設",
    "capacity": 0,
    "openDays": [],
    "openDaysNote": ""
  },
  {
    "id": "150280139",
    "name": "介護老人保健施設　サンビオーズ新琴似",
    "kana": "カイゴロウジンホケンシセツサンビオーズシンコトニ",
    "address": "札幌市北区新琴似2条5丁目1-1",
    "lat": 43.1065393,
    "lng": 141.3208682,
    "tel": "011-763-9300",
    "url": "http://www.aoikai.jp/symbiose/",
    "pref": "北海道",
    "city": "札幌市北区",
    "category": "rouken",
    "serviceType": "介護老人保健施設",
    "capacity": 80,
    "openDays": [],
    "openDaysNote": ""
  },
  {
    "id": "150280055",
    "name": "介護老人保健施設　セージュ新ことに",
    "kana": "カイゴロウジンホケンシセツ　セージュシンコトニ",
    "address": "札幌市北区新琴似町787番地2,3介護老人保健施設セージュ新ことに 介護老人保健施設セージュ新ことに",
    "lat": 43.1308855,
    "lng": 141.2955245,
    "tel": "011-768-2800",
    "url": "http://www.seijyu-shin.jp/",
    "pref": "北海道",
    "city": "札幌市北区",
    "category": "rouken",
    "serviceType": "介護老人保健施設",
    "capacity": 100,
    "openDays": [],
    "openDaysNote": ""
  },
  {
    "id": "150280113",
    "name": "介護老人保健施設　プラットホーム",
    "kana": "カイゴロウジンホケンシセツプラットホーム",
    "address": "札幌市北区あいの里２条１丁目２０－１",
    "lat": 43.1595319,
    "lng": 141.3851927,
    "tel": "011-776-3037",
    "url": "http://www.aishinkan.jp/platform",
    "pref": "北海道",
    "city": "札幌市北区",
    "category": "rouken",
    "serviceType": "介護老人保健施設",
    "capacity": 80,
    "openDays": [],
    "openDaysNote": ""
  },
  {
    "id": "150280014",
    "name": "介護老人保健施設　茨戸アカシアハイツ",
    "kana": "カイゴロウジンホケンシセツ　バラトアカシアハイツ",
    "address": "札幌市北区東茨戸２条３丁目２番５号",
    "lat": 43.1637162,
    "lng": 141.3586615,
    "tel": "011-773-6255",
    "url": "http://www.keiyu-kai.org",
    "pref": "北海道",
    "city": "札幌市北区",
    "category": "rouken",
    "serviceType": "介護老人保健施設",
    "capacity": 0,
    "openDays": [],
    "openDaysNote": ""
  },
  {
    "id": "150280097",
    "name": "介護老人保健施設ら・ぱーす",
    "kana": "カイゴロウジンホケンシセツラ・パース",
    "address": "北海道札幌市北区篠路町上篠路6番286",
    "lat": 43.1303321,
    "lng": 141.3823141,
    "tel": "011-774-1131",
    "url": "http://www.teishinkai.jp/lapaz/",
    "pref": "北海道",
    "city": "札幌市北区",
    "category": "rouken",
    "serviceType": "介護老人保健施設",
    "capacity": 80,
    "openDays": [],
    "openDaysNote": ""
  },
  {
    "id": "150280063",
    "name": "介護老人保健施設札幌北翔館そとこと",
    "kana": "カイゴロウジンホケンシセツサッポロホクショウカンソトコト",
    "address": "札幌市北区屯田９条３丁目３番地２",
    "lat": 43.143107,
    "lng": 141.3411945,
    "tel": "011-773-7200",
    "url": "http://hokushokai.or.jp/sotokoto/",
    "pref": "北海道",
    "city": "札幌市北区",
    "category": "rouken",
    "serviceType": "介護老人保健施設",
    "capacity": 0,
    "openDays": [],
    "openDaysNote": ""
  },
  {
    "id": "153280037",
    "name": "小規模老人保健施設　ボヌゥール",
    "kana": "ショウキボロウジンホケンシセツ　ボヌゥール",
    "address": "士別市東6条5丁目1番地",
    "lat": 44.1775783,
    "lng": 142.4004008,
    "tel": "0165-26-9033",
    "url": "http://sanai-kai.or.jp/shisetsu_bonheur/satellite/",
    "pref": "北海道",
    "city": "士別市",
    "category": "rouken",
    "serviceType": "介護老人保健施設",
    "capacity": 0,
    "openDays": [],
    "openDaysNote": ""
  },
  {
    "id": "153280011",
    "name": "老人保健施設　ボヌゥール士別",
    "kana": "ロウジンホケンシセツ　ボヌゥールシベツ",
    "address": "北海道士別市東５条１６丁目３１２９番地１４３",
    "lat": 44.1665769,
    "lng": 142.4036622,
    "tel": "0165-23-3911",
    "url": "http://sanai-kai.or.jp/shisetsu_bonheur/",
    "pref": "北海道",
    "city": "士別市",
    "category": "rouken",
    "serviceType": "介護老人保健施設",
    "capacity": 0,
    "openDays": [],
    "openDaysNote": ""
  },
  {
    "id": "154780076",
    "name": "介護老人保健施設もみじの里",
    "kana": "カイゴロウジンホケンシセツモミジノサト",
    "address": "北海道河東郡鹿追町鹿追北２線８番地３３",
    "lat": 43.0953774,
    "lng": 142.9965426,
    "tel": "0156-66-1185",
    "url": "http://www2.shikaoi-keiaikai.jp/momiji/",
    "pref": "北海道",
    "city": "鹿追町",
    "category": "rouken",
    "serviceType": "介護老人保健施設",
    "capacity": 0,
    "openDays": [],
    "openDaysNote": ""
  },
  {
    "id": "151580024",
    "name": "老人保健施設あかまつの里ななえ",
    "kana": "ロウジンホケンシセツアカマツノサトナナエ",
    "address": "北海道亀田郡七飯町本町４丁目６番１０号",
    "lat": 41.8968527,
    "lng": 140.6901446,
    "tel": "0138-65-1130",
    "url": "http://www.ohmura.or.jp/html/akamatsunosato.html",
    "pref": "北海道",
    "city": "七飯町",
    "category": "rouken",
    "serviceType": "介護老人保健施設",
    "capacity": 0,
    "openDays": [],
    "openDaysNote": ""
  },
  {
    "id": "153580014",
    "name": "介護老人保健施設エバーグリーンハイツ室蘭",
    "kana": "カイゴロジンホケンシセツエバーグリーンハイツムロラン",
    "address": "室蘭市八丁平１丁目４９番地",
    "lat": 42.367320420718,
    "lng": 141.007297261902,
    "tel": "0143-46-4500",
    "url": "http://www.seiunkai.jp/",
    "pref": "北海道",
    "city": "室蘭市",
    "category": "rouken",
    "serviceType": "介護老人保健施設",
    "capacity": 80,
    "openDays": [],
    "openDaysNote": ""
  },
  {
    "id": "153580048",
    "name": "介護老人保健施設憩",
    "kana": "カイゴロウジンホケンシセツイコイ",
    "address": "北海道室蘭市知利別町１丁目４５番地",
    "lat": 42.3578130759839,
    "lng": 141.016285694443,
    "tel": "0143-41-1511",
    "url": "http://www.nshp-muroran.or.jp",
    "pref": "北海道",
    "city": "室蘭市",
    "category": "rouken",
    "serviceType": "介護老人保健施設",
    "capacity": 70,
    "openDays": [],
    "openDaysNote": ""
  },
  {
    "id": "153580030",
    "name": "老人保健施設　母恋",
    "kana": "ロウジンホケンシセツ　ボコイ",
    "address": "室蘭市新富町１－５－１３",
    "lat": 42.3153169,
    "lng": 140.9838541,
    "tel": "0143-25-2121",
    "url": "http://www.bokoi.jp/rouken/",
    "pref": "北海道",
    "city": "室蘭市",
    "category": "rouken",
    "serviceType": "介護老人保健施設",
    "capacity": 100,
    "openDays": [],
    "openDaysNote": ""
  },
  {
    "id": "152080073",
    "name": "医療法人社団萌水会　老人保健施設モエズガーデン小樽",
    "kana": "イリョウホウジンシャダンホウスイカイ　ロウジンホケンシセツモエズガーデンオタル",
    "address": "北海道小樽市奥沢1丁目2番2号",
    "lat": 43.1829153,
    "lng": 141.0057888,
    "tel": "0134-21-2555",
    "url": "",
    "pref": "北海道",
    "city": "小樽市",
    "category": "rouken",
    "serviceType": "介護老人保健施設",
    "capacity": 0,
    "openDays": [],
    "openDaysNote": ""
  },
  {
    "id": "152080016",
    "name": "医療法人勉仁会介護老人保健施設ラポール東小樽",
    "kana": "イリョウホウジンベンジンカイカイゴロウジンホケンシセツラポールヒガシオタル",
    "address": "小樽市新光２丁目２９番２号",
    "lat": 43.1683073,
    "lng": 141.0522999,
    "tel": "0134-52-3000",
    "url": "http://www.nakagaki-hp.or.jp/",
    "pref": "北海道",
    "city": "小樽市",
    "category": "rouken",
    "serviceType": "介護老人保健施設",
    "capacity": 0,
    "openDays": [],
    "openDaysNote": ""
  },
  {
    "id": "152080057",
    "name": "介護老人保健施設　望",
    "kana": "カイゴロウジンホケンシセツ　ノゾミ",
    "address": "小樽市望洋台2丁目30番10号",
    "lat": 43.1652073,
    "lng": 141.037343,
    "tel": "0134-51-2215",
    "url": "http://sayaka-nozomi.skr.jp/",
    "pref": "北海道",
    "city": "小樽市",
    "category": "rouken",
    "serviceType": "介護老人保健施設",
    "capacity": 100,
    "openDays": [],
    "openDaysNote": ""
  },
  {
    "id": "152080032",
    "name": "社会福祉法人恩賜財団済生会支部北海道済生会小樽老人保健施設はまなす",
    "kana": "シャカイフクシホウジンオンシザイダンサイセイカイシブホッカイドウサイセイカイオタルロウジンホケンシセツハマナス",
    "address": "小樽市塩谷２丁目１７番２５号",
    "lat": 43.2077556,
    "lng": 140.9280903,
    "tel": "0134-28-2600",
    "url": "http://www.saiseikai-otaru.jp/",
    "pref": "北海道",
    "city": "小樽市",
    "category": "rouken",
    "serviceType": "介護老人保健施設",
    "capacity": 0,
    "openDays": [],
    "openDaysNote": ""
  },
  {
    "id": "152080024",
    "name": "老人保健施設マイトリーおたる",
    "kana": "ロウジンホケンシセツ　マイトリーオタル",
    "address": "北海道小樽市奥沢１丁目２番２号",
    "lat": 43.1828933,
    "lng": 141.0059421,
    "tel": "0134-21-2555",
    "url": "maitori@hkg.odn.ne.jp",
    "pref": "北海道",
    "city": "小樽市",
    "category": "rouken",
    "serviceType": "介護老人保健施設",
    "capacity": null,
    "openDays": [],
    "openDaysNote": ""
  },
  {
    "id": "157180027",
    "name": "上砂川町老人保健施設成寿苑",
    "kana": "カミスナガワチョウロウジンホケンシセツセイジュエン",
    "address": "北海道空知郡上砂川町字上砂川２２番地１６",
    "lat": 43.4738014789825,
    "lng": 141.993996278149,
    "tel": "0125-62-5610",
    "url": "http://www.town.kamisunagawa.hokkaido.jp/",
    "pref": "北海道",
    "city": "上砂川町",
    "category": "rouken",
    "serviceType": "介護老人保健施設",
    "capacity": 0,
    "openDays": [],
    "openDaysNote": ""
  },
  {
    "id": "154780118",
    "name": "社会医療法人北斗　介護老人保健施設かみしほろ",
    "kana": "シャカイイリョウホウジンホクト　カイゴロウジンホケンシセツカミシホロ",
    "address": "北海道河東郡上士幌町字上士幌東3線240番73",
    "lat": 43.2344646,
    "lng": 143.2962971,
    "tel": "01564-7-7117",
    "url": "https://www.hokuto7.or.jp/kamishihoro/longterm.html",
    "pref": "北海道",
    "city": "上士幌町",
    "category": "rouken",
    "serviceType": "介護老人保健施設",
    "capacity": 50,
    "openDays": [],
    "openDaysNote": ""
  },
  {
    "id": "153880059",
    "name": "新ひだか町介護老人保健施設まきば",
    "kana": "シンヒダカチョウカイゴロウジンホケンシセツ",
    "address": "北海道日高郡新ひだか町静内緑町4丁目5番1号",
    "lat": 42.3384955,
    "lng": 142.3750348,
    "tel": "0146-43-1100",
    "url": "",
    "pref": "北海道",
    "city": "新ひだか町",
    "category": "rouken",
    "serviceType": "介護老人保健施設",
    "capacity": 0,
    "openDays": [],
    "openDaysNote": ""
  },
  {
    "id": "151580057",
    "name": "道南森ロイヤルケアセンター",
    "kana": "ドウナンモリロイヤルケアセンター",
    "address": "北海道茅部郡森町上台町３２６－１１７",
    "lat": 42.1035977,
    "lng": 140.5680857,
    "tel": "01374-3-2111",
    "url": "http://www.ims.gr.jp/dounanmori-royal/",
    "pref": "北海道",
    "city": "森町",
    "category": "rouken",
    "serviceType": "介護老人保健施設",
    "capacity": 80,
    "openDays": [],
    "openDaysNote": ""
  },
  {
    "id": "151580081",
    "name": "道南森ロイヤルケアセンター",
    "kana": "ドウナンモリロイヤルケアセンター",
    "address": "北海道茅部郡森町字上台町326-117",
    "lat": 42.1036222,
    "lng": 140.5681696,
    "tel": "01374-3-2111",
    "url": "https://ims.gr.jp/dounanmori-royal/",
    "pref": "北海道",
    "city": "森町",
    "category": "rouken",
    "serviceType": "介護老人保健施設",
    "capacity": 80,
    "openDays": [],
    "openDaysNote": ""
  },
  {
    "id": "152380036",
    "name": "介護老人保健施設　神恵内ハイツ９９８",
    "kana": "カイゴロウジンホケンシセツ　カモエナイハイツキュウキュウハチ",
    "address": "古宇郡神恵内村大字神恵内村字大川１１６番地１",
    "lat": 43.1555454,
    "lng": 140.4509291,
    "tel": "0135-76-5998",
    "url": "",
    "pref": "北海道",
    "city": "神恵内村",
    "category": "rouken",
    "serviceType": "介護老人保健施設",
    "capacity": 86,
    "openDays": [],
    "openDaysNote": ""
  },
  {
    "id": "155380025",
    "name": "介護老人保健施設きよさと",
    "kana": "カイゴロウジンホケンシセツキヨサト",
    "address": "北海道斜里郡清里町羽衣町３５番地３５",
    "lat": 43.8302609,
    "lng": 144.5929457,
    "tel": "0152-22-4830",
    "url": "http://www.town.kiyosato.hokkaido.jp/homepage.nsf/doc/rouken",
    "pref": "北海道",
    "city": "清里町",
    "category": "rouken",
    "serviceType": "介護老人保健施設",
    "capacity": 0,
    "openDays": [],
    "openDaysNote": ""
  },
  {
    "id": "157680034",
    "name": "介護老人保健施設オアシス21",
    "kana": "カイゴロウジンホケンシセツオアシス２１",
    "address": "北海道石狩市花川南7条5丁目3番地2",
    "lat": 43.1398317,
    "lng": 141.2928465,
    "tel": "0133-72-0021",
    "url": "http://kyouseikai.jp/oasis21/",
    "pref": "北海道",
    "city": "石狩市",
    "category": "rouken",
    "serviceType": "介護老人保健施設",
    "capacity": 0,
    "openDays": [],
    "openDaysNote": ""
  },
  {
    "id": "157280017",
    "name": "介護老人保健施設　博寿苑",
    "kana": "カイゴロウジンホケンシセツ　ハクジュエン",
    "address": "北海道赤平市平岸新光町2丁目4番地",
    "lat": 43.5419778319261,
    "lng": 142.118497774344,
    "tel": "0125-37-2001",
    "url": "http://www.hakuyukai.or.jp/hakujuen",
    "pref": "北海道",
    "city": "赤平市",
    "category": "rouken",
    "serviceType": "介護老人保健施設",
    "capacity": 100,
    "openDays": [],
    "openDaysNote": ""
  },
  {
    "id": "151180023",
    "name": "医療法人社団いずみ会　介護老人保健施設　北星館",
    "kana": "イリョウホウジンシャダンイズミカイ　カイゴロウジンホケンシセツ　ホクセイカン",
    "address": "北海道千歳市清流5丁目1番1号",
    "lat": 42.8419991986349,
    "lng": 141.658990941139,
    "tel": "0123-40-2525",
    "url": "https://www.hokusei.or.jp/hokuseikan/index.html",
    "pref": "北海道",
    "city": "千歳市",
    "category": "rouken",
    "serviceType": "介護老人保健施設",
    "capacity": 100,
    "openDays": [],
    "openDaysNote": ""
  },
  {
    "id": "153780010",
    "name": "介護老人保健施設　プライムそうべつ",
    "kana": "カイゴロウジンホケンシセツ　プライムソウベツ",
    "address": "北海道有珠郡壮瞥町字南久保内146番地18",
    "lat": 42.5751098,
    "lng": 140.9648697,
    "tel": "0142-65-2001",
    "url": "http://www.koyukai-g.jp/plime-s/",
    "pref": "北海道",
    "city": "壮瞥町",
    "category": "rouken",
    "serviceType": "介護老人保健施設",
    "capacity": 0,
    "openDays": [],
    "openDaysNote": ""
  },
  {
    "id": "154680011",
    "name": "介護老人保健施設アメニティ帯広",
    "kana": "カイゴロウジンホケンシセツアメニティオビヒロ",
    "address": "帯広市西16条北1丁目27番地",
    "lat": 42.9308585012416,
    "lng": 143.17581725159,
    "tel": "0155-36-1234",
    "url": "http://toukeikai.or.jp/",
    "pref": "北海道",
    "city": "帯広市",
    "category": "rouken",
    "serviceType": "介護老人保健施設",
    "capacity": 0,
    "openDays": [],
    "openDaysNote": ""
  },
  {
    "id": "154680052",
    "name": "介護老人保健施設ヴィラかいせい",
    "kana": "カイゴロウジンホケンシセツウ゛ィラカイセイ",
    "address": "北海道帯広市西22条南2丁目2番地10",
    "lat": 42.9194582,
    "lng": 143.1314644,
    "tel": "0155-37-7600",
    "url": "http://www.villa-kaisei.org/",
    "pref": "北海道",
    "city": "帯広市",
    "category": "rouken",
    "serviceType": "介護老人保健施設",
    "capacity": 100,
    "openDays": [],
    "openDaysNote": ""
  },
  {
    "id": "154680037",
    "name": "介護老人保健施設ケアステーションアンダンテ",
    "kana": "カイゴロウジンホケンシセツケアステーションアンダンテ",
    "address": "北海道帯広市西17条南3丁目24－24",
    "lat": 42.9179844,
    "lng": 143.1689809,
    "tel": "0155-58-6500",
    "url": "http://koujyukai.org",
    "pref": "北海道",
    "city": "帯広市",
    "category": "rouken",
    "serviceType": "介護老人保健施設",
    "capacity": 100,
    "openDays": [],
    "openDaysNote": ""
  },
  {
    "id": "154680029",
    "name": "十勝勤医協老人保健施設ケアセンター白樺",
    "kana": "トカチキンイキョウロウジンホケンシセツケアセンターシラカバ",
    "address": "北海道帯広市白樺１６条西２丁目",
    "lat": 42.9181800315847,
    "lng": 143.174106792204,
    "tel": "0155-41-1165",
    "url": "http://www.tokachi-kin-ikyo.or.jp/care-center/index.html",
    "pref": "北海道",
    "city": "帯広市",
    "category": "rouken",
    "serviceType": "介護老人保健施設",
    "capacity": 0,
    "openDays": [],
    "openDaysNote": ""
  },
  {
    "id": "154680045",
    "name": "十勝自立支援センター　介護老人保健施設　かけはし",
    "kana": "トカチジリツシエンセンター　カイゴロウジンホケンシセツ　カケハシ",
    "address": "帯広市稲田町基線2番地1十勝自立支援センター　介護老人保健施設　かけはし 十勝自立支援センター　介護老人保健施設　かけはし",
    "lat": 42.8855601374588,
    "lng": 143.19277431423,
    "tel": "0155-47-4184",
    "url": "http://www.hokuto7.or.jp/",
    "pref": "北海道",
    "city": "帯広市",
    "category": "rouken",
    "serviceType": "介護老人保健施設",
    "capacity": 100,
    "openDays": [],
    "openDaysNote": ""
  },
  {
    "id": "154780027",
    "name": "介護老人保健施設　ケアステーションひかり",
    "kana": "カイゴロウジンホケンシセツ　ケアステーションヒカリ",
    "address": "広尾郡大樹町字大樹10番地8",
    "lat": 42.502128,
    "lng": 143.2670896,
    "tel": "01558-6-5566",
    "url": "http://koujyukai.info/",
    "pref": "北海道",
    "city": "大樹町",
    "category": "rouken",
    "serviceType": "介護老人保健施設",
    "capacity": 0,
    "openDays": [],
    "openDaysNote": ""
  },
  {
    "id": "117510446",
    "name": "介護老人保健施設シーザーズ",
    "kana": "カイゴロウジンホケンシセツシーザーズ",
    "address": "北海道滝川市栄町３丁目３番１６号",
    "lat": 43.5577453005193,
    "lng": 141.906305721426,
    "tel": "0125-74-6511",
    "url": "http://caeser.jp/",
    "pref": "北海道",
    "city": "滝川市",
    "category": "rouken",
    "serviceType": "介護老人保健施設",
    "capacity": 70,
    "openDays": [],
    "openDaysNote": ""
  },
  {
    "id": "157580028",
    "name": "滝川市老人保健施設ナイスケアすずかけ",
    "kana": "タキカワシロウジンホケンシセツナイスケアスズカケ",
    "address": "滝川市江部乙町東13丁目1番60号",
    "lat": 43.6301461735045,
    "lng": 141.944405706746,
    "tel": "0125-26-4165",
    "url": "http://www.hokkaido-hukushi.jp/",
    "pref": "北海道",
    "city": "滝川市",
    "category": "rouken",
    "serviceType": "介護老人保健施設",
    "capacity": 0,
    "openDays": [],
    "openDaysNote": ""
  },
  {
    "id": "154780092",
    "name": "池田町小規模介護老人保健施設ぴりか",
    "kana": "イケダチョウショウキボカイゴロウジンホケンシセツピリカ",
    "address": "北海道中川郡池田町字西２条５丁目２５番地",
    "lat": 42.925858,
    "lng": 143.4476138,
    "tel": "015-572-3181",
    "url": "https://jadecom.or.jp/jadecom.tokachi-ikeda",
    "pref": "北海道",
    "city": "池田町",
    "category": "rouken",
    "serviceType": "介護老人保健施設",
    "capacity": 29,
    "openDays": [],
    "openDaysNote": ""
  },
  {
    "id": "156780017",
    "name": "社会医療法人禎心会老人保健施設ら・ぷらーさ",
    "kana": "シャカイイリョウホウジンテイシンカイロウジンホケンシセツラ・プラーサ",
    "address": "稚内市栄1丁目24番2号",
    "lat": 45.3871173924997,
    "lng": 141.696051196156,
    "tel": "0162-29-4322",
    "url": "https://www.teishinkai.jp/laplaza",
    "pref": "北海道",
    "city": "稚内市",
    "category": "rouken",
    "serviceType": "介護老人保健施設",
    "capacity": 100,
    "openDays": [],
    "openDaysNote": ""
  },
  {
    "id": "155880032",
    "name": "介護老人保健施設　マオイの里",
    "kana": "カイゴロウジンホケンシセツ　マオイノサト",
    "address": "夕張郡長沼町東5線北4番地",
    "lat": 43.0046107,
    "lng": 141.7176221,
    "tel": "0123-88-1661",
    "url": "http://www9.plala.or.jp/maoinosato/public_html/",
    "pref": "北海道",
    "city": "長沼町",
    "category": "rouken",
    "serviceType": "介護老人保健施設",
    "capacity": 80,
    "openDays": [],
    "openDaysNote": ""
  },
  {
    "id": "155880040",
    "name": "長沼町立介護療養型老人保健施設いこい",
    "kana": "ナガヌマチョウリツカイゴリョウヨウガタロウジンホケンシセツイコイ",
    "address": "北海道夕張郡長沼町中央南２丁目２番１号",
    "lat": 43.0076396,
    "lng": 141.6931935,
    "tel": "0123-88-1797",
    "url": "",
    "pref": "北海道",
    "city": "長沼町",
    "category": "rouken",
    "serviceType": "介護老人保健施設",
    "capacity": 0,
    "openDays": [],
    "openDaysNote": ""
  },
  {
    "id": "154380042",
    "name": "介護老人保健施設えんれい荘",
    "kana": "カイゴロウジンホケンシセツエンレイソウ",
    "address": "北海道阿寒郡鶴居村字雪裡原野北22線西11番地",
    "lat": 43.2715221,
    "lng": 144.3258721,
    "tel": "0154-64-2126",
    "url": "https://www.siseikai.or.jp/enreiso/",
    "pref": "北海道",
    "city": "鶴居村",
    "category": "rouken",
    "serviceType": "介護老人保健施設",
    "capacity": null,
    "openDays": [],
    "openDaysNote": ""
  },
  {
    "id": "153580022",
    "name": "介護老人保健施設グリーンコート三愛",
    "kana": "カイゴロウジンホケンシセツグリーンコートサンアイ",
    "address": "登別市中登別町２４番地１１３",
    "lat": 42.4642077,
    "lng": 141.1689955,
    "tel": "0143-83-0111",
    "url": "http://www.sanai-hospital.or.jp/facility/greencoat_sannai.php",
    "pref": "北海道",
    "city": "登別市",
    "category": "rouken",
    "serviceType": "介護老人保健施設",
    "capacity": 100,
    "openDays": [],
    "openDaysNote": ""
  },
  {
    "id": "153580055",
    "name": "介護老人保健施設グリーンコート三愛",
    "kana": "カイゴロウジンホケンシセツグリーンコートサンアイ",
    "address": "北海道登別市中登別町24番地113",
    "lat": 42.4642077,
    "lng": 141.1689955,
    "tel": "0143-83-0111",
    "url": "http://www.sanai-hospital.or.jp/facility/greencoat_sannai.php",
    "pref": "北海道",
    "city": "登別市",
    "category": "rouken",
    "serviceType": "介護老人保健施設",
    "capacity": 20,
    "openDays": [],
    "openDaysNote": ""
  },
  {
    "id": "153180013",
    "name": "介護老人保健施設回生苑",
    "kana": "カイゴロウジンホケンシセツカイセイエン",
    "address": "北海道上川郡東神楽町東1線2号13番地",
    "lat": 43.7186737462995,
    "lng": 142.402255593393,
    "tel": "0166-83-5110",
    "url": "http://www.kai-sei-kai.com/relation/kaiseien/kaiseien.html",
    "pref": "北海道",
    "city": "東神楽町",
    "category": "rouken",
    "serviceType": "介護老人保健施設",
    "capacity": 0,
    "openDays": [],
    "openDaysNote": ""
  },
  {
    "id": "153180021",
    "name": "老人保健施設ひだまりの里",
    "kana": "ロウジンホケンシセツヒダマリノサト",
    "address": "上川郡東川町西町８丁目２９番１号",
    "lat": 43.7006427,
    "lng": 142.4772311,
    "tel": "0166-82-5550",
    "url": "http://www.a-fukushi.or.jp/",
    "pref": "北海道",
    "city": "東川町",
    "category": "rouken",
    "serviceType": "介護老人保健施設",
    "capacity": 0,
    "openDays": [],
    "openDaysNote": ""
  },
  {
    "id": "151080058",
    "name": "介護老人保健施設　愛里苑",
    "kana": "カイゴロウジンホケンシセツ　アイリエン",
    "address": "北海道石狩郡当別町ビトエ2200番地１",
    "lat": 43.1864398,
    "lng": 141.4335478,
    "tel": "0133-26-2874",
    "url": "http://shuyukai.or.jp/group/airien.html",
    "pref": "北海道",
    "city": "当別町",
    "category": "rouken",
    "serviceType": "介護老人保健施設",
    "capacity": 100,
    "openDays": [],
    "openDaysNote": ""
  },
  {
    "id": "153180047",
    "name": "介護老人保健施設愛泉苑",
    "kana": "カイゴロウジンホケンシセツアイセンエン",
    "address": "上川郡当麻町3条東2丁目1番11号",
    "lat": 43.8273349,
    "lng": 142.5073907,
    "tel": "0166-84-5570",
    "url": "http://kyokuhoukai.or.jp",
    "pref": "北海道",
    "city": "当麻町",
    "category": "rouken",
    "serviceType": "介護老人保健施設",
    "capacity": null,
    "openDays": [],
    "openDaysNote": ""
  },
  {
    "id": "153180062",
    "name": "介護老人保健施設愛泉苑（ユニット型）",
    "kana": "カイゴロウジンホケンシセツアイセンエンユニットガタ",
    "address": "上川郡当麻町3条東2丁目1番11号",
    "lat": 43.8273503802094,
    "lng": 142.507492623943,
    "tel": "0166-84-5570",
    "url": "http://kyokuhoukai.or.jp",
    "pref": "北海道",
    "city": "当麻町",
    "category": "rouken",
    "serviceType": "介護老人保健施設",
    "capacity": 48,
    "openDays": [],
    "openDaysNote": ""
  },
  {
    "id": "153680087",
    "name": "医療法人社団苫仁会介護療養型老人保健施設かみや",
    "kana": "イリョウホウジンシャダンセンジンカイカイゴリョウヨウガタロウジンホケンシセツカミヤ",
    "address": "苫小牧桜木町２丁目25番1号",
    "lat": 42.6281199,
    "lng": 141.5538384,
    "tel": "0144-71-1717",
    "url": "http://www.mc-senjinkai.or.jp/",
    "pref": "北海道",
    "city": "苫小牧市",
    "category": "rouken",
    "serviceType": "介護老人保健施設",
    "capacity": 0,
    "openDays": [],
    "openDaysNote": ""
  },
  {
    "id": "153680020",
    "name": "介護老人保健施設　みどりの苑",
    "kana": "カイゴロウジンホケンシセツ　ミドリノソノ",
    "address": "北海道苫小牧市松風町2番15号",
    "lat": 42.6383144021524,
    "lng": 141.560694076331,
    "tel": "0144-84-7068",
    "url": "http://www.ryokuyoukai.or.jp/midori/",
    "pref": "北海道",
    "city": "苫小牧市",
    "category": "rouken",
    "serviceType": "介護老人保健施設",
    "capacity": 0,
    "openDays": [],
    "openDaysNote": ""
  },
  {
    "id": "153680038",
    "name": "介護老人保健施設ケアライフ王子",
    "kana": "カイゴロウジンホケンシセツケアライフオウジ",
    "address": "苫小牧市若草町３丁目４番８号",
    "lat": 42.63851,
    "lng": 141.6047384,
    "tel": "0144-36-7111",
    "url": "https://ojihosp.or.jp/carelife/",
    "pref": "北海道",
    "city": "苫小牧市",
    "category": "rouken",
    "serviceType": "介護老人保健施設",
    "capacity": 0,
    "openDays": [],
    "openDaysNote": ""
  },
  {
    "id": "153680053",
    "name": "介護老人保健施設ライフスプリング桜木",
    "kana": "カイゴロウジンホケンシセツライフスプリングサクラギ",
    "address": "北海道苫小牧市桜木町2丁目25番1号",
    "lat": 42.6278633477249,
    "lng": 141.553242949599,
    "tel": "0144-71-2369",
    "url": "http://www.mc-senjinkai.or.jp/index.html",
    "pref": "北海道",
    "city": "苫小牧市",
    "category": "rouken",
    "serviceType": "介護老人保健施設",
    "capacity": 0,
    "openDays": [],
    "openDaysNote": ""
  },
  {
    "id": "153680012",
    "name": "老人保健施設　苫小牧健樹園",
    "kana": "ロウジンホケンシセツ　トマコマイケンジュエン",
    "address": "苫小牧市澄川町７丁目９番１８号",
    "lat": 42.6238572,
    "lng": 141.5141129,
    "tel": "0144-67-3111",
    "url": "http://www.sumikawa-hp.com",
    "pref": "北海道",
    "city": "苫小牧市",
    "category": "rouken",
    "serviceType": "介護老人保健施設",
    "capacity": 0,
    "openDays": [],
    "openDaysNote": ""
  },
  {
    "id": "153680046",
    "name": "老人保健施設東胆振ケアセンター",
    "kana": "ロウジンホケンシセツヒガシイブリケアセンター",
    "address": "北海道苫小牧市字植苗51-156",
    "lat": 42.7256517,
    "lng": 141.7200533,
    "tel": "0144-58-2323",
    "url": "http://www.ryokusei.or.jp/",
    "pref": "北海道",
    "city": "苫小牧市",
    "category": "rouken",
    "serviceType": "介護老人保健施設",
    "capacity": 0,
    "openDays": [],
    "openDaysNote": ""
  },
  {
    "id": "157180043",
    "name": "介護老人保健施設「健寿苑」",
    "kana": "カイゴロウジンホケンシセツ「ケンジュエン」",
    "address": "北海道空知郡奈井江町字奈井江12番地9",
    "lat": 43.4260087,
    "lng": 141.8830963,
    "tel": "0125-65-5232",
    "url": "http://tsushima-group.com/business/agency/",
    "pref": "北海道",
    "city": "奈井江町",
    "category": "rouken",
    "serviceType": "介護老人保健施設",
    "capacity": 0,
    "openDays": [],
    "openDaysNote": ""
  },
  {
    "id": "155880024",
    "name": "介護老人保健施設ゆう",
    "kana": "カイゴロウジンホケンシセツユウ",
    "address": "空知郡南幌町栄町１丁目１番２０号",
    "lat": 43.0642545,
    "lng": 141.6536048,
    "tel": "011-378-0091",
    "url": "http://yawaragi-info.or.jp",
    "pref": "北海道",
    "city": "南幌町",
    "category": "rouken",
    "serviceType": "介護老人保健施設",
    "capacity": 70,
    "openDays": [],
    "openDaysNote": ""
  },
  {
    "id": "153880042",
    "name": "日高町立介護老人保健施設門別愛生苑",
    "kana": "ヒダカチョウリツカイゴロウジンホケンシセツモンベツアイセイエン",
    "address": "北海道沙流郡日高町門別本町２９番地の３",
    "lat": 42.4802011,
    "lng": 142.0690397,
    "tel": "01456-2-6611",
    "url": "",
    "pref": "北海道",
    "city": "日高町",
    "category": "rouken",
    "serviceType": "介護老人保健施設",
    "capacity": 0,
    "openDays": [],
    "openDaysNote": ""
  },
  {
    "id": "153680095",
    "name": "介護老人保健施設　そよ風の里",
    "kana": "カイゴロウジンホケンシセツ　ソヨカゼノサト",
    "address": "白老郡白老町字竹浦１３４番地5",
    "lat": 42.4725334,
    "lng": 141.2307317,
    "tel": "0144-84-1837",
    "url": "https://www.s-tenjyu.org",
    "pref": "北海道",
    "city": "白老町",
    "category": "rouken",
    "serviceType": "介護老人保健施設",
    "capacity": 80,
    "openDays": [],
    "openDaysNote": ""
  },
  {
    "id": "153680061",
    "name": "介護老人保健施設さくら",
    "kana": "カイゴロウジンホケンシセツサクラ",
    "address": "北海道白老郡白老町字萩野７４番地介護老人保健施設さくら 介護老人保健施設さくら",
    "lat": 42.5159539,
    "lng": 141.3008694,
    "tel": "0144-83-3127",
    "url": "https://ikutaclinic-2.wixsite.com/sakura",
    "pref": "北海道",
    "city": "白老町",
    "category": "rouken",
    "serviceType": "介護老人保健施設",
    "capacity": 83,
    "openDays": [],
    "openDaysNote": ""
  },
  {
    "id": "151480019",
    "name": "介護老人保健施設　グランドサン亀田",
    "kana": "カイゴロウジンホケンシセツ　グランドサンカメダ",
    "address": "北海道函館市石川町191番地4",
    "lat": 41.8358440237404,
    "lng": 140.742888589024,
    "tel": "0138-46-3151",
    "url": "http://www.hakodate-kameda-hp.com",
    "pref": "北海道",
    "city": "函館市",
    "category": "rouken",
    "serviceType": "介護老人保健施設",
    "capacity": 100,
    "openDays": [],
    "openDaysNote": ""
  },
  {
    "id": "151480100",
    "name": "介護老人保健施設　もも太郎",
    "kana": "カイゴロウジンホケンシセツ　モモタロウ",
    "address": "函館市赤川町388番地1",
    "lat": 41.8362957,
    "lng": 140.7685021,
    "tel": "0138-47-5550",
    "url": "http://momo-taro.koseiin.or.jp/",
    "pref": "北海道",
    "city": "函館市",
    "category": "rouken",
    "serviceType": "介護老人保健施設",
    "capacity": 100,
    "openDays": [],
    "openDaysNote": ""
  },
  {
    "id": "151480050",
    "name": "介護老人保健施設　響の杜",
    "kana": "カイゴロウジンホケンシセツ　ヒビキノモリ",
    "address": "北海道函館市陣川町９１番地４",
    "lat": 41.8255225,
    "lng": 140.7864628,
    "tel": "0138-31-8320",
    "url": "https://hibikino-mori.jp/",
    "pref": "北海道",
    "city": "函館市",
    "category": "rouken",
    "serviceType": "介護老人保健施設",
    "capacity": 0,
    "openDays": [],
    "openDaysNote": ""
  },
  {
    "id": "151480043",
    "name": "介護老人保健施設ケンゆのかわ",
    "kana": "カイゴロウジンホケンシセツケンユノカワ",
    "address": "北海道函館市湯川町3丁目29番15号",
    "lat": 41.783655,
    "lng": 140.7912421,
    "tel": "0138-59-1211",
    "url": "http://ken-yuno.koseiin.or.jp/",
    "pref": "北海道",
    "city": "函館市",
    "category": "rouken",
    "serviceType": "介護老人保健施設",
    "capacity": 0,
    "openDays": [],
    "openDaysNote": ""
  },
  {
    "id": "151480035",
    "name": "介護老人保健施設ジョイウェルス桔梗",
    "kana": "カイゴロウジンホケンシセツジョイウェルスキキョウ",
    "address": "函館市桔梗町５５７番地",
    "lat": 41.8603139559365,
    "lng": 140.75297354418,
    "tel": "0138-46-8881",
    "url": "http://www.seijinkai-mori.jp/",
    "pref": "北海道",
    "city": "函館市",
    "category": "rouken",
    "serviceType": "介護老人保健施設",
    "capacity": 100,
    "openDays": [],
    "openDaysNote": ""
  },
  {
    "id": "151480084",
    "name": "介護老人保健施設やわらぎ苑西桔梗",
    "kana": "カイゴロウジンホケンシセツヤワラギエンニシキキョウ",
    "address": "函館市西桔梗町735番地4",
    "lat": 41.8451153,
    "lng": 140.716369,
    "tel": "0138-49-8555",
    "url": "http://www.yawaragikai.com/nishi/",
    "pref": "北海道",
    "city": "函館市",
    "category": "rouken",
    "serviceType": "介護老人保健施設",
    "capacity": 96,
    "openDays": [],
    "openDaysNote": ""
  },
  {
    "id": "151480068",
    "name": "介護老人保健施設ゆとりろ",
    "kana": "カイゴロウジンホケンシセツユトリロ",
    "address": "北海道函館市宝来町14番27号",
    "lat": 41.7576472,
    "lng": 140.7218475,
    "tel": "0138-23-7223",
    "url": "https://takahashi-group.jp/",
    "pref": "北海道",
    "city": "函館市",
    "category": "rouken",
    "serviceType": "介護老人保健施設",
    "capacity": 150,
    "openDays": [],
    "openDaysNote": ""
  },
  {
    "id": "151480027",
    "name": "介護老人保健施設ロイヤルヒルズ日吉",
    "kana": "カイゴロウジンホケンシセツロイヤルヒルズヒヨシ",
    "address": "北海道函館市日吉町4丁目7-81",
    "lat": 41.8021869,
    "lng": 140.7950938,
    "tel": "0138-31-3113",
    "url": "http://www.tomita-hospital.or.jp",
    "pref": "北海道",
    "city": "函館市",
    "category": "rouken",
    "serviceType": "介護老人保健施設",
    "capacity": 0,
    "openDays": [],
    "openDaysNote": ""
  },
  {
    "id": "151580032",
    "name": "介護老人保健施設　コミュニティホーム八雲",
    "kana": "カイゴロウジンホケンシセツ　コミュニティホームヤクモ",
    "address": "北海道二海郡八雲町栄町１３番地１",
    "lat": 42.2562207,
    "lng": 140.2586623,
    "tel": "0137-65-2000",
    "url": "http://www.keijinkai.com/",
    "pref": "北海道",
    "city": "八雲町",
    "category": "rouken",
    "serviceType": "介護老人保健施設",
    "capacity": 0,
    "openDays": [],
    "openDaysNote": ""
  },
  {
    "id": "156180028",
    "name": "社会福祉法人渓仁会　介護老人保健施設コミュニティホーム美唄",
    "kana": "シャカイフクシホウジンケイジンカイ　カイゴロウジンホケンシセツ　コミュニティホームビバイ",
    "address": "北海道美唄市東5条南7丁目5番1号",
    "lat": 43.3181055,
    "lng": 141.8694375,
    "tel": "0126-66-2001",
    "url": "http://www.keijinkai.com/shafuku/c-bibai/",
    "pref": "北海道",
    "city": "美唄市",
    "category": "rouken",
    "serviceType": "介護老人保健施設",
    "capacity": 80,
    "openDays": [],
    "openDaysNote": ""
  },
  {
    "id": "153180039",
    "name": "美瑛町老人保健施設　ほの香",
    "kana": "ビエイチョウロウジンホケンシセツ　ホノカ",
    "address": "上川郡美瑛町東町３丁目７０１番３",
    "lat": 43.588926002975,
    "lng": 142.47483945883,
    "tel": "0166-92-1511",
    "url": "https://www.biei-jikoukai.or.jp/facility/biei-jikouen/",
    "pref": "北海道",
    "city": "美瑛町",
    "category": "rouken",
    "serviceType": "介護老人保健施設",
    "capacity": 0,
    "openDays": [],
    "openDaysNote": ""
  },
  {
    "id": "155280019",
    "name": "社会医療法人　恵和会　介護老人保健施設　アメニティ美幌",
    "kana": "シャカイイリョウホウジン　ケイワカイ　カイゴロウジンホケンシセツ　アメニティビホロ",
    "address": "北海道網走郡美幌町字仲町2丁目38番地の2",
    "lat": 43.8326392,
    "lng": 144.1051747,
    "tel": "0152-75-2210",
    "url": "http://www.keiwakai.jp/amebiho/index.html",
    "pref": "北海道",
    "city": "美幌町",
    "category": "rouken",
    "serviceType": "介護老人保健施設",
    "capacity": 100,
    "openDays": [],
    "openDaysNote": ""
  },
  {
    "id": "153010888",
    "name": "介護老人保健施設けんこう・ふらの",
    "kana": "カイゴロウジンホケンシセツケンコウ・フラノ",
    "address": "北海道富良野市末広町6番17号",
    "lat": 43.3403984,
    "lng": 142.3865085,
    "tel": "0167-56-8000",
    "url": "http://kawamura-mgp.or.jp/kenkou-furano/",
    "pref": "北海道",
    "city": "富良野市",
    "category": "rouken",
    "serviceType": "介護老人保健施設",
    "capacity": 29,
    "openDays": [],
    "openDaysNote": ""
  },
  {
    "id": "153080015",
    "name": "社会福祉法人北海道社会事業協会　介護老人保健施設ふらの",
    "kana": "シャカイフクシホウジンホッカイドウシャカイジギョウキョウカイカイゴロウジンホケンシセツフラノ",
    "address": "北海道富良野市住吉町１番２５号",
    "lat": 43.3456785,
    "lng": 142.3935188,
    "tel": "0167-23-3933",
    "url": "https://ssl.hokushakyo.jp/rouken-furano/",
    "pref": "北海道",
    "city": "富良野市",
    "category": "rouken",
    "serviceType": "介護老人保健施設",
    "capacity": 0,
    "openDays": [],
    "openDaysNote": ""
  },
  {
    "id": "154280010",
    "name": "別海町老人保健施設すこやか",
    "kana": "ベツカイチョウロウジンホケンシセツスコヤカ",
    "address": "北海道野付郡別海町別海西本町103番地3",
    "lat": 43.3908907,
    "lng": 145.123079,
    "tel": "0153-75-3226",
    "url": "betsukai.jp/shisetsu/fukushi/sukoyaka/",
    "pref": "北海道",
    "city": "別海町",
    "category": "rouken",
    "serviceType": "介護老人保健施設",
    "capacity": null,
    "openDays": [],
    "openDaysNote": ""
  },
  {
    "id": "153780036",
    "name": "豊浦町介護老人保健施設",
    "kana": "トヨウラチョウカイゴロウジンホケンシセツ",
    "address": "北海道虻田郡豊浦町字東雲町16番地１",
    "lat": 42.5831807,
    "lng": 140.7158483,
    "tel": "0142-83-2408",
    "url": "http://www.town.toyoura.hokkaido.jp/",
    "pref": "北海道",
    "city": "豊浦町",
    "category": "rouken",
    "serviceType": "介護老人保健施設",
    "capacity": 0,
    "openDays": [],
    "openDaysNote": ""
  },
  {
    "id": "155080021",
    "name": "介護老人保健施設いきいき",
    "kana": "カイゴロウジンホケンシセツイキイキ",
    "address": "北見市東相内町172番地80",
    "lat": 43.8007554,
    "lng": 143.8194652,
    "tel": "0157-66-1111",
    "url": "http://www.sirakawa-c.com/kyuujinkai/index.html",
    "pref": "北海道",
    "city": "北見市",
    "category": "rouken",
    "serviceType": "介護老人保健施設",
    "capacity": 100,
    "openDays": [],
    "openDaysNote": ""
  },
  {
    "id": "155080039",
    "name": "介護老人保健施設さくら",
    "kana": "カイカイゴロウジンホケンシセツサクラ",
    "address": "北海道北見市北光280番6号",
    "lat": 43.7787836,
    "lng": 143.8679016,
    "tel": "0157-68-1139",
    "url": "http://www.mintpia.jp/sakura/",
    "pref": "北海道",
    "city": "北見市",
    "category": "rouken",
    "serviceType": "介護老人保健施設",
    "capacity": 0,
    "openDays": [],
    "openDaysNote": ""
  },
  {
    "id": "155080047",
    "name": "介護老人保健施設緑風",
    "kana": "カイゴロウジンホケンシセツリョクフウ",
    "address": "北海道北見市緑ヶ丘3丁目29番8号介護老人保健施設緑風 介護老人保健施設緑風",
    "lat": 43.8246429,
    "lng": 143.8702591,
    "tel": "0157-24-2806",
    "url": "https://www.keiwafukushi.jp/facilityservice/carehealthfacility/ryokufu/",
    "pref": "北海道",
    "city": "北見市",
    "category": "rouken",
    "serviceType": "介護老人保健施設",
    "capacity": 80,
    "openDays": [],
    "openDaysNote": ""
  },
  {
    "id": "151380011",
    "name": "介護老人保健施設　エスポワール北広島",
    "kana": "カイゴロウジンホケンシセツ　エスポワールキタヒロシマ",
    "address": "北広島市輪厚704番地16",
    "lat": 42.9447790634099,
    "lng": 141.507927768648,
    "tel": "011-376-3911",
    "url": "http://www.shojinkai.or.jp",
    "pref": "北海道",
    "city": "北広島市",
    "category": "rouken",
    "serviceType": "介護老人保健施設",
    "capacity": 100,
    "openDays": [],
    "openDaysNote": ""
  },
  {
    "id": "151580073",
    "name": "介護老人保健施設いなほ",
    "kana": "カイゴロウジンホケンシセツイナホ",
    "address": "北斗市清水川４番地１",
    "lat": 41.8726073,
    "lng": 140.6533182,
    "tel": "0138-77-1700",
    "url": "http://yushin-kai.com",
    "pref": "北海道",
    "city": "北斗市",
    "category": "rouken",
    "serviceType": "介護老人保健施設",
    "capacity": 0,
    "openDays": [],
    "openDaysNote": ""
  },
  {
    "id": "151580040",
    "name": "介護老人保健施設やわらぎ苑上磯",
    "kana": "カイゴロウジンホケンシセツヤワラギエンカミイソ",
    "address": "北斗市追分5丁目3番13号",
    "lat": 41.8298747,
    "lng": 140.6959547,
    "tel": "0138-49-8080",
    "url": "http://www.yawaragikai.com/kaigo/k_yawaragien.html",
    "pref": "北海道",
    "city": "北斗市",
    "category": "rouken",
    "serviceType": "介護老人保健施設",
    "capacity": 0,
    "openDays": [],
    "openDaysNote": ""
  },
  {
    "id": "154780043",
    "name": "介護老人保健施設アメニティ本別",
    "kana": "カイゴロウジンホケンシセツアメニティホンベツ",
    "address": "北海道中川郡本別町西美里別6-18",
    "lat": 43.1215375790756,
    "lng": 143.591399564609,
    "tel": "0156-22-9311",
    "url": "http://www.toukeikai.or.jp",
    "pref": "北海道",
    "city": "本別町",
    "category": "rouken",
    "serviceType": "介護老人保健施設",
    "capacity": 0,
    "openDays": [],
    "openDaysNote": ""
  },
  {
    "id": "157480021",
    "name": "妹背牛町老人保健施設　りぶれ",
    "kana": "モセウシチョウロウジンホケンシセツ　リブレ",
    "address": "北海道雨竜郡妹背牛町字妹背牛３６１番地２２",
    "lat": 43.6921462,
    "lng": 141.954159,
    "tel": "0164-32-3232",
    "url": "",
    "pref": "北海道",
    "city": "妹背牛町",
    "category": "rouken",
    "serviceType": "介護老人保健施設",
    "capacity": 0,
    "openDays": [],
    "openDaysNote": ""
  },
  {
    "id": "154780050",
    "name": "社会医療法人博愛会　介護老人保健施設あかしや",
    "kana": "シャカイイリョウホウジンハクアイカイ　カイゴロウジンホケンシセツアカシヤ",
    "address": "北海道中川郡幕別町札内あかしや町42番地10",
    "lat": 42.9083281,
    "lng": 143.2486127,
    "tel": "0155-55-4165",
    "url": "http://www.roken-akashiya.org",
    "pref": "北海道",
    "city": "幕別町",
    "category": "rouken",
    "serviceType": "介護老人保健施設",
    "capacity": 150,
    "openDays": [],
    "openDaysNote": ""
  },
  {
    "id": "153280029",
    "name": "介護老人保健施設そよかぜ館",
    "kana": "カイゴロウジンホケンシセツソヨカゼカン",
    "address": "北海道名寄市字緑丘１１番地１５",
    "lat": 44.3434233,
    "lng": 142.479042,
    "tel": "01654-3-6100",
    "url": "",
    "pref": "北海道",
    "city": "名寄市",
    "category": "rouken",
    "serviceType": "介護老人保健施設",
    "capacity": 0,
    "openDays": [],
    "openDaysNote": ""
  },
  {
    "id": "155380033",
    "name": "介護老人保健施設あるかさる",
    "kana": "カイゴロウジンホケンシセツアルカサル",
    "address": "網走市桂町4丁目7番11号",
    "lat": 44.0123172671231,
    "lng": 144.270577647885,
    "tel": "0152-61-6163",
    "url": "http://www.meiseikai-smc.jp/",
    "pref": "北海道",
    "city": "網走市",
    "category": "rouken",
    "serviceType": "介護老人保健施設",
    "capacity": 0,
    "openDays": [],
    "openDaysNote": ""
  },
  {
    "id": "155380017",
    "name": "介護老人保健施設いせの里",
    "kana": "カイゴロウジンホケンシセツイセノサト",
    "address": "北海道網走市字潮見１９２番地",
    "lat": 43.9980867,
    "lng": 144.2691188,
    "tel": "0152-43-7100",
    "url": "http://www.isenosato.sakura.ne.jp/",
    "pref": "北海道",
    "city": "網走市",
    "category": "rouken",
    "serviceType": "介護老人保健施設",
    "capacity": 0,
    "openDays": [],
    "openDaysNote": ""
  },
  {
    "id": "155180011",
    "name": "介護老人保健施設サン・ヒルズ紋別",
    "kana": "カイゴロウジンホケンシセツサン・ヒルズモンベツ",
    "address": "北海道紋別市花園町5丁目3番7号",
    "lat": 44.3518428,
    "lng": 143.3472874,
    "tel": "0158-26-2500",
    "url": "https://suhills.hjk.ne.jp",
    "pref": "北海道",
    "city": "紋別市",
    "category": "rouken",
    "serviceType": "介護老人保健施設",
    "capacity": 0,
    "openDays": [],
    "openDaysNote": ""
  },
  {
    "id": "155880065",
    "name": "由仁町介護老人保健施設ひだまり",
    "kana": "ユニチョウカイゴロウジンホケンシセツヒダマリ",
    "address": "北海道夕張郡由仁町馬追１番地の１",
    "lat": 43.0120091,
    "lng": 141.7803603,
    "tel": "0123-76-7735",
    "url": "https://yuni-clinic.com/",
    "pref": "北海道",
    "city": "由仁町",
    "category": "rouken",
    "serviceType": "介護老人保健施設",
    "capacity": null,
    "openDays": [],
    "openDaysNote": ""
  },
  {
    "id": "155180029",
    "name": "雄武町立介護老人保健施設ハマナス",
    "kana": "オウムチョウリツカイゴロウジンホケンシセツハマナス",
    "address": "北海道紋別郡雄武町字雄武１４８２番地２",
    "lat": 44.582395,
    "lng": 142.956883,
    "tel": "0158-84-2517",
    "url": "https://www.town.oumu.hokkaido.jp/iryo_kenko_fukushi/omumachikokuhobyoin/index.html",
    "pref": "北海道",
    "city": "雄武町",
    "category": "rouken",
    "serviceType": "介護老人保健施設",
    "capacity": 0,
    "openDays": [],
    "openDaysNote": ""
  },
  {
    "id": "152580056",
    "name": "介護老人保健施設よいち",
    "kana": "カイゴロウジンホケンシセツヨイチ",
    "address": "北海道余市郡余市町山田町201番地5",
    "lat": 43.1843514,
    "lng": 140.7807047,
    "tel": "0135-21-4567",
    "url": "https://www.roken-yoichi.com/",
    "pref": "北海道",
    "city": "余市町",
    "category": "rouken",
    "serviceType": "介護老人保健施設",
    "capacity": null,
    "openDays": [],
    "openDaysNote": ""
  },
  {
    "id": "156780033",
    "name": "利尻島老人保健施設",
    "kana": "リシリトウロウジンホケンシセツ",
    "address": "北海道利尻郡利尻富士町鬼脇字金崎332番地",
    "lat": 45.1312708,
    "lng": 141.3045391,
    "tel": "0163-89-3216",
    "url": "",
    "pref": "北海道",
    "city": "利尻富士町",
    "category": "rouken",
    "serviceType": "介護老人保健施設",
    "capacity": 0,
    "openDays": [],
    "openDaysNote": ""
  },
  {
    "id": "156480022",
    "name": "医療法人社団心優会　介護老人保健施設季実の杜",
    "kana": "イリョウホウジンシャダンシンユウカイ　カイゴロウジンホケンシセツキミノモリ",
    "address": "北海道留萌市開運町１丁目５番1号",
    "lat": 43.9403177,
    "lng": 141.6482169,
    "tel": "0164-43-4400",
    "url": "http://www.shinyukai-r.or.jp/",
    "pref": "北海道",
    "city": "留萌市",
    "category": "rouken",
    "serviceType": "介護老人保健施設",
    "capacity": 0,
    "openDays": [],
    "openDaysNote": ""
  }
]