[
  {
    "id": "1254980033",
    "name": "介護老人保健施設　エスポワール大原",
    "kana": "カイゴロウジンホケンシセツ　エスポワールオオハラ",
    "address": "千葉県いすみ市日在2623",
    "lat": 35.2759806,
    "lng": 140.3881091,
    "tel": "0470-60-8188",
    "url": "https://www.esp-ohara.com/",
    "pref": "千葉県",
    "city": "いすみ市",
    "category": "rouken",
    "serviceType": "介護老人保健施設",
    "capacity": 0,
    "openDays": [],
    "openDaysNote": ""
  },
  {
    "id": "1253780020",
    "name": "介護老人保健施設エスポワール岬",
    "kana": "カイゴロウジンホケンシセツエスポワールミサキ",
    "address": "千葉県いすみ市岬町和泉字苅込台３３０－１",
    "lat": 35.323708,
    "lng": 140.4030982,
    "tel": "0470-80-2711",
    "url": "https://www.esp-misaki.com/",
    "pref": "千葉県",
    "city": "いすみ市",
    "category": "rouken",
    "serviceType": "介護老人保健施設",
    "capacity": 0,
    "openDays": [],
    "openDaysNote": ""
  },
  {
    "id": "1253780012",
    "name": "介護老人保健施設シルバーハピネス",
    "kana": "カイゴロウジンホケンシセツシルバーハピネス",
    "address": "千葉県いすみ市苅谷１１７７番地",
    "lat": 35.2847882,
    "lng": 140.3151658,
    "tel": "0470-86-5551",
    "url": "http://www.kuniyoshi-hp.jp",
    "pref": "千葉県",
    "city": "いすみ市",
    "category": "rouken",
    "serviceType": "介護老人保健施設",
    "capacity": null,
    "openDays": [],
    "openDaysNote": ""
  },
  {
    "id": "1251480029",
    "name": "介護老人保健施設　すこやかリハビリケアセンター",
    "kana": "カイゴロウジンホケンシセツ　スコヤカリハビリケアセンター",
    "address": "千葉県旭市ロの８１８－３",
    "lat": 35.7177288,
    "lng": 140.6540242,
    "tel": "0479-62-4600",
    "url": "",
    "pref": "千葉県",
    "city": "旭市",
    "category": "rouken",
    "serviceType": "介護老人保健施設",
    "capacity": 0,
    "openDays": [],
    "openDaysNote": ""
  },
  {
    "id": "1251480037",
    "name": "介護老人保健施設シルバーケアセンター",
    "kana": "カイゴロウジンホケンシセツシルバーケアセンター",
    "address": "千葉県旭市イ1307番地",
    "lat": 35.716568,
    "lng": 140.6646316,
    "tel": "0479-64-0222",
    "url": "",
    "pref": "千葉県",
    "city": "旭市",
    "category": "rouken",
    "serviceType": "介護老人保健施設",
    "capacity": 0,
    "openDays": [],
    "openDaysNote": ""
  },
  {
    "id": "1254680013",
    "name": "介護老人保健施設ヴィラ大森",
    "kana": "カイゴロウジンホケンシセツウ゛ィラオオモリ",
    "address": "千葉県印西市大森２２１８－１",
    "lat": 35.8267132,
    "lng": 140.1499541,
    "tel": "0476-42-8864",
    "url": "https://chibaishinkai.com/",
    "pref": "千葉県",
    "city": "印西市",
    "category": "rouken",
    "serviceType": "介護老人保健施設",
    "capacity": 0,
    "openDays": [],
    "openDaysNote": ""
  },
  {
    "id": "1251980019",
    "name": "介護老人保健施設浦安ベテルホーム",
    "kana": "カイゴロウジンホケンシセツウラヤスベテルホーム",
    "address": "千葉県浦安市高洲九丁目３番２号",
    "lat": 35.6315361,
    "lng": 139.9187472,
    "tel": "047-700-6600",
    "url": "http://www.seirei.or.jp/hq/",
    "pref": "千葉県",
    "city": "浦安市",
    "category": "rouken",
    "serviceType": "介護老人保健施設",
    "capacity": 100,
    "openDays": [],
    "openDaysNote": ""
  },
  {
    "id": "1254180030",
    "name": "介護老人保健施設さかえケアセンター",
    "kana": "カイゴロウジンホケンシセツサカエケアセンター",
    "address": "千葉県印旛郡栄町安食２４２１",
    "lat": 35.8350442534701,
    "lng": 140.249751387836,
    "tel": "0476-95-6510",
    "url": "http://www.ikusei-g.com",
    "pref": "千葉県",
    "city": "栄町",
    "category": "rouken",
    "serviceType": "介護老人保健施設",
    "capacity": 0,
    "openDays": [],
    "openDaysNote": ""
  },
  {
    "id": "1252580041",
    "name": "介護老人保健施設　葵の園・我孫子",
    "kana": "カイゴロウジンホケンシセツ　アオイノソノ・アビコ",
    "address": "千葉県我孫子市柴崎１３７番地の１",
    "lat": 35.8747547,
    "lng": 140.0362271,
    "tel": "04-7182-1165",
    "url": "http://www.aoikai.jp",
    "pref": "千葉県",
    "city": "我孫子市",
    "category": "rouken",
    "serviceType": "介護老人保健施設",
    "capacity": 0,
    "openDays": [],
    "openDaysNote": ""
  },
  {
    "id": "1252580053",
    "name": "介護老人保健施設　葵の園・我孫子西",
    "kana": "カイゴロウジンホケンシセツ　アオイノソノ・アビコニシ",
    "address": "千葉県我孫子市柴崎188-1",
    "lat": 35.8751894,
    "lng": 140.0362645,
    "tel": "04-7184-7777",
    "url": "https://www.aoikai.jp/",
    "pref": "千葉県",
    "city": "我孫子市",
    "category": "rouken",
    "serviceType": "介護老人保健施設",
    "capacity": 0,
    "openDays": [],
    "openDaysNote": ""
  },
  {
    "id": "1252580017",
    "name": "介護老人保健施設　我孫子ロイヤルケアセンター",
    "kana": "カイゴロウジンホケンシセツ　アビコロイヤルケアセンター",
    "address": "千葉県我孫子市中峠2614",
    "lat": 35.8800854,
    "lng": 140.0900215,
    "tel": "04-7181-5611",
    "url": "http://www.ims.gr.jp/abiko_royal/",
    "pref": "千葉県",
    "city": "我孫子市",
    "category": "rouken",
    "serviceType": "介護老人保健施設",
    "capacity": 150,
    "openDays": [],
    "openDaysNote": ""
  },
  {
    "id": "1252580025",
    "name": "介護老人保健施設エスペーロ",
    "kana": "カイゴロウジンホケンシセツ　エスペーロ",
    "address": "千葉県我孫子市布佐８３４－２８",
    "lat": 35.8636404,
    "lng": 140.1158666,
    "tel": "04-7189-1112",
    "url": "https://www.medicalplaza.or.jp/espero/",
    "pref": "千葉県",
    "city": "我孫子市",
    "category": "rouken",
    "serviceType": "介護老人保健施設",
    "capacity": 0,
    "openDays": [],
    "openDaysNote": ""
  },
  {
    "id": "1252580033",
    "name": "介護老人保健施設クレオ",
    "kana": "カイゴロウジンホケンシセツ　クレオ",
    "address": "千葉県我孫子市我孫子１８５５－４",
    "lat": 35.8652197,
    "lng": 140.0279616,
    "tel": "04-7179-7700",
    "url": "https://www.medicalplaza.or.jp/kreo/",
    "pref": "千葉県",
    "city": "我孫子市",
    "category": "rouken",
    "serviceType": "介護老人保健施設",
    "capacity": null,
    "openDays": [],
    "openDaysNote": ""
  },
  {
    "id": "1252680036",
    "name": "介護老人保健施設シルバーケア鎌ヶ谷",
    "kana": "カイゴロウジンホケンシセツ　シルバーケアカマガヤ",
    "address": "千葉県鎌ケ谷市初富125番地の1",
    "lat": 35.7828605265916,
    "lng": 139.988061595176,
    "tel": "047-441-2005",
    "url": "https;//silvercare-kamagaya.jp",
    "pref": "千葉県",
    "city": "鎌ケ谷市",
    "category": "rouken",
    "serviceType": "介護老人保健施設",
    "capacity": 0,
    "openDays": [],
    "openDaysNote": ""
  },
  {
    "id": "1252680044",
    "name": "介護老人保健施設しんかま",
    "kana": "カイゴロウジンホケンシセツシンカマ",
    "address": "千葉県鎌ケ谷市初富929-6鎌ケ谷総合病院内6階 鎌ケ谷総合病院内6階",
    "lat": 35.7779067,
    "lng": 139.9965057,
    "tel": "047-774-0001",
    "url": "http://www.rouken-shinkama.com/",
    "pref": "千葉県",
    "city": "鎌ケ谷市",
    "category": "rouken",
    "serviceType": "介護老人保健施設",
    "capacity": 0,
    "openDays": [],
    "openDaysNote": ""
  },
  {
    "id": "1253980018",
    "name": "介護老人保健施設たいよう",
    "kana": "カイゴロウジンホケンシセツタイヨウ",
    "address": "千葉県鴨川市西町1011番地1",
    "lat": 35.1226799,
    "lng": 140.1246906,
    "tel": "04-7093-7711",
    "url": "http://www.taiyou-kai.jp",
    "pref": "千葉県",
    "city": "鴨川市",
    "category": "rouken",
    "serviceType": "介護老人保健施設",
    "capacity": 100,
    "openDays": [],
    "openDaysNote": ""
  },
  {
    "id": "1253680055",
    "name": "サテライト型小規模介護老人保健施設　なのはな館なぎさ",
    "kana": "サテライトガタショウキボカイゴロウジンホケンシセツ　ナノハナカンナギサ",
    "address": "千葉県館山市北条2832",
    "lat": 34.9968525,
    "lng": 139.8593663,
    "tel": "0470-24-2700",
    "url": "https://www.keishokai.or.jp/",
    "pref": "千葉県",
    "city": "館山市",
    "category": "rouken",
    "serviceType": "介護老人保健施設",
    "capacity": 0,
    "openDays": [],
    "openDaysNote": ""
  },
  {
    "id": "1253680030",
    "name": "医療法人南陽会介護老人保健施設みやぎの郷",
    "kana": "イリョウホウジンナンヨウカイカイゴロウジンホケンシセツミヤギノサト",
    "address": "千葉県館山市宮城1088番地",
    "lat": 34.9822933,
    "lng": 139.8366822,
    "tel": "0470-24-4165",
    "url": "http://nanyoukai.info/miyagino/",
    "pref": "千葉県",
    "city": "館山市",
    "category": "rouken",
    "serviceType": "介護老人保健施設",
    "capacity": 0,
    "openDays": [],
    "openDaysNote": ""
  },
  {
    "id": "1253680068",
    "name": "介護老人保健施設たてやま",
    "kana": "カイゴロウジンホケンシセツタテヤマ",
    "address": "千葉県館山市北条520-1",
    "lat": 34.993801937059,
    "lng": 139.875294780426,
    "tel": "0470-22-2700",
    "url": "https://tateyama-hp.com/",
    "pref": "千葉県",
    "city": "館山市",
    "category": "rouken",
    "serviceType": "介護老人保健施設",
    "capacity": 0,
    "openDays": [],
    "openDaysNote": ""
  },
  {
    "id": "1253680014",
    "name": "介護老人保健施設なのはな館みさき",
    "kana": "カイゴロウジンホケンシセツ　ナノハナカンミサキ",
    "address": "千葉県館山市浜田１１０－１",
    "lat": 34.9748188,
    "lng": 139.8087156,
    "tel": "0470-29-2700",
    "url": "https://www.keishokai.or.jp/",
    "pref": "千葉県",
    "city": "館山市",
    "category": "rouken",
    "serviceType": "介護老人保健施設",
    "capacity": 0,
    "openDays": [],
    "openDaysNote": ""
  },
  {
    "id": "1253680022",
    "name": "館山ケアセンター夢くらぶ",
    "kana": "タテヤマケアセンターユメクラブ",
    "address": "千葉県館山市山本392-1",
    "lat": 34.9859825,
    "lng": 139.892324,
    "tel": "0470-20-2000",
    "url": "http://egao-group.jp/",
    "pref": "千葉県",
    "city": "館山市",
    "category": "rouken",
    "serviceType": "介護老人保健施設",
    "capacity": 0,
    "openDays": [],
    "openDaysNote": ""
  },
  {
    "id": "1251180017",
    "name": "介護老人保健施設きゃらの樹ケアセンター",
    "kana": "カイゴロウジンホケンシセツキャラノキケアセンター",
    "address": "千葉県君津市広岡375-3",
    "lat": 35.2518571,
    "lng": 140.055813,
    "tel": "0439-50-7333",
    "url": "https://www.fuyou.or.jp/",
    "pref": "千葉県",
    "city": "君津市",
    "category": "rouken",
    "serviceType": "介護老人保健施設",
    "capacity": 0,
    "openDays": [],
    "openDaysNote": ""
  },
  {
    "id": "1251180025",
    "name": "介護老人保健施設メディケアー君津",
    "kana": "カイゴロウジンホケンシセツメディケアーキミツ",
    "address": "千葉県君津市八幡62-1",
    "lat": 35.320746,
    "lng": 139.9082099,
    "tel": "0439-50-3111",
    "url": "http://park11.wakwak.com/~medhikea-kimitu/2page.html",
    "pref": "千葉県",
    "city": "君津市",
    "category": "rouken",
    "serviceType": "介護老人保健施設",
    "capacity": 0,
    "openDays": [],
    "openDaysNote": ""
  },
  {
    "id": "1252980019",
    "name": "介護老人保健施設　夢プラスワン",
    "kana": "カイゴロウジンホケンシセツ　ユメプラスワン",
    "address": "千葉県香取市大倉字入り1196-1",
    "lat": 35.888569494458,
    "lng": 140.557578566179,
    "tel": "0478-57-1511",
    "url": "https://yume-plusone.com/",
    "pref": "千葉県",
    "city": "香取市",
    "category": "rouken",
    "serviceType": "介護老人保健施設",
    "capacity": 0,
    "openDays": [],
    "openDaysNote": ""
  },
  {
    "id": "1253080041",
    "name": "介護老人保健施設おおくすの郷",
    "kana": "カイゴロウジンホケンシセツ　オオクスノサト",
    "address": "千葉県香取市府馬３７２３番地",
    "lat": 35.7860387,
    "lng": 140.6045686,
    "tel": "0478-78-1122",
    "url": "https://ookusunosato.com/",
    "pref": "千葉県",
    "city": "香取市",
    "category": "rouken",
    "serviceType": "介護老人保健施設",
    "capacity": 0,
    "openDays": [],
    "openDaysNote": ""
  },
  {
    "id": "1253080033",
    "name": "介護老人保健施設おみがわ",
    "kana": "カイゴロウジンホケンシセツオミガワ",
    "address": "千葉県香取市小見川4662番地2",
    "lat": 35.8540005,
    "lng": 140.5853087,
    "tel": "0478-80-1315",
    "url": "http://www.sanseikai.or.jp",
    "pref": "千葉県",
    "city": "香取市",
    "category": "rouken",
    "serviceType": "介護老人保健施設",
    "capacity": 0,
    "openDays": [],
    "openDaysNote": ""
  },
  {
    "id": "1254280012",
    "name": "介護老人保健施設　佐倉ホワイエ",
    "kana": "カイゴロウジンホケンシセツ　サクラホワイエ",
    "address": "千葉県佐倉市鏑木町336",
    "lat": 35.7149041,
    "lng": 140.2351771,
    "tel": "043-484-4680",
    "url": "https://www.sakurakouseien.jp/foyer/",
    "pref": "千葉県",
    "city": "佐倉市",
    "category": "rouken",
    "serviceType": "介護老人保健施設",
    "capacity": 0,
    "openDays": [],
    "openDaysNote": ""
  },
  {
    "id": "1254280046",
    "name": "介護老人保健施設ユーカリ優都苑",
    "kana": "カイゴロウジンホケンシセツ　ユーカリユウトエン",
    "address": "千葉県佐倉市青菅1010番地15",
    "lat": 35.7445451,
    "lng": 140.1415991,
    "tel": "043-460-7117",
    "url": "https://www.yutokai.com/facility/yutoen.html",
    "pref": "千葉県",
    "city": "佐倉市",
    "category": "rouken",
    "serviceType": "介護老人保健施設",
    "capacity": 0,
    "openDays": [],
    "openDaysNote": ""
  },
  {
    "id": "1254280079",
    "name": "介護老人保健施設葵の園・佐倉【ユニット】",
    "kana": "カイゴロウジンホケンシセツアオイノソノ・サクラ【ユニット】",
    "address": "千葉県佐倉市城字松が丘188-335",
    "lat": 35.6891046221625,
    "lng": 140.233068347746,
    "tel": "043-481-3000",
    "url": "https://www.aoikai.jp/sakura/",
    "pref": "千葉県",
    "city": "佐倉市",
    "category": "rouken",
    "serviceType": "介護老人保健施設",
    "capacity": 0,
    "openDays": [],
    "openDaysNote": ""
  },
  {
    "id": "1254280061",
    "name": "介護老人保健施設葵の園・佐倉南",
    "kana": "カイゴロウジンホケンシセツアオイノソノ・サクラミナミ",
    "address": "千葉県佐倉市城字松が丘188-335",
    "lat": 35.6891220499636,
    "lng": 140.233068347746,
    "tel": "043-481-3000",
    "url": "https://www.aoikai.jp/",
    "pref": "千葉県",
    "city": "佐倉市",
    "category": "rouken",
    "serviceType": "介護老人保健施設",
    "capacity": 0,
    "openDays": [],
    "openDaysNote": ""
  },
  {
    "id": "1250780023",
    "name": "介護老人保健施設ハートビレッジ",
    "kana": "カイゴロウジンホケンシセツハートビレッジ",
    "address": "千葉県山武市蓮沼ニ5035-4",
    "lat": 35.5949479,
    "lng": 140.4828675,
    "tel": "0475-86-3993",
    "url": "http://www.akibah.or.jp/",
    "pref": "千葉県",
    "city": "山武市",
    "category": "rouken",
    "serviceType": "介護老人保健施設",
    "capacity": null,
    "openDays": [],
    "openDaysNote": ""
  },
  {
    "id": "1250780015",
    "name": "介護老人保健施設松尾リハビリ苑",
    "kana": "カイゴロウジンホケンシセツ　マツオリハビリエン",
    "address": "千葉県山武市松尾町田越７５６番地の５",
    "lat": 35.6295026039,
    "lng": 140.444631641139,
    "tel": "0479-86-2600",
    "url": "",
    "pref": "千葉県",
    "city": "山武市",
    "category": "rouken",
    "serviceType": "介護老人保健施設",
    "capacity": 70,
    "openDays": [],
    "openDaysNote": ""
  },
  {
    "id": "1255380019",
    "name": "介護老人保健施設日向の里",
    "kana": "カイゴロウジンホケンシセツヒュウガノサト",
    "address": "千葉県山武市木原２１００",
    "lat": 35.634057,
    "lng": 140.3492868,
    "tel": "0475-88-1980",
    "url": "",
    "pref": "千葉県",
    "city": "山武市",
    "category": "rouken",
    "serviceType": "介護老人保健施設",
    "capacity": 80,
    "openDays": [],
    "openDaysNote": ""
  },
  {
    "id": "1254480026",
    "name": "介護老人保健施設　栗の郷",
    "kana": "カイゴロウジンホケンシセツ　クリノサト",
    "address": "千葉県四街道市栗山906-1",
    "lat": 35.6783488,
    "lng": 140.1763255,
    "tel": "043-421-6881",
    "url": "http://www.kuriyama-hp.jp/info/kurinosato.html",
    "pref": "千葉県",
    "city": "四街道市",
    "category": "rouken",
    "serviceType": "介護老人保健施設",
    "capacity": 105,
    "openDays": [],
    "openDaysNote": ""
  },
  {
    "id": "1254480018",
    "name": "介護老人保健施設のぞみ",
    "kana": "カイゴロウジンホケンシセツ　ノゾミ",
    "address": "千葉県四街道市大日1685-10",
    "lat": 35.6795028,
    "lng": 140.1527065,
    "tel": "043-421-6868",
    "url": "https://keitoku.or.jp",
    "pref": "千葉県",
    "city": "四街道市",
    "category": "rouken",
    "serviceType": "介護老人保健施設",
    "capacity": 0,
    "openDays": [],
    "openDaysNote": ""
  },
  {
    "id": "1254480047",
    "name": "介護老人保健施設四街道徳洲苑",
    "kana": "カイゴロウジンホケンシセツヨツカイドウトクシュウエン",
    "address": "千葉県四街道市吉岡1830-1四街道徳洲会病院 四街道徳洲会病院",
    "lat": 35.628457,
    "lng": 140.1871249,
    "tel": "043-382-7002",
    "url": "https://yotsutoku-tokusyuen.jp/",
    "pref": "千葉県",
    "city": "四街道市",
    "category": "rouken",
    "serviceType": "介護老人保健施設",
    "capacity": 0,
    "openDays": [],
    "openDaysNote": ""
  },
  {
    "id": "1250680041",
    "name": "介護老人保健施設　なんな苑",
    "kana": "カイゴロウジンホケンシセツ　ナンナエン",
    "address": "千葉県市原市中高根1341-1",
    "lat": 35.4316525,
    "lng": 140.0939976,
    "tel": "0436-50-3212",
    "url": "https://takaharakai.or.jp/nannaen",
    "pref": "千葉県",
    "city": "市原市",
    "category": "rouken",
    "serviceType": "介護老人保健施設",
    "capacity": 0,
    "openDays": [],
    "openDaysNote": ""
  },
  {
    "id": "1250680108",
    "name": "介護老人保健施設　メディケア51",
    "kana": "カイゴロウジンホケンシセツ　メディケア51",
    "address": "千葉県市原市町田176",
    "lat": 35.4860506195721,
    "lng": 140.081284835582,
    "tel": "0436-63-5165",
    "url": "https://www.medicare51.com/",
    "pref": "千葉県",
    "city": "市原市",
    "category": "rouken",
    "serviceType": "介護老人保健施設",
    "capacity": 0,
    "openDays": [],
    "openDaysNote": ""
  },
  {
    "id": "1250680066",
    "name": "介護老人保健施設　ユー・アイ久楽部",
    "kana": "カイゴロウジンホケンシセツ　ユー・アイクラブ",
    "address": "千葉県市原市西広131",
    "lat": 35.4869475,
    "lng": 140.121792,
    "tel": "0436-20-0701",
    "url": "http://www.you-i-club.com/",
    "pref": "千葉県",
    "city": "市原市",
    "category": "rouken",
    "serviceType": "介護老人保健施設",
    "capacity": 0,
    "openDays": [],
    "openDaysNote": ""
  },
  {
    "id": "1250680082",
    "name": "介護老人保健施設アーネスト",
    "kana": "カイゴロウジンホケンシセツアーネスト",
    "address": "千葉県市原市五井1846-1",
    "lat": 35.5093047,
    "lng": 140.0811869,
    "tel": "0436-63-7783",
    "url": "https://www.yarita-hosp.or.jp/earnest/",
    "pref": "千葉県",
    "city": "市原市",
    "category": "rouken",
    "serviceType": "介護老人保健施設",
    "capacity": 100,
    "openDays": [],
    "openDaysNote": ""
  },
  {
    "id": "1250680090",
    "name": "介護老人保健施設リハパークきくま",
    "kana": "カイゴロウジンホケンシセツリハパークキクマ",
    "address": "千葉県市原市菊間1136-6介護老人保健施設リハパークきくま 介護老人保健施設リハパークきくま",
    "lat": 35.5382608,
    "lng": 140.1498939,
    "tel": "0436-40-8220",
    "url": "http://rehapark-kikuma.com",
    "pref": "千葉県",
    "city": "市原市",
    "category": "rouken",
    "serviceType": "介護老人保健施設",
    "capacity": null,
    "openDays": [],
    "openDaysNote": ""
  },
  {
    "id": "1250680033",
    "name": "介護老人保健施設杏の里",
    "kana": "カイゴロウジンホケンシセツアンズノサト",
    "address": "千葉県市原市能満１７７４－１",
    "lat": 35.5080839,
    "lng": 140.1426655,
    "tel": "0436-75-7500",
    "url": "http://www.anzunosato.jp/",
    "pref": "千葉県",
    "city": "市原市",
    "category": "rouken",
    "serviceType": "介護老人保健施設",
    "capacity": 0,
    "openDays": [],
    "openDaysNote": ""
  },
  {
    "id": "1250680025",
    "name": "介護老人保健施設辰巳ナーシング・ヴィラ",
    "kana": "カイゴロウジンホケンシセツタツミナーシング・ウ゛ィラ",
    "address": "千葉県市原市辰巳台東５－５－１",
    "lat": 35.5089615,
    "lng": 140.1504344,
    "tel": "0436-74-1311",
    "url": "http://www.takushinkai.net",
    "pref": "千葉県",
    "city": "市原市",
    "category": "rouken",
    "serviceType": "介護老人保健施設",
    "capacity": 0,
    "openDays": [],
    "openDaysNote": ""
  },
  {
    "id": "1250680074",
    "name": "介護老人保健施設梅香苑",
    "kana": "カイゴロウジンホケンシセツ　バイカエン",
    "address": "千葉県市原市馬立802-1",
    "lat": 35.4229344,
    "lng": 140.1158799,
    "tel": "0436-95-6767",
    "url": "http://ryokuyukai.jp/",
    "pref": "千葉県",
    "city": "市原市",
    "category": "rouken",
    "serviceType": "介護老人保健施設",
    "capacity": 98,
    "openDays": [],
    "openDaysNote": ""
  },
  {
    "id": "1250680017",
    "name": "老人保健施設　姉ヶ崎ケアセンター",
    "kana": "ロウジンホケンシセツ　アネガサキケアセンター",
    "address": "千葉県市原市椎津２５４５－１",
    "lat": 35.4465276,
    "lng": 140.0478181,
    "tel": "0436-66-8867",
    "url": "http://www.kenroukai.jp/",
    "pref": "千葉県",
    "city": "市原市",
    "category": "rouken",
    "serviceType": "介護老人保健施設",
    "capacity": 100,
    "openDays": [],
    "openDaysNote": ""
  },
  {
    "id": "1252780062",
    "name": "医療法人社団泰正会介護老人保健施設グレースケア市川",
    "kana": "イリョウホウジンシャダンタイセイカイカイゴロウジンホケンイセツグレースケアイチカワ",
    "address": "千葉県市川市大町43-3",
    "lat": 35.7698161,
    "lng": 139.9535842,
    "tel": "047-303-8883",
    "url": "https://gracecare-ichikawa.com/",
    "pref": "千葉県",
    "city": "市川市",
    "category": "rouken",
    "serviceType": "介護老人保健施設",
    "capacity": 100,
    "openDays": [],
    "openDaysNote": ""
  },
  {
    "id": "1252780088",
    "name": "介護老人保健施設　エスポワール市川",
    "kana": "カイゴロウジンホケンシセツ　エスポワールイチカワ",
    "address": "千葉県市川市高谷３丁目１－２０",
    "lat": 35.6973788,
    "lng": 139.9417486,
    "tel": "047-329-6087",
    "url": "https://www.esp-ichikawa.com/",
    "pref": "千葉県",
    "city": "市川市",
    "category": "rouken",
    "serviceType": "介護老人保健施設",
    "capacity": 0,
    "openDays": [],
    "openDaysNote": ""
  },
  {
    "id": "1252780070",
    "name": "介護老人保健施設　サンシルバー市川",
    "kana": "カイゴロウジンホケンシセツ　サンシルバーイチカワ",
    "address": "千葉県市川市北方町4-1460",
    "lat": 35.7380866,
    "lng": 139.9540768,
    "tel": "047-303-5533",
    "url": "https://sunsilver-ichikawa.com/",
    "pref": "千葉県",
    "city": "市川市",
    "category": "rouken",
    "serviceType": "介護老人保健施設",
    "capacity": 0,
    "openDays": [],
    "openDaysNote": ""
  },
  {
    "id": "1252780039",
    "name": "介護老人保健施設　ハートケア市川",
    "kana": "カイゴロウジンホケンシセツ　ハートケアイチカワ",
    "address": "千葉県市川市奉免町５９－２",
    "lat": 35.7433054,
    "lng": 139.9570292,
    "tel": "047-303-8222",
    "url": "http://www.hc-ichikawa.jp",
    "pref": "千葉県",
    "city": "市川市",
    "category": "rouken",
    "serviceType": "介護老人保健施設",
    "capacity": 0,
    "openDays": [],
    "openDaysNote": ""
  },
  {
    "id": "1252780125",
    "name": "介護老人保健施設　らいおんハート",
    "kana": "カイゴロウジンホケンシセツ　ライオンハート",
    "address": "千葉県市川市柏井町４丁目296-2",
    "lat": 35.7540941,
    "lng": 139.9718052,
    "tel": "074-303-7711",
    "url": "https://lion-rouken.com/",
    "pref": "千葉県",
    "city": "市川市",
    "category": "rouken",
    "serviceType": "介護老人保健施設",
    "capacity": null,
    "openDays": [],
    "openDaysNote": ""
  },
  {
    "id": "1252780096",
    "name": "介護老人保健施設　市川あさひ荘",
    "kana": "カイゴロウジンホケンシセツ　イチカワアサヒソウ",
    "address": "千葉県市川市大町537-10",
    "lat": 35.7609644,
    "lng": 139.9537178,
    "tel": "047-339-6541",
    "url": "http://www.asahiso.com/",
    "pref": "千葉県",
    "city": "市川市",
    "category": "rouken",
    "serviceType": "介護老人保健施設",
    "capacity": null,
    "openDays": [],
    "openDaysNote": ""
  },
  {
    "id": "1252780112",
    "name": "介護老人保健施設サンセール市川",
    "kana": "カイゴロウジンホケンシセツ　サンセールイチカワ",
    "address": "千葉県市川市原木2丁目13番8号",
    "lat": 35.6985505,
    "lng": 139.9432983,
    "tel": "047-325-9367",
    "url": "http://sin-ichikawa.com/",
    "pref": "千葉県",
    "city": "市川市",
    "category": "rouken",
    "serviceType": "介護老人保健施設",
    "capacity": 0,
    "openDays": [],
    "openDaysNote": ""
  },
  {
    "id": "1252780054",
    "name": "介護老人保健施設葵の園・市川",
    "kana": "カイゴロウジンホケンシセツアオイノソノ・イチカワ",
    "address": "千葉県市川市大野町三丁目2128番1号",
    "lat": 35.750399,
    "lng": 139.9587844,
    "tel": "047-303-7001",
    "url": "https://www.aoikai.jp/ichikawa/",
    "pref": "千葉県",
    "city": "市川市",
    "category": "rouken",
    "serviceType": "介護老人保健施設",
    "capacity": 0,
    "openDays": [],
    "openDaysNote": ""
  },
  {
    "id": "1252780104",
    "name": "介護老人保健施設市川ゆうゆう",
    "kana": "カイゴロウジンホケンシセツイチカワユウユウ",
    "address": "千葉県市川市柏井町４丁目２２９番地４",
    "lat": 35.7513296,
    "lng": 139.9648478,
    "tel": "047-338-1910",
    "url": "https://www.ichikawayuuyuu-jadecom.jp/",
    "pref": "千葉県",
    "city": "市川市",
    "category": "rouken",
    "serviceType": "介護老人保健施設",
    "capacity": 150,
    "openDays": [],
    "openDaysNote": ""
  },
  {
    "id": "1250780049",
    "name": "介護老人保健施設二川苑",
    "kana": "カイゴロウジンホケンシセツフタカワエン",
    "address": "千葉県山武郡芝山町山中678",
    "lat": 35.6959755,
    "lng": 140.4344105,
    "tel": "0479-77-1131",
    "url": "https://www.futakawaen.com/",
    "pref": "千葉県",
    "city": "芝山町",
    "category": "rouken",
    "serviceType": "介護老人保健施設",
    "capacity": 0,
    "openDays": [],
    "openDaysNote": ""
  },
  {
    "id": "1250280024",
    "name": "医療法人社団愛友会サテライト型小規模介護老人保健施設あっとほーむ習志野",
    "kana": "イリョウホウジンシャダンアイユウカイサテライトガタショウキボカイゴロウジンホケンシセツアットホームナラシノ",
    "address": "千葉県習志野市大久保4-2-11",
    "lat": 35.6909251,
    "lng": 140.0523812,
    "tel": "047-470-1051",
    "url": "http://www.athome-narashino.net/",
    "pref": "千葉県",
    "city": "習志野市",
    "category": "rouken",
    "serviceType": "介護老人保健施設",
    "capacity": 0,
    "openDays": [],
    "openDaysNote": ""
  },
  {
    "id": "1250280016",
    "name": "医療法人社団愛友会介護老人保健施設ケアセンター習志野",
    "kana": "イリョウホウジンシャダンアイユウカイカイゴロウジンホケンシセツケアセンターナラシノ",
    "address": "千葉県習志野市秋津3-5-2",
    "lat": 35.6690449,
    "lng": 140.0179685,
    "tel": "047-453-5111",
    "url": "http://www.e-ccn.net/",
    "pref": "千葉県",
    "city": "習志野市",
    "category": "rouken",
    "serviceType": "介護老人保健施設",
    "capacity": null,
    "openDays": [],
    "openDaysNote": ""
  },
  {
    "id": "1253880010",
    "name": "介護老人保健施設　やすらぎの郷",
    "kana": "カイゴロウジンホケンシセツ　ヤスラギノサト",
    "address": "千葉県勝浦市芳賀441-1",
    "lat": 35.1988797,
    "lng": 140.2905503,
    "tel": "0470-70-7065",
    "url": "",
    "pref": "千葉県",
    "city": "勝浦市",
    "category": "rouken",
    "serviceType": "介護老人保健施設",
    "capacity": 0,
    "openDays": [],
    "openDaysNote": ""
  },
  {
    "id": "1252480155",
    "name": "医療法人徳洲会介護老人保健施設シルバーケア松戸",
    "kana": "イリョウホウジントクシュウカイカイゴロウジンホケンシセツシルバーケアマツド",
    "address": "千葉県松戸市串崎新田172-1",
    "lat": 35.7757564,
    "lng": 139.9761908,
    "tel": "047-311-0303",
    "url": "https://www.silvercare-matsudo.jp/",
    "pref": "千葉県",
    "city": "松戸市",
    "category": "rouken",
    "serviceType": "介護老人保健施設",
    "capacity": 0,
    "openDays": [],
    "openDaysNote": ""
  },
  {
    "id": "1252480163",
    "name": "医療法人徳洲会介護老人保健施設シルバーケア常盤平",
    "kana": "イリョウホウジントクシュウカイカイゴロウジンホケンシセツシルバーケアトキワダイラ",
    "address": "千葉県松戸市五香西5-28",
    "lat": 35.7864289,
    "lng": 139.9527115,
    "tel": "047-386-4551",
    "url": "http://shirutoki.com/",
    "pref": "千葉県",
    "city": "松戸市",
    "category": "rouken",
    "serviceType": "介護老人保健施設",
    "capacity": 0,
    "openDays": [],
    "openDaysNote": ""
  },
  {
    "id": "1252480093",
    "name": "介護老人保健施設　エスポワール松戸",
    "kana": "カイゴロウジンホケンシセツ　エスポワールマツド",
    "address": "千葉県松戸市五香西4-26-10",
    "lat": 35.7874286,
    "lng": 139.9602219,
    "tel": "047-311-3166",
    "url": "https://www.esp-matsudo.com/",
    "pref": "千葉県",
    "city": "松戸市",
    "category": "rouken",
    "serviceType": "介護老人保健施設",
    "capacity": 0,
    "openDays": [],
    "openDaysNote": ""
  },
  {
    "id": "1252480148",
    "name": "介護老人保健施設　まつど徳洲苑",
    "kana": "カイゴロウジンホケンシセツ　マツドトクシュウエン",
    "address": "松戸市幸田180-1",
    "lat": 35.8484901,
    "lng": 139.9225072,
    "tel": "047-309-7172",
    "url": "https://matsudo.tokushukai.or.jp/",
    "pref": "千葉県",
    "city": "松戸市",
    "category": "rouken",
    "serviceType": "介護老人保健施設",
    "capacity": 0,
    "openDays": [],
    "openDaysNote": ""
  },
  {
    "id": "1252480127",
    "name": "介護老人保健施設　葵の園・松戸",
    "kana": "カイゴロウジンホケンシセツ　アオイノソノ・マツド",
    "address": "千葉県松戸市千駄堀1103-1",
    "lat": 35.8030609162959,
    "lng": 139.928765735945,
    "tel": "047-312-1122",
    "url": "http://www.aoikai.jp/",
    "pref": "千葉県",
    "city": "松戸市",
    "category": "rouken",
    "serviceType": "介護老人保健施設",
    "capacity": 100,
    "openDays": [],
    "openDaysNote": ""
  },
  {
    "id": "1252480135",
    "name": "介護老人保健施設　葵の園・松戸東",
    "kana": "カイゴロウジンホケンシセツ　アオイノソノ・マツドヒガシ",
    "address": "千葉県松戸市千駄堀1091-1",
    "lat": 35.8028817470116,
    "lng": 139.9286498705,
    "tel": "047-340-5500",
    "url": "https://www.aoikai.jp/",
    "pref": "千葉県",
    "city": "松戸市",
    "category": "rouken",
    "serviceType": "介護老人保健施設",
    "capacity": 0,
    "openDays": [],
    "openDaysNote": ""
  },
  {
    "id": "1252480051",
    "name": "介護老人保健施設　千の星・松戸",
    "kana": "カイゴロウジンホケンシセツ　センノホシ・マツド",
    "address": "千葉県松戸市串崎新田189-4",
    "lat": 35.7765469,
    "lng": 139.9819785,
    "tel": "047-394-7811",
    "url": "http://www.toseikai.or.jp/matsudo/",
    "pref": "千葉県",
    "city": "松戸市",
    "category": "rouken",
    "serviceType": "介護老人保健施設",
    "capacity": 100,
    "openDays": [],
    "openDaysNote": ""
  },
  {
    "id": "1252480036",
    "name": "介護老人保健施設　偕楽園",
    "kana": "カイゴロウジンホケンシセツ　カイラクエン",
    "address": "千葉県松戸市西馬橋幸町23",
    "lat": 35.8121267,
    "lng": 139.9156437,
    "tel": "047-340-1300",
    "url": "https://care-net.biz/12/kairakuen/",
    "pref": "千葉県",
    "city": "松戸市",
    "category": "rouken",
    "serviceType": "介護老人保健施設",
    "capacity": 100,
    "openDays": [],
    "openDaysNote": ""
  },
  {
    "id": "1252480119",
    "name": "介護老人保健施設島村洗心苑",
    "kana": "カイゴロウジンホケンシセツ　シマムラセンシンエン",
    "address": "千葉県松戸市和名ケ谷660",
    "lat": 35.7756592,
    "lng": 139.9324608,
    "tel": "047-392-3946",
    "url": "http://senshin-g.jp/senshinen/",
    "pref": "千葉県",
    "city": "松戸市",
    "category": "rouken",
    "serviceType": "介護老人保健施設",
    "capacity": 0,
    "openDays": [],
    "openDaysNote": ""
  },
  {
    "id": "1252480077",
    "name": "東京おりーぶ苑",
    "kana": "トウキョウオリーブエン",
    "address": "千葉県松戸市金ヶ作２７６－２８",
    "lat": 35.8083155,
    "lng": 139.9626124,
    "tel": "047-311-0777",
    "url": "http://www.shizutanikai.com",
    "pref": "千葉県",
    "city": "松戸市",
    "category": "rouken",
    "serviceType": "介護老人保健施設",
    "capacity": 0,
    "openDays": [],
    "openDaysNote": ""
  },
  {
    "id": "1254380036",
    "name": "介護老人保健施設エスポワール成田",
    "kana": "カイゴロウジンホケンシセツ　エスポワールナリタ",
    "address": "千葉県成田市宝田３６０－１",
    "lat": 35.809478090499,
    "lng": 140.31006032412,
    "tel": "0476-29-4601",
    "url": "https://www.esp-narita.com/",
    "pref": "千葉県",
    "city": "成田市",
    "category": "rouken",
    "serviceType": "介護老人保健施設",
    "capacity": 0,
    "openDays": [],
    "openDaysNote": ""
  },
  {
    "id": "1254380028",
    "name": "介護老人保健施設セントアンナナーシングホーム",
    "kana": "カイゴロウジンホケンシセツ　セントアンナナーシングホーム",
    "address": "千葉県成田市本三里塚２２６－１",
    "lat": 35.7502004,
    "lng": 140.3635856,
    "tel": "0476-35-6811",
    "url": "http://seibokaimaria.or.jp/",
    "pref": "千葉県",
    "city": "成田市",
    "category": "rouken",
    "serviceType": "介護老人保健施設",
    "capacity": 0,
    "openDays": [],
    "openDaysNote": ""
  },
  {
    "id": "1253080025",
    "name": "介護老人保健施設透光苑",
    "kana": "カイゴロウジンホケンシセツ　トウコウエン",
    "address": "千葉県成田市桜田１１３７",
    "lat": 35.8432219,
    "lng": 140.4594093,
    "tel": "0476-73-8611",
    "url": "http://www.toko-kai.or.jp/",
    "pref": "千葉県",
    "city": "成田市",
    "category": "rouken",
    "serviceType": "介護老人保健施設",
    "capacity": 0,
    "openDays": [],
    "openDaysNote": ""
  },
  {
    "id": "1254380010",
    "name": "介護老人保健施設百寿園",
    "kana": "カイゴロウジンホケンシセツヒャクジュエン",
    "address": "千葉県成田市押畑８９６番地",
    "lat": 35.8023292,
    "lng": 140.3094754,
    "tel": "0476-22-1500",
    "url": "https://www.narita-hospital.jp/hyaku/",
    "pref": "千葉県",
    "city": "成田市",
    "category": "rouken",
    "serviceType": "介護老人保健施設",
    "capacity": 0,
    "openDays": [],
    "openDaysNote": ""
  },
  {
    "id": "1250180067",
    "name": "介護老人保健施設　みどりの家",
    "kana": "カイゴロウジンホケンシセツ　ミドリノイエ",
    "address": "千葉市稲毛区天台４丁目１番１６号",
    "lat": 35.6379142,
    "lng": 140.1123997,
    "tel": "043-284-6883",
    "url": "https://greenhome-chiba.jp/",
    "pref": "千葉県",
    "city": "千葉市稲毛区",
    "category": "rouken",
    "serviceType": "介護老人保健施設",
    "capacity": 100,
    "openDays": [],
    "openDaysNote": ""
  },
  {
    "id": "1250180026",
    "name": "介護老人保健施設アーバンケアセンター",
    "kana": "カイゴロウジンホケンシセツアーバンケアセンター",
    "address": "千葉県千葉市稲毛区山王町１６８－８",
    "lat": 35.666179,
    "lng": 140.1391721,
    "tel": "043-424-0050",
    "url": "http://urbancare.jp/",
    "pref": "千葉県",
    "city": "千葉市稲毛区",
    "category": "rouken",
    "serviceType": "介護老人保健施設",
    "capacity": 0,
    "openDays": [],
    "openDaysNote": ""
  },
  {
    "id": "1250180175",
    "name": "介護老人保健施設ダンディライオン",
    "kana": "カイゴロウジンホケンシセツダンディライオン",
    "address": "千葉市稲毛区山王町174",
    "lat": 35.6647237,
    "lng": 140.1394277,
    "tel": "043-304-2881",
    "url": "http://souju-kai.or.jp/dandelion/",
    "pref": "千葉県",
    "city": "千葉市稲毛区",
    "category": "rouken",
    "serviceType": "介護老人保健施設",
    "capacity": 0,
    "openDays": [],
    "openDaysNote": ""
  },
  {
    "id": "1250180133",
    "name": "介護老人保健施設　ほうゆう苑",
    "kana": "カイゴロウジンホケンシセツ　ホウユウエン",
    "address": "千葉県千葉市花見川区犢橋町671-3",
    "lat": 35.672724,
    "lng": 140.112371,
    "tel": "043-216-0666",
    "url": "http://www.houyuen.or.jp",
    "pref": "千葉県",
    "city": "千葉市花見川区",
    "category": "rouken",
    "serviceType": "介護老人保健施設",
    "capacity": 100,
    "openDays": [],
    "openDaysNote": ""
  },
  {
    "id": "1250180208",
    "name": "介護老人保健施設　ゆうあい苑",
    "kana": "カイゴロウジンホケンシセツ　ユウアイエン",
    "address": "千葉県千葉市花見川区柏井町1132-1",
    "lat": 35.6985244158889,
    "lng": 140.1043484,
    "tel": "047-480-2111",
    "url": "http:/www.yuaien.tums-kaigo.com",
    "pref": "千葉県",
    "city": "千葉市花見川区",
    "category": "rouken",
    "serviceType": "介護老人保健施設",
    "capacity": 100,
    "openDays": [],
    "openDaysNote": ""
  },
  {
    "id": "1250180018",
    "name": "介護老人保健施設　晴山苑",
    "kana": "カイゴロウジンホケンシセツ　セイザンエン",
    "address": "千葉県千葉市花見川区花島町149-1",
    "lat": 35.6801007,
    "lng": 140.0985527,
    "tel": "043-250-7352",
    "url": "http://www.seizankai.jp/",
    "pref": "千葉県",
    "city": "千葉市花見川区",
    "category": "rouken",
    "serviceType": "介護老人保健施設",
    "capacity": 0,
    "openDays": [],
    "openDaysNote": ""
  },
  {
    "id": "1250180232",
    "name": "介護老人保健施設ほうゆうの杜",
    "kana": "カイゴロウジンホケンシセツホウユウノモリ",
    "address": "犢橋町1105番地",
    "lat": 35.6664786,
    "lng": 140.1023007,
    "tel": "043-215-0330",
    "url": "http://www.houyuunomori.jp/",
    "pref": "千葉県",
    "city": "千葉市花見川区",
    "category": "rouken",
    "serviceType": "介護老人保健施設",
    "capacity": null,
    "openDays": [],
    "openDaysNote": ""
  },
  {
    "id": "1250180083",
    "name": "介護老人保健施設まくはりの郷",
    "kana": "カイゴロウジンホケンシセツマクハリノサト",
    "address": "千葉県千葉市花見川区幕張町5-405-2",
    "lat": 35.6539255,
    "lng": 140.0598625,
    "tel": "043-272-2000",
    "url": "http://www.chibamink.jp/makuharinosato/",
    "pref": "千葉県",
    "city": "千葉市花見川区",
    "category": "rouken",
    "serviceType": "介護老人保健施設",
    "capacity": 61,
    "openDays": [],
    "openDaysNote": ""
  },
  {
    "id": "1250180166",
    "name": "いずみ苑　リハビリケアセンター",
    "kana": "イズミエン　リハビリケアセンター",
    "address": "千葉県千葉市若葉区高根町964-49",
    "lat": 35.5943222,
    "lng": 140.2190956,
    "tel": "043-226-0050",
    "url": "http://homepage2.nifty.com/izumi-chiba/sennjyuHP/senjyu_top.html",
    "pref": "千葉県",
    "city": "千葉市若葉区",
    "category": "rouken",
    "serviceType": "介護老人保健施設",
    "capacity": 0,
    "openDays": [],
    "openDaysNote": ""
  },
  {
    "id": "1250180091",
    "name": "介護老人保健施設　はつらつリハビリセンター",
    "kana": "カイゴロウジンホケンシセツ　ハツラツリハビリセンター",
    "address": "千葉県千葉市若葉区小間子町３－１３２",
    "lat": 35.6194844,
    "lng": 140.2545026,
    "tel": "043-239-8282",
    "url": "https://www.haturatu.or.jp",
    "pref": "千葉県",
    "city": "千葉市若葉区",
    "category": "rouken",
    "serviceType": "介護老人保健施設",
    "capacity": 80,
    "openDays": [],
    "openDaysNote": ""
  },
  {
    "id": "1250180190",
    "name": "介護老人保健施設　葵の園・はまの",
    "kana": "カイゴロウジンホケンシセツ　アオイノソノ　ハマノ",
    "address": "千葉県千葉市中央区浜野町４２３番地１",
    "lat": 35.55642,
    "lng": 140.1351276,
    "tel": "043-209-7117",
    "url": "http://www.aoikai.jp",
    "pref": "千葉県",
    "city": "千葉市中央区",
    "category": "rouken",
    "serviceType": "介護老人保健施設",
    "capacity": 0,
    "openDays": [],
    "openDaysNote": ""
  },
  {
    "id": "1250180257",
    "name": "介護老人保健施設　純恵の郷",
    "kana": "カイゴロウジンホケンシセツスミエノサト",
    "address": "千葉県千葉市中央区南生実町590-1",
    "lat": 35.5539965,
    "lng": 140.1489623,
    "tel": "043-305-0210",
    "url": "http://naebafukushikai.com/",
    "pref": "千葉県",
    "city": "千葉市中央区",
    "category": "rouken",
    "serviceType": "介護老人保健施設",
    "capacity": 0,
    "openDays": [],
    "openDaysNote": ""
  },
  {
    "id": "1250180109",
    "name": "千葉病院附属介護老人保健施設",
    "kana": "チバビョウインフゾクカイゴロウジンホケンシセツ",
    "address": "千葉県千葉市中央区仁戸名町682番地",
    "lat": 35.5828956,
    "lng": 140.1627661,
    "tel": "043-268-1022",
    "url": "https://chiba.jcho.go.jp/rouken/",
    "pref": "千葉県",
    "city": "千葉市中央区",
    "category": "rouken",
    "serviceType": "介護老人保健施設",
    "capacity": 100,
    "openDays": [],
    "openDaysNote": ""
  },
  {
    "id": "1250180224",
    "name": "介護老人保健施設　葵の園・美浜",
    "kana": "カイゴロウジンホケンシセツ　アオイノソノ　ミハマ",
    "address": "千葉県千葉市美浜区幸町1-38-5",
    "lat": 35.6147913281825,
    "lng": 140.098465877597,
    "tel": "043-302-5000",
    "url": "http://www.aoikai.jp/",
    "pref": "千葉県",
    "city": "千葉市美浜区",
    "category": "rouken",
    "serviceType": "介護老人保健施設",
    "capacity": 0,
    "openDays": [],
    "openDaysNote": ""
  },
  {
    "id": "1250180216",
    "name": "介護老人保健施設　葵の園・緑区",
    "kana": "カイゴロウジンホケンシセツ　アオイノソノ・ミドリク",
    "address": "千葉市緑区高田町２３８１－２",
    "lat": 35.5450433,
    "lng": 140.2333856,
    "tel": "043-293-6611",
    "url": "https://www.aoikai.jp",
    "pref": "千葉県",
    "city": "千葉市緑区",
    "category": "rouken",
    "serviceType": "介護老人保健施設",
    "capacity": 0,
    "openDays": [],
    "openDaysNote": ""
  },
  {
    "id": "1250180158",
    "name": "介護老人保健施設おゆみの",
    "kana": "カイゴロウジンホケンシセツオユミノ",
    "address": "千葉市緑区大金沢町364-1",
    "lat": 35.5402976,
    "lng": 140.1860833,
    "tel": "043-293-5151",
    "url": "https://www.oyumino-roken.jp/",
    "pref": "千葉県",
    "city": "千葉市緑区",
    "category": "rouken",
    "serviceType": "介護老人保健施設",
    "capacity": 0,
    "openDays": [],
    "openDaysNote": ""
  },
  {
    "id": "1250180141",
    "name": "介護老人保健施設ケアセンター　けやき園",
    "kana": "カイゴロウジンホケンシセツケアセンターケヤキエン",
    "address": "千葉県千葉市緑区鎌取町81-1",
    "lat": 35.5645197,
    "lng": 140.1786303,
    "tel": "043-293-5181",
    "url": "http://www.kyakien.org",
    "pref": "千葉県",
    "city": "千葉市緑区",
    "category": "rouken",
    "serviceType": "介護老人保健施設",
    "capacity": 0,
    "openDays": [],
    "openDaysNote": ""
  },
  {
    "id": "1250180117",
    "name": "介護老人保健施設総和苑",
    "kana": "カイゴロウジンホケンシセツソウワエン",
    "address": "千葉県千葉市緑区高田町1084",
    "lat": 35.5508403,
    "lng": 140.2233186,
    "tel": "043-291-8211",
    "url": "http://www.sowaen.or.jp",
    "pref": "千葉県",
    "city": "千葉市緑区",
    "category": "rouken",
    "serviceType": "介護老人保健施設",
    "capacity": 0,
    "openDays": [],
    "openDaysNote": ""
  },
  {
    "id": "1250980057",
    "name": "介護老人保健施設　エスポワール船橋",
    "kana": "カイゴロウジンホケンシセツ　エスポワールフナバシ",
    "address": "千葉県船橋市小野田町1494-1",
    "lat": 35.7831895,
    "lng": 140.0760399,
    "tel": "047-497-8513",
    "url": "https://www.esp-funabashi.com/",
    "pref": "千葉県",
    "city": "船橋市",
    "category": "rouken",
    "serviceType": "介護老人保健施設",
    "capacity": 0,
    "openDays": [],
    "openDaysNote": ""
  },
  {
    "id": "1250980073",
    "name": "介護老人保健施設　はさま徳洲苑",
    "kana": "カイゴロウジンホケンシセツ　ハサマトクシュウエン",
    "address": "千葉県船橋市飯山満町2-685-3",
    "lat": 35.7092246,
    "lng": 140.0186516,
    "tel": "047-401-5161",
    "url": "https://www.hasatoku.jp/service/",
    "pref": "千葉県",
    "city": "船橋市",
    "category": "rouken",
    "serviceType": "介護老人保健施設",
    "capacity": 0,
    "openDays": [],
    "openDaysNote": ""
  },
  {
    "id": "1252880060",
    "name": "介護老人保健施設　フェルマータ船橋",
    "kana": "カイゴロウジンホケンシセツ　フェルマータフナバシ",
    "address": "千葉県船橋市飯山満町1-822",
    "lat": 35.7093902,
    "lng": 140.0104901,
    "tel": "047-425-5581",
    "url": "http://www.fff.or.jp/",
    "pref": "千葉県",
    "city": "船橋市",
    "category": "rouken",
    "serviceType": "介護老人保健施設",
    "capacity": 0,
    "openDays": [],
    "openDaysNote": ""
  },
  {
    "id": "1252880086",
    "name": "介護老人保健施設　大穴さくら苑",
    "kana": "カイゴロウジンホケンシセツ　オオアナサクラエン",
    "address": "千葉県船橋市大穴北8-41-1",
    "lat": 35.7432984,
    "lng": 140.0417823,
    "tel": "047-457-1177",
    "url": "http://care-net.biz/12/sakura-h/",
    "pref": "千葉県",
    "city": "船橋市",
    "category": "rouken",
    "serviceType": "介護老人保健施設",
    "capacity": null,
    "openDays": [],
    "openDaysNote": ""
  },
  {
    "id": "1252880110",
    "name": "介護老人保健施設オレンジガーデン・ケアセンター",
    "kana": "カイゴロウジンホケンシセツオレンジガーデンケアセンター",
    "address": "千葉県船橋市芝山７丁目４１番１号",
    "lat": 35.7169063,
    "lng": 140.026702,
    "tel": "047-461-6865",
    "url": "http://www.orange-g.or.jp",
    "pref": "千葉県",
    "city": "船橋市",
    "category": "rouken",
    "serviceType": "介護老人保健施設",
    "capacity": 98,
    "openDays": [],
    "openDaysNote": ""
  },
  {
    "id": "1250980040",
    "name": "介護老人保健施設なつみの郷",
    "kana": "カイゴロウジンホケンシセツナツミノサト",
    "address": "千葉県船橋市夏見台4丁目24番1号",
    "lat": 35.725666,
    "lng": 139.9973435,
    "tel": "047-439-7230",
    "url": "https://youandi.takaminefukushikai.com/%E9%AB%98%E9%BD%A2%E8%80%85%E6%94%AF%E6%8F%B4/%E3%81%AA%E3%81%A4%E3%81%BF%E3%81%AE%E9%83%B7/",
    "pref": "千葉県",
    "city": "船橋市",
    "category": "rouken",
    "serviceType": "介護老人保健施設",
    "capacity": null,
    "openDays": [],
    "openDaysNote": ""
  },
  {
    "id": "1252880102",
    "name": "介護老人保健施設ふなばし光陽",
    "kana": "カイゴロウジンホケンシセツフナバシコウヨウ",
    "address": "千葉県船橋市豊富町６４４－１２",
    "lat": 35.7654307,
    "lng": 140.062967,
    "tel": "047-456-2661",
    "url": "https://yotsuba-kai.or.jp/",
    "pref": "千葉県",
    "city": "船橋市",
    "category": "rouken",
    "serviceType": "介護老人保健施設",
    "capacity": 0,
    "openDays": [],
    "openDaysNote": ""
  },
  {
    "id": "1252880128",
    "name": "介護老人保健施設みさきの郷",
    "kana": "カイゴロウジンホケンシセツ　ミサキノサト",
    "address": "千葉県船橋市三咲4-23-15介護老人保健施設　みさきの郷 介護老人保健施設　みさきの郷",
    "lat": 35.7539615,
    "lng": 140.0395762,
    "tel": "047-407-7888",
    "url": "http://www.chibako-misaki.jp/",
    "pref": "千葉県",
    "city": "船橋市",
    "category": "rouken",
    "serviceType": "介護老人保健施設",
    "capacity": 100,
    "openDays": [],
    "openDaysNote": ""
  },
  {
    "id": "1252880045",
    "name": "介護老人保健施設やすらぎ",
    "kana": "カイゴロウジンホケンシセツヤスラギ",
    "address": "千葉県船橋市市場３－３－１",
    "lat": 35.7008633,
    "lng": 139.9974667,
    "tel": "047-426-5715",
    "url": "https://kaigo-yasuragi.jp",
    "pref": "千葉県",
    "city": "船橋市",
    "category": "rouken",
    "serviceType": "介護老人保健施設",
    "capacity": 0,
    "openDays": [],
    "openDaysNote": ""
  },
  {
    "id": "1252880136",
    "name": "介護老人保健施設リハビリケア船橋",
    "kana": "カイゴロウジンホケンシセツ　リハビリケアフナバシ",
    "address": "千葉県船橋市本町4-8-30",
    "lat": 35.700866,
    "lng": 139.9912784,
    "tel": "047-774-0220",
    "url": "http://rc-funabashi.jp/",
    "pref": "千葉県",
    "city": "船橋市",
    "category": "rouken",
    "serviceType": "介護老人保健施設",
    "capacity": 100,
    "openDays": [],
    "openDaysNote": ""
  },
  {
    "id": "1252880078",
    "name": "介護老人保健施設ロータスケアセンター",
    "kana": "カイゴロウジンホケンシセツロータスケアセンター",
    "address": "千葉県船橋市藤原5-23-1",
    "lat": 35.7404114,
    "lng": 139.9819749,
    "tel": "047-439-6011",
    "url": "http://lotus-care.jp/",
    "pref": "千葉県",
    "city": "船橋市",
    "category": "rouken",
    "serviceType": "介護老人保健施設",
    "capacity": 114,
    "openDays": [],
    "openDaysNote": ""
  },
  {
    "id": "1250980065",
    "name": "介護老人保健施設千葉徳洲苑",
    "kana": "カイゴロウジンホケンシセツ　チバトクシュウエン",
    "address": "千葉県船橋市大穴北7-22-1",
    "lat": 35.74784,
    "lng": 140.053478,
    "tel": "047-457-8411",
    "url": "https://chiba-tokusyuuen.tokushukai.or.jp/",
    "pref": "千葉県",
    "city": "船橋市",
    "category": "rouken",
    "serviceType": "介護老人保健施設",
    "capacity": 0,
    "openDays": [],
    "openDaysNote": ""
  },
  {
    "id": "1252880094",
    "name": "介護老人保健施設船橋うぐいす園",
    "kana": "カイゴロウジンホケンシセツフナバシウグイスエン",
    "address": "千葉県船橋市高根町1-1",
    "lat": 35.7167922,
    "lng": 140.0105481,
    "tel": "047-425-8451",
    "url": "https://uguisu-sk.com/",
    "pref": "千葉県",
    "city": "船橋市",
    "category": "rouken",
    "serviceType": "介護老人保健施設",
    "capacity": 0,
    "openDays": [],
    "openDaysNote": ""
  },
  {
    "id": "1252880037",
    "name": "介護老人保健施設船橋ケアセンター",
    "kana": "カイゴロウジンホケンシセツフナバシケアセンター",
    "address": "千葉県船橋市高野台５－７４１－６",
    "lat": 35.7707877,
    "lng": 140.0312953,
    "tel": "047-449-7007",
    "url": "https://funabashi-care.tmg.or.jp/",
    "pref": "千葉県",
    "city": "船橋市",
    "category": "rouken",
    "serviceType": "介護老人保健施設",
    "capacity": 0,
    "openDays": [],
    "openDaysNote": ""
  },
  {
    "id": "1251680016",
    "name": "介護老人保健施設ミス・ヘンテ記念ケアセンター",
    "kana": "カイゴロウジンホケンシセツ　ミス・ヘンテキネンケアセンター",
    "address": "千葉県匝瑳市飯倉２０",
    "lat": 35.687155,
    "lng": 140.5241276,
    "tel": "0479-73-3385",
    "url": "https://www.99-home.com/",
    "pref": "千葉県",
    "city": "匝瑳市",
    "category": "rouken",
    "serviceType": "介護老人保健施設",
    "capacity": 0,
    "openDays": [],
    "openDaysNote": ""
  },
  {
    "id": "1251680024",
    "name": "匝瑳市介護老人保健施設そうさぬくもりの郷",
    "kana": "ソウサシカイゴロウジンホケンシセツソウサヌクモリノサト",
    "address": "千葉県匝瑳市中台305番地",
    "lat": 35.7082469,
    "lng": 140.5354753,
    "tel": "0479-79-1766",
    "url": "https://www.sosa-hp.jp/nukumorinosato",
    "pref": "千葉県",
    "city": "匝瑳市",
    "category": "rouken",
    "serviceType": "介護老人保健施設",
    "capacity": 100,
    "openDays": [],
    "openDaysNote": ""
  },
  {
    "id": "1250980029",
    "name": "介護老人保健施設カトレアンホーム",
    "kana": "カイゴロウジンホケンシセツカトレアンホーム",
    "address": "千葉県袖ヶ浦市蔵波２７１３番１",
    "lat": 35.4387347,
    "lng": 139.9898566,
    "tel": "0438-63-1021",
    "url": "http://s-satsukikai.or.jp/",
    "pref": "千葉県",
    "city": "袖ケ浦市",
    "category": "rouken",
    "serviceType": "介護老人保健施設",
    "capacity": 0,
    "openDays": [],
    "openDaysNote": ""
  },
  {
    "id": "1250980011",
    "name": "介護老人保健施設メディケアーやまゆり",
    "kana": "カイゴロウジンホケンシセツメディケアーヤマユリ",
    "address": "千葉県袖ヶ浦市奈良輪７３０番地",
    "lat": 35.4334992,
    "lng": 139.9631709,
    "tel": "0438-62-1605",
    "url": "https://koukyu-kai.com/yamayuri/",
    "pref": "千葉県",
    "city": "袖ケ浦市",
    "category": "rouken",
    "serviceType": "介護老人保健施設",
    "capacity": 100,
    "openDays": [],
    "openDaysNote": ""
  },
  {
    "id": "1253780046",
    "name": "医療法人白百合会介護老人保健施設しらゆり",
    "kana": "イリョウホウジンシラユリカイ　カイゴロウジンホケンシセツ　シラユリ",
    "address": "千葉県夷隅郡大多喜町上原７８６番地",
    "lat": 35.2759256528809,
    "lng": 140.241787811639,
    "tel": "0470-82-6501",
    "url": "http://shirayuri-kai.jp/roken/",
    "pref": "千葉県",
    "city": "大多喜町",
    "category": "rouken",
    "serviceType": "介護老人保健施設",
    "capacity": 50,
    "openDays": [],
    "openDaysNote": ""
  },
  {
    "id": "1250780031",
    "name": "介護老人保健施設杜の街",
    "kana": "カイゴロウジンホケンシセツ　モリノマチ",
    "address": "千葉県大網白里市南飯塚404-4",
    "lat": 35.5030612,
    "lng": 140.3464803,
    "tel": "0475-70-1313",
    "url": "",
    "pref": "千葉県",
    "city": "大網白里市",
    "category": "rouken",
    "serviceType": "介護老人保健施設",
    "capacity": 0,
    "openDays": [],
    "openDaysNote": ""
  },
  {
    "id": "1251380039",
    "name": "介護老人保健施設とよさと",
    "kana": "カイゴロウジンホケンシセツ　トヨサト",
    "address": "千葉県銚子市豊里台１丁目１０４４－７４６",
    "lat": 35.7877493,
    "lng": 140.7122815,
    "tel": "0479-33-3630",
    "url": "https://watanabe-hospital.net/",
    "pref": "千葉県",
    "city": "銚子市",
    "category": "rouken",
    "serviceType": "介護老人保健施設",
    "capacity": null,
    "openDays": [],
    "openDaysNote": ""
  },
  {
    "id": "1251380021",
    "name": "介護老人保健施設なぎさ",
    "kana": "カイゴロウジンホケンシセツナギサ",
    "address": "千葉県銚子市松岸町4-778-55",
    "lat": 35.7403353,
    "lng": 140.7923767,
    "tel": "0479-22-3712",
    "url": "http://yoshinoclinic.a.la9.jp/",
    "pref": "千葉県",
    "city": "銚子市",
    "category": "rouken",
    "serviceType": "介護老人保健施設",
    "capacity": 0,
    "openDays": [],
    "openDaysNote": ""
  },
  {
    "id": "1251380013",
    "name": "介護老人保健施設慈風苑",
    "kana": "カイゴロウジンホケンシセツ　ジフウエン",
    "address": "千葉県銚子市長塚町3丁目609番地の2",
    "lat": 35.7392579,
    "lng": 140.8015788,
    "tel": "0479-24-1118",
    "url": "http://www.jifuuen.jp/",
    "pref": "千葉県",
    "city": "銚子市",
    "category": "rouken",
    "serviceType": "介護老人保健施設",
    "capacity": 0,
    "openDays": [],
    "openDaysNote": ""
  },
  {
    "id": "1253280013",
    "name": "介護老人保健施設長柄ケアセンター",
    "kana": "カイゴロウジンホケンシセツナガラケアセンター",
    "address": "千葉県長生郡長柄町立鳥597-2",
    "lat": 35.4327941,
    "lng": 140.2187457,
    "tel": "0475-35-5550",
    "url": "http://www.seikoukai-hp.or.jp/",
    "pref": "千葉県",
    "city": "長柄町",
    "category": "rouken",
    "serviceType": "介護老人保健施設",
    "capacity": 0,
    "openDays": [],
    "openDaysNote": ""
  },
  {
    "id": "1250880013",
    "name": "介護老人保健施設　あさいケアセンター",
    "kana": "カイゴロウジンホケンシセツ　アサイケアセンター",
    "address": "千葉県東金市家徳157-1",
    "lat": 35.5463378,
    "lng": 140.3957225,
    "tel": "0475-58-6781",
    "url": "http://www.care-asai.com",
    "pref": "千葉県",
    "city": "東金市",
    "category": "rouken",
    "serviceType": "介護老人保健施設",
    "capacity": 0,
    "openDays": [],
    "openDaysNote": ""
  },
  {
    "id": "1253080017",
    "name": "介護老人保健施設深深",
    "kana": "カイゴロウジンホケンシセツ　シンシン",
    "address": "千葉県香取郡東庄町羽計字入角2181",
    "lat": 35.8280744,
    "lng": 140.6899317,
    "tel": "0478-86-3133",
    "url": "http://www.koujinkai-uchida.or.jp/shinshin/index.html",
    "pref": "千葉県",
    "city": "東庄町",
    "category": "rouken",
    "serviceType": "介護老人保健施設",
    "capacity": 0,
    "openDays": [],
    "openDaysNote": ""
  },
  {
    "id": "1255180021",
    "name": "サテライト型小規模介護老人保健施設葵の園･岩井海岸",
    "kana": "サテライトガタショウキボカイゴロウジンホケンシセツアオイノソノ・イワイカイガン",
    "address": "千葉県南房総市久枝1143",
    "lat": 35.0985698426273,
    "lng": 139.839764767598,
    "tel": "0470-50-3301",
    "url": "https://www.aoikai.jp/iwaikaigan/",
    "pref": "千葉県",
    "city": "南房総市",
    "category": "rouken",
    "serviceType": "介護老人保健施設",
    "capacity": 0,
    "openDays": [],
    "openDaysNote": ""
  },
  {
    "id": "1253580016",
    "name": "医療法人光洋会　介護老人保健施設光栄館",
    "kana": "イリョウホウジンコウヨウカイ　カイゴロウジンホケンシセツ　コウエイカン",
    "address": "千葉県南房総市谷向166-1",
    "lat": 35.0259102,
    "lng": 139.8938762,
    "tel": "0470-36-2323",
    "url": "https://www.ko-yo-kai.jp/",
    "pref": "千葉県",
    "city": "南房総市",
    "category": "rouken",
    "serviceType": "介護老人保健施設",
    "capacity": 0,
    "openDays": [],
    "openDaysNote": ""
  },
  {
    "id": "1255180013",
    "name": "介護老人保健施設葵の園・南房総",
    "kana": "カイゴロウジンホケンシセツアオイノソノ・ミナミボウソウ",
    "address": "千葉県南房総市久枝1140",
    "lat": 35.0984886,
    "lng": 139.8397291,
    "tel": "0470-50-3301",
    "url": "https://www.aoikai.jp/",
    "pref": "千葉県",
    "city": "南房総市",
    "category": "rouken",
    "serviceType": "介護老人保健施設",
    "capacity": 0,
    "openDays": [],
    "openDaysNote": ""
  },
  {
    "id": "1253580032",
    "name": "介護老人保健施設晴耕苑",
    "kana": "カイゴロウジンホケンシセツセイコウエン",
    "address": "千葉県南房総市千倉町忽戸６９２－１",
    "lat": 34.9448854,
    "lng": 139.960572,
    "tel": "0470-40-1231",
    "url": "https://seikoen.info/",
    "pref": "千葉県",
    "city": "南房総市",
    "category": "rouken",
    "serviceType": "介護老人保健施設",
    "capacity": 88,
    "openDays": [],
    "openDaysNote": ""
  },
  {
    "id": "1252180081",
    "name": "介護老人保健施設　葵の園・柏たなか",
    "kana": "カイゴロウジンホケンシセツ　アオイノソノカシワタナカ",
    "address": "千葉県柏市小青田一丁目3番地3",
    "lat": 35.9101987174383,
    "lng": 139.955075764555,
    "tel": "04-7134-1001",
    "url": "http://www.aoikai.jp/aoinosono-kashiwatanaka/",
    "pref": "千葉県",
    "city": "柏市",
    "category": "rouken",
    "serviceType": "介護老人保健施設",
    "capacity": 0,
    "openDays": [],
    "openDaysNote": ""
  },
  {
    "id": "1252180073",
    "name": "介護老人保健施設ケアホーム初石",
    "kana": "カイゴロウジンホケンシセツケアホームハツイシ",
    "address": "千葉県柏市西原7-6-3",
    "lat": 35.8885268,
    "lng": 139.928704,
    "tel": "04-7152-3400",
    "url": "http://www.hatsuishi-rouken.jp",
    "pref": "千葉県",
    "city": "柏市",
    "category": "rouken",
    "serviceType": "介護老人保健施設",
    "capacity": 0,
    "openDays": [],
    "openDaysNote": ""
  },
  {
    "id": "1252180016",
    "name": "介護老人保健施設さかき光陽",
    "kana": "カイゴロウジンホケンシセツ　サカキコウヨウ",
    "address": "千葉県柏市酒井根４０番地の1",
    "lat": 35.820175,
    "lng": 139.9613341,
    "tel": "04-7174-7028",
    "url": "https://yotsuba-kai.or.jp/",
    "pref": "千葉県",
    "city": "柏市",
    "category": "rouken",
    "serviceType": "介護老人保健施設",
    "capacity": 0,
    "openDays": [],
    "openDaysNote": ""
  },
  {
    "id": "1252280022",
    "name": "介護老人保健施設葵の園・沼南",
    "kana": "カイゴロウジンホケンシセツ　アオイノソノ　ショウナン",
    "address": "千葉県柏市箕輪532-1",
    "lat": 35.8561595,
    "lng": 140.0218402,
    "tel": "04-7160-8888",
    "url": "http://www.aoikai.jp/",
    "pref": "千葉県",
    "city": "柏市",
    "category": "rouken",
    "serviceType": "介護老人保健施設",
    "capacity": 0,
    "openDays": [],
    "openDaysNote": ""
  },
  {
    "id": "1252180065",
    "name": "介護老人保健施設葵の園・柏",
    "kana": "カイゴロウジンホケンシセツ　アオイノソノ・カシワ",
    "address": "千葉県柏市松ヶ崎897-1",
    "lat": 35.8764305,
    "lng": 139.9749919,
    "tel": "04-7135-0031",
    "url": "http://www.aoikai.jp/kashiwa/",
    "pref": "千葉県",
    "city": "柏市",
    "category": "rouken",
    "serviceType": "介護老人保健施設",
    "capacity": 100,
    "openDays": [],
    "openDaysNote": ""
  },
  {
    "id": "1252180057",
    "name": "介護老人保健施設回生の里",
    "kana": "カイゴロウジンホケンシセツカイセイノサト",
    "address": "千葉県柏市名戸ケ谷９２９－１",
    "lat": 35.8456743,
    "lng": 139.981139,
    "tel": "04-7166-7171",
    "url": "http://kaisei.nadogaya.com/",
    "pref": "千葉県",
    "city": "柏市",
    "category": "rouken",
    "serviceType": "介護老人保健施設",
    "capacity": 100,
    "openDays": [],
    "openDaysNote": ""
  },
  {
    "id": "1252180040",
    "name": "介護老人保健施設蒼生の杜",
    "kana": "カイゴロウジンホケンシセツ　ソウセイノモリ",
    "address": "千葉県柏市逆井４３７－２８",
    "lat": 35.8136929,
    "lng": 139.9792657,
    "tel": "04-7160-0001",
    "url": "http://www.shoyokai.jp/",
    "pref": "千葉県",
    "city": "柏市",
    "category": "rouken",
    "serviceType": "介護老人保健施設",
    "capacity": 0,
    "openDays": [],
    "openDaysNote": ""
  },
  {
    "id": "1252180032",
    "name": "介護老人保健施設北柏ナーシングケアセンター",
    "kana": "カイゴロウジンホケンシセツ　キタカシワナーシングケアセンター",
    "address": "千葉県柏市柏下265",
    "lat": 35.8719675,
    "lng": 139.9825664,
    "tel": "04-7169-8001",
    "url": "https://tensenkai.or.jp/",
    "pref": "千葉県",
    "city": "柏市",
    "category": "rouken",
    "serviceType": "介護老人保健施設",
    "capacity": null,
    "openDays": [],
    "openDaysNote": ""
  },
  {
    "id": "1252180024",
    "name": "柏市立介護老人保健施設はみんぐ",
    "kana": "カシワシリツカイゴロウジンホケンシセツハミング",
    "address": "千葉県柏市布施1番地3",
    "lat": 35.8928588,
    "lng": 139.9819324,
    "tel": "04-7134-0660",
    "url": "http://www.kashiwa-haming.jp",
    "pref": "千葉県",
    "city": "柏市",
    "category": "rouken",
    "serviceType": "介護老人保健施設",
    "capacity": 0,
    "openDays": [],
    "openDaysNote": ""
  },
  {
    "id": "1254780011",
    "name": "介護老人保健施設アモールケア白井",
    "kana": "カイゴロウジンホケンシセツアモールケアシロイ",
    "address": "千葉県白井市復1448-30",
    "lat": 35.7937331461746,
    "lng": 140.05711660105,
    "tel": "047-436-8755",
    "url": "http://ac-shiroi.com/",
    "pref": "千葉県",
    "city": "白井市",
    "category": "rouken",
    "serviceType": "介護老人保健施設",
    "capacity": 0,
    "openDays": [],
    "openDaysNote": ""
  },
  {
    "id": "1254180022",
    "name": "介護老人保健施設ケアホーム白井",
    "kana": "カイゴロウジンホケンシセツケアホームシロイ",
    "address": "千葉県白井市中１７０",
    "lat": 35.8176015,
    "lng": 140.0448085,
    "tel": "047-492-2000",
    "url": "http://www.shiroi-rouken.jp/",
    "pref": "千葉県",
    "city": "白井市",
    "category": "rouken",
    "serviceType": "介護老人保健施設",
    "capacity": 0,
    "openDays": [],
    "openDaysNote": ""
  },
  {
    "id": "1254580015",
    "name": "介護老人保健施設さんふらわ",
    "kana": "カイゴロウジンホケンシセツ　サンフラワ",
    "address": "千葉県八街市八街ほ４５-１",
    "lat": 35.6676001,
    "lng": 140.3162433,
    "tel": "043-442-3020",
    "url": "",
    "pref": "千葉県",
    "city": "八街市",
    "category": "rouken",
    "serviceType": "介護老人保健施設",
    "capacity": 0,
    "openDays": [],
    "openDaysNote": ""
  },
  {
    "id": "1250480038",
    "name": "介護老人保健施設ばらの里",
    "kana": "カイゴロウジンホケンシセツバラノサト",
    "address": "千葉県八千代市島田台字大東台764-2",
    "lat": 35.7590346,
    "lng": 140.0879982,
    "tel": "047-480-0105",
    "url": "https://www.baranosato.org/",
    "pref": "千葉県",
    "city": "八千代市",
    "category": "rouken",
    "serviceType": "介護老人保健施設",
    "capacity": 0,
    "openDays": [],
    "openDaysNote": ""
  },
  {
    "id": "1250480020",
    "name": "八千代ケアセンター",
    "kana": "ヤチヨケアセンター",
    "address": "千葉県八千代市島田55-1",
    "lat": 35.764551,
    "lng": 140.0938468,
    "tel": "047-488-8788",
    "url": "http://www.kouseikai-gr.or.jp",
    "pref": "千葉県",
    "city": "八千代市",
    "category": "rouken",
    "serviceType": "介護老人保健施設",
    "capacity": 0,
    "openDays": [],
    "openDaysNote": ""
  },
  {
    "id": "1251280015",
    "name": "介護老人保健施設ケアセンターさきくさ",
    "kana": "カイゴロウジンホケンシセツケアセンターサキクサ",
    "address": "千葉県富津市青木1641",
    "lat": 35.3258227,
    "lng": 139.849582,
    "tel": "0439-87-0126",
    "url": "https://sakikusa.wixsite.com/sakikusahome/discription",
    "pref": "千葉県",
    "city": "富津市",
    "category": "rouken",
    "serviceType": "介護老人保健施設",
    "capacity": 0,
    "openDays": [],
    "openDaysNote": ""
  },
  {
    "id": "1251280023",
    "name": "介護老人保健施設わかくさ",
    "kana": "カイゴロウジンホケンシセツワカクサ",
    "address": "千葉県富津市上335-1",
    "lat": 35.287509,
    "lng": 139.8883488,
    "tel": "0439-80-5678",
    "url": "http://www.saiseikai-wakakusa.or.jp/shisetsu.html",
    "pref": "千葉県",
    "city": "富津市",
    "category": "rouken",
    "serviceType": "介護老人保健施設",
    "capacity": 0,
    "openDays": [],
    "openDaysNote": ""
  },
  {
    "id": "1254880019",
    "name": "介護老人保健施設　成田富里徳洲苑",
    "kana": "カイゴロウジンホケンシセツ　ナリタトミサトトクシュウエン",
    "address": "千葉県富里市日吉台1-1-1",
    "lat": 35.7754105,
    "lng": 140.3213803,
    "tel": "0476-37-5017",
    "url": "https://naritatomisato-recruit.com/",
    "pref": "千葉県",
    "city": "富里市",
    "category": "rouken",
    "serviceType": "介護老人保健施設",
    "capacity": null,
    "openDays": [],
    "openDaysNote": ""
  },
  {
    "id": "1254180048",
    "name": "介護老人保健施設龍岡ケアセンター",
    "kana": "カイゴロウジンホケンシセツタツオカケアセンター",
    "address": "千葉県富里市七栄653-73",
    "lat": 35.7257167,
    "lng": 140.3361227,
    "tel": "0476-92-6871",
    "url": "https://www.tomomikai.com/",
    "pref": "千葉県",
    "city": "富里市",
    "category": "rouken",
    "serviceType": "介護老人保健施設",
    "capacity": 0,
    "openDays": [],
    "openDaysNote": ""
  },
  {
    "id": "1253280021",
    "name": "介護老人保健施設睦沢の里",
    "kana": "カイゴロウジンホケンシセツムツザワノサト",
    "address": "千葉県長生郡睦沢町大上1150番地",
    "lat": 35.3351692534758,
    "lng": 140.293995840475,
    "tel": "0475-43-1222",
    "url": "http://www.mutsuzawanosato.jp",
    "pref": "千葉県",
    "city": "睦沢町",
    "category": "rouken",
    "serviceType": "介護老人保健施設",
    "capacity": 100,
    "openDays": [],
    "openDaysNote": ""
  },
  {
    "id": "1253180023",
    "name": "介護老人保健施設ケアセンターかずさ",
    "kana": "カイゴロウジンホケンシセツケアセンターカズサ",
    "address": "千葉県茂原市高師台三丁目３番地３",
    "lat": 35.4377119,
    "lng": 140.2888902,
    "tel": "0475-27-4111",
    "url": "",
    "pref": "千葉県",
    "city": "茂原市",
    "category": "rouken",
    "serviceType": "介護老人保健施設",
    "capacity": 0,
    "openDays": [],
    "openDaysNote": ""
  },
  {
    "id": "1253180015",
    "name": "介護老人保健施設つくも苑",
    "kana": "カイゴロウジンホケンシセツ　ツクモエン",
    "address": "千葉県茂原市六ツ野１８４１番地",
    "lat": 35.4364993,
    "lng": 140.3238739,
    "tel": "0475-25-5335",
    "url": "https://tsukumoen.com/",
    "pref": "千葉県",
    "city": "茂原市",
    "category": "rouken",
    "serviceType": "介護老人保健施設",
    "capacity": 0,
    "openDays": [],
    "openDaysNote": ""
  },
  {
    "id": "1251080043",
    "name": "介護老人保健施設かもめメディカルケアセンター",
    "kana": "カイゴロウジンホケンシセツ　カモメメディカルケアセンター",
    "address": "千葉県木更津市菅生689",
    "lat": 35.392236,
    "lng": 139.968148,
    "tel": "0438-97-3311",
    "url": "",
    "pref": "千葉県",
    "city": "木更津市",
    "category": "rouken",
    "serviceType": "介護老人保健施設",
    "capacity": 0,
    "openDays": [],
    "openDaysNote": ""
  },
  {
    "id": "1251080019",
    "name": "介護老人保健施設ケアセンターきさらづ",
    "kana": "カイゴロウジンホケンシセツケアセンターキサラヅ",
    "address": "千葉県木更津市長須賀1239番地",
    "lat": 35.3979962,
    "lng": 139.9339594,
    "tel": "0438-22-5544",
    "url": "http://cck.ootorikai.jp",
    "pref": "千葉県",
    "city": "木更津市",
    "category": "rouken",
    "serviceType": "介護老人保健施設",
    "capacity": 170,
    "openDays": [],
    "openDaysNote": ""
  },
  {
    "id": "1251080035",
    "name": "介護老人保健施設メディケアーさざなみ",
    "kana": "カイゴロウジンホケンシセツ　メディケアーサザナミ",
    "address": "千葉県木更津市中島2366-1",
    "lat": 35.437357,
    "lng": 139.9193528,
    "tel": "0438-40-1605",
    "url": "https://koukyu-kai.com/",
    "pref": "千葉県",
    "city": "木更津市",
    "category": "rouken",
    "serviceType": "介護老人保健施設",
    "capacity": 0,
    "openDays": [],
    "openDaysNote": ""
  },
  {
    "id": "1251080050",
    "name": "介護老人保健施設望星さつき苑",
    "kana": "カイゴロウジンホケンシセツボウセイサツキエン",
    "address": "千葉県木更津市大和1-4-18",
    "lat": 35.3796712,
    "lng": 139.9277736,
    "tel": "0438-20-2021",
    "url": "http://www.mtnet.jp/bouseikai/kisarazucl/info_02.html",
    "pref": "千葉県",
    "city": "木更津市",
    "category": "rouken",
    "serviceType": "介護老人保健施設",
    "capacity": 20,
    "openDays": [],
    "openDaysNote": ""
  },
  {
    "id": "1252080034",
    "name": "介護老人保健施設葵の園・野田",
    "kana": "カイゴロウジンホケンシセツ　アオイノソノ・ノダ",
    "address": "千葉県野田市中里1389番地",
    "lat": 35.9966235,
    "lng": 139.851217,
    "tel": "04-7127-7171",
    "url": "http://www.aoikai.jp/noda/",
    "pref": "千葉県",
    "city": "野田市",
    "category": "rouken",
    "serviceType": "介護老人保健施設",
    "capacity": 0,
    "openDays": [],
    "openDaysNote": ""
  },
  {
    "id": "1252080018",
    "name": "介護老人保健施設梅郷ナーシングセンター",
    "kana": "カイゴロウジンホケンシセツ　ウメサトナーシングセンター",
    "address": "千葉県野田市山崎2785番地",
    "lat": 35.9366774,
    "lng": 139.8935854,
    "tel": "04-7125-5111",
    "url": "https://umesato-nc.com/",
    "pref": "千葉県",
    "city": "野田市",
    "category": "rouken",
    "serviceType": "介護老人保健施設",
    "capacity": 0,
    "openDays": [],
    "openDaysNote": ""
  },
  {
    "id": "1252080026",
    "name": "介護老人保健施設野田ライフケアセンター",
    "kana": "カイゴロウジンホケンシセツ　ノダライフケアセンター",
    "address": "千葉県野田市野田８４０",
    "lat": 35.9563642,
    "lng": 139.8658503,
    "tel": "04-7123-6997",
    "url": "http://www.nlcc.or.jp/",
    "pref": "千葉県",
    "city": "野田市",
    "category": "rouken",
    "serviceType": "介護老人保健施設",
    "capacity": null,
    "openDays": [],
    "openDaysNote": ""
  },
  {
    "id": "1252280014",
    "name": "福聚苑老人保健施設",
    "kana": "フクジュエンロウジンホケンシセツ",
    "address": "千葉県野田市中戸20番地",
    "lat": 36.0553465,
    "lng": 139.8019274,
    "tel": "04-7196-1168",
    "url": "https://rouken-fukujuen.jp/",
    "pref": "千葉県",
    "city": "野田市",
    "category": "rouken",
    "serviceType": "介護老人保健施設",
    "capacity": 100,
    "openDays": [],
    "openDaysNote": ""
  },
  {
    "id": "1252380012",
    "name": "介護老人保健施設ナーシングプラザ流山",
    "kana": "カイゴロウジンホケンシセツ　ナーシングプラザナガレヤマ",
    "address": "千葉県流山市前ヶ崎248-1",
    "lat": 35.8498611,
    "lng": 139.9299496,
    "tel": "04-7145-0111",
    "url": "https://np-nagareyama.jp/",
    "pref": "千葉県",
    "city": "流山市",
    "category": "rouken",
    "serviceType": "介護老人保健施設",
    "capacity": 0,
    "openDays": [],
    "openDaysNote": ""
  },
  {
    "id": "1252380020",
    "name": "介護老人保健施設ハートケア流山",
    "kana": "カイゴロウジンホケンシセツ　ハートケアナガレヤマ",
    "address": "千葉県流山市小屋１４６－１",
    "lat": 35.8939616,
    "lng": 139.8963874,
    "tel": "04-7178-2200",
    "url": "https://hc-nagareyama2200.jp/",
    "pref": "千葉県",
    "city": "流山市",
    "category": "rouken",
    "serviceType": "介護老人保健施設",
    "capacity": 132,
    "openDays": [],
    "openDaysNote": ""
  }
]