[
  {
    "id": "3051380008",
    "name": "医療法人　志嗣会　介護老人保健施設　アメニティかつらぎ",
    "kana": "イリョウホウジン　シツグカイ　カイゴロウジンホケンシセツ　アメニティ　カツラギ",
    "address": "和歌山県伊都郡かつらぎ町妙寺１８４７－４２",
    "lat": 34.3170019,
    "lng": 135.5255809,
    "tel": "0736-23-1122",
    "url": "http://www.shithugu.or.jp",
    "pref": "和歌山県",
    "city": "かつらぎ町",
    "category": "rouken",
    "serviceType": "介護老人保健施設",
    "capacity": 0,
    "openDays": [],
    "openDaysNote": ""
  },
  {
    "id": "3052480021",
    "name": "介護老人保健施設　けんゆう苑",
    "kana": "カイゴロウジンホケンシセツ　ケンユウエン",
    "address": "和歌山県西牟婁郡すさみ町江住上ミ平見800",
    "lat": 33.5054906416225,
    "lng": 135.600704217823,
    "tel": "0739-58-0500",
    "url": "https://www.i-kenyukai.com",
    "pref": "和歌山県",
    "city": "すさみ町",
    "category": "rouken",
    "serviceType": "介護老人保健施設",
    "capacity": 88,
    "openDays": [],
    "openDaysNote": ""
  },
  {
    "id": "3051480030",
    "name": "介護老人保健施設　天竹苑",
    "kana": "カイゴロウジンホケンシセツ　テンチクエン",
    "address": "和歌山県海南市重根11番地1",
    "lat": 34.1534312,
    "lng": 135.2390563,
    "tel": "073-487-4171",
    "url": "http://www.tenchikukai.jp/",
    "pref": "和歌山県",
    "city": "海南市",
    "category": "rouken",
    "serviceType": "介護老人保健施設",
    "capacity": 0,
    "openDays": [],
    "openDaysNote": ""
  },
  {
    "id": "3051180028",
    "name": "老人保健施設　恵友サザンホーム",
    "kana": "ロウジンホケンシセツ　ケイユウサザンホーム",
    "address": "和歌山県海南市下津町小南125番地老人保健施設恵友サザンホーム 老人保健施設恵友サザンホーム",
    "lat": 34.127952,
    "lng": 135.1680961,
    "tel": "073-492-5132",
    "url": "https://keiyuu.com/kaigojigyou/sazan/",
    "pref": "和歌山県",
    "city": "海南市",
    "category": "rouken",
    "serviceType": "介護老人保健施設",
    "capacity": 83,
    "openDays": [],
    "openDaysNote": ""
  },
  {
    "id": "3051480022",
    "name": "老人保健施設　恵友ライフケアーセンター",
    "kana": "ロウジンホケンシセツケイユウライフケアーセンター",
    "address": "和歌山県海南市船尾２６５-１５",
    "lat": 34.1594902,
    "lng": 135.1989985,
    "tel": "073-483-3000",
    "url": "http://keiyuu.com",
    "pref": "和歌山県",
    "city": "海南市",
    "category": "rouken",
    "serviceType": "介護老人保健施設",
    "capacity": 0,
    "openDays": [],
    "openDaysNote": ""
  },
  {
    "id": "3051480014",
    "name": "老人保健施設カルフール・ド・ルポ",
    "kana": "ロウジンホケンシセツカルフール・ド・ルポ",
    "address": "和歌山県海南市築地１－６１",
    "lat": 34.1521223,
    "lng": 135.2108002,
    "tel": "073-483-1000",
    "url": "http://www.doujin-kai.or.jp/",
    "pref": "和歌山県",
    "city": "海南市",
    "category": "rouken",
    "serviceType": "介護老人保健施設",
    "capacity": 0,
    "openDays": [],
    "openDaysNote": ""
  },
  {
    "id": "3051280026",
    "name": "介護老人保健施設　やすらぎ苑",
    "kana": "カイゴロウジンホケンシセツ　ヤスラギエン",
    "address": "和歌山県岩出市清水311-1医療法人殿田会　介護老人保健施設やすらぎ苑 医療法人殿田会　介護老人保健施設やすらぎ苑",
    "lat": 34.2544159036457,
    "lng": 135.316104650926,
    "tel": "0736-61-0300",
    "url": "www.tonodakai.or.jp/yasuragien.html",
    "pref": "和歌山県",
    "city": "岩出市",
    "category": "rouken",
    "serviceType": "介護老人保健施設",
    "capacity": 100,
    "openDays": [],
    "openDaysNote": ""
  },
  {
    "id": "3051280034",
    "name": "介護老人保健施設　さくらの丘",
    "kana": "カイゴロウジンホケンシセツ　サクラノオカ",
    "address": "紀の川市黒土153",
    "lat": 34.2633089,
    "lng": 135.3798921,
    "tel": "0736-77-0806",
    "url": "http://www.koyokai.or.jp",
    "pref": "和歌山県",
    "city": "紀の川市",
    "category": "rouken",
    "serviceType": "介護老人保健施設",
    "capacity": 100,
    "openDays": [],
    "openDaysNote": ""
  },
  {
    "id": "3051780017",
    "name": "介護老人保健施設みくるま",
    "kana": "カイゴロウジンホケンシセツミクルマ",
    "address": "和歌山県紀の川市貴志川町丸栖936-3",
    "lat": 34.2372178,
    "lng": 135.3273811,
    "tel": "0736-64-2800",
    "url": "http://www.mikurumakai.or.jp",
    "pref": "和歌山県",
    "city": "紀の川市",
    "category": "rouken",
    "serviceType": "介護老人保健施設",
    "capacity": 90,
    "openDays": [],
    "openDaysNote": ""
  },
  {
    "id": "3051180010",
    "name": "老人保健施設　天寿苑",
    "kana": "テンジュエン",
    "address": "海草郡紀美野町下佐々385番地１",
    "lat": 34.1578068,
    "lng": 135.3185321,
    "tel": "073-489-5181",
    "url": "http://www.tenchikukai.jp",
    "pref": "和歌山県",
    "city": "紀美野町",
    "category": "rouken",
    "serviceType": "介護老人保健施設",
    "capacity": 0,
    "openDays": [],
    "openDaysNote": ""
  },
  {
    "id": "3051080012",
    "name": "介護老人保健施設　博寿苑",
    "kana": "カイゴロウジンホケンシセツ　ハクジュエン",
    "address": "和歌山県橋本市東家六丁目７番５号",
    "lat": 34.3132501,
    "lng": 135.6056517,
    "tel": "0736-33-5589",
    "url": "http://www.yamamoto-hp.net",
    "pref": "和歌山県",
    "city": "橋本市",
    "category": "rouken",
    "serviceType": "介護老人保健施設",
    "capacity": 0,
    "openDays": [],
    "openDaysNote": ""
  },
  {
    "id": "3051080020",
    "name": "介護老人保健施設グリーンガーデン橋本",
    "kana": "カイゴロウジンホケンシセツグリーンガーデンハシモト",
    "address": "和歌山県橋本市隅田町山内字栢谷１９１９番介護老人保健施設 介護老人保健施設",
    "lat": 34.3545762,
    "lng": 135.6483636,
    "tel": "0736-37-4165",
    "url": "http://keieikai.com",
    "pref": "和歌山県",
    "city": "橋本市",
    "category": "rouken",
    "serviceType": "介護老人保健施設",
    "capacity": 100,
    "openDays": [],
    "openDaysNote": ""
  },
  {
    "id": "3051080004",
    "name": "介護老人保健施設メディケアはしもと",
    "kana": "カイゴロウジンホケンシセツメディケアハシモト",
    "address": "橋本市神野々877-1",
    "lat": 34.3064504,
    "lng": 135.5797852,
    "tel": "0736-39-1133",
    "url": "http://www.shitsugu.or.jp",
    "pref": "和歌山県",
    "city": "橋本市",
    "category": "rouken",
    "serviceType": "介護老人保健施設",
    "capacity": 0,
    "openDays": [],
    "openDaysNote": ""
  },
  {
    "id": "3052580010",
    "name": "介護老人保健施設あじさい苑",
    "kana": "カイゴロウジンホケンシセツアジサイエン",
    "address": "和歌山県東牟婁郡古座川町高瀬415番地",
    "lat": 33.5352634280953,
    "lng": 135.779182971164,
    "tel": "0735-72-6100",
    "url": "http://www.takasekai.or.jp/",
    "pref": "和歌山県",
    "city": "古座川町",
    "category": "rouken",
    "serviceType": "介護老人保健施設",
    "capacity": 80,
    "openDays": [],
    "openDaysNote": ""
  },
  {
    "id": "3052080011",
    "name": "老人保健施設リバティ博愛",
    "kana": "ロウジンホケンシセツリバティハクアイ",
    "address": "和歌山県御坊市名田町野島１番地9",
    "lat": 33.8328175,
    "lng": 135.1789003,
    "tel": "0738-29-3434",
    "url": "hakuaikai.net",
    "pref": "和歌山県",
    "city": "御坊市",
    "category": "rouken",
    "serviceType": "介護老人保健施設",
    "capacity": 0,
    "openDays": [],
    "openDaysNote": ""
  },
  {
    "id": "3052380015",
    "name": "老人保健施設みさき",
    "kana": "ロウジンホケンシセツミサキ",
    "address": "和歌山県新宮市蜂伏14－27",
    "lat": 33.6861956,
    "lng": 135.9618834,
    "tel": "0735-31-7500",
    "url": "http://misaki8.jp/",
    "pref": "和歌山県",
    "city": "新宮市",
    "category": "rouken",
    "serviceType": "介護老人保健施設",
    "capacity": 0,
    "openDays": [],
    "openDaysNote": ""
  },
  {
    "id": "3052280041",
    "name": "介護老人保健施設　セントポーリア",
    "kana": "カイゴロウジンホケンシセツ　セントポーリア",
    "address": "和歌山県田辺市東山1-7-23",
    "lat": 36.204824,
    "lng": 138.252924,
    "tel": "0739-24-6500",
    "url": "http://yuuga.blogdehp.ne.jp/14828993007953",
    "pref": "和歌山県",
    "city": "田辺市",
    "category": "rouken",
    "serviceType": "介護老人保健施設",
    "capacity": 0,
    "openDays": [],
    "openDaysNote": ""
  },
  {
    "id": "3052280033",
    "name": "介護老人保健施設　田辺すみれ苑",
    "kana": "カイゴロウジンホケンシセツ　タナベスミレエン",
    "address": "和歌山県田辺市城山台４番５号",
    "lat": 33.7287671354473,
    "lng": 135.426944335582,
    "tel": "０７３９－８１－３３００",
    "url": "https://tanabesumire.jp/",
    "pref": "和歌山県",
    "city": "田辺市",
    "category": "rouken",
    "serviceType": "介護老人保健施設",
    "capacity": 10,
    "openDays": [],
    "openDaysNote": ""
  },
  {
    "id": "3052280025",
    "name": "介護老人保健施設あきつの",
    "kana": "カイゴロウジンホケンシセツアキツノ",
    "address": "和歌山県田辺市上秋津２３１０－９",
    "lat": 33.7499864,
    "lng": 135.411748,
    "tel": "0739-35-1010",
    "url": "http://care-net.biz/30/akituno/",
    "pref": "和歌山県",
    "city": "田辺市",
    "category": "rouken",
    "serviceType": "介護老人保健施設",
    "capacity": 0,
    "openDays": [],
    "openDaysNote": ""
  },
  {
    "id": "3052280017",
    "name": "自彊館",
    "kana": "ジキョウカン",
    "address": "和歌山県田辺市たきない町6番11号",
    "lat": 33.7037618,
    "lng": 135.4025241,
    "tel": "0739-26-5400",
    "url": "",
    "pref": "和歌山県",
    "city": "田辺市",
    "category": "rouken",
    "serviceType": "介護老人保健施設",
    "capacity": 100,
    "openDays": [],
    "openDaysNote": ""
  },
  {
    "id": "3051680027",
    "name": "介護老人保健施設ライフケア有田",
    "kana": "カイゴロウジンホケンシセツライフケアアリダ",
    "address": "和歌山県有田郡湯浅町大字吉川５２－１",
    "lat": 34.0462415,
    "lng": 135.1931127,
    "tel": "0737-63-5564",
    "url": "http://www.lcarida.jp/",
    "pref": "和歌山県",
    "city": "湯浅町",
    "category": "rouken",
    "serviceType": "介護老人保健施設",
    "capacity": 0,
    "openDays": [],
    "openDaysNote": ""
  },
  {
    "id": "3052580002",
    "name": "介護老人保健施設　ルピナス",
    "kana": "カイゴロウジンホケンシセツ　ルピナス",
    "address": "和歌山県東牟婁郡那智勝浦町宇久井714－３",
    "lat": 33.6594993,
    "lng": 135.9829156,
    "tel": "0735－54－2323",
    "url": "http://rupinasu.jp/",
    "pref": "和歌山県",
    "city": "那智勝浦町",
    "category": "rouken",
    "serviceType": "介護老人保健施設",
    "capacity": 0,
    "openDays": [],
    "openDaysNote": ""
  },
  {
    "id": "3052180027",
    "name": "介護老人保健施設　和佐の里",
    "kana": "カイゴロウジンホケンシセツ　ワサノサト",
    "address": "和歌山県日高郡日高川町和佐2136",
    "lat": 33.8920325,
    "lng": 135.2104556,
    "tel": "0738-53-1101",
    "url": "http://www.reimeikai.com",
    "pref": "和歌山県",
    "city": "日高川町",
    "category": "rouken",
    "serviceType": "介護老人保健施設",
    "capacity": 100,
    "openDays": [],
    "openDaysNote": ""
  },
  {
    "id": "3052180035",
    "name": "介護老人保健施設　和佐の里　サテライト千寿",
    "kana": "カイゴロウジンホケンシセツ　ワサノサト　サテライトセンジュ",
    "address": "和歌山県日高郡日高川町土生1205-1",
    "lat": 33.912673670645,
    "lng": 135.178082089788,
    "tel": "0738-52-5207",
    "url": "https://reimeikai.com",
    "pref": "和歌山県",
    "city": "日高川町",
    "category": "rouken",
    "serviceType": "介護老人保健施設",
    "capacity": 0,
    "openDays": [],
    "openDaysNote": ""
  },
  {
    "id": "3052480013",
    "name": "介護老人保健施設　成華苑",
    "kana": "カイゴロウジンホケンシセツ　セイカエン",
    "address": "和歌山県西牟婁郡白浜町富田1360-20",
    "lat": 33.6384177818575,
    "lng": 135.398899836771,
    "tel": "0739-45-2800",
    "url": "https://www.nankishirahama-fukushikai.or.jp/",
    "pref": "和歌山県",
    "city": "白浜町",
    "category": "rouken",
    "serviceType": "介護老人保健施設",
    "capacity": 0,
    "openDays": [],
    "openDaysNote": ""
  },
  {
    "id": "3052480005",
    "name": "老人保健施設アンソレイユ日置",
    "kana": "ロウジンホケンシセツアンソレイユヒキ",
    "address": "和歌山県西牟婁郡白浜町大古11-2",
    "lat": 33.5798852164536,
    "lng": 135.459042515344,
    "tel": "0739-87-2300",
    "url": "",
    "pref": "和歌山県",
    "city": "白浜町",
    "category": "rouken",
    "serviceType": "介護老人保健施設",
    "capacity": 0,
    "openDays": [],
    "openDaysNote": ""
  },
  {
    "id": "3052180019",
    "name": "老人保健施設プラトン",
    "kana": "ロウジンホケンシセツプラトン",
    "address": "日高郡　美浜町　田井　402-1",
    "lat": 33.8902564,
    "lng": 135.1493327,
    "tel": "0738-22-9666",
    "url": "",
    "pref": "和歌山県",
    "city": "美浜町",
    "category": "rouken",
    "serviceType": "介護老人保健施設",
    "capacity": 101,
    "openDays": [],
    "openDaysNote": ""
  },
  {
    "id": "3071601516",
    "name": "オレンジの郷",
    "kana": "オレンジノサト",
    "address": "和歌山県有田郡有田川町吉原522番地",
    "lat": 34.0489523,
    "lng": 135.2581202,
    "tel": "0737-32-4665",
    "url": "http://care-net.biz/30/oreji-hp",
    "pref": "和歌山県",
    "city": "有田川町",
    "category": "rouken",
    "serviceType": "介護老人保健施設",
    "capacity": 98,
    "openDays": [],
    "openDaysNote": ""
  },
  {
    "id": "3051680019",
    "name": "クオリティライフ和歌山",
    "kana": "クオリティライフワカヤマ",
    "address": "和歌山県有田郡有田川町庄637",
    "lat": 34.0686902,
    "lng": 135.2337083,
    "tel": "0737-52-5272",
    "url": "http://www.ql-wakayama.com",
    "pref": "和歌山県",
    "city": "有田川町",
    "category": "rouken",
    "serviceType": "介護老人保健施設",
    "capacity": 0,
    "openDays": [],
    "openDaysNote": ""
  },
  {
    "id": "3051680043",
    "name": "医療法人みのり会　介護老人保健施設　つばさ",
    "kana": "イリョウホウジン　ミノリカイ　カイゴロウジンホケンシセツ　ツバサ",
    "address": "有田郡有田川町吉原９０８番地",
    "lat": 34.0545868666888,
    "lng": 135.25256637791,
    "tel": "0737-32-5188",
    "url": "",
    "pref": "和歌山県",
    "city": "有田川町",
    "category": "rouken",
    "serviceType": "介護老人保健施設",
    "capacity": 0,
    "openDays": [],
    "openDaysNote": ""
  },
  {
    "id": "3050180144",
    "name": "サテライト型小規模介護老人保健施設　松寿苑",
    "kana": "サテライトガタショウキボカイゴロウジンホケンシセツ　ショウジュエン",
    "address": "和歌山県和歌山市有本526-1和歌山生協病院サテライトありもと 和歌山生協病院サテライトありもと",
    "lat": 34.2491671881637,
    "lng": 135.196154228811,
    "tel": "073-431-8311",
    "url": "",
    "pref": "和歌山県",
    "city": "和歌山市",
    "category": "rouken",
    "serviceType": "介護老人保健施設",
    "capacity": 29,
    "openDays": [],
    "openDaysNote": ""
  },
  {
    "id": "3050180011",
    "name": "医療法人甃友会介護老人保健施設光苑",
    "kana": "イリョウホウジンシュウユウカイカイゴロウジンホケンシセツヒカリエン",
    "address": "和歌山市秋月５６８－７",
    "lat": 34.2267237,
    "lng": 135.2026667,
    "tel": "073-471-0323",
    "url": "http://www.syuyukai.com",
    "pref": "和歌山県",
    "city": "和歌山市",
    "category": "rouken",
    "serviceType": "介護老人保健施設",
    "capacity": 0,
    "openDays": [],
    "openDaysNote": ""
  },
  {
    "id": "3050180045",
    "name": "介護老人保健施設　かまやま苑",
    "kana": "カイゴロウジンホケンシセツ　カマヤマエン",
    "address": "和歌山市和田３５０番地",
    "lat": 34.2008988,
    "lng": 135.205906,
    "tel": "073-474-6660",
    "url": "http://www.inada-med.or.jp/",
    "pref": "和歌山県",
    "city": "和歌山市",
    "category": "rouken",
    "serviceType": "介護老人保健施設",
    "capacity": 0,
    "openDays": [],
    "openDaysNote": ""
  },
  {
    "id": "3050180136",
    "name": "介護老人保健施設　こすも",
    "kana": "カイゴロウジンホケンシセツ　コスモ",
    "address": "和歌山市つつじが丘７丁目３－２",
    "lat": 34.2653094,
    "lng": 135.0994669,
    "tel": "073-455-2331",
    "url": "http://www.cosumo-wakayama.jp",
    "pref": "和歌山県",
    "city": "和歌山市",
    "category": "rouken",
    "serviceType": "介護老人保健施設",
    "capacity": 100,
    "openDays": [],
    "openDaysNote": ""
  },
  {
    "id": "3050180037",
    "name": "介護老人保健施設　サニーホーム",
    "kana": "カイゴロウジンホケンシセツ　サニーホーム",
    "address": "和歌山市毛見１４５１番地",
    "lat": 34.1583291163072,
    "lng": 135.186055644319,
    "tel": "073-444-3141",
    "url": "http://www.kotonoura.or.jp",
    "pref": "和歌山県",
    "city": "和歌山市",
    "category": "rouken",
    "serviceType": "介護老人保健施設",
    "capacity": 0,
    "openDays": [],
    "openDaysNote": ""
  },
  {
    "id": "3050180078",
    "name": "介護老人保健施設　ラ・エスペランサ",
    "kana": "カイゴロウジンホケンシセツ　ラ・エスペランサ",
    "address": "和歌山市中島192番地",
    "lat": 34.2076923,
    "lng": 135.186302,
    "tel": "073-427-0027",
    "url": "http://www.la-esperanza.or.jp",
    "pref": "和歌山県",
    "city": "和歌山市",
    "category": "rouken",
    "serviceType": "介護老人保健施設",
    "capacity": 146,
    "openDays": [],
    "openDaysNote": ""
  },
  {
    "id": "3050180052",
    "name": "介護老人保健施設　桔梗苑",
    "kana": "カイゴロウジンホケンシセツ　キキョウエン",
    "address": "和歌山市鳴神123番地の1",
    "lat": 34.2259573,
    "lng": 135.2113771,
    "tel": "073-474-8451",
    "url": "http://www.kikyokai.or.jp",
    "pref": "和歌山県",
    "city": "和歌山市",
    "category": "rouken",
    "serviceType": "介護老人保健施設",
    "capacity": 30,
    "openDays": [],
    "openDaysNote": ""
  },
  {
    "id": "3050180128",
    "name": "介護老人保健施設　光苑ケアセンター",
    "kana": "カイゴロウジンホケンシセツ　ヒカリエンケアセンター",
    "address": "和歌山市秋月５３５－３",
    "lat": 34.2255294,
    "lng": 135.2035667,
    "tel": "073-474-3519",
    "url": "http://www.syuyukai.com",
    "pref": "和歌山県",
    "city": "和歌山市",
    "category": "rouken",
    "serviceType": "介護老人保健施設",
    "capacity": 0,
    "openDays": [],
    "openDaysNote": ""
  },
  {
    "id": "3050180110",
    "name": "介護老人保健施設パインドーム",
    "kana": "カイゴロウジンホケンシセツパインドーム",
    "address": "和歌山市松江東2丁目4番26号",
    "lat": 34.2453203,
    "lng": 135.1347489,
    "tel": "073-456-0200",
    "url": "http://www.seishou-kai.jp",
    "pref": "和歌山県",
    "city": "和歌山市",
    "category": "rouken",
    "serviceType": "介護老人保健施設",
    "capacity": 70,
    "openDays": [],
    "openDaysNote": ""
  },
  {
    "id": "3050180060",
    "name": "介護老人保健施設向陽苑",
    "kana": "カイゴロウジンホケンシセツコウヨウエン",
    "address": "和歌山市津秦40",
    "lat": 34.2228825,
    "lng": 135.2042556,
    "tel": "073-474-2000",
    "url": "http://www.koyo-hosp.jp",
    "pref": "和歌山県",
    "city": "和歌山市",
    "category": "rouken",
    "serviceType": "介護老人保健施設",
    "capacity": 40,
    "openDays": [],
    "openDaysNote": ""
  },
  {
    "id": "3050180029",
    "name": "介護老人保健施設和歌川苑",
    "kana": "カイゴロウジンホケンシセツワカガワエン",
    "address": "和歌山県和歌山市和歌川町5番44号",
    "lat": 34.1944102,
    "lng": 135.1776666,
    "tel": "073-446-2400",
    "url": "http://www.wachuohp.or.jp/wakagawaen",
    "pref": "和歌山県",
    "city": "和歌山市",
    "category": "rouken",
    "serviceType": "介護老人保健施設",
    "capacity": null,
    "openDays": [],
    "openDaysNote": ""
  },
  {
    "id": "3050180102",
    "name": "紀伊の里",
    "kana": "キイノサト",
    "address": "和歌山市宇田森２７５－１０",
    "lat": 34.2638825,
    "lng": 135.2496012,
    "tel": "073-461-8888",
    "url": "http://www.kiinosato.net",
    "pref": "和歌山県",
    "city": "和歌山市",
    "category": "rouken",
    "serviceType": "介護老人保健施設",
    "capacity": 81,
    "openDays": [],
    "openDaysNote": ""
  },
  {
    "id": "3050180086",
    "name": "老人保健施設エスポワール",
    "kana": "ロウジンホケンシセツエスポワール",
    "address": "和歌山県和歌山市船所３９－１",
    "lat": 34.2547481,
    "lng": 135.1812677,
    "tel": "073-452-1200",
    "url": "http://www.nakae.or.jp/",
    "pref": "和歌山県",
    "city": "和歌山市",
    "category": "rouken",
    "serviceType": "介護老人保健施設",
    "capacity": 0,
    "openDays": [],
    "openDaysNote": ""
  }
]