[
  {
    "id": "1150180034",
    "name": "独立行政法人地域医療機能推進機構　埼玉メディカルセンター附属介護老人保健施設",
    "kana": "ドクリツギョウセイホウジンチイキイリョウキノウスイシンキコウ　サイタマメディカルセンターフゾクカイゴロウジンホケンシセツ",
    "address": "埼玉県さいたま市浦和区北浦和５丁目２番７号",
    "lat": 35.8739527,
    "lng": 139.6429098,
    "tel": "048-834-3700",
    "url": "https://saitama.jcho.go.jp/rouken/",
    "pref": "埼玉県",
    "city": "さいたま市浦和区",
    "category": "rouken",
    "serviceType": "介護老人保健施設",
    "capacity": 100,
    "openDays": [],
    "openDaysNote": ""
  },
  {
    "id": "1150780023",
    "name": "介護老人保健施設　岩槻ライトケア",
    "kana": "カイゴロウジンホケンシセツ　イワツキライトケア",
    "address": "埼玉県さいたま市岩槻区馬込１２９２",
    "lat": 35.9704268,
    "lng": 139.659347,
    "tel": "048-758-2330",
    "url": "hikarikaigroup.com/lightcare/introduction/",
    "pref": "埼玉県",
    "city": "さいたま市岩槻区",
    "category": "rouken",
    "serviceType": "介護老人保健施設",
    "capacity": 80,
    "openDays": [],
    "openDaysNote": ""
  },
  {
    "id": "1150780015",
    "name": "介護老人保健施設ソワンルミエ槻の森",
    "kana": "カイゴロウジンホケンシセツソワンルミエツキノモリ",
    "address": "埼玉県さいたま市岩槻区平林寺１０８",
    "lat": 35.964588,
    "lng": 139.6701424,
    "tel": "048-758-2324",
    "url": "hikarikaigroup.com/soinlumie/",
    "pref": "埼玉県",
    "city": "さいたま市岩槻区",
    "category": "rouken",
    "serviceType": "介護老人保健施設",
    "capacity": 122,
    "openDays": [],
    "openDaysNote": ""
  },
  {
    "id": "1156580021",
    "name": "ハートケア東大宮",
    "kana": "ハートケアヒガシオオミヤ",
    "address": "埼玉県さいたま市見沼区大字風渡野４５",
    "lat": 35.9373896,
    "lng": 139.6738774,
    "tel": "048-682-6821",
    "url": "https://www.hc-higashiomiya.jp",
    "pref": "埼玉県",
    "city": "さいたま市見沼区",
    "category": "rouken",
    "serviceType": "介護老人保健施設",
    "capacity": 0,
    "openDays": [],
    "openDaysNote": ""
  },
  {
    "id": "1156580062",
    "name": "介護老人保健施設　アーバンみらいハートランド東大宮",
    "kana": "カイゴロウジンホケンシセツ　アーバンミライハートランドヒガシオオミヤ",
    "address": "埼玉県さいたま市見沼区春野2-9-22番地",
    "lat": 35.9576117,
    "lng": 139.6605168,
    "tel": "048-682-7055",
    "url": "http://www.seisekikai.com/heartland-higashioomiya/",
    "pref": "埼玉県",
    "city": "さいたま市見沼区",
    "category": "rouken",
    "serviceType": "介護老人保健施設",
    "capacity": 0,
    "openDays": [],
    "openDaysNote": ""
  },
  {
    "id": "1150380030",
    "name": "介護老人保健施設　あすか",
    "kana": "カイゴロウジンホケンシセツアスカ",
    "address": "さいたま市見沼区染谷3丁目430番地１",
    "lat": 35.9078463,
    "lng": 139.6865132,
    "tel": "048-687-7771",
    "url": "http://www.zuisen.net",
    "pref": "埼玉県",
    "city": "さいたま市見沼区",
    "category": "rouken",
    "serviceType": "介護老人保健施設",
    "capacity": 100,
    "openDays": [],
    "openDaysNote": ""
  },
  {
    "id": "1156580092",
    "name": "介護老人保健施設　高齢者ケアセンターのぞみ",
    "kana": "カイゴロウジンホケンシセツ　コウレイシャケアセンターノゾミ",
    "address": "さいたま市見沼区片柳１３８７－１",
    "lat": 35.9033136,
    "lng": 139.6902852,
    "tel": "048-680-1111",
    "url": "https://omiya-kyoritsu.or.jp/nozomi/",
    "pref": "埼玉県",
    "city": "さいたま市見沼区",
    "category": "rouken",
    "serviceType": "介護老人保健施設",
    "capacity": 0,
    "openDays": [],
    "openDaysNote": ""
  },
  {
    "id": "1150380014",
    "name": "介護老人保健施設　大宮ナーシング・ピア",
    "kana": "カイゴロウジンホケンシセツオオミヤナーシング・ピア",
    "address": "さいたま市見沼区片柳1550番地大宮共立病院内　Ｂ館２階 大宮共立病院内　Ｂ館２階",
    "lat": 35.9042271123609,
    "lng": 139.690947086616,
    "tel": "048-686-1890",
    "url": "https://www.keijuen.info/pia",
    "pref": "埼玉県",
    "city": "さいたま市見沼区",
    "category": "rouken",
    "serviceType": "介護老人保健施設",
    "capacity": 52,
    "openDays": [],
    "openDaysNote": ""
  },
  {
    "id": "1150180026",
    "name": "介護老人保健施設うらわの里",
    "kana": "カイゴロウジンホケンシセツウラワノサト",
    "address": "さいたま市桜区西堀８－４－１",
    "lat": 35.8602624,
    "lng": 139.6346666,
    "tel": "048-855-7811",
    "url": "http://www.eijukai/com",
    "pref": "埼玉県",
    "city": "さいたま市桜区",
    "category": "rouken",
    "serviceType": "介護老人保健施設",
    "capacity": 0,
    "openDays": [],
    "openDaysNote": ""
  },
  {
    "id": "1156580013",
    "name": "介護老人保健施設ファインハイム",
    "kana": "カイゴロウジンホケンシセツファインハイム",
    "address": "埼玉県さいたま市桜区宿３７２－１",
    "lat": 35.8768538,
    "lng": 139.5947417,
    "tel": "048-856-0001",
    "url": "http://www.anseifukushikai.or.jp/",
    "pref": "埼玉県",
    "city": "さいたま市桜区",
    "category": "rouken",
    "serviceType": "介護老人保健施設",
    "capacity": 0,
    "openDays": [],
    "openDaysNote": ""
  },
  {
    "id": "1156580167",
    "name": "ル・サンク湯澤",
    "kana": "ル・サンクユザワ",
    "address": "埼玉県さいたま市西区三橋６丁目567",
    "lat": 35.9159010659469,
    "lng": 139.591802251729,
    "tel": "048-622-8170",
    "url": "https://hakushinkai.jp/facilities/le_cinq/",
    "pref": "埼玉県",
    "city": "さいたま市西区",
    "category": "rouken",
    "serviceType": "介護老人保健施設",
    "capacity": 100,
    "openDays": [],
    "openDaysNote": ""
  },
  {
    "id": "1156580001",
    "name": "医療法人社団松弘会　　トワーム指扇",
    "kana": "イリョウホウジンシャダン　ショウコウカイ　トワームサシオウギ",
    "address": "さいたま市西区宝来５９１",
    "lat": 35.9269635,
    "lng": 139.5578789,
    "tel": "048-620-6660",
    "url": "http://www.towarm.com/sashiougi/index.html",
    "pref": "埼玉県",
    "city": "さいたま市西区",
    "category": "rouken",
    "serviceType": "介護老人保健施設",
    "capacity": 0,
    "openDays": [],
    "openDaysNote": ""
  },
  {
    "id": "1156580142",
    "name": "介護老人保健施設　びわの葉",
    "kana": "カイゴロウジンホケンシセツ　ビワノハ",
    "address": "埼玉県さいたま市西区宝来1348-1",
    "lat": 35.922366679937,
    "lng": 139.561940877246,
    "tel": "048-623-1102（",
    "url": "http://www.sashiogi.com/",
    "pref": "埼玉県",
    "city": "さいたま市西区",
    "category": "rouken",
    "serviceType": "介護老人保健施設",
    "capacity": 0,
    "openDays": [],
    "openDaysNote": ""
  },
  {
    "id": "1156580118",
    "name": "介護老人保健施設　葵の園・大宮",
    "kana": "カイゴロウジンホケンシセツ　アオイノソノ・オオミヤ",
    "address": "埼玉県さいたま市西区清河寺685-1",
    "lat": 35.9336007,
    "lng": 139.5828077,
    "tel": "048-621-1155",
    "url": "http://www.aoikai.jp",
    "pref": "埼玉県",
    "city": "さいたま市西区",
    "category": "rouken",
    "serviceType": "介護老人保健施設",
    "capacity": 150,
    "openDays": [],
    "openDaysNote": ""
  },
  {
    "id": "1150380055",
    "name": "介護老人保健施設　春陽苑",
    "kana": "カイゴロウジンホケンシセツ　シュンヨウエン",
    "address": "埼玉県さいたま市西区飯田新田91-1",
    "lat": 35.8880939,
    "lng": 139.5597743,
    "tel": "048-620-5566",
    "url": "http://www.mutsumikai.net",
    "pref": "埼玉県",
    "city": "さいたま市西区",
    "category": "rouken",
    "serviceType": "介護老人保健施設",
    "capacity": 0,
    "openDays": [],
    "openDaysNote": ""
  },
  {
    "id": "1150380048",
    "name": "高齢者ケアセンター　ゆらぎ",
    "kana": "コウレイシャケアセンター　ユラギ",
    "address": "さいたま市西区西遊馬1556-1",
    "lat": 35.9113325,
    "lng": 139.5647676,
    "tel": "048-626-0660",
    "url": "https://omiya-kyoritsu.or.jp/yuragi/",
    "pref": "埼玉県",
    "city": "さいたま市西区",
    "category": "rouken",
    "serviceType": "介護老人保健施設",
    "capacity": 100,
    "openDays": [],
    "openDaysNote": ""
  },
  {
    "id": "1156580159",
    "name": "介護老人保健施設　葵の園・浦和",
    "kana": "カイゴロウジンホケンシセツ　アオイノソノ・ウラワ",
    "address": "埼玉県さいたま市南区内谷5-24-1",
    "lat": 35.8304525,
    "lng": 139.6445679,
    "tel": "048-872-2121",
    "url": "http://www.aoikai.jp",
    "pref": "埼玉県",
    "city": "さいたま市南区",
    "category": "rouken",
    "serviceType": "介護老人保健施設",
    "capacity": 0,
    "openDays": [],
    "openDaysNote": ""
  },
  {
    "id": "1156580134",
    "name": "介護老人保健施設　ハートランド大宮",
    "kana": "カイゴロウジンホケンシセツ　ハートランドオオミヤ",
    "address": "埼玉県さいたま市北区奈良町120－2",
    "lat": 35.9515121,
    "lng": 139.5977949,
    "tel": "048-662-7777",
    "url": "http://www.seisekikai.com/kenou/",
    "pref": "埼玉県",
    "city": "さいたま市北区",
    "category": "rouken",
    "serviceType": "介護老人保健施設",
    "capacity": 128,
    "openDays": [],
    "openDaysNote": ""
  },
  {
    "id": "1156580047",
    "name": "介護老人保健施設　みやびの里",
    "kana": "カイゴロウジンホケンシセツ　ミヤビノサト",
    "address": "埼玉県さいたま市北区別所町920",
    "lat": 35.9578191,
    "lng": 139.5906231,
    "tel": "048-668-1020",
    "url": "http://miyabinosato.org/",
    "pref": "埼玉県",
    "city": "さいたま市北区",
    "category": "rouken",
    "serviceType": "介護老人保健施設",
    "capacity": 0,
    "openDays": [],
    "openDaysNote": ""
  },
  {
    "id": "1156580054",
    "name": "介護老人保健施設ボヌール",
    "kana": "カイゴロウジンホケンシセツ　ボヌール",
    "address": "埼玉県さいたま市北区吉野町２丁目１３６５番地",
    "lat": 35.9633026,
    "lng": 139.6191204,
    "tel": "048-661-8223",
    "url": "http://www.bonheur.or.jp",
    "pref": "埼玉県",
    "city": "さいたま市北区",
    "category": "rouken",
    "serviceType": "介護老人保健施設",
    "capacity": 100,
    "openDays": [],
    "openDaysNote": ""
  },
  {
    "id": "1156580088",
    "name": "介護老人保健施設　尚和園アンシャンテ",
    "kana": "カイゴロウジンホケンシセツショウワエンアンシャンテ",
    "address": "埼玉県さいたま市緑区原山3-15-31",
    "lat": 35.8722395,
    "lng": 139.6754264,
    "tel": "048-887-1340",
    "url": "http://saitamakenkyousaikai.jp/",
    "pref": "埼玉県",
    "city": "さいたま市緑区",
    "category": "rouken",
    "serviceType": "介護老人保健施設",
    "capacity": 0,
    "openDays": [],
    "openDaysNote": ""
  },
  {
    "id": "1156580100",
    "name": "介護老人保健施設あさがお",
    "kana": "カイゴロウジンホケンシセツアサガオ",
    "address": "埼玉県さいたま市緑区大崎３３８５－１",
    "lat": 35.8869493,
    "lng": 139.716058,
    "tel": "048-878-7188",
    "url": "http://une-fleur.or.jp",
    "pref": "埼玉県",
    "city": "さいたま市緑区",
    "category": "rouken",
    "serviceType": "介護老人保健施設",
    "capacity": 150,
    "openDays": [],
    "openDaysNote": ""
  },
  {
    "id": "1153080054",
    "name": "ふじみ野介護老人保健施設　ベテラン館",
    "kana": "フジミノカイゴロウジンホケンシセツ　ベテランカン",
    "address": "埼玉県ふじみ野市亀久保1833番地5",
    "lat": 35.8595066,
    "lng": 139.4945671,
    "tel": "049-278-7110",
    "url": "http://mashibamed.com/fujiminoveterankan/",
    "pref": "埼玉県",
    "city": "ふじみ野市",
    "category": "rouken",
    "serviceType": "介護老人保健施設",
    "capacity": 80,
    "openDays": [],
    "openDaysNote": ""
  },
  {
    "id": "1153080039",
    "name": "介護老人保健施設　イムスケアふじみの",
    "kana": "カイゴロウジンホケンシセツ　イムスケアフジミノ",
    "address": "埼玉県ふじみ野市鶴ヶ岡５－６－５８",
    "lat": 35.8659614,
    "lng": 139.4952918,
    "tel": "049-256-6250",
    "url": "http://www.ims.gr.jp/fujimino/",
    "pref": "埼玉県",
    "city": "ふじみ野市",
    "category": "rouken",
    "serviceType": "介護老人保健施設",
    "capacity": 150,
    "openDays": [],
    "openDaysNote": ""
  },
  {
    "id": "1153080025",
    "name": "介護老人保健施設上福岡リハケアセンター",
    "kana": "カイゴロウジンホケンシセツカミフクオカリハケアセンター",
    "address": "埼玉県ふじみ野市福岡新田１０８－１",
    "lat": 35.8767691242302,
    "lng": 139.541120592261,
    "tel": "049-266-0112",
    "url": "http://kamifukuoka-rihakea.net/",
    "pref": "埼玉県",
    "city": "ふじみ野市",
    "category": "rouken",
    "serviceType": "介護老人保健施設",
    "capacity": 0,
    "openDays": [],
    "openDaysNote": ""
  },
  {
    "id": "1153080047",
    "name": "社会福祉法人秋桜園　介護老人保健施設　秋桜の里",
    "kana": "シャカイフクシホウジンコスモスエン　カイゴロウジンホケンシセツ　コスモスノサト",
    "address": "埼玉県ふじみ野市福岡142-1",
    "lat": 35.8740176,
    "lng": 139.5462981,
    "tel": "049-268-6531",
    "url": "http://www.kosumosuen.or.jp",
    "pref": "埼玉県",
    "city": "ふじみ野市",
    "category": "rouken",
    "serviceType": "介護老人保健施設",
    "capacity": 0,
    "openDays": [],
    "openDaysNote": ""
  },
  {
    "id": "1153080017",
    "name": "医療法人社団　愛友会　介護老人保健施設　一心館",
    "kana": "イリョウホウジンシャダン　アイユウカイ　カイゴロウジンホケンシセツ　イッシンカン",
    "address": "埼玉県北足立郡伊奈町小室８１１３番地",
    "lat": 35.9992819,
    "lng": 139.6282154,
    "tel": "048-720-7217",
    "url": "http://www.issinkan.jp",
    "pref": "埼玉県",
    "city": "伊奈町",
    "category": "rouken",
    "serviceType": "介護老人保健施設",
    "capacity": 150,
    "openDays": [],
    "openDaysNote": ""
  },
  {
    "id": "1153980030",
    "name": "介護老人保健施設あいの郷",
    "kana": "カイゴロウジンホケンシセツアイノサト",
    "address": "埼玉県羽生市桑崎196-1",
    "lat": 36.1776303,
    "lng": 139.5183752,
    "tel": "048-562-3100",
    "url": "http://aino-sato.com",
    "pref": "埼玉県",
    "city": "羽生市",
    "category": "rouken",
    "serviceType": "介護老人保健施設",
    "capacity": 0,
    "openDays": [],
    "openDaysNote": ""
  },
  {
    "id": "1153980018",
    "name": "介護老人保健施設カノープス・羽生",
    "kana": "カイゴロウジンホケンシセツカノープス・ハニュウ",
    "address": "羽生市大字本川俣１３０５番地",
    "lat": 36.1887992,
    "lng": 139.5341983,
    "tel": "048-563-3322",
    "url": "http://www.hanyushi-ishikai.jp",
    "pref": "埼玉県",
    "city": "羽生市",
    "category": "rouken",
    "serviceType": "介護老人保健施設",
    "capacity": 100,
    "openDays": [],
    "openDaysNote": ""
  },
  {
    "id": "1150880050",
    "name": "医療法人社団　葵会　介護老人保健施設　葵の園・越谷",
    "kana": "イリョウホウジンシャダン　アオイカイ　カイゴロウジンホケンシセツ　アオイノソノ　コシガヤ",
    "address": "越谷市七左町六丁目100番地1",
    "lat": 35.8772159,
    "lng": 139.7738868,
    "tel": "048-960-2255",
    "url": "https://www.aoikai.jp/",
    "pref": "埼玉県",
    "city": "越谷市",
    "category": "rouken",
    "serviceType": "介護老人保健施設",
    "capacity": 0,
    "openDays": [],
    "openDaysNote": ""
  },
  {
    "id": "1150880084",
    "name": "介護老人保健施設　エスポワール越谷",
    "kana": "カイゴロウジンホケンシセツ　エスポワールコシガヤ",
    "address": "埼玉県越谷市大字大竹712",
    "lat": 35.9234788162139,
    "lng": 139.766684383467,
    "tel": "048-967-5956",
    "url": "http://esp-koshigaya.com/",
    "pref": "埼玉県",
    "city": "越谷市",
    "category": "rouken",
    "serviceType": "介護老人保健施設",
    "capacity": null,
    "openDays": [],
    "openDaysNote": ""
  },
  {
    "id": "1150880043",
    "name": "介護老人保健施設　とまりや",
    "kana": "カイゴロウジンホケンシセツ　トマリヤ",
    "address": "埼玉県越谷市谷中町四丁目２９３番地１",
    "lat": 35.8831146,
    "lng": 139.7645903,
    "tel": "048-963-1008",
    "url": "http://www.goseikai.jp/tomariya.html",
    "pref": "埼玉県",
    "city": "越谷市",
    "category": "rouken",
    "serviceType": "介護老人保健施設",
    "capacity": 150,
    "openDays": [],
    "openDaysNote": ""
  },
  {
    "id": "1150880068",
    "name": "介護老人保健施設　葵の園・越谷レイクタウン",
    "kana": "カイゴロウジンホケンシセツ　アオイノソノ　コシガヤレイクタウン",
    "address": "埼玉県越谷市東町5-155-1",
    "lat": 35.8740399,
    "lng": 139.8351457,
    "tel": "048-990-8200",
    "url": "http：//www.aoikai.jp",
    "pref": "埼玉県",
    "city": "越谷市",
    "category": "rouken",
    "serviceType": "介護老人保健施設",
    "capacity": 0,
    "openDays": [],
    "openDaysNote": ""
  },
  {
    "id": "1150880039",
    "name": "介護老人保健施設　憩いの里",
    "kana": "カイゴロウジンホケンシセツ　イコイノサト",
    "address": "埼玉県越谷市増森1-85",
    "lat": 35.9003807,
    "lng": 139.8207903,
    "tel": "048-963-7788",
    "url": "http://www.kishinkai.or.jp/",
    "pref": "埼玉県",
    "city": "越谷市",
    "category": "rouken",
    "serviceType": "介護老人保健施設",
    "capacity": 0,
    "openDays": [],
    "openDaysNote": ""
  },
  {
    "id": "1150880021",
    "name": "介護老人保健施設　南面",
    "kana": "カイゴロウジンホケンシセツ　ナンメン",
    "address": "埼玉県越谷市七左町４丁目１６１番地",
    "lat": 35.8714665,
    "lng": 139.7699874,
    "tel": "048-989-7777",
    "url": "https://shuhokai.jp/nanmen/",
    "pref": "埼玉県",
    "city": "越谷市",
    "category": "rouken",
    "serviceType": "介護老人保健施設",
    "capacity": 100,
    "openDays": [],
    "openDaysNote": ""
  },
  {
    "id": "1150880013",
    "name": "介護老人保健施設シルバーケア敬愛",
    "kana": "カイゴロウジンホケンシセツ　シルバーケアケイアイ",
    "address": "越谷市平方２７２番地１",
    "lat": 35.9569821,
    "lng": 139.7788688,
    "tel": "048-978-8211",
    "url": "https://scc-keiai.ne.jp/",
    "pref": "埼玉県",
    "city": "越谷市",
    "category": "rouken",
    "serviceType": "介護老人保健施設",
    "capacity": 104,
    "openDays": [],
    "openDaysNote": ""
  },
  {
    "id": "1154880027",
    "name": "介護老人保健施設　なでしこ",
    "kana": "カイゴロウジンホケンシセツ　ナデシコ",
    "address": "埼玉県秩父郡横瀬町大字横瀬5850",
    "lat": 36.0047457,
    "lng": 139.1090387,
    "tel": "0494-25-7200",
    "url": "http://kenshukai-nadeshiko.jp",
    "pref": "埼玉県",
    "city": "横瀬町",
    "category": "rouken",
    "serviceType": "介護老人保健施設",
    "capacity": 0,
    "openDays": [],
    "openDaysNote": ""
  },
  {
    "id": "1155280029",
    "name": "介護老人保健施設　ハートランド桶川",
    "kana": "カイゴロウジンホケンシセツ　ハートランドオケガワ",
    "address": "埼玉県桶川市坂田1725",
    "lat": 36.0113488,
    "lng": 139.5613987,
    "tel": "048-777-7011",
    "url": "https://www.seisekikai.com/heartland/",
    "pref": "埼玉県",
    "city": "桶川市",
    "category": "rouken",
    "serviceType": "介護老人保健施設",
    "capacity": 0,
    "openDays": [],
    "openDaysNote": ""
  },
  {
    "id": "1155280033",
    "name": "介護老人保健施設　葵の園・桶川【ユニット型】",
    "kana": "カイゴロウジンホケンシセツ　アオイノソノ　オケガワ　ユニットガタ",
    "address": "倉田2208-1",
    "lat": 34.6349268,
    "lng": 133.955476,
    "tel": "048-729-1500",
    "url": "http://www.aoikai.jp",
    "pref": "埼玉県",
    "city": "桶川市",
    "category": "rouken",
    "serviceType": "介護老人保健施設",
    "capacity": 0,
    "openDays": [],
    "openDaysNote": ""
  },
  {
    "id": "1155280041",
    "name": "介護老人保健施設　葵の園・桶川【従来型】",
    "kana": "カイゴロウジンホケンシセツ　アオイノソノ　オケガワ　ジュウライガタ",
    "address": "倉田2208-1",
    "lat": 34.6349268,
    "lng": 133.955476,
    "tel": "048-729-1500",
    "url": "http://www.aoikai.jp",
    "pref": "埼玉県",
    "city": "桶川市",
    "category": "rouken",
    "serviceType": "介護老人保健施設",
    "capacity": 0,
    "openDays": [],
    "openDaysNote": ""
  },
  {
    "id": "1155280011",
    "name": "老人保健施設　ルーエハイム",
    "kana": "ロウジンホケンシセツ　ルーエハイム",
    "address": "埼玉県桶川市川田谷４９４８－１",
    "lat": 35.9943739,
    "lng": 139.5189026,
    "tel": "048-786-5550",
    "url": "http://www.anseifukushikai.or.jp",
    "pref": "埼玉県",
    "city": "桶川市",
    "category": "rouken",
    "serviceType": "介護老人保健施設",
    "capacity": 0,
    "openDays": [],
    "openDaysNote": ""
  },
  {
    "id": "1153880010",
    "name": "介護老人保健施設　ケア・ビレッジ　シャローム",
    "kana": "カイゴロウジンホケンシセツ　ケア・ビレッジ　シャローム",
    "address": "埼玉県加須市大字岡古井７３番地",
    "lat": 36.1378143,
    "lng": 139.5756081,
    "tel": "0480-61-3810",
    "url": "https://shalomranseikai.jimdo.com/",
    "pref": "埼玉県",
    "city": "加須市",
    "category": "rouken",
    "serviceType": "介護老人保健施設",
    "capacity": 100,
    "openDays": [],
    "openDaysNote": ""
  },
  {
    "id": "1153680022",
    "name": "介護老人保健施設　虹の園",
    "kana": "カイゴロウジンホケンシセツ　ニジノソノ",
    "address": "埼玉県加須市上崎２０４７番地１",
    "lat": 36.1112919,
    "lng": 139.5481954,
    "tel": "0480-70-2388",
    "url": "http://www.nijinosono.jp/index.html",
    "pref": "埼玉県",
    "city": "加須市",
    "category": "rouken",
    "serviceType": "介護老人保健施設",
    "capacity": 0,
    "openDays": [],
    "openDaysNote": ""
  },
  {
    "id": "1153280013",
    "name": "医療法人　昭友会　介護老人保健施設　いづみケアセンター",
    "kana": "イリョウホウジンショウユウカイカイゴロウジンホケンシセツイヅミケアセンター",
    "address": "埼玉県比企郡滑川町和泉８７３",
    "lat": 36.0841039,
    "lng": 139.3314425,
    "tel": "0493-56-6123",
    "url": "https://www.kokoro.or.jp/izumi-care/",
    "pref": "埼玉県",
    "city": "滑川町",
    "category": "rouken",
    "serviceType": "介護老人保健施設",
    "capacity": 0,
    "openDays": [],
    "openDaysNote": ""
  },
  {
    "id": "1154580023",
    "name": "介護老人保健施設　逍遥の郷",
    "kana": "カイゴロウジンホケンシセツ　ショウヨウノサト",
    "address": "埼玉県大里郡寄居町大字折原2482",
    "lat": 36.1057418,
    "lng": 139.1743144,
    "tel": "048-581-8855",
    "url": "http://www.hagukumukai.jp/",
    "pref": "埼玉県",
    "city": "寄居町",
    "category": "rouken",
    "serviceType": "介護老人保健施設",
    "capacity": 100,
    "openDays": [],
    "openDaysNote": ""
  },
  {
    "id": "1154580031",
    "name": "介護老人保健施設やまざくら",
    "kana": "カイゴロウジンホケンシセツヤマザクラ",
    "address": "埼玉県大里郡寄居町末野2109",
    "lat": 36.124789,
    "lng": 139.1651334,
    "tel": "048-580-0888",
    "url": "http://www.shunjinkai.or.jp",
    "pref": "埼玉県",
    "city": "寄居町",
    "category": "rouken",
    "serviceType": "介護老人保健施設",
    "capacity": 96,
    "openDays": [],
    "openDaysNote": ""
  },
  {
    "id": "1153280035",
    "name": "介護老人保健施設もえぎ野",
    "kana": "カイゴロウジンホケンシセツモエギノ",
    "address": "埼玉県比企郡吉見町大字久米田８５９－１",
    "lat": 36.040211,
    "lng": 139.4440537,
    "tel": "0493-54-0021",
    "url": "http://www.moegino.or.jp",
    "pref": "埼玉県",
    "city": "吉見町",
    "category": "rouken",
    "serviceType": "介護老人保健施設",
    "capacity": 54,
    "openDays": [],
    "openDaysNote": ""
  },
  {
    "id": "1156480016",
    "name": "介護老人保健施設　ケアリングよしかわ",
    "kana": "カイゴロウジンホケンシセツ　ケアリングヨシカワ",
    "address": "埼玉県吉川市八子新田５２９",
    "lat": 35.9153009,
    "lng": 139.8660468,
    "tel": "048-983-7711",
    "url": "http://www.caring-yoshikawa.or.jp/",
    "pref": "埼玉県",
    "city": "吉川市",
    "category": "rouken",
    "serviceType": "介護老人保健施設",
    "capacity": 0,
    "openDays": [],
    "openDaysNote": ""
  },
  {
    "id": "1150580019",
    "name": "介護老人保健施設　みやじま",
    "kana": "カイゴロウジンホケンシセツ　ミヤジマ",
    "address": "埼玉県久喜市菖蒲町菖蒲４０２８",
    "lat": 36.0717493,
    "lng": 139.6121511,
    "tel": "0480-85-1812",
    "url": "http://www.roken-miyajima.com/",
    "pref": "埼玉県",
    "city": "久喜市",
    "category": "rouken",
    "serviceType": "介護老人保健施設",
    "capacity": 130,
    "openDays": [],
    "openDaysNote": ""
  },
  {
    "id": "1151180041",
    "name": "介護老人保健施設　栗橋ナーシングホーム翔裕園",
    "kana": "カイゴロウジンホケンシセツ　クリハシナーシングホームショウユウエン",
    "address": "久喜市小右衛門951-1",
    "lat": 36.1170784,
    "lng": 139.716093,
    "tel": "0480-55-2024",
    "url": "http://www.genkimuragroup.jp/genkimura/kurihashi-nh/",
    "pref": "埼玉県",
    "city": "久喜市",
    "category": "rouken",
    "serviceType": "介護老人保健施設",
    "capacity": 0,
    "openDays": [],
    "openDaysNote": ""
  },
  {
    "id": "1151100011",
    "name": "介護老人保健施設　桜田",
    "kana": "カイゴロウジンホケンシセツ　サクラダ",
    "address": "埼玉県久喜市東大輪2039-4",
    "lat": 36.0969102,
    "lng": 139.6754441,
    "tel": "0480-57-1811",
    "url": "https:/taijukai.com/",
    "pref": "埼玉県",
    "city": "久喜市",
    "category": "rouken",
    "serviceType": "介護老人保健施設",
    "capacity": 0,
    "openDays": [],
    "openDaysNote": ""
  },
  {
    "id": "1150980011",
    "name": "介護老人保健施設　鶴寿の里ナーシングホーム",
    "kana": "カイゴロウジンホケンシセツ　カクジュノサトナーシングホーム",
    "address": "久喜市北青柳１３８５－２",
    "lat": 36.0523336662994,
    "lng": 139.660649425131,
    "tel": "0480-24-0066",
    "url": "http://www.kakuju.saitama.jp",
    "pref": "埼玉県",
    "city": "久喜市",
    "category": "rouken",
    "serviceType": "介護老人保健施設",
    "capacity": 0,
    "openDays": [],
    "openDaysNote": ""
  },
  {
    "id": "1150580049",
    "name": "医療法人社団一恵会　介護老人保健施設　はーとぴあ",
    "kana": "イリョウホウジンシャダンイチエカイ　カイゴロウジンホケンシセツハートピア",
    "address": "埼玉県南埼玉郡宮代町字山崎472番地",
    "lat": 36.01223,
    "lng": 139.7248603,
    "tel": "0480-36-2122",
    "url": "http://www.e-heartpia.jp",
    "pref": "埼玉県",
    "city": "宮代町",
    "category": "rouken",
    "serviceType": "介護老人保健施設",
    "capacity": 0,
    "openDays": [],
    "openDaysNote": ""
  },
  {
    "id": "1150580035",
    "name": "公設宮代福祉医療センター介護老人保健施設六花",
    "kana": "コウセツミヤシロフクシイリョウセンターカイゴロウジンホケンシセツリッカ",
    "address": "埼玉県南埼玉郡宮代町大字須賀１７７",
    "lat": 36.0211129549746,
    "lng": 139.719244033066,
    "tel": "0480-36-2767",
    "url": "https://www.rikka-jadecom.jp/",
    "pref": "埼玉県",
    "city": "宮代町",
    "category": "rouken",
    "serviceType": "介護老人保健施設",
    "capacity": 0,
    "openDays": [],
    "openDaysNote": ""
  },
  {
    "id": "1152780013",
    "name": "介護老人保健施設　かがやき",
    "kana": "カイゴロウジンホケンシセツ　カガヤキ",
    "address": "埼玉県狭山市大字下奥富６８８",
    "lat": 35.8812943,
    "lng": 139.4335878,
    "tel": "04-2952-1001",
    "url": "http://www.shisei-hp.jp/kagayakitop.htm",
    "pref": "埼玉県",
    "city": "狭山市",
    "category": "rouken",
    "serviceType": "介護老人保健施設",
    "capacity": 100,
    "openDays": [],
    "openDaysNote": ""
  },
  {
    "id": "1152780021",
    "name": "介護老人保健施設　狭山ケアセンター",
    "kana": "カイゴロウジンホケンシセツ　サヤマケアセンター",
    "address": "狭山市北入曽1443-7",
    "lat": 35.8258873,
    "lng": 139.4370423,
    "tel": "04-2956-7311",
    "url": "http//www.sayama-care.com",
    "pref": "埼玉県",
    "city": "狭山市",
    "category": "rouken",
    "serviceType": "介護老人保健施設",
    "capacity": 100,
    "openDays": [],
    "openDaysNote": ""
  },
  {
    "id": "1152780035",
    "name": "介護老人保健施設愛",
    "kana": "カイゴロウジンホケンシセツ　アイ",
    "address": "埼玉県狭山市大字水野５９６番地",
    "lat": 35.8316366,
    "lng": 139.4457721,
    "tel": "04-2957-0666",
    "url": "https://roken-ai.jp/",
    "pref": "埼玉県",
    "city": "狭山市",
    "category": "rouken",
    "serviceType": "介護老人保健施設",
    "capacity": 100,
    "openDays": [],
    "openDaysNote": ""
  },
  {
    "id": "1153180023",
    "name": "ぬくもり",
    "kana": "ヌクモリ",
    "address": "熊谷市石原５１０",
    "lat": 36.1562528,
    "lng": 139.3711729,
    "tel": "048-529-2882",
    "url": "http://www.jikei.or.jp/nukumori/",
    "pref": "埼玉県",
    "city": "熊谷市",
    "category": "rouken",
    "serviceType": "介護老人保健施設",
    "capacity": 0,
    "openDays": [],
    "openDaysNote": ""
  },
  {
    "id": "1154580015",
    "name": "介護老人保健施設　ケアパーク江南",
    "kana": "カイゴロウジンホケンシセツ　ケアパークコウナン",
    "address": "埼玉県熊谷市江南中央2-7-8",
    "lat": 36.1137884,
    "lng": 139.3394405,
    "tel": "048-536-8880",
    "url": "https://www.careparkkounan.jp",
    "pref": "埼玉県",
    "city": "熊谷市",
    "category": "rouken",
    "serviceType": "介護老人保健施設",
    "capacity": 0,
    "openDays": [],
    "openDaysNote": ""
  },
  {
    "id": "1153100019",
    "name": "介護老人保健施設　トワーム熊谷",
    "kana": "カイゴロウジンホケンシセツ　トワームクマガヤ",
    "address": "埼玉県熊谷市小曽根３３７－１",
    "lat": 36.173785,
    "lng": 139.3901345,
    "tel": "048-599-3377",
    "url": "http://www.towarm.com/kumagaya/",
    "pref": "埼玉県",
    "city": "熊谷市",
    "category": "rouken",
    "serviceType": "介護老人保健施設",
    "capacity": 100,
    "openDays": [],
    "openDaysNote": ""
  },
  {
    "id": "1153180037",
    "name": "介護老人保健施設　葵の園・熊谷",
    "kana": "カイゴロウジンホケンシセツ　アオイノソノ・クマガヤ",
    "address": "埼玉県熊谷市善ケ島1324-1",
    "lat": 36.2210295,
    "lng": 139.3950922,
    "tel": "048-589-5511",
    "url": "http://www.aoikai.jp",
    "pref": "埼玉県",
    "city": "熊谷市",
    "category": "rouken",
    "serviceType": "介護老人保健施設",
    "capacity": 0,
    "openDays": [],
    "openDaysNote": ""
  },
  {
    "id": "1153180015",
    "name": "介護老人保健施設はなぶさ",
    "kana": "カイゴロウジンホケンシセツハナブサ",
    "address": "埼玉県熊谷市玉井３３６番地１",
    "lat": 36.1707314,
    "lng": 139.3511455,
    "tel": "048-532-6611",
    "url": "http://hanabusaen.com",
    "pref": "埼玉県",
    "city": "熊谷市",
    "category": "rouken",
    "serviceType": "介護老人保健施設",
    "capacity": 100,
    "openDays": [],
    "openDaysNote": ""
  },
  {
    "id": "1151980036",
    "name": "医療法人髙仁会　介護老人保健施設コスモス苑",
    "kana": "イリョウホウジンコウジンカイ　カイゴロウジンホケンシセツコスモスエン",
    "address": "埼玉県戸田市新曽南3−6−23",
    "lat": 35.8046004,
    "lng": 139.6673424,
    "tel": "048-447-0885",
    "url": "https://kaigo-cosmos.jp/",
    "pref": "埼玉県",
    "city": "戸田市",
    "category": "rouken",
    "serviceType": "介護老人保健施設",
    "capacity": 100,
    "openDays": [],
    "openDaysNote": ""
  },
  {
    "id": "1151980010",
    "name": "戸田市立介護老人保健施設",
    "kana": "トダシリツカイゴロウジンホケンシセツ",
    "address": "戸田市美女木４－２０－６",
    "lat": 35.8211449,
    "lng": 139.6451473,
    "tel": "048-422-8800",
    "url": "http://www.mckenshukai.jp/toda/",
    "pref": "埼玉県",
    "city": "戸田市",
    "category": "rouken",
    "serviceType": "介護老人保健施設",
    "capacity": 0,
    "openDays": [],
    "openDaysNote": ""
  },
  {
    "id": "1156180012",
    "name": "介護老人保健施設幸手ナーシングホーム",
    "kana": "カイゴロウジンホケンシセツサッテナーシングホーム",
    "address": "埼玉県幸手市東３丁目１番５号",
    "lat": 36.0743559,
    "lng": 139.7233,
    "tel": "0480-43-8282",
    "url": "http://wwwhorinaka-byouin.com/",
    "pref": "埼玉県",
    "city": "幸手市",
    "category": "rouken",
    "serviceType": "介護老人保健施設",
    "capacity": 0,
    "openDays": [],
    "openDaysNote": ""
  },
  {
    "id": "1153780020",
    "name": "介護老人保健施設グリーンピア",
    "kana": "カイゴロウジンホケンシセツグリーンピア",
    "address": "行田市須加1531",
    "lat": 36.1843526245409,
    "lng": 139.489318649738,
    "tel": "048-557-3633",
    "url": "",
    "pref": "埼玉県",
    "city": "行田市",
    "category": "rouken",
    "serviceType": "介護老人保健施設",
    "capacity": 80,
    "openDays": [],
    "openDaysNote": ""
  },
  {
    "id": "1153780012",
    "name": "社会医療法人　壮幸会　老人保健施設ハートフル行田",
    "kana": "シャカイイリョウホウジン　ソウコウカイ　ロウジンホケンシセツハートフルギョウダ",
    "address": "埼玉県行田市下忍1157-1",
    "lat": 36.1185018,
    "lng": 139.4617878,
    "tel": "048-554-9700",
    "url": "",
    "pref": "埼玉県",
    "city": "行田市",
    "category": "rouken",
    "serviceType": "介護老人保健施設",
    "capacity": 0,
    "openDays": [],
    "openDaysNote": ""
  },
  {
    "id": "1151780030",
    "name": "こうのすナーシングホーム共生園",
    "kana": "コウノスナーシングホームキョウセイエン",
    "address": "鴻巣市下谷409-1",
    "lat": 36.0516841437211,
    "lng": 139.546785486508,
    "tel": "048-540-6171",
    "url": "http://www.kouaikai.net",
    "pref": "埼玉県",
    "city": "鴻巣市",
    "category": "rouken",
    "serviceType": "介護老人保健施設",
    "capacity": 0,
    "openDays": [],
    "openDaysNote": ""
  },
  {
    "id": "1151780014",
    "name": "介護老人保健施設　鴻巣フラワーパレス",
    "kana": "カイゴロウジンホケンシセツ　コウノスフラワーパレス",
    "address": "埼玉県鴻巣市市ノ縄２５０番地1",
    "lat": 36.0771178,
    "lng": 139.5088401,
    "tel": "048-597-1311",
    "url": "http://www.flowerpalace.jp/",
    "pref": "埼玉県",
    "city": "鴻巣市",
    "category": "rouken",
    "serviceType": "介護老人保健施設",
    "capacity": 0,
    "openDays": [],
    "openDaysNote": ""
  },
  {
    "id": "1151380013",
    "name": "介護老人保健施設　秋桜",
    "kana": "カイゴロウジンホケンシセツ　コスモス",
    "address": "埼玉県鴻巣市前砂９８０－１",
    "lat": 36.0894365,
    "lng": 139.4680721,
    "tel": "048-547-2370",
    "url": "http://nishina-t.or.jp/",
    "pref": "埼玉県",
    "city": "鴻巣市",
    "category": "rouken",
    "serviceType": "介護老人保健施設",
    "capacity": 100,
    "openDays": [],
    "openDaysNote": ""
  },
  {
    "id": "1151780022",
    "name": "鴻巣介護老人保健施設こうのとり",
    "kana": "コウノスカイゴロウジンホケンシセツコウノトリ",
    "address": "埼玉県鴻巣市八幡田８６８－１",
    "lat": 36.0732653,
    "lng": 139.5027688,
    "tel": "048-596-2222",
    "url": "http://www.kounosu-hp.jp/",
    "pref": "埼玉県",
    "city": "鴻巣市",
    "category": "rouken",
    "serviceType": "介護老人保健施設",
    "capacity": 0,
    "openDays": [],
    "openDaysNote": ""
  },
  {
    "id": "1156080030",
    "name": "介護老人保健施設　すみよし",
    "kana": "カイゴロウジンホケンシセツ　スミヨシ",
    "address": "埼玉県坂戸市塚越７６９番地",
    "lat": 35.9728841,
    "lng": 139.4203585,
    "tel": "049-288-3800",
    "url": "http://www.kan-etsu-hp.ne.jp",
    "pref": "埼玉県",
    "city": "坂戸市",
    "category": "rouken",
    "serviceType": "介護老人保健施設",
    "capacity": 100,
    "openDays": [],
    "openDaysNote": ""
  },
  {
    "id": "1156080014",
    "name": "介護老人保健施設　はつらつ",
    "kana": "カイゴロウジンホケンシセツ　ハツラツ",
    "address": "埼玉県坂戸市本町2-13",
    "lat": 35.9615075275387,
    "lng": 139.39370312209,
    "tel": "049-283-0021",
    "url": "http://www.toujinkai.com",
    "pref": "埼玉県",
    "city": "坂戸市",
    "category": "rouken",
    "serviceType": "介護老人保健施設",
    "capacity": 0,
    "openDays": [],
    "openDaysNote": ""
  },
  {
    "id": "1156080022",
    "name": "介護老人保健施設やまぶきの郷",
    "kana": "カイゴロウジンホケンシセツヤマブキノサト",
    "address": "埼玉県坂戸市多和目３３０番地",
    "lat": 35.9223157,
    "lng": 139.3442717,
    "tel": "049-287-1155",
    "url": "https://www.yamabukinosato.jp",
    "pref": "埼玉県",
    "city": "坂戸市",
    "category": "rouken",
    "serviceType": "介護老人保健施設",
    "capacity": 0,
    "openDays": [],
    "openDaysNote": ""
  },
  {
    "id": "1151280015",
    "name": "介護老人保健施設三郷ケアセンター",
    "kana": "カイゴロウジンホケンシセツミサトケアセンター",
    "address": "埼玉県三郷市南蓮沼２６０－２",
    "lat": 35.8469496,
    "lng": 139.8712633,
    "tel": "048-953-6161",
    "url": "http://www.misato-carecenter.jp/",
    "pref": "埼玉県",
    "city": "三郷市",
    "category": "rouken",
    "serviceType": "介護老人保健施設",
    "capacity": 0,
    "openDays": [],
    "openDaysNote": ""
  },
  {
    "id": "1152480040",
    "name": "エムズガーデン",
    "kana": "エムズガーデン",
    "address": "埼玉県入間郡三芳町北永井890-2",
    "lat": 35.8455891,
    "lng": 139.5154723,
    "tel": "049-257-1500",
    "url": "https://ms-garden.miyoshino.or.jp",
    "pref": "埼玉県",
    "city": "三芳町",
    "category": "rouken",
    "serviceType": "介護老人保健施設",
    "capacity": 80,
    "openDays": [],
    "openDaysNote": ""
  },
  {
    "id": "1152480010",
    "name": "介護老人保健施設　埼玉ロイヤルケアセンター",
    "kana": "カイゴロウジンホケンシセツ　サイタマロイヤルケアセンター",
    "address": "入間郡三芳町上富2181-5",
    "lat": 35.8414897,
    "lng": 139.5045834,
    "tel": "049-258-6060",
    "url": "http://www.ims.gr.jp/saitama.royal",
    "pref": "埼玉県",
    "city": "三芳町",
    "category": "rouken",
    "serviceType": "介護老人保健施設",
    "capacity": 150,
    "openDays": [],
    "openDaysNote": ""
  },
  {
    "id": "1152480028",
    "name": "介護老人保健施設むさしの苑",
    "kana": "カイゴロウジンホケンシセツムサシノエン",
    "address": "埼玉県入間郡三芳町上富1784-7",
    "lat": 35.8409755,
    "lng": 139.4925921,
    "tel": "049-259-6122",
    "url": "http://mkf.jp",
    "pref": "埼玉県",
    "city": "三芳町",
    "category": "rouken",
    "serviceType": "介護老人保健施設",
    "capacity": 0,
    "openDays": [],
    "openDaysNote": ""
  },
  {
    "id": "1152280010",
    "name": "介護老人保健施設　志木瑞穂の里",
    "kana": "カイゴロウジンホケンシセツ　シキミズホノサト",
    "address": "埼玉県志木市上宗岡２丁目２０−１７",
    "lat": 35.8498679,
    "lng": 139.5813716,
    "tel": "０４８−４７４−０３２４",
    "url": "http://www.mizuhokai.or.jp/shiki-mizuhono-sato/index.html",
    "pref": "埼玉県",
    "city": "志木市",
    "category": "rouken",
    "serviceType": "介護老人保健施設",
    "capacity": 0,
    "openDays": [],
    "openDaysNote": ""
  },
  {
    "id": "1150680017",
    "name": "介護老人保健施設　ちとせ",
    "kana": "カイゴロウジンホケンシセツ　チトセ",
    "address": "埼玉県春日部市下大増新田81-1",
    "lat": 53.41291,
    "lng": -8.24388999999996,
    "tel": "048-733-1000",
    "url": "https://syunmeikai.com/chitose/#",
    "pref": "埼玉県",
    "city": "春日部市",
    "category": "rouken",
    "serviceType": "介護老人保健施設",
    "capacity": 100,
    "openDays": [],
    "openDaysNote": ""
  },
  {
    "id": "1150680096",
    "name": "介護老人保健施設　みどり　ユニット型",
    "kana": "カイゴロウジンホケンシセツ　ミドリ　ユニットガタ",
    "address": "埼玉県春日部上大増新田168番地",
    "lat": 35.9612397326239,
    "lng": 139.738147930025,
    "tel": "048-739-7800",
    "url": "http://www.demencia.jp",
    "pref": "埼玉県",
    "city": "春日部市",
    "category": "rouken",
    "serviceType": "介護老人保健施設",
    "capacity": 0,
    "openDays": [],
    "openDaysNote": ""
  },
  {
    "id": "1150680070",
    "name": "介護老人保健施設　葵の園・春日部",
    "kana": "カイゴロウジンホケンシセツ　アオイノソノ・カスカベ",
    "address": "埼玉県春日部市金崎71-1",
    "lat": 35.9938584,
    "lng": 139.7984607,
    "tel": "048-747-1166",
    "url": "www.aoikai.jp",
    "pref": "埼玉県",
    "city": "春日部市",
    "category": "rouken",
    "serviceType": "介護老人保健施設",
    "capacity": null,
    "openDays": [],
    "openDaysNote": ""
  },
  {
    "id": "1150680088",
    "name": "介護老人保健施設　葵の園・春日部(ユニット)",
    "kana": "カイゴロウジンホケンシセツ　アオイノソノ・カスカベ(ユニット)",
    "address": "埼玉県春日部市金崎71-1",
    "lat": 35.9938584,
    "lng": 139.7984607,
    "tel": "048-747-1166",
    "url": "www.aoikai.jp",
    "pref": "埼玉県",
    "city": "春日部市",
    "category": "rouken",
    "serviceType": "介護老人保健施設",
    "capacity": null,
    "openDays": [],
    "openDaysNote": ""
  },
  {
    "id": "1150680025",
    "name": "介護老人保健施設　春日部ロイヤルケアセンター",
    "kana": "カイゴロウジンホケンシセツ　カスカベロイヤルケアセンター",
    "address": "埼玉県春日部市藤塚2622番2",
    "lat": 35.9637757,
    "lng": 139.7833628,
    "tel": "048-733-5771",
    "url": "http://www.ims.gr.jp/kasukabe-royal/",
    "pref": "埼玉県",
    "city": "春日部市",
    "category": "rouken",
    "serviceType": "介護老人保健施設",
    "capacity": 150,
    "openDays": [],
    "openDaysNote": ""
  },
  {
    "id": "1151180033",
    "name": "介護老人保健施設しょうわ",
    "kana": "カイゴロウジンホケンシセツショウワ",
    "address": "埼玉県春日部市下柳1088番地",
    "lat": 35.9850731,
    "lng": 139.7850149,
    "tel": "048-718-2111",
    "url": "http://www.showa.or.jp/",
    "pref": "埼玉県",
    "city": "春日部市",
    "category": "rouken",
    "serviceType": "介護老人保健施設",
    "capacity": 0,
    "openDays": [],
    "openDaysNote": ""
  },
  {
    "id": "1150680104",
    "name": "介護老人保健施設みどり",
    "kana": "カイゴロウジンホケンシセツミドリ",
    "address": "埼玉県春日部市上大増新田168番地",
    "lat": 35.9601629,
    "lng": 139.7383786,
    "tel": "048-739-7800",
    "url": "http://www.demencia.jp",
    "pref": "埼玉県",
    "city": "春日部市",
    "category": "rouken",
    "serviceType": "介護老人保健施設",
    "capacity": 80,
    "openDays": [],
    "openDaysNote": ""
  },
  {
    "id": "1150680039",
    "name": "春日部認知症保健福祉センター",
    "kana": "カスカベニンチショウホケンフクシセンター",
    "address": "埼玉県春日部市増富36番地",
    "lat": 35.9628813,
    "lng": 139.7293176,
    "tel": "048-753-5555",
    "url": "http://www.demencia.jp/",
    "pref": "埼玉県",
    "city": "春日部市",
    "category": "rouken",
    "serviceType": "介護老人保健施設",
    "capacity": 29,
    "openDays": [],
    "openDaysNote": ""
  },
  {
    "id": "1152580062",
    "name": "エスポワール所沢",
    "kana": "エスポワールトコロザワ",
    "address": "埼玉県所沢市下富１３１０－１５",
    "lat": 35.8240986,
    "lng": 139.4564938,
    "tel": "04-2990-2077",
    "url": "http://care-net.biz/11/esp-tokorozawa/",
    "pref": "埼玉県",
    "city": "所沢市",
    "category": "rouken",
    "serviceType": "介護老人保健施設",
    "capacity": 0,
    "openDays": [],
    "openDaysNote": ""
  },
  {
    "id": "1152580025",
    "name": "介護老人保健施設　ケアステーション所沢",
    "kana": "カイゴロウジンホケンシセツ　ケアステーショントコロザワ",
    "address": "埼玉県所沢市東狭山ヶ丘6-2823-13",
    "lat": 35.8157635,
    "lng": 139.4247132,
    "tel": "04-2921-1165",
    "url": "https://kuwanomikai.jp/",
    "pref": "埼玉県",
    "city": "所沢市",
    "category": "rouken",
    "serviceType": "介護老人保健施設",
    "capacity": 90,
    "openDays": [],
    "openDaysNote": ""
  },
  {
    "id": "1152580070",
    "name": "介護老人保健施設　みかじま",
    "kana": "カイゴロウジンホケンシセツ　ミカジマ",
    "address": "埼玉県所沢市三ケ島５丁目１６３６番地",
    "lat": 35.7972041,
    "lng": 139.4042271,
    "tel": "04-2938-1818",
    "url": "http://roukenmikajima.jp/",
    "pref": "埼玉県",
    "city": "所沢市",
    "category": "rouken",
    "serviceType": "介護老人保健施設",
    "capacity": 0,
    "openDays": [],
    "openDaysNote": ""
  },
  {
    "id": "1152580059",
    "name": "介護老人保健施設　所沢ロイヤルの丘",
    "kana": "カイゴロウジンホケンシセツ　トコロザワロイヤルノオカ",
    "address": "埼玉県所沢市北野三丁目１番地１６",
    "lat": 35.797024,
    "lng": 139.4202562,
    "tel": "04-2947-1011",
    "url": "http://www.wam-town.jp/tokorozawa-oka/",
    "pref": "埼玉県",
    "city": "所沢市",
    "category": "rouken",
    "serviceType": "介護老人保健施設",
    "capacity": 110,
    "openDays": [],
    "openDaysNote": ""
  },
  {
    "id": "1152580033",
    "name": "介護老人保健施設さんとめ",
    "kana": "カイゴロウジンホケンシセツサントメ",
    "address": "埼玉県所沢市中富1617",
    "lat": 35.8150616,
    "lng": 139.4834444,
    "tel": "04-2942-3202",
    "url": "http://santome.mcp-saitamawest.jp/",
    "pref": "埼玉県",
    "city": "所沢市",
    "category": "rouken",
    "serviceType": "介護老人保健施設",
    "capacity": 0,
    "openDays": [],
    "openDaysNote": ""
  },
  {
    "id": "1152580088",
    "name": "介護老人保険施設　遊",
    "kana": "カイゴロウジンホケンシセツ　ユウ",
    "address": "埼玉県所沢市東狭山ヶ丘4-2666-1",
    "lat": 35.8098225,
    "lng": 139.428641,
    "tel": "04-2929-1177",
    "url": "http://www.rouken-yuu.com",
    "pref": "埼玉県",
    "city": "所沢市",
    "category": "rouken",
    "serviceType": "介護老人保健施設",
    "capacity": 80,
    "openDays": [],
    "openDaysNote": ""
  },
  {
    "id": "1151180025",
    "name": "介護老人保健施設あすかHOUSE松伏",
    "kana": "カイゴロウジンホケンシセツアスカハウスマツブシ",
    "address": "埼玉県北葛飾郡松伏町上赤岩７５２－１",
    "lat": 35.9153949,
    "lng": 139.8222226,
    "tel": "048-992-2101",
    "url": "http://www.asuka-gp./premier",
    "pref": "埼玉県",
    "city": "松伏町",
    "category": "rouken",
    "serviceType": "介護老人保健施設",
    "capacity": 0,
    "openDays": [],
    "openDaysNote": ""
  },
  {
    "id": "1151180058",
    "name": "介護老人保健施設なのはなの里",
    "kana": "カイゴロウジンホケンシセツ　ナノハナノサト",
    "address": "埼玉県北葛飾郡松伏町大字金杉1908",
    "lat": 35.9474285,
    "lng": 139.826379,
    "tel": "048-992-5511",
    "url": "http://www.nanohananosato.info/nanohana/index.html",
    "pref": "埼玉県",
    "city": "松伏町",
    "category": "rouken",
    "serviceType": "介護老人保健施設",
    "capacity": 100,
    "openDays": [],
    "openDaysNote": ""
  },
  {
    "id": "1151680040",
    "name": "医療法人　藤仁会　介護老人保健施設　ふれあいの郷あげお",
    "kana": "イリョウホウジン　トウジンカイ　カイゴロウジンホケンシセツ　フレアイノサトアゲオ",
    "address": "埼玉県上尾市平方1915",
    "lat": 35.9484793,
    "lng": 139.5500736,
    "tel": "048-780-6600",
    "url": "http://roken.to-jinkai.or.jp/",
    "pref": "埼玉県",
    "city": "上尾市",
    "category": "rouken",
    "serviceType": "介護老人保健施設",
    "capacity": 100,
    "openDays": [],
    "openDaysNote": ""
  },
  {
    "id": "1151680016",
    "name": "介護老人保健施設　あげお愛友の里",
    "kana": "カイゴロウジンホケンシセツ　アゲオアイユウノサト",
    "address": "上尾市西門前字南前６３６",
    "lat": 35.9910014,
    "lng": 139.588194,
    "tel": "048-772-7711",
    "url": "http://www.aiyu.jp",
    "pref": "埼玉県",
    "city": "上尾市",
    "category": "rouken",
    "serviceType": "介護老人保健施設",
    "capacity": 150,
    "openDays": [],
    "openDaysNote": ""
  },
  {
    "id": "1151680032",
    "name": "介護老人保健施設　エルサ上尾",
    "kana": "カイゴロウジンホケンシセツ　エルサアゲオ",
    "address": "埼玉県上尾市藤波３－２６５－１",
    "lat": 35.9907339,
    "lng": 139.5492035,
    "tel": "048-787-8686",
    "url": "http://www.elusa-ageo.jp",
    "pref": "埼玉県",
    "city": "上尾市",
    "category": "rouken",
    "serviceType": "介護老人保健施設",
    "capacity": 150,
    "openDays": [],
    "openDaysNote": ""
  },
  {
    "id": "1151680024",
    "name": "介護老人保健施設ハーティハイム",
    "kana": "カイゴロウジンホケンシセツハーティハイム",
    "address": "埼玉県上尾市大字平方３１４７番地３",
    "lat": 35.9512566,
    "lng": 139.552429,
    "tel": "048-726-8000",
    "url": "https//www.anseifukushikai.or.jp/",
    "pref": "埼玉県",
    "city": "上尾市",
    "category": "rouken",
    "serviceType": "介護老人保健施設",
    "capacity": 0,
    "openDays": [],
    "openDaysNote": ""
  },
  {
    "id": "1154280020",
    "name": "介護老人保健施設　かみさとナーシングホーム",
    "kana": "カイゴロウジンホケンシセツ　カミサトナーシングホーム",
    "address": "埼玉県児玉郡上里町金久保１３３６",
    "lat": 36.2620671,
    "lng": 139.1457419,
    "tel": "0495-33-7070",
    "url": "http://www.lupinus-kai.or.jp/",
    "pref": "埼玉県",
    "city": "上里町",
    "category": "rouken",
    "serviceType": "介護老人保健施設",
    "capacity": 0,
    "openDays": [],
    "openDaysNote": ""
  },
  {
    "id": "1155180021",
    "name": "介護老人保健施設　四季の里",
    "kana": "カイゴロウジンホケンシセツ　シキノサト",
    "address": "埼玉県新座市北野２－１４－８",
    "lat": 35.8173191427976,
    "lng": 139.562281736312,
    "tel": "048-482-8008",
    "url": "https://www.shikinosato.jp/",
    "pref": "埼玉県",
    "city": "新座市",
    "category": "rouken",
    "serviceType": "介護老人保健施設",
    "capacity": 100,
    "openDays": [],
    "openDaysNote": ""
  },
  {
    "id": "1155180013",
    "name": "介護老人保健施設　新座園",
    "kana": "カイゴロウジンホケンシセツ　ニイザエン",
    "address": "新座市野火止４－１４－２０",
    "lat": 35.7994962,
    "lng": 139.5529895,
    "tel": "048-477-1008",
    "url": "http://www.jiseikai.or.jp",
    "pref": "埼玉県",
    "city": "新座市",
    "category": "rouken",
    "serviceType": "介護老人保健施設",
    "capacity": 0,
    "openDays": [],
    "openDaysNote": ""
  },
  {
    "id": "1154680035",
    "name": "介護療養型老人保健施設アルメリア",
    "kana": "カイゴリョウヨウガタロウジンホケンシセツアルメリア",
    "address": "埼玉県深谷市人見2031番地",
    "lat": 36.1637693,
    "lng": 139.2633023,
    "tel": "048-574-8777",
    "url": "http://www.arumeria.jp/",
    "pref": "埼玉県",
    "city": "深谷市",
    "category": "rouken",
    "serviceType": "介護老人保健施設",
    "capacity": 0,
    "openDays": [],
    "openDaysNote": ""
  },
  {
    "id": "1154680021",
    "name": "介護老人保健施設FOMA・なごみ",
    "kana": "カイゴロウジンホケンシセツフォーマ・ナゴミ",
    "address": "埼玉県深谷市新戒413-1",
    "lat": 36.2287911,
    "lng": 139.2927231,
    "tel": "048-587-4753",
    "url": "http://www.fukaya-osato.saitama.med.or.jp",
    "pref": "埼玉県",
    "city": "深谷市",
    "category": "rouken",
    "serviceType": "介護老人保健施設",
    "capacity": 100,
    "openDays": [],
    "openDaysNote": ""
  },
  {
    "id": "1154680043",
    "name": "介護老人保健施設あねとす",
    "kana": "カイゴロウジンホケンシセツアネトス",
    "address": "埼玉県深谷市人見1975番地",
    "lat": 36.162911,
    "lng": 139.2650551,
    "tel": "048-570-0511",
    "url": "https://healthcare.koubunkai.jp/",
    "pref": "埼玉県",
    "city": "深谷市",
    "category": "rouken",
    "serviceType": "介護老人保健施設",
    "capacity": 0,
    "openDays": [],
    "openDaysNote": ""
  },
  {
    "id": "1154680013",
    "name": "老人保健施設　はなみずき",
    "kana": "ロウジンホケンシセツ　ハナミズキ",
    "address": "埼玉県深谷市柏合1041-1",
    "lat": 36.1850807,
    "lng": 139.2610348,
    "tel": "048-551-1115",
    "url": "http://yuujikai.jp",
    "pref": "埼玉県",
    "city": "深谷市",
    "category": "rouken",
    "serviceType": "介護老人保健施設",
    "capacity": 0,
    "openDays": [],
    "openDaysNote": ""
  },
  {
    "id": "1154280012",
    "name": "老人保健施設　かみかわ",
    "kana": "ロウジンホケンシセツ　カミカワ",
    "address": "埼玉県児玉郡神川町大字新里2783-5",
    "lat": 36.1961227,
    "lng": 139.0937661,
    "tel": "0495-77-2060",
    "url": "http://www.0495771212.or.jp",
    "pref": "埼玉県",
    "city": "神川町",
    "category": "rouken",
    "serviceType": "介護老人保健施設",
    "capacity": 0,
    "openDays": [],
    "openDaysNote": ""
  },
  {
    "id": "1150480091",
    "name": "医療法人　泰一会　介護老人保健施設　はつかり",
    "kana": "イリョウホウジン　タイイチカイ　カイゴロウジンホケンシセツ　ハツカリ",
    "address": "埼玉県川越市大字松郷821-1",
    "lat": 35.9220370862878,
    "lng": 139.498597088766,
    "tel": "049-298-8277",
    "url": "http://www.hatsukari.or.jp/",
    "pref": "埼玉県",
    "city": "川越市",
    "category": "rouken",
    "serviceType": "介護老人保健施設",
    "capacity": 100,
    "openDays": [],
    "openDaysNote": ""
  },
  {
    "id": "1150480046",
    "name": "介護老人保健施設　ケアハイツ・川越",
    "kana": "カイゴロウジンホケンシセツ　ケアハイツ・カワゴエ",
    "address": "埼玉県川越市古谷本郷１４７５－１",
    "lat": 35.90167,
    "lng": 139.5519828,
    "tel": "049-236-0775",
    "url": "http://www.kawatsuru-g.jp",
    "pref": "埼玉県",
    "city": "川越市",
    "category": "rouken",
    "serviceType": "介護老人保健施設",
    "capacity": 0,
    "openDays": [],
    "openDaysNote": ""
  },
  {
    "id": "1150480075",
    "name": "介護老人保健施設　小江戸の郷",
    "kana": "カイゴロウジンホケンシセツ　コエドノサト",
    "address": "埼玉県川越市上老袋86-1",
    "lat": 35.9467374,
    "lng": 139.5251145,
    "tel": "049-229-5300",
    "url": "http://koedonosato.jp/",
    "pref": "埼玉県",
    "city": "川越市",
    "category": "rouken",
    "serviceType": "介護老人保健施設",
    "capacity": 60,
    "openDays": [],
    "openDaysNote": ""
  },
  {
    "id": "1150480053",
    "name": "介護老人保健施設　瑞穂の里",
    "kana": "カイゴロウジンホケンシセツ　ミズホノサト",
    "address": "埼玉県川越市中台元町1-16-11",
    "lat": 35.8913385,
    "lng": 139.4817505,
    "tel": "049-241-3240",
    "url": "http://www.mizuhokai.or.jp",
    "pref": "埼玉県",
    "city": "川越市",
    "category": "rouken",
    "serviceType": "介護老人保健施設",
    "capacity": 0,
    "openDays": [],
    "openDaysNote": ""
  },
  {
    "id": "1150480020",
    "name": "介護老人保健施設　川越ケアセンター",
    "kana": "カイゴロウジンホケンシセツ　カワゴエケアセンター",
    "address": "埼玉県川越市下広谷527-1",
    "lat": 35.9523383,
    "lng": 139.4339347,
    "tel": "049-234-1162",
    "url": "https://mcp-net.jp/kawagoe-care-center/",
    "pref": "埼玉県",
    "city": "川越市",
    "category": "rouken",
    "serviceType": "介護老人保健施設",
    "capacity": 100,
    "openDays": [],
    "openDaysNote": ""
  },
  {
    "id": "1150480012",
    "name": "介護老人保健施設プライムケア川越",
    "kana": "カイゴロウジンホケンシセツプライムケアカワゴエ",
    "address": "埼玉県川越市天沼新田３０７－１",
    "lat": 35.9377742,
    "lng": 139.432721,
    "tel": "049-231-4165",
    "url": "",
    "pref": "埼玉県",
    "city": "川越市",
    "category": "rouken",
    "serviceType": "介護老人保健施設",
    "capacity": null,
    "openDays": [],
    "openDaysNote": ""
  },
  {
    "id": "1150280137",
    "name": "介護老人保健施設　かわぐちナーシングホーム",
    "kana": "カイゴロウジンホケンシセツ　カワグチナーシングホーム",
    "address": "埼玉県川口市大字西新井宿1022番地の1",
    "lat": 35.8521966,
    "lng": 139.7315941,
    "tel": "048-498-3111",
    "url": "https://kawaguchi-nh.net",
    "pref": "埼玉県",
    "city": "川口市",
    "category": "rouken",
    "serviceType": "介護老人保健施設",
    "capacity": null,
    "openDays": [],
    "openDaysNote": ""
  },
  {
    "id": "1150280057",
    "name": "介護老人保健施設　グリーンビレッジ安行",
    "kana": "カイゴロウジンホケンシセツ　グリーンビレッジアンギョウ",
    "address": "埼玉県川口市大字安行１１４５番地",
    "lat": 35.8497295,
    "lng": 139.7580419,
    "tel": "048-299-0018",
    "url": "http://gv-angyo.jp/",
    "pref": "埼玉県",
    "city": "川口市",
    "category": "rouken",
    "serviceType": "介護老人保健施設",
    "capacity": 0,
    "openDays": [],
    "openDaysNote": ""
  },
  {
    "id": "1150280024",
    "name": "介護老人保健施設　ミレニアムマッシーランド",
    "kana": "カイゴロウジンホケンシセツ　ミレニアムマッシーランド",
    "address": "埼玉県川口市新井宿802-5",
    "lat": 35.8423961,
    "lng": 139.7287725,
    "tel": "048-288-5700",
    "url": "https://mashiko.or.jp/mashyland/",
    "pref": "埼玉県",
    "city": "川口市",
    "category": "rouken",
    "serviceType": "介護老人保健施設",
    "capacity": 150,
    "openDays": [],
    "openDaysNote": ""
  },
  {
    "id": "1150280032",
    "name": "介護老人保健施設厚生会川口ケアセンター",
    "kana": "カイゴロウジンホケンシセツコウセイカイカワグチケアセンター",
    "address": "埼玉県川口市大字西新井宿１２７１－１",
    "lat": 35.8525506,
    "lng": 139.7363187,
    "tel": "048-291-3370",
    "url": "http://www.saitamakousei.com/",
    "pref": "埼玉県",
    "city": "川口市",
    "category": "rouken",
    "serviceType": "介護老人保健施設",
    "capacity": 0,
    "openDays": [],
    "openDaysNote": ""
  },
  {
    "id": "1150280040",
    "name": "老健ねぎしケアセンター",
    "kana": "ロウケンネギシケアセンター",
    "address": "埼玉県川口市安行領根岸２３５３",
    "lat": 35.8431291,
    "lng": 139.723523,
    "tel": "048-286-7911",
    "url": "https://hatogaya-hp.or.jp/negishi/",
    "pref": "埼玉県",
    "city": "川口市",
    "category": "rouken",
    "serviceType": "介護老人保健施設",
    "capacity": 98,
    "openDays": [],
    "openDaysNote": ""
  },
  {
    "id": "1153280021",
    "name": "医療法人　啓仁会　介護老人保健施設　平成の森",
    "kana": "イリョウホウジン　ケイジンカイ　カイゴロウジンホケンシセツ　ヘイセイノモリ",
    "address": "埼玉県比企郡川島町大字畑中４７８番地１",
    "lat": 35.991899,
    "lng": 139.4900947,
    "tel": "049-297-8808",
    "url": "https://www.heisei-mori.jp/",
    "pref": "埼玉県",
    "city": "川島町",
    "category": "rouken",
    "serviceType": "介護老人保健施設",
    "capacity": 0,
    "openDays": [],
    "openDaysNote": ""
  },
  {
    "id": "1151880038",
    "name": "医療法人財団明理会　介護老人保健施設　草加ロイヤルケアセンター",
    "kana": "イリョウホウジンザイダンメイリカイ　カイゴロウジンホケンシセツソウカロイヤルケアセンター",
    "address": "埼玉県草加市柿木町123-2",
    "lat": 35.8581031,
    "lng": 139.8345462,
    "tel": "048-930-5591",
    "url": "http://www.ims.gr.jp/souka-royal",
    "pref": "埼玉県",
    "city": "草加市",
    "category": "rouken",
    "serviceType": "介護老人保健施設",
    "capacity": 152,
    "openDays": [],
    "openDaysNote": ""
  },
  {
    "id": "1151880020",
    "name": "医療法人社団友勝会　介護老人保健施設みどりの館",
    "kana": "イリョウホウジンシャダンユウショウカイ　カイゴロウジンホケンシセツミドリノヤカタ",
    "address": "草加市谷塚町2000番地",
    "lat": 35.8219689,
    "lng": 139.7916702,
    "tel": "048-922-1335",
    "url": "http://www.midorino-yakata.or.jp",
    "pref": "埼玉県",
    "city": "草加市",
    "category": "rouken",
    "serviceType": "介護老人保健施設",
    "capacity": 84,
    "openDays": [],
    "openDaysNote": ""
  },
  {
    "id": "1151880012",
    "name": "介護老人保健施設　翔寿苑",
    "kana": "カイゴロウジンホケンシセツ　ショウジュエン",
    "address": "埼玉県草加市青柳8-51-13",
    "lat": 35.8606219,
    "lng": 139.8192138,
    "tel": "048-932-0011",
    "url": "http://www.shinko-kai.or.jp",
    "pref": "埼玉県",
    "city": "草加市",
    "category": "rouken",
    "serviceType": "介護老人保健施設",
    "capacity": 0,
    "openDays": [],
    "openDaysNote": ""
  },
  {
    "id": "1154980025",
    "name": "介護老人保健施設うらら",
    "kana": "カイゴロウジンホケンシセツウララ",
    "address": "秩父市中村町3-6-24",
    "lat": 36.0002957,
    "lng": 139.0738676,
    "tel": "0494-27-0250",
    "url": "http://www.shunjinkai.or.jp",
    "pref": "埼玉県",
    "city": "秩父市",
    "category": "rouken",
    "serviceType": "介護老人保健施設",
    "capacity": 0,
    "openDays": [],
    "openDaysNote": ""
  },
  {
    "id": "1154980039",
    "name": "介護老人保健施設エスポワール秩父",
    "kana": "カイゴロウジンホケンシセツエスポワールチチブ",
    "address": "埼玉県秩父市寺尾2744",
    "lat": 36.0256705,
    "lng": 139.0789654,
    "tel": "0494-22-7026",
    "url": "https://www.esp-chichibu.com/",
    "pref": "埼玉県",
    "city": "秩父市",
    "category": "rouken",
    "serviceType": "介護老人保健施設",
    "capacity": null,
    "openDays": [],
    "openDaysNote": ""
  },
  {
    "id": "1152180004",
    "name": "介護老人保健施設　グリーンビレッジ朝霞台",
    "kana": "カイゴロウジンホケンシセツグリーンビレッジアサカダイ",
    "address": "埼玉県朝霞市大字宮戸3番地",
    "lat": 35.8208051291329,
    "lng": 139.602095011098,
    "tel": "048-486-6622",
    "url": "http://gv-asakadai.jp",
    "pref": "埼玉県",
    "city": "朝霞市",
    "category": "rouken",
    "serviceType": "介護老人保健施設",
    "capacity": 150,
    "openDays": [],
    "openDaysNote": ""
  },
  {
    "id": "1152180016",
    "name": "介護老人保健施設　ケアライフ朝霞",
    "kana": "カイゴロウジンホケンシセツ　ケアライフアサカ",
    "address": "埼玉県朝霞市溝沼２－４－１０",
    "lat": 35.8009406,
    "lng": 139.5896696,
    "tel": "048-467-1711",
    "url": "https://yamayanagi.or.jp/carelife_asaka/",
    "pref": "埼玉県",
    "city": "朝霞市",
    "category": "rouken",
    "serviceType": "介護老人保健施設",
    "capacity": 125,
    "openDays": [],
    "openDaysNote": ""
  },
  {
    "id": "1152180024",
    "name": "介護老人保健施設　つつじの郷",
    "kana": "カイゴロウジンホケンシセツツツジノサト",
    "address": "埼玉県朝霞市下内間木１３６３－１",
    "lat": 35.817756,
    "lng": 139.6176527,
    "tel": "048-458-1117",
    "url": "http://wakabakai-medical.com/",
    "pref": "埼玉県",
    "city": "朝霞市",
    "category": "rouken",
    "serviceType": "介護老人保健施設",
    "capacity": 0,
    "openDays": [],
    "openDaysNote": ""
  },
  {
    "id": "1154880007",
    "name": "縄文の里　長瀞倶楽部",
    "kana": "ジョウモンノサト　ナガトロクラブ",
    "address": "埼玉県秩父郡長瀞町岩田587番地",
    "lat": 36.1295401,
    "lng": 139.1242314,
    "tel": "0494-66-0000",
    "url": "http://www.ishin-kai.or.jp",
    "pref": "埼玉県",
    "city": "長瀞町",
    "category": "rouken",
    "serviceType": "介護老人保健施設",
    "capacity": 81,
    "openDays": [],
    "openDaysNote": ""
  },
  {
    "id": "1156280010",
    "name": "介護老人保健施設　鶴ヶ島ケアホーム",
    "kana": "カイゴロウジンホケンシセツ　ツルガシマケアホーム",
    "address": "埼玉県鶴ヶ島市脚折１８７７",
    "lat": 35.9349952,
    "lng": 139.3855877,
    "tel": "049-271-5121",
    "url": "http://tsurucare.wixsite.com/tsurucarehome",
    "pref": "埼玉県",
    "city": "鶴ヶ島市",
    "category": "rouken",
    "serviceType": "介護老人保健施設",
    "capacity": 0,
    "openDays": [],
    "openDaysNote": ""
  },
  {
    "id": "1153380033",
    "name": "介護老人保健施設　わかばの丘",
    "kana": "カイゴロウジンホケンシセツ　ワカバノオカ",
    "address": "埼玉県東松山市毛塚773",
    "lat": 35.9939315,
    "lng": 139.3983279,
    "tel": "0493-31-0011",
    "url": "http://www.wakaba-group.or.jp",
    "pref": "埼玉県",
    "city": "東松山市",
    "category": "rouken",
    "serviceType": "介護老人保健施設",
    "capacity": 0,
    "openDays": [],
    "openDaysNote": ""
  },
  {
    "id": "1153380041",
    "name": "介護老人保健施設東松山市総合福祉エリア",
    "kana": "カイゴロウジンホケンシセツヒガシマツヤマシソウゴウフクシエリア",
    "address": "埼玉県東松山市大字松山２１８３",
    "lat": 36.0528113,
    "lng": 139.4018247,
    "tel": "0493-21-5556",
    "url": "http://www.smile-shakyo.jp/",
    "pref": "埼玉県",
    "city": "東松山市",
    "category": "rouken",
    "serviceType": "介護老人保健施設",
    "capacity": 0,
    "openDays": [],
    "openDaysNote": ""
  },
  {
    "id": "1154880019",
    "name": "介護老人保健施設　みどうの杜",
    "kana": "カイゴロウジンホケンシセツ　ミドウノモリ",
    "address": "埼玉県秩父郡東秩父村大字御堂１４５６－４",
    "lat": 36.052732,
    "lng": 139.2013006,
    "tel": "0493-82-1780",
    "url": "http://www.mhp.or.jp/midou/",
    "pref": "埼玉県",
    "city": "東秩父村",
    "category": "rouken",
    "serviceType": "介護老人保健施設",
    "capacity": 100,
    "openDays": [],
    "openDaysNote": ""
  },
  {
    "id": "1156380018",
    "name": "介護老人保健施設　日高の里",
    "kana": "カイゴロウジンホケンシセツ　ヒダカノサト",
    "address": "埼玉県日高市大字久保９６－１",
    "lat": 35.8830514,
    "lng": 139.3005948,
    "tel": "042-982-3333",
    "url": "http://www.hidakanosato.com/",
    "pref": "埼玉県",
    "city": "日高市",
    "category": "rouken",
    "serviceType": "介護老人保健施設",
    "capacity": 100,
    "openDays": [],
    "openDaysNote": ""
  },
  {
    "id": "1152880058",
    "name": "医療法人泰一会　　介護老人保健施設いるまの里",
    "kana": "イリョウホウジンタイイチカイ　カイゴロウジンホケンシセツイルマノサト",
    "address": "埼玉県入間市野田１６３０",
    "lat": 35.847538,
    "lng": 139.3467797,
    "tel": "04-2933-1000",
    "url": "http://irumanosato.jp",
    "pref": "埼玉県",
    "city": "入間市",
    "category": "rouken",
    "serviceType": "介護老人保健施設",
    "capacity": 0,
    "openDays": [],
    "openDaysNote": ""
  },
  {
    "id": "1152880029",
    "name": "介護老人保健施設　アヴニール",
    "kana": "カイゴロウジンホケンシセツ　アウ゛ニール",
    "address": "埼玉県入間市二本木1082-1",
    "lat": 35.7960723,
    "lng": 139.3582666,
    "tel": "04-2934-6910",
    "url": "https://saiyukai.jp/avenir",
    "pref": "埼玉県",
    "city": "入間市",
    "category": "rouken",
    "serviceType": "介護老人保健施設",
    "capacity": 0,
    "openDays": [],
    "openDaysNote": ""
  },
  {
    "id": "1152880011",
    "name": "介護老人保健施設　ケアセンターなごみ",
    "kana": "カイゴロウジンホケンシセツ　ケアセンターナゴミ",
    "address": "埼玉県入間市大字小谷田１２５８番地１",
    "lat": 35.8110654,
    "lng": 139.375015,
    "tel": "04-2934-5077",
    "url": "https://www.eijinkai.jp/care/nagomicenter.html",
    "pref": "埼玉県",
    "city": "入間市",
    "category": "rouken",
    "serviceType": "介護老人保健施設",
    "capacity": 84,
    "openDays": [],
    "openDaysNote": ""
  },
  {
    "id": "1152880037",
    "name": "介護老人保健施設　ゆりの木",
    "kana": "カイゴロウジンホケンシセツ　ユリノキ",
    "address": "埼玉県入間市宮寺3187番地31",
    "lat": 35.8106294,
    "lng": 139.3755816,
    "tel": "04-2934-5055",
    "url": "https://www.eijinkai.jp/care/yurinoki.html",
    "pref": "埼玉県",
    "city": "入間市",
    "category": "rouken",
    "serviceType": "介護老人保健施設",
    "capacity": 100,
    "openDays": [],
    "openDaysNote": ""
  },
  {
    "id": "1150580027",
    "name": "介護老人保健施設　ぽっかぽか",
    "kana": "カイゴロウジンホケンシセツ　ポッカポカ",
    "address": "白岡市上野田357-1",
    "lat": 36.0172952,
    "lng": 139.684097,
    "tel": "0480-90-5666",
    "url": "http://www.taijukai.com",
    "pref": "埼玉県",
    "city": "白岡市",
    "category": "rouken",
    "serviceType": "介護老人保健施設",
    "capacity": 0,
    "openDays": [],
    "openDaysNote": ""
  },
  {
    "id": "1151080019",
    "name": "介護老人保健施設　ケアセンター八潮",
    "kana": "カイゴロウジンホケンシセツ　ケアセンターヤシオ",
    "address": "埼玉県八潮市鶴ヶ曽根１１８４－４",
    "lat": 35.8266742,
    "lng": 139.8365387,
    "tel": "048-998-2220",
    "url": "http://www.cc-yashio.jp",
    "pref": "埼玉県",
    "city": "八潮市",
    "category": "rouken",
    "serviceType": "介護老人保健施設",
    "capacity": 0,
    "openDays": [],
    "openDaysNote": ""
  },
  {
    "id": "1152680023",
    "name": "介護老人保健施設　飯能リハビリ館",
    "kana": "カイゴロウジンホケンシセツ　ハンノウリハビリカン",
    "address": "埼玉県飯能市下畑296",
    "lat": 35.8362016,
    "lng": 139.2939709,
    "tel": "042-974-6000",
    "url": "http://www.rihabili-kan.com",
    "pref": "埼玉県",
    "city": "飯能市",
    "category": "rouken",
    "serviceType": "介護老人保健施設",
    "capacity": 0,
    "openDays": [],
    "openDaysNote": ""
  },
  {
    "id": "1152680015",
    "name": "飯能ケアセンター　楠苑",
    "kana": "ハンノウケアセンター　クスノキエン",
    "address": "飯能市大字落合458番地1",
    "lat": 35.8362999644091,
    "lng": 139.313496189549,
    "tel": "042-975-1601",
    "url": "https://kusunoki-en.jp/",
    "pref": "埼玉県",
    "city": "飯能市",
    "category": "rouken",
    "serviceType": "介護老人保健施設",
    "capacity": 98,
    "openDays": [],
    "openDaysNote": ""
  },
  {
    "id": "1152680045",
    "name": "飯能市東吾野医療介護センター",
    "kana": "ハンノウシヒガシアガノイリョウカイゴセンター",
    "address": "飯能市大字虎秀25-1飯能市東吾野医療介護センター 飯能市東吾野医療介護センター",
    "lat": 35.8946973,
    "lng": 139.2606476,
    "tel": "042-978-2000",
    "url": "https://h2mc-center.jp/",
    "pref": "埼玉県",
    "city": "飯能市",
    "category": "rouken",
    "serviceType": "介護老人保健施設",
    "capacity": 0,
    "openDays": [],
    "openDaysNote": ""
  },
  {
    "id": "1152980049",
    "name": "医療法人恵雄会　介護老人保健施設　鶴瀬台の里",
    "kana": "イリョウホウジン　ケイユウカイ　カイゴロウジンホケンシセツ　ツルセダイノサト",
    "address": "埼玉県富士見市鶴瀬西2-8-32",
    "lat": 35.8461781091767,
    "lng": 139.533654679623,
    "tel": "049-253-6610",
    "url": "http；//www.kawatsuru-ｇ.ｊｐ",
    "pref": "埼玉県",
    "city": "富士見市",
    "category": "rouken",
    "serviceType": "介護老人保健施設",
    "capacity": 104,
    "openDays": [],
    "openDaysNote": ""
  },
  {
    "id": "1152980031",
    "name": "介護老人保健施設　葵の園・富士見",
    "kana": "カイゴロウジンホケンシセツ　アオイノソノ・フジミ",
    "address": "埼玉県富士見市勝瀬937番地3",
    "lat": 35.8671125,
    "lng": 139.5346077,
    "tel": "049-256-6500",
    "url": "http://www.aoikai.jp",
    "pref": "埼玉県",
    "city": "富士見市",
    "category": "rouken",
    "serviceType": "介護老人保健施設",
    "capacity": 0,
    "openDays": [],
    "openDaysNote": ""
  },
  {
    "id": "1152980019",
    "name": "介護老人保健施設　富士見の里",
    "kana": "カイゴロウジンホケンシセツ　フジミノサト",
    "address": "富士見市みどり野南３－１",
    "lat": 35.8661104,
    "lng": 139.5633055,
    "tel": "049-275-8055",
    "url": "http://www.kawatsuru-g.jp",
    "pref": "埼玉県",
    "city": "富士見市",
    "category": "rouken",
    "serviceType": "介護老人保健施設",
    "capacity": 0,
    "openDays": [],
    "openDaysNote": ""
  },
  {
    "id": "1155380027",
    "name": "カントリーハーベスト北本",
    "kana": "カントリーハーベストキタモト",
    "address": "埼玉県北本市石戸宿5-236",
    "lat": 36.0019931,
    "lng": 139.5090914,
    "tel": "048-593-7111",
    "url": "http://www.countryharvest.jp/",
    "pref": "埼玉県",
    "city": "北本市",
    "category": "rouken",
    "serviceType": "介護老人保健施設",
    "capacity": 100,
    "openDays": [],
    "openDaysNote": ""
  },
  {
    "id": "1155380019",
    "name": "介護老人保健施設　いこいの家",
    "kana": "カイゴロウジンホケンシセツイコイノイエ",
    "address": "北本市本町６－２３２",
    "lat": 36.0272872,
    "lng": 139.528139,
    "tel": "048-592-0712",
    "url": "http://www.hokujukai.or.jp",
    "pref": "埼玉県",
    "city": "北本市",
    "category": "rouken",
    "serviceType": "介護老人保健施設",
    "capacity": 0,
    "openDays": [],
    "openDaysNote": ""
  },
  {
    "id": "1154380010",
    "name": "介護老人保健施設本庄ナーシングホーム",
    "kana": "カイゴロウジンホケンシセツホンジョウナーシングホーム",
    "address": "埼玉県本庄市小島五丁目６番１号",
    "lat": 36.2487194,
    "lng": 139.1751585,
    "tel": "0495-21-7878",
    "url": "https://saihoku.jp/honjou-nh",
    "pref": "埼玉県",
    "city": "本庄市",
    "category": "rouken",
    "serviceType": "介護老人保健施設",
    "capacity": 0,
    "openDays": [],
    "openDaysNote": ""
  },
  {
    "id": "1154380028",
    "name": "老人保健施設　彩の苑",
    "kana": "ロウジンホケンシセツ　アヤノソノ",
    "address": "埼玉県本庄市千代田1-1-21",
    "lat": 36.2396758,
    "lng": 139.1822718,
    "tel": "0495-23-3988",
    "url": "http://www.ayanosono.com/",
    "pref": "埼玉県",
    "city": "本庄市",
    "category": "rouken",
    "serviceType": "介護老人保健施設",
    "capacity": 0,
    "openDays": [],
    "openDaysNote": ""
  },
  {
    "id": "1152480036",
    "name": "介護老人保健施設　薫風園",
    "kana": "カイゴロウジンホケンシセツ　クンプウエン",
    "address": "埼玉県入間郡毛呂山町大字毛呂本郷字沢又６９１番地",
    "lat": 35.9381802,
    "lng": 139.306654,
    "tel": "049-276-1945",
    "url": "http://www.mmarukikinen-wmc.or.jp",
    "pref": "埼玉県",
    "city": "毛呂山町",
    "category": "rouken",
    "serviceType": "介護老人保健施設",
    "capacity": 0,
    "openDays": [],
    "openDaysNote": ""
  },
  {
    "id": "1155780024",
    "name": "医療法人名圭会　介護老人保健施設ケアタウンゆうゆう",
    "kana": "イリョウホウジンメイケイカイ　カイゴロウジンホケンシセツケアタウンユウユウ",
    "address": "埼玉県蓮田市南新宿994-1",
    "lat": 36.0061388,
    "lng": 139.6643658,
    "tel": "048-765-2525",
    "url": "www.caretown-yu-yu.com",
    "pref": "埼玉県",
    "city": "蓮田市",
    "category": "rouken",
    "serviceType": "介護老人保健施設",
    "capacity": null,
    "openDays": [],
    "openDaysNote": ""
  },
  {
    "id": "1155780010",
    "name": "蓮田ナーシングホーム翔裕園",
    "kana": "ハスダナーシングホームショウユウエン",
    "address": "埼玉県蓮田市大字閏戸字吹上１８２６－１",
    "lat": 36.0023207761882,
    "lng": 139.643012441697,
    "tel": "048-765-1361",
    "url": "http://www.genkimuragroup.jp/genkimura/hasuda-nh/",
    "pref": "埼玉県",
    "city": "蓮田市",
    "category": "rouken",
    "serviceType": "介護老人保健施設",
    "capacity": 0,
    "openDays": [],
    "openDaysNote": ""
  },
  {
    "id": "1152380026",
    "name": "老人保健施設ナーシングホーム和光",
    "kana": "ロウジンホケンシセツ　ナーシングホームワコウ",
    "address": "和光市新倉８－２３－１",
    "lat": 35.8017751,
    "lng": 139.6320102,
    "tel": "048-468-3355",
    "url": "http://www.fukusi.or.jp/",
    "pref": "埼玉県",
    "city": "和光市",
    "category": "rouken",
    "serviceType": "介護老人保健施設",
    "capacity": 0,
    "openDays": [],
    "openDaysNote": ""
  },
  {
    "id": "1151480017",
    "name": "介護老人保健施設　グリーンビレッジ蕨",
    "kana": "カイゴロウジンホケンシセツ　グリーンビレッジワラビ",
    "address": "埼玉県蕨市北町五丁目13番6号",
    "lat": 35.8344074,
    "lng": 139.6686865,
    "tel": "048-443-5001",
    "url": "http://gv-warabi.jp/",
    "pref": "埼玉県",
    "city": "蕨市",
    "category": "rouken",
    "serviceType": "介護老人保健施設",
    "capacity": 0,
    "openDays": [],
    "openDaysNote": ""
  }
]