[
  {
    "id": "4451180022",
    "name": "介護老人保健施設　和光園",
    "kana": "カイゴロウジンホケンシセツ　ワコウエン",
    "address": "大分県宇佐市大字出光195番地介護老人保健施設　和光園 介護老人保健施設　和光園",
    "lat": 33.5296789,
    "lng": 131.4111853,
    "tel": "0978-37-3887",
    "url": "https://wadahp.com/wakouen/",
    "pref": "大分県",
    "city": "宇佐市",
    "category": "rouken",
    "serviceType": "介護老人保健施設",
    "capacity": 50,
    "openDays": [],
    "openDaysNote": ""
  },
  {
    "id": "4451180014",
    "name": "介護老人保健施設オアシス宇佐",
    "kana": "カイゴロウジンホケンシセツオアシスウサ",
    "address": "大分県宇佐市大字和気１８５番地",
    "lat": 33.538066405097,
    "lng": 131.390788125795,
    "tel": "0978-37-3001",
    "url": "https://oashisu-usa.com/",
    "pref": "大分県",
    "city": "宇佐市",
    "category": "rouken",
    "serviceType": "介護老人保健施設",
    "capacity": 0,
    "openDays": [],
    "openDaysNote": ""
  },
  {
    "id": "4451180006",
    "name": "介護老人保健施設清流荘",
    "kana": "カイゴロウジンホケンシセツセイリュウソウ",
    "address": "大分県宇佐市大字山本1658",
    "lat": 33.5081019,
    "lng": 131.327639,
    "tel": "0978-33-5200",
    "url": "https://ritsuseikai.com/care",
    "pref": "大分県",
    "city": "宇佐市",
    "category": "rouken",
    "serviceType": "介護老人保健施設",
    "capacity": 0,
    "openDays": [],
    "openDaysNote": ""
  },
  {
    "id": "4450680030",
    "name": "臼杵市医師会介護老人保健施設南山園",
    "kana": "ウスキシイシカイカイゴロウジンホケンシセツナンザンエン",
    "address": "大分県臼杵市大字海添250番地",
    "lat": 33.113235,
    "lng": 131.802397,
    "tel": "0972-62-8151",
    "url": "http://www.usukicosmos-med.or.jp",
    "pref": "大分県",
    "city": "臼杵市",
    "category": "rouken",
    "serviceType": "介護老人保健施設",
    "capacity": 0,
    "openDays": [],
    "openDaysNote": ""
  },
  {
    "id": "4450680014",
    "name": "介護老人保健施設　臼杵福寿苑",
    "kana": "カイゴロウジンホケンシセツ　ウスキフクジュエン",
    "address": "大分県臼杵市大字末広285番地",
    "lat": 33.1353426,
    "lng": 131.7769883,
    "tel": "0972-62-8800",
    "url": "",
    "pref": "大分県",
    "city": "臼杵市",
    "category": "rouken",
    "serviceType": "介護老人保健施設",
    "capacity": 0,
    "openDays": [],
    "openDaysNote": ""
  },
  {
    "id": "4450680022",
    "name": "介護老人保健施設　幸寿院",
    "kana": "カイゴロウジンホケンシセツ　コウジュイン",
    "address": "大分県臼杵市大字市浜694番地の1",
    "lat": 33.1198783,
    "lng": 131.7920925,
    "tel": "0972‐62‐3136",
    "url": "",
    "pref": "大分県",
    "city": "臼杵市",
    "category": "rouken",
    "serviceType": "介護老人保健施設",
    "capacity": 0,
    "openDays": [],
    "openDaysNote": ""
  },
  {
    "id": "4451080016",
    "name": "介護老人保健施設　しおはま",
    "kana": "カイゴロウジンホケンシセツ　シオハマ",
    "address": "大分県杵築市大字大内字塩浜7703番地4",
    "lat": 33.4239432,
    "lng": 131.6325974,
    "tel": "0978-66-1330",
    "url": "https://shiohama-rouken.kc-hospital.or.jp/",
    "pref": "大分県",
    "city": "杵築市",
    "category": "rouken",
    "serviceType": "介護老人保健施設",
    "capacity": 50,
    "openDays": [],
    "openDaysNote": ""
  },
  {
    "id": "4471000648",
    "name": "介護老人保健施設　梅桃",
    "kana": "カイゴロウジンホケンシセツ　ユスラ",
    "address": "大字大内字塩浜7696番地1",
    "lat": 33.4231006958518,
    "lng": 131.631386917058,
    "tel": "0978-66-1133",
    "url": "https://etoh-g.jp/",
    "pref": "大分県",
    "city": "杵築市",
    "category": "rouken",
    "serviceType": "介護老人保健施設",
    "capacity": 0,
    "openDays": [],
    "openDaysNote": ""
  },
  {
    "id": "4452280011",
    "name": "杵築市介護老人保健施設グリーンケアやまが",
    "kana": "キツキシカイゴロウジンホケンシセツグリーンケアヤマガ",
    "address": "大分県杵築市山香町大字野原1612番地1杵築市介護老人保健施設グリーンケアやまが 杵築市介護老人保健施設グリーンケアやまが",
    "lat": 33.445336,
    "lng": 131.5086434,
    "tel": "0977-75-2341",
    "url": "http://www.yamaga-hp.jp/",
    "pref": "大分県",
    "city": "杵築市",
    "category": "rouken",
    "serviceType": "介護老人保健施設",
    "capacity": null,
    "openDays": [],
    "openDaysNote": ""
  },
  {
    "id": "4451080008",
    "name": "大分県厚生連介護老人保健施設しおはま",
    "kana": "オオイタケンコウセイレンカイゴロウジンホケンシセツシオハマ",
    "address": "大分県杵築市大字大内字塩浜７７０３番地４",
    "lat": 33.4229619,
    "lng": 131.6321433,
    "tel": "０９７８－６６－１３３０",
    "url": "http://www.ok-shiohama.com/index.html",
    "pref": "大分県",
    "city": "杵築市",
    "category": "rouken",
    "serviceType": "介護老人保健施設",
    "capacity": null,
    "openDays": [],
    "openDaysNote": ""
  },
  {
    "id": "4452880000",
    "name": "介護老人保健施設ケアポート渓和",
    "kana": "カイゴロウジンホケンシセツ　ケアポート　ケイワ",
    "address": "大分県玖珠郡九重町大字町田５４８１－３",
    "lat": 33.2306876,
    "lng": 131.1835752,
    "tel": "０９７３－７８－８０００",
    "url": "http://www.careport-keiwa.jp",
    "pref": "大分県",
    "city": "九重町",
    "category": "rouken",
    "serviceType": "介護老人保健施設",
    "capacity": 0,
    "openDays": [],
    "openDaysNote": ""
  },
  {
    "id": "4452880018",
    "name": "一般社団法人　玖珠郡医師会立　老人保健施設　はね",
    "kana": "イッパンシャダンホウジンクスグンイシカイリツ　ロウジンホケンシセツハネ",
    "address": "大分県玖珠郡玖珠町大字山田2696",
    "lat": 33.2790735,
    "lng": 131.1300621,
    "tel": "0973-72-5550",
    "url": "http://hane.in/",
    "pref": "大分県",
    "city": "玖珠町",
    "category": "rouken",
    "serviceType": "介護老人保健施設",
    "capacity": 0,
    "openDays": [],
    "openDaysNote": ""
  },
  {
    "id": "4452180021",
    "name": "介護老人保健施設　大樹",
    "kana": "カイゴロウジンホケンシセツ　タイジュ",
    "address": "大分県国東市国見町伊美2617番地２介護老人保健施設　大樹 介護老人保健施設　大樹",
    "lat": 33.6845323,
    "lng": 131.5972574,
    "tel": "0978-73-4021",
    "url": "http://www.horita.or.jp/index.html",
    "pref": "大分県",
    "city": "国東市",
    "category": "rouken",
    "serviceType": "介護老人保健施設",
    "capacity": 50,
    "openDays": [],
    "openDaysNote": ""
  },
  {
    "id": "4471400087",
    "name": "介護老人保険施設メディケアまほろば苑",
    "kana": "カイゴロウウジンホケンシセツメディケアマホロバエン",
    "address": "国東町田深６６５－４",
    "lat": 33.5684796,
    "lng": 131.7285932,
    "tel": "０９７８－７２－０４３３",
    "url": "http://www.suetsuna-clinic.jp/clinic.htm",
    "pref": "大分県",
    "city": "国東市",
    "category": "rouken",
    "serviceType": "介護老人保健施設",
    "capacity": 0,
    "openDays": [],
    "openDaysNote": ""
  },
  {
    "id": "4452180005",
    "name": "介護老人保険施設メディケア亀寿苑",
    "kana": "カイゴロウジンホケシセツメディケアキジュエン",
    "address": "大分県国東市国東町田深６６５番地１",
    "lat": 33.5681269,
    "lng": 131.7290071,
    "tel": "０９７８－７２－１０１０",
    "url": "http://www.suetsuna-clinic:jp/",
    "pref": "大分県",
    "city": "国東市",
    "category": "rouken",
    "serviceType": "介護老人保健施設",
    "capacity": 0,
    "openDays": [],
    "openDaysNote": ""
  },
  {
    "id": "4452180013",
    "name": "老人保健施設ウェルハウスしらさぎ",
    "kana": "ロウジンホケンシセツウェルハウスシラサギ",
    "address": "大分県国東市安岐町瀬戸田1035番地9",
    "lat": 33.4730443,
    "lng": 131.684871,
    "tel": "0978-67-3646",
    "url": "https://roken-shirasagi.com/",
    "pref": "大分県",
    "city": "国東市",
    "category": "rouken",
    "serviceType": "介護老人保健施設",
    "capacity": 0,
    "openDays": [],
    "openDaysNote": ""
  },
  {
    "id": "4450580032",
    "name": "介護老人保健施設　ユニット鶴見の太陽",
    "kana": "カイゴロウジンホケンシセツ　ユニットツルミノタイヨウ",
    "address": "大分県佐伯市鶴見大字沖松浦51番地",
    "lat": 32.9415545,
    "lng": 131.9626886,
    "tel": "0972-33-1501",
    "url": "http://www.saikichuo.net/",
    "pref": "大分県",
    "city": "佐伯市",
    "category": "rouken",
    "serviceType": "介護老人保健施設",
    "capacity": 0,
    "openDays": [],
    "openDaysNote": ""
  },
  {
    "id": "4450580040",
    "name": "介護老人保健施設　鶴見の太陽",
    "kana": "カイゴロウジンホケンシセツ　ツルミノタイヨウ",
    "address": "大分県佐伯市鶴見大字沖松浦51番地",
    "lat": 32.9415545,
    "lng": 131.9626886,
    "tel": "0972-33-1501",
    "url": "http://www.saikichuo.net/",
    "pref": "大分県",
    "city": "佐伯市",
    "category": "rouken",
    "serviceType": "介護老人保健施設",
    "capacity": 0,
    "openDays": [],
    "openDaysNote": ""
  },
  {
    "id": "4450580008",
    "name": "介護老人保健施設　鶴望野",
    "kana": "カイゴロウジンホケンシセツ　ツルミノ",
    "address": "大分県佐伯市鶴岡町１丁目１１番５９号",
    "lat": 32.9589333,
    "lng": 131.8817146,
    "tel": "0972-24-3080",
    "url": "http://www.nagato.or.jp",
    "pref": "大分県",
    "city": "佐伯市",
    "category": "rouken",
    "serviceType": "介護老人保健施設",
    "capacity": 0,
    "openDays": [],
    "openDaysNote": ""
  },
  {
    "id": "4450580024",
    "name": "介護老人保健施設　和の風",
    "kana": "カイゴロウジンホケンシセツ　ワノカ",
    "address": "大分県佐伯市大字池田2260-1",
    "lat": 32.9607949,
    "lng": 131.9052737,
    "tel": "0972-24-1201",
    "url": "http://www.nagato.or.jp/",
    "pref": "大分県",
    "city": "佐伯市",
    "category": "rouken",
    "serviceType": "介護老人保健施設",
    "capacity": 0,
    "openDays": [],
    "openDaysNote": ""
  },
  {
    "id": "4450580016",
    "name": "南海医療センター附属介護老人保健施設",
    "kana": "ナンカイイリョウセンターフゾクカイゴロウジンホケンシセツ",
    "address": "大分県佐伯市常盤西町12番6号",
    "lat": 32.9659331,
    "lng": 131.9009351,
    "tel": "0972-20-5090",
    "url": "http://nankai.jcho.go.jp",
    "pref": "大分県",
    "city": "佐伯市",
    "category": "rouken",
    "serviceType": "介護老人保健施設",
    "capacity": 0,
    "openDays": [],
    "openDaysNote": ""
  },
  {
    "id": "4470108574",
    "name": "サテライト型介護老人保健施設メディケア山桜花",
    "kana": "サテライトガタカイゴロウジンホケンシセツメディケアヤマザクラ",
    "address": "大分県大分市大字寒田486番26",
    "lat": 33.1811689,
    "lng": 131.6061427,
    "tel": "097-578-6866",
    "url": "http://tenjukai.com",
    "pref": "大分県",
    "city": "大分市",
    "category": "rouken",
    "serviceType": "介護老人保健施設",
    "capacity": 0,
    "openDays": [],
    "openDaysNote": ""
  },
  {
    "id": "4450180072",
    "name": "リバーサイド百々園",
    "kana": "リバーサイドモモエン",
    "address": "大分県大分市大字津守字山崎2742-1",
    "lat": 33.2108070207947,
    "lng": 131.628970459755,
    "tel": "097-567-6750",
    "url": "https://momoen.jp/",
    "pref": "大分県",
    "city": "大分市",
    "category": "rouken",
    "serviceType": "介護老人保健施設",
    "capacity": 100,
    "openDays": [],
    "openDaysNote": ""
  },
  {
    "id": "4450180049",
    "name": "介護老人保健施設　グリーンライフ",
    "kana": "カイゴロウジンホケンシセツ　グリーンライフ",
    "address": "大分県大分市大字丹生1747",
    "lat": 33.2182993,
    "lng": 131.7033006,
    "tel": "097-593-3950",
    "url": "http://www.fuchinokai.or.jp",
    "pref": "大分県",
    "city": "大分市",
    "category": "rouken",
    "serviceType": "介護老人保健施設",
    "capacity": null,
    "openDays": [],
    "openDaysNote": ""
  },
  {
    "id": "4450180098",
    "name": "介護老人保健施設　コスモス苑",
    "kana": "カイゴロウジンホケンシセツ　コスモスエン",
    "address": "大分県大分市東鶴崎2-3-22",
    "lat": 33.2383334,
    "lng": 131.6961064,
    "tel": "097-527-2660",
    "url": "www.oasis-hp.jp",
    "pref": "大分県",
    "city": "大分市",
    "category": "rouken",
    "serviceType": "介護老人保健施設",
    "capacity": 0,
    "openDays": [],
    "openDaysNote": ""
  },
  {
    "id": "4450100013",
    "name": "介護老人保健施設　さくらハウスぜぜ",
    "kana": "カイゴロウジンホケンシセツ　サクラハウスゼゼ",
    "address": "大分県大分市牧1丁目25番1号",
    "lat": 33.2391308,
    "lng": 131.6381222,
    "tel": "097-503-1882",
    "url": "https://www.sakurazz.or.jp",
    "pref": "大分県",
    "city": "大分市",
    "category": "rouken",
    "serviceType": "介護老人保健施設",
    "capacity": 50,
    "openDays": [],
    "openDaysNote": ""
  },
  {
    "id": "4450180122",
    "name": "介護老人保健施設　サンテラスながとみ",
    "kana": "カイゴロウジンホケンシセツ　サンテラスナガトミ",
    "address": "大分市西大道２丁目２－１",
    "lat": 33.2314219,
    "lng": 131.5960209,
    "tel": "097-545-1718",
    "url": "http://www.nagatomi-cp.com",
    "pref": "大分県",
    "city": "大分市",
    "category": "rouken",
    "serviceType": "介護老人保健施設",
    "capacity": 50,
    "openDays": [],
    "openDaysNote": ""
  },
  {
    "id": "4450180056",
    "name": "介護老人保健施設　メディケアふじが丘",
    "kana": "カイゴロウジンホケンシセツ　メディケアフジガオカ",
    "address": "大分県大分市ふじが丘南一丁目１６番１０号",
    "lat": 33.1776959521331,
    "lng": 131.599761187836,
    "tel": "097-568-3338",
    "url": "",
    "pref": "大分県",
    "city": "大分市",
    "category": "rouken",
    "serviceType": "介護老人保健施設",
    "capacity": 0,
    "openDays": [],
    "openDaysNote": ""
  },
  {
    "id": "4450180023",
    "name": "介護老人保健施設　小野鶴養生院",
    "kana": "カイゴロウジンホケンシセツ　オノヅルヨウジョウイン",
    "address": "大分県大分市大字小野鶴１１５７番地の１",
    "lat": 33.1988818,
    "lng": 131.5681152,
    "tel": "097-542-5500",
    "url": "https://soujyu-oita.con/",
    "pref": "大分県",
    "city": "大分市",
    "category": "rouken",
    "serviceType": "介護老人保健施設",
    "capacity": 100,
    "openDays": [],
    "openDaysNote": ""
  },
  {
    "id": "4450180007",
    "name": "介護老人保健施設　親和園",
    "kana": "カイゴロウジンホケンシセツ　シンワエン",
    "address": "大分県大分市中判田1428番地の1",
    "lat": 33.1670227625978,
    "lng": 131.63151602456,
    "tel": "097-597-3635",
    "url": "https://shinwakai-hosp.com/",
    "pref": "大分県",
    "city": "大分市",
    "category": "rouken",
    "serviceType": "介護老人保健施設",
    "capacity": 95,
    "openDays": [],
    "openDaysNote": ""
  },
  {
    "id": "4450180031",
    "name": "介護老人保健施設　陽光苑",
    "kana": "カイゴロウジンホケンシセツ　ヨウコウエン",
    "address": "大分県大分市大字中戸次4525番地",
    "lat": 33.1556287,
    "lng": 131.6561004,
    "tel": "097-597-2000",
    "url": "http://www.tenshindo.org/",
    "pref": "大分県",
    "city": "大分市",
    "category": "rouken",
    "serviceType": "介護老人保健施設",
    "capacity": null,
    "openDays": [],
    "openDaysNote": ""
  },
  {
    "id": "4470108715",
    "name": "介護老人保健施設せきの郷",
    "kana": "カイゴロウジンホケンシセツセキノサト",
    "address": "大分県大分市大字一尺屋2357番地",
    "lat": 33.2013518,
    "lng": 131.857107,
    "tel": "097-575-8800",
    "url": "http://sekiaikai.jp/",
    "pref": "大分県",
    "city": "大分市",
    "category": "rouken",
    "serviceType": "介護老人保健施設",
    "capacity": 0,
    "openDays": [],
    "openDaysNote": ""
  },
  {
    "id": "4470110026",
    "name": "介護老人保健施設たばる",
    "kana": "カイゴロウジンホケンシセツタバル",
    "address": "大分県大分市大字田原936番地1の1",
    "lat": 33.1841833670013,
    "lng": 131.558861106746,
    "tel": "097-542-4139",
    "url": "https://tabaru-san-ai.com/rouken/",
    "pref": "大分県",
    "city": "大分市",
    "category": "rouken",
    "serviceType": "介護老人保健施設",
    "capacity": 82,
    "openDays": [],
    "openDaysNote": ""
  },
  {
    "id": "4470106644",
    "name": "介護老人保健施設ふない",
    "kana": "カイゴロウジンホケンシセツ　フナイ",
    "address": "大分県大分市府内町1丁目3番23号",
    "lat": 33.2351561401793,
    "lng": 131.609973484656,
    "tel": "097-533-5511",
    "url": "http://inobe.or.jp/funai/",
    "pref": "大分県",
    "city": "大分市",
    "category": "rouken",
    "serviceType": "介護老人保健施設",
    "capacity": 0,
    "openDays": [],
    "openDaysNote": ""
  },
  {
    "id": "4470109960",
    "name": "介護老人保健施設やすらぎ苑",
    "kana": "カイゴロウジンホケンシセツヤスラギエン",
    "address": "大分県大分市大字松岡字道ノ下1946番地",
    "lat": 33.1754635,
    "lng": 131.6716319,
    "tel": "097-520-3535",
    "url": "https://www.sekiaikai.jp/",
    "pref": "大分県",
    "city": "大分市",
    "category": "rouken",
    "serviceType": "介護老人保健施設",
    "capacity": 0,
    "openDays": [],
    "openDaysNote": ""
  },
  {
    "id": "4450180064",
    "name": "介護老人保健施設わさだケアセンター",
    "kana": "カイゴロウジンホケンシセツワサダケアセンター",
    "address": "大分県大分市大字市字大坪11番地の2",
    "lat": 33.3751817,
    "lng": 131.3024679,
    "tel": "097-541-6655",
    "url": "https://wasada-care-center.com",
    "pref": "大分県",
    "city": "大分市",
    "category": "rouken",
    "serviceType": "介護老人保健施設",
    "capacity": 100,
    "openDays": [],
    "openDaysNote": ""
  },
  {
    "id": "4470107360",
    "name": "介護老人保健施設狐兎如庵",
    "kana": "カイゴロウジンホケンシセツ　コトコトアン",
    "address": "大分県大分市大字野田1085番地",
    "lat": 33.198174095744,
    "lng": 131.537233158726,
    "tel": "097-549-7500",
    "url": "https://hakuai.org/sub1/sub2/kotokoto.html",
    "pref": "大分県",
    "city": "大分市",
    "category": "rouken",
    "serviceType": "介護老人保健施設",
    "capacity": 29,
    "openDays": [],
    "openDaysNote": ""
  },
  {
    "id": "4450180114",
    "name": "大分豊寿苑",
    "kana": "オオイタホウジュエン",
    "address": "大分県大分市大字皆春1521番地の1",
    "lat": 33.2359417,
    "lng": 131.6843437,
    "tel": "097-521-0110",
    "url": "http://www.hojuen.jp/",
    "pref": "大分県",
    "city": "大分市",
    "category": "rouken",
    "serviceType": "介護老人保健施設",
    "capacity": 90,
    "openDays": [],
    "openDaysNote": ""
  },
  {
    "id": "4450180130",
    "name": "老健おおつか",
    "kana": "ロウケンオオツカ",
    "address": "大分県大分市中島中央1丁目1番8号",
    "lat": 33.2428799,
    "lng": 131.6127133,
    "tel": "０９７－５２９－５１６６",
    "url": "",
    "pref": "大分県",
    "city": "大分市",
    "category": "rouken",
    "serviceType": "介護老人保健施設",
    "capacity": 0,
    "openDays": [],
    "openDaysNote": ""
  },
  {
    "id": "4470106487",
    "name": "老健めいわ",
    "kana": "ロウケンメイワ",
    "address": "大分県大分市明野北1丁目2番18号",
    "lat": 33.2258495,
    "lng": 131.6558354,
    "tel": "097-551-0044",
    "url": "www.meiwa-hp.jp",
    "pref": "大分県",
    "city": "大分市",
    "category": "rouken",
    "serviceType": "介護老人保健施設",
    "capacity": 29,
    "openDays": [],
    "openDaysNote": ""
  },
  {
    "id": "4450180015",
    "name": "老人保健施設メディトピアこが",
    "kana": "ロウジンホケンシセツメディトピアコガ",
    "address": "大分県大分市南鶴崎2丁目6番22号",
    "lat": 33.2390583,
    "lng": 131.6903458,
    "tel": "097-521-6151",
    "url": "http://www.kakuyukai.com/",
    "pref": "大分県",
    "city": "大分市",
    "category": "rouken",
    "serviceType": "介護老人保健施設",
    "capacity": 0,
    "openDays": [],
    "openDaysNote": ""
  },
  {
    "id": "4450180106",
    "name": "老人保健施設やすらぎ苑",
    "kana": "ロウジンホケンシセツヤスラギエン",
    "address": "大分県大分市大字松岡字道ノ下１９４６番地",
    "lat": 33.1753669230407,
    "lng": 131.671036420238,
    "tel": "097-520-3535",
    "url": "",
    "pref": "大分県",
    "city": "大分市",
    "category": "rouken",
    "serviceType": "介護老人保健施設",
    "capacity": 0,
    "openDays": [],
    "openDaysNote": ""
  },
  {
    "id": "4452780002",
    "name": "ヴァル・ド・グラスくじゅう",
    "kana": "バルドグラスクジュウ",
    "address": "大分県竹田市久住町大字栢木574-34",
    "lat": 33.0414476,
    "lng": 131.3121209,
    "tel": "0974-64-7500",
    "url": "http://www.okubo-hp.com",
    "pref": "大分県",
    "city": "竹田市",
    "category": "rouken",
    "serviceType": "介護老人保健施設",
    "capacity": 0,
    "openDays": [],
    "openDaysNote": ""
  },
  {
    "id": "4450880002",
    "name": "介護老人保健施設　岡の苑",
    "kana": "カイゴロウジンホケンシセツ　オカノエン",
    "address": "大分県竹田市大字竹田1855",
    "lat": 32.9704867,
    "lng": 131.3925666,
    "tel": "0974-63-3837",
    "url": "http://www.yuujinkai.com",
    "pref": "大分県",
    "city": "竹田市",
    "category": "rouken",
    "serviceType": "介護老人保健施設",
    "capacity": 0,
    "openDays": [],
    "openDaysNote": ""
  },
  {
    "id": "4450380029",
    "name": "介護老人保健施設　なのみ",
    "kana": "カイゴロウジンホケンシセツ　ナノミ",
    "address": "大分県中津市宮夫１４番地１",
    "lat": 33.5929809,
    "lng": 131.2135448,
    "tel": "0979－26－0656",
    "url": "www.kawashimahp.jp",
    "pref": "大分県",
    "city": "中津市",
    "category": "rouken",
    "serviceType": "介護老人保健施設",
    "capacity": 0,
    "openDays": [],
    "openDaysNote": ""
  },
  {
    "id": "4450380011",
    "name": "介護老人保健施設　三光園",
    "kana": "カイゴロウジンホケンシセツ　サンコウエン",
    "address": "大分県中津市大字永添９１９番地",
    "lat": 33.5747161,
    "lng": 131.2106484,
    "tel": "0979-26-0266",
    "url": "",
    "pref": "大分県",
    "city": "中津市",
    "category": "rouken",
    "serviceType": "介護老人保健施設",
    "capacity": 80,
    "openDays": [],
    "openDaysNote": ""
  },
  {
    "id": "4470301260",
    "name": "介護老人保健施設さつき苑",
    "kana": "カイゴロウジンホケンシセツサツキエン",
    "address": "大分県中津市三光土田1243番地の4",
    "lat": 33.5306778,
    "lng": 131.1754769,
    "tel": "0979-26-8022",
    "url": "",
    "pref": "大分県",
    "city": "中津市",
    "category": "rouken",
    "serviceType": "介護老人保健施設",
    "capacity": 0,
    "openDays": [],
    "openDaysNote": ""
  },
  {
    "id": "4450380003",
    "name": "老人保健施設　創生園",
    "kana": "ロウジンホケンシセツ　ソウセイエン",
    "address": "大分県中津市大字上宮永298番地1",
    "lat": 33.5859471,
    "lng": 131.1848281,
    "tel": "0979-24-6008",
    "url": "",
    "pref": "大分県",
    "city": "中津市",
    "category": "rouken",
    "serviceType": "介護老人保健施設",
    "capacity": 80,
    "openDays": [],
    "openDaysNote": ""
  },
  {
    "id": "4450780004",
    "name": "介護老人保健施設　つくみかん",
    "kana": "カイゴロウジンホケンシセツ　ツクミカン",
    "address": "津久見市大字千怒6120番地",
    "lat": 33.0726701,
    "lng": 131.8874164,
    "tel": "0972-82-8181",
    "url": "https://tsukumikan.jp",
    "pref": "大分県",
    "city": "津久見市",
    "category": "rouken",
    "serviceType": "介護老人保健施設",
    "capacity": 0,
    "openDays": [],
    "openDaysNote": ""
  },
  {
    "id": "4450780012",
    "name": "介護老人保健施設つくみかん　サテライトみなみ",
    "kana": "カイゴロウジンホケンシセツツクミカン　サテライトミナミ",
    "address": "大分県津久見市大字四浦字久保泊2944番地",
    "lat": 33.0648166,
    "lng": 131.964568,
    "tel": "0972-88-2011",
    "url": "https://tsukumikan.jp",
    "pref": "大分県",
    "city": "津久見市",
    "category": "rouken",
    "serviceType": "介護老人保健施設",
    "capacity": 0,
    "openDays": [],
    "openDaysNote": ""
  },
  {
    "id": "4452280003",
    "name": "介護老人保健施設　サンライズ・ビュー",
    "kana": "カイゴロウジンホケンシセツ　サンライズ・ビュー",
    "address": "大分県速見郡日出町580番地2",
    "lat": 33.375336393269,
    "lng": 131.520036148974,
    "tel": "0977-73-2822",
    "url": "http://www.heiseikai.com/",
    "pref": "大分県",
    "city": "日出町",
    "category": "rouken",
    "serviceType": "介護老人保健施設",
    "capacity": 119,
    "openDays": [],
    "openDaysNote": ""
  },
  {
    "id": "4472200478",
    "name": "介護老人保健施設　すずらん",
    "kana": "カイゴロウジンホケンシセツ　スズラン",
    "address": "大分県速見郡日出町大字藤原1691-1",
    "lat": 33.3753931,
    "lng": 131.5458243,
    "tel": "0977-73-2155",
    "url": "http//www.suzuki-hp.or.jp",
    "pref": "大分県",
    "city": "日出町",
    "category": "rouken",
    "serviceType": "介護老人保健施設",
    "capacity": 0,
    "openDays": [],
    "openDaysNote": ""
  },
  {
    "id": "4452280029",
    "name": "介護老人保健施設みずき",
    "kana": "カイゴロウジンホケンシセツミズキ",
    "address": "大分県速見郡日出町川崎507-3",
    "lat": 33.373957,
    "lng": 131.5424553,
    "tel": "0977-28-1807",
    "url": "http://www.hiji-kodama.jp/mizuki.html",
    "pref": "大分県",
    "city": "日出町",
    "category": "rouken",
    "serviceType": "介護老人保健施設",
    "capacity": 50,
    "openDays": [],
    "openDaysNote": ""
  },
  {
    "id": "4450480001",
    "name": "介護老人保健施設　聖陵ストリーム",
    "kana": "カイゴロウジンホケンシセツ　セイリョウストリーム",
    "address": "大分県日田市中釣町485番地3",
    "lat": 33.3150885762412,
    "lng": 130.919774458475,
    "tel": "0973-26-3111",
    "url": "https://seiryou-streem.jp/",
    "pref": "大分県",
    "city": "日田市",
    "category": "rouken",
    "serviceType": "介護老人保健施設",
    "capacity": 115,
    "openDays": [],
    "openDaysNote": ""
  },
  {
    "id": "4452980008",
    "name": "老人保健施設　六和会センテナリアン",
    "kana": "ロウジンホケンシセツ　ロクワカイセンテナリアン",
    "address": "大分県日田市大山町東大山14-4",
    "lat": 33.2925247,
    "lng": 130.9570655,
    "tel": "0973－57－8066",
    "url": "",
    "pref": "大分県",
    "city": "日田市",
    "category": "rouken",
    "serviceType": "介護老人保健施設",
    "capacity": 0,
    "openDays": [],
    "openDaysNote": ""
  },
  {
    "id": "4450280021",
    "name": "医療法人慈愛会　介護老人保健施設やまなみ苑",
    "kana": "イリョウホウジンジアイカイ　カイゴロウジホケンシセツヤマナミエン",
    "address": "大分県別府市大字南立石274-2",
    "lat": 33.2905051,
    "lng": 131.4571082,
    "tel": "0977-24-8730",
    "url": "http://www.yamanamien.com/",
    "pref": "大分県",
    "city": "別府市",
    "category": "rouken",
    "serviceType": "介護老人保健施設",
    "capacity": 90,
    "openDays": [],
    "openDaysNote": ""
  },
  {
    "id": "4450280054",
    "name": "介護療養型老人保健施設むらはし",
    "kana": "カイゴリョウヨウガタロウジンホケンシセツムラハシ",
    "address": "大分県別府市千代町2番5号",
    "lat": 33.2746295,
    "lng": 131.5047154,
    "tel": "0977-23-3231",
    "url": "http://murahashi-hp.jp",
    "pref": "大分県",
    "city": "別府市",
    "category": "rouken",
    "serviceType": "介護老人保健施設",
    "capacity": null,
    "openDays": [],
    "openDaysNote": ""
  },
  {
    "id": "4450280005",
    "name": "介護老人保健施設　いでゆの園",
    "kana": "カイゴロウジンホケンシセツ　イデユノソノ",
    "address": "大分県別府市上人ヶ浜９組",
    "lat": 33.3113685987472,
    "lng": 131.500396418307,
    "tel": "0977-66-4115",
    "url": "http://b-gengendo.jp/ideyu/",
    "pref": "大分県",
    "city": "別府市",
    "category": "rouken",
    "serviceType": "介護老人保健施設",
    "capacity": null,
    "openDays": [],
    "openDaysNote": ""
  },
  {
    "id": "4450280013",
    "name": "介護老人保健施設　サンヘルスピア一燈園",
    "kana": "カイゴロウジンホケンシセツ　サンヘルスピア　イットウエン",
    "address": "大分県別府市大字南立石347番地の４",
    "lat": 33.2927854,
    "lng": 131.4554528,
    "tel": "0977-22-9678",
    "url": "http://www.ittouen.or.jp/",
    "pref": "大分県",
    "city": "別府市",
    "category": "rouken",
    "serviceType": "介護老人保健施設",
    "capacity": 100,
    "openDays": [],
    "openDaysNote": ""
  },
  {
    "id": "4450280047",
    "name": "介護老人保健施設　メディケア別府",
    "kana": "カイゴロウジンホケンシセツ　メディケアベップ",
    "address": "大分県別府市中島町14番6号",
    "lat": 33.2751100891116,
    "lng": 131.492812760852,
    "tel": "0977-21-4333",
    "url": "http://www.hata.or.jp",
    "pref": "大分県",
    "city": "別府市",
    "category": "rouken",
    "serviceType": "介護老人保健施設",
    "capacity": 90,
    "openDays": [],
    "openDaysNote": ""
  },
  {
    "id": "4450280039",
    "name": "大分県厚生連介護老人保健施設シェモア鶴見",
    "kana": "オオイタケンコウセイレンカイゴロウジンホケンシセツシェモアツルミ",
    "address": "大分県別府市緑丘町１１番２７号大分県厚生連総合福祉センター 大分県厚生連総合福祉センター",
    "lat": 33.298535,
    "lng": 131.4895473,
    "tel": "0977-23-7113",
    "url": "http://www.ok-chezmoi.com",
    "pref": "大分県",
    "city": "別府市",
    "category": "rouken",
    "serviceType": "介護老人保健施設",
    "capacity": 50,
    "openDays": [],
    "openDaysNote": ""
  },
  {
    "id": "4452080007",
    "name": "介護老人保健施設　サングレイス香々地",
    "kana": "カイゴロウジンホケンシセツ　サングレイスカカヂ",
    "address": "大分県豊後高田市見目３９１５番地１",
    "lat": 33.6722894,
    "lng": 131.5291158,
    "tel": "０９７８－５４－３３１０",
    "url": "http://www.takachuo.com/",
    "pref": "大分県",
    "city": "豊後高田市",
    "category": "rouken",
    "serviceType": "介護老人保健施設",
    "capacity": null,
    "openDays": [],
    "openDaysNote": ""
  },
  {
    "id": "4450980018",
    "name": "老人保健施設　希の里",
    "kana": "ロウジンホケンシセツ　ノゾミノサト",
    "address": "大分県豊後高田市呉崎755番地",
    "lat": 33.5764331,
    "lng": 131.4322072,
    "tel": "0978-22-1580",
    "url": "http://nozomi-sekizen.com",
    "pref": "大分県",
    "city": "豊後高田市",
    "category": "rouken",
    "serviceType": "介護老人保健施設",
    "capacity": 0,
    "openDays": [],
    "openDaysNote": ""
  },
  {
    "id": "4451280053",
    "name": "ユニット型介護老人保健施設ニコニコ銘水苑",
    "kana": "ユニットガタカイゴロウジンホケンシセツ　ニコニコメイスイエン",
    "address": "大分県豊後大野市三重町小坂4110-7",
    "lat": 32.9980077,
    "lng": 131.6208601,
    "tel": "0974-22-7777",
    "url": "http://www.nikoniko.or.jp",
    "pref": "大分県",
    "city": "豊後大野市",
    "category": "rouken",
    "serviceType": "介護老人保健施設",
    "capacity": 0,
    "openDays": [],
    "openDaysNote": ""
  },
  {
    "id": "4451280020",
    "name": "ユニット型介護老人保健施設泉の里",
    "kana": "ユニットガタカイゴロウジンホケンシセツイズミノサト",
    "address": "大分県豊後大野市三重町赤嶺1254番地1",
    "lat": 32.9871454403894,
    "lng": 131.600176404055,
    "tel": "0974-22-7885",
    "url": "http://www.kigankai.or.jp/",
    "pref": "大分県",
    "city": "豊後大野市",
    "category": "rouken",
    "serviceType": "介護老人保健施設",
    "capacity": 0,
    "openDays": [],
    "openDaysNote": ""
  },
  {
    "id": "4451280012",
    "name": "介護老人保健施設　ニライ・カナイ",
    "kana": "カイゴロウジンホケンシセツ　ニライ・カナイ",
    "address": "大分県豊後大野市三重町市場127番地",
    "lat": 32.9823078,
    "lng": 131.5864914,
    "tel": "0974-22-0114",
    "url": "https://www.naikafujishima.com/",
    "pref": "大分県",
    "city": "豊後大野市",
    "category": "rouken",
    "serviceType": "介護老人保健施設",
    "capacity": 20,
    "openDays": [],
    "openDaysNote": ""
  },
  {
    "id": "4471200289",
    "name": "介護老人保健施設おおの郷",
    "kana": "カイゴロウジンホケンシセツオオノゴウ",
    "address": "大分県豊後大野市大野町田中２番地９",
    "lat": 33.0364029,
    "lng": 131.5019637,
    "tel": "0974-24-5711",
    "url": "http://tenshindo.org/web/",
    "pref": "大分県",
    "city": "豊後大野市",
    "category": "rouken",
    "serviceType": "介護老人保健施設",
    "capacity": 25,
    "openDays": [],
    "openDaysNote": ""
  },
  {
    "id": "4452680012",
    "name": "介護老人保健施設ニコニコ銘水苑",
    "kana": "カイゴロウジンホケンシセツ　ニコニコメイスイエン",
    "address": "大分県豊後大野市三重町小坂4110-7",
    "lat": 32.9978668337378,
    "lng": 131.620850765965,
    "tel": "0974-22-7777",
    "url": "http://www.nikoniko.or.jp",
    "pref": "大分県",
    "city": "豊後大野市",
    "category": "rouken",
    "serviceType": "介護老人保健施設",
    "capacity": 0,
    "openDays": [],
    "openDaysNote": ""
  },
  {
    "id": "4471200305",
    "name": "介護老人保健施設ひろせ",
    "kana": "カイゴロウジンホケンシセツヒロセ",
    "address": "大分県豊後大野市千歳町新殿771番地１",
    "lat": 33.0393389428782,
    "lng": 131.597748050401,
    "tel": "0974-37-3377",
    "url": "",
    "pref": "大分県",
    "city": "豊後大野市",
    "category": "rouken",
    "serviceType": "介護老人保健施設",
    "capacity": 20,
    "openDays": [],
    "openDaysNote": ""
  },
  {
    "id": "4452680004",
    "name": "介護老人保健施設泉の里",
    "kana": "カイゴロウジンホケンシセツイズミノサト",
    "address": "大分県豊後大野市三重町赤嶺1254番地1",
    "lat": 32.9872268387307,
    "lng": 131.600329665518,
    "tel": "0974-22-7885",
    "url": "http://www.kigankai.or.jp",
    "pref": "大分県",
    "city": "豊後大野市",
    "category": "rouken",
    "serviceType": "介護老人保健施設",
    "capacity": 0,
    "openDays": [],
    "openDaysNote": ""
  },
  {
    "id": "4451280046",
    "name": "介護老人保健施設豊西苑なのはな",
    "kana": "カイゴロウジンホケンシセツホウセイエンナノハナ",
    "address": "大分県豊後大野市三重町百枝1086-12",
    "lat": 32.9912734,
    "lng": 131.5844247,
    "tel": "0974-22-7171",
    "url": "http://www.oono-med.jp",
    "pref": "大分県",
    "city": "豊後大野市",
    "category": "rouken",
    "serviceType": "介護老人保健施設",
    "capacity": null,
    "openDays": [],
    "openDaysNote": ""
  },
  {
    "id": "4452680020",
    "name": "豊後大野市医師会立介護老人保健施設　豊西苑",
    "kana": "ブンゴオオノシイシカイリツカイゴロウジンホケンシセツ　ホウセイエン",
    "address": "大分県豊後大野市三重町百枝1086－12",
    "lat": 32.9912734,
    "lng": 131.5844247,
    "tel": "0974－22－7171",
    "url": "http://www.oono-med.jp",
    "pref": "大分県",
    "city": "豊後大野市",
    "category": "rouken",
    "serviceType": "介護老人保健施設",
    "capacity": null,
    "openDays": [],
    "openDaysNote": ""
  },
  {
    "id": "4452380027",
    "name": "介護老人保健施設　ケアポート川崎",
    "kana": "カイゴロウジンホケンシセツケアポートカワサキ",
    "address": "大分県由布市挾間町古野２６４番地",
    "lat": 33.2100072,
    "lng": 131.5310206,
    "tel": "097-583-5301",
    "url": "",
    "pref": "大分県",
    "city": "由布市",
    "category": "rouken",
    "serviceType": "介護老人保健施設",
    "capacity": 50,
    "openDays": [],
    "openDaysNote": ""
  },
  {
    "id": "4451380002",
    "name": "介護老人保健施設　ゆふいん風香",
    "kana": "カイゴロウジンホケンシセツ　ユフインフウカ",
    "address": "大分県由布市湯布院町川南280",
    "lat": 33.2570872,
    "lng": 131.3587047,
    "tel": "0977-28-2100",
    "url": "http://www.fukujyukai.net/",
    "pref": "大分県",
    "city": "由布市",
    "category": "rouken",
    "serviceType": "介護老人保健施設",
    "capacity": 0,
    "openDays": [],
    "openDaysNote": ""
  },
  {
    "id": "4452380019",
    "name": "介護老人保健施設　健寿荘",
    "kana": "カイゴロウジンホケンシセツ　ケンジュソウ",
    "address": "大分県由布市挾間町鬼崎４番地1",
    "lat": 33.1950696,
    "lng": 131.5272488,
    "tel": "097-583-0051",
    "url": "http://www.hoaki.jp/",
    "pref": "大分県",
    "city": "由布市",
    "category": "rouken",
    "serviceType": "介護老人保健施設",
    "capacity": 0,
    "openDays": [],
    "openDaysNote": ""
  }
]