[
  {
    "id": "2754280044",
    "name": "医療法人恵仁会　介護老人保健施設たんぽぽ",
    "kana": "イリョウホウジンケイニンカイ　カイゴロウジンホケンシセツタンポポ",
    "address": "大阪府茨木市真砂三丁目21番27号",
    "lat": 34.7976268,
    "lng": 135.5825566,
    "tel": "072-636-8750",
    "url": "http://www.tanaka-hsp.or.jp",
    "pref": "大阪府",
    "city": "茨木市",
    "category": "rouken",
    "serviceType": "介護老人保健施設",
    "capacity": 123,
    "openDays": [],
    "openDaysNote": ""
  },
  {
    "id": "2754280051",
    "name": "医療法人恵仁会　介護老人保健施設めぐみ",
    "kana": "イリョウホウジン　ケイニンカイ　カイゴロウジンホケンシセツメグミ",
    "address": "大阪府茨木市南安威2丁目10-17",
    "lat": 34.842419,
    "lng": 135.5594243,
    "tel": "072-641-8351",
    "url": "http://www.tanaka-hsp.or.jp",
    "pref": "大阪府",
    "city": "茨木市",
    "category": "rouken",
    "serviceType": "介護老人保健施設",
    "capacity": 0,
    "openDays": [],
    "openDaysNote": ""
  },
  {
    "id": "2754280069",
    "name": "介護老人保健施設　あいの苑",
    "kana": "カイゴロウジンホケンシセツ　アイノエン",
    "address": "大阪府茨木市東太田4丁目5番20号",
    "lat": 34.8433696,
    "lng": 135.5835749,
    "tel": "072-645-6550",
    "url": "http://www.aino-fukushikai.or.jp",
    "pref": "大阪府",
    "city": "茨木市",
    "category": "rouken",
    "serviceType": "介護老人保健施設",
    "capacity": 0,
    "openDays": [],
    "openDaysNote": ""
  },
  {
    "id": "2754280077",
    "name": "介護老人保健施設ひまわり",
    "kana": "カイゴロウジンホケンシセツヒマワリ",
    "address": "大阪府茨木市南春日丘七丁目9番18号",
    "lat": 34.8204703,
    "lng": 135.5304174,
    "tel": "072-621-2691",
    "url": "http://himawari.aijinkai.or.jp",
    "pref": "大阪府",
    "city": "茨木市",
    "category": "rouken",
    "serviceType": "介護老人保健施設",
    "capacity": 0,
    "openDays": [],
    "openDaysNote": ""
  },
  {
    "id": "2754280036",
    "name": "介護老人保健施設ライフポート茨木",
    "kana": "カイゴロウジンホケンシセツライフポートイバラキ",
    "address": "大阪府茨木市見付山2丁目1番39号",
    "lat": 34.8213182,
    "lng": 135.5560417,
    "tel": "072-622-0062",
    "url": "https://www.ibaraki.saiseikai.or.jp/lifeport-rouken/index.html",
    "pref": "大阪府",
    "city": "茨木市",
    "category": "rouken",
    "serviceType": "介護老人保健施設",
    "capacity": 80,
    "openDays": [],
    "openDaysNote": ""
  },
  {
    "id": "2754280010",
    "name": "老人保健施設　清渓苑",
    "kana": "ロウジンホケンシセツ　キヨタニエン",
    "address": "大阪府茨木市泉原38番地の1",
    "lat": 34.8886942,
    "lng": 135.5298538,
    "tel": "072-649-0111",
    "url": "http://www.tenno.or.jp",
    "pref": "大阪府",
    "city": "茨木市",
    "category": "rouken",
    "serviceType": "介護老人保健施設",
    "capacity": 0,
    "openDays": [],
    "openDaysNote": ""
  },
  {
    "id": "2753880042",
    "name": "医療法人昌円会　介護老人保健施設宙",
    "kana": "イリョウホウジンショウエンカイ　カイゴロウジンホケンシセツソラ",
    "address": "大阪府羽曳野市恵我之荘3-1-3",
    "lat": 34.5770402,
    "lng": 135.5733076,
    "tel": "072-939-0011",
    "url": "http://sora.shouenkai.or.jp/",
    "pref": "大阪府",
    "city": "羽曳野市",
    "category": "rouken",
    "serviceType": "介護老人保健施設",
    "capacity": 58,
    "openDays": [],
    "openDaysNote": ""
  },
  {
    "id": "2753880034",
    "name": "医療法人昌円会　老人保健施設あったか村",
    "kana": "イリョウホウジンショウエンカイ　ロウジンホケンシセツアッタカムラ",
    "address": "大阪府羽曳野市恵我之荘3-2-4",
    "lat": 34.5775321,
    "lng": 135.5735594,
    "tel": "072-936-1551",
    "url": "http://www.shouenkai.or.jp/",
    "pref": "大阪府",
    "city": "羽曳野市",
    "category": "rouken",
    "serviceType": "介護老人保健施設",
    "capacity": 100,
    "openDays": [],
    "openDaysNote": ""
  },
  {
    "id": "2753880018",
    "name": "介護老人保健施設　悠々亭",
    "kana": "カイゴロウジンホケンシセツ　ユウユウテイ",
    "address": "大阪府羽曳野市樫山100番地の1",
    "lat": 34.5582954,
    "lng": 135.5797674,
    "tel": "072-953-1002",
    "url": "http://www.hearthul-health.or.jp/",
    "pref": "大阪府",
    "city": "羽曳野市",
    "category": "rouken",
    "serviceType": "介護老人保健施設",
    "capacity": 0,
    "openDays": [],
    "openDaysNote": ""
  },
  {
    "id": "2753880026",
    "name": "介護老人保健施設まほろば",
    "kana": "カイゴロウジンホケンシセツ　マホロバ",
    "address": "大阪府羽曳野市誉田三丁目１５番６号",
    "lat": 34.5580265,
    "lng": 135.6077756,
    "tel": "072-958-6655",
    "url": "https://ijinkai-m.jp/",
    "pref": "大阪府",
    "city": "羽曳野市",
    "category": "rouken",
    "serviceType": "介護老人保健施設",
    "capacity": 0,
    "openDays": [],
    "openDaysNote": ""
  },
  {
    "id": "2750780013",
    "name": "医療法人生登会　かわちながの介護老人保健施設　てらもと総合福祉センター",
    "kana": "イリョウホウジンセイトカイ　カワチナガノカイゴロウジンホケンシセツ　テラモトソウゴウフクシセンター",
    "address": "大阪府　河内長野市　小山田町　1701番地の1",
    "lat": 34.447122455499,
    "lng": 135.548714715344,
    "tel": "0721-52-7000",
    "url": "https://www.teramoto.or.jp",
    "pref": "大阪府",
    "city": "河内長野市",
    "category": "rouken",
    "serviceType": "介護老人保健施設",
    "capacity": 100,
    "openDays": [],
    "openDaysNote": ""
  },
  {
    "id": "2750780039",
    "name": "介護老人保健施設　寿里苑フェリス",
    "kana": "カイゴロウジンホケンシセツ　ジュリエンフェリス",
    "address": "大阪府河内長野市加賀田885-2",
    "lat": 34.4154581133307,
    "lng": 135.568188419713,
    "tel": "0721-62-0700",
    "url": "http://www.julien.or.jp",
    "pref": "大阪府",
    "city": "河内長野市",
    "category": "rouken",
    "serviceType": "介護老人保健施設",
    "capacity": 90,
    "openDays": [],
    "openDaysNote": ""
  },
  {
    "id": "2750780021",
    "name": "介護老人保健施設あかしあ",
    "kana": "カイゴロウジンホケンシセツアカシア",
    "address": "大阪府河内長野市あかしあ台２丁目６番１１号",
    "lat": 34.4671387,
    "lng": 135.5538152,
    "tel": "0721-56-8500",
    "url": "http://www.aoyama-med.gr.jp/ontoku-welfare/akashia/",
    "pref": "大阪府",
    "city": "河内長野市",
    "category": "rouken",
    "serviceType": "介護老人保健施設",
    "capacity": 0,
    "openDays": [],
    "openDaysNote": ""
  },
  {
    "id": "2751380011",
    "name": "介護老人保健施設　希望ヶ丘",
    "kana": "カイゴロウジンホケンシセツ　キボウガオカ",
    "address": "大阪府貝塚市水間５１０番地",
    "lat": 34.4000224,
    "lng": 135.3893338,
    "tel": "072-446-7881",
    "url": "http://kawasaki-kai.or.jp",
    "pref": "大阪府",
    "city": "貝塚市",
    "category": "rouken",
    "serviceType": "介護老人保健施設",
    "capacity": 0,
    "openDays": [],
    "openDaysNote": ""
  },
  {
    "id": "2751380029",
    "name": "介護老人保健施設コスモス楽寿苑",
    "kana": "カイゴロウジンホケンシセツコスモスラクジュエン",
    "address": "大阪府貝塚市森858番地",
    "lat": 34.4137872,
    "lng": 135.3779266,
    "tel": "072-447-0007",
    "url": "http://kijima.or.jp/rakujuen/",
    "pref": "大阪府",
    "city": "貝塚市",
    "category": "rouken",
    "serviceType": "介護老人保健施設",
    "capacity": 90,
    "openDays": [],
    "openDaysNote": ""
  },
  {
    "id": "2751180023",
    "name": "介護老人保健施設　華",
    "kana": "カイゴロウジンホケンシセツ　ハナ",
    "address": "岸和田市藤井町2丁目22-20",
    "lat": 34.464673,
    "lng": 135.3874997,
    "tel": "072-431-8791",
    "url": "http://www.ryoshukai.or.jp/index.html",
    "pref": "大阪府",
    "city": "岸和田市",
    "category": "rouken",
    "serviceType": "介護老人保健施設",
    "capacity": 100,
    "openDays": [],
    "openDaysNote": ""
  },
  {
    "id": "2751180031",
    "name": "介護老人保健施設岸和田徳洲苑",
    "kana": "カイゴロウジンホケンシセツキシワダトクシュウエン",
    "address": "大阪府岸和田市三田町142番地",
    "lat": 34.4606607,
    "lng": 135.4311429,
    "tel": "072-441-5501",
    "url": "http://kishiwada-tokusyuuen.tokushukai.or.jp",
    "pref": "大阪府",
    "city": "岸和田市",
    "category": "rouken",
    "serviceType": "介護老人保健施設",
    "capacity": 100,
    "openDays": [],
    "openDaysNote": ""
  },
  {
    "id": "2751180015",
    "name": "社会医療法人慈薫会　介護老人保健施設大阪緑ヶ丘",
    "kana": "シャカイイリョウホウジンジクンカイカイゴロウジンホケンシセツオオサカミドリガオカ",
    "address": "大阪府岸和田市流木町668番地の1",
    "lat": 34.4263027,
    "lng": 135.3920195,
    "tel": "072-428-0781",
    "url": "http://osaka-midorigaoka.com/",
    "pref": "大阪府",
    "city": "岸和田市",
    "category": "rouken",
    "serviceType": "介護老人保健施設",
    "capacity": 100,
    "openDays": [],
    "openDaysNote": ""
  },
  {
    "id": "2751280039",
    "name": "介護老人保健施設　ライフケアながやま",
    "kana": "カイゴロウジンホケンシセツ　ライフケアナガヤマ",
    "address": "大阪府泉南郡熊取町大久保中２丁目１番２６号",
    "lat": 34.4033708,
    "lng": 135.3448082,
    "tel": "072-453-1580",
    "url": "http://www.nagayama.or.jp",
    "pref": "大阪府",
    "city": "熊取町",
    "category": "rouken",
    "serviceType": "介護老人保健施設",
    "capacity": 0,
    "openDays": [],
    "openDaysNote": ""
  },
  {
    "id": "2751280021",
    "name": "介護老人保健施設アルカディア",
    "kana": "カイゴロウジンホケンシセツアルカディア",
    "address": "大阪府泉南郡熊取町七山２－２－１",
    "lat": 34.4116906071495,
    "lng": 135.361060790877,
    "tel": "072-452-2430",
    "url": "http://arc.soshindo.jp/",
    "pref": "大阪府",
    "city": "熊取町",
    "category": "rouken",
    "serviceType": "介護老人保健施設",
    "capacity": 0,
    "openDays": [],
    "openDaysNote": ""
  },
  {
    "id": "2753680012",
    "name": "介護老人保健施設　逢々館かたの",
    "kana": "カイゴロウジンホケンシセツアイアイカンカタノ",
    "address": "大阪府交野市私部二丁目１１番３８号",
    "lat": 34.7870132,
    "lng": 135.6767314,
    "tel": "072-895-1771",
    "url": "http://www.katano-hp.or.jp/aiaikan/",
    "pref": "大阪府",
    "city": "交野市",
    "category": "rouken",
    "serviceType": "介護老人保健施設",
    "capacity": 90,
    "openDays": [],
    "openDaysNote": ""
  },
  {
    "id": "2753680020",
    "name": "介護老人保健施設　青山",
    "kana": "カイゴロウジンホケンシセツ　アオヤマ",
    "address": "大阪府交野市青山３丁目４３２番",
    "lat": 34.7911465,
    "lng": 135.6925049,
    "tel": "072-893-0328",
    "url": "",
    "pref": "大阪府",
    "city": "交野市",
    "category": "rouken",
    "serviceType": "介護老人保健施設",
    "capacity": 0,
    "openDays": [],
    "openDaysNote": ""
  },
  {
    "id": "2755380017",
    "name": "介護老人保健施設　サンシャイン高石",
    "kana": "カイゴロウジンホケンシセツ　サンシャインタカイシ",
    "address": "大阪府高石市取石５丁目８番３８号",
    "lat": 34.5131208,
    "lng": 135.4440331,
    "tel": "072-275-1061",
    "url": "http://www.itokukai.com",
    "pref": "大阪府",
    "city": "高石市",
    "category": "rouken",
    "serviceType": "介護老人保健施設",
    "capacity": 0,
    "openDays": [],
    "openDaysNote": ""
  },
  {
    "id": "2755380025",
    "name": "高石市立老人保健施設",
    "kana": "タカイシシリツロウジンホケンシセツ",
    "address": "大阪府高石市羽衣４丁目４番２６号",
    "lat": 34.532318774247,
    "lng": 135.435696563893,
    "tel": "072-267-1215",
    "url": "https://takaishi-lifecare.org/k/",
    "pref": "大阪府",
    "city": "高石市",
    "category": "rouken",
    "serviceType": "介護老人保健施設",
    "capacity": 0,
    "openDays": [],
    "openDaysNote": ""
  },
  {
    "id": "2750980027",
    "name": "みどりヶ丘介護老人保健施設",
    "kana": "ミドリガオカカイゴロウジンホケンシセツ",
    "address": "大阪府高槻市奈佐原４丁目７番１号",
    "lat": 34.8649557,
    "lng": 135.5763006,
    "tel": "072-692-3111",
    "url": "",
    "pref": "大阪府",
    "city": "高槻市",
    "category": "rouken",
    "serviceType": "介護老人保健施設",
    "capacity": 0,
    "openDays": [],
    "openDaysNote": ""
  },
  {
    "id": "2750980092",
    "name": "ラ・ポルトフィーナ高槻",
    "kana": "ラ・ポルトフィーナタカツキ",
    "address": "大阪府高槻市玉川1-5-2",
    "lat": 34.8148254,
    "lng": 135.6052499,
    "tel": "072-679-4165",
    "url": "http://www.shinmeikai.jp/12_takatsuki.html",
    "pref": "大阪府",
    "city": "高槻市",
    "category": "rouken",
    "serviceType": "介護老人保健施設",
    "capacity": 0,
    "openDays": [],
    "openDaysNote": ""
  },
  {
    "id": "2750980050",
    "name": "医療法人健和会介護老人保健施設ふれあい",
    "kana": "イリョウホウジンケンワカイカイゴロウジンホケンシセツフレアイ",
    "address": "大阪府高槻市登町33番2号",
    "lat": 34.8240359,
    "lng": 135.6188329,
    "tel": "072-676-2011",
    "url": "http://www.ueda-simo.or.jp/fure/index.htm",
    "pref": "大阪府",
    "city": "高槻市",
    "category": "rouken",
    "serviceType": "介護老人保健施設",
    "capacity": 0,
    "openDays": [],
    "openDaysNote": ""
  },
  {
    "id": "2750980068",
    "name": "医療法人社団　緑水会　介護老人保健施設　シルバーハウス高槻",
    "kana": "イリョウホウジンシャダンリョクスイカイカイゴロウジンホケンシセツ　シルバーハウスタカツキ",
    "address": "大阪府高槻市成合南の町３番１号",
    "lat": 34.8686232,
    "lng": 135.6291423,
    "tel": "072-688-7101",
    "url": "http://www.ryokusuikai.or.jp",
    "pref": "大阪府",
    "city": "高槻市",
    "category": "rouken",
    "serviceType": "介護老人保健施設",
    "capacity": 0,
    "openDays": [],
    "openDaysNote": ""
  },
  {
    "id": "2750980043",
    "name": "介護老人保健施設サンガピア館",
    "kana": "カイゴロウジンホケンシセツサンガピアカン",
    "address": "大阪府高槻市大塚町5-20-3",
    "lat": 34.8218363,
    "lng": 135.6307791,
    "tel": "072-673-6500",
    "url": "http://www.towa-med.or.jp",
    "pref": "大阪府",
    "city": "高槻市",
    "category": "rouken",
    "serviceType": "介護老人保健施設",
    "capacity": 0,
    "openDays": [],
    "openDaysNote": ""
  },
  {
    "id": "2750980019",
    "name": "介護老人保健施設ローズマリー",
    "kana": "カイゴロウジンホケンシセツローズマリー",
    "address": "大阪府高槻市東和町５７－１",
    "lat": 34.830205,
    "lng": 135.6368146,
    "tel": "072-671-0071",
    "url": "http://rosemary.or.jp/",
    "pref": "大阪府",
    "city": "高槻市",
    "category": "rouken",
    "serviceType": "介護老人保健施設",
    "capacity": 93,
    "openDays": [],
    "openDaysNote": ""
  },
  {
    "id": "2750980035",
    "name": "社会医療法人　愛仁会　介護老人保健施設ケーアイ",
    "kana": "シャカイイリョウホウジン　アイジンカイ　カイゴロウジンホケンシセツケーアイ",
    "address": "大阪府高槻市大字原112番地",
    "lat": 34.8840071,
    "lng": 135.5981372,
    "tel": "072-687-0103",
    "url": "http://www.aijinkai.or.jp/keai/",
    "pref": "大阪府",
    "city": "高槻市",
    "category": "rouken",
    "serviceType": "介護老人保健施設",
    "capacity": 0,
    "openDays": [],
    "openDaysNote": ""
  },
  {
    "id": "2750980084",
    "name": "社会医療法人愛仁会　介護老人保健施設しんあい",
    "kana": "シャカイイリョウホウジンアイジンカイ　カイゴロウジンホケンシセツシンアイ",
    "address": "大阪府高槻市西之川原2丁目46番1号",
    "lat": 34.866256,
    "lng": 135.5954459,
    "tel": "072-680-3000",
    "url": "http://www.aijinkai.or.jp/shin-ai-carefacility/",
    "pref": "大阪府",
    "city": "高槻市",
    "category": "rouken",
    "serviceType": "介護老人保健施設",
    "capacity": 0,
    "openDays": [],
    "openDaysNote": ""
  },
  {
    "id": "2759580018",
    "name": "介護老人保健施設　メデケアタマイ",
    "kana": "カイゴロウジンホケンシセツ　メデケアタマイ",
    "address": "大阪府阪南市箱作2047-3",
    "lat": 34.3347545,
    "lng": 135.2020238,
    "tel": "072-476-1111",
    "url": "http://medekeatamai.com",
    "pref": "大阪府",
    "city": "阪南市",
    "category": "rouken",
    "serviceType": "介護老人保健施設",
    "capacity": 0,
    "openDays": [],
    "openDaysNote": ""
  },
  {
    "id": "2750180131",
    "name": "介護老人保健施設ベルアルト",
    "kana": "カイゴロウジンホケンシセツベルアルト",
    "address": "大阪府堺市堺区南安井町3丁1番1号",
    "lat": 34.5708321692833,
    "lng": 135.476811895107,
    "tel": "072-221-7001",
    "url": "http://www.yujinkai.com",
    "pref": "大阪府",
    "city": "堺市堺区",
    "category": "rouken",
    "serviceType": "介護老人保健施設",
    "capacity": 100,
    "openDays": [],
    "openDaysNote": ""
  },
  {
    "id": "2750180024",
    "name": "介護老人保健施設みあ・かーさ",
    "kana": "カイゴロウジンホケンシセツミア・カーサ",
    "address": "大阪府堺市堺区今池町4丁4番12号",
    "lat": 34.5845556,
    "lng": 135.4929135,
    "tel": "072-229-9118",
    "url": "https://www.asakayama.or.jp/facility/miacasa/",
    "pref": "大阪府",
    "city": "堺市堺区",
    "category": "rouken",
    "serviceType": "介護老人保健施設",
    "capacity": 0,
    "openDays": [],
    "openDaysNote": ""
  },
  {
    "id": "2756080012",
    "name": "小規模介護老人保健施設　かーさ・あもーれ",
    "kana": "ショウキボカイゴロウジンホケンシセツ　カーサ・アモーレ",
    "address": "大阪府堺市堺区今池町3丁3番16号",
    "lat": 34.5848084,
    "lng": 135.4910887,
    "tel": "072-229-4882",
    "url": "https://www.asakayama.or.jp",
    "pref": "大阪府",
    "city": "堺市堺区",
    "category": "rouken",
    "serviceType": "介護老人保健施設",
    "capacity": null,
    "openDays": [],
    "openDaysNote": ""
  },
  {
    "id": "2750180057",
    "name": "老人保健施設　堺ラ・メール",
    "kana": "ロウジンホケンシセツ　サカイラ・メール",
    "address": "大阪府堺市堺区柏木町3丁3番9号",
    "lat": 34.5636206,
    "lng": 135.4581331,
    "tel": "072-245-8866",
    "url": "http://www.otorifukushikai.or.jp/",
    "pref": "大阪府",
    "city": "堺市堺区",
    "category": "rouken",
    "serviceType": "介護老人保健施設",
    "capacity": 0,
    "openDays": [],
    "openDaysNote": ""
  },
  {
    "id": "2756380024",
    "name": "医療法人大泉会介護老人保健施設うえのしば",
    "kana": "イリョウホウジンダイセンカイ　カイゴロウジンホケンシセツウエノシバ",
    "address": "大阪府堺市西区上野芝向ヶ丘町4丁24番30号",
    "lat": 34.5424904,
    "lng": 135.4781626,
    "tel": "072-276-3500",
    "url": "http://daisenkai.jp/roken-uenoshiba/",
    "pref": "大阪府",
    "city": "堺市西区",
    "category": "rouken",
    "serviceType": "介護老人保健施設",
    "capacity": 96,
    "openDays": [],
    "openDaysNote": ""
  },
  {
    "id": "2750180073",
    "name": "介護老人保健施設　愛和園",
    "kana": "カイゴロウジンホケンシセツ　アイワエン",
    "address": "大阪府堺市西区太平寺327-1",
    "lat": 34.504493428951,
    "lng": 135.479470283467,
    "tel": "072-297-9598",
    "url": "http://www.sakaifukushikai.jp",
    "pref": "大阪府",
    "city": "堺市西区",
    "category": "rouken",
    "serviceType": "介護老人保健施設",
    "capacity": 110,
    "openDays": [],
    "openDaysNote": ""
  },
  {
    "id": "2750180081",
    "name": "介護老人保健施設みみはら",
    "kana": "カイゴロウジンホケンシセツミミハラ",
    "address": "大阪府堺市西区鳳南町五丁594番地1",
    "lat": 34.5273533,
    "lng": 135.4633814,
    "tel": "072-272-8050",
    "url": "http://www.mimihara.or.jp",
    "pref": "大阪府",
    "city": "堺市西区",
    "category": "rouken",
    "serviceType": "介護老人保健施設",
    "capacity": 0,
    "openDays": [],
    "openDaysNote": ""
  },
  {
    "id": "2756380016",
    "name": "社会医療法人ペガサス介護療養型老人保健施設ペルセウス",
    "kana": "シャカイイリョウホウジンペガサスカイゴリョウヨウガタロウジンホケンシセツペルセウス",
    "address": "大阪府堺市西区浜寺船尾町東３丁４４７番地",
    "lat": 34.5474866,
    "lng": 135.4623666,
    "tel": "072-265-8866",
    "url": "http://www.pegasus.or.jp",
    "pref": "大阪府",
    "city": "堺市西区",
    "category": "rouken",
    "serviceType": "介護老人保健施設",
    "capacity": 100,
    "openDays": [],
    "openDaysNote": ""
  },
  {
    "id": "2750180040",
    "name": "介護老人保健施設　ベルアモール",
    "kana": "カイゴロウジンホケンシセツ　ベルアモール",
    "address": "大阪府堺市中区深井畑山町211",
    "lat": 34.5262312978324,
    "lng": 135.508307264418,
    "tel": "072-277-7711",
    "url": "http://www.seichokai.or.jp/amor/",
    "pref": "大阪府",
    "city": "堺市中区",
    "category": "rouken",
    "serviceType": "介護老人保健施設",
    "capacity": 157,
    "openDays": [],
    "openDaysNote": ""
  },
  {
    "id": "2750180123",
    "name": "介護老人保健施設だいせん",
    "kana": "カイゴロウジンホケンシセツダイセン",
    "address": "大阪府堺市中区土塔町155番1",
    "lat": 34.5302446,
    "lng": 135.5144659,
    "tel": "072-230-0201",
    "url": "http://daisenkai.jp/",
    "pref": "大阪府",
    "city": "堺市中区",
    "category": "rouken",
    "serviceType": "介護老人保健施設",
    "capacity": 0,
    "openDays": [],
    "openDaysNote": ""
  },
  {
    "id": "2750180065",
    "name": "介護老人保健施設　クローバー悠苑",
    "kana": "カイゴロウジンホケンシセツ　クローバーユウエン",
    "address": "大阪府堺市東区西野229-1",
    "lat": 34.5109141,
    "lng": 135.5437242,
    "tel": "072-230-2480",
    "url": "http://www.ko-syo-kai.or.jp/",
    "pref": "大阪府",
    "city": "堺市東区",
    "category": "rouken",
    "serviceType": "介護老人保健施設",
    "capacity": 0,
    "openDays": [],
    "openDaysNote": ""
  },
  {
    "id": "2750180032",
    "name": "介護老人保健施設　ソルヴィラージュ",
    "kana": "カイゴロウジンホケンシセツ　ソルウ``ィラージュ",
    "address": "大阪府堺市東区北野田636番地",
    "lat": 34.5312094,
    "lng": 135.5488064,
    "tel": "072-235-5800",
    "url": "http://www.syo.or.jp",
    "pref": "大阪府",
    "city": "堺市東区",
    "category": "rouken",
    "serviceType": "介護老人保健施設",
    "capacity": 0,
    "openDays": [],
    "openDaysNote": ""
  },
  {
    "id": "2750180115",
    "name": "一般社団法人堺市医師会　介護老人保健施設いずみの郷",
    "kana": "イッパンシャダンホウジンサカイシイシカイ　カイゴロウジンホケンシセツイズミノサト",
    "address": "大阪府堺市南区竹城台1-8-2",
    "lat": 34.500962,
    "lng": 135.5082581,
    "tel": "072-290-2277",
    "url": "http://www.sakai-med.jp/izuminosato/index.html",
    "pref": "大阪府",
    "city": "堺市南区",
    "category": "rouken",
    "serviceType": "介護老人保健施設",
    "capacity": 0,
    "openDays": [],
    "openDaysNote": ""
  },
  {
    "id": "2750180099",
    "name": "社会福祉法人貞省会　介護老人保健施設カロス",
    "kana": "シャカイフクシホウジンテイショウカイ　カイゴロウジンホケンシセツカロス",
    "address": "大阪府堺市南区美木多上2308番地1",
    "lat": 34.4699658842742,
    "lng": 135.49317902222,
    "tel": "072-297-1102",
    "url": "http://www.karos.or.jp/",
    "pref": "大阪府",
    "city": "堺市南区",
    "category": "rouken",
    "serviceType": "介護老人保健施設",
    "capacity": 0,
    "openDays": [],
    "openDaysNote": ""
  },
  {
    "id": "2750180107",
    "name": "老人保健施設　美樹の園",
    "kana": "ロウジンホケンシセツ　ミキノソノ",
    "address": "大阪府堺市南区美木多上1359番地2",
    "lat": 34.4588054,
    "lng": 135.492346,
    "tel": "072-296-1333",
    "url": "http://mikinosono.sakura.ne.jp",
    "pref": "大阪府",
    "city": "堺市南区",
    "category": "rouken",
    "serviceType": "介護老人保健施設",
    "capacity": 0,
    "openDays": [],
    "openDaysNote": ""
  },
  {
    "id": "2750180149",
    "name": "医療法人　好寿会　介護老人保健施設　かたおか",
    "kana": "イリョウホウジン　コウジュカイ　カイゴロウジンホケンシセツ　カタオカ",
    "address": "大阪府堺市美原区今井381番地",
    "lat": 34.5553568,
    "lng": 135.5510949,
    "tel": "072-361-3301",
    "url": "http://rouken-kataoka.com",
    "pref": "大阪府",
    "city": "堺市美原区",
    "category": "rouken",
    "serviceType": "介護老人保健施設",
    "capacity": 0,
    "openDays": [],
    "openDaysNote": ""
  },
  {
    "id": "2750180156",
    "name": "介護老人保健施設ホットスプリング美原",
    "kana": "カイゴロウジンホケンシセツホットスプリングミハラ",
    "address": "大阪府堺市美原区菅生９０３番地３",
    "lat": 34.5249973833084,
    "lng": 135.56813398532,
    "tel": "072-363-2777",
    "url": "http://www.tenjukai.or.jp",
    "pref": "大阪府",
    "city": "堺市美原区",
    "category": "rouken",
    "serviceType": "介護老人保健施設",
    "capacity": 100,
    "openDays": [],
    "openDaysNote": ""
  },
  {
    "id": "2756580011",
    "name": "介護老人保健施設　真秀ら",
    "kana": "カイゴロウジンホケンシセツ　マホラ",
    "address": "大阪府堺市北区東三国ヶ丘町4-1-1",
    "lat": 34.5685018,
    "lng": 135.5002964,
    "tel": "072-259-0803",
    "url": "http://www.mahora-sakai.jp/",
    "pref": "大阪府",
    "city": "堺市北区",
    "category": "rouken",
    "serviceType": "介護老人保健施設",
    "capacity": 80,
    "openDays": [],
    "openDaysNote": ""
  },
  {
    "id": "2750180016",
    "name": "介護老人保健施設アイリス堺正風",
    "kana": "カイゴロウジンホケンシセツアイリスサカイセイフウ",
    "address": "大阪府堺市北区新金岡町五丁1番3号",
    "lat": 34.5655979867998,
    "lng": 135.516513319049,
    "tel": "072-253-2100",
    "url": "http://kiwakai-sakai.or.jp/",
    "pref": "大阪府",
    "city": "堺市北区",
    "category": "rouken",
    "serviceType": "介護老人保健施設",
    "capacity": 5,
    "openDays": [],
    "openDaysNote": ""
  },
  {
    "id": "2755780018",
    "name": "医療法人和幸会介護老人保健施設パークヒルズ田原苑",
    "kana": "イリョウホウジンワコウカイカイゴロウジンホケンシセツパークヒルズタワラエン",
    "address": "大阪府四條畷市上田原６１３番地",
    "lat": 34.7224955,
    "lng": 135.6956058,
    "tel": "0743-78-9499",
    "url": "http://www.wakoucai.or.jp/",
    "pref": "大阪府",
    "city": "四條畷市",
    "category": "rouken",
    "serviceType": "介護老人保健施設",
    "capacity": 10,
    "openDays": [],
    "openDaysNote": ""
  },
  {
    "id": "2755780026",
    "name": "社会医療法人信愛会　介護老人保健施設　畷生会　遊々館",
    "kana": "シャカイイリョウホウジンシンアイカイ　カイゴロウジンホケンシセツ　テッセイカイ　ユウユウカン",
    "address": "四條畷市江瀬美町26番7号",
    "lat": 34.7364159,
    "lng": 135.6369499,
    "tel": "072-863-7770",
    "url": "http://www.tesseikai.jp/yuyukan",
    "pref": "大阪府",
    "city": "四條畷市",
    "category": "rouken",
    "serviceType": "介護老人保健施設",
    "capacity": 0,
    "openDays": [],
    "openDaysNote": ""
  },
  {
    "id": "2753280037",
    "name": "パナソニック健康保険組合　松下介護老人保健施設はーとぴあ",
    "kana": "パナソニックケンコウホケンクミアイ　マツシタカイゴロウジンホケンシセツハートピア",
    "address": "大阪府守口市外島町5-55",
    "lat": 34.7436278,
    "lng": 135.5627563,
    "tel": "06-6992-8131",
    "url": "http://phio.panasonic.co.jp/rouken/index.htm",
    "pref": "大阪府",
    "city": "守口市",
    "category": "rouken",
    "serviceType": "介護老人保健施設",
    "capacity": 100,
    "openDays": [],
    "openDaysNote": ""
  },
  {
    "id": "2753280029",
    "name": "医療法人西浦会　介護老人保健施設長生苑",
    "kana": "イリョウホウジンニシウラカイ　カイゴロウジンホケンシセツチョウセイエン",
    "address": "大阪府守口市八雲中町３丁目１２番３号",
    "lat": 34.7472717,
    "lng": 135.5702,
    "tel": "06-6908-7770",
    "url": "http://www.cyoseien.jp/index.html",
    "pref": "大阪府",
    "city": "守口市",
    "category": "rouken",
    "serviceType": "介護老人保健施設",
    "capacity": 125,
    "openDays": [],
    "openDaysNote": ""
  },
  {
    "id": "2753280045",
    "name": "寺方老人保健施設ラガール",
    "kana": "テラカタロウジンホケンシセツラガール",
    "address": "大阪府守口市寺方本通一丁目5番5号",
    "lat": 34.724716986162,
    "lng": 135.574093409227,
    "tel": "06-6991-2020",
    "url": "http://www.koudoukai.or.jp/terakata-lagare/index.html",
    "pref": "大阪府",
    "city": "守口市",
    "category": "rouken",
    "serviceType": "介護老人保健施設",
    "capacity": 0,
    "openDays": [],
    "openDaysNote": ""
  },
  {
    "id": "2753280011",
    "name": "守口老人保健施設ラガール",
    "kana": "モリグチロウジンホケンシセツラガール",
    "address": "大阪府守口市大久保町３－３０－１５",
    "lat": 34.7546324,
    "lng": 135.5965946,
    "tel": "06-6900-1900",
    "url": "http://www.koudoukai.or.jp/m-lagare/",
    "pref": "大阪府",
    "city": "守口市",
    "category": "rouken",
    "serviceType": "介護老人保健施設",
    "capacity": 0,
    "openDays": [],
    "openDaysNote": ""
  },
  {
    "id": "2754880017",
    "name": "介護老人保健施設　松原徳洲苑",
    "kana": "カイゴロウジンホケンシセツ　マツバラトクシュウエン",
    "address": "大阪府松原市天美東7丁目103番地",
    "lat": 34.5883447186672,
    "lng": 135.538101594196,
    "tel": "072-334-3402",
    "url": "http://www.tokushukai.jp",
    "pref": "大阪府",
    "city": "松原市",
    "category": "rouken",
    "serviceType": "介護老人保健施設",
    "capacity": 150,
    "openDays": [],
    "openDaysNote": ""
  },
  {
    "id": "2750380038",
    "name": "医療法人　大雲会　介護老人保健施設　点野やすらぎの里",
    "kana": "イリョウホウジン　ダイウンカイ　カイゴロウジンホケンシセツ　シメノヤスラギノサト",
    "address": "大阪府寝屋川市点野1丁目1番26号",
    "lat": 34.7778576,
    "lng": 135.6030185,
    "tel": "072-801-5005",
    "url": "http://simenoyasuragi.com/",
    "pref": "大阪府",
    "city": "寝屋川市",
    "category": "rouken",
    "serviceType": "介護老人保健施設",
    "capacity": 100,
    "openDays": [],
    "openDaysNote": ""
  },
  {
    "id": "2750380012",
    "name": "医療法人協仁会　介護老人保健施設　松柏苑",
    "kana": "イリョウホウジンキョウジンカイカイゴロウジンホケンシセツショウハクエン",
    "address": "大阪府寝屋川市川勝町１１－２７",
    "lat": 34.7673122,
    "lng": 135.6321994,
    "tel": "072-823-1721",
    "url": "http://www.komatsu.or.jp",
    "pref": "大阪府",
    "city": "寝屋川市",
    "category": "rouken",
    "serviceType": "介護老人保健施設",
    "capacity": 0,
    "openDays": [],
    "openDaysNote": ""
  },
  {
    "id": "2750380020",
    "name": "介護老人保健施設　ハーモニィー",
    "kana": "カイゴロウジンホケンシセツ　ハーモニィー",
    "address": "大阪府寝屋川市寝屋２丁目１４番９号",
    "lat": 34.766668,
    "lng": 135.6610857,
    "tel": "072-824-2090",
    "url": "http://www.ichiyukai.jp/harmony/",
    "pref": "大阪府",
    "city": "寝屋川市",
    "category": "rouken",
    "serviceType": "介護老人保健施設",
    "capacity": 0,
    "openDays": [],
    "openDaysNote": ""
  },
  {
    "id": "2750380053",
    "name": "介護老人保健施設くすのき",
    "kana": "カイゴロウジンホケンシセツクスノキ",
    "address": "大阪府寝屋川市葛原1丁目29番13号",
    "lat": 34.7732405697221,
    "lng": 135.60838007791,
    "tel": "072-830-5551",
    "url": "http://www.kusunokiiin.com",
    "pref": "大阪府",
    "city": "寝屋川市",
    "category": "rouken",
    "serviceType": "介護老人保健施設",
    "capacity": 0,
    "openDays": [],
    "openDaysNote": ""
  },
  {
    "id": "2751680022",
    "name": "医療法人協和会介護老人保健施設ウエルハウス協和",
    "kana": "イリョウホウジンキョウワカイ　カイゴロウジンホケンシセツウエルハウスキョウワ",
    "address": "大阪府吹田市岸部北1丁目24番2号",
    "lat": 34.7808418,
    "lng": 135.5255715,
    "tel": "06-6339-0616",
    "url": "https://www.kyowakai.com/wh_kyowa/",
    "pref": "大阪府",
    "city": "吹田市",
    "category": "rouken",
    "serviceType": "介護老人保健施設",
    "capacity": 0,
    "openDays": [],
    "openDaysNote": ""
  },
  {
    "id": "2751680063",
    "name": "医療法人恒進會　介護老人保健施設たるみの里",
    "kana": "イリョウホウジンコウシンカイ　カイゴロウジンホケンシセツタルミノサト",
    "address": "大阪府吹田市新芦屋下27-8",
    "lat": 34.8034531,
    "lng": 135.5520676,
    "tel": "06-6878-7270",
    "url": "http://www.taruminosato.jp",
    "pref": "大阪府",
    "city": "吹田市",
    "category": "rouken",
    "serviceType": "介護老人保健施設",
    "capacity": 133,
    "openDays": [],
    "openDaysNote": ""
  },
  {
    "id": "2751680048",
    "name": "介護老人保健施設　　フェリーチェ吹田",
    "kana": "カイゴロウジンホケンシセツ　フェリーチェスイタ",
    "address": "大阪府吹田市岸部南１丁目２番９号",
    "lat": 34.7773118,
    "lng": 135.5441267,
    "tel": "06-6317-4165",
    "url": "http://www.aoyama-med.gr.jp/ontoku-welfare/felice-suita/",
    "pref": "大阪府",
    "city": "吹田市",
    "category": "rouken",
    "serviceType": "介護老人保健施設",
    "capacity": 0,
    "openDays": [],
    "openDaysNote": ""
  },
  {
    "id": "2751680097",
    "name": "介護老人保健施設吹田徳洲苑",
    "kana": "カイゴロウジンホケンシセツ　スイタトクシュウエン",
    "address": "大阪府吹田市千里丘西21番1号",
    "lat": 34.7976809,
    "lng": 135.5420011,
    "tel": "06-6878-9100",
    "url": "https://www.suita.tokushukai.or.jp/rouken/",
    "pref": "大阪府",
    "city": "吹田市",
    "category": "rouken",
    "serviceType": "介護老人保健施設",
    "capacity": null,
    "openDays": [],
    "openDaysNote": ""
  },
  {
    "id": "2751680055",
    "name": "介護老人保健施設千里",
    "kana": "カイゴロウジンホケンシセツセンリ",
    "address": "吹田市山田北5-14",
    "lat": 34.8087218,
    "lng": 135.5190343,
    "tel": "06-4864-0880",
    "url": "http://taizankai.org",
    "pref": "大阪府",
    "city": "吹田市",
    "category": "rouken",
    "serviceType": "介護老人保健施設",
    "capacity": 0,
    "openDays": [],
    "openDaysNote": ""
  },
  {
    "id": "2751680089",
    "name": "社会医療法人愛仁会　介護老人保健施設つくも",
    "kana": "シャカイイリョウホウジンアイジンカイ　カイゴロウジンホケンシセツツクモ",
    "address": "大阪府吹田市津雲台4丁目7番2号",
    "lat": 34.803161,
    "lng": 135.511299,
    "tel": "06-6872-0270",
    "url": "http://tsukumo.aijinkai.or.jp/",
    "pref": "大阪府",
    "city": "吹田市",
    "category": "rouken",
    "serviceType": "介護老人保健施設",
    "capacity": 90,
    "openDays": [],
    "openDaysNote": ""
  },
  {
    "id": "2751680014",
    "name": "吹田市介護老人保健施設",
    "kana": "スイタシカイゴロウジンホケンシセツ",
    "address": "大阪府吹田市片山町２丁目１３番２５号",
    "lat": 34.7690793,
    "lng": 135.5170875,
    "tel": "06-6330-5544",
    "url": "http://www.suita-rouken.com/",
    "pref": "大阪府",
    "city": "吹田市",
    "category": "rouken",
    "serviceType": "介護老人保健施設",
    "capacity": 0,
    "openDays": [],
    "openDaysNote": ""
  },
  {
    "id": "2753780010",
    "name": "医療法人医誠会介護老人保健施設エスペラル摂津",
    "kana": "イリョウホウジンイセイカイカイゴロウジンホケンシセツエスペラルセッツ",
    "address": "大阪府摂津市南千里丘1番24号介護老人保健施設エスペラル摂津 介護老人保健施設エスペラル摂津",
    "lat": 34.7828445,
    "lng": 135.5569533,
    "tel": "06-6319-0228",
    "url": "http://www.esp-settsu.com/",
    "pref": "大阪府",
    "city": "摂津市",
    "category": "rouken",
    "serviceType": "介護老人保健施設",
    "capacity": 0,
    "openDays": [],
    "openDaysNote": ""
  },
  {
    "id": "2753780028",
    "name": "老人保健施設　老健ひかり",
    "kana": "ロウジンホケンシセツ　ロウケンヒカリ",
    "address": "摂津市東別府五丁目2番45号",
    "lat": 34.7695794,
    "lng": 135.5563173,
    "tel": "06-6340-1155",
    "url": "http://settsu-roken-hikari.jp",
    "pref": "大阪府",
    "city": "摂津市",
    "category": "rouken",
    "serviceType": "介護老人保健施設",
    "capacity": 0,
    "openDays": [],
    "openDaysNote": ""
  },
  {
    "id": "2754580039",
    "name": "介護老人保健施設　エルダーケア",
    "kana": "カイゴロウジンホケンシセツ　エルダーケア",
    "address": "大阪府泉佐野市中庄１３１０番地",
    "lat": 34.4071561,
    "lng": 135.3307565,
    "tel": "072-458-7111",
    "url": "http://www.eldercare.or.jp",
    "pref": "大阪府",
    "city": "泉佐野市",
    "category": "rouken",
    "serviceType": "介護老人保健施設",
    "capacity": 0,
    "openDays": [],
    "openDaysNote": ""
  },
  {
    "id": "2754580021",
    "name": "介護老人保健施設　ホライズン",
    "kana": "カイゴロウジンホケンシセツ　ホライズン",
    "address": "大阪府泉佐野市下瓦屋２２１－１",
    "lat": 34.4171292,
    "lng": 135.3427038,
    "tel": "072-468-6829",
    "url": "https://www.horizon.or.jp",
    "pref": "大阪府",
    "city": "泉佐野市",
    "category": "rouken",
    "serviceType": "介護老人保健施設",
    "capacity": 90,
    "openDays": [],
    "openDaysNote": ""
  },
  {
    "id": "2754580013",
    "name": "介護老人保健施設　栄公苑",
    "kana": "カイゴロウジンホケンシセツ　エイコウエン",
    "address": "大阪府泉佐野市中町２丁目４番２８号",
    "lat": 34.400115,
    "lng": 135.3170244,
    "tel": "072-464-3009",
    "url": "http://www.sanokinen.jp",
    "pref": "大阪府",
    "city": "泉佐野市",
    "category": "rouken",
    "serviceType": "介護老人保健施設",
    "capacity": 0,
    "openDays": [],
    "openDaysNote": ""
  },
  {
    "id": "2750680015",
    "name": "医療法人穂仁会　介護老人保健施設　アザリア",
    "kana": "イリョウホウジンスイジンカイ　カイゴロウジンホケンシセツ　アザリア",
    "address": "大阪府泉大津市下条町13-10",
    "lat": 34.501577,
    "lng": 135.4126001,
    "tel": "0725-20-5770",
    "url": "http://www.suijinkai.jp",
    "pref": "大阪府",
    "city": "泉大津市",
    "category": "rouken",
    "serviceType": "介護老人保健施設",
    "capacity": 100,
    "openDays": [],
    "openDaysNote": ""
  },
  {
    "id": "2755680010",
    "name": "介護老人保健施設ケアセンター虹",
    "kana": "カイゴロウジンホケンシセツケアセンターニジ",
    "address": "大阪府泉南市中小路2丁目1860番地の1",
    "lat": 34.3732235,
    "lng": 135.2799303,
    "tel": "072-484-3377",
    "url": "http://sennan-osaka-seiai.or.jp",
    "pref": "大阪府",
    "city": "泉南市",
    "category": "rouken",
    "serviceType": "介護老人保健施設",
    "capacity": 0,
    "openDays": [],
    "openDaysNote": ""
  },
  {
    "id": "2755680028",
    "name": "介護老人保健施設ライフポート泉南",
    "kana": "カイゴロウジンホケンシセツライフポートセンナン",
    "address": "大阪府泉南市りんくう南浜３番7",
    "lat": 34.3794086,
    "lng": 135.2646396,
    "tel": "072-480-5610",
    "url": "http://www.saiseikaisennan.jp/",
    "pref": "大阪府",
    "city": "泉南市",
    "category": "rouken",
    "serviceType": "介護老人保健施設",
    "capacity": 90,
    "openDays": [],
    "openDaysNote": ""
  },
  {
    "id": "2753580030",
    "name": "介護老人保健施設　すずの音",
    "kana": "カイゴロウジンホケンシセツ　スズノネ",
    "address": "大阪府南河内郡太子町大字春日９７９番地の５９",
    "lat": 34.5271084,
    "lng": 135.6468113,
    "tel": "0721-98-6868",
    "url": "http://www.suzunone.net",
    "pref": "大阪府",
    "city": "太子町",
    "category": "rouken",
    "serviceType": "介護老人保健施設",
    "capacity": 100,
    "openDays": [],
    "openDaysNote": ""
  },
  {
    "id": "2759380021",
    "name": "医療法人藤田好生会・介護老人保健施設ふれあいの里好寿苑",
    "kana": "イリョウホウジンフジタコウセイカイ・カイゴロウジンホケンシセツフレアイノサトコウジュエン",
    "address": "大阪府大阪狭山市東野東１－３００－１",
    "lat": 34.5199273,
    "lng": 135.5606251,
    "tel": "072-366-1735",
    "url": "https://www.fujita-kouseikai.jp/",
    "pref": "大阪府",
    "city": "大阪狭山市",
    "category": "rouken",
    "serviceType": "介護老人保健施設",
    "capacity": 0,
    "openDays": [],
    "openDaysNote": ""
  },
  {
    "id": "2759380013",
    "name": "介護老人保健施設　さやまの里",
    "kana": "カイゴロウジンホケンシセツ　サヤマノサト",
    "address": "大阪府大阪狭山市岩室２丁目１８５－１１",
    "lat": 34.5036759,
    "lng": 135.5402663,
    "tel": "072-365-5878",
    "url": "http://www.sayama.or.jp",
    "pref": "大阪府",
    "city": "大阪狭山市",
    "category": "rouken",
    "serviceType": "介護老人保健施設",
    "capacity": 0,
    "openDays": [],
    "openDaysNote": ""
  },
  {
    "id": "2752380036",
    "name": "医療法人恵登久会　介護老人保健施設美富士苑",
    "kana": "イリョウホウジンケイトクカイ　カイゴロウジンホケンシセツミフジエン",
    "address": "大阪府大阪市阿倍野区阪南町7-2-10",
    "lat": 34.6188774675297,
    "lng": 135.511521140402,
    "tel": "06-6605-1215",
    "url": "http://www.koshikawa-hospital.or.jp/mifujien/index.html",
    "pref": "大阪府",
    "city": "大阪市阿倍野区",
    "category": "rouken",
    "serviceType": "介護老人保健施設",
    "capacity": 90,
    "openDays": [],
    "openDaysNote": ""
  },
  {
    "id": "2752380028",
    "name": "介護老人保健施設ホームランドあべの",
    "kana": "カイゴロウジンホケンシセツホームランドアベノ",
    "address": "大阪府大阪市阿倍野区王子町4-1-46",
    "lat": 34.6254531296762,
    "lng": 135.510184957008,
    "tel": "06-6621-1123",
    "url": "http://hl-abeno.or.jp",
    "pref": "大阪府",
    "city": "大阪市阿倍野区",
    "category": "rouken",
    "serviceType": "介護老人保健施設",
    "capacity": 100,
    "openDays": [],
    "openDaysNote": ""
  },
  {
    "id": "2752380010",
    "name": "社会医療法人山紀会　介護老人保健施設やまき・あべの苑",
    "kana": "シャカイイリョウホウジンヤマキカイ　カイゴロウジンホケンシセツヤマキアベノエン",
    "address": "大阪市阿倍野区阪南町1-45-8",
    "lat": 34.633903,
    "lng": 135.5153323,
    "tel": "06-4399-8600",
    "url": "http://www.yamakikai.or.jp/",
    "pref": "大阪府",
    "city": "大阪市阿倍野区",
    "category": "rouken",
    "serviceType": "介護老人保健施設",
    "capacity": 100,
    "openDays": [],
    "openDaysNote": ""
  },
  {
    "id": "2753180013",
    "name": "医療法人　清翠会　牧老人保健施設",
    "kana": "イリョウホウジン　セイスイカイ　マキロウジンホケンシセツ",
    "address": "大阪市旭区生江2-15-14",
    "lat": 34.7241768,
    "lng": 135.5381534,
    "tel": "06-6929-0300",
    "url": "http://www.maki-group.jp",
    "pref": "大阪府",
    "city": "大阪市旭区",
    "category": "rouken",
    "serviceType": "介護老人保健施設",
    "capacity": 0,
    "openDays": [],
    "openDaysNote": ""
  },
  {
    "id": "2753180021",
    "name": "医療法人清水会　介護老人保健施設おひさま園",
    "kana": "イリョウホウジンセイスイカイカイゴロウジンホケンシセツオヒサマエン",
    "address": "大阪府大阪市旭区清水２丁目1番21号",
    "lat": 34.7205858,
    "lng": 135.5571103,
    "tel": "06-6952-0101",
    "url": "http://www.seisuikai.net/",
    "pref": "大阪府",
    "city": "大阪市旭区",
    "category": "rouken",
    "serviceType": "介護老人保健施設",
    "capacity": 0,
    "openDays": [],
    "openDaysNote": ""
  },
  {
    "id": "2753180047",
    "name": "介護老人保健施設　フェリス生江",
    "kana": "カイゴロウジンホケン　フェリスイクエ",
    "address": "大阪府大阪市旭区生江1-5-9",
    "lat": 34.7231824,
    "lng": 135.5363813,
    "tel": "06-6928-3001",
    "url": "http://www.shoujinkai.or.jp/feliz_ikue/",
    "pref": "大阪府",
    "city": "大阪市旭区",
    "category": "rouken",
    "serviceType": "介護老人保健施設",
    "capacity": null,
    "openDays": [],
    "openDaysNote": ""
  },
  {
    "id": "2753180054",
    "name": "介護老人保健施設　牧すこやかセンター",
    "kana": "カイゴロウジンホケンシセツマキスコヤカセンター",
    "address": "大阪府大阪市旭区高殿6-14-41",
    "lat": 34.7171631,
    "lng": 135.5462268,
    "tel": "06-6955-4865",
    "url": "http://www.maki-group.jp",
    "pref": "大阪府",
    "city": "大阪市旭区",
    "category": "rouken",
    "serviceType": "介護老人保健施設",
    "capacity": 0,
    "openDays": [],
    "openDaysNote": ""
  },
  {
    "id": "2750480028",
    "name": "介護老人保健施設　港さつき苑",
    "kana": "カイゴロウジンホケンシセツ　ミナトサツキエン",
    "address": "大阪府大阪市港区弁天４丁目１６番１８号",
    "lat": 34.6711503,
    "lng": 135.4560921,
    "tel": "06-6571-6675",
    "url": "http://www.minato-satsukien.jp/index.html/",
    "pref": "大阪府",
    "city": "大阪市港区",
    "category": "rouken",
    "serviceType": "介護老人保健施設",
    "capacity": 170,
    "openDays": [],
    "openDaysNote": ""
  },
  {
    "id": "2750480010",
    "name": "多根介護老人保健施設てんぽーざん",
    "kana": "タネカイゴロウジンホケンシセツ　テンポーザン",
    "address": "大阪市港区築港3－4－25",
    "lat": 34.6552127,
    "lng": 135.4349306,
    "tel": "06-6599-1616",
    "url": "https://tenpozan.tane.or.jp/",
    "pref": "大阪府",
    "city": "大阪市港区",
    "category": "rouken",
    "serviceType": "介護老人保健施設",
    "capacity": 0,
    "openDays": [],
    "openDaysNote": ""
  },
  {
    "id": "2752880027",
    "name": "介護老人保健施設　あかつき",
    "kana": "カイゴロウジンホケンシセツ　アカツキ",
    "address": "大阪府大阪市此花区西九条5－3－51",
    "lat": 34.6847387,
    "lng": 135.4647312,
    "tel": "06-6466-8880",
    "url": "http://www.gyoumeikan.or.jp",
    "pref": "大阪府",
    "city": "大阪市此花区",
    "category": "rouken",
    "serviceType": "介護老人保健施設",
    "capacity": 0,
    "openDays": [],
    "openDaysNote": ""
  },
  {
    "id": "2752880019",
    "name": "介護老人保健施設桔梗苑",
    "kana": "カイゴロウジンホケンシセツキキョウエン",
    "address": "大阪府大阪市此花区伝法4-3-14",
    "lat": 34.6882557153744,
    "lng": 135.453122705557,
    "tel": "06-6466-9190",
    "url": "https://www.ihoukai.jp/kikyouen/",
    "pref": "大阪府",
    "city": "大阪市此花区",
    "category": "rouken",
    "serviceType": "介護老人保健施設",
    "capacity": 99,
    "openDays": [],
    "openDaysNote": ""
  },
  {
    "id": "2752080016",
    "name": "医療法人守田会　オりオノケアーセンター",
    "kana": "イリョウホウジンモリタカイ　オリオノケアーセンター",
    "address": "大阪府大阪市住吉区遠里小野1丁目2番21号",
    "lat": 34.6005708,
    "lng": 135.4987512,
    "tel": "06-6695-1811",
    "url": "http://www.moritakai.jp/care01/care01.html",
    "pref": "大阪府",
    "city": "大阪市住吉区",
    "category": "rouken",
    "serviceType": "介護老人保健施設",
    "capacity": 62,
    "openDays": [],
    "openDaysNote": ""
  },
  {
    "id": "2752080032",
    "name": "介護老人保健施設　錦秀苑",
    "kana": "カイゴロウジンホケンシセツ　キンシュウエン",
    "address": "大阪府大阪市住吉区南住吉一丁目２２番１７号",
    "lat": 34.6096753,
    "lng": 135.5014701,
    "tel": "06-6605-5221",
    "url": "https://www.kinshukai.or.jp",
    "pref": "大阪府",
    "city": "大阪市住吉区",
    "category": "rouken",
    "serviceType": "介護老人保健施設",
    "capacity": 100,
    "openDays": [],
    "openDaysNote": ""
  },
  {
    "id": "2752080024",
    "name": "介護老人保健施設　聖和苑",
    "kana": "カイゴロウジンホケンシセツ　セイワエン",
    "address": "大阪市住吉区帝塚山東2丁目1番35号",
    "lat": 34.6205796630075,
    "lng": 135.502271690213,
    "tel": "06-4701-7011",
    "url": "http://www.tezukayama.or.jp/seiwa/index.html",
    "pref": "大阪府",
    "city": "大阪市住吉区",
    "category": "rouken",
    "serviceType": "介護老人保健施設",
    "capacity": 0,
    "openDays": [],
    "openDaysNote": ""
  },
  {
    "id": "2755980014",
    "name": "アロンティアクラブ",
    "kana": "アロンティアクラブ",
    "address": "大阪市住之江区北島2-7-32",
    "lat": 34.6033118,
    "lng": 135.4766756,
    "tel": "06-6682-6620",
    "url": "http://www.kouzenkai.or.jp",
    "pref": "大阪府",
    "city": "大阪市住之江区",
    "category": "rouken",
    "serviceType": "介護老人保健施設",
    "capacity": 100,
    "openDays": [],
    "openDaysNote": ""
  },
  {
    "id": "2755980063",
    "name": "介護老人保健施設　カルチェ住吉川",
    "kana": "カイゴロウジンホケンシセツ　カルチェスミヨシガワ",
    "address": "大阪府大阪市住之江区北加賀屋一丁目１１番２０号",
    "lat": 34.6245414613706,
    "lng": 135.479359808529,
    "tel": "06-6686-2511",
    "url": "",
    "pref": "大阪府",
    "city": "大阪市住之江区",
    "category": "rouken",
    "serviceType": "介護老人保健施設",
    "capacity": null,
    "openDays": [],
    "openDaysNote": ""
  },
  {
    "id": "2755980089",
    "name": "介護老人保健施設雅秀苑",
    "kana": "カイゴロウジンホケンシセツガシュウエン",
    "address": "大阪府大阪市住之江区南港北1-4-1",
    "lat": 34.6384061,
    "lng": 135.4251848,
    "tel": "06-6613-8501",
    "url": "http://www.tezukayama.or.jp",
    "pref": "大阪府",
    "city": "大阪市住之江区",
    "category": "rouken",
    "serviceType": "介護老人保健施設",
    "capacity": 150,
    "openDays": [],
    "openDaysNote": ""
  },
  {
    "id": "2754480040",
    "name": "医療法人　浩治会　大阪城ケアホーム",
    "kana": "イリョウホウジン　コウチカイ　オオサカジョウケアホーム",
    "address": "大阪市城東区鴫野西２－５－２４",
    "lat": 34.6902692,
    "lng": 135.5366679,
    "tel": "06-6961-1151",
    "url": "http://www.carehome.or.jp",
    "pref": "大阪府",
    "city": "大阪市城東区",
    "category": "rouken",
    "serviceType": "介護老人保健施設",
    "capacity": 0,
    "openDays": [],
    "openDaysNote": ""
  },
  {
    "id": "2754480024",
    "name": "医療法人晃和会　介護老人保健施設放出ふれあいセンター",
    "kana": "イリョウホウジンコウワカイ　カイゴロウジンホケンシセツハナテンフレアイセンター",
    "address": "大阪市城東区放出西２丁目１８番４号",
    "lat": 34.6939413,
    "lng": 135.5587885,
    "tel": "06-6962-0871",
    "url": "http://kitada-iin.com",
    "pref": "大阪府",
    "city": "大阪市城東区",
    "category": "rouken",
    "serviceType": "介護老人保健施設",
    "capacity": 60,
    "openDays": [],
    "openDaysNote": ""
  },
  {
    "id": "2754480016",
    "name": "介護老人保健施設　幸成園",
    "kana": "カイゴロウジンホケンシセツ　コウセイエン",
    "address": "大阪市城東区今福西3-1-16",
    "lat": 34.7014792,
    "lng": 135.5469171,
    "tel": "06-6939-1881",
    "url": "https://koseien.com/",
    "pref": "大阪府",
    "city": "大阪市城東区",
    "category": "rouken",
    "serviceType": "介護老人保健施設",
    "capacity": 87,
    "openDays": [],
    "openDaysNote": ""
  },
  {
    "id": "2754480032",
    "name": "介護老人保健施設グリーンライフ",
    "kana": "カイゴロウジンホケンシセツ　グリーンライフ",
    "address": "大阪府大阪市城東区東中浜9-3-9",
    "lat": 34.682537,
    "lng": 135.5519696,
    "tel": "06-6965-0666",
    "url": "http://www.omichikai.or.jp",
    "pref": "大阪府",
    "city": "大阪市城東区",
    "category": "rouken",
    "serviceType": "介護老人保健施設",
    "capacity": 100,
    "openDays": [],
    "openDaysNote": ""
  },
  {
    "id": "2752280061",
    "name": "アネシス寺田町",
    "kana": "アネシステラダチョウ",
    "address": "大阪府大阪市生野区林寺1丁目4-24",
    "lat": 34.6456845243281,
    "lng": 135.528270071164,
    "tel": "06-6712-5030",
    "url": "http://i-souseikai.jp/",
    "pref": "大阪府",
    "city": "大阪市生野区",
    "category": "rouken",
    "serviceType": "介護老人保健施設",
    "capacity": 0,
    "openDays": [],
    "openDaysNote": ""
  },
  {
    "id": "2752280046",
    "name": "ケアホームフォーシーズン",
    "kana": "ケアホームフォーシーズン",
    "address": "大阪府大阪市生野区中川５－４－２",
    "lat": 34.6581424,
    "lng": 135.54574,
    "tel": "06-6755-1000",
    "url": "http://www.ikuno-chuo.com/fourseason_top.html",
    "pref": "大阪府",
    "city": "大阪市生野区",
    "category": "rouken",
    "serviceType": "介護老人保健施設",
    "capacity": 0,
    "openDays": [],
    "openDaysNote": ""
  },
  {
    "id": "2752280012",
    "name": "育和会介護老人保健施設ひまわり",
    "kana": "イクワカイカイゴロウジンホケンシセツヒマワリ",
    "address": "大阪市生野区巽西2丁目9番31号",
    "lat": 34.6499045,
    "lng": 135.5470677,
    "tel": "06-6751-7290",
    "url": "https://himawari.ikuwakai.or.jp/",
    "pref": "大阪府",
    "city": "大阪市生野区",
    "category": "rouken",
    "serviceType": "介護老人保健施設",
    "capacity": 100,
    "openDays": [],
    "openDaysNote": ""
  },
  {
    "id": "2752280020",
    "name": "介護老人保健施設　ハーモニー共和",
    "kana": "カイゴロウジンホケンシセツ　ハーモニーキョウワ",
    "address": "大阪府大阪市生野区巽中１丁目２０番１４号",
    "lat": 34.6516879,
    "lng": 135.5532923,
    "tel": "06-6755-0001",
    "url": "",
    "pref": "大阪府",
    "city": "大阪市生野区",
    "category": "rouken",
    "serviceType": "介護老人保健施設",
    "capacity": 0,
    "openDays": [],
    "openDaysNote": ""
  },
  {
    "id": "2752280038",
    "name": "老人保健施設　すこやか生野",
    "kana": "ロウジンホケンシセツ　スコヤカイクノ",
    "address": "大阪市生野区勝山北４丁目１番８号",
    "lat": 34.6575839,
    "lng": 135.535016,
    "tel": "06-6717-8002",
    "url": "http://www.aeba.or.jp/",
    "pref": "大阪府",
    "city": "大阪市生野区",
    "category": "rouken",
    "serviceType": "介護老人保健施設",
    "capacity": 0,
    "openDays": [],
    "openDaysNote": ""
  },
  {
    "id": "2751880028",
    "name": "介護老人保健施設　えきさい大阪",
    "kana": "カイゴロウジンホケンシセツ　エキサイオオサカ",
    "address": "大阪府大阪市西区本田２－１－１０",
    "lat": 34.6785612,
    "lng": 135.4791843,
    "tel": "06-6581-7655",
    "url": "http://www.ekisai-osaka.jp",
    "pref": "大阪府",
    "city": "大阪市西区",
    "category": "rouken",
    "serviceType": "介護老人保健施設",
    "capacity": 100,
    "openDays": [],
    "openDaysNote": ""
  },
  {
    "id": "2751880010",
    "name": "介護老人保健施設　健勝園九条",
    "kana": "カイゴロウジンホケンシセツ　ケンショウエンクジョウ",
    "address": "大阪府大阪市西区九条南３丁目２０-６",
    "lat": 34.6739615,
    "lng": 135.4704713,
    "tel": "06-4393-2525",
    "url": "http://www.kensyokai.jp",
    "pref": "大阪府",
    "city": "大阪市西区",
    "category": "rouken",
    "serviceType": "介護老人保健施設",
    "capacity": 100,
    "openDays": [],
    "openDaysNote": ""
  },
  {
    "id": "2753380068",
    "name": "医療法人　ダイワ会　介護老人保健施設　南部花園館",
    "kana": "イリョウホウジン　ダイワカイ　カイゴロウジンホケンシセツ　ナンブハナゾノカン",
    "address": "大阪府大阪市西成区梅南1丁目4番26号",
    "lat": 34.6433096,
    "lng": 135.494159,
    "tel": "06-6651-8700",
    "url": "http://www.daiwakai.or.jp/sukoyaka/",
    "pref": "大阪府",
    "city": "大阪市西成区",
    "category": "rouken",
    "serviceType": "介護老人保健施設",
    "capacity": 0,
    "openDays": [],
    "openDaysNote": ""
  },
  {
    "id": "2753380035",
    "name": "介護老人保健施設レジデント梅南",
    "kana": "カイゴロウジンホケンシセツレジデントバイナン",
    "address": "大阪市西成区梅南3―8―35",
    "lat": 34.6427213,
    "lng": 135.4860542,
    "tel": "06-4398-9111",
    "url": "",
    "pref": "大阪府",
    "city": "大阪市西成区",
    "category": "rouken",
    "serviceType": "介護老人保健施設",
    "capacity": 0,
    "openDays": [],
    "openDaysNote": ""
  },
  {
    "id": "2753380050",
    "name": "社会医療法人　山紀会　介護老人保健施設　はるか",
    "kana": "シャカイイリョウホウジン　ヤマキカイ　カイゴロウジンホケンシセツ　ハルカ",
    "address": "大阪府大阪市西成区岸里二丁目6番9号",
    "lat": 34.6333503,
    "lng": 135.4952675,
    "tel": "06-6659-0030",
    "url": "",
    "pref": "大阪府",
    "city": "大阪市西成区",
    "category": "rouken",
    "serviceType": "介護老人保健施設",
    "capacity": 0,
    "openDays": [],
    "openDaysNote": ""
  },
  {
    "id": "2753380027",
    "name": "社会医療法人山紀会　介護老人保健施設やまき苑",
    "kana": "シャカイイリョウホウジンヤマキカイ　カイゴロウジンホケンシセツヤマキエン",
    "address": "大阪市西成区玉出西２-５-36",
    "lat": 34.6247735,
    "lng": 135.4895683,
    "tel": "06-6659-2222",
    "url": "http://www.yamakikai.or.jp",
    "pref": "大阪府",
    "city": "大阪市西成区",
    "category": "rouken",
    "serviceType": "介護老人保健施設",
    "capacity": 100,
    "openDays": [],
    "openDaysNote": ""
  },
  {
    "id": "2751080033",
    "name": "介護老人保健施設セレーナなとり",
    "kana": "カイゴロウジンホケンシセツセレーナナトリ",
    "address": "大阪市西淀川区大野２丁目１番３５号",
    "lat": 34.700799,
    "lng": 135.4390428,
    "tel": "06-6474-9732",
    "url": "http://www.hakuyuukai.or.jp",
    "pref": "大阪府",
    "city": "大阪市西淀川区",
    "category": "rouken",
    "serviceType": "介護老人保健施設",
    "capacity": 50,
    "openDays": [],
    "openDaysNote": ""
  },
  {
    "id": "2751080058",
    "name": "介護老人保健施設なごみだいら",
    "kana": "カイゴロウジンホケンシセツナゴミダイラ",
    "address": "大阪府大阪市西淀川区福町2丁目11-7",
    "lat": 34.6953450561661,
    "lng": 135.442535212303,
    "tel": "06-4808-2961",
    "url": "http://www.fuyoufukusikai.com",
    "pref": "大阪府",
    "city": "大阪市西淀川区",
    "category": "rouken",
    "serviceType": "介護老人保健施設",
    "capacity": 162,
    "openDays": [],
    "openDaysNote": ""
  },
  {
    "id": "2751080017",
    "name": "介護老人保健施設フェリス大和田",
    "kana": "カイゴロウジンホケンシセツ　フェリスオオワダ",
    "address": "大阪府大阪市西淀川区大和田６丁目１３番４８号",
    "lat": 34.7060346,
    "lng": 135.4415813,
    "tel": "06-6474-6668",
    "url": "http://www.matsui-iryofukushi.gr.jp/",
    "pref": "大阪府",
    "city": "大阪市西淀川区",
    "category": "rouken",
    "serviceType": "介護老人保健施設",
    "capacity": 52,
    "openDays": [],
    "openDaysNote": ""
  },
  {
    "id": "2751080041",
    "name": "介護老人保健施設よどの里",
    "kana": "カイゴロウジンホケンシセツヨドノサト",
    "address": "大阪市西淀川区姫島2丁目13番20号",
    "lat": 34.7026963731041,
    "lng": 135.45341724418,
    "tel": "06-6473-5152",
    "url": "http://www.yodokyo.or.jp/yodonosato/",
    "pref": "大阪府",
    "city": "大阪市西淀川区",
    "category": "rouken",
    "serviceType": "介護老人保健施設",
    "capacity": 100,
    "openDays": [],
    "openDaysNote": ""
  },
  {
    "id": "2751080025",
    "name": "社会医療法人愛仁会介護老人保健施設ユーアイ",
    "kana": "シャカイイリョウホウジンアイジンカイカイゴロウジンホケンシセツユーアイ",
    "address": "大阪市西淀川区佃２丁目２－５８",
    "lat": 34.7129729,
    "lng": 135.4468114,
    "tel": "06-6471-5236",
    "url": "http://www.aijinkai.or.jp",
    "pref": "大阪府",
    "city": "大阪市西淀川区",
    "category": "rouken",
    "serviceType": "介護老人保健施設",
    "capacity": 100,
    "openDays": [],
    "openDaysNote": ""
  },
  {
    "id": "2752780011",
    "name": "医療法人社団緑会介護老人保健施設エバーグリーン",
    "kana": "イリョウホウジンシャダンミドリカイカイゴロウジンホケンシセツエバーグリーン",
    "address": "大阪府大阪市大正区泉尾２丁目２０－４",
    "lat": 34.6607909,
    "lng": 135.471441,
    "tel": "06-6553-0730",
    "url": "http://www.midorikai.net/",
    "pref": "大阪府",
    "city": "大阪市大正区",
    "category": "rouken",
    "serviceType": "介護老人保健施設",
    "capacity": 0,
    "openDays": [],
    "openDaysNote": ""
  },
  {
    "id": "2752780029",
    "name": "介護老人保健施設　つるまち",
    "kana": "カイゴロウジンホケンシセツ　ツルマチ",
    "address": "大阪市大正区鶴町２丁目１５－１８",
    "lat": 34.6376348,
    "lng": 135.454035,
    "tel": "06-6553-6666",
    "url": "http://www.keieikai.com/houjin/rinen.htm",
    "pref": "大阪府",
    "city": "大阪市大正区",
    "category": "rouken",
    "serviceType": "介護老人保健施設",
    "capacity": 0,
    "openDays": [],
    "openDaysNote": ""
  },
  {
    "id": "2752780037",
    "name": "介護老人保健施設愛の里",
    "kana": "カイゴロウジンホケンシセツアイノサト",
    "address": "大阪府大阪市大正区小林東2-6-14",
    "lat": 34.6431835533374,
    "lng": 135.475940655959,
    "tel": "06-6555-4165",
    "url": "http://ainosato-kaigo.com/",
    "pref": "大阪府",
    "city": "大阪市大正区",
    "category": "rouken",
    "serviceType": "介護老人保健施設",
    "capacity": 0,
    "openDays": [],
    "openDaysNote": ""
  },
  {
    "id": "2759480029",
    "name": "介護老人保健施設おとしより健康センター",
    "kana": "カイゴロウジンホケンシセツオトシヨリケンコウセンター",
    "address": "大阪府大阪市中央区島之内2丁目12番28号",
    "lat": 34.6716235,
    "lng": 135.5076319,
    "tel": "06-6212-3271",
    "url": "http://otoshiyori-kc.com/",
    "pref": "大阪府",
    "city": "大阪市中央区",
    "category": "rouken",
    "serviceType": "介護老人保健施設",
    "capacity": 0,
    "openDays": [],
    "openDaysNote": ""
  },
  {
    "id": "2759280023",
    "name": "医療法人　真和会　老人保健施設プリオール",
    "kana": "イリョウホウジンシンワカイロウジンホケンシセツプリオール",
    "address": "大阪府大阪市鶴見区中茶屋２丁目１－２２",
    "lat": 34.7013885,
    "lng": 135.5866554,
    "tel": "06-6914-6660",
    "url": "http://www.shinwakai-or.or.jp/",
    "pref": "大阪府",
    "city": "大阪市鶴見区",
    "category": "rouken",
    "serviceType": "介護老人保健施設",
    "capacity": 60,
    "openDays": [],
    "openDaysNote": ""
  },
  {
    "id": "2759280031",
    "name": "介護老人保健施設　鶴見せいわ園",
    "kana": "カイゴロウジンホケンシセツツルミセイワエン",
    "address": "大阪府大阪市鶴見区鶴見一丁目６番１１１号",
    "lat": 34.6967107,
    "lng": 135.5671988,
    "tel": "06-4257-1250",
    "url": "https://www.hondahp.or.jp/facility_tsurumi_seiwa_en/index.html",
    "pref": "大阪府",
    "city": "大阪市鶴見区",
    "category": "rouken",
    "serviceType": "介護老人保健施設",
    "capacity": 100,
    "openDays": [],
    "openDaysNote": ""
  },
  {
    "id": "2759280049",
    "name": "介護老人保健施設すいれん",
    "kana": "カイゴロウジンホケンシセツスイレン",
    "address": "大阪府大阪市鶴見区諸口6-15-74介護老人保健施設すいれん 介護老人保健施設すいれん",
    "lat": 34.7080847,
    "lng": 135.5783671,
    "tel": "06-6115-9002",
    "url": "http://www.kawafukukai.or.jp/",
    "pref": "大阪府",
    "city": "大阪市鶴見区",
    "category": "rouken",
    "serviceType": "介護老人保健施設",
    "capacity": 100,
    "openDays": [],
    "openDaysNote": ""
  },
  {
    "id": "2759280015",
    "name": "鶴見老人保健施設ラガール",
    "kana": "ツルミロウジンホケンシセツラガール",
    "address": "大阪市鶴見区横堤４－３－３０",
    "lat": 34.7042016,
    "lng": 135.5706374,
    "tel": "06-6915-8181",
    "url": "http://www1.odn.ne.jp/tsurumi-lagare",
    "pref": "大阪府",
    "city": "大阪市鶴見区",
    "category": "rouken",
    "serviceType": "介護老人保健施設",
    "capacity": 0,
    "openDays": [],
    "openDaysNote": ""
  },
  {
    "id": "2751780020",
    "name": "医療法人歓喜会　介護老人保健施設　れいんぼう夕陽丘",
    "kana": "イリョウホウジンカンキカイ　カイゴロウジンホケンシセツ　レインボウユウヒガオカ",
    "address": "大阪府大阪市天王寺区生玉前町３番２４号",
    "lat": 34.6644021,
    "lng": 135.5157314,
    "tel": "06-6770-2211",
    "url": "http://www.kankikai.com/",
    "pref": "大阪府",
    "city": "大阪市天王寺区",
    "category": "rouken",
    "serviceType": "介護老人保健施設",
    "capacity": 73,
    "openDays": [],
    "openDaysNote": ""
  },
  {
    "id": "2751780012",
    "name": "介護老人保健施設みずほ倶楽部",
    "kana": "カイゴロウジンホケンシセツミズホクラブ",
    "address": "大阪府大阪市天王寺区清水谷町５－２７",
    "lat": 34.6755204,
    "lng": 135.5221527,
    "tel": "06-6767-2311",
    "url": "http://www.mizuho-kai.com",
    "pref": "大阪府",
    "city": "大阪市天王寺区",
    "category": "rouken",
    "serviceType": "介護老人保健施設",
    "capacity": 100,
    "openDays": [],
    "openDaysNote": ""
  },
  {
    "id": "2755280043",
    "name": "介護老人保健施設　庵みやこじま",
    "kana": "カイゴロウジンホケンシセツ　イオリミヤコジマ",
    "address": "大阪府大阪市都島区都島本通５丁目１４－４",
    "lat": 34.7081868,
    "lng": 135.5345566,
    "tel": "06-6180-7861",
    "url": "https://kosumosukaigr.jp/",
    "pref": "大阪府",
    "city": "大阪市都島区",
    "category": "rouken",
    "serviceType": "介護老人保健施設",
    "capacity": 0,
    "openDays": [],
    "openDaysNote": ""
  },
  {
    "id": "2755280027",
    "name": "介護老人保健施設　東雄苑都島",
    "kana": "カイゴロウジンホケンシセツ　トウユウエンミヤコジマ",
    "address": "大阪市都島区中野町１丁目１３番１２号",
    "lat": 34.7011875,
    "lng": 135.5239379,
    "tel": "06-6135-0505",
    "url": "http://www.oukikai.or.jp/toyuen_miyakojima/index.html",
    "pref": "大阪府",
    "city": "大阪市都島区",
    "category": "rouken",
    "serviceType": "介護老人保健施設",
    "capacity": 0,
    "openDays": [],
    "openDaysNote": ""
  },
  {
    "id": "2755280019",
    "name": "社会医療法人明生会介護老人保健施設桜の宮苑",
    "kana": "シャカイイリョウホウジンメイセイカイカイゴロウジンホケンシセツサクラノミヤエン",
    "address": "大阪市都島区都島中通１－７－１",
    "lat": 34.7048371,
    "lng": 135.5283154,
    "tel": "06-6923-5656",
    "url": "http://meiseigrp.jp/",
    "pref": "大阪府",
    "city": "大阪市都島区",
    "category": "rouken",
    "serviceType": "介護老人保健施設",
    "capacity": 0,
    "openDays": [],
    "openDaysNote": ""
  },
  {
    "id": "2750880052",
    "name": "パークサイドなごみ",
    "kana": "パークサイドナゴミ",
    "address": "大阪府大阪市東住吉区公園南矢田3-19-12",
    "lat": 34.5994904,
    "lng": 135.5269204,
    "tel": "06-6606-2211",
    "url": "https://psnagomi.com/",
    "pref": "大阪府",
    "city": "大阪市東住吉区",
    "category": "rouken",
    "serviceType": "介護老人保健施設",
    "capacity": 100,
    "openDays": [],
    "openDaysNote": ""
  },
  {
    "id": "2750880086",
    "name": "医療法人　玄竜会　サナティオ湯里",
    "kana": "イリョウホウジン　ゲンリュウカイ　サナティオユザト",
    "address": "大阪府大阪市東住吉区湯里2-16-3",
    "lat": 34.6160608,
    "lng": 135.5369306,
    "tel": "06-6703-4535",
    "url": "https://genryuukai.com/sanatio-yuzato/index.html",
    "pref": "大阪府",
    "city": "大阪市東住吉区",
    "category": "rouken",
    "serviceType": "介護老人保健施設",
    "capacity": null,
    "openDays": [],
    "openDaysNote": ""
  },
  {
    "id": "2750880094",
    "name": "医療法人玄竜会　田辺駅前ケアセンター",
    "kana": "イリョウホウジンゲンリュウカイ　タナベエキマエケアセンター",
    "address": "大阪府大阪市東住吉区北田辺６－１６－３０",
    "lat": 34.6283659455369,
    "lng": 135.525841820763,
    "tel": "06-6622-1165",
    "url": "http://genryuukai.com/tanabeekimae-cc/",
    "pref": "大阪府",
    "city": "大阪市東住吉区",
    "category": "rouken",
    "serviceType": "介護老人保健施設",
    "capacity": 0,
    "openDays": [],
    "openDaysNote": ""
  },
  {
    "id": "2750880011",
    "name": "介護老人保健施設　たちばな",
    "kana": "カイゴロウジンホケンシセツタチバナ",
    "address": "大阪市東住吉区住道矢田９丁目11番11号",
    "lat": 34.6003792,
    "lng": 135.543111,
    "tel": "06-6769-0600",
    "url": "http://www.tachibana-med.or.jp/",
    "pref": "大阪府",
    "city": "大阪市東住吉区",
    "category": "rouken",
    "serviceType": "介護老人保健施設",
    "capacity": 100,
    "openDays": [],
    "openDaysNote": ""
  },
  {
    "id": "2750880029",
    "name": "介護老人保健施設　桑の実",
    "kana": "カイゴロウジンホケンシセツ　クワノミ",
    "address": "大阪市東住吉区桑津４－４－５介護老人保健施設　桑の実 介護老人保健施設　桑の実",
    "lat": 34.6375501,
    "lng": 135.5324807,
    "tel": "06-6710-7555",
    "url": "http://www.kuwanomi-yodoi.or.jp/",
    "pref": "大阪府",
    "city": "大阪市東住吉区",
    "category": "rouken",
    "serviceType": "介護老人保健施設",
    "capacity": 100,
    "openDays": [],
    "openDaysNote": ""
  },
  {
    "id": "2750880102",
    "name": "介護老人保健施設　東住吉すみれ苑",
    "kana": "カイゴロウジンホケンシセツ　ヒガシスミヨシスミレエン",
    "address": "大阪府大阪市東住吉区矢田1丁目23-6",
    "lat": 34.6062952,
    "lng": 135.5295979,
    "tel": "06-6693-6999",
    "url": "http://higashi-sumiyoshi-sumire.jp",
    "pref": "大阪府",
    "city": "大阪市東住吉区",
    "category": "rouken",
    "serviceType": "介護老人保健施設",
    "capacity": 0,
    "openDays": [],
    "openDaysNote": ""
  },
  {
    "id": "2750880037",
    "name": "介護老人保健施設ヴァンサンク",
    "kana": "カイゴロウジンホケンシセツウ゛ァンサンク",
    "address": "大阪府大阪市東住吉区湯里２－１２－２６",
    "lat": 34.614286,
    "lng": 135.5368862,
    "tel": "06-6704-3511",
    "url": "http://www.kaseikai.or.jp/",
    "pref": "大阪府",
    "city": "大阪市東住吉区",
    "category": "rouken",
    "serviceType": "介護老人保健施設",
    "capacity": 100,
    "openDays": [],
    "openDaysNote": ""
  },
  {
    "id": "2750880045",
    "name": "西中介護老人保健施設　ヴィーブル　ジョワ",
    "kana": "ニシナカカイゴロウジンホケンシセツ",
    "address": "大阪府大阪市東住吉区公園南矢田四丁目19番29号",
    "lat": 34.5988183,
    "lng": 135.5247066,
    "tel": "06-6698-9191",
    "url": "http://www.nishinaka.or.jp/",
    "pref": "大阪府",
    "city": "大阪市東住吉区",
    "category": "rouken",
    "serviceType": "介護老人保健施設",
    "capacity": 0,
    "openDays": [],
    "openDaysNote": ""
  },
  {
    "id": "2751580024",
    "name": "医療法人浩治会大今里ケアホーム",
    "kana": "イリョウホウジンコウチカイオオイマザトケアホーム",
    "address": "大阪市東成区大今里西2-17-16",
    "lat": 34.6688249603413,
    "lng": 135.541536423943,
    "tel": "06-6975-3090",
    "url": "http://www.i-carehome.com/",
    "pref": "大阪府",
    "city": "大阪市東成区",
    "category": "rouken",
    "serviceType": "介護老人保健施設",
    "capacity": 0,
    "openDays": [],
    "openDaysNote": ""
  },
  {
    "id": "2751580040",
    "name": "介護老人保健施設　おとしよりすこやかセンター東部館",
    "kana": "カイゴロウジンホケンシセツ　オトシヨリスコヤカセンタートウブカン",
    "address": "大阪府大阪市東成区東中本２丁目５番３１号",
    "lat": 34.6793579,
    "lng": 135.5482011,
    "tel": "06-6977-0010",
    "url": "https://kodokai.or.jp/publics/index/37/",
    "pref": "大阪府",
    "city": "大阪市東成区",
    "category": "rouken",
    "serviceType": "介護老人保健施設",
    "capacity": 0,
    "openDays": [],
    "openDaysNote": ""
  },
  {
    "id": "2753080049",
    "name": "介護老人保健施設　菜乃花",
    "kana": "カイゴロウジンホケンシセツ　ナノカ",
    "address": "大阪府大阪市東淀川区上新庄1-2-5",
    "lat": 34.7442381,
    "lng": 135.5274734,
    "tel": "06-6160-6541",
    "url": "https://www.ontoku.or.jp",
    "pref": "大阪府",
    "city": "大阪市東淀川区",
    "category": "rouken",
    "serviceType": "介護老人保健施設",
    "capacity": 100,
    "openDays": [],
    "openDaysNote": ""
  },
  {
    "id": "2753080031",
    "name": "介護老人保健施設エスペラル井高野",
    "kana": "カイゴロウジンホケンシセツエスペラルイタカノ",
    "address": "大阪府大阪市東淀川区井高野4-6-37",
    "lat": 34.7670242,
    "lng": 135.5486708,
    "tel": "06-6829-2200",
    "url": "http://www.esp-itakano.com/",
    "pref": "大阪府",
    "city": "大阪市東淀川区",
    "category": "rouken",
    "serviceType": "介護老人保健施設",
    "capacity": 120,
    "openDays": [],
    "openDaysNote": ""
  },
  {
    "id": "2753080015",
    "name": "介護老人保健施設エスペラル東淀川",
    "kana": "カイゴロウジンホケンシセツエスペラルヒガシヨドガワ",
    "address": "大阪府大阪市東淀川区菅原1丁目1番21号",
    "lat": 34.7355558,
    "lng": 135.5251155,
    "tel": "06-6325-1781",
    "url": "http://www.esp-higashiyodogawa.com/",
    "pref": "大阪府",
    "city": "大阪市東淀川区",
    "category": "rouken",
    "serviceType": "介護老人保健施設",
    "capacity": 150,
    "openDays": [],
    "openDaysNote": ""
  },
  {
    "id": "2753080023",
    "name": "淀川キリスト教病院老人保健施設",
    "kana": "ヨドガワキリストキョウビョウインロウジンホケンシセツ",
    "address": "大阪市東淀川区淡路２－１－４１",
    "lat": 34.7354248,
    "lng": 135.5111668,
    "tel": "06-6815-8222",
    "url": "https://www.ych.or.jp/group/rouken/",
    "pref": "大阪府",
    "city": "大阪市東淀川区",
    "category": "rouken",
    "serviceType": "介護老人保健施設",
    "capacity": 100,
    "openDays": [],
    "openDaysNote": ""
  },
  {
    "id": "2750280014",
    "name": "介護老人保健施設のだふじ",
    "kana": "カイゴロウジンホケンシセツノダフジ",
    "address": "大阪府大阪市福島区吉野４丁目２９番１８号",
    "lat": 34.6896402,
    "lng": 135.4695654,
    "tel": "06-6463-1131",
    "url": "https://nodafuji.cocotte.jp/",
    "pref": "大阪府",
    "city": "大阪市福島区",
    "category": "rouken",
    "serviceType": "介護老人保健施設",
    "capacity": 80,
    "openDays": [],
    "openDaysNote": ""
  },
  {
    "id": "2755880040",
    "name": "医療法人隆星会　介護老人保健施設オアシス",
    "kana": "イリョウホウジンリュウセイカイ　カイゴロウジンホケンシセツオアシス",
    "address": "大阪市平野区平野南一丁目7番7号",
    "lat": 34.6193198047055,
    "lng": 135.558520738098,
    "tel": "06-6790-1760",
    "url": "http://oasisgroup.or.jp/",
    "pref": "大阪府",
    "city": "大阪市平野区",
    "category": "rouken",
    "serviceType": "介護老人保健施設",
    "capacity": 100,
    "openDays": [],
    "openDaysNote": ""
  },
  {
    "id": "2755880065",
    "name": "介護療養型老人保健施設ナーシングホーム長吉",
    "kana": "カイゴリョウヨウガタロウジンホケンシセツナーシングホームナガヨシ",
    "address": "大阪市平野区長吉長原1-2-34",
    "lat": 34.6064706,
    "lng": 135.5675063,
    "tel": "06-6709-0301",
    "url": "http://www.ngh.or.jp/rouken.html",
    "pref": "大阪府",
    "city": "大阪市平野区",
    "category": "rouken",
    "serviceType": "介護老人保健施設",
    "capacity": 29,
    "openDays": [],
    "openDaysNote": ""
  },
  {
    "id": "2755880073",
    "name": "介護老人保健施設　フェリス加美",
    "kana": "カイゴロウジンホケンシセツ　フェリスカミ",
    "address": "大阪府大阪市平野区加美西2-3-1",
    "lat": 34.6249353,
    "lng": 135.5621034,
    "tel": "06-6795-1178",
    "url": "http://www.shoujinkai.or.jp/feliz_kami/",
    "pref": "大阪府",
    "city": "大阪市平野区",
    "category": "rouken",
    "serviceType": "介護老人保健施設",
    "capacity": 60,
    "openDays": [],
    "openDaysNote": ""
  },
  {
    "id": "2755880016",
    "name": "介護老人保健施設　平野新生苑",
    "kana": "カイゴロウジンホケンシセツ　ヒラノシンセイエン",
    "address": "大阪市平野区平野東１ー８ー２９",
    "lat": 34.6235336128715,
    "lng": 135.55968136627,
    "tel": "06-6791-0081",
    "url": "https://murata-clinic-houjukai.jp/_m/",
    "pref": "大阪府",
    "city": "大阪市平野区",
    "category": "rouken",
    "serviceType": "介護老人保健施設",
    "capacity": 43,
    "openDays": [],
    "openDaysNote": ""
  },
  {
    "id": "2755880107",
    "name": "介護老人保健施設おとしよりすこやかセンター南部館",
    "kana": "カイゴロウジンホケンシセツオトシヨリスコヤカセンターナンブカン",
    "address": "大阪府大阪市平野区喜連西6丁目2番33号",
    "lat": 34.6106045888512,
    "lng": 135.547601659525,
    "tel": "０６－６７０１－６７００",
    "url": "https://nanbukan.org",
    "pref": "大阪府",
    "city": "大阪市平野区",
    "category": "rouken",
    "serviceType": "介護老人保健施設",
    "capacity": null,
    "openDays": [],
    "openDaysNote": ""
  },
  {
    "id": "2755880081",
    "name": "社会福祉法人　恩徳福祉会　介護老人保健施設　ながよし苑",
    "kana": "シャカイフクシホウジン　オントクフクシカイ　カイゴロウジンホケンシセツ　ナガヨシエン",
    "address": "大阪府大阪市平野区長吉川辺3丁目8番5号",
    "lat": 34.5976189,
    "lng": 135.5754586,
    "tel": "06-6701-3115",
    "url": "http://www.ontoku.or.jp/area/osaka-central/",
    "pref": "大阪府",
    "city": "大阪市平野区",
    "category": "rouken",
    "serviceType": "介護老人保健施設",
    "capacity": 0,
    "openDays": [],
    "openDaysNote": ""
  },
  {
    "id": "2755880057",
    "name": "老人保健施設　永寿ケアセンター",
    "kana": "ロウジンホケンシセツ　エイジュケアセンター",
    "address": "大阪府大阪市平野区瓜破南１丁目２番３０号",
    "lat": 34.5966019,
    "lng": 135.5467609,
    "tel": "06-6760-0707",
    "url": "http://www.eijyu.or.jp",
    "pref": "大阪府",
    "city": "大阪市平野区",
    "category": "rouken",
    "serviceType": "介護老人保健施設",
    "capacity": 100,
    "openDays": [],
    "openDaysNote": ""
  },
  {
    "id": "2754180020",
    "name": "介護老人保健施設　青美",
    "kana": "カイゴロウジンホケンシセツ　セイビ",
    "address": "大阪府大阪市北区中崎西３－３－４０",
    "lat": 34.7075751,
    "lng": 135.5022037,
    "tel": "06-6485-2283",
    "url": "http://taizankai.org/",
    "pref": "大阪府",
    "city": "大阪市北区",
    "category": "rouken",
    "serviceType": "介護老人保健施設",
    "capacity": 0,
    "openDays": [],
    "openDaysNote": ""
  },
  {
    "id": "2754180046",
    "name": "老健そねざき",
    "kana": "ロウケンソネザキ",
    "address": "大阪府大阪市北区曽根崎1丁目1番20号",
    "lat": 34.6985878,
    "lng": 135.5038348,
    "tel": "06-7501-8689",
    "url": "http://www.heiseifukushikai.com",
    "pref": "大阪府",
    "city": "大阪市北区",
    "category": "rouken",
    "serviceType": "介護老人保健施設",
    "capacity": 0,
    "openDays": [],
    "openDaysNote": ""
  },
  {
    "id": "2759180017",
    "name": "社会医療法人協和会　淀川介護老人保健施設ハートフル",
    "kana": "シャカイイリョウホウジンキョウワカイヨドガワカイゴロウジンホケンシセツハートフル",
    "address": "大阪府大阪市淀川区十三東５丁目３番２９号",
    "lat": 34.7243225,
    "lng": 135.4835276,
    "tel": "06-6302-8686",
    "url": "http://www.heartfull.or.jp",
    "pref": "大阪府",
    "city": "大阪市淀川区",
    "category": "rouken",
    "serviceType": "介護老人保健施設",
    "capacity": 150,
    "openDays": [],
    "openDaysNote": ""
  },
  {
    "id": "2759180025",
    "name": "淀川老人保健施設けあきのもり",
    "kana": "ヨドガワロウジンホケンシセツケアキノモリ",
    "address": "大阪府大阪市淀川区新高１－７－２０",
    "lat": 34.7323627,
    "lng": 135.4810823,
    "tel": "06-6350-8220",
    "url": "https://keakinomori.keakikai.com/",
    "pref": "大阪府",
    "city": "大阪市淀川区",
    "category": "rouken",
    "serviceType": "介護老人保健施設",
    "capacity": 100,
    "openDays": [],
    "openDaysNote": ""
  },
  {
    "id": "2754380018",
    "name": "介護老人保健施設　さくらがわ",
    "kana": "カイゴロウジンホケンシセツ　サクラガワ",
    "address": "大阪市浪速区桜川４丁目１０－１３",
    "lat": 34.6656435,
    "lng": 135.4858091,
    "tel": "06-6567-4165",
    "url": "http://www.keieikai.com",
    "pref": "大阪府",
    "city": "大阪市浪速区",
    "category": "rouken",
    "serviceType": "介護老人保健施設",
    "capacity": 0,
    "openDays": [],
    "openDaysNote": ""
  },
  {
    "id": "2751980018",
    "name": "介護老人保健施設　竜間之郷",
    "kana": "カイゴロウジンホケンシセツ　タツマノサト",
    "address": "大阪府大東市大字龍間1595-7",
    "lat": 34.7093191,
    "lng": 135.6571683,
    "tel": "072-869-0076",
    "url": "https://www.wakakoukai.or.jp/tatsumanosato/",
    "pref": "大阪府",
    "city": "大東市",
    "category": "rouken",
    "serviceType": "介護老人保健施設",
    "capacity": 0,
    "openDays": [],
    "openDaysNote": ""
  },
  {
    "id": "2751980026",
    "name": "介護老人保健施設阪奈苑",
    "kana": "カイゴロウジンホケンシセツハンナエン",
    "address": "大東市寺川１丁目１番１号",
    "lat": 34.7085105,
    "lng": 135.639464,
    "tel": "072-875-0001",
    "url": "http://www.jinsen.jp/~hannaen/",
    "pref": "大阪府",
    "city": "大東市",
    "category": "rouken",
    "serviceType": "介護老人保健施設",
    "capacity": 95,
    "openDays": [],
    "openDaysNote": ""
  },
  {
    "id": "2752580015",
    "name": "医療法人マックシール巽病院介護老人保健施設",
    "kana": "イリョウホウジンマックシールタツミビョウインカイゴロウジンホケンシセツ",
    "address": "大阪府池田市天神1-5-22",
    "lat": 34.8091511,
    "lng": 135.4424652,
    "tel": "072-763-5111",
    "url": "http://www.mcsyl.com/",
    "pref": "大阪府",
    "city": "池田市",
    "category": "rouken",
    "serviceType": "介護老人保健施設",
    "capacity": 120,
    "openDays": [],
    "openDaysNote": ""
  },
  {
    "id": "2752580023",
    "name": "介護老人保健施設　かいせい",
    "kana": "カイゴロウジンホケンシセツ　カイセイ",
    "address": "大阪府池田市建石町８番４７号",
    "lat": 34.8258825,
    "lng": 135.4297742,
    "tel": "072-751-8003",
    "url": "http://www.ikedakaisei-hp.com/",
    "pref": "大阪府",
    "city": "池田市",
    "category": "rouken",
    "serviceType": "介護老人保健施設",
    "capacity": 0,
    "openDays": [],
    "openDaysNote": ""
  },
  {
    "id": "2753980016",
    "name": "介護老人保健施設若山荘",
    "kana": "カイゴロウジンホケンシセツワカヤマソウ",
    "address": "大阪府三島郡島本町大字広瀬１１２１番地",
    "lat": 34.8867810877019,
    "lng": 135.658379092607,
    "tel": "075-961-6789",
    "url": "http://www.minasehp.jp/",
    "pref": "大阪府",
    "city": "島本町",
    "category": "rouken",
    "serviceType": "介護老人保健施設",
    "capacity": 88,
    "openDays": [],
    "openDaysNote": ""
  },
  {
    "id": "2755080070",
    "name": "医療法人　興世会　介護老人保健施設　石きり",
    "kana": "イリョウホウジン　コウセイカイ　カイゴロウジンホケンシセツ　イシキリ",
    "address": "東大阪市東石切町1丁目7番27号",
    "lat": 34.6809279,
    "lng": 135.6467832,
    "tel": "072-981-0122",
    "url": "http://www.ishikiri.net/",
    "pref": "大阪府",
    "city": "東大阪市",
    "category": "rouken",
    "serviceType": "介護老人保健施設",
    "capacity": 90,
    "openDays": [],
    "openDaysNote": ""
  },
  {
    "id": "2755080047",
    "name": "介護老人保健施設　　ヴァンベール",
    "kana": "カイゴロウジンホケンシセツ　　バンベエル",
    "address": "大阪府東大阪市岩田町４丁目２番１号",
    "lat": 34.6646068,
    "lng": 135.608923,
    "tel": "072-961-7875",
    "url": "http://juzankai.com/shisetsu/index.html",
    "pref": "大阪府",
    "city": "東大阪市",
    "category": "rouken",
    "serviceType": "介護老人保健施設",
    "capacity": 85,
    "openDays": [],
    "openDaysNote": ""
  },
  {
    "id": "2755080096",
    "name": "介護老人保健施設　アーバンケア",
    "kana": "カイゴロウジンホケンシセツ　アーバンケア",
    "address": "東大阪市御厨東１丁目９番５５号",
    "lat": 34.6697062,
    "lng": 135.591941,
    "tel": "06-6784-7077",
    "url": "http://yoshijukai.or.jp/",
    "pref": "大阪府",
    "city": "東大阪市",
    "category": "rouken",
    "serviceType": "介護老人保健施設",
    "capacity": 0,
    "openDays": [],
    "openDaysNote": ""
  },
  {
    "id": "2755080138",
    "name": "介護老人保健施設　プレシオ",
    "kana": "カイゴロウジンホケンシセツ　プレシオ",
    "address": "大阪府東大阪市長堂3丁目2-11",
    "lat": 34.6648683,
    "lng": 135.5666462,
    "tel": "06-4308-0050",
    "url": "http://shinwakai-or.or.jp/",
    "pref": "大阪府",
    "city": "東大阪市",
    "category": "rouken",
    "serviceType": "介護老人保健施設",
    "capacity": 100,
    "openDays": [],
    "openDaysNote": ""
  },
  {
    "id": "2755080104",
    "name": "介護老人保健施設　玉串すみれ苑",
    "kana": "カイゴロウジンホケンシセツ　タマクシスミレエン",
    "address": "大阪府東大阪市玉串町西３丁目２番３号",
    "lat": 34.6520333,
    "lng": 135.6156117,
    "tel": "072-966-2000",
    "url": "http://koshimune.jp/",
    "pref": "大阪府",
    "city": "東大阪市",
    "category": "rouken",
    "serviceType": "介護老人保健施設",
    "capacity": 100,
    "openDays": [],
    "openDaysNote": ""
  },
  {
    "id": "2755080120",
    "name": "介護老人保健施設　五十忠",
    "kana": "カイゴロウジンホケンシセツ　イトチュウ",
    "address": "大阪府東大阪市御幸町3-34",
    "lat": 34.658394,
    "lng": 135.6389372,
    "tel": "072-980-6700",
    "url": "http://hohoemi-fukushi.jp/itochuu/",
    "pref": "大阪府",
    "city": "東大阪市",
    "category": "rouken",
    "serviceType": "介護老人保健施設",
    "capacity": 100,
    "openDays": [],
    "openDaysNote": ""
  },
  {
    "id": "2755080062",
    "name": "介護老人保健施設　南荘の郷",
    "kana": "カイゴロウジンホケンシセツ　ナンソウノサト",
    "address": "大阪府東大阪市南荘町１３－４０",
    "lat": 34.6747397,
    "lng": 135.6452056,
    "tel": "072-980-7300",
    "url": "",
    "pref": "大阪府",
    "city": "東大阪市",
    "category": "rouken",
    "serviceType": "介護老人保健施設",
    "capacity": 90,
    "openDays": [],
    "openDaysNote": ""
  },
  {
    "id": "2755080013",
    "name": "介護老人保健施設　枚岡の里",
    "kana": "カイゴロウジンホケンシセツ　ヒラオカノサト",
    "address": "東大阪市出雲井本町３－２５",
    "lat": 34.6697094351878,
    "lng": 135.645968925131,
    "tel": "072-985-2511",
    "url": "http://www.kawafukukai.or.jp",
    "pref": "大阪府",
    "city": "東大阪市",
    "category": "rouken",
    "serviceType": "介護老人保健施設",
    "capacity": 90,
    "openDays": [],
    "openDaysNote": ""
  },
  {
    "id": "2755080112",
    "name": "介護老人保健施設プレジャーライフ",
    "kana": "カイゴロウジンホケンシセツ　プレジャ-ライフ",
    "address": "東大阪市宝持３丁目1-11",
    "lat": 34.6551188,
    "lng": 135.5907178,
    "tel": "06-6722-1228",
    "url": "http://bishofukushikai.jp/company",
    "pref": "大阪府",
    "city": "東大阪市",
    "category": "rouken",
    "serviceType": "介護老人保健施設",
    "capacity": 0,
    "openDays": [],
    "openDaysNote": ""
  },
  {
    "id": "2755080054",
    "name": "介護老人保健施設ベルフラワー",
    "kana": "カイゴロウジンホケンシセツベルフラワー",
    "address": "大阪府東大阪市東鴻池町２－３－２２",
    "lat": 34.6924396,
    "lng": 135.6168604,
    "tel": "072-967-1122",
    "url": "http://www.houai.or.jp/",
    "pref": "大阪府",
    "city": "東大阪市",
    "category": "rouken",
    "serviceType": "介護老人保健施設",
    "capacity": 150,
    "openDays": [],
    "openDaysNote": ""
  },
  {
    "id": "2755080088",
    "name": "介護老人保健施設長田の里",
    "kana": "カイゴロウジンホケンシセツナガタノサト",
    "address": "東大阪市長田東1丁目3番5号",
    "lat": 34.6777997,
    "lng": 135.5941575,
    "tel": "06-6788-8192",
    "url": "https://www.kawafukukai.or.jp",
    "pref": "大阪府",
    "city": "東大阪市",
    "category": "rouken",
    "serviceType": "介護老人保健施設",
    "capacity": 99,
    "openDays": [],
    "openDaysNote": ""
  },
  {
    "id": "2753480025",
    "name": "社会福祉法人恩徳福祉会　介護老人保健施設ふじいでら",
    "kana": "シャカイフクシホウジンオントクフクシカイ　カイゴロウジンホケンシセツフジイデラ",
    "address": "大阪府藤井寺市野中一丁目103番１",
    "lat": 34.5617649,
    "lng": 135.6039648,
    "tel": "072-939-5330",
    "url": "http://www.ontoku.or.jp",
    "pref": "大阪府",
    "city": "藤井寺市",
    "category": "rouken",
    "serviceType": "介護老人保健施設",
    "capacity": 0,
    "openDays": [],
    "openDaysNote": ""
  },
  {
    "id": "2754680029",
    "name": "介護老人保健施設　知恵の和苑",
    "kana": "カイゴロウジンホケンシセツ　チエノワエン",
    "address": "大阪府柏原市古町3-2-17",
    "lat": 34.5848298974644,
    "lng": 135.62008362209,
    "tel": "072-973-4801",
    "url": "http://jinyuukai.or.jp/chienowaen/",
    "pref": "大阪府",
    "city": "柏原市",
    "category": "rouken",
    "serviceType": "介護老人保健施設",
    "capacity": 0,
    "openDays": [],
    "openDaysNote": ""
  },
  {
    "id": "2754680011",
    "name": "介護老人保健施設ローズウッド国分",
    "kana": "カイゴロウジンホケンシセツローズウッドコクブ",
    "address": "大阪府柏原市旭ヶ丘4丁目672番地",
    "lat": 34.5552255663021,
    "lng": 135.644006140475,
    "tel": "072-977-8980",
    "url": "",
    "pref": "大阪府",
    "city": "柏原市",
    "category": "rouken",
    "serviceType": "介護老人保健施設",
    "capacity": 0,
    "openDays": [],
    "openDaysNote": ""
  },
  {
    "id": "2755580046",
    "name": "介護老人保健施設　　八尾徳洲苑",
    "kana": "カイゴロウジンホケンシセツ　　ヤオトクシュウエン",
    "address": "大阪府八尾市荘内町1丁目2-35",
    "lat": 34.6276351739533,
    "lng": 135.607885608582,
    "tel": "072-991-2291",
    "url": "https://yao-care.tokushukai.or.jp/",
    "pref": "大阪府",
    "city": "八尾市",
    "category": "rouken",
    "serviceType": "介護老人保健施設",
    "capacity": 100,
    "openDays": [],
    "openDaysNote": ""
  },
  {
    "id": "2755580061",
    "name": "介護老人保健施設　スローライフ八尾",
    "kana": "カイゴロウジンホケンシセツ　スローライフヤオ",
    "address": "大阪府八尾市福栄町１丁目１２番地",
    "lat": 34.6427151,
    "lng": 135.6259582,
    "tel": "072-990-0100",
    "url": "http://www.slowlife.or.jp/",
    "pref": "大阪府",
    "city": "八尾市",
    "category": "rouken",
    "serviceType": "介護老人保健施設",
    "capacity": 0,
    "openDays": [],
    "openDaysNote": ""
  },
  {
    "id": "2755580020",
    "name": "介護老人保健施設　悠久苑",
    "kana": "カイゴロウジンホケンシセツ　ユウキュウエン",
    "address": "大阪府八尾市大字山畑5番地1",
    "lat": 34.6287666,
    "lng": 135.6383434,
    "tel": "072-941-3222",
    "url": "http://www.sakamotoiin-yao.or.jp",
    "pref": "大阪府",
    "city": "八尾市",
    "category": "rouken",
    "serviceType": "介護老人保健施設",
    "capacity": 71,
    "openDays": [],
    "openDaysNote": ""
  },
  {
    "id": "2755580053",
    "name": "介護老人保健施設あおぞら",
    "kana": "カイゴロウジンホケンシセツアオゾラ",
    "address": "大阪府八尾市沼１丁目４１番地",
    "lat": 34.588701,
    "lng": 135.6015339,
    "tel": "072-948-2545",
    "url": "http://www.ishinkai.or.jp/",
    "pref": "大阪府",
    "city": "八尾市",
    "category": "rouken",
    "serviceType": "介護老人保健施設",
    "capacity": 100,
    "openDays": [],
    "openDaysNote": ""
  },
  {
    "id": "2755580038",
    "name": "介護老人保健施設ノーブル楽音寺",
    "kana": "カイゴロウジンホケンシセツノーブルガクオンジ",
    "address": "大阪府八尾市楽音寺３－５",
    "lat": 34.6428901,
    "lng": 135.6398237,
    "tel": "072-941-8005",
    "url": "",
    "pref": "大阪府",
    "city": "八尾市",
    "category": "rouken",
    "serviceType": "介護老人保健施設",
    "capacity": 100,
    "openDays": [],
    "openDaysNote": ""
  },
  {
    "id": "2754980023",
    "name": "介護老人保健施設きし",
    "kana": "カイゴロウジンホケンシセツ　キシ",
    "address": "大阪府富田林市中野町西２丁目273",
    "lat": 34.5135124325802,
    "lng": 135.601419646033,
    "tel": "0721-23-0201",
    "url": "http://www.rouken-kishi.jp",
    "pref": "大阪府",
    "city": "富田林市",
    "category": "rouken",
    "serviceType": "介護老人保健施設",
    "capacity": 120,
    "openDays": [],
    "openDaysNote": ""
  },
  {
    "id": "2754980015",
    "name": "富田林市介護老人保健施設",
    "kana": "トンダバヤシシカイゴロウジンホケンシセツ",
    "address": "大阪府富田林市向陽台一丁目４番３０号",
    "lat": 34.5065848,
    "lng": 135.5830569,
    "tel": "0721-28-8666",
    "url": "http://www.city.tondabayashi.osaka.jp/",
    "pref": "大阪府",
    "city": "富田林市",
    "category": "rouken",
    "serviceType": "介護老人保健施設",
    "capacity": 73,
    "openDays": [],
    "openDaysNote": ""
  },
  {
    "id": "2754080105",
    "name": "医療法人　康生会　介護老人保健施設　ケアホーム豊中",
    "kana": "イリョウホウジン　コウセイカイ　カイゴロウジンホケンシセツ　ケアホームトヨナカ",
    "address": "大阪府豊中市原田中一丁目１６番29号",
    "lat": 34.7688534,
    "lng": 135.458665,
    "tel": "06-6841-3668",
    "url": "http://toyonakahp.jp/",
    "pref": "大阪府",
    "city": "豊中市",
    "category": "rouken",
    "serviceType": "介護老人保健施設",
    "capacity": 0,
    "openDays": [],
    "openDaysNote": ""
  },
  {
    "id": "2754080097",
    "name": "医療法人　若葉会　介護老人保健施設　わかば",
    "kana": "イリョウホウジン　ワカバカイ　カイゴロウジンホケンシセツ　ワカバ",
    "address": "大阪府豊中市東泉丘3丁目1番1号",
    "lat": 34.7882623,
    "lng": 135.4927174,
    "tel": "06-6856-9770",
    "url": "http://kaigo.wakabakai-hp.com/",
    "pref": "大阪府",
    "city": "豊中市",
    "category": "rouken",
    "serviceType": "介護老人保健施設",
    "capacity": 0,
    "openDays": [],
    "openDaysNote": ""
  },
  {
    "id": "2754080055",
    "name": "医療法人桜希会介護老人保健施設　東雄苑",
    "kana": "イリョウホウジンオウキカイカイゴロウジンホケンシセツトウユウエン",
    "address": "大阪府豊中市曽根南町2丁目11番28号",
    "lat": 34.7665592,
    "lng": 135.4633063,
    "tel": "06-6867-0866",
    "url": "https://oukikai.or.jp/toyuen_sone/index.html",
    "pref": "大阪府",
    "city": "豊中市",
    "category": "rouken",
    "serviceType": "介護老人保健施設",
    "capacity": 0,
    "openDays": [],
    "openDaysNote": ""
  },
  {
    "id": "2754080048",
    "name": "介護老人保健施設　きんもくせい",
    "kana": "カイゴロウジンホケンシセツ　キンモクセイ",
    "address": "大阪府豊中市寺内1丁目1番10号",
    "lat": 34.7766165,
    "lng": 135.4917536,
    "tel": "06-6866-2941",
    "url": "http://www.aijinkai.or.jp/kinmokusei/",
    "pref": "大阪府",
    "city": "豊中市",
    "category": "rouken",
    "serviceType": "介護老人保健施設",
    "capacity": 50,
    "openDays": [],
    "openDaysNote": ""
  },
  {
    "id": "2754080030",
    "name": "介護老人保健施設　すずらん",
    "kana": "カイゴロウジンホケンシセツ　スズラン",
    "address": "大阪府　豊中市　本町　３－１－７",
    "lat": 34.7888816,
    "lng": 135.4615114,
    "tel": "06-6842-1165",
    "url": "",
    "pref": "大阪府",
    "city": "豊中市",
    "category": "rouken",
    "serviceType": "介護老人保健施設",
    "capacity": 70,
    "openDays": [],
    "openDaysNote": ""
  },
  {
    "id": "2754080014",
    "name": "介護老人保健施設　やすらぎ",
    "kana": "カイゴロウジンホケンシセツ　ヤスラギ",
    "address": "豊中市　豊南町東　２丁目６番４号",
    "lat": 34.7526026,
    "lng": 135.4849214,
    "tel": "06-6332-8000",
    "url": "http://www.yasuragi1.or.jp",
    "pref": "大阪府",
    "city": "豊中市",
    "category": "rouken",
    "serviceType": "介護老人保健施設",
    "capacity": 84,
    "openDays": [],
    "openDaysNote": ""
  },
  {
    "id": "2754080089",
    "name": "介護老人保健施設　東雄苑豊南",
    "kana": "カイゴロウジンホケンシセツ　トウユウエンホウナン",
    "address": "大阪府豊中市豊南町西３－１１－１５",
    "lat": 34.7517776,
    "lng": 135.4827577,
    "tel": "06-4867-2195",
    "url": "https://www.oukikai.or.jp",
    "pref": "大阪府",
    "city": "豊中市",
    "category": "rouken",
    "serviceType": "介護老人保健施設",
    "capacity": 0,
    "openDays": [],
    "openDaysNote": ""
  },
  {
    "id": "2754080063",
    "name": "介護老人保健施設「二葉園」",
    "kana": "カイゴロウジンホケンシセツ「フタバエン」",
    "address": "大阪府豊中市二葉町二丁目５番３号",
    "lat": 34.7361621,
    "lng": 135.4624517,
    "tel": "06-6335-2366",
    "url": "http://www.futabaen.jp",
    "pref": "大阪府",
    "city": "豊中市",
    "category": "rouken",
    "serviceType": "介護老人保健施設",
    "capacity": 60,
    "openDays": [],
    "openDaysNote": ""
  },
  {
    "id": "2754080121",
    "name": "介護老人保健施設かがやき",
    "kana": "カイゴロウジンホケンシセツカガヤキ",
    "address": "大阪府豊中市刀根山元町5番60号介護老人保健施設かがやき 介護老人保健施設かがやき",
    "lat": 34.7995727000001,
    "lng": 135.4590665,
    "tel": "06-6850-3400",
    "url": "http://www.osj.or.jp/kagayaki/",
    "pref": "大阪府",
    "city": "豊中市",
    "category": "rouken",
    "serviceType": "介護老人保健施設",
    "capacity": 0,
    "openDays": [],
    "openDaysNote": ""
  },
  {
    "id": "2754080113",
    "name": "介護老人保健施設ロココリハ",
    "kana": "カイゴロウジンホケンシセツロココリハ",
    "address": "豊中市宝山町6-7",
    "lat": 34.7801354,
    "lng": 135.4588035,
    "tel": "06-6855-2525",
    "url": "http://i-souseikai.jp/",
    "pref": "大阪府",
    "city": "豊中市",
    "category": "rouken",
    "serviceType": "介護老人保健施設",
    "capacity": 100,
    "openDays": [],
    "openDaysNote": ""
  },
  {
    "id": "2752480075",
    "name": "医療法人松徳会　介護老人保健施設老健ふじさか",
    "kana": "イリョウホウジンショウトクカイ　カイゴロウジンホケンシセツロウケンフジサカ",
    "address": "大阪府枚方市藤阪天神町1番60号",
    "lat": 34.8157608,
    "lng": 135.7038061,
    "tel": "072-897-0111",
    "url": "http://www.matsutani.or.jp",
    "pref": "大阪府",
    "city": "枚方市",
    "category": "rouken",
    "serviceType": "介護老人保健施設",
    "capacity": 0,
    "openDays": [],
    "openDaysNote": ""
  },
  {
    "id": "2752480083",
    "name": "医療法人大寿会介護老人保健施設ユートピア",
    "kana": "イリョウホウジンダイジュカイカイゴロウジンホケンシセツユートピア",
    "address": "大阪府枚方市伊加賀西町４７－１",
    "lat": 34.8041717,
    "lng": 135.6234658,
    "tel": "072-841-2345",
    "url": "http://www.daijukai.com",
    "pref": "大阪府",
    "city": "枚方市",
    "category": "rouken",
    "serviceType": "介護老人保健施設",
    "capacity": 0,
    "openDays": [],
    "openDaysNote": ""
  },
  {
    "id": "2752480059",
    "name": "介護老人保健施設　カリタス東香里",
    "kana": "カイゴロウジンホケンシセツ　カリタスヒガシコウリ",
    "address": "大阪府枚方市東香里１丁目２４番３6号",
    "lat": 34.7800785185506,
    "lng": 135.657229189024,
    "tel": "072-853-0531",
    "url": "http://www.higashikouri-hp.com/",
    "pref": "大阪府",
    "city": "枚方市",
    "category": "rouken",
    "serviceType": "介護老人保健施設",
    "capacity": 0,
    "openDays": [],
    "openDaysNote": ""
  },
  {
    "id": "2752480109",
    "name": "介護老人保健施設　サテライトなごみの里",
    "kana": "カイゴロウジンホケンシセツ　サテライトナゴミノサト",
    "address": "大阪府枚方市長尾北町3丁目1番1号",
    "lat": 34.8352339,
    "lng": 135.7067305,
    "tel": "072-818-2071",
    "url": "http://midori.jpn.org/satellite-nagomi/",
    "pref": "大阪府",
    "city": "枚方市",
    "category": "rouken",
    "serviceType": "介護老人保健施設",
    "capacity": 0,
    "openDays": [],
    "openDaysNote": ""
  },
  {
    "id": "2752480067",
    "name": "介護老人保健施設　なごみの里",
    "kana": "カイゴロウジンホケンシセツ　ナゴミノサト",
    "address": "大阪府枚方市長尾北町2-1845-1",
    "lat": 34.8356949,
    "lng": 135.7056945,
    "tel": "072-868-2072",
    "url": "http://midori.jpn.org/nagomi/",
    "pref": "大阪府",
    "city": "枚方市",
    "category": "rouken",
    "serviceType": "介護老人保健施設",
    "capacity": 0,
    "openDays": [],
    "openDaysNote": ""
  },
  {
    "id": "2752480091",
    "name": "介護老人保健施設　勘右ェ門",
    "kana": "カイゴロウジンホケンシセツ　カンウエモン",
    "address": "大阪府枚方市春日北町４丁目２１番１号",
    "lat": 34.8038227,
    "lng": 135.6890525,
    "tel": "072-808-5000",
    "url": "http://www.eihoukai.com",
    "pref": "大阪府",
    "city": "枚方市",
    "category": "rouken",
    "serviceType": "介護老人保健施設",
    "capacity": 0,
    "openDays": [],
    "openDaysNote": ""
  },
  {
    "id": "2752480034",
    "name": "介護老人保健施設美杉",
    "kana": "カイゴロウジンホケンシセツミスギ",
    "address": "大阪府枚方市西招提町２１６６",
    "lat": 34.8444625,
    "lng": 135.681977,
    "tel": "072-866-7111",
    "url": "http://www.misugikai.jp",
    "pref": "大阪府",
    "city": "枚方市",
    "category": "rouken",
    "serviceType": "介護老人保健施設",
    "capacity": 0,
    "openDays": [],
    "openDaysNote": ""
  },
  {
    "id": "2752480042",
    "name": "社会医療法人美杉会　介護老人保健施設美樟苑",
    "kana": "シャカイイリョウホウジンミスギカイ　カイゴロウジンホケンシセツミショウエン",
    "address": "大阪府枚方市養父東町18番30号",
    "lat": 34.8459845,
    "lng": 135.6756776,
    "tel": "072-867-0224",
    "url": "http://www.misugikai.jp",
    "pref": "大阪府",
    "city": "枚方市",
    "category": "rouken",
    "serviceType": "介護老人保健施設",
    "capacity": 0,
    "openDays": [],
    "openDaysNote": ""
  },
  {
    "id": "2752480117",
    "name": "枚方老人保健施設のぞみ",
    "kana": "ヒラカタロウジンホケンシセツノゾミ",
    "address": "大阪府枚方市田口山１丁目７番１号",
    "lat": 34.8285225,
    "lng": 135.6878102,
    "tel": "072-857-2525",
    "url": "https://kiboukai-nozomi.jp",
    "pref": "大阪府",
    "city": "枚方市",
    "category": "rouken",
    "serviceType": "介護老人保健施設",
    "capacity": 0,
    "openDays": [],
    "openDaysNote": ""
  },
  {
    "id": "2751480035",
    "name": "介護老人保健施設　ニューライフガラシア",
    "kana": "カイゴロウジンホケンシセツ　ニューライフガラシア",
    "address": "大阪府　箕面市　粟生間谷西　６－１４－１",
    "lat": 34.8507224,
    "lng": 135.5068397,
    "tel": "072-729-2346",
    "url": "http://www.gratia.or.jp",
    "pref": "大阪府",
    "city": "箕面市",
    "category": "rouken",
    "serviceType": "介護老人保健施設",
    "capacity": 70,
    "openDays": [],
    "openDaysNote": ""
  },
  {
    "id": "2751480043",
    "name": "介護老人保健施設　ラ・アケソニア",
    "kana": "カイゴロウジンホケンシセツ　ラ・アケソニア",
    "address": "大阪府箕面市白島1丁目19-3",
    "lat": 34.8345826,
    "lng": 135.4931914,
    "tel": "072-727-6514",
    "url": "http://www.shinmeikai.jp/",
    "pref": "大阪府",
    "city": "箕面市",
    "category": "rouken",
    "serviceType": "介護老人保健施設",
    "capacity": 100,
    "openDays": [],
    "openDaysNote": ""
  },
  {
    "id": "2751480027",
    "name": "社会医療法人寿楽会　介護老人保健施設箕面グリーンビィラ",
    "kana": "シャカイイリョウホウジンジュラクカイ　カイゴロウジンホケンシセツミノオグリーンビィラ",
    "address": "大阪府箕面市粟生間谷東１－３３－２５",
    "lat": 34.8459285,
    "lng": 135.5142698,
    "tel": "072-727-3475",
    "url": "https://minoh-greenvilla.jp/",
    "pref": "大阪府",
    "city": "箕面市",
    "category": "rouken",
    "serviceType": "介護老人保健施設",
    "capacity": 100,
    "openDays": [],
    "openDaysNote": ""
  },
  {
    "id": "2751480019",
    "name": "箕面市立介護老人保健施設",
    "kana": "ミノオシリツカイゴロウジンホケンシセツ",
    "address": "大阪府箕面市萱野５丁目８番２号",
    "lat": 34.8226975,
    "lng": 135.4846341,
    "tel": "072-727-9530",
    "url": "https://minoh-rouken.jp/",
    "pref": "大阪府",
    "city": "箕面市",
    "category": "rouken",
    "serviceType": "介護老人保健施設",
    "capacity": 100,
    "openDays": [],
    "openDaysNote": ""
  },
  {
    "id": "2751280013",
    "name": "みさき",
    "kana": "ミサキ",
    "address": "大阪府　泉南郡岬町淡輪1790番地",
    "lat": 34.3200141,
    "lng": 135.1829726,
    "tel": "072-494-0100",
    "url": "http://tannowaen.ec-net.jp/index.html",
    "pref": "大阪府",
    "city": "岬町",
    "category": "rouken",
    "serviceType": "介護老人保健施設",
    "capacity": 0,
    "openDays": [],
    "openDaysNote": ""
  },
  {
    "id": "2751280054",
    "name": "医療法人　誠人会　与田病院併設　介護老人保健施設　花水木",
    "kana": "イリョウホウジン　セイジンカイ　ヨダビョウインヘイセツ　カイゴロウジンホケンシセツ　ハナミズキ",
    "address": "大阪府泉南郡岬町多奈川谷川1847番地の19",
    "lat": 34.3137516546346,
    "lng": 135.123680928311,
    "tel": "072-495-0810",
    "url": "http://hanamizuki.tv/",
    "pref": "大阪府",
    "city": "岬町",
    "category": "rouken",
    "serviceType": "介護老人保健施設",
    "capacity": 0,
    "openDays": [],
    "openDaysNote": ""
  },
  {
    "id": "2752680013",
    "name": "介護老人保健施設　摂南の郷",
    "kana": "カイゴロウジンホケンシセツ　セツナンノサト",
    "address": "大阪府門真市柳町3－33",
    "lat": 34.7379291,
    "lng": 135.5882031,
    "tel": "06-6909-6100",
    "url": "http://www.setsunan.or.jp",
    "pref": "大阪府",
    "city": "門真市",
    "category": "rouken",
    "serviceType": "介護老人保健施設",
    "capacity": 0,
    "openDays": [],
    "openDaysNote": ""
  },
  {
    "id": "2752680039",
    "name": "介護老人保健施設　蒼の里",
    "kana": "カイゴロウジンホケンシセツ　アオイノサト",
    "address": "大阪府門真市島頭3-1-15",
    "lat": 34.7304572305316,
    "lng": 135.606648242853,
    "tel": "072-885-0080",
    "url": "http://www.sousei-hp.jp/aoinosato/index.html",
    "pref": "大阪府",
    "city": "門真市",
    "category": "rouken",
    "serviceType": "介護老人保健施設",
    "capacity": 80,
    "openDays": [],
    "openDaysNote": ""
  },
  {
    "id": "2752680021",
    "name": "門真老健ひかり",
    "kana": "カドマロウケンヒカリ",
    "address": "大阪府門真市北岸和田1丁目14-23",
    "lat": 34.738079,
    "lng": 135.6185124,
    "tel": "072-887-6780",
    "url": "https://hakuyukai-hmc.com",
    "pref": "大阪府",
    "city": "門真市",
    "category": "rouken",
    "serviceType": "介護老人保健施設",
    "capacity": 0,
    "openDays": [],
    "openDaysNote": ""
  },
  {
    "id": "2750580033",
    "name": "医療法人和泉会介護老人保健施設ザ・シーズン",
    "kana": "イリョウホウジンイズミカイカイゴロウジンホケンシセツザ・シーズン",
    "address": "大阪府和泉市若樫町３０番１",
    "lat": 34.4139242,
    "lng": 135.470632,
    "tel": "0725-53-1133",
    "url": "http://www.theseason.jp",
    "pref": "大阪府",
    "city": "和泉市",
    "category": "rouken",
    "serviceType": "介護老人保健施設",
    "capacity": 0,
    "openDays": [],
    "openDaysNote": ""
  },
  {
    "id": "2750580041",
    "name": "介護老人保健施設　くろいし",
    "kana": "カイゴロウジンホケンシセツ　クロイシ",
    "address": "大阪府和泉市黒石町５６６番1",
    "lat": 34.4450292,
    "lng": 135.4832028,
    "tel": "0725-57-2266",
    "url": "http://daisenkai.jp/roken-kuroishi/",
    "pref": "大阪府",
    "city": "和泉市",
    "category": "rouken",
    "serviceType": "介護老人保健施設",
    "capacity": 80,
    "openDays": [],
    "openDaysNote": ""
  },
  {
    "id": "2750580017",
    "name": "介護老人保健施設　サンガーデン府中",
    "kana": "カイゴロウジンホケンシセツ　サンガーデンフチュウ",
    "address": "大阪府和泉市山荘町2-1-15",
    "lat": 34.4881573,
    "lng": 135.4491357,
    "tel": "0725-46-2001",
    "url": "https://www.yujinkai.com/sungarden/",
    "pref": "大阪府",
    "city": "和泉市",
    "category": "rouken",
    "serviceType": "介護老人保健施設",
    "capacity": 120,
    "openDays": [],
    "openDaysNote": ""
  },
  {
    "id": "2750580025",
    "name": "介護老人保健施設　プリムラ和泉",
    "kana": "カイゴロウジンホケンシセツ　プリムライズミ",
    "address": "大阪府和泉市松尾寺町３３０番地",
    "lat": 34.4399937,
    "lng": 135.4563776,
    "tel": "0725-54-1912",
    "url": "http://purimura-izumi.jp",
    "pref": "大阪府",
    "city": "和泉市",
    "category": "rouken",
    "serviceType": "介護老人保健施設",
    "capacity": 100,
    "openDays": [],
    "openDaysNote": ""
  },
  {
    "id": "2750580058",
    "name": "社会医療法人ペガサス　介護療養型老人保健施設　エクウス",
    "kana": "シャカイイリョウホウジンペガサス　カイゴリョウヨウガタロウジンホケンシセツ　エクウス",
    "address": "大阪府和泉市上町81番地",
    "lat": 34.5091241,
    "lng": 135.447594,
    "tel": "0725-43-2010",
    "url": "http://www.pegasus.or.jp/",
    "pref": "大阪府",
    "city": "和泉市",
    "category": "rouken",
    "serviceType": "介護老人保健施設",
    "capacity": 60,
    "openDays": [],
    "openDaysNote": ""
  }
]