[
  {
    "id": "2950580031",
    "name": "介護老人保健施設　若草園",
    "kana": "カイゴロウジンホケンシセツ　ワカクサエン",
    "address": "奈良県生駒郡安堵町岡崎５８番地",
    "lat": 34.6039386,
    "lng": 135.7633831,
    "tel": "0743-57-5535",
    "url": "http://www.wakakusaen324.com/",
    "pref": "奈良県",
    "city": "安堵町",
    "category": "rouken",
    "serviceType": "介護老人保健施設",
    "capacity": 100,
    "openDays": [],
    "openDaysNote": ""
  },
  {
    "id": "2950680187",
    "name": "宇陀市介護老人保健施設さんとぴあ榛原",
    "kana": "ウダシカイゴロウジンホケンシセツサントピアハイバラ",
    "address": "奈良県宇陀市榛原萩原801番地の１",
    "lat": 34.529884,
    "lng": 135.954722,
    "tel": "0745-85-2525",
    "url": "http://www.city.uda.nara.jp/santopia/index.html",
    "pref": "奈良県",
    "city": "宇陀市",
    "category": "rouken",
    "serviceType": "介護老人保健施設",
    "capacity": 0,
    "openDays": [],
    "openDaysNote": ""
  },
  {
    "id": "2951780028",
    "name": "介護老人保健施設そよ風荘",
    "kana": "カイゴロウジンホケンシセツソヨカゼソウ",
    "address": "奈良県吉野郡下市町阿知賀621-1",
    "lat": 34.3716773,
    "lng": 135.7938243,
    "tel": "0747-52-2781",
    "url": "http://www.nanfu.or.jp/soyokaze.html",
    "pref": "奈良県",
    "city": "下市町",
    "category": "rouken",
    "serviceType": "介護老人保健施設",
    "capacity": 0,
    "openDays": [],
    "openDaysNote": ""
  },
  {
    "id": "2951580055",
    "name": "介護老人保健施設奈良ベテルホーム",
    "kana": "カイゴロウジンホケンシセツ　ナラベテルホーム",
    "address": "奈良県北葛城郡河合町高塚台1丁目8番地1",
    "lat": 34.5796818174777,
    "lng": 135.722236998009,
    "tel": "0745-33-2222",
    "url": "https://www.nissay-seirei.org/nara/facilities/betel.php",
    "pref": "奈良県",
    "city": "河合町",
    "category": "rouken",
    "serviceType": "介護老人保健施設",
    "capacity": 116,
    "openDays": [],
    "openDaysNote": ""
  },
  {
    "id": "2950580064",
    "name": "介護老人保健施設　鷺栖の里",
    "kana": "カイゴロウジンホケンシセツ　サギスノサト",
    "address": "奈良県橿原市四分町85-1",
    "lat": 34.4965415688896,
    "lng": 135.797845488855,
    "tel": "0744-21-1600",
    "url": "http://www.heisei-h.or.jp/sagisu/index.html",
    "pref": "奈良県",
    "city": "橿原市",
    "category": "rouken",
    "serviceType": "介護老人保健施設",
    "capacity": 100,
    "openDays": [],
    "openDaysNote": ""
  },
  {
    "id": "2950580049",
    "name": "介護老人保健施設　万葉テラス",
    "kana": "カイゴロウジンホケンシセツ　マンヨウテラス",
    "address": "橿原市五井町247番地",
    "lat": 34.5041816,
    "lng": 135.7770246,
    "tel": "0744-26-2288",
    "url": "http://www.nanfu.or.jp/manyo-terrace.html",
    "pref": "奈良県",
    "city": "橿原市",
    "category": "rouken",
    "serviceType": "介護老人保健施設",
    "capacity": 0,
    "openDays": [],
    "openDaysNote": ""
  },
  {
    "id": "2950580023",
    "name": "介護老人保健施設ケアステージみみなし",
    "kana": "カイゴロウジンホケンシセツケアステージミミナシ",
    "address": "奈良県橿原市常盤町１５８番地１",
    "lat": 34.5187085,
    "lng": 135.8161957,
    "tel": "0744-21-2001",
    "url": "http://shoufukukai.or.jp/",
    "pref": "奈良県",
    "city": "橿原市",
    "category": "rouken",
    "serviceType": "介護老人保健施設",
    "capacity": 80,
    "openDays": [],
    "openDaysNote": ""
  },
  {
    "id": "2951280201",
    "name": "介護老人保健施設リンク橿原",
    "kana": "カイゴロウジンホケンシセツ　リンクカシハラ",
    "address": "奈良県橿原市雲梯町28番地",
    "lat": 34.5027235,
    "lng": 135.7670561,
    "tel": "0744-21-3737",
    "url": "http://kanahashien.iinaa.net/",
    "pref": "奈良県",
    "city": "橿原市",
    "category": "rouken",
    "serviceType": "介護老人保健施設",
    "capacity": 80,
    "openDays": [],
    "openDaysNote": ""
  },
  {
    "id": "2950580007",
    "name": "介護老人保健施設花橿",
    "kana": "カイゴロウジンホケンシセツハナカシ",
    "address": "奈良県橿原市古川町３９５－１",
    "lat": 34.4874503,
    "lng": 135.7690202,
    "tel": "0744-26-1371",
    "url": "http://www.nanfu.or.jp/hanakashi.html",
    "pref": "奈良県",
    "city": "橿原市",
    "category": "rouken",
    "serviceType": "介護老人保健施設",
    "capacity": 0,
    "openDays": [],
    "openDaysNote": ""
  },
  {
    "id": "2950580056",
    "name": "介護老人保健施設大和三山",
    "kana": "カイゴロウジンホケンシセツヤマトサンザン",
    "address": "奈良県橿原市膳夫町477-17",
    "lat": 34.5078978660782,
    "lng": 135.822501234918,
    "tel": "0744-23-6688",
    "url": "http://yushinkai-nara.com",
    "pref": "奈良県",
    "city": "橿原市",
    "category": "rouken",
    "serviceType": "介護老人保健施設",
    "capacity": 80,
    "openDays": [],
    "openDaysNote": ""
  },
  {
    "id": "2954880007",
    "name": "医療法人博愛会　介護老人保健施設かつらぎ",
    "kana": "イリョウホウジンハクアイカイ　カイゴロウジンホケンシセツカツラギ",
    "address": "奈良県葛城市林堂360-1",
    "lat": 34.4812306,
    "lng": 135.718986,
    "tel": "0745-69-1800",
    "url": "https://kakuaikai-k.or.jp/",
    "pref": "奈良県",
    "city": "葛城市",
    "category": "rouken",
    "serviceType": "介護老人保健施設",
    "capacity": 0,
    "openDays": [],
    "openDaysNote": ""
  },
  {
    "id": "2954880015",
    "name": "介護老人保健施設　ぬくもり葛城",
    "kana": "カイゴロウジンホケンシセツ　ヌクモリカツラギ",
    "address": "奈良県葛城市西室150-8",
    "lat": 34.492685,
    "lng": 135.7282765,
    "tel": "0745-69-8100",
    "url": "http://www.nukumori-group.jp/",
    "pref": "奈良県",
    "city": "葛城市",
    "category": "rouken",
    "serviceType": "介護老人保健施設",
    "capacity": 80,
    "openDays": [],
    "openDaysNote": ""
  },
  {
    "id": "2974800456",
    "name": "介護老人保健施設かつらぎ東館",
    "kana": "カイゴロウジンホケンシセツカツラギヒガシカン",
    "address": "奈良県葛城市林堂360-1",
    "lat": 34.4812748195135,
    "lng": 135.719495619713,
    "tel": "0745-69-1006",
    "url": "https://hakuaikai-k.or.jp",
    "pref": "奈良県",
    "city": "葛城市",
    "category": "rouken",
    "serviceType": "介護老人保健施設",
    "capacity": 0,
    "openDays": [],
    "openDaysNote": ""
  },
  {
    "id": "2951480157",
    "name": "介護老人保健施設　ルポゼまきの",
    "kana": "カイゴロウジンホケンシセツ　ルポゼマキノ",
    "address": "奈良県五條市大沢町９－８",
    "lat": 34.360648,
    "lng": 135.6681036,
    "tel": "0747-24-0033",
    "url": "http://www.seiwakai-gojo.or.jp/",
    "pref": "奈良県",
    "city": "五條市",
    "category": "rouken",
    "serviceType": "介護老人保健施設",
    "capacity": 80,
    "openDays": [],
    "openDaysNote": ""
  },
  {
    "id": "2950780003",
    "name": "介護老人保健施設　ローズ",
    "kana": "カイゴロウジンホケンシセツ　ローズ",
    "address": "奈良県　五條市　二見　5丁目　3番　64号",
    "lat": 34.3417371,
    "lng": 135.6919936,
    "tel": "0747-22-5200",
    "url": "http://www.hajime-kai.com/",
    "pref": "奈良県",
    "city": "五條市",
    "category": "rouken",
    "serviceType": "介護老人保健施設",
    "capacity": 100,
    "openDays": [],
    "openDaysNote": ""
  },
  {
    "id": "2951380001",
    "name": "介護老人保健施設　鴻池荘",
    "kana": "カイゴロウジンホケンシセツ　コウノイケソウ",
    "address": "奈良県御所市池之内１０６４番地",
    "lat": 34.450824,
    "lng": 135.7512174,
    "tel": "0745-64-2180",
    "url": "https://www.kounoikekai.com/",
    "pref": "奈良県",
    "city": "御所市",
    "category": "rouken",
    "serviceType": "介護老人保健施設",
    "capacity": 162,
    "openDays": [],
    "openDaysNote": ""
  },
  {
    "id": "2950880019",
    "name": "介護老人保健施設　鴻池荘　サテライト蜻蛉",
    "kana": "カイゴロウジンホケンシセツコウノイケソウサテライトセイレイ",
    "address": "奈良県御所市茅原168-1",
    "lat": 34.4623643,
    "lng": 135.7488284,
    "tel": "0745-65-2201",
    "url": "https://www.kounoikekai.com/",
    "pref": "奈良県",
    "city": "御所市",
    "category": "rouken",
    "serviceType": "介護老人保健施設",
    "capacity": 29,
    "openDays": [],
    "openDaysNote": ""
  },
  {
    "id": "2953380017",
    "name": "介護老人保健施設　かぐやの里",
    "kana": "カイゴロウジンホケンシセツ　カグヤノサト",
    "address": "奈良県北葛城郡広陵町大字三吉１７９９番１",
    "lat": 34.5536692,
    "lng": 135.7495431,
    "tel": "0745-58-2223",
    "url": "http://www.kaguyanosato.jp",
    "pref": "奈良県",
    "city": "広陵町",
    "category": "rouken",
    "serviceType": "介護老人保健施設",
    "capacity": 0,
    "openDays": [],
    "openDaysNote": ""
  },
  {
    "id": "2953380025",
    "name": "介護老人保健施設ぬくもり広陵",
    "kana": "カイゴロウジンホケンシセツヌクモリコウリョウ",
    "address": "奈良県北葛城郡広陵町馬見北５－１３－１１",
    "lat": 34.5540732,
    "lng": 135.7264514,
    "tel": "0745-54-2077",
    "url": "https://nukumori-group.jp/",
    "pref": "奈良県",
    "city": "広陵町",
    "category": "rouken",
    "serviceType": "介護老人保健施設",
    "capacity": 80,
    "openDays": [],
    "openDaysNote": ""
  },
  {
    "id": "2951080007",
    "name": "介護老人保健施設オークピア鹿芝",
    "kana": "カイゴロウジンホケンシセツ　オークピアカシバ",
    "address": "香芝市穴虫８８５－１",
    "lat": 34.5497853,
    "lng": 135.6869184,
    "tel": "0745-71-3588",
    "url": "http://www.suiyuukai.or.jp/kashiba",
    "pref": "奈良県",
    "city": "香芝市",
    "category": "rouken",
    "serviceType": "介護老人保健施設",
    "capacity": 80,
    "openDays": [],
    "openDaysNote": ""
  },
  {
    "id": "2951080015",
    "name": "介護老人保健施設てんとう虫",
    "kana": "カイゴロウジンホケンシセツテントウムシ",
    "address": "奈良県香芝市平野２３－１",
    "lat": 34.5661224,
    "lng": 135.6960782,
    "tel": "0745-71-0980",
    "url": "http://www.hakujukai.or.jp/",
    "pref": "奈良県",
    "city": "香芝市",
    "category": "rouken",
    "serviceType": "介護老人保健施設",
    "capacity": 80,
    "openDays": [],
    "openDaysNote": ""
  },
  {
    "id": "2952780019",
    "name": "介護老人保健施設　萩の里あすか",
    "kana": "カイゴロウジンホケンシセツ　ハギノサトアスカ",
    "address": "高市郡高取町松山６８５番地介護老人保健施設　萩の里あすか 介護老人保健施設　萩の里あすか",
    "lat": 34.4410153332321,
    "lng": 135.792836993701,
    "tel": "0744-52-3288",
    "url": "www.asuka-hp.or.jp/hagi/index.php",
    "pref": "奈良県",
    "city": "高取町",
    "category": "rouken",
    "serviceType": "介護老人保健施設",
    "capacity": 100,
    "openDays": [],
    "openDaysNote": ""
  },
  {
    "id": "2950680013",
    "name": "介護老人保健施設　まきむく草庵",
    "kana": "カイゴロウジンホケンシセツ　マキムクソウアン",
    "address": "奈良県桜井市草川58番地",
    "lat": 34.5490964831854,
    "lng": 135.838415353165,
    "tel": "0744-45-1502",
    "url": "https://www.yamanobe.or.jp/makimuku-souan",
    "pref": "奈良県",
    "city": "桜井市",
    "category": "rouken",
    "serviceType": "介護老人保健施設",
    "capacity": 80,
    "openDays": [],
    "openDaysNote": ""
  },
  {
    "id": "2950480067",
    "name": "介護老人保健施設シルバーケアまほろば",
    "kana": "カイゴロウジンホケンシセツシルバーケアマホロバ",
    "address": "桜井市阿部323",
    "lat": 34.5077045,
    "lng": 135.8391745,
    "tel": "0744-46-1311",
    "url": "https://sc-mahoroba.jp/",
    "pref": "奈良県",
    "city": "桜井市",
    "category": "rouken",
    "serviceType": "介護老人保健施設",
    "capacity": 0,
    "openDays": [],
    "openDaysNote": ""
  },
  {
    "id": "2950480091",
    "name": "介護老人保健施設やまのべグリーンヒルズ",
    "kana": "カイゴロウジンホケンシセツヤマノベグリーンヒルズ",
    "address": "奈良県桜井市大豆越１０４－１",
    "lat": 34.549308,
    "lng": 135.8368879,
    "tel": "0744-45-5960",
    "url": "https://www.yamanobe.or.jp",
    "pref": "奈良県",
    "city": "桜井市",
    "category": "rouken",
    "serviceType": "介護老人保健施設",
    "capacity": 0,
    "openDays": [],
    "openDaysNote": ""
  },
  {
    "id": "2951580006",
    "name": "介護老人保健施設もののみの郷",
    "kana": "カイゴロウジンホケンシセツモノノミノサト",
    "address": "奈良県生駒郡三郷町信貴山東４番１０号",
    "lat": 34.606214136245,
    "lng": 135.676396142992,
    "tel": "0745-34-0701",
    "url": "http://www.mononomi.jp",
    "pref": "奈良県",
    "city": "三郷町",
    "category": "rouken",
    "serviceType": "介護老人保健施設",
    "capacity": 0,
    "openDays": [],
    "openDaysNote": ""
  },
  {
    "id": "2953180011",
    "name": "介護老人保健施設　グランディまきば",
    "kana": "カイゴロウジンホケンシセツ　グランディマキバ",
    "address": "奈良県北葛城郡上牧町上牧899-7",
    "lat": 34.5555250521739,
    "lng": 135.715886757672,
    "tel": "0745-76-3450",
    "url": "http://makiba.jp/",
    "pref": "奈良県",
    "city": "上牧町",
    "category": "rouken",
    "serviceType": "介護老人保健施設",
    "capacity": 0,
    "openDays": [],
    "openDaysNote": ""
  },
  {
    "id": "2951580014",
    "name": "介護老人保健施設　ユートピア・ゆり",
    "kana": "カイゴロウジンホケンシセツ　ユートピア・ユリ",
    "address": "奈良県北葛城郡上牧町上牧4244番地",
    "lat": 34.5585623713033,
    "lng": 135.709253679623,
    "tel": "0745-43-6273",
    "url": "http://www.ikujikai.or.jp",
    "pref": "奈良県",
    "city": "上牧町",
    "category": "rouken",
    "serviceType": "介護老人保健施設",
    "capacity": 62,
    "openDays": [],
    "openDaysNote": ""
  },
  {
    "id": "2953180003",
    "name": "介護老人保健施設こころ上牧",
    "kana": "カイゴロウジンホケンシセツ　ココロカンマキ",
    "address": "奈良県北葛城郡上牧町上牧2768-2",
    "lat": 34.5687785,
    "lng": 135.7231757,
    "tel": "0745-71-5780",
    "url": "http://www.chowahukushikai.or.jp/kanmaki.html",
    "pref": "奈良県",
    "city": "上牧町",
    "category": "rouken",
    "serviceType": "介護老人保健施設",
    "capacity": 0,
    "openDays": [],
    "openDaysNote": ""
  },
  {
    "id": "2950380168",
    "name": "介護老人保健施設　グランファミリア",
    "kana": "カイゴロウジンホケンシセツグランファミリア",
    "address": "生駒市小明町１１３０－１１１",
    "lat": 34.70217,
    "lng": 135.705047,
    "tel": "0743-75-0013",
    "url": "http://www.matsushita-kai.or.jp/",
    "pref": "奈良県",
    "city": "生駒市",
    "category": "rouken",
    "serviceType": "介護老人保健施設",
    "capacity": 0,
    "openDays": [],
    "openDaysNote": ""
  },
  {
    "id": "2950980025",
    "name": "生駒市介護老人保健施設　やすらぎの杜優楽",
    "kana": "イコマシカイゴロウジンホケンシセツ　ヤスラギノモリユウラク",
    "address": "奈良県生駒市小瀬町３２４番地２",
    "lat": 34.664154,
    "lng": 135.7225182,
    "tel": "0743-76-3300",
    "url": "https://www.ikoma-yuraku.com/",
    "pref": "奈良県",
    "city": "生駒市",
    "category": "rouken",
    "serviceType": "介護老人保健施設",
    "capacity": 0,
    "openDays": [],
    "openDaysNote": ""
  },
  {
    "id": "2953680002",
    "name": "介護老人保健施設でぃあほうむ吉野",
    "kana": "カイゴロウジンホケンシセツディアホウムヨシノ",
    "address": "奈良県吉野郡大淀町矢走６６６番地の６",
    "lat": 34.4043685,
    "lng": 135.7855768,
    "tel": "0747-54-3388",
    "url": "http://www.e-dearhome.com",
    "pref": "奈良県",
    "city": "大淀町",
    "category": "rouken",
    "serviceType": "介護老人保健施設",
    "capacity": 0,
    "openDays": [],
    "openDaysNote": ""
  },
  {
    "id": "2950380010",
    "name": "介護老人保健施設　ウェルケア悠",
    "kana": "カイゴロウジンホケンシセツ　ウェルケアユウ",
    "address": "大和郡山市田中町728番地",
    "lat": 34.6480262,
    "lng": 135.7684148,
    "tel": "0743-55-0210",
    "url": "http://imura-clinic.jp/",
    "pref": "奈良県",
    "city": "大和郡山市",
    "category": "rouken",
    "serviceType": "介護老人保健施設",
    "capacity": 0,
    "openDays": [],
    "openDaysNote": ""
  },
  {
    "id": "2950280079",
    "name": "介護老人保健施設　幸寿苑",
    "kana": "カイゴロウジンホケンシセツ　コウジュエン",
    "address": "奈良県大和郡山市城南町2-13",
    "lat": 34.6461294,
    "lng": 135.775892,
    "tel": "0743-54-5011",
    "url": "http://www.takitakai.or.jp/",
    "pref": "奈良県",
    "city": "大和郡山市",
    "category": "rouken",
    "serviceType": "介護老人保健施設",
    "capacity": 100,
    "openDays": [],
    "openDaysNote": ""
  },
  {
    "id": "2950280111",
    "name": "介護老人保健施設ピュアネス藍",
    "kana": "カイゴロウジンホケンシセツピュアネスアイ",
    "address": "奈良県大和郡山市本庄町1番地の5",
    "lat": 34.6373923907383,
    "lng": 135.78543667791,
    "tel": "0743-56-8001",
    "url": "http://www.seiran.or.jp/pureness/index.html",
    "pref": "奈良県",
    "city": "大和郡山市",
    "category": "rouken",
    "serviceType": "介護老人保健施設",
    "capacity": 80,
    "openDays": [],
    "openDaysNote": ""
  },
  {
    "id": "2950380028",
    "name": "介護老人保健施設夢眠やまざくら",
    "kana": "カイゴロウジンホケンシセツムウミンヤマザクラ",
    "address": "奈良県大和郡山市矢田町686番地4",
    "lat": 34.6491683246767,
    "lng": 135.754206117116,
    "tel": "0743-52-2600",
    "url": "http://mumingroup.jp/yamazakura/",
    "pref": "奈良県",
    "city": "大和郡山市",
    "category": "rouken",
    "serviceType": "介護老人保健施設",
    "capacity": 80,
    "openDays": [],
    "openDaysNote": ""
  },
  {
    "id": "2950880175",
    "name": "介護老人保健施設ふれあい",
    "kana": "カイゴロウジンホケンシセツフレアイ",
    "address": "奈良県大和高田市日之出町13-15",
    "lat": 34.5220500855985,
    "lng": 135.748864347221,
    "tel": "0745-23-5530",
    "url": "http://www.kenseikai-nara.jp/",
    "pref": "奈良県",
    "city": "大和高田市",
    "category": "rouken",
    "serviceType": "介護老人保健施設",
    "capacity": 0,
    "openDays": [],
    "openDaysNote": ""
  },
  {
    "id": "2950280004",
    "name": "介護老人保健施設光陽",
    "kana": "カイゴロウジンホケンシセツ　コウヨウ",
    "address": "奈良県大和高田市根成柿321－1",
    "lat": 34.4859116,
    "lng": 135.765154,
    "tel": "0745-53-1115",
    "url": "https://nishiikai.com/",
    "pref": "奈良県",
    "city": "大和高田市",
    "category": "rouken",
    "serviceType": "介護老人保健施設",
    "capacity": 0,
    "openDays": [],
    "openDaysNote": ""
  },
  {
    "id": "2950980124",
    "name": "介護老人保健施設ならふくじゅ荘",
    "kana": "カイゴロウジンホケンシセツナラフクジュソウ",
    "address": "奈良県天理市中之庄町493-1",
    "lat": 34.6366156,
    "lng": 135.843425,
    "tel": "0743-65-1777",
    "url": "http://www.fureai-net.com",
    "pref": "奈良県",
    "city": "天理市",
    "category": "rouken",
    "serviceType": "介護老人保健施設",
    "capacity": 0,
    "openDays": [],
    "openDaysNote": ""
  },
  {
    "id": "2950780193",
    "name": "介護老人保健施設　サンライフ田原本",
    "kana": "カイゴロウジンホケンシセツ　サンライフタワラモト",
    "address": "磯城郡田原本町小阪305-1",
    "lat": 34.5605029,
    "lng": 135.7970614,
    "tel": "0744-34-3344",
    "url": "http://www.seiwakai-group.or.jp/sunlife-tawaramoto.html",
    "pref": "奈良県",
    "city": "田原本町",
    "category": "rouken",
    "serviceType": "介護老人保健施設",
    "capacity": 70,
    "openDays": [],
    "openDaysNote": ""
  },
  {
    "id": "2952080014",
    "name": "介護老人保健施設　ぬくもり田原本",
    "kana": "カイゴロウジンホケンシセツ　ヌクモリタワラモト",
    "address": "奈良県磯城郡田原本町黒田285-1",
    "lat": 34.5690552365501,
    "lng": 135.777680515483,
    "tel": "0744-33-2111",
    "url": "http://www.nukumori-group.jp/",
    "pref": "奈良県",
    "city": "田原本町",
    "category": "rouken",
    "serviceType": "介護老人保健施設",
    "capacity": 160,
    "openDays": [],
    "openDaysNote": ""
  },
  {
    "id": "2950180048",
    "name": "医療法人岡谷会介護老人保健施設やくしの里",
    "kana": "イリョウホウジンオカタニカイカイゴロウジンホケンシセツヤクシノサト",
    "address": "奈良市高畑町２１０番地",
    "lat": 34.6724364,
    "lng": 135.8463524,
    "tel": "0742-24-1313",
    "url": "http://www.okatani.or.jp/yakushi/index.htm",
    "pref": "奈良県",
    "city": "奈良市",
    "category": "rouken",
    "serviceType": "介護老人保健施設",
    "capacity": 90,
    "openDays": [],
    "openDaysNote": ""
  },
  {
    "id": "2950180014",
    "name": "医療法人宝山会　介護老人保健施設　「佐保の里」",
    "kana": "イリョウホウジンホウザンカイカイゴロウジンホケンシセツサホノサト",
    "address": "奈良市八条５丁目４３７番地の８",
    "lat": 34.6670241570754,
    "lng": 135.7992039,
    "tel": "0742-30-6662",
    "url": "http://houzankai.jp/",
    "pref": "奈良県",
    "city": "奈良市",
    "category": "rouken",
    "serviceType": "介護老人保健施設",
    "capacity": 80,
    "openDays": [],
    "openDaysNote": ""
  },
  {
    "id": "2950180055",
    "name": "医療法人宝山会介護老人保健施設「桜の里」",
    "kana": "イリョウホウジン　ホウザンカイ　カイゴロウジンホケンシセツ「サクラノサト」",
    "address": "奈良県奈良市八条５丁目４３７－１０",
    "lat": 34.6665669,
    "lng": 135.7991345,
    "tel": "0742-36-3666",
    "url": "http://houzankai.jp/",
    "pref": "奈良県",
    "city": "奈良市",
    "category": "rouken",
    "serviceType": "介護老人保健施設",
    "capacity": 0,
    "openDays": [],
    "openDaysNote": ""
  },
  {
    "id": "2950180063",
    "name": "介護老人保健施設　エリシオン石木の里",
    "kana": "カイゴロウジンホケンシセツ　エリシオンイシキノサト",
    "address": "奈良県奈良市石木町800",
    "lat": 34.6649771877427,
    "lng": 135.757904171133,
    "tel": "0742-93-7817",
    "url": "http://nrh.elysion-gr.com/",
    "pref": "奈良県",
    "city": "奈良市",
    "category": "rouken",
    "serviceType": "介護老人保健施設",
    "capacity": 100,
    "openDays": [],
    "openDaysNote": ""
  },
  {
    "id": "2950189106",
    "name": "介護老人保健施設　サンライフ学園前",
    "kana": "カイゴロウジンホケンシセツサンライフガクエンマエ",
    "address": "学園大和町5丁目724-4介護老人保健施設　サンライフ学園前 介護老人保健施設　サンライフ学園前",
    "lat": 34.6885043031731,
    "lng": 135.742208830688,
    "tel": "742401177",
    "url": "https://seiwakai-group.or.jp/",
    "pref": "奈良県",
    "city": "奈良市",
    "category": "rouken",
    "serviceType": "介護老人保健施設",
    "capacity": 100,
    "openDays": [],
    "openDaysNote": ""
  },
  {
    "id": "2950180139",
    "name": "介護老人保健施設アップル学園前",
    "kana": "カイゴロウジンホケンシセツ　アップルガクエンマエ",
    "address": "奈良市中登美ヶ丘四丁目３番",
    "lat": 34.7216432,
    "lng": 135.7445351,
    "tel": "0742-51-2200",
    "url": "http://www.apple-g.or.jp",
    "pref": "奈良県",
    "city": "奈良市",
    "category": "rouken",
    "serviceType": "介護老人保健施設",
    "capacity": 0,
    "openDays": [],
    "openDaysNote": ""
  },
  {
    "id": "2950180022",
    "name": "介護老人保健施設アンジェロ",
    "kana": "カイゴロウジンホケンシセツアンジェロ",
    "address": "奈良市帝塚山2丁目21番21号",
    "lat": 34.6854938,
    "lng": 135.7309008,
    "tel": "0742-44-3300",
    "url": "https://asukakai.or.jp",
    "pref": "奈良県",
    "city": "奈良市",
    "category": "rouken",
    "serviceType": "介護老人保健施設",
    "capacity": 100,
    "openDays": [],
    "openDaysNote": ""
  },
  {
    "id": "2950180089",
    "name": "介護老人保健施設サンライフ奈良",
    "kana": "カイゴロウジンホケンシセツ　サンライフナラ",
    "address": "奈良県奈良市南肘塚町205-1",
    "lat": 34.6676088,
    "lng": 135.8327954,
    "tel": "0742-22-1177",
    "url": "//www.seiwakai-group.or.jp/",
    "pref": "奈良県",
    "city": "奈良市",
    "category": "rouken",
    "serviceType": "介護老人保健施設",
    "capacity": 0,
    "openDays": [],
    "openDaysNote": ""
  },
  {
    "id": "2950980033",
    "name": "介護老人保健施設ハビリス",
    "kana": "カイゴロウジンホケンシセツハビリス",
    "address": "上町88番地1",
    "lat": 34.7122253,
    "lng": 135.7254809,
    "tel": "0743-72-3600",
    "url": "https://asukakai.or.jp",
    "pref": "奈良県",
    "city": "奈良市",
    "category": "rouken",
    "serviceType": "介護老人保健施設",
    "capacity": 0,
    "openDays": [],
    "openDaysNote": ""
  },
  {
    "id": "2951180146",
    "name": "介護老人保健施設ももたろう",
    "kana": "カイゴロウジンホケンシセツ　モモタロウ",
    "address": "奈良県奈良市都祁友田町515番地の1",
    "lat": 34.6006045,
    "lng": 135.9532145,
    "tel": "0743-82-1813",
    "url": "https://kaigo-momotaro.jp/",
    "pref": "奈良県",
    "city": "奈良市",
    "category": "rouken",
    "serviceType": "介護老人保健施設",
    "capacity": 80,
    "openDays": [],
    "openDaysNote": ""
  },
  {
    "id": "2950180105",
    "name": "介護老人保健施設ロイヤルフェニックス",
    "kana": "カイゴロウジンホケンシセツロイヤルフェニックス",
    "address": "奈良市六条町９９の２",
    "lat": 34.6657086,
    "lng": 135.7899798,
    "tel": "0742-35-1313",
    "url": "http://www.nishinokyo.or.jp/",
    "pref": "奈良県",
    "city": "奈良市",
    "category": "rouken",
    "serviceType": "介護老人保健施設",
    "capacity": 150,
    "openDays": [],
    "openDaysNote": ""
  },
  {
    "id": "2950180030",
    "name": "介護老人保険施設　秋篠",
    "kana": "カイゴロウジンホケンシセツ　アキシノ",
    "address": "奈良県奈良市秋篠町１４３２－１",
    "lat": 34.7074368,
    "lng": 135.7785575,
    "tel": "0742-53-3001",
    "url": "http://taizankai.org",
    "pref": "奈良県",
    "city": "奈良市",
    "category": "rouken",
    "serviceType": "介護老人保健施設",
    "capacity": 150,
    "openDays": [],
    "openDaysNote": ""
  },
  {
    "id": "2950180006",
    "name": "社会医療法人松本快生会介護老人保健施設大和田の里",
    "kana": "シャカイイリョウホウジンマツモトカイセイカイカイゴロウジンホケンシセツオオワダノサト",
    "address": "奈良市丸山２丁目１２２０－１６３",
    "lat": 34.666974,
    "lng": 135.7499075,
    "tel": "0742-51-6003",
    "url": "http://www.nichinarachuo.or.jp",
    "pref": "奈良県",
    "city": "奈良市",
    "category": "rouken",
    "serviceType": "介護老人保健施設",
    "capacity": 0,
    "openDays": [],
    "openDaysNote": ""
  },
  {
    "id": "2951480009",
    "name": "介護老人保健施設悠々の郷",
    "kana": "カイゴロウジンホケンシセツ　ユウユウノサト",
    "address": "奈良県生駒郡平群町上庄1-15-1",
    "lat": 34.6410616,
    "lng": 135.7034954,
    "tel": "0745-46-2255",
    "url": "http://www.yawaragikai.jp/",
    "pref": "奈良県",
    "city": "平群町",
    "category": "rouken",
    "serviceType": "介護老人保健施設",
    "capacity": 0,
    "openDays": [],
    "openDaysNote": ""
  }
]