[
  {
    "id": "4550980009",
    "name": "介護老人保健施設さくら苑",
    "kana": "カイゴロウジンホケンシセツサクラエン",
    "address": "宮崎県えびの市大字大河平4327-37",
    "lat": 32.0399114,
    "lng": 130.9120823,
    "tel": "0984-33-2127",
    "url": "https://kyk.or.jp",
    "pref": "宮崎県",
    "city": "えびの市",
    "category": "rouken",
    "serviceType": "介護老人保健施設",
    "capacity": 80,
    "openDays": [],
    "openDaysNote": ""
  },
  {
    "id": "4550380051",
    "name": "のべおか老健あたご",
    "kana": "ノベオカロウケンアタゴ",
    "address": "宮崎県延岡市中島町4丁目314番地3",
    "lat": 32.5763612128219,
    "lng": 131.675741238609,
    "tel": "0982-34-7575",
    "url": "www.rouken-atago.jp",
    "pref": "宮崎県",
    "city": "延岡市",
    "category": "rouken",
    "serviceType": "介護老人保健施設",
    "capacity": null,
    "openDays": [],
    "openDaysNote": ""
  },
  {
    "id": "4550380028",
    "name": "医療法人久康会　介護老人保健施設トトロみのる園",
    "kana": "イリョウホウジンキュウコウカイ　カイゴロウジンホケンシセツトトロミノルエン",
    "address": "宮崎県延岡市鯛名町４２２番地９",
    "lat": 32.5069803,
    "lng": 131.6920797,
    "tel": "0982-37-3336",
    "url": "http://www.q-totoro.org/minoru",
    "pref": "宮崎県",
    "city": "延岡市",
    "category": "rouken",
    "serviceType": "介護老人保健施設",
    "capacity": 0,
    "openDays": [],
    "openDaysNote": ""
  },
  {
    "id": "4550380044",
    "name": "医療法人伸和会・介護老人保健施設「東海園」",
    "kana": "イリョウホウジンシンワカイ・カイゴロウジンホケンシセツ「トウミエン」",
    "address": "宮崎県延岡市川島町1080番地5",
    "lat": 32.6192766,
    "lng": 131.7024575,
    "tel": "0982-30-1661",
    "url": "http://www.nobeoka-kyoritu.or.jp/toumien/",
    "pref": "宮崎県",
    "city": "延岡市",
    "category": "rouken",
    "serviceType": "介護老人保健施設",
    "capacity": 0,
    "openDays": [],
    "openDaysNote": ""
  },
  {
    "id": "4550380010",
    "name": "介護老人保健施設エクセルライフ",
    "kana": "カイゴロウジンホケンシセツエクセルライフ",
    "address": "宮崎県延岡市大貫町1丁目2850-1",
    "lat": 32.5795178,
    "lng": 131.6553491,
    "tel": "0982-32-1550",
    "url": "http://www.excel-life.jp/",
    "pref": "宮崎県",
    "city": "延岡市",
    "category": "rouken",
    "serviceType": "介護老人保健施設",
    "capacity": 0,
    "openDays": [],
    "openDaysNote": ""
  },
  {
    "id": "4550380036",
    "name": "介護老人保健施設マイ・グリーンヒル",
    "kana": "カイゴロウジンホケンシセツマイ・グリーンヒル",
    "address": "宮崎県延岡市緑ヶ丘５丁目２番２２号",
    "lat": 32.5458347,
    "lng": 131.6794435,
    "tel": "0982-32-8333",
    "url": "http://www.ryuseikai.com",
    "pref": "宮崎県",
    "city": "延岡市",
    "category": "rouken",
    "serviceType": "介護老人保健施設",
    "capacity": 80,
    "openDays": [],
    "openDaysNote": ""
  },
  {
    "id": "4550380002",
    "name": "介護老人保健施設昭和苑",
    "kana": "カイゴロウジンホケンシセツショウワエン",
    "address": "宮崎県延岡市構口町２丁目125-1",
    "lat": 32.557836,
    "lng": 131.6742129,
    "tel": "0982-22-3200",
    "url": "",
    "pref": "宮崎県",
    "city": "延岡市",
    "category": "rouken",
    "serviceType": "介護老人保健施設",
    "capacity": 60,
    "openDays": [],
    "openDaysNote": ""
  },
  {
    "id": "4552180004",
    "name": "介護老人保健施設螢邑苑",
    "kana": "カイゴロウジンホケンシセツケイユウエン",
    "address": "宮崎県延岡市北川町川内名7055番地2",
    "lat": 32.6870239862522,
    "lng": 131.693573112303,
    "tel": "0982-46-2295",
    "url": "http://yuryukai.jp",
    "pref": "宮崎県",
    "city": "延岡市",
    "category": "rouken",
    "serviceType": "介護老人保健施設",
    "capacity": 0,
    "openDays": [],
    "openDaysNote": ""
  },
  {
    "id": "4570107989",
    "name": "このはな介護老人保健施設",
    "kana": "コノハナカイゴロウジンホケンシセツ",
    "address": "宮崎県宮崎市大字浮田1677番地3",
    "lat": 31.9189784,
    "lng": 131.3641256,
    "tel": "0985-82-8600",
    "url": "http://kou-sin.pr.miten.jp/",
    "pref": "宮崎県",
    "city": "宮崎市",
    "category": "rouken",
    "serviceType": "介護老人保健施設",
    "capacity": 70,
    "openDays": [],
    "openDaysNote": ""
  },
  {
    "id": "4550180014",
    "name": "介護老人保健施設あおしまのいえ",
    "kana": "カイゴロウジンホケンシセツアオシマノイエ",
    "address": "宮崎県宮崎市青島4丁目6-3",
    "lat": 31.7957002006916,
    "lng": 131.469370811815,
    "tel": "0985-65-1122",
    "url": "",
    "pref": "宮崎県",
    "city": "宮崎市",
    "category": "rouken",
    "serviceType": "介護老人保健施設",
    "capacity": 0,
    "openDays": [],
    "openDaysNote": ""
  },
  {
    "id": "4550180089",
    "name": "介護老人保健施設エンゼルホーム",
    "kana": "カイゴロウジンホケンシセツエンゼルホーム",
    "address": "宮崎県宮崎市大字広原１３５０番地",
    "lat": 32.0050396,
    "lng": 131.4401747,
    "tel": "0985-37-1588",
    "url": "",
    "pref": "宮崎県",
    "city": "宮崎市",
    "category": "rouken",
    "serviceType": "介護老人保健施設",
    "capacity": null,
    "openDays": [],
    "openDaysNote": ""
  },
  {
    "id": "4550180113",
    "name": "介護老人保健施設エンゼルホーム",
    "kana": "カイゴロウジンホケンシセツエンゼルホーム",
    "address": "宮崎県宮崎市大字広原1350",
    "lat": 32.0049711,
    "lng": 131.4403237,
    "tel": "0985-37-1588",
    "url": "http://angel-home.net",
    "pref": "宮崎県",
    "city": "宮崎市",
    "category": "rouken",
    "serviceType": "介護老人保健施設",
    "capacity": null,
    "openDays": [],
    "openDaysNote": ""
  },
  {
    "id": "4550180071",
    "name": "介護老人保健施設グリーンケア学園木花",
    "kana": "カイゴロウジンホケンシセツグリーンケアガクエンキバナ",
    "address": "宮崎県宮崎市熊野４７０番地２",
    "lat": 31.8282468,
    "lng": 131.4385233,
    "tel": "0985-58-3000",
    "url": "http://www.green-care.net/",
    "pref": "宮崎県",
    "city": "宮崎市",
    "category": "rouken",
    "serviceType": "介護老人保健施設",
    "capacity": 0,
    "openDays": [],
    "openDaysNote": ""
  },
  {
    "id": "4550180055",
    "name": "介護老人保健施設ことぶき苑",
    "kana": "カイゴロウジンホケンシセツコトブキエン",
    "address": "宮崎県宮崎市大字本郷北方字池田４０４３－１",
    "lat": 31.8650975954691,
    "lng": 131.4259539,
    "tel": "0985-56-6622",
    "url": "www.anami-kotobukien.jp",
    "pref": "宮崎県",
    "city": "宮崎市",
    "category": "rouken",
    "serviceType": "介護老人保健施設",
    "capacity": 0,
    "openDays": [],
    "openDaysNote": ""
  },
  {
    "id": "4551580014",
    "name": "介護老人保健施設サンヒルきよたけ",
    "kana": "カイゴロウジンホケンシセツサンヒルキヨタケ",
    "address": "宮崎県宮崎市清武町木原5886番地16",
    "lat": 31.8381477,
    "lng": 131.3950881,
    "tel": "0985-84-0333",
    "url": "http://www.suntaiyo.jp/sunhill/",
    "pref": "宮崎県",
    "city": "宮崎市",
    "category": "rouken",
    "serviceType": "介護老人保健施設",
    "capacity": 0,
    "openDays": [],
    "openDaysNote": ""
  },
  {
    "id": "4550180022",
    "name": "介護老人保健施設シルバーケア野崎",
    "kana": "カイゴロウジンホケンシセツシルバーケアノザキ",
    "address": "宮崎市村角町高尊２１０５",
    "lat": 31.9583049,
    "lng": 131.4477045,
    "tel": "0985-28-6555",
    "url": "http://www.koujunkai.jp",
    "pref": "宮崎県",
    "city": "宮崎市",
    "category": "rouken",
    "serviceType": "介護老人保健施設",
    "capacity": 0,
    "openDays": [],
    "openDaysNote": ""
  },
  {
    "id": "4550180097",
    "name": "介護老人保健施設ひむか苑",
    "kana": "カイゴロウジンホケンシセツヒムカエン",
    "address": "宮崎県宮崎市大字小松1158",
    "lat": 31.9338588,
    "lng": 131.4028252,
    "tel": "0985-47-3434",
    "url": "http://www.himukaen.net/",
    "pref": "宮崎県",
    "city": "宮崎市",
    "category": "rouken",
    "serviceType": "介護老人保健施設",
    "capacity": 0,
    "openDays": [],
    "openDaysNote": ""
  },
  {
    "id": "4550180030",
    "name": "介護老人保健施設むつみ苑",
    "kana": "カイゴロウジンホケンシセツムツミエン",
    "address": "宮崎県宮崎市池内町伊勢領1344番地",
    "lat": 31.9628659814508,
    "lng": 131.414334267459,
    "tel": "0985-39-9200",
    "url": "https://zinwakai-mutsumien.com/",
    "pref": "宮崎県",
    "city": "宮崎市",
    "category": "rouken",
    "serviceType": "介護老人保健施設",
    "capacity": 0,
    "openDays": [],
    "openDaysNote": ""
  },
  {
    "id": "4550180048",
    "name": "介護老人保健施設春草苑",
    "kana": "カイゴロウジンホケンシセツシュンソウエン",
    "address": "宮崎県宮崎市池内町数太木１７４９－１",
    "lat": 31.9706908089464,
    "lng": 131.410304303566,
    "tel": "0985-39-8899",
    "url": "http://www.kgh.or.jp/",
    "pref": "宮崎県",
    "city": "宮崎市",
    "category": "rouken",
    "serviceType": "介護老人保健施設",
    "capacity": 80,
    "openDays": [],
    "openDaysNote": ""
  },
  {
    "id": "4551980016",
    "name": "介護老人保健施設信愛ホーム",
    "kana": "カイゴロウジンホケンシセツシンアイホーム",
    "address": "宮崎県宮崎市高岡町内山２４２４番地",
    "lat": 31.9680442,
    "lng": 131.2958551,
    "tel": "0985-82-5588",
    "url": "tatsumoto-g.com",
    "pref": "宮崎県",
    "city": "宮崎市",
    "category": "rouken",
    "serviceType": "介護老人保健施設",
    "capacity": 0,
    "openDays": [],
    "openDaysNote": ""
  },
  {
    "id": "4550180105",
    "name": "独立行政法人地域医療機能推進機構宮崎江南病院附属介護老人保健施設",
    "kana": "ドクリツギョウセイホウジンチイキイリョウキノウスイシンキコウミヤザキコウナンビョウインフゾクカイゴロウジンホケンシセツ",
    "address": "宮崎県宮崎市大字恒久字鳥の巣6245-1",
    "lat": 31.8953090414138,
    "lng": 131.405006152795,
    "tel": "0985-50-6070",
    "url": "http://miyazaki.jcho.go.jp/rouken/",
    "pref": "宮崎県",
    "city": "宮崎市",
    "category": "rouken",
    "serviceType": "介護老人保健施設",
    "capacity": 0,
    "openDays": [],
    "openDaysNote": ""
  },
  {
    "id": "4550780003",
    "name": "介護老人保健施設長寿の里",
    "kana": "カイゴロウジンホケンシセツチョウジュノサト",
    "address": "宮崎県串間市大字奈留５２９８-３",
    "lat": 31.5133006,
    "lng": 131.246595,
    "tel": "0987-74-1010",
    "url": "http://www.shueikai.or.jp/",
    "pref": "宮崎県",
    "city": "串間市",
    "category": "rouken",
    "serviceType": "介護老人保健施設",
    "capacity": 0,
    "openDays": [],
    "openDaysNote": ""
  },
  {
    "id": "4552080006",
    "name": "介護老人保健施設なでしこ園",
    "kana": "カイゴロウジンホケンシセツナデシコエン",
    "address": "宮崎県児湯郡高鍋町大字北高鍋3225番地",
    "lat": 32.1252962,
    "lng": 131.5214308,
    "tel": "0983-23-8023",
    "url": "https://www.sanjinkai.jp",
    "pref": "宮崎県",
    "city": "高鍋町",
    "category": "rouken",
    "serviceType": "介護老人保健施設",
    "capacity": 80,
    "openDays": [],
    "openDaysNote": ""
  },
  {
    "id": "4551980008",
    "name": "介護老人保健施設サンフローラみやざき",
    "kana": "カイゴロウジンホケンシセツサンフローラミヤザキ",
    "address": "宮崎県東諸県郡国富町大字岩知野字明久３５５番地",
    "lat": 31.9906436,
    "lng": 131.3235354,
    "tel": "0985-75-2020",
    "url": "http://www.keimeisw.or.jp",
    "pref": "宮崎県",
    "city": "国富町",
    "category": "rouken",
    "serviceType": "介護老人保健施設",
    "capacity": 0,
    "openDays": [],
    "openDaysNote": ""
  },
  {
    "id": "4551780002",
    "name": "介護老人保健施設グリーンホーム",
    "kana": "カイゴロウジンホケンシセツグリーンホーム",
    "address": "宮崎県北諸県郡三股町大字長田１２７０番地",
    "lat": 31.7431234,
    "lng": 131.1330999,
    "tel": "0986-52-7011",
    "url": "http://www.fujimoto.or.jp/",
    "pref": "宮崎県",
    "city": "三股町",
    "category": "rouken",
    "serviceType": "介護老人保健施設",
    "capacity": 0,
    "openDays": [],
    "openDaysNote": ""
  },
  {
    "id": "4551780028",
    "name": "介護老人保健施設はまゆう",
    "kana": "カイゴロウジンホケンシセツハマユウ",
    "address": "宮崎県北諸県郡三股町大字蓼池660番地",
    "lat": 31.748667,
    "lng": 131.1145368,
    "tel": "0986-51-0001",
    "url": "",
    "pref": "宮崎県",
    "city": "三股町",
    "category": "rouken",
    "serviceType": "介護老人保健施設",
    "capacity": 0,
    "openDays": [],
    "openDaysNote": ""
  },
  {
    "id": "4550580049",
    "name": "医療法人けんゆう会　介護老人保健施設さわやかセンター",
    "kana": "イリョウホウジンケンユウカイ　カイゴロウジンホケンシセツサワヤカセンター",
    "address": "宮崎県小林市堤3008番地1",
    "lat": 31.9820859,
    "lng": 130.9977307,
    "tel": "0984-25-1234",
    "url": "http://www.sawayakacenter.com/",
    "pref": "宮崎県",
    "city": "小林市",
    "category": "rouken",
    "serviceType": "介護老人保健施設",
    "capacity": 0,
    "openDays": [],
    "openDaysNote": ""
  },
  {
    "id": "4550580015",
    "name": "介護老人保健施設すこやかセンターこばやし",
    "kana": "カイゴロウジンホケンシセツスコヤカセンターコバヤシ",
    "address": "宮崎県小林市細野2033番地",
    "lat": 31.989246,
    "lng": 130.9798484,
    "tel": "0984-22-3397",
    "url": "http://www.maeharahospital.jp/",
    "pref": "宮崎県",
    "city": "小林市",
    "category": "rouken",
    "serviceType": "介護老人保健施設",
    "capacity": 50,
    "openDays": [],
    "openDaysNote": ""
  },
  {
    "id": "4550580031",
    "name": "介護老人保健施設みずほ",
    "kana": "カイゴロウジンホケンシセツミズホ",
    "address": "宮崎県小林市真方８７番地",
    "lat": 31.996748,
    "lng": 130.9781981,
    "tel": "0984-23-4152",
    "url": "http://www.yokikai.or.jp",
    "pref": "宮崎県",
    "city": "小林市",
    "category": "rouken",
    "serviceType": "介護老人保健施設",
    "capacity": 50,
    "openDays": [],
    "openDaysNote": ""
  },
  {
    "id": "4550580007",
    "name": "介護老人保健施設相愛苑",
    "kana": "カイゴロウジンホケンシセツソウアイエン",
    "address": "宮崎県小林市北西方66-3",
    "lat": 32.0083046,
    "lng": 130.9635017,
    "tel": "0984-24-1874",
    "url": "http://www.all-souai.or.jp/souaien/",
    "pref": "宮崎県",
    "city": "小林市",
    "category": "rouken",
    "serviceType": "介護老人保健施設",
    "capacity": 50,
    "openDays": [],
    "openDaysNote": ""
  },
  {
    "id": "4552080014",
    "name": "介護老人保健施設シルバーケア新富",
    "kana": "カイゴロウジンホケンシセツシルバーケアシントミ",
    "address": "宮崎県児湯郡新富町大字新田４８１－１",
    "lat": 32.064423,
    "lng": 131.4606726,
    "tel": "0983-33-0120",
    "url": "",
    "pref": "宮崎県",
    "city": "新富町",
    "category": "rouken",
    "serviceType": "介護老人保健施設",
    "capacity": 0,
    "openDays": [],
    "openDaysNote": ""
  },
  {
    "id": "4550880019",
    "name": "介護老人保健施設菜花園",
    "kana": "カイゴロウジンホケンシセツサイカエン",
    "address": "宮崎県西都市大字穂北字東原5253番地4",
    "lat": 32.1350126506571,
    "lng": 131.442329903625,
    "tel": "0983-42-1122",
    "url": "http://www.ryutoku.or.jp",
    "pref": "宮崎県",
    "city": "西都市",
    "category": "rouken",
    "serviceType": "介護老人保健施設",
    "capacity": 0,
    "openDays": [],
    "openDaysNote": ""
  },
  {
    "id": "4550880001",
    "name": "介護老人保健施設並木の里",
    "kana": "カイゴロウジンホケンシセツナミキノサト",
    "address": "宮崎県西都市大字下三財8124番地8",
    "lat": 32.0699413031796,
    "lng": 131.344759582803,
    "tel": "0983-44-6066",
    "url": "https://gyoseikai-med.jp/",
    "pref": "宮崎県",
    "city": "西都市",
    "category": "rouken",
    "serviceType": "介護老人保健施設",
    "capacity": 80,
    "openDays": [],
    "openDaysNote": ""
  },
  {
    "id": "4550280020",
    "name": "介護老人保健施設ウエルネス苑都城",
    "kana": "カイゴロウジンホケンシセツウエルネスエンミヤコノジョウ",
    "address": "宮崎県都城市上東町２７街区１６号",
    "lat": 31.7234348,
    "lng": 131.0746066,
    "tel": "0986-21-1006",
    "url": "",
    "pref": "宮崎県",
    "city": "都城市",
    "category": "rouken",
    "serviceType": "介護老人保健施設",
    "capacity": 0,
    "openDays": [],
    "openDaysNote": ""
  },
  {
    "id": "4550280012",
    "name": "介護老人保健施設こんにちわセンター",
    "kana": "カイゴロウジンホケンシセツコンニチワセンター",
    "address": "宮崎県都城市牟田町4街区10",
    "lat": 31.7273813,
    "lng": 131.0627711,
    "tel": "0986-22-7100",
    "url": "http://konnichiwa-center.com",
    "pref": "宮崎県",
    "city": "都城市",
    "category": "rouken",
    "serviceType": "介護老人保健施設",
    "capacity": 0,
    "openDays": [],
    "openDaysNote": ""
  },
  {
    "id": "4551780010",
    "name": "介護老人保健施設ハッピーライフ高城",
    "kana": "カイゴロウジンホケンシセツハッピーライフタカジョウ",
    "address": "宮崎県都城市高城町穂満坊４５５－２",
    "lat": 31.8019042,
    "lng": 131.1258289,
    "tel": "0986-58-5566",
    "url": "https://t-yoshimi.sakura.ne.jp/yoshimihp/",
    "pref": "宮崎県",
    "city": "都城市",
    "category": "rouken",
    "serviceType": "介護老人保健施設",
    "capacity": 0,
    "openDays": [],
    "openDaysNote": ""
  },
  {
    "id": "4550280004",
    "name": "都城市郡医師会介護老人保健施設すこやか苑",
    "kana": "ミヤコノジョウシグンイシカイカイゴロウジンホケンシセツスコヤカエン",
    "address": "宮崎県都城市大岩田町5812番地",
    "lat": 31.6913541,
    "lng": 131.0557317,
    "tel": "0986-39-1107",
    "url": "http://www.miyazaki.med.or.jp/miyakonojo/",
    "pref": "宮崎県",
    "city": "都城市",
    "category": "rouken",
    "serviceType": "介護老人保健施設",
    "capacity": 80,
    "openDays": [],
    "openDaysNote": ""
  },
  {
    "id": "4550680021",
    "name": "介護老人保健施設メディケア盛年館",
    "kana": "カイゴロウジンホケンシセツメディケアセイネンカン",
    "address": "宮崎県日向市向江町1丁目196番地2",
    "lat": 32.4291104,
    "lng": 131.6290285,
    "tel": "0982-53-8788",
    "url": "http://seinenkan.jp/",
    "pref": "宮崎県",
    "city": "日向市",
    "category": "rouken",
    "serviceType": "介護老人保健施設",
    "capacity": 50,
    "openDays": [],
    "openDaysNote": ""
  },
  {
    "id": "4550680013",
    "name": "介護老人保健施設ラポール向洋",
    "kana": "カイゴロウジンホケンシセツラポールコウヨウ",
    "address": "宮崎県日向市大字財光寺１１３１－２４",
    "lat": 32.4079404,
    "lng": 131.6381425,
    "tel": "0982-54-5016",
    "url": "www.kyowahospital.jp/",
    "pref": "宮崎県",
    "city": "日向市",
    "category": "rouken",
    "serviceType": "介護老人保健施設",
    "capacity": 76,
    "openDays": [],
    "openDaysNote": ""
  },
  {
    "id": "4550680005",
    "name": "介護老人保健施設慶穣塾",
    "kana": "カイゴロウジンホケンシセツケイジョウジュク",
    "address": "宮崎県日向市大字塩見１０９４７番地１",
    "lat": 32.4106722,
    "lng": 131.5945987,
    "tel": "0982-54-6541",
    "url": "http://takii-hospital.com/.",
    "pref": "宮崎県",
    "city": "日向市",
    "category": "rouken",
    "serviceType": "介護老人保健施設",
    "capacity": 90,
    "openDays": [],
    "openDaysNote": ""
  },
  {
    "id": "4550480034",
    "name": "介護老人保健施設　おびの里",
    "kana": "カイゴロウジンホケンシセツ　オビノサト",
    "address": "宮崎県日南市飫肥6丁目1番15号",
    "lat": 31.6245299,
    "lng": 131.3552592,
    "tel": "0987-25-2012",
    "url": "http://www.keimei.or.jp/obichuo/sato/",
    "pref": "宮崎県",
    "city": "日南市",
    "category": "rouken",
    "serviceType": "介護老人保健施設",
    "capacity": 0,
    "openDays": [],
    "openDaysNote": ""
  },
  {
    "id": "4551680004",
    "name": "介護老人保健施設しあわせの里",
    "kana": "カイゴロウジンホケンシセツシアワセノサト",
    "address": "宮崎県日南市北郷町大藤甲3589-1",
    "lat": 31.6584694,
    "lng": 131.3857174,
    "tel": "0987-55-4800",
    "url": "http://siawasenosato.com/",
    "pref": "宮崎県",
    "city": "日南市",
    "category": "rouken",
    "serviceType": "介護老人保健施設",
    "capacity": 80,
    "openDays": [],
    "openDaysNote": ""
  },
  {
    "id": "4550480000",
    "name": "介護老人保健施設ハイム苑",
    "kana": "カイゴロウジンホケンシセツハイムエン",
    "address": "宮崎県日南市中央通１丁目１０番地１５",
    "lat": 31.6008013954173,
    "lng": 131.381452807969,
    "tel": "0987-23-0844",
    "url": "http://aisinkai.com",
    "pref": "宮崎県",
    "city": "日南市",
    "category": "rouken",
    "serviceType": "介護老人保健施設",
    "capacity": 0,
    "openDays": [],
    "openDaysNote": ""
  },
  {
    "id": "4550480026",
    "name": "介護老人保健施設みどりの丘",
    "kana": "カイゴロウジンホケンシセツミドリノオカ",
    "address": "宮崎県日南市大字隈谷甲１２１８－１",
    "lat": 31.5768004,
    "lng": 131.3704597,
    "tel": "0987-27-2525",
    "url": "http://www.keiwakai.co.jp",
    "pref": "宮崎県",
    "city": "日南市",
    "category": "rouken",
    "serviceType": "介護老人保健施設",
    "capacity": 64,
    "openDays": [],
    "openDaysNote": ""
  }
]