[
  {
    "id": "450380027",
    "name": "介護老人保健施設　やまと塩竈",
    "kana": "カイゴロウジンホケンシセツ　ヤマトシオガマ",
    "address": "宮城県塩竈市字伊保石20番地1",
    "lat": 38.3348847,
    "lng": 141.0177736,
    "tel": "022-363-3211",
    "url": "http://www.yamato.or.jp",
    "pref": "宮城県",
    "city": "塩竈市",
    "category": "rouken",
    "serviceType": "介護老人保健施設",
    "capacity": 100,
    "openDays": [],
    "openDaysNote": ""
  },
  {
    "id": "450380019",
    "name": "介護老人保健施設グリーンヒルズ",
    "kana": "カイゴロウジンホケンシセツグリーンヒルズ",
    "address": "宮城県塩竈市西玉川町１番２８号",
    "lat": 38.3103205,
    "lng": 141.0017159,
    "tel": "022-362-5050",
    "url": "https://www.shio-gh.com",
    "pref": "宮城県",
    "city": "塩竈市",
    "category": "rouken",
    "serviceType": "介護老人保健施設",
    "capacity": 100,
    "openDays": [],
    "openDaysNote": ""
  },
  {
    "id": "450880026",
    "name": "介護老人保健施設　はくあいホーム",
    "kana": "カイゴロウジンホケンシセツハクアイホーム",
    "address": "宮城県角田市角田字牛舘16番地",
    "lat": 37.9721826489256,
    "lng": 140.783040804894,
    "tel": "0224-63-5111",
    "url": "https://hakuai.sennan.or.jp/",
    "pref": "宮城県",
    "city": "角田市",
    "category": "rouken",
    "serviceType": "介護老人保健施設",
    "capacity": 0,
    "openDays": [],
    "openDaysNote": ""
  },
  {
    "id": "450880018",
    "name": "介護老人保健施設ゆうゆうホーム",
    "kana": "カイゴロウジンホケンシセツユウユウホーム",
    "address": "角田市角田字田町114-9",
    "lat": 37.9737298,
    "lng": 140.7863538,
    "tel": "0224-62-4866",
    "url": "http://www.kanagami.or.jp",
    "pref": "宮城県",
    "city": "角田市",
    "category": "rouken",
    "serviceType": "介護老人保健施設",
    "capacity": 0,
    "openDays": [],
    "openDaysNote": ""
  },
  {
    "id": "452380017",
    "name": "介護老人保健施設　丸森ロイヤルケアセンター",
    "kana": "カイゴロウジンホケンシセツ　マルモリロイヤルケアセンター",
    "address": "宮城県伊具郡丸森町字鳥屋9番2",
    "lat": 37.9132735,
    "lng": 140.7661141,
    "tel": "0224-73-1101",
    "url": "http://www.ims.gr.jp/marumori-royal/index.html",
    "pref": "宮城県",
    "city": "丸森町",
    "category": "rouken",
    "serviceType": "介護老人保健施設",
    "capacity": 100,
    "openDays": [],
    "openDaysNote": ""
  },
  {
    "id": "451180012",
    "name": "サニーホーム",
    "kana": "サニーホーム",
    "address": "宮城県岩沼市里の杜１丁目2-6",
    "lat": 38.1081141,
    "lng": 140.8768764,
    "tel": "0223-29-3275",
    "url": "http;//www.minamitohoku.jp",
    "pref": "宮城県",
    "city": "岩沼市",
    "category": "rouken",
    "serviceType": "介護老人保健施設",
    "capacity": 0,
    "openDays": [],
    "openDaysNote": ""
  },
  {
    "id": "450580030",
    "name": "医療機関併設型小規模介護老人保健施設　リンデンヴィラ",
    "kana": "イリョウキカンヘイセツガタショウキボカイゴロウジンホケンシセツリンデンビラ",
    "address": "宮城県気仙沼市東新城2-9-1",
    "lat": 38.9057564,
    "lng": 141.549055,
    "tel": "0226-21-1160",
    "url": "http://www.kouwakai.biz/",
    "pref": "宮城県",
    "city": "気仙沼市",
    "category": "rouken",
    "serviceType": "介護老人保健施設",
    "capacity": 19,
    "openDays": [],
    "openDaysNote": ""
  },
  {
    "id": "450580022",
    "name": "医療法人社団晃和会　　介護老人保健施設リンデンバウムの杜",
    "kana": "イリョウホウジンシャダンコウワカイ　　カイゴロウジンホケンシセツリンデンバウムノモリ",
    "address": "宮城県気仙沼市東新城2-9-1",
    "lat": 38.9057564,
    "lng": 141.549055,
    "tel": "0226-21-1162",
    "url": "http://kouwakai.biz/",
    "pref": "宮城県",
    "city": "気仙沼市",
    "category": "rouken",
    "serviceType": "介護老人保健施設",
    "capacity": 0,
    "openDays": [],
    "openDaysNote": ""
  },
  {
    "id": "453680035",
    "name": "介護老人保健施設　はまなすの丘",
    "kana": "カイゴロウジンホケンシセツ　ハマナスノオカ",
    "address": "宮城県気仙沼市本吉町外尾25番地",
    "lat": 38.7643277,
    "lng": 141.499599,
    "tel": "0226-42-2915",
    "url": "http://m-koseikai.com/",
    "pref": "宮城県",
    "city": "気仙沼市",
    "category": "rouken",
    "serviceType": "介護老人保健施設",
    "capacity": 100,
    "openDays": [],
    "openDaysNote": ""
  },
  {
    "id": "450580014",
    "name": "老人保健施設リバーサイド春圃",
    "kana": "ロウジンホケンシセツリバーサイドシュンポ",
    "address": "宮城県気仙沼市舘山一丁目1番43号",
    "lat": 38.9034749137944,
    "lng": 141.560387594127,
    "tel": "0226-24-1732",
    "url": "http://riverside.kusanomikai.or.jp/",
    "pref": "宮城県",
    "city": "気仙沼市",
    "category": "rouken",
    "serviceType": "介護老人保健施設",
    "capacity": 100,
    "openDays": [],
    "openDaysNote": ""
  },
  {
    "id": "451380067",
    "name": "介護老人保健施設　PFC藤の里",
    "kana": "カイゴロウジンホケンシセツ　ピーエフシーフジノサト",
    "address": "宮城県栗原市瀬峰新田沢12-1",
    "lat": 38.6666941,
    "lng": 141.072632,
    "tel": "0228-38-3233",
    "url": "https://pfc-fuji.jp",
    "pref": "宮城県",
    "city": "栗原市",
    "category": "rouken",
    "serviceType": "介護老人保健施設",
    "capacity": 0,
    "openDays": [],
    "openDaysNote": ""
  },
  {
    "id": "451380026",
    "name": "介護老人保健施設　グレイスガーデン",
    "kana": "カイゴロウジンホケンシセツ　グレイスガーデン",
    "address": "宮城県栗原市若柳字福岡谷地畑浦35",
    "lat": 38.7836547,
    "lng": 141.1170264,
    "tel": "0228-32-7730",
    "url": "http://www.kojikai.jp",
    "pref": "宮城県",
    "city": "栗原市",
    "category": "rouken",
    "serviceType": "介護老人保健施設",
    "capacity": 0,
    "openDays": [],
    "openDaysNote": ""
  },
  {
    "id": "451380034",
    "name": "介護老人保健施設　シエスタ",
    "kana": "カイゴロウジンホケンシセツ　シエスタ",
    "address": "宮城県栗原市金成末野台下31番地１",
    "lat": 38.8475054,
    "lng": 141.1000175,
    "tel": "0228-43-1222",
    "url": "http://www.siesta.or.jp",
    "pref": "宮城県",
    "city": "栗原市",
    "category": "rouken",
    "serviceType": "介護老人保健施設",
    "capacity": 0,
    "openDays": [],
    "openDaysNote": ""
  },
  {
    "id": "451380018",
    "name": "介護老人保健施設　高森ロマンホーム",
    "kana": "カイゴロウジンホケンシセツ　タカモリロマンホーム",
    "address": "宮城県栗原市築館字下高森124-1",
    "lat": 38.7159817,
    "lng": 140.9843223,
    "tel": "0228-22-3922",
    "url": "http://www.hatayamaclinic.com",
    "pref": "宮城県",
    "city": "栗原市",
    "category": "rouken",
    "serviceType": "介護老人保健施設",
    "capacity": 100,
    "openDays": [],
    "openDaysNote": ""
  },
  {
    "id": "451380059",
    "name": "介護老人保健施設せみねの丘",
    "kana": "カイゴロウジンホケンシセツセミネノオカ",
    "address": "宮城県栗原市瀬峰根岸55-2",
    "lat": 38.6523762265412,
    "lng": 141.071274059941,
    "tel": "0228-24-7725",
    "url": "https://www.sg-semine.com/",
    "pref": "宮城県",
    "city": "栗原市",
    "category": "rouken",
    "serviceType": "介護老人保健施設",
    "capacity": 0,
    "openDays": [],
    "openDaysNote": ""
  },
  {
    "id": "452480015",
    "name": "医療法人育志会　介護老人保健施設アルカディアウエル",
    "kana": "イリョウホウジンイクシカイカイゴロウジンホケンシセツアルカディアウエル",
    "address": "宮城県亘理郡山元町山寺字堤山8番地5",
    "lat": 37.9634178,
    "lng": 140.8712161,
    "tel": "0223-37-5885",
    "url": "http://ikusikai.jp",
    "pref": "宮城県",
    "city": "山元町",
    "category": "rouken",
    "serviceType": "介護老人保健施設",
    "capacity": 0,
    "openDays": [],
    "openDaysNote": ""
  },
  {
    "id": "452280027",
    "name": "介護老人保健施設　リハビリパークさくら",
    "kana": "カイゴロウジンホケンシセツ　リハビリパークサクラ",
    "address": "宮城県柴田郡柴田町船岡新栄6丁目6番地５",
    "lat": 38.0481201,
    "lng": 140.781464,
    "tel": "0224-58-3300",
    "url": "http://www.rehabili-park.com",
    "pref": "宮城県",
    "city": "柴田町",
    "category": "rouken",
    "serviceType": "介護老人保健施設",
    "capacity": 100,
    "openDays": [],
    "openDaysNote": ""
  },
  {
    "id": "453580011",
    "name": "女川町地域医療センター",
    "kana": "オナガワチョウチイキイリョウセンター",
    "address": "宮城県牡鹿郡女川町鷲神浜字堀切山107-1",
    "lat": 38.4434142,
    "lng": 141.4452325,
    "tel": "0225-53-5511",
    "url": "http://onagawahp.jadecom.or.jp",
    "pref": "宮城県",
    "city": "女川町",
    "category": "rouken",
    "serviceType": "介護老人保健施設",
    "capacity": 0,
    "openDays": [],
    "openDaysNote": ""
  },
  {
    "id": "452880016",
    "name": "加美老人保健施設",
    "kana": "カミロウジンホケンシセツ",
    "address": "宮城県加美郡色麻町四竃字杉成９番地",
    "lat": 38.5512851195446,
    "lng": 140.848583407271,
    "tel": "0229-66-2780",
    "url": "http://www.kamihp.jp/",
    "pref": "宮城県",
    "city": "色麻町",
    "category": "rouken",
    "serviceType": "介護老人保健施設",
    "capacity": 0,
    "openDays": [],
    "openDaysNote": ""
  },
  {
    "id": "450280078",
    "name": "医療機関併設型小規模介護老人保健施設　網小",
    "kana": "イリョウキカンヘイセツガタショウキボカイゴロウジンホケンシセツ　アミショウ",
    "address": "宮城県石巻市長渡浜杉13-3",
    "lat": 38.2663788,
    "lng": 141.4781654,
    "tel": "0225-49-2033",
    "url": "http://amishou.weebly.com",
    "pref": "宮城県",
    "city": "石巻市",
    "category": "rouken",
    "serviceType": "介護老人保健施設",
    "capacity": 0,
    "openDays": [],
    "openDaysNote": ""
  },
  {
    "id": "450280060",
    "name": "医療法人海邦会介護老人保健施設長山",
    "kana": "イリョウホウジンカイホウカイカイゴロウジンホケンシセツナガヤマ",
    "address": "宮城県石巻市広渕字長山200番地",
    "lat": 38.4740141,
    "lng": 141.1977267,
    "tel": "0225-73-4474",
    "url": "http://www.kaihokai.or.jp/",
    "pref": "宮城県",
    "city": "石巻市",
    "category": "rouken",
    "serviceType": "介護老人保健施設",
    "capacity": 0,
    "openDays": [],
    "openDaysNote": ""
  },
  {
    "id": "450280052",
    "name": "介護老人保健施設　ガーデンハウスこだま",
    "kana": "カイゴロウジンホケンシセツ　ガーデンハウスコダマ",
    "address": "宮城県石巻市泉町４丁目１１番４７号",
    "lat": 38.4279637,
    "lng": 141.2935511,
    "tel": "0225-92-5307",
    "url": "https://www.kodama-hp.com",
    "pref": "宮城県",
    "city": "石巻市",
    "category": "rouken",
    "serviceType": "介護老人保健施設",
    "capacity": 0,
    "openDays": [],
    "openDaysNote": ""
  },
  {
    "id": "450280086",
    "name": "介護老人保健施設　しおん",
    "kana": "カイゴロウジンホケンシセツ　シオン",
    "address": "宮城県石巻市吉野町１－７－１",
    "lat": 38.4261203,
    "lng": 141.318135,
    "tel": "0225-21-5155",
    "url": "https://shion.or.jp/",
    "pref": "宮城県",
    "city": "石巻市",
    "category": "rouken",
    "serviceType": "介護老人保健施設",
    "capacity": 100,
    "openDays": [],
    "openDaysNote": ""
  },
  {
    "id": "450280011",
    "name": "介護老人保健施設　恵仁ホーム",
    "kana": "カイゴロウジンホケンシセツ　ケイジンホーム",
    "address": "宮城県石巻市山下町二丁目１番５号",
    "lat": 38.4320023,
    "lng": 141.2926455,
    "tel": "0225-96-0525",
    "url": "http://www.jinmei.or.jp/keijin/",
    "pref": "宮城県",
    "city": "石巻市",
    "category": "rouken",
    "serviceType": "介護老人保健施設",
    "capacity": 150,
    "openDays": [],
    "openDaysNote": ""
  },
  {
    "id": "450280029",
    "name": "介護老人保健施設リハビリパーク花もよう",
    "kana": "カイゴロウジンホケンシセツリハビリパークハナモヨウ",
    "address": "宮城県石巻市大橋３丁目９番１号",
    "lat": 38.4428129,
    "lng": 141.3117909,
    "tel": "0225-95-3300",
    "url": "http://www.rehabili-park.com",
    "pref": "宮城県",
    "city": "石巻市",
    "category": "rouken",
    "serviceType": "介護老人保健施設",
    "capacity": 150,
    "openDays": [],
    "openDaysNote": ""
  },
  {
    "id": "450280037",
    "name": "介護老人保健施設第二恵仁ホーム",
    "kana": "カイゴロウジンホケンシセツダイニケイジンホーム",
    "address": "宮城県石巻市門脇字一番谷地５７番地の１８",
    "lat": 38.4336152,
    "lng": 141.2632418,
    "tel": "0225-23-5861",
    "url": "http://www.jinmei.or.jp/2nd-keijin/",
    "pref": "宮城県",
    "city": "石巻市",
    "category": "rouken",
    "serviceType": "介護老人保健施設",
    "capacity": 0,
    "openDays": [],
    "openDaysNote": ""
  },
  {
    "id": "455280057",
    "name": "サテライト老健けやき",
    "kana": "サテライトロウケンケヤキ",
    "address": "宮城県仙台市宮城野区東仙台四丁目1-20介護複合施設careN 介護複合施設careN",
    "lat": 38.2733397,
    "lng": 140.9082098,
    "tel": "022-762-9832",
    "url": "https://www.care-n.jp/",
    "pref": "宮城県",
    "city": "仙台市宮城野区",
    "category": "rouken",
    "serviceType": "介護老人保健施設",
    "capacity": null,
    "openDays": [],
    "openDaysNote": ""
  },
  {
    "id": "455280024",
    "name": "介護老人保健施設　けやき",
    "kana": "カイゴロウジンホケンシセツ　ケヤキ",
    "address": "宮城県仙台市宮城野区大梶15-27",
    "lat": 38.2723684,
    "lng": 140.9068405,
    "tel": "022-257-2020",
    "url": "https://www.kouyoukai-keyaki.jp",
    "pref": "宮城県",
    "city": "仙台市宮城野区",
    "category": "rouken",
    "serviceType": "介護老人保健施設",
    "capacity": 99,
    "openDays": [],
    "openDaysNote": ""
  },
  {
    "id": "455280016",
    "name": "介護老人保健施設　コジーケアホーム",
    "kana": "カイゴロウジンホケンシセツ　コジーケアホーム",
    "address": "宮城県仙台市宮城野区岩切字稲荷１４",
    "lat": 38.3007046126651,
    "lng": 140.938940663229,
    "tel": "022-255-2525",
    "url": "https://cozycarehome.com",
    "pref": "宮城県",
    "city": "仙台市宮城野区",
    "category": "rouken",
    "serviceType": "介護老人保健施設",
    "capacity": 100,
    "openDays": [],
    "openDaysNote": ""
  },
  {
    "id": "455280040",
    "name": "介護老人保健施設エバーグリーン・ツルガヤ",
    "kana": "イリョウホウジンマツダカイ　カイゴロウジンホケンシセツエバーグリーン・ツルガヤ",
    "address": "宮城県仙台市宮城野区鶴ヶ谷字舘下35番地の1",
    "lat": 38.2970325,
    "lng": 140.9201597,
    "tel": "050-3387-4124",
    "url": "http://www.matsuda-hp.com/",
    "pref": "宮城県",
    "city": "仙台市宮城野区",
    "category": "rouken",
    "serviceType": "介護老人保健施設",
    "capacity": 0,
    "openDays": [],
    "openDaysNote": ""
  },
  {
    "id": "455280032",
    "name": "介護老人保健施設リハビリパーク高砂",
    "kana": "カイゴロウジンホケンシセツリハビリパークタカサゴ",
    "address": "宮城県仙台市宮城野区福室3丁目14番",
    "lat": 38.2739927,
    "lng": 140.9677735,
    "tel": "022-258-6001",
    "url": "http://www.rehabili-park.com",
    "pref": "宮城県",
    "city": "仙台市宮城野区",
    "category": "rouken",
    "serviceType": "介護老人保健施設",
    "capacity": 100,
    "openDays": [],
    "openDaysNote": ""
  },
  {
    "id": "455380022",
    "name": "介護老人保健施設　リハビリパーク仙台東",
    "kana": "カイゴロウジンホケンシセツ　リハビリパークセンダイヒガシ",
    "address": "宮城県仙台市若林区長喜城字宮浦26番地",
    "lat": 38.2391396,
    "lng": 140.9359705,
    "tel": "022-287-5500",
    "url": "http://rehabili-park.com",
    "pref": "宮城県",
    "city": "仙台市若林区",
    "category": "rouken",
    "serviceType": "介護老人保健施設",
    "capacity": 0,
    "openDays": [],
    "openDaysNote": ""
  },
  {
    "id": "455380048",
    "name": "介護老人保健施設　リハビリパーク仙台東",
    "kana": "カイゴロウジンホケンシセツ　リハビリパークセンダイヒガシ",
    "address": "宮城県仙台市若林区長喜城字宮浦26番地",
    "lat": 38.2391396,
    "lng": 140.9359705,
    "tel": "022-287-5500",
    "url": "http://rehabili-park.com",
    "pref": "宮城県",
    "city": "仙台市若林区",
    "category": "rouken",
    "serviceType": "介護老人保健施設",
    "capacity": 20,
    "openDays": [],
    "openDaysNote": ""
  },
  {
    "id": "455380055",
    "name": "介護老人保健施設　葵の園・仙台東",
    "kana": "カイゴロウジンホケンシセツアオイノソノセンダイヒガシ",
    "address": "宮城県仙台市若林区荒井東1丁目6番地の11",
    "lat": 38.2402388002159,
    "lng": 140.949508501852,
    "tel": "022-288-6366",
    "url": "http://www.aoikai.jp/",
    "pref": "宮城県",
    "city": "仙台市若林区",
    "category": "rouken",
    "serviceType": "介護老人保健施設",
    "capacity": 100,
    "openDays": [],
    "openDaysNote": ""
  },
  {
    "id": "455380030",
    "name": "介護老人保健施設　春風のころ",
    "kana": "カイゴロウジンホケンシセツ　ハルカゼノコロ",
    "address": "宮城県仙台市若林区日辺字沖田１５番",
    "lat": 38.216433,
    "lng": 140.9142566,
    "tel": "022-781-3830",
    "url": "",
    "pref": "宮城県",
    "city": "仙台市若林区",
    "category": "rouken",
    "serviceType": "介護老人保健施設",
    "capacity": 100,
    "openDays": [],
    "openDaysNote": ""
  },
  {
    "id": "455380014",
    "name": "老人保健施設はくれい",
    "kana": "ロウジンホケンシセツハクレイ",
    "address": "宮城県仙台市若林区今泉字鹿子穴62番地",
    "lat": 38.2063069,
    "lng": 140.9286949,
    "tel": "022-289-6363",
    "url": "http://rk-hakurei.jp/",
    "pref": "宮城県",
    "city": "仙台市若林区",
    "category": "rouken",
    "serviceType": "介護老人保健施設",
    "capacity": 0,
    "openDays": [],
    "openDaysNote": ""
  },
  {
    "id": "455180034",
    "name": "一般財団法人周行会介護老人保健施設トラスト",
    "kana": "イッパンザイダンホウジンシュウコウカイカイゴロウジンホケンシセツトラスト",
    "address": "宮城県仙台市青葉区上杉２－３－１７",
    "lat": 38.2727062,
    "lng": 140.8691945,
    "tel": "022-221-5567",
    "url": "http://www.shukokai.or.jp",
    "pref": "宮城県",
    "city": "仙台市青葉区",
    "category": "rouken",
    "serviceType": "介護老人保健施設",
    "capacity": 84,
    "openDays": [],
    "openDaysNote": ""
  },
  {
    "id": "455180042",
    "name": "介護老人保健施設　せんだんの丘",
    "kana": "カイゴロウジンホケンシセツ　センダンノオカ",
    "address": "宮城県仙台市青葉区国見ヶ丘6-126-51",
    "lat": 38.2840815,
    "lng": 140.8344442,
    "tel": "022-727-7722",
    "url": "https://www.sendan-oka.com/",
    "pref": "宮城県",
    "city": "仙台市青葉区",
    "category": "rouken",
    "serviceType": "介護老人保健施設",
    "capacity": 0,
    "openDays": [],
    "openDaysNote": ""
  },
  {
    "id": "455180091",
    "name": "介護老人保健施設　メープル小田原",
    "kana": "カイゴロウジンホケンシセツ　メープルオダワラ",
    "address": "宮城県仙台市青葉区小田原8丁目6-22",
    "lat": 38.2708502184169,
    "lng": 140.892907245369,
    "tel": "022-267-5121",
    "url": "https://roken-maple.jp/",
    "pref": "宮城県",
    "city": "仙台市青葉区",
    "category": "rouken",
    "serviceType": "介護老人保健施設",
    "capacity": 100,
    "openDays": [],
    "openDaysNote": ""
  },
  {
    "id": "455180067",
    "name": "介護老人保健施設　仙台青葉ロイヤルケアセンター",
    "kana": "カイゴロウジンホケンシセツ　センダイアオバロイヤルケアセンター",
    "address": "宮城県仙台市青葉区吉成台二丁目3番20号",
    "lat": 38.2963993,
    "lng": 140.8267413,
    "tel": "022-303-3911",
    "url": "http://www.ims.gr.jp/sendaiaoba-royal/",
    "pref": "宮城県",
    "city": "仙台市青葉区",
    "category": "rouken",
    "serviceType": "介護老人保健施設",
    "capacity": 100,
    "openDays": [],
    "openDaysNote": ""
  },
  {
    "id": "455180133",
    "name": "介護老人保健施設　由季の里",
    "kana": "カイゴロウジンホケンシセツ　ユキノサト",
    "address": "宮城県仙台市青葉区折立４丁目１番１５号",
    "lat": 38.2614076,
    "lng": 140.8094339,
    "tel": "022‐226‐4633",
    "url": "",
    "pref": "宮城県",
    "city": "仙台市青葉区",
    "category": "rouken",
    "serviceType": "介護老人保健施設",
    "capacity": null,
    "openDays": [],
    "openDaysNote": ""
  },
  {
    "id": "455180117",
    "name": "介護老人保健施設Challengeすこやか",
    "kana": "カイゴロウジンホケンシセツチャレンジスコヤカ",
    "address": "宮城県仙台市青葉区郷六字久保38番地42",
    "lat": 38.2617392,
    "lng": 140.8155386,
    "tel": "022-724-7430",
    "url": "https://challenge-seiryo.com/",
    "pref": "宮城県",
    "city": "仙台市青葉区",
    "category": "rouken",
    "serviceType": "介護老人保健施設",
    "capacity": 100,
    "openDays": [],
    "openDaysNote": ""
  },
  {
    "id": "455180059",
    "name": "介護老人保健施設ハート五橋",
    "kana": "カイゴロウジンホケンシセツハートイツツバシ",
    "address": "宮城県仙台市青葉区五橋１丁目１番5号",
    "lat": 38.2555683262577,
    "lng": 140.880492612828,
    "tel": "022-721-1020",
    "url": "https://aobakai-mc.com",
    "pref": "宮城県",
    "city": "仙台市青葉区",
    "category": "rouken",
    "serviceType": "介護老人保健施設",
    "capacity": 0,
    "openDays": [],
    "openDaysNote": ""
  },
  {
    "id": "455180026",
    "name": "国見ナーシングホーム翔裕園",
    "kana": "クニミ　ナーシングホーム　ショウユウエン",
    "address": "宮城県仙台市青葉区国見6丁目84番1号",
    "lat": 38.2828565869701,
    "lng": 140.828371458075,
    "tel": "022-718-5261",
    "url": "https://www.genkimuragroup.jp/genkimura/kunimi-nh/",
    "pref": "宮城県",
    "city": "仙台市青葉区",
    "category": "rouken",
    "serviceType": "介護老人保健施設",
    "capacity": 100,
    "openDays": [],
    "openDaysNote": ""
  },
  {
    "id": "455180018",
    "name": "仙台ロイヤルケアセンター",
    "kana": "センダイロイヤルケアセンター",
    "address": "宮城県仙台市青葉区みやぎ台一丁目31-1",
    "lat": 38.3073494,
    "lng": 140.7772844,
    "tel": "022-394-7651",
    "url": "http://www.ims.gr.jp/sendai-rcc/",
    "pref": "宮城県",
    "city": "仙台市青葉区",
    "category": "rouken",
    "serviceType": "介護老人保健施設",
    "capacity": 100,
    "openDays": [],
    "openDaysNote": ""
  },
  {
    "id": "455180109",
    "name": "仙台ロイヤルケアセンター",
    "kana": "センダイロイヤルケアセンター",
    "address": "宮城県仙台市青葉区みやぎ台一丁目31-1",
    "lat": 38.3071619,
    "lng": 140.7776345,
    "tel": "022-394-7651",
    "url": "http://www.ims.gr.jp/sendai-rcc/",
    "pref": "宮城県",
    "city": "仙台市青葉区",
    "category": "rouken",
    "serviceType": "介護老人保健施設",
    "capacity": 50,
    "openDays": [],
    "openDaysNote": ""
  },
  {
    "id": "455580019",
    "name": "医療法人松田会　介護老人保健施設エバーグリーン・イズミ",
    "kana": "イリョウホジンマツダカイ　カイゴロウジンホケンシセツエバーグリーン・イズミ",
    "address": "宮城県仙台市泉区実沢字立田屋敷１７番地の１",
    "lat": 38.3344617,
    "lng": 140.8386602,
    "tel": "022-378-8877",
    "url": "http://matsuda-hp.com/matsuda/egi/",
    "pref": "宮城県",
    "city": "仙台市泉区",
    "category": "rouken",
    "serviceType": "介護老人保健施設",
    "capacity": 0,
    "openDays": [],
    "openDaysNote": ""
  },
  {
    "id": "455580027",
    "name": "医療法人徳洲会　介護老人保健施設　シルバーホーム　いずみ",
    "kana": "イリョウホウジントクシュウカイ　カイゴロウジンホケンシセツ　シルバーホーム　イズミ",
    "address": "宮城県仙台市泉区高玉町9-8",
    "lat": 38.3165128959488,
    "lng": 140.895172592399,
    "tel": "022-771-5101",
    "url": "https://sendai.tokushukai.jp/information/facility/izumi/admission/",
    "pref": "宮城県",
    "city": "仙台市泉区",
    "category": "rouken",
    "serviceType": "介護老人保健施設",
    "capacity": 0,
    "openDays": [],
    "openDaysNote": ""
  },
  {
    "id": "455580035",
    "name": "介護老人保健施設　　　コスモス",
    "kana": "カイゴロウジンホケンシセツ　　コスモス",
    "address": "宮城県仙台市泉区上谷刈字長命８番地",
    "lat": 38.3188336,
    "lng": 140.856379,
    "tel": "022-777-3666",
    "url": "http://www.izumiseikei.com/?page_id=42#cos",
    "pref": "宮城県",
    "city": "仙台市泉区",
    "category": "rouken",
    "serviceType": "介護老人保健施設",
    "capacity": 0,
    "openDays": [],
    "openDaysNote": ""
  },
  {
    "id": "455580092",
    "name": "介護老人保健施設　エクセレンテ",
    "kana": "カイゴロウジンホケンシセツ　エクセレンテ",
    "address": "宮城県仙台市泉区将監6丁目3-33",
    "lat": 38.337712630582,
    "lng": 140.878593024992,
    "tel": "022-341-8266",
    "url": "http://siesta.or.jp/excelente/",
    "pref": "宮城県",
    "city": "仙台市泉区",
    "category": "rouken",
    "serviceType": "介護老人保健施設",
    "capacity": 0,
    "openDays": [],
    "openDaysNote": ""
  },
  {
    "id": "455580068",
    "name": "介護老人保健施設　プレシオーソ",
    "kana": "カイゴロウジンホケンシセツ　プレシオーソ",
    "address": "宮城県仙台市泉区南光台7丁目1番18号",
    "lat": 38.2987885470003,
    "lng": 140.899204759663,
    "tel": "022-353-6971",
    "url": "http://siesta.or.jp",
    "pref": "宮城県",
    "city": "仙台市泉区",
    "category": "rouken",
    "serviceType": "介護老人保健施設",
    "capacity": 0,
    "openDays": [],
    "openDaysNote": ""
  },
  {
    "id": "455580043",
    "name": "介護老人保健施設　ユニットケア泉",
    "kana": "カイゴロウジンホケンシセツ　ユニットケアイズミ",
    "address": "宮城県仙台市泉区大沢3-5-5",
    "lat": 38.3578991,
    "lng": 140.8743475,
    "tel": "022-771-8811",
    "url": "http://www.sendai-kyowakai.com/",
    "pref": "宮城県",
    "city": "仙台市泉区",
    "category": "rouken",
    "serviceType": "介護老人保健施設",
    "capacity": 0,
    "openDays": [],
    "openDaysNote": ""
  },
  {
    "id": "455580084",
    "name": "介護老人保健施設　葵の園・仙台泉",
    "kana": "カイゴロウジンホケンシセツ　アオイノソノ・センダイイズミ",
    "address": "宮城県仙台市泉区泉中央南16番",
    "lat": 38.3208645099248,
    "lng": 140.869435694539,
    "tel": "022-776-5660",
    "url": "https://www.aoikai.jp/sendaiizumi/",
    "pref": "宮城県",
    "city": "仙台市泉区",
    "category": "rouken",
    "serviceType": "介護老人保健施設",
    "capacity": 100,
    "openDays": [],
    "openDaysNote": ""
  },
  {
    "id": "455580050",
    "name": "介護老人保健施設いずみの杜",
    "kana": "カイゴロウジンホケンシセツイズミノモリ",
    "address": "宮城県仙台市泉区松森字西沢２６番地の４",
    "lat": 38.3164109,
    "lng": 140.9142591,
    "tel": "022-771-8873",
    "url": "http://www.izuminomori.jp",
    "pref": "宮城県",
    "city": "仙台市泉区",
    "category": "rouken",
    "serviceType": "介護老人保健施設",
    "capacity": 20,
    "openDays": [],
    "openDaysNote": ""
  },
  {
    "id": "455580076",
    "name": "介護老人保健施設ファンコート泉",
    "kana": "カイゴロウジンホケンシセツファンコートイズミ",
    "address": "宮城県仙台市泉区西田中字萱場中37-1",
    "lat": 38.32351,
    "lng": 140.789431,
    "tel": "022-347-4850",
    "url": "http://www.heiseikai-group.com",
    "pref": "宮城県",
    "city": "仙台市泉区",
    "category": "rouken",
    "serviceType": "介護老人保健施設",
    "capacity": 100,
    "openDays": [],
    "openDaysNote": ""
  },
  {
    "id": "455480061",
    "name": "医療法人松田会　介護老人保健施設　エバーグリーン・ヤギヤマ",
    "kana": "イリョウホウジンマツダカイカイゴロウジンホケンシセツエバーグリーン・ヤギヤマ",
    "address": "仙台市太白区八木山香澄町1番20",
    "lat": 38.2464173,
    "lng": 140.8652819,
    "tel": "022-393-8543",
    "url": "http://www.matsuda-hp.com",
    "pref": "宮城県",
    "city": "仙台市太白区",
    "category": "rouken",
    "serviceType": "介護老人保健施設",
    "capacity": 0,
    "openDays": [],
    "openDaysNote": ""
  },
  {
    "id": "455480095",
    "name": "介護老人保健施設　オー・ド・エクラ",
    "kana": "カイゴロウジンホケンシセツ　オー・ド・エクラ",
    "address": "宮城県仙台市太白区茂庭2丁目3番地の3",
    "lat": 38.2214334614342,
    "lng": 140.792142943369,
    "tel": "022-281-8501",
    "url": "http://ryokuaikai.com",
    "pref": "宮城県",
    "city": "仙台市太白区",
    "category": "rouken",
    "serviceType": "介護老人保健施設",
    "capacity": 0,
    "openDays": [],
    "openDaysNote": ""
  },
  {
    "id": "455480079",
    "name": "介護老人保健施設　葵の園・仙台",
    "kana": "カイゴロウジンホケンシセツ　アオイノソノ・センダイ",
    "address": "宮城県仙台市太白区鈎取２丁目２８－１",
    "lat": 38.2297731975894,
    "lng": 140.840604909787,
    "tel": "022-207-7700",
    "url": "http://www.aoikai.jp/sendai/",
    "pref": "宮城県",
    "city": "仙台市太白区",
    "category": "rouken",
    "serviceType": "介護老人保健施設",
    "capacity": 100,
    "openDays": [],
    "openDaysNote": ""
  },
  {
    "id": "455480087",
    "name": "介護老人保健施設　葵の園・柳生",
    "kana": "カイゴロウジンホケンシセツ　アオイノソノ・ヤナギウ",
    "address": "宮城県仙台市太白区柳生字台57-1",
    "lat": 38.2013045403142,
    "lng": 140.874708346033,
    "tel": "022-381-8668",
    "url": "http://www.aoikai.jp/yanagiu/",
    "pref": "宮城県",
    "city": "仙台市太白区",
    "category": "rouken",
    "serviceType": "介護老人保健施設",
    "capacity": 0,
    "openDays": [],
    "openDaysNote": ""
  },
  {
    "id": "455480012",
    "name": "介護老人保健施設　茂庭台豊齢ホーム",
    "kana": "カイゴロウジンホケンシセツ　モニワダイホウレイホーム",
    "address": "宮城県仙台市太白区茂庭台二丁目１６番１０号",
    "lat": 38.2329972,
    "lng": 140.7830453,
    "tel": "022-281-3190",
    "url": "http://www.hourei.com",
    "pref": "宮城県",
    "city": "仙台市太白区",
    "category": "rouken",
    "serviceType": "介護老人保健施設",
    "capacity": 158,
    "openDays": [],
    "openDaysNote": ""
  },
  {
    "id": "455480020",
    "name": "介護老人保健施設ソアーズ",
    "kana": "カイゴロウジンホケンシセツソアーズ",
    "address": "宮城県仙台市太白区西中田2丁目11-17",
    "lat": 38.2028583,
    "lng": 140.8790875,
    "tel": "022-242-1171",
    "url": "http://www.nishinakada-naikasyonika.com/",
    "pref": "宮城県",
    "city": "仙台市太白区",
    "category": "rouken",
    "serviceType": "介護老人保健施設",
    "capacity": 0,
    "openDays": [],
    "openDaysNote": ""
  },
  {
    "id": "455480103",
    "name": "介護老人保健施設ノテやるきになる里",
    "kana": "カイゴロジンホケンシセツノテヤルキニナルサト",
    "address": "宮城県仙台市太白区富沢西3丁目10番地の1",
    "lat": 38.2102432,
    "lng": 140.8544648,
    "tel": "022-302-6401",
    "url": "https://www.note.or.jp",
    "pref": "宮城県",
    "city": "仙台市太白区",
    "category": "rouken",
    "serviceType": "介護老人保健施設",
    "capacity": 100,
    "openDays": [],
    "openDaysNote": ""
  },
  {
    "id": "455480038",
    "name": "独立行政法人地域医療機能推進機構仙台南病院附属介護老人保健施設",
    "kana": "ドクリツギョウセイホウジンチイキイリョウキノウスイシンキコウセンダイミナミビョウインフゾクカイゴロウジンホケンシセツ",
    "address": "宮城県仙台市太白区中田町字前沖143番地",
    "lat": 38.1904435,
    "lng": 140.8988866,
    "tel": "022-306-1731",
    "url": "https://sendaiminami.jcho.go.jp/rouken/",
    "pref": "宮城県",
    "city": "仙台市太白区",
    "category": "rouken",
    "serviceType": "介護老人保健施設",
    "capacity": 100,
    "openDays": [],
    "openDaysNote": ""
  },
  {
    "id": "455480046",
    "name": "老人保健施設　杜の倶楽部",
    "kana": "ロウジンホケンシセツ　モリノクラブ",
    "address": "宮城県仙台市太白区茂庭字人来田東１９－１３",
    "lat": 38.2145557,
    "lng": 140.8075244,
    "tel": "022-307-3300",
    "url": "http://www.midorijuji.or.jp",
    "pref": "宮城県",
    "city": "仙台市太白区",
    "category": "rouken",
    "serviceType": "介護老人保健施設",
    "capacity": 100,
    "openDays": [],
    "openDaysNote": ""
  },
  {
    "id": "452280019",
    "name": "アルパイン川崎",
    "kana": "アルパインカワサキ",
    "address": "宮城県柴田郡川崎町大字前川字北原59番地の6",
    "lat": 38.1825884,
    "lng": 140.6294587,
    "tel": "0224-84-6121",
    "url": "http://matsuda-hp.com/matsuda/alpine/",
    "pref": "宮城県",
    "city": "川崎町",
    "category": "rouken",
    "serviceType": "介護老人保健施設",
    "capacity": 86,
    "openDays": [],
    "openDaysNote": ""
  },
  {
    "id": "452180011",
    "name": "介護老人保健施設　リラの郷",
    "kana": "カイゴロウジンホケンシセツ　リラノサト",
    "address": "宮城県刈田郡蔵王町遠刈田温泉字八山4番１８",
    "lat": 38.1086668,
    "lng": 140.6022669,
    "tel": "0224-34-4377",
    "url": "http://www.riranosato.com",
    "pref": "宮城県",
    "city": "蔵王町",
    "category": "rouken",
    "serviceType": "介護老人保健施設",
    "capacity": 100,
    "openDays": [],
    "openDaysNote": ""
  },
  {
    "id": "452280035",
    "name": "介護老人保健施設あいやま",
    "kana": "カイゴロウジンホケンシセツアイヤマ",
    "address": "宮城県柴田郡村田町大字村田字相山100番地5",
    "lat": 38.1288611,
    "lng": 140.7231419,
    "tel": "0224-82-2181",
    "url": "http://www.miyafuku.jp",
    "pref": "宮城県",
    "city": "村田町",
    "category": "rouken",
    "serviceType": "介護老人保健施設",
    "capacity": 100,
    "openDays": [],
    "openDaysNote": ""
  },
  {
    "id": "450980016",
    "name": "介護老人保健施設　リハビリパークみやび",
    "kana": "カイゴロウジンホケンシセツ　リハビリパークミヤビ",
    "address": "宮城県多賀城市高橋4丁目17-16",
    "lat": 38.2881501,
    "lng": 140.9813913,
    "tel": "022-309-2333",
    "url": "http://www.rehabili-park.com/sisetu/miyabi/index.html",
    "pref": "宮城県",
    "city": "多賀城市",
    "category": "rouken",
    "serviceType": "介護老人保健施設",
    "capacity": 100,
    "openDays": [],
    "openDaysNote": ""
  },
  {
    "id": "450980032",
    "name": "恵愛ホーム",
    "kana": "ケイアイホーム",
    "address": "宮城県多賀城市大代５丁目１６番４６号",
    "lat": 38.2936871,
    "lng": 141.0391539,
    "tel": "022-366-7117",
    "url": "https://www.keiaihome.com/",
    "pref": "宮城県",
    "city": "多賀城市",
    "category": "rouken",
    "serviceType": "介護老人保健施設",
    "capacity": null,
    "openDays": [],
    "openDaysNote": ""
  },
  {
    "id": "452280043",
    "name": "介護老人保健施設さくらの杜",
    "kana": "カイゴロウジンホケシセツサクラノモリ",
    "address": "宮城県柴田郡大河原町字広表３３番地１",
    "lat": 38.0484980976905,
    "lng": 140.716591867459,
    "tel": "0224-51-4655",
    "url": "http://www.izuminomori.jp",
    "pref": "宮城県",
    "city": "大河原町",
    "category": "rouken",
    "serviceType": "介護老人保健施設",
    "capacity": 0,
    "openDays": [],
    "openDaysNote": ""
  },
  {
    "id": "452780042",
    "name": "羽生の丘・オーベルジュ",
    "kana": "ハニュウノオカ・オーベルジュ",
    "address": "宮城県黒川郡大郷町羽生字蒲ヶ沢50番地の1",
    "lat": 38.424535,
    "lng": 141.0153022,
    "tel": "022-359-5582",
    "url": "http://syunkoukai.jp/auberge.goodleaf.jp",
    "pref": "宮城県",
    "city": "大郷町",
    "category": "rouken",
    "serviceType": "介護老人保健施設",
    "capacity": 0,
    "openDays": [],
    "openDaysNote": ""
  },
  {
    "id": "451580021",
    "name": "介護老人保健施設　さくら",
    "kana": "カイゴロウジンホケンシセツ　サクラ",
    "address": "宮城県大崎市古川小稲葉町5番25号",
    "lat": 38.5687473,
    "lng": 140.9519251,
    "tel": "0229-23-8183",
    "url": "",
    "pref": "宮城県",
    "city": "大崎市",
    "category": "rouken",
    "serviceType": "介護老人保健施設",
    "capacity": 0,
    "openDays": [],
    "openDaysNote": ""
  },
  {
    "id": "451580062",
    "name": "介護老人保健施設　ジュイールクラブ",
    "kana": "カイゴロウジンホケンシセツ　ジュイールクラブ",
    "address": "宮城県大崎市古川北町2丁目5番15号",
    "lat": 38.5795937,
    "lng": 140.9656206,
    "tel": "0229-22-1001",
    "url": "http://www.nintokukai.or.jp/",
    "pref": "宮城県",
    "city": "大崎市",
    "category": "rouken",
    "serviceType": "介護老人保健施設",
    "capacity": 96,
    "openDays": [],
    "openDaysNote": ""
  },
  {
    "id": "451580039",
    "name": "介護老人保健施設　ヒューマンシティ松山",
    "kana": "カイゴロウジンホケンシセツ　ヒューマンシティマツヤマ",
    "address": "宮城県大崎市松山千石字広田３５番地",
    "lat": 38.5146609,
    "lng": 141.0612287,
    "tel": "0229-55-2603",
    "url": "",
    "pref": "宮城県",
    "city": "大崎市",
    "category": "rouken",
    "serviceType": "介護老人保健施設",
    "capacity": 0,
    "openDays": [],
    "openDaysNote": ""
  },
  {
    "id": "451580047",
    "name": "介護老人保健施設　庭の里",
    "kana": "カイゴロウジンホケンシセツ　ニワノサト",
    "address": "宮城県大崎市古川江合本町２丁目２－５",
    "lat": 38.5889538,
    "lng": 140.9716529,
    "tel": "0229-21-8460",
    "url": "http://www.tihiro.jp/",
    "pref": "宮城県",
    "city": "大崎市",
    "category": "rouken",
    "serviceType": "介護老人保健施設",
    "capacity": 100,
    "openDays": [],
    "openDaysNote": ""
  },
  {
    "id": "451580013",
    "name": "介護老人保健施設アミスタ",
    "kana": "カイゴロウジンホケンシセツアミスタ",
    "address": "宮城県大崎市古川浦町1-37",
    "lat": 38.5779131,
    "lng": 140.9574576,
    "tel": "0229-22-0015",
    "url": "http://katakura-hospital.com",
    "pref": "宮城県",
    "city": "大崎市",
    "category": "rouken",
    "serviceType": "介護老人保健施設",
    "capacity": 82,
    "openDays": [],
    "openDaysNote": ""
  },
  {
    "id": "451580054",
    "name": "介護老人保健施設リハビリパークあやめ",
    "kana": "カイゴロウジンホケンシセツリハビリパークアヤメ",
    "address": "宮城県大崎市古川旭3丁目６－１",
    "lat": 38.5685703,
    "lng": 140.9748619,
    "tel": "0229-22-7600",
    "url": "http://www.rehabili-park.com",
    "pref": "宮城県",
    "city": "大崎市",
    "category": "rouken",
    "serviceType": "介護老人保健施設",
    "capacity": 0,
    "openDays": [],
    "openDaysNote": ""
  },
  {
    "id": "452780018",
    "name": "介護老人保健施設希望の杜",
    "kana": "カイゴロウジンホケンシセツキボウノモリ",
    "address": "宮城県黒川郡大和町吉田字新要害１０番地",
    "lat": 38.4339985,
    "lng": 140.8804795,
    "tel": "022-344-3232",
    "url": "http://www.izuminomori.jp",
    "pref": "宮城県",
    "city": "大和町",
    "category": "rouken",
    "serviceType": "介護老人保健施設",
    "capacity": 0,
    "openDays": [],
    "openDaysNote": ""
  },
  {
    "id": "451280044",
    "name": "介護老人保健施設なかだ",
    "kana": "カイゴロウジンホケンシセツナカダ",
    "address": "宮城県登米市中田町浅水字上川面65－1",
    "lat": 38.7155727,
    "lng": 141.2619939,
    "tel": "0220-35-2655",
    "url": "http://www.sg-nakada.jp/",
    "pref": "宮城県",
    "city": "登米市",
    "category": "rouken",
    "serviceType": "介護老人保健施設",
    "capacity": 150,
    "openDays": [],
    "openDaysNote": ""
  },
  {
    "id": "451280028",
    "name": "登米市立豊里老人保健施設",
    "kana": "トメシリツトヨサトロウジンホケンシセツ",
    "address": "宮城県登米市豊里町土手下104番地1",
    "lat": 38.5871671,
    "lng": 141.2532729,
    "tel": "0225-76-5635",
    "url": "http://www.city.tome.miyagi.jp/iryou/toyosatohl/",
    "pref": "宮城県",
    "city": "登米市",
    "category": "rouken",
    "serviceType": "介護老人保健施設",
    "capacity": 75,
    "openDays": [],
    "openDaysNote": ""
  },
  {
    "id": "451280036",
    "name": "南方ナーシングホーム翔裕園",
    "kana": "ミナミカタナーシングホームショウユウエン",
    "address": "宮城県登米市南方町山成前791-1",
    "lat": 38.6573663,
    "lng": 141.1502146,
    "tel": "0220-58-5455",
    "url": "http://www.genkimuragroup.jp/genkimura/minamikata-nh/",
    "pref": "宮城県",
    "city": "登米市",
    "category": "rouken",
    "serviceType": "介護老人保健施設",
    "capacity": null,
    "openDays": [],
    "openDaysNote": ""
  },
  {
    "id": "451480016",
    "name": "介護老人保健施設さつき苑",
    "kana": "カイゴロウジンホケンシセツサツキエン",
    "address": "宮城県東松島市大塩字山崎42番地1",
    "lat": 38.4366763,
    "lng": 141.1783084,
    "tel": "0225-83-7760",
    "url": "http://www.itokukai.or.jp/satsuki/",
    "pref": "宮城県",
    "city": "東松島市",
    "category": "rouken",
    "serviceType": "介護老人保健施設",
    "capacity": 0,
    "openDays": [],
    "openDaysNote": ""
  },
  {
    "id": "453680019",
    "name": "医療法人　医徳会　介護老人保健施設　歌津つつじ苑",
    "kana": "イリョウホウジン　イトクカイ　カイゴロウジンホケンシセツ　ウタツツツジエン",
    "address": "宮城県本吉郡南三陸町歌津字砂浜２３－５９",
    "lat": 38.7033202,
    "lng": 141.5100981,
    "tel": "0226-36-9233",
    "url": "http://www.itokukai.or.jp",
    "pref": "宮城県",
    "city": "南三陸町",
    "category": "rouken",
    "serviceType": "介護老人保健施設",
    "capacity": 0,
    "openDays": [],
    "openDaysNote": ""
  },
  {
    "id": "453680027",
    "name": "介護老人保健施設　ハイム・メアーズ",
    "kana": "カイゴロウジンホケンシセツ　ハイム・メアーズ",
    "address": "宮城県本吉郡南三陸町志津川字袖浜255番地",
    "lat": 38.6783165676314,
    "lng": 141.471692246696,
    "tel": "0226-46-2772",
    "url": "http://www.heim-meeres.jp",
    "pref": "宮城県",
    "city": "南三陸町",
    "category": "rouken",
    "serviceType": "介護老人保健施設",
    "capacity": 0,
    "openDays": [],
    "openDaysNote": ""
  },
  {
    "id": "450680020",
    "name": "介護老人保健施設　清風",
    "kana": "カイゴロウジンホケンシセツ　セイフウ",
    "address": "宮城県白石市大手町2‐1",
    "lat": 38.0031333,
    "lng": 140.6189633,
    "tel": "0224-22-2110",
    "url": "http://www.sei-fu.com/",
    "pref": "宮城県",
    "city": "白石市",
    "category": "rouken",
    "serviceType": "介護老人保健施設",
    "capacity": 100,
    "openDays": [],
    "openDaysNote": ""
  },
  {
    "id": "450680012",
    "name": "老人保健施設あさくらホーム",
    "kana": "ロウジンホケンシセツアサクラホーム",
    "address": "宮城県白石市字本町89番地",
    "lat": 38.0023358833322,
    "lng": 140.6232774705,
    "tel": "0224-25-2101",
    "url": "https://asakurahome.jimdo.com/",
    "pref": "宮城県",
    "city": "白石市",
    "category": "rouken",
    "serviceType": "介護老人保健施設",
    "capacity": 54,
    "openDays": [],
    "openDaysNote": ""
  },
  {
    "id": "453180028",
    "name": "介護老人保健施設　なかぞね",
    "kana": "カイゴロウジンホケンシセツ　ナカゾネ",
    "address": "宮城県遠田郡美里町中埣字上戸３４",
    "lat": 38.5807869,
    "lng": 141.033642,
    "tel": "0229-35-1166",
    "url": "https://www.minnanokaigo.com/facility/027-0453180028",
    "pref": "宮城県",
    "city": "美里町",
    "category": "rouken",
    "serviceType": "介護老人保健施設",
    "capacity": 0,
    "openDays": [],
    "openDaysNote": ""
  },
  {
    "id": "453180036",
    "name": "野崎病院附属介護老人保健施設美里",
    "kana": "ノザキビョウインフゾクカイゴロウジンホケンシセツミサト",
    "address": "宮城県遠田郡美里町字藤ヶ崎町151-2",
    "lat": 38.5393984024623,
    "lng": 141.059960599549,
    "tel": "0229-87-5761",
    "url": "",
    "pref": "宮城県",
    "city": "美里町",
    "category": "rouken",
    "serviceType": "介護老人保健施設",
    "capacity": 0,
    "openDays": [],
    "openDaysNote": ""
  },
  {
    "id": "452780034",
    "name": "介護老人保健施設　リーブズ",
    "kana": "カイゴロウジンホケンシセツ　リーブズ",
    "address": "宮城県富谷市成田二丁目1番地の3",
    "lat": 38.3640041,
    "lng": 140.8868847,
    "tel": "022-351-9939",
    "url": "http://www.nakaya-leaves.com/",
    "pref": "宮城県",
    "city": "富谷市",
    "category": "rouken",
    "serviceType": "介護老人保健施設",
    "capacity": 100,
    "openDays": [],
    "openDaysNote": ""
  },
  {
    "id": "451680011",
    "name": "介護老人保健施設　富谷の郷",
    "kana": "カイゴロウジンホケンシセツ　トミヤノサト",
    "address": "宮城県富谷市三ノ関坂ノ下116番3",
    "lat": 38.4068583429427,
    "lng": 140.892148186508,
    "tel": "022-745-5333",
    "url": "https://tmst.jp/",
    "pref": "宮城県",
    "city": "富谷市",
    "category": "rouken",
    "serviceType": "介護老人保健施設",
    "capacity": 0,
    "openDays": [],
    "openDaysNote": ""
  },
  {
    "id": "450780036",
    "name": "介護老人保健施設なとり",
    "kana": "カイゴロウジンホケンシセツナトリ",
    "address": "宮城県名取市高舘熊野堂字岩口下１－２",
    "lat": 38.1975025,
    "lng": 140.8460602,
    "tel": "022-386-3770",
    "url": "http://www.sg-natori.jp/",
    "pref": "宮城県",
    "city": "名取市",
    "category": "rouken",
    "serviceType": "介護老人保健施設",
    "capacity": 126,
    "openDays": [],
    "openDaysNote": ""
  },
  {
    "id": "450780028",
    "name": "老人保健施設　ライフケアセンター名取",
    "kana": "ロウジンホケンシセツ　ライフケアセンターナトリ",
    "address": "宮城県名取市増田字柳田８",
    "lat": 38.1721339,
    "lng": 140.8935852,
    "tel": "022-383-1020",
    "url": "http://www.natorichuo-clinic.jp/original7.html",
    "pref": "宮城県",
    "city": "名取市",
    "category": "rouken",
    "serviceType": "介護老人保健施設",
    "capacity": null,
    "openDays": [],
    "openDaysNote": ""
  },
  {
    "id": "453180010",
    "name": "涌谷町老人保健施設",
    "kana": "ワクヤチョウロウジンホケンシセツ",
    "address": "宮城県遠田郡涌谷町涌谷字中江南278",
    "lat": 38.5401658,
    "lng": 141.148284,
    "tel": "0229-43-5111",
    "url": "http://www.town.wakuya.miyagi.jp/kenko/kenko/hospital/index.html",
    "pref": "宮城県",
    "city": "涌谷町",
    "category": "rouken",
    "serviceType": "介護老人保健施設",
    "capacity": 0,
    "openDays": [],
    "openDaysNote": ""
  },
  {
    "id": "452680036",
    "name": "介護老人保健施設　加瀬ウェルネスタウン",
    "kana": "カイゴロウジンホケンシセツ　カセウェルネスタウン",
    "address": "宮城県宮城郡利府町加瀬字北窪１６番１",
    "lat": 38.3203575,
    "lng": 140.981342,
    "tel": "022-349-1717",
    "url": "https://kase-wellnesstown.com/",
    "pref": "宮城県",
    "city": "利府町",
    "category": "rouken",
    "serviceType": "介護老人保健施設",
    "capacity": 100,
    "openDays": [],
    "openDaysNote": ""
  },
  {
    "id": "452680028",
    "name": "利府仙台ロイヤルケアセンター",
    "kana": "リフセンダイロイヤルケアセンター",
    "address": "宮城県宮城郡利府町新中道二丁目1番地1",
    "lat": 38.3254122,
    "lng": 140.9751143,
    "tel": "022-356-0355",
    "url": "http://www.ims.gr.jp/rifuroyalcare/",
    "pref": "宮城県",
    "city": "利府町",
    "category": "rouken",
    "serviceType": "介護老人保健施設",
    "capacity": 162,
    "openDays": [],
    "openDaysNote": ""
  },
  {
    "id": "452480023",
    "name": "老人保健施設　和多里ホーム",
    "kana": "ロウジンホケンシセツ　ワタリホーム",
    "address": "宮城県亘理郡亘理町字裏城戸155",
    "lat": 38.0300772,
    "lng": 140.8599005,
    "tel": "0223-34-0311",
    "url": "http://www.watarihome.jp",
    "pref": "宮城県",
    "city": "亘理町",
    "category": "rouken",
    "serviceType": "介護老人保健施設",
    "capacity": 0,
    "openDays": [],
    "openDaysNote": ""
  }
]