[
  {
    "id": "1650680000",
    "name": "老人保健施設なごみ苑",
    "kana": "ロウジンホケンシセツナゴミエン",
    "address": "富山県滑川市野町1686番地",
    "lat": 36.763512,
    "lng": 137.3681746,
    "tel": "076-475-8888",
    "url": "http://www.nagomien.or.jp",
    "pref": "富山県",
    "city": "滑川市",
    "category": "rouken",
    "serviceType": "介護老人保健施設",
    "capacity": 150,
    "openDays": [],
    "openDaysNote": ""
  },
  {
    "id": "1650480047",
    "name": "介護療養型老人保健施設ちょうろく",
    "kana": "カイゴリョウヨウガタロウジンホケンシセツチョウロク",
    "address": "富山県魚津市魚津市石垣389番地",
    "lat": 36.826301,
    "lng": 137.405937,
    "tel": "0765-23-6366",
    "url": "http://www.hospy.jp",
    "pref": "富山県",
    "city": "魚津市",
    "category": "rouken",
    "serviceType": "介護老人保健施設",
    "capacity": null,
    "openDays": [],
    "openDaysNote": ""
  },
  {
    "id": "1650480005",
    "name": "魚津老人保健施設",
    "kana": "ウオヅロウジンホケンシセツ",
    "address": "富山県魚津市友道789番地",
    "lat": 36.8145575,
    "lng": 137.4112042,
    "tel": "0765-24-7691",
    "url": "http://www.uozubyouin.jp/",
    "pref": "富山県",
    "city": "魚津市",
    "category": "rouken",
    "serviceType": "介護老人保健施設",
    "capacity": 0,
    "openDays": [],
    "openDaysNote": ""
  },
  {
    "id": "1650480062",
    "name": "新川老人保健施設",
    "kana": "ニイカワロウジンホケンシセツ",
    "address": "富山県魚津市住吉236",
    "lat": 36.8002419,
    "lng": 137.399328,
    "tel": "0765-24-3080",
    "url": "www.fukujukai.com",
    "pref": "富山県",
    "city": "魚津市",
    "category": "rouken",
    "serviceType": "介護老人保健施設",
    "capacity": 0,
    "openDays": [],
    "openDaysNote": ""
  },
  {
    "id": "1650480021",
    "name": "老人保健施設ちょうろく",
    "kana": "ロウジンホケンシセツチョウロク",
    "address": "富山県魚津市石垣389番地",
    "lat": 36.8050837,
    "lng": 137.4426906,
    "tel": "0765-23-6388",
    "url": "http://www.hospy.jp",
    "pref": "富山県",
    "city": "魚津市",
    "category": "rouken",
    "serviceType": "介護老人保健施設",
    "capacity": null,
    "openDays": [],
    "openDaysNote": ""
  },
  {
    "id": "1650280033",
    "name": "アルカディア雨晴",
    "kana": "アルカディアアマハラシ",
    "address": "高岡市太田桜谷23-1",
    "lat": 36.8148748170266,
    "lng": 137.033546651698,
    "tel": "0766-44-8060",
    "url": "http://www.meijukai.com",
    "pref": "富山県",
    "city": "高岡市",
    "category": "rouken",
    "serviceType": "介護老人保健施設",
    "capacity": 100,
    "openDays": [],
    "openDaysNote": ""
  },
  {
    "id": "1650280017",
    "name": "介護老人保健施設おおぞら",
    "kana": "カイゴロウジンホケンシセツオオゾラ",
    "address": "富山県高岡市京田490番地",
    "lat": 36.7284336794442,
    "lng": 137.016894968648,
    "tel": "0766-26-5111",
    "url": "http://www.shirankai.net/",
    "pref": "富山県",
    "city": "高岡市",
    "category": "rouken",
    "serviceType": "介護老人保健施設",
    "capacity": 100,
    "openDays": [],
    "openDaysNote": ""
  },
  {
    "id": "1650280058",
    "name": "介護老人保健施設きぼう",
    "kana": "カイゴロウジンホケンシセツキボウ",
    "address": "富山県高岡市和田1055",
    "lat": 36.7350586,
    "lng": 136.983398,
    "tel": "0766-29-3030",
    "url": "http://www.kibou-takaoka.com/",
    "pref": "富山県",
    "city": "高岡市",
    "category": "rouken",
    "serviceType": "介護老人保健施設",
    "capacity": 0,
    "openDays": [],
    "openDaysNote": ""
  },
  {
    "id": "1650280025",
    "name": "介護老人保健施設やすらぎ",
    "kana": "カイゴロウジンホケンシセツヤスラギ",
    "address": "富山県高岡市美幸町1丁目1番53号",
    "lat": 36.7558292,
    "lng": 136.9980725,
    "tel": "0766-27-3838",
    "url": "http://seirinkai.jp/yasuragi/index.html",
    "pref": "富山県",
    "city": "高岡市",
    "category": "rouken",
    "serviceType": "介護老人保健施設",
    "capacity": 0,
    "openDays": [],
    "openDaysNote": ""
  },
  {
    "id": "1650280009",
    "name": "高岡老人保健施設　長寿苑",
    "kana": "タカオカロウジンホケンシセツ　チョウジュエン",
    "address": "富山県高岡市京田７２",
    "lat": 36.7320767,
    "lng": 137.0165888,
    "tel": "0766-26-5678",
    "url": "http://kuwayamakai.jp",
    "pref": "富山県",
    "city": "高岡市",
    "category": "rouken",
    "serviceType": "介護老人保健施設",
    "capacity": 0,
    "openDays": [],
    "openDaysNote": ""
  },
  {
    "id": "1652180009",
    "name": "老人保健施設さくら苑",
    "kana": "ロウジンホケンシセツサクラエン",
    "address": "高岡市福岡町大野145",
    "lat": 36.7196319,
    "lng": 136.9358558,
    "tel": "0766-64-5885",
    "url": "http://sunvery-group.com/wp/",
    "pref": "富山県",
    "city": "高岡市",
    "category": "rouken",
    "serviceType": "介護老人保健施設",
    "capacity": 0,
    "openDays": [],
    "openDaysNote": ""
  },
  {
    "id": "1650280041",
    "name": "老人保健施設しきのケアセンター",
    "kana": "ロウジンホケンシセツシキノケアセンター",
    "address": "富山県高岡市鷲北新480",
    "lat": 36.766606,
    "lng": 137.0372657,
    "tel": "0766-27-8600",
    "url": "https://sunvery-group.com/?page_id=40",
    "pref": "富山県",
    "city": "高岡市",
    "category": "rouken",
    "serviceType": "介護老人保健施設",
    "capacity": null,
    "openDays": [],
    "openDaysNote": ""
  },
  {
    "id": "1650780024",
    "name": "黒部市介護老人保健施設カリエール",
    "kana": "クロベシカイゴロウジンホケンシセツカリエール",
    "address": "富山県黒部市牧野693",
    "lat": 36.8704511435133,
    "lng": 137.442234070743,
    "tel": "0765-54-2213",
    "url": "http://med-kurobe.jp/guide/facility/cariere/index.html",
    "pref": "富山県",
    "city": "黒部市",
    "category": "rouken",
    "serviceType": "介護老人保健施設",
    "capacity": 0,
    "openDays": [],
    "openDaysNote": ""
  },
  {
    "id": "1650380007",
    "name": "介護老人保健施設　サンセリテ",
    "kana": "カイゴロウジンホケンシセツ　サンセリテ",
    "address": "富山県射水市朴木244番地",
    "lat": 36.7588826,
    "lng": 137.0769989,
    "tel": "0766-82-7300",
    "url": "https://kiseikai-toyama.or.jp/",
    "pref": "富山県",
    "city": "射水市",
    "category": "rouken",
    "serviceType": "介護老人保健施設",
    "capacity": 0,
    "openDays": [],
    "openDaysNote": ""
  },
  {
    "id": "1651180018",
    "name": "山田医院併設介護療養型老人保健施設",
    "kana": "ヤマダイインヘイセツカイゴリョウヨウガタロウジンホケンシセツ",
    "address": "射水市三ヶ835",
    "lat": 36.7250512,
    "lng": 137.0990782,
    "tel": "0766－55－3322",
    "url": "http://www.rakusankai.com/",
    "pref": "富山県",
    "city": "射水市",
    "category": "rouken",
    "serviceType": "介護老人保健施設",
    "capacity": 18,
    "openDays": [],
    "openDaysNote": ""
  },
  {
    "id": "1651980003",
    "name": "老人保健施設みしま野苑一穂",
    "kana": "ロウジンホケンシセツ　ミシマノエンイッスイ",
    "address": "富山県射水市三ヶ508",
    "lat": 36.726165,
    "lng": 137.1003197,
    "tel": "0766-55-5005",
    "url": "http://www.rakusankai.com/",
    "pref": "富山県",
    "city": "射水市",
    "category": "rouken",
    "serviceType": "介護老人保健施設",
    "capacity": 100,
    "openDays": [],
    "openDaysNote": ""
  },
  {
    "id": "1650980004",
    "name": "にしの老人保健施設",
    "kana": "ニシノロウジンホケンシセツ",
    "address": "小矢部市本町3-38",
    "lat": 36.6748251,
    "lng": 136.8665196,
    "tel": "0766-67-4430",
    "url": "www.nishinokai.jp",
    "pref": "富山県",
    "city": "小矢部市",
    "category": "rouken",
    "serviceType": "介護老人保健施設",
    "capacity": 0,
    "openDays": [],
    "openDaysNote": ""
  },
  {
    "id": "1650980012",
    "name": "介護老人保健施設ゆうゆうハウス",
    "kana": "カイゴロウジンホケンシセツユウユウハウス",
    "address": "富山県小矢部市島３２２番地",
    "lat": 36.6661179,
    "lng": 136.8761329,
    "tel": "0766-67-8008",
    "url": "http://www.yuyuhouse.com/",
    "pref": "富山県",
    "city": "小矢部市",
    "category": "rouken",
    "serviceType": "介護老人保健施設",
    "capacity": 0,
    "openDays": [],
    "openDaysNote": ""
  },
  {
    "id": "1651680017",
    "name": "上市老人保健施設　つるぎの庭",
    "kana": "カミイチロウジンホケンシセツツルギノニワ",
    "address": "富山県中新川郡上市町森尻704番地",
    "lat": 36.7180254,
    "lng": 137.3547971,
    "tel": "076-473-0070",
    "url": "",
    "pref": "富山県",
    "city": "上市町",
    "category": "rouken",
    "serviceType": "介護老人保健施設",
    "capacity": 130,
    "openDays": [],
    "openDaysNote": ""
  },
  {
    "id": "1651780015",
    "name": "介護老人保健施設　つるさんかめさん",
    "kana": "カイゴロウジンホケンシセツ　ツルサンカメサン",
    "address": "富山県下新川郡朝日町泊新５番地",
    "lat": 36.9616739,
    "lng": 137.5646847,
    "tel": "0765-82-2121",
    "url": "http://www.arisokai.jp",
    "pref": "富山県",
    "city": "朝日町",
    "category": "rouken",
    "serviceType": "介護老人保健施設",
    "capacity": 0,
    "openDays": [],
    "openDaysNote": ""
  },
  {
    "id": "1652080001",
    "name": "介護老人保健施設ケアポート庄川",
    "kana": "カイゴロウジンホケンシセツケアポートショウガワ",
    "address": "富山県砺波市庄川町金屋字岩黒38-1",
    "lat": 36.5650369511701,
    "lng": 136.984817218104,
    "tel": "0763-82-6868",
    "url": "http://www.shogawa.jp/",
    "pref": "富山県",
    "city": "砺波市",
    "category": "rouken",
    "serviceType": "介護老人保健施設",
    "capacity": 0,
    "openDays": [],
    "openDaysNote": ""
  },
  {
    "id": "1650880006",
    "name": "老人保健施設あかり苑",
    "kana": "ロウジンホケンシセツアカリエン",
    "address": "富山県砺波市寿町2番38号",
    "lat": 36.6435398,
    "lng": 136.9566034,
    "tel": "0763-33-0808",
    "url": "http://www.juzankai.jp/",
    "pref": "富山県",
    "city": "砺波市",
    "category": "rouken",
    "serviceType": "介護老人保健施設",
    "capacity": 0,
    "openDays": [],
    "openDaysNote": ""
  },
  {
    "id": "1651080002",
    "name": "介護療養型老人保健施設　福光あおい",
    "kana": "カイゴリョウヨウガタロウジンホケンシセツ　フクミツアオイ",
    "address": "富山県南砺市法林寺４２４番地",
    "lat": 36.57080084076,
    "lng": 136.857062206082,
    "tel": "０７６３－５３－１５５５",
    "url": "juzankai.sakura.ne.jp",
    "pref": "富山県",
    "city": "南砺市",
    "category": "rouken",
    "serviceType": "介護老人保健施設",
    "capacity": 60,
    "openDays": [],
    "openDaysNote": ""
  },
  {
    "id": "1652080019",
    "name": "介護老人保健施設　城端うらら",
    "kana": "カイゴロウジンホケンシセツ　ジョウハナウララ",
    "address": "富山県南砺市理休270番地",
    "lat": 36.5125942,
    "lng": 136.9084229,
    "tel": "0763-62-8555",
    "url": "http://care-net.biz/16/keijyukai/",
    "pref": "富山県",
    "city": "南砺市",
    "category": "rouken",
    "serviceType": "介護老人保健施設",
    "capacity": 0,
    "openDays": [],
    "openDaysNote": ""
  },
  {
    "id": "1652180017",
    "name": "介護老人保健施設葵の園・なんと",
    "kana": "カイゴロウジンホケンシセツアオイノソノ・ナント",
    "address": "富山県南砺市天池字二番野島1555番3",
    "lat": 36.5425939280825,
    "lng": 136.904424530164,
    "tel": "0763-52-0050",
    "url": "http://www.aoikai.jp/about/group_list/group_syuwa/",
    "pref": "富山県",
    "city": "南砺市",
    "category": "rouken",
    "serviceType": "介護老人保健施設",
    "capacity": null,
    "openDays": [],
    "openDaysNote": ""
  },
  {
    "id": "1651780007",
    "name": "入善老人保健施設　こぶしの庭",
    "kana": "ニュウゼンロウジンホケンシセツコブシノニワ",
    "address": "富山県下新川郡入善町小杉64番地",
    "lat": 36.9180617,
    "lng": 137.5260884,
    "tel": "0765-78-2500",
    "url": "www.yatsuo.or.jp/019_hoken/nyuzen/index.html",
    "pref": "富山県",
    "city": "入善町",
    "category": "rouken",
    "serviceType": "介護老人保健施設",
    "capacity": 150,
    "openDays": [],
    "openDaysNote": ""
  },
  {
    "id": "1651780023",
    "name": "入善老人保健施設　こぶしの庭",
    "kana": "ニュウゼンロウジンホケンシセツ　コブシノニワ",
    "address": "富山県下新川郡入善町小杉64",
    "lat": 36.9177867,
    "lng": 137.5260056,
    "tel": "0765-78-2500",
    "url": "",
    "pref": "富山県",
    "city": "入善町",
    "category": "rouken",
    "serviceType": "介護老人保健施設",
    "capacity": null,
    "openDays": [],
    "openDaysNote": ""
  },
  {
    "id": "1650580028",
    "name": "老人保健施設　アルカディア氷見",
    "kana": "ロウジンホケンシセツ　アルカディアヒミ",
    "address": "富山県氷見市鞍川1878-1",
    "lat": 36.8503149,
    "lng": 136.9588502,
    "tel": "0766-74-7060",
    "url": "http://www.meijukai.com",
    "pref": "富山県",
    "city": "氷見市",
    "category": "rouken",
    "serviceType": "介護老人保健施設",
    "capacity": 80,
    "openDays": [],
    "openDaysNote": ""
  },
  {
    "id": "1650580010",
    "name": "老人保健施設エルダーヴィラ氷見",
    "kana": "ロウジンホケンシセツエルダーウ゛ィラヒミ",
    "address": "富山県氷見市余川南山50番地",
    "lat": 36.8828797,
    "lng": 136.9512222,
    "tel": "0766-72-5000",
    "url": "http://www.drshiraishi.or.jp",
    "pref": "富山県",
    "city": "氷見市",
    "category": "rouken",
    "serviceType": "介護老人保健施設",
    "capacity": 0,
    "openDays": [],
    "openDaysNote": ""
  },
  {
    "id": "1650180183",
    "name": "おおさわの介護老人保健施設かがやき",
    "kana": "オオサワノカイゴロウジンホケンシセツカガヤキ",
    "address": "富山県富山市春日362-1",
    "lat": 36.5629019,
    "lng": 137.2047048,
    "tel": "076-467-5151",
    "url": "https://oisawano.com",
    "pref": "富山県",
    "city": "富山市",
    "category": "rouken",
    "serviceType": "介護老人保健施設",
    "capacity": 0,
    "openDays": [],
    "openDaysNote": ""
  },
  {
    "id": "1650180100",
    "name": "介護老人保健施設　アメニティ月岡",
    "kana": "カイゴロウジンホケンシセツ　アメニティツキオカ",
    "address": "富山市月岡町2丁目189番地",
    "lat": 36.6244531,
    "lng": 137.2640526,
    "tel": "076-429-8880",
    "url": "tsukioka.mutsumi-gr.jp",
    "pref": "富山県",
    "city": "富山市",
    "category": "rouken",
    "serviceType": "介護老人保健施設",
    "capacity": 96,
    "openDays": [],
    "openDaysNote": ""
  },
  {
    "id": "1650180019",
    "name": "介護老人保健施設　シルバーケア今泉",
    "kana": "カイゴロウジンホケンシセツ　シルバーケアイマイズミ",
    "address": "富山市今泉２１８番地",
    "lat": 36.6691613,
    "lng": 137.2121673,
    "tel": "076-493-3636",
    "url": "http://www.jonankai.or.jp/scim/",
    "pref": "富山県",
    "city": "富山市",
    "category": "rouken",
    "serviceType": "介護老人保健施設",
    "capacity": 0,
    "openDays": [],
    "openDaysNote": ""
  },
  {
    "id": "1650180035",
    "name": "介護老人保健施設　みわ苑",
    "kana": "カイゴロウジンホケンシセツ　ミワエン",
    "address": "富山県富山市小中290-1",
    "lat": 36.6394232,
    "lng": 137.2127651,
    "tel": "076-429-8538",
    "url": "http://www.sanikai.or.jp/",
    "pref": "富山県",
    "city": "富山市",
    "category": "rouken",
    "serviceType": "介護老人保健施設",
    "capacity": 0,
    "openDays": [],
    "openDaysNote": ""
  },
  {
    "id": "1650180092",
    "name": "介護老人保健施設　西町セントラル・ヴィレー",
    "kana": "カイゴロウジンホケンシセツ　ニシチョウセントラル・ウ゛ィレー",
    "address": "富山市古鍛冶町5番13号",
    "lat": 36.6870588,
    "lng": 137.2174101,
    "tel": "076-491-5858",
    "url": "https://centralvire.jp",
    "pref": "富山県",
    "city": "富山市",
    "category": "rouken",
    "serviceType": "介護老人保健施設",
    "capacity": 0,
    "openDays": [],
    "openDaysNote": ""
  },
  {
    "id": "1651880013",
    "name": "介護老人保健施設　豊佳苑",
    "kana": "カイゴロウジンホケンシセツ　ホウカエン",
    "address": "富山市婦中町萩島６６５－１",
    "lat": 36.6335922,
    "lng": 137.1745718,
    "tel": "076-466-9000",
    "url": "https://www.houka-en.jp",
    "pref": "富山県",
    "city": "富山市",
    "category": "rouken",
    "serviceType": "介護老人保健施設",
    "capacity": 100,
    "openDays": [],
    "openDaysNote": ""
  },
  {
    "id": "1651880138",
    "name": "介護老人保健施設シルバーケア羽根苑",
    "kana": "カイゴロウジンホケンシセツシルバーケアハネエン",
    "address": "富山県富山市婦中町羽根1092番2",
    "lat": 36.6596311617684,
    "lng": 137.140315352115,
    "tel": "076-469-0666",
    "url": "http://toyamajonankai.mutsumi-gr.jp/sc-haneen/",
    "pref": "富山県",
    "city": "富山市",
    "category": "rouken",
    "serviceType": "介護老人保健施設",
    "capacity": 100,
    "openDays": [],
    "openDaysNote": ""
  },
  {
    "id": "1650180118",
    "name": "介護老人保健施設シルバーケア城南",
    "kana": "カイゴロウジンホケンシセツシルバーケアジョウナン",
    "address": "富山県富山市太郎丸西町一丁目6番6",
    "lat": 36.677335,
    "lng": 137.2094561,
    "tel": "076-420-6363",
    "url": "https://jonankai.or.jp/scjn/",
    "pref": "富山県",
    "city": "富山市",
    "category": "rouken",
    "serviceType": "介護老人保健施設",
    "capacity": 0,
    "openDays": [],
    "openDaysNote": ""
  },
  {
    "id": "1650180126",
    "name": "介護老人保健施設みどり苑",
    "kana": "カイゴロウジンホケンシセツミドリエン",
    "address": "富山県富山市秋ヶ島146番1",
    "lat": 36.6446498,
    "lng": 137.1931474,
    "tel": "076-428-5565",
    "url": "http://www.sainouhp.or.jp/~midori/",
    "pref": "富山県",
    "city": "富山市",
    "category": "rouken",
    "serviceType": "介護老人保健施設",
    "capacity": 100,
    "openDays": [],
    "openDaysNote": ""
  },
  {
    "id": "1650180084",
    "name": "介護老人保健施設レインボー",
    "kana": "カイゴロウジンホケンシセツレインボー",
    "address": "富山市水橋新堀1",
    "lat": 36.7162657,
    "lng": 137.3035629,
    "tel": "076-478-4784",
    "url": "http://www.nijinokai.net/",
    "pref": "富山県",
    "city": "富山市",
    "category": "rouken",
    "serviceType": "介護老人保健施設",
    "capacity": 0,
    "openDays": [],
    "openDaysNote": ""
  },
  {
    "id": "1650180159",
    "name": "介護老人保健施設仁泉メディケア",
    "kana": "カイゴロウジンホケンシセツ　ジンセンメディケア",
    "address": "富山市手屋2丁目135-1",
    "lat": 36.7211364,
    "lng": 137.2695492,
    "tel": "076-451-7005",
    "url": "http://seikeikaitoyama.com/guide.html",
    "pref": "富山県",
    "city": "富山市",
    "category": "rouken",
    "serviceType": "介護老人保健施設",
    "capacity": 100,
    "openDays": [],
    "openDaysNote": ""
  },
  {
    "id": "1650180027",
    "name": "介護老人保健施設富山リハビリテーションホーム",
    "kana": "カイゴロウジンホケンシセツトヤマリハビリテーションホーム",
    "address": "富山県富山市丸の内三丁目３番２２号",
    "lat": 36.6912107,
    "lng": 137.2091471,
    "tel": "076-425-0888",
    "url": "http://www.keiseikai-toyama.jp",
    "pref": "富山県",
    "city": "富山市",
    "category": "rouken",
    "serviceType": "介護老人保健施設",
    "capacity": 0,
    "openDays": [],
    "openDaysNote": ""
  },
  {
    "id": "1651580001",
    "name": "大沢野老人保健施設　かがやき",
    "kana": "オオサワノロウジンホケンシセツ　カガヤキ",
    "address": "富山県富山市春日３６２－１",
    "lat": 36.5629262,
    "lng": 137.2047571,
    "tel": "076-467-5151",
    "url": "http://toyama-souseikai.or.jp/kagayaki/",
    "pref": "富山県",
    "city": "富山市",
    "category": "rouken",
    "serviceType": "介護老人保健施設",
    "capacity": 0,
    "openDays": [],
    "openDaysNote": ""
  },
  {
    "id": "1651880005",
    "name": "八尾老人保健施設　風の庭",
    "kana": "ヤツオロウジンホケンシセツ　カゼノニワ",
    "address": "富山市八尾町福島7丁目42番地",
    "lat": 36.5963545,
    "lng": 137.1377397,
    "tel": "076-454-5300",
    "url": "http://www.yatsuo.or.jp",
    "pref": "富山県",
    "city": "富山市",
    "category": "rouken",
    "serviceType": "介護老人保健施設",
    "capacity": 0,
    "openDays": [],
    "openDaysNote": ""
  },
  {
    "id": "1650180001",
    "name": "富山老人保健施設",
    "kana": "トヤマロウジンホケンシセツ",
    "address": "富山県富山市上千俵町９８－１番地",
    "lat": 36.6269555,
    "lng": 137.244307,
    "tel": "076-429-7766",
    "url": "tomirou@water.ocn..ne.jp",
    "pref": "富山県",
    "city": "富山市",
    "category": "rouken",
    "serviceType": "介護老人保健施設",
    "capacity": 0,
    "openDays": [],
    "openDaysNote": ""
  },
  {
    "id": "1650180068",
    "name": "老人保健施設　チューリップ苑",
    "kana": "ロウジンホケンシセツ　チューリップエン",
    "address": "富山県富山市長江五丁目４番３３号",
    "lat": 36.6876355552038,
    "lng": 137.245321085706,
    "tel": "076-494-1212",
    "url": "http://www.tulipen.jp/",
    "pref": "富山県",
    "city": "富山市",
    "category": "rouken",
    "serviceType": "介護老人保健施設",
    "capacity": 100,
    "openDays": [],
    "openDaysNote": ""
  },
  {
    "id": "1650180043",
    "name": "老人保健施設　白雲荘",
    "kana": "ロウジンホケンシセツ　ハクウンソウ",
    "address": "富山市流杉123番地",
    "lat": 36.6589716,
    "lng": 137.2755033,
    "tel": "076-493-6000",
    "url": "https://rouken-hakuunsou.jp/",
    "pref": "富山県",
    "city": "富山市",
    "category": "rouken",
    "serviceType": "介護老人保健施設",
    "capacity": 0,
    "openDays": [],
    "openDaysNote": ""
  },
  {
    "id": "1650180076",
    "name": "老人保健施設シルバーケア栗山",
    "kana": "ロウジンホケンシセツシルバーケアクリヤマ",
    "address": "富山市栗山字沢下割900",
    "lat": 36.6211195,
    "lng": 137.2077716,
    "tel": "076-429-8686",
    "url": "http://izumikai.mutsumi-gr.jp/",
    "pref": "富山県",
    "city": "富山市",
    "category": "rouken",
    "serviceType": "介護老人保健施設",
    "capacity": 0,
    "openDays": [],
    "openDaysNote": ""
  },
  {
    "id": "1651680009",
    "name": "老人保健施設　ケアホーム　陽風の里",
    "kana": "ロウジンホケンシセツ　ケアホーム　ヨウフウノサト",
    "address": "富山県中新川郡立山町大石原254",
    "lat": 36.6637106,
    "lng": 137.2990871,
    "tel": "076-463-0601",
    "url": "http://www.keijinkai-f.or.jp/welfare-facility/yofunosato",
    "pref": "富山県",
    "city": "立山町",
    "category": "rouken",
    "serviceType": "介護老人保健施設",
    "capacity": 70,
    "openDays": [],
    "openDaysNote": ""
  }
]