[
  {
    "id": "652380023",
    "name": "介護老人保健施設　紅寿の里",
    "kana": "カイゴロウジンホケンシセツ　コウジュノサト",
    "address": "山形県西村山郡河北町大字溝延字本丸８－１",
    "lat": 38.3958821,
    "lng": 140.3117713,
    "tel": "0237-73-5850",
    "url": "http://www.miyuki.or.jp/kouju/",
    "pref": "山形県",
    "city": "河北町",
    "category": "rouken",
    "serviceType": "介護老人保健施設",
    "capacity": 100,
    "openDays": [],
    "openDaysNote": ""
  },
  {
    "id": "651280000",
    "name": "介護老人保健施設寒河江やすらぎの里",
    "kana": "カイゴロウジンホケンシセツサガエヤスラギノサト",
    "address": "山形県寒河江市本楯二丁目24番地1",
    "lat": 38.3637076,
    "lng": 140.292274,
    "tel": "0237-83-0566",
    "url": "hittp://care-net,biz/06/s-yasuragi/",
    "pref": "山形県",
    "city": "寒河江市",
    "category": "rouken",
    "serviceType": "介護老人保健施設",
    "capacity": 0,
    "openDays": [],
    "openDaysNote": ""
  },
  {
    "id": "652580002",
    "name": "最上町介護老人保健施設やすらぎ",
    "kana": "モガミマチカイゴロウジンホケンシセツヤスラギ",
    "address": "山形県最上郡最上町大字向町64-3",
    "lat": 38.7530427,
    "lng": 140.5163347,
    "tel": "0233-43-3378",
    "url": "",
    "pref": "山形県",
    "city": "最上町",
    "category": "rouken",
    "serviceType": "介護老人保健施設",
    "capacity": 0,
    "openDays": [],
    "openDaysNote": ""
  },
  {
    "id": "653080051",
    "name": "医療法人徳洲会　介護老人保健施設　ほのか",
    "kana": "イリョウホウジントクシュウカイ　カイゴロウジンホケンシセツ　ホノカ",
    "address": "山形県東田川郡三川町大字押切新田字深田1番地",
    "lat": 38.8072239,
    "lng": 139.85602,
    "tel": "0235-68-0020",
    "url": "https://www.tokushukai.or.jp/",
    "pref": "山形県",
    "city": "三川町",
    "category": "rouken",
    "serviceType": "介護老人保健施設",
    "capacity": 0,
    "openDays": [],
    "openDaysNote": ""
  },
  {
    "id": "650180045",
    "name": "介護療養型老人保健施設　木の実",
    "kana": "カイゴリョウヨウガタロウジンホケンシセツ　キノミ",
    "address": "山形市旅篭町１丁目７番２３号",
    "lat": 38.2550916,
    "lng": 140.3347243,
    "tel": "023-679-5172",
    "url": "http://www.shiseido-hp.jp/",
    "pref": "山形県",
    "city": "山形市",
    "category": "rouken",
    "serviceType": "介護老人保健施設",
    "capacity": 0,
    "openDays": [],
    "openDaysNote": ""
  },
  {
    "id": "650180011",
    "name": "介護老人保健施設さくらパレス",
    "kana": "カイゴロウジンホケンシセツサクラパレス",
    "address": "山形県山形市桜田西４丁目3-26",
    "lat": 38.2181835,
    "lng": 140.3186159,
    "tel": "023-628-3980",
    "url": "",
    "pref": "山形県",
    "city": "山形市",
    "category": "rouken",
    "serviceType": "介護老人保健施設",
    "capacity": 100,
    "openDays": [],
    "openDaysNote": ""
  },
  {
    "id": "650180037",
    "name": "介護老人保健施設サニーヒル山寺",
    "kana": "カイゴロウジンホケンシセツサニーヒルヤマデラ",
    "address": "山形県山形市大字山寺1973-335",
    "lat": 38.3119766,
    "lng": 140.4125412,
    "tel": "023-667-5010",
    "url": "http://sunny91.sakura.ne.jp",
    "pref": "山形県",
    "city": "山形市",
    "category": "rouken",
    "serviceType": "介護老人保健施設",
    "capacity": 100,
    "openDays": [],
    "openDaysNote": ""
  },
  {
    "id": "650180003",
    "name": "介護老人保健施設サニーヒル菅沢",
    "kana": "カイゴロウジンホケンシセツサニーヒルスゲサワ",
    "address": "山形市すげさわの丘727番地20",
    "lat": 38.223354,
    "lng": 140.2678873,
    "tel": "023-645-8500",
    "url": "http://sunny91.sakura.ne.jp",
    "pref": "山形県",
    "city": "山形市",
    "category": "rouken",
    "serviceType": "介護老人保健施設",
    "capacity": 0,
    "openDays": [],
    "openDaysNote": ""
  },
  {
    "id": "650180029",
    "name": "介護老人保健施設フローラさいせい",
    "kana": "カイゴロウジンホケンシセツフローラサイセイ",
    "address": "山形県山形市沖町７９番地の1山形済生病院　南館４階、５階 山形済生病院　南館４階、５階",
    "lat": 38.2849518458844,
    "lng": 140.335066559541,
    "tel": "023-664-1556",
    "url": "http://yamagata-saiseikai.org",
    "pref": "山形県",
    "city": "山形市",
    "category": "rouken",
    "serviceType": "介護老人保健施設",
    "capacity": 100,
    "openDays": [],
    "openDaysNote": ""
  },
  {
    "id": "652280009",
    "name": "介護老人保健施設メルヘン",
    "kana": "カイゴロウジンホケンシセツメルヘン",
    "address": "山形県東村山郡山辺町大字大寺1152番1",
    "lat": 38.3069517,
    "lng": 140.2650774,
    "tel": "023-667-0001",
    "url": "",
    "pref": "山形県",
    "city": "山辺町",
    "category": "rouken",
    "serviceType": "介護老人保健施設",
    "capacity": 100,
    "openDays": [],
    "openDaysNote": ""
  },
  {
    "id": "653280008",
    "name": "医療法人　徳洲会　介護老人保健施設　徳田山",
    "kana": "イリョウホウジン　トクシュウカイ　カイゴロウジンホケンシセツ　トクダヤマ",
    "address": "山形県酒田市相沢字道脇7番地",
    "lat": 38.8763348,
    "lng": 139.9394652,
    "tel": "0234-61-4040",
    "url": "tokudayama.com",
    "pref": "山形県",
    "city": "酒田市",
    "category": "rouken",
    "serviceType": "介護老人保健施設",
    "capacity": 0,
    "openDays": [],
    "openDaysNote": ""
  },
  {
    "id": "650880032",
    "name": "介護老人保健施設　ひだまり",
    "kana": "カイゴロウジンホケンシセツ　ヒダマリ",
    "address": "酒田市中町３丁目５－２３",
    "lat": 38.9168828,
    "lng": 139.834332,
    "tel": "0234-25-6356",
    "url": "http://www.kenyukai-sakata.jp",
    "pref": "山形県",
    "city": "酒田市",
    "category": "rouken",
    "serviceType": "介護老人保健施設",
    "capacity": 100,
    "openDays": [],
    "openDaysNote": ""
  },
  {
    "id": "650880008",
    "name": "介護老人保健施設シェ・モワ",
    "kana": "カイゴロウジンホケンシセツシェ・モワ",
    "address": "酒田市緑町13-37",
    "lat": 38.9106422,
    "lng": 139.8525228,
    "tel": "0234-22-1400",
    "url": "http://www.koufukai.or.jp",
    "pref": "山形県",
    "city": "酒田市",
    "category": "rouken",
    "serviceType": "介護老人保健施設",
    "capacity": 0,
    "openDays": [],
    "openDaysNote": ""
  },
  {
    "id": "650880016",
    "name": "老人保健施設　明日葉",
    "kana": "ロウジンホケンシセツ　アシタバ",
    "address": "山形県酒田市曙町２－１８－６",
    "lat": 38.9199279,
    "lng": 139.8644158,
    "tel": "0234-22-3885",
    "url": "https://www.satsuki-ashitaba.jp/",
    "pref": "山形県",
    "city": "酒田市",
    "category": "rouken",
    "serviceType": "介護老人保健施設",
    "capacity": 0,
    "openDays": [],
    "openDaysNote": ""
  },
  {
    "id": "650880024",
    "name": "老人保健施設うらら",
    "kana": "ロウジンホケンシセツウララ",
    "address": "酒田市本楯字前田１２７－２",
    "lat": 38.9650376,
    "lng": 139.8898003,
    "tel": "0234-28-3131",
    "url": "http://www.kouyuu-kai.or.jp/",
    "pref": "山形県",
    "city": "酒田市",
    "category": "rouken",
    "serviceType": "介護老人保健施設",
    "capacity": 0,
    "openDays": [],
    "openDaysNote": ""
  },
  {
    "id": "652580010",
    "name": "医療法人徳洲会　介護老人保健施設　舟形徳洲苑",
    "kana": "イリョウホウジントクシュウカイ　カイゴロウジンホケンシセツ　フナガタトクシュウエン",
    "address": "山形県最上郡舟形町富田字富田135-1",
    "lat": 38.6699255477896,
    "lng": 140.274737504017,
    "tel": "0233-35-2228",
    "url": "http://care-net.biz/06/funatoku/",
    "pref": "山形県",
    "city": "舟形町",
    "category": "rouken",
    "serviceType": "介護老人保健施設",
    "capacity": 100,
    "openDays": [],
    "openDaysNote": ""
  },
  {
    "id": "652780008",
    "name": "小国町介護老人保健施設　温身の郷",
    "kana": "オグニマチカイゴロウジンホケンシセツ　ヌクミノサト",
    "address": "山形県西置賜郡小国町大字あけぼの一丁目１番地",
    "lat": 38.0585363,
    "lng": 139.7559579,
    "tel": "0238-61-1200",
    "url": "http://www.ogunibyoin.jp/",
    "pref": "山形県",
    "city": "小国町",
    "category": "rouken",
    "serviceType": "介護老人保健施設",
    "capacity": 0,
    "openDays": [],
    "openDaysNote": ""
  },
  {
    "id": "653080002",
    "name": "医療法人　徳洲会　介護老人保健施設　あかね",
    "kana": "イリョウホウジン　トクシュウカイ　カイゴロウジンホケンシセツ　アカネ",
    "address": "山形県東田川郡庄内町添津字家の下97",
    "lat": 38.7683723,
    "lng": 139.9559595,
    "tel": "0234-51-1100",
    "url": "http://www.rouken-akane.com/index.html",
    "pref": "山形県",
    "city": "庄内町",
    "category": "rouken",
    "serviceType": "介護老人保健施設",
    "capacity": 80,
    "openDays": [],
    "openDaysNote": ""
  },
  {
    "id": "653080010",
    "name": "医療法人徳洲会介護老人保健施設余目徳洲苑",
    "kana": "イリョウホウジントクシュウカイカイゴロウジンホケンシセツアマルメトクシュウエン",
    "address": "山形県東田川郡庄内町松陽1丁目1-6",
    "lat": 38.8516948,
    "lng": 139.8948816,
    "tel": "0234-43-2477",
    "url": "http://www.amarume-tokushuen.com",
    "pref": "山形県",
    "city": "庄内町",
    "category": "rouken",
    "serviceType": "介護老人保健施設",
    "capacity": 80,
    "openDays": [],
    "openDaysNote": ""
  },
  {
    "id": "671300580",
    "name": "介護老人保健施設　かなやの里",
    "kana": "カイゴロウジンホケンシセツカナヤノサト",
    "address": "山形県上山市金谷字下河原1370",
    "lat": 38.1723210985697,
    "lng": 140.301129586508,
    "tel": "023-677-1081",
    "url": "http://www.nihonmatsukai.or.jp",
    "pref": "山形県",
    "city": "上山市",
    "category": "rouken",
    "serviceType": "介護老人保健施設",
    "capacity": 60,
    "openDays": [],
    "openDaysNote": ""
  },
  {
    "id": "651380008",
    "name": "介護老人保健施設みゆきの丘",
    "kana": "カイゴロウジンホケンシセツミユキノオカ",
    "address": "山形県上山市弁天二丁目2番11号",
    "lat": 38.1699242,
    "lng": 140.2926039,
    "tel": "023-672-8585",
    "url": "http://www.miyuki.or.jp",
    "pref": "山形県",
    "city": "上山市",
    "category": "rouken",
    "serviceType": "介護老人保健施設",
    "capacity": 0,
    "openDays": [],
    "openDaysNote": ""
  },
  {
    "id": "651180002",
    "name": "医療法人社団清明会　介護老人保健施設　ＰＦＣエーデルワイス",
    "kana": "イリョウホウジンシャダンセイメイカイ　カイゴロウジンホケンシセツ　ピーエフシーエーデルワイス",
    "address": "山形県新庄市大字本合海字福田界1802番地3",
    "lat": 38.7285178,
    "lng": 140.2293926,
    "tel": "0233-26-2685",
    "url": "https://ew.seimei-kai.or.jp/",
    "pref": "山形県",
    "city": "新庄市",
    "category": "rouken",
    "serviceType": "介護老人保健施設",
    "capacity": 80,
    "openDays": [],
    "openDaysNote": ""
  },
  {
    "id": "651180010",
    "name": "介護老人保健施設　新庄薬師園",
    "kana": "カイゴロウジンホケンシセツ　シンジョウヤクシエン",
    "address": "山形県新庄市金沢字西ノ山3027-4",
    "lat": 38.7729627,
    "lng": 140.3374027,
    "tel": "0233-23-8060",
    "url": "https://katsuroku.jp/",
    "pref": "山形県",
    "city": "新庄市",
    "category": "rouken",
    "serviceType": "介護老人保健施設",
    "capacity": 60,
    "openDays": [],
    "openDaysNote": ""
  },
  {
    "id": "652580036",
    "name": "医療法人徳洲会　介護老人保健施設　梅花苑",
    "kana": "イリョウホウジントクシュウカイ　カイゴロウジンホケンシセツ　バイカエン",
    "address": "山形県最上郡真室川町大字木ノ下字片渕山1125-286",
    "lat": 38.8634694,
    "lng": 140.2417873,
    "tel": "0233-32-0505",
    "url": "http://care-net.biz/06/baikaen/",
    "pref": "山形県",
    "city": "真室川町",
    "category": "rouken",
    "serviceType": "介護老人保健施設",
    "capacity": 0,
    "openDays": [],
    "openDaysNote": ""
  },
  {
    "id": "652680000",
    "name": "介護老人保健施設かがやきの丘",
    "kana": "カイゴロウジンホケンシセツカガヤキノオカ",
    "address": "山形県東置賜郡川西町大字下奥田字穴澤平３７９６番地２０号",
    "lat": 37.9896588,
    "lng": 140.0423265,
    "tel": "0238-42-5000",
    "url": "http://www.ryokuaikai.com",
    "pref": "山形県",
    "city": "川西町",
    "category": "rouken",
    "serviceType": "介護老人保健施設",
    "capacity": 0,
    "openDays": [],
    "openDaysNote": ""
  },
  {
    "id": "651480014",
    "name": "介護老人保健施設ローズむらやま",
    "kana": "カイゴロウジンホケンシセツローズムラヤマ",
    "address": "大字本飯田字柳堤2486番地の65",
    "lat": 38.5191,
    "lng": 140.3912087,
    "tel": "0237-52-3020",
    "url": "https://www.kodama-hp.com",
    "pref": "山形県",
    "city": "村山市",
    "category": "rouken",
    "serviceType": "介護老人保健施設",
    "capacity": null,
    "openDays": [],
    "openDaysNote": ""
  },
  {
    "id": "652380007",
    "name": "介護老人保健施設　景雲荘",
    "kana": "カイゴロウジンホケンシセツ　ケイウンソウ",
    "address": "山形県西村山郡大江町大字左沢1187",
    "lat": 38.3845362,
    "lng": 140.2047792,
    "tel": "0237-62-3155",
    "url": "",
    "pref": "山形県",
    "city": "大江町",
    "category": "rouken",
    "serviceType": "介護老人保健施設",
    "capacity": 0,
    "openDays": [],
    "openDaysNote": ""
  },
  {
    "id": "651580003",
    "name": "介護老人保健施設リバーヒル長井",
    "kana": "カイゴロウジンホケンシセツリバーヒルナガイ",
    "address": "山形県長井市寺泉３５２５－１",
    "lat": 38.1057177,
    "lng": 140.0008941,
    "tel": "0238-84-7575",
    "url": "https://www.riverhill.jp",
    "pref": "山形県",
    "city": "長井市",
    "category": "rouken",
    "serviceType": "介護老人保健施設",
    "capacity": 120,
    "openDays": [],
    "openDaysNote": ""
  },
  {
    "id": "650780067",
    "name": "サテライト老健ちわら",
    "kana": "サテライトロウケンチワラ",
    "address": "山形県鶴岡市北茅原町5番10号",
    "lat": 38.7547689999231,
    "lng": 139.841011179485,
    "tel": "0235-25-5000",
    "url": "",
    "pref": "山形県",
    "city": "鶴岡市",
    "category": "rouken",
    "serviceType": "介護老人保健施設",
    "capacity": 29,
    "openDays": [],
    "openDaysNote": ""
  },
  {
    "id": "650780042",
    "name": "サテライト老健のぞみ",
    "kana": "サテライトロウケンノゾミ",
    "address": "山形県鶴岡市日枝字小真木原116-8",
    "lat": 38.7115926095853,
    "lng": 139.812570827416,
    "tel": "0235-24-7724",
    "url": "",
    "pref": "山形県",
    "city": "鶴岡市",
    "category": "rouken",
    "serviceType": "介護老人保健施設",
    "capacity": 29,
    "openDays": [],
    "openDaysNote": ""
  },
  {
    "id": "650780059",
    "name": "介護療養型老人保健施設せせらぎ",
    "kana": "カイゴリョウヨウガタロウジンホケンシセツセセラギ",
    "address": "山形県鶴岡市文園町9-34",
    "lat": 38.714429143326,
    "lng": 139.828341027123,
    "tel": "0235-28-2160",
    "url": "http://www.turuoka-kyoritu-hp.or.jp/seseragi/",
    "pref": "山形県",
    "city": "鶴岡市",
    "category": "rouken",
    "serviceType": "介護老人保健施設",
    "capacity": 0,
    "openDays": [],
    "openDaysNote": ""
  },
  {
    "id": "653080044",
    "name": "介護老人保健施設　みずばしょう",
    "kana": "カイゴロウジンホケンシセツミズバショウ",
    "address": "鶴岡市羽黒町後田字谷地田191-4",
    "lat": 38.7147469,
    "lng": 139.8803406,
    "tel": "0235-78-0951",
    "url": "https://www.tsuruoka-rm.jp",
    "pref": "山形県",
    "city": "鶴岡市",
    "category": "rouken",
    "serviceType": "介護老人保健施設",
    "capacity": 0,
    "openDays": [],
    "openDaysNote": ""
  },
  {
    "id": "650780018",
    "name": "介護老人保健施設かけはし",
    "kana": "カイゴロウジンホケンシセツカケハシ",
    "address": "鶴岡市民田字代家田１００－１",
    "lat": 38.7047771,
    "lng": 139.8265814,
    "tel": "0235-25-1131",
    "url": "https://niji-kakehashi.or.jp",
    "pref": "山形県",
    "city": "鶴岡市",
    "category": "rouken",
    "serviceType": "介護老人保健施設",
    "capacity": 0,
    "openDays": [],
    "openDaysNote": ""
  },
  {
    "id": "650780034",
    "name": "介護老人保健施設ケアホームみやはら",
    "kana": "カイゴロウジンホケンシセツケアホームミヤハラ",
    "address": "鶴岡市三和町１番５３号",
    "lat": 38.7213755,
    "lng": 139.8295806,
    "tel": "0235-28-2061",
    "url": "http://www.miyahara-hp.jp/",
    "pref": "山形県",
    "city": "鶴岡市",
    "category": "rouken",
    "serviceType": "介護老人保健施設",
    "capacity": 29,
    "openDays": [],
    "openDaysNote": ""
  },
  {
    "id": "650780000",
    "name": "老人保健施設のぞみの園",
    "kana": "ロウジンホケンシセツノゾミノソノ",
    "address": "山形県鶴岡市茅原町26番23号",
    "lat": 38.753822,
    "lng": 139.8412175,
    "tel": "0235-25-8255",
    "url": "http://www.mituwakai.com",
    "pref": "山形県",
    "city": "鶴岡市",
    "category": "rouken",
    "serviceType": "介護老人保健施設",
    "capacity": 0,
    "openDays": [],
    "openDaysNote": ""
  },
  {
    "id": "651680019",
    "name": "介護老人保健施設あこがれ",
    "kana": "カイゴロウジンホケンシセツアコガレ",
    "address": "山形県天童市大字荒谷　1973-884",
    "lat": 38.3270324,
    "lng": 140.3876886,
    "tel": "023-652-2801",
    "url": "",
    "pref": "山形県",
    "city": "天童市",
    "category": "rouken",
    "serviceType": "介護老人保健施設",
    "capacity": 100,
    "openDays": [],
    "openDaysNote": ""
  },
  {
    "id": "651680001",
    "name": "介護老人保健施設ラ・フォーレ天童",
    "kana": "カイゴロウジンホケンシセツラフォーレテンドウ",
    "address": "山形県天童市大字道満１９３－１",
    "lat": 38.3916062,
    "lng": 140.3885924,
    "tel": "023-653-8211",
    "url": "http://www.laforet-tendo.com/",
    "pref": "山形県",
    "city": "天童市",
    "category": "rouken",
    "serviceType": "介護老人保健施設",
    "capacity": 108,
    "openDays": [],
    "openDaysNote": ""
  },
  {
    "id": "651780009",
    "name": "介護老人保健施設ナーシングホームさくらんぼ",
    "kana": "カイゴロウジンホケンシセツナーシングホームサクランボ",
    "address": "東根市大字野田1921",
    "lat": 38.4335574421894,
    "lng": 140.357942,
    "tel": "0237-36-0017",
    "url": "http://kjg-net.jp/",
    "pref": "山形県",
    "city": "東根市",
    "category": "rouken",
    "serviceType": "介護老人保健施設",
    "capacity": 0,
    "openDays": [],
    "openDaysNote": ""
  },
  {
    "id": "651980005",
    "name": "介護老人保健施設ドミール南陽",
    "kana": "カイゴロウジンホケンシセツドミールナンヨウ",
    "address": "山形県南陽市椚塚940",
    "lat": 38.0434232,
    "lng": 140.1730821,
    "tel": "0238-40-3888",
    "url": "http://www.koutoku.or.jp",
    "pref": "山形県",
    "city": "南陽市",
    "category": "rouken",
    "serviceType": "介護老人保健施設",
    "capacity": 0,
    "openDays": [],
    "openDaysNote": ""
  },
  {
    "id": "651980013",
    "name": "介護老人保健施設ほなみ荘",
    "kana": "カイゴロウジンホケンシセツ　ホナミソウ",
    "address": "山形県南陽市宮内３７５０－１",
    "lat": 38.0771997,
    "lng": 140.1352694,
    "tel": "0238-47-6000",
    "url": "http://nanyohonami.or.jp",
    "pref": "山形県",
    "city": "南陽市",
    "category": "rouken",
    "serviceType": "介護老人保健施設",
    "capacity": 0,
    "openDays": [],
    "openDaysNote": ""
  },
  {
    "id": "652780016",
    "name": "介護老人保健施設　白鷹あゆみの園",
    "kana": "カイゴロウジンホケンシセツ　シラタカアユミノソノ",
    "address": "山形県西置賜郡白鷹町大字十王5087番地1",
    "lat": 38.1926504,
    "lng": 140.1230157,
    "tel": "0238-85-5678",
    "url": "http://soumeikai.jp/",
    "pref": "山形県",
    "city": "白鷹町",
    "category": "rouken",
    "serviceType": "介護老人保健施設",
    "capacity": 0,
    "openDays": [],
    "openDaysNote": ""
  },
  {
    "id": "652780024",
    "name": "飯豊町介護老人保健施設「美の里」",
    "kana": "イイデマチカイゴロウジンホケンシセツ「ミノリ」",
    "address": "山形県西置賜郡飯豊町大字椿3654番1",
    "lat": 38.0453628,
    "lng": 139.9942926,
    "tel": "0238-86-2117",
    "url": "",
    "pref": "山形県",
    "city": "飯豊町",
    "category": "rouken",
    "serviceType": "介護老人保健施設",
    "capacity": 23,
    "openDays": [],
    "openDaysNote": ""
  },
  {
    "id": "651880007",
    "name": "介護老人保健施設ハイマート福原",
    "kana": "カイゴロウジンホケンシセツハイマートフクハラ",
    "address": "山形県尾花沢市大字野黒沢５５４番地２９",
    "lat": 38.6291911317592,
    "lng": 140.383739683467,
    "tel": "0237-25-3300",
    "url": "http://www.haimart-kaigo.com",
    "pref": "山形県",
    "city": "尾花沢市",
    "category": "rouken",
    "serviceType": "介護老人保健施設",
    "capacity": 100,
    "openDays": [],
    "openDaysNote": ""
  },
  {
    "id": "650480015",
    "name": "介護老人保健施設　あづま",
    "kana": "カイゴロウジンホケンシセツ　アヅマ",
    "address": "山形県米沢市大字李山８１３２－１１",
    "lat": 37.8611905,
    "lng": 140.098095,
    "tel": "0238-38-5535",
    "url": "http://www.y-aduma.com./",
    "pref": "山形県",
    "city": "米沢市",
    "category": "rouken",
    "serviceType": "介護老人保健施設",
    "capacity": 0,
    "openDays": [],
    "openDaysNote": ""
  },
  {
    "id": "650480023",
    "name": "介護老人保健施設「サンファミリア米沢」",
    "kana": "カイゴロウジンホケンシセツ「サンファミリアヨネザワ」",
    "address": "山形県米沢市塩井町塩野520",
    "lat": 37.9278539039908,
    "lng": 140.110583493254,
    "tel": "0238-26-8255",
    "url": "http://www.y-kouwakai.jp",
    "pref": "山形県",
    "city": "米沢市",
    "category": "rouken",
    "serviceType": "介護老人保健施設",
    "capacity": 0,
    "openDays": [],
    "openDaysNote": ""
  },
  {
    "id": "650480007",
    "name": "介護老人保健施設サンプラザ米沢",
    "kana": "カイゴロウジンホケンシセツサンプラザヨネザワ",
    "address": "山形県米沢市大字簗沢３０４６番地",
    "lat": 37.8877224,
    "lng": 140.0515812,
    "tel": "0238-32-2234",
    "url": "ｙ－kouwakai.jp",
    "pref": "山形県",
    "city": "米沢市",
    "category": "rouken",
    "serviceType": "介護老人保健施設",
    "capacity": 0,
    "openDays": [],
    "openDaysNote": ""
  }
]