[
  {
    "id": "3550280006",
    "name": "医療法人社団泉仁会介護老人保健施設豊生苑",
    "kana": "イリョウホウジンシャダンセンジンカイカイゴロウジンホケンシセツホウセイエン",
    "address": "山口県宇部市大字木田字中山田４０－２０",
    "lat": 34.0624464480115,
    "lng": 131.281252185841,
    "tel": "0836-62-1003",
    "url": "http://www.senjinkai.jp",
    "pref": "山口県",
    "city": "宇部市",
    "category": "rouken",
    "serviceType": "介護老人保健施設",
    "capacity": 0,
    "openDays": [],
    "openDaysNote": ""
  },
  {
    "id": "3550280048",
    "name": "介護老人保健施設　ぺあれんと",
    "kana": "カイゴロウジンホケンシセツ　ペアレント",
    "address": "山口県宇部市浜町２丁目1-3",
    "lat": 33.9649627,
    "lng": 131.2373831,
    "tel": "0836-36-1170",
    "url": "https://familand.jp",
    "pref": "山口県",
    "city": "宇部市",
    "category": "rouken",
    "serviceType": "介護老人保健施設",
    "capacity": null,
    "openDays": [],
    "openDaysNote": ""
  },
  {
    "id": "3550280030",
    "name": "介護老人保健施設　寿光園",
    "kana": "カイゴロウジンホケンシセツ　ジュコウエン",
    "address": "山口県宇部市大字妻崎開作470番地3",
    "lat": 33.9837498410699,
    "lng": 131.204080102377,
    "tel": "0836-44-4500",
    "url": "https://roken-jukouen.jp/",
    "pref": "山口県",
    "city": "宇部市",
    "category": "rouken",
    "serviceType": "介護老人保健施設",
    "capacity": null,
    "openDays": [],
    "openDaysNote": ""
  },
  {
    "id": "3550280022",
    "name": "介護老人保健施設　昭和町共生苑",
    "kana": "カイゴロウジンホケンシセツ　ショウワマチキョウセイエン",
    "address": "山口県宇部市昭和町二丁目12-12",
    "lat": 33.9393242,
    "lng": 131.2551467,
    "tel": "0836-31-4131",
    "url": "",
    "pref": "山口県",
    "city": "宇部市",
    "category": "rouken",
    "serviceType": "介護老人保健施設",
    "capacity": 0,
    "openDays": [],
    "openDaysNote": ""
  },
  {
    "id": "3557780008",
    "name": "介護老人保健施設　老健ふなき",
    "kana": "カイゴロウジンホケンシセツ　ロウケンフナキ",
    "address": "山口県宇部市大字船木８３３番地",
    "lat": 34.0490254,
    "lng": 131.1916704,
    "tel": "0836-67-1665",
    "url": "http://www.furoukai.jp/",
    "pref": "山口県",
    "city": "宇部市",
    "category": "rouken",
    "serviceType": "介護老人保健施設",
    "capacity": 80,
    "openDays": [],
    "openDaysNote": ""
  },
  {
    "id": "3550280014",
    "name": "老人保健施設　宇部幸楽苑",
    "kana": "ロウジンホケンシセツ　ウベコウラクエン",
    "address": "宇部市大字西岐波２２９番地の３",
    "lat": 33.966558,
    "lng": 131.303293,
    "tel": "0836-51-3113",
    "url": "http://www.ubereha.jp/facility/korakuen.html",
    "pref": "山口県",
    "city": "宇部市",
    "category": "rouken",
    "serviceType": "介護老人保健施設",
    "capacity": 0,
    "openDays": [],
    "openDaysNote": ""
  },
  {
    "id": "3550180081",
    "name": "下関市豊浦地域ケアセンター　介護老人保健施設ひびき苑",
    "kana": "シモノセキシトヨウラチイキケアセンター　カイゴロウジンホケンシセツヒビキエン",
    "address": "下関市豊浦町大字小串10007-3",
    "lat": 34.1700355905354,
    "lng": 130.926761802321,
    "tel": "083-772-2231",
    "url": "",
    "pref": "山口県",
    "city": "下関市",
    "category": "rouken",
    "serviceType": "介護老人保健施設",
    "capacity": null,
    "openDays": [],
    "openDaysNote": ""
  },
  {
    "id": "3550180131",
    "name": "介護療養型老人保健施設　青海荘弐番館",
    "kana": "カイゴリョウヨウガタロウジンホケンシセツ　セイカイソウニバンカン",
    "address": "山口県下関市武久町2丁目53番8号",
    "lat": 33.9818421,
    "lng": 130.9166832,
    "tel": "083-252-2124",
    "url": "http://seijukai-or.jp/",
    "pref": "山口県",
    "city": "下関市",
    "category": "rouken",
    "serviceType": "介護老人保健施設",
    "capacity": 0,
    "openDays": [],
    "openDaysNote": ""
  },
  {
    "id": "3550180115",
    "name": "介護老人保健施設　ももとせ",
    "kana": "カイゴロウジンホケンシセツ　モモトセ",
    "address": "山口県下関市豊北町大字滝部3669番地１",
    "lat": 34.2837621,
    "lng": 130.9443527,
    "tel": "０８３－７８２－００３２",
    "url": "https://momotose-home.net/",
    "pref": "山口県",
    "city": "下関市",
    "category": "rouken",
    "serviceType": "介護老人保健施設",
    "capacity": 60,
    "openDays": [],
    "openDaysNote": ""
  },
  {
    "id": "3550180149",
    "name": "介護老人保健施設　葵の園・下関",
    "kana": "カイゴロウジンホケンシセツ　アオイノソノ・シモノセキ",
    "address": "山口県下関市吉見新町1丁目6番17号",
    "lat": 34.0697086596688,
    "lng": 130.899619963161,
    "tel": "083-286-2137",
    "url": "",
    "pref": "山口県",
    "city": "下関市",
    "category": "rouken",
    "serviceType": "介護老人保健施設",
    "capacity": 0,
    "openDays": [],
    "openDaysNote": ""
  },
  {
    "id": "3550180008",
    "name": "介護老人保健施設　青海荘",
    "kana": "カイゴロウジンホケンシセツ　セイカイソウ",
    "address": "山口県下関市武久町2丁目53番8号",
    "lat": 33.9817949,
    "lng": 130.9166443,
    "tel": "083-252-7124",
    "url": "http://seijukai-or.jp/seikaisou/",
    "pref": "山口県",
    "city": "下関市",
    "category": "rouken",
    "serviceType": "介護老人保健施設",
    "capacity": 0,
    "openDays": [],
    "openDaysNote": ""
  },
  {
    "id": "3550180024",
    "name": "介護老人保健施設　豊松苑",
    "kana": "カイゴロウジンホケンシセツ　ホウショウエン",
    "address": "山口県下関市富任町6-17-20",
    "lat": 34.0182469,
    "lng": 130.9239369,
    "tel": "083-259-7381",
    "url": "http://www.mizunoki.jp/housyou/",
    "pref": "山口県",
    "city": "下関市",
    "category": "rouken",
    "serviceType": "介護老人保健施設",
    "capacity": 0,
    "openDays": [],
    "openDaysNote": ""
  },
  {
    "id": "3550180016",
    "name": "社会医療法人　松涛会　老人保健施設　コスモス",
    "kana": "シャカイイリョウホウジン　ショウトウカイ　ロウジンホケンシセツ　コスモス",
    "address": "下関市横野町3丁目16番35号",
    "lat": 34.0346593518325,
    "lng": 130.90949320461,
    "tel": "083-258-3030",
    "url": "http://www.syoutoukai.or.jp/",
    "pref": "山口県",
    "city": "下関市",
    "category": "rouken",
    "serviceType": "介護老人保健施設",
    "capacity": 67,
    "openDays": [],
    "openDaysNote": ""
  },
  {
    "id": "3550180032",
    "name": "老人保健施設アイユウ",
    "kana": "ロウジンホケンシセツ　アイユウ",
    "address": "山口県下関市長府金屋浜町1-5",
    "lat": 34.002732,
    "lng": 130.9919812,
    "tel": "083-246-5453",
    "url": "http://shoueikai-aiyuu.com/service/index.html",
    "pref": "山口県",
    "city": "下関市",
    "category": "rouken",
    "serviceType": "介護老人保健施設",
    "capacity": null,
    "openDays": [],
    "openDaysNote": ""
  },
  {
    "id": "3557880006",
    "name": "老人保健施設ライフ菊川",
    "kana": "ロウジンホケンシセツ　ライフキクガワ",
    "address": "下関市菊川町下岡枝1113",
    "lat": 34.1255225,
    "lng": 131.0415885,
    "tel": "083-287-3081",
    "url": "",
    "pref": "山口県",
    "city": "下関市",
    "category": "rouken",
    "serviceType": "介護老人保健施設",
    "capacity": 0,
    "openDays": [],
    "openDaysNote": ""
  },
  {
    "id": "3550780013",
    "name": "介護老人保健施設ふくしの里",
    "kana": "カイゴロウジンホケンシセツフクシノサト",
    "address": "山口県下松市生野屋南一丁目10番1号",
    "lat": 34.0326424,
    "lng": 131.8766132,
    "tel": "0833-45-3360",
    "url": "https://shunan-kinen.jp/hukusinosato.html",
    "pref": "山口県",
    "city": "下松市",
    "category": "rouken",
    "serviceType": "介護老人保健施設",
    "capacity": 70,
    "openDays": [],
    "openDaysNote": ""
  },
  {
    "id": "3550780005",
    "name": "老人保健施設　成幸苑",
    "kana": "ロウジンホケンシセツ　セイコウエン",
    "address": "山口県下松市新川二丁目1番1号",
    "lat": 34.0085809593932,
    "lng": 131.863150430688,
    "tel": "0833-41-7577",
    "url": "https://www.seikoukai.jp/seikouen/",
    "pref": "山口県",
    "city": "下松市",
    "category": "rouken",
    "serviceType": "介護老人保健施設",
    "capacity": 0,
    "openDays": [],
    "openDaysNote": ""
  },
  {
    "id": "3557280009",
    "name": "医療法人南和会老人保健施設みどり荘",
    "kana": "イリョウホウジンナンワカイロウジンホケンシセツミドリソウ",
    "address": "岩国市由宇町千鳥ヶ丘一丁目１番１号",
    "lat": 34.0363384,
    "lng": 132.2127515,
    "tel": "0827-63-1141",
    "url": "http://www.nanwakai.jp/midori_sou",
    "pref": "山口県",
    "city": "岩国市",
    "category": "rouken",
    "serviceType": "介護老人保健施設",
    "capacity": 50,
    "openDays": [],
    "openDaysNote": ""
  },
  {
    "id": "3550880037",
    "name": "岩国市錦介護老人保健施設　あさぎりの郷",
    "kana": "イワクニシニシキカイゴロウジンホケンシセツ　アサギリノサト",
    "address": "山口県岩国市錦町広瀬705番地",
    "lat": 34.2557006,
    "lng": 131.9525892,
    "tel": "0827-71-1111",
    "url": "http://nishiki-f.com/",
    "pref": "山口県",
    "city": "岩国市",
    "category": "rouken",
    "serviceType": "介護老人保健施設",
    "capacity": 0,
    "openDays": [],
    "openDaysNote": ""
  },
  {
    "id": "3550880011",
    "name": "老人保健施設　　なんわ荘",
    "kana": "ロウジンホケンシセツナンワソウ",
    "address": "山口県岩国市尾津町五丁目７番３０号",
    "lat": 34.1321351,
    "lng": 132.2104628,
    "tel": "0827-34-0100",
    "url": "http://www.nawakai.jp",
    "pref": "山口県",
    "city": "岩国市",
    "category": "rouken",
    "serviceType": "介護老人保健施設",
    "capacity": 0,
    "openDays": [],
    "openDaysNote": ""
  },
  {
    "id": "3557280017",
    "name": "老人保健施設　くが",
    "kana": "ロウジンホケンシセツ　クガ",
    "address": "山口県岩国市玖珂町3813番地6",
    "lat": 34.0818525,
    "lng": 132.0986224,
    "tel": "0827-82-0500",
    "url": "http://takamori-fukushikai.or.jp",
    "pref": "山口県",
    "city": "岩国市",
    "category": "rouken",
    "serviceType": "介護老人保健施設",
    "capacity": 0,
    "openDays": [],
    "openDaysNote": ""
  },
  {
    "id": "3550880003",
    "name": "老人保健施設　桜の園",
    "kana": "ロウジンホケンシセツ　サクラノソノ",
    "address": "岩国市下342-1",
    "lat": 34.1604579616324,
    "lng": 132.092868714017,
    "tel": "0827-47-3100",
    "url": "http://www.i-shinseikai.or.jp",
    "pref": "山口県",
    "city": "岩国市",
    "category": "rouken",
    "serviceType": "介護老人保健施設",
    "capacity": 0,
    "openDays": [],
    "openDaysNote": ""
  },
  {
    "id": "3550880029",
    "name": "老人保健施設ふれんず",
    "kana": "ロウジンホケンシセツフレンズ",
    "address": "山口県岩国市今津町1丁目11-23",
    "lat": 34.1667755,
    "lng": 132.2206811,
    "tel": "0827-21-5150",
    "url": "http://marifukai.com",
    "pref": "山口県",
    "city": "岩国市",
    "category": "rouken",
    "serviceType": "介護老人保健施設",
    "capacity": 0,
    "openDays": [],
    "openDaysNote": ""
  },
  {
    "id": "3551080009",
    "name": "介護老人保健施設しまた川苑",
    "kana": "カイゴロウジンホケンシセツシマタガワエン",
    "address": "山口県光市島田5-3-2",
    "lat": 33.9792137,
    "lng": 131.9400647,
    "tel": "0833-77-3000",
    "url": "http://www.aimeikai.jp/shimatagawa.html",
    "pref": "山口県",
    "city": "光市",
    "category": "rouken",
    "serviceType": "介護老人保健施設",
    "capacity": 0,
    "openDays": [],
    "openDaysNote": ""
  },
  {
    "id": "3551080025",
    "name": "介護老人保健施設ナイスケアまほろば",
    "kana": "カイゴロウジンホケンシセツナイスケアマホロバ",
    "address": "山口県光市岩田2477番地",
    "lat": 33.9819183,
    "lng": 131.9996222,
    "tel": "0820-49-1111",
    "url": "https://naisukeamahoroba.jimdofree.com/",
    "pref": "山口県",
    "city": "光市",
    "category": "rouken",
    "serviceType": "介護老人保健施設",
    "capacity": 0,
    "openDays": [],
    "openDaysNote": ""
  },
  {
    "id": "3550380020",
    "name": "あいあい山口",
    "kana": "アイアイヤマグチ",
    "address": "山口市鋳銭司5964番地1",
    "lat": 34.0839761,
    "lng": 131.4437334,
    "tel": "083-986-2179",
    "url": "http://www.aikawaiin.or.jp",
    "pref": "山口県",
    "city": "山口市",
    "category": "rouken",
    "serviceType": "介護老人保健施設",
    "capacity": 0,
    "openDays": [],
    "openDaysNote": ""
  },
  {
    "id": "3550380046",
    "name": "介護老人保健施設　アーユス",
    "kana": "カイゴロウジンホケンシセツ　アーユス",
    "address": "山口市大内矢田北５丁目１０番１号",
    "lat": 34.1550336175142,
    "lng": 131.510014350926,
    "tel": "083-927-8363",
    "url": "http://www.suiseikai.org",
    "pref": "山口県",
    "city": "山口市",
    "category": "rouken",
    "serviceType": "介護老人保健施設",
    "capacity": 100,
    "openDays": [],
    "openDaysNote": ""
  },
  {
    "id": "3557680000",
    "name": "山口県厚生農業協同組合連合会老人保健施設みのり苑",
    "kana": "ヤマグチケンコウセイノウギョウキョウドウクミアイレンゴウカイロウジンホケンシセツミノリエン",
    "address": "山口市小郡下郷862番地3３",
    "lat": 34.1034567,
    "lng": 131.3971987,
    "tel": "083-973-3161",
    "url": "http://www.ogoridaiichi.jp/",
    "pref": "山口県",
    "city": "山口市",
    "category": "rouken",
    "serviceType": "介護老人保健施設",
    "capacity": 50,
    "openDays": [],
    "openDaysNote": ""
  },
  {
    "id": "3550380004",
    "name": "山口幸楽苑",
    "kana": "ヤマグチコウラクエン",
    "address": "山口市黒川３３８０番地",
    "lat": 34.1319796,
    "lng": 131.4389663,
    "tel": "083-921-1617",
    "url": "http://www.wadokai.or.jp/yamariha/22korken/index.html",
    "pref": "山口県",
    "city": "山口市",
    "category": "rouken",
    "serviceType": "介護老人保健施設",
    "capacity": 0,
    "openDays": [],
    "openDaysNote": ""
  },
  {
    "id": "3557680018",
    "name": "老人保健施設　ニューライフあじす",
    "kana": "ロウジンホケンシセツ　ニューライフアジス",
    "address": "山口市阿知須4165-3",
    "lat": 34.0079468,
    "lng": 131.3581596,
    "tel": "0836-65-5077",
    "url": "http://www.kyoai.or.jp/newlife/",
    "pref": "山口県",
    "city": "山口市",
    "category": "rouken",
    "serviceType": "介護老人保健施設",
    "capacity": 0,
    "openDays": [],
    "openDaysNote": ""
  },
  {
    "id": "3550380061",
    "name": "老人保健施設　ハートホーム山口",
    "kana": "ロウジンホケンシセツ　ハートホームヤマグチ",
    "address": "山口県山口市吉敷中東一丁目1-2",
    "lat": 34.1672851,
    "lng": 131.4467278,
    "tel": "083-933-6000",
    "url": "http://www.seirankai.or.jp",
    "pref": "山口県",
    "city": "山口市",
    "category": "rouken",
    "serviceType": "介護老人保健施設",
    "capacity": 60,
    "openDays": [],
    "openDaysNote": ""
  },
  {
    "id": "3550380012",
    "name": "老人保健施設　日吉台",
    "kana": "ロウジンホケンシセツヒヨシダイ",
    "address": "山口市陶3976",
    "lat": 34.0986157,
    "lng": 131.4202272,
    "tel": "083-973-2030",
    "url": "",
    "pref": "山口県",
    "city": "山口市",
    "category": "rouken",
    "serviceType": "介護老人保健施設",
    "capacity": 0,
    "openDays": [],
    "openDaysNote": ""
  },
  {
    "id": "3550380038",
    "name": "老人保健施設　悠々の里",
    "kana": "ロウジンホケンシセツ　ユウユウノサト",
    "address": "山口市吉敷佐畑四丁目４番４４号",
    "lat": 34.1672539,
    "lng": 131.4277522,
    "tel": "083-928-2111",
    "url": "",
    "pref": "山口県",
    "city": "山口市",
    "category": "rouken",
    "serviceType": "介護老人保健施設",
    "capacity": 0,
    "openDays": [],
    "openDaysNote": ""
  },
  {
    "id": "3550380053",
    "name": "老人保健施設ナーシングホーム湯田温泉",
    "kana": "ロウジンホケンシセツナーシングホームユダオンセン",
    "address": "山口市泉都町９番７号",
    "lat": 34.1670272,
    "lng": 131.4613538,
    "tel": "083-920-7373",
    "url": "https://sasaki-geka.jp/cms/page130.html",
    "pref": "山口県",
    "city": "山口市",
    "category": "rouken",
    "serviceType": "介護老人保健施設",
    "capacity": 50,
    "openDays": [],
    "openDaysNote": ""
  },
  {
    "id": "3551680014",
    "name": "サテライト型介護老人保健施設　あさ紫苑",
    "kana": "サテライトガタカイゴロウジンホケンシセツ　アサシオン",
    "address": "山陽小野田市大字厚狭字埴生田503番1",
    "lat": 34.0540994,
    "lng": 131.1619785,
    "tel": "0836-71-1200",
    "url": "http://asashion.wixsite.com/kenjinkai",
    "pref": "山口県",
    "city": "山陽小野田市",
    "category": "rouken",
    "serviceType": "介護老人保健施設",
    "capacity": 0,
    "openDays": [],
    "openDaysNote": ""
  },
  {
    "id": "3551680022",
    "name": "サテライト型介護老人保健施設　しおん高泊",
    "kana": "サテライトガタカイゴロウジンホケンシセツ　シオンタカトマリ",
    "address": "山口県山陽小野田市大字西高泊1198‐12",
    "lat": 34.0044691990509,
    "lng": 131.171287548692,
    "tel": "0836-81-5012",
    "url": "https://asashion.wixsite.com/kenjinkai",
    "pref": "山口県",
    "city": "山陽小野田市",
    "category": "rouken",
    "serviceType": "介護老人保健施設",
    "capacity": 0,
    "openDays": [],
    "openDaysNote": ""
  },
  {
    "id": "3557780016",
    "name": "介護老人保健施設あさ紫苑",
    "kana": "カイゴロウジンホケンシセツ　アサシオン",
    "address": "山口県山陽小野田市桜１丁目３番１号",
    "lat": 34.0532217,
    "lng": 131.1557068,
    "tel": "0836-71-1700",
    "url": "http://asashion.wixsite.com/kenjinkai",
    "pref": "山口県",
    "city": "山陽小野田市",
    "category": "rouken",
    "serviceType": "介護老人保健施設",
    "capacity": 0,
    "openDays": [],
    "openDaysNote": ""
  },
  {
    "id": "3550980001",
    "name": "小野田赤十字老人保健施設あんじゅ",
    "kana": "オノダセキジュウジロウジンホケンシセツアンジュ",
    "address": "山口県山陽小野田市大字小野田3700番地",
    "lat": 33.9541264,
    "lng": 131.183765,
    "tel": "0836-88-0222",
    "url": "http://www.onoda-redcross-hosp.jp/anjyu/index.html",
    "pref": "山口県",
    "city": "山陽小野田市",
    "category": "rouken",
    "serviceType": "介護老人保健施設",
    "capacity": 40,
    "openDays": [],
    "openDaysNote": ""
  },
  {
    "id": "3551580032",
    "name": "介護老人保健施設　あおぞら",
    "kana": "カイゴロウジンホケンシセツ　アオゾラ",
    "address": "山口県周南市大字栗屋字二葉屋開作1022-76",
    "lat": 34.0551188,
    "lng": 131.8061858,
    "tel": "0834-36-3366",
    "url": "http://www.shoueikai-sakamoto.com",
    "pref": "山口県",
    "city": "周南市",
    "category": "rouken",
    "serviceType": "介護老人保健施設",
    "capacity": null,
    "openDays": [],
    "openDaysNote": ""
  },
  {
    "id": "3551580024",
    "name": "介護老人保健施設　なごやか熊毛",
    "kana": "カイゴロウジンホケンシセツ　ナゴヤカクマゲ",
    "address": "山口県周南市高水原2丁目7番21号",
    "lat": 34.0541482,
    "lng": 131.973291,
    "tel": "0833-92-0331",
    "url": "http://www.kumage-rk.jp",
    "pref": "山口県",
    "city": "周南市",
    "category": "rouken",
    "serviceType": "介護老人保健施設",
    "capacity": 0,
    "openDays": [],
    "openDaysNote": ""
  },
  {
    "id": "3551580016",
    "name": "周南市介護老人保健施設ゆめ風車",
    "kana": "シュウナンシカイゴロウジンホケンシセツユメフウシャ",
    "address": "周南市宮の前二丁目６－２７",
    "lat": 34.0726521,
    "lng": 131.7641419,
    "tel": "0834-61-3151",
    "url": "http://www.ccsnet.ne.jp/^yumerouken",
    "pref": "山口県",
    "city": "周南市",
    "category": "rouken",
    "serviceType": "介護老人保健施設",
    "capacity": 0,
    "openDays": [],
    "openDaysNote": ""
  },
  {
    "id": "3551480001",
    "name": "老人保健施設　春の里",
    "kana": "ロウジンホケンシセツ　ハルノサト",
    "address": "山口県周南市羽島1丁目2-23",
    "lat": 34.0742527016835,
    "lng": 131.726484081615,
    "tel": "0834-61-2000",
    "url": "https://haresato.wixsite.com/website",
    "pref": "山口県",
    "city": "周南市",
    "category": "rouken",
    "serviceType": "介護老人保健施設",
    "capacity": 100,
    "openDays": [],
    "openDaysNote": ""
  },
  {
    "id": "3550580017",
    "name": "老人保健施設ひまわり苑",
    "kana": "ロウジンホケンシセツヒマワリエン",
    "address": "山口県周南市新地3丁目5番地1号",
    "lat": 34.0687449,
    "lng": 131.7883183,
    "tel": "0834-21-1000",
    "url": "http://www.takahashinaika.dr-clinic.jp/",
    "pref": "山口県",
    "city": "周南市",
    "category": "rouken",
    "serviceType": "介護老人保健施設",
    "capacity": 0,
    "openDays": [],
    "openDaysNote": ""
  },
  {
    "id": "3550580025",
    "name": "老人保健施設温泉の里",
    "kana": "ロウジンホケンシセツユノノサト",
    "address": "山口県周南市大字湯野4204番地の１",
    "lat": 34.0943735,
    "lng": 131.6748809,
    "tel": "0834-83-3413",
    "url": "http://www.chitoukai.com",
    "pref": "山口県",
    "city": "周南市",
    "category": "rouken",
    "serviceType": "介護老人保健施設",
    "capacity": 0,
    "openDays": [],
    "openDaysNote": ""
  },
  {
    "id": "3557180027",
    "name": "周防大島町立介護老人保健施設さざなみ苑",
    "kana": "スオウオオシマチョウリツカイゴロウジンホケンシセツサザナミエン",
    "address": "山口県大島郡周防大島町大字西安下庄３９２０番地１７",
    "lat": 33.897774,
    "lng": 132.2803719,
    "tel": "0820-77-1212",
    "url": "https://www.kouei.so.ecomas.jp/facilities/sznm/",
    "pref": "山口県",
    "city": "周防大島町",
    "category": "rouken",
    "serviceType": "介護老人保健施設",
    "capacity": 0,
    "openDays": [],
    "openDaysNote": ""
  },
  {
    "id": "3551180015",
    "name": "医療法人社団成蹊会　老人保健施設サンライズ21",
    "kana": "イリョウホウジンシャダンセイケイカイ　ロウジンホケンシセツサンライズ21",
    "address": "山口県長門市東深川889－1",
    "lat": 34.3769221,
    "lng": 131.1868413,
    "tel": "0837-23-0021",
    "url": "https://www.rouken-sunrize21.com/",
    "pref": "山口県",
    "city": "長門市",
    "category": "rouken",
    "serviceType": "介護老人保健施設",
    "capacity": 80,
    "openDays": [],
    "openDaysNote": ""
  },
  {
    "id": "3551180007",
    "name": "医療法人生山会　介護老人保健施設かつら苑",
    "kana": "イリョウホウジンショウザンカイ　カイゴロウジンホケンシセツカツラエン",
    "address": "山口県長門市俵山4910-1",
    "lat": 34.2889432099925,
    "lng": 131.096243807365,
    "tel": "0837-29-0564",
    "url": "https://www.shouzankai-saiki.com/tawarayama/katsuraen",
    "pref": "山口県",
    "city": "長門市",
    "category": "rouken",
    "serviceType": "介護老人保健施設",
    "capacity": 0,
    "openDays": [],
    "openDaysNote": ""
  },
  {
    "id": "3558080002",
    "name": "介護老人保健施設　福寿苑",
    "kana": "カイゴロウジンホケンシセツ　フクジュエン",
    "address": "山口県長門市日置中2488番地3",
    "lat": 34.3804702,
    "lng": 131.1062171,
    "tel": "0837-37-3912",
    "url": "http://nagato-fukujyukai.or.jp",
    "pref": "山口県",
    "city": "長門市",
    "category": "rouken",
    "serviceType": "介護老人保健施設",
    "capacity": null,
    "openDays": [],
    "openDaysNote": ""
  },
  {
    "id": "3557380015",
    "name": "介護老人保健施設　そよかぜ",
    "kana": "カイゴロウジンホケンシセツ　ソヨカゼ",
    "address": "熊毛郡田布施町大字宿井４１４番地の５",
    "lat": 33.9642208,
    "lng": 132.0271739,
    "tel": "0820-51-2100",
    "url": "http://www.shoueikai-sakamoto.com/soyokaze/",
    "pref": "山口県",
    "city": "田布施町",
    "category": "rouken",
    "serviceType": "介護老人保健施設",
    "capacity": 80,
    "openDays": [],
    "openDaysNote": ""
  },
  {
    "id": "3550480010",
    "name": "医療法人　社団慈生会　介護老人保健施設　德寿園",
    "kana": "イリョウホウジン　シャダンジセイカイ　カイゴロウジンホケンシセツ　トクジュエン",
    "address": "山口県萩市大字山田4147番地１",
    "lat": 34.4001778104068,
    "lng": 131.38168414736,
    "tel": "0838-22-0118",
    "url": "http://hagi-jiseikai.or.jp",
    "pref": "山口県",
    "city": "萩市",
    "category": "rouken",
    "serviceType": "介護老人保健施設",
    "capacity": 0,
    "openDays": [],
    "openDaysNote": ""
  },
  {
    "id": "3550480002",
    "name": "医療法人社団康香会　老人保健施設　ひまわりの苑",
    "kana": "イリョウホウジンシャダンコウコウカイ　ロウジンホケンシセツ　ヒマワリノソノ",
    "address": "萩市大字今古萩町30-1",
    "lat": 34.4168648,
    "lng": 131.4016789,
    "tel": "0838-25-9170",
    "url": "",
    "pref": "山口県",
    "city": "萩市",
    "category": "rouken",
    "serviceType": "介護老人保健施設",
    "capacity": 0,
    "openDays": [],
    "openDaysNote": ""
  },
  {
    "id": "3551380011",
    "name": "美祢市介護老人保健施設グリーンヒル美祢",
    "kana": "ミネシカイゴロウジンホケンシセツグリーンヒルミネ",
    "address": "美祢市大嶺町東分１１３１３－１",
    "lat": 34.1717626,
    "lng": 131.1999535,
    "tel": "0837-54-0145",
    "url": "http://www.mine-city-hosp.jp/green/",
    "pref": "山口県",
    "city": "美祢市",
    "category": "rouken",
    "serviceType": "介護老人保健施設",
    "capacity": 0,
    "openDays": [],
    "openDaysNote": ""
  },
  {
    "id": "3557380031",
    "name": "はとがみね",
    "kana": "ハトガミネ",
    "address": "山口県熊毛郡平生町大字佐賀字１０００２番地７７",
    "lat": 33.9037056,
    "lng": 132.0816575,
    "tel": "0820-58-1111",
    "url": "https://koukikai-group.or.jp",
    "pref": "山口県",
    "city": "平生町",
    "category": "rouken",
    "serviceType": "介護老人保健施設",
    "capacity": null,
    "openDays": [],
    "openDaysNote": ""
  },
  {
    "id": "3557380023",
    "name": "介護老人保健施設　なでしこ",
    "kana": "カイゴロウジンホケンシセツ　ナデシコ",
    "address": "熊毛郡平生町平生村895番地",
    "lat": 33.9426993644635,
    "lng": 132.068354341217,
    "tel": "0820-57-3800",
    "url": "Http://www.shoueikai-sakamoto.com/",
    "pref": "山口県",
    "city": "平生町",
    "category": "rouken",
    "serviceType": "介護老人保健施設",
    "capacity": 0,
    "openDays": [],
    "openDaysNote": ""
  },
  {
    "id": "3550680031",
    "name": "介護老人保健施設　好日苑",
    "kana": "カイゴロウジンホケンシセツ　コウジツエン",
    "address": "山口県防府市戎町二丁目５番１号",
    "lat": 34.0590505,
    "lng": 131.5703532,
    "tel": "0835-26-5010",
    "url": "https://syoujyukai.or.jp/",
    "pref": "山口県",
    "city": "防府市",
    "category": "rouken",
    "serviceType": "介護老人保健施設",
    "capacity": 0,
    "openDays": [],
    "openDaysNote": ""
  },
  {
    "id": "3550680007",
    "name": "防府幸楽苑",
    "kana": "ホウフコウラクエン",
    "address": "防府市大字台道1634番地の1",
    "lat": 34.0684185,
    "lng": 131.4930485,
    "tel": "0835-32-1725",
    "url": "",
    "pref": "山口県",
    "city": "防府市",
    "category": "rouken",
    "serviceType": "介護老人保健施設",
    "capacity": 0,
    "openDays": [],
    "openDaysNote": ""
  },
  {
    "id": "3550680015",
    "name": "老人保健施設　尚歯堂",
    "kana": "ロウジンホケンシセツ　ショウシドウ",
    "address": "防府市大字新田７７５－１",
    "lat": 34.031896,
    "lng": 131.5634571,
    "tel": "0835-26-1133",
    "url": "http://www.sokuinkai.com/rouken",
    "pref": "山口県",
    "city": "防府市",
    "category": "rouken",
    "serviceType": "介護老人保健施設",
    "capacity": 100,
    "openDays": [],
    "openDaysNote": ""
  },
  {
    "id": "3550680023",
    "name": "老人保健施設はくあい",
    "kana": "ロウジンホケンシセツ　ハクアイ",
    "address": "山口県防府市三田尻１丁目１番２４号",
    "lat": 34.0484354,
    "lng": 131.5723699,
    "tel": "0835-26-2626",
    "url": "http://hakuai.net/",
    "pref": "山口県",
    "city": "防府市",
    "category": "rouken",
    "serviceType": "介護老人保健施設",
    "capacity": 0,
    "openDays": [],
    "openDaysNote": ""
  },
  {
    "id": "3551280005",
    "name": "介護老人保健施設　まつかぜ",
    "kana": "カイゴロウジンホケンシセツ　マツカゼ",
    "address": "柳井市余田３７１８番地",
    "lat": 33.9592166,
    "lng": 132.0672243,
    "tel": "0820-23-3370",
    "url": "http://www.shoueikai-sakamoto.com/matsukaze/",
    "pref": "山口県",
    "city": "柳井市",
    "category": "rouken",
    "serviceType": "介護老人保健施設",
    "capacity": 0,
    "openDays": [],
    "openDaysNote": ""
  },
  {
    "id": "3551280013",
    "name": "介護老人保健施設ケアセンターゆうわ",
    "kana": "カイゴロウジンホケンシセツケアセンターユウワ",
    "address": "柳井市伊保庄字近長浜１番４",
    "lat": 33.9100357512841,
    "lng": 132.127635732355,
    "tel": "0820-27-6001",
    "url": "http://www.yuwaen.net",
    "pref": "山口県",
    "city": "柳井市",
    "category": "rouken",
    "serviceType": "介護老人保健施設",
    "capacity": 0,
    "openDays": [],
    "openDaysNote": ""
  }
]