[
  {
    "id": "1950480010",
    "name": "介護老人保健施設　勝沼ナーシングセンター",
    "kana": "カイゴロウジンホケンシセツ　カツヌマナーシングセンター",
    "address": "山梨県甲州市勝沼町菱山中平4300",
    "lat": 35.667027,
    "lng": 138.738777,
    "tel": "0553-44-5311",
    "url": "http://www.katsunuma-nursing.com/",
    "pref": "山梨県",
    "city": "甲州市",
    "category": "rouken",
    "serviceType": "介護老人保健施設",
    "capacity": null,
    "openDays": [],
    "openDaysNote": ""
  },
  {
    "id": "1950380004",
    "name": "恵信塩山ケアセンター",
    "kana": "ケイシンエンザンケアセンタ",
    "address": "山梨県甲州市塩山上於曽1195",
    "lat": 35.7077459,
    "lng": 138.72821,
    "tel": "0553-33-3205",
    "url": "http://www.keishin-group.net",
    "pref": "山梨県",
    "city": "甲州市",
    "category": "rouken",
    "serviceType": "介護老人保健施設",
    "capacity": 0,
    "openDays": [],
    "openDaysNote": ""
  },
  {
    "id": "1950880003",
    "name": "介護老人保健施設山梨ライフケア・ホーム",
    "kana": "カイゴロウジンホケンシセツヤマナシライフケア・ホーム",
    "address": "山梨県甲斐市竜王新町2128",
    "lat": 35.6783711,
    "lng": 138.5083687,
    "tel": "055-279-4711",
    "url": "http://park14.wakwak.com/^lifecarehome/",
    "pref": "山梨県",
    "city": "甲斐市",
    "category": "rouken",
    "serviceType": "介護老人保健施設",
    "capacity": 0,
    "openDays": [],
    "openDaysNote": ""
  },
  {
    "id": "1971700412",
    "name": "老人保健施設　ひかりの里",
    "kana": "ロウジンホケンシセツ　ヒカリノサト",
    "address": "山梨県甲斐市宇津谷1111",
    "lat": 35.6958253,
    "lng": 138.4818886,
    "tel": "0551-20-3900",
    "url": "http://www.hikarinosato.com",
    "pref": "山梨県",
    "city": "甲斐市",
    "category": "rouken",
    "serviceType": "介護老人保健施設",
    "capacity": 0,
    "openDays": [],
    "openDaysNote": ""
  },
  {
    "id": "1950180032",
    "name": "介護老人保健施設　甲府相川ケアセンター",
    "kana": "カイゴロウジンホケンシセツ　コウフアイカワケアセンター",
    "address": "山梨県甲府市塚原町359",
    "lat": 35.6941421,
    "lng": 138.5696561,
    "tel": "055-252-1600",
    "url": "http://www.kashinokai.or.jp",
    "pref": "山梨県",
    "city": "甲府市",
    "category": "rouken",
    "serviceType": "介護老人保健施設",
    "capacity": 0,
    "openDays": [],
    "openDaysNote": ""
  },
  {
    "id": "1950180016",
    "name": "介護老人保健施設　甲府南ライフケアセンター",
    "kana": "カイゴロウジンホケンシセツ　コウフミナミライフケアセンター",
    "address": "山梨県甲府市住吉５丁目２４－１４",
    "lat": 35.635203,
    "lng": 138.5781105,
    "tel": "055-241-3333",
    "url": "https://care-net.biz/19/kofuminamilife/",
    "pref": "山梨県",
    "city": "甲府市",
    "category": "rouken",
    "serviceType": "介護老人保健施設",
    "capacity": 0,
    "openDays": [],
    "openDaysNote": ""
  },
  {
    "id": "1950180024",
    "name": "介護老人保健施設NAC湯村",
    "kana": "カイゴロウジンホケンシセツナックユムラ",
    "address": "山梨県甲府市湯村3-15-13",
    "lat": 35.6833931,
    "lng": 138.5467639,
    "tel": "055-253-2200",
    "url": "http://www.nac-yumura.com",
    "pref": "山梨県",
    "city": "甲府市",
    "category": "rouken",
    "serviceType": "介護老人保健施設",
    "capacity": 0,
    "openDays": [],
    "openDaysNote": ""
  },
  {
    "id": "1950180008",
    "name": "甲府かわせみ苑",
    "kana": "コウフカワセミエン",
    "address": "山梨県甲府市横根町554",
    "lat": 35.6574311,
    "lng": 138.615698,
    "tel": "055-222-2900",
    "url": "http://seishu-kai.com",
    "pref": "山梨県",
    "city": "甲府市",
    "category": "rouken",
    "serviceType": "介護老人保健施設",
    "capacity": 0,
    "openDays": [],
    "openDaysNote": ""
  },
  {
    "id": "1950180040",
    "name": "大津ケアセンター",
    "kana": "オオツケアセンター",
    "address": "山梨県甲府市大津町１５０９番地１",
    "lat": 35.5982885,
    "lng": 138.5643823,
    "tel": "055-244-0202",
    "url": "http://www.geocities.jp/ootsuhope0202/index.htm",
    "pref": "山梨県",
    "city": "甲府市",
    "category": "rouken",
    "serviceType": "介護老人保健施設",
    "capacity": 0,
    "openDays": [],
    "openDaysNote": ""
  },
  {
    "id": "1951380011",
    "name": "介護老人保健施設　山中湖あんずの森",
    "kana": "カイゴロウジンホケンシセツ　ヤマナカコアンズノモリ",
    "address": "山梨県南都留郡山中湖村山中1069-3",
    "lat": 35.4383855,
    "lng": 138.8444292,
    "tel": "0555-63-2333",
    "url": "http://fujikosei.or.jp",
    "pref": "山梨県",
    "city": "山中湖村",
    "category": "rouken",
    "serviceType": "介護老人保健施設",
    "capacity": 90,
    "openDays": [],
    "openDaysNote": ""
  },
  {
    "id": "1950680007",
    "name": "介護老人保健施設　ナーシングプラザ三珠",
    "kana": "カイゴロウジンホケンシセツ　ナーシングプラザミタマ",
    "address": "山梨県西八代郡市川三郷町上野２９６８番地",
    "lat": 35.5631367,
    "lng": 138.5157421,
    "tel": "055-272-8611",
    "url": "npmitama.com",
    "pref": "山梨県",
    "city": "市川三郷町",
    "category": "rouken",
    "serviceType": "介護老人保健施設",
    "capacity": null,
    "openDays": [],
    "openDaysNote": ""
  },
  {
    "id": "1970600480",
    "name": "介護老人保健施設ケアセンターいちかわ",
    "kana": "カイゴロウジンホケンシセツケアセンターイチカワ",
    "address": "山梨県西八代郡市川三郷町市川大門416",
    "lat": 35.5599756,
    "lng": 138.4928621,
    "tel": "055-272-5121",
    "url": "https://www.kyonan-mc.jp",
    "pref": "山梨県",
    "city": "市川三郷町",
    "category": "rouken",
    "serviceType": "介護老人保健施設",
    "capacity": null,
    "openDays": [],
    "openDaysNote": ""
  },
  {
    "id": "1950880037",
    "name": "ノイエス",
    "kana": "ノイエス",
    "address": "山梨県中巨摩郡昭和町河東中島４４３",
    "lat": 35.6213841,
    "lng": 138.5355663,
    "tel": "055-275-1165",
    "url": "https://ri-shikai.or.jp",
    "pref": "山梨県",
    "city": "昭和町",
    "category": "rouken",
    "serviceType": "介護老人保健施設",
    "capacity": 100,
    "openDays": [],
    "openDaysNote": ""
  },
  {
    "id": "1950880029",
    "name": "介護老人保健施設ひばり苑",
    "kana": "カイゴロウジンホケンシセツヒバリエン",
    "address": "山梨県中巨摩郡昭和町飯喰1277",
    "lat": 35.6225676,
    "lng": 138.5200018,
    "tel": "055-275-9511",
    "url": "https://care-net.biz/19/hibari-en/",
    "pref": "山梨県",
    "city": "昭和町",
    "category": "rouken",
    "serviceType": "介護老人保健施設",
    "capacity": null,
    "openDays": [],
    "openDaysNote": ""
  },
  {
    "id": "1951580008",
    "name": "みのりの里　介護老人保健施設　旭ヶ丘",
    "kana": "ミノリノサト　カイゴロウジンホケンシセツ　アサヒガオカ",
    "address": "山梨県上野原市上野原7806",
    "lat": 35.6441771,
    "lng": 139.1228163,
    "tel": "0554-63-5800",
    "url": "http://www.keifuu.or.jp",
    "pref": "山梨県",
    "city": "上野原市",
    "category": "rouken",
    "serviceType": "介護老人保健施設",
    "capacity": 90,
    "openDays": [],
    "openDaysNote": ""
  },
  {
    "id": "1950780005",
    "name": "介護老人保健施設　峡南ケアホームいいとみ",
    "kana": "カイゴロウジンホケンシセツ　キョウナンケアホームイイトミ",
    "address": "山梨県南巨摩郡身延町飯富1655",
    "lat": 35.4358684,
    "lng": 138.4380495,
    "tel": "0556-42-4314",
    "url": "http://www6.ocn.ne.jp/^iitomi/",
    "pref": "山梨県",
    "city": "身延町",
    "category": "rouken",
    "serviceType": "介護老人保健施設",
    "capacity": null,
    "openDays": [],
    "openDaysNote": ""
  },
  {
    "id": "1951480001",
    "name": "介護老人保健施設　ももくら",
    "kana": "カイゴロウジンホケンシセツ　モモクラ",
    "address": "山梨県大月市七保町下和田２１３２－１",
    "lat": 35.6297866,
    "lng": 138.9705768,
    "tel": "0554-20-1111",
    "url": "http://fujikosei.or.jp/",
    "pref": "山梨県",
    "city": "大月市",
    "category": "rouken",
    "serviceType": "介護老人保健施設",
    "capacity": null,
    "openDays": [],
    "openDaysNote": ""
  },
  {
    "id": "1950880052",
    "name": "介護老人保健施設玉穂ケアセンター",
    "kana": "カイゴロウジンホケンシセツタマホケアセンター",
    "address": "山梨県中央市乙黒２４７－１",
    "lat": 35.5970189,
    "lng": 138.5527472,
    "tel": "055-273-7331",
    "url": "",
    "pref": "山梨県",
    "city": "中央市",
    "category": "rouken",
    "serviceType": "介護老人保健施設",
    "capacity": 0,
    "openDays": [],
    "openDaysNote": ""
  },
  {
    "id": "1950580017",
    "name": "いちのみやケアセンター",
    "kana": "イチノミヤケアセンター",
    "address": "山梨県笛吹市一宮町竹原田１２５５－１",
    "lat": 35.6476034,
    "lng": 138.6725352,
    "tel": "0553-47-4811",
    "url": "https://fuyo-kai.or.jp/",
    "pref": "山梨県",
    "city": "笛吹市",
    "category": "rouken",
    "serviceType": "介護老人保健施設",
    "capacity": 0,
    "openDays": [],
    "openDaysNote": ""
  },
  {
    "id": "1950480002",
    "name": "介護老人保健施設ふじ苑",
    "kana": "カイゴロウジンホケンシセツフジエン",
    "address": "山梨県笛吹市春日居町小松855-6",
    "lat": 35.6613921,
    "lng": 138.6586924,
    "tel": "0553-26-5001",
    "url": "http://www11.ocn.ne.jp/~fuji-hp/",
    "pref": "山梨県",
    "city": "笛吹市",
    "category": "rouken",
    "serviceType": "介護老人保健施設",
    "capacity": null,
    "openDays": [],
    "openDaysNote": ""
  },
  {
    "id": "1950580009",
    "name": "甲州ケア・ホーム",
    "kana": "コウシュウケア・ホーム",
    "address": "山梨県笛吹市石和町四日市場2031",
    "lat": 35.6465102,
    "lng": 138.6256477,
    "tel": "055-263-0242",
    "url": "httpｓ://www.krg.ne.jp/care/",
    "pref": "山梨県",
    "city": "笛吹市",
    "category": "rouken",
    "serviceType": "介護老人保健施設",
    "capacity": 0,
    "openDays": [],
    "openDaysNote": ""
  },
  {
    "id": "1951180007",
    "name": "都留市立介護老人保健施設「つる」",
    "kana": "ツルシリツカイゴロウジンホケンシセツツル",
    "address": "都留市つる５－１－５５",
    "lat": 35.5626288,
    "lng": 138.9030871,
    "tel": "0554-45-1813",
    "url": "https://www.city.tsuru.yamanashi.jp",
    "pref": "山梨県",
    "city": "都留市",
    "category": "rouken",
    "serviceType": "介護老人保健施設",
    "capacity": 0,
    "openDays": [],
    "openDaysNote": ""
  },
  {
    "id": "1950880045",
    "name": "介護老人保健施設　　ケアホーム花菱",
    "kana": "カイゴロウジンホケンシセツ　ケアホームハナビシ",
    "address": "山梨県南アルプス市田島１１０５番地",
    "lat": 35.5927033,
    "lng": 138.4869159,
    "tel": "055-280-8700",
    "url": "https://carhome-hanabishi.jp",
    "pref": "山梨県",
    "city": "南アルプス市",
    "category": "rouken",
    "serviceType": "介護老人保健施設",
    "capacity": 100,
    "openDays": [],
    "openDaysNote": ""
  },
  {
    "id": "1950880011",
    "name": "峡西老人保健センター",
    "kana": "キョウサイロウジンホケンセンター",
    "address": "山梨県南アルプス市下宮地４２１番地",
    "lat": 35.6038127,
    "lng": 138.4630321,
    "tel": "055-282-7000",
    "url": "http://www.nan-zan.or.jp",
    "pref": "山梨県",
    "city": "南アルプス市",
    "category": "rouken",
    "serviceType": "介護老人保健施設",
    "capacity": 0,
    "openDays": [],
    "openDaysNote": ""
  },
  {
    "id": "1950980001",
    "name": "介護老人保健施設　あさひホーム",
    "kana": "カイゴロウジンホケンシセツ　アサヒホーム",
    "address": "山梨県韮崎市旭町上條中割４７３",
    "lat": 35.6829215,
    "lng": 138.4441424,
    "tel": "0551-23-3500",
    "url": "http://asahihome.biz",
    "pref": "山梨県",
    "city": "韮崎市",
    "category": "rouken",
    "serviceType": "介護老人保健施設",
    "capacity": 0,
    "openDays": [],
    "openDaysNote": ""
  },
  {
    "id": "1951380003",
    "name": "介護老人保健施設　はまなす",
    "kana": "カイゴロウジンホケンシセツ　ハマナス",
    "address": "山梨県南都留郡富士河口湖町船津字桜休場６９０１",
    "lat": 35.4913197085845,
    "lng": 138.760246419405,
    "tel": "0555-83-3285",
    "url": "",
    "pref": "山梨県",
    "city": "富士河口湖町",
    "category": "rouken",
    "serviceType": "介護老人保健施設",
    "capacity": 0,
    "openDays": [],
    "openDaysNote": ""
  },
  {
    "id": "1951280005",
    "name": "介護老人保健施設　白樺荘",
    "kana": "カイゴロウジンホケンシセツ　シラカバソウ",
    "address": "山梨県富士吉田市新屋1552-3",
    "lat": 35.4595859,
    "lng": 138.7931536,
    "tel": "0555-24-4211",
    "url": "http://www.fgo.jp/~sirakaba",
    "pref": "山梨県",
    "city": "富士吉田市",
    "category": "rouken",
    "serviceType": "介護老人保健施設",
    "capacity": null,
    "openDays": [],
    "openDaysNote": ""
  },
  {
    "id": "1970701296",
    "name": "介護老人保険施設サンビューふじかわ",
    "kana": "カイゴロウジンホケンシセツサンビューフジカワ",
    "address": "山梨県南巨摩郡富士川町鰍沢340-1",
    "lat": 35.5493044,
    "lng": 138.4655501,
    "tel": "0556-22-7301",
    "url": "http://www.kyonan-mc.jp",
    "pref": "山梨県",
    "city": "富士川町",
    "category": "rouken",
    "serviceType": "介護老人保健施設",
    "capacity": 0,
    "openDays": [],
    "openDaysNote": ""
  },
  {
    "id": "1951080025",
    "name": "医療法人　燦生会　介護老人保健施設　フルリールむかわ",
    "kana": "イリョウホウジンサンセイカイカイゴロウジンホケンシセツ",
    "address": "山梨県北杜市武川町柳沢740-1",
    "lat": 35.7868083,
    "lng": 138.3515344,
    "tel": "0551-26-0111",
    "url": "https://fluriru.com/",
    "pref": "山梨県",
    "city": "北杜市",
    "category": "rouken",
    "serviceType": "介護老人保健施設",
    "capacity": 0,
    "openDays": [],
    "openDaysNote": ""
  },
  {
    "id": "1951980000",
    "name": "介護老人保健施設しおかわ福寿の里",
    "kana": "カイゴロウジンホケンシセツシオカワフクジュノサト",
    "address": "山梨県北杜市須玉町藤田787",
    "lat": 35.7787151,
    "lng": 138.4278413,
    "tel": "0551-42-4604",
    "url": "http://www.city.hokuto.yamanashi.jp/hokuto_wdm/html/shiokawa-hospital/01064653612.html?lid=109",
    "pref": "山梨県",
    "city": "北杜市",
    "category": "rouken",
    "serviceType": "介護老人保健施設",
    "capacity": 70,
    "openDays": [],
    "openDaysNote": ""
  },
  {
    "id": "1951080009",
    "name": "峡北シルバーケアホーム",
    "kana": "キョウホクシルバーケアホーム",
    "address": "山梨県北杜市長坂町渋沢907",
    "lat": 35.8128998,
    "lng": 138.3871381,
    "tel": "0551-32-6211",
    "url": "https://www.kyohoku-silver-care-home.yamanashi.jp/",
    "pref": "山梨県",
    "city": "北杜市",
    "category": "rouken",
    "serviceType": "介護老人保健施設",
    "capacity": 0,
    "openDays": [],
    "openDaysNote": ""
  }
]