[
  {
    "id": "2150480016",
    "name": "介護老人保健施設　夕霧",
    "kana": "カイゴロウジンホケンシセツ　ユウギリ",
    "address": "岐阜県羽島市竹鼻町梅ヶ枝町370番地の1",
    "lat": 35.3219433758621,
    "lng": 136.696760280643,
    "tel": "058-394-3028",
    "url": "http://www.nagaragawa.or.jp/",
    "pref": "岐阜県",
    "city": "羽島市",
    "category": "rouken",
    "serviceType": "介護老人保健施設",
    "capacity": 100,
    "openDays": [],
    "openDaysNote": ""
  },
  {
    "id": "2152880031",
    "name": "下呂市立小坂老人保健施設",
    "kana": "ゲロシリツオサカロウジンホケンシセツ",
    "address": "岐阜県下呂市小坂町大島１９６３番地",
    "lat": 35.9515935,
    "lng": 137.2589668,
    "tel": "0576-62-2212",
    "url": "https://www.city.gero.lg.jp/soshiki/43/",
    "pref": "岐阜県",
    "city": "下呂市",
    "category": "rouken",
    "serviceType": "介護老人保健施設",
    "capacity": 0,
    "openDays": [],
    "openDaysNote": ""
  },
  {
    "id": "2152880015",
    "name": "介護老人保健施設　共寿",
    "kana": "カイゴロウジンホケンシセツ　キョウジュ",
    "address": "岐阜県下呂市萩原町古関８７３－１",
    "lat": 35.8701276,
    "lng": 137.2018083,
    "tel": "0576-53-0151",
    "url": "http://kyojukai.jp/",
    "pref": "岐阜県",
    "city": "下呂市",
    "category": "rouken",
    "serviceType": "介護老人保健施設",
    "capacity": 82,
    "openDays": [],
    "openDaysNote": ""
  },
  {
    "id": "2153180019",
    "name": "可児とうのう病院附属介護老人保健施設",
    "kana": "カニトウノウビョウインフゾクカイゴロウジンホケンシセツ",
    "address": "岐阜県可児市土田900番地",
    "lat": 35.4168671,
    "lng": 137.0158122,
    "tel": "0574-25-1717",
    "url": "http://kani.jcho.go.jp/rouken/",
    "pref": "岐阜県",
    "city": "可児市",
    "category": "rouken",
    "serviceType": "介護老人保健施設",
    "capacity": 0,
    "openDays": [],
    "openDaysNote": ""
  },
  {
    "id": "2153180027",
    "name": "老人保健施設花トピア可児",
    "kana": "ロウジンホケンシセツハナトピアカニ",
    "address": "岐阜県可児市瀬田1646番地3",
    "lat": 35.4197178,
    "lng": 137.1042184,
    "tel": "0574-64-0087",
    "url": "http://www.fujikake-hospital.jp/",
    "pref": "岐阜県",
    "city": "可児市",
    "category": "rouken",
    "serviceType": "介護老人保健施設",
    "capacity": 136,
    "openDays": [],
    "openDaysNote": ""
  },
  {
    "id": "2152280034",
    "name": "介護老人保健施設はつらつ海津",
    "kana": "カイゴロウジンホケンシセツハツラツカイヅ",
    "address": "岐阜県海津市海津町福江656番地２",
    "lat": 35.1729095,
    "lng": 136.6603123,
    "tel": "0584-54-5565",
    "url": "https://www.houjyukai.jp/",
    "pref": "岐阜県",
    "city": "海津市",
    "category": "rouken",
    "serviceType": "介護老人保健施設",
    "capacity": null,
    "openDays": [],
    "openDaysNote": ""
  },
  {
    "id": "2150580021",
    "name": "老人保健施設　コートレイ各務原",
    "kana": "ロウジンホケンシセツ　コートレイカカミガハラ",
    "address": "岐阜県各務原市蘇原青雲町4-1-70",
    "lat": 35.4103567,
    "lng": 136.8596626,
    "tel": "058-382-3399",
    "url": "",
    "pref": "岐阜県",
    "city": "各務原市",
    "category": "rouken",
    "serviceType": "介護老人保健施設",
    "capacity": 70,
    "openDays": [],
    "openDaysNote": ""
  },
  {
    "id": "2150580013",
    "name": "老人保健施設サンバレーかかみ野",
    "kana": "ロウジンホケンシセツサンバレーカカミノ",
    "address": "岐阜県各務原市須衛町3丁目136番地",
    "lat": 35.4397373,
    "lng": 136.8852873,
    "tel": "058-370-7777",
    "url": "http://www.phoenix-g.jp",
    "pref": "岐阜県",
    "city": "各務原市",
    "category": "rouken",
    "serviceType": "介護老人保健施設",
    "capacity": 0,
    "openDays": [],
    "openDaysNote": ""
  },
  {
    "id": "2150580062",
    "name": "老人保健施設ハートピア・フェニックス",
    "kana": "ロウジンッホケンシセツハートキア・フェニックス",
    "address": "岐阜県各務原市鵜沼各務原町6丁目50番地",
    "lat": 35.3994989477268,
    "lng": 136.909439735273,
    "tel": "058-322-2221",
    "url": "http://www.phoenix-g.jp",
    "pref": "岐阜県",
    "city": "各務原市",
    "category": "rouken",
    "serviceType": "介護老人保健施設",
    "capacity": 0,
    "openDays": [],
    "openDaysNote": ""
  },
  {
    "id": "2150580054",
    "name": "老人保健施設リハトピア・フェニックス",
    "kana": "ロウジンホケンシセツリハトピア・フェニックス",
    "address": "岐阜県各務原市鵜沼各務原町6丁目50番地メディカルセンター・フェニックス メディカルセンター・フェニックス",
    "lat": 35.3995431100884,
    "lng": 136.909409152393,
    "tel": "058-322-2220",
    "url": "http://phoenix-g.jp",
    "pref": "岐阜県",
    "city": "各務原市",
    "category": "rouken",
    "serviceType": "介護老人保健施設",
    "capacity": 0,
    "openDays": [],
    "openDaysNote": ""
  },
  {
    "id": "2150680003",
    "name": "松波総合病院　介護老人保健施設",
    "kana": "マツナミソウゴウビョウイン　カイゴロウジンホケンシセツ",
    "address": "岐阜県羽島郡笠松町田代１８５番地１松波総合病院　南館 松波総合病院　南館",
    "lat": 35.363227959106,
    "lng": 136.757788450926,
    "tel": "058-388-0322",
    "url": "http://www.matsunami-hsp.or.jp/rouken_zaitaku/",
    "pref": "岐阜県",
    "city": "笠松町",
    "category": "rouken",
    "serviceType": "介護老人保健施設",
    "capacity": 146,
    "openDays": [],
    "openDaysNote": ""
  },
  {
    "id": "2150280044",
    "name": "介護老人保健施設　花咲き庵",
    "kana": "カイゴロウジンホケンシセツ　ハナサキアン",
    "address": "岐阜県岐阜市関市稲口776-1介護老人保健施設　花咲き庵 介護老人保健施設　花咲き庵",
    "lat": 35.4702673511119,
    "lng": 136.925837244844,
    "tel": "0575-23-8801",
    "url": "http://www.meihoukai.jp/",
    "pref": "岐阜県",
    "city": "関市",
    "category": "rouken",
    "serviceType": "介護老人保健施設",
    "capacity": 29,
    "openDays": [],
    "openDaysNote": ""
  },
  {
    "id": "2150280069",
    "name": "介護老人保健施設　東山ハイツ",
    "kana": "カイゴロウジンホケンシセツ　ヒガシヤマハイツ",
    "address": "岐阜県関市東山4丁目48番地",
    "lat": 35.4914794635059,
    "lng": 136.946834944319,
    "tel": "0575-23-0120",
    "url": "https://www.higashiyama-h.com/",
    "pref": "岐阜県",
    "city": "関市",
    "category": "rouken",
    "serviceType": "介護老人保健施設",
    "capacity": 0,
    "openDays": [],
    "openDaysNote": ""
  },
  {
    "id": "2150280051",
    "name": "介護老人保健施設　福寿の里",
    "kana": "カイゴロウジンホケンシセツ　フクジュノサト",
    "address": "岐阜県関市下有知４７０６番地",
    "lat": 35.4991203477083,
    "lng": 136.911763922615,
    "tel": "0575-46-7878",
    "url": "http://www.chitokukai.or.jp",
    "pref": "岐阜県",
    "city": "関市",
    "category": "rouken",
    "serviceType": "介護老人保健施設",
    "capacity": 40,
    "openDays": [],
    "openDaysNote": ""
  },
  {
    "id": "2150280036",
    "name": "介護老人保健施設リバーサイド悠悠",
    "kana": "カイゴロウジンホケンシセツリバーサイドユウユウ",
    "address": "岐阜県関市倉知１７１２",
    "lat": 35.4810051,
    "lng": 136.8803345,
    "tel": "0575-23-6500",
    "url": "http;//riverside-uu.jp/",
    "pref": "岐阜県",
    "city": "関市",
    "category": "rouken",
    "serviceType": "介護老人保健施設",
    "capacity": 96,
    "openDays": [],
    "openDaysNote": ""
  },
  {
    "id": "2150180129",
    "name": "介護老人保健施設　ハートケア松岡",
    "kana": "カイゴロウジンホケンシセツ　ハートケアマツオカ",
    "address": "岐阜県岐阜市長旗町１丁目８番地",
    "lat": 35.4145716,
    "lng": 136.7607984,
    "tel": "058-265-8100",
    "url": "http://www.zuihokai-group.jp",
    "pref": "岐阜県",
    "city": "岐阜市",
    "category": "rouken",
    "serviceType": "介護老人保健施設",
    "capacity": 80,
    "openDays": [],
    "openDaysNote": ""
  },
  {
    "id": "2150180111",
    "name": "介護老人保健施設いこいの里2号館",
    "kana": "カイゴロウジンホケンシセツイコイノサトニゴウカン",
    "address": "岐阜県岐阜市岩滝東1丁目91番地",
    "lat": 35.4268739,
    "lng": 136.8502687,
    "tel": "058-241-1110",
    "url": "https://kenseikai-iryou.com",
    "pref": "岐阜県",
    "city": "岐阜市",
    "category": "rouken",
    "serviceType": "介護老人保健施設",
    "capacity": 96,
    "openDays": [],
    "openDaysNote": ""
  },
  {
    "id": "2150180046",
    "name": "介護老人保健施設カワムラコート",
    "kana": "カイゴロウジンホケンシセツカワムラコート",
    "address": "岐阜県岐阜市芥見大般若1丁目105番地",
    "lat": 35.4384015475877,
    "lng": 136.844313474697,
    "tel": "058-241-3488",
    "url": "http://www.kawamuramedical.or.jp/",
    "pref": "岐阜県",
    "city": "岐阜市",
    "category": "rouken",
    "serviceType": "介護老人保健施設",
    "capacity": 200,
    "openDays": [],
    "openDaysNote": ""
  },
  {
    "id": "2150180095",
    "name": "介護老人保健施設グリーンビラ安江",
    "kana": "カイゴロウジンホケンシセツグリーンビラヤスエ",
    "address": "岐阜県岐阜市鏡島南1丁目2番38号",
    "lat": 35.4084915,
    "lng": 136.7173464,
    "tel": "058-253-7878",
    "url": "http://www.koukikai.gr.jp",
    "pref": "岐阜県",
    "city": "岐阜市",
    "category": "rouken",
    "serviceType": "介護老人保健施設",
    "capacity": 56,
    "openDays": [],
    "openDaysNote": ""
  },
  {
    "id": "2150180137",
    "name": "介護老人保健施設ケアコートみやこ",
    "kana": "カイゴロウジンホケンシセツケアコートミヤコ",
    "address": "岐阜県岐阜市都通３丁目１７－１",
    "lat": 35.4175045,
    "lng": 136.7467195,
    "tel": "058-255-3377",
    "url": "http://www.tomoikikai.net",
    "pref": "岐阜県",
    "city": "岐阜市",
    "category": "rouken",
    "serviceType": "介護老人保健施設",
    "capacity": 0,
    "openDays": [],
    "openDaysNote": ""
  },
  {
    "id": "2150180087",
    "name": "介護老人保健施設サワダケアセンター",
    "kana": "カイゴロウジンホケンシセツサワダケアセンター",
    "address": "岐阜県岐阜市野一色７丁目１２番２号",
    "lat": 35.4175718,
    "lng": 136.8072713,
    "tel": "058-247-1100",
    "url": "http://www.sawada-care.jp/",
    "pref": "岐阜県",
    "city": "岐阜市",
    "category": "rouken",
    "serviceType": "介護老人保健施設",
    "capacity": 91,
    "openDays": [],
    "openDaysNote": ""
  },
  {
    "id": "2150680029",
    "name": "介護老人保健施設ロアジかねまつ",
    "kana": "カイゴロウジンホケンシセツロアジカネマツ",
    "address": "岐阜県岐阜市柳津町下佐波西一丁目4番地",
    "lat": 35.3648635,
    "lng": 136.7161088,
    "tel": "058-279-5100",
    "url": "http://www.roaji.or.jp",
    "pref": "岐阜県",
    "city": "岐阜市",
    "category": "rouken",
    "serviceType": "介護老人保健施設",
    "capacity": 100,
    "openDays": [],
    "openDaysNote": ""
  },
  {
    "id": "2150180152",
    "name": "介護老人保健施設永寿",
    "kana": "カイゴロウジンホケンシセツエイジュ",
    "address": "岐阜県岐阜市栄新町２丁目５０番地",
    "lat": 35.4378105,
    "lng": 136.7595978,
    "tel": "058-232-1151",
    "url": "http://www.eijyukai-ohhashi.or.jp/",
    "pref": "岐阜県",
    "city": "岐阜市",
    "category": "rouken",
    "serviceType": "介護老人保健施設",
    "capacity": 0,
    "openDays": [],
    "openDaysNote": ""
  },
  {
    "id": "2150180103",
    "name": "介護老人保健施設喜の里",
    "kana": "カイゴロウジンホケンシセツヨロコビノサト",
    "address": "岐阜県岐阜市中鶉２丁目９９番地",
    "lat": 35.3840614,
    "lng": 136.7342837,
    "tel": "058-276-7755",
    "url": "http://www.seiyuukai.or.jp",
    "pref": "岐阜県",
    "city": "岐阜市",
    "category": "rouken",
    "serviceType": "介護老人保健施設",
    "capacity": 0,
    "openDays": [],
    "openDaysNote": ""
  },
  {
    "id": "2150180012",
    "name": "介護老人保健施設岐阜リハビリテーションホーム",
    "kana": "カイゴロウジンホケンシセツギフリハビリテーションホーム",
    "address": "岐阜県岐阜市黒野１８１番地",
    "lat": 35.4593036,
    "lng": 136.726454,
    "tel": "058-234-1515",
    "url": "http://www.gifurehahome.com",
    "pref": "岐阜県",
    "city": "岐阜市",
    "category": "rouken",
    "serviceType": "介護老人保健施設",
    "capacity": 100,
    "openDays": [],
    "openDaysNote": ""
  },
  {
    "id": "2150180061",
    "name": "介護老人保健施設長良川ビラ",
    "kana": "カイゴロウジンホケンシセツナガラガワビラ",
    "address": "岐阜県岐阜市又丸６７番地７",
    "lat": 35.4411617,
    "lng": 136.7041529,
    "tel": "058-234-4747",
    "url": "http://www.kyowakai.or.jp",
    "pref": "岐阜県",
    "city": "岐阜市",
    "category": "rouken",
    "serviceType": "介護老人保健施設",
    "capacity": 96,
    "openDays": [],
    "openDaysNote": ""
  },
  {
    "id": "2150180020",
    "name": "三浦老人保健施設",
    "kana": "ミウラロウジンホケンシセツ",
    "address": "岐阜県岐阜市鏡島精華3丁目17-5",
    "lat": 35.4113328,
    "lng": 136.7187517,
    "tel": "058-251-9038",
    "url": "http://kyuseikai.com",
    "pref": "岐阜県",
    "city": "岐阜市",
    "category": "rouken",
    "serviceType": "介護老人保健施設",
    "capacity": 0,
    "openDays": [],
    "openDaysNote": ""
  },
  {
    "id": "2150180186",
    "name": "山内ホスピタル介護老人保健施設",
    "kana": "ヤマウチホスピタルカイゴロウジンホケンシセツ",
    "address": "岐阜県岐阜市薮田南４丁目１５番１６号",
    "lat": 35.3898883484238,
    "lng": 136.717928749074,
    "tel": "058-215-1600",
    "url": "http://www.kanamekai.com/care/wp",
    "pref": "岐阜県",
    "city": "岐阜市",
    "category": "rouken",
    "serviceType": "介護老人保健施設",
    "capacity": 100,
    "openDays": [],
    "openDaysNote": ""
  },
  {
    "id": "2150180079",
    "name": "寺田ガーデン",
    "kana": "テラダガーデン",
    "address": "岐阜県岐阜市寺田７丁目７７番地",
    "lat": 35.4197647386758,
    "lng": 136.700314863229,
    "tel": "058-253-7600",
    "url": "http://www.wakokai.or.jp",
    "pref": "岐阜県",
    "city": "岐阜市",
    "category": "rouken",
    "serviceType": "介護老人保健施設",
    "capacity": 100,
    "openDays": [],
    "openDaysNote": ""
  },
  {
    "id": "2150180160",
    "name": "仙寿なごみ野",
    "kana": "センジュナゴミノ",
    "address": "岐阜県岐阜市則武東4丁目2番6号",
    "lat": 35.441996085342,
    "lng": 136.751981414742,
    "tel": "058-215-9753",
    "url": "http://kaigo.touhoukai.or.jp",
    "pref": "岐阜県",
    "city": "岐阜市",
    "category": "rouken",
    "serviceType": "介護老人保健施設",
    "capacity": 0,
    "openDays": [],
    "openDaysNote": ""
  },
  {
    "id": "2151080021",
    "name": "介護老人保健施設ヴィラふくべ",
    "kana": "カイゴロウジンホケンシセツウ゛ィラフクベ",
    "address": "岐阜県郡上市美並町大原７７番地",
    "lat": 35.6440372,
    "lng": 136.9546784,
    "tel": "0575-79-2990",
    "url": "http://www.jikeichuo.com",
    "pref": "岐阜県",
    "city": "郡上市",
    "category": "rouken",
    "serviceType": "介護老人保健施設",
    "capacity": 0,
    "openDays": [],
    "openDaysNote": ""
  },
  {
    "id": "2151080039",
    "name": "介護老人保健施設ケアポート白鳳",
    "kana": "カイゴロウジンホケンシセツケアポートハクホウ",
    "address": "岐阜県郡上市白鳥町白鳥2-6",
    "lat": 35.8788691,
    "lng": 136.8575194,
    "tel": "0575-82-5999",
    "url": "http://sumihosp.or.jp/",
    "pref": "岐阜県",
    "city": "郡上市",
    "category": "rouken",
    "serviceType": "介護老人保健施設",
    "capacity": 80,
    "openDays": [],
    "openDaysNote": ""
  },
  {
    "id": "2151080047",
    "name": "県北西部地域医療センター和良介護老人保健施設",
    "kana": "ケンホクセイブチイキイリョウセンターワラカイゴロウジンホケンシセツ",
    "address": "岐阜県郡上市和良町沢864番地1",
    "lat": 35.7472024,
    "lng": 137.0834462,
    "tel": "0575-77-2778",
    "url": "http://www.gujo-tv.ne.jp/~clinic-wara/",
    "pref": "岐阜県",
    "city": "郡上市",
    "category": "rouken",
    "serviceType": "介護老人保健施設",
    "capacity": 0,
    "openDays": [],
    "openDaysNote": ""
  },
  {
    "id": "2151780018",
    "name": "介護老人保健施設こころ",
    "kana": "カイゴロウジンホケンシセツココロ",
    "address": "岐阜県恵那市大井町1064-1",
    "lat": 35.4524446,
    "lng": 137.4224324,
    "tel": "0573-25-0996",
    "url": "http://www.keiyu-kai.com/",
    "pref": "岐阜県",
    "city": "恵那市",
    "category": "rouken",
    "serviceType": "介護老人保健施設",
    "capacity": 56,
    "openDays": [],
    "openDaysNote": ""
  },
  {
    "id": "2151780034",
    "name": "介護老人保健施設こころ",
    "kana": "カイゴロウジンホケンシセツココロ",
    "address": "岐阜県恵那市大井町1064-1",
    "lat": 35.4524446,
    "lng": 137.4224324,
    "tel": "0573-25-0996",
    "url": "http://www.keiyu-kai.com",
    "pref": "岐阜県",
    "city": "恵那市",
    "category": "rouken",
    "serviceType": "介護老人保健施設",
    "capacity": 44,
    "openDays": [],
    "openDaysNote": ""
  },
  {
    "id": "2151780026",
    "name": "恵那市介護老人保健施設ひまわり",
    "kana": "エナシカイゴロウジンホケンシセツヒマワリ",
    "address": "岐阜県恵那市明智町1090番地",
    "lat": 35.2958674156878,
    "lng": 137.395395530164,
    "tel": "0573-55-0050",
    "url": "https://himawari-ena.jp/",
    "pref": "岐阜県",
    "city": "恵那市",
    "category": "rouken",
    "serviceType": "介護老人保健施設",
    "capacity": 99,
    "openDays": [],
    "openDaysNote": ""
  },
  {
    "id": "2152780041",
    "name": "奥飛騨温泉老人保健施設　穂高の庭",
    "kana": "オクヒダオンセンロウジンホケンシセツ　ホタカノニワ",
    "address": "岐阜県高山市奥飛騨温泉郷一重ヶ根205",
    "lat": 36.2289793,
    "lng": 137.5314089,
    "tel": "0578－89－1212",
    "url": "http://tyojyu.jp/hotaka/",
    "pref": "岐阜県",
    "city": "高山市",
    "category": "rouken",
    "serviceType": "介護老人保健施設",
    "capacity": null,
    "openDays": [],
    "openDaysNote": ""
  },
  {
    "id": "2153080029",
    "name": "介護老人保健施設　香蘭荘",
    "kana": "カイゴロウジンホケンシセツ　コウランソウ",
    "address": "岐阜県高山市国府町三川１２０２－５",
    "lat": 36.1922821,
    "lng": 137.2603353,
    "tel": "0577-72-5151",
    "url": "http://www.kouranso.com",
    "pref": "岐阜県",
    "city": "高山市",
    "category": "rouken",
    "serviceType": "介護老人保健施設",
    "capacity": 0,
    "openDays": [],
    "openDaysNote": ""
  },
  {
    "id": "2153080011",
    "name": "介護老人保健施設アルカディア",
    "kana": "カイゴロウジンホケンシセツアルカディア",
    "address": "岐阜県高山市国府町村山249番地1",
    "lat": 36.1973145,
    "lng": 137.2506334,
    "tel": "0577-72-5111",
    "url": "http://www.suda-hos.com/arcadia/",
    "pref": "岐阜県",
    "city": "高山市",
    "category": "rouken",
    "serviceType": "介護老人保健施設",
    "capacity": 0,
    "openDays": [],
    "openDaysNote": ""
  },
  {
    "id": "2152780025",
    "name": "介護老人保健施設それいゆ",
    "kana": "カイゴロウジンホケンシセツソレイユ",
    "address": "岐阜県高山市桐生町4丁目268番地",
    "lat": 36.1550058,
    "lng": 137.2484868,
    "tel": "0577-35-3030",
    "url": "http://www.ori-doujinkai.or.jp/soreiyu/",
    "pref": "岐阜県",
    "city": "高山市",
    "category": "rouken",
    "serviceType": "介護老人保健施設",
    "capacity": 100,
    "openDays": [],
    "openDaysNote": ""
  },
  {
    "id": "2152780033",
    "name": "高山赤十字介護老人保健施設はなさと",
    "kana": "タカヤマセキジュウジカイゴロウジンホケンシセツハナサト",
    "address": "岐阜県高山市花里町２丁目67番地",
    "lat": 36.1365081,
    "lng": 137.2523398,
    "tel": "0577-35-5500",
    "url": "http://www.takayama.jrc.or.jp/patient/kaigo/hanasato/index.html",
    "pref": "岐阜県",
    "city": "高山市",
    "category": "rouken",
    "serviceType": "介護老人保健施設",
    "capacity": 0,
    "openDays": [],
    "openDaysNote": ""
  },
  {
    "id": "2150880017",
    "name": "介護老人保健施設山県グリーンポート",
    "kana": "カイゴロウジンホケンシセツヤマガタグリーンポート",
    "address": "岐阜県山県市大門773番地",
    "lat": 35.5399602,
    "lng": 136.7254403,
    "tel": "0581-36-2800",
    "url": "https://yuuaikai-gifu.or.jp",
    "pref": "岐阜県",
    "city": "山県市",
    "category": "rouken",
    "serviceType": "介護老人保健施設",
    "capacity": 0,
    "openDays": [],
    "openDaysNote": ""
  },
  {
    "id": "2151380058",
    "name": "介護老人保健施設　穂",
    "kana": "カイゴロウジンホケンシセツ　ホ",
    "address": "岐阜県加茂郡七宗町神渕10287番",
    "lat": 35.5895907219274,
    "lng": 137.085868909755,
    "tel": "0574-46-0139",
    "url": "http://www.breakthrough-to-the-future.com/",
    "pref": "岐阜県",
    "city": "七宗町",
    "category": "rouken",
    "serviceType": "介護老人保健施設",
    "capacity": 0,
    "openDays": [],
    "openDaysNote": ""
  },
  {
    "id": "2152480014",
    "name": "介護老人保健施設あいかわ",
    "kana": "カイゴロウジンホケンシセツアイカワ",
    "address": "岐阜県不破郡垂井町府中1933番地の1",
    "lat": 35.3752279,
    "lng": 136.5237824,
    "tel": "0584-23-3443",
    "url": "http://www.hakuaikai.jp",
    "pref": "岐阜県",
    "city": "垂井町",
    "category": "rouken",
    "serviceType": "介護老人保健施設",
    "capacity": 70,
    "openDays": [],
    "openDaysNote": ""
  },
  {
    "id": "2152480022",
    "name": "介護老人保健施設おうじゅ",
    "kana": "カイゴロウジンホケンシセツオウジュ",
    "address": "岐阜県不破郡垂井町府中1928番地の3",
    "lat": 35.3750293580188,
    "lng": 136.524852945369,
    "tel": "0584-24-1001",
    "url": "http://www.hakuaikai.jp",
    "pref": "岐阜県",
    "city": "垂井町",
    "category": "rouken",
    "serviceType": "介護老人保健施設",
    "capacity": 60,
    "openDays": [],
    "openDaysNote": ""
  },
  {
    "id": "2150780019",
    "name": "巣南リハビリセンター",
    "kana": "スナミリハビリセンター",
    "address": "岐阜県瑞穂市重里1996",
    "lat": 35.4157313,
    "lng": 136.6599947,
    "tel": "058-328-3387",
    "url": "https://seikohkai.net/",
    "pref": "岐阜県",
    "city": "瑞穂市",
    "category": "rouken",
    "serviceType": "介護老人保健施設",
    "capacity": 0,
    "openDays": [],
    "openDaysNote": ""
  },
  {
    "id": "2151680010",
    "name": "介護老人保健施設ひざし",
    "kana": "カイゴロウジンホケンシセツヒザシ",
    "address": "岐阜県瑞浪市稲津町萩原１番地",
    "lat": 35.3539559,
    "lng": 137.274412,
    "tel": "0572-67-3748",
    "url": "http://www.hizashi.jp",
    "pref": "岐阜県",
    "city": "瑞浪市",
    "category": "rouken",
    "serviceType": "介護老人保健施設",
    "capacity": 170,
    "openDays": [],
    "openDaysNote": ""
  },
  {
    "id": "2151180029",
    "name": "医療法人仁寿会介護老人保健施設アルマ・マータ",
    "kana": "イリョウホウジンジンジュカイカイゴロウジンホケンシセツアルマ・マータ",
    "address": "岐阜県多治見市小名田町西ヶ洞７１－１",
    "lat": 35.3636155,
    "lng": 137.1210183,
    "tel": "0572-24-6787",
    "url": "http://www.i-jinjukai.or.jp",
    "pref": "岐阜県",
    "city": "多治見市",
    "category": "rouken",
    "serviceType": "介護老人保健施設",
    "capacity": 100,
    "openDays": [],
    "openDaysNote": ""
  },
  {
    "id": "2151180011",
    "name": "介護老人保健施設　メモリアル光陽",
    "kana": "カイゴロウジンホケンシセツ　メモリアルコウヨウ",
    "address": "岐阜県多治見市大畑町大洞３９番地の１",
    "lat": 35.3146459,
    "lng": 137.1241972,
    "tel": "0572-25-8343",
    "url": "https://www.memokou.or.jp",
    "pref": "岐阜県",
    "city": "多治見市",
    "category": "rouken",
    "serviceType": "介護老人保健施設",
    "capacity": 0,
    "openDays": [],
    "openDaysNote": ""
  },
  {
    "id": "2151180037",
    "name": "介護老人保健施設なでしこ",
    "kana": "カイゴロウジンホケンシセツナデシコ",
    "address": "岐阜県多治見市旭ヶ丘7-12-1",
    "lat": 35.3663157840802,
    "lng": 137.099151650703,
    "tel": "0572-27-1165",
    "url": "http://www.chishinkai-group.jp/",
    "pref": "岐阜県",
    "city": "多治見市",
    "category": "rouken",
    "serviceType": "介護老人保健施設",
    "capacity": 0,
    "openDays": [],
    "openDaysNote": ""
  },
  {
    "id": "2152180051",
    "name": "医療法人　大樹",
    "kana": "イリョウホウジン　ダイジュ",
    "address": "岐阜県大垣市築捨町1-14-1",
    "lat": 35.3419867,
    "lng": 136.6251352,
    "tel": "0584-88-0144",
    "url": "http://www.daiju.or.jp",
    "pref": "岐阜県",
    "city": "大垣市",
    "category": "rouken",
    "serviceType": "介護老人保健施設",
    "capacity": 0,
    "openDays": [],
    "openDaysNote": ""
  },
  {
    "id": "2152180036",
    "name": "介護老人保健施設　サットヴァの園",
    "kana": "カイゴロウジンホケンシセツ　サットウ゛ァノソノ",
    "address": "岐阜県大垣市多芸島１丁目127-1",
    "lat": 35.3314365,
    "lng": 136.596173,
    "tel": "0584-88-1788",
    "url": "http://sattova.info/",
    "pref": "岐阜県",
    "city": "大垣市",
    "category": "rouken",
    "serviceType": "介護老人保健施設",
    "capacity": 0,
    "openDays": [],
    "openDaysNote": ""
  },
  {
    "id": "2152180010",
    "name": "老人保健施設　西濃",
    "kana": "ロウジンホケンシセツ　セイノウ",
    "address": "岐阜県大垣市藤江町６丁目３番地の１",
    "lat": 35.3631064,
    "lng": 136.6239402,
    "tel": "0584-78-6050",
    "url": "http://www.bijyoukai.dr-clinic.jp/rouken/",
    "pref": "岐阜県",
    "city": "大垣市",
    "category": "rouken",
    "serviceType": "介護老人保健施設",
    "capacity": 127,
    "openDays": [],
    "openDaysNote": ""
  },
  {
    "id": "2152180044",
    "name": "老人保健施設セイ・ウインド大垣",
    "kana": "ロウジンホケンシセツセイウインドオオガキ",
    "address": "岐阜県大垣市宿地町１００８－４",
    "lat": 35.3768292,
    "lng": 136.607984,
    "tel": "0584-82-6001",
    "url": "",
    "pref": "岐阜県",
    "city": "大垣市",
    "category": "rouken",
    "serviceType": "介護老人保健施設",
    "capacity": 0,
    "openDays": [],
    "openDaysNote": ""
  },
  {
    "id": "2152680027",
    "name": "介護老人保健施設　プラザ２１おおの",
    "kana": "カイゴロウジンホケンシセツ　プラザニジュウイチオオノ",
    "address": "岐阜県揖斐郡大野町南方二度桜191番地",
    "lat": 35.4528601048851,
    "lng": 136.620872126984,
    "tel": "0585-35-0088",
    "url": "https://www.plaza21oono.jp",
    "pref": "岐阜県",
    "city": "大野町",
    "category": "rouken",
    "serviceType": "介護老人保健施設",
    "capacity": null,
    "openDays": [],
    "openDaysNote": ""
  },
  {
    "id": "2152680068",
    "name": "介護老人保健施設　ラポール",
    "kana": "カイゴロウジンホケンシセツ　ラポール",
    "address": "岐阜県揖斐郡大野町大字大野９２４番地１",
    "lat": 35.4782465,
    "lng": 136.6354337,
    "tel": "0585-32-5005",
    "url": "http://www.rapport1051.jp",
    "pref": "岐阜県",
    "city": "大野町",
    "category": "rouken",
    "serviceType": "介護老人保健施設",
    "capacity": 95,
    "openDays": [],
    "openDaysNote": ""
  },
  {
    "id": "2152680076",
    "name": "介護老人保健施設西美濃さくら苑",
    "kana": "カイゴロウジンホケンシセツニシミノサクラエン",
    "address": "岐阜県揖斐郡池田町田中５－１",
    "lat": 35.4612426,
    "lng": 136.5599015,
    "tel": "0585-45-9631",
    "url": "https://n-sakuraen.jp",
    "pref": "岐阜県",
    "city": "池田町",
    "category": "rouken",
    "serviceType": "介護老人保健施設",
    "capacity": null,
    "openDays": [],
    "openDaysNote": ""
  },
  {
    "id": "2151580020",
    "name": "介護老人保健施設　中津川ナーシングピア",
    "kana": "カイゴロウジンホケンシセツ　ナカツガワナーシングピア",
    "address": "岐阜県中津川市茄子川字中垣外１６８３－１２４７",
    "lat": 35.463848460767,
    "lng": 137.47657174861,
    "tel": "0573-68-7881",
    "url": "http://www.nursingpia.com/",
    "pref": "岐阜県",
    "city": "中津川市",
    "category": "rouken",
    "serviceType": "介護老人保健施設",
    "capacity": 0,
    "openDays": [],
    "openDaysNote": ""
  },
  {
    "id": "2151580038",
    "name": "坂下老人保健施設",
    "kana": "サカシタロウジンホケンシセツ",
    "address": "岐阜県中津川市坂下７２２番地１",
    "lat": 35.5749395401107,
    "lng": 137.532314608184,
    "tel": "0573-75-5220",
    "url": "http://sakashita-shinryo.jp/roken/",
    "pref": "岐阜県",
    "city": "中津川市",
    "category": "rouken",
    "serviceType": "介護老人保健施設",
    "capacity": 0,
    "openDays": [],
    "openDaysNote": ""
  },
  {
    "id": "2151580012",
    "name": "老人保健施設城山",
    "kana": "ロウジンホケンシセツシロヤマ",
    "address": "岐阜県中津川市苗木３７４７－１",
    "lat": 35.5137515,
    "lng": 137.4770965,
    "tel": "0573-65-1030",
    "url": "http://www.n-shiroyama.info/rouken/index.html",
    "pref": "岐阜県",
    "city": "中津川市",
    "category": "rouken",
    "serviceType": "介護老人保健施設",
    "capacity": 80,
    "openDays": [],
    "openDaysNote": ""
  },
  {
    "id": "2151880024",
    "name": "介護老人保健施設カサグランテ",
    "kana": "カイゴロウジンホケンシセツカサグランテ",
    "address": "岐阜県土岐市駄知町1556-2",
    "lat": 35.3259327,
    "lng": 137.232131,
    "tel": "0572-59-1801",
    "url": "https://www.chishinkai-group.jp/facilities/casa",
    "pref": "岐阜県",
    "city": "土岐市",
    "category": "rouken",
    "serviceType": "介護老人保健施設",
    "capacity": 100,
    "openDays": [],
    "openDaysNote": ""
  },
  {
    "id": "2151880016",
    "name": "土岐市老人保健施設やすらぎ",
    "kana": "トキシロウジンホケンシセツヤスラギ",
    "address": "岐阜県土岐市土岐津町土岐口703番地の24",
    "lat": 35.3341151424645,
    "lng": 137.184785372461,
    "tel": "0572-55-2111",
    "url": "http://www.tokisou.gfkosei.or.jp/yasuragi.html",
    "pref": "岐阜県",
    "city": "土岐市",
    "category": "rouken",
    "serviceType": "介護老人保健施設",
    "capacity": 100,
    "openDays": [],
    "openDaysNote": ""
  },
  {
    "id": "2151380033",
    "name": "東白川村国保診療所附属介護老人保健施設",
    "kana": "ヒガシシラカワムラコクホシンリョウショフゾクカイゴロウジンホケンシセツ",
    "address": "岐阜県加茂郡東白川村五加３２１０",
    "lat": 35.621139067978,
    "lng": 137.287791950075,
    "tel": "0574-78-2023",
    "url": "https://www.vill.higashishirakawa.gifu.jp/",
    "pref": "岐阜県",
    "city": "東白川村",
    "category": "rouken",
    "serviceType": "介護老人保健施設",
    "capacity": 16,
    "openDays": [],
    "openDaysNote": ""
  },
  {
    "id": "2151380025",
    "name": "介護老人保健施設　だいち",
    "kana": "カイゴロウジンホケンシセツ　ダイチ",
    "address": "岐阜県加茂郡八百津町錦織１５３０－３９",
    "lat": 35.4735552,
    "lng": 137.1519872,
    "tel": "0574-43-8052",
    "url": "http://www.isaji－daichikai.com/original10.html",
    "pref": "岐阜県",
    "city": "八百津町",
    "category": "rouken",
    "serviceType": "介護老人保健施設",
    "capacity": 0,
    "openDays": [],
    "openDaysNote": ""
  },
  {
    "id": "2151280019",
    "name": "介護老人保健施設　さわやかリバーサイドビラ",
    "kana": "カイゴロウジンホケンシセツ　サワヤカリバーサイドビラ",
    "address": "岐阜県美濃加茂市下米田町東栃井81-3",
    "lat": 35.477438,
    "lng": 137.0657393,
    "tel": "0574-25-5588",
    "url": "http://www.jikeikai-sawayaka.jp",
    "pref": "岐阜県",
    "city": "美濃加茂市",
    "category": "rouken",
    "serviceType": "介護老人保健施設",
    "capacity": 94,
    "openDays": [],
    "openDaysNote": ""
  },
  {
    "id": "2151280035",
    "name": "介護老人保健施設中部台ケアセンター",
    "kana": "カイゴロウジンホケンシセツチュウブダイケアセンター",
    "address": "岐阜県美濃加茂市中部台6丁目13番地5",
    "lat": 35.4659572,
    "lng": 137.0174109,
    "tel": "0574-23-1155",
    "url": "https://rokusan.ohta-hospital.jp/",
    "pref": "岐阜県",
    "city": "美濃加茂市",
    "category": "rouken",
    "serviceType": "介護老人保健施設",
    "capacity": 0,
    "openDays": [],
    "openDaysNote": ""
  },
  {
    "id": "2151280027",
    "name": "老人保健施設サントピアみのかも",
    "kana": "ロウジンホケンシセツサントピアミノカモ",
    "address": "岐阜県美濃加茂市蜂屋町上蜂屋3555",
    "lat": 35.4541920774915,
    "lng": 137.012896749599,
    "tel": "0574-25-7968",
    "url": "http://suntopia-minokamo.jp",
    "pref": "岐阜県",
    "city": "美濃加茂市",
    "category": "rouken",
    "serviceType": "介護老人保健施設",
    "capacity": 0,
    "openDays": [],
    "openDaysNote": ""
  },
  {
    "id": "2151380017",
    "name": "介護老人保健施設センチュリー２１",
    "kana": "カイゴロウジンホケンシセツセンチュリー２１",
    "address": "岐阜県加茂郡富加町夕田３８０番地",
    "lat": 35.4848503,
    "lng": 136.9895256,
    "tel": "0574-54-3321",
    "url": "https://meiseikai-century21.com/",
    "pref": "岐阜県",
    "city": "富加町",
    "category": "rouken",
    "serviceType": "介護老人保健施設",
    "capacity": 100,
    "openDays": [],
    "openDaysNote": ""
  },
  {
    "id": "2153480013",
    "name": "介護老人保健施設　仙寿苑",
    "kana": "カイゴロウジンホケンシセツ　センジュエン",
    "address": "岐阜県本巣市仏生寺111-1",
    "lat": 35.4472260524222,
    "lng": 136.692204667628,
    "tel": "058-322-5566",
    "url": "http://senjuen.wixsite.com/senjuen",
    "pref": "岐阜県",
    "city": "本巣市",
    "category": "rouken",
    "serviceType": "介護老人保健施設",
    "capacity": 70,
    "openDays": [],
    "openDaysNote": ""
  },
  {
    "id": "2152680043",
    "name": "老人保健施設山びこの郷",
    "kana": "ロウジンホケンシセツヤマビコノサト",
    "address": "岐阜県揖斐郡揖斐川町東津汲877-1",
    "lat": 35.5570822,
    "lng": 136.5073418,
    "tel": "0585-54-2231",
    "url": "http://ibigawa-jadecom.jp",
    "pref": "岐阜県",
    "city": "揖斐川町",
    "category": "rouken",
    "serviceType": "介護老人保健施設",
    "capacity": null,
    "openDays": [],
    "openDaysNote": ""
  },
  {
    "id": "2152380016",
    "name": "老人保健施設養老の郷",
    "kana": "ロウジンホケンシセツヨウロウノサト",
    "address": "岐阜県養老郡養老町押越７００－１",
    "lat": 35.3070269,
    "lng": 136.5567833,
    "tel": "0584-33-0510",
    "url": "https://yoshidakai-hp.com/yoshidakai/",
    "pref": "岐阜県",
    "city": "養老町",
    "category": "rouken",
    "serviceType": "介護老人保健施設",
    "capacity": 0,
    "openDays": [],
    "openDaysNote": ""
  },
  {
    "id": "2152580011",
    "name": "介護老人保健施設　輪之内ビラ",
    "kana": "カイゴロウジンホケンシセツ　ワノウチビラ",
    "address": "岐阜県安八郡輪之内町四郷1330",
    "lat": 35.2877629,
    "lng": 136.6395961,
    "tel": "0584-68-1008",
    "url": "http://www.wanouchivilla810.jp",
    "pref": "岐阜県",
    "city": "輪之内町",
    "category": "rouken",
    "serviceType": "介護老人保健施設",
    "capacity": 70,
    "openDays": [],
    "openDaysNote": ""
  }
]