[
  {
    "id": "3350180018",
    "name": "介護老人保健施設　　恵風苑",
    "kana": "カイゴロウジンホケンシセツ　ケイフウエン",
    "address": "岡山県岡山市中区今在家304-6",
    "lat": 34.6894733912484,
    "lng": 133.949478666191,
    "tel": "086-275-8008",
    "url": "http://www.keifuukai.or.jp/",
    "pref": "岡山県",
    "city": "岡山市中区",
    "category": "rouken",
    "serviceType": "介護老人保健施設",
    "capacity": 180,
    "openDays": [],
    "openDaysNote": ""
  },
  {
    "id": "3350180067",
    "name": "介護老人保健施設　藤崎苑",
    "kana": "カイゴロウジンホケンシセツ　フジサキエン",
    "address": "岡山県岡山市中区藤崎463",
    "lat": 34.6186709,
    "lng": 133.9715396,
    "tel": "086-274-4121",
    "url": "http://www.ryoyukai.or.jp/",
    "pref": "岡山県",
    "city": "岡山市中区",
    "category": "rouken",
    "serviceType": "介護老人保健施設",
    "capacity": 0,
    "openDays": [],
    "openDaysNote": ""
  },
  {
    "id": "3350180232",
    "name": "介護老人保健施設　はるか",
    "kana": "カイゴロウジンホケンシセツ　ハルカ",
    "address": "岡山県岡山市東区西大寺北　941",
    "lat": 34.6631837,
    "lng": 134.0386231,
    "tel": "086-942-6800",
    "url": "www.rouken-haruka.or.jp",
    "pref": "岡山県",
    "city": "岡山市東区",
    "category": "rouken",
    "serviceType": "介護老人保健施設",
    "capacity": null,
    "openDays": [],
    "openDaysNote": ""
  },
  {
    "id": "3350180091",
    "name": "介護老人保健施設　日立養力センター",
    "kana": "カイゴロウジンホケンシセツ　ヒダチヨウリキセンター",
    "address": "岡山県岡山市東区吉原247-1",
    "lat": 34.673316,
    "lng": 134.0313042,
    "tel": "086-944-1177",
    "url": "http://www.saidaiji-hp.or.jp/roken/",
    "pref": "岡山県",
    "city": "岡山市東区",
    "category": "rouken",
    "serviceType": "介護老人保健施設",
    "capacity": 0,
    "openDays": [],
    "openDaysNote": ""
  },
  {
    "id": "3350180133",
    "name": "介護老人保健施設　夕なぎケアセンター",
    "kana": "カイゴロウジンホケンシセツ　ユウナギケアセンター",
    "address": "岡山県岡山市東区宿毛745-1",
    "lat": 34.6230071,
    "lng": 134.0853303,
    "tel": "086-946-2600",
    "url": "https://www.yunagi.jp",
    "pref": "岡山県",
    "city": "岡山市東区",
    "category": "rouken",
    "serviceType": "介護老人保健施設",
    "capacity": 80,
    "openDays": [],
    "openDaysNote": ""
  },
  {
    "id": "3352280014",
    "name": "老人保健施設　アルテピアせと",
    "kana": "ロウジンホケンシセツ　アルテピアセト",
    "address": "岡山県岡山市東区瀬戸町江尻711",
    "lat": 34.7260029,
    "lng": 134.0550187,
    "tel": "086-952-3300",
    "url": "http://iwadou.or.jp/",
    "pref": "岡山県",
    "city": "岡山市東区",
    "category": "rouken",
    "serviceType": "介護老人保健施設",
    "capacity": 80,
    "openDays": [],
    "openDaysNote": ""
  },
  {
    "id": "3350180141",
    "name": "老人保健施設　古都の森",
    "kana": "ロウジンホケンシセツ　コヅノモリ",
    "address": "岡山県岡山市東区古都南方2815-1",
    "lat": 34.6871341,
    "lng": 134.0186498,
    "tel": "086-278-4600",
    "url": "http://www.mc-mirai.or.jp",
    "pref": "岡山県",
    "city": "岡山市東区",
    "category": "rouken",
    "serviceType": "介護老人保健施設",
    "capacity": 68,
    "openDays": [],
    "openDaysNote": ""
  },
  {
    "id": "3350180109",
    "name": "老人保健施設さくら苑リハビリセンター",
    "kana": "ロウジンホケンシセツ　サクラエンリハビリセンター",
    "address": "岡山県岡山市東区西大寺浜261",
    "lat": 34.646541,
    "lng": 134.0387761,
    "tel": "086-944-2266",
    "url": "http://www.chuo-fukushikai.jp/sakura/",
    "pref": "岡山県",
    "city": "岡山市東区",
    "category": "rouken",
    "serviceType": "介護老人保健施設",
    "capacity": 0,
    "openDays": [],
    "openDaysNote": ""
  },
  {
    "id": "3350180083",
    "name": "介護老人保健施設　あいの里リハビリ苑",
    "kana": "カイゴロウジンホケンシセツ　アイノサトリハビリエン",
    "address": "岡山県岡山市南区大福９５０－６",
    "lat": 34.6193379,
    "lng": 133.8911308,
    "tel": "086-281-6626",
    "url": "https://rihabirien.jp/",
    "pref": "岡山県",
    "city": "岡山市南区",
    "category": "rouken",
    "serviceType": "介護老人保健施設",
    "capacity": 99,
    "openDays": [],
    "openDaysNote": ""
  },
  {
    "id": "3352580017",
    "name": "老人保健施設　ゆめの里",
    "kana": "ロウジンホケンシセツ　ユメノサト",
    "address": "岡山県岡山市南区川張１２６７",
    "lat": 34.5450012,
    "lng": 133.8605652,
    "tel": "086-362-0744",
    "url": "http://yumeno-sato.com/",
    "pref": "岡山県",
    "city": "岡山市南区",
    "category": "rouken",
    "serviceType": "介護老人保健施設",
    "capacity": 107,
    "openDays": [],
    "openDaysNote": ""
  },
  {
    "id": "3350180000",
    "name": "老人保健施設　若宮老人保健センター",
    "kana": "ロウジンホケンシセツ　ワカミヤロウジンホケンセンター",
    "address": "岡山県岡山市南区箕島３５６６－１",
    "lat": 34.6162142,
    "lng": 133.8359815,
    "tel": "086-281-0861",
    "url": "http://junfuku.jp/",
    "pref": "岡山県",
    "city": "岡山市南区",
    "category": "rouken",
    "serviceType": "介護老人保健施設",
    "capacity": 100,
    "openDays": [],
    "openDaysNote": ""
  },
  {
    "id": "3350180190",
    "name": "老人保健施設　南岡山ナ－シングホ－ム",
    "kana": "ロウジンホケンシセツ　ミナミオカヤマナーシングホーム",
    "address": "岡山県岡山市南区東畦772-10",
    "lat": 34.6049227,
    "lng": 133.881751,
    "tel": "086-281-2522",
    "url": "http://www.keiyuu-kai.or.jp",
    "pref": "岡山県",
    "city": "岡山市南区",
    "category": "rouken",
    "serviceType": "介護老人保健施設",
    "capacity": 0,
    "openDays": [],
    "openDaysNote": ""
  },
  {
    "id": "3350180026",
    "name": "老人保健施設やすらぎ",
    "kana": "ロウジンホケンシセツ　ヤスラギ",
    "address": "岡山県岡山市南区築港栄町2-13",
    "lat": 34.6075937,
    "lng": 133.9447756,
    "tel": "086-263-6623",
    "url": "http://www.sato-hp.com",
    "pref": "岡山県",
    "city": "岡山市南区",
    "category": "rouken",
    "serviceType": "介護老人保健施設",
    "capacity": 0,
    "openDays": [],
    "openDaysNote": ""
  },
  {
    "id": "3350180034",
    "name": "介護老人保健施設　ハートフルきらめき荘",
    "kana": "カイゴロウジンホケンシセツ　ハートフルキラメキソウ",
    "address": "岡山県岡山市北区楢津305",
    "lat": 34.6800277,
    "lng": 133.8870381,
    "tel": "086-284-1276",
    "url": "https://www.okyama-junshinkai.co.jp",
    "pref": "岡山県",
    "city": "岡山市北区",
    "category": "rouken",
    "serviceType": "介護老人保健施設",
    "capacity": 0,
    "openDays": [],
    "openDaysNote": ""
  },
  {
    "id": "3350180224",
    "name": "介護老人保健施設　葵の園・岡山福渡",
    "kana": "カイゴロウジンホケンシセツ　アオイノソノ・オカヤマフクワタリ",
    "address": "岡山県岡山市北区建部町福渡408-1",
    "lat": 34.869341331705,
    "lng": 133.904999606607,
    "tel": "086-722-3000",
    "url": "http://www.aoikai.jp/fukuwatari/",
    "pref": "岡山県",
    "city": "岡山市北区",
    "category": "rouken",
    "serviceType": "介護老人保健施設",
    "capacity": 0,
    "openDays": [],
    "openDaysNote": ""
  },
  {
    "id": "3350180125",
    "name": "介護老人保健施設　光生リハビリ苑",
    "kana": "カイゴロウジンホケンシセツ　コウセイリハビリエン",
    "address": "岡山県岡山市北区厚生町３丁目８番３５号",
    "lat": 34.6558786,
    "lng": 133.9109362,
    "tel": "086-222-2711",
    "url": "http://www.kousei-hp.or.jp/",
    "pref": "岡山県",
    "city": "岡山市北区",
    "category": "rouken",
    "serviceType": "介護老人保健施設",
    "capacity": 50,
    "openDays": [],
    "openDaysNote": ""
  },
  {
    "id": "3350180174",
    "name": "介護老人保健施設　高松アクティブホーム",
    "kana": "カイゴロウジンホケンシセツ　タカマツアクティブホーム",
    "address": "岡山県岡山市北区立田５８７番地",
    "lat": 34.6843457,
    "lng": 133.8298678,
    "tel": "086-287-9888",
    "url": "aku_k@ikenaga-group.ne.jp",
    "pref": "岡山県",
    "city": "岡山市北区",
    "category": "rouken",
    "serviceType": "介護老人保健施設",
    "capacity": 0,
    "openDays": [],
    "openDaysNote": ""
  },
  {
    "id": "3350180208",
    "name": "介護老人保健施設　備中荘",
    "kana": "カイゴロウジンホケンシセツ　ビッチュウソウ",
    "address": "岡山県岡山市北区高松原古才６００－５",
    "lat": 34.6832736,
    "lng": 133.8258458,
    "tel": "086-287-3332",
    "url": "https://www.okayamasaiseikai.or.jp/facilities/bicchuso/",
    "pref": "岡山県",
    "city": "岡山市北区",
    "category": "rouken",
    "serviceType": "介護老人保健施設",
    "capacity": 60,
    "openDays": [],
    "openDaysNote": ""
  },
  {
    "id": "3350180182",
    "name": "介護老人保健施設たちばな苑",
    "kana": "カイゴロウジンホケンシセツタチバナエン",
    "address": "岡山県岡山市北区国体町3番12号",
    "lat": 34.6734989,
    "lng": 133.9204429,
    "tel": "086-252-2741",
    "url": "http://www.okasaisei-life.jp/",
    "pref": "岡山県",
    "city": "岡山市北区",
    "category": "rouken",
    "serviceType": "介護老人保健施設",
    "capacity": 0,
    "openDays": [],
    "openDaysNote": ""
  },
  {
    "id": "3350180166",
    "name": "介護老人保健施設なでしこ苑",
    "kana": "カイゴロウジンホケンシセツナデシコエン",
    "address": "岡山県岡山市北区国体町３番１２号",
    "lat": 34.6734989,
    "lng": 133.9204429,
    "tel": "086-252-2860",
    "url": "http://www.okasaisei-life.jp",
    "pref": "岡山県",
    "city": "岡山市北区",
    "category": "rouken",
    "serviceType": "介護老人保健施設",
    "capacity": 0,
    "openDays": [],
    "openDaysNote": ""
  },
  {
    "id": "3350180240",
    "name": "介護老人保健施設ハートフルかがやき荘",
    "kana": "介護老人保健施設ハートフルカガヤキ荘",
    "address": "岡山県岡山市北区楢津500-5",
    "lat": 34.6764612,
    "lng": 133.8779088,
    "tel": "086-230-7677",
    "url": "http://www.okayama-junshinkai.co.jp/",
    "pref": "岡山県",
    "city": "岡山市北区",
    "category": "rouken",
    "serviceType": "介護老人保健施設",
    "capacity": 0,
    "openDays": [],
    "openDaysNote": ""
  },
  {
    "id": "3350180158",
    "name": "老人保健施設　マスカット苑",
    "kana": "ロウジンホケンシセツ　マスカットエン",
    "address": "岡山県岡山市北区菅野4281-1",
    "lat": 34.7420001,
    "lng": 133.8864085,
    "tel": "086-294-1123",
    "url": "http://isto.or.jp/",
    "pref": "岡山県",
    "city": "岡山市北区",
    "category": "rouken",
    "serviceType": "介護老人保健施設",
    "capacity": 0,
    "openDays": [],
    "openDaysNote": ""
  },
  {
    "id": "3350180042",
    "name": "老人保健施設　岡山リハビリテーションホーム",
    "kana": "ロウジンホケンシセツ　オカヤマリハビリテーションホーム",
    "address": "岡山県岡山市北区谷万成1-6-5",
    "lat": 34.6762396,
    "lng": 133.8983536,
    "tel": "086-252-2261",
    "url": "https://mannari.or.jp/",
    "pref": "岡山県",
    "city": "岡山市北区",
    "category": "rouken",
    "serviceType": "介護老人保健施設",
    "capacity": 85,
    "openDays": [],
    "openDaysNote": ""
  },
  {
    "id": "3350180117",
    "name": "老人保健施設ももたろうリハビリセンター",
    "kana": "ロウジンホケンシセツモモタロウリハビリセンター",
    "address": "岡山県岡山市北区下足守1852-1",
    "lat": 34.7171701,
    "lng": 133.8022169,
    "tel": "086-295-9111",
    "url": "http://sdada.juno.bindsite.jp/index.html",
    "pref": "岡山県",
    "city": "岡山市北区",
    "category": "rouken",
    "serviceType": "介護老人保健施設",
    "capacity": 0,
    "openDays": [],
    "openDaysNote": ""
  },
  {
    "id": "3350180216",
    "name": "老人保健施設ももたろうリハビリセンター（ユニット）",
    "kana": "ロウジンホケンシセツモモタロウリハビリセンター（ユニット）",
    "address": "岡山県岡山市北区下足守1852-1",
    "lat": 34.7171701,
    "lng": 133.8022169,
    "tel": "086-295-9111",
    "url": "http://sdada.juno.bindsite.jp/pg20.html",
    "pref": "岡山県",
    "city": "岡山市北区",
    "category": "rouken",
    "serviceType": "介護老人保健施設",
    "capacity": 0,
    "openDays": [],
    "openDaysNote": ""
  },
  {
    "id": "3350580068",
    "name": "きのこ老人保健施設",
    "kana": "キノコロウジンホケンシセツ",
    "address": "岡山県笠岡市東大戸2912-3",
    "lat": 34.5532206,
    "lng": 133.5030764,
    "tel": "0865-63-0700",
    "url": "http://www.kinoko-group.jp/",
    "pref": "岡山県",
    "city": "笠岡市",
    "category": "rouken",
    "serviceType": "介護老人保健施設",
    "capacity": 0,
    "openDays": [],
    "openDaysNote": ""
  },
  {
    "id": "3350580035",
    "name": "こうのしま介護老人保健施設",
    "kana": "コウノシマカイゴロウジンホケンシセツ",
    "address": "岡山県笠岡市神島３６２８－３",
    "lat": 34.4717255,
    "lng": 133.5091422,
    "tel": "0865-67-6112",
    "url": "http://www.tenjinkai.org/",
    "pref": "岡山県",
    "city": "笠岡市",
    "category": "rouken",
    "serviceType": "介護老人保健施設",
    "capacity": 0,
    "openDays": [],
    "openDaysNote": ""
  },
  {
    "id": "3350580050",
    "name": "介護老人保健施設　瀬戸いこい苑",
    "kana": "カイゴロウジンホケンシセツ　セトイコイエン",
    "address": "岡山県笠岡市横島1944-1",
    "lat": 34.4785581,
    "lng": 133.5198466,
    "tel": "0865-67-0770",
    "url": "http://www.kasaoka-d-hp.or.jp",
    "pref": "岡山県",
    "city": "笠岡市",
    "category": "rouken",
    "serviceType": "介護老人保健施設",
    "capacity": 62,
    "openDays": [],
    "openDaysNote": ""
  },
  {
    "id": "3350580019",
    "name": "天神介護老人保健施設",
    "kana": "テンジンカイゴロウジンホケンシセツ",
    "address": "岡山県笠岡市神島５３００－２",
    "lat": 34.4706812,
    "lng": 133.5258075,
    "tel": "0865-67-5500",
    "url": "http://www.tenjinkai.org/",
    "pref": "岡山県",
    "city": "笠岡市",
    "category": "rouken",
    "serviceType": "介護老人保健施設",
    "capacity": 100,
    "openDays": [],
    "openDaysNote": ""
  },
  {
    "id": "3350580027",
    "name": "老人保健施設　笠岡すみれ苑",
    "kana": "ロウジンホケンシセツ　カサオカスミレエン",
    "address": "岡山県笠岡市笠岡1080－1",
    "lat": 34.5092046,
    "lng": 133.5190401,
    "tel": "0865-63-3101",
    "url": "http://spx.or.jp/",
    "pref": "岡山県",
    "city": "笠岡市",
    "category": "rouken",
    "serviceType": "介護老人保健施設",
    "capacity": 100,
    "openDays": [],
    "openDaysNote": ""
  },
  {
    "id": "3353980000",
    "name": "吉備高原総合福祉センター　介護老人保健施設つつじ苑",
    "kana": "キビコウゲンソウゴウフクシセンター　カイゴロウジンホケンシセツツツジエン",
    "address": "岡山県加賀郡吉備中央町吉川7531",
    "lat": 34.8443465,
    "lng": 133.7630611,
    "tel": "0866-56-9711",
    "url": "http://momotarokai.com",
    "pref": "岡山県",
    "city": "吉備中央町",
    "category": "rouken",
    "serviceType": "介護老人保健施設",
    "capacity": 52,
    "openDays": [],
    "openDaysNote": ""
  },
  {
    "id": "3353180007",
    "name": "老人保健施設ルミエール",
    "kana": "ロウジンホケンシセツルミエール",
    "address": "岡山県加賀郡吉備中央町宮地３３３６－８",
    "lat": 34.7731167,
    "lng": 133.6810222,
    "tel": "0866-55-9111",
    "url": "",
    "pref": "岡山県",
    "city": "吉備中央町",
    "category": "rouken",
    "serviceType": "介護老人保健施設",
    "capacity": 0,
    "openDays": [],
    "openDaysNote": ""
  },
  {
    "id": "3353580024",
    "name": "一般財団法人　共愛会　老人保健施設　虹",
    "kana": "イッパンザイダンホウジン　キョウアイカイ　ロウジンホケンシセツ　ニジ",
    "address": "岡山県苫田郡鏡野町古川1406",
    "lat": 35.0723187,
    "lng": 133.9360739,
    "tel": "0868-54-3250",
    "url": "http://www.kyouaikai.or.jp",
    "pref": "岡山県",
    "city": "鏡野町",
    "category": "rouken",
    "serviceType": "介護老人保健施設",
    "capacity": 0,
    "openDays": [],
    "openDaysNote": ""
  },
  {
    "id": "3350480012",
    "name": "岡山赤十字老人保健施設　玉野マリンホーム",
    "kana": "オカヤマセキジュウジロウジンホケンシセツ　タマノマリンホーム",
    "address": "岡山県玉野市築港5丁目16番25号",
    "lat": 34.4985459,
    "lng": 133.9587556,
    "tel": "0863-31-5295",
    "url": "https://www.okaseki-tamano.jrc.or.jp/",
    "pref": "岡山県",
    "city": "玉野市",
    "category": "rouken",
    "serviceType": "介護老人保健施設",
    "capacity": 0,
    "openDays": [],
    "openDaysNote": ""
  },
  {
    "id": "3350480004",
    "name": "老人保健施設　老人保健センター　コスモス",
    "kana": "ロウジンホケンシセツ　ロウジンホケンセンター　コスモス",
    "address": "岡山県玉野市上山坂2016番地1",
    "lat": 34.5669254,
    "lng": 134.00646,
    "tel": "0863-66-5200",
    "url": "http://nichirinkai.or.jp/",
    "pref": "岡山県",
    "city": "玉野市",
    "category": "rouken",
    "serviceType": "介護老人保健施設",
    "capacity": 0,
    "openDays": [],
    "openDaysNote": ""
  },
  {
    "id": "3353280013",
    "name": "高梁市国民健康保険成羽病院附属介護老人保健施設ひだまり苑",
    "kana": "タカハシコクミンケンコウホケンナリワビョウインフゾクカイゴロウジンホケンシセツヒダマリエン",
    "address": "岡山県高梁市川上町地頭２３３７－１",
    "lat": 34.732959,
    "lng": 133.4797111,
    "tel": "0866-48-4800",
    "url": "",
    "pref": "岡山県",
    "city": "高梁市",
    "category": "rouken",
    "serviceType": "介護老人保健施設",
    "capacity": 0,
    "openDays": [],
    "openDaysNote": ""
  },
  {
    "id": "3350980003",
    "name": "老人保健施設ゆうゆう村",
    "kana": "ロウジンホケンシセツユウユウムラ",
    "address": "岡山県高梁市東町１８６６番地の３",
    "lat": 34.7922114,
    "lng": 133.6153353,
    "tel": "0866-22-0666",
    "url": "http://seiryoukai.jp/yuyu/index.html",
    "pref": "岡山県",
    "city": "高梁市",
    "category": "rouken",
    "serviceType": "介護老人保健施設",
    "capacity": 0,
    "openDays": [],
    "openDaysNote": ""
  },
  {
    "id": "3353680022",
    "name": "さとう記念病院老人保健施設",
    "kana": "サトウキネンビョウインロウジンホケンシセツ",
    "address": "岡山県勝田郡勝央町黒土45",
    "lat": 35.0283719,
    "lng": 134.1274513,
    "tel": "0868-38-6688",
    "url": "http://www.satoukinen.or.jp/",
    "pref": "岡山県",
    "city": "勝央町",
    "category": "rouken",
    "serviceType": "介護老人保健施設",
    "capacity": 0,
    "openDays": [],
    "openDaysNote": ""
  },
  {
    "id": "3353680030",
    "name": "老人保健施設勝央苑",
    "kana": "ロウジンホケンシセツショウオウエン",
    "address": "岡山県勝田郡勝央町平242-1",
    "lat": 35.0433176,
    "lng": 134.116052,
    "tel": "0868-38-1880",
    "url": "http://www.bloominglife.or.jp/",
    "pref": "岡山県",
    "city": "勝央町",
    "category": "rouken",
    "serviceType": "介護老人保健施設",
    "capacity": 0,
    "openDays": [],
    "openDaysNote": ""
  },
  {
    "id": "3351080001",
    "name": "介護老人保健施設くろかみ",
    "kana": "カイゴロウジンホケンシセツクロカミ",
    "address": "岡山県新見市高尾２３０６－５",
    "lat": 34.9936833,
    "lng": 133.4470879,
    "tel": "0867-72-9603",
    "url": "http://www.kurokami.jp/",
    "pref": "岡山県",
    "city": "新見市",
    "category": "rouken",
    "serviceType": "介護老人保健施設",
    "capacity": 100,
    "openDays": [],
    "openDaysNote": ""
  },
  {
    "id": "3351080019",
    "name": "哲多町介護老人保健施設すずらん",
    "kana": "テッタチョウカイゴロウジンホケンシセツスズラン",
    "address": "岡山県新見市哲多町本郷１２２３－３",
    "lat": 34.9365762,
    "lng": 133.4427853,
    "tel": "0867-96-2080",
    "url": "http://www.miic.ac.jp",
    "pref": "岡山県",
    "city": "新見市",
    "category": "rouken",
    "serviceType": "介護老人保健施設",
    "capacity": 0,
    "openDays": [],
    "openDaysNote": ""
  },
  {
    "id": "3353480035",
    "name": "介護老人保健施設ゆうあい",
    "kana": "カイゴロウジンホケンシセツユウアイ",
    "address": "岡山県真庭市勝山１０７０",
    "lat": 35.0842948,
    "lng": 133.6975568,
    "tel": "0867-44-7500",
    "url": "https://www.maniwa.tch.or.jp/rokenyuai/",
    "pref": "岡山県",
    "city": "真庭市",
    "category": "rouken",
    "serviceType": "介護老人保健施設",
    "capacity": 0,
    "openDays": [],
    "openDaysNote": ""
  },
  {
    "id": "3353480076",
    "name": "老人保健施設　信愛苑",
    "kana": "ロウジンホケンシセツ　シンアイエン",
    "address": "岡山県真庭市下河内314-2",
    "lat": 35.0360796,
    "lng": 133.7826935,
    "tel": "867552121",
    "url": "",
    "pref": "岡山県",
    "city": "真庭市",
    "category": "rouken",
    "serviceType": "介護老人保健施設",
    "capacity": null,
    "openDays": [],
    "openDaysNote": ""
  },
  {
    "id": "3353480027",
    "name": "老人保健施設　白梅の丘",
    "kana": "ロウジンホケンシセツ　シラウメノオカ",
    "address": "岡山県真庭市上市瀬３６８番地",
    "lat": 35.0288787,
    "lng": 133.7449457,
    "tel": "0867-52-5088",
    "url": "http://shiraume-hill.jp/",
    "pref": "岡山県",
    "city": "真庭市",
    "category": "rouken",
    "serviceType": "介護老人保健施設",
    "capacity": 50,
    "openDays": [],
    "openDaysNote": ""
  },
  {
    "id": "3352480002",
    "name": "介護老人保健施設　邑久ナーシングホーム",
    "kana": "カイゴロウジンンホケンシセツ　オクナーシングホーム",
    "address": "岡山県瀬戸内市邑久町箕輪266-1",
    "lat": 34.6841578,
    "lng": 134.0909539,
    "tel": "0869-22-9500",
    "url": "https://www.keiyuu-kai.or.jp/facility/101/",
    "pref": "岡山県",
    "city": "瀬戸内市",
    "category": "rouken",
    "serviceType": "介護老人保健施設",
    "capacity": 0,
    "openDays": [],
    "openDaysNote": ""
  },
  {
    "id": "3352280006",
    "name": "老人保健施設ひかり苑",
    "kana": "ロウジンホケンシセツヒカリエン",
    "address": "岡山県赤磐市長尾161",
    "lat": 34.7336428,
    "lng": 134.0174435,
    "tel": "086-956-0815",
    "url": "http://www.akaiwa-hikarien.jp",
    "pref": "岡山県",
    "city": "赤磐市",
    "category": "rouken",
    "serviceType": "介護老人保健施設",
    "capacity": 0,
    "openDays": [],
    "openDaysNote": ""
  },
  {
    "id": "3352780062",
    "name": "医療法人社団同仁会　ケアリゾート金光",
    "kana": "イリョウホウジンシャダンドウジンカイ　ケアリゾートコンコウ",
    "address": "岡山県浅口市金光町占見新田７４０番地",
    "lat": 34.5421424,
    "lng": 133.6265361,
    "tel": "0865-42-3390",
    "url": "",
    "pref": "岡山県",
    "city": "浅口市",
    "category": "rouken",
    "serviceType": "介護老人保健施設",
    "capacity": 0,
    "openDays": [],
    "openDaysNote": ""
  },
  {
    "id": "3352780047",
    "name": "介護療養型老人保健施設八紘会",
    "kana": "カイゴリョウヨウガタロウジンホケンシセツハッコウカイ",
    "address": "岡山県浅口市鴨方町鴨方1081-1",
    "lat": 34.5410738869393,
    "lng": 133.587520421426,
    "tel": "0865-44-3147",
    "url": "http://uedakinen.byoinnavi.jp/pc/",
    "pref": "岡山県",
    "city": "浅口市",
    "category": "rouken",
    "serviceType": "介護老人保健施設",
    "capacity": 40,
    "openDays": [],
    "openDaysNote": ""
  },
  {
    "id": "3352780039",
    "name": "介護老人保健施設いるかの家リハビリテ－ションセンター",
    "kana": "カイゴロウジンホケンシセツイルカノイエリハビリテーションセンター",
    "address": "岡山県浅口市寄島町１６０８９－１６",
    "lat": 34.4762926,
    "lng": 133.5865854,
    "tel": "0865-54-2001",
    "url": "http://www.iruka.or.jp/",
    "pref": "岡山県",
    "city": "浅口市",
    "category": "rouken",
    "serviceType": "介護老人保健施設",
    "capacity": 50,
    "openDays": [],
    "openDaysNote": ""
  },
  {
    "id": "3372701106",
    "name": "介護老人保健施設いるかの家リハビリテーションセンター（ユニット型）",
    "kana": "カイゴロウジンホケンシセツイルカノイエリハビリテーションセンター（ユニットガタ）",
    "address": "浅口市寄島町１６０８９－１６",
    "lat": 34.4762926,
    "lng": 133.5865854,
    "tel": "0865-54-2001",
    "url": "http://iruka.or.jp/",
    "pref": "岡山県",
    "city": "浅口市",
    "category": "rouken",
    "serviceType": "介護老人保健施設",
    "capacity": 30,
    "openDays": [],
    "openDaysNote": ""
  },
  {
    "id": "3352780021",
    "name": "介護老人保健施設サンパレス桃花",
    "kana": "カイゴロウジンホケンシセツサンパレストウカ",
    "address": "岡山県浅口市鴨方町六条院中1329",
    "lat": 34.5214482,
    "lng": 133.5784305,
    "tel": "0865-44-8111",
    "url": "https://www.sunpalacetouka2.com/.",
    "pref": "岡山県",
    "city": "浅口市",
    "category": "rouken",
    "serviceType": "介護老人保健施設",
    "capacity": 0,
    "openDays": [],
    "openDaysNote": ""
  },
  {
    "id": "3350280024",
    "name": "介護老人保健施設　　福寿荘",
    "kana": "カイゴロウジンホケンシセツ　　フクジュソウ",
    "address": "岡山県倉敷市中島831",
    "lat": 34.5789261294808,
    "lng": 133.740141326459,
    "tel": "086-466-0119",
    "url": "http://www.seiwakai-net.or.jp/fukuju/index.html",
    "pref": "岡山県",
    "city": "倉敷市",
    "category": "rouken",
    "serviceType": "介護老人保健施設",
    "capacity": 150,
    "openDays": [],
    "openDaysNote": ""
  },
  {
    "id": "3350280123",
    "name": "介護老人保健施設　グリーンピース",
    "kana": "カイゴロウジンホケンシセツ　グリーンピース",
    "address": "岡山県倉敷市新田２７９１－４",
    "lat": 34.5758337,
    "lng": 133.7770174,
    "tel": "086-434-0008",
    "url": "http://www.mutu.jp/",
    "pref": "岡山県",
    "city": "倉敷市",
    "category": "rouken",
    "serviceType": "介護老人保健施設",
    "capacity": 70,
    "openDays": [],
    "openDaysNote": ""
  },
  {
    "id": "3350280065",
    "name": "介護老人保健施設　亀龍園",
    "kana": "カイゴロウジンホケンシセツ　キリュウエン",
    "address": "岡山県倉敷市亀山６７９－１",
    "lat": 34.5884163,
    "lng": 133.8022373,
    "tel": "086-429-0001",
    "url": "http://www.touzankai.or.jp",
    "pref": "岡山県",
    "city": "倉敷市",
    "category": "rouken",
    "serviceType": "介護老人保健施設",
    "capacity": 100,
    "openDays": [],
    "openDaysNote": ""
  },
  {
    "id": "3350280081",
    "name": "介護老人保健施設　倉敷あいあいえん",
    "kana": "カイゴロウジンホケンシセツ　クラシキアイアイエン",
    "address": "岡山県倉敷市串田６６０番地",
    "lat": 34.5433056,
    "lng": 133.8129079,
    "tel": "086-470-2001",
    "url": "http://www.warakukai.com/aiaien01.htm",
    "pref": "岡山県",
    "city": "倉敷市",
    "category": "rouken",
    "serviceType": "介護老人保健施設",
    "capacity": 0,
    "openDays": [],
    "openDaysNote": ""
  },
  {
    "id": "3350280115",
    "name": "介護老人保健施設　倉敷シルバーナーシングホーム",
    "kana": "カイゴロウジンホケンシセツクラシキシルバーナーシングホーム",
    "address": "岡山県倉敷市児島柳田町　355-1",
    "lat": 34.4948907,
    "lng": 133.7894042,
    "tel": "086-473-8810",
    "url": "http://www.silver21.org",
    "pref": "岡山県",
    "city": "倉敷市",
    "category": "rouken",
    "serviceType": "介護老人保健施設",
    "capacity": 50,
    "openDays": [],
    "openDaysNote": ""
  },
  {
    "id": "3350280149",
    "name": "介護老人保健施設　倉敷シルバーナーシングホーム（ユニット型）",
    "kana": "カイゴロウジンホケンシセツクラシキシルバーナーシングホーム（ユニットガタ）",
    "address": "岡山県倉敷市児島柳田町355-1",
    "lat": 34.4948907,
    "lng": 133.7894042,
    "tel": "086-473-8810",
    "url": "http://www.silver21.or.jp/",
    "pref": "岡山県",
    "city": "倉敷市",
    "category": "rouken",
    "serviceType": "介護老人保健施設",
    "capacity": 20,
    "openDays": [],
    "openDaysNote": ""
  },
  {
    "id": "3350280107",
    "name": "介護老人保健施設　和光園",
    "kana": "カイゴロウジンホケンシセツ　ワコウエン",
    "address": "岡山県倉敷市東塚５丁目４番５０号",
    "lat": 34.5311476,
    "lng": 133.7633279,
    "tel": "086-455-5112",
    "url": "http://www.wakokai.com",
    "pref": "岡山県",
    "city": "倉敷市",
    "category": "rouken",
    "serviceType": "介護老人保健施設",
    "capacity": 0,
    "openDays": [],
    "openDaysNote": ""
  },
  {
    "id": "3350280040",
    "name": "介護老人保健施設オアシスＫ－３",
    "kana": "カイゴロウジンホケンシセツオアシスケースリー",
    "address": "岡山県倉敷市児島阿津2丁目７－５３",
    "lat": 34.451304694039,
    "lng": 133.805944217197,
    "tel": "086-472-0123",
    "url": "https://kyouaikai.jp/page/geriatric",
    "pref": "岡山県",
    "city": "倉敷市",
    "category": "rouken",
    "serviceType": "介護老人保健施設",
    "capacity": 100,
    "openDays": [],
    "openDaysNote": ""
  },
  {
    "id": "3350280099",
    "name": "介護老人保健施設サンライフ倉敷",
    "kana": "カイゴロウジンホケンシセツサンライフクラシキ",
    "address": "岡山県倉敷市下庄700-1",
    "lat": 34.6368004,
    "lng": 133.8238527,
    "tel": "086-462-7111",
    "url": "http://www.sun-toshi-life.or.jp/",
    "pref": "岡山県",
    "city": "倉敷市",
    "category": "rouken",
    "serviceType": "介護老人保健施設",
    "capacity": 100,
    "openDays": [],
    "openDaysNote": ""
  },
  {
    "id": "3350280016",
    "name": "介護老人保健施設ニューエルダーセンター",
    "kana": "カイゴロウジンホケンシセツニューエルダーセンター",
    "address": "岡山県倉敷市玉島１３３４－１",
    "lat": 34.5485417,
    "lng": 133.6824405,
    "tel": "086-526-6111",
    "url": "htt㎰://www.newelder.Jp",
    "pref": "岡山県",
    "city": "倉敷市",
    "category": "rouken",
    "serviceType": "介護老人保健施設",
    "capacity": 150,
    "openDays": [],
    "openDaysNote": ""
  },
  {
    "id": "3350280057",
    "name": "玉島中央老健施設秀明荘",
    "kana": "タマシマチュウオウロウケンシセツシュウメイソウ",
    "address": "岡山県倉敷市玉島中央町１－４－８",
    "lat": 34.5466113,
    "lng": 133.6729721,
    "tel": "086-523-0111",
    "url": "http://www.tamashima-ch.or.jp/shumei/",
    "pref": "岡山県",
    "city": "倉敷市",
    "category": "rouken",
    "serviceType": "介護老人保健施設",
    "capacity": 89,
    "openDays": [],
    "openDaysNote": ""
  },
  {
    "id": "3350280008",
    "name": "倉敷老健",
    "kana": "クラシキロウケン",
    "address": "岡山県倉敷市老松町4丁目3-38",
    "lat": 34.5930155,
    "lng": 133.7616762,
    "tel": "086-427-1111",
    "url": "http://www.heisei.or.jp/",
    "pref": "岡山県",
    "city": "倉敷市",
    "category": "rouken",
    "serviceType": "介護老人保健施設",
    "capacity": 0,
    "openDays": [],
    "openDaysNote": ""
  },
  {
    "id": "3350280131",
    "name": "老健いこいの家",
    "kana": "ロウケンイコイノイエ",
    "address": "倉敷市児島小川9-1-46",
    "lat": 34.4889186596747,
    "lng": 133.800380215869,
    "tel": "086-474-3320",
    "url": "http://tajimanaika.com/06_roukenikoinoie.htm",
    "pref": "岡山県",
    "city": "倉敷市",
    "category": "rouken",
    "serviceType": "介護老人保健施設",
    "capacity": 29,
    "openDays": [],
    "openDaysNote": ""
  },
  {
    "id": "3350280032",
    "name": "老人保健施設　倉敷藤戸荘",
    "kana": "ロウジンホケンシセツ　クラシキフジトソウ",
    "address": "岡山県倉敷市藤戸町藤戸1580",
    "lat": 34.5580231,
    "lng": 133.8227791,
    "tel": "086-428-8523",
    "url": "http://www.fukujyu.or.jp",
    "pref": "岡山県",
    "city": "倉敷市",
    "category": "rouken",
    "serviceType": "介護老人保健施設",
    "capacity": 0,
    "openDays": [],
    "openDaysNote": ""
  },
  {
    "id": "3350280073",
    "name": "老人保健施設　老健あかね",
    "kana": "ロウジンホケンシセツロウケンアカネ",
    "address": "岡山県倉敷市水島東千鳥町１番６０号",
    "lat": 34.5286250449188,
    "lng": 133.740130374869,
    "tel": "086-446-6541",
    "url": "http://coopreha.jp/",
    "pref": "岡山県",
    "city": "倉敷市",
    "category": "rouken",
    "serviceType": "介護老人保健施設",
    "capacity": null,
    "openDays": [],
    "openDaysNote": ""
  },
  {
    "id": "3350880013",
    "name": "介護老人保健施設　ナーシングホーム大樹",
    "kana": "カイゴロウジンホケンシセツ　ナーシングホームタイジュ",
    "address": "岡山県総社市黒尾232",
    "lat": 34.6953219,
    "lng": 133.7712835,
    "tel": "0866-90-1200",
    "url": "http://www.koudou-kai.or.jp",
    "pref": "岡山県",
    "city": "総社市",
    "category": "rouken",
    "serviceType": "介護老人保健施設",
    "capacity": 100,
    "openDays": [],
    "openDaysNote": ""
  },
  {
    "id": "3350880005",
    "name": "老人保健施設泉リハビリセンター",
    "kana": "ロウジンホケンシセツイズミリハビリセンター",
    "address": "岡山県総社市小寺995番地の１",
    "lat": 34.6878698,
    "lng": 133.7464859,
    "tel": "0866-94-5000",
    "url": "http://kyk-mc.or.jp/",
    "pref": "岡山県",
    "city": "総社市",
    "category": "rouken",
    "serviceType": "介護老人保健施設",
    "capacity": 0,
    "openDays": [],
    "openDaysNote": ""
  },
  {
    "id": "3350380006",
    "name": "介護老人保健施設　エスポアール城西",
    "kana": "カイゴロウジンホケンシセツ　エスポアールジョウサイ",
    "address": "岡山県津山市田町151－5－1",
    "lat": 35.0637458939524,
    "lng": 133.995893067723,
    "tel": "0868-24-5555",
    "url": "http://tokufuu.or.jp/jyousai",
    "pref": "岡山県",
    "city": "津山市",
    "category": "rouken",
    "serviceType": "介護老人保健施設",
    "capacity": 0,
    "openDays": [],
    "openDaysNote": ""
  },
  {
    "id": "3353680014",
    "name": "介護老人保健施設　おとなの学校岡山校",
    "kana": "カイゴロウジンホケンシセツ　オトナノガッコウオカヤマコウ",
    "address": "岡山県津山市日本原３５２",
    "lat": 35.11113,
    "lng": 134.1321513,
    "tel": "0868-36-3390",
    "url": "http://www.nihonbara.com",
    "pref": "岡山県",
    "city": "津山市",
    "category": "rouken",
    "serviceType": "介護老人保健施設",
    "capacity": 35,
    "openDays": [],
    "openDaysNote": ""
  },
  {
    "id": "3350380022",
    "name": "介護老人保健施設　津山ナーシングホーム",
    "kana": "カイゴロウジンホケンシセツ　ツヤマナーシングホーム",
    "address": "岡山県津山市野介代1656-1",
    "lat": 35.0781487,
    "lng": 134.036109,
    "tel": "0868-31-7111",
    "url": "http://www.nihonbara.or.jp/",
    "pref": "岡山県",
    "city": "津山市",
    "category": "rouken",
    "serviceType": "介護老人保健施設",
    "capacity": 0,
    "openDays": [],
    "openDaysNote": ""
  },
  {
    "id": "3350380030",
    "name": "介護老人保健施設ケアガーデン津山",
    "kana": "カイゴロウジンホケンシセツケアガーデンツヤマ",
    "address": "岡山県津山市河辺３３２－１",
    "lat": 35.0614038,
    "lng": 134.0522969,
    "tel": "0868-21-7711",
    "url": "http://www.ranwakai.or.jp",
    "pref": "岡山県",
    "city": "津山市",
    "category": "rouken",
    "serviceType": "介護老人保健施設",
    "capacity": 0,
    "openDays": [],
    "openDaysNote": ""
  },
  {
    "id": "3350380014",
    "name": "老人保健施設　のぞみ苑",
    "kana": "ロウジンホケンシセツ　ノゾミエン",
    "address": "岡山県津山市川崎554-5",
    "lat": 35.0626473938936,
    "lng": 134.025129229964,
    "tel": "0868-26-8877",
    "url": "http://www.toukou.or.jp/nozomi.htm",
    "pref": "岡山県",
    "city": "津山市",
    "category": "rouken",
    "serviceType": "介護老人保健施設",
    "capacity": 0,
    "openDays": [],
    "openDaysNote": ""
  },
  {
    "id": "3351180017",
    "name": "介護老人保健施設　備前閑谷苑",
    "kana": "カイゴロウジンホケンシセツ　ビゼンシズタニエン",
    "address": "岡山県備前市木谷217-1",
    "lat": 34.7627268,
    "lng": 134.2221638,
    "tel": "0869-67-2331",
    "url": "http://www.shizutanikai.com/",
    "pref": "岡山県",
    "city": "備前市",
    "category": "rouken",
    "serviceType": "介護老人保健施設",
    "capacity": 97,
    "openDays": [],
    "openDaysNote": ""
  },
  {
    "id": "3351180025",
    "name": "備前市介護老人保健施設備前さつき苑",
    "kana": "ビゼンシカイゴロウジンホケンシセツビゼンサツキエン",
    "address": "岡山県備前市伊部２２３１－１",
    "lat": 34.7395731,
    "lng": 134.1552187,
    "tel": "0869-63-9300",
    "url": "http://www.city.bizen.okayama.jp/shimin/shisetsu/bizenhospital/satsukien/satsukien.jsp",
    "pref": "岡山県",
    "city": "備前市",
    "category": "rouken",
    "serviceType": "介護老人保健施設",
    "capacity": 80,
    "openDays": [],
    "openDaysNote": ""
  },
  {
    "id": "3353880002",
    "name": "医療法人　三憲会　介護老人保健施設　エリシウム柵原",
    "kana": "イリョウホウジンサンケンカイ　カイゴロウジンホケンシセツ　エリシウムヤナハラ",
    "address": "岡山県久米郡美咲町吉ヶ原981-1",
    "lat": 34.9443083,
    "lng": 134.0723292,
    "tel": "0868-62-7565",
    "url": "/",
    "pref": "岡山県",
    "city": "美咲町",
    "category": "rouken",
    "serviceType": "介護老人保健施設",
    "capacity": 0,
    "openDays": [],
    "openDaysNote": ""
  },
  {
    "id": "3353780012",
    "name": "介護老人保健施設　美作リハビリテーションホーム",
    "kana": "カイゴロウジンホケンシセツ　ミマサカリハビリテーションホーム",
    "address": "岡山県美作市豊国原1057-1",
    "lat": 35.0212456,
    "lng": 134.1594732,
    "tel": "0868-72-8330",
    "url": "https://houikai.jp/",
    "pref": "岡山県",
    "city": "美作市",
    "category": "rouken",
    "serviceType": "介護老人保健施設",
    "capacity": 59,
    "openDays": [],
    "openDaysNote": ""
  },
  {
    "id": "3353780004",
    "name": "美作市立作東老人保健施設",
    "kana": "ミマサカシリツサクトウロウジンホケンシセツ",
    "address": "岡山県美作市江見２８０",
    "lat": 35.0133252,
    "lng": 134.2253033,
    "tel": "0868-75-3791",
    "url": "http://www.city.mimasaka.lg.jp",
    "pref": "岡山県",
    "city": "美作市",
    "category": "rouken",
    "serviceType": "介護老人保健施設",
    "capacity": 50,
    "openDays": [],
    "openDaysNote": ""
  },
  {
    "id": "3352880011",
    "name": "介護老人保健施設　リハヴィラ　ポルソ矢掛",
    "kana": "カイゴロウジンホケンシセツ　リハウ゛ィラ　ポルソヤカゲ",
    "address": "岡山県小田郡矢掛町横谷1497番地",
    "lat": 34.6068987595124,
    "lng": 133.62524068745,
    "tel": "0866-84-1200",
    "url": "https://polso-yakage.jimdofree.com/",
    "pref": "岡山県",
    "city": "矢掛町",
    "category": "rouken",
    "serviceType": "介護老人保健施設",
    "capacity": 0,
    "openDays": [],
    "openDaysNote": ""
  },
  {
    "id": "3352880003",
    "name": "矢掛町介護老人保健施設たかつま荘",
    "kana": "ヤカゲチョウカイゴロウジンホケンシセツタカツマソウ",
    "address": "岡山県小田郡矢掛町矢掛２６９５－２",
    "lat": 34.6287819,
    "lng": 133.5871297,
    "tel": "0866-83-1500",
    "url": "",
    "pref": "岡山県",
    "city": "矢掛町",
    "category": "rouken",
    "serviceType": "介護老人保健施設",
    "capacity": 0,
    "openDays": [],
    "openDaysNote": ""
  },
  {
    "id": "3352780013",
    "name": "里庄町介護老人保健施設　里見川荘",
    "kana": "サトショウチョウカイゴロウジンホケンシセツ　サトミガワソウ",
    "address": "岡山県浅口郡里庄町大字里見７３５０番地",
    "lat": 34.5242228,
    "lng": 133.5658816,
    "tel": "0865-64-6111",
    "url": "http://hoseikai.jp//?page_id=1362",
    "pref": "岡山県",
    "city": "里庄町",
    "category": "rouken",
    "serviceType": "介護老人保健施設",
    "capacity": 0,
    "openDays": [],
    "openDaysNote": ""
  },
  {
    "id": "3352380004",
    "name": "老人保健施設エスペランスわけ",
    "kana": "ロウジンホケンシセツエスペランスワケ",
    "address": "岡山県和気郡和気町和気２６５",
    "lat": 34.8029016,
    "lng": 134.1452149,
    "tel": "0869-93-1001",
    "url": "http://esperance.or.jp/",
    "pref": "岡山県",
    "city": "和気町",
    "category": "rouken",
    "serviceType": "介護老人保健施設",
    "capacity": 54,
    "openDays": [],
    "openDaysNote": ""
  }
]