[
  {
    "id": "350910518",
    "name": "介護老人保健施設さいき",
    "kana": "カイゴロウジンホケンシセツサイキ",
    "address": "岩手県一関市東山町松川字卯入道１２１",
    "lat": 38.9615806,
    "lng": 141.2493684,
    "tel": "0191-48-2300",
    "url": "",
    "pref": "岩手県",
    "city": "一関市",
    "category": "rouken",
    "serviceType": "介護老人保健施設",
    "capacity": 0,
    "openDays": [],
    "openDaysNote": ""
  },
  {
    "id": "350980025",
    "name": "介護老人保健施設シルバーヘルス一関",
    "kana": "カイゴロウジンホケンシセツシルバーヘルスイチノセキ",
    "address": "岩手県一関市字沢298番地2",
    "lat": 38.9022282,
    "lng": 141.1517103,
    "tel": "0191-26-3387",
    "url": "",
    "pref": "岩手県",
    "city": "一関市",
    "category": "rouken",
    "serviceType": "介護老人保健施設",
    "capacity": 96,
    "openDays": [],
    "openDaysNote": ""
  },
  {
    "id": "352780035",
    "name": "介護老人保健施設ほうらい",
    "kana": "カイゴロウジンホケンシセツホウライ",
    "address": "岩手県一関市大東町渋民字大洞地５５－１",
    "lat": 39.0209708,
    "lng": 141.3388964,
    "tel": "0191-75-3766",
    "url": "",
    "pref": "岩手県",
    "city": "一関市",
    "category": "rouken",
    "serviceType": "介護老人保健施設",
    "capacity": 80,
    "openDays": [],
    "openDaysNote": ""
  },
  {
    "id": "372700658",
    "name": "介護老人保健施設やまゆり",
    "kana": "カイゴロウジンホケンシセツヤマユリ",
    "address": "岩手県一関市千厩町千厩字宮敷４５番地１",
    "lat": 38.9230737,
    "lng": 141.3394116,
    "tel": "0191-51-3303",
    "url": "http://i3syukai.com",
    "pref": "岩手県",
    "city": "一関市",
    "category": "rouken",
    "serviceType": "介護老人保健施設",
    "capacity": 0,
    "openDays": [],
    "openDaysNote": ""
  },
  {
    "id": "350980017",
    "name": "介護老人保健施設一関ナーシングホーム",
    "kana": "カイゴロウジンホケンシセツイチノセキナーシングホーム",
    "address": "岩手県一関市真柴字吉ケ沢20番地52",
    "lat": 38.8812192,
    "lng": 141.1383177,
    "tel": "0191-26-3536",
    "url": "http://jinaikai-nursing.sakura.ne.jp",
    "pref": "岩手県",
    "city": "一関市",
    "category": "rouken",
    "serviceType": "介護老人保健施設",
    "capacity": null,
    "openDays": [],
    "openDaysNote": ""
  },
  {
    "id": "352680011",
    "name": "介護老人保健施設華松苑",
    "kana": "カイゴロウジンホケンシセツカショウエン",
    "address": "岩手県一関市花泉町涌津字悪法師３８－３１",
    "lat": 38.800511,
    "lng": 141.1909968,
    "tel": "0191-82-3311",
    "url": "",
    "pref": "岩手県",
    "city": "一関市",
    "category": "rouken",
    "serviceType": "介護老人保健施設",
    "capacity": 86,
    "openDays": [],
    "openDaysNote": ""
  },
  {
    "id": "350980033",
    "name": "老健ふじさわ",
    "kana": "ロウケンフジサワ",
    "address": "岩手県一関市藤沢町藤沢字町裏５２番地２",
    "lat": 38.8586455,
    "lng": 141.3499169,
    "tel": "0191-63-2010",
    "url": "",
    "pref": "岩手県",
    "city": "一関市",
    "category": "rouken",
    "serviceType": "介護老人保健施設",
    "capacity": 0,
    "openDays": [],
    "openDaysNote": ""
  },
  {
    "id": "353280019",
    "name": "介護老人保健施設こずやサンブルク",
    "kana": "カイゴロウジンホケンシセツコズヤサンブルク",
    "address": "岩手県二戸郡一戸町小鳥谷字野中２１",
    "lat": 40.1813898,
    "lng": 141.3050573,
    "tel": "0195-34-2006",
    "url": "https://kozuya-sunburg.jp/",
    "pref": "岩手県",
    "city": "一戸町",
    "category": "rouken",
    "serviceType": "介護老人保健施設",
    "capacity": 0,
    "openDays": [],
    "openDaysNote": ""
  },
  {
    "id": "350880019",
    "name": "介護老人保健施設とおの",
    "kana": "カイゴロウジンホケンシセツトオノ",
    "address": "岩手県遠野市松崎町白岩１３－３０－２",
    "lat": 39.3437294,
    "lng": 141.5410386,
    "tel": "0198-60-1121",
    "url": "",
    "pref": "岩手県",
    "city": "遠野市",
    "category": "rouken",
    "serviceType": "介護老人保健施設",
    "capacity": null,
    "openDays": [],
    "openDaysNote": ""
  },
  {
    "id": "352980015",
    "name": "介護老人保健施設やまゆりの里",
    "kana": "カイゴロウジンホケンシセツヤマユリノサト",
    "address": "岩手県遠野市宮守町達曽部27地割20番地11",
    "lat": 39.3805009,
    "lng": 141.3467115,
    "tel": "0198-69-5551",
    "url": "http://www.yamayurinosato.jp",
    "pref": "岩手県",
    "city": "遠野市",
    "category": "rouken",
    "serviceType": "介護老人保健施設",
    "capacity": 0,
    "openDays": [],
    "openDaysNote": ""
  },
  {
    "id": "351280003",
    "name": "介護老人保健施設サンライフえさし",
    "kana": "カイゴロウジンホケンシセツサンライフエサシ",
    "address": "岩手県奥州市江刺岩谷堂字下惣田２９０番地の３",
    "lat": 39.1813143,
    "lng": 141.1820638,
    "tel": "0197-35-8480",
    "url": "https://sg-seijukai.com/sunlife-esashi/",
    "pref": "岩手県",
    "city": "奥州市",
    "category": "rouken",
    "serviceType": "介護老人保健施設",
    "capacity": 0,
    "openDays": [],
    "openDaysNote": ""
  },
  {
    "id": "350480018",
    "name": "介護老人保健施設清和苑",
    "kana": "カイゴロウジンホケンシセツセイワエン",
    "address": "岩手県奥州市水沢東大通り1丁目5番30号",
    "lat": 39.1398322,
    "lng": 141.1480793,
    "tel": "0197-47-5601",
    "url": "https://www.seiwakai-med.or.jp",
    "pref": "岩手県",
    "city": "奥州市",
    "category": "rouken",
    "serviceType": "介護老人保健施設",
    "capacity": 100,
    "openDays": [],
    "openDaysNote": ""
  },
  {
    "id": "350410329",
    "name": "水沢老人保健施設興生園",
    "kana": "ミズサワロウジンホケンシセツコウセイエン",
    "address": "岩手県奥州市水沢佐倉河字慶徳27番地１",
    "lat": 39.1435730588113,
    "lng": 141.1486627136,
    "tel": "0197-25-5450",
    "url": "http://www.rnac.ne.jp/~otomegawahp/",
    "pref": "岩手県",
    "city": "奥州市",
    "category": "rouken",
    "serviceType": "介護老人保健施設",
    "capacity": 0,
    "openDays": [],
    "openDaysNote": ""
  },
  {
    "id": "352580005",
    "name": "老人保健施設ハイム・アザレア",
    "kana": "ロウジンホケンシセツハイム・アザレア",
    "address": "岩手県奥州市前沢古城字丑沢上野１００番地",
    "lat": 39.0707166,
    "lng": 141.1272054,
    "tel": "0197-56-3646",
    "url": "",
    "pref": "岩手県",
    "city": "奥州市",
    "category": "rouken",
    "serviceType": "介護老人保健施設",
    "capacity": 0,
    "openDays": [],
    "openDaysNote": ""
  },
  {
    "id": "350480034",
    "name": "老人保健施設ハイム・ベルク",
    "kana": "ロウジンホケンシセツハイム・ベルク",
    "address": "岩手県奥州市水沢羽田町字水無沢４９６番地",
    "lat": 39.1291379,
    "lng": 141.2112656,
    "tel": "0197-51-2050",
    "url": "http://www.kihp.jp/",
    "pref": "岩手県",
    "city": "奥州市",
    "category": "rouken",
    "serviceType": "介護老人保健施設",
    "capacity": 90,
    "openDays": [],
    "openDaysNote": ""
  },
  {
    "id": "370501009",
    "name": "イーハトーブ介護リハビリセンター",
    "kana": "イーハトーブカイゴリハビリセンター",
    "address": "岩手県花巻市湯口字志戸平１４番１号",
    "lat": 39.4192447,
    "lng": 141.0122322,
    "tel": "0198-38-5300",
    "url": "",
    "pref": "岩手県",
    "city": "花巻市",
    "category": "rouken",
    "serviceType": "介護老人保健施設",
    "capacity": 150,
    "openDays": [],
    "openDaysNote": ""
  },
  {
    "id": "352480008",
    "name": "花巻市老人保健施設華の苑",
    "kana": "ハナマキシロウジンホケンシセツハナヤギノエン",
    "address": "岩手県花巻市東和町安俵6区75番地１",
    "lat": 39.3844338,
    "lng": 141.2242418,
    "tel": "0198-42-4822",
    "url": "",
    "pref": "岩手県",
    "city": "花巻市",
    "category": "rouken",
    "serviceType": "介護老人保健施設",
    "capacity": 0,
    "openDays": [],
    "openDaysNote": ""
  },
  {
    "id": "350580023",
    "name": "介護老人保健施設サンシャイン",
    "kana": "カイゴロウジンホケンシセツサンシャイン",
    "address": "岩手県花巻市本館189",
    "lat": 39.4101981,
    "lng": 141.120105,
    "tel": "0198-22-3412",
    "url": "http://hogaraka.gr.jp/sunshine/",
    "pref": "岩手県",
    "city": "花巻市",
    "category": "rouken",
    "serviceType": "介護老人保健施設",
    "capacity": null,
    "openDays": [],
    "openDaysNote": ""
  },
  {
    "id": "350580015",
    "name": "介護老人保健施設サンホーム",
    "kana": "カイゴロウジンホケンシセツサンホーム",
    "address": "岩手県花巻市東宮野目１３－９５－１",
    "lat": 39.4082178,
    "lng": 141.1230353,
    "tel": "0198-22-5753",
    "url": "http://www.hogaraka.gr.jp",
    "pref": "岩手県",
    "city": "花巻市",
    "category": "rouken",
    "serviceType": "介護老人保健施設",
    "capacity": 0,
    "openDays": [],
    "openDaysNote": ""
  },
  {
    "id": "352380018",
    "name": "介護老人保健施設はやちねの里",
    "kana": "カイゴロウジンホケンシセツハヤチネノサト",
    "address": "岩手県花巻市大迫町大迫４－１９－１",
    "lat": 39.4692866,
    "lng": 141.2870475,
    "tel": "0198-36-1200",
    "url": "https://www.hayachinenosato.jp/",
    "pref": "岩手県",
    "city": "花巻市",
    "category": "rouken",
    "serviceType": "介護老人保健施設",
    "capacity": 85,
    "openDays": [],
    "openDaysNote": ""
  },
  {
    "id": "352380000",
    "name": "介護老人保健施設ゆうゆうの里",
    "kana": "カイゴロウジンホケンシセツユウユウノサト",
    "address": "岩手県花巻市石鳥谷町松林寺第3地割82番地1",
    "lat": 39.4749144,
    "lng": 141.0956698,
    "tel": "0198-46-1000",
    "url": "",
    "pref": "岩手県",
    "city": "花巻市",
    "category": "rouken",
    "serviceType": "介護老人保健施設",
    "capacity": 0,
    "openDays": [],
    "openDaysNote": ""
  },
  {
    "id": "352180004",
    "name": "介護老人保健施設アットホームくずまき",
    "kana": "カイゴロウジンホケンシセツアットホームクズマキ",
    "address": "岩手県岩手郡葛巻町江刈5-155-7",
    "lat": 40.0336446,
    "lng": 141.4614945,
    "tel": "0195-67-1117",
    "url": "http://www.athome-kuzumaki.or.jp",
    "pref": "岩手県",
    "city": "葛巻町",
    "category": "rouken",
    "serviceType": "介護老人保健施設",
    "capacity": null,
    "openDays": [],
    "openDaysNote": ""
  },
  {
    "id": "351180013",
    "name": "介護老人保健施設はまゆりケアセンター",
    "kana": "カイゴロウジンホケンシセツハマユリケアセンター",
    "address": "岩手県釜石市小佐野町4丁目3-7",
    "lat": 39.2617334,
    "lng": 141.8358435,
    "tel": "0193-52-0020",
    "url": "http://www.rakuzankai.jp/",
    "pref": "岩手県",
    "city": "釜石市",
    "category": "rouken",
    "serviceType": "介護老人保健施設",
    "capacity": 0,
    "openDays": [],
    "openDaysNote": ""
  },
  {
    "id": "351180021",
    "name": "介護老人保健施設フレールはまゆり",
    "kana": "カイゴロウジンホケンシセツフレールハマユリ",
    "address": "岩手県釜石市小佐野町３丁目９番１号",
    "lat": 39.2621334,
    "lng": 141.8378711,
    "tel": "0193-52-0026",
    "url": "http://www.rakuzankai.jp/",
    "pref": "岩手県",
    "city": "釜石市",
    "category": "rouken",
    "serviceType": "介護老人保健施設",
    "capacity": 0,
    "openDays": [],
    "openDaysNote": ""
  },
  {
    "id": "352180061",
    "name": "介護老人保健施設ケアホーム川口",
    "kana": "カイゴロウジンホケンシセツケアホームカワグチ",
    "address": "岩手県岩手郡岩手町大字川口第13地割26番地6",
    "lat": 39.9135773,
    "lng": 141.2035142,
    "tel": "0195-65-3151",
    "url": "http://www.nisshindo-g.com/",
    "pref": "岩手県",
    "city": "岩手町",
    "category": "rouken",
    "serviceType": "介護老人保健施設",
    "capacity": 90,
    "openDays": [],
    "openDaysNote": ""
  },
  {
    "id": "353080026",
    "name": "介護老人保健施設ふれんどりー岩泉",
    "kana": "カイゴロウジンホケンシセツフレンドリーイワイズミ",
    "address": "岩手県下閉伊郡岩泉町乙茂字上９番地１２",
    "lat": 39.8400444,
    "lng": 141.8588924,
    "tel": "0194-22-5100",
    "url": "https://www.f-iwaizumi.com/",
    "pref": "岩手県",
    "city": "岩泉町",
    "category": "rouken",
    "serviceType": "介護老人保健施設",
    "capacity": null,
    "openDays": [],
    "openDaysNote": ""
  },
  {
    "id": "350780003",
    "name": "介護老人保健施設リハビリタウンくじ",
    "kana": "カイゴロウジンホケンシセツリハビリタウンクジ",
    "address": "岩手県久慈市旭町第8地割100番地2",
    "lat": 40.2003286,
    "lng": 141.7746293,
    "tel": "0194-53-0056",
    "url": "http://rehabilitown-kuji.jimdofree.com",
    "pref": "岩手県",
    "city": "久慈市",
    "category": "rouken",
    "serviceType": "介護老人保健施設",
    "capacity": 0,
    "openDays": [],
    "openDaysNote": ""
  },
  {
    "id": "350780029",
    "name": "介護老人保健施設リハビリタウンくじユニット館",
    "kana": "カイゴロウジンホケンシセツリハビリタウンクジユニットカン",
    "address": "岩手県久慈市旭町第8地割100番地2",
    "lat": 40.2003012710647,
    "lng": 141.774668996661,
    "tel": "0194-53-0056",
    "url": "http://rehabilitown-kuji.jimdofree.com",
    "pref": "岩手県",
    "city": "久慈市",
    "category": "rouken",
    "serviceType": "介護老人保健施設",
    "capacity": 0,
    "openDays": [],
    "openDaysNote": ""
  },
  {
    "id": "350780011",
    "name": "介護老人保健施設欅の里",
    "kana": "カイゴロウジンホケンシセツケヤキノサト",
    "address": "岩手県久慈市小久慈町１６－１２－１",
    "lat": 40.1656749945632,
    "lng": 141.745273996295,
    "tel": "0194-59-3181",
    "url": "https://www.keyakinosato.jp/",
    "pref": "岩手県",
    "city": "久慈市",
    "category": "rouken",
    "serviceType": "介護老人保健施設",
    "capacity": 0,
    "openDays": [],
    "openDaysNote": ""
  },
  {
    "id": "370200560",
    "name": "介護老人保健施設ほほえみの里",
    "kana": "カイゴロウジンホケンシセツホホエミノサト",
    "address": "岩手県宮古市崎鍬ヶ崎第９地割３９番地２７",
    "lat": 39.6683752,
    "lng": 141.9575283,
    "tel": "0193-64-3311",
    "url": "http://www.hohoeminosato.jp/",
    "pref": "岩手県",
    "city": "宮古市",
    "category": "rouken",
    "serviceType": "介護老人保健施設",
    "capacity": 100,
    "openDays": [],
    "openDaysNote": ""
  },
  {
    "id": "350280012",
    "name": "宮古介護老人保健施設桜ヶ丘",
    "kana": "ミヤコカイゴロウジンホケンシセツサクラガオカ",
    "address": "岩手県宮古市山口五丁目5番10号",
    "lat": 39.6576202,
    "lng": 141.930778,
    "tel": "0193-62-3380",
    "url": "https://www.shinwa-kai.jp",
    "pref": "岩手県",
    "city": "宮古市",
    "category": "rouken",
    "serviceType": "介護老人保健施設",
    "capacity": 96,
    "openDays": [],
    "openDaysNote": ""
  },
  {
    "id": "352580013",
    "name": "介護老人保健施設快老苑金ヶ崎",
    "kana": "カイゴロウジンホケンシセツカイロウエンカネガサキ",
    "address": "岩手県胆沢郡金ヶ崎町西根鑓水１０３－１",
    "lat": 39.1947671,
    "lng": 141.1111637,
    "tel": "0197-44-2475",
    "url": "https://kairouen.jp/",
    "pref": "岩手県",
    "city": "金ヶ崎町",
    "category": "rouken",
    "serviceType": "介護老人保健施設",
    "capacity": 0,
    "openDays": [],
    "openDaysNote": ""
  },
  {
    "id": "353180011",
    "name": "介護老人保健施設花の里かるまい",
    "kana": "カイゴロウジンホケンシセツハナノサトカルマイ",
    "address": "岩手県九戸郡軽米町大字軽米第6地割89番地1",
    "lat": 40.3150302,
    "lng": 141.4581194,
    "tel": "0195-46-4646",
    "url": "http://www.reitakukai.net/",
    "pref": "岩手県",
    "city": "軽米町",
    "category": "rouken",
    "serviceType": "介護老人保健施設",
    "capacity": 0,
    "openDays": [],
    "openDaysNote": ""
  },
  {
    "id": "373000934",
    "name": "介護老人保健施設さくら山",
    "kana": "カイゴロウジンホケンシセツサクラヤマ",
    "address": "岩手県下閉伊郡山田町飯岡9-23-1",
    "lat": 39.466417334513,
    "lng": 141.945942626875,
    "tel": "0193-81-1721",
    "url": "",
    "pref": "岩手県",
    "city": "山田町",
    "category": "rouken",
    "serviceType": "介護老人保健施設",
    "capacity": 0,
    "openDays": [],
    "openDaysNote": ""
  },
  {
    "id": "352180087",
    "name": "介護老人保健施設おうしゅく",
    "kana": "カイゴロウジンホケンシセツオウシュク",
    "address": "岩手県岩手郡雫石町南畑第32地割字南桝沢265番地",
    "lat": 39.6481616,
    "lng": 140.950902,
    "tel": "019-695-2333",
    "url": "http://www.ohshuku.or.jp",
    "pref": "岩手県",
    "city": "雫石町",
    "category": "rouken",
    "serviceType": "介護老人保健施設",
    "capacity": 0,
    "openDays": [],
    "openDaysNote": ""
  },
  {
    "id": "352180046",
    "name": "介護老人保健施設はーとぽーと雫石",
    "kana": "カイゴロウジンホケンシセツハートポートシズクイシ",
    "address": "岩手県岩手郡雫石町板橋3-7",
    "lat": 39.7018823,
    "lng": 141.0196367,
    "tel": "019-692-3336",
    "url": "",
    "pref": "岩手県",
    "city": "雫石町",
    "category": "rouken",
    "serviceType": "介護老人保健施設",
    "capacity": 0,
    "openDays": [],
    "openDaysNote": ""
  },
  {
    "id": "372101907",
    "name": "介護老人保健施設はーとぽーと雫石２号館",
    "kana": "カイゴロウジンホケンセツハートポートシズクイシニゴウカン",
    "address": "岩手県岩手郡雫石町板橋３－７",
    "lat": 39.7018823,
    "lng": 141.0196367,
    "tel": "019-692-3336",
    "url": "",
    "pref": "岩手県",
    "city": "雫石町",
    "category": "rouken",
    "serviceType": "介護老人保健施設",
    "capacity": 0,
    "openDays": [],
    "openDaysNote": ""
  },
  {
    "id": "350180089",
    "name": "介護療養型老人保健施設圭友",
    "kana": "カイゴリョウヨウガタロウジンホケンシセツケイユウ",
    "address": "岩手県盛岡市津志田西２丁目１９番１号",
    "lat": 39.6602381,
    "lng": 141.1479443,
    "tel": "019-638-7775",
    "url": "https://syouseikai.jp",
    "pref": "岩手県",
    "city": "盛岡市",
    "category": "rouken",
    "serviceType": "介護老人保健施設",
    "capacity": 0,
    "openDays": [],
    "openDaysNote": ""
  },
  {
    "id": "350180014",
    "name": "介護老人保健施設アルテンハイム青山",
    "kana": "カイゴロウジンホケンシセツアルテンハイムアオヤマ",
    "address": "岩手県盛岡市青山二丁目12-33",
    "lat": 39.7261523,
    "lng": 141.113109,
    "tel": "019-647-2251",
    "url": "http://www.toyama-byouin.jp/jacility/altenheim-aoyama/",
    "pref": "岩手県",
    "city": "盛岡市",
    "category": "rouken",
    "serviceType": "介護老人保健施設",
    "capacity": 0,
    "openDays": [],
    "openDaysNote": ""
  },
  {
    "id": "350180022",
    "name": "介護老人保健施設イーハトーブ",
    "kana": "カイゴロウジンホケンシセツイーハトーブ",
    "address": "岩手県盛岡市本宮一丁目6番12号",
    "lat": 39.6904567,
    "lng": 141.1408382,
    "tel": "019-636-2626",
    "url": "http://www.oginohospital.jp",
    "pref": "岩手県",
    "city": "盛岡市",
    "category": "rouken",
    "serviceType": "介護老人保健施設",
    "capacity": 0,
    "openDays": [],
    "openDaysNote": ""
  },
  {
    "id": "350180113",
    "name": "介護老人保健施設ヴィラ加賀野",
    "kana": "カイゴロウジンホケンシセツウ゛ィラカガノ",
    "address": "岩手県盛岡市加賀野三丁目１番６号",
    "lat": 39.7051417,
    "lng": 141.1666186,
    "tel": "019-626-5411",
    "url": "http://www.sg-kumiai.or.jp/",
    "pref": "岩手県",
    "city": "盛岡市",
    "category": "rouken",
    "serviceType": "介護老人保健施設",
    "capacity": 0,
    "openDays": [],
    "openDaysNote": ""
  },
  {
    "id": "350180105",
    "name": "介護老人保健施設ケアコートもりおか",
    "kana": "カイゴロウジンホケンシセツケアコートモリオカ",
    "address": "岩手県盛岡市青山1-25-25",
    "lat": 39.7239607,
    "lng": 141.1099955,
    "tel": "019-613-2303",
    "url": "https://sg-seijukai.com/carecourt-morioka/",
    "pref": "岩手県",
    "city": "盛岡市",
    "category": "rouken",
    "serviceType": "介護老人保健施設",
    "capacity": 0,
    "openDays": [],
    "openDaysNote": ""
  },
  {
    "id": "352180012",
    "name": "介護老人保健施設ケアホームやすみ",
    "kana": "カイゴロウジンホケンシセツケアホームヤスミ",
    "address": "岩手県盛岡市好摩字夏間木70－190",
    "lat": 39.8752669,
    "lng": 141.1663387,
    "tel": "019-682-2288",
    "url": "http://www.nisshindo-g.com/",
    "pref": "岩手県",
    "city": "盛岡市",
    "category": "rouken",
    "serviceType": "介護老人保健施設",
    "capacity": 0,
    "openDays": [],
    "openDaysNote": ""
  },
  {
    "id": "350180006",
    "name": "介護老人保健施設ハートフルもりおか",
    "kana": "カイゴロウジンホケンシセツハートフルモリオカ",
    "address": "岩手県盛岡市永井１４地割１５番地１",
    "lat": 39.6599046,
    "lng": 141.1388173,
    "tel": "019-632-3011",
    "url": "http://www.ja-iwatekouseiren.or.jp/",
    "pref": "岩手県",
    "city": "盛岡市",
    "category": "rouken",
    "serviceType": "介護老人保健施設",
    "capacity": 100,
    "openDays": [],
    "openDaysNote": ""
  },
  {
    "id": "350180055",
    "name": "介護老人保健施設銀楊",
    "kana": "カイゴロウジンホケンシセツギンヨウ",
    "address": "岩手県盛岡市本宮２－２０－１０",
    "lat": 39.688451449279,
    "lng": 141.137643359525,
    "tel": "019-634-1800",
    "url": "https://www.kuonkai.com/ginyou/",
    "pref": "岩手県",
    "city": "盛岡市",
    "category": "rouken",
    "serviceType": "介護老人保健施設",
    "capacity": 0,
    "openDays": [],
    "openDaysNote": ""
  },
  {
    "id": "350180048",
    "name": "介護老人保健施設康楽苑",
    "kana": "カイゴロウジンホケンシセツコウラクエン",
    "address": "岩手県盛岡市手代森9地割64番地2",
    "lat": 39.6582721,
    "lng": 141.1846077,
    "tel": "019-696-5811",
    "url": "http://www.i-korakuen.com/",
    "pref": "岩手県",
    "city": "盛岡市",
    "category": "rouken",
    "serviceType": "介護老人保健施設",
    "capacity": 0,
    "openDays": [],
    "openDaysNote": ""
  },
  {
    "id": "352410040",
    "name": "介護老人保健施設清水苑",
    "kana": "カイゴロウジンホケンシセツセイスイエン",
    "address": "岩手県和賀郡西和賀町清水ヶ野18地割167番地1",
    "lat": 39.3591657,
    "lng": 140.7627611,
    "tel": "0197-82-3301",
    "url": "https://www.kouseikai2.jp/",
    "pref": "岩手県",
    "city": "西和賀町",
    "category": "rouken",
    "serviceType": "介護老人保健施設",
    "capacity": 81,
    "openDays": [],
    "openDaysNote": ""
  },
  {
    "id": "350380010",
    "name": "介護老人保健施設気仙苑",
    "kana": "カイゴロウジンホケンシセツケセンエン",
    "address": "岩手県大船渡市大船渡町字山馬越188番地",
    "lat": 39.0710219,
    "lng": 141.7100664,
    "tel": "0192-27-8877",
    "url": "http://www.shokyukai.or.jp",
    "pref": "岩手県",
    "city": "大船渡市",
    "category": "rouken",
    "serviceType": "介護老人保健施設",
    "capacity": 0,
    "openDays": [],
    "openDaysNote": ""
  },
  {
    "id": "352980007",
    "name": "介護老人保健施設ケアプラザおおつち",
    "kana": "カイゴロウジンホケンシセツケアプラザオオツチ",
    "address": "岩手県上閉伊郡大槌町小鎚第14地割字蕨打直82番1",
    "lat": 39.3794374244776,
    "lng": 141.845225277695,
    "tel": "0193-41-1200",
    "url": "http://careplazaotsuchi.webnode.jp",
    "pref": "岩手県",
    "city": "大槌町",
    "category": "rouken",
    "serviceType": "介護老人保健施設",
    "capacity": 0,
    "openDays": [],
    "openDaysNote": ""
  },
  {
    "id": "371600164",
    "name": "医療法人社団松誠会介護老人保健施設たきざわ",
    "kana": "イリョウホウジンシャダンショウセイカイカイゴロウジンホケンシセツタキザワ",
    "address": "岩手県滝沢市鵜飼笹森42番地2",
    "lat": 39.733376,
    "lng": 141.0909747,
    "tel": "019-684-1154",
    "url": "",
    "pref": "岩手県",
    "city": "滝沢市",
    "category": "rouken",
    "serviceType": "介護老人保健施設",
    "capacity": 99,
    "openDays": [],
    "openDaysNote": ""
  },
  {
    "id": "352180038",
    "name": "介護老人保健施設カルモナ",
    "kana": "カイゴロウジンホケンシセツカルモナ",
    "address": "岩手県滝沢市高屋敷平11-39",
    "lat": 39.7481465,
    "lng": 141.0917992,
    "tel": "019-684-2021",
    "url": "https://care-net.biz/03/karumona/",
    "pref": "岩手県",
    "city": "滝沢市",
    "category": "rouken",
    "serviceType": "介護老人保健施設",
    "capacity": 100,
    "openDays": [],
    "openDaysNote": ""
  },
  {
    "id": "352180020",
    "name": "介護老人保健施設ホスピー滝沢",
    "kana": "カイゴロウジンホケンシセツホスピータキザワ",
    "address": "岩手県滝沢市鵜飼狐洞1番地139",
    "lat": 39.7370505,
    "lng": 141.0878915,
    "tel": "019-687-3735",
    "url": "http://syouseikai.jp",
    "pref": "岩手県",
    "city": "滝沢市",
    "category": "rouken",
    "serviceType": "介護老人保健施設",
    "capacity": 0,
    "openDays": [],
    "openDaysNote": ""
  },
  {
    "id": "351380019",
    "name": "湯の里にのへ",
    "kana": "ユノサトニノヘ",
    "address": "岩手県二戸市金田一字湯田24番地",
    "lat": 40.3205541,
    "lng": 141.320321,
    "tel": "0195-27-3311",
    "url": "http://www.reitakukai.net/",
    "pref": "岩手県",
    "city": "二戸市",
    "category": "rouken",
    "serviceType": "介護老人保健施設",
    "capacity": 100,
    "openDays": [],
    "openDaysNote": ""
  },
  {
    "id": "353280001",
    "name": "介護老人保健施設あしろ苑",
    "kana": "カイゴロウジンホケンシセツアシロエン",
    "address": "岩手県八幡平市川原１２９番",
    "lat": 40.1136471,
    "lng": 141.058045,
    "tel": "0195-72-2600",
    "url": "http://www.syouseikai.jp/",
    "pref": "岩手県",
    "city": "八幡平市",
    "category": "rouken",
    "serviceType": "介護老人保健施設",
    "capacity": 0,
    "openDays": [],
    "openDaysNote": ""
  },
  {
    "id": "352180079",
    "name": "介護老人保健施設岩鷲苑",
    "kana": "カイゴロウジンホケンシセツガンシュウエン",
    "address": "岩手県八幡平市大更18地割88番地102",
    "lat": 39.8981091,
    "lng": 141.0926427,
    "tel": "0195-76-5611",
    "url": "",
    "pref": "岩手県",
    "city": "八幡平市",
    "category": "rouken",
    "serviceType": "介護老人保健施設",
    "capacity": 0,
    "openDays": [],
    "openDaysNote": ""
  },
  {
    "id": "352680003",
    "name": "介護老人保健施設さわなり苑",
    "kana": "カイゴロウジンホケンシセツサワナリエン",
    "address": "岩手県西磐井郡平泉町長島字砂子沢６番１",
    "lat": 38.9960844,
    "lng": 141.1452967,
    "tel": "0191-46-3010",
    "url": "https://i3syukai.com",
    "pref": "岩手県",
    "city": "平泉町",
    "category": "rouken",
    "serviceType": "介護老人保健施設",
    "capacity": 0,
    "openDays": [],
    "openDaysNote": ""
  },
  {
    "id": "350690010",
    "name": "介護老人保健施設たいわ",
    "kana": "カイゴロウジンホケンシセツタイワ",
    "address": "岩手県北上市北鬼柳20-20",
    "lat": 39.2935110018298,
    "lng": 141.08937798859,
    "tel": "0197-77-3300",
    "url": "http://www.keiwakai.info/",
    "pref": "岩手県",
    "city": "北上市",
    "category": "rouken",
    "serviceType": "介護老人保健施設",
    "capacity": 80,
    "openDays": [],
    "openDaysNote": ""
  },
  {
    "id": "350680039",
    "name": "介護老人保健施設まつみ",
    "kana": "カイゴロウジンホケンシセツマツミ",
    "address": "岩手県北上市和賀町長沼5-350-1",
    "lat": 39.299589,
    "lng": 141.0282277,
    "tel": "0197-73-8811",
    "url": "http://www.keiwakai.info/",
    "pref": "岩手県",
    "city": "北上市",
    "category": "rouken",
    "serviceType": "介護老人保健施設",
    "capacity": 0,
    "openDays": [],
    "openDaysNote": ""
  },
  {
    "id": "370601007",
    "name": "介護老人保健施設みさと",
    "kana": "カイゴロウジンホケンシセツミサト",
    "address": "岩手県北上市和賀町煤孫10-14-1",
    "lat": 39.2894554,
    "lng": 141.0005083,
    "tel": "0197-71-7231",
    "url": "http://www.keiwakai.info/",
    "pref": "岩手県",
    "city": "北上市",
    "category": "rouken",
    "serviceType": "介護老人保健施設",
    "capacity": 24,
    "openDays": [],
    "openDaysNote": ""
  },
  {
    "id": "350680047",
    "name": "介護老人保健施設リハビリパーク北上",
    "kana": "カイゴロウジンホケンシセツリハビリパークキタカミ",
    "address": "岩手県北上市大通り一丁目1番22号",
    "lat": 39.2818912,
    "lng": 141.1215041,
    "tel": "0197-62-7708",
    "url": "http://www.rihabili-park.com/sisetu/kitakami/top.htm/",
    "pref": "岩手県",
    "city": "北上市",
    "category": "rouken",
    "serviceType": "介護老人保健施設",
    "capacity": null,
    "openDays": [],
    "openDaysNote": ""
  },
  {
    "id": "372201004",
    "name": "介護老人保健施設シェーンハイムやはば",
    "kana": "カイゴロウジンホケンシセツシェーンハイムヤハバ",
    "address": "岩手県紫波郡矢巾町土橋第11地割35-1",
    "lat": 39.5831119,
    "lng": 141.1721423,
    "tel": "019-697-0066",
    "url": "http://www.s-souseikai.jp",
    "pref": "岩手県",
    "city": "矢巾町",
    "category": "rouken",
    "serviceType": "介護老人保健施設",
    "capacity": 0,
    "openDays": [],
    "openDaysNote": ""
  },
  {
    "id": "352280010",
    "name": "介護老人保健施設敬愛荘",
    "kana": "カイゴロウジンホケンシセツケイアイソウ",
    "address": "岩手県紫波郡矢巾町大字広宮沢第1地割2番181",
    "lat": 39.6220545,
    "lng": 141.0868604,
    "tel": "019-697-3288",
    "url": "https://kikodo.or.jp",
    "pref": "岩手県",
    "city": "矢巾町",
    "category": "rouken",
    "serviceType": "介護老人保健施設",
    "capacity": 95,
    "openDays": [],
    "openDaysNote": ""
  },
  {
    "id": "372200816",
    "name": "介護老人保健施設博愛荘",
    "kana": "カイゴロウジンホケンシセツハクアイソウ",
    "address": "岩手県紫波郡矢巾町又兵エ新田第５地割３３５番地医療福祉多機能ビル　ケアセンター南昌 医療福祉多機能ビル　ケアセンター南昌",
    "lat": 39.6133917,
    "lng": 141.1469786,
    "tel": "019-698-2015",
    "url": "http://www.ccnansyou.com/",
    "pref": "岩手県",
    "city": "矢巾町",
    "category": "rouken",
    "serviceType": "介護老人保健施設",
    "capacity": 0,
    "openDays": [],
    "openDaysNote": ""
  },
  {
    "id": "353180029",
    "name": "介護療養型老人保健施設たねいち",
    "kana": "カイゴリョウヨウガタロウジンホケンシセツタネイチ",
    "address": "岩手県九戸郡洋野町種市第23地割27番地2",
    "lat": 40.4105449574132,
    "lng": 141.718873979099,
    "tel": "0194-65-2127",
    "url": "",
    "pref": "岩手県",
    "city": "洋野町",
    "category": "rouken",
    "serviceType": "介護老人保健施設",
    "capacity": 0,
    "openDays": [],
    "openDaysNote": ""
  },
  {
    "id": "353180003",
    "name": "介護老人保健施設ユートピア白滝",
    "kana": "カイゴロウジンホケンシセツユートピアシラタキ",
    "address": "岩手県九戸郡洋野町中野第３地割３８－１８２",
    "lat": 40.3065066,
    "lng": 141.7818264,
    "tel": "0194-67-5161",
    "url": "",
    "pref": "岩手県",
    "city": "洋野町",
    "category": "rouken",
    "serviceType": "介護老人保健施設",
    "capacity": 0,
    "openDays": [],
    "openDaysNote": ""
  },
  {
    "id": "351080007",
    "name": "介護老人保健施設松原苑",
    "kana": "カイゴロウジンホケンシセツマツバラエン",
    "address": "岩手県陸前高田市高田町字中田69-2",
    "lat": 39.0147213,
    "lng": 141.6487595,
    "tel": "0192-53-1877",
    "url": "http://www.shokyukai.or.jp/",
    "pref": "岩手県",
    "city": "陸前高田市",
    "category": "rouken",
    "serviceType": "介護老人保健施設",
    "capacity": 0,
    "openDays": [],
    "openDaysNote": ""
  }
]