[
  {
    "id": "3250280025",
    "name": "介護老人保健施設コスモス苑",
    "kana": "カイゴロウジンホケンシセツコスモスエン",
    "address": "島根県安来市伯太町1700番地2",
    "lat": 35.3714426,
    "lng": 133.2735072,
    "tel": "0854-37-1555",
    "url": "",
    "pref": "島根県",
    "city": "安来市",
    "category": "rouken",
    "serviceType": "介護老人保健施設",
    "capacity": 50,
    "openDays": [],
    "openDaysNote": ""
  },
  {
    "id": "3250280017",
    "name": "介護老人保健施設昌寿苑",
    "kana": "カイゴロウジンホケンシセツショウジュエン",
    "address": "安来市安来町899-1",
    "lat": 35.4331709604424,
    "lng": 133.252797630163,
    "tel": "0854-22-1234",
    "url": "http://www.syourinkai.or.jp",
    "pref": "島根県",
    "city": "安来市",
    "category": "rouken",
    "serviceType": "介護老人保健施設",
    "capacity": 0,
    "openDays": [],
    "openDaysNote": ""
  },
  {
    "id": "3252280007",
    "name": "老人保健施設ともいきの郷",
    "kana": "ロウジンホケンシセツトモイキノサト",
    "address": "島根県隠岐郡隠岐の島町栄町975番地2",
    "lat": 36.2157296,
    "lng": 133.3267884,
    "tel": "08512-2-7500",
    "url": "http://www.kyousei.gr.jp",
    "pref": "島根県",
    "city": "隠岐の島町",
    "category": "rouken",
    "serviceType": "介護老人保健施設",
    "capacity": null,
    "openDays": [],
    "openDaysNote": ""
  },
  {
    "id": "3251480004",
    "name": "介護老人保健施設ケアセンターきすき",
    "kana": "カイゴロウジンホケンシセツケアセンターキスキ",
    "address": "雲南市木次町山方1111番地",
    "lat": 35.3113753,
    "lng": 132.9119231,
    "tel": "0854-42-3660",
    "url": "",
    "pref": "島根県",
    "city": "雲南市",
    "category": "rouken",
    "serviceType": "介護老人保健施設",
    "capacity": 60,
    "openDays": [],
    "openDaysNote": ""
  },
  {
    "id": "3251580019",
    "name": "介護老人保健施設平成苑",
    "kana": "カイゴロウジンホケンシセツヘイセイエン",
    "address": "島根県雲南市三刀屋町三刀屋1294-1",
    "lat": 35.2925525,
    "lng": 132.884896,
    "tel": "0854-45-5110（",
    "url": "http://www.heisei-hosp.jp/",
    "pref": "島根県",
    "city": "雲南市",
    "category": "rouken",
    "serviceType": "介護老人保健施設",
    "capacity": 0,
    "openDays": [],
    "openDaysNote": ""
  },
  {
    "id": "3250880022",
    "name": "益田市立介護老人保健施設くにさき苑",
    "kana": "マスダシリツカイゴロウジンホケンシセツクニサキエン",
    "address": "益田市遠田町1956番地8",
    "lat": 34.6968405,
    "lng": 131.8664516,
    "tel": "0856-22-1150",
    "url": "https://www..masuda-med.or.jp/kunisakien/",
    "pref": "島根県",
    "city": "益田市",
    "category": "rouken",
    "serviceType": "介護老人保健施設",
    "capacity": 0,
    "openDays": [],
    "openDaysNote": ""
  },
  {
    "id": "3250680026",
    "name": "介護療養型老人保健施設高砂ケアセンター",
    "kana": "カイゴリョウヨウガタロウジンホケンシセツタカサゴケアセンター",
    "address": "島根県江津市江津町１１１０－１５",
    "lat": 35.0138922,
    "lng": 132.2184638,
    "tel": "０８５５－５２－５１００",
    "url": "http://www.gotsu-takasago.jp/",
    "pref": "島根県",
    "city": "江津市",
    "category": "rouken",
    "serviceType": "介護老人保健施設",
    "capacity": null,
    "openDays": [],
    "openDaysNote": ""
  },
  {
    "id": "3250680018",
    "name": "島根県済生会　介護老人保健施設　高砂ケアセンター",
    "kana": "シマネケンサイセイカイ　カイゴロウジンホケンシセツ　タカサゴケアセンター",
    "address": "島根県江津市江津町１１１０－１５",
    "lat": 35.0138922,
    "lng": 132.2184638,
    "tel": "0855-52-5100",
    "url": "http://www.gotsu-takasago.jp/",
    "pref": "島根県",
    "city": "江津市",
    "category": "rouken",
    "serviceType": "介護老人保健施設",
    "capacity": 0,
    "openDays": [],
    "openDaysNote": ""
  },
  {
    "id": "3250480013",
    "name": "ナーシングセンターひまわり",
    "kana": "ナーシングセンターヒマワリ",
    "address": "出雲市古志町2236-1",
    "lat": 35.3330473,
    "lng": 132.7441445,
    "tel": "0853-21-7954",
    "url": "http://w-himawari.jp",
    "pref": "島根県",
    "city": "出雲市",
    "category": "rouken",
    "serviceType": "介護老人保健施設",
    "capacity": 0,
    "openDays": [],
    "openDaysNote": ""
  },
  {
    "id": "3250480062",
    "name": "介護老人保健施設　まんだ",
    "kana": "カイゴロウジンホケンシセツ　マンダ",
    "address": "島根県出雲市万田町５３５－１",
    "lat": 35.4446657,
    "lng": 132.7845449,
    "tel": "0853-63-5610",
    "url": "https://mandanosato.jp/pages/85/",
    "pref": "島根県",
    "city": "出雲市",
    "category": "rouken",
    "serviceType": "介護老人保健施設",
    "capacity": 60,
    "openDays": [],
    "openDaysNote": ""
  },
  {
    "id": "3250480021",
    "name": "介護老人保健施設　寿生苑",
    "kana": "カイゴロウジンホケンシセツ　ジュセイエン",
    "address": "出雲市上塩冶町2862-1",
    "lat": 35.3542067243576,
    "lng": 132.777998876196,
    "tel": "0853-25-0088",
    "url": "http://juseikai.jp/",
    "pref": "島根県",
    "city": "出雲市",
    "category": "rouken",
    "serviceType": "介護老人保健施設",
    "capacity": 0,
    "openDays": [],
    "openDaysNote": ""
  },
  {
    "id": "3250480088",
    "name": "介護老人保健施設　出雲徳洲苑",
    "kana": "カイゴロウジンホケンシセツ　イズモトクシュウエン",
    "address": "島根県出雲市斐川町直江3964-1",
    "lat": 35.3819431,
    "lng": 132.8221207,
    "tel": "（0853）-73-757",
    "url": "https://izumo-tokushuen.com/",
    "pref": "島根県",
    "city": "出雲市",
    "category": "rouken",
    "serviceType": "介護老人保健施設",
    "capacity": 80,
    "openDays": [],
    "openDaysNote": ""
  },
  {
    "id": "3250480054",
    "name": "介護老人保健施設ケアセンターかんど",
    "kana": "カイゴロウジンホケンシセツ　ケアセンターカンド",
    "address": "島根県出雲市西新町２丁目２４５７番地３",
    "lat": 35.3325357,
    "lng": 132.7253324,
    "tel": "0853-24-8041",
    "url": "http://www.kandokai.jp/",
    "pref": "島根県",
    "city": "出雲市",
    "category": "rouken",
    "serviceType": "介護老人保健施設",
    "capacity": 0,
    "openDays": [],
    "openDaysNote": ""
  },
  {
    "id": "3251680009",
    "name": "介護老人保健施設ほのぼの苑",
    "kana": "カイゴロウジンホケンシセツホノボノエン",
    "address": "出雲市大社町中荒木1745-2",
    "lat": 35.3792909,
    "lng": 132.6873427,
    "tel": "0853-53-6700",
    "url": "http://www.sunlight.or.jp",
    "pref": "島根県",
    "city": "出雲市",
    "category": "rouken",
    "serviceType": "介護老人保健施設",
    "capacity": 0,
    "openDays": [],
    "openDaysNote": ""
  },
  {
    "id": "3250480047",
    "name": "介護老人保健施設もくもく",
    "kana": "カイゴロウジンホケンシセツモクモク",
    "address": "出雲市江田町278番地",
    "lat": 35.3837438,
    "lng": 132.7351129,
    "tel": "0853-24-6001",
    "url": "http://www.otuka-wel.jp/",
    "pref": "島根県",
    "city": "出雲市",
    "category": "rouken",
    "serviceType": "介護老人保健施設",
    "capacity": 0,
    "openDays": [],
    "openDaysNote": ""
  },
  {
    "id": "3251680018",
    "name": "老人保健施設たき",
    "kana": "ロウジンホケンシセツタキ",
    "address": "出雲市多伎町小田５０番地7",
    "lat": 35.2844431,
    "lng": 132.6270489,
    "tel": "0853-86-2977",
    "url": "http://www.takinosato.jp",
    "pref": "島根県",
    "city": "出雲市",
    "category": "rouken",
    "serviceType": "介護老人保健施設",
    "capacity": 50,
    "openDays": [],
    "openDaysNote": ""
  },
  {
    "id": "3250180027",
    "name": "医療法人　社団　創健会　介護老人保健施設　ナーシングセンター　あけぼの",
    "kana": "イリョウホウジン　シャダン　ソウケンカイ　カイゴロウジンホケンシセツ　ナーシングセンター　アケボノ",
    "address": "松江市大庭町884番地1",
    "lat": 35.4312142,
    "lng": 133.0823516,
    "tel": "0852-31-3666",
    "url": "http://www.souken-kai.or.jp",
    "pref": "島根県",
    "city": "松江市",
    "category": "rouken",
    "serviceType": "介護老人保健施設",
    "capacity": 0,
    "openDays": [],
    "openDaysNote": ""
  },
  {
    "id": "3250180043",
    "name": "介護老人保健施設　ライフケア回春苑",
    "kana": "カイゴロウジンホケンシセツ　ライフケアカイシュンエン",
    "address": "松江市新庄町1172",
    "lat": 35.4994763,
    "lng": 133.1332294,
    "tel": "0852-34-0110",
    "url": "http://www.kaishunkai.com/kaishunen/",
    "pref": "島根県",
    "city": "松江市",
    "category": "rouken",
    "serviceType": "介護老人保健施設",
    "capacity": 0,
    "openDays": [],
    "openDaysNote": ""
  },
  {
    "id": "3251180034",
    "name": "介護老人保健施設　福寿苑",
    "kana": "カイゴロウジンホケンシセツ　フクジュエン",
    "address": "松江市八束町波入６１４－９",
    "lat": 35.4870658,
    "lng": 133.1789839,
    "tel": "0852-76-9100",
    "url": "http://www.shimane-fukujuen.jp",
    "pref": "島根県",
    "city": "松江市",
    "category": "rouken",
    "serviceType": "介護老人保健施設",
    "capacity": 63,
    "openDays": [],
    "openDaysNote": ""
  },
  {
    "id": "3251180026",
    "name": "介護老人保健施設ケアセンター千鳥",
    "kana": "カイゴロウジンホケンシセツケアセンターチドリ",
    "address": "島根県松江市東出雲町揖屋１１９６",
    "lat": 35.42661,
    "lng": 133.1530223,
    "tel": "0852-52-6513",
    "url": "http://www.roken-chidori.jp/",
    "pref": "島根県",
    "city": "松江市",
    "category": "rouken",
    "serviceType": "介護老人保健施設",
    "capacity": null,
    "openDays": [],
    "openDaysNote": ""
  },
  {
    "id": "3250180050",
    "name": "介護老人保健施設もちだの郷",
    "kana": "カイゴロウジンホケンシセツモチダノサト",
    "address": "松江市東持田町520番地1",
    "lat": 35.5080949,
    "lng": 133.0857084,
    "tel": "0852-26-9400",
    "url": "http://www.kyousei.gr.jp/mochidanosato.html",
    "pref": "島根県",
    "city": "松江市",
    "category": "rouken",
    "serviceType": "介護老人保健施設",
    "capacity": 100,
    "openDays": [],
    "openDaysNote": ""
  },
  {
    "id": "3250180076",
    "name": "介護老人保健施設松江センターアゼリア",
    "kana": "カイゴロウジンホケンシセツマツエセンターアゼリア",
    "address": "島根県松江市寺町99-26",
    "lat": 35.4620597,
    "lng": 133.0596339,
    "tel": "0852-67-5908",
    "url": "",
    "pref": "島根県",
    "city": "松江市",
    "category": "rouken",
    "serviceType": "介護老人保健施設",
    "capacity": 105,
    "openDays": [],
    "openDaysNote": ""
  },
  {
    "id": "3250180035",
    "name": "介護老人保健施設悠々園",
    "kana": "カイゴロウジンホケンシセツユウユウエン",
    "address": "松江市川原町３０９－１",
    "lat": 35.5027013,
    "lng": 133.0928746,
    "tel": "0852-34-1558",
    "url": "http://www.kaishunkai.com/yuyuen/",
    "pref": "島根県",
    "city": "松江市",
    "category": "rouken",
    "serviceType": "介護老人保健施設",
    "capacity": 0,
    "openDays": [],
    "openDaysNote": ""
  },
  {
    "id": "3251880013",
    "name": "介護老人保健施設　仁寿苑",
    "kana": "カイゴロウジンホケンシセツ　ジンジュカイ",
    "address": "島根県邑智郡川本町大字川本381-4",
    "lat": 34.9911871971028,
    "lng": 132.494558792729,
    "tel": "0855-72-3111",
    "url": "http://www.k-jinju.or.jp/",
    "pref": "島根県",
    "city": "川本町",
    "category": "rouken",
    "serviceType": "介護老人保健施設",
    "capacity": 36,
    "openDays": [],
    "openDaysNote": ""
  },
  {
    "id": "3250580028",
    "name": "介護老人保健施設　たてがみの郷",
    "kana": "カイゴロウジンホケンシセツ　タテガミノサト",
    "address": "大田市波根町1290番地1",
    "lat": 35.2404372,
    "lng": 132.5275895,
    "tel": "0854-85-8181",
    "url": "http://www.well-nc.or.jp/",
    "pref": "島根県",
    "city": "大田市",
    "category": "rouken",
    "serviceType": "介護老人保健施設",
    "capacity": null,
    "openDays": [],
    "openDaysNote": ""
  },
  {
    "id": "3250580010",
    "name": "介護老人保健施設　たてがみの郷多床室型",
    "kana": "カイゴロウジンホケンシセツ　タテガミノサト",
    "address": "大田市波根町１２９０番地１",
    "lat": 35.2404372,
    "lng": 132.5275895,
    "tel": "0854-85-8181",
    "url": "http://www.well-nc.or.jp/",
    "pref": "島根県",
    "city": "大田市",
    "category": "rouken",
    "serviceType": "介護老人保健施設",
    "capacity": 18,
    "openDays": [],
    "openDaysNote": ""
  },
  {
    "id": "3250580002",
    "name": "介護老人保健施設　恵寿苑",
    "kana": "カイゴロウジンホケンシセツケイジュエン",
    "address": "島根県大田市大田町大田イ８６０－３",
    "lat": 35.1997677774551,
    "lng": 132.506158086508,
    "tel": "0854-82-3301",
    "url": "http://keiwakai-ohda.jp/keijuen/",
    "pref": "島根県",
    "city": "大田市",
    "category": "rouken",
    "serviceType": "介護老人保健施設",
    "capacity": 0,
    "openDays": [],
    "openDaysNote": ""
  },
  {
    "id": "3252180017",
    "name": "介護老人保健施設　せせらぎ",
    "kana": "カイゴロウジンホケンシセツ　セセラギ",
    "address": "島根県鹿足郡津和野町森村ﾛ141番地",
    "lat": 34.541962,
    "lng": 131.8349722,
    "tel": "0856-72-4080",
    "url": "https://kisseido.or.jp/",
    "pref": "島根県",
    "city": "津和野町",
    "category": "rouken",
    "serviceType": "介護老人保健施設",
    "capacity": 0,
    "openDays": [],
    "openDaysNote": ""
  },
  {
    "id": "3251980029",
    "name": "介護老人保健施設アゼーリみずすみ",
    "kana": "カイゴロウジンホケンシセツ　アゼーリミズスミ",
    "address": "島根県浜田市三隅町河内４５１番地1",
    "lat": 34.759348,
    "lng": 131.981657,
    "tel": "0855-32-3911",
    "url": "http://mizusumikai.or.jp/",
    "pref": "島根県",
    "city": "浜田市",
    "category": "rouken",
    "serviceType": "介護老人保健施設",
    "capacity": 0,
    "openDays": [],
    "openDaysNote": ""
  },
  {
    "id": "3251980011",
    "name": "介護老人保健施設さざんか",
    "kana": "カイゴロウジンホケンシセツサザンカ",
    "address": "島根県浜田市金城町七条ハ403番地",
    "lat": 34.8690952,
    "lng": 132.1493982,
    "tel": "0855-42-2200",
    "url": "https://sazanka.okita-naika.jp/",
    "pref": "島根県",
    "city": "浜田市",
    "category": "rouken",
    "serviceType": "介護老人保健施設",
    "capacity": 0,
    "openDays": [],
    "openDaysNote": ""
  },
  {
    "id": "3251980037",
    "name": "介護老人保健施設旭・やすらぎの郷",
    "kana": "カイゴロウジンホケンシセツアサヒ・ヤスラギノサト",
    "address": "島根県浜田市旭町本郷362-10",
    "lat": 34.864239,
    "lng": 132.3033152,
    "tel": "0855-45-1001",
    "url": "tomomi-kai-yasuragi.com",
    "pref": "島根県",
    "city": "浜田市",
    "category": "rouken",
    "serviceType": "介護老人保健施設",
    "capacity": 0,
    "openDays": [],
    "openDaysNote": ""
  },
  {
    "id": "3250780008",
    "name": "介護老人保健施設夕陽ヶ丘",
    "kana": "カイゴロウジンホケンシセツユウヒガオカ",
    "address": "浜田市国分町955-1",
    "lat": 34.9449319,
    "lng": 132.1165369,
    "tel": "0855-24-8800",
    "url": "http://www.yuuhigaoka.org/",
    "pref": "島根県",
    "city": "浜田市",
    "category": "rouken",
    "serviceType": "介護老人保健施設",
    "capacity": 60,
    "openDays": [],
    "openDaysNote": ""
  },
  {
    "id": "3251880021",
    "name": "介護老人保健施設　サンホームみずほ",
    "kana": "カイゴロウジンホケンシセツ　サンホームミズホ",
    "address": "島根県邑智郡邑南町高見821番地1",
    "lat": 34.8992512,
    "lng": 132.5487919,
    "tel": "0855-84-0007",
    "url": "http://tokuyu-kai.sakura.ne.jp/sunhome/index.htm/",
    "pref": "島根県",
    "city": "邑南町",
    "category": "rouken",
    "serviceType": "介護老人保健施設",
    "capacity": 0,
    "openDays": [],
    "openDaysNote": ""
  }
]