[
  {
    "id": "3453580023",
    "name": "老人保健施設ひこばえ",
    "kana": "ロウジンホケンシセツヒコバエ",
    "address": "広島県山県郡安芸太田町加計６８３－１",
    "lat": 34.6004183,
    "lng": 132.3183356,
    "tel": "0826-25-0123",
    "url": "https://rouken-hikobae.jp/",
    "pref": "広島県",
    "city": "安芸太田町",
    "category": "rouken",
    "serviceType": "介護老人保健施設",
    "capacity": 0,
    "openDays": [],
    "openDaysNote": ""
  },
  {
    "id": "3453280020",
    "name": "介護老人保健施設さくら",
    "kana": "カイゴロウジンホケンシセツサクラ",
    "address": "広島県安芸郡海田町堀川町2-23",
    "lat": 34.3684371,
    "lng": 132.5309475,
    "tel": "082-822-3777",
    "url": "",
    "pref": "広島県",
    "city": "海田町",
    "category": "rouken",
    "serviceType": "介護老人保健施設",
    "capacity": 0,
    "openDays": [],
    "openDaysNote": ""
  },
  {
    "id": "3453180022",
    "name": "介護老人保健施設　熊野ゆうあいホーム",
    "kana": "カイゴロウジンホケンシセツ　クマノユウアイホーム",
    "address": "広島県安芸郡熊野町出来庭三丁目４番６７号",
    "lat": 34.3311948,
    "lng": 132.5765713,
    "tel": "082-820-5131",
    "url": "http://kumanoyuai.com",
    "pref": "広島県",
    "city": "熊野町",
    "category": "rouken",
    "serviceType": "介護老人保健施設",
    "capacity": 0,
    "openDays": [],
    "openDaysNote": ""
  },
  {
    "id": "3453180055",
    "name": "ルネッサンス瀬戸内",
    "kana": "ルネッサンスセトウチ",
    "address": "呉市倉橋町岳之下2638-3",
    "lat": 34.0979308048635,
    "lng": 132.539210212798,
    "tel": "0823-50-3333",
    "url": "",
    "pref": "広島県",
    "city": "呉市",
    "category": "rouken",
    "serviceType": "介護老人保健施設",
    "capacity": 0,
    "openDays": [],
    "openDaysNote": ""
  },
  {
    "id": "3450580091",
    "name": "医療法人　緑風会　介護老人保健施設　なごみ",
    "kana": "イリョウホウジン　リョクフウカイ　カイゴロウジンホケンシセツ　ナゴミ",
    "address": "呉市阿賀北1丁目14番15号１階 １階",
    "lat": 34.2540714585605,
    "lng": 132.592737975008,
    "tel": "0823-74-7531",
    "url": "http://www.hoyu-hp.com/nagomi/index.htm",
    "pref": "広島県",
    "city": "呉市",
    "category": "rouken",
    "serviceType": "介護老人保健施設",
    "capacity": 0,
    "openDays": [],
    "openDaysNote": ""
  },
  {
    "id": "3450580158",
    "name": "医療法人宗和会介護老人保健施設かがわ",
    "kana": "イリョウホウジンソウワカイカイゴロウジンホケンシセツカガワ",
    "address": "呉市本通二丁目８番１６号",
    "lat": 34.24308,
    "lng": 132.5668017,
    "tel": "0823-22-3420",
    "url": "",
    "pref": "広島県",
    "city": "呉市",
    "category": "rouken",
    "serviceType": "介護老人保健施設",
    "capacity": 0,
    "openDays": [],
    "openDaysNote": ""
  },
  {
    "id": "3450580042",
    "name": "介護老人保健施設　あすらや荘",
    "kana": "カイゴロウジンホケンシセツ　アスラヤソウ",
    "address": "呉市郷原町２３８０番地",
    "lat": 34.2957483,
    "lng": 132.6487381,
    "tel": "0823-77-0949",
    "url": "http://www.misasakai.or.jp/asurayasou/",
    "pref": "広島県",
    "city": "呉市",
    "category": "rouken",
    "serviceType": "介護老人保健施設",
    "capacity": 80,
    "openDays": [],
    "openDaysNote": ""
  },
  {
    "id": "3450580075",
    "name": "介護老人保健施設　メディケア・くれ",
    "kana": "カイゴロウジンホケンシセツ　メディケア・クレ",
    "address": "広島県呉市中央2丁目6番20号",
    "lat": 34.24566,
    "lng": 132.5617661,
    "tel": "0823-25-8100",
    "url": "http://www.hospital-maeda.jp/",
    "pref": "広島県",
    "city": "呉市",
    "category": "rouken",
    "serviceType": "介護老人保健施設",
    "capacity": 0,
    "openDays": [],
    "openDaysNote": ""
  },
  {
    "id": "3470503529",
    "name": "介護老人保健施設　葵の園・安浦",
    "kana": "カイゴロウジンホケンシセツ　アオイノソノ・ヤスウラ",
    "address": "広島県呉市安浦町安登西五丁目11番19号",
    "lat": 34.2525263026356,
    "lng": 132.7203996,
    "tel": "0823-84-0006",
    "url": "http://www.aoikai.jp/yasuura",
    "pref": "広島県",
    "city": "呉市",
    "category": "rouken",
    "serviceType": "介護老人保健施設",
    "capacity": null,
    "openDays": [],
    "openDaysNote": ""
  },
  {
    "id": "3450580117",
    "name": "介護老人保健施設あおやま",
    "kana": "カイゴロウジンホケンシセツアオヤマ",
    "address": "呉市阿賀北6-15-30",
    "lat": 34.2487911,
    "lng": 132.6009904,
    "tel": "0823-76-3311",
    "url": "http://www.aoyama-sei.or.jp",
    "pref": "広島県",
    "city": "呉市",
    "category": "rouken",
    "serviceType": "介護老人保健施設",
    "capacity": 0,
    "openDays": [],
    "openDaysNote": ""
  },
  {
    "id": "3450580034",
    "name": "介護老人保健施設パナケイア",
    "kana": "カイゴロウジンホケンシセツ　パナケイア",
    "address": "広島県呉市広白石四丁目7番22号",
    "lat": 34.2264584,
    "lng": 132.6416018,
    "tel": "0823-70-0556",
    "url": "http://www.wakokai.jp",
    "pref": "広島県",
    "city": "呉市",
    "category": "rouken",
    "serviceType": "介護老人保健施設",
    "capacity": 100,
    "openDays": [],
    "openDaysNote": ""
  },
  {
    "id": "3450580059",
    "name": "介護老人保健施設ほほえみ呉中央",
    "kana": "カイゴロウジンホケンシセツホホエミクレチュウオウ",
    "address": "呉市中央５丁目１－６",
    "lat": 34.2512259,
    "lng": 132.5645685,
    "tel": "0823-32-5678",
    "url": "http://hohoemi-gr.jp/",
    "pref": "広島県",
    "city": "呉市",
    "category": "rouken",
    "serviceType": "介護老人保健施設",
    "capacity": 88,
    "openDays": [],
    "openDaysNote": ""
  },
  {
    "id": "3450580133",
    "name": "介護老人保健施設ユニットあおやま",
    "kana": "カイゴロウジンホケンシセツユニットアオヤマ",
    "address": "呉市阿賀北6-15-30",
    "lat": 34.2487911,
    "lng": 132.6009904,
    "tel": "0823-76-3311",
    "url": "http://www.aoyama-sei.or.jp/associate/roken.html",
    "pref": "広島県",
    "city": "呉市",
    "category": "rouken",
    "serviceType": "介護老人保健施設",
    "capacity": null,
    "openDays": [],
    "openDaysNote": ""
  },
  {
    "id": "3450580109",
    "name": "介護老人保健施設阿賀コスモス園",
    "kana": "カイゴロウジンホケンシセツ　アガコスモスエン",
    "address": "呉市阿賀南３丁目７番１号",
    "lat": 34.2341597,
    "lng": 132.5980132,
    "tel": "0823-73-7300",
    "url": "http://www.hakujukai.jp/",
    "pref": "広島県",
    "city": "呉市",
    "category": "rouken",
    "serviceType": "介護老人保健施設",
    "capacity": 0,
    "openDays": [],
    "openDaysNote": ""
  },
  {
    "id": "3450580067",
    "name": "介護老人保健施設呉中央コスモス園",
    "kana": "カイゴロウジンホケンシセツ　クレチュウオウコスモスエン",
    "address": "呉市西中央３丁目６－７",
    "lat": 34.2498399,
    "lng": 132.560169,
    "tel": "0823-32-7100",
    "url": "https://www.hakujukai.jp/",
    "pref": "広島県",
    "city": "呉市",
    "category": "rouken",
    "serviceType": "介護老人保健施設",
    "capacity": 0,
    "openDays": [],
    "openDaysNote": ""
  },
  {
    "id": "3450580083",
    "name": "介護老人保健施設大浜",
    "kana": "カイゴロウジンホケンシセツオオハマ",
    "address": "呉市豊浜町大字大浜字深田482番地の1",
    "lat": 34.1658004563312,
    "lng": 132.808155875448,
    "tel": "0823-67-1188",
    "url": "http://www.seijukai-welfare.jp/top.html",
    "pref": "広島県",
    "city": "呉市",
    "category": "rouken",
    "serviceType": "介護老人保健施設",
    "capacity": 50,
    "openDays": [],
    "openDaysNote": ""
  },
  {
    "id": "3450580018",
    "name": "老人保健施設　コスモス園",
    "kana": "ロウジンホケンシセツ　コスモスエン",
    "address": "呉市焼山北３丁目１７１番４",
    "lat": 34.3096020445355,
    "lng": 132.553349140723,
    "tel": "0823-34-4000",
    "url": "http://hakujukai.jp/s_cosmos.html",
    "pref": "広島県",
    "city": "呉市",
    "category": "rouken",
    "serviceType": "介護老人保健施設",
    "capacity": 100,
    "openDays": [],
    "openDaysNote": ""
  },
  {
    "id": "3453180048",
    "name": "老人保健施設さざなみ苑",
    "kana": "ロウジンホケンシセツサザナミエン",
    "address": "広島県呉市音戸町高須三丁目７番１５号",
    "lat": 34.1878738118982,
    "lng": 132.540945787033,
    "tel": "0823-50-0688",
    "url": "https://www.kureshakyo.jp/service/sazanamien-nyusho.html",
    "pref": "広島県",
    "city": "呉市",
    "category": "rouken",
    "serviceType": "介護老人保健施設",
    "capacity": 0,
    "openDays": [],
    "openDaysNote": ""
  },
  {
    "id": "3450580026",
    "name": "老人保健施設成寿園",
    "kana": "ロウジンホケンシセツセイジュエン",
    "address": "広島県呉市広町字白石免田13012番地",
    "lat": 34.2200067491413,
    "lng": 132.638205725439,
    "tel": "0823-71-7171",
    "url": "http://www.seijukai-welfare.jp/top.html",
    "pref": "広島県",
    "city": "呉市",
    "category": "rouken",
    "serviceType": "介護老人保健施設",
    "capacity": 0,
    "openDays": [],
    "openDaysNote": ""
  },
  {
    "id": "3450580141",
    "name": "老人保健施設成寿園ユニット",
    "kana": "ロウジンホケンシセツセイジュエンユニット",
    "address": "呉市広町字白石免田１３０１２番地",
    "lat": 34.2505192,
    "lng": 132.6325409,
    "tel": "０８２３－７１－７１７１",
    "url": "http://www.seijukai-welfare.jp/top.html",
    "pref": "広島県",
    "city": "呉市",
    "category": "rouken",
    "serviceType": "介護老人保健施設",
    "capacity": 0,
    "openDays": [],
    "openDaysNote": ""
  },
  {
    "id": "3450180173",
    "name": "介護老人保健施設あき",
    "kana": "カイゴロウジンホケンシセツアキ",
    "address": "広島県広島市安芸区瀬野３丁目１２番地３５号",
    "lat": 34.4236104,
    "lng": 132.602906,
    "tel": "082-894-3337",
    "url": "http://www.shoueikai-sakamoto.com",
    "pref": "広島県",
    "city": "広島市安芸区",
    "category": "rouken",
    "serviceType": "介護老人保健施設",
    "capacity": 70,
    "openDays": [],
    "openDaysNote": ""
  },
  {
    "id": "3450180033",
    "name": "老人保健施設　りは・くにくさ",
    "kana": "ロウジンホケンシセツ　リハ・クニクサ",
    "address": "広島市安芸区阿戸町485-1",
    "lat": 34.3740116,
    "lng": 132.6242639,
    "tel": "082-856-0600",
    "url": "https://www.kunikusa.or.jp/",
    "pref": "広島県",
    "city": "広島市安芸区",
    "category": "rouken",
    "serviceType": "介護老人保健施設",
    "capacity": 0,
    "openDays": [],
    "openDaysNote": ""
  },
  {
    "id": "3450180041",
    "name": "老人保健施設せのがわ",
    "kana": "ロウジンホケンシセツセノガワ",
    "address": "広島市安芸区中野6丁目8-2",
    "lat": 34.4116246,
    "lng": 132.5828526,
    "tel": "082-820-2100",
    "url": "https://hatano-group.jp/pages/76/",
    "pref": "広島県",
    "city": "広島市安芸区",
    "category": "rouken",
    "serviceType": "介護老人保健施設",
    "capacity": null,
    "openDays": [],
    "openDaysNote": ""
  },
  {
    "id": "3450180157",
    "name": "老人保健施設はたのリハビリ",
    "kana": "ロウジンホケンシセツ　ハタノリハビリ",
    "address": "広島市安芸区中野5丁目13-30",
    "lat": 34.4023476,
    "lng": 132.5808503,
    "tel": "082-893-3636",
    "url": "http://www.hatano-group.jp/",
    "pref": "広島県",
    "city": "広島市安芸区",
    "category": "rouken",
    "serviceType": "介護老人保健施設",
    "capacity": 0,
    "openDays": [],
    "openDaysNote": ""
  },
  {
    "id": "3450280155",
    "name": "医療法人社団聖愛会　介護老人保健施設とやま",
    "kana": "イリョウホウジンシャダンセイアイカイ　カイゴロウジンホケンシセツトヤマ",
    "address": "広島県広島市安佐南区沼田町吉山字風呂ノ元９８０－１",
    "lat": 34.4668228,
    "lng": 132.3444093,
    "tel": "082-839-3939",
    "url": "https://www.smile-seiaikai.com/toyama/index.html",
    "pref": "広島県",
    "city": "広島市安佐南区",
    "category": "rouken",
    "serviceType": "介護老人保健施設",
    "capacity": 0,
    "openDays": [],
    "openDaysNote": ""
  },
  {
    "id": "3450280064",
    "name": "介護老人保健施設　希望の園",
    "kana": "カイゴロウジンホケンシセツ　キボウノソノ",
    "address": "広島市安佐南区八木5丁目16-2",
    "lat": 34.4833636,
    "lng": 132.50271,
    "tel": "082-873-5881",
    "url": "https://keiaikai-asa.com/publics/index/27/",
    "pref": "広島県",
    "city": "広島市安佐南区",
    "category": "rouken",
    "serviceType": "介護老人保健施設",
    "capacity": 87,
    "openDays": [],
    "openDaysNote": ""
  },
  {
    "id": "3450280056",
    "name": "介護老人保健施設ベルローゼ",
    "kana": "カイゴロウジンホケンシセツベルローゼ",
    "address": "広島市安佐南区上安六丁目３１番１号",
    "lat": 34.4832175,
    "lng": 132.4446647,
    "tel": "082-830-3333",
    "url": "http://www.igl.or.jp/kourei/berurose.html",
    "pref": "広島県",
    "city": "広島市安佐南区",
    "category": "rouken",
    "serviceType": "介護老人保健施設",
    "capacity": 0,
    "openDays": [],
    "openDaysNote": ""
  },
  {
    "id": "3450280072",
    "name": "老人保健施設　しんあい",
    "kana": "ロウジンホケンシセツ　シンアイ",
    "address": "広島市安佐南区伴東７丁目９－３",
    "lat": 34.4646106,
    "lng": 132.4212061,
    "tel": "082-848-8888",
    "url": "https://shinaikai.hibino.or.jp",
    "pref": "広島県",
    "city": "広島市安佐南区",
    "category": "rouken",
    "serviceType": "介護老人保健施設",
    "capacity": 80,
    "openDays": [],
    "openDaysNote": ""
  },
  {
    "id": "3450280114",
    "name": "介護老人保健施設　菜の花",
    "kana": "カイゴロウジンホケンシセツ　ナノハナ",
    "address": "広島市安佐北区可部5丁目4-19-10",
    "lat": 34.5214286,
    "lng": 132.5094165,
    "tel": "082-814-0008",
    "url": "http://nanohana-kabe.com/",
    "pref": "広島県",
    "city": "広島市安佐北区",
    "category": "rouken",
    "serviceType": "介護老人保健施設",
    "capacity": 0,
    "openDays": [],
    "openDaysNote": ""
  },
  {
    "id": "3450280106",
    "name": "介護老人保健施設　白木ツジマチ",
    "kana": "カイゴロウジンホケンシセツ　シラキツジマチ",
    "address": "広島市安佐北区白木町小越218番2",
    "lat": 34.5521971692353,
    "lng": 132.662579936432,
    "tel": "082-828-1305",
    "url": "https://www.misasakai.or.jp/shisetsu/izumi.php",
    "pref": "広島県",
    "city": "広島市安佐北区",
    "category": "rouken",
    "serviceType": "介護老人保健施設",
    "capacity": 0,
    "openDays": [],
    "openDaysNote": ""
  },
  {
    "id": "3450280148",
    "name": "介護老人保健施設ふかわ・くにくさ",
    "kana": "カイゴロウジンホケンシセツフカワ・クニクサ",
    "address": "広島市安佐北区上深川町186番地1",
    "lat": 34.4814597,
    "lng": 132.5668725,
    "tel": "082-840-1840",
    "url": "https://www.kunikusa.or.jp/",
    "pref": "広島県",
    "city": "広島市安佐北区",
    "category": "rouken",
    "serviceType": "介護老人保健施設",
    "capacity": 0,
    "openDays": [],
    "openDaysNote": ""
  },
  {
    "id": "3450280015",
    "name": "老人保健施設　さんさん高陽",
    "kana": "ロウジンホケンシセツ　サンサンコウヨウ",
    "address": "広島市安佐北区亀崎4-7-1",
    "lat": 34.482181,
    "lng": 132.5258581,
    "tel": "082-845-1211",
    "url": "http://www.usuikai.jp",
    "pref": "広島県",
    "city": "広島市安佐北区",
    "category": "rouken",
    "serviceType": "介護老人保健施設",
    "capacity": 0,
    "openDays": [],
    "openDaysNote": ""
  },
  {
    "id": "3450280023",
    "name": "医療法人社団朋和会老人保健施設　花の丘",
    "kana": "イリョウホウジンシャダンホウワカイ　ロウジンホケンシセツ　ハナノオカ",
    "address": "広島市佐伯区三宅六丁目２６５番地",
    "lat": 34.3781129,
    "lng": 132.3390756,
    "tel": "082-924-1187",
    "url": "https://www.welnet.jp/hananooka/",
    "pref": "広島県",
    "city": "広島市佐伯区",
    "category": "rouken",
    "serviceType": "介護老人保健施設",
    "capacity": 0,
    "openDays": [],
    "openDaysNote": ""
  },
  {
    "id": "3450280163",
    "name": "介護老人保健施設　湯来まつむら（ユニット型）",
    "kana": "カイゴロウジンホケンシセツユキマツムラ（ユニットガタ）",
    "address": "広島県広島市佐伯区湯来町白砂棡曽利590番",
    "lat": 34.4212295,
    "lng": 132.2883318,
    "tel": "0829-40-5600",
    "url": "http://www.matsumura-cc.jp/ym/",
    "pref": "広島県",
    "city": "広島市佐伯区",
    "category": "rouken",
    "serviceType": "介護老人保健施設",
    "capacity": 0,
    "openDays": [],
    "openDaysNote": ""
  },
  {
    "id": "3450280031",
    "name": "介護老人保健施設まいえ",
    "kana": "カイゴロウジンホケンシセツマイエ",
    "address": "広島県広島市佐伯区坪井三丁目818番地の1",
    "lat": 34.3821901,
    "lng": 132.3350983,
    "tel": "082-921-9123",
    "url": "http://www.pia-gr.or.jp/",
    "pref": "広島県",
    "city": "広島市佐伯区",
    "category": "rouken",
    "serviceType": "介護老人保健施設",
    "capacity": 96,
    "openDays": [],
    "openDaysNote": ""
  },
  {
    "id": "3451980068",
    "name": "介護老人保健施設湯来まつむら",
    "kana": "カイゴロウジンホケンシセツユキマツムラ",
    "address": "広島県広島市佐伯区湯来町白砂棡曽利５９０番",
    "lat": 34.4211295,
    "lng": 132.2882846,
    "tel": "0829-40-5600",
    "url": "http://www.matsumura-cc.jp/ym/",
    "pref": "広島県",
    "city": "広島市佐伯区",
    "category": "rouken",
    "serviceType": "介護老人保健施設",
    "capacity": 0,
    "openDays": [],
    "openDaysNote": ""
  },
  {
    "id": "3450280049",
    "name": "五日市幸楽苑",
    "kana": "イツカイチコウラクエン",
    "address": "広島市佐伯区五日市町下河内188-6",
    "lat": 34.4079292,
    "lng": 132.3531964,
    "tel": "082-927-2511",
    "url": "http://www.gh.wadoukai.jp/",
    "pref": "広島県",
    "city": "広島市佐伯区",
    "category": "rouken",
    "serviceType": "介護老人保健施設",
    "capacity": 100,
    "openDays": [],
    "openDaysNote": ""
  },
  {
    "id": "3450280122",
    "name": "介護老人保健施設ピア観音",
    "kana": "カイゴロウジンホケンシセツ　ピアカンオン",
    "address": "広島市西区観音新町一丁目７番４０号",
    "lat": 34.3741067,
    "lng": 132.4282799,
    "tel": "082-503-7772",
    "url": "http://www.jiraku.or.jp",
    "pref": "広島県",
    "city": "広島市西区",
    "category": "rouken",
    "serviceType": "介護老人保健施設",
    "capacity": 100,
    "openDays": [],
    "openDaysNote": ""
  },
  {
    "id": "3450280130",
    "name": "介護老人保健施設三滝ひまわり",
    "kana": "カイゴロウジンホケンシセツミタキヒマワリ",
    "address": "広島市西区三滝本町2丁目13番34-2号",
    "lat": 34.4178195349467,
    "lng": 132.443588927509,
    "tel": "082-230-8777",
    "url": "http://www.miyauchi.or.jp/~mitaki/index.html",
    "pref": "広島県",
    "city": "広島市西区",
    "category": "rouken",
    "serviceType": "介護老人保健施設",
    "capacity": 0,
    "openDays": [],
    "openDaysNote": ""
  },
  {
    "id": "3450280098",
    "name": "西広島幸楽苑",
    "kana": "ニシヒロシマコウラクエン",
    "address": "広島市西区田方２丁目１６番４５号",
    "lat": 34.3918102,
    "lng": 132.3960511,
    "tel": "082-274-1311",
    "url": "http://ph.wadoukai.jp",
    "pref": "広島県",
    "city": "広島市西区",
    "category": "rouken",
    "serviceType": "介護老人保健施設",
    "capacity": 100,
    "openDays": [],
    "openDaysNote": ""
  },
  {
    "id": "3450180165",
    "name": "介護老人保健施設　葵の園・広島",
    "kana": "カイゴロウジンホケンシセツ　アオイノソノ・ヒロシマ",
    "address": "広島県広島市中区平野町3-8",
    "lat": 34.381340306953,
    "lng": 132.462859048642,
    "tel": "082-241-3030",
    "url": "http://www.aoikai.jp/",
    "pref": "広島県",
    "city": "広島市中区",
    "category": "rouken",
    "serviceType": "介護老人保健施設",
    "capacity": 0,
    "openDays": [],
    "openDaysNote": ""
  },
  {
    "id": "3450180181",
    "name": "介護老人保健施設　陽だまり",
    "kana": "カイゴロウジンホケンシセツ　ヒダマリ",
    "address": "広島県広島市中区国泰寺町2-4-18",
    "lat": 34.3836496,
    "lng": 132.4542841,
    "tel": "082-544-1616",
    "url": "https://hidamari-rk.jp/",
    "pref": "広島県",
    "city": "広島市中区",
    "category": "rouken",
    "serviceType": "介護老人保健施設",
    "capacity": null,
    "openDays": [],
    "openDaysNote": ""
  },
  {
    "id": "3450180124",
    "name": "介護老人保健施設ひばり",
    "kana": "カイゴロウジンホケンシセツヒバリ",
    "address": "広島市中区昭和町1番5号",
    "lat": 34.3834089,
    "lng": 132.4664695,
    "tel": "082-543-5700",
    "url": "http://www.suiseikai.jp/",
    "pref": "広島県",
    "city": "広島市中区",
    "category": "rouken",
    "serviceType": "介護老人保健施設",
    "capacity": 0,
    "openDays": [],
    "openDaysNote": ""
  },
  {
    "id": "3450180066",
    "name": "老人保健施設平和の里",
    "kana": "ロウジンホケンシセツヘイワノサト",
    "address": "広島市中区加古町6-1",
    "lat": 34.387625,
    "lng": 132.4496011,
    "tel": "082-248-8828",
    "url": "http://www.heiwanosato.net",
    "pref": "広島県",
    "city": "広島市中区",
    "category": "rouken",
    "serviceType": "介護老人保健施設",
    "capacity": null,
    "openDays": [],
    "openDaysNote": ""
  },
  {
    "id": "3450180140",
    "name": "介護療養型老人保健施設いわさき",
    "kana": "カイゴリョウヨウガタロウジンホケンシセツイワサキ",
    "address": "広島市東区東山町１－９",
    "lat": 34.3990658,
    "lng": 132.4912613,
    "tel": "082-262-5271",
    "url": "",
    "pref": "広島県",
    "city": "広島市東区",
    "category": "rouken",
    "serviceType": "介護老人保健施設",
    "capacity": 92,
    "openDays": [],
    "openDaysNote": ""
  },
  {
    "id": "3450180116",
    "name": "介護老人保健施設ウェルフェア",
    "kana": "カイゴロウジンホケンシセツウェルフェア",
    "address": "広島市東区上温品一丁目21-6",
    "lat": 34.4214865,
    "lng": 132.5135975,
    "tel": "082-280-3720",
    "url": "http://www.takamasa.or.jp",
    "pref": "広島県",
    "city": "広島市東区",
    "category": "rouken",
    "serviceType": "介護老人保健施設",
    "capacity": 84,
    "openDays": [],
    "openDaysNote": ""
  },
  {
    "id": "3450180108",
    "name": "介護老人保健施設牛田バラ苑",
    "kana": "カイゴロウジンホケンシセツ　ウシタバラエン",
    "address": "広島県広島市東区牛田新町三丁目３０番３０号",
    "lat": 34.4240939,
    "lng": 132.4719064,
    "tel": "082-222-8000",
    "url": "http://www.ushita-baraen.com",
    "pref": "広島県",
    "city": "広島市東区",
    "category": "rouken",
    "serviceType": "介護老人保健施設",
    "capacity": 100,
    "openDays": [],
    "openDaysNote": ""
  },
  {
    "id": "3450180058",
    "name": "老人保健施設スカイバード",
    "kana": "ロウジンホケンシセツスカイバード",
    "address": "広島市東区福田町3198番地",
    "lat": 34.4492898,
    "lng": 132.5469853,
    "tel": "082-899-7778",
    "url": "https://www.joukou.or.jp/shisetsu/s-bird/",
    "pref": "広島県",
    "city": "広島市東区",
    "category": "rouken",
    "serviceType": "介護老人保健施設",
    "capacity": 80,
    "openDays": [],
    "openDaysNote": ""
  },
  {
    "id": "3450180082",
    "name": "介護老人保健施設　ｅハウス",
    "kana": "カイゴロウジンホケンシセツ　イーハウス",
    "address": "広島市南区仁保一丁目６－１８",
    "lat": 34.3734911,
    "lng": 132.4936896,
    "tel": "082-286-6117",
    "url": "http://www.hiroshimakosei.or.jp",
    "pref": "広島県",
    "city": "広島市南区",
    "category": "rouken",
    "serviceType": "介護老人保健施設",
    "capacity": 42,
    "openDays": [],
    "openDaysNote": ""
  },
  {
    "id": "3450180017",
    "name": "介護老人保健施設　洋光台バラ苑",
    "kana": "カイゴロウジンホケンシセツ　ヨウコウダイバラエン",
    "address": "広島県広島市南区向洋新町一丁目１７－１７",
    "lat": 34.3661704,
    "lng": 132.5129797,
    "tel": "082-287-7777",
    "url": "https://y-baraen.com/",
    "pref": "広島県",
    "city": "広島市南区",
    "category": "rouken",
    "serviceType": "介護老人保健施設",
    "capacity": 0,
    "openDays": [],
    "openDaysNote": ""
  },
  {
    "id": "3450180025",
    "name": "介護老人保健施設ひうな荘",
    "kana": "カイゴロウジンホケンシセツヒウナソウ",
    "address": "広島市南区日宇那町30番1号",
    "lat": 34.3656837,
    "lng": 132.492701,
    "tel": "082-256-1001",
    "url": "http://www.misasakai.or.jp/shisetsu/hiunaso.php",
    "pref": "広島県",
    "city": "広島市南区",
    "category": "rouken",
    "serviceType": "介護老人保健施設",
    "capacity": 0,
    "openDays": [],
    "openDaysNote": ""
  },
  {
    "id": "3453180014",
    "name": "介護老人保健施設　あすなろ",
    "kana": "カイゴロウジンホケンシセツ　アスナロ",
    "address": "江田島市江田島町江南1丁目24番12号",
    "lat": 34.2040631,
    "lng": 132.4745166,
    "tel": "0823-42-1122",
    "url": "http://www.jinpuukai.or.jp",
    "pref": "広島県",
    "city": "江田島市",
    "category": "rouken",
    "serviceType": "介護老人保健施設",
    "capacity": 0,
    "openDays": [],
    "openDaysNote": ""
  },
  {
    "id": "3453180030",
    "name": "介護老人保健施設はまな荘",
    "kana": "カイゴロウジンホケンシセツハマナソウ",
    "address": "広島県安芸郡坂町北新地二丁目3番10号",
    "lat": 34.3507891,
    "lng": 132.5186436,
    "tel": "082-820-1877",
    "url": "http://www.saiseikai.com/hamana/",
    "pref": "広島県",
    "city": "坂町",
    "category": "rouken",
    "serviceType": "介護老人保健施設",
    "capacity": 80,
    "openDays": [],
    "openDaysNote": ""
  },
  {
    "id": "3453980025",
    "name": "医療法人仁康会　介護老人保健施設　ドリームせせらぎ",
    "kana": "イリョウホウジンジンコウカイ　カイゴロウジンホケンシセツ　ドリームセセラギ",
    "address": "三原市本郷町船木3105-3",
    "lat": 34.43022,
    "lng": 132.9666854,
    "tel": "0848-86-6868",
    "url": "http://www.jinkokai.jp/seseragi/",
    "pref": "広島県",
    "city": "三原市",
    "category": "rouken",
    "serviceType": "介護老人保健施設",
    "capacity": 0,
    "openDays": [],
    "openDaysNote": ""
  },
  {
    "id": "3450980036",
    "name": "医療法人仁康会　老人保健施設　桃源の郷",
    "kana": "イリョウホウジンジンコウカイ　ロウジンホケンシセツ　トウゲンノサト",
    "address": "三原市小泉町4258",
    "lat": 34.3690301,
    "lng": 132.9845581,
    "tel": "0848-66-3877",
    "url": "http://www.jinkokai.jp",
    "pref": "広島県",
    "city": "三原市",
    "category": "rouken",
    "serviceType": "介護老人保健施設",
    "capacity": null,
    "openDays": [],
    "openDaysNote": ""
  },
  {
    "id": "3450980028",
    "name": "介護老人保健施設三恵苑",
    "kana": "カイゴロウジンホケンシセツサンケイエン",
    "address": "三原市城町三丁目７番１号",
    "lat": 34.3965528,
    "lng": 133.0838045,
    "tel": "0848-63-2388",
    "url": "https://sankeien.net/",
    "pref": "広島県",
    "city": "三原市",
    "category": "rouken",
    "serviceType": "介護老人保健施設",
    "capacity": 80,
    "openDays": [],
    "openDaysNote": ""
  },
  {
    "id": "3453880019",
    "name": "社会医療法人　里仁会　介護老人保健施設　仁和の里",
    "kana": "シャカイイリョウホウジン　リジンカイ　カイゴロウジンホケンシセツ　ニワノサト",
    "address": "三原市大和町和木1505番地",
    "lat": 34.5108982,
    "lng": 132.9228299,
    "tel": "0847-34-1216",
    "url": "http://rijinkai.or.jp/",
    "pref": "広島県",
    "city": "三原市",
    "category": "rouken",
    "serviceType": "介護老人保健施設",
    "capacity": 0,
    "openDays": [],
    "openDaysNote": ""
  },
  {
    "id": "3450980010",
    "name": "社会医療法人里仁会　介護老人保健施設　里仁苑",
    "kana": "シャカイイリョウホウジンリジンカイ　カイゴロウジンホケンシセツ　リジンエン",
    "address": "広島県三原市皆実3丁目3-28",
    "lat": 34.3914809,
    "lng": 133.0660891,
    "tel": "0848-62-4411",
    "url": "http://www．rijinen.jp/",
    "pref": "広島県",
    "city": "三原市",
    "category": "rouken",
    "serviceType": "介護老人保健施設",
    "capacity": 0,
    "openDays": [],
    "openDaysNote": ""
  },
  {
    "id": "3451980050",
    "name": "介護老人保健施設　ナーシングホーム沙羅",
    "kana": "カイゴロウジンホケンシセツ　ナーシングホームサラ",
    "address": "広島県三次市山家町605番地の24",
    "lat": 34.8464735085615,
    "lng": 132.836831024081,
    "tel": "0824-62-8800",
    "url": "http://mifukai.jp/",
    "pref": "広島県",
    "city": "三次市",
    "category": "rouken",
    "serviceType": "介護老人保健施設",
    "capacity": 0,
    "openDays": [],
    "openDaysNote": ""
  },
  {
    "id": "3451980019",
    "name": "介護老人保健施設ピレネ",
    "kana": "カイゴロウジンホケンシセツピレネ",
    "address": "三次市粟屋町1743-8",
    "lat": 34.8102089,
    "lng": 132.836353,
    "tel": "0824-62-8126",
    "url": "https://sinwakai340.e-doctor.info/pirene/",
    "pref": "広島県",
    "city": "三次市",
    "category": "rouken",
    "serviceType": "介護老人保健施設",
    "capacity": 0,
    "openDays": [],
    "openDaysNote": ""
  },
  {
    "id": "3451980027",
    "name": "介護老人保健施設リカバリーセンター章仁苑",
    "kana": "カイゴロウジンホケンシセツリカバリーセンターショウジンエン",
    "address": "三次市和知町字歳政１１８００番地２１",
    "lat": 34.7990894924998,
    "lng": 132.920990151065,
    "tel": "0824-66-2755",
    "url": "http://www.shoujin.or.jp/",
    "pref": "広島県",
    "city": "三次市",
    "category": "rouken",
    "serviceType": "介護老人保健施設",
    "capacity": 0,
    "openDays": [],
    "openDaysNote": ""
  },
  {
    "id": "3451980043",
    "name": "三次地区医師会介護老人保健施設あさぎり",
    "kana": "ミヨシチクイシカイカイゴロウジンホケンシセツアサギリ",
    "address": "三次市粟屋町柳迫1649-1",
    "lat": 34.8077593451124,
    "lng": 132.836640480951,
    "tel": "0824-62-6611",
    "url": "",
    "pref": "広島県",
    "city": "三次市",
    "category": "rouken",
    "serviceType": "介護老人保健施設",
    "capacity": 80,
    "openDays": [],
    "openDaysNote": ""
  },
  {
    "id": "3452180015",
    "name": "介護老人保健施設　愛生苑",
    "kana": "カイゴロウジンホケンシセツ　アイセイエン",
    "address": "庄原市上原町1810-1",
    "lat": 34.8534409381976,
    "lng": 133.003625277057,
    "tel": "0824-72-8686",
    "url": "http://seijin-kai.com/",
    "pref": "広島県",
    "city": "庄原市",
    "category": "rouken",
    "serviceType": "介護老人保健施設",
    "capacity": 0,
    "openDays": [],
    "openDaysNote": ""
  },
  {
    "id": "3452180031",
    "name": "介護老人保健施設こぶしの里",
    "kana": "カイゴロウジンホケンシセツコブシノサト",
    "address": "広島県庄原市東城町川東152-4",
    "lat": 34.9021028,
    "lng": 133.2741411,
    "tel": "08477-2-5252",
    "url": "http://keijinkai-swc.or.jp",
    "pref": "広島県",
    "city": "庄原市",
    "category": "rouken",
    "serviceType": "介護老人保健施設",
    "capacity": null,
    "openDays": [],
    "openDaysNote": ""
  },
  {
    "id": "3452180023",
    "name": "庄原市立西城市民病院介護老人保健施設せせらぎ",
    "kana": "ショウバラシリツサイジョウシミンビョウインカイゴロウジンホケンシセツセセラギ",
    "address": "庄原市西城町中野1339",
    "lat": 34.939795,
    "lng": 133.1158322,
    "tel": "0824-82-2601",
    "url": "",
    "pref": "広島県",
    "city": "庄原市",
    "category": "rouken",
    "serviceType": "介護老人保健施設",
    "capacity": 0,
    "openDays": [],
    "openDaysNote": ""
  },
  {
    "id": "3454680012",
    "name": "介護老人保健施設　ビーブル神石三和",
    "kana": "カイゴロウジンホケンシセツ　ビーブルジンセキサンワ",
    "address": "広島県神石郡神石高原町小畠1500-1",
    "lat": 34.704392,
    "lng": 133.2524713,
    "tel": "0847-89-3030",
    "url": "http://www.kbk-group.or.jp/",
    "pref": "広島県",
    "city": "神石高原町",
    "category": "rouken",
    "serviceType": "介護老人保健施設",
    "capacity": 83,
    "openDays": [],
    "openDaysNote": ""
  },
  {
    "id": "3454280011",
    "name": "介護老人保健施設　葵の園・セラ",
    "kana": "カイゴロウジンホケンシセツ　アオイノソノ・セラ",
    "address": "広島県世羅郡世羅町本郷1216",
    "lat": 34.5915634,
    "lng": 133.0433524,
    "tel": "0847-22-5000",
    "url": "https://www.aoikai.jp",
    "pref": "広島県",
    "city": "世羅町",
    "category": "rouken",
    "serviceType": "介護老人保健施設",
    "capacity": 142,
    "openDays": [],
    "openDaysNote": ""
  },
  {
    "id": "3452380011",
    "name": "介護老人保健施設ゆうゆ",
    "kana": "カイゴロウジンホケンシセツユウユ",
    "address": "広島県大竹市玖波5-2-2",
    "lat": 34.2573555,
    "lng": 132.2237828,
    "tel": "0827-57-8377",
    "url": "http://tijinkai.or.jp/",
    "pref": "広島県",
    "city": "大竹市",
    "category": "rouken",
    "serviceType": "介護老人保健施設",
    "capacity": 0,
    "openDays": [],
    "openDaysNote": ""
  },
  {
    "id": "3450780030",
    "name": "介護老人保健施設　まお",
    "kana": "カイゴロウジンホケンシセツ　マオ",
    "address": "竹原市下野町3126番地の1",
    "lat": 34.3529815,
    "lng": 132.8997616,
    "tel": "0846-22-3007",
    "url": "http://www.yasudabyouin.com/",
    "pref": "広島県",
    "city": "竹原市",
    "category": "rouken",
    "serviceType": "介護老人保健施設",
    "capacity": null,
    "openDays": [],
    "openDaysNote": ""
  },
  {
    "id": "3450780014",
    "name": "竹原むつみ老人保健施設",
    "kana": "タケハラムツミロウジンホケンシセツ",
    "address": "竹原市下野町650番地",
    "lat": 34.3551784,
    "lng": 132.8979036,
    "tel": "0846-22-7623",
    "url": "https://www.keisenkai-gr.jp/takehara-mutsumi/",
    "pref": "広島県",
    "city": "竹原市",
    "category": "rouken",
    "serviceType": "介護老人保健施設",
    "capacity": 0,
    "openDays": [],
    "openDaysNote": ""
  },
  {
    "id": "3450780022",
    "name": "老人保健施設ゆさか",
    "kana": "ロウジンホケンシセツユサカ",
    "address": "竹原市西野町槇ヶ坪184番地",
    "lat": 34.3954898,
    "lng": 132.8847774,
    "tel": "0846-29-2190",
    "url": "http://www.jinjyukai-takehara.or.jp/",
    "pref": "広島県",
    "city": "竹原市",
    "category": "rouken",
    "serviceType": "介護老人保健施設",
    "capacity": 88,
    "openDays": [],
    "openDaysNote": ""
  },
  {
    "id": "3454080015",
    "name": "介護老人保健施設　あきまろ園",
    "kana": "カイゴロウジンホケンシセツ　アキマロエン",
    "address": "東広島市安芸津町風早４９７－４１",
    "lat": 34.3164501760257,
    "lng": 132.785231328836,
    "tel": "0846-45-6100",
    "url": "http://hakujukai.jp",
    "pref": "広島県",
    "city": "東広島市",
    "category": "rouken",
    "serviceType": "介護老人保健施設",
    "capacity": 49,
    "openDays": [],
    "openDaysNote": ""
  },
  {
    "id": "3452580032",
    "name": "介護老人保健施設　きさか",
    "kana": "カイゴロウジンホケンシセツキサカ",
    "address": "東広島市西条町土与丸１２３５番地",
    "lat": 34.4273665,
    "lng": 132.7578003,
    "tel": "082-422-1560",
    "url": "http://www.kisaka-hp.or.jp",
    "pref": "広島県",
    "city": "東広島市",
    "category": "rouken",
    "serviceType": "介護老人保健施設",
    "capacity": 50,
    "openDays": [],
    "openDaysNote": ""
  },
  {
    "id": "3452580040",
    "name": "介護老人保健施設　葵の園・広島空港",
    "kana": "カイゴロウジンホケンシセツ　アオイノソノ・ヒロシマクウコウ",
    "address": "東広島市河内町入野7841番地2",
    "lat": 34.4433034,
    "lng": 132.8722994,
    "tel": "082-420-7171",
    "url": "http://www.aoikai.jp",
    "pref": "広島県",
    "city": "東広島市",
    "category": "rouken",
    "serviceType": "介護老人保健施設",
    "capacity": 0,
    "openDays": [],
    "openDaysNote": ""
  },
  {
    "id": "3452580073",
    "name": "介護老人保健施設　葵の園・東広島",
    "kana": "カイゴロウジンホケンシセツ　アオイノソノ　ヒガシヒロシマ",
    "address": "広島県東広島市西条町寺家800番地",
    "lat": 34.4372792,
    "lng": 132.7344265,
    "tel": "082-422-9200",
    "url": "https://www.aoikai.jp/higashihiroshima/",
    "pref": "広島県",
    "city": "東広島市",
    "category": "rouken",
    "serviceType": "介護老人保健施設",
    "capacity": null,
    "openDays": [],
    "openDaysNote": ""
  },
  {
    "id": "3452580065",
    "name": "介護老人保健施設もみじ園",
    "kana": "カイゴロウジンホケンシセツモミジエン",
    "address": "東広島市黒瀬町乃美尾555番地1",
    "lat": 34.3165023,
    "lng": 132.6911013,
    "tel": "0823-83-6061",
    "url": "https://www.aoikai.jp/",
    "pref": "広島県",
    "city": "東広島市",
    "category": "rouken",
    "serviceType": "介護老人保健施設",
    "capacity": null,
    "openDays": [],
    "openDaysNote": ""
  },
  {
    "id": "3452580016",
    "name": "介護老人保健施設ゆうゆうの園",
    "kana": "カイゴロウジンホケンシセツユウユウノソノ",
    "address": "東広島市西条町御薗宇703",
    "lat": 34.4004391,
    "lng": 132.7527904,
    "tel": "082-423-2727",
    "url": "http://www.youyou.or.jp/",
    "pref": "広島県",
    "city": "東広島市",
    "category": "rouken",
    "serviceType": "介護老人保健施設",
    "capacity": 0,
    "openDays": [],
    "openDaysNote": ""
  },
  {
    "id": "3452780020",
    "name": "医療法人あかね会介護老人保健施設シェスタ",
    "kana": "イリョウホウジンアカネカイカイゴロウジンホケンシセツシェスタ",
    "address": "廿日市市阿品四丁目51番１号",
    "lat": 34.3200385,
    "lng": 132.3106746,
    "tel": "0829-36-2080",
    "url": "https://www.tsuchiya-hp.jp/siesta/",
    "pref": "広島県",
    "city": "廿日市市",
    "category": "rouken",
    "serviceType": "介護老人保健施設",
    "capacity": 100,
    "openDays": [],
    "openDaysNote": ""
  },
  {
    "id": "3453380010",
    "name": "介護老人保健施設「べにまんさくの里」",
    "kana": "カイゴロウジンホケンシセツ「ベニマンサクノサト」",
    "address": "廿日市市大野1320",
    "lat": 34.2976739,
    "lng": 132.2749613,
    "tel": "0829-50-0031",
    "url": "http://www.koujinkai.org/benimansaku/benimansaku.html",
    "pref": "広島県",
    "city": "廿日市市",
    "category": "rouken",
    "serviceType": "介護老人保健施設",
    "capacity": 0,
    "openDays": [],
    "openDaysNote": ""
  },
  {
    "id": "3452780012",
    "name": "介護老人保健施設ひまわり",
    "kana": "カイゴロウジンホケンシセツヒマワリ",
    "address": "廿日市市宮内字佐原田4211-4",
    "lat": 34.339785758274,
    "lng": 132.298883218247,
    "tel": "0829-38-3111",
    "url": "http://www.miyauchi.or.jp/",
    "pref": "広島県",
    "city": "廿日市市",
    "category": "rouken",
    "serviceType": "介護老人保健施設",
    "capacity": 0,
    "openDays": [],
    "openDaysNote": ""
  },
  {
    "id": "3452780038",
    "name": "介護老人保健施設原",
    "kana": "カイゴロウジンホケンシセツハラ",
    "address": "廿日市市原926番地の１",
    "lat": 34.3687219,
    "lng": 132.2999968,
    "tel": "0829-38-3333",
    "url": "http://www.misasakai.or.jp/",
    "pref": "広島県",
    "city": "廿日市市",
    "category": "rouken",
    "serviceType": "介護老人保健施設",
    "capacity": 0,
    "openDays": [],
    "openDaysNote": ""
  },
  {
    "id": "3451180032",
    "name": "一般社団法人尾道市医師会　介護老人保健施設　やすらぎの家",
    "kana": "イッパンシャダンホウジンオノミチシイシカイ　カイゴロウジンホケンシセツ　ヤスラギノイエ",
    "address": "尾道市久保町1718番地",
    "lat": 34.4217243,
    "lng": 133.2093988,
    "tel": "0848-20-7150",
    "url": "http://www.onomichi-med.or.jp/yasuraginoie/",
    "pref": "広島県",
    "city": "尾道市",
    "category": "rouken",
    "serviceType": "介護老人保健施設",
    "capacity": null,
    "openDays": [],
    "openDaysNote": ""
  },
  {
    "id": "3451180065",
    "name": "因島医師会介護老人保健施設ビロードの丘",
    "kana": "インノシマイシカイカイゴロウジンホケンシセツビロードノオカ",
    "address": "尾道市因島中庄町1955番地",
    "lat": 34.3122848,
    "lng": 133.1534678,
    "tel": "0845-24-1209",
    "url": "",
    "pref": "広島県",
    "city": "尾道市",
    "category": "rouken",
    "serviceType": "介護老人保健施設",
    "capacity": 0,
    "openDays": [],
    "openDaysNote": ""
  },
  {
    "id": "3451180016",
    "name": "介護老人保健施設　くぼ",
    "kana": "カイゴロウジンホケンシセツ　クボ",
    "address": "尾道市久保2丁目24-17",
    "lat": 34.4098394,
    "lng": 133.205894,
    "tel": "0848-37-3102",
    "url": "https://www.kougame.jp/",
    "pref": "広島県",
    "city": "尾道市",
    "category": "rouken",
    "serviceType": "介護老人保健施設",
    "capacity": null,
    "openDays": [],
    "openDaysNote": ""
  },
  {
    "id": "3451180057",
    "name": "介護老人保健施設　シラユリ",
    "kana": "カイゴロウジンホケンシセツ　シラユリ",
    "address": "尾道市向東町鍵屋谷2830",
    "lat": 34.4025652,
    "lng": 133.2180464,
    "tel": "0848-20-6009",
    "url": "https://www.yoshiharamedicalgroup.com/",
    "pref": "広島県",
    "city": "尾道市",
    "category": "rouken",
    "serviceType": "介護老人保健施設",
    "capacity": null,
    "openDays": [],
    "openDaysNote": ""
  },
  {
    "id": "3451180024",
    "name": "介護老人保健施設　シルバーケア　ヨシハラ",
    "kana": "カイゴロウジンホケンシセツ　シルバーケア　ヨシハラ",
    "address": "尾道市向東町8883番地の5",
    "lat": 34.399871,
    "lng": 133.2213768,
    "tel": "0848-44-4800",
    "url": "https://www.yoshiharamedicalgroup.com/",
    "pref": "広島県",
    "city": "尾道市",
    "category": "rouken",
    "serviceType": "介護老人保健施設",
    "capacity": null,
    "openDays": [],
    "openDaysNote": ""
  },
  {
    "id": "3451180040",
    "name": "介護老人保健施設　精彩園",
    "kana": "カイゴロウジンホケンシセツ　セイサイエン",
    "address": "尾道市美ノ郷町三成339番地3",
    "lat": 34.4412163,
    "lng": 133.1974377,
    "tel": "0848-48-5511",
    "url": "http://www.seisaikai.or.jp",
    "pref": "広島県",
    "city": "尾道市",
    "category": "rouken",
    "serviceType": "介護老人保健施設",
    "capacity": 60,
    "openDays": [],
    "openDaysNote": ""
  },
  {
    "id": "3454180013",
    "name": "公立みつぎ総合病院介護老人保健施設「みつぎの苑」",
    "kana": "コウリツミツギソウゴウビョウインカイゴロウジンホケンシセツミツギノソノ",
    "address": "尾道市御調町高尾１３４８番地６",
    "lat": 34.5140678,
    "lng": 133.1327265,
    "tel": "0848-76-0373",
    "url": "http://www.mitsugibyouin.com",
    "pref": "広島県",
    "city": "尾道市",
    "category": "rouken",
    "serviceType": "介護老人保健施設",
    "capacity": 0,
    "openDays": [],
    "openDaysNote": ""
  },
  {
    "id": "3454180021",
    "name": "公立みつぎ総合病院介護老人保健施設「みつぎの苑」ユニット",
    "kana": "コウリツミツギソウゴウビョウインカイゴロウジンホケンシセツミツギノソノユニット",
    "address": "広島県尾道市御調町高尾１３４８－６",
    "lat": 34.5140678,
    "lng": 133.1327265,
    "tel": "0848-76-0373",
    "url": "http://www.mitsugibyouin.com",
    "pref": "広島県",
    "city": "尾道市",
    "category": "rouken",
    "serviceType": "介護老人保健施設",
    "capacity": null,
    "openDays": [],
    "openDaysNote": ""
  },
  {
    "id": "3451380012",
    "name": "老人保健施設　あおかげ苑",
    "kana": "ロウジンホケンシセツ　アオカゲエン",
    "address": "尾道市因島中庄町字大山1032番地の1",
    "lat": 34.3114263,
    "lng": 133.1756998,
    "tel": "0845-26-2233",
    "url": "https://aokage.jp/",
    "pref": "広島県",
    "city": "尾道市",
    "category": "rouken",
    "serviceType": "介護老人保健施設",
    "capacity": 0,
    "openDays": [],
    "openDaysNote": ""
  },
  {
    "id": "3451780013",
    "name": "介護老人保健施設　あいあい",
    "kana": "カイゴロウジンホケンシセツ　アイアイ",
    "address": "府中市三郎丸町137",
    "lat": 34.5443113,
    "lng": 133.1876872,
    "tel": "0847-40-1010",
    "url": "http://www.aiai-fukushi.net/saburo/",
    "pref": "広島県",
    "city": "府中市",
    "category": "rouken",
    "serviceType": "介護老人保健施設",
    "capacity": 0,
    "openDays": [],
    "openDaysNote": ""
  },
  {
    "id": "3454780010",
    "name": "介護老人保健施設　かがやき苑",
    "kana": "カイゴロウジンホケンシセツ　カガヤキエン",
    "address": "府中市上下町深江10488番地1",
    "lat": 34.6825944,
    "lng": 133.1200914,
    "tel": "0847-62-4313",
    "url": "https://www.oujinkai.com/info",
    "pref": "広島県",
    "city": "府中市",
    "category": "rouken",
    "serviceType": "介護老人保健施設",
    "capacity": 65,
    "openDays": [],
    "openDaysNote": ""
  },
  {
    "id": "3453280012",
    "name": "老人保健施設チェリーゴード",
    "kana": "ロウジンホケンシセツチェリーゴード",
    "address": "広島県安芸郡府中町柳ヶ丘20番18号",
    "lat": 34.3828906,
    "lng": 132.5148318,
    "tel": "082-508-0223",
    "url": "http://www.fig-g.jp/",
    "pref": "広島県",
    "city": "府中町",
    "category": "rouken",
    "serviceType": "介護老人保健施設",
    "capacity": 0,
    "openDays": [],
    "openDaysNote": ""
  },
  {
    "id": "3451580108",
    "name": "駅家リハビリテーションＳＡＫＵＲＡ",
    "kana": "エキヤリハビリテーションサクラ",
    "address": "福山市駅家町万能倉1046-2",
    "lat": 34.5500176,
    "lng": 133.329758,
    "tel": "084-977-0058",
    "url": "https://ekiya-sakura.jp/sakura/",
    "pref": "広島県",
    "city": "福山市",
    "category": "rouken",
    "serviceType": "介護老人保健施設",
    "capacity": null,
    "openDays": [],
    "openDaysNote": ""
  },
  {
    "id": "3451580058",
    "name": "介護老人保健施設　かなえ",
    "kana": "カイゴロウジンホケンシセツ　カナエ",
    "address": "広島県福山市金江町藁江550番地1",
    "lat": 34.4412811,
    "lng": 133.3077236,
    "tel": "084-935-8135",
    "url": "http://www.eiwa-kai.or.jp/about/kaigo-info/shisetu04/",
    "pref": "広島県",
    "city": "福山市",
    "category": "rouken",
    "serviceType": "介護老人保健施設",
    "capacity": 0,
    "openDays": [],
    "openDaysNote": ""
  },
  {
    "id": "3451580082",
    "name": "介護老人保健施設　くつろぎ苑",
    "kana": "カイゴロウジンホケンシセツ　クツロギエン",
    "address": "福山市東手城町一丁目28番31号",
    "lat": 34.4842914,
    "lng": 133.4020741,
    "tel": "084-945-7000",
    "url": "https://kutsurogien.com/",
    "pref": "広島県",
    "city": "福山市",
    "category": "rouken",
    "serviceType": "介護老人保健施設",
    "capacity": 0,
    "openDays": [],
    "openDaysNote": ""
  },
  {
    "id": "3451580041",
    "name": "介護老人保健施設　サンスクエア沼南",
    "kana": "カイゴロウジンホケンシセツ　サンスクエアショウナン",
    "address": "福山市水呑町3332-1",
    "lat": 34.4384823,
    "lng": 133.386757,
    "tel": "084-956-1177",
    "url": "http://www.sunsquare-1993.org/",
    "pref": "広島県",
    "city": "福山市",
    "category": "rouken",
    "serviceType": "介護老人保健施設",
    "capacity": 0,
    "openDays": [],
    "openDaysNote": ""
  },
  {
    "id": "3451580090",
    "name": "介護老人保健施設　せんだの里",
    "kana": "カイゴロウジンホケンシセツ　センダノサト",
    "address": "福山市千田町二丁目5番5号",
    "lat": 34.5177462,
    "lng": 133.3674088,
    "tel": "084-961-1500",
    "url": "http://www.sendanosato.com",
    "pref": "広島県",
    "city": "福山市",
    "category": "rouken",
    "serviceType": "介護老人保健施設",
    "capacity": null,
    "openDays": [],
    "openDaysNote": ""
  },
  {
    "id": "3451580116",
    "name": "介護老人保健施設　ビーブルかんなべ",
    "kana": "カイゴロウジンホケンシセツ　ビーブルカンナベ",
    "address": "福山市神辺町川南547番地7",
    "lat": 34.5377052,
    "lng": 133.369264,
    "tel": "084-960-0881",
    "url": "http://www.kbk-group.or.jp/b-k.html",
    "pref": "広島県",
    "city": "福山市",
    "category": "rouken",
    "serviceType": "介護老人保健施設",
    "capacity": 0,
    "openDays": [],
    "openDaysNote": ""
  },
  {
    "id": "3454480025",
    "name": "介護老人保健施設　ふぁみりい",
    "kana": "カイゴロウジンホケンシセツ　ファミリイ",
    "address": "福山市神辺町道上２９７７番地の１",
    "lat": 34.5503827,
    "lng": 133.3533386,
    "tel": "084-960-0300",
    "url": "http://family-roken.jp/",
    "pref": "広島県",
    "city": "福山市",
    "category": "rouken",
    "serviceType": "介護老人保健施設",
    "capacity": 0,
    "openDays": [],
    "openDaysNote": ""
  },
  {
    "id": "3451580074",
    "name": "介護老人保健施設グリーンハウス宏喜苑",
    "kana": "カイゴロウジンホケンシセツグリーンハウスコウキエン",
    "address": "福山市南本庄三丁目8番17号",
    "lat": 34.4840467,
    "lng": 133.353527,
    "tel": "084-920-8111",
    "url": "https://koukien.com/",
    "pref": "広島県",
    "city": "福山市",
    "category": "rouken",
    "serviceType": "介護老人保健施設",
    "capacity": 0,
    "openDays": [],
    "openDaysNote": ""
  },
  {
    "id": "3454580014",
    "name": "介護老人保健施設ジョイトピアしんいち",
    "kana": "カイゴロウジンホケンシセツジョイトピアシンイチ",
    "address": "福山市新市町下安井３５１０",
    "lat": 34.5712617,
    "lng": 133.2834447,
    "tel": "0847-51-2226",
    "url": "http://joytopia.or.jp",
    "pref": "広島県",
    "city": "福山市",
    "category": "rouken",
    "serviceType": "介護老人保健施設",
    "capacity": 0,
    "openDays": [],
    "openDaysNote": ""
  },
  {
    "id": "3454380019",
    "name": "介護老人保健施設ぬまくま",
    "kana": "カイゴロウジンホケンシセツヌマクマ",
    "address": "福山市沼隈町中山南４６９番地３",
    "lat": 34.4195314202963,
    "lng": 133.32332960791,
    "tel": "084-988-1165",
    "url": "http://shounankai.or.jp/",
    "pref": "広島県",
    "city": "福山市",
    "category": "rouken",
    "serviceType": "介護老人保健施設",
    "capacity": 60,
    "openDays": [],
    "openDaysNote": ""
  },
  {
    "id": "3451580033",
    "name": "介護老人保健施設ビーブル春秋苑",
    "kana": "カイゴロウジンホケンシセツビーブルシュンジュウエン",
    "address": "福山市王子町１－４－５",
    "lat": 34.4868076,
    "lng": 133.3836061,
    "tel": "084-928-5800",
    "url": "http://www.kbk-group.or.jp/b-s.html",
    "pref": "広島県",
    "city": "福山市",
    "category": "rouken",
    "serviceType": "介護老人保健施設",
    "capacity": 70,
    "openDays": [],
    "openDaysNote": ""
  },
  {
    "id": "3451580132",
    "name": "介護老人保健施設ゆめの杜",
    "kana": "カイゴロウジンホケンシセツユメノモリ",
    "address": "広島県福山市千田町大字千田2591-1",
    "lat": 34.5173113,
    "lng": 133.3860835,
    "tel": "084-955-0080",
    "url": "https://www.yumenomori-rk.jp",
    "pref": "広島県",
    "city": "福山市",
    "category": "rouken",
    "serviceType": "介護老人保健施設",
    "capacity": 0,
    "openDays": [],
    "openDaysNote": ""
  },
  {
    "id": "3451580025",
    "name": "老人保健施設サンビレッジ",
    "kana": "ロウジンホケンシセツサンビレッジ",
    "address": "広島県福山市春日町7-6-27",
    "lat": 34.5087723,
    "lng": 133.4152079,
    "tel": "084-941-5111",
    "url": "http://www.toukoukai.or.jp/",
    "pref": "広島県",
    "city": "福山市",
    "category": "rouken",
    "serviceType": "介護老人保健施設",
    "capacity": 95,
    "openDays": [],
    "openDaysNote": ""
  },
  {
    "id": "3451580017",
    "name": "老人保健施設ハイトピア・カイセイ",
    "kana": "ロウジンホケンシセツハイトピア・カイセイ",
    "address": "広島県福山市引野町5丁目9番21号",
    "lat": 34.4929627,
    "lng": 133.403579,
    "tel": "084-945-1717",
    "url": "http://www.haitopia.fukuyama-kaisei.jp/index.html",
    "pref": "広島県",
    "city": "福山市",
    "category": "rouken",
    "serviceType": "介護老人保健施設",
    "capacity": 0,
    "openDays": [],
    "openDaysNote": ""
  },
  {
    "id": "3453580015",
    "name": "介護老人保健施設あけぼの",
    "kana": "カイゴロウジンホケンシセツアケボノ",
    "address": "広島県山県郡北広島町壬生915-4",
    "lat": 34.6803683,
    "lng": 132.5530401,
    "tel": "0826-72-2500",
    "url": "http://www.m-meiwakai.jp",
    "pref": "広島県",
    "city": "北広島町",
    "category": "rouken",
    "serviceType": "介護老人保健施設",
    "capacity": null,
    "openDays": [],
    "openDaysNote": ""
  }
]