[
  {
    "id": "3651380440",
    "name": "介護老人保健施設　ロイヤルケアセンター",
    "kana": "カイゴロウジンホケンシセツ　ロイヤルケアセンター",
    "address": "羽ノ浦町中庄池ノ上55-1",
    "lat": 33.9579124054256,
    "lng": 134.635649246314,
    "tel": "0884-24-8828",
    "url": "http://royal-carecenter.main.jp/",
    "pref": "徳島県",
    "city": "阿南市",
    "category": "rouken",
    "serviceType": "介護老人保健施設",
    "capacity": 0,
    "openDays": [],
    "openDaysNote": ""
  },
  {
    "id": "3650480308",
    "name": "介護老人保健施設　正静絹",
    "kana": "カイゴロウジンホケンシセツ　セイセイケン",
    "address": "徳島県阿南市桑野町岡元5-1",
    "lat": 33.8753153679836,
    "lng": 134.613193855959,
    "tel": "0884-26-1122",
    "url": "http://www.iseikai.or.jp",
    "pref": "徳島県",
    "city": "阿南市",
    "category": "rouken",
    "serviceType": "介護老人保健施設",
    "capacity": null,
    "openDays": [],
    "openDaysNote": ""
  },
  {
    "id": "3650480001",
    "name": "介護老人保健施設阿南名月苑",
    "kana": "カイゴロウジンホケンシセツアナンメイゲツエン",
    "address": "徳島県阿南市上中町南島325-1介護老人保健施設阿南名月苑 介護老人保健施設阿南名月苑",
    "lat": 33.937041,
    "lng": 134.6240495,
    "tel": "0884-22-2210",
    "url": "http://tenma-hpg.com/kaigo/ananmeigetsuen/",
    "pref": "徳島県",
    "city": "阿南市",
    "category": "rouken",
    "serviceType": "介護老人保健施設",
    "capacity": 0,
    "openDays": [],
    "openDaysNote": ""
  },
  {
    "id": "3650480274",
    "name": "老人保健施設悠心館",
    "kana": "ロウジンホケンシセツユウシンカン",
    "address": "徳島県阿南市新野町信里6-1",
    "lat": 33.8469681,
    "lng": 134.5995473,
    "tel": "0884-36-3637",
    "url": "https://maharahospital.jp/",
    "pref": "徳島県",
    "city": "阿南市",
    "category": "rouken",
    "serviceType": "介護老人保健施設",
    "capacity": 0,
    "openDays": [],
    "openDaysNote": ""
  },
  {
    "id": "3651580361",
    "name": "介護老人保健施設しょうか苑",
    "kana": "カイゴロウジンホケンシセツショウカエン",
    "address": "徳島県阿波市土成町吉田字原田市ノ三６０番地１",
    "lat": 34.1089304,
    "lng": 134.3460431,
    "tel": "088-695-5555",
    "url": "https://youaijitsu.com",
    "pref": "徳島県",
    "city": "阿波市",
    "category": "rouken",
    "serviceType": "介護老人保健施設",
    "capacity": 0,
    "openDays": [],
    "openDaysNote": ""
  },
  {
    "id": "3651680013",
    "name": "介護老人保健施設リブイン・クローバー",
    "kana": "カイゴロウジンホケンシセツリブイン・クローバー",
    "address": "市場町市場字町筋１７２番地１",
    "lat": 34.0946739,
    "lng": 134.2819836,
    "tel": "0883-36-7711",
    "url": "http://www.houetsu-hospital.jp/",
    "pref": "徳島県",
    "city": "阿波市",
    "category": "rouken",
    "serviceType": "介護老人保健施設",
    "capacity": 0,
    "openDays": [],
    "openDaysNote": ""
  },
  {
    "id": "3651480372",
    "name": "老人保健施設　ジャンボ緑風会",
    "kana": "ロウジンホケンシセツ　ジャンボリョクフウカイ",
    "address": "徳島県海部郡海陽町久保字板取243番310",
    "lat": 33.5763542065014,
    "lng": 134.306658049074,
    "tel": "0884-76-3888",
    "url": "https://www.kenshokai.group/",
    "pref": "徳島県",
    "city": "海陽町",
    "category": "rouken",
    "serviceType": "介護老人保健施設",
    "capacity": 120,
    "openDays": [],
    "openDaysNote": ""
  },
  {
    "id": "3651780037",
    "name": "医療法人　青鳳会　介護老人保健施設　やすらぎ荘",
    "kana": "イリョウホウジン　セイホウカイ　カイゴロウジンホケンシセツ　ヤスラギソウ",
    "address": "徳島県吉野川市鴨島町上下島495-5",
    "lat": 34.0708042,
    "lng": 134.3494345,
    "tel": "0883-24-6564",
    "url": "https://www.mima-gr.jp/yasuragi/",
    "pref": "徳島県",
    "city": "吉野川市",
    "category": "rouken",
    "serviceType": "介護老人保健施設",
    "capacity": 0,
    "openDays": [],
    "openDaysNote": ""
  },
  {
    "id": "3651780144",
    "name": "介護老人保健施設　長寿園",
    "kana": "カイゴロウジンホケンシセツ　チョウジュエン",
    "address": "徳島県吉野川市鴨島町内原432番地",
    "lat": 34.0697656,
    "lng": 134.3674972,
    "tel": "0883-24-7888",
    "url": "http://kamojima.t-group.net",
    "pref": "徳島県",
    "city": "吉野川市",
    "category": "rouken",
    "serviceType": "介護老人保健施設",
    "capacity": 100,
    "openDays": [],
    "openDaysNote": ""
  },
  {
    "id": "3651780151",
    "name": "介護老人保健施設リハビリセンターのぞみ",
    "kana": "カイゴロウジンホケンシセツリハビリセンターノゾミ",
    "address": "徳島県吉野川市山川町祇園41-5",
    "lat": 34.05664,
    "lng": 134.2490283,
    "tel": "0883-42-6616",
    "url": "https://miki-rehabili.jp",
    "pref": "徳島県",
    "city": "吉野川市",
    "category": "rouken",
    "serviceType": "介護老人保健施設",
    "capacity": 0,
    "openDays": [],
    "openDaysNote": ""
  },
  {
    "id": "3651780052",
    "name": "老人保健施設　健祥会ウェル",
    "kana": "ロウジンホケンシセツ　ケンショウカイウェル",
    "address": "徳島県吉野川市川島町川島114番地3",
    "lat": 34.0669427,
    "lng": 134.3212872,
    "tel": "0883-25-3333",
    "url": "https://www.kenshokai.group/",
    "pref": "徳島県",
    "city": "吉野川市",
    "category": "rouken",
    "serviceType": "介護老人保健施設",
    "capacity": 120,
    "openDays": [],
    "openDaysNote": ""
  },
  {
    "id": "3651980389",
    "name": "介護老人保健施設ハーモニー",
    "kana": "カイゴロウジンホケンシセツハーモニー",
    "address": "徳島県三好市池田町州津堂面２１８番地１",
    "lat": 34.0260411,
    "lng": 133.8072634,
    "tel": "0883-72-1069",
    "url": "",
    "pref": "徳島県",
    "city": "三好市",
    "category": "rouken",
    "serviceType": "介護老人保健施設",
    "capacity": 60,
    "openDays": [],
    "openDaysNote": ""
  },
  {
    "id": "3651980124",
    "name": "介護老人保健施設ハピネス",
    "kana": "カイゴロウジンホケンシセツハピネス",
    "address": "池田町中西西原209-1介護老人保健施設ハピネス 介護老人保健施設ハピネス",
    "lat": 34.0090121,
    "lng": 133.7867579,
    "tel": "0883-74-1110",
    "url": "https://uchida-kai.jp/kaigo-homes/happiness/",
    "pref": "徳島県",
    "city": "三好市",
    "category": "rouken",
    "serviceType": "介護老人保健施設",
    "capacity": 50,
    "openDays": [],
    "openDaysNote": ""
  },
  {
    "id": "3651980488",
    "name": "介護老人保健施設ふれあい",
    "kana": "カイゴロウジンホケンシセツフレアイ",
    "address": "徳島県三好市三野町加茂野宮1509番地1",
    "lat": 34.0562316,
    "lng": 133.9884258,
    "tel": "0883-76-2080",
    "url": "http://www.kyoritsuhp.or.jp/fureai.html",
    "pref": "徳島県",
    "city": "三好市",
    "category": "rouken",
    "serviceType": "介護老人保健施設",
    "capacity": 0,
    "openDays": [],
    "openDaysNote": ""
  },
  {
    "id": "3651980421",
    "name": "老人保健施設すこやか",
    "kana": "ロウジンホケンシセツスコヤカ",
    "address": "徳島県三好市池田町シマ９２７番地２",
    "lat": 34.0284031,
    "lng": 133.815873,
    "tel": "0883-72-5577",
    "url": "",
    "pref": "徳島県",
    "city": "三好市",
    "category": "rouken",
    "serviceType": "介護老人保健施設",
    "capacity": 0,
    "openDays": [],
    "openDaysNote": ""
  },
  {
    "id": "3650380094",
    "name": "医療法人成悠会介護老人保健施設ゆうゆう荘",
    "kana": "イリョウホウジンセイユウカイカイゴロウジンホケンシセツユウユウソウ",
    "address": "徳島県小松島市中田町字狭間48",
    "lat": 34.0152656,
    "lng": 134.5706537,
    "tel": "0885-33-1828",
    "url": "http://tenma-hpg.com/",
    "pref": "徳島県",
    "city": "小松島市",
    "category": "rouken",
    "serviceType": "介護老人保健施設",
    "capacity": 57,
    "openDays": [],
    "openDaysNote": ""
  },
  {
    "id": "3650380011",
    "name": "介護老人保健施設　小松島名月苑",
    "kana": "カイゴロウジンホケンシセツ　コマツシマメイゲツエン",
    "address": "徳島県小松島市中田町字狭間48番地",
    "lat": 34.0152528,
    "lng": 134.5707162,
    "tel": "0885-33-1828",
    "url": "https://tenma-hpg.com",
    "pref": "徳島県",
    "city": "小松島市",
    "category": "rouken",
    "serviceType": "介護老人保健施設",
    "capacity": 0,
    "openDays": [],
    "openDaysNote": ""
  },
  {
    "id": "3650380243",
    "name": "介護老人保健施設　明和苑",
    "kana": "カイゴロウジンホケンシセツ　メイワエン",
    "address": "徳島県小松島市和田島町字浜塚108番地3",
    "lat": 33.9929516,
    "lng": 134.6355013,
    "tel": "0885-37-3777",
    "url": "https://meiwaen.rouken.jp/",
    "pref": "徳島県",
    "city": "小松島市",
    "category": "rouken",
    "serviceType": "介護老人保健施設",
    "capacity": 0,
    "openDays": [],
    "openDaysNote": ""
  },
  {
    "id": "3650380318",
    "name": "介護老人保健施設ライフ慈友館",
    "kana": "カイゴロウジンホケンシセツライフジユウカン",
    "address": "徳島県小松島市赤石町13-24",
    "lat": 33.9793151,
    "lng": 134.6110349,
    "tel": "0885-38-1700",
    "url": "http://www.jiyukai.jp/",
    "pref": "徳島県",
    "city": "小松島市",
    "category": "rouken",
    "serviceType": "介護老人保健施設",
    "capacity": 0,
    "openDays": [],
    "openDaysNote": ""
  },
  {
    "id": "3651580171",
    "name": "介護老人保健施設縁樹",
    "kana": "カイゴロウジンホケンシセツエンジュ",
    "address": "徳島県板野郡松茂町広島字四番越1番地5",
    "lat": 34.1371901,
    "lng": 134.5839503,
    "tel": "088-699-7888",
    "url": "https://yujoukai.jp/kh_enju.html",
    "pref": "徳島県",
    "city": "松茂町",
    "category": "rouken",
    "serviceType": "介護老人保健施設",
    "capacity": 0,
    "openDays": [],
    "openDaysNote": ""
  },
  {
    "id": "3651580353",
    "name": "老人保健施設　健祥会ハート",
    "kana": "ロウジンホケンシセツ　ケンショウカイ",
    "address": "徳島県板野郡上板町下六條字中西50番地1",
    "lat": 34.1113134,
    "lng": 134.4339323,
    "tel": "088-694-6666",
    "url": "http://www.kenshokai.group",
    "pref": "徳島県",
    "city": "上板町",
    "category": "rouken",
    "serviceType": "介護老人保健施設",
    "capacity": 100,
    "openDays": [],
    "openDaysNote": ""
  },
  {
    "id": "3651280467",
    "name": "介護老人保健施設かじかの郷",
    "kana": "カイゴロウジンホケンシセツカジカノサト",
    "address": "徳島県名西郡神山町神領字西野間２３－１",
    "lat": 33.9667937,
    "lng": 134.3480971,
    "tel": "088-676-1013",
    "url": "https://rokenkajikanosat.wixsite.com/nakatniiin",
    "pref": "徳島県",
    "city": "神山町",
    "category": "rouken",
    "serviceType": "介護老人保健施設",
    "capacity": 0,
    "openDays": [],
    "openDaysNote": ""
  },
  {
    "id": "3651280038",
    "name": "介護老人保健施設健生石井老健うぐいす",
    "kana": "カイゴロウジンホケンシセツケンセイイシイロウケンウグイス",
    "address": "徳島県名西郡石井町高川原2155",
    "lat": 34.0810809,
    "lng": 134.4465091,
    "tel": "088-675-3166",
    "url": "",
    "pref": "徳島県",
    "city": "石井町",
    "category": "rouken",
    "serviceType": "介護老人保健施設",
    "capacity": 0,
    "openDays": [],
    "openDaysNote": ""
  },
  {
    "id": "3651280020",
    "name": "喜久寿苑",
    "kana": "キクジュエン",
    "address": "徳島県名西郡石井町高原字桑島561－1",
    "lat": 34.0890827,
    "lng": 134.4266387,
    "tel": "088-674-7755",
    "url": "",
    "pref": "徳島県",
    "city": "石井町",
    "category": "rouken",
    "serviceType": "介護老人保健施設",
    "capacity": 0,
    "openDays": [],
    "openDaysNote": ""
  },
  {
    "id": "3651980454",
    "name": "老人保健施設健祥会シェーンブルン",
    "kana": "ロウジンホケンシセツケンショウカイシェーンブルン",
    "address": "徳島県三好郡東みよし町中庄１３６９番地１",
    "lat": 34.0346020062081,
    "lng": 133.962028319418,
    "tel": "0883-82-6200",
    "url": "https://www.kenshokai.group/",
    "pref": "徳島県",
    "city": "東みよし町",
    "category": "rouken",
    "serviceType": "介護老人保健施設",
    "capacity": 100,
    "openDays": [],
    "openDaysNote": ""
  },
  {
    "id": "3650180288",
    "name": "介護老人保健施設　さくらの郷",
    "kana": "カイゴロウジンホケンシセツ　サクラノサト",
    "address": "徳島県徳島市下町本丁５９－１２",
    "lat": 34.0362224,
    "lng": 134.4869166,
    "tel": "088-644-3888",
    "url": "http://ichiyou-kai.com/",
    "pref": "徳島県",
    "city": "徳島市",
    "category": "rouken",
    "serviceType": "介護老人保健施設",
    "capacity": 0,
    "openDays": [],
    "openDaysNote": ""
  },
  {
    "id": "3650180320",
    "name": "介護老人保健施設　わかくさ",
    "kana": "カイゴロウジンホケンシセツ　ワカクサ",
    "address": "徳島県徳島市川内町小松西８８",
    "lat": 34.090118,
    "lng": 134.5920011,
    "tel": "088-665-8833",
    "url": "http://www.wakakusakai.com",
    "pref": "徳島県",
    "city": "徳島市",
    "category": "rouken",
    "serviceType": "介護老人保健施設",
    "capacity": 100,
    "openDays": [],
    "openDaysNote": ""
  },
  {
    "id": "3650180296",
    "name": "介護老人保健施設　国府リハビリテーションフェニックス",
    "kana": "カイゴロウジンホケンシセツコクフリハビリテーションフェニックス",
    "address": "徳島市国府町井戸字左ヶ池39番地1",
    "lat": 34.0882161,
    "lng": 134.483653,
    "tel": "088-642-3633",
    "url": "https://www.tamaki-aozora.ne.jp/phoenix/",
    "pref": "徳島県",
    "city": "徳島市",
    "category": "rouken",
    "serviceType": "介護老人保健施設",
    "capacity": 0,
    "openDays": [],
    "openDaysNote": ""
  },
  {
    "id": "3650180221",
    "name": "介護老人保健施設　三成会キュアセンター",
    "kana": "カイゴロウジンホケンシセツ　サンセイカイキュアセンター",
    "address": "徳島県徳島市南矢三町3丁目3-31",
    "lat": 34.0838898,
    "lng": 134.5213326,
    "tel": "088-633-3353",
    "url": "http://www.mizunomiyako.net/curecenter.html",
    "pref": "徳島県",
    "city": "徳島市",
    "category": "rouken",
    "serviceType": "介護老人保健施設",
    "capacity": 0,
    "openDays": [],
    "openDaysNote": ""
  },
  {
    "id": "3650180080",
    "name": "介護老人保健施設　清寿園",
    "kana": "カイゴロウジンホケンシセツ　セイジュエン",
    "address": "徳島県徳島市徳島市八万町橋本92-1",
    "lat": 34.0433285397652,
    "lng": 134.531294338508,
    "tel": "088-668-1080",
    "url": "https://kyoritsuhp.or.jp",
    "pref": "徳島県",
    "city": "徳島市",
    "category": "rouken",
    "serviceType": "介護老人保健施設",
    "capacity": 0,
    "openDays": [],
    "openDaysNote": ""
  },
  {
    "id": "3650180163",
    "name": "介護老人保健施設エルダリーガーデン",
    "kana": "カイゴロウジンホケンシセツエルダリーガーデン",
    "address": "徳島県徳島市南庄町4丁目60番地2",
    "lat": 34.072277,
    "lng": 134.5082341,
    "tel": "088-632-3393",
    "url": "https://www.matsunaga-hp.jp/elderlygarden/",
    "pref": "徳島県",
    "city": "徳島市",
    "category": "rouken",
    "serviceType": "介護老人保健施設",
    "capacity": 52,
    "openDays": [],
    "openDaysNote": ""
  },
  {
    "id": "3650180114",
    "name": "介護老人保健施設カサ・デ・エスペランサ",
    "kana": "カイゴロウジンホケンシセツ　カサデエスペランサ",
    "address": "徳島県徳島市名東町２丁目６５０番地の３５",
    "lat": 34.0623969833116,
    "lng": 134.492091989486,
    "tel": "088-633-0128",
    "url": "https://sei-ryu-kai.or.jp/casadeesperanz/",
    "pref": "徳島県",
    "city": "徳島市",
    "category": "rouken",
    "serviceType": "介護老人保健施設",
    "capacity": 0,
    "openDays": [],
    "openDaysNote": ""
  },
  {
    "id": "3650180197",
    "name": "介護老人保健施設すだちの園",
    "kana": "カイゴロウジンホケンシセツスダチノソノ",
    "address": "徳島市丈六町行正25番地",
    "lat": 34.0116713,
    "lng": 134.5478812,
    "tel": "０８８－６４５－２２００",
    "url": "http://www.jonanh.com/sudachi/",
    "pref": "徳島県",
    "city": "徳島市",
    "category": "rouken",
    "serviceType": "介護老人保健施設",
    "capacity": 50,
    "openDays": [],
    "openDaysNote": ""
  },
  {
    "id": "3650180023",
    "name": "介護老人保健施設ライフケア応神",
    "kana": "カイゴロウジンホケンシセツライフケアオウジン",
    "address": "徳島県徳島市応神町古川字日ノ上３２－１",
    "lat": 34.1008972,
    "lng": 134.5562789,
    "tel": "088-666-3030",
    "url": "http://rouken-oujin.jp/",
    "pref": "徳島県",
    "city": "徳島市",
    "category": "rouken",
    "serviceType": "介護老人保健施設",
    "capacity": 50,
    "openDays": [],
    "openDaysNote": ""
  },
  {
    "id": "3650180205",
    "name": "介護老人保健施設リハビリセンターグリーンTAOKA",
    "kana": "カイゴロウジンホケンシセツリハビリセンターグリーンタオカ",
    "address": "徳島県徳島市川内町北原31-3",
    "lat": 34.1014738333802,
    "lng": 134.561152308795,
    "tel": "088-678-5555",
    "url": "https://green-taoka.jp/",
    "pref": "徳島県",
    "city": "徳島市",
    "category": "rouken",
    "serviceType": "介護老人保健施設",
    "capacity": 95,
    "openDays": [],
    "openDaysNote": ""
  },
  {
    "id": "3650180015",
    "name": "介護老人保健施設ロイヤルヘルスケア",
    "kana": "カイゴロウジンホケンシセツロイヤルヘルスケア",
    "address": "徳島県徳島市西新浜町2丁目3-33",
    "lat": 34.0419007,
    "lng": 134.5596627,
    "tel": "088-663-8811",
    "url": "https://www.royal-hc.com/",
    "pref": "徳島県",
    "city": "徳島市",
    "category": "rouken",
    "serviceType": "介護老人保健施設",
    "capacity": null,
    "openDays": [],
    "openDaysNote": ""
  },
  {
    "id": "3650180106",
    "name": "介護老人保健施設名月苑",
    "kana": "カイゴロウジンホケンシセツメイゲツエン",
    "address": "徳島県徳島市名東町一丁目91番地",
    "lat": 34.0660193,
    "lng": 134.5050678,
    "tel": "088-633-2255",
    "url": "http://www.eijyukai.com/",
    "pref": "徳島県",
    "city": "徳島市",
    "category": "rouken",
    "serviceType": "介護老人保健施設",
    "capacity": 100,
    "openDays": [],
    "openDaysNote": ""
  },
  {
    "id": "3650180239",
    "name": "平成アメニティ",
    "kana": "ヘイセイアメニティ",
    "address": "徳島県徳島市勝占町惣田17番地1",
    "lat": 36.204824,
    "lng": 138.252924,
    "tel": "088-669-0151",
    "url": "http://amenity.rouken.jp",
    "pref": "徳島県",
    "city": "徳島市",
    "category": "rouken",
    "serviceType": "介護老人保健施設",
    "capacity": 0,
    "openDays": [],
    "openDaysNote": ""
  },
  {
    "id": "3650180189",
    "name": "老人保健施設ユート",
    "kana": "ロウジンホケンシセツユート",
    "address": "徳島県徳島市八万町大野5-1",
    "lat": 34.0434282,
    "lng": 134.5497137,
    "tel": "088－669－4411",
    "url": "http://www.keirou-medical.jp/youto/",
    "pref": "徳島県",
    "city": "徳島市",
    "category": "rouken",
    "serviceType": "介護老人保健施設",
    "capacity": 0,
    "openDays": [],
    "openDaysNote": ""
  },
  {
    "id": "3650180155",
    "name": "老人保健施設平成苑",
    "kana": "ロウジンホケンシセツヘイセイエン",
    "address": "徳島県徳島市南末広町4番地57号",
    "lat": 34.0607519,
    "lng": 134.5760334,
    "tel": "088-655-0180",
    "url": "http://www.kinoshita-hp.com/",
    "pref": "徳島県",
    "city": "徳島市",
    "category": "rouken",
    "serviceType": "介護老人保健施設",
    "capacity": null,
    "openDays": [],
    "openDaysNote": ""
  },
  {
    "id": "3651380408",
    "name": "介護老人保健施設　ケアホーム鷲敷",
    "kana": "カイゴロウジンホケンシセツ　ケアホームワジキ",
    "address": "徳島県那賀郡那賀町和食郷字八幡原444",
    "lat": 33.8560164,
    "lng": 134.5033883,
    "tel": "0884-62-1500",
    "url": "http://wajiki.rouken.jp/",
    "pref": "徳島県",
    "city": "那賀町",
    "category": "rouken",
    "serviceType": "介護老人保健施設",
    "capacity": 0,
    "openDays": [],
    "openDaysNote": ""
  },
  {
    "id": "3651580395",
    "name": "介護老人保健施設　紅梅苑",
    "kana": "カイゴロウジンホケンシセツ　コウバイエン",
    "address": "徳島県板野郡板野町大寺字苅辺裏１８番地１",
    "lat": 34.1346578,
    "lng": 134.4555241,
    "tel": "088-672-0001",
    "url": "",
    "pref": "徳島県",
    "city": "板野町",
    "category": "rouken",
    "serviceType": "介護老人保健施設",
    "capacity": 60,
    "openDays": [],
    "openDaysNote": ""
  },
  {
    "id": "3651880134",
    "name": "医療法人　桜樹会　介護老人保健施設　ケアハイツさくらぎ",
    "kana": "イリョウホウジン　オウジュカイ　カイゴロウジンホケンシセツ　ケアハイツサクラギ",
    "address": "徳島県美馬市脇町木ノ内3760番地",
    "lat": 34.0605846061048,
    "lng": 134.105596104894,
    "tel": "0883-52-2583",
    "url": "",
    "pref": "徳島県",
    "city": "美馬市",
    "category": "rouken",
    "serviceType": "介護老人保健施設",
    "capacity": 0,
    "openDays": [],
    "openDaysNote": ""
  },
  {
    "id": "3650580016",
    "name": "介護老人保健施設　センターヴィレッジ",
    "kana": "カイゴロウジンホケンシセツ　センターウ゛ィレッジ",
    "address": "徳島県美馬市脇町字拝原1354番地5",
    "lat": 34.0709599,
    "lng": 134.1656117,
    "tel": "0883－53－0303",
    "url": "https:www.kenshokai.group/",
    "pref": "徳島県",
    "city": "美馬市",
    "category": "rouken",
    "serviceType": "介護老人保健施設",
    "capacity": 100,
    "openDays": [],
    "openDaysNote": ""
  },
  {
    "id": "3651880472",
    "name": "介護老人保健施設　恵愛荘",
    "kana": "カイゴロウジンホケンシセツ　ケイアイソウ",
    "address": "徳島県美馬市美馬町字宗ノ分39－1",
    "lat": 34.0493807,
    "lng": 134.0328675,
    "tel": "0883-55-2525",
    "url": "https://keiaikai.crayonsite.info",
    "pref": "徳島県",
    "city": "美馬市",
    "category": "rouken",
    "serviceType": "介護老人保健施設",
    "capacity": 85,
    "openDays": [],
    "openDaysNote": ""
  },
  {
    "id": "3651880258",
    "name": "老人保健施設健祥会ヘルス",
    "kana": "ロウジンホケンシセツケンショウカイヘルス",
    "address": "徳島県美馬市穴吹町三島字舞中島2021番地",
    "lat": 34.0559837,
    "lng": 134.139442,
    "tel": "0883-53-1111",
    "url": "https://www.kenshokai.group/",
    "pref": "徳島県",
    "city": "美馬市",
    "category": "rouken",
    "serviceType": "介護老人保健施設",
    "capacity": 100,
    "openDays": [],
    "openDaysNote": ""
  },
  {
    "id": "3651580064",
    "name": "介護老人保健施設　敬愛の家",
    "kana": "カイゴロウジンホケンシセツ　ケイアイノイエ",
    "address": "徳島県板野郡北島町中村字八丁野22番地の1",
    "lat": 34.1302713,
    "lng": 134.5379741,
    "tel": "088-698-7778",
    "url": "www.syuseikai.net",
    "pref": "徳島県",
    "city": "北島町",
    "category": "rouken",
    "serviceType": "介護老人保健施設",
    "capacity": null,
    "openDays": [],
    "openDaysNote": ""
  },
  {
    "id": "3651480430",
    "name": "介護老人保健施設和楽",
    "kana": "カイゴロウジンホケンシセツワラク",
    "address": "徳島県海部郡牟岐町大字川長字山戸２８番地",
    "lat": 33.6748307,
    "lng": 134.4238355,
    "tel": "0884-72-3535",
    "url": "http://www,heartfulcare.jp/",
    "pref": "徳島県",
    "city": "牟岐町",
    "category": "rouken",
    "serviceType": "介護老人保健施設",
    "capacity": 72,
    "openDays": [],
    "openDaysNote": ""
  },
  {
    "id": "3650280211",
    "name": "かいごろうじんほけんしせつ　ひだまりえん",
    "kana": "介護老人保健施設　陽ダマリ苑",
    "address": "徳島県鳴門市大津町矢倉字四ノ越５番",
    "lat": 34.1519054,
    "lng": 134.5900442,
    "tel": "088-686-1133",
    "url": "http://shinsei-kai.com/",
    "pref": "徳島県",
    "city": "鳴門市",
    "category": "rouken",
    "serviceType": "介護老人保健施設",
    "capacity": 0,
    "openDays": [],
    "openDaysNote": ""
  },
  {
    "id": "3650280013",
    "name": "介護老人保健施設いこいの家鳴山荘",
    "kana": "カイゴロウジンホケンシセツイコイノイエメイザンソウ",
    "address": "徳島県鳴門市鳴門町土佐泊浦字高砂205番地29",
    "lat": 34.2056747,
    "lng": 134.6255501,
    "tel": "088-687-1005",
    "url": "https://kyujinkai-mc.or.jp",
    "pref": "徳島県",
    "city": "鳴門市",
    "category": "rouken",
    "serviceType": "介護老人保健施設",
    "capacity": 60,
    "openDays": [],
    "openDaysNote": ""
  },
  {
    "id": "3650280260",
    "name": "介護老人保健施設みどりの里",
    "kana": "カイゴロウジンホケンシセツミドリノサト",
    "address": "徳島県鳴門市鳴門町三ツ石字江尻山91番地",
    "lat": 34.1980255,
    "lng": 134.6051363,
    "tel": "088-687-3355",
    "url": "http://midorinosato.jp/index.html",
    "pref": "徳島県",
    "city": "鳴門市",
    "category": "rouken",
    "serviceType": "介護老人保健施設",
    "capacity": 0,
    "openDays": [],
    "openDaysNote": ""
  },
  {
    "id": "3650280047",
    "name": "大鳴門シルバーハイツ",
    "kana": "オオナルトシルバーハイツ",
    "address": "徳島県鳴門市鳴門町土佐泊浦字高砂50番地3",
    "lat": 53.41291,
    "lng": -8.24388999999996,
    "tel": "088-687-0582",
    "url": "http://www.i-keiai.org/silver.html",
    "pref": "徳島県",
    "city": "鳴門市",
    "category": "rouken",
    "serviceType": "介護老人保健施設",
    "capacity": 90,
    "openDays": [],
    "openDaysNote": ""
  },
  {
    "id": "3651580338",
    "name": "介護老人保健施設　昴",
    "kana": "カイゴロウジンホケンシセツ　スバル",
    "address": "徳島県板野郡藍住町矢上字安任137-1",
    "lat": 34.1364750261589,
    "lng": 134.497217025656,
    "tel": "088-692-0700",
    "url": "http://www.ryoun.com",
    "pref": "徳島県",
    "city": "藍住町",
    "category": "rouken",
    "serviceType": "介護老人保健施設",
    "capacity": 0,
    "openDays": [],
    "openDaysNote": ""
  }
]