[
  {
    "id": "3857780435",
    "name": "老人保健施設なんぐん館",
    "kana": "ロウジンホケンシセツナングンカン",
    "address": "愛媛県南宇和郡愛南町御荘深泥703-2",
    "lat": 32.9598296,
    "lng": 132.5425705,
    "tel": "0895-73-1021",
    "url": "http://www.nangunkan.justhpbs.jp/",
    "pref": "愛媛県",
    "city": "愛南町",
    "category": "rouken",
    "serviceType": "介護老人保健施設",
    "capacity": 0,
    "openDays": [],
    "openDaysNote": ""
  },
  {
    "id": "3857780120",
    "name": "老人保健施設　伊予ヶ丘",
    "kana": "ロウジンホケンシセツ　イヨガオカ",
    "address": "愛媛県伊予市八倉917番地1",
    "lat": 33.7838081,
    "lng": 132.7711222,
    "tel": "089-983-2223",
    "url": "http://www.iyohp.jp/",
    "pref": "愛媛県",
    "city": "伊予市",
    "category": "rouken",
    "serviceType": "介護老人保健施設",
    "capacity": 0,
    "openDays": [],
    "openDaysNote": ""
  },
  {
    "id": "3850380019",
    "name": "宇和島市介護老人保健施設オレンジ荘",
    "kana": "ウワジマシカイゴロウジンホケンシセツオレンジソウ",
    "address": "愛媛県宇和島市吉田町北小路甲184番地3",
    "lat": 33.2822168759989,
    "lng": 132.540378135057,
    "tel": "0895-52-3151",
    "url": "",
    "pref": "愛媛県",
    "city": "宇和島市",
    "category": "rouken",
    "serviceType": "介護老人保健施設",
    "capacity": 0,
    "openDays": [],
    "openDaysNote": ""
  },
  {
    "id": "3850380027",
    "name": "宇和島市介護老人保健施設ふれあい荘",
    "kana": "ウワジマシカイゴロウジンホケンシセツフレアイソウ",
    "address": "愛媛県宇和島市津島町岩松甲39番1",
    "lat": 33.1271005,
    "lng": 132.5355452,
    "tel": "0895-20-8008",
    "url": "",
    "pref": "愛媛県",
    "city": "宇和島市",
    "category": "rouken",
    "serviceType": "介護老人保健施設",
    "capacity": 0,
    "openDays": [],
    "openDaysNote": ""
  },
  {
    "id": "3857780518",
    "name": "介護老人保健施設やすらぎの杜",
    "kana": "カイゴロウジンホケンシセツヤスラギノモリ",
    "address": "愛媛県宇和島市保田甲1932-2",
    "lat": 33.184523977628,
    "lng": 132.542851913631,
    "tel": "0895-27-3611",
    "url": "http://shouwakai.jp/",
    "pref": "愛媛県",
    "city": "宇和島市",
    "category": "rouken",
    "serviceType": "介護老人保健施設",
    "capacity": 98,
    "openDays": [],
    "openDaysNote": ""
  },
  {
    "id": "3857780245",
    "name": "独立行政法人地域医療機能推進機構宇和島病院附属介護老人保健施設",
    "kana": "ドクリツギョウセイホウジンチイキイリョウキノウスイシンキコウウワジマビョウインフゾクカイゴロウジンホケンシセツ",
    "address": "愛媛県宇和島市賀古町1丁目2番20号",
    "lat": 33.2152052,
    "lng": 132.5697983,
    "tel": "0895-24-7111",
    "url": "https://uwajima.jcho.go.jp/rouken/",
    "pref": "愛媛県",
    "city": "宇和島市",
    "category": "rouken",
    "serviceType": "介護老人保健施設",
    "capacity": 0,
    "openDays": [],
    "openDaysNote": ""
  },
  {
    "id": "3857780427",
    "name": "介護老人保健施設たんぽぽ",
    "kana": "カイゴロウジンホケンシセツタンポポ",
    "address": "愛媛県北宇和郡鬼北町大字近永574番地",
    "lat": 33.2571013,
    "lng": 132.6740351,
    "tel": "0895-45-3811",
    "url": "http://wwwc.pikara.ne.jp/tanpopo/index.htm",
    "pref": "愛媛県",
    "city": "鬼北町",
    "category": "rouken",
    "serviceType": "介護老人保健施設",
    "capacity": 80,
    "openDays": [],
    "openDaysNote": ""
  },
  {
    "id": "3853480014",
    "name": "久万高原町立老人保健施設あけぼの",
    "kana": "クマコウゲンチョウリツロウジンホケンシセツアケボノ",
    "address": "愛媛県上浮穴郡久万高原町久万71番地1",
    "lat": 33.6550863,
    "lng": 132.9047207,
    "tel": "0892-21-1800",
    "url": "http://www.town.kumakogen.ehime.jp/k-hospital/akebono/gaiyo.html",
    "pref": "愛媛県",
    "city": "久万高原町",
    "category": "rouken",
    "serviceType": "介護老人保健施設",
    "capacity": 50,
    "openDays": [],
    "openDaysNote": ""
  },
  {
    "id": "3857780526",
    "name": "おおにし光生園",
    "kana": "オオニシコウセイエン",
    "address": "愛媛県今治市大西町九王甲６２２番地１",
    "lat": 34.0885771258868,
    "lng": 132.932318723309,
    "tel": "0898-36-2250",
    "url": "https://www.imabari-kouseibyouin.com/page1",
    "pref": "愛媛県",
    "city": "今治市",
    "category": "rouken",
    "serviceType": "介護老人保健施設",
    "capacity": 84,
    "openDays": [],
    "openDaysNote": ""
  },
  {
    "id": "3850280037",
    "name": "介護老人保健施設　いまばり光生園",
    "kana": "カイゴロウジンホケンシセツ　イマバリコウセイエン",
    "address": "愛媛県今治市室屋町3丁目2-10",
    "lat": 34.0699253,
    "lng": 132.9999348,
    "tel": "0898-22-0468",
    "url": "https://www.imabari-kouseibyouin.com/",
    "pref": "愛媛県",
    "city": "今治市",
    "category": "rouken",
    "serviceType": "介護老人保健施設",
    "capacity": 51,
    "openDays": [],
    "openDaysNote": ""
  },
  {
    "id": "3857780146",
    "name": "介護老人保健施設　さくら苑",
    "kana": "カイゴロウジンホケンシセツ　サクラエン",
    "address": "愛媛県今治市別宮町3丁目7-17",
    "lat": 34.0690527,
    "lng": 132.9945967,
    "tel": "0898-25-0500",
    "url": "",
    "pref": "愛媛県",
    "city": "今治市",
    "category": "rouken",
    "serviceType": "介護老人保健施設",
    "capacity": 0,
    "openDays": [],
    "openDaysNote": ""
  },
  {
    "id": "3857780286",
    "name": "介護老人保健施設　八惠苑",
    "kana": "カイゴロウジンホケンシセツ　ハチケイエン",
    "address": "愛媛県今治市北日吉町1丁目19番15号",
    "lat": 34.0648513951629,
    "lng": 132.990888065641,
    "tel": "0898-23-3390",
    "url": "https://www.juntenkai.jp/hachikeien/",
    "pref": "愛媛県",
    "city": "今治市",
    "category": "rouken",
    "serviceType": "介護老人保健施設",
    "capacity": 0,
    "openDays": [],
    "openDaysNote": ""
  },
  {
    "id": "3850280011",
    "name": "介護老人保健施設あすなろ",
    "kana": "カイゴロウジンホケンシセツアスナロ",
    "address": "愛媛県今治市伯方町北浦甲2289番地1",
    "lat": 34.2154657,
    "lng": 133.0993718,
    "tel": "0897-73-0111",
    "url": "http://arouzumurakamiclinic.ftw.jp/",
    "pref": "愛媛県",
    "city": "今治市",
    "category": "rouken",
    "serviceType": "介護老人保健施設",
    "capacity": 0,
    "openDays": [],
    "openDaysNote": ""
  },
  {
    "id": "3857780328",
    "name": "介護老人保健施設シルビウス・ケアセンター",
    "kana": "カイゴロウジンホケンシセツシルビウス・ケアセンター",
    "address": "愛媛県今治市別名261番地",
    "lat": 34.042281,
    "lng": 132.9758113,
    "tel": "0898-25-7171",
    "url": "http://www.katagihosp.com",
    "pref": "愛媛県",
    "city": "今治市",
    "category": "rouken",
    "serviceType": "介護老人保健施設",
    "capacity": null,
    "openDays": [],
    "openDaysNote": ""
  },
  {
    "id": "3857780450",
    "name": "介護老人保健施設ヒロセ",
    "kana": "カイゴロウジンホケンシセツヒロセ",
    "address": "愛媛県今治市国分7丁目4番1号",
    "lat": 34.0229986,
    "lng": 133.0224925,
    "tel": "0898-47-5200",
    "url": "http://www.hirose-youseikai.org/",
    "pref": "愛媛県",
    "city": "今治市",
    "category": "rouken",
    "serviceType": "介護老人保健施設",
    "capacity": 0,
    "openDays": [],
    "openDaysNote": ""
  },
  {
    "id": "3857780021",
    "name": "済生会今治老人保健施設　希望の園",
    "kana": "サイセイカイイマバリロウジンホケンシセツキボウノソノ",
    "address": "愛媛県今治市喜田村7丁目1番6号",
    "lat": 34.0437373346423,
    "lng": 133.019404063091,
    "tel": "0898-48-8800",
    "url": "http://www.imabari.saiseikai.or.jp/site/kibounosono/",
    "pref": "愛媛県",
    "city": "今治市",
    "category": "rouken",
    "serviceType": "介護老人保健施設",
    "capacity": 0,
    "openDays": [],
    "openDaysNote": ""
  },
  {
    "id": "3857780047",
    "name": "老人保健施設　燧園",
    "kana": "ロウジンホケンシセツヒウチエン",
    "address": "愛媛県今治市末広町三丁目1番地6",
    "lat": 34.0628543,
    "lng": 133.003923,
    "tel": "0898-23-1211",
    "url": "http://www.yoshino-hospital.or.jp/",
    "pref": "愛媛県",
    "city": "今治市",
    "category": "rouken",
    "serviceType": "介護老人保健施設",
    "capacity": 0,
    "openDays": [],
    "openDaysNote": ""
  },
  {
    "id": "3857780351",
    "name": "老人保健施設セントラルケアホーム",
    "kana": "ロウジンホケンシセツセントラルケアホーム",
    "address": "愛媛県今治市松本町2丁目6-6",
    "lat": 34.0630903,
    "lng": 133.0027676,
    "tel": "0898-34-0088",
    "url": "https://central-carehome.jp/",
    "pref": "愛媛県",
    "city": "今治市",
    "category": "rouken",
    "serviceType": "介護老人保健施設",
    "capacity": 59,
    "openDays": [],
    "openDaysNote": ""
  },
  {
    "id": "3857780195",
    "name": "老人保健施設ときわ園",
    "kana": "ロウジンホケンシセツトキワエン",
    "address": "愛媛県今治市常盤町5丁目3番37号",
    "lat": 34.0602844,
    "lng": 132.9937716,
    "tel": "0898-25-7700",
    "url": "http://sanseikai.com/",
    "pref": "愛媛県",
    "city": "今治市",
    "category": "rouken",
    "serviceType": "介護老人保健施設",
    "capacity": 0,
    "openDays": [],
    "openDaysNote": ""
  },
  {
    "id": "3857780344",
    "name": "老人保健施設養老の里",
    "kana": "ロウジンホケンシセツヨウロウノサト",
    "address": "愛媛県今治市波方町樋口甲1686-1",
    "lat": 34.0995109942537,
    "lng": 132.949686248694,
    "tel": "0898-43-1448",
    "url": "http://kouzinkai.jp",
    "pref": "愛媛県",
    "city": "今治市",
    "category": "rouken",
    "serviceType": "介護老人保健施設",
    "capacity": 50,
    "openDays": [],
    "openDaysNote": ""
  },
  {
    "id": "3851380034",
    "name": "医療法人健康会　ユニット型介護老人保健施設アイリス",
    "kana": "イリョウホウジンケンコウカイ　ユニットガタカイゴロウジンホケンシセツアイリス",
    "address": "愛媛県四国中央市上分町732番地1",
    "lat": 33.9913629298158,
    "lng": 133.588840735057,
    "tel": "0896-58-0011",
    "url": "http://kenkou-kai.jp",
    "pref": "愛媛県",
    "city": "四国中央市",
    "category": "rouken",
    "serviceType": "介護老人保健施設",
    "capacity": 0,
    "openDays": [],
    "openDaysNote": ""
  },
  {
    "id": "3857780591",
    "name": "介護老人保健施設　くりのみ館",
    "kana": "カイゴロウジンホケンシセツ　クリノミカン",
    "address": "愛媛県四国中央市中之庄町393-1",
    "lat": 33.9767329,
    "lng": 133.5318821,
    "tel": "0896-24-4165",
    "url": "",
    "pref": "愛媛県",
    "city": "四国中央市",
    "category": "rouken",
    "serviceType": "介護老人保健施設",
    "capacity": 56,
    "openDays": [],
    "openDaysNote": ""
  },
  {
    "id": "3851380026",
    "name": "介護老人保健施設アイリス",
    "kana": "カイゴロウジンホケンシセツアイリス",
    "address": "愛媛県四国中央市上分町７３２番地１",
    "lat": 33.9913985118588,
    "lng": 133.588674438098,
    "tel": "0896-58-0011",
    "url": "http://kenkou-kai.jp/",
    "pref": "愛媛県",
    "city": "四国中央市",
    "category": "rouken",
    "serviceType": "介護老人保健施設",
    "capacity": 0,
    "openDays": [],
    "openDaysNote": ""
  },
  {
    "id": "3857780419",
    "name": "老人保健施設　百の里",
    "kana": "ロウジンホケンシセツモモノサト",
    "address": "愛媛県四国中央市中曽根町994",
    "lat": 33.9710189808354,
    "lng": 133.553965216008,
    "tel": "0896-24-3320",
    "url": "",
    "pref": "愛媛県",
    "city": "四国中央市",
    "category": "rouken",
    "serviceType": "介護老人保健施設",
    "capacity": 0,
    "openDays": [],
    "openDaysNote": ""
  },
  {
    "id": "3857780484",
    "name": "老人保健施設ちかい",
    "kana": "ロウジンホケンシセツチカイ",
    "address": "愛媛県四国中央市土居町土居2227番地32",
    "lat": 33.9614655,
    "lng": 133.4145093,
    "tel": "0896-75-1660",
    "url": "https://chikaisisetu.jimdofree.com/",
    "pref": "愛媛県",
    "city": "四国中央市",
    "category": "rouken",
    "serviceType": "介護老人保健施設",
    "capacity": 80,
    "openDays": [],
    "openDaysNote": ""
  },
  {
    "id": "3850180062",
    "name": "医療法人松山平成会　介護老人保健施設しらさぎ苑",
    "kana": "イリョウホウジンマツヤマヘイセイカイ　カイゴロウジンホケンシセツシラサギエン",
    "address": "愛媛県松山市祓川1丁目2-28",
    "lat": 33.8578364,
    "lng": 132.7197325,
    "tel": "089-951-0750",
    "url": "http://shirasagien.or.jp",
    "pref": "愛媛県",
    "city": "松山市",
    "category": "rouken",
    "serviceType": "介護老人保健施設",
    "capacity": null,
    "openDays": [],
    "openDaysNote": ""
  },
  {
    "id": "3857780203",
    "name": "介護老人保健施設　海辺の郷",
    "kana": "カイゴロウジンホケンシセツウミベノサト",
    "address": "愛媛県松山市柳原739",
    "lat": 33.9590965,
    "lng": 132.7711814,
    "tel": "089-992-5050",
    "url": "",
    "pref": "愛媛県",
    "city": "松山市",
    "category": "rouken",
    "serviceType": "介護老人保健施設",
    "capacity": 60,
    "openDays": [],
    "openDaysNote": ""
  },
  {
    "id": "3857780153",
    "name": "介護老人保健施設　高井の里",
    "kana": "カイゴロウジンホケンシセツ　タカイノサト",
    "address": "愛媛県松山市高井町1203番地",
    "lat": 33.8002489,
    "lng": 132.8087019,
    "tel": "089-975-7761",
    "url": "http://www.jikyoukai.or.jp/facility/takai/",
    "pref": "愛媛県",
    "city": "松山市",
    "category": "rouken",
    "serviceType": "介護老人保健施設",
    "capacity": 100,
    "openDays": [],
    "openDaysNote": ""
  },
  {
    "id": "3850180047",
    "name": "介護老人保健施設　合歓の木",
    "kana": "カイゴロウジンホケンシセツネムノキ",
    "address": "愛媛県松山市古三津3丁目５－５",
    "lat": 33.8569265,
    "lng": 132.7303312,
    "tel": "089-953-6000",
    "url": "http://www.mitsuseikei.jp/nemunoki/",
    "pref": "愛媛県",
    "city": "松山市",
    "category": "rouken",
    "serviceType": "介護老人保健施設",
    "capacity": 0,
    "openDays": [],
    "openDaysNote": ""
  },
  {
    "id": "3857780609",
    "name": "介護老人保健施設ハピネス椿",
    "kana": "カイゴロウジンホケンシセツハピネスツバキ",
    "address": "愛媛県松山市今在家3丁目9番29号",
    "lat": 33.8048706,
    "lng": 132.7936588,
    "tel": "089-905-8188",
    "url": "https://www.kawahara-cln.jp/",
    "pref": "愛媛県",
    "city": "松山市",
    "category": "rouken",
    "serviceType": "介護老人保健施設",
    "capacity": 0,
    "openDays": [],
    "openDaysNote": ""
  },
  {
    "id": "3857780583",
    "name": "介護老人保健施設垣生あいじゅ",
    "kana": "カイゴロウジンホケンシセツハブアイジュ",
    "address": "愛媛県松山市東垣生町277番地",
    "lat": 33.8108676,
    "lng": 132.7095473,
    "tel": "089-968-9681",
    "url": "http://www.aijukai-group.com/",
    "pref": "愛媛県",
    "city": "松山市",
    "category": "rouken",
    "serviceType": "介護老人保健施設",
    "capacity": 100,
    "openDays": [],
    "openDaysNote": ""
  },
  {
    "id": "3857780138",
    "name": "社会福祉法人恩賜財団済生会松山老人保健施設にぎたつ苑",
    "kana": "シャカイフクシホウジンオンシザイダンサイセイカイマツヤマロウジンホケンシセツニギタツエン",
    "address": "愛媛県松山市山西町880番地2",
    "lat": 33.8523656,
    "lng": 132.7207654,
    "tel": "089-951-6600",
    "url": "http://nigitatsu.saiseikai.or.jp",
    "pref": "愛媛県",
    "city": "松山市",
    "category": "rouken",
    "serviceType": "介護老人保健施設",
    "capacity": 80,
    "openDays": [],
    "openDaysNote": ""
  },
  {
    "id": "3857780310",
    "name": "老人保健施設　たかのこ館",
    "kana": "ロウジンホケンシセツタカノコカン",
    "address": "愛媛県松山市鷹子町527-1",
    "lat": 33.8136753,
    "lng": 132.8149344,
    "tel": "089-975-8883",
    "url": "https://takanoko-hsp.jp/takanokokan/",
    "pref": "愛媛県",
    "city": "松山市",
    "category": "rouken",
    "serviceType": "介護老人保健施設",
    "capacity": 0,
    "openDays": [],
    "openDaysNote": ""
  },
  {
    "id": "3857780252",
    "name": "老人保健施設　ミネルワ",
    "kana": "ロウジンホケンシセツミネルワ",
    "address": "愛媛県松山市高岡町302番地2",
    "lat": 33.8264354,
    "lng": 132.7222819,
    "tel": "089-972-9500",
    "url": "http://www.mineruwa.jp/",
    "pref": "愛媛県",
    "city": "松山市",
    "category": "rouken",
    "serviceType": "介護老人保健施設",
    "capacity": 100,
    "openDays": [],
    "openDaysNote": ""
  },
  {
    "id": "3857780211",
    "name": "老人保健施設　りつりん館",
    "kana": "ロウジンホケンシセツ　リツリンカン",
    "address": "愛媛県松山市畑寺町丙12-10",
    "lat": 33.8339091,
    "lng": 132.8030437,
    "tel": "089-931-3322",
    "url": "http://yuhokai.net/ritsurin/",
    "pref": "愛媛県",
    "city": "松山市",
    "category": "rouken",
    "serviceType": "介護老人保健施設",
    "capacity": 0,
    "openDays": [],
    "openDaysNote": ""
  },
  {
    "id": "3857780013",
    "name": "老人保健施設　れんげ荘",
    "kana": "ロウジンホケンシセツ　レンゲソウ",
    "address": "愛媛県松山市東石井1丁目11番30号",
    "lat": 33.8197686,
    "lng": 132.7814767,
    "tel": "089-956-7555",
    "url": "http://www.atomgroup.jp",
    "pref": "愛媛県",
    "city": "松山市",
    "category": "rouken",
    "serviceType": "介護老人保健施設",
    "capacity": 0,
    "openDays": [],
    "openDaysNote": ""
  },
  {
    "id": "3857780112",
    "name": "老人保健施設　道後ベテルホーム",
    "kana": "ロウジンホケンシセツドウゴベテルホーム",
    "address": "愛媛県松山市祝谷6丁目1277番地",
    "lat": 33.8647852,
    "lng": 132.7751716,
    "tel": "089-927-2000",
    "url": "https://www.bethel.or.jp/",
    "pref": "愛媛県",
    "city": "松山市",
    "category": "rouken",
    "serviceType": "介護老人保健施設",
    "capacity": 0,
    "openDays": [],
    "openDaysNote": ""
  },
  {
    "id": "3857780104",
    "name": "老人保健施設あいじゅ",
    "kana": "ロウジンホケンシセツアイジュ",
    "address": "愛媛県松山市来住町1171番地1",
    "lat": 33.8092743467222,
    "lng": 132.797370856053,
    "tel": "089-948-8222",
    "url": "http://www.aijukai-group.com",
    "pref": "愛媛県",
    "city": "松山市",
    "category": "rouken",
    "serviceType": "介護老人保健施設",
    "capacity": 0,
    "openDays": [],
    "openDaysNote": ""
  },
  {
    "id": "3857780062",
    "name": "老人保健施設福角の里",
    "kana": "ロウジンホケンシセツフクズミノサト",
    "address": "愛媛県松山市福角町乙69-1",
    "lat": 33.9049207,
    "lng": 132.7667958,
    "tel": "089-978-5258",
    "url": "http://www.fukuzumi-hp.jp",
    "pref": "愛媛県",
    "city": "松山市",
    "category": "rouken",
    "serviceType": "介護老人保健施設",
    "capacity": 0,
    "openDays": [],
    "openDaysNote": ""
  },
  {
    "id": "3850180054",
    "name": "老人保健施設福角の里　サテライト粟井",
    "kana": "ロウジンホケンシセツフクズミノサト　サテライトアワイ",
    "address": "小川217-1",
    "lat": 33.9265699,
    "lng": 132.7640774,
    "tel": "089-994-8878",
    "url": "http://www.fukuzumi-hp.jp",
    "pref": "愛媛県",
    "city": "松山市",
    "category": "rouken",
    "serviceType": "介護老人保健施設",
    "capacity": 0,
    "openDays": [],
    "openDaysNote": ""
  },
  {
    "id": "3857780260",
    "name": "医療法人光佑会老人保健施設菜の花",
    "kana": "イリョウホウジンコウユウカイロウジンホケンシセツナノハナ",
    "address": "愛媛県伊予郡松前町大字神崎578番地1",
    "lat": 33.7871487,
    "lng": 132.7379949,
    "tel": "089-984-7087",
    "url": "",
    "pref": "愛媛県",
    "city": "松前町",
    "category": "rouken",
    "serviceType": "介護老人保健施設",
    "capacity": 100,
    "openDays": [],
    "openDaysNote": ""
  },
  {
    "id": "3850580014",
    "name": "医療機関併設型小規模介護老人保健施設　王子苑",
    "kana": "イリョウキカンヘイセツガタショウキボカイゴロウジンホケンシセツ　オウジエン",
    "address": "愛媛県新居浜市王子町3番1号",
    "lat": 33.9531331774034,
    "lng": 133.262600042992,
    "tel": "0897-47-7533",
    "url": "https://sbh.gr.jp/ohjien/index.html",
    "pref": "愛媛県",
    "city": "新居浜市",
    "category": "rouken",
    "serviceType": "介護老人保健施設",
    "capacity": 0,
    "openDays": [],
    "openDaysNote": ""
  },
  {
    "id": "3857780229",
    "name": "介護老人保健施設　リハビリステーション三恵荘",
    "kana": "カイゴロウジンホケンシセツ　リハビリステーションサンケイソウ",
    "address": "愛媛県新居浜市萩生河ノ北67-60",
    "lat": 33.9301490203596,
    "lng": 133.259210383051,
    "tel": "0897-40-3366",
    "url": "http://www.sankeiso.sankeikai.com",
    "pref": "愛媛県",
    "city": "新居浜市",
    "category": "rouken",
    "serviceType": "介護老人保健施設",
    "capacity": 0,
    "openDays": [],
    "openDaysNote": ""
  },
  {
    "id": "3857780575",
    "name": "介護老人保健施設　若水ケアセンター",
    "kana": "カイゴロウジンホケンシセツワカミズケアセンター",
    "address": "愛媛県新居浜市若水町1丁目9番13号",
    "lat": 33.9659138,
    "lng": 133.2777017,
    "tel": "0897-31-3000",
    "url": "http://www.hapinesu.com/",
    "pref": "愛媛県",
    "city": "新居浜市",
    "category": "rouken",
    "serviceType": "介護老人保健施設",
    "capacity": 0,
    "openDays": [],
    "openDaysNote": ""
  },
  {
    "id": "3857780401",
    "name": "介護老人保健施設ふなき久和園",
    "kana": "カイゴロウジンホケンシセツフナキキュウワエン",
    "address": "愛媛県新居浜市船木甲3656-8",
    "lat": 33.928677,
    "lng": 133.329376,
    "tel": "0897-41-2800",
    "url": "http://www.kyuuwa-niihama.jp",
    "pref": "愛媛県",
    "city": "新居浜市",
    "category": "rouken",
    "serviceType": "介護老人保健施設",
    "capacity": 0,
    "openDays": [],
    "openDaysNote": ""
  },
  {
    "id": "3857780161",
    "name": "老人保健施設はぴねすケアセンター",
    "kana": "ロウジンホケンシセツハピネスケアセンター",
    "address": "愛媛県新居浜市多喜浜二丁目１番５０号",
    "lat": 33.9753353,
    "lng": 133.3302489,
    "tel": "0897-46-5177",
    "url": "http://www.hapinesu.com",
    "pref": "愛媛県",
    "city": "新居浜市",
    "category": "rouken",
    "serviceType": "介護老人保健施設",
    "capacity": 80,
    "openDays": [],
    "openDaysNote": ""
  },
  {
    "id": "3850680012",
    "name": "介護老人保健施設まなべ",
    "kana": "カイゴロウジンホケンシセツマナベ",
    "address": "愛媛県西条市小松町妙口甲1521番地",
    "lat": 33.8928835,
    "lng": 133.092842,
    "tel": "0898-72-6131",
    "url": "http://www.rouken-manabe.jp",
    "pref": "愛媛県",
    "city": "西条市",
    "category": "rouken",
    "serviceType": "介護老人保健施設",
    "capacity": 29,
    "openDays": [],
    "openDaysNote": ""
  },
  {
    "id": "3857780187",
    "name": "済生会西条老人保健施設いしづち苑",
    "kana": "サイセイカイサイジョウロウジンホケンシセツイシヅチエン",
    "address": "愛媛県西条市朔日市269番地1",
    "lat": 33.9287072,
    "lng": 133.1910218,
    "tel": "0897-53-1155",
    "url": "http://www.saiseikaisaijo.jp/isiduti-top/",
    "pref": "愛媛県",
    "city": "西条市",
    "category": "rouken",
    "serviceType": "介護老人保健施設",
    "capacity": 0,
    "openDays": [],
    "openDaysNote": ""
  },
  {
    "id": "3857780039",
    "name": "老人保健施設　ゆるぎ荘",
    "kana": "ロウジンホケンシセツ　ユルギソウ",
    "address": "愛媛県西条市福武字蔵ノ尾甲162-1",
    "lat": 33.9110979,
    "lng": 133.2095002,
    "tel": "0897-55-0622",
    "url": "yurugisou@trad.ocn.ne.jp",
    "pref": "愛媛県",
    "city": "西条市",
    "category": "rouken",
    "serviceType": "介護老人保健施設",
    "capacity": 55,
    "openDays": [],
    "openDaysNote": ""
  },
  {
    "id": "3857780468",
    "name": "老人保健施設あすか",
    "kana": "ロウジンホケンシセツアスカ",
    "address": "愛媛県西条市丹原町古田甲167番地1",
    "lat": 33.9113718,
    "lng": 133.0450685,
    "tel": "0898-76-2076",
    "url": "http://www.koujin.net",
    "pref": "愛媛県",
    "city": "西条市",
    "category": "rouken",
    "serviceType": "介護老人保健施設",
    "capacity": 0,
    "openDays": [],
    "openDaysNote": ""
  },
  {
    "id": "3857780237",
    "name": "老人保健施設コスモス",
    "kana": "ロウジンホケンシセツコスモス",
    "address": "愛媛県西条市周布338番地",
    "lat": 33.9256241,
    "lng": 133.0866257,
    "tel": "0898-64-6300",
    "url": "http://www.cosmos-2012.com/",
    "pref": "愛媛県",
    "city": "西条市",
    "category": "rouken",
    "serviceType": "介護老人保健施設",
    "capacity": 0,
    "openDays": [],
    "openDaysNote": ""
  },
  {
    "id": "3857780476",
    "name": "老人保健施設リハ・クリネ",
    "kana": "ロウジンホケンシセツリハ・クリネ",
    "address": "愛媛県西条市小松町新屋敷甲2385-1",
    "lat": 33.8932984807668,
    "lng": 133.107852864357,
    "tel": "0898-72-6661",
    "url": "http://www.rihakurine.com",
    "pref": "愛媛県",
    "city": "西条市",
    "category": "rouken",
    "serviceType": "介護老人保健施設",
    "capacity": 0,
    "openDays": [],
    "openDaysNote": ""
  },
  {
    "id": "3857780302",
    "name": "老人保健施設水都苑",
    "kana": "ロウジンホケンシセツスイトエン",
    "address": "愛媛県西条市大町739番地",
    "lat": 33.9148445,
    "lng": 133.1897803,
    "tel": "0897-56-2301",
    "url": "http://www.murakami-kinen.or.jp/suitoen/",
    "pref": "愛媛県",
    "city": "西条市",
    "category": "rouken",
    "serviceType": "介護老人保健施設",
    "capacity": 0,
    "openDays": [],
    "openDaysNote": ""
  },
  {
    "id": "3851480016",
    "name": "西予市野村介護老人保健施設つくし苑",
    "kana": "セイヨシノムラカイゴロウジンホケンシセツツクシエン",
    "address": "愛媛県西予市野村町野村9号47番地3",
    "lat": 33.3727568,
    "lng": 132.6411049,
    "tel": "0894-72-3820",
    "url": "https://www.seiyo-mh.jp/site/seiyo-tsukushi/",
    "pref": "愛媛県",
    "city": "西予市",
    "category": "rouken",
    "serviceType": "介護老人保健施設",
    "capacity": 0,
    "openDays": [],
    "openDaysNote": ""
  },
  {
    "id": "3857780294",
    "name": "老人保健施設うわ",
    "kana": "ロウジンホケンシセツウワ",
    "address": "愛媛県西予市宇和町上松葉176番地1",
    "lat": 33.3852863,
    "lng": 132.5025398,
    "tel": "0894-62-9769",
    "url": "http://www.kojinkai.jp",
    "pref": "愛媛県",
    "city": "西予市",
    "category": "rouken",
    "serviceType": "介護老人保健施設",
    "capacity": 0,
    "openDays": [],
    "openDaysNote": ""
  },
  {
    "id": "3857780369",
    "name": "老人保健施設みのり園",
    "kana": "ロウジンホケンシセツミノリエン",
    "address": "愛媛県西予市三瓶町朝立1-386-1",
    "lat": 33.3837064,
    "lng": 132.4231714,
    "tel": "0894-33-1080",
    "url": "",
    "pref": "愛媛県",
    "city": "西予市",
    "category": "rouken",
    "serviceType": "介護老人保健施設",
    "capacity": 0,
    "openDays": [],
    "openDaysNote": ""
  },
  {
    "id": "3857780088",
    "name": "介護老人保健施設ひまわり",
    "kana": "カイゴロウジンホケンシセツヒマワリ",
    "address": "愛媛県大洲市徳森1508番地1",
    "lat": 33.5309362,
    "lng": 132.5828996,
    "tel": "0893-25-2713",
    "url": "https://www.ozu-johukai.jp/cms/?page_id=67",
    "pref": "愛媛県",
    "city": "大洲市",
    "category": "rouken",
    "serviceType": "介護老人保健施設",
    "capacity": 0,
    "openDays": [],
    "openDaysNote": ""
  },
  {
    "id": "3857780534",
    "name": "介護老人保健施設長浜ひまわり",
    "kana": "カイゴロウジンホケンシセツナガハマヒマワリ",
    "address": "愛媛県大洲市柴甲1422番地3",
    "lat": 33.5786231692927,
    "lng": 132.521049594541,
    "tel": "0893-59-7220",
    "url": "http://www.ozu-johukai.jp",
    "pref": "愛媛県",
    "city": "大洲市",
    "category": "rouken",
    "serviceType": "介護老人保健施設",
    "capacity": 0,
    "openDays": [],
    "openDaysNote": ""
  },
  {
    "id": "3857780393",
    "name": "老人保健施設フレンド",
    "kana": "ロウジンホケンシセツフレンド",
    "address": "愛媛県大洲市東大洲39",
    "lat": 33.5168064,
    "lng": 132.5516773,
    "tel": "0893-23-5100",
    "url": "https://friend-kg.jp/",
    "pref": "愛媛県",
    "city": "大洲市",
    "category": "rouken",
    "serviceType": "介護老人保健施設",
    "capacity": 0,
    "openDays": [],
    "openDaysNote": ""
  },
  {
    "id": "3857780492",
    "name": "介護老人保健施設とべ和合苑",
    "kana": "カイゴロウジンホケンシセツトベワゴウエン",
    "address": "愛媛県伊予郡砥部町北川毛1412-3",
    "lat": 33.7395023,
    "lng": 132.7860031,
    "tel": "089-962-7700",
    "url": "http://www.kouyoukai.biz/",
    "pref": "愛媛県",
    "city": "砥部町",
    "category": "rouken",
    "serviceType": "介護老人保健施設",
    "capacity": 84,
    "openDays": [],
    "openDaysNote": ""
  },
  {
    "id": "3857780278",
    "name": "医療法人順風会　介護老人保健施設長安",
    "kana": "イリョウホウジンジュンプウカイ　カイゴロウジンホケンシセツチョウアン",
    "address": "愛媛県東温市志津川片山甲29番地1",
    "lat": 33.796737,
    "lng": 132.8728489,
    "tel": "089-964-7555",
    "url": "http://atomgroup.jp/",
    "pref": "愛媛県",
    "city": "東温市",
    "category": "rouken",
    "serviceType": "介護老人保健施設",
    "capacity": 0,
    "openDays": [],
    "openDaysNote": ""
  },
  {
    "id": "3857780500",
    "name": "介護老人保健施設　希望の館",
    "kana": "カイゴロウジンホケンシセツ　キボウノヤカタ",
    "address": "愛媛県東温市則之内甲2783-1",
    "lat": 33.7929843117495,
    "lng": 132.921432514919,
    "tel": "089-960-6336",
    "url": "http://www.kibounoyakata.sankeikai.com",
    "pref": "愛媛県",
    "city": "東温市",
    "category": "rouken",
    "serviceType": "介護老人保健施設",
    "capacity": 100,
    "openDays": [],
    "openDaysNote": ""
  },
  {
    "id": "3857780559",
    "name": "介護老人保健施設　アンビションうちこ園",
    "kana": "カイゴロウジンホケンシセツアンビションウチコエン",
    "address": "愛媛県喜多郡内子町内子3683番地",
    "lat": 33.5518993,
    "lng": 132.6428575,
    "tel": "0893-59-2211",
    "url": "http://www.uchikoen.com",
    "pref": "愛媛県",
    "city": "内子町",
    "category": "rouken",
    "serviceType": "介護老人保健施設",
    "capacity": 80,
    "openDays": [],
    "openDaysNote": ""
  },
  {
    "id": "3857780542",
    "name": "介護老人保健施設アンジュ",
    "kana": "カイゴロウジンホケンシセツアンジュ",
    "address": "愛媛県喜多郡内子町平岡甲133番地",
    "lat": 33.5320750732873,
    "lng": 132.659430215869,
    "tel": "0893-59-2280",
    "url": "http://rikyukai.web.fc2.com/index1.html",
    "pref": "愛媛県",
    "city": "内子町",
    "category": "rouken",
    "serviceType": "介護老人保健施設",
    "capacity": 80,
    "openDays": [],
    "openDaysNote": ""
  },
  {
    "id": "3857780179",
    "name": "済生会小田老人保健施設ふじの園",
    "kana": "サイセイカイオダロウジンホケンシセツフジノソノ",
    "address": "愛媛県喜多郡内子町小田149-1",
    "lat": 33.567929,
    "lng": 132.8042021,
    "tel": "0892-52-3102",
    "url": "",
    "pref": "愛媛県",
    "city": "内子町",
    "category": "rouken",
    "serviceType": "介護老人保健施設",
    "capacity": 0,
    "openDays": [],
    "openDaysNote": ""
  },
  {
    "id": "3857780567",
    "name": "介護老人保健施設　西安",
    "kana": "カイゴロウジンホケンシセツ　セイアン",
    "address": "愛媛県八幡浜市大平1番耕地870番地2",
    "lat": 33.4658675881516,
    "lng": 132.427253314819,
    "tel": "0894-29-1000",
    "url": "http://www.atomgroup.jp",
    "pref": "愛媛県",
    "city": "八幡浜市",
    "category": "rouken",
    "serviceType": "介護老人保健施設",
    "capacity": 0,
    "openDays": [],
    "openDaysNote": ""
  },
  {
    "id": "3857780385",
    "name": "介護老人保健施設青葉荘",
    "kana": "カイゴロウジンホケンシセツアオバソウ",
    "address": "愛媛県八幡浜市向灘229番地14",
    "lat": 33.4665641,
    "lng": 132.4241027,
    "tel": "0894-22-5855",
    "url": "http://rouken.aobaso.jp",
    "pref": "愛媛県",
    "city": "八幡浜市",
    "category": "rouken",
    "serviceType": "介護老人保健施設",
    "capacity": 0,
    "openDays": [],
    "openDaysNote": ""
  }
]