[
  {
    "id": "2355680014",
    "name": "老人保健施設　七宝園",
    "kana": "ロウジンホケンシセツ　シッポウエン",
    "address": "愛知県あま市七宝町下田矢倉下1433番地",
    "lat": 35.1732309,
    "lng": 136.7842767,
    "tel": "052-445-5411",
    "url": "http://takarakai.or.jp",
    "pref": "愛知県",
    "city": "あま市",
    "category": "rouken",
    "serviceType": "介護老人保健施設",
    "capacity": 0,
    "openDays": [],
    "openDaysNote": ""
  },
  {
    "id": "2356180006",
    "name": "三好老人保健施設",
    "kana": "ミヨシロウジンホケンシセツ",
    "address": "愛知県みよし市福谷町下り松４２－１",
    "lat": 35.1300677,
    "lng": 137.1106466,
    "tel": "0561-36-5522",
    "url": "http://hmcg.jp/miyoro",
    "pref": "愛知県",
    "city": "みよし市",
    "category": "rouken",
    "serviceType": "介護老人保健施設",
    "capacity": 99,
    "openDays": [],
    "openDaysNote": ""
  },
  {
    "id": "2355780004",
    "name": "介護老人保健施設　メディコ阿久比",
    "kana": "カイゴロウジンホケンシセツ　メディコアグイ",
    "address": "愛知県知多郡阿久比町大字草木字盗人ヶ脇15-1",
    "lat": 34.9460253,
    "lng": 136.9032414,
    "tel": "0569-48-1156",
    "url": "http://medico-agui.namiki.or.jp",
    "pref": "愛知県",
    "city": "阿久比町",
    "category": "rouken",
    "serviceType": "介護老人保健施設",
    "capacity": 214,
    "openDays": [],
    "openDaysNote": ""
  },
  {
    "id": "2357280011",
    "name": "介護老人保健施設ハレルヤ園",
    "kana": "カイゴロウジンホケンシセツハレルヤエン",
    "address": "愛知県愛西市西保町北川原179-145",
    "lat": 35.1445414,
    "lng": 136.7099604,
    "tel": "0567-22-2079",
    "url": "http://hareruyaen.com/",
    "pref": "愛知県",
    "city": "愛西市",
    "category": "rouken",
    "serviceType": "介護老人保健施設",
    "capacity": 30,
    "openDays": [],
    "openDaysNote": ""
  },
  {
    "id": "2353180009",
    "name": "医療法人安祥会　安城老人保健施設",
    "kana": "イリョウホウジンアンショウカイ　アンジョウロウジンホケンシセツ",
    "address": "愛知県安城市法連町8番地1安城老人保健施設 安城老人保健施設",
    "lat": 34.9551979,
    "lng": 137.0933069,
    "tel": "0566-72-5111",
    "url": "http://ansyokai.or.jp/rouken/",
    "pref": "愛知県",
    "city": "安城市",
    "category": "rouken",
    "serviceType": "介護老人保健施設",
    "capacity": 100,
    "openDays": [],
    "openDaysNote": ""
  },
  {
    "id": "2353180017",
    "name": "介護老人保健施設あおみ",
    "kana": "カイゴロウジンホケンシセツアオミ",
    "address": "愛知県安城市安城町東広畔28番地",
    "lat": 34.940113,
    "lng": 137.0777116,
    "tel": "0566-75-8460",
    "url": "http://www.aomi-anjo.jp",
    "pref": "愛知県",
    "city": "安城市",
    "category": "rouken",
    "serviceType": "介護老人保健施設",
    "capacity": 0,
    "openDays": [],
    "openDaysNote": ""
  },
  {
    "id": "2353180041",
    "name": "介護老人保健施設さとまち",
    "kana": "カイゴロウジンホケンシセツサトマチ",
    "address": "愛知県安城市里町畑下62番地",
    "lat": 34.9974556,
    "lng": 137.0837519,
    "tel": "0566-96-3511",
    "url": "https://www.yh-satomachi.jp",
    "pref": "愛知県",
    "city": "安城市",
    "category": "rouken",
    "serviceType": "介護老人保健施設",
    "capacity": 0,
    "openDays": [],
    "openDaysNote": ""
  },
  {
    "id": "2353180058",
    "name": "介護老人保健施設ユニットさとまち",
    "kana": "カイゴロウジンホケンシセツユニットサトマチ",
    "address": "愛知県安城市里町畑下62番地",
    "lat": 34.9975874322127,
    "lng": 137.083784086508,
    "tel": "0566-96-3511",
    "url": "http://yh-satomachi.jp/",
    "pref": "愛知県",
    "city": "安城市",
    "category": "rouken",
    "serviceType": "介護老人保健施設",
    "capacity": 0,
    "openDays": [],
    "openDaysNote": ""
  },
  {
    "id": "2352280057",
    "name": "医療法人泰玄会　介護老人保健施設みなみ",
    "kana": "イリョウホウジンタイゲンカイ　カイゴロウジンホケンシセツミナミ",
    "address": "愛知県一宮市上祖父江字小稲葉１番地",
    "lat": 35.2745263,
    "lng": 136.718499,
    "tel": "0586-67-3730",
    "url": "http://www.taigenkai.or.jp",
    "pref": "愛知県",
    "city": "一宮市",
    "category": "rouken",
    "serviceType": "介護老人保健施設",
    "capacity": 0,
    "openDays": [],
    "openDaysNote": ""
  },
  {
    "id": "2352280040",
    "name": "医療法人尾張健友会　介護老人保健施設ちあき",
    "kana": "イリョウホウジンオワリケンユウカイ　カイゴロウジンホケンシセツチアキ",
    "address": "愛知県一宮市丹陽町重吉字新田裏東切1077-1介護老人保健施設ちあき 介護老人保健施設ちあき",
    "lat": 35.2892980615343,
    "lng": 136.847973575671,
    "tel": "0586-76-8100",
    "url": "http://www.chiaki.com/rouken/",
    "pref": "愛知県",
    "city": "一宮市",
    "category": "rouken",
    "serviceType": "介護老人保健施設",
    "capacity": 100,
    "openDays": [],
    "openDaysNote": ""
  },
  {
    "id": "2352280016",
    "name": "介護老人保健施設　ピエタ",
    "kana": "カイゴロウジンホケンシセツ　ピエタ",
    "address": "愛知県一宮市浅井町前野字薬師裏５３番地",
    "lat": 35.3450936211079,
    "lng": 136.834627397599,
    "tel": "0586-51-5411",
    "url": "http://wwws.raikoukai.or.jp",
    "pref": "愛知県",
    "city": "一宮市",
    "category": "rouken",
    "serviceType": "介護老人保健施設",
    "capacity": 100,
    "openDays": [],
    "openDaysNote": ""
  },
  {
    "id": "2352280065",
    "name": "介護老人保健施設サザン一宮",
    "kana": "カイゴロウジンホケンシセツサザンイチノミヤ",
    "address": "愛知県一宮市北小渕字道上55-番地1",
    "lat": 35.3040352,
    "lng": 136.8298241,
    "tel": "0586-75-5525",
    "url": "http://www.kouyu-kai.or.jp/",
    "pref": "愛知県",
    "city": "一宮市",
    "category": "rouken",
    "serviceType": "介護老人保健施設",
    "capacity": 0,
    "openDays": [],
    "openDaysNote": ""
  },
  {
    "id": "2353780006",
    "name": "泰玄会老人保健施設",
    "kana": "タイゲンカイロウジンホケンシセツ",
    "address": "愛知県一宮市小信中島字仁井西５６番地３",
    "lat": 35.3092723,
    "lng": 136.7520433,
    "tel": "0586-61-7021",
    "url": "http://www.taigenkai.or.jp",
    "pref": "愛知県",
    "city": "一宮市",
    "category": "rouken",
    "serviceType": "介護老人保健施設",
    "capacity": 86,
    "openDays": [],
    "openDaysNote": ""
  },
  {
    "id": "2352280008",
    "name": "老人保健施設アウン",
    "kana": "ロウジンホケンシセツアウン",
    "address": "愛知県一宮市浅井町尾関字同者165",
    "lat": 35.349731,
    "lng": 136.8324677,
    "tel": "0586-78-1111",
    "url": "http://www.daiyukai.or.jp/",
    "pref": "愛知県",
    "city": "一宮市",
    "category": "rouken",
    "serviceType": "介護老人保健施設",
    "capacity": 0,
    "openDays": [],
    "openDaysNote": ""
  },
  {
    "id": "2352280024",
    "name": "老人保健施設やすらぎ",
    "kana": "ロウジンホケンシセツヤスラギ",
    "address": "愛知県一宮市奥町字下口西74番地の1",
    "lat": 35.3283331927526,
    "lng": 136.756612427613,
    "tel": "0586-61-6800",
    "url": "http://www.anzu.or.jp",
    "pref": "愛知県",
    "city": "一宮市",
    "category": "rouken",
    "serviceType": "介護老人保健施設",
    "capacity": 0,
    "openDays": [],
    "openDaysNote": ""
  },
  {
    "id": "2353980002",
    "name": "医療法人回精会　稲沢老人保健施設第１憩の泉",
    "kana": "イリョウホウジンカイセイカイイナザワロウジンホケンシセツダイイチイコイノイズミ",
    "address": "愛知県稲沢市駅前２丁目２７番３号",
    "lat": 35.2497914,
    "lng": 136.820887,
    "tel": "0587-23-2101",
    "url": "https://www.ikoi-izumi.jp/",
    "pref": "愛知県",
    "city": "稲沢市",
    "category": "rouken",
    "serviceType": "介護老人保健施設",
    "capacity": 0,
    "openDays": [],
    "openDaysNote": ""
  },
  {
    "id": "2353980010",
    "name": "医療法人回精会　稲沢老人保健施設第２憩の泉",
    "kana": "イリョウホウジンカイセイカイ　イナザワロウジンホケンシセツダイニイコイノイズミ",
    "address": "愛知県稲沢市駅前２丁目２５番１５号",
    "lat": 35.2500941,
    "lng": 136.821923,
    "tel": "0587-23-1161",
    "url": "https://www.ikoi-izumi.jp/",
    "pref": "愛知県",
    "city": "稲沢市",
    "category": "rouken",
    "serviceType": "介護老人保健施設",
    "capacity": 150,
    "openDays": [],
    "openDaysNote": ""
  },
  {
    "id": "2353980028",
    "name": "介護老人保健施設　ベストライフ祖父江",
    "kana": "カイゴロウジンホケンシセツ　ベストライフソブエ",
    "address": "愛知県稲沢市祖父江町四貫東堤外1201-70",
    "lat": 35.2487266,
    "lng": 136.7064403,
    "tel": "0587-98-1331",
    "url": "",
    "pref": "愛知県",
    "city": "稲沢市",
    "category": "rouken",
    "serviceType": "介護老人保健施設",
    "capacity": 0,
    "openDays": [],
    "openDaysNote": ""
  },
  {
    "id": "2352180059",
    "name": "医療法人　鉄友会　介護老人保健施設　さくら大樹",
    "kana": "イリョウホウジン　テツユウカイ　カイゴロウジンホケンシセツ　サクラダイジュ",
    "address": "愛知県岡崎市大樹寺3丁目9番地１",
    "lat": 34.9825643,
    "lng": 137.1612189,
    "tel": "0564-28-3000",
    "url": "http://www.sakuradaijyu.com",
    "pref": "愛知県",
    "city": "岡崎市",
    "category": "rouken",
    "serviceType": "介護老人保健施設",
    "capacity": 0,
    "openDays": [],
    "openDaysNote": ""
  },
  {
    "id": "2352180042",
    "name": "医療法人　鉄友会　介護老人保健施設さくらの里",
    "kana": "イリョウホウジンテツユウカイ　カイゴロウジンホケンシセツサクラノサト",
    "address": "愛知県岡崎市中岡崎町2番地25",
    "lat": 34.9575916,
    "lng": 137.1548254,
    "tel": "0564-24-1011",
    "url": "http://www.sakuranosato.com",
    "pref": "愛知県",
    "city": "岡崎市",
    "category": "rouken",
    "serviceType": "介護老人保健施設",
    "capacity": 0,
    "openDays": [],
    "openDaysNote": ""
  },
  {
    "id": "2352180026",
    "name": "医療法人大朋会岡崎老人保健施設　スクエアガーデン",
    "kana": "イリョウホウジンタイホウカイ　オカザキロウジンホケンシセツ　スクエアガーデン",
    "address": "愛知県岡崎市羽根町中田３４",
    "lat": 34.9302748,
    "lng": 137.158951,
    "tel": "0564-55-2555",
    "url": "http://www.taihoukai.or.jp",
    "pref": "愛知県",
    "city": "岡崎市",
    "category": "rouken",
    "serviceType": "介護老人保健施設",
    "capacity": 0,
    "openDays": [],
    "openDaysNote": ""
  },
  {
    "id": "2352180034",
    "name": "介護老人保健施設　羽栗の里",
    "kana": "カイゴロウジンホケンシセツ　ハグリノサト",
    "address": "愛知県岡崎市羽栗町字田中　26・27・30番合併地",
    "lat": 34.8944571,
    "lng": 137.2357825,
    "tel": "0564-48-7710",
    "url": "http://hagurikai.com/",
    "pref": "愛知県",
    "city": "岡崎市",
    "category": "rouken",
    "serviceType": "介護老人保健施設",
    "capacity": 0,
    "openDays": [],
    "openDaysNote": ""
  },
  {
    "id": "2352180075",
    "name": "介護老人保健施設ヴィラ葵",
    "kana": "カイゴロウジンホケンシセツヴィラアオイ",
    "address": "愛知県岡崎市竜泉寺町黒土５５番地",
    "lat": 34.9092198,
    "lng": 137.1981893,
    "tel": "0564-57-8383",
    "url": "http://www.villa-aoi.com/",
    "pref": "愛知県",
    "city": "岡崎市",
    "category": "rouken",
    "serviceType": "介護老人保健施設",
    "capacity": 100,
    "openDays": [],
    "openDaysNote": ""
  },
  {
    "id": "2352180018",
    "name": "三田介護老人保健施設",
    "kana": "ミタカイゴロウジンホケンシセツ",
    "address": "愛知県岡崎市欠町字三田々北通１３番地１",
    "lat": 34.9587240427887,
    "lng": 137.190152771689,
    "tel": "0564-22-7505",
    "url": "http://www.toyookakai.or.jp",
    "pref": "愛知県",
    "city": "岡崎市",
    "category": "rouken",
    "serviceType": "介護老人保健施設",
    "capacity": 160,
    "openDays": [],
    "openDaysNote": ""
  },
  {
    "id": "2352180067",
    "name": "滝町介護老人保健施設",
    "kana": "タキマチカイゴロウジンホケンシセツ",
    "address": "岡崎市滝町字十楽72番地",
    "lat": 34.9925967463842,
    "lng": 137.189309349074,
    "tel": "0564-46-5050",
    "url": "http://www.toyookakai.or.jp",
    "pref": "愛知県",
    "city": "岡崎市",
    "category": "rouken",
    "serviceType": "介護老人保健施設",
    "capacity": 0,
    "openDays": [],
    "openDaysNote": ""
  },
  {
    "id": "2355680048",
    "name": "介護老人保健施設かにえ",
    "kana": "カイゴロウジンホケンシセツカニエ",
    "address": "愛知県海部郡蟹江町大字蟹江新田字佐屋川東48-1",
    "lat": 35.1360743145738,
    "lng": 136.776100156561,
    "tel": "0567-96-7001",
    "url": "http://www.kanie-hp.jp/center/index.html",
    "pref": "愛知県",
    "city": "蟹江町",
    "category": "rouken",
    "serviceType": "介護老人保健施設",
    "capacity": 0,
    "openDays": [],
    "openDaysNote": ""
  },
  {
    "id": "2355680022",
    "name": "介護老人保健施設セーヌ蟹江",
    "kana": "カイゴロウジンホケンシセツセーヌカニエ",
    "address": "愛知県海部郡蟹江町須成西七丁目９０番地１",
    "lat": 35.1404545,
    "lng": 136.784398,
    "tel": "0567-94-3133",
    "url": "http://takarakai.or.jp/",
    "pref": "愛知県",
    "city": "蟹江町",
    "category": "rouken",
    "serviceType": "介護老人保健施設",
    "capacity": 0,
    "openDays": [],
    "openDaysNote": ""
  },
  {
    "id": "2353380013",
    "name": "医療法人　幸会　介護老人保健施設　五井の里",
    "kana": "イリョウホウジン　サイワイカイカイゴロウジンホケンシセツ　ゴイノサト",
    "address": "愛知県蒲郡市五井町殿海道１１－１",
    "lat": 34.8346,
    "lng": 137.2431133,
    "tel": "0533-68-6541",
    "url": "https://saiwaikai-goinosato.jp/",
    "pref": "愛知県",
    "city": "蒲郡市",
    "category": "rouken",
    "serviceType": "介護老人保健施設",
    "capacity": 0,
    "openDays": [],
    "openDaysNote": ""
  },
  {
    "id": "2353380005",
    "name": "医療法人北辰会　老人保健施設　みらいあ",
    "kana": "イリョウホウジンホクシンカイ　ロウジンホケンシセツミライア",
    "address": "愛知県蒲郡市栄町11-13",
    "lat": 34.8238035,
    "lng": 137.216775,
    "tel": "0533-67-0125",
    "url": "http://www.miraia.or.jp",
    "pref": "愛知県",
    "city": "蒲郡市",
    "category": "rouken",
    "serviceType": "介護老人保健施設",
    "capacity": 0,
    "openDays": [],
    "openDaysNote": ""
  },
  {
    "id": "2352980003",
    "name": "介護老人保健施設　ハビリス一ツ木",
    "kana": "カイゴロウジンホケンシセツ　ハビリスヒトツギ",
    "address": "愛知県刈谷市一ツ木町4丁目41番地4",
    "lat": 35.0139862,
    "lng": 137.0230101,
    "tel": "0566-29-3611",
    "url": "http://www.toyota-kai.or.jp/",
    "pref": "愛知県",
    "city": "刈谷市",
    "category": "rouken",
    "serviceType": "介護老人保健施設",
    "capacity": 0,
    "openDays": [],
    "openDaysNote": ""
  },
  {
    "id": "2352980011",
    "name": "介護老人保健施設かりや",
    "kana": "カイゴロウジンホケンシセツカリヤ",
    "address": "愛知県刈谷市小垣江町新庄３３番地",
    "lat": 34.9741183,
    "lng": 137.0025962,
    "tel": "0566-63-5100",
    "url": "https://www.kojikai-med-corp.com",
    "pref": "愛知県",
    "city": "刈谷市",
    "category": "rouken",
    "serviceType": "介護老人保健施設",
    "capacity": 100,
    "openDays": [],
    "openDaysNote": ""
  },
  {
    "id": "2354780005",
    "name": "介護老人保健施設　るるどの泉",
    "kana": "カイゴロウジンホケンシセツ　ルルドノイズミ",
    "address": "愛知県岩倉市曽野町郷前３番地",
    "lat": 35.2689179,
    "lng": 136.8782915,
    "tel": "0587-65-7577",
    "url": "http://youteikai.com",
    "pref": "愛知県",
    "city": "岩倉市",
    "category": "rouken",
    "serviceType": "介護老人保健施設",
    "capacity": 0,
    "openDays": [],
    "openDaysNote": ""
  },
  {
    "id": "2353480029",
    "name": "ユニット型　介護老人保健施設　ほほえみ",
    "kana": "ユニット型　カイゴロウジンホケンシセツ　ホホエミ",
    "address": "愛知県犬山市大字前原西三丁目３１番１",
    "lat": 35.3634763,
    "lng": 136.9600153,
    "tel": "0568-65-0151",
    "url": "http://www.hohoemi-kaigo.com",
    "pref": "愛知県",
    "city": "犬山市",
    "category": "rouken",
    "serviceType": "介護老人保健施設",
    "capacity": 0,
    "openDays": [],
    "openDaysNote": ""
  },
  {
    "id": "2353480011",
    "name": "介護老人保健施設　ほほえみ",
    "kana": "カイゴロウジンホケンシセツ　ホホエミ",
    "address": "愛知県犬山市大字前原西三丁目３１番１",
    "lat": 35.3634652,
    "lng": 136.9599931,
    "tel": "0568-65-0151",
    "url": "http://www.hohoemi-kaigo.com",
    "pref": "愛知県",
    "city": "犬山市",
    "category": "rouken",
    "serviceType": "介護老人保健施設",
    "capacity": 0,
    "openDays": [],
    "openDaysNote": ""
  },
  {
    "id": "2353480003",
    "name": "老人保健施設フローレンス犬山",
    "kana": "ロウジンホケンシセツフローレンスイヌヤマ",
    "address": "愛知県犬山市大字羽黒新田字下蝉屋7-1",
    "lat": 35.3460049,
    "lng": 136.9488007,
    "tel": "0568-68-1366",
    "url": "http://www.keiyu-kai.or.jp/",
    "pref": "愛知県",
    "city": "犬山市",
    "category": "rouken",
    "serviceType": "介護老人保健施設",
    "capacity": 100,
    "openDays": [],
    "openDaysNote": ""
  },
  {
    "id": "2353680016",
    "name": "介護老人保健施設はじまり",
    "kana": "カイゴロウジンホケンシセツハジマリ",
    "address": "愛知県江南市上奈良町旭28番地",
    "lat": 35.3305308,
    "lng": 136.860454,
    "tel": "0587-54-1711",
    "url": "http://www.sato-hp.jp/hajimari",
    "pref": "愛知県",
    "city": "江南市",
    "category": "rouken",
    "serviceType": "介護老人保健施設",
    "capacity": 100,
    "openDays": [],
    "openDaysNote": ""
  },
  {
    "id": "2353680024",
    "name": "介護老人保健施設フラワーコート江南",
    "kana": "カイゴロウジンホケンシセツフラワーコートコウナン",
    "address": "愛知県江南市河野町五十間４番地",
    "lat": 35.346863,
    "lng": 136.8385292,
    "tel": "0587-58-7701",
    "url": "http://sun-vision.or.jp/",
    "pref": "愛知県",
    "city": "江南市",
    "category": "rouken",
    "serviceType": "介護老人保健施設",
    "capacity": 158,
    "openDays": [],
    "openDaysNote": ""
  },
  {
    "id": "2354680007",
    "name": "老人保健施設こもれびの里・高浜",
    "kana": "ロウジンホケンシセツコモレビノサト　タカハマ",
    "address": "愛知県高浜市論地町三丁目6番地１６",
    "lat": 34.9176451,
    "lng": 137.0049813,
    "tel": "0566-53-7777",
    "url": "http://komorebi-sato.com",
    "pref": "愛知県",
    "city": "高浜市",
    "category": "rouken",
    "serviceType": "介護老人保健施設",
    "capacity": 0,
    "openDays": [],
    "openDaysNote": ""
  },
  {
    "id": "2352580001",
    "name": "パーム春日井",
    "kana": "パームカスガイ",
    "address": "愛知県春日井市鳥居松町2-308",
    "lat": 35.2419562,
    "lng": 136.9709323,
    "tel": "0568-84-1003",
    "url": "http://palm-kasugai.jp/",
    "pref": "愛知県",
    "city": "春日井市",
    "category": "rouken",
    "serviceType": "介護老人保健施設",
    "capacity": 0,
    "openDays": [],
    "openDaysNote": ""
  },
  {
    "id": "2352580043",
    "name": "介護老人保健施設　グレイスフル春日井",
    "kana": "カイゴロウジンホケンシセツ　グレイスフルカスガイ",
    "address": "愛知県春日井市桃山町字北山5079-16介護老人保健施設　グレイスフル春日井 介護老人保健施設　グレイスフル春日井",
    "lat": 35.2846004471365,
    "lng": 136.966110406993,
    "tel": "0568-89-2571",
    "url": "http://www.e-sunlife.or.jp",
    "pref": "愛知県",
    "city": "春日井市",
    "category": "rouken",
    "serviceType": "介護老人保健施設",
    "capacity": 90,
    "openDays": [],
    "openDaysNote": ""
  },
  {
    "id": "2352580019",
    "name": "介護老人保健施設　メディコ春日井",
    "kana": "カイゴロウジンホケンシセツ　メディコカスガイ",
    "address": "愛知県春日井市坂下町5丁目1221番１",
    "lat": 35.2871422,
    "lng": 137.0263138,
    "tel": "0568-88-6000",
    "url": "http://www.namiki.or.jp/kasugai/",
    "pref": "愛知県",
    "city": "春日井市",
    "category": "rouken",
    "serviceType": "介護老人保健施設",
    "capacity": 0,
    "openDays": [],
    "openDaysNote": ""
  },
  {
    "id": "2352580050",
    "name": "介護老人保健施設エスペラル東春",
    "kana": "カイゴロウジンホケンシセツエスペラルトウシュン",
    "address": "愛知県春日井市西高山町３丁目６番地の１２",
    "lat": 35.2551174,
    "lng": 136.9497055,
    "tel": "0568-33-9971",
    "url": "http://www.esp-toshun.com/",
    "pref": "愛知県",
    "city": "春日井市",
    "category": "rouken",
    "serviceType": "介護老人保健施設",
    "capacity": 80,
    "openDays": [],
    "openDaysNote": ""
  },
  {
    "id": "2352580027",
    "name": "特定医療法人晴和会　老人保健施設　忘れな草",
    "kana": "トクテイイリョウホウジン　セイワカイ　ロウジンホケンシセツ　ワスレナグサ",
    "address": "愛知県春日井市細野町３２４６－３６８",
    "lat": 35.2997591,
    "lng": 137.0568547,
    "tel": "0568-95-5005",
    "url": "http://www.mc-seiwa.com",
    "pref": "愛知県",
    "city": "春日井市",
    "category": "rouken",
    "serviceType": "介護老人保健施設",
    "capacity": 100,
    "openDays": [],
    "openDaysNote": ""
  },
  {
    "id": "2353880004",
    "name": "医療法人双寿会　老人保健施設　豊寿苑",
    "kana": "イリョウホウジンソウジュカイ　ロウジンホケンシセツホウジュエン",
    "address": "愛知県小牧市中央二丁目185番地",
    "lat": 35.2876278,
    "lng": 136.9284167,
    "tel": "0568-71-8281",
    "url": "http://www.soujukai.or.jp/houjuen/",
    "pref": "愛知県",
    "city": "小牧市",
    "category": "rouken",
    "serviceType": "介護老人保健施設",
    "capacity": 0,
    "openDays": [],
    "openDaysNote": ""
  },
  {
    "id": "2353880012",
    "name": "老人保健施設　こまきの森",
    "kana": "ロウジンホケンシセツ　コマキノモリ",
    "address": "愛知県小牧市大字三ツ渕１９４５番地１",
    "lat": 35.3033639,
    "lng": 136.8925833,
    "tel": "0568-41-3450",
    "url": "http://",
    "pref": "愛知県",
    "city": "小牧市",
    "category": "rouken",
    "serviceType": "介護老人保健施設",
    "capacity": 0,
    "openDays": [],
    "openDaysNote": ""
  },
  {
    "id": "2353580000",
    "name": "医療法人　健幸会　老人保健施設　さざんかの丘",
    "kana": "イリョウホウジン　ケンコウカイ　ロウジンホケンシセツ　サザンカノオカ",
    "address": "愛知県常滑市字大窯１１４番地の２",
    "lat": 34.8934059,
    "lng": 136.8709407,
    "tel": "0569-35-7555",
    "url": "http://www.i-kenkoukai.com",
    "pref": "愛知県",
    "city": "常滑市",
    "category": "rouken",
    "serviceType": "介護老人保健施設",
    "capacity": 0,
    "openDays": [],
    "openDaysNote": ""
  },
  {
    "id": "2356480000",
    "name": "介護老人保健施設　鳳来ケアセンター",
    "kana": "カイゴロウジンホケンシセツ　ホウライケアセンター",
    "address": "愛知県新城市下吉田字下田18番地の3",
    "lat": 34.9101191945765,
    "lng": 137.604757364418,
    "tel": "0536-34-5051",
    "url": "http://",
    "pref": "愛知県",
    "city": "新城市",
    "category": "rouken",
    "serviceType": "介護老人保健施設",
    "capacity": 100,
    "openDays": [],
    "openDaysNote": ""
  },
  {
    "id": "2354080000",
    "name": "新城介護老人保健施設　サマリヤの丘",
    "kana": "シンシロカイゴロウジンホケンシセツ　サマリヤノオカ",
    "address": "愛知県新城市矢部字上ノ川１番地３",
    "lat": 34.9160529061159,
    "lng": 137.508396530689,
    "tel": "0536-24-1165",
    "url": "http://sojukai.jp/",
    "pref": "愛知県",
    "city": "新城市",
    "category": "rouken",
    "serviceType": "介護老人保健施設",
    "capacity": 0,
    "openDays": [],
    "openDaysNote": ""
  },
  {
    "id": "2352380006",
    "name": "老人保健施設　すこやか荘",
    "kana": "ロウジンホケンシセツ　スコヤカソウ",
    "address": "愛知県瀬戸市すみれ台４丁目１７番地の７",
    "lat": 35.2414028,
    "lng": 137.0755885,
    "tel": "0561-48-2232",
    "url": "http://www.kouseikai2231.jp",
    "pref": "愛知県",
    "city": "瀬戸市",
    "category": "rouken",
    "serviceType": "介護老人保健施設",
    "capacity": 0,
    "openDays": [],
    "openDaysNote": ""
  },
  {
    "id": "2355280005",
    "name": "満天星",
    "kana": "マンテンボシ",
    "address": "愛知県清須市西枇杷島町城並2-14",
    "lat": 35.2062056,
    "lng": 136.8721844,
    "tel": "052-505-4411",
    "url": "http://www.keyaki-kai.or.jp",
    "pref": "愛知県",
    "city": "清須市",
    "category": "rouken",
    "serviceType": "介護老人保健施設",
    "capacity": 0,
    "openDays": [],
    "openDaysNote": ""
  },
  {
    "id": "2353280007",
    "name": "にしお老人保健施設　彩り",
    "kana": "ニシオロウジンホケンシセツ　イロドリ",
    "address": "愛知県西尾市江原町西柄12",
    "lat": 34.8682121961237,
    "lng": 137.092226679065,
    "tel": "0563-52-0531",
    "url": "httpｓ://www.jhn.or.jp/",
    "pref": "愛知県",
    "city": "西尾市",
    "category": "rouken",
    "serviceType": "介護老人保健施設",
    "capacity": 100,
    "openDays": [],
    "openDaysNote": ""
  },
  {
    "id": "2355980000",
    "name": "介護老人保健施設　高須ケアガーデン",
    "kana": "カイゴロウジンホケンシセツ　タカスケアガーデン",
    "address": "愛知県西尾市一色町赤羽上郷中120番地",
    "lat": 34.8193683,
    "lng": 137.0185455,
    "tel": "0563-72-1985",
    "url": "https://takasu-hp.or.jp",
    "pref": "愛知県",
    "city": "西尾市",
    "category": "rouken",
    "serviceType": "介護老人保健施設",
    "capacity": 0,
    "openDays": [],
    "openDaysNote": ""
  },
  {
    "id": "2353280023",
    "name": "介護老人保健施設いずみ",
    "kana": "カイゴロウジンホケンシセツイズミ",
    "address": "愛知県西尾市和泉町１番地８",
    "lat": 34.8675609,
    "lng": 137.0556807,
    "tel": "0563-57-8030",
    "url": "https://rouken-izumi.jp/",
    "pref": "愛知県",
    "city": "西尾市",
    "category": "rouken",
    "serviceType": "介護老人保健施設",
    "capacity": 0,
    "openDays": [],
    "openDaysNote": ""
  },
  {
    "id": "2353280031",
    "name": "介護老人保健施設やまお",
    "kana": "カイゴロウジンホケンシセツヤマオ",
    "address": "愛知県西尾市徳次町明大寺144番地５",
    "lat": 34.8640115,
    "lng": 137.0724848,
    "tel": "0563-53-6227",
    "url": "http://www.yamaohospital.or.jp/care",
    "pref": "愛知県",
    "city": "西尾市",
    "category": "rouken",
    "serviceType": "介護老人保健施設",
    "capacity": 0,
    "openDays": [],
    "openDaysNote": ""
  },
  {
    "id": "2355980018",
    "name": "介護老人保健施設らくらく一色",
    "kana": "カイゴロウジンホケンシセツラクラクイッシキ",
    "address": "愛知県西尾市一色町松木島丸山54番地",
    "lat": 34.7936975,
    "lng": 137.0423197,
    "tel": "0563-74-3300",
    "url": "http://fukamijyuzen.or.jp",
    "pref": "愛知県",
    "city": "西尾市",
    "category": "rouken",
    "serviceType": "介護老人保健施設",
    "capacity": 0,
    "openDays": [],
    "openDaysNote": ""
  },
  {
    "id": "2353280015",
    "name": "米津老人保健施設",
    "kana": "ヨネヅロウジンホケンシセツ",
    "address": "愛知県西尾市桜町４丁目３１番地",
    "lat": 34.8814148,
    "lng": 137.0617547,
    "tel": "0563-54-4771",
    "url": "http://www.yonezu.jp",
    "pref": "愛知県",
    "city": "西尾市",
    "category": "rouken",
    "serviceType": "介護老人保健施設",
    "capacity": 100,
    "openDays": [],
    "openDaysNote": ""
  },
  {
    "id": "2355380011",
    "name": "老人保健施設　さくら荘",
    "kana": "ロウジンホケンシセツ　サクラソウ",
    "address": "愛知県丹羽郡大口町新宮一丁目96番地",
    "lat": 35.3301191,
    "lng": 136.9206264,
    "tel": "0587-95-6722",
    "url": "http://www.ijinkai.or.jp",
    "pref": "愛知県",
    "city": "大口町",
    "category": "rouken",
    "serviceType": "介護老人保健施設",
    "capacity": 0,
    "openDays": [],
    "openDaysNote": ""
  },
  {
    "id": "2355680006",
    "name": "四季の里",
    "kana": "シキノサト",
    "address": "愛知県海部郡大治町大字西條字柳原３７－１",
    "lat": 35.1864378,
    "lng": 136.8131234,
    "tel": "052-441-5122",
    "url": "https://andouiin-fujiedakai.com/contents/kanren.html",
    "pref": "愛知県",
    "city": "大治町",
    "category": "rouken",
    "serviceType": "介護老人保健施設",
    "capacity": 0,
    "openDays": [],
    "openDaysNote": ""
  },
  {
    "id": "2354280014",
    "name": "介護老人保健施設　キュア北崎",
    "kana": "カイゴロウジンホケンシセツ　キュアキタサキ",
    "address": "愛知県大府市北崎町5-55",
    "lat": 35.036338368927,
    "lng": 136.984889679099,
    "tel": "0562-44-1400",
    "url": "http://risei-kai.or.jp/",
    "pref": "愛知県",
    "city": "大府市",
    "category": "rouken",
    "serviceType": "介護老人保健施設",
    "capacity": 0,
    "openDays": [],
    "openDaysNote": ""
  },
  {
    "id": "2374201065",
    "name": "介護老人保健施設　キュア北崎（ユニット型）",
    "kana": "カイゴロウジンホケンシセツ　キュアキタサキ（ユニットガタ）",
    "address": "愛知県大府市北崎町5丁目55番地",
    "lat": 35.0361758528627,
    "lng": 136.984900407935,
    "tel": "0562-44-1400",
    "url": "http://risei-kai.or.jp/",
    "pref": "愛知県",
    "city": "大府市",
    "category": "rouken",
    "serviceType": "介護老人保健施設",
    "capacity": 0,
    "openDays": [],
    "openDaysNote": ""
  },
  {
    "id": "2354280006",
    "name": "介護老人保健施設　ルミナス大府",
    "kana": "カイゴロウジンホケンシセツ　ルミナスオオブ",
    "address": "愛知県大府市半月町三丁目290番地",
    "lat": 34.9971466,
    "lng": 136.9428623,
    "tel": "0562-44-7735",
    "url": "http://ruminasu.jp",
    "pref": "愛知県",
    "city": "大府市",
    "category": "rouken",
    "serviceType": "介護老人保健施設",
    "capacity": 0,
    "openDays": [],
    "openDaysNote": ""
  },
  {
    "id": "2354380012",
    "name": "介護老人保健施設キューオーエル",
    "kana": "カイゴロウジンホケンシセツキューオーエル",
    "address": "愛知県知多市八幡字丸根１００番地",
    "lat": 34.9689187,
    "lng": 136.9037712,
    "tel": "0562-31-7211",
    "url": "http://www.taku-m.com/",
    "pref": "愛知県",
    "city": "知多市",
    "category": "rouken",
    "serviceType": "介護老人保健施設",
    "capacity": 0,
    "openDays": [],
    "openDaysNote": ""
  },
  {
    "id": "2354380004",
    "name": "老人保健施設　　知多苑",
    "kana": "ロウジンホケンシセツ　チタエン",
    "address": "愛知県知多市日長字上種廻間６１番１",
    "lat": 34.9590353,
    "lng": 136.8548834,
    "tel": "0562-56-6360",
    "url": "http://hira-hospital.jp/",
    "pref": "愛知県",
    "city": "知多市",
    "category": "rouken",
    "serviceType": "介護老人保健施設",
    "capacity": 146,
    "openDays": [],
    "openDaysNote": ""
  },
  {
    "id": "2354480010",
    "name": "知立老人保健施設",
    "kana": "チリュウロウジンホケンシセツ",
    "address": "知立市新林町北林４４番地",
    "lat": 34.9891948,
    "lng": 137.0364341,
    "tel": "0566-81-1110",
    "url": "http://www.kojikai-med-corp.com/",
    "pref": "愛知県",
    "city": "知立市",
    "category": "rouken",
    "serviceType": "介護老人保健施設",
    "capacity": 0,
    "openDays": [],
    "openDaysNote": ""
  },
  {
    "id": "2355080017",
    "name": "介護老人保健施設　葵の園・長久手",
    "kana": "カイゴロウジンホケンシセツ　アオイノソノ・ナガクテ",
    "address": "愛知県長久手市岩作高山43番7",
    "lat": 35.1913436989933,
    "lng": 137.043256094693,
    "tel": "0561-67-7711",
    "url": "https://www.aoikai.jp/nagakute/",
    "pref": "愛知県",
    "city": "長久手市",
    "category": "rouken",
    "serviceType": "介護老人保健施設",
    "capacity": 0,
    "openDays": [],
    "openDaysNote": ""
  },
  {
    "id": "2357780010",
    "name": "介護老人保健施設　葵の園・長久手",
    "kana": "カイゴロウジンホケシセツ　アオイノソノ・ナガクテ",
    "address": "愛知県長久手市岩作高山43番7",
    "lat": 35.1912859,
    "lng": 137.0415789,
    "tel": "0561-67-7711",
    "url": "https://www.aoikai.jp/nagakute/",
    "pref": "愛知県",
    "city": "長久手市",
    "category": "rouken",
    "serviceType": "介護老人保健施設",
    "capacity": null,
    "openDays": [],
    "openDaysNote": ""
  },
  {
    "id": "2355080025",
    "name": "介護老人保健施設　葵の園・長久手　ユニット型",
    "kana": "カイゴロウジンホケンシセツ　アオイノソノ・ナガクテ",
    "address": "愛知県長久手市岩作高山43番7",
    "lat": 35.1913909474281,
    "lng": 137.043411405835,
    "tel": "0561-67-7711",
    "url": "https://www.aoikai.jp/nagakute/",
    "pref": "愛知県",
    "city": "長久手市",
    "category": "rouken",
    "serviceType": "介護老人保健施設",
    "capacity": 0,
    "openDays": [],
    "openDaysNote": ""
  },
  {
    "id": "2357780028",
    "name": "介護老人保健施設　葵の園・長久手　ユニット型",
    "kana": "カイゴロウジンホケンシセツ　アオイノソノ・ナガクテ　ユニットガタ",
    "address": "愛知県長久手市岩作高山43番7",
    "lat": 35.1912859,
    "lng": 137.0415789,
    "tel": "0561-67-7711",
    "url": "https://www.aoikai.jp/nagakute/",
    "pref": "愛知県",
    "city": "長久手市",
    "category": "rouken",
    "serviceType": "介護老人保健施設",
    "capacity": null,
    "openDays": [],
    "openDaysNote": ""
  },
  {
    "id": "2352780049",
    "name": "ユニット型介護老人保健施設第２六寿苑",
    "kana": "ユニットガタカイゴロウジンホケンシセツダイニロクジュエン",
    "address": "愛知県津島市杁前町５丁目３１番地１",
    "lat": 35.1655781,
    "lng": 136.7460305,
    "tel": "0567-22-2622",
    "url": "http://www.rokujyukai.com/",
    "pref": "愛知県",
    "city": "津島市",
    "category": "rouken",
    "serviceType": "介護老人保健施設",
    "capacity": 40,
    "openDays": [],
    "openDaysNote": ""
  },
  {
    "id": "2352780031",
    "name": "介護老人保健施設パビリオン",
    "kana": "カイゴロウジンホケンシセツパビリオン",
    "address": "愛知県津島市葉苅町字綿掛56番地",
    "lat": 35.1915497,
    "lng": 136.76072,
    "tel": "0567-24-0114",
    "url": "http://www.sanzenkai.or.jp/",
    "pref": "愛知県",
    "city": "津島市",
    "category": "rouken",
    "serviceType": "介護老人保健施設",
    "capacity": 0,
    "openDays": [],
    "openDaysNote": ""
  },
  {
    "id": "2352780056",
    "name": "介護老人保健施設第２六寿苑",
    "kana": "カイゴロウジンホケンシセツダイニロクジュエン",
    "address": "愛知県津島市杁前町５丁目３１番地１",
    "lat": 35.1655781,
    "lng": 136.7460305,
    "tel": "0567-22-2622",
    "url": "http://www.rokujyukai.com/",
    "pref": "愛知県",
    "city": "津島市",
    "category": "rouken",
    "serviceType": "介護老人保健施設",
    "capacity": 40,
    "openDays": [],
    "openDaysNote": ""
  },
  {
    "id": "2352780007",
    "name": "老人保健施設　第一アメニティつしま",
    "kana": "ロウジンホケンシセツ　ダイイチアメニティツシマ",
    "address": "愛知県津島市東柳原町3丁目47-1",
    "lat": 35.1792482,
    "lng": 136.7376391,
    "tel": "0567-24-0112",
    "url": "http://www.sanzenkai.or.jp/",
    "pref": "愛知県",
    "city": "津島市",
    "category": "rouken",
    "serviceType": "介護老人保健施設",
    "capacity": 100,
    "openDays": [],
    "openDaysNote": ""
  },
  {
    "id": "2352780015",
    "name": "老人保健施設　第二アメニティつしま",
    "kana": "ロウジンホケンシセツ　ダイニアメニティツシマ",
    "address": "愛知県津島市東柳原町３丁目４５番地",
    "lat": 35.1792732,
    "lng": 136.737078,
    "tel": "0567-24-0113",
    "url": "http://www.sanzenkai.or.jp",
    "pref": "愛知県",
    "city": "津島市",
    "category": "rouken",
    "serviceType": "介護老人保健施設",
    "capacity": 88,
    "openDays": [],
    "openDaysNote": ""
  },
  {
    "id": "2352780023",
    "name": "老人保健施設　六寿苑",
    "kana": "ロウジンホケンシセツロクジュエン",
    "address": "愛知県津島市南新開町１丁目１１２番地１",
    "lat": 35.167689,
    "lng": 136.7500856,
    "tel": "0567-23-3611",
    "url": "http://www.rokujyukai.com/",
    "pref": "愛知県",
    "city": "津島市",
    "category": "rouken",
    "serviceType": "介護老人保健施設",
    "capacity": 0,
    "openDays": [],
    "openDaysNote": ""
  },
  {
    "id": "2356680005",
    "name": "ＪＡ愛知厚生連あつみの郷介護老人保健施設",
    "kana": "ジェイエイアイチコウセイレンアツミノサトカイゴロウジンホケンシセツ",
    "address": "愛知県田原市田原町築出３５番地１",
    "lat": 34.6715137,
    "lng": 137.2715694,
    "tel": "0531-22-0283",
    "url": "https://www.atsumi.jaaikosei.or.jp/atsumi/",
    "pref": "愛知県",
    "city": "田原市",
    "category": "rouken",
    "serviceType": "介護老人保健施設",
    "capacity": 97,
    "openDays": [],
    "openDaysNote": ""
  },
  {
    "id": "2356680013",
    "name": "介護老人保健施設　　伊良湖ケアセンター",
    "kana": "カイゴロウジンホケンシセツ　　イラゴケアセンター",
    "address": "愛知県田原市石神町森下１１番地１",
    "lat": 34.6403253,
    "lng": 137.1357311,
    "tel": "0531-34-6686",
    "url": "http://",
    "pref": "愛知県",
    "city": "田原市",
    "category": "rouken",
    "serviceType": "介護老人保健施設",
    "capacity": 0,
    "openDays": [],
    "openDaysNote": ""
  },
  {
    "id": "2355780020",
    "name": "社会福祉法人愛光園　老人保健施設相生",
    "kana": "シャカイフクシホウジンアイコウエン　ロウジンホケンシセツアイオイ",
    "address": "愛知県知多郡東浦町緒川東米田１６",
    "lat": 34.9794406,
    "lng": 136.9390439,
    "tel": "0562-84-3100",
    "url": "http://www.aikouen.jp/pg213.html",
    "pref": "愛知県",
    "city": "東浦町",
    "category": "rouken",
    "serviceType": "介護老人保健施設",
    "capacity": 100,
    "openDays": [],
    "openDaysNote": ""
  },
  {
    "id": "2354180008",
    "name": "介護老人保健施設　東海",
    "kana": "カイゴロウジンホケンシセツ　トウカイ",
    "address": "愛知県東海市富木島町八幡南20番地",
    "lat": 35.0217455,
    "lng": 136.9044271,
    "tel": "052-601-8811",
    "url": "http://www.kojima-kai.or.jp",
    "pref": "愛知県",
    "city": "東海市",
    "category": "rouken",
    "serviceType": "介護老人保健施設",
    "capacity": 100,
    "openDays": [],
    "openDaysNote": ""
  },
  {
    "id": "2354180016",
    "name": "介護老人保健施設サザン東海",
    "kana": "カイゴロウジンホケンシセツサザントウカイ",
    "address": "愛知県東海市加木屋町西御嶽40番地の１",
    "lat": 34.9897128,
    "lng": 136.8956741,
    "tel": "0562-31-3310",
    "url": "http://www.s-toukai.or.jp/",
    "pref": "愛知県",
    "city": "東海市",
    "category": "rouken",
    "serviceType": "介護老人保健施設",
    "capacity": 130,
    "openDays": [],
    "openDaysNote": ""
  },
  {
    "id": "2355080009",
    "name": "老人保健施設　和合の里",
    "kana": "ロウジンホケンシセツワゴウノサト",
    "address": "愛知県愛知郡東郷町大字春木字白土１－３９５",
    "lat": 35.1053327,
    "lng": 137.0314935,
    "tel": "052-807-1500",
    "url": "http://www.wagounosato.com",
    "pref": "愛知県",
    "city": "東郷町",
    "category": "rouken",
    "serviceType": "介護老人保健施設",
    "capacity": 105,
    "openDays": [],
    "openDaysNote": ""
  },
  {
    "id": "2354980001",
    "name": "医療法人財団愛泉会　老人保健施設愛泉館",
    "kana": "イリョウホウジンザイダンアイセンカイ　ロウジンホケンシセツアイセンカン",
    "address": "愛知県日進市米野木町南山987-44",
    "lat": 35.1332522,
    "lng": 137.085996,
    "tel": "0561-74-1711",
    "url": "http://www.care-net.biz/23/aisenkan/",
    "pref": "愛知県",
    "city": "日進市",
    "category": "rouken",
    "serviceType": "介護老人保健施設",
    "capacity": 0,
    "openDays": [],
    "openDaysNote": ""
  },
  {
    "id": "2354980050",
    "name": "介護老人保健施設　リハビリス日進",
    "kana": "カイゴロウジンホケンシセツ　リハビリスニッシン",
    "address": "愛知県日進市折戸町梨子ノ木28-650",
    "lat": 35.1227848808647,
    "lng": 137.05480193782,
    "tel": "0561-73-5000",
    "url": "https://www.seiseikai-med.com",
    "pref": "愛知県",
    "city": "日進市",
    "category": "rouken",
    "serviceType": "介護老人保健施設",
    "capacity": 100,
    "openDays": [],
    "openDaysNote": ""
  },
  {
    "id": "2354980027",
    "name": "日進老人保健施設",
    "kana": "ニッシンロウジンホケンシセツ",
    "address": "愛知県日進市北新町二段場９２０－１０",
    "lat": 35.1567152,
    "lng": 137.0579839,
    "tel": "0561-72-4172",
    "url": "http://www.seijukai.or.jp",
    "pref": "愛知県",
    "city": "日進市",
    "category": "rouken",
    "serviceType": "介護老人保健施設",
    "capacity": 0,
    "openDays": [],
    "openDaysNote": ""
  },
  {
    "id": "2352480012",
    "name": "医療法人宏友会　老人保健施設ゆうゆうの里",
    "kana": "イリョウホウジンコウユウカイ　ロウジンホケンシセツユウユウノサト",
    "address": "愛知県半田市南大矢知町２－２１－１",
    "lat": 34.9250795557139,
    "lng": 136.943029799406,
    "tel": "0569-28-5020",
    "url": "http://i-koyu-kaigo.com/facilities/roken-yuyu.html",
    "pref": "愛知県",
    "city": "半田市",
    "category": "rouken",
    "serviceType": "介護老人保健施設",
    "capacity": 0,
    "openDays": [],
    "openDaysNote": ""
  },
  {
    "id": "2352480004",
    "name": "介護老人保健施設　LA・LA・LA",
    "kana": "カイゴロウジンホケンシセツ　ラ・ラ・ラ",
    "address": "愛知県半田市更生町一丁目123-13",
    "lat": 34.8922618,
    "lng": 136.926662,
    "tel": "0569-24-0111",
    "url": "http://www.nakanokai.com",
    "pref": "愛知県",
    "city": "半田市",
    "category": "rouken",
    "serviceType": "介護老人保健施設",
    "capacity": 0,
    "openDays": [],
    "openDaysNote": ""
  },
  {
    "id": "2352480038",
    "name": "介護老人保健施設　結生",
    "kana": "カイゴロウジンホケンシセツ　ユウキ",
    "address": "半田市瑞穂町10丁目１７番地の２",
    "lat": 34.8908626,
    "lng": 136.9436133,
    "tel": "０５６９－３２－２７７７",
    "url": "",
    "pref": "愛知県",
    "city": "半田市",
    "category": "rouken",
    "serviceType": "介護老人保健施設",
    "capacity": 100,
    "openDays": [],
    "openDaysNote": ""
  },
  {
    "id": "2352480046",
    "name": "介護老人保健施設LA・LA・LA　ﾕﾆｯﾄ型",
    "kana": "カイゴロウジンホケンシセツ　ラ・ラ・ラ　ユニットガタ",
    "address": "愛知県半田市更生町一丁目123-13",
    "lat": 34.8922618,
    "lng": 136.926662,
    "tel": "0569-24-0111",
    "url": "http://www.nakanokai.com",
    "pref": "愛知県",
    "city": "半田市",
    "category": "rouken",
    "serviceType": "介護老人保健施設",
    "capacity": 0,
    "openDays": [],
    "openDaysNote": ""
  },
  {
    "id": "2352480020",
    "name": "小規模介護老人保健施設ゆうハウス",
    "kana": "ショウキボカイゴロウジンホケンシセツユウハウス",
    "address": "愛知県半田市横川町２－６８",
    "lat": 34.9261624,
    "lng": 136.9433757,
    "tel": "0569-28-5076",
    "url": "http://i-koyu-kaigo.com/facilities/roken-yuhouse.html",
    "pref": "愛知県",
    "city": "半田市",
    "category": "rouken",
    "serviceType": "介護老人保健施設",
    "capacity": 15,
    "openDays": [],
    "openDaysNote": ""
  },
  {
    "id": "2355680030",
    "name": "介護老人保健施設　ヴィラとびしま",
    "kana": "カイゴロウジンホケンシセツ　ビィラトビシマ",
    "address": "愛知県海部郡飛島村大字服岡四丁目１番地１",
    "lat": 35.0898245,
    "lng": 136.787456,
    "tel": "0567-52-2290",
    "url": "https://www.villa-tobishima.com/index.html",
    "pref": "愛知県",
    "city": "飛島村",
    "category": "rouken",
    "serviceType": "介護老人保健施設",
    "capacity": 0,
    "openDays": [],
    "openDaysNote": ""
  },
  {
    "id": "2354580009",
    "name": "介護老人保健施設　清風苑",
    "kana": "カイゴロウジンホケンシセツ　セイフウエン",
    "address": "愛知県尾張旭市東印場町二反田２８２番地の２",
    "lat": 35.206611,
    "lng": 137.0285713,
    "tel": "0561-52-6300",
    "url": "http://kawashima-hp.jp",
    "pref": "愛知県",
    "city": "尾張旭市",
    "category": "rouken",
    "serviceType": "介護老人保健施設",
    "capacity": 124,
    "openDays": [],
    "openDaysNote": ""
  },
  {
    "id": "2355780012",
    "name": "老人保健施設サンバーデン",
    "kana": "ロウジンホケンシセツ　サンバーデン",
    "address": "愛知県知多郡美浜町大字野間字新前田１７９番地の４",
    "lat": 34.7663721,
    "lng": 136.8475921,
    "tel": "0569-87-3000",
    "url": "http://www.sun-baden.com",
    "pref": "愛知県",
    "city": "美浜町",
    "category": "rouken",
    "serviceType": "介護老人保健施設",
    "capacity": 0,
    "openDays": [],
    "openDaysNote": ""
  },
  {
    "id": "2355380003",
    "name": "老人保健施設ゆとり",
    "kana": "ロウジンホケンシセツ　ユトリ",
    "address": "愛知県丹羽郡扶桑町大字柏森字寺裏47番地",
    "lat": 35.3514778,
    "lng": 136.9017581,
    "tel": "0587-93-8068",
    "url": "https://shinzenkai.or.jp",
    "pref": "愛知県",
    "city": "扶桑町",
    "category": "rouken",
    "serviceType": "介護老人保健施設",
    "capacity": 0,
    "openDays": [],
    "openDaysNote": ""
  },
  {
    "id": "2355780038",
    "name": "介護老人保健施設　榊原",
    "kana": "カイゴロウジンホケンシセツ　サカキバラ",
    "address": "愛知県知多郡武豊町大字冨貴字西側108番地５",
    "lat": 34.8256087,
    "lng": 136.9064163,
    "tel": "0569-74-2220",
    "url": "http://www.mc-sakakibara.com/",
    "pref": "愛知県",
    "city": "武豊町",
    "category": "rouken",
    "serviceType": "介護老人保健施設",
    "capacity": 0,
    "openDays": [],
    "openDaysNote": ""
  },
  {
    "id": "2352880013",
    "name": "医療法人十喜会　老人保健施設向陽",
    "kana": "イリョウホウジンジュッキカイ　ロウジンホケンシセツコウヨウ",
    "address": "愛知県碧南市向陽町4丁目31番地",
    "lat": 34.88539,
    "lng": 136.9964807,
    "tel": "0566-46-3581",
    "url": "http://www.jukikai.or.jp/",
    "pref": "愛知県",
    "city": "碧南市",
    "category": "rouken",
    "serviceType": "介護老人保健施設",
    "capacity": 0,
    "openDays": [],
    "openDaysNote": ""
  },
  {
    "id": "2352880005",
    "name": "老人保健施設ひまわり",
    "kana": "ロウジンホケンシセツヒマワリ",
    "address": "愛知県碧南市三角町１丁目７番地１",
    "lat": 34.8819527,
    "lng": 137.0219222,
    "tel": "0566-41-0007",
    "url": "https://aiseikan.xsrv.jp/01/?page_id=512",
    "pref": "愛知県",
    "city": "碧南市",
    "category": "rouken",
    "serviceType": "介護老人保健施設",
    "capacity": 0,
    "openDays": [],
    "openDaysNote": ""
  },
  {
    "id": "2352080002",
    "name": "医療法人さわらび会福祉村老人保健施設ジュゲム",
    "kana": "イリョウホウジンサワラビカイフクシムラロウジンホケンシセツジュゲム",
    "address": "愛知県豊橋市野依町字山中１９番地の１",
    "lat": 34.700247,
    "lng": 137.4012537,
    "tel": "0532-46-7501",
    "url": "http://www.sawarabi.or.jp/",
    "pref": "愛知県",
    "city": "豊橋市",
    "category": "rouken",
    "serviceType": "介護老人保健施設",
    "capacity": 0,
    "openDays": [],
    "openDaysNote": ""
  },
  {
    "id": "2352080069",
    "name": "介護老人保健施設　みのり",
    "kana": "カイゴロウジンホケンシセツ　ミノリ",
    "address": "愛知県豊橋市大村町字山所77番地",
    "lat": 34.7889161,
    "lng": 137.3915573,
    "tel": "0532-51-1336",
    "url": "http://www.gonda-ns.com/minori",
    "pref": "愛知県",
    "city": "豊橋市",
    "category": "rouken",
    "serviceType": "介護老人保健施設",
    "capacity": 0,
    "openDays": [],
    "openDaysNote": ""
  },
  {
    "id": "2352080051",
    "name": "介護老人保健施設　豊橋ケアセンター",
    "kana": "カイゴロウジンホケンシセツ　トヨハシケアセンター",
    "address": "愛知県豊橋市嵩山町字松田５５番地",
    "lat": 34.8005817,
    "lng": 137.4804064,
    "tel": "0532-88-7211",
    "url": "http://",
    "pref": "愛知県",
    "city": "豊橋市",
    "category": "rouken",
    "serviceType": "介護老人保健施設",
    "capacity": 0,
    "openDays": [],
    "openDaysNote": ""
  },
  {
    "id": "2352080028",
    "name": "光生会介護老人保健施設赤岩荘",
    "kana": "コウセイカイカイゴロウジンホケンシセツアカイワソウ",
    "address": "愛知県豊橋市多米町大門１０",
    "lat": 34.7637962,
    "lng": 137.445117,
    "tel": "0532-66-1123",
    "url": "http://www.koseikai-hp.or.jp/",
    "pref": "愛知県",
    "city": "豊橋市",
    "category": "rouken",
    "serviceType": "介護老人保健施設",
    "capacity": 0,
    "openDays": [],
    "openDaysNote": ""
  },
  {
    "id": "2352080010",
    "name": "老人保健施設　尽誠苑",
    "kana": "ロウジンホケンシセツ　ジンセイエン",
    "address": "愛知県豊橋市大脇町大脇ノ谷74番54",
    "lat": 34.730431,
    "lng": 137.4545925,
    "tel": "0532-65-2727",
    "url": "http://www.jinsei-kai.or.jp/",
    "pref": "愛知県",
    "city": "豊橋市",
    "category": "rouken",
    "serviceType": "介護老人保健施設",
    "capacity": 0,
    "openDays": [],
    "openDaysNote": ""
  },
  {
    "id": "2352080036",
    "name": "老人保健施設　明陽苑",
    "kana": "ロウジンホケンシセツ　メイヨウエン",
    "address": "愛知県豊橋市八通町６４番地の３",
    "lat": 34.7574145,
    "lng": 137.3797953,
    "tel": "0532-33-3121",
    "url": "http://www.meiyokai.or.jp",
    "pref": "愛知県",
    "city": "豊橋市",
    "category": "rouken",
    "serviceType": "介護老人保健施設",
    "capacity": 0,
    "openDays": [],
    "openDaysNote": ""
  },
  {
    "id": "2352080044",
    "name": "老人保健施設ベルヴューハイツ",
    "kana": "ロウジンホケンシセツベルヴューハイツ",
    "address": "愛知県豊橋市青竹町字青竹９６番地",
    "lat": 34.7625737,
    "lng": 137.3462365,
    "tel": "0532-33-8111",
    "url": "i-f.or.jp",
    "pref": "愛知県",
    "city": "豊橋市",
    "category": "rouken",
    "serviceType": "介護老人保健施設",
    "capacity": 100,
    "openDays": [],
    "openDaysNote": ""
  },
  {
    "id": "2352080077",
    "name": "老人保健施設尽誠苑",
    "kana": "ロウジンホケンシセツジンセイエン",
    "address": "愛知県豊橋市大脇町大脇ノ谷74番54",
    "lat": 34.730328,
    "lng": 137.4544326,
    "tel": "0532-65-2727",
    "url": "https://www.jinseien.jp",
    "pref": "愛知県",
    "city": "豊橋市",
    "category": "rouken",
    "serviceType": "介護老人保健施設",
    "capacity": null,
    "openDays": [],
    "openDaysNote": ""
  },
  {
    "id": "2356380002",
    "name": "介護老人保健施設　豊根ケアセンター",
    "kana": "カイゴロウジンホケンシセツ　トヨネケアセンター",
    "address": "愛知県北設楽郡豊根村上黒川字長野11番地の5",
    "lat": 35.1434123402406,
    "lng": 137.69588371468,
    "tel": "0536-85-1811",
    "url": "http://",
    "pref": "愛知県",
    "city": "豊根村",
    "category": "rouken",
    "serviceType": "介護老人保健施設",
    "capacity": 63,
    "openDays": [],
    "openDaysNote": ""
  },
  {
    "id": "2352680025",
    "name": "医療法人啓仁会　介護老人保健施設　たんぽぽ",
    "kana": "イリョウホウジンケイジンカイ　カイゴロウジンホケンシセツ　タンポポ",
    "address": "愛知県豊川市野口町道下３１番地",
    "lat": 34.829566,
    "lng": 137.3568825,
    "tel": "0533-83-3955",
    "url": "https://www.toyokawa-tanpopo.jp/",
    "pref": "愛知県",
    "city": "豊川市",
    "category": "rouken",
    "serviceType": "介護老人保健施設",
    "capacity": 93,
    "openDays": [],
    "openDaysNote": ""
  },
  {
    "id": "2356580007",
    "name": "介護老人保健施設おとわの杜",
    "kana": "カイゴロウジンホケンシセツオトワノモリ",
    "address": "愛知県豊川市赤坂町東山12番地の1",
    "lat": 34.8544175,
    "lng": 137.316532,
    "tel": "0533-87-0111",
    "url": "http://www.shinaikai1936med.or.jp/",
    "pref": "愛知県",
    "city": "豊川市",
    "category": "rouken",
    "serviceType": "介護老人保健施設",
    "capacity": 0,
    "openDays": [],
    "openDaysNote": ""
  },
  {
    "id": "2352680017",
    "name": "豊川老人保健施設ケアリゾートオリーブ",
    "kana": "トヨカワロウジンホケンシセツケアリゾートオリーブ",
    "address": "愛知県豊川市平尾町諏訪下101番地",
    "lat": 34.8540659,
    "lng": 137.3515764,
    "tel": "0533-88-8718",
    "url": "http://www.seishunkai.or.jp/olive/",
    "pref": "愛知県",
    "city": "豊川市",
    "category": "rouken",
    "serviceType": "介護老人保健施設",
    "capacity": 100,
    "openDays": [],
    "openDaysNote": ""
  },
  {
    "id": "2353080019",
    "name": "トヨタ自動車健康保険組合　老人保健施設　ジョイステイ",
    "kana": "トヨタジドウシャケンコウホケンクミアイ　ロウジンホケンシセツ　ジョイステイ",
    "address": "愛知県豊田市平和町１丁目１番地",
    "lat": 35.0574788,
    "lng": 137.1766172,
    "tel": "0565-24-0620",
    "url": "http://www.joystay.jp/",
    "pref": "愛知県",
    "city": "豊田市",
    "category": "rouken",
    "serviceType": "介護老人保健施設",
    "capacity": 0,
    "openDays": [],
    "openDaysNote": ""
  },
  {
    "id": "2353080068",
    "name": "ユニット型介護老人保健施設さなげ",
    "kana": "ユニットガタカイゴロウジンホケンシセツサナゲ",
    "address": "愛知県豊田市浄水町原山1番地54",
    "lat": 35.1250226,
    "lng": 137.14679,
    "tel": "0565-44-2400",
    "url": "http://www.sanage.jp/",
    "pref": "愛知県",
    "city": "豊田市",
    "category": "rouken",
    "serviceType": "介護老人保健施設",
    "capacity": 37,
    "openDays": [],
    "openDaysNote": ""
  },
  {
    "id": "2353080043",
    "name": "介護老人保健施設さなげ",
    "kana": "カイゴロウジンホケンシセツサナゲ",
    "address": "愛知県豊田市浄水町原山1番地54",
    "lat": 35.1250226,
    "lng": 137.14679,
    "tel": "0565-44-2400",
    "url": "http://www.sanage.jp/",
    "pref": "愛知県",
    "city": "豊田市",
    "category": "rouken",
    "serviceType": "介護老人保健施設",
    "capacity": 58,
    "openDays": [],
    "openDaysNote": ""
  },
  {
    "id": "2356180014",
    "name": "介護老人保健施設フジオカ",
    "kana": "カイゴロウジンホケンシセツ　フジオカ",
    "address": "愛知県豊田市御作町振ケ洞1157-1",
    "lat": 35.1812721874048,
    "lng": 137.242160917474,
    "tel": "0565-76-7801",
    "url": "http://care-net.biz/23/ro-kenfujioka/",
    "pref": "愛知県",
    "city": "豊田市",
    "category": "rouken",
    "serviceType": "介護老人保健施設",
    "capacity": 0,
    "openDays": [],
    "openDaysNote": ""
  },
  {
    "id": "2353080050",
    "name": "高岡介護老人保健施設",
    "kana": "タカオカカイゴロウジンホケンシセツ",
    "address": "愛知県豊田市広田町西山７５番地",
    "lat": 35.0425443,
    "lng": 137.1086883,
    "tel": "0565-51-0631",
    "url": "https://takaoka-rouken.jp/",
    "pref": "愛知県",
    "city": "豊田市",
    "category": "rouken",
    "serviceType": "介護老人保健施設",
    "capacity": 0,
    "openDays": [],
    "openDaysNote": ""
  },
  {
    "id": "2353080001",
    "name": "豊田老人保健施設",
    "kana": "トヨタロウジンホケンシセツ",
    "address": "愛知県豊田市川田町1-36",
    "lat": 35.0967629,
    "lng": 137.1712853,
    "tel": "0565-89-3511",
    "url": "http://www.jkknet.or.jp/toyoro/",
    "pref": "愛知県",
    "city": "豊田市",
    "category": "rouken",
    "serviceType": "介護老人保健施設",
    "capacity": 100,
    "openDays": [],
    "openDaysNote": ""
  },
  {
    "id": "2353080027",
    "name": "老人保健施設ウェルビー",
    "kana": "ロウジンホケンシセツウェルビー",
    "address": "愛知県四郷町宮下河原38-1",
    "lat": 35.1274641,
    "lng": 137.1611933,
    "tel": "0565-45-6100",
    "url": "http://www.wellbe.or.jp/",
    "pref": "愛知県",
    "city": "豊田市",
    "category": "rouken",
    "serviceType": "介護老人保健施設",
    "capacity": 0,
    "openDays": [],
    "openDaysNote": ""
  },
  {
    "id": "2353080035",
    "name": "老人保健施設かずえの郷",
    "kana": "ロウジンホケンシセツカズエノサト",
    "address": "愛知県豊田市和会町東郷148番地",
    "lat": 35.0034063,
    "lng": 137.1139714,
    "tel": "0565-21-6700",
    "url": "http://www.kazuenosato.jp/",
    "pref": "愛知県",
    "city": "豊田市",
    "category": "rouken",
    "serviceType": "介護老人保健施設",
    "capacity": 130,
    "openDays": [],
    "openDaysNote": ""
  },
  {
    "id": "2354880011",
    "name": "豊明第二老人保健施設",
    "kana": "トヨアケダイニロウジンホケンシセツ",
    "address": "愛知県豊明市沓掛町城塚1番地",
    "lat": 35.0719002,
    "lng": 137.0177402,
    "tel": "0562-95-2110",
    "url": "https://toyoake2.shimizukai.biz",
    "pref": "愛知県",
    "city": "豊明市",
    "category": "rouken",
    "serviceType": "介護老人保健施設",
    "capacity": 0,
    "openDays": [],
    "openDaysNote": ""
  },
  {
    "id": "2354880003",
    "name": "豊明老人保健施設",
    "kana": "トヨアケロウジンホケンシセツ",
    "address": "愛知県豊明市沓掛町桟敷30－7",
    "lat": 35.0828628,
    "lng": 137.0207479,
    "tel": "0562-93-8411",
    "url": "http://www.shimizukai.biz/toyoake1/",
    "pref": "愛知県",
    "city": "豊明市",
    "category": "rouken",
    "serviceType": "介護老人保健施設",
    "capacity": 298,
    "openDays": [],
    "openDaysNote": ""
  },
  {
    "id": "2355280021",
    "name": "介護老人保健施設　るるどの泉北名古屋",
    "kana": "カイゴロウジンホケンシセツ　ルルドノイズミキタナゴヤ",
    "address": "愛知県北名古屋市熊之庄宮地97番地",
    "lat": 35.2612385,
    "lng": 136.8877242,
    "tel": "0568-80-7130",
    "url": "http://youtei-family.com/",
    "pref": "愛知県",
    "city": "北名古屋市",
    "category": "rouken",
    "serviceType": "介護老人保健施設",
    "capacity": 0,
    "openDays": [],
    "openDaysNote": ""
  },
  {
    "id": "2355280013",
    "name": "老人保健施設洋洋園",
    "kana": "ロウジンホケンシセツヨウヨウエン",
    "address": "愛知県北名古屋市法成寺松の木４７番地",
    "lat": 35.2548141,
    "lng": 136.8599779,
    "tel": "0568-21-4448",
    "url": "http://www.iwakura-h.or.jp",
    "pref": "愛知県",
    "city": "北名古屋市",
    "category": "rouken",
    "serviceType": "介護老人保健施設",
    "capacity": 0,
    "openDays": [],
    "openDaysNote": ""
  },
  {
    "id": "2351180001",
    "name": "医療法人東樹会あずま老人保健施設",
    "kana": "イリョウホウジントウジュカイアズマロウジンホケンシセツ",
    "address": "愛知県名古屋市港区港楽三丁目１４番１１号",
    "lat": 35.1022342,
    "lng": 136.8842894,
    "tel": "052-654-0700",
    "url": "http://www.toju-kai.or.jp/",
    "pref": "愛知県",
    "city": "名古屋市港区",
    "category": "rouken",
    "serviceType": "介護老人保健施設",
    "capacity": 0,
    "openDays": [],
    "openDaysNote": ""
  },
  {
    "id": "2351180027",
    "name": "介護老人保健施設あんず",
    "kana": "カイゴロウジンホケンシセツアンズ",
    "address": "名古屋市港区西福田一丁目636番地",
    "lat": 35.1207465,
    "lng": 136.8112996,
    "tel": "052-304-0003",
    "url": "http://anz.kyoenkai.or.jp",
    "pref": "愛知県",
    "city": "名古屋市港区",
    "category": "rouken",
    "serviceType": "介護老人保健施設",
    "capacity": 100,
    "openDays": [],
    "openDaysNote": ""
  },
  {
    "id": "2351180050",
    "name": "介護老人保健施設トリトン",
    "kana": "カイゴロウジンホケンシセツトリトン",
    "address": "西倉町１番14号",
    "lat": 35.0967792,
    "lng": 136.8794402,
    "tel": "052-652-0022",
    "url": "https://tri.kyoenkai.or.jp/",
    "pref": "愛知県",
    "city": "名古屋市港区",
    "category": "rouken",
    "serviceType": "介護老人保健施設",
    "capacity": 105,
    "openDays": [],
    "openDaysNote": ""
  },
  {
    "id": "2351180043",
    "name": "老人保健施設かいこう",
    "kana": "ロウジンホケンシセツカイコウ",
    "address": "名古屋市港区新茶屋三丁目915番地",
    "lat": 35.0999629,
    "lng": 136.8138088,
    "tel": "052-302-6450",
    "url": "http://www.kaikou.or.jp/rouken/",
    "pref": "愛知県",
    "city": "名古屋市港区",
    "category": "rouken",
    "serviceType": "介護老人保健施設",
    "capacity": 0,
    "openDays": [],
    "openDaysNote": ""
  },
  {
    "id": "2351180019",
    "name": "老人保健施設ケア・サポート新茶屋",
    "kana": "ロウジンホケンシセツケア・サポートシンチャヤ",
    "address": "愛知県名古屋市港区新茶屋三丁目901番地",
    "lat": 35.0999574,
    "lng": 136.8144699,
    "tel": "052-302-7200",
    "url": "http://www.kaikou.or.jp/rouken/",
    "pref": "愛知県",
    "city": "名古屋市港区",
    "category": "rouken",
    "serviceType": "介護老人保健施設",
    "capacity": 100,
    "openDays": [],
    "openDaysNote": ""
  },
  {
    "id": "2351180035",
    "name": "老人保健施設みなと",
    "kana": "ロウジンホケンシセツ　ミナト",
    "address": "愛知県名古屋市港区名四町114番地",
    "lat": 35.0995423,
    "lng": 136.8669444,
    "tel": "052-653-1020",
    "url": "https://saiwaikai-minato.jp/",
    "pref": "愛知県",
    "city": "名古屋市港区",
    "category": "rouken",
    "serviceType": "介護老人保健施設",
    "capacity": 0,
    "openDays": [],
    "openDaysNote": ""
  },
  {
    "id": "2351380056",
    "name": "ユニット型介護老人保健施設　ウエルネスきっこ",
    "kana": "ユニットガタカイゴロウジンホケンシセツ　ウエルネスキッコ",
    "address": "愛知県名古屋市守山区花咲台二丁目101番地の1",
    "lat": 35.2328565,
    "lng": 137.0098317,
    "tel": "052-739-1200",
    "url": "https://zenjukai.com/",
    "pref": "愛知県",
    "city": "名古屋市守山区",
    "category": "rouken",
    "serviceType": "介護老人保健施設",
    "capacity": 0,
    "openDays": [],
    "openDaysNote": ""
  },
  {
    "id": "2351380031",
    "name": "介護老人保健施設　あまこだ",
    "kana": "カイゴロウジンホケンシセツ　アマコダ",
    "address": "愛知県名古屋市守山区天子田二丁目1613番地",
    "lat": 35.1994529,
    "lng": 137.0043386,
    "tel": "052-772-1230",
    "url": "http://www.hakuhoukai-hp.or.jp/amakoda1.htm",
    "pref": "愛知県",
    "city": "名古屋市守山区",
    "category": "rouken",
    "serviceType": "介護老人保健施設",
    "capacity": 96,
    "openDays": [],
    "openDaysNote": ""
  },
  {
    "id": "2351380007",
    "name": "介護老人保健施設　メディコ守山",
    "kana": "カイゴロウジンホケンシセツ　メディコモリヤマ",
    "address": "名古屋市守山区日の後301番地",
    "lat": 35.2369643,
    "lng": 137.0115787,
    "tel": "052-736-5585",
    "url": "https://medico-moriyama.namiki.or.jp",
    "pref": "愛知県",
    "city": "名古屋市守山区",
    "category": "rouken",
    "serviceType": "介護老人保健施設",
    "capacity": 100,
    "openDays": [],
    "openDaysNote": ""
  },
  {
    "id": "2351380049",
    "name": "介護老人保健施設ウエルネスきっこ",
    "kana": "カイゴロウジンホケンシセツウエルネスキッコ",
    "address": "愛知県名古屋市守山区花咲台二丁目101番地の1",
    "lat": 35.2328565,
    "lng": 137.0098317,
    "tel": "052-739-1200",
    "url": "https://zenjukai.com/",
    "pref": "愛知県",
    "city": "名古屋市守山区",
    "category": "rouken",
    "serviceType": "介護老人保健施設",
    "capacity": 0,
    "openDays": [],
    "openDaysNote": ""
  },
  {
    "id": "2351380015",
    "name": "老人保健施設　ウエルネス守山",
    "kana": "ロウジンホケンシセツ　ウエルネス　モリヤマ",
    "address": "愛知県名古屋市守山区中新４番３１号",
    "lat": 35.1970218,
    "lng": 136.9715225,
    "tel": "052-793-7066",
    "url": "http://zenjukai.com",
    "pref": "愛知県",
    "city": "名古屋市守山区",
    "category": "rouken",
    "serviceType": "介護老人保健施設",
    "capacity": 0,
    "openDays": [],
    "openDaysNote": ""
  },
  {
    "id": "2370701787",
    "name": "介護老人保健施設いつきの里石川橋",
    "kana": "カイゴロウジンホケンシセツイツキノサトイシカワバシ",
    "address": "名古屋市昭和区檀渓通5丁目26番地",
    "lat": 35.1466288,
    "lng": 136.9470069,
    "tel": "052-831-6001",
    "url": "http://medical-itsuki.com",
    "pref": "愛知県",
    "city": "名古屋市昭和区",
    "category": "rouken",
    "serviceType": "介護老人保健施設",
    "capacity": 0,
    "openDays": [],
    "openDaysNote": ""
  },
  {
    "id": "2350780025",
    "name": "介護老人保健施設タキガワアリア",
    "kana": "カイゴロウジンホケンシセツタキガワアリア",
    "address": "川名山町6番地の4",
    "lat": 35.1462253264294,
    "lng": 136.960756363013,
    "tel": "052-836-1040",
    "url": "http://www.toshiwa-kai.or.jp/",
    "pref": "愛知県",
    "city": "名古屋市昭和区",
    "category": "rouken",
    "serviceType": "介護老人保健施設",
    "capacity": 130,
    "openDays": [],
    "openDaysNote": ""
  },
  {
    "id": "2350780009",
    "name": "老人保健施設　ヴィラかわな",
    "kana": "ロウジンホケンシセツ　ヴィラカワナ",
    "address": "名古屋市昭和区山花町54番地1",
    "lat": 35.1503915,
    "lng": 136.9514086,
    "tel": "052-761-3223",
    "url": "https://kawanahp.jp/care-facility/",
    "pref": "愛知県",
    "city": "名古屋市昭和区",
    "category": "rouken",
    "serviceType": "介護老人保健施設",
    "capacity": 36,
    "openDays": [],
    "openDaysNote": ""
  },
  {
    "id": "2350880023",
    "name": "ユニット型介護老人保健施設　セントラル堀田",
    "kana": "ユニットガタカイゴロウジンホケンシセツセントラルホリタ",
    "address": "名古屋市瑞穂区田光町1丁目4番地",
    "lat": 35.1240407,
    "lng": 136.9217371,
    "tel": "052-884-0555",
    "url": "http://www.kouseikai.nagoya/s-horita/",
    "pref": "愛知県",
    "city": "名古屋市瑞穂区",
    "category": "rouken",
    "serviceType": "介護老人保健施設",
    "capacity": 0,
    "openDays": [],
    "openDaysNote": ""
  },
  {
    "id": "2350880015",
    "name": "介護老人保健施設　セントラル堀田",
    "kana": "カイゴロウジンホケンシセツ　セントラルホリタ",
    "address": "愛知県名古屋市瑞穂区田光町一丁目４番地",
    "lat": 35.1240407,
    "lng": 136.9217371,
    "tel": "052-884-0555",
    "url": "http://www.kouseikai.nagoya/s-horita/",
    "pref": "愛知県",
    "city": "名古屋市瑞穂区",
    "category": "rouken",
    "serviceType": "介護老人保健施設",
    "capacity": null,
    "openDays": [],
    "openDaysNote": ""
  },
  {
    "id": "2350880007",
    "name": "老人保健施設瑞穂",
    "kana": "ロウジンホケンシセツミズホ",
    "address": "愛知県名古屋市瑞穂区荒崎町６－２９",
    "lat": 35.1125224,
    "lng": 136.9242288,
    "tel": "052-824-2411",
    "url": "http://www.mizuho-brother.jp/",
    "pref": "愛知県",
    "city": "名古屋市瑞穂区",
    "category": "rouken",
    "serviceType": "介護老人保健施設",
    "capacity": 126,
    "openDays": [],
    "openDaysNote": ""
  },
  {
    "id": "2350480014",
    "name": "介護老人保健施設　第二ハートフルライフ西城",
    "kana": "カイゴロウジンホケンシセツ　ダイニハートフルライフセイジョウ",
    "address": "愛知県名古屋市西区秩父通1-38",
    "lat": 35.1974771,
    "lng": 136.8973877,
    "tel": "052-524-1123",
    "url": "https://www.jmks-med.or.jp",
    "pref": "愛知県",
    "city": "名古屋市西区",
    "category": "rouken",
    "serviceType": "介護老人保健施設",
    "capacity": 100,
    "openDays": [],
    "openDaysNote": ""
  },
  {
    "id": "2350480022",
    "name": "介護老人保健施設福の里",
    "kana": "カイゴロウジンホケンシセツフクノサト",
    "address": "名古屋市西区新道二丁目4番7号",
    "lat": 35.1784573,
    "lng": 136.8891386,
    "tel": "052-565-8111",
    "url": "http://www.fukunosato.jp/",
    "pref": "愛知県",
    "city": "名古屋市西区",
    "category": "rouken",
    "serviceType": "介護老人保健施設",
    "capacity": 0,
    "openDays": [],
    "openDaysNote": ""
  },
  {
    "id": "2350480006",
    "name": "老人保健施設　ハートフルライフ西城",
    "kana": "ロウジンホケンシセツ　ハートフルライフセイジョウ",
    "address": "愛知県名古屋市西区秩父通2-36",
    "lat": 35.1973881,
    "lng": 136.8941436,
    "tel": "052-524-6301",
    "url": "https://www.jmks-med.or.jp",
    "pref": "愛知県",
    "city": "名古屋市西区",
    "category": "rouken",
    "serviceType": "介護老人保健施設",
    "capacity": 100,
    "openDays": [],
    "openDaysNote": ""
  },
  {
    "id": "2350180036",
    "name": "リハビリパーク千種",
    "kana": "リハビリパークチクサ",
    "address": "愛知県名古屋市千種区今池１－１６－４",
    "lat": 35.1682451305729,
    "lng": 136.934617092065,
    "tel": "０５２－７３２－１３２５",
    "url": "",
    "pref": "愛知県",
    "city": "名古屋市千種区",
    "category": "rouken",
    "serviceType": "介護老人保健施設",
    "capacity": 120,
    "openDays": [],
    "openDaysNote": ""
  },
  {
    "id": "2350180028",
    "name": "医療法人　純正会　介護老人保健施設　太陽",
    "kana": "イリョウホウジン　ジュンセイカイ　カイゴロウジンホケンシセツ　タイヨウ",
    "address": "愛知県名古屋市千種区千種二丁目22番1号",
    "lat": 35.1631912,
    "lng": 136.9242607,
    "tel": "052-744-3003",
    "url": "http://www.med-junseikai.or.jp/roken/",
    "pref": "愛知県",
    "city": "名古屋市千種区",
    "category": "rouken",
    "serviceType": "介護老人保健施設",
    "capacity": 100,
    "openDays": [],
    "openDaysNote": ""
  },
  {
    "id": "2350180002",
    "name": "介護老人保健施設　メディカルホーム大久手",
    "kana": "カイゴロウジンホケンシセツ　メディカルホームオオクテ",
    "address": "愛知県名古屋市千種区大久手町5-5-1",
    "lat": 35.1621059,
    "lng": 136.936754,
    "tel": "052-735-0551",
    "url": "http://www.yoshidahp.jp",
    "pref": "愛知県",
    "city": "名古屋市千種区",
    "category": "rouken",
    "serviceType": "介護老人保健施設",
    "capacity": 60,
    "openDays": [],
    "openDaysNote": ""
  },
  {
    "id": "2350180010",
    "name": "国家公務員共済組合連合会　東海病院　介護老人保健施設　ちよだ",
    "kana": "コッカコウムインキョウサイクミアイレンゴウカイ　トウカイビョウイン　カイゴロウジンホケンシセツ　チヨダ",
    "address": "愛知県名古屋市千種区千代田橋一丁目1番1号",
    "lat": 35.1870675,
    "lng": 136.9665842,
    "tel": "052-711-1060",
    "url": "https://toukaihosp.kkr.or.jp/",
    "pref": "愛知県",
    "city": "名古屋市千種区",
    "category": "rouken",
    "serviceType": "介護老人保健施設",
    "capacity": 0,
    "openDays": [],
    "openDaysNote": ""
  },
  {
    "id": "2350680001",
    "name": "医療法人コジマ会　介護老人保健施設丸の内",
    "kana": "イリョウホウジンコジマカイ　カイゴロウジンホケンシセツマルノウチ",
    "address": "愛知県名古屋市中区丸の内一丁目２番６号",
    "lat": 35.1772299,
    "lng": 136.8945686,
    "tel": "052-222-3000",
    "url": "http://www.kojima-kai.or.jp/",
    "pref": "愛知県",
    "city": "名古屋市中区",
    "category": "rouken",
    "serviceType": "介護老人保健施設",
    "capacity": 0,
    "openDays": [],
    "openDaysNote": ""
  },
  {
    "id": "2350680027",
    "name": "介護老人保健施設セントラーレ",
    "kana": "カイゴロウジンホケンシセツセントラーレ",
    "address": "名古屋市中区金山五丁目8番1号",
    "lat": 35.1463902,
    "lng": 136.9099736,
    "tel": "052-882-1040",
    "url": "https://www.toshiwa-kai.or.jp/",
    "pref": "愛知県",
    "city": "名古屋市中区",
    "category": "rouken",
    "serviceType": "介護老人保健施設",
    "capacity": 100,
    "openDays": [],
    "openDaysNote": ""
  },
  {
    "id": "2350680019",
    "name": "介護老人保健施設メディケア栄",
    "kana": "カイゴロウジンホケンシセツメディケアサカエ",
    "address": "愛知県名古屋市中区栄五丁目7番25号",
    "lat": 35.1651211,
    "lng": 136.91441517791,
    "tel": "052-262-7070",
    "url": "http://www.medifore.jp/",
    "pref": "愛知県",
    "city": "名古屋市中区",
    "category": "rouken",
    "serviceType": "介護老人保健施設",
    "capacity": 0,
    "openDays": [],
    "openDaysNote": ""
  },
  {
    "id": "2351080052",
    "name": "ユニット型サテライト型小規模介護老人保健施設　シンセーロ",
    "kana": "ユニットガタサテライトガタショウキボカイゴロウジンホケンシセツ　シンセーロ",
    "address": "愛知県名古屋市中川区水里三丁目231番地",
    "lat": 35.1276233,
    "lng": 136.8072801,
    "tel": "052-309-3231",
    "url": "www.shiyou.or.jp/sincero.html",
    "pref": "愛知県",
    "city": "名古屋市中川区",
    "category": "rouken",
    "serviceType": "介護老人保健施設",
    "capacity": 29,
    "openDays": [],
    "openDaysNote": ""
  },
  {
    "id": "2351080086",
    "name": "ユニット老健　華",
    "kana": "ユニットロウケン　ハナ",
    "address": "愛知県名古屋市中川区東春田二丁目192番地",
    "lat": 35.1411830410781,
    "lng": 136.817200895493,
    "tel": "052‐398‐6002",
    "url": "http：//www.seishinkai-aichi.jp/",
    "pref": "愛知県",
    "city": "名古屋市中川区",
    "category": "rouken",
    "serviceType": "介護老人保健施設",
    "capacity": 29,
    "openDays": [],
    "openDaysNote": ""
  },
  {
    "id": "2351080029",
    "name": "医療法人　孝慈会　老人保健施設　ラ・ファミリア",
    "kana": "イリョウホウジンコウジカイロウジンホケンシセツラ・ファミリア",
    "address": "愛知県名古屋市中川区東起町一丁目五番地１",
    "lat": 35.1231578,
    "lng": 136.8411684,
    "tel": "052-384-5411",
    "url": "http://www.kouji-kai.or.jp",
    "pref": "愛知県",
    "city": "名古屋市中川区",
    "category": "rouken",
    "serviceType": "介護老人保健施設",
    "capacity": 150,
    "openDays": [],
    "openDaysNote": ""
  },
  {
    "id": "2351080011",
    "name": "医療法人　親和会　老人保健施設　松和苑",
    "kana": "イリョウホウジン　シンワカイ　ロウジンホケンシセツ　ショウワエン",
    "address": "名古屋市中川区かの里三丁目901番地",
    "lat": 35.128590855826,
    "lng": 136.815181419916,
    "tel": "052-303-1165",
    "url": "i-shinwakai.jp",
    "pref": "愛知県",
    "city": "名古屋市中川区",
    "category": "rouken",
    "serviceType": "介護老人保健施設",
    "capacity": 0,
    "openDays": [],
    "openDaysNote": ""
  },
  {
    "id": "2351080045",
    "name": "医療法人開生会　老人保健施設ラベンダー",
    "kana": "イリョウホウジンカイセイカイ　ロウジンホケンシセツ　ラベンダー",
    "address": "愛知県名古屋市中川区福島一丁目148番地",
    "lat": 35.1224487,
    "lng": 136.8003532,
    "tel": "052-303-2811",
    "url": "https://www.kaisei-lavender.net",
    "pref": "愛知県",
    "city": "名古屋市中川区",
    "category": "rouken",
    "serviceType": "介護老人保健施設",
    "capacity": 100,
    "openDays": [],
    "openDaysNote": ""
  },
  {
    "id": "2351080060",
    "name": "介護老人保健施設　雅",
    "kana": "カイゴロウジンホケンシセツ　ミヤビ",
    "address": "愛知県名古屋市中川区東春田二丁目190番地",
    "lat": 35.1412274,
    "lng": 136.816981,
    "tel": "052-303-3003",
    "url": "http://seishinkai-aichi.jp/",
    "pref": "愛知県",
    "city": "名古屋市中川区",
    "category": "rouken",
    "serviceType": "介護老人保健施設",
    "capacity": 60,
    "openDays": [],
    "openDaysNote": ""
  },
  {
    "id": "2351080078",
    "name": "介護老人保健施設　千音寺",
    "kana": "カイゴロウジンホケンシセツ　センノンジ",
    "address": "愛知県名古屋市中川区千音寺五丁目301番地",
    "lat": 35.1572209853082,
    "lng": 136.812253819049,
    "tel": "052-439-2011",
    "url": "http://www.roken-sennonji.jp/",
    "pref": "愛知県",
    "city": "名古屋市中川区",
    "category": "rouken",
    "serviceType": "介護老人保健施設",
    "capacity": 0,
    "openDays": [],
    "openDaysNote": ""
  },
  {
    "id": "2351080003",
    "name": "老人保健施設　みず里",
    "kana": "ロウジンホケンシセツ　ミズサト",
    "address": "愛知県名古屋市中川区水里１丁目２３番地",
    "lat": 35.1298231,
    "lng": 136.8112601,
    "tel": "052-302-3600",
    "url": "http://www.saiwakai-mizusato.jp",
    "pref": "愛知県",
    "city": "名古屋市中川区",
    "category": "rouken",
    "serviceType": "介護老人保健施設",
    "capacity": 0,
    "openDays": [],
    "openDaysNote": ""
  },
  {
    "id": "2350580029",
    "name": "介護老人保健施設　　　　白社苑",
    "kana": "カイゴロウジンホケンシセツ　ハクシャエン",
    "address": "愛知県名古屋市中村区本陣通6丁目22番地",
    "lat": 35.1776312,
    "lng": 136.8485756,
    "tel": "052-413-0037",
    "url": "https://sites.google.com/view/hakusyaen",
    "pref": "愛知県",
    "city": "名古屋市中村区",
    "category": "rouken",
    "serviceType": "介護老人保健施設",
    "capacity": 0,
    "openDays": [],
    "openDaysNote": ""
  },
  {
    "id": "2350580086",
    "name": "介護老人保健施設　ジョイフル名駅",
    "kana": "カイゴロウジンホケンシセツ　ジョイフルメイエキ",
    "address": "愛知県名古屋市中村区名駅五丁目25番12号",
    "lat": 35.1684508300796,
    "lng": 136.891534018042,
    "tel": "052-533-9481",
    "url": "https://sun-vision.or.jp/",
    "pref": "愛知県",
    "city": "名古屋市中村区",
    "category": "rouken",
    "serviceType": "介護老人保健施設",
    "capacity": 0,
    "openDays": [],
    "openDaysNote": ""
  },
  {
    "id": "2350580045",
    "name": "介護老人保健施設　はっ田",
    "kana": "カイゴロウジンホケンシセツ　ハッタ",
    "address": "愛知県名古屋市中村区並木二丁目３５４番地",
    "lat": 35.14951,
    "lng": 136.8523488,
    "tel": "052-412-3158",
    "url": "https://fukuyukai.com/facility/107",
    "pref": "愛知県",
    "city": "名古屋市中村区",
    "category": "rouken",
    "serviceType": "介護老人保健施設",
    "capacity": 0,
    "openDays": [],
    "openDaysNote": ""
  },
  {
    "id": "2350580037",
    "name": "介護老人保健施設　第II四季の里",
    "kana": "カイゴロウジンホケンシセツ　ダイニシキノサト",
    "address": "名古屋市中村区稲葉地町7丁目2番地の3",
    "lat": 35.164158,
    "lng": 136.8458318,
    "tel": "052-412-6270",
    "url": "https://andouiin-fujiedakai.com/contents/kanren.html",
    "pref": "愛知県",
    "city": "名古屋市中村区",
    "category": "rouken",
    "serviceType": "介護老人保健施設",
    "capacity": 0,
    "openDays": [],
    "openDaysNote": ""
  },
  {
    "id": "2350580060",
    "name": "介護老人保健施設　福の里　花乃邸",
    "kana": "カイゴロウジンホケンシセツ　フクノサト　ハナノテイ",
    "address": "愛知県名古屋市中村区京田町3丁目60番地",
    "lat": 35.1597561260863,
    "lng": 136.865547380322,
    "tel": "052-482-8811",
    "url": "http://hananotei.jp",
    "pref": "愛知県",
    "city": "名古屋市中村区",
    "category": "rouken",
    "serviceType": "介護老人保健施設",
    "capacity": 101,
    "openDays": [],
    "openDaysNote": ""
  },
  {
    "id": "2351680034",
    "name": "医療法人玉光会　天白老人保健施設",
    "kana": "イリョウホウジンギョッコウカイ　テンパクロウジンホケンシセツ",
    "address": "名古屋市天白区池場2丁目１０１番地",
    "lat": 35.1222596,
    "lng": 136.9778765,
    "tel": "052-806-1511",
    "url": "http://",
    "pref": "愛知県",
    "city": "名古屋市天白区",
    "category": "rouken",
    "serviceType": "介護老人保健施設",
    "capacity": 0,
    "openDays": [],
    "openDaysNote": ""
  },
  {
    "id": "2351680026",
    "name": "医療法人並木会　介護老人保健施設メディコ平針",
    "kana": "イリョウホウジンナミキカイ　カイゴロウジンホケンシセツメディコヒラバリ",
    "address": "名古屋市天白区荒池二丁目1201番地",
    "lat": 35.1165808,
    "lng": 137.0141257,
    "tel": "052-802-0023",
    "url": "http://www.namiki.or.jp/hirabari",
    "pref": "愛知県",
    "city": "名古屋市天白区",
    "category": "rouken",
    "serviceType": "介護老人保健施設",
    "capacity": 0,
    "openDays": [],
    "openDaysNote": ""
  },
  {
    "id": "2351680042",
    "name": "介護老人保健施設　リハビリス井の森",
    "kana": "カイゴロウジンホケンシセツ　リハビリスイノモリ",
    "address": "愛知県名古屋市天白区井の森町18",
    "lat": 35.1069523,
    "lng": 136.9526626,
    "tel": "052-899-5588",
    "url": "https://seiseikai-med.com/",
    "pref": "愛知県",
    "city": "名古屋市天白区",
    "category": "rouken",
    "serviceType": "介護老人保健施設",
    "capacity": 100,
    "openDays": [],
    "openDaysNote": ""
  },
  {
    "id": "2351680000",
    "name": "老人保健施設　サンタマリア",
    "kana": "ロウジンホケンシセツ　サンタマリア",
    "address": "愛知県名古屋市天白区鴻の巣一丁目1101番地",
    "lat": 35.1428492,
    "lng": 136.997927,
    "tel": "052-803-3611",
    "url": "http://www.santamaria.or.jp",
    "pref": "愛知県",
    "city": "名古屋市天白区",
    "category": "rouken",
    "serviceType": "介護老人保健施設",
    "capacity": 0,
    "openDays": [],
    "openDaysNote": ""
  },
  {
    "id": "2351680018",
    "name": "老人保健施設　しおがま",
    "kana": "ロウジンホケンシセツ",
    "address": "愛知県名古屋市天白区大坪二丁目601番地",
    "lat": 35.1367163,
    "lng": 136.9796592,
    "tel": "052-831-8100",
    "url": "http://www.yagotohp.jp/",
    "pref": "愛知県",
    "city": "名古屋市天白区",
    "category": "rouken",
    "serviceType": "介護老人保健施設",
    "capacity": 80,
    "openDays": [],
    "openDaysNote": ""
  },
  {
    "id": "2351280066",
    "name": "セントラル内田橋",
    "kana": "セントラルウチダバシ",
    "address": "愛知県名古屋市南区内田橋一丁目４番２４号",
    "lat": 35.1150273,
    "lng": 136.9061807,
    "tel": "052-693-1115",
    "url": "http://www.central-uchidabashi.nagoya/",
    "pref": "愛知県",
    "city": "名古屋市南区",
    "category": "rouken",
    "serviceType": "介護老人保健施設",
    "capacity": 0,
    "openDays": [],
    "openDaysNote": ""
  },
  {
    "id": "2351280041",
    "name": "医療法人大仁会介護老人保健施設アットホーム宮の渡し",
    "kana": "イリョウホウジンダイジンカイカイゴロウジンホケンシセツアットホームミヤノワタシ",
    "address": "愛知県名古屋市南区明治一丁目14番56号",
    "lat": 35.1132885,
    "lng": 136.9031172,
    "tel": "052-694-3838",
    "url": "http://www.daijinkai.jp/miya/",
    "pref": "愛知県",
    "city": "名古屋市南区",
    "category": "rouken",
    "serviceType": "介護老人保健施設",
    "capacity": 100,
    "openDays": [],
    "openDaysNote": ""
  },
  {
    "id": "2351280009",
    "name": "大同老人保健施設",
    "kana": "ダイドウロウジンホケンシセツ",
    "address": "愛知県名古屋市南区白水町40番地2",
    "lat": 35.0764289383871,
    "lng": 136.90609629144,
    "tel": "052-611-8605",
    "url": "http://www.daidohp.or.jp/",
    "pref": "愛知県",
    "city": "名古屋市南区",
    "category": "rouken",
    "serviceType": "介護老人保健施設",
    "capacity": 0,
    "openDays": [],
    "openDaysNote": ""
  },
  {
    "id": "2351280033",
    "name": "名南介護老人保健施設かたらいの里",
    "kana": "メイナンカイゴロウジンホケンシセツカタライノサト",
    "address": "愛知県名古屋市南区豊田五丁目１５番１８号",
    "lat": 35.1013622,
    "lng": 136.9150885,
    "tel": "052-691-8085",
    "url": "http://www.meinan.or.jp",
    "pref": "愛知県",
    "city": "名古屋市南区",
    "category": "rouken",
    "serviceType": "介護老人保健施設",
    "capacity": 0,
    "openDays": [],
    "openDaysNote": ""
  },
  {
    "id": "2351280058",
    "name": "老健あんき",
    "kana": "ロウケンアンキ",
    "address": "愛知県名古屋市南区星崎一丁目１２３番地",
    "lat": 35.0820232,
    "lng": 136.9349615,
    "tel": "052-821-0997",
    "url": "http://www.minami.or.jp/",
    "pref": "愛知県",
    "city": "名古屋市南区",
    "category": "rouken",
    "serviceType": "介護老人保健施設",
    "capacity": 29,
    "openDays": [],
    "openDaysNote": ""
  },
  {
    "id": "2351280017",
    "name": "老人保健施設シルピス大磯",
    "kana": "ロウジンホケンシセツシルピスオオイソ",
    "address": "名古屋市南区戸部町三丁目５５番地",
    "lat": 35.100685,
    "lng": 136.9299119,
    "tel": "052-811-5553",
    "url": "http://silpis.zenjokai.jp/",
    "pref": "愛知県",
    "city": "名古屋市南区",
    "category": "rouken",
    "serviceType": "介護老人保健施設",
    "capacity": 103,
    "openDays": [],
    "openDaysNote": ""
  },
  {
    "id": "2350980005",
    "name": "みなと医療生活協同組合介護老人保健施設あつたの森",
    "kana": "ミナトイリョウセイカツキョウドウクミアイカイゴロウジンホケンシセツアツタノモリ",
    "address": "名古屋市熱田区五番町３番１６号",
    "lat": 35.117646,
    "lng": 136.8899073,
    "tel": "052-654-8356",
    "url": "http://care.minato.coop/",
    "pref": "愛知県",
    "city": "名古屋市熱田区",
    "category": "rouken",
    "serviceType": "介護老人保健施設",
    "capacity": 100,
    "openDays": [],
    "openDaysNote": ""
  },
  {
    "id": "2350980013",
    "name": "介護老人保健施設　かなやま",
    "kana": "カイゴロウジンホケンシセツ　カナヤマ",
    "address": "愛知県名古屋市熱田区桜田町９番３号",
    "lat": 35.1407409,
    "lng": 136.9074767,
    "tel": "052-883-0080",
    "url": "http://www.kyoenkai.or.jp",
    "pref": "愛知県",
    "city": "名古屋市熱田区",
    "category": "rouken",
    "serviceType": "介護老人保健施設",
    "capacity": 100,
    "openDays": [],
    "openDaysNote": ""
  },
  {
    "id": "2350380073",
    "name": "メデケアド寿",
    "kana": "メデケアドコトブキ",
    "address": "愛知県名古屋市北区米が瀬町135番地1",
    "lat": 35.2113209,
    "lng": 136.9283676,
    "tel": "052-758-0077",
    "url": "https://misuzu.or.jp/",
    "pref": "愛知県",
    "city": "名古屋市北区",
    "category": "rouken",
    "serviceType": "介護老人保健施設",
    "capacity": 51,
    "openDays": [],
    "openDaysNote": ""
  },
  {
    "id": "2350380065",
    "name": "リハビリパーク黒川",
    "kana": "リハビリパーククロカワ",
    "address": "愛知県名古屋市北区志賀本通1丁目35番",
    "lat": 35.196595,
    "lng": 136.9172937,
    "tel": "052-325-7975",
    "url": "http://www.rehabili-park.com/",
    "pref": "愛知県",
    "city": "名古屋市北区",
    "category": "rouken",
    "serviceType": "介護老人保健施設",
    "capacity": 100,
    "openDays": [],
    "openDaysNote": ""
  },
  {
    "id": "2350380057",
    "name": "介護老人保健施設　アーチスト",
    "kana": "カイゴロウジンホケンシセツ　アーチスト",
    "address": "愛知県名古屋市北区大曽根二丁目8番10号",
    "lat": 35.1901908,
    "lng": 136.9308981,
    "tel": "052-916-1040",
    "url": "http://www.toshiwa-kai.or.jp/",
    "pref": "愛知県",
    "city": "名古屋市北区",
    "category": "rouken",
    "serviceType": "介護老人保健施設",
    "capacity": 120,
    "openDays": [],
    "openDaysNote": ""
  },
  {
    "id": "2350380008",
    "name": "介護老人保健施設　サン・くすのき",
    "kana": "カイゴロウジンホケンシセツ　サンクスノキ",
    "address": "愛知県名古屋市北区五反田町111番地",
    "lat": 35.2264218,
    "lng": 136.9119933,
    "tel": "052-901-8210",
    "url": "http://www.kusunokihp.or.jp/sun/",
    "pref": "愛知県",
    "city": "名古屋市北区",
    "category": "rouken",
    "serviceType": "介護老人保健施設",
    "capacity": 0,
    "openDays": [],
    "openDaysNote": ""
  },
  {
    "id": "2350380032",
    "name": "介護老人保健施設　シンセーロ会所",
    "kana": "カイゴロウジンホケンシセツ　シンセーロカイショ",
    "address": "名古屋市北区会所町８６番",
    "lat": 35.239459,
    "lng": 136.9072209,
    "tel": "052-909-5111",
    "url": "http://www.shiyou.or.jp/",
    "pref": "愛知県",
    "city": "名古屋市北区",
    "category": "rouken",
    "serviceType": "介護老人保健施設",
    "capacity": 0,
    "openDays": [],
    "openDaysNote": ""
  },
  {
    "id": "2350380024",
    "name": "生協わかばの里　介護老人保健施設",
    "kana": "セイキョウワカバノサト　カイゴロウジンホケンシセツ",
    "address": "名古屋市北区城東町5丁目114番地",
    "lat": 35.1944871,
    "lng": 136.9205545,
    "tel": "052-914-4121",
    "url": "http://www.kita-coop.jp/wakaba/index.html",
    "pref": "愛知県",
    "city": "名古屋市北区",
    "category": "rouken",
    "serviceType": "介護老人保健施設",
    "capacity": 0,
    "openDays": [],
    "openDaysNote": ""
  },
  {
    "id": "2350380040",
    "name": "生協わかばの里ユニット型介護老人保健施設",
    "kana": "セイキョウワカバノサトユニットガタカイゴロウジンホケンシセツ",
    "address": "名古屋市北区城東町5-114",
    "lat": 35.1944871,
    "lng": 136.9205545,
    "tel": "052-914-4121",
    "url": "www.kita.coop/wakaba/index.html",
    "pref": "愛知県",
    "city": "名古屋市北区",
    "category": "rouken",
    "serviceType": "介護老人保健施設",
    "capacity": 0,
    "openDays": [],
    "openDaysNote": ""
  },
  {
    "id": "2351580010",
    "name": "介護老人保健施設　星ヶ丘アメニティクラブ",
    "kana": "カイゴロウジンホケンシセツ　ホシガオカアメニティクラブ",
    "address": "名古屋市名東区西山台701番地",
    "lat": 35.1534171,
    "lng": 136.9993629,
    "tel": "052-701-1222",
    "url": "http://www.amenityclub.jp",
    "pref": "愛知県",
    "city": "名古屋市名東区",
    "category": "rouken",
    "serviceType": "介護老人保健施設",
    "capacity": 0,
    "openDays": [],
    "openDaysNote": ""
  },
  {
    "id": "2351580044",
    "name": "介護老人保健施設ひきやま",
    "kana": "カイゴロウジンホケンシセツヒキヤマ",
    "address": "愛知県名古屋市名東区引山一丁目802番地",
    "lat": 35.1902233,
    "lng": 136.9981621,
    "tel": "052-772-3111",
    "url": "https://www.hakuhoukai-hp.or.jp/",
    "pref": "愛知県",
    "city": "名古屋市名東区",
    "category": "rouken",
    "serviceType": "介護老人保健施設",
    "capacity": 100,
    "openDays": [],
    "openDaysNote": ""
  },
  {
    "id": "2351580002",
    "name": "名東老人保健施設",
    "kana": "メイトウロウジンホケンシセツ",
    "address": "名古屋市名東区大針3-118",
    "lat": 35.1483656,
    "lng": 137.0160057,
    "tel": "052-704-1005",
    "url": "http://www.keimeikai.or.jp",
    "pref": "愛知県",
    "city": "名古屋市名東区",
    "category": "rouken",
    "serviceType": "介護老人保健施設",
    "capacity": 0,
    "openDays": [],
    "openDaysNote": ""
  },
  {
    "id": "2351580028",
    "name": "老人保健施設いのこし",
    "kana": "ロウジンホケンシセツイノコシ",
    "address": "愛知県名古屋市名東区猪子石原一丁目1501番地",
    "lat": 35.1932116,
    "lng": 136.9910296,
    "tel": "052-777-5650",
    "url": "https://www.hakuhoukai-hp.or.jp/",
    "pref": "愛知県",
    "city": "名古屋市名東区",
    "category": "rouken",
    "serviceType": "介護老人保健施設",
    "capacity": 100,
    "openDays": [],
    "openDaysNote": ""
  },
  {
    "id": "2351480013",
    "name": "ひかり老人保健施設",
    "kana": "ヒカリロウジンホケンシセツ",
    "address": "愛知県名古屋市緑区藤塚三丁目2802番地",
    "lat": 35.094982135008,
    "lng": 137.01997904418,
    "tel": "052-878-4511",
    "url": "https://hikari.shimizukai.biz/",
    "pref": "愛知県",
    "city": "名古屋市緑区",
    "category": "rouken",
    "serviceType": "介護老人保健施設",
    "capacity": 130,
    "openDays": [],
    "openDaysNote": ""
  },
  {
    "id": "2351480005",
    "name": "医療法人コジマ会　介護老人保健施設みどり",
    "kana": "イリョウホウジンコジマカイ　カイゴロウジンホケンシセツミドリ",
    "address": "愛知県名古屋市緑区横吹町1907番12",
    "lat": 35.0838647,
    "lng": 136.9944093,
    "tel": "052-877-7788",
    "url": "http://www.kojima-kai.or.jp",
    "pref": "愛知県",
    "city": "名古屋市緑区",
    "category": "rouken",
    "serviceType": "介護老人保健施設",
    "capacity": 192,
    "openDays": [],
    "openDaysNote": ""
  },
  {
    "id": "2351480039",
    "name": "介護老人保健施設フジタ",
    "kana": "カイゴロウジンホケンシセツフジタ",
    "address": "愛知県名古屋市緑区鳴海町字尾崎山43-640",
    "lat": 35.0721928,
    "lng": 136.9780083,
    "tel": "052-623-3914",
    "url": "http://care-net.biz/23/ro-kenfujita/",
    "pref": "愛知県",
    "city": "名古屋市緑区",
    "category": "rouken",
    "serviceType": "介護老人保健施設",
    "capacity": null,
    "openDays": [],
    "openDaysNote": ""
  },
  {
    "id": "2357580014",
    "name": "介護老人保健施設　ペジーブル弥富",
    "kana": "カイゴロウジンホケンシセツ　ペジーブルヤトミ",
    "address": "愛知県弥富市神戸二丁目５３番地",
    "lat": 35.0995862426408,
    "lng": 136.771331352779,
    "tel": "0567-74-0770",
    "url": "http://paisible-y.com/",
    "pref": "愛知県",
    "city": "弥富市",
    "category": "rouken",
    "serviceType": "介護老人保健施設",
    "capacity": 80,
    "openDays": [],
    "openDaysNote": ""
  }
]