[
  {
    "id": "1555480019",
    "name": "介護老人保健施設三川しんあい園",
    "kana": "カイゴロウジンホケンシセツミカワシンアイエン",
    "address": "新潟県東蒲原郡阿賀町あが野南4324-2",
    "lat": 37.7086858,
    "lng": 139.3675938,
    "tel": "0254-99-5111",
    "url": "",
    "pref": "新潟県",
    "city": "阿賀町",
    "category": "rouken",
    "serviceType": "介護老人保健施設",
    "capacity": null,
    "openDays": [],
    "openDaysNote": ""
  },
  {
    "id": "1572100202",
    "name": "あがの市民病院　介護老人保健施設　五頭の里",
    "kana": "アガノシミンビョウイン　カイゴロウジンホケンシセツ　ゴズノサト",
    "address": "新潟県阿賀野市岡山町13-23",
    "lat": 37.8336511,
    "lng": 139.2216168,
    "tel": "0250-62-2780",
    "url": "",
    "pref": "新潟県",
    "city": "阿賀野市",
    "category": "rouken",
    "serviceType": "介護老人保健施設",
    "capacity": 50,
    "openDays": [],
    "openDaysNote": ""
  },
  {
    "id": "1552180034",
    "name": "介護老人保健施設　阿賀の庄",
    "kana": "カイゴロウジンホケンシセツ　アガノショウ",
    "address": "阿賀野市保田６３１７番地４６",
    "lat": 37.7790643,
    "lng": 139.2716279,
    "tel": "0250-68-1700",
    "url": "http://www.agano.or.jp/aganosyo.html",
    "pref": "新潟県",
    "city": "阿賀野市",
    "category": "rouken",
    "serviceType": "介護老人保健施設",
    "capacity": 0,
    "openDays": [],
    "openDaysNote": ""
  },
  {
    "id": "1551380007",
    "name": "介護老人保健施設　ぶんすい",
    "kana": "カイゴロウジンホケンシセツ　ブンスイ",
    "address": "新潟県燕市笈ヶ島１０４番地５",
    "lat": 37.6197971,
    "lng": 138.8470963,
    "tel": "0256-91-3333",
    "url": "https://www.roukenbunsui.jp",
    "pref": "新潟県",
    "city": "燕市",
    "category": "rouken",
    "serviceType": "介護老人保健施設",
    "capacity": 100,
    "openDays": [],
    "openDaysNote": ""
  },
  {
    "id": "1551380023",
    "name": "介護老人保健施設エバーグリーン",
    "kana": "カイゴロウジンホケンシセツエバーグリーン",
    "address": "新潟県燕市富永216番地1",
    "lat": 37.6959077,
    "lng": 138.8896836,
    "tel": "0256-92-3030",
    "url": "https://www.shihatsudo.or.jp",
    "pref": "新潟県",
    "city": "燕市",
    "category": "rouken",
    "serviceType": "介護老人保健施設",
    "capacity": 92,
    "openDays": [],
    "openDaysNote": ""
  },
  {
    "id": "1551380015",
    "name": "老人保健施設「楽楽」",
    "kana": "ロウジンホケンシセツ「ラクラク」",
    "address": "新潟県燕市大曲３００３番地",
    "lat": 37.6488346,
    "lng": 138.9188016,
    "tel": "0256-62-2671",
    "url": "",
    "pref": "新潟県",
    "city": "燕市",
    "category": "rouken",
    "serviceType": "介護老人保健施設",
    "capacity": 100,
    "openDays": [],
    "openDaysNote": ""
  },
  {
    "id": "1550980021",
    "name": "介護老人保健施設　さくら苑",
    "kana": "カイゴロウジンホケンシセツ　サクラエン",
    "address": "新潟県加茂市千刈２丁目８番１３号",
    "lat": 37.6660552,
    "lng": 139.0509357,
    "tel": "0256-53-5353",
    "url": "http://www.jojinkai.com/sakuraen/",
    "pref": "新潟県",
    "city": "加茂市",
    "category": "rouken",
    "serviceType": "介護老人保健施設",
    "capacity": 0,
    "openDays": [],
    "openDaysNote": ""
  },
  {
    "id": "1556480018",
    "name": "介護老人保健施設関川愛広苑",
    "kana": "カイゴロウジンホケンシセツセキカワアイコウエン",
    "address": "岩船郡関川村大字湯沢728-7",
    "lat": 38.094339,
    "lng": 139.5751553,
    "tel": "0254-60-4025",
    "url": "http://www.aiko.or.jp/",
    "pref": "新潟県",
    "city": "関川村",
    "category": "rouken",
    "serviceType": "介護老人保健施設",
    "capacity": 0,
    "openDays": [],
    "openDaysNote": ""
  },
  {
    "id": "1552380006",
    "name": "老人保健施設　清流苑",
    "kana": "ロウジンホケンシセツ　セイリュウエン",
    "address": "新潟県魚沼市原虫野433番地3",
    "lat": 37.2142244436703,
    "lng": 138.963013009123,
    "tel": "025-792-9588",
    "url": "http://www.uonokai.or.jp/",
    "pref": "新潟県",
    "city": "魚沼市",
    "category": "rouken",
    "serviceType": "介護老人保健施設",
    "capacity": 0,
    "openDays": [],
    "openDaysNote": ""
  },
  {
    "id": "1551180019",
    "name": "見附市介護老人保健施設ケアプラザ見附",
    "kana": "ミツケシカイゴロウジンホケンシセツケアプラザミツケ",
    "address": "見附市学校町2丁目13番30号",
    "lat": 37.5347622,
    "lng": 138.919396,
    "tel": "0258-63-5100",
    "url": "https://www.city.mitsuke.niigata.jp/3135.htm",
    "pref": "新潟県",
    "city": "見附市",
    "category": "rouken",
    "serviceType": "介護老人保健施設",
    "capacity": 0,
    "openDays": [],
    "openDaysNote": ""
  },
  {
    "id": "1551780008",
    "name": "老人保健施設　愛宕の里",
    "kana": "ロウジンホケンシセツ　アタゴノサト",
    "address": "新潟県五泉市村松1409-1",
    "lat": 37.7004045,
    "lng": 139.1747368,
    "tel": "0250-58-6891",
    "url": "https://www.sinjinkai.or.jp/atago/",
    "pref": "新潟県",
    "city": "五泉市",
    "category": "rouken",
    "serviceType": "介護老人保健施設",
    "capacity": 0,
    "openDays": [],
    "openDaysNote": ""
  },
  {
    "id": "1551880022",
    "name": "ユニット型介護老人保健施設　親里",
    "kana": "ユニットガタカイゴロウジンホケンシセツ　オヤサト",
    "address": "新潟県佐渡市住吉１２６番地２",
    "lat": 38.0718652,
    "lng": 138.4500692,
    "tel": "0259-24-7310",
    "url": "http://care-net.biz/15/oyasato",
    "pref": "新潟県",
    "city": "佐渡市",
    "category": "rouken",
    "serviceType": "介護老人保健施設",
    "capacity": 0,
    "openDays": [],
    "openDaysNote": ""
  },
  {
    "id": "1552280065",
    "name": "介護老人保健施設　相川愛広苑",
    "kana": "カイゴロウジンホケンシセツ　アイカワアイコウエン",
    "address": "新潟県佐渡市相川大浦571",
    "lat": 38.0158574681937,
    "lng": 138.224313876721,
    "tel": "0259-61-2800",
    "url": "http://www.aiko.or.jp",
    "pref": "新潟県",
    "city": "佐渡市",
    "category": "rouken",
    "serviceType": "介護老人保健施設",
    "capacity": 150,
    "openDays": [],
    "openDaysNote": ""
  },
  {
    "id": "1552280057",
    "name": "佐渡市介護老人保健施設　すこやか両津",
    "kana": "サドシカイゴロウジンホケンシセツ　スコヤカリョウツ",
    "address": "新潟県佐渡市春日１１３７番地４",
    "lat": 38.0887126,
    "lng": 138.4311839,
    "tel": "0259-23-5171",
    "url": "",
    "pref": "新潟県",
    "city": "佐渡市",
    "category": "rouken",
    "serviceType": "介護老人保健施設",
    "capacity": 0,
    "openDays": [],
    "openDaysNote": ""
  },
  {
    "id": "1552280073",
    "name": "従来型介護老人保健施設　親里",
    "kana": "ジュウライガタカイゴロウジンホケンシセツ　オヤサト",
    "address": "新潟県佐渡市住吉１２６番地２",
    "lat": 38.0718652,
    "lng": 138.4500692,
    "tel": "0259-24-7310",
    "url": "http://care-net.biz/15/oyasato/",
    "pref": "新潟県",
    "city": "佐渡市",
    "category": "rouken",
    "serviceType": "介護老人保健施設",
    "capacity": 0,
    "openDays": [],
    "openDaysNote": ""
  },
  {
    "id": "1550480006",
    "name": "介護老人保健施設　いっぷく",
    "kana": "カイゴロウジンホケンシセツ　イップク",
    "address": "新潟県三条市長野337番地",
    "lat": 37.5397405,
    "lng": 139.1144382,
    "tel": "0256-41-3810",
    "url": "http://www.shitada.jp/",
    "pref": "新潟県",
    "city": "三条市",
    "category": "rouken",
    "serviceType": "介護老人保健施設",
    "capacity": 0,
    "openDays": [],
    "openDaysNote": ""
  },
  {
    "id": "1550480030",
    "name": "介護老人保健施設　マザリー三条",
    "kana": "カイゴロウジンホケンシセツ　マザリーサンジョウ",
    "address": "三条市北入蔵２丁目２８番１号",
    "lat": 37.632750899941,
    "lng": 138.985233243556,
    "tel": "0256-38-7500",
    "url": "",
    "pref": "新潟県",
    "city": "三条市",
    "category": "rouken",
    "serviceType": "介護老人保健施設",
    "capacity": 0,
    "openDays": [],
    "openDaysNote": ""
  },
  {
    "id": "1550480048",
    "name": "介護老人保健施設いっぷく2番館",
    "kana": "カイゴロウジンホケンシセツイップクニバンカン",
    "address": "新潟県三条市帯織800番地",
    "lat": 37.5734245,
    "lng": 138.9273441,
    "tel": "0256-45-0380",
    "url": "https://www.shitada.jp/",
    "pref": "新潟県",
    "city": "三条市",
    "category": "rouken",
    "serviceType": "介護老人保健施設",
    "capacity": 100,
    "openDays": [],
    "openDaysNote": ""
  },
  {
    "id": "1550480014",
    "name": "新潟県済生会三条病院介護老人保健施設ケアホーム三条",
    "kana": "ニイガタケンサイセイカイサンジョウビョウインカイゴロウジンホケンシセツケアホームサンジョウ",
    "address": "新潟県三条市大野畑6番85－5号",
    "lat": 37.6279683,
    "lng": 138.9400112,
    "tel": "0256-32-7711",
    "url": "",
    "pref": "新潟県",
    "city": "三条市",
    "category": "rouken",
    "serviceType": "介護老人保健施設",
    "capacity": 0,
    "openDays": [],
    "openDaysNote": ""
  },
  {
    "id": "1551580044",
    "name": "介護老人保健施設　至誠会",
    "kana": "カイゴロウジンホケンシセツ　シセイカイ",
    "address": "新潟県糸魚川市大字寺地３０１８番地",
    "lat": 37.0178607,
    "lng": 137.8113877,
    "tel": "025-562-5778",
    "url": "https://shiseikai.care/",
    "pref": "新潟県",
    "city": "糸魚川市",
    "category": "rouken",
    "serviceType": "介護老人保健施設",
    "capacity": 116,
    "openDays": [],
    "openDaysNote": ""
  },
  {
    "id": "1551580028",
    "name": "介護老人保健施設ケアポートよしだ",
    "kana": "カイゴロウジンホケンシセツケアポートヨシダ",
    "address": "新潟県糸魚川市横町5丁目9番12号",
    "lat": 37.042789,
    "lng": 137.8471368,
    "tel": "025-553-2682",
    "url": "http://www.ichieikai.jp/",
    "pref": "新潟県",
    "city": "糸魚川市",
    "category": "rouken",
    "serviceType": "介護老人保健施設",
    "capacity": 100,
    "openDays": [],
    "openDaysNote": ""
  },
  {
    "id": "1550380099",
    "name": "ユニット型介護老人保健施設　そよかぜ倶楽部",
    "kana": "ユニットガタカイゴロウジンホケンシセツ　ソヨカゼクラブ",
    "address": "新潟県上越市大字今泉字西蓮池1310-5",
    "lat": 37.0932593655576,
    "lng": 138.247560054584,
    "tel": "025-522-8700",
    "url": "https://syoutoukai.jp/soyokaze/",
    "pref": "新潟県",
    "city": "上越市",
    "category": "rouken",
    "serviceType": "介護老人保健施設",
    "capacity": 40,
    "openDays": [],
    "openDaysNote": ""
  },
  {
    "id": "1550380016",
    "name": "介護老人保健施設　くびきの",
    "kana": "カイゴロウジンホケンシセツ　クビキノ",
    "address": "新潟県上越市西城町３丁目６番３１号",
    "lat": 37.1150858,
    "lng": 138.2481554,
    "tel": "025-526-2161",
    "url": "https://www.chimeido.jp",
    "pref": "新潟県",
    "city": "上越市",
    "category": "rouken",
    "serviceType": "介護老人保健施設",
    "capacity": 0,
    "openDays": [],
    "openDaysNote": ""
  },
  {
    "id": "1550380040",
    "name": "介護老人保健施設　サンクス米山",
    "kana": "カイゴロウジンホケンシセツ　サンクスヨネヤマ",
    "address": "新潟県上越市柿崎区上下浜219番地5",
    "lat": 37.2489561,
    "lng": 138.3495478,
    "tel": "025-536-6622",
    "url": "https://www.minna-de-ikiru.org",
    "pref": "新潟県",
    "city": "上越市",
    "category": "rouken",
    "serviceType": "介護老人保健施設",
    "capacity": 100,
    "openDays": [],
    "openDaysNote": ""
  },
  {
    "id": "1550380065",
    "name": "介護老人保健施設　そよかぜ倶楽部",
    "kana": "カイゴロウジンホケンシセツ　ソヨカゼクラブ",
    "address": "新潟県上越市大字今泉字西蓮池1310-5",
    "lat": 37.0932593655585,
    "lng": 138.24757078342,
    "tel": "025-522-8700",
    "url": "https://syoutoukai.jp/soyokaze/",
    "pref": "新潟県",
    "city": "上越市",
    "category": "rouken",
    "serviceType": "介護老人保健施設",
    "capacity": 60,
    "openDays": [],
    "openDaysNote": ""
  },
  {
    "id": "1550380107",
    "name": "介護老人保健施設　葵の園・上越",
    "kana": "カイゴロウジンホケンシセツ　アオイノソノ・ジョウエツ",
    "address": "新潟県上越市頸城区上吉１９４",
    "lat": 37.1841406762059,
    "lng": 138.289207968678,
    "tel": "025-531-1010",
    "url": "http://www.aoikai.jp/",
    "pref": "新潟県",
    "city": "上越市",
    "category": "rouken",
    "serviceType": "介護老人保健施設",
    "capacity": null,
    "openDays": [],
    "openDaysNote": ""
  },
  {
    "id": "1550380024",
    "name": "介護老人保健施設　高田の郷",
    "kana": "カイゴロウジンホケンシセツ　タカダノサト",
    "address": "新潟県上越市新南町２８番地３",
    "lat": 37.1070819,
    "lng": 138.272773,
    "tel": "025-526-2558",
    "url": "http://www.inaho-s-net.com",
    "pref": "新潟県",
    "city": "上越市",
    "category": "rouken",
    "serviceType": "介護老人保健施設",
    "capacity": 0,
    "openDays": [],
    "openDaysNote": ""
  },
  {
    "id": "1550380032",
    "name": "介護老人保健施設国府の里",
    "kana": "カイゴロウジンホケンシセツコクフノサト",
    "address": "新潟県上越市五智4-7-21",
    "lat": 37.1709724,
    "lng": 138.2256467,
    "tel": "025-544-2525",
    "url": "http://www.fuchukai.jp/kokufu/",
    "pref": "新潟県",
    "city": "上越市",
    "category": "rouken",
    "serviceType": "介護老人保健施設",
    "capacity": 0,
    "openDays": [],
    "openDaysNote": ""
  },
  {
    "id": "1550380008",
    "name": "介護老人保健施設保倉の里",
    "kana": "カイゴロウジンホケンシセツホクラノサト",
    "address": "上越市浦川原区顕聖寺730番地1",
    "lat": 37.1591823,
    "lng": 138.4171251,
    "tel": "025-599-3990",
    "url": "http://www.kubiki-sjk.or.jp/",
    "pref": "新潟県",
    "city": "上越市",
    "category": "rouken",
    "serviceType": "介護老人保健施設",
    "capacity": 95,
    "openDays": [],
    "openDaysNote": ""
  },
  {
    "id": "1550180226",
    "name": "介護老人保健施設　マチュアハウス横越",
    "kana": "カイゴロウジンホケンシセツ　マチュアハウスヨコゴシ",
    "address": "新潟県新潟市江南区阿賀野１丁目２番２号",
    "lat": 37.831833,
    "lng": 139.1683366,
    "tel": "0250-61-5050",
    "url": "http://n-jiseikai.jp",
    "pref": "新潟県",
    "city": "新潟市江南区",
    "category": "rouken",
    "serviceType": "介護老人保健施設",
    "capacity": 95,
    "openDays": [],
    "openDaysNote": ""
  },
  {
    "id": "1550180051",
    "name": "介護老人保健施設　大江山園",
    "kana": "カイゴロウジンホケンシセツ　オオエヤマエン",
    "address": "新潟県新潟市江南区大渕277番地",
    "lat": 37.892104400294,
    "lng": 139.1448324,
    "tel": "025-276-2801",
    "url": "http://www.tsubakida.com",
    "pref": "新潟県",
    "city": "新潟市江南区",
    "category": "rouken",
    "serviceType": "介護老人保健施設",
    "capacity": 0,
    "openDays": [],
    "openDaysNote": ""
  },
  {
    "id": "1550180234",
    "name": "介護老人保健施設亀田園",
    "kana": "カイゴロウジンホケンシセツ　カメダエン",
    "address": "新潟県新潟市江南区早通6-7-34",
    "lat": 37.8635908,
    "lng": 139.08132,
    "tel": "025-383-1777",
    "url": "http://www.ijn.or.jp/kamedaen/",
    "pref": "新潟県",
    "city": "新潟市江南区",
    "category": "rouken",
    "serviceType": "介護老人保健施設",
    "capacity": 135,
    "openDays": [],
    "openDaysNote": ""
  },
  {
    "id": "1550180135",
    "name": "老人保健施設　第二にいがた園",
    "kana": "ロウジンホケンシセツ　ダイニニイガタエン",
    "address": "新潟県新潟市江南区祖父興野270-1",
    "lat": 37.8689651000001,
    "lng": 139.028158617197,
    "tel": "025-285-1800",
    "url": "https://www.jinseikai.jp/dai2niigataen/",
    "pref": "新潟県",
    "city": "新潟市江南区",
    "category": "rouken",
    "serviceType": "介護老人保健施設",
    "capacity": 110,
    "openDays": [],
    "openDaysNote": ""
  },
  {
    "id": "1550180192",
    "name": "介護老人保健施設　健進館",
    "kana": "カイゴロウジンホケンシセツ　ケンシンカン",
    "address": "新潟県新潟市秋葉区古田６０８番地",
    "lat": 37.7910082,
    "lng": 139.1028072,
    "tel": "0250-23-5152",
    "url": "http://www.niitsu-mch.jp",
    "pref": "新潟県",
    "city": "新潟市秋葉区",
    "category": "rouken",
    "serviceType": "介護老人保健施設",
    "capacity": 0,
    "openDays": [],
    "openDaysNote": ""
  },
  {
    "id": "1550180317",
    "name": "介護老人保健施設　秋葉の郷",
    "kana": "カイゴロウジンホケンシセツ　アキハノサト",
    "address": "新潟県新潟市秋葉区大関242番地1",
    "lat": 37.7691264,
    "lng": 139.1590364,
    "tel": "0250-25-3331",
    "url": "http://www.mumingroup.jp/akiha/",
    "pref": "新潟県",
    "city": "新潟市秋葉区",
    "category": "rouken",
    "serviceType": "介護老人保健施設",
    "capacity": 0,
    "openDays": [],
    "openDaysNote": ""
  },
  {
    "id": "1550180184",
    "name": "介護老人保健施設おぎの里",
    "kana": "カイゴロウジンホケンシセツ　オギノサト",
    "address": "新潟県新潟市秋葉区荻野町3番8号",
    "lat": 37.8298961,
    "lng": 139.1063941,
    "tel": "0250-25-3071",
    "url": "https://www.rouken-oginosato.jp/",
    "pref": "新潟県",
    "city": "新潟市秋葉区",
    "category": "rouken",
    "serviceType": "介護老人保健施設",
    "capacity": 0,
    "openDays": [],
    "openDaysNote": ""
  },
  {
    "id": "1550180242",
    "name": "介護老人保健施設　いわむろの里",
    "kana": "カイゴロウジンホケンシセツ　イワムロノサト",
    "address": "新潟県新潟市西蒲区橋本９７番地１",
    "lat": 37.7325994,
    "lng": 138.84017,
    "tel": "0256-82-5040",
    "url": "http://www.niwell.or.jp",
    "pref": "新潟県",
    "city": "新潟市西蒲区",
    "category": "rouken",
    "serviceType": "介護老人保健施設",
    "capacity": null,
    "openDays": [],
    "openDaysNote": ""
  },
  {
    "id": "1550180275",
    "name": "介護老人保健施設　めぐみ園",
    "kana": "カイゴロウジンホケンシセツ　メグミエン",
    "address": "新潟県新潟市西蒲区国見417番地",
    "lat": 37.7545695364019,
    "lng": 138.952216846033,
    "tel": "0256-70-5311",
    "url": "http://hakuyukai.gr.jp",
    "pref": "新潟県",
    "city": "新潟市西蒲区",
    "category": "rouken",
    "serviceType": "介護老人保健施設",
    "capacity": 0,
    "openDays": [],
    "openDaysNote": ""
  },
  {
    "id": "1550180259",
    "name": "介護老人保健施設　回生園",
    "kana": "カイゴロウジンホケンシセツ　カイセイエン",
    "address": "新潟県新潟市西蒲区押付678番地",
    "lat": 37.7838154,
    "lng": 138.9168989,
    "tel": "0256-70-4400",
    "url": "http://www.kaiseien.or.jp/",
    "pref": "新潟県",
    "city": "新潟市西蒲区",
    "category": "rouken",
    "serviceType": "介護老人保健施設",
    "capacity": 100,
    "openDays": [],
    "openDaysNote": ""
  },
  {
    "id": "1550180309",
    "name": "介護老人保健施設　槇の里",
    "kana": "カイゴロウジンホケンシセツ　マキノサト",
    "address": "新潟県新潟市西蒲区巻甲4363番地",
    "lat": 37.7540256977206,
    "lng": 138.893215918416,
    "tel": "0256-72-0331",
    "url": "http://www.jojinkai.com/maki/",
    "pref": "新潟県",
    "city": "新潟市西蒲区",
    "category": "rouken",
    "serviceType": "介護老人保健施設",
    "capacity": 100,
    "openDays": [],
    "openDaysNote": ""
  },
  {
    "id": "1550180150",
    "name": "介護老人保健施設　あかつか苑",
    "kana": "カイゴロウジンホケンシセツ　アカツカエン",
    "address": "新潟県新潟市西区赤塚４７８２番地",
    "lat": 37.8096495,
    "lng": 138.8736054,
    "tel": "025-239-0021",
    "url": "http://www.akatukafukusi.com/",
    "pref": "新潟県",
    "city": "新潟市西区",
    "category": "rouken",
    "serviceType": "介護老人保健施設",
    "capacity": 100,
    "openDays": [],
    "openDaysNote": ""
  },
  {
    "id": "1550180390",
    "name": "介護老人保健施設　葵の園・新潟寺尾",
    "kana": "カイゴロウジンホケンシセツ　アオイノソノ・ニイガタテラオ",
    "address": "新潟県新潟市西区寺尾上5-18-17",
    "lat": 37.8737639,
    "lng": 138.9630718,
    "tel": "025-211-1717",
    "url": "http://www.aoikai.jp",
    "pref": "新潟県",
    "city": "新潟市西区",
    "category": "rouken",
    "serviceType": "介護老人保健施設",
    "capacity": 0,
    "openDays": [],
    "openDaysNote": ""
  },
  {
    "id": "1550180382",
    "name": "介護老人保健施設　葵の園・新潟寺尾",
    "kana": "カイゴロウジンホケンシセツ　アオイノソノ・ニイガタテラオ",
    "address": "新潟県新潟市西区寺尾上5-18-17",
    "lat": 37.8737639,
    "lng": 138.9630718,
    "tel": "025-211-1717",
    "url": "http://www.aoikai.jp/",
    "pref": "新潟県",
    "city": "新潟市西区",
    "category": "rouken",
    "serviceType": "介護老人保健施設",
    "capacity": 100,
    "openDays": [],
    "openDaysNote": ""
  },
  {
    "id": "1550180002",
    "name": "介護老人保健施設あすか",
    "kana": "カイゴロウジンホケンシセツアスカ",
    "address": "新潟県新潟市西区木場５６番地",
    "lat": 37.8314785,
    "lng": 139.0025573,
    "tel": "025-377-1771",
    "url": "http://jinsei-g.com/",
    "pref": "新潟県",
    "city": "新潟市西区",
    "category": "rouken",
    "serviceType": "介護老人保健施設",
    "capacity": 100,
    "openDays": [],
    "openDaysNote": ""
  },
  {
    "id": "1550180143",
    "name": "介護老人保健施設ケアポートすなやま",
    "kana": "カイゴロウジンホケンシセツケアポートスナヤマ",
    "address": "新潟県新潟市西区坂井砂山3-8-2",
    "lat": 37.8704026,
    "lng": 138.9553952,
    "tel": "025-268-9000",
    "url": "https://sunayama.or.jp/",
    "pref": "新潟県",
    "city": "新潟市西区",
    "category": "rouken",
    "serviceType": "介護老人保健施設",
    "capacity": 0,
    "openDays": [],
    "openDaysNote": ""
  },
  {
    "id": "1550180358",
    "name": "介護老人保健施設こばり園",
    "kana": "カイゴロウジンホケンシセツコバリエン",
    "address": "新潟県新潟市西区小針3丁目25番1号",
    "lat": 37.8878641,
    "lng": 138.999442,
    "tel": "025-232-0200",
    "url": "",
    "pref": "新潟県",
    "city": "新潟市西区",
    "category": "rouken",
    "serviceType": "介護老人保健施設",
    "capacity": 100,
    "openDays": [],
    "openDaysNote": ""
  },
  {
    "id": "1550180069",
    "name": "介護老人保健施設しんあい園",
    "kana": "カイゴロウジンホケンシセツシンアイエン",
    "address": "新潟県新潟市西区上新栄町１丁目１番１号",
    "lat": 37.8888936,
    "lng": 138.9724446,
    "tel": "025-230-5522",
    "url": "http://www.sin-ai.jp/",
    "pref": "新潟県",
    "city": "新潟市西区",
    "category": "rouken",
    "serviceType": "介護老人保健施設",
    "capacity": null,
    "openDays": [],
    "openDaysNote": ""
  },
  {
    "id": "1550180101",
    "name": "介護老人保健施設みそのぴあ",
    "kana": "カイゴロウジンホケンシセツミソノピア",
    "address": "新潟市西区青山７－８－１５",
    "lat": 37.8985902,
    "lng": 138.991867,
    "tel": "025-267-0178",
    "url": "https://www.misono-hp.or.jp",
    "pref": "新潟県",
    "city": "新潟市西区",
    "category": "rouken",
    "serviceType": "介護老人保健施設",
    "capacity": 100,
    "openDays": [],
    "openDaysNote": ""
  },
  {
    "id": "1550180168",
    "name": "介護老人保健施設健やか園",
    "kana": "カイゴロウジンホケンシセツスコヤカエン",
    "address": "新潟県新潟市西区小新1130番地",
    "lat": 37.8784901,
    "lng": 138.9951124,
    "tel": "025-232-5300",
    "url": "https://niigata-sukoyaka.com",
    "pref": "新潟県",
    "city": "新潟市西区",
    "category": "rouken",
    "serviceType": "介護老人保健施設",
    "capacity": 0,
    "openDays": [],
    "openDaysNote": ""
  },
  {
    "id": "1550180374",
    "name": "介護老人保健施設　葵の園・新潟島",
    "kana": "カイゴロウジンホケンシセツ　アオイノソノ・ニイガタジマ",
    "address": "新潟県新潟市中央区柳島町３丁目１８番地７",
    "lat": 37.9316244,
    "lng": 139.0584684,
    "tel": "025-222-1188",
    "url": "http://www.aoikai.jp/",
    "pref": "新潟県",
    "city": "新潟市中央区",
    "category": "rouken",
    "serviceType": "介護老人保健施設",
    "capacity": 40,
    "openDays": [],
    "openDaysNote": ""
  },
  {
    "id": "1550180366",
    "name": "介護老人保健施設　葵の園・新潟島",
    "kana": "カイゴロウジンホケンシセツ　アオイノソノ・ニイガタジマ",
    "address": "新潟県新潟市中央区柳島町3丁目18番地7",
    "lat": 37.9316244,
    "lng": 139.0584684,
    "tel": "025-222-1188",
    "url": "http://www.aoikai.jp/",
    "pref": "新潟県",
    "city": "新潟市中央区",
    "category": "rouken",
    "serviceType": "介護老人保健施設",
    "capacity": 60,
    "openDays": [],
    "openDaysNote": ""
  },
  {
    "id": "1550180283",
    "name": "介護老人保健施設　晴和会上所園",
    "kana": "カイゴロウジンホケンシセツ　セイワカイカミトコロエン",
    "address": "新潟県新潟市中央区上所中1-10-1",
    "lat": 37.9056711227049,
    "lng": 139.035811379762,
    "tel": "025-280-0800",
    "url": "http://www.niigata-care.jp",
    "pref": "新潟県",
    "city": "新潟市中央区",
    "category": "rouken",
    "serviceType": "介護老人保健施設",
    "capacity": 0,
    "openDays": [],
    "openDaysNote": ""
  },
  {
    "id": "1550180416",
    "name": "介護老人保健施設　晴和会上所園",
    "kana": "カイゴロウジンホケンシセツ　セイワカイカミトコロエン",
    "address": "新潟県新潟市中央区上所中1-10-1",
    "lat": 37.9056721571329,
    "lng": 139.035847210451,
    "tel": "025-280-0800",
    "url": "http://www.niigata-care.jp",
    "pref": "新潟県",
    "city": "新潟市中央区",
    "category": "rouken",
    "serviceType": "介護老人保健施設",
    "capacity": 0,
    "openDays": [],
    "openDaysNote": ""
  },
  {
    "id": "1550180333",
    "name": "介護老人保健施設　入舟",
    "kana": "カイゴロウジンホケンシセツ　イリフネ",
    "address": "新潟県新潟市中央区入船町３丁目３６２９－１",
    "lat": 37.9343712,
    "lng": 139.0564073,
    "tel": "025-229-3607",
    "url": "https://niigata-min.or.jp/irifune/",
    "pref": "新潟県",
    "city": "新潟市中央区",
    "category": "rouken",
    "serviceType": "介護老人保健施設",
    "capacity": 0,
    "openDays": [],
    "openDaysNote": ""
  },
  {
    "id": "1550180044",
    "name": "介護老人保健施設　陽光園",
    "kana": "カイゴロウジンホケンシセツ　ヨウコウエン",
    "address": "新潟県新潟市中央区姥ケ山311-1",
    "lat": 37.8849259769228,
    "lng": 139.080687281615,
    "tel": "025-286-8100",
    "url": "",
    "pref": "新潟県",
    "city": "新潟市中央区",
    "category": "rouken",
    "serviceType": "介護老人保健施設",
    "capacity": 96,
    "openDays": [],
    "openDaysNote": ""
  },
  {
    "id": "1550180077",
    "name": "介護老人保健施設女池南風苑",
    "kana": "カイゴロウジンホケンシセツメイケナンプウエン",
    "address": "新潟県新潟市中央区女池神明1丁目3番地3",
    "lat": 37.8900706,
    "lng": 139.0380748,
    "tel": "025-284-3411",
    "url": "http://www.niigataminami-hp.com/",
    "pref": "新潟県",
    "city": "新潟市中央区",
    "category": "rouken",
    "serviceType": "介護老人保健施設",
    "capacity": 94,
    "openDays": [],
    "openDaysNote": ""
  },
  {
    "id": "1550180093",
    "name": "介護老人保健施設千歳園",
    "kana": "カイゴロウジンホケンシセツチトセエン",
    "address": "新潟県新潟市中央区新光町１番地33",
    "lat": 37.9047377,
    "lng": 139.0249833,
    "tel": "025-285-7500",
    "url": "http://www.nice-hp.or.jp/chitose/",
    "pref": "新潟県",
    "city": "新潟市中央区",
    "category": "rouken",
    "serviceType": "介護老人保健施設",
    "capacity": 99,
    "openDays": [],
    "openDaysNote": ""
  },
  {
    "id": "1550180028",
    "name": "介護老人保健施設緑樹苑",
    "kana": "カイゴロウジンホケンシセツリョクジュエン",
    "address": "新潟県新潟市中央区神道寺2-4-24",
    "lat": 37.8972228,
    "lng": 139.0561455,
    "tel": "025-244-6100",
    "url": "http://midori-gr.jp/ryokuju/",
    "pref": "新潟県",
    "city": "新潟市中央区",
    "category": "rouken",
    "serviceType": "介護老人保健施設",
    "capacity": 0,
    "openDays": [],
    "openDaysNote": ""
  },
  {
    "id": "1550180010",
    "name": "老人保健施設にいがた園",
    "kana": "ロウジンホケンシセツニイガタエン",
    "address": "新潟県新潟市中央区鳥屋野４５１－６",
    "lat": 37.8864071,
    "lng": 139.0349752,
    "tel": "025-283-0377",
    "url": "https://www.jinseikai.jp/",
    "pref": "新潟県",
    "city": "新潟市中央区",
    "category": "rouken",
    "serviceType": "介護老人保健施設",
    "capacity": 100,
    "openDays": [],
    "openDaysNote": ""
  },
  {
    "id": "1550180291",
    "name": "介護老人保健施設　ほほえみの里　きど",
    "kana": "カイゴロウジンホケンシセツ　ホホエミノサト　キド",
    "address": "新潟県新潟市東区上木戸2－1－35",
    "lat": 37.9242356,
    "lng": 139.104443,
    "tel": "025-275-1121",
    "url": "https://hohoemi.iryo-coop.com/",
    "pref": "新潟県",
    "city": "新潟市東区",
    "category": "rouken",
    "serviceType": "介護老人保健施設",
    "capacity": 49,
    "openDays": [],
    "openDaysNote": ""
  },
  {
    "id": "1550180424",
    "name": "介護老人保健施設　ほほえみの里　きど",
    "kana": "カイゴロウジンホケンシセツ　ホホエミノサト　キド",
    "address": "新潟県新潟市東区上木戸2-1-35",
    "lat": 37.924155,
    "lng": 139.1044097,
    "tel": "025-275-1121",
    "url": "https://hohoemi.iryo-coop.com/",
    "pref": "新潟県",
    "city": "新潟市東区",
    "category": "rouken",
    "serviceType": "介護老人保健施設",
    "capacity": 51,
    "openDays": [],
    "openDaysNote": ""
  },
  {
    "id": "1550180085",
    "name": "介護老人保健施設　有楽園",
    "kana": "カイゴロウジンホケンシセツ　ユウラクエン",
    "address": "新潟県新潟市東区有楽１丁目15-3",
    "lat": 37.9381788,
    "lng": 139.1066754,
    "tel": "025-274-8400",
    "url": "https://yu-rakuen.jp",
    "pref": "新潟県",
    "city": "新潟市東区",
    "category": "rouken",
    "serviceType": "介護老人保健施設",
    "capacity": 0,
    "openDays": [],
    "openDaysNote": ""
  },
  {
    "id": "1550180432",
    "name": "介護老人保健施設くわの実の郷",
    "kana": "カイゴロウジンホケンシセツクワノミノサト",
    "address": "新潟県新潟市東区空港西2丁目14番35号",
    "lat": 37.9488248,
    "lng": 139.0978477,
    "tel": "025-278-7719",
    "url": "http://www.ngt-kuwana.or.jp/",
    "pref": "新潟県",
    "city": "新潟市東区",
    "category": "rouken",
    "serviceType": "介護老人保健施設",
    "capacity": 0,
    "openDays": [],
    "openDaysNote": ""
  },
  {
    "id": "1550180440",
    "name": "介護老人保健施設くわの実の郷",
    "kana": "カイゴロウジンホケンシセツクワノミノサト",
    "address": "新潟県新潟市東区空港西2丁目14番35号",
    "lat": 37.9488248,
    "lng": 139.0978477,
    "tel": "025-278-7719",
    "url": "http://www.ngt-kuwana.or.jp/",
    "pref": "新潟県",
    "city": "新潟市東区",
    "category": "rouken",
    "serviceType": "介護老人保健施設",
    "capacity": 0,
    "openDays": [],
    "openDaysNote": ""
  },
  {
    "id": "1550180267",
    "name": "介護老人保健施設　常盤園",
    "kana": "カイゴロウジンホケンシセツ　トキワエン",
    "address": "新潟県新潟市南区西白根４４番地",
    "lat": 37.753263,
    "lng": 139.0036021,
    "tel": "025-373-1211",
    "url": "http://kei-seikai.or.jp/",
    "pref": "新潟県",
    "city": "新潟市南区",
    "category": "rouken",
    "serviceType": "介護老人保健施設",
    "capacity": 0,
    "openDays": [],
    "openDaysNote": ""
  },
  {
    "id": "1550180408",
    "name": "介護老人保健施設　白根ヴィラガーデン",
    "kana": "カイゴロウジンホケンシセツ　シロネゔィラガーデン",
    "address": "新潟県新潟市南区大通黄金7丁目10番地2",
    "lat": 37.8210832,
    "lng": 139.0195332,
    "tel": "025-362-0777",
    "url": "http://www.jojinkai.com/garden/",
    "pref": "新潟県",
    "city": "新潟市南区",
    "category": "rouken",
    "serviceType": "介護老人保健施設",
    "capacity": 0,
    "openDays": [],
    "openDaysNote": ""
  },
  {
    "id": "1550180200",
    "name": "介護老人保健施設　白根ヴィラガーデン",
    "kana": "カイゴロウジンホケンシセツ　シロネゔィラガーデン",
    "address": "新潟県新潟市南区大通黄金7丁目10番地2",
    "lat": 37.8210874375115,
    "lng": 139.019731683467,
    "tel": "025-362-0777",
    "url": "http://www.jojinkai.com/garden/",
    "pref": "新潟県",
    "city": "新潟市南区",
    "category": "rouken",
    "serviceType": "介護老人保健施設",
    "capacity": 0,
    "openDays": [],
    "openDaysNote": ""
  },
  {
    "id": "1550180218",
    "name": "介護老人保健施設みずき苑",
    "kana": "カイゴロウジンホケンシセツミズキエン",
    "address": "新潟県新潟市南区助次右エ門組５",
    "lat": 37.7606575,
    "lng": 139.019705,
    "tel": "025-372-2193",
    "url": "http://www.healthcoop-shirone.or.jp/care/healthcare-facilities/",
    "pref": "新潟県",
    "city": "新潟市南区",
    "category": "rouken",
    "serviceType": "介護老人保健施設",
    "capacity": 100,
    "openDays": [],
    "openDaysNote": ""
  },
  {
    "id": "1550180465",
    "name": "介護老人保健施設　葵の園・新潟北区",
    "kana": "カイゴロウジンホケンシセツアオイノソノニイガタキタク",
    "address": "新潟県新潟市北区島見町200-1",
    "lat": 37.976420424213,
    "lng": 139.203055770422,
    "tel": "025-278-6777",
    "url": "https://www.aoikai.jp/",
    "pref": "新潟県",
    "city": "新潟市北区",
    "category": "rouken",
    "serviceType": "介護老人保健施設",
    "capacity": null,
    "openDays": [],
    "openDaysNote": ""
  },
  {
    "id": "1550180127",
    "name": "介護老人保健施設　松浜さくら園",
    "kana": "カイゴロウジンホケンシセツ　マツハマサクラエン",
    "address": "新潟県新潟市北区太夫浜１７４２番地",
    "lat": 37.9552677931979,
    "lng": 139.154300402377,
    "tel": "025-258-3993",
    "url": "http://matsuhama-hp.or.jp/sakuraen/",
    "pref": "新潟県",
    "city": "新潟市北区",
    "category": "rouken",
    "serviceType": "介護老人保健施設",
    "capacity": 0,
    "openDays": [],
    "openDaysNote": ""
  },
  {
    "id": "1550180325",
    "name": "介護老人保健施設江風苑",
    "kana": "カイゴロウジンホケンシセツコウフウエン",
    "address": "新潟県新潟市北区大迎1330",
    "lat": 37.8840024,
    "lng": 139.1723612,
    "tel": "025-387-7111",
    "url": "http://www.jyouyoukai.or.jp/",
    "pref": "新潟県",
    "city": "新潟市北区",
    "category": "rouken",
    "serviceType": "介護老人保健施設",
    "capacity": 0,
    "openDays": [],
    "openDaysNote": ""
  },
  {
    "id": "1550680027",
    "name": "介護老人保健施設　ヴィラ菅谷",
    "kana": "カイゴロウジンホケンシセツ　ウ゛ィラスガタニ",
    "address": "新潟県新発田市下石川766",
    "lat": 37.9658871,
    "lng": 139.4110223,
    "tel": "0254-31-2000",
    "url": "http://takeuchikai.net/villa/",
    "pref": "新潟県",
    "city": "新発田市",
    "category": "rouken",
    "serviceType": "介護老人保健施設",
    "capacity": 0,
    "openDays": [],
    "openDaysNote": ""
  },
  {
    "id": "1550680035",
    "name": "介護老人保健施設　二王子",
    "kana": "カイゴロウジンホケンシセツニノウジ",
    "address": "新潟県新発田市虎丸４５２番地",
    "lat": 37.9272262,
    "lng": 139.4149466,
    "tel": "0254-25-3737",
    "url": "http://www.mbc.or.jp",
    "pref": "新潟県",
    "city": "新発田市",
    "category": "rouken",
    "serviceType": "介護老人保健施設",
    "capacity": 100,
    "openDays": [],
    "openDaysNote": ""
  },
  {
    "id": "1550680001",
    "name": "介護老人保健施設　豊浦愛広苑",
    "kana": "トヨウラアイコウエン",
    "address": "新潟県新発田市荒町甲1611-8",
    "lat": 37.935479,
    "lng": 139.3218101,
    "tel": "0254-21-0065",
    "url": "http://www.aiko.or.jp",
    "pref": "新潟県",
    "city": "新発田市",
    "category": "rouken",
    "serviceType": "介護老人保健施設",
    "capacity": 100,
    "openDays": [],
    "openDaysNote": ""
  },
  {
    "id": "1550680019",
    "name": "介護老人保健施設いいでの里",
    "kana": "カイゴロウジンホケンシセツ　イイデノサト",
    "address": "新発田市金谷197番地",
    "lat": 37.9439814953995,
    "lng": 139.365881044844,
    "tel": "0254-22-5802",
    "url": "https://iidenosato.com",
    "pref": "新潟県",
    "city": "新発田市",
    "category": "rouken",
    "serviceType": "介護老人保健施設",
    "capacity": null,
    "openDays": [],
    "openDaysNote": ""
  },
  {
    "id": "1555080066",
    "name": "介護老人保健施設　汐彩の郷",
    "kana": "カイゴロウジンホケンシセツ　シオサイノサト",
    "address": "新潟県北蒲原郡聖籠町大字次第浜５３７２番地",
    "lat": 38.0185501,
    "lng": 139.2747597,
    "tel": "0254-28-0555",
    "url": "https://www.hakuaijinshikai.com/",
    "pref": "新潟県",
    "city": "聖籠町",
    "category": "rouken",
    "serviceType": "介護老人保健施設",
    "capacity": 135,
    "openDays": [],
    "openDaysNote": ""
  },
  {
    "id": "1551280017",
    "name": "介護老人保健施設　三面の里",
    "kana": "カイゴロウジンホケンシセツ　ミオモテノサト",
    "address": "新潟県村上市田端町16番7号",
    "lat": 38.223484544648,
    "lng": 139.463948509787,
    "tel": "0254-53-5330",
    "url": "http://www.sanpokukai.jp/",
    "pref": "新潟県",
    "city": "村上市",
    "category": "rouken",
    "serviceType": "介護老人保健施設",
    "capacity": 0,
    "openDays": [],
    "openDaysNote": ""
  },
  {
    "id": "1551280025",
    "name": "介護老人保健施設　優和の里",
    "kana": "カイゴロウジンホケンシセツ　ユウワノサト",
    "address": "新潟県村上市勝木1340-1",
    "lat": 38.4905512,
    "lng": 139.5164429,
    "tel": "0254-60-5000",
    "url": "http://sanpoku-hp.or.jp/",
    "pref": "新潟県",
    "city": "村上市",
    "category": "rouken",
    "serviceType": "介護老人保健施設",
    "capacity": 100,
    "openDays": [],
    "openDaysNote": ""
  },
  {
    "id": "1551280009",
    "name": "介護老人保健施設杏園",
    "kana": "カイゴロウジンホケンシセツキョウエン",
    "address": "村上市猿沢2222",
    "lat": 38.2866269,
    "lng": 139.5268258,
    "tel": "0254-60-2222",
    "url": "http://www.satomed.or.jp",
    "pref": "新潟県",
    "city": "村上市",
    "category": "rouken",
    "serviceType": "介護老人保健施設",
    "capacity": 0,
    "openDays": [],
    "openDaysNote": ""
  },
  {
    "id": "1552580019",
    "name": "介護老人保健施設　マチュアハウス中条",
    "kana": "カイゴロウジンホケンシセツ　マチュアハウスナカジョウ",
    "address": "胎内市中村浜字築地原６９９－１３６",
    "lat": 38.0686232805955,
    "lng": 139.350108293848,
    "tel": "0254-45-5111",
    "url": "http://n-jiseikai.jp/publics/index/6/",
    "pref": "新潟県",
    "city": "胎内市",
    "category": "rouken",
    "serviceType": "介護老人保健施設",
    "capacity": 0,
    "openDays": [],
    "openDaysNote": ""
  },
  {
    "id": "1552580027",
    "name": "介護老人保健施設　中条愛広苑",
    "kana": "カイゴロウジンホケンシセツ　ナカジョウアイコウエン",
    "address": "胎内市十二天91",
    "lat": 38.0915792,
    "lng": 139.4090899,
    "tel": "0254-46-5600",
    "url": "http://www.aiko.or.jp/",
    "pref": "新潟県",
    "city": "胎内市",
    "category": "rouken",
    "serviceType": "介護老人保健施設",
    "capacity": 0,
    "openDays": [],
    "openDaysNote": ""
  },
  {
    "id": "1552580001",
    "name": "介護老人保健施設やまぼうし",
    "kana": "カイゴロウジンホケンシセツヤマボウシ",
    "address": "新潟県胎内市下館字大開1522番地",
    "lat": 38.0816743242098,
    "lng": 139.445739117921,
    "tel": "0254-47-3303",
    "url": "https://hakujitsukai.com/kaigo",
    "pref": "新潟県",
    "city": "胎内市",
    "category": "rouken",
    "serviceType": "介護老人保健施設",
    "capacity": 93,
    "openDays": [],
    "openDaysNote": ""
  },
  {
    "id": "1550280083",
    "name": "介護老人保健施設　あらまち",
    "kana": "カイゴロウジンホケンシセツ　アラマチ",
    "address": "新潟県長岡市泉1－7－24",
    "lat": 37.4644798,
    "lng": 138.8542541,
    "tel": "0258－30－0388",
    "url": "http://www.nagaoka-iryou-seikyou.jp/index.html",
    "pref": "新潟県",
    "city": "長岡市",
    "category": "rouken",
    "serviceType": "介護老人保健施設",
    "capacity": 29,
    "openDays": [],
    "openDaysNote": ""
  },
  {
    "id": "1550280026",
    "name": "介護老人保健施設　サンプラザ長岡",
    "kana": "カイゴロウジンホケンシセツ　サンプラザナガオカ",
    "address": "長岡市三ッ郷屋町３５番地",
    "lat": 37.4508398836709,
    "lng": 138.815124112164,
    "tel": "0258-27-1515",
    "url": "http://www.sunplaza-nagaoka.jp",
    "pref": "新潟県",
    "city": "長岡市",
    "category": "rouken",
    "serviceType": "介護老人保健施設",
    "capacity": 0,
    "openDays": [],
    "openDaysNote": ""
  },
  {
    "id": "1550280091",
    "name": "介護老人保健施設　葵の園・長岡",
    "kana": "カイゴロウジンホケンシセツ　アオイノソノ・ナガオカ",
    "address": "新潟県長岡市稲保南三丁目882番2",
    "lat": 37.4775212054428,
    "lng": 138.868078013207,
    "tel": "0258-24-1100",
    "url": "https://www.aoikai.jp/nagaoka/",
    "pref": "新潟県",
    "city": "長岡市",
    "category": "rouken",
    "serviceType": "介護老人保健施設",
    "capacity": 60,
    "openDays": [],
    "openDaysNote": ""
  },
  {
    "id": "1570203727",
    "name": "介護老人保健施設　葵の園・長岡",
    "kana": "カイゴロウジンホケンシセツ　アオイノソノ・ナガオカ",
    "address": "新潟県長岡市稲保南三丁目882番2",
    "lat": 37.4776878807502,
    "lng": 138.867786141511,
    "tel": "0258-24-1100",
    "url": "http://www.aoikai.jp/",
    "pref": "新潟県",
    "city": "長岡市",
    "category": "rouken",
    "serviceType": "介護老人保健施設",
    "capacity": 40,
    "openDays": [],
    "openDaysNote": ""
  },
  {
    "id": "1550280000",
    "name": "介護老人保健施設　楽山苑",
    "kana": "カイゴロウジンホケンシセツ　ラクザンエン",
    "address": "長岡市宮沢327番地1",
    "lat": 37.510223123522,
    "lng": 138.784405752779,
    "tel": "0258-42-3500",
    "url": "http://www.mishima-hospital.or.jp/rakuzanen/index.html",
    "pref": "新潟県",
    "city": "長岡市",
    "category": "rouken",
    "serviceType": "介護老人保健施設",
    "capacity": 0,
    "openDays": [],
    "openDaysNote": ""
  },
  {
    "id": "1550280034",
    "name": "介護老人保健施設　桃李園",
    "kana": "カイゴロウジンホケンシセツ　トウリエン",
    "address": "長岡市西津町4630番地",
    "lat": 37.4265689,
    "lng": 138.772453,
    "tel": "0258-47-3003",
    "url": "https://tourien.jp/",
    "pref": "新潟県",
    "city": "長岡市",
    "category": "rouken",
    "serviceType": "介護老人保健施設",
    "capacity": 0,
    "openDays": [],
    "openDaysNote": ""
  },
  {
    "id": "1550280067",
    "name": "介護老人保健施設グリーンヒル与板",
    "kana": "カイゴロウジンホケンシセツグリーンヒルヨイタ",
    "address": "新潟県長岡市与板町槙原393番地8",
    "lat": 37.5179708952794,
    "lng": 138.79173545582,
    "tel": "0258-72-2500",
    "url": "http://nagaokasanko.or.jp/group/ghy/",
    "pref": "新潟県",
    "city": "長岡市",
    "category": "rouken",
    "serviceType": "介護老人保健施設",
    "capacity": 146,
    "openDays": [],
    "openDaysNote": ""
  },
  {
    "id": "1550280059",
    "name": "介護老人保健施設てらどまり",
    "kana": "カイゴロウジンホケンシセツテラドマリ",
    "address": "新潟県長岡市寺泊下桐850番地1",
    "lat": 37.6117835304604,
    "lng": 138.808587972214,
    "tel": "0256-97-3200",
    "url": "http://nagaokasanko.or.jp/",
    "pref": "新潟県",
    "city": "長岡市",
    "category": "rouken",
    "serviceType": "介護老人保健施設",
    "capacity": 147,
    "openDays": [],
    "openDaysNote": ""
  },
  {
    "id": "1550280042",
    "name": "悠遊苑",
    "kana": "ユウユウエン",
    "address": "新潟県長岡市大字日越337番地",
    "lat": 37.4365903,
    "lng": 138.7811994,
    "tel": "0258-47-8511",
    "url": "http://www.tatikawa.or.jp",
    "pref": "新潟県",
    "city": "長岡市",
    "category": "rouken",
    "serviceType": "介護老人保健施設",
    "capacity": 150,
    "openDays": [],
    "openDaysNote": ""
  },
  {
    "id": "1550280018",
    "name": "老人保健施設やすらぎ園",
    "kana": "ロウジンホケンシセツヤスラギエン",
    "address": "新潟県長岡市町田町５５５番地",
    "lat": 37.4177183,
    "lng": 138.8607298,
    "tel": "0258-33-5551",
    "url": "https://www.i-shiseikai.or.jp",
    "pref": "新潟県",
    "city": "長岡市",
    "category": "rouken",
    "serviceType": "介護老人保健施設",
    "capacity": 0,
    "openDays": [],
    "openDaysNote": ""
  },
  {
    "id": "1555380029",
    "name": "ユニット型介護老人保健施設　晴和会田上園",
    "kana": "ユニットガタカイゴロウジンホケンシセツ　セイワカイタガミエン",
    "address": "新潟県南蒲原郡田上町羽生田乙572-35",
    "lat": 37.6852113,
    "lng": 139.0620955,
    "tel": "0256-46-7777",
    "url": "http://www.seiwa-kai.jp",
    "pref": "新潟県",
    "city": "田上町",
    "category": "rouken",
    "serviceType": "介護老人保健施設",
    "capacity": null,
    "openDays": [],
    "openDaysNote": ""
  },
  {
    "id": "1555380003",
    "name": "介護老人保健施設　晴和会田上園",
    "kana": "カイゴロウジンホケンシセツ　セイワカイタガミエン",
    "address": "新潟県南蒲原郡田上町羽生田乙572-35",
    "lat": 37.6852113,
    "lng": 139.0620955,
    "tel": "0256-46-7777",
    "url": "http://www.seiwa-kai.jp",
    "pref": "新潟県",
    "city": "田上町",
    "category": "rouken",
    "serviceType": "介護老人保健施設",
    "capacity": null,
    "openDays": [],
    "openDaysNote": ""
  },
  {
    "id": "1552480004",
    "name": "介護老人保健施設越南苑",
    "kana": "カイゴロウジンホケンシセツエツナンエン",
    "address": "新潟県南魚沼市五日町２４０５番地",
    "lat": 37.1256737,
    "lng": 138.9028155,
    "tel": "025-776-3668",
    "url": "http://etunanen.com",
    "pref": "新潟県",
    "city": "南魚沼市",
    "category": "rouken",
    "serviceType": "介護老人保健施設",
    "capacity": 0,
    "openDays": [],
    "openDaysNote": ""
  },
  {
    "id": "1550580037",
    "name": "介護老人保健施設　さつき荘",
    "kana": "カイゴロウジンホケンシセツ　サツキソウ",
    "address": "新潟県柏崎市大字軽井川字十三本塚2791‐2",
    "lat": 37.34777205802,
    "lng": 138.595180188638,
    "tel": "0257-23-6255",
    "url": "",
    "pref": "新潟県",
    "city": "柏崎市",
    "category": "rouken",
    "serviceType": "介護老人保健施設",
    "capacity": 0,
    "openDays": [],
    "openDaysNote": ""
  },
  {
    "id": "1550580011",
    "name": "介護老人保健施設　米山爽風苑",
    "kana": "カイゴロウジンホケンシセツ　ヨネヤマソウフウエン",
    "address": "新潟県柏崎市大字茨目字二ツ池2071－1",
    "lat": 37.3533357634209,
    "lng": 138.586867844919,
    "tel": "0257-22-0111",
    "url": "http://www.tatikawa.or.jp",
    "pref": "新潟県",
    "city": "柏崎市",
    "category": "rouken",
    "serviceType": "介護老人保健施設",
    "capacity": 0,
    "openDays": [],
    "openDaysNote": ""
  },
  {
    "id": "1551680000",
    "name": "介護老人保健施設はねうまの里",
    "kana": "カイゴロウジンホケンシセツハネウマノサト",
    "address": "妙高市田町2丁目4番7号",
    "lat": 37.0208292387756,
    "lng": 138.252026607935,
    "tel": "0255-72-3199",
    "url": "http://www.keinansogo.jp",
    "pref": "新潟県",
    "city": "妙高市",
    "category": "rouken",
    "serviceType": "介護老人保健施設",
    "capacity": 0,
    "openDays": [],
    "openDaysNote": ""
  },
  {
    "id": "1551680018",
    "name": "介護老人保健施設新井愛広苑",
    "kana": "カイゴロウジンホケンシセツアライアイコウエン",
    "address": "妙高市大字小原新田528番地",
    "lat": 36.9744377991885,
    "lng": 138.268723271164,
    "tel": "0255-81-1181",
    "url": "http://www.aiko.or.jp",
    "pref": "新潟県",
    "city": "妙高市",
    "category": "rouken",
    "serviceType": "介護老人保健施設",
    "capacity": 100,
    "openDays": [],
    "openDaysNote": ""
  }
]