[
  {
    "id": "1357081326",
    "name": "オキドキ",
    "kana": "オキドキ",
    "address": "東京都あきる野市伊奈４７７番地１",
    "lat": 35.7331518,
    "lng": 139.2551193,
    "tel": "042-596-0111",
    "url": "http://www.syusenkai.or.jp",
    "pref": "東京都",
    "city": "あきる野市",
    "category": "rouken",
    "serviceType": "介護老人保健施設",
    "capacity": 51,
    "openDays": [],
    "openDaysNote": ""
  },
  {
    "id": "1357080526",
    "name": "介護老人保健施設　さくら",
    "kana": "カイゴロウジンホケンシセツ　サクラ",
    "address": "東京都あきる野市草花字南小宮３０７９番５",
    "lat": 35.7409554,
    "lng": 139.314736,
    "tel": "042-558-3300",
    "url": "https://老健さくら.net",
    "pref": "東京都",
    "city": "あきる野市",
    "category": "rouken",
    "serviceType": "介護老人保健施設",
    "capacity": 0,
    "openDays": [],
    "openDaysNote": ""
  },
  {
    "id": "1355280015",
    "name": "介護老人保健施設　リハビリパークあきる野",
    "kana": "カイゴロウジンホケンシセツ　リハビリパークアキルノ",
    "address": "東京都あきる野市渕上1介護老人保健施設　リハビリパークあきる野 介護老人保健施設　リハビリパークあきる野",
    "lat": 35.7238869,
    "lng": 139.2746462,
    "tel": "042-533-3402",
    "url": "http://www.rehabili-park.com/sisetu/akiruno/index.html",
    "pref": "東京都",
    "city": "あきる野市",
    "category": "rouken",
    "serviceType": "介護老人保健施設",
    "capacity": 0,
    "openDays": [],
    "openDaysNote": ""
  },
  {
    "id": "1357080013",
    "name": "介護老人保健施設デンマークイン若葉台",
    "kana": "カイゴロウジンホケンシセツデンマークインワカバダイ",
    "address": "東京都稲城市若葉台３－７－１",
    "lat": 35.6243789,
    "lng": 139.4646782,
    "tel": "042-331-3030",
    "url": "https://hilltop-roman.jp/",
    "pref": "東京都",
    "city": "稲城市",
    "category": "rouken",
    "serviceType": "介護老人保健施設",
    "capacity": 0,
    "openDays": [],
    "openDaysNote": ""
  },
  {
    "id": "1355380013",
    "name": "医療法人社団葵会　介護老人保健施設　葵の園・羽村",
    "kana": "イリョウホウジンシャダンアオイカイ　カイゴロウジンホケンシセツ　アオイノソノハムラ",
    "address": "東京都羽村市栄町三丁目3番3号",
    "lat": 35.7728501040497,
    "lng": 139.314131957533,
    "tel": "042-570-5701",
    "url": "http://www.aoikai.jp/hamura",
    "pref": "東京都",
    "city": "羽村市",
    "category": "rouken",
    "serviceType": "介護老人保健施設",
    "capacity": 0,
    "openDays": [],
    "openDaysNote": ""
  },
  {
    "id": "1357080971",
    "name": "介護老人保健施設　あかしあの里",
    "kana": "カイゴロウジンホケンシセツ　アカシアノサト",
    "address": "東京都羽村市玉川二丁目６番６号",
    "lat": 35.7490711,
    "lng": 139.3147413,
    "tel": "042-578-3555",
    "url": "http://www.shinaikai.jp/",
    "pref": "東京都",
    "city": "羽村市",
    "category": "rouken",
    "serviceType": "介護老人保健施設",
    "capacity": 0,
    "openDays": [],
    "openDaysNote": ""
  },
  {
    "id": "1357080484",
    "name": "介護老人保健施設　アルターかつしかばし",
    "kana": "カイゴロウジンホケンシセツ　アルターカツシカバシ",
    "address": "東京都葛飾区東金町7-30-14",
    "lat": 35.7781808,
    "lng": 139.8846724,
    "tel": "03-3607-5581",
    "url": "http://www.alter-katsushikabashi.com/",
    "pref": "東京都",
    "city": "葛飾区",
    "category": "rouken",
    "serviceType": "介護老人保健施設",
    "capacity": 77,
    "openDays": [],
    "openDaysNote": ""
  },
  {
    "id": "1357081433",
    "name": "介護老人保健施設　お花茶屋ロイヤルケアセンター",
    "kana": "カイゴロウジンホケンシセツ　オハナヂャヤロイヤルケアセンター",
    "address": "東京都葛飾区四つ木５-１９-７",
    "lat": 35.743708,
    "lng": 139.8408665,
    "tel": "03-5672-2701",
    "url": "http://www.ims.gr.jp/ohanajyaya/",
    "pref": "東京都",
    "city": "葛飾区",
    "category": "rouken",
    "serviceType": "介護老人保健施設",
    "capacity": 150,
    "openDays": [],
    "openDaysNote": ""
  },
  {
    "id": "1357080989",
    "name": "介護老人保健施設　ケア新小岩",
    "kana": "カイゴロウジンホケンシセツ　ケアシンコイワ",
    "address": "東京都葛飾区東新小岩２－１－１２",
    "lat": 35.722741,
    "lng": 139.8652651,
    "tel": "03-5671-6003",
    "url": "http://maruyamakai.or.jp/care-sinkoiwa/",
    "pref": "東京都",
    "city": "葛飾区",
    "category": "rouken",
    "serviceType": "介護老人保健施設",
    "capacity": 0,
    "openDays": [],
    "openDaysNote": ""
  },
  {
    "id": "1357080385",
    "name": "介護老人保健施設　花の木",
    "kana": "カイゴロウジンホケンシセツ　ハナノキ",
    "address": "東京都葛飾区新宿2丁目16番4号",
    "lat": 35.7609421,
    "lng": 139.8570359,
    "tel": "03-3826-8721",
    "url": "http://shinjinkai.net/",
    "pref": "東京都",
    "city": "葛飾区",
    "category": "rouken",
    "serviceType": "介護老人保健施設",
    "capacity": 0,
    "openDays": [],
    "openDaysNote": ""
  },
  {
    "id": "1357080963",
    "name": "介護老人保健施設　葛飾ロイヤルケアセンター",
    "kana": "カイゴロウジンホケンシセツ　カツシカロイヤルケアセンター",
    "address": "東京都葛飾区堀切二丁目６６番１７号",
    "lat": 35.7442801,
    "lng": 139.8315147,
    "tel": "03-3697-7100",
    "url": "http://www.ims.gr.jp/katsushika_royal/",
    "pref": "東京都",
    "city": "葛飾区",
    "category": "rouken",
    "serviceType": "介護老人保健施設",
    "capacity": 150,
    "openDays": [],
    "openDaysNote": ""
  },
  {
    "id": "1352280018",
    "name": "介護老人保健施設リハビリケアかつしか",
    "kana": "カイゴロウジンホケンシセツリハビリケアカツシカ",
    "address": "東京都葛飾区西新小岩3-37-8",
    "lat": 35.7224907,
    "lng": 139.8456644,
    "tel": "03-5672-1178",
    "url": "https://rc-katsushika.jp/",
    "pref": "東京都",
    "city": "葛飾区",
    "category": "rouken",
    "serviceType": "介護老人保健施設",
    "capacity": 120,
    "openDays": [],
    "openDaysNote": ""
  },
  {
    "id": "1357081458",
    "name": "介護老人保健施設青戸こはるびの里",
    "kana": "カイゴロウジンホケンシセツアオトコハルビノサト",
    "address": "東京都葛飾区青戸7-34-6",
    "lat": 35.7561705,
    "lng": 139.8569918,
    "tel": "03-3602-1011",
    "url": "http://www.e-kouzenkai.or.jp/",
    "pref": "東京都",
    "city": "葛飾区",
    "category": "rouken",
    "serviceType": "介護老人保健施設",
    "capacity": 0,
    "openDays": [],
    "openDaysNote": ""
  },
  {
    "id": "1357080054",
    "name": "東京愛育苑ケアレジデンス",
    "kana": "トウキョウアイイクエンケアレジデンス",
    "address": "東京都葛飾区水元３－１３－２",
    "lat": 35.7822974,
    "lng": 139.8634822,
    "tel": "03-5660-1190",
    "url": "http://www.aiikuen-gr.com",
    "pref": "東京都",
    "city": "葛飾区",
    "category": "rouken",
    "serviceType": "介護老人保健施設",
    "capacity": 0,
    "openDays": [],
    "openDaysNote": ""
  },
  {
    "id": "1357080203",
    "name": "介護老人保健施設　ヴィット",
    "kana": "カイゴロウジンホケンシセツ　ゔィット",
    "address": "東京都江戸川区船堀3丁目10番7号",
    "lat": 35.6816263,
    "lng": 139.8647776,
    "tel": "03-5696-3363",
    "url": "",
    "pref": "東京都",
    "city": "江戸川区",
    "category": "rouken",
    "serviceType": "介護老人保健施設",
    "capacity": 48,
    "openDays": [],
    "openDaysNote": ""
  },
  {
    "id": "1357080229",
    "name": "介護老人保健施設　ジェロントピア菊華",
    "kana": "カイゴロウジンホケンシセツ　ジェロントピアキクカ",
    "address": "東京都江戸川区鹿骨3丁目20番3号",
    "lat": 35.7166343,
    "lng": 139.8917599,
    "tel": "03-5666-3030",
    "url": "http://www.mitsuwakai.jp/jerontopia.htm",
    "pref": "東京都",
    "city": "江戸川区",
    "category": "rouken",
    "serviceType": "介護老人保健施設",
    "capacity": null,
    "openDays": [],
    "openDaysNote": ""
  },
  {
    "id": "1357080880",
    "name": "介護老人保健施設　やすらぎ",
    "kana": "カイゴロウジンホケンシセツ　ヤスラギ",
    "address": "東京都江戸川区瑞江１－３－２０",
    "lat": 35.6995924,
    "lng": 139.8942382,
    "tel": "03-3679-3749",
    "url": "https://www.jitushoukaiyasuragi.com/",
    "pref": "東京都",
    "city": "江戸川区",
    "category": "rouken",
    "serviceType": "介護老人保健施設",
    "capacity": 0,
    "openDays": [],
    "openDaysNote": ""
  },
  {
    "id": "1357081268",
    "name": "介護老人保健施設こでまり",
    "kana": "カイゴロウジンホケンシセツコデマリ",
    "address": "東京都江戸川区北葛西２－５－２１",
    "lat": 35.6758569,
    "lng": 139.8539952,
    "tel": "03-5658-9115",
    "url": "http://www.kiwakai.info",
    "pref": "東京都",
    "city": "江戸川区",
    "category": "rouken",
    "serviceType": "介護老人保健施設",
    "capacity": 0,
    "openDays": [],
    "openDaysNote": ""
  },
  {
    "id": "1357080542",
    "name": "介護老人保健施設ひまわり",
    "kana": "カイゴロウジンホケンシセツヒマワリ",
    "address": "東京都江戸川区東葛西8-19-16",
    "lat": 35.6560578,
    "lng": 139.8804885,
    "tel": "03-5658-5111",
    "url": "http://www.kiwakai.info",
    "pref": "東京都",
    "city": "江戸川区",
    "category": "rouken",
    "serviceType": "介護老人保健施設",
    "capacity": 0,
    "openDays": [],
    "openDaysNote": ""
  },
  {
    "id": "1357081292",
    "name": "介護老人保健施設めぐみ",
    "kana": "カイゴロウジンホケンシセツメグミ",
    "address": "東京都江戸川区東小松川2丁目7番1号",
    "lat": 35.697866,
    "lng": 139.8643968,
    "tel": "03-5661-3861",
    "url": "http://jisei-kai.jp/institution/megumi/",
    "pref": "東京都",
    "city": "江戸川区",
    "category": "rouken",
    "serviceType": "介護老人保健施設",
    "capacity": 0,
    "openDays": [],
    "openDaysNote": ""
  },
  {
    "id": "1352380016",
    "name": "森山ケアセンター介護老人保健施設",
    "kana": "モリヤマケアセンターカイゴロウジンホケンシセツ",
    "address": "東京都江戸川区江戸川五丁目4番23",
    "lat": 35.6772974,
    "lng": 139.8837791,
    "tel": "03-3689-1211",
    "url": "http://mc.moriyamaikai.or.jp/",
    "pref": "東京都",
    "city": "江戸川区",
    "category": "rouken",
    "serviceType": "介護老人保健施設",
    "capacity": 0,
    "openDays": [],
    "openDaysNote": ""
  },
  {
    "id": "1357080492",
    "name": "老人保健施設　くすのきの里",
    "kana": "ロウジンホケンシセツ　クスノキノサト",
    "address": "東京都江戸川区西葛西６－１９－８",
    "lat": 35.6626811,
    "lng": 139.8607535,
    "tel": "03-3675-2518",
    "url": "http://www.kusunokinosato.jp/",
    "pref": "東京都",
    "city": "江戸川区",
    "category": "rouken",
    "serviceType": "介護老人保健施設",
    "capacity": 66,
    "openDays": [],
    "openDaysNote": ""
  },
  {
    "id": "1357080377",
    "name": "老人保健施設ビーバス成光苑",
    "kana": "ロウジンホケンシセツビーバスセイコウエン",
    "address": "東京都江戸川区北小岩2-7-6",
    "lat": 35.7418249,
    "lng": 139.8829265,
    "tel": "03-5612-7018",
    "url": "http://www.vivaz-seikouen.com",
    "pref": "東京都",
    "city": "江戸川区",
    "category": "rouken",
    "serviceType": "介護老人保健施設",
    "capacity": 100,
    "openDays": [],
    "openDaysNote": ""
  },
  {
    "id": "1350880017",
    "name": "医療法人社団　湖聖会　介護老人保健施設　キーストーン",
    "kana": "イリョウホウジンシャダン　コセイカイ　カイゴロウジンホケンシセツキーストーン",
    "address": "東京都江東区亀戸３－３６－１",
    "lat": 35.7072746,
    "lng": 139.8193287,
    "tel": "03-3637-2121",
    "url": "https://www.koseikai-to.or.jp/index.html",
    "pref": "東京都",
    "city": "江東区",
    "category": "rouken",
    "serviceType": "介護老人保健施設",
    "capacity": 100,
    "openDays": [],
    "openDaysNote": ""
  },
  {
    "id": "1357081359",
    "name": "介護老人保健施設　かがやきライフ江東",
    "kana": "カイゴロウジンホケンシセツ　カガヤキライフコウトウ",
    "address": "東京都江東区枝川三丁目8番18号",
    "lat": 35.658744,
    "lng": 139.8119413,
    "tel": "03-3640-2111",
    "url": "http://www.junkoukai.com",
    "pref": "東京都",
    "city": "江東区",
    "category": "rouken",
    "serviceType": "介護老人保健施設",
    "capacity": 150,
    "openDays": [],
    "openDaysNote": ""
  },
  {
    "id": "1357081144",
    "name": "介護老人保健施設　メディケアイースト",
    "kana": "カイゴロウジンホケンシセツ　メディケアイースト",
    "address": "東京都江東区新砂３－３－３８",
    "lat": 35.665402,
    "lng": 139.8323084,
    "tel": "03-5665-6866",
    "url": "http://www.wafukai.or.jp",
    "pref": "東京都",
    "city": "江東区",
    "category": "rouken",
    "serviceType": "介護老人保健施設",
    "capacity": null,
    "openDays": [],
    "openDaysNote": ""
  },
  {
    "id": "1350880025",
    "name": "介護老人保健施設　葵の園・江東区",
    "kana": "カイゴロウジンホケンシセツ　アオイノソノ・コウトウク",
    "address": "東京都江東区北砂2-18-1",
    "lat": 35.6810861529942,
    "lng": 139.826382417197,
    "tel": "03-3640-2525",
    "url": "http://www.aoikai.jp/koutouku/",
    "pref": "東京都",
    "city": "江東区",
    "category": "rouken",
    "serviceType": "介護老人保健施設",
    "capacity": 0,
    "openDays": [],
    "openDaysNote": ""
  },
  {
    "id": "1357081086",
    "name": "介護老人保健施設　清らかの里",
    "kana": "カイゴロウジンホケンシセツ　キヨラカノサト",
    "address": "東京都江東区東砂四丁目２０番２号愛育メディカルセンター 愛育メディカルセンター",
    "lat": 35.6778312,
    "lng": 139.8386938,
    "tel": "03-5634-5411",
    "url": "https://www.aiiku-med.or.jp/",
    "pref": "東京都",
    "city": "江東区",
    "category": "rouken",
    "serviceType": "介護老人保健施設",
    "capacity": 100,
    "openDays": [],
    "openDaysNote": ""
  },
  {
    "id": "1357080286",
    "name": "東京城東病院附属介護老人保健施設",
    "kana": "トウキョウジョウトウビョウインフゾクカイゴロウジンホケンシセツ",
    "address": "東京都江東区亀戸９丁目13-1",
    "lat": 35.6952155,
    "lng": 139.8459348,
    "tel": "03-3637-2911",
    "url": "http://joto.jcho.go.jp/",
    "pref": "東京都",
    "city": "江東区",
    "category": "rouken",
    "serviceType": "介護老人保健施設",
    "capacity": 100,
    "openDays": [],
    "openDaysNote": ""
  },
  {
    "id": "1357080765",
    "name": "老人保健施設　らん　すずらん",
    "kana": "ロウジンホケンシセツ　ラン　スズラン",
    "address": "東京都江東区塩浜2-7-3",
    "lat": 35.6616103,
    "lng": 139.8067724,
    "tel": "03-5617-5678",
    "url": "seirankai-suzuki.jp",
    "pref": "東京都",
    "city": "江東区",
    "category": "rouken",
    "serviceType": "介護老人保健施設",
    "capacity": null,
    "openDays": [],
    "openDaysNote": ""
  },
  {
    "id": "1357080633",
    "name": "介護老人保健施設　ルネサンス麻布",
    "kana": "カイゴロウジンホケンシセツ　ルネサンスアザブ",
    "address": "東京都港区南麻布２丁目１０番２１号",
    "lat": 35.6479133,
    "lng": 139.7351621,
    "tel": "03-3453-5015",
    "url": "http://www.zai-kouseikai.or.jp",
    "pref": "東京都",
    "city": "港区",
    "category": "rouken",
    "serviceType": "介護老人保健施設",
    "capacity": 0,
    "openDays": [],
    "openDaysNote": ""
  },
  {
    "id": "1357081466",
    "name": "介護老人保健施設　新橋ばらの園",
    "kana": "カイゴロウジンホケンシセツ　シンバシバラノソノ",
    "address": "東京都港区新橋6-19-2",
    "lat": 35.6612067,
    "lng": 139.7537795,
    "tel": "03-3433-0182",
    "url": "http://fukushiplazasakuragawa.com",
    "pref": "東京都",
    "city": "港区",
    "category": "rouken",
    "serviceType": "介護老人保健施設",
    "capacity": 0,
    "openDays": [],
    "openDaysNote": ""
  },
  {
    "id": "1350380018",
    "name": "介護老人保健施設洛和ヴィラサラサ",
    "kana": "カイゴロウジンホケンシセツラクワウ゛ィラサラサ",
    "address": "東京都港区南麻布4-6-1",
    "lat": 35.6502183,
    "lng": 139.7268739,
    "tel": "03-6408-8676",
    "url": "http://www.rakuwa.or.jp",
    "pref": "東京都",
    "city": "港区",
    "category": "rouken",
    "serviceType": "介護老人保健施設",
    "capacity": 0,
    "openDays": [],
    "openDaysNote": ""
  },
  {
    "id": "1357081110",
    "name": "医療法人財団竹栄会介護老人保健施設けんちの苑すみだ川",
    "kana": "イリョウホウジンザイダンチクエイカイロウジンホケンシセツケンチノソノスミダガワ",
    "address": "東京都荒川区南千住3-9-3",
    "lat": 35.7305505,
    "lng": 139.8019791,
    "tel": "03-3807-0071",
    "url": "http://www.chikueikai.or.jp/",
    "pref": "東京都",
    "city": "荒川区",
    "category": "rouken",
    "serviceType": "介護老人保健施設",
    "capacity": 0,
    "openDays": [],
    "openDaysNote": ""
  },
  {
    "id": "1357080872",
    "name": "介護老人保健施設　ひぐらしの里",
    "kana": "カイゴロウジンホケンシセツヒグラシノサト",
    "address": "東京都荒川区西日暮里1-4-1",
    "lat": 35.7345603,
    "lng": 139.7775641,
    "tel": "03-3803-5153",
    "url": "http://higurashinosato.com/",
    "pref": "東京都",
    "city": "荒川区",
    "category": "rouken",
    "serviceType": "介護老人保健施設",
    "capacity": 100,
    "openDays": [],
    "openDaysNote": ""
  },
  {
    "id": "1357080476",
    "name": "社会福祉法人上智社会事業団　介護老人保健施設まちや",
    "kana": "シャカイフクシホウジンジョウチシャカイジギョウダン　カイゴロウジンホケンシセツマチヤ",
    "address": "東京都荒川区町屋4-9-5",
    "lat": 35.7471172,
    "lng": 139.7765856,
    "tel": "03-3892-5120",
    "url": "https://okada-masahiko.sakura.ne.jp/roken-machiya/index.html",
    "pref": "東京都",
    "city": "荒川区",
    "category": "rouken",
    "serviceType": "介護老人保健施設",
    "capacity": 0,
    "openDays": [],
    "openDaysNote": ""
  },
  {
    "id": "1353180019",
    "name": "介護老人保健施設にんじん健康ひろば",
    "kana": "カイゴロウジンホケンシセツニンジンケンコウヒロバ",
    "address": "東京都国分寺市西元町2-16-40",
    "lat": 35.6951534,
    "lng": 139.4693304,
    "tel": "042-329-2581",
    "url": "http://www.ninjin.or.jp",
    "pref": "東京都",
    "city": "国分寺市",
    "category": "rouken",
    "serviceType": "介護老人保健施設",
    "capacity": 0,
    "openDays": [],
    "openDaysNote": ""
  },
  {
    "id": "1357080823",
    "name": "国分寺市介護老人保健施設すこやか",
    "kana": "コクブンジシカイゴロウジンホケンシセツスコヤカ",
    "address": "東京都国分寺市泉町2-3-8国分寺市いずみプラザ 国分寺市いずみプラザ",
    "lat": 35.6963082902915,
    "lng": 139.468785426984,
    "tel": "042-321-3531",
    "url": "https://kokubunji-fukushi.com",
    "pref": "東京都",
    "city": "国分寺市",
    "category": "rouken",
    "serviceType": "介護老人保健施設",
    "capacity": 50,
    "openDays": [],
    "openDaysNote": ""
  },
  {
    "id": "1357080567",
    "name": "介護老人保健施設　あるふぁ国立",
    "kana": "カイゴロウジンホケンシセツ　アルファクニタチ",
    "address": "東京都国立市谷保6-21-13",
    "lat": 35.6753661,
    "lng": 139.4426861,
    "tel": "042-577-8121",
    "url": "http://www.sansuikai.jp/",
    "pref": "東京都",
    "city": "国立市",
    "category": "rouken",
    "serviceType": "介護老人保健施設",
    "capacity": 0,
    "openDays": [],
    "openDaysNote": ""
  },
  {
    "id": "1357080575",
    "name": "介護老人保健施設国立あおやぎ苑",
    "kana": "カイゴロウジンホケンシセツクニタチアオヤギエン",
    "address": "東京都国立市青柳3丁目5番地の1",
    "lat": 35.6875534,
    "lng": 139.42119,
    "tel": "042-526-5100",
    "url": "http://www.aoyagien.or.jp",
    "pref": "東京都",
    "city": "国立市",
    "category": "rouken",
    "serviceType": "介護老人保健施設",
    "capacity": 266,
    "openDays": [],
    "openDaysNote": ""
  },
  {
    "id": "1353480013",
    "name": "介護老人保健施設国立あおやぎ苑みのわ通り",
    "kana": "カイゴロウジンホケンシセツクニタチアオヤギエンミノワドオリ",
    "address": "東京都国立市青柳3丁目2番4号",
    "lat": 35.6858479,
    "lng": 139.4205513,
    "tel": "042‐519‐3111",
    "url": "http://www.aoyagien.or.jp",
    "pref": "東京都",
    "city": "国立市",
    "category": "rouken",
    "serviceType": "介護老人保健施設",
    "capacity": 17,
    "openDays": [],
    "openDaysNote": ""
  },
  {
    "id": "1357081417",
    "name": "医療法人社団永寿会　介護老人保健施設　三鷹中央リハケアセンター",
    "kana": "イリョウホウジンシャダンエイジュカイ　カイゴロウジンホケンシセツ　ミタカチュウオウリハケアセンター",
    "address": "東京都三鷹市下連雀9-2-7",
    "lat": 35.6845185,
    "lng": 139.5633699,
    "tel": "0422-70-0700",
    "url": "http://rehacare.webmedipr.jp/",
    "pref": "東京都",
    "city": "三鷹市",
    "category": "rouken",
    "serviceType": "介護老人保健施設",
    "capacity": 100,
    "openDays": [],
    "openDaysNote": ""
  },
  {
    "id": "1353680018",
    "name": "介護老人保健施設　三鷹ロイヤルの丘",
    "kana": "カイゴロウジンホケンシセツ　ミタカロイヤルノオカ",
    "address": "東京都三鷹市新川五丁目６番２４号",
    "lat": 35.6752855249521,
    "lng": 139.570915527786,
    "tel": "0422-71-2011",
    "url": "http://wam-town.jp/mitaka-oka/",
    "pref": "東京都",
    "city": "三鷹市",
    "category": "rouken",
    "serviceType": "介護老人保健施設",
    "capacity": 120,
    "openDays": [],
    "openDaysNote": ""
  },
  {
    "id": "1357080997",
    "name": "介護老人保健施設　太郎",
    "kana": "カイゴロウジンホケンシセツ　タロウ",
    "address": "東京都三鷹市下連雀4-2-8",
    "lat": 35.6934953,
    "lng": 139.5647029,
    "tel": "0422-76-6636",
    "url": "https://rokentaro.com/",
    "pref": "東京都",
    "city": "三鷹市",
    "category": "rouken",
    "serviceType": "介護老人保健施設",
    "capacity": 0,
    "openDays": [],
    "openDaysNote": ""
  },
  {
    "id": "1357080682",
    "name": "三鷹市牟礼老人保健施設はなかいどう",
    "kana": "ミタカシムレロウジンホケンシセツハナカイドウ",
    "address": "東京都三鷹市牟礼6-12-30",
    "lat": 35.6878377,
    "lng": 139.5743994,
    "tel": "0422-44-7700",
    "url": "http://www.mitaka.or.jp/",
    "pref": "東京都",
    "city": "三鷹市",
    "category": "rouken",
    "serviceType": "介護老人保健施設",
    "capacity": 0,
    "openDays": [],
    "openDaysNote": ""
  },
  {
    "id": "1357080658",
    "name": "介護老人保健施設グリーンポート恵比寿",
    "kana": "カイゴロウジンホケンシセツグリーンポートエビス",
    "address": "東京都渋谷区恵比寿3-36-5",
    "lat": 35.6423995,
    "lng": 139.7190582,
    "tel": "03-3444-2322",
    "url": "https://green-port.jp",
    "pref": "東京都",
    "city": "渋谷区",
    "category": "rouken",
    "serviceType": "介護老人保健施設",
    "capacity": 0,
    "openDays": [],
    "openDaysNote": ""
  },
  {
    "id": "1351380017",
    "name": "日本赤十字社総合福祉センター　介護老人保健施設　レクロス広尾",
    "kana": "ニッポンセキジュウジシャソウゴウフクシセンター　カイゴロウジンホケンシセツ　レクロスヒロオ",
    "address": "東京都渋谷区広尾4丁目1番23号",
    "lat": 35.6545246849502,
    "lng": 139.718978410976,
    "tel": "03-6861-4800",
    "url": "https://hiroo.jrc.or.jp/",
    "pref": "東京都",
    "city": "渋谷区",
    "category": "rouken",
    "serviceType": "介護老人保健施設",
    "capacity": 0,
    "openDays": [],
    "openDaysNote": ""
  },
  {
    "id": "1357081508",
    "name": "介護老人保健施設　秋桜",
    "kana": "カイゴロウジンホケンシセツ　コスモス",
    "address": "東京都小金井市前原町4丁目4番47号",
    "lat": 35.6865293693523,
    "lng": 139.504375641139,
    "tel": "042-385-8851",
    "url": "http://roken-cosmos.com",
    "pref": "東京都",
    "city": "小金井市",
    "category": "rouken",
    "serviceType": "介護老人保健施設",
    "capacity": 100,
    "openDays": [],
    "openDaysNote": ""
  },
  {
    "id": "1357080419",
    "name": "介護老人保健施設　小金井あんず苑",
    "kana": "カイゴロウジンホケンシセツ　コガネイアンズエン",
    "address": "東京都小金井市前原町5-3-24",
    "lat": 35.6877162,
    "lng": 139.4978729,
    "tel": "042-388-7511",
    "url": "https://tenseikai.jp/koganei/",
    "pref": "東京都",
    "city": "小金井市",
    "category": "rouken",
    "serviceType": "介護老人保健施設",
    "capacity": 0,
    "openDays": [],
    "openDaysNote": ""
  },
  {
    "id": "1354380014",
    "name": "介護老人保健施設　プラチナ・ヴィラ小平",
    "kana": "カイゴロウジンホケンシセツ　プラチナ・ウ゛ィラコダイラ",
    "address": "東京都小平市鈴木町１－８５－１プラチナ・ヴィラ小平 プラチナ・ヴィラ小平",
    "lat": 35.7257566,
    "lng": 139.4936925,
    "tel": "042-349-3505",
    "url": "https://www.platinum-villa.jp/kodaira.html",
    "pref": "東京都",
    "city": "小平市",
    "category": "rouken",
    "serviceType": "介護老人保健施設",
    "capacity": 150,
    "openDays": [],
    "openDaysNote": ""
  },
  {
    "id": "1357080344",
    "name": "介護老人保健施設けやきの郷",
    "kana": "カイゴロウジンホケンシセツケヤキノサト",
    "address": "東京都小平市小川町1丁目485番地",
    "lat": 35.7281844,
    "lng": 139.4402663,
    "tel": "042-345-5321",
    "url": "http://www.reimeikai.or.jp/index.html",
    "pref": "東京都",
    "city": "小平市",
    "category": "rouken",
    "serviceType": "介護老人保健施設",
    "capacity": 0,
    "openDays": [],
    "openDaysNote": ""
  },
  {
    "id": "1357081227",
    "name": "医療法人社団　佑樹会　介護老人保健施設　なごみの里",
    "kana": "イリョウホウジンシャダン　ユウキカイ　カイゴロウジンホケンシセツ　ナゴミノサト",
    "address": "東京都昭島市中神町1345番1",
    "lat": 35.7192184,
    "lng": 139.3862283,
    "tel": "042-549-0707",
    "url": "http://www.yuuki-kai.com",
    "pref": "東京都",
    "city": "昭島市",
    "category": "rouken",
    "serviceType": "介護老人保健施設",
    "capacity": 150,
    "openDays": [],
    "openDaysNote": ""
  },
  {
    "id": "1354080028",
    "name": "医療法人徳洲会　介護老人保健施設いちいの杜",
    "kana": "イリョウホウジントクシュウカイ　カイゴロウジンホケンシセツイチイノモリ",
    "address": "東京都昭島市武蔵野3-5-63",
    "lat": 35.7195245,
    "lng": 139.375271,
    "tel": "042-500-0151",
    "url": "https://www.ichiinomori.tokushukai.or.jp",
    "pref": "東京都",
    "city": "昭島市",
    "category": "rouken",
    "serviceType": "介護老人保健施設",
    "capacity": null,
    "openDays": [],
    "openDaysNote": ""
  },
  {
    "id": "1357080401",
    "name": "介護老人保健施設　アゼリア",
    "kana": "カイゴロウジンホケンシセツ　アゼリア",
    "address": "東京都昭島市田中町２丁目１番地３７",
    "lat": 35.7024723,
    "lng": 139.356387,
    "tel": "042-549-7799",
    "url": "http://www.syusenkai.or.jp",
    "pref": "東京都",
    "city": "昭島市",
    "category": "rouken",
    "serviceType": "介護老人保健施設",
    "capacity": 0,
    "openDays": [],
    "openDaysNote": ""
  },
  {
    "id": "1354080010",
    "name": "介護老人保健施設　アゼリアアネックス",
    "kana": "カイゴロウジンホケンシセツ　アゼリアアネックス",
    "address": "東京都昭島市昭和町４－６－２",
    "lat": 35.7101105,
    "lng": 139.3633417,
    "tel": "042-519-1990",
    "url": "http://www.syusenkai.or.jp",
    "pref": "東京都",
    "city": "昭島市",
    "category": "rouken",
    "serviceType": "介護老人保健施設",
    "capacity": 28,
    "openDays": [],
    "openDaysNote": ""
  },
  {
    "id": "1357081441",
    "name": "マイウェイ四谷",
    "kana": "マイウェイヨツヤ",
    "address": "東京都新宿区大京町1-3",
    "lat": 35.6866303,
    "lng": 139.7191286,
    "tel": "03-3355-0428",
    "url": "https://www.eisei.or.jp/myway/",
    "pref": "東京都",
    "city": "新宿区",
    "category": "rouken",
    "serviceType": "介護老人保健施設",
    "capacity": 0,
    "openDays": [],
    "openDaysNote": ""
  },
  {
    "id": "1350480016",
    "name": "介護老人保健施設　フォレスト西早稲田",
    "kana": "カゴロウジンホケンシセツフォレストニスァセダ",
    "address": "東京都新宿区西早稲田三丁目２７番２２号",
    "lat": 35.7117949,
    "lng": 139.7109547,
    "tel": "03-3232-8131",
    "url": "https://www.keiju.or.jp/",
    "pref": "東京都",
    "city": "新宿区",
    "category": "rouken",
    "serviceType": "介護老人保健施設",
    "capacity": 0,
    "openDays": [],
    "openDaysNote": ""
  },
  {
    "id": "1357081177",
    "name": "介護老人保健施設デンマークイン新宿",
    "kana": "カイゴロウジンホケンシセツデンマークインシンジュク",
    "address": "東京都新宿区原町二丁目43番地",
    "lat": 35.6989151,
    "lng": 139.7238219,
    "tel": "03-3341-3640",
    "url": "https://denmark-inn-sj.com/",
    "pref": "東京都",
    "city": "新宿区",
    "category": "rouken",
    "serviceType": "介護老人保健施設",
    "capacity": 160,
    "openDays": [],
    "openDaysNote": ""
  },
  {
    "id": "1357081029",
    "name": "介護老人保健施設　けんちの苑みずほ",
    "kana": "カイゴロウジンホケンシセツ　ケンチノソノミズホ",
    "address": "東京都西多摩郡瑞穂町大字長岡長谷部31－1",
    "lat": 35.7872753,
    "lng": 139.330011,
    "tel": "042-568-0200",
    "url": "http://www.kenchinosono-mizuho.com/",
    "pref": "東京都",
    "city": "瑞穂町",
    "category": "rouken",
    "serviceType": "介護老人保健施設",
    "capacity": 0,
    "openDays": [],
    "openDaysNote": ""
  },
  {
    "id": "1357081201",
    "name": "介護老人保健施設　菜の花",
    "kana": "カイゴロウジンホケンシセツ　ナノハナ",
    "address": "東京都西多摩郡瑞穂町殿ヶ谷454",
    "lat": 35.7577324,
    "lng": 139.356727,
    "tel": "042-568-5111",
    "url": "http://www.kanjinkai.net",
    "pref": "東京都",
    "city": "瑞穂町",
    "category": "rouken",
    "serviceType": "介護老人保健施設",
    "capacity": 0,
    "openDays": [],
    "openDaysNote": ""
  },
  {
    "id": "1357080195",
    "name": "ブース記念老人保健施設　グレイス",
    "kana": "ブースキネンロウジンホケンシセツ　グレイス",
    "address": "東京都杉並区和田１－４０－１５",
    "lat": 35.6911725,
    "lng": 139.6604809,
    "tel": "03-3380-1248",
    "url": "https://grace.salvationarmy.or.jp/",
    "pref": "東京都",
    "city": "杉並区",
    "category": "rouken",
    "serviceType": "介護老人保健施設",
    "capacity": 100,
    "openDays": [],
    "openDaysNote": ""
  },
  {
    "id": "1357080583",
    "name": "介護老人保健施設　ウェルファー",
    "kana": "カイゴロウジンホケンシセツ　ウェルファー",
    "address": "東京都杉並区堀ノ内１－６－６",
    "lat": 35.6831316,
    "lng": 139.6535235,
    "tel": "03-5305-7330",
    "url": "http://www.welfare.or.jp",
    "pref": "東京都",
    "city": "杉並区",
    "category": "rouken",
    "serviceType": "介護老人保健施設",
    "capacity": 106,
    "openDays": [],
    "openDaysNote": ""
  },
  {
    "id": "1357081284",
    "name": "介護老人保健施設シーダ・ウォーク",
    "kana": "カイゴロウジンホケンシセツ　シーダ・ウォーク",
    "address": "東京都杉並区桃井3-4-9",
    "lat": 35.7116972,
    "lng": 139.6056847,
    "tel": "03-5311-6262",
    "url": "http://kawakita.or.jp/cedar/",
    "pref": "東京都",
    "city": "杉並区",
    "category": "rouken",
    "serviceType": "介護老人保健施設",
    "capacity": 112,
    "openDays": [],
    "openDaysNote": ""
  },
  {
    "id": "1351580012",
    "name": "社会福祉法人浴風会　老健くぬぎ",
    "kana": "シャカイフクシホウジンヨクフウカイ　ロウケンクヌギ",
    "address": "東京都杉並区高井戸西1-12-1",
    "lat": 35.6803559980064,
    "lng": 139.609126859386,
    "tel": "03-5336-7701",
    "url": "https://www.yokufuukai.or.jp/facility/kunugi.html",
    "pref": "東京都",
    "city": "杉並区",
    "category": "rouken",
    "serviceType": "介護老人保健施設",
    "capacity": null,
    "openDays": [],
    "openDaysNote": ""
  },
  {
    "id": "1357080708",
    "name": "介護老人保健施設　ふかさわ",
    "kana": "カイゴロウジンホケンシセツ　フカサワ",
    "address": "東京都世田谷区深沢1-9-3",
    "lat": 35.6147595,
    "lng": 139.6609392,
    "tel": "03-3701-1164",
    "url": "http://www.roukennfukasawa.com/",
    "pref": "東京都",
    "city": "世田谷区",
    "category": "rouken",
    "serviceType": "介護老人保健施設",
    "capacity": 50,
    "openDays": [],
    "openDaysNote": ""
  },
  {
    "id": "1357080351",
    "name": "介護老人保健施設　ホスピア三軒茶屋",
    "kana": "カイゴロウジンホケンシセツ　ホスピアサンゲンヂャヤ",
    "address": "東京都世田谷区三軒茶屋1-16-13",
    "lat": 35.6401817,
    "lng": 139.6705404,
    "tel": "03-5430-5963",
    "url": "http://www.hospia-sangenjaya.net",
    "pref": "東京都",
    "city": "世田谷区",
    "category": "rouken",
    "serviceType": "介護老人保健施設",
    "capacity": 0,
    "openDays": [],
    "openDaysNote": ""
  },
  {
    "id": "1351280035",
    "name": "介護老人保健施設　梅ヶ丘",
    "kana": "カイゴロウジンホケンシセツ　ウメガオカ",
    "address": "東京都世田谷区松原六丁目37番地1号東京リハビリテーションセンター世田谷 東京リハビリテーションセンター世田谷",
    "lat": 35.6576848,
    "lng": 139.6506294,
    "tel": "03ｰ6379ｰ0427",
    "url": "http://www.tokyo-rehabili.jp/",
    "pref": "東京都",
    "city": "世田谷区",
    "category": "rouken",
    "serviceType": "介護老人保健施設",
    "capacity": 0,
    "openDays": [],
    "openDaysNote": ""
  },
  {
    "id": "1351280019",
    "name": "介護老人保健施設サンセール世田谷大蔵",
    "kana": "カイゴロウジンホケンシセツサンセールセタガヤオオクラ",
    "address": "東京都世田谷区大蔵1-3-22",
    "lat": 35.6356096,
    "lng": 139.6212172,
    "tel": "03-5727-9535",
    "url": "https://sin-setagayaokura.com/",
    "pref": "東京都",
    "city": "世田谷区",
    "category": "rouken",
    "serviceType": "介護老人保健施設",
    "capacity": 77,
    "openDays": [],
    "openDaysNote": ""
  },
  {
    "id": "1357081474",
    "name": "介護老人保健施設玉川すばる",
    "kana": "カイゴロウジンホケンシセツタマガワスバル",
    "address": "東京都世田谷区瀬田４－１－１４",
    "lat": 35.6178677,
    "lng": 139.6276759,
    "tel": "03-5797-5525",
    "url": "http://www.tamagawasubaru.com/",
    "pref": "東京都",
    "city": "世田谷区",
    "category": "rouken",
    "serviceType": "介護老人保健施設",
    "capacity": 156,
    "openDays": [],
    "openDaysNote": ""
  },
  {
    "id": "1357080336",
    "name": "老人保健施設　ビバ・フローラ",
    "kana": "ロウジンホケンシセツ　ビバ・フローラ",
    "address": "東京都世田谷区世田谷１丁目１６番２号",
    "lat": 35.6415949,
    "lng": 139.650431,
    "tel": "03-3420-7115",
    "url": "http://viva.setagaya-hp.or.jp/",
    "pref": "東京都",
    "city": "世田谷区",
    "category": "rouken",
    "serviceType": "介護老人保健施設",
    "capacity": 61,
    "openDays": [],
    "openDaysNote": ""
  },
  {
    "id": "1357080450",
    "name": "介護老人保健施設　たけおか",
    "kana": "カイゴロウジンホケンシセツタケオカ",
    "address": "東京都清瀬市竹丘2-3-21",
    "lat": 35.7652437,
    "lng": 139.5089158,
    "tel": "042-491-6003",
    "url": "https://www.roken.takeoka.or.jp",
    "pref": "東京都",
    "city": "清瀬市",
    "category": "rouken",
    "serviceType": "介護老人保健施設",
    "capacity": 100,
    "openDays": [],
    "openDaysNote": ""
  },
  {
    "id": "1357080369",
    "name": "介護老人保健施設ラビアンローゼ",
    "kana": "カイゴロウジンホケンシセツラビアンローゼ",
    "address": "東京都清瀬市下清戸三丁目385番地",
    "lat": 35.7848836,
    "lng": 139.5389711,
    "tel": "042-491-0922",
    "url": "http://www.kouzenkai.com/",
    "pref": "東京都",
    "city": "清瀬市",
    "category": "rouken",
    "serviceType": "介護老人保健施設",
    "capacity": 0,
    "openDays": [],
    "openDaysNote": ""
  },
  {
    "id": "1357080641",
    "name": "介護老人保健施設　ハートフル田無",
    "kana": "カイゴロウジンホケンシセツ　ハートフルタナシ",
    "address": "東京都西東京市向台町2-16-22",
    "lat": 35.7203941,
    "lng": 139.5394427,
    "tel": "042-468-5166",
    "url": "http://www.tokyo-seishinkai.or.jp/",
    "pref": "東京都",
    "city": "西東京市",
    "category": "rouken",
    "serviceType": "介護老人保健施設",
    "capacity": 70,
    "openDays": [],
    "openDaysNote": ""
  },
  {
    "id": "1355480029",
    "name": "介護老人保健施設　葵の園・ひばりが丘",
    "kana": "カイゴロウジンホケンシセツ　アオイノソノ　ヒバリガオカ",
    "address": "東京都西東京市ひばりが丘３丁目１番地８号",
    "lat": 35.7442762256947,
    "lng": 139.536780960678,
    "tel": "042-466-8811",
    "url": "https://www.aoikai.jp/hibarigaoka/",
    "pref": "東京都",
    "city": "西東京市",
    "category": "rouken",
    "serviceType": "介護老人保健施設",
    "capacity": 150,
    "openDays": [],
    "openDaysNote": ""
  },
  {
    "id": "1355480011",
    "name": "介護老人保健施設　武蔵野徳洲苑",
    "kana": "カイゴロウジンホケンシセツ　ムサシノトクシュウエン",
    "address": "東京都西東京市向台町3丁目5番57号",
    "lat": 35.7183494319017,
    "lng": 139.53333638532,
    "tel": "042-465-0800",
    "url": "http://musashino-tokushuen.jp/",
    "pref": "東京都",
    "city": "西東京市",
    "category": "rouken",
    "serviceType": "介護老人保健施設",
    "capacity": 150,
    "openDays": [],
    "openDaysNote": ""
  },
  {
    "id": "1357080625",
    "name": "メディケア梅の園",
    "kana": "メディケアウメノソノ",
    "address": "東京都青梅市駒木町3-594-1介護老人保健施設メディケア梅の園 介護老人保健施設メディケア梅の園",
    "lat": 35.7814016,
    "lng": 139.2516656,
    "tel": "0428-22-0155",
    "url": "https://wafukai.or.jp/mdu/",
    "pref": "東京都",
    "city": "青梅市",
    "category": "rouken",
    "serviceType": "介護老人保健施設",
    "capacity": 100,
    "openDays": [],
    "openDaysNote": ""
  },
  {
    "id": "1352880015",
    "name": "介護老人保健施設　西東京ケアセンター",
    "kana": "カイゴロウジンホケンシセツ　ニシトウキョウケアセンター",
    "address": "東京都青梅市友田町3-136-1",
    "lat": 35.7728545496008,
    "lng": 139.291087131561,
    "tel": "0428-25-1171",
    "url": "http://ntcc.or.jp/rouken/",
    "pref": "東京都",
    "city": "青梅市",
    "category": "rouken",
    "serviceType": "介護老人保健施設",
    "capacity": 0,
    "openDays": [],
    "openDaysNote": ""
  },
  {
    "id": "1357080153",
    "name": "介護老人保健施設　青梅すえひろ苑",
    "kana": "カイゴロウジンホケンシセツ　オウメスエヒロエン",
    "address": "東京都青梅市末広町１丁目４番地５",
    "lat": 35.7784008,
    "lng": 139.3133904,
    "tel": "0428-33-3111",
    "url": "http://www.iwaokai.or.jp/suehiro/",
    "pref": "東京都",
    "city": "青梅市",
    "category": "rouken",
    "serviceType": "介護老人保健施設",
    "capacity": 0,
    "openDays": [],
    "openDaysNote": ""
  },
  {
    "id": "1357080690",
    "name": "（医）成仁介護老人保健施設",
    "kana": "（イ）セイジンカイゴロウジンホケンシセツ",
    "address": "東京都足立区大谷田2丁目18番12号",
    "lat": 35.7836916,
    "lng": 139.8436364,
    "tel": "050-3734-5031",
    "url": "http://www.seijin.org/",
    "pref": "東京都",
    "city": "足立区",
    "category": "rouken",
    "serviceType": "介護老人保健施設",
    "capacity": null,
    "openDays": [],
    "openDaysNote": ""
  },
  {
    "id": "1357080179",
    "name": "医療法人財団　健和会　老人保健施設　千寿の郷",
    "kana": "イリョウホウジンザイダンケンワカイ　ロウジンホケンシセツ　センジュノサト",
    "address": "東京都足立区柳原2-33-6",
    "lat": 35.7479349,
    "lng": 139.814416,
    "tel": "03-3870-4621",
    "url": "http://senjyunosato.kenwa.or.jp/",
    "pref": "東京都",
    "city": "足立区",
    "category": "rouken",
    "serviceType": "介護老人保健施設",
    "capacity": 0,
    "openDays": [],
    "openDaysNote": ""
  },
  {
    "id": "1352180051",
    "name": "医療法人社団葵会　介護老人保健施設葵の園・椿",
    "kana": "イリョウホウジンシャダンアオイカイ　カイゴロウジンホケンシセツアオイノソノ　ツバキ",
    "address": "東京都足立区椿2-3-1葵の園・椿 葵の園・椿",
    "lat": 35.7786484373657,
    "lng": 139.757788468123,
    "tel": "03-5647-1122",
    "url": "http://www.aoikai.jp/",
    "pref": "東京都",
    "city": "足立区",
    "category": "rouken",
    "serviceType": "介護老人保健施設",
    "capacity": 150,
    "openDays": [],
    "openDaysNote": ""
  },
  {
    "id": "1352180044",
    "name": "介護老人保健施設　イルアカーサ",
    "kana": "カイゴロウジンホケンシセツ　イルアカーサ",
    "address": "東京都足立区六木4-9-10",
    "lat": 35.7973313,
    "lng": 139.8392255,
    "tel": "03-5673-1020",
    "url": "http://www.jiseikai-phcc.jp/",
    "pref": "東京都",
    "city": "足立区",
    "category": "rouken",
    "serviceType": "介護老人保健施設",
    "capacity": 100,
    "openDays": [],
    "openDaysNote": ""
  },
  {
    "id": "1357081367",
    "name": "介護老人保健施設　ホスピア東和",
    "kana": "カイゴロウジンホケンシセツ　ホスピアトウワ",
    "address": "東京都足立区東和４－７－８",
    "lat": 35.7727098,
    "lng": 139.8432616,
    "tel": "03-5673-3455",
    "url": "http://www.hospia-towa.com/",
    "pref": "東京都",
    "city": "足立区",
    "category": "rouken",
    "serviceType": "介護老人保健施設",
    "capacity": 172,
    "openDays": [],
    "openDaysNote": ""
  },
  {
    "id": "1357080252",
    "name": "介護老人保健施設　足立老人ケアセンター",
    "kana": "カイゴロウジンホケンシセツ　アダチロウジンケアセンター",
    "address": "東京都足立区保木間5-23-20",
    "lat": 35.8042026,
    "lng": 139.8046141,
    "tel": "03-5686-3965",
    "url": "http://tokyoadachi-med.jp/tag-rouken/",
    "pref": "東京都",
    "city": "足立区",
    "category": "rouken",
    "serviceType": "介護老人保健施設",
    "capacity": 92,
    "openDays": [],
    "openDaysNote": ""
  },
  {
    "id": "1357081094",
    "name": "介護老人保健施設　梅の木",
    "kana": "カイゴロウジンホケンシセツ　ウメノキ",
    "address": "東京都足立区青井4丁目29番23号",
    "lat": 35.7757477,
    "lng": 139.819983,
    "tel": "03-5888-8661",
    "url": "http://shinjinkai.net/",
    "pref": "東京都",
    "city": "足立区",
    "category": "rouken",
    "serviceType": "介護老人保健施設",
    "capacity": null,
    "openDays": [],
    "openDaysNote": ""
  },
  {
    "id": "1352180036",
    "name": "介護老人保健施設あさひ",
    "kana": "カイゴロウジンホケンシセツアサヒ",
    "address": "東京都足立区保木間4-41-12",
    "lat": 35.8000809,
    "lng": 139.8074972,
    "tel": "03-5856-7010",
    "url": "http://www.tokyo-asahi.or.jp/",
    "pref": "東京都",
    "city": "足立区",
    "category": "rouken",
    "serviceType": "介護老人保健施設",
    "capacity": 126,
    "openDays": [],
    "openDaysNote": ""
  },
  {
    "id": "1357081003",
    "name": "介護老人保健施設いずみ",
    "kana": "カイゴロウジンホケンシセツイズミ",
    "address": "東京都足立区西新井５丁目３５番２号",
    "lat": 35.785596,
    "lng": 139.7757367,
    "tel": "03-5838-2277",
    "url": "http://www.izumikinen.or.jp",
    "pref": "東京都",
    "city": "足立区",
    "category": "rouken",
    "serviceType": "介護老人保健施設",
    "capacity": 100,
    "openDays": [],
    "openDaysNote": ""
  },
  {
    "id": "1357080302",
    "name": "介護老人保健施設しらさぎ",
    "kana": "カイゴロウジンホケンシセツシラサギ",
    "address": "東京都足立区梅田八丁目12番10号",
    "lat": 35.772032331423,
    "lng": 139.794763706746,
    "tel": "03-5681-5001",
    "url": "http://www.fukujukaigr.or.jp",
    "pref": "東京都",
    "city": "足立区",
    "category": "rouken",
    "serviceType": "介護老人保健施設",
    "capacity": 3,
    "openDays": [],
    "openDaysNote": ""
  },
  {
    "id": "1357081136",
    "name": "介護老人保健施設むくげのいえ",
    "kana": "カイゴロウジンホケンシセツムクゲノイエ",
    "address": "東京都足立区西新井本町1-25-36",
    "lat": 35.7747226,
    "lng": 139.7795477,
    "tel": "03-5838-0788",
    "url": "https://mukugenoie.com/",
    "pref": "東京都",
    "city": "足立区",
    "category": "rouken",
    "serviceType": "介護老人保健施設",
    "capacity": 120,
    "openDays": [],
    "openDaysNote": ""
  },
  {
    "id": "1357080468",
    "name": "介護老人保健施設レーベンハウス",
    "kana": "カイゴロウジンホケンシセツレーベンハウス",
    "address": "東京都足立区西新井本町２－２３－１",
    "lat": 35.7751139,
    "lng": 139.7725095,
    "tel": "03-3854-4761",
    "url": "http://www.hachiyokai.or.jp",
    "pref": "東京都",
    "city": "足立区",
    "category": "rouken",
    "serviceType": "介護老人保健施設",
    "capacity": 100,
    "openDays": [],
    "openDaysNote": ""
  },
  {
    "id": "1352180010",
    "name": "水野介護老人保健施設",
    "kana": "ミズノカイゴロウジンホケンシセツ",
    "address": "東京都足立区西新井６丁目２４-１３",
    "lat": 35.7814485702465,
    "lng": 139.775514665607,
    "tel": "03-3898-0022",
    "url": "http://www.mizuno.or.jp/rouken/",
    "pref": "東京都",
    "city": "足立区",
    "category": "rouken",
    "serviceType": "介護老人保健施設",
    "capacity": 0,
    "openDays": [],
    "openDaysNote": ""
  },
  {
    "id": "1352180028",
    "name": "千壽介護老人保健施設",
    "kana": "センジュカイゴロウジンホケンシセツ",
    "address": "東京都足立区千住中居町29-6",
    "lat": 35.7514175,
    "lng": 139.797417,
    "tel": "03-5284-0088",
    "url": "https://www.mct.or.jp/",
    "pref": "東京都",
    "city": "足立区",
    "category": "rouken",
    "serviceType": "介護老人保健施設",
    "capacity": 0,
    "openDays": [],
    "openDaysNote": ""
  },
  {
    "id": "1357081045",
    "name": "あい介護老人保健施設",
    "kana": "アイカイゴロウジンホケンシセツ",
    "address": "東京都多摩市中沢1-17-38",
    "lat": 35.6221716,
    "lng": 139.4126853,
    "tel": "042-374-7111",
    "url": "https://www.kawakita.or.jp/aisafetynet/airoken/",
    "pref": "東京都",
    "city": "多摩市",
    "category": "rouken",
    "serviceType": "介護老人保健施設",
    "capacity": 0,
    "openDays": [],
    "openDaysNote": ""
  },
  {
    "id": "1357080617",
    "name": "介護老人保健施設聖の郷",
    "kana": "カイゴロウジンホケンシセツヒジリノサト",
    "address": "東京都多摩市連光寺2-69-6",
    "lat": 35.6394318,
    "lng": 139.4537672,
    "tel": "042-373-2220",
    "url": "https://hijirinosato.jp/",
    "pref": "東京都",
    "city": "多摩市",
    "category": "rouken",
    "serviceType": "介護老人保健施設",
    "capacity": 100,
    "openDays": [],
    "openDaysNote": ""
  },
  {
    "id": "1357081011",
    "name": "浅草介護老人保健施設",
    "kana": "アサクサカイゴロウジンホケンシセツ",
    "address": "東京都台東区寿４－８－２",
    "lat": 35.708966,
    "lng": 139.7918699,
    "tel": "03-5806-0088",
    "url": "http://www.mct.or.jp",
    "pref": "東京都",
    "city": "台東区",
    "category": "rouken",
    "serviceType": "介護老人保健施設",
    "capacity": 100,
    "openDays": [],
    "openDaysNote": ""
  },
  {
    "id": "1350680011",
    "name": "台東区立老人保健施設千束",
    "kana": "タイトウクリツロウジンホケンシセツセンゾク",
    "address": "東京都台東区千束３－２０－５",
    "lat": 35.7228232,
    "lng": 139.7926163,
    "tel": "03-3876-1002",
    "url": "http://taito.jadecom.or.jp/",
    "pref": "東京都",
    "city": "台東区",
    "category": "rouken",
    "serviceType": "介護老人保健施設",
    "capacity": 0,
    "openDays": [],
    "openDaysNote": ""
  },
  {
    "id": "1357081532",
    "name": "介護老人保健施設　アクア東糀谷",
    "kana": "カイゴロウジンホケンシセツ　アクアヒガシコウジヤ",
    "address": "東京都大田区東糀谷六丁目４番１７号",
    "lat": 35.5592414,
    "lng": 139.7510266,
    "tel": "03-5735-0123",
    "url": "http://www.zenkoukai.jp/",
    "pref": "東京都",
    "city": "大田区",
    "category": "rouken",
    "serviceType": "介護老人保健施設",
    "capacity": 0,
    "openDays": [],
    "openDaysNote": ""
  },
  {
    "id": "1351180029",
    "name": "介護老人保健施設　和光の園",
    "kana": "カイゴロウジンホケンシセツ　ワコウノソノ",
    "address": "東京都大田区大森西4-12-1",
    "lat": 35.5726516624898,
    "lng": 139.723116531213,
    "tel": "03-6410-8525",
    "url": "http://waconosono-wacokai.jp/",
    "pref": "東京都",
    "city": "大田区",
    "category": "rouken",
    "serviceType": "介護老人保健施設",
    "capacity": 116,
    "openDays": [],
    "openDaysNote": ""
  },
  {
    "id": "1357081409",
    "name": "介護老人保健施設コージーハウスはすぬま",
    "kana": "カイゴロウジンホケンシセツコージーハウスハスヌマ",
    "address": "東京都大田区東矢口３丁目８番１１号",
    "lat": 35.5632482,
    "lng": 139.7061355,
    "tel": "03-5711-8220",
    "url": "http://www.seikou-kai.jp/cozy/",
    "pref": "東京都",
    "city": "大田区",
    "category": "rouken",
    "serviceType": "介護老人保健施設",
    "capacity": 100,
    "openDays": [],
    "openDaysNote": ""
  },
  {
    "id": "1357081219",
    "name": "社会医療法人財団　仁医会　介護老人保健施設　大森平和の里",
    "kana": "シャカイイリョウホウジンザイダン　ジンイカイ　カイゴロウジンホケンシセツ　オオモリヘイワノサト",
    "address": "東京都大田区大森本町１丁目７番６号",
    "lat": 35.5850458,
    "lng": 139.7367565,
    "tel": "03-3767-7512",
    "url": "http://www.makita-hospo.or.jp/omori/",
    "pref": "東京都",
    "city": "大田区",
    "category": "rouken",
    "serviceType": "介護老人保健施設",
    "capacity": null,
    "openDays": [],
    "openDaysNote": ""
  },
  {
    "id": "1357081243",
    "name": "大田ナーシングホーム翔裕園",
    "kana": "オオタナーシングホームショウユウエン",
    "address": "東京都大田区東六郷１－１２－１1",
    "lat": 35.5538191,
    "lng": 139.7196373,
    "tel": "03-3736-1240",
    "url": "http://www.chojumura.or.jp/ota-n/index.htm",
    "pref": "東京都",
    "city": "大田区",
    "category": "rouken",
    "serviceType": "介護老人保健施設",
    "capacity": 100,
    "openDays": [],
    "openDaysNote": ""
  },
  {
    "id": "1357081250",
    "name": "中央区立介護老人保健施設リハポート明石",
    "kana": "チュウオウクリツカイゴロウジンホケンシセツリハポートアカシ",
    "address": "東京都中央区明石町1-6",
    "lat": 35.6693091,
    "lng": 139.7767028,
    "tel": "03-3545-9911",
    "url": "http://www.chuo-med.or.jp/",
    "pref": "東京都",
    "city": "中央区",
    "category": "rouken",
    "serviceType": "介護老人保健施設",
    "capacity": 0,
    "openDays": [],
    "openDaysNote": ""
  },
  {
    "id": "1357081540",
    "name": "リハビリテーションセンター江古田の森",
    "kana": "リハビリテーションセンターエゴタノモリ",
    "address": "東京都中野区江古田3-14-19",
    "lat": 35.729588,
    "lng": 139.665365,
    "tel": "03-5318-3711",
    "url": "http://www.kaigo-egota.com",
    "pref": "東京都",
    "city": "中野区",
    "category": "rouken",
    "serviceType": "介護老人保健施設",
    "capacity": 100,
    "openDays": [],
    "openDaysNote": ""
  },
  {
    "id": "1351480015",
    "name": "介護老人保健施設　中野すみれ苑",
    "kana": "カイゴロウジンホケンシセツナカノスミレエン",
    "address": "東京都中野区弥生町6丁目7番16号",
    "lat": 35.6860807,
    "lng": 139.660993,
    "tel": "03-6382-6360",
    "url": "http://www.sumire.or.jp/co_search01.html",
    "pref": "東京都",
    "city": "中野区",
    "category": "rouken",
    "serviceType": "介護老人保健施設",
    "capacity": 64,
    "openDays": [],
    "openDaysNote": ""
  },
  {
    "id": "1357080609",
    "name": "マイライフ尾根道",
    "kana": "マイライフオネミチ",
    "address": "東京都町田市常盤町3547番地2",
    "lat": 35.5847622,
    "lng": 139.4036178,
    "tel": "042-798-1788",
    "url": "http://www.kyuwakai.org/",
    "pref": "東京都",
    "city": "町田市",
    "category": "rouken",
    "serviceType": "介護老人保健施設",
    "capacity": 0,
    "openDays": [],
    "openDaysNote": ""
  },
  {
    "id": "1357081557",
    "name": "医療法人社団　康心会　介護老人保健施設　ふれあいの町田",
    "kana": "イリョウホウジンシャダンコウシンカイ　カイゴロウジンホケンシセツ　フレアイノマチダ",
    "address": "東京都町田市小山ヶ丘１－３－７",
    "lat": 35.5978462,
    "lng": 139.3824749,
    "tel": "042-798-2001",
    "url": "http://www.fureai-g.or.jp/machida-rk/",
    "pref": "東京都",
    "city": "町田市",
    "category": "rouken",
    "serviceType": "介護老人保健施設",
    "capacity": 0,
    "openDays": [],
    "openDaysNote": ""
  },
  {
    "id": "1353280017",
    "name": "介護老人保健施設　オネスティ南町田",
    "kana": "カイゴロウジンホケンシセツ　オネスティミナミマチダ",
    "address": "東京都町田市鶴間7丁目3番3号",
    "lat": 35.5071703,
    "lng": 139.4778454,
    "tel": "042-788-0373",
    "url": "http://honesty.eisei.or.jp/",
    "pref": "東京都",
    "city": "町田市",
    "category": "rouken",
    "serviceType": "介護老人保健施設",
    "capacity": 150,
    "openDays": [],
    "openDaysNote": ""
  },
  {
    "id": "1357080245",
    "name": "介護老人保健施設　サンシルバー町田",
    "kana": "カイゴロウジンホケンシセツ　サンシルバーマチダ",
    "address": "東京都町田市相原町２３７３番１",
    "lat": 35.6132973,
    "lng": 139.3141664,
    "tel": "042-770-2551",
    "url": "http://www.kyoujo.or.jp/sunsilver/index.html",
    "pref": "東京都",
    "city": "町田市",
    "category": "rouken",
    "serviceType": "介護老人保健施設",
    "capacity": 100,
    "openDays": [],
    "openDaysNote": ""
  },
  {
    "id": "1357080930",
    "name": "介護老人保健施設　ハピネスせりがや",
    "kana": "カイゴロウジンホケンシセツ　ハピネスセリガヤ",
    "address": "東京都町田市原町田４－２７－２９",
    "lat": 35.5437084197639,
    "lng": 139.454814264418,
    "tel": "042-739-5711",
    "url": "http://www.happiness-serigaya.com/",
    "pref": "東京都",
    "city": "町田市",
    "category": "rouken",
    "serviceType": "介護老人保健施設",
    "capacity": 0,
    "openDays": [],
    "openDaysNote": ""
  },
  {
    "id": "1357080146",
    "name": "介護老人保健施設町田さくらんぼ",
    "kana": "カイゴロウジンホケンシセツマチダサクランボ",
    "address": "東京都町田市小野路町１６３２番地",
    "lat": 35.5961451,
    "lng": 139.4456415,
    "tel": "042-734-9500",
    "url": "http://www.tsurukawasakura.or.jp",
    "pref": "東京都",
    "city": "町田市",
    "category": "rouken",
    "serviceType": "介護老人保健施設",
    "capacity": 120,
    "openDays": [],
    "openDaysNote": ""
  },
  {
    "id": "1357080799",
    "name": "医療法人社団心身会　介護老人保健施設いなほ",
    "kana": "イリョウホウジンシャダンシンシンカイ　カイゴロウジンホケンシセツイナホ",
    "address": "東京都調布市染地２丁目３４番２１号",
    "lat": 35.6382554,
    "lng": 139.5535463,
    "tel": "042-443-0502",
    "url": "http://www.shinshinkai.com",
    "pref": "東京都",
    "city": "調布市",
    "category": "rouken",
    "serviceType": "介護老人保健施設",
    "capacity": 0,
    "openDays": [],
    "openDaysNote": ""
  },
  {
    "id": "1357080211",
    "name": "介護老人保健施設　花水木",
    "kana": "カイゴロウジンホケンシセツ　ハナミズキ",
    "address": "東京都調布市深大寺北町四丁目１７番地１",
    "lat": 35.6795681411878,
    "lng": 139.551931719014,
    "tel": "042-441-1221",
    "url": "http://www.roken-hanamizuki.com",
    "pref": "東京都",
    "city": "調布市",
    "category": "rouken",
    "serviceType": "介護老人保健施設",
    "capacity": 150,
    "openDays": [],
    "openDaysNote": ""
  },
  {
    "id": "1357080161",
    "name": "介護老人保健施設グリーンガーデン青樹",
    "kana": "カイゴロウジンホケンシセツグリーンガーデンセイジュ",
    "address": "東京都調布市上石原3丁目33番地の17",
    "lat": 35.6506147961494,
    "lng": 139.525213250926,
    "tel": "042-483-1050",
    "url": "http://www.seiju.jp/",
    "pref": "東京都",
    "city": "調布市",
    "category": "rouken",
    "serviceType": "介護老人保健施設",
    "capacity": 0,
    "openDays": [],
    "openDaysNote": ""
  },
  {
    "id": "1357080062",
    "name": "介護老人保健施設フロリール調布",
    "kana": "カイゴロウジンホケンシセツフロリールチョウフ",
    "address": "東京都調布市下石原3-45-1",
    "lat": 35.6509588,
    "lng": 139.5326915,
    "tel": "042-484-2627",
    "url": "http://www.tokokai.or.jp",
    "pref": "東京都",
    "city": "調布市",
    "category": "rouken",
    "serviceType": "介護老人保健施設",
    "capacity": 0,
    "openDays": [],
    "openDaysNote": ""
  },
  {
    "id": "1357081516",
    "name": "ケア東久留米",
    "kana": "ケアヒガシクルメ",
    "address": "東京都東久留米市幸町3-11-10介護老人保健施設　ケア東久留米 介護老人保健施設　ケア東久留米",
    "lat": 35.7583807,
    "lng": 139.5216066,
    "tel": "042-479-2600",
    "url": "https://care-higashikurume.maruyamakai.jp",
    "pref": "東京都",
    "city": "東久留米市",
    "category": "rouken",
    "serviceType": "介護老人保健施設",
    "capacity": 0,
    "openDays": [],
    "openDaysNote": ""
  },
  {
    "id": "1357080815",
    "name": "介護老人保健施設　多摩すずらん",
    "kana": "カイゴロウジンホケンシセツ　タマスズラン",
    "address": "東京都東村山市青葉町2-27-1",
    "lat": 35.7624328,
    "lng": 139.4917702,
    "tel": "042-393-0911",
    "url": "http://www.sinsinkai.com/index.html",
    "pref": "東京都",
    "city": "東村山市",
    "category": "rouken",
    "serviceType": "介護老人保健施設",
    "capacity": 0,
    "openDays": [],
    "openDaysNote": ""
  },
  {
    "id": "1357080039",
    "name": "介護老人保健施設　東京ばんなん白光園",
    "kana": "カイゴロウジンホケンシセツトウキョウバンナンハッコウエン",
    "address": "東京都東村山市諏訪町二丁目２６番地１",
    "lat": 35.7719856200316,
    "lng": 139.463783806654,
    "tel": "042-391-6114",
    "url": "http://www.bannan.jp/",
    "pref": "東京都",
    "city": "東村山市",
    "category": "rouken",
    "serviceType": "介護老人保健施設",
    "capacity": 86,
    "openDays": [],
    "openDaysNote": ""
  },
  {
    "id": "1357080278",
    "name": "介護老人保健施設グリーン・ボイス",
    "kana": "カイゴロウジンホケンシセツ　グリーン・ボイス",
    "address": "東京都東村山市萩山町3-31-2",
    "lat": 35.7439783,
    "lng": 139.4681618,
    "tel": "042-392-8611",
    "url": "http://ryokufuusou.com/",
    "pref": "東京都",
    "city": "東村山市",
    "category": "rouken",
    "serviceType": "介護老人保健施設",
    "capacity": 118,
    "openDays": [],
    "openDaysNote": ""
  },
  {
    "id": "1357080732",
    "name": "公益財団法人結核予防会　介護老人保健施設保生の森",
    "kana": "コウエキザイダンホウジンケッカクヨボウカイ　カイゴロウジンホケンシセツホセイノモリ",
    "address": "東京都東村山市諏訪町３丁目６番地１",
    "lat": 35.7708839,
    "lng": 139.4619393,
    "tel": "042-391-6310",
    "url": "https://www.jata-hosei.jp",
    "pref": "東京都",
    "city": "東村山市",
    "category": "rouken",
    "serviceType": "介護老人保健施設",
    "capacity": 0,
    "openDays": [],
    "openDaysNote": ""
  },
  {
    "id": "1352780017",
    "name": "社会医療法人社団愛有会介護老人保健施設久米川",
    "kana": "シャカイイリョウホウジンシャダンアイユウカイカイゴロウジンホケンシセツクメガワ",
    "address": "東京都東村山市本町4-7-14",
    "lat": 35.754770756848,
    "lng": 139.46976025582,
    "tel": "042-313-0710",
    "url": "https://aiyukai-group.or.jp/",
    "pref": "東京都",
    "city": "東村山市",
    "category": "rouken",
    "serviceType": "介護老人保健施設",
    "capacity": null,
    "openDays": [],
    "openDaysNote": ""
  },
  {
    "id": "1352780025",
    "name": "社会医療法人社団愛有会介護老人保健施設久米川",
    "kana": "シャカイイリョウホウジンシャダンアイユウカイカイゴロウジンホケンシセツクメガワ",
    "address": "東京都東村山市本町4-7-14",
    "lat": 35.7547489900394,
    "lng": 139.469781713492,
    "tel": "042-313-0710",
    "url": "https://aiyukai-group.or.jp/kumegawa/",
    "pref": "東京都",
    "city": "東村山市",
    "category": "rouken",
    "serviceType": "介護老人保健施設",
    "capacity": null,
    "openDays": [],
    "openDaysNote": ""
  },
  {
    "id": "1354680017",
    "name": "介護老人保健施設　プラチナ・ヴィラ東大和",
    "kana": "カイゴロウジンホケンシセツ　プラチナ・ウ゛ィラ　ヒガシヤマト",
    "address": "東京都東大和市芋窪6-1284-1",
    "lat": 35.7505516,
    "lng": 139.4127083,
    "tel": "042-843-6557",
    "url": "https://www.platinum-villa.jp/higashiyamato.html",
    "pref": "東京都",
    "city": "東大和市",
    "category": "rouken",
    "serviceType": "介護老人保健施設",
    "capacity": 0,
    "openDays": [],
    "openDaysNote": ""
  },
  {
    "id": "1357080443",
    "name": "介護老人保健施設　東大和ケアセンター",
    "kana": "カイゴロウジンホケンシセツ　ヒガシヤマトケアセンター",
    "address": "東京都東大和市南街1-13-1",
    "lat": 35.7414641,
    "lng": 139.4316596,
    "tel": "042-566-6631",
    "url": "http://www.yamatokai.or.jp",
    "pref": "東京都",
    "city": "東大和市",
    "category": "rouken",
    "serviceType": "介護老人保健施設",
    "capacity": 0,
    "openDays": [],
    "openDaysNote": ""
  },
  {
    "id": "1357081391",
    "name": "介護老人保健施設　ウェルピア白寿",
    "kana": "カイゴロウジンホケンシセツ　ウェルピアハクジュ",
    "address": "東京都西多摩郡日の出町平井3820番地",
    "lat": 35.7448130730695,
    "lng": 139.271900465021,
    "tel": "042-597-6231（",
    "url": "http://www.hakujyu.or.jp/wellpia/index.html",
    "pref": "東京都",
    "city": "日の出町",
    "category": "rouken",
    "serviceType": "介護老人保健施設",
    "capacity": 0,
    "openDays": [],
    "openDaysNote": ""
  },
  {
    "id": "1352480022",
    "name": "介護老人保健施設　ファミリート日の出",
    "kana": "カイゴロウジンホケンシセツ　ファミリートヒノデ",
    "address": "東京都西多摩郡日の出町平井351-1",
    "lat": 35.7340969,
    "lng": 139.2833175,
    "tel": "042-597-5711",
    "url": "http://www.goseikai.jp/",
    "pref": "東京都",
    "city": "日の出町",
    "category": "rouken",
    "serviceType": "介護老人保健施設",
    "capacity": 100,
    "openDays": [],
    "openDaysNote": ""
  },
  {
    "id": "1352480030",
    "name": "介護老人保健施設　日の出さくら",
    "kana": "カイゴロウジンホケンシセツ　ヒノデサクラ",
    "address": "東京都西多摩郡日の出町大字平井字宮本3608番1",
    "lat": 35.7444867340157,
    "lng": 139.26715377584,
    "tel": "042-588-7100",
    "url": "http://老健日の出さくら.jp/",
    "pref": "東京都",
    "city": "日の出町",
    "category": "rouken",
    "serviceType": "介護老人保健施設",
    "capacity": 0,
    "openDays": [],
    "openDaysNote": ""
  },
  {
    "id": "1357080807",
    "name": "介護老人保健施設　高幡みさわの杜",
    "kana": "カイゴロウジンホケンシセツ　タカハタミサワノモリ",
    "address": "東京都日野市三沢3-22-14",
    "lat": 35.6581841,
    "lng": 139.4183026,
    "tel": "042-593-0101",
    "url": "http://www.shinshikai.or.jp",
    "pref": "東京都",
    "city": "日野市",
    "category": "rouken",
    "serviceType": "介護老人保健施設",
    "capacity": 0,
    "openDays": [],
    "openDaysNote": ""
  },
  {
    "id": "1357081482",
    "name": "介護老人保健施設・クローバー",
    "kana": "カイゴロウジンホケンシセツ・クローバー",
    "address": "東京都日野市東平山3-1-1介護老人保健施設クローバー 介護老人保健施設クローバー",
    "lat": 35.6548697,
    "lng": 139.3781923,
    "tel": "042-585-8061",
    "url": "http://www.roken-cr.jp",
    "pref": "東京都",
    "city": "日野市",
    "category": "rouken",
    "serviceType": "介護老人保健施設",
    "capacity": 68,
    "openDays": [],
    "openDaysNote": ""
  },
  {
    "id": "1357080740",
    "name": "介護老人保健施設カトレア",
    "kana": "カイゴロウジンホケンシセツカトレア",
    "address": "東京都日野市日野本町6-3-17",
    "lat": 35.6833087,
    "lng": 139.4013613,
    "tel": "042-589-2250",
    "url": "https://www.eiseikaihino.con",
    "pref": "東京都",
    "city": "日野市",
    "category": "rouken",
    "serviceType": "介護老人保健施設",
    "capacity": 140,
    "openDays": [],
    "openDaysNote": ""
  },
  {
    "id": "1357080914",
    "name": "介護老人保健施設サルビア",
    "kana": "カイゴロウジンホケンシセツサルビア",
    "address": "東京都日野市万願寺1丁目18番地の1",
    "lat": 35.6763349,
    "lng": 139.4197321,
    "tel": "042-589-3270",
    "url": "http://www.eiseikaihino.com/institution/salvia.html",
    "pref": "東京都",
    "city": "日野市",
    "category": "rouken",
    "serviceType": "介護老人保健施設",
    "capacity": 165,
    "openDays": [],
    "openDaysNote": ""
  },
  {
    "id": "1357081193",
    "name": "介護老人保健施設ロベリア",
    "kana": "カイゴロウジンホケンシセツロベリア",
    "address": "東京都日野市万願寺1-13-4",
    "lat": 35.6753822,
    "lng": 139.4199293,
    "tel": "042-589-3610",
    "url": "https://www.eiseikaihino.com",
    "pref": "東京都",
    "city": "日野市",
    "category": "rouken",
    "serviceType": "介護老人保健施設",
    "capacity": 0,
    "openDays": [],
    "openDaysNote": ""
  },
  {
    "id": "1357080088",
    "name": "ハイネス憩の丘",
    "kana": "ハイネスイコイノオカ",
    "address": "東京都八王子市中野町2082-1",
    "lat": 35.6789854,
    "lng": 139.3263404,
    "tel": "042-624-1515",
    "url": "http://www.hainesu.or.jp",
    "pref": "東京都",
    "city": "八王子市",
    "category": "rouken",
    "serviceType": "介護老人保健施設",
    "capacity": 107,
    "openDays": [],
    "openDaysNote": ""
  },
  {
    "id": "1357080310",
    "name": "介護老人保健施設　イマジン",
    "kana": "カイゴロウジンホケンシセツ　イマジン",
    "address": "東京都八王子市椚田町583-15",
    "lat": 35.6392177,
    "lng": 139.305038,
    "tel": "042-662-7000",
    "url": "http://www.eisei.or.jp",
    "pref": "東京都",
    "city": "八王子市",
    "category": "rouken",
    "serviceType": "介護老人保健施設",
    "capacity": 0,
    "openDays": [],
    "openDaysNote": ""
  },
  {
    "id": "1357080112",
    "name": "介護老人保健施設　ウエストケアセンター",
    "kana": "カイゴロウジンホケンシセツ　ウエストケアセンター",
    "address": "東京都八王子市上川町2135番地",
    "lat": 35.7050422,
    "lng": 139.2667227,
    "tel": "042-654-5511",
    "url": "https://west-care.jp/",
    "pref": "東京都",
    "city": "八王子市",
    "category": "rouken",
    "serviceType": "介護老人保健施設",
    "capacity": 128,
    "openDays": [],
    "openDaysNote": ""
  },
  {
    "id": "1357080096",
    "name": "介護老人保健施設　南大沢ホロス由木",
    "kana": "カイゴロウジンホケンシセツ　ミナミオオサワホロスユギ",
    "address": "東京都八王子市南大沢２－２２４－５",
    "lat": 35.6053117,
    "lng": 139.3856799,
    "tel": "042-678-2111",
    "url": "http://kawasekai.or.jp",
    "pref": "東京都",
    "city": "八王子市",
    "category": "rouken",
    "serviceType": "介護老人保健施設",
    "capacity": 142,
    "openDays": [],
    "openDaysNote": ""
  },
  {
    "id": "1352980013",
    "name": "介護老人保健施設アメイズ",
    "kana": "カイゴロウジンホケンシセツアメイズ",
    "address": "東京都八王子市中野山王2-8-2",
    "lat": 35.6765275,
    "lng": 139.3315845,
    "tel": "042-649-6601",
    "url": "http://www.syusenkai.or.jp/amaze01.php",
    "pref": "東京都",
    "city": "八王子市",
    "category": "rouken",
    "serviceType": "介護老人保健施設",
    "capacity": 100,
    "openDays": [],
    "openDaysNote": ""
  },
  {
    "id": "1357080138",
    "name": "介護老人保健施設エンジェルコート",
    "kana": "カイゴロウジンホケンシセツエンジェルコート",
    "address": "東京都八王子市上壱分方町71－1",
    "lat": 35.6846758287724,
    "lng": 139.280944535582,
    "tel": "042-652-2031",
    "url": "http://www.angelcourt.or.jp/angelcourt_top.html",
    "pref": "東京都",
    "city": "八王子市",
    "category": "rouken",
    "serviceType": "介護老人保健施設",
    "capacity": 0,
    "openDays": [],
    "openDaysNote": ""
  },
  {
    "id": "1357080187",
    "name": "介護老人保健施設ハートランド・ぐらんぱぐらんま",
    "kana": "カイゴロウジンホケンシセツハートランド・グランパグランマ",
    "address": "東京都八王子市美山町１０７４",
    "lat": 35.6839306,
    "lng": 139.2502529,
    "tel": "042-652-2155",
    "url": "http://www.granpagranma.com",
    "pref": "東京都",
    "city": "八王子市",
    "category": "rouken",
    "serviceType": "介護老人保健施設",
    "capacity": 0,
    "openDays": [],
    "openDaysNote": ""
  },
  {
    "id": "1357080237",
    "name": "介護老人保健施設ゆうむ",
    "kana": "カイゴロウジンホケンシセツユウム",
    "address": "東京都八王子市西寺方町２８４",
    "lat": 35.6720483,
    "lng": 139.2666016,
    "tel": "042-652-5550",
    "url": "https://rouken-yuumu.jp",
    "pref": "東京都",
    "city": "八王子市",
    "category": "rouken",
    "serviceType": "介護老人保健施設",
    "capacity": 100,
    "openDays": [],
    "openDaysNote": ""
  },
  {
    "id": "1357080393",
    "name": "医療法人財団　朔望会　介護老人保健施設エーデルワイス",
    "kana": "イリョウホウジンザイダン　サクボウカイ　カイゴロウジンホケンシセツ　エーデルワイス",
    "address": "東京都板橋区四葉2-21-16",
    "lat": 35.783259,
    "lng": 139.6506896,
    "tel": "03-3930-1717",
    "url": "http://tshnet.or.jp/03_edelweiss_1/03-01.html",
    "pref": "東京都",
    "city": "板橋区",
    "category": "rouken",
    "serviceType": "介護老人保健施設",
    "capacity": 100,
    "openDays": [],
    "openDaysNote": ""
  },
  {
    "id": "1357081276",
    "name": "医療法人財団健康文化会介護老人保健施設志村さつき苑",
    "kana": "イリョウホウジンザイダンケンコウブンカカイカイゴロウジンホケンシセツシムラサツキエン",
    "address": "東京都板橋区坂下3-7-6",
    "lat": 35.7863762,
    "lng": 139.683856,
    "tel": "03-5970-3358",
    "url": "https://care-net.biz/13/shimurasatsukien/",
    "pref": "東京都",
    "city": "板橋区",
    "category": "rouken",
    "serviceType": "介護老人保健施設",
    "capacity": 0,
    "openDays": [],
    "openDaysNote": ""
  },
  {
    "id": "1357080591",
    "name": "医療法人社団　翠会　蓮根ひまわり苑",
    "kana": "ハスネヒマワリエン",
    "address": "東京都板橋区蓮根３丁目２５番４号",
    "lat": 35.7908086,
    "lng": 139.6768676,
    "tel": "03-5392-0018",
    "url": "http://www.hasune-himawari.jp/",
    "pref": "東京都",
    "city": "板橋区",
    "category": "rouken",
    "serviceType": "介護老人保健施設",
    "capacity": 120,
    "openDays": [],
    "openDaysNote": ""
  },
  {
    "id": "1351980022",
    "name": "医療法人社団明芳会介護老人保健施設　クローバーのさと　イムスケアカウピリ板橋",
    "kana": "イリョウホウジンシャダンメイホウカイ　カイゴロウジンホケンシセツ　クローバーノサト　イムスケアカウピリイタバシ",
    "address": "東京都板橋区仲町１－４",
    "lat": 35.7513726,
    "lng": 139.6998306,
    "tel": "03-3955-9608",
    "url": "http://www.ims.gr.jp/clover/",
    "pref": "東京都",
    "city": "板橋区",
    "category": "rouken",
    "serviceType": "介護老人保健施設",
    "capacity": 88,
    "openDays": [],
    "openDaysNote": ""
  },
  {
    "id": "1357080435",
    "name": "介護老人保健施設　シルバーピア加賀",
    "kana": "カイゴロウジンホケンシセツ　シルバーピアカガ",
    "address": "東京都板橋区加賀１丁目３番１号",
    "lat": 35.7537031889886,
    "lng": 139.721398475533,
    "tel": "03-5248-2661",
    "url": "http://www.silverpia-kaga.jp",
    "pref": "東京都",
    "city": "板橋区",
    "category": "rouken",
    "serviceType": "介護老人保健施設",
    "capacity": 200,
    "openDays": [],
    "openDaysNote": ""
  },
  {
    "id": "1357081524",
    "name": "介護老人保健施設　プリムローズ",
    "kana": "カイゴロウジンホケンシセツ　プリムローズ",
    "address": "東京都板橋区前野町3-8-7",
    "lat": 35.7678958,
    "lng": 139.6928891,
    "tel": "03-5914-0550",
    "url": "http://www.tshnet.or.jp/",
    "pref": "東京都",
    "city": "板橋区",
    "category": "rouken",
    "serviceType": "介護老人保健施設",
    "capacity": 0,
    "openDays": [],
    "openDaysNote": ""
  },
  {
    "id": "1351980030",
    "name": "介護老人保健施設　紅梅園",
    "kana": "カイゴロウジンホケンシセツ　コウバイエン",
    "address": "東京都板橋区徳丸8-14-11",
    "lat": 35.7813854785924,
    "lng": 139.656683402377,
    "tel": "03-3937-1900",
    "url": "https://jiseikai-koubaien.jp/",
    "pref": "東京都",
    "city": "板橋区",
    "category": "rouken",
    "serviceType": "介護老人保健施設",
    "capacity": 154,
    "openDays": [],
    "openDaysNote": ""
  },
  {
    "id": "1357081334",
    "name": "介護老人保健施設　赤塚園",
    "kana": "カイゴロウジンホケンシセツ　アカツエン",
    "address": "東京都板橋区赤塚新町３－３３－２７",
    "lat": 35.7693774,
    "lng": 139.6406767,
    "tel": "03-3977-1500",
    "url": "https://akatsukaen.jp/",
    "pref": "東京都",
    "city": "板橋区",
    "category": "rouken",
    "serviceType": "介護老人保健施設",
    "capacity": 0,
    "openDays": [],
    "openDaysNote": ""
  },
  {
    "id": "1357080948",
    "name": "介護老人保健施設　板橋ロイヤルケアセンター",
    "kana": "カイゴロウジンホケンシセツ　イタバシロイヤルケアセンター",
    "address": "東京都板橋区前野町3丁目46番3号",
    "lat": 35.7720481,
    "lng": 139.6942277,
    "tel": "03-5915-2677",
    "url": "http://www.ims.gr.jp/itabashi_royal/",
    "pref": "東京都",
    "city": "板橋区",
    "category": "rouken",
    "serviceType": "介護老人保健施設",
    "capacity": 150,
    "openDays": [],
    "openDaysNote": ""
  },
  {
    "id": "1351980014",
    "name": "介護老人保健施設　浮間舟渡園",
    "kana": "カイゴロウジンホケンシセツ　ウキマフナドエン",
    "address": "東京都板橋区舟渡1丁目17番1号",
    "lat": 35.7932058,
    "lng": 139.6871805,
    "tel": "03-5994-5510",
    "url": "https://www.ukimafunadoen.jp",
    "pref": "東京都",
    "city": "板橋区",
    "category": "rouken",
    "serviceType": "介護老人保健施設",
    "capacity": 0,
    "openDays": [],
    "openDaysNote": ""
  },
  {
    "id": "1357080864",
    "name": "介護老人保健施設　　　ケアセンター南大井",
    "kana": "カイゴロウジンホケンシセツ　ケアセンターミナミオオイ",
    "address": "東京都品川区南大井5-19-1高齢者保健福祉複合施設 高齢者保健福祉複合施設",
    "lat": 35.5946474,
    "lng": 139.7339811,
    "tel": "03-5753-3901",
    "url": "http://www.sakurakai.jp",
    "pref": "東京都",
    "city": "品川区",
    "category": "rouken",
    "serviceType": "介護老人保健施設",
    "capacity": 90,
    "openDays": [],
    "openDaysNote": ""
  },
  {
    "id": "1350980015",
    "name": "介護老人保健施設ソピア御殿山",
    "kana": "カイゴロウジンホケンシセツソピアゴテンヤマ",
    "address": "東京都品川区北品川５丁目２番１号品川リハビリテーションパーク・品川区立大崎図書館 品川リハビリテーションパーク・品川区立大崎図書館",
    "lat": 35.6232356,
    "lng": 139.7316244,
    "tel": "03-5793-3355",
    "url": "http://kcmi.or.jp/sopiagotenyama/",
    "pref": "東京都",
    "city": "品川区",
    "category": "rouken",
    "serviceType": "介護老人保健施設",
    "capacity": 100,
    "openDays": [],
    "openDaysNote": ""
  },
  {
    "id": "1357080716",
    "name": "ウイング",
    "kana": "ウイング",
    "address": "東京都府中市四谷６丁目１５番２",
    "lat": 35.6696721,
    "lng": 139.4352785,
    "tel": "042-358-9330",
    "url": "http://www.syusenkai.or.jp/wing01.php",
    "pref": "東京都",
    "city": "府中市",
    "category": "rouken",
    "serviceType": "介護老人保健施設",
    "capacity": 0,
    "openDays": [],
    "openDaysNote": ""
  },
  {
    "id": "1353880014",
    "name": "介護老人保健施設　ふれあいの里",
    "kana": "カイゴロウジンホケンシセツ　フレアイノサト",
    "address": "東京都府中市押立町１丁目９番地１",
    "lat": 35.6585872,
    "lng": 139.5071374,
    "tel": "042-352-6633",
    "url": "http://www.yuuki-kai.com",
    "pref": "東京都",
    "city": "府中市",
    "category": "rouken",
    "serviceType": "介護老人保健施設",
    "capacity": 180,
    "openDays": [],
    "openDaysNote": ""
  },
  {
    "id": "1357080534",
    "name": "介護老人保健施設　葵の園　武蔵府中",
    "kana": "カイゴロウジンホケンシセツ　アオイノソノ　ムサシフチュウ",
    "address": "東京都府中市片町2-16-1",
    "lat": 35.6697953,
    "lng": 139.4699232,
    "tel": "042-336-5775",
    "url": "https://www.aoikai.jp/musashifuchu/",
    "pref": "東京都",
    "city": "府中市",
    "category": "rouken",
    "serviceType": "介護老人保健施設",
    "capacity": 100,
    "openDays": [],
    "openDaysNote": ""
  },
  {
    "id": "1353880022",
    "name": "介護老人保健施設ファミリート府中",
    "kana": "カイゴロウジンホケンシセツファミリートフチュウ",
    "address": "東京都府中市若松町2丁目4番4号",
    "lat": 35.6712044,
    "lng": 139.4982817,
    "tel": "042-369-6100",
    "url": "http://goseikai.jp/futyu.html",
    "pref": "東京都",
    "city": "府中市",
    "category": "rouken",
    "serviceType": "介護老人保健施設",
    "capacity": 0,
    "openDays": [],
    "openDaysNote": ""
  },
  {
    "id": "1357081300",
    "name": "医療法人財団立川中央病院介護老人保健施設アルカディア",
    "kana": "イリョウホウジンザイダンタチカワチュウオウビョウインカイゴロウジンホケンシセツアルカディア",
    "address": "東京都武蔵村山市三ツ藤一丁目９８番の１",
    "lat": 35.7482203,
    "lng": 139.3798419,
    "tel": "042-569-3900",
    "url": "http://www.arcadia-kaigo.com",
    "pref": "東京都",
    "city": "武蔵村山市",
    "category": "rouken",
    "serviceType": "介護老人保健施設",
    "capacity": null,
    "openDays": [],
    "openDaysNote": ""
  },
  {
    "id": "1353380023",
    "name": "介護老人保健施設　サンセール武蔵野",
    "kana": "カイゴロウジンホケンシセツ　サンセールムサシノ",
    "address": "東京都武蔵野市桜堤1-9-7",
    "lat": 35.7103796,
    "lng": 139.5340369,
    "tel": "0422-27-8212",
    "url": "https://www.sin-musashino.com/",
    "pref": "東京都",
    "city": "武蔵野市",
    "category": "rouken",
    "serviceType": "介護老人保健施設",
    "capacity": 0,
    "openDays": [],
    "openDaysNote": ""
  },
  {
    "id": "1357080906",
    "name": "介護老人保健施設　ハウスグリーンパーク",
    "kana": "カイゴロウジンホケンシセツ",
    "address": "東京都武蔵野市緑町２－３－２１",
    "lat": 35.7164536,
    "lng": 139.5629909,
    "tel": "0422-37-1122",
    "url": "http://www.yohwakai.com/hgp/",
    "pref": "東京都",
    "city": "武蔵野市",
    "category": "rouken",
    "serviceType": "介護老人保健施設",
    "capacity": 0,
    "openDays": [],
    "openDaysNote": ""
  },
  {
    "id": "1357080120",
    "name": "介護老人保健施設あんず苑",
    "kana": "カイゴロウジンホケンシセツアンズエン",
    "address": "東京都武蔵野市境1-18-5",
    "lat": 35.703202,
    "lng": 139.5472264,
    "tel": "0422-36-6262",
    "url": "http://www.tenseikai.or.jp",
    "pref": "東京都",
    "city": "武蔵野市",
    "category": "rouken",
    "serviceType": "介護老人保健施設",
    "capacity": 0,
    "openDays": [],
    "openDaysNote": ""
  },
  {
    "id": "1353380015",
    "name": "介護老人保健施設あんず苑アネックス",
    "kana": "カイゴロウジンホケンシセツアンズエンアネックス",
    "address": "東京都武蔵野市境1－19－20",
    "lat": 35.7043546,
    "lng": 139.5472929,
    "tel": "0422-36-3655",
    "url": "http://www.tenseikai.or.jp",
    "pref": "東京都",
    "city": "武蔵野市",
    "category": "rouken",
    "serviceType": "介護老人保健施設",
    "capacity": 0,
    "openDays": [],
    "openDaysNote": ""
  },
  {
    "id": "1357081052",
    "name": "医療法人社団永進会　介護老人保健施設ユーアイビラ",
    "kana": "イリョウホウジンシャダンエイシンカイ　カイゴロウジンホケンシセツ　ユーアイビラ",
    "address": "東京都福生市南田園一丁目10番地3",
    "lat": 35.7228442,
    "lng": 139.3317021,
    "tel": "042-539-7122",
    "url": "https://www.zenjinkai-group.jp/eishinkai/care_center/yuai_villa/",
    "pref": "東京都",
    "city": "福生市",
    "category": "rouken",
    "serviceType": "介護老人保健施設",
    "capacity": 0,
    "openDays": [],
    "openDaysNote": ""
  },
  {
    "id": "1350580013",
    "name": "介護老人保健施設　音羽えびすの郷",
    "kana": "カイゴロウジンホケンシセツ　オトワエビスノサト",
    "address": "東京都文京区音羽1-22-14介護老人保健施設　音羽えびすの郷 介護老人保健施設　音羽えびすの郷",
    "lat": 35.7137776,
    "lng": 139.7296932,
    "tel": "03-3941-0165",
    "url": "http://otowa-ebisunosato.jp/top.php",
    "pref": "東京都",
    "city": "文京区",
    "category": "rouken",
    "serviceType": "介護老人保健施設",
    "capacity": 0,
    "openDays": [],
    "openDaysNote": ""
  },
  {
    "id": "1357080260",
    "name": "龍岡介護老人保健施設",
    "kana": "タツオカカイゴロウジンホケンシセツ",
    "address": "東京都文京区湯島4－9－8",
    "lat": 35.7095651,
    "lng": 139.7645912,
    "tel": "03-3811-0088",
    "url": "https://www.mct.or.jp/",
    "pref": "東京都",
    "city": "文京区",
    "category": "rouken",
    "serviceType": "介護老人保健施設",
    "capacity": 0,
    "openDays": [],
    "openDaysNote": ""
  },
  {
    "id": "1357081383",
    "name": "介護老人保健施設安寿",
    "kana": "カイゴロウジンホケンシセツ　アンジュ",
    "address": "東京都豊島区南池袋3-7-8",
    "lat": 35.7235511,
    "lng": 139.7120999,
    "tel": "03-5956-8200",
    "url": "http://care-net.biz/13/zuiunkai-ange/",
    "pref": "東京都",
    "city": "豊島区",
    "category": "rouken",
    "serviceType": "介護老人保健施設",
    "capacity": 0,
    "openDays": [],
    "openDaysNote": ""
  },
  {
    "id": "1357081235",
    "name": "池袋えびすの郷",
    "kana": "イケブクロエビスノサト",
    "address": "東京都豊島区池袋本町2-34-1",
    "lat": 35.742949,
    "lng": 139.709005,
    "tel": "03-3980-0165",
    "url": "http://www.ikebukuro-ebisunosato.or.jp",
    "pref": "東京都",
    "city": "豊島区",
    "category": "rouken",
    "serviceType": "介護老人保健施設",
    "capacity": 100,
    "openDays": [],
    "openDaysNote": ""
  },
  {
    "id": "1351680010",
    "name": "南池袋介護老人保健施設アバンセ",
    "kana": "ミナミイケブクロカイゴロウジンホケンシセツアバンセ",
    "address": "東京都豊島区南池袋4-6-1",
    "lat": 35.7217713971657,
    "lng": 139.716484959525,
    "tel": "03-5955-7370",
    "url": "http://zenjinkai.net/minamiikebukuro/",
    "pref": "東京都",
    "city": "豊島区",
    "category": "rouken",
    "serviceType": "介護老人保健施設",
    "capacity": 0,
    "openDays": [],
    "openDaysNote": ""
  },
  {
    "id": "1351780026",
    "name": "リハビリパーク滝野川",
    "kana": "リハビリパークタキノガワ",
    "address": "東京都北区滝野川６－１３－１３",
    "lat": 35.7434524,
    "lng": 139.7244148,
    "tel": "03-5980-8965",
    "url": "http://www.kyourinkai.com/",
    "pref": "東京都",
    "city": "北区",
    "category": "rouken",
    "serviceType": "介護老人保健施設",
    "capacity": 150,
    "openDays": [],
    "openDaysNote": ""
  },
  {
    "id": "1357080559",
    "name": "介護老人保健施設　「太陽の都」",
    "kana": "カイゴロウジンホケンシセツ　タイヨウノミヤコ",
    "address": "東京都北区浮間２－１－１３",
    "lat": 35.7926396,
    "lng": 139.7001238,
    "tel": "03-3558-8881",
    "url": "http://www.hakueikai.or.jp/taiyou/index.html",
    "pref": "東京都",
    "city": "北区",
    "category": "rouken",
    "serviceType": "介護老人保健施設",
    "capacity": 0,
    "openDays": [],
    "openDaysNote": ""
  },
  {
    "id": "1351780034",
    "name": "介護老人保健施設はくちょう",
    "kana": "カイゴロウジンホケンシセツ　ハクチョウ",
    "address": "東京都北区田端3-18-24",
    "lat": 35.7359867,
    "lng": 139.7567547,
    "tel": "03-3827-1020",
    "url": "http://www.fukujukaigr.or.jp/shisetsu/k_rouken_hakucho.htm",
    "pref": "東京都",
    "city": "北区",
    "category": "rouken",
    "serviceType": "介護老人保健施設",
    "capacity": 100,
    "openDays": [],
    "openDaysNote": ""
  },
  {
    "id": "1351780018",
    "name": "滝野川病院附属介護老人保健施設",
    "kana": "タキノガワビョウインフゾクカイゴロウジンホケンシセツ",
    "address": "東京都北区滝野川2-32-12滝野川病院4階 滝野川病院4階",
    "lat": 35.750535,
    "lng": 139.731278,
    "tel": "03-5907-6910",
    "url": "http://www.takinogawa-hp.com/",
    "pref": "東京都",
    "city": "北区",
    "category": "rouken",
    "serviceType": "介護老人保健施設",
    "capacity": 0,
    "openDays": [],
    "openDaysNote": ""
  },
  {
    "id": "1351780042",
    "name": "東京シニアケアセンター赤羽",
    "kana": "トウキョウシニアケアセンターアカバネ",
    "address": "東京都北区志茂１－１９－１４",
    "lat": 35.776934282115,
    "lng": 139.727268789549,
    "tel": "03-3903-0022",
    "url": "http://www.hakueikai.or.jp/seniorcarecenter/",
    "pref": "東京都",
    "city": "北区",
    "category": "rouken",
    "serviceType": "介護老人保健施設",
    "capacity": 0,
    "openDays": [],
    "openDaysNote": ""
  },
  {
    "id": "1357081185",
    "name": "東京北医療センター介護老人保健施設さくらの杜",
    "kana": "トウキョウキタイリョウセンターカイゴロウジンホケンシセツサクラノモリ",
    "address": "東京都北区赤羽台４－１７－５６",
    "lat": 35.7835248907343,
    "lng": 139.712023140614,
    "tel": "03-5963-4187",
    "url": "http://www.sakuranomori.jp/",
    "pref": "東京都",
    "city": "北区",
    "category": "rouken",
    "serviceType": "介護老人保健施設",
    "capacity": 100,
    "openDays": [],
    "openDaysNote": ""
  },
  {
    "id": "1350780027",
    "name": "ろうけん隅田秋光園",
    "kana": "ロウケンスミダシュウコウエン",
    "address": "東京都墨田区横網2丁目7番13号",
    "lat": 35.7011026,
    "lng": 139.7948555,
    "tel": "03-5610-1235",
    "url": "http://www.sousei.net",
    "pref": "東京都",
    "city": "墨田区",
    "category": "rouken",
    "serviceType": "介護老人保健施設",
    "capacity": 90,
    "openDays": [],
    "openDaysNote": ""
  },
  {
    "id": "1357081169",
    "name": "医療法人社団　葵会　介護老人保健施設　葵の園・向島",
    "kana": "イリョウホウジンシャダン　アオイカイ　カイゴロウジンホケンシセツ　アオイノソノ・ムコウジマ",
    "address": "東京都墨田区向島三丁目1番13号",
    "lat": 35.7129381,
    "lng": 139.8063824,
    "tel": "03-5608-0003",
    "url": "http://www.aoikai.jp/",
    "pref": "東京都",
    "city": "墨田区",
    "category": "rouken",
    "serviceType": "介護老人保健施設",
    "capacity": 0,
    "openDays": [],
    "openDaysNote": ""
  },
  {
    "id": "1350780019",
    "name": "介護老人保健施設ベレール向島",
    "kana": "カイゴロウジンホケンシセツベレールムコウジマ",
    "address": "東京都墨田区東向島2-36-11",
    "lat": 35.7216321,
    "lng": 139.818245,
    "tel": "03-3611-3111",
    "url": "http://www.shirahigebashi-hp.info/belair/",
    "pref": "東京都",
    "city": "墨田区",
    "category": "rouken",
    "serviceType": "介護老人保健施設",
    "capacity": 119,
    "openDays": [],
    "openDaysNote": ""
  },
  {
    "id": "1357081375",
    "name": "櫻川介護老人保健施設",
    "kana": "サクラガワカイゴロウジンホケンシセツ",
    "address": "東京都墨田区堤通1-9-8",
    "lat": 35.7245706,
    "lng": 139.8111427,
    "tel": "03-5630-0088",
    "url": "https://www.mct.or.jp",
    "pref": "東京都",
    "city": "墨田区",
    "category": "rouken",
    "serviceType": "介護老人保健施設",
    "capacity": 152,
    "openDays": [],
    "openDaysNote": ""
  },
  {
    "id": "1357081425",
    "name": "介護老人保健施設リハビリパーク目黒",
    "kana": "カイゴロウジンホケンシセツリハビリパークメグロ",
    "address": "東京都目黒区中央町2-5-12",
    "lat": 35.6316445,
    "lng": 139.6925386,
    "tel": "03-3792-3111",
    "url": "http://www.rehabili-park.com",
    "pref": "東京都",
    "city": "目黒区",
    "category": "rouken",
    "serviceType": "介護老人保健施設",
    "capacity": 0,
    "openDays": [],
    "openDaysNote": ""
  },
  {
    "id": "1357080781",
    "name": "医療法人社団光誠会　介護老人保健施設パークサイドヴィラ",
    "kana": "イリョウホウジンシャダンコウセイカイ　カイゴロウジンホケンシセツパークサイドヴィラ",
    "address": "東京都立川市富士見町１丁目３６番地６号",
    "lat": 35.7030345,
    "lng": 139.3946808,
    "tel": "042-540-0099",
    "url": "https://www.kouseikai-t.or.jp",
    "pref": "東京都",
    "city": "立川市",
    "category": "rouken",
    "serviceType": "介護老人保健施設",
    "capacity": 100,
    "openDays": [],
    "openDaysNote": ""
  },
  {
    "id": "1357081318",
    "name": "介護老人保健施設　国立あおやぎ苑立川",
    "kana": "カイゴロウジンホケンシセツクニタチアオヤギエンタチカワ",
    "address": "東京都立川市富士見町7丁目33番10号",
    "lat": 35.6894775,
    "lng": 139.3978226,
    "tel": "042-527-0510",
    "url": "http://www.aoyagien.or.jp",
    "pref": "東京都",
    "city": "立川市",
    "category": "rouken",
    "serviceType": "介護老人保健施設",
    "capacity": 0,
    "openDays": [],
    "openDaysNote": ""
  },
  {
    "id": "1357080674",
    "name": "立川介護老人保健施設わかば",
    "kana": "タチカワカイゴロウジンホケンシセツワカバ",
    "address": "東京都立川市若葉町3-45-2",
    "lat": 35.7197306,
    "lng": 139.4411816,
    "tel": "042-538-0871",
    "url": "http://www.tokyosekishinkai.jp/wakaba/",
    "pref": "東京都",
    "city": "立川市",
    "category": "rouken",
    "serviceType": "介護老人保健施設",
    "capacity": 100,
    "openDays": [],
    "openDaysNote": ""
  },
  {
    "id": "1352080046",
    "name": "リハビリパーク練馬",
    "kana": "リハビリパークネリマ",
    "address": "東京都練馬区豊玉北1-20-20",
    "lat": 35.7318677,
    "lng": 139.6665868,
    "tel": "03-6914-8760",
    "url": "http://www.rehabili-park.com/sisetu/nerima",
    "pref": "東京都",
    "city": "練馬区",
    "category": "rouken",
    "serviceType": "介護老人保健施設",
    "capacity": 0,
    "openDays": [],
    "openDaysNote": ""
  },
  {
    "id": "1357081037",
    "name": "医療法人社団カタクリ会介護老人保健施設カタクリの花",
    "kana": "イリョウホウジンシャダンカタクリカイカイゴロウジンホケンシセツカタクリノハナ",
    "address": "東京都練馬区高野台5-32-12",
    "lat": 35.7489484,
    "lng": 139.6092858,
    "tel": "03-5393-6201",
    "url": "",
    "pref": "東京都",
    "city": "練馬区",
    "category": "rouken",
    "serviceType": "介護老人保健施設",
    "capacity": 0,
    "openDays": [],
    "openDaysNote": ""
  },
  {
    "id": "1352080079",
    "name": "医療法人社団健育会　介護老人保健施設　ライフサポートひなた",
    "kana": "イリョウホウジンシャダンケンイクカイ　カイゴロウジンホケンシセツ　ライフサポートヒナタ",
    "address": "東京都練馬区氷川台2-14-3",
    "lat": 35.7559963,
    "lng": 139.6678917,
    "tel": "03-5922-6788",
    "url": "http://life-hinata.or.jp/",
    "pref": "東京都",
    "city": "練馬区",
    "category": "rouken",
    "serviceType": "介護老人保健施設",
    "capacity": 56,
    "openDays": [],
    "openDaysNote": ""
  },
  {
    "id": "1357080427",
    "name": "医療法人社団翠会　介護老人保健施設練馬ゆめの木",
    "kana": "イリョウホウジンシャダンミドリカイ　カイゴロウジンホケンシセツネリマユメノキ",
    "address": "東京都練馬区大泉町2-17-1",
    "lat": 35.7607912,
    "lng": 139.6027443,
    "tel": "03-3923-0222",
    "url": "https://www.midorikai-youwa.jp/roukennerimayumenoki/",
    "pref": "東京都",
    "city": "練馬区",
    "category": "rouken",
    "serviceType": "介護老人保健施設",
    "capacity": 0,
    "openDays": [],
    "openDaysNote": ""
  },
  {
    "id": "1352080087",
    "name": "医療法人社団川満惠光会　介護老人保健施設　みんなの笑顔",
    "kana": "イリョウホウジンシャダンカワミツケイコウカイ　カイゴロウジンホケンシセツ　ミンナノエガオ",
    "address": "東京都練馬区東大泉5-29-13",
    "lat": 35.7473588658935,
    "lng": 139.586792817129,
    "tel": "03-3921-2525",
    "url": "https://www.kawamitsu.or.jp/",
    "pref": "東京都",
    "city": "練馬区",
    "category": "rouken",
    "serviceType": "介護老人保健施設",
    "capacity": 100,
    "openDays": [],
    "openDaysNote": ""
  },
  {
    "id": "1352080061",
    "name": "介護老人保健施設　エスポワール練馬",
    "kana": "カイゴロウジンホケンシセツ　エスポワールネリマ",
    "address": "東京都練馬区関町東1-1-9",
    "lat": 35.7233868,
    "lng": 139.5852028,
    "tel": "03-5903-5267",
    "url": "http://www.esp-nerima.com/",
    "pref": "東京都",
    "city": "練馬区",
    "category": "rouken",
    "serviceType": "介護老人保健施設",
    "capacity": 94,
    "openDays": [],
    "openDaysNote": ""
  },
  {
    "id": "1357080724",
    "name": "介護老人保健施設　ミレニアム桜台",
    "kana": "カイゴロウジンホケンシセツ　ミレニアムサクラダイ",
    "address": "東京都練馬区桜台2-1-13",
    "lat": 35.7423301300067,
    "lng": 139.667783858712,
    "tel": "03-5946-5508",
    "url": "http://www.syukoukai.or.jp",
    "pref": "東京都",
    "city": "練馬区",
    "category": "rouken",
    "serviceType": "介護老人保健施設",
    "capacity": 92,
    "openDays": [],
    "openDaysNote": ""
  },
  {
    "id": "1352080095",
    "name": "介護老人保健施設　ライフサポートねりま",
    "kana": "カイゴロウジンホケンシセツ　ライフサポートネリマ",
    "address": "東京都練馬区大泉学園町7丁目3番28号",
    "lat": 35.7697953390112,
    "lng": 139.587608167984,
    "tel": "03-5935-6713",
    "url": "http://nerima-k.gr.jp/",
    "pref": "東京都",
    "city": "練馬区",
    "category": "rouken",
    "serviceType": "介護老人保健施設",
    "capacity": 80,
    "openDays": [],
    "openDaysNote": ""
  },
  {
    "id": "1357080518",
    "name": "介護老人保健施設　大泉学園ふきのとう",
    "kana": "カイゴロウジンホケンシセツ　オオイズミガクエンフキノトウ",
    "address": "東京都練馬区大泉学園町８－２４－２５",
    "lat": 35.7736644,
    "lng": 139.5980889,
    "tel": "03-3924-2215",
    "url": "http://www.shoyokai.net/",
    "pref": "東京都",
    "city": "練馬区",
    "category": "rouken",
    "serviceType": "介護老人保健施設",
    "capacity": 100,
    "openDays": [],
    "openDaysNote": ""
  },
  {
    "id": "1352080053",
    "name": "介護老人保健施設　第二橘苑",
    "kana": "カイゴロウジンホケンシセツ　ダイニタチバナエン",
    "address": "東京都練馬区北町2－32－14",
    "lat": 35.7684307,
    "lng": 139.6559757,
    "tel": "03－5921－3722",
    "url": "http://www.t-sakurahosp.com/relations/tachibana/",
    "pref": "東京都",
    "city": "練馬区",
    "category": "rouken",
    "serviceType": "介護老人保健施設",
    "capacity": 20,
    "openDays": [],
    "openDaysNote": ""
  },
  {
    "id": "1352080012",
    "name": "介護老人保健施設葵の園・練馬",
    "kana": "カイゴロウジンホケンシセツアオイノソノ・ネリマ",
    "address": "東京都練馬区春日町４丁目３７－３０",
    "lat": 35.7563955,
    "lng": 139.6381552,
    "tel": "03-5971-1166",
    "url": "http://www.aoikai.jp/shisetu/nerima/index.html",
    "pref": "東京都",
    "city": "練馬区",
    "category": "rouken",
    "serviceType": "介護老人保健施設",
    "capacity": 100,
    "openDays": [],
    "openDaysNote": ""
  },
  {
    "id": "1352080038",
    "name": "介護老人保健施設橘苑",
    "kana": "カイゴロウジンホケンシセツタチバナエン",
    "address": "東京都練馬区北町3-7-22",
    "lat": 35.7685833,
    "lng": 139.6559715,
    "tel": "03-5921-3722",
    "url": "http://www.t-sakurahosp.com/relations/tachibana/",
    "pref": "東京都",
    "city": "練馬区",
    "category": "rouken",
    "serviceType": "介護老人保健施設",
    "capacity": 53,
    "openDays": [],
    "openDaysNote": ""
  },
  {
    "id": "1352080020",
    "name": "神石介護老人保健施設",
    "kana": "カミイシカイゴロウジンホケンシセツ",
    "address": "東京都練馬区上石神井3-33-6",
    "lat": 35.7317332,
    "lng": 139.591291,
    "tel": "03-3594-0088",
    "url": "https://www.mct.or.jp",
    "pref": "東京都",
    "city": "練馬区",
    "category": "rouken",
    "serviceType": "介護老人保健施設",
    "capacity": 0,
    "openDays": [],
    "openDaysNote": ""
  },
  {
    "id": "1357080955",
    "name": "平和台介護老人保健施設アバンセ",
    "kana": "ヘイワダイカイゴロウジンホケンシセツアバンセ",
    "address": "東京都練馬区平和台1丁目16番12号",
    "lat": 35.7592395875355,
    "lng": 139.664791630688,
    "tel": "03-5922-2300",
    "url": "http://www.zenjinkai.net",
    "pref": "東京都",
    "city": "練馬区",
    "category": "rouken",
    "serviceType": "介護老人保健施設",
    "capacity": 150,
    "openDays": [],
    "openDaysNote": ""
  }
]