[
  {
    "id": "952680015",
    "name": "ケア・ステージ氏家",
    "kana": "ケア・ステエジウジイエ",
    "address": "栃木県さくら市向河原4084",
    "lat": 36.6942654916862,
    "lng": 139.940604406221,
    "tel": "028-682-2912",
    "url": "https://www.seishikai-hp.or.jp/carestage/index.html",
    "pref": "栃木県",
    "city": "さくら市",
    "category": "rouken",
    "serviceType": "介護老人保健施設",
    "capacity": 100,
    "openDays": [],
    "openDaysNote": ""
  },
  {
    "id": "952680031",
    "name": "介護老人保健施設いずみ",
    "kana": "カイゴロウジンホケンシセツイズミ",
    "address": "栃木県さくら市氏家2650番地",
    "lat": 36.67968,
    "lng": 139.9681747,
    "tel": "028-681-8822",
    "url": "http://www.kurosu-hospital.jp/izumi/",
    "pref": "栃木県",
    "city": "さくら市",
    "category": "rouken",
    "serviceType": "介護老人保健施設",
    "capacity": 0,
    "openDays": [],
    "openDaysNote": ""
  },
  {
    "id": "950180075",
    "name": "うつのみや病院附属介護老人保健施設）",
    "kana": "ウツノミヤビョウインフゾクカイゴロウジンホケンシセツ",
    "address": "栃木県宇都宮市南高砂町11番17号",
    "lat": 36.4832971118937,
    "lng": 139.870788446627,
    "tel": "028-655-6601",
    "url": "https://utsunomiya.jcho.go.jp/rouken/",
    "pref": "栃木県",
    "city": "宇都宮市",
    "category": "rouken",
    "serviceType": "介護老人保健施設",
    "capacity": 100,
    "openDays": [],
    "openDaysNote": ""
  },
  {
    "id": "950180067",
    "name": "ホスピア宇都宮",
    "kana": "ホスピアウツノミヤ",
    "address": "栃木県宇都宮市東宿郷２－１－１",
    "lat": 36.5578322,
    "lng": 139.8998054,
    "tel": "028-636-9666",
    "url": "http://www.zenjinkai-utsunomiya.jp/hospia/index.html",
    "pref": "栃木県",
    "city": "宇都宮市",
    "category": "rouken",
    "serviceType": "介護老人保健施設",
    "capacity": 0,
    "openDays": [],
    "openDaysNote": ""
  },
  {
    "id": "950180018",
    "name": "宇都宮シルバーホーム",
    "kana": "ウツノミヤシルバーホーム",
    "address": "栃木県宇都宮市平出町413番地",
    "lat": 36.5702412,
    "lng": 139.9469111,
    "tel": "028-660-7800",
    "url": "https://www.hokutokai.or.jp/",
    "pref": "栃木県",
    "city": "宇都宮市",
    "category": "rouken",
    "serviceType": "介護老人保健施設",
    "capacity": 0,
    "openDays": [],
    "openDaysNote": ""
  },
  {
    "id": "950180083",
    "name": "介護老人保健施設　いこいの郷",
    "kana": "カイゴロウジンホケンシセツ　イコイノサト",
    "address": "栃木県宇都宮市岩曾町１１０４－４",
    "lat": 36.580366,
    "lng": 139.9013958,
    "tel": "028-613-3225",
    "url": "http://www.takeyamakai.jp/ikoinosato/",
    "pref": "栃木県",
    "city": "宇都宮市",
    "category": "rouken",
    "serviceType": "介護老人保健施設",
    "capacity": 0,
    "openDays": [],
    "openDaysNote": ""
  },
  {
    "id": "952180016",
    "name": "介護老人保健施設　しらさぎ荘",
    "kana": "カイゴロウジンホケンシセツシラサギソウ",
    "address": "栃木県宇都宮市白沢町７７１番地",
    "lat": 36.6315888,
    "lng": 139.9454619,
    "tel": "028-673-8888",
    "url": "http://roken-shirasagi.jp",
    "pref": "栃木県",
    "city": "宇都宮市",
    "category": "rouken",
    "serviceType": "介護老人保健施設",
    "capacity": 0,
    "openDays": [],
    "openDaysNote": ""
  },
  {
    "id": "950180042",
    "name": "介護老人保健施設陽南",
    "kana": "カイゴロウジンホケンシセツヨウナン",
    "address": "栃木県宇都宮市陽南4-6-34",
    "lat": 36.5371529,
    "lng": 139.8674258,
    "tel": "028-658-2122",
    "url": "",
    "pref": "栃木県",
    "city": "宇都宮市",
    "category": "rouken",
    "serviceType": "介護老人保健施設",
    "capacity": null,
    "openDays": [],
    "openDaysNote": ""
  },
  {
    "id": "950180000",
    "name": "野沢の里",
    "kana": "ノザワノサト",
    "address": "栃木県宇都宮市野沢町561－1",
    "lat": 36.6148129,
    "lng": 139.8583733,
    "tel": "028-666-2225",
    "url": "http://nozawanosato.jimdo.com/",
    "pref": "栃木県",
    "city": "宇都宮市",
    "category": "rouken",
    "serviceType": "介護老人保健施設",
    "capacity": 0,
    "openDays": [],
    "openDaysNote": ""
  },
  {
    "id": "950180059",
    "name": "老人保健施設　ファミール滝の原",
    "kana": "ロウジンホケンシセツ　ファミールタキノハラ",
    "address": "栃木県宇都宮市鶴田町3375",
    "lat": 36.5439761248628,
    "lng": 139.861724917722,
    "tel": "028-632-7577",
    "url": "http://care-net.biz/09/saijinkai/",
    "pref": "栃木県",
    "city": "宇都宮市",
    "category": "rouken",
    "serviceType": "介護老人保健施設",
    "capacity": 0,
    "openDays": [],
    "openDaysNote": ""
  },
  {
    "id": "950180034",
    "name": "老人保健施設　宇都宮アルトピア",
    "kana": "ロウジンホケンシセツ　ウツノミヤアルトピア",
    "address": "栃木県宇都宮市石井町3385番地",
    "lat": 36.5297503458489,
    "lng": 139.919657536246,
    "tel": "028-656-7717",
    "url": "http://schit.net/artpia/",
    "pref": "栃木県",
    "city": "宇都宮市",
    "category": "rouken",
    "serviceType": "介護老人保健施設",
    "capacity": 0,
    "openDays": [],
    "openDaysNote": ""
  },
  {
    "id": "950180026",
    "name": "老人保健施設　白楽園",
    "kana": "ロウジンホケンシセツ　ハクラクエン",
    "address": "栃木県宇都宮市宝木本町２１４０番地２",
    "lat": 36.629992073705,
    "lng": 139.84390670318,
    "tel": "028-665-7171",
    "url": "http://numaog.or.jp/",
    "pref": "栃木県",
    "city": "宇都宮市",
    "category": "rouken",
    "serviceType": "介護老人保健施設",
    "capacity": 0,
    "openDays": [],
    "openDaysNote": ""
  },
  {
    "id": "952780013",
    "name": "介護老人保健施設　シルバーケアホーム　のぞみ",
    "kana": "カイゴロウジンホケンシセツシルバーケアホームノゾミ",
    "address": "栃木県芳賀郡益子町大字塙316",
    "lat": 36.4593845,
    "lng": 140.0781602,
    "tel": "0285-72-7050",
    "url": "http://kikuchi-hp.jp/",
    "pref": "栃木県",
    "city": "益子町",
    "category": "rouken",
    "serviceType": "介護老人保健施設",
    "capacity": 0,
    "openDays": [],
    "openDaysNote": ""
  },
  {
    "id": "952780021",
    "name": "介護老人保健施設　看清坊",
    "kana": "カイゴロウジンホケンシセツ　カンセイボウ",
    "address": "栃木県芳賀郡益子町益子４４９３番地",
    "lat": 36.4495918,
    "lng": 140.1141545,
    "tel": "0285-70-1150",
    "url": "fumon.jp",
    "pref": "栃木県",
    "city": "益子町",
    "category": "rouken",
    "serviceType": "介護老人保健施設",
    "capacity": 0,
    "openDays": [],
    "openDaysNote": ""
  },
  {
    "id": "952180024",
    "name": "お達者倶楽部",
    "kana": "オタッシャクラブ",
    "address": "栃木県下野市薬師寺2472番地5",
    "lat": 36.39181293207,
    "lng": 139.865730781276,
    "tel": "0285-47-1090",
    "url": "http://www.otassha-club.jp",
    "pref": "栃木県",
    "city": "下野市",
    "category": "rouken",
    "serviceType": "介護老人保健施設",
    "capacity": 0,
    "openDays": [],
    "openDaysNote": ""
  },
  {
    "id": "952680023",
    "name": "高根沢シルバーホーム",
    "kana": "タカネザワシルバーホーム",
    "address": "栃木県塩谷郡高根沢町石末1005番地8",
    "lat": 36.6331872,
    "lng": 140.0033153,
    "tel": "028-675-7877",
    "url": "http://www.hokutokai.or.jp/silver/facility/t-service/index.html",
    "pref": "栃木県",
    "city": "高根沢町",
    "category": "rouken",
    "serviceType": "介護老人保健施設",
    "capacity": 0,
    "openDays": [],
    "openDaysNote": ""
  },
  {
    "id": "950480046",
    "name": "介護老人保健施設　あさひ",
    "kana": "カイゴロウジンホケンシセツ　アサヒ",
    "address": "栃木県佐野市葛生東1-15-7",
    "lat": 36.4019477,
    "lng": 139.6134308,
    "tel": "0283-84-1102",
    "url": "",
    "pref": "栃木県",
    "city": "佐野市",
    "category": "rouken",
    "serviceType": "介護老人保健施設",
    "capacity": 0,
    "openDays": [],
    "openDaysNote": ""
  },
  {
    "id": "950480061",
    "name": "介護老人保健施設　あそヘルホス",
    "kana": "カイゴロウジンホケンシセツ　アソヘルホス",
    "address": "栃木県佐野市田沼町1832-1",
    "lat": 36.3731137822533,
    "lng": 139.582464120901,
    "tel": "0283-62-4515",
    "url": "https://smc-hp.net/asoheruhosu/",
    "pref": "栃木県",
    "city": "佐野市",
    "category": "rouken",
    "serviceType": "介護老人保健施設",
    "capacity": 0,
    "openDays": [],
    "openDaysNote": ""
  },
  {
    "id": "950480020",
    "name": "介護老人保健施設　さくらの里",
    "kana": "カイゴロウジンホケンシセツ　サクラノサト",
    "address": "栃木県佐野市寺久保町248-1",
    "lat": 36.3758804,
    "lng": 139.5267735,
    "tel": "0283-26-1123",
    "url": "http://sakura.s-y.gr.com/",
    "pref": "栃木県",
    "city": "佐野市",
    "category": "rouken",
    "serviceType": "介護老人保健施設",
    "capacity": 90,
    "openDays": [],
    "openDaysNote": ""
  },
  {
    "id": "950480004",
    "name": "介護老人保健施設　和の里",
    "kana": "カイゴロウジンホケンシセツ　ナゴミノサト",
    "address": "栃木県佐野市高砂町２８００－１",
    "lat": 36.3130548,
    "lng": 139.5792993,
    "tel": "0283-22-2669",
    "url": "https://nagomi.s-y.gr.com/",
    "pref": "栃木県",
    "city": "佐野市",
    "category": "rouken",
    "serviceType": "介護老人保健施設",
    "capacity": 0,
    "openDays": [],
    "openDaysNote": ""
  },
  {
    "id": "950480012",
    "name": "介護老人保健施設佐野ナーシングクワサキ",
    "kana": "カイゴロウジンホケンシセツサノナーシングクワサキ",
    "address": "栃木県佐野市免鳥町４７２－１",
    "lat": 36.3104321,
    "lng": 139.5468437,
    "tel": "0283-21-4320",
    "url": "http://kuwasakikai.jp/",
    "pref": "栃木県",
    "city": "佐野市",
    "category": "rouken",
    "serviceType": "介護老人保健施設",
    "capacity": 100,
    "openDays": [],
    "openDaysNote": ""
  },
  {
    "id": "950580035",
    "name": "医療法人桃李会　介護老人保健施設ほほえみ",
    "kana": "イリョウホウジントウリカイ　カイゴロウジンホケンシセツホホエミ",
    "address": "栃木県鹿沼市今宮町１６８２番地２",
    "lat": 36.5678804097515,
    "lng": 139.744571468648,
    "tel": "0289-64-2134",
    "url": "",
    "pref": "栃木県",
    "city": "鹿沼市",
    "category": "rouken",
    "serviceType": "介護老人保健施設",
    "capacity": 0,
    "openDays": [],
    "openDaysNote": ""
  },
  {
    "id": "950580043",
    "name": "介護老人保健施設　たけむらクローバー館",
    "kana": "カイゴロウジンホケンシセツ　タケムラクローバーカン",
    "address": "栃木県鹿沼市茂呂１８５８-１４７",
    "lat": 36.5366567,
    "lng": 139.7717363,
    "tel": "0289-63-6020",
    "url": "http://takemuracloverkan.com/",
    "pref": "栃木県",
    "city": "鹿沼市",
    "category": "rouken",
    "serviceType": "介護老人保健施設",
    "capacity": 0,
    "openDays": [],
    "openDaysNote": ""
  },
  {
    "id": "950580027",
    "name": "老人保健施設かみつが",
    "kana": "ロウジンホケンシセツカミツガ",
    "address": "栃木県鹿沼市上殿町９６０－２老人保健施設かみつが 老人保健施設かみつが",
    "lat": 36.5544289,
    "lng": 139.7521736,
    "tel": "0289-64-7233",
    "url": "https://www.kamituga-roken.jp",
    "pref": "栃木県",
    "city": "鹿沼市",
    "category": "rouken",
    "serviceType": "介護老人保健施設",
    "capacity": 0,
    "openDays": [],
    "openDaysNote": ""
  },
  {
    "id": "950880047",
    "name": "医療法人　朝日会　介護老人保健施設　思川ケアステージ",
    "kana": "イリョウホウジン　アサヒカイ　カイゴロウジンホケンシセツ　オモイガワケアステージ",
    "address": "栃木県小山市喜沢660",
    "lat": 36.3457718,
    "lng": 139.8216006,
    "tel": "0285-21-3322",
    "url": "http://www.asahi-hp.or.jp/care_institution/",
    "pref": "栃木県",
    "city": "小山市",
    "category": "rouken",
    "serviceType": "介護老人保健施設",
    "capacity": 0,
    "openDays": [],
    "openDaysNote": ""
  },
  {
    "id": "950880039",
    "name": "介護老人保健施設　さくら野",
    "kana": "カイゴロウジンホケンシセツ　サクラノ",
    "address": "栃木県小山市大字卒島１１０番地",
    "lat": 36.3386926,
    "lng": 139.7780824,
    "tel": "0285-37-1110",
    "url": "http://www.sakura-ac.com/",
    "pref": "栃木県",
    "city": "小山市",
    "category": "rouken",
    "serviceType": "介護老人保健施設",
    "capacity": 0,
    "openDays": [],
    "openDaysNote": ""
  },
  {
    "id": "950880013",
    "name": "介護老人保健施設　つむぎの郷",
    "kana": "カイゴロウジンホケンシセツ　ツムギノサト",
    "address": "栃木県小山市犬塚６２-２",
    "lat": 36.3226082,
    "lng": 139.8327752,
    "tel": "0285-25-8200",
    "url": "http://www.hoshinokai.com/",
    "pref": "栃木県",
    "city": "小山市",
    "category": "rouken",
    "serviceType": "介護老人保健施設",
    "capacity": 0,
    "openDays": [],
    "openDaysNote": ""
  },
  {
    "id": "950880021",
    "name": "介護老人保健施設　祇園荘",
    "kana": "カイゴロウジンホケンシセツ　ギオンソウ",
    "address": "栃木県小山市城山町2丁目7番18号",
    "lat": 36.3150133,
    "lng": 139.8034112,
    "tel": "0285-23-7131",
    "url": "http://www.sugimura-hospital.jp/gionsou/",
    "pref": "栃木県",
    "city": "小山市",
    "category": "rouken",
    "serviceType": "介護老人保健施設",
    "capacity": 0,
    "openDays": [],
    "openDaysNote": ""
  },
  {
    "id": "950880070",
    "name": "介護老人保健施設　空の舎",
    "kana": "カイゴロウジンホケンシセツ　ソラノイエ",
    "address": "栃木県小山市若木町一丁目1-2",
    "lat": 36.3230064,
    "lng": 139.8005198,
    "tel": "0285-37-6207",
    "url": "https://www.nogihosp.or.jp",
    "pref": "栃木県",
    "city": "小山市",
    "category": "rouken",
    "serviceType": "介護老人保健施設",
    "capacity": 80,
    "openDays": [],
    "openDaysNote": ""
  },
  {
    "id": "950880054",
    "name": "介護老人保健施設晃南",
    "kana": "カイゴロウジンホケンシセツコウナン",
    "address": "栃木県小山市乙女７９５",
    "lat": 36.258546,
    "lng": 139.7592339,
    "tel": "0285-45-8225",
    "url": "http://care-net.biz/09/kounan",
    "pref": "栃木県",
    "city": "小山市",
    "category": "rouken",
    "serviceType": "介護老人保健施設",
    "capacity": 0,
    "openDays": [],
    "openDaysNote": ""
  },
  {
    "id": "950980029",
    "name": "ナーシングホーム青葉",
    "kana": "ナーシングホームアオバ",
    "address": "栃木県真岡市高勢町一丁目２０９－１",
    "lat": 36.4368541,
    "lng": 139.9787143,
    "tel": "0285-83-5788",
    "url": "http://www.sakurai-naika.jp/",
    "pref": "栃木県",
    "city": "真岡市",
    "category": "rouken",
    "serviceType": "介護老人保健施設",
    "capacity": 100,
    "openDays": [],
    "openDaysNote": ""
  },
  {
    "id": "950980037",
    "name": "わたのみ荘",
    "kana": "ワタノミソウ",
    "address": "栃木県真岡市荒町３丁目４６番地９",
    "lat": 36.4457295,
    "lng": 140.01698,
    "tel": "0285-83-6161",
    "url": "http://moka-hp.jp",
    "pref": "栃木県",
    "city": "真岡市",
    "category": "rouken",
    "serviceType": "介護老人保健施設",
    "capacity": 0,
    "openDays": [],
    "openDaysNote": ""
  },
  {
    "id": "950980011",
    "name": "介護老人保健施設　春祺荘",
    "kana": "カイゴロウジンホケンシセツ　シュンキソウ",
    "address": "栃木県真岡市亀山350-1",
    "lat": 36.4607491,
    "lng": 139.988596,
    "tel": "0285-83-1102",
    "url": "http://care-net.biz/09/shunkiso/",
    "pref": "栃木県",
    "city": "真岡市",
    "category": "rouken",
    "serviceType": "介護老人保健施設",
    "capacity": 0,
    "openDays": [],
    "openDaysNote": ""
  },
  {
    "id": "952380012",
    "name": "老人保健施設　みなと荘",
    "kana": "ロウジンホケンシセツ　ミナトソウ",
    "address": "栃木県下都賀郡壬生町大字北小林８１５",
    "lat": 36.4758971002411,
    "lng": 139.821712103844,
    "tel": "0282-86-3710",
    "url": "http://www.tochinokikai.or.jp",
    "pref": "栃木県",
    "city": "壬生町",
    "category": "rouken",
    "serviceType": "介護老人保健施設",
    "capacity": 0,
    "openDays": [],
    "openDaysNote": ""
  },
  {
    "id": "950280024",
    "name": "介護老人保健施設　グリーンヒルズ２１",
    "kana": "カイゴロウジンホケンシセツ　グリーンヒルズニジュウイチ",
    "address": "栃木県足利市大前町1220",
    "lat": 36.3630702,
    "lng": 139.4035035,
    "tel": "0284-64-1711",
    "url": "http://www.koubai-kai.or.jp/",
    "pref": "栃木県",
    "city": "足利市",
    "category": "rouken",
    "serviceType": "介護老人保健施設",
    "capacity": 100,
    "openDays": [],
    "openDaysNote": ""
  },
  {
    "id": "950280016",
    "name": "介護老人保健施設　グリーンホーム",
    "kana": "カイゴロウジンホケンシセツ　グリーンホーム",
    "address": "栃木県足利市福居町1210",
    "lat": 36.3067159,
    "lng": 139.4602232,
    "tel": "0284-71-3170",
    "url": "http://www.koueikai.com/",
    "pref": "栃木県",
    "city": "足利市",
    "category": "rouken",
    "serviceType": "介護老人保健施設",
    "capacity": 0,
    "openDays": [],
    "openDaysNote": ""
  },
  {
    "id": "950280065",
    "name": "介護老人保健施設　たすけあい",
    "kana": "カイゴロウジンホケンシセツ　タスケアイ",
    "address": "栃木県足利市花園町１－２",
    "lat": 36.3359996,
    "lng": 139.4744772,
    "tel": "0284-40-3301",
    "url": "http://www17.ocn.ne.jp/~shobikai/",
    "pref": "栃木県",
    "city": "足利市",
    "category": "rouken",
    "serviceType": "介護老人保健施設",
    "capacity": 0,
    "openDays": [],
    "openDaysNote": ""
  },
  {
    "id": "950280057",
    "name": "介護老人保健施設　マーガレットヒルズ",
    "kana": "カイゴロウジンホケンシセツ　マーガレットヒルズ",
    "address": "栃木県足利市五十部町１７４９番地５",
    "lat": 36.3518244,
    "lng": 139.4226544,
    "tel": "0284-20-1515",
    "url": "http://www.1515.or.jp",
    "pref": "栃木県",
    "city": "足利市",
    "category": "rouken",
    "serviceType": "介護老人保健施設",
    "capacity": 0,
    "openDays": [],
    "openDaysNote": ""
  },
  {
    "id": "950280073",
    "name": "介護老人保健施設　葵の園・足利",
    "kana": "カイゴロウジンホケンシセツ　アオイノソノ・アシカガ",
    "address": "栃木県足利市常見町二丁目10-1",
    "lat": 36.3182303865769,
    "lng": 139.486186319049,
    "tel": "0284-44-0707",
    "url": "http://www.aoikai.jp/",
    "pref": "栃木県",
    "city": "足利市",
    "category": "rouken",
    "serviceType": "介護老人保健施設",
    "capacity": 0,
    "openDays": [],
    "openDaysNote": ""
  },
  {
    "id": "950280032",
    "name": "介護老人保健施設　四恩苑",
    "kana": "カイゴロウジンホケンシセツ　シオンエン",
    "address": "栃木県足利市多田木町1168-1",
    "lat": 36.3139066,
    "lng": 139.5318001,
    "tel": "0284-91-4800",
    "url": "http://www.ryu-sei.or.jp",
    "pref": "栃木県",
    "city": "足利市",
    "category": "rouken",
    "serviceType": "介護老人保健施設",
    "capacity": 53,
    "openDays": [],
    "openDaysNote": ""
  },
  {
    "id": "951080001",
    "name": "介護老人保健施設　同仁苑",
    "kana": "カイゴロウジンホケンシセツ　ドウジンエン",
    "address": "栃木県大田原市下石上1452番地",
    "lat": 36.8564476,
    "lng": 139.9480717,
    "tel": "0287-26-2323",
    "url": "http://www.nasuchuoh-hospital.jp",
    "pref": "栃木県",
    "city": "大田原市",
    "category": "rouken",
    "serviceType": "介護老人保健施設",
    "capacity": 0,
    "openDays": [],
    "openDaysNote": ""
  },
  {
    "id": "951080019",
    "name": "介護老人保健施設椿寿荘",
    "kana": "カイゴロウジンホケンシセツ　チンジュソウ",
    "address": "栃木県大田原市末広１丁目２番５号",
    "lat": 36.8605882,
    "lng": 140.0206189,
    "tel": "0287-23-8880",
    "url": "http://www.tinjyusoh.jp/",
    "pref": "栃木県",
    "city": "大田原市",
    "category": "rouken",
    "serviceType": "介護老人保健施設",
    "capacity": 0,
    "openDays": [],
    "openDaysNote": ""
  },
  {
    "id": "950380030",
    "name": "一般財団法人とちぎメディカルセンター　介護老人保健施設とちぎの郷",
    "kana": "イッパンザイダンホウジントチギメディカルセンター　カイゴロウジンホケンシセツトチギノサト",
    "address": "栃木県栃木市境町２７番２１号",
    "lat": 36.3684294581716,
    "lng": 139.727073322107,
    "tel": "0282-21-8290",
    "url": "http://www.tochigi-medicalcenter.or.jp/tochiginosato/",
    "pref": "栃木県",
    "city": "栃木市",
    "category": "rouken",
    "serviceType": "介護老人保健施設",
    "capacity": 0,
    "openDays": [],
    "openDaysNote": ""
  },
  {
    "id": "950380022",
    "name": "介護老人保健施設　ノイエシュテルン",
    "kana": "カイゴロウジンホケンシセツ　ノイエシュテルン",
    "address": "栃木県栃木市惣社町138番地",
    "lat": 36.3999576,
    "lng": 139.7811653,
    "tel": "0282-27-2522",
    "url": "http://www.sfk.or.jp/",
    "pref": "栃木県",
    "city": "栃木市",
    "category": "rouken",
    "serviceType": "介護老人保健施設",
    "capacity": 0,
    "openDays": [],
    "openDaysNote": ""
  },
  {
    "id": "951680016",
    "name": "介護老人保健施設　リハビリパークぶどうの舎",
    "kana": "カイゴロウジンホケンシセツ　リハビリパークブドウノイエ",
    "address": "栃木県栃木市大平町富田5-232",
    "lat": 36.3357014871915,
    "lng": 139.705106256097,
    "tel": "0282-21-8833",
    "url": "http://www.nogihosp.or.jp",
    "pref": "栃木県",
    "city": "栃木市",
    "category": "rouken",
    "serviceType": "介護老人保健施設",
    "capacity": 100,
    "openDays": [],
    "openDaysNote": ""
  },
  {
    "id": "952380038",
    "name": "介護老人保健施設　安純の里",
    "kana": "カイゴロウジンホケンシセツ　アズミノサト",
    "address": "栃木県栃木市岩舟町古江４０５",
    "lat": 36.3278272,
    "lng": 139.6195474,
    "tel": "0282-55-2000",
    "url": "http://azumi.s-y.gr.com/",
    "pref": "栃木県",
    "city": "栃木市",
    "category": "rouken",
    "serviceType": "介護老人保健施設",
    "capacity": 100,
    "openDays": [],
    "openDaysNote": ""
  },
  {
    "id": "952280014",
    "name": "介護老人保健施設にしかた",
    "kana": "カイゴロウジンホケンシセツニシカタ",
    "address": "栃木県栃木市西方町金崎273番地",
    "lat": 36.468929,
    "lng": 139.7459517,
    "tel": "0282-92-2324",
    "url": "http://www.cc9.ne.jp/~nishikata-hosp/",
    "pref": "栃木県",
    "city": "栃木市",
    "category": "rouken",
    "serviceType": "介護老人保健施設",
    "capacity": 0,
    "openDays": [],
    "openDaysNote": ""
  },
  {
    "id": "952380046",
    "name": "介護老人保健施設八州苑",
    "kana": "カイゴロウジンホケンシセツハッシュウエン",
    "address": "栃木県栃木市藤岡町太田1394番地1",
    "lat": 36.3079826,
    "lng": 139.6491149,
    "tel": "0282-62-0888",
    "url": "https://www.mokusuikai.com/",
    "pref": "栃木県",
    "city": "栃木市",
    "category": "rouken",
    "serviceType": "介護老人保健施設",
    "capacity": 0,
    "openDays": [],
    "openDaysNote": ""
  },
  {
    "id": "952580025",
    "name": "介護老人保健施設　富士山苑",
    "kana": "カイゴロウジンホケンシセツ　フジヤマエン",
    "address": "栃木県那須烏山市滝田1868-28",
    "lat": 36.6803487,
    "lng": 140.1456361,
    "tel": "0287-84-1588",
    "url": "",
    "pref": "栃木県",
    "city": "那須烏山市",
    "category": "rouken",
    "serviceType": "介護老人保健施設",
    "capacity": 0,
    "openDays": [],
    "openDaysNote": ""
  },
  {
    "id": "952580033",
    "name": "南那須介護老人保健施設",
    "kana": "ミナミナスカイゴロウジンホケンシセツ",
    "address": "栃木県那須烏山市鴻野山２１２－２",
    "lat": 36.6654785,
    "lng": 140.0587057,
    "tel": "0287-88-6213",
    "url": "minaminasu2012@yahoo.co.jp",
    "pref": "栃木県",
    "city": "那須烏山市",
    "category": "rouken",
    "serviceType": "介護老人保健施設",
    "capacity": 0,
    "openDays": [],
    "openDaysNote": ""
  },
  {
    "id": "951380021",
    "name": "介護老人保健施設　葵の園・那須塩原",
    "kana": "カイゴロウジンホケンシセツ　アオイノソノナスシオバラ",
    "address": "栃木県那須塩原市鍋掛1088-719",
    "lat": 36.955865136028,
    "lng": 140.073018854631,
    "tel": "0287-79-1100",
    "url": "https://www.aoikai.jp",
    "pref": "栃木県",
    "city": "那須塩原市",
    "category": "rouken",
    "serviceType": "介護老人保健施設",
    "capacity": 0,
    "openDays": [],
    "openDaysNote": ""
  },
  {
    "id": "951280015",
    "name": "介護老人保健施設　秋桜の家",
    "kana": "カイゴロウジンホケンシセツ　コスモスノイエ",
    "address": "栃木県那須塩原市大原間81",
    "lat": 36.9250009,
    "lng": 140.0207111,
    "tel": "0287-65-2100",
    "url": "http://wata01.sakura.ne.jp/cosmos/",
    "pref": "栃木県",
    "city": "那須塩原市",
    "category": "rouken",
    "serviceType": "介護老人保健施設",
    "capacity": 0,
    "openDays": [],
    "openDaysNote": ""
  },
  {
    "id": "951380013",
    "name": "介護老人保健施設いたむろ（平成22年度新規指定事業所）",
    "kana": "カイゴロウジンホケンシセツイタムロ",
    "address": "栃木県那須塩原市百村3042番地31",
    "lat": 37.0471015,
    "lng": 139.9391458,
    "tel": "0287-69-0316",
    "url": "http://www.kousaikai-itamuro.or.jp",
    "pref": "栃木県",
    "city": "那須塩原市",
    "category": "rouken",
    "serviceType": "介護老人保健施設",
    "capacity": 0,
    "openDays": [],
    "openDaysNote": ""
  },
  {
    "id": "951380005",
    "name": "介護老人保健施設マロニエ苑",
    "kana": "カイゴロウジンホケンシセツマロニエエン",
    "address": "栃木県那須塩原市井口５３３－４",
    "lat": 36.911467,
    "lng": 139.972494,
    "tel": "0287-36-6622",
    "url": "http://www.iuhw.ac.jp/maronie/",
    "pref": "栃木県",
    "city": "那須塩原市",
    "category": "rouken",
    "serviceType": "介護老人保健施設",
    "capacity": 149,
    "openDays": [],
    "openDaysNote": ""
  },
  {
    "id": "950680025",
    "name": "医療法人社団双愛会介護老人保健施設そうあい（介護老人保健施設）",
    "kana": "イリョウホウジンシャダンソウアイカイカイゴロウジンホケンシセツソウアイ（カイゴロウジンホケンシセツ）",
    "address": "栃木県日光市足尾町砂畑4147-2",
    "lat": 36.628977,
    "lng": 139.4339694,
    "tel": "0288-93-2011",
    "url": "",
    "pref": "栃木県",
    "city": "日光市",
    "category": "rouken",
    "serviceType": "介護老人保健施設",
    "capacity": 0,
    "openDays": [],
    "openDaysNote": ""
  },
  {
    "id": "950780015",
    "name": "介護老人保健施設　今市Ｌケアセンター",
    "kana": "カイゴロウジンホケンシセツ　イマイチエルケアセンター",
    "address": "栃木県日光市平ヶ崎６０５－１",
    "lat": 36.7158745,
    "lng": 139.6818208,
    "tel": "0288-22-8881",
    "url": "http://yaoitakinenkai.or.jp/",
    "pref": "栃木県",
    "city": "日光市",
    "category": "rouken",
    "serviceType": "介護老人保健施設",
    "capacity": 0,
    "openDays": [],
    "openDaysNote": ""
  },
  {
    "id": "950780023",
    "name": "介護老人保健施設ヴィラフォーレスタ（森の家）",
    "kana": "カイゴロウジンホケンシセツゔィラフォーレスタモリノイエ",
    "address": "栃木県日光市根室６０７-５",
    "lat": 36.7084002,
    "lng": 139.779072,
    "tel": "0288-26-6500",
    "url": "https://www.villaforesta.jp",
    "pref": "栃木県",
    "city": "日光市",
    "category": "rouken",
    "serviceType": "介護老人保健施設",
    "capacity": 0,
    "openDays": [],
    "openDaysNote": ""
  },
  {
    "id": "950680017",
    "name": "介護老人保健施設にっこう",
    "kana": "カイゴロウジンホケンシセツニッコウ",
    "address": "栃木県日光市清滝安良沢町1752-10",
    "lat": 36.7497155,
    "lng": 139.5762159,
    "tel": "0288-50-1165",
    "url": "http://www.nikko-roken.jp/html/",
    "pref": "栃木県",
    "city": "日光市",
    "category": "rouken",
    "serviceType": "介護老人保健施設",
    "capacity": 0,
    "openDays": [],
    "openDaysNote": ""
  },
  {
    "id": "950780007",
    "name": "介護老人保健施設見龍堂メディケアユニッツ",
    "kana": "カイゴロウジンホケンシセツケンリュウドウメディケアユニッツ",
    "address": "栃木県日光市木和田島3008-8",
    "lat": 36.681261,
    "lng": 139.7529119,
    "tel": "0288-32-2213",
    "url": "https://yaoitakinenkai.or.jp/",
    "pref": "栃木県",
    "city": "日光市",
    "category": "rouken",
    "serviceType": "介護老人保健施設",
    "capacity": 0,
    "openDays": [],
    "openDaysNote": ""
  },
  {
    "id": "952780005",
    "name": "介護老人保健施設もてぎの森うごうだ城",
    "kana": "カイゴロウジンホケンシセツモテギノモリウゴウダジョウ",
    "address": "栃木県芳賀郡茂木町大字烏生田３３０番地",
    "lat": 36.5797257,
    "lng": 140.1795378,
    "tel": "0285-64-1167",
    "url": "http://www.moteginomori.com/",
    "pref": "栃木県",
    "city": "茂木町",
    "category": "rouken",
    "serviceType": "介護老人保健施設",
    "capacity": 100,
    "openDays": [],
    "openDaysNote": ""
  },
  {
    "id": "952380020",
    "name": "介護老人保健施設　ひまわり荘",
    "kana": "カイゴロウジンホケンシセツ　ヒマワリソウ",
    "address": "栃木県下都賀郡野木町南赤塚1218-1",
    "lat": 36.2189643,
    "lng": 139.7479142,
    "tel": "0280-57-0300",
    "url": "https://www.nogihosp.or.jp/facility/himawari",
    "pref": "栃木県",
    "city": "野木町",
    "category": "rouken",
    "serviceType": "介護老人保健施設",
    "capacity": 150,
    "openDays": [],
    "openDaysNote": ""
  },
  {
    "id": "951180017",
    "name": "介護老人保健施設アゼリアホーム",
    "kana": "カイゴロウジンホケンシセツアゼリアホーム",
    "address": "栃木県矢板市末広町４５番地３",
    "lat": 36.8049451,
    "lng": 139.935592,
    "tel": "0287-44-3033",
    "url": "http://www.ogata-cl.or.jp/azeriahome/index.html",
    "pref": "栃木県",
    "city": "矢板市",
    "category": "rouken",
    "serviceType": "介護老人保健施設",
    "capacity": 0,
    "openDays": [],
    "openDaysNote": ""
  }
]