[
  {
    "id": "4750380000",
    "name": "介護老人保健施設　陽光館",
    "kana": "カイゴロウジンホケンシセツ　ヨウコウカン",
    "address": "沖縄県うるま市字上江洲661番地",
    "lat": 26.3581338,
    "lng": 127.8597499,
    "tel": "098-974-4000",
    "url": "http://www5.ocn.jp/~heiwahsp/youkoukan/htm",
    "pref": "沖縄県",
    "city": "うるま市",
    "category": "rouken",
    "serviceType": "介護老人保健施設",
    "capacity": 140,
    "openDays": [],
    "openDaysNote": ""
  },
  {
    "id": "4750280002",
    "name": "介護老人保健施設いしかわ願寿ぬ森",
    "kana": "カイゴロウジンホケンシセツ　イシカワガンジュヌムイ",
    "address": "沖縄県うるま市石川3273番地2",
    "lat": 26.4472331,
    "lng": 127.8287469,
    "tel": "098-964-6511",
    "url": "https://www.ganju-daiwa.com/",
    "pref": "沖縄県",
    "city": "うるま市",
    "category": "rouken",
    "serviceType": "介護老人保健施設",
    "capacity": 80,
    "openDays": [],
    "openDaysNote": ""
  },
  {
    "id": "4751280050",
    "name": "介護老人保健施設いずみ苑",
    "kana": "カイゴロウジンホケンシセツイズミエン",
    "address": "沖縄県うるま市字栄野比1150番地",
    "lat": 26.3975013,
    "lng": 127.827835,
    "tel": "098-972-7123",
    "url": "http://www.izumihospital1985.or.jp",
    "pref": "沖縄県",
    "city": "うるま市",
    "category": "rouken",
    "serviceType": "介護老人保健施設",
    "capacity": 0,
    "openDays": [],
    "openDaysNote": ""
  },
  {
    "id": "4750880017",
    "name": "介護老人保健施設アルカディア",
    "kana": "カイゴロウジンホケンシセツアルカディア",
    "address": "沖縄県浦添市伊祖４丁目16番1号",
    "lat": 26.2545434,
    "lng": 127.7231203,
    "tel": "098-879-1000",
    "url": "http://www.jin―aikai.com/zaitaku/index.htm",
    "pref": "沖縄県",
    "city": "浦添市",
    "category": "rouken",
    "serviceType": "介護老人保健施設",
    "capacity": 0,
    "openDays": [],
    "openDaysNote": ""
  },
  {
    "id": "4750880009",
    "name": "介護老人保健施設エメロードてだこ苑",
    "kana": "カイゴロウジンホケンシセツエメロードテダコエン",
    "address": "沖縄県浦添市牧港３－１－１",
    "lat": 26.258668345434,
    "lng": 127.728686779901,
    "tel": "098-873-0717",
    "url": "http://www.tedakoen.jp/",
    "pref": "沖縄県",
    "city": "浦添市",
    "category": "rouken",
    "serviceType": "介護老人保健施設",
    "capacity": 0,
    "openDays": [],
    "openDaysNote": ""
  },
  {
    "id": "4750480032",
    "name": "介護老人保健施設　おきなわ徳洲苑",
    "kana": "カイゴロウジンホケンシセツ　オキナワトクシュウエン",
    "address": "沖縄県沖縄市胡屋6丁目4番19号",
    "lat": 26.3268951,
    "lng": 127.8100137,
    "tel": "098-931-1215",
    "url": "http://www.cyutoku.or.jp/groups/tokushuen/",
    "pref": "沖縄県",
    "city": "沖縄市",
    "category": "rouken",
    "serviceType": "介護老人保健施設",
    "capacity": 0,
    "openDays": [],
    "openDaysNote": ""
  },
  {
    "id": "4750480016",
    "name": "介護老人保健施設　亀の里",
    "kana": "カイゴロウジンホケンシセツ　カメノサト",
    "address": "沖縄県沖縄市比屋根二丁目15番2号",
    "lat": 26.3142679,
    "lng": 127.8238905,
    "tel": "098-933-7772",
    "url": "http://www.tapic-reha.or.jp/",
    "pref": "沖縄県",
    "city": "沖縄市",
    "category": "rouken",
    "serviceType": "介護老人保健施設",
    "capacity": 0,
    "openDays": [],
    "openDaysNote": ""
  },
  {
    "id": "4750580013",
    "name": "介護老人保健施設ぎのわんおもと園",
    "kana": "カイゴロウジンホケンシセツギノワンオモトエン",
    "address": "沖縄県宜野湾市嘉数4丁目4番10号",
    "lat": 26.2614151,
    "lng": 127.7331831,
    "tel": "098-898-1010",
    "url": "http://www.omotokai.or.jp/gnowan/index.html",
    "pref": "沖縄県",
    "city": "宜野湾市",
    "category": "rouken",
    "serviceType": "介護老人保健施設",
    "capacity": 120,
    "openDays": [],
    "openDaysNote": ""
  },
  {
    "id": "4751480007",
    "name": "介護老人保健施設　　シルバーケア悠悠",
    "kana": "カイゴロウジンホケンシセツ　シルバーケアユウユウ",
    "address": "沖縄県宮古島市下地字嘉手苅660番地1",
    "lat": 24.7385661,
    "lng": 125.3107738,
    "tel": "0980-74-7000",
    "url": "http://www.yu-yu.net",
    "pref": "沖縄県",
    "city": "宮古島市",
    "category": "rouken",
    "serviceType": "介護老人保健施設",
    "capacity": 0,
    "openDays": [],
    "openDaysNote": ""
  },
  {
    "id": "4750680003",
    "name": "介護老人保健施設栄寿園",
    "kana": "カイゴロウジンホケンシセツエイジュエン",
    "address": "沖縄県宮古島市平良字下里2662番地",
    "lat": 24.7710413,
    "lng": 125.3114043,
    "tel": "0980-73-6481",
    "url": "http://www.eijuen.com",
    "pref": "沖縄県",
    "city": "宮古島市",
    "category": "rouken",
    "serviceType": "介護老人保健施設",
    "capacity": 0,
    "openDays": [],
    "openDaysNote": ""
  },
  {
    "id": "4751280035",
    "name": "介護老人保健施設　信愛の丘",
    "kana": "カイゴロウジンホケンシセツ　シンアイノオカ",
    "address": "沖縄県国頭郡金武町字屋嘉２７２４番地",
    "lat": 26.4420645,
    "lng": 127.8445181,
    "tel": "098-965-6655",
    "url": "http://shinaikai.com/",
    "pref": "沖縄県",
    "city": "金武町",
    "category": "rouken",
    "serviceType": "介護老人保健施設",
    "capacity": 100,
    "openDays": [],
    "openDaysNote": ""
  },
  {
    "id": "4751180003",
    "name": "介護老人保健施設　和光園",
    "kana": "カイゴロウジンホケンシセツ　ワコウエン",
    "address": "沖縄県国頭郡今帰仁村字今泊307番地",
    "lat": 26.6991955,
    "lng": 127.92518,
    "tel": "0980-56-5700",
    "url": "http://www.oki-kofukai.or.jp/",
    "pref": "沖縄県",
    "city": "今帰仁村",
    "category": "rouken",
    "serviceType": "介護老人保健施設",
    "capacity": 100,
    "openDays": [],
    "openDaysNote": ""
  },
  {
    "id": "4751380041",
    "name": "介護老人保健施設　白寿園",
    "kana": "カイゴロウジンホケンシセツ　ハクジュエン",
    "address": "沖縄県糸満市字武富175番地1",
    "lat": 26.1655181,
    "lng": 127.6937483,
    "tel": "098-992-0088",
    "url": "http://www.hakujyukai.com",
    "pref": "沖縄県",
    "city": "糸満市",
    "category": "rouken",
    "serviceType": "介護老人保健施設",
    "capacity": 0,
    "openDays": [],
    "openDaysNote": ""
  },
  {
    "id": "4751080013",
    "name": "介護老人保健施設サクラビア",
    "kana": "カイゴロウジンホケンシセツサクラビア",
    "address": "沖縄県糸満市字座波371番地１",
    "lat": 26.1481384,
    "lng": 127.6878767,
    "tel": "098-994-8749",
    "url": "http://iwakikai.net/",
    "pref": "沖縄県",
    "city": "糸満市",
    "category": "rouken",
    "serviceType": "介護老人保健施設",
    "capacity": 0,
    "openDays": [],
    "openDaysNote": ""
  },
  {
    "id": "4751280068",
    "name": "介護老人保健施設　西原敬愛園",
    "kana": "カイゴロウジンホケンシセツ　ニシハラケイアイエン",
    "address": "沖縄県中頭郡西原町徳佐田159番地1",
    "lat": 26.2442283,
    "lng": 127.7502075,
    "tel": "098-946-2111",
    "url": "http://www.keiaien.or.jp",
    "pref": "沖縄県",
    "city": "西原町",
    "category": "rouken",
    "serviceType": "介護老人保健施設",
    "capacity": 0,
    "openDays": [],
    "openDaysNote": ""
  },
  {
    "id": "4751280043",
    "name": "介護老人保健施設　池田苑",
    "kana": "カイゴロウジンホケンシセツ　イケダエン",
    "address": "沖縄県西原町池田757番地",
    "lat": 26.2208388,
    "lng": 127.7442565,
    "tel": "098-946-2000",
    "url": "http://www.aiwakai.jp",
    "pref": "沖縄県",
    "city": "西原町",
    "category": "rouken",
    "serviceType": "介護老人保健施設",
    "capacity": 0,
    "openDays": [],
    "openDaysNote": ""
  },
  {
    "id": "4750780019",
    "name": "介護老人保健施設　聖紫花の杜",
    "kana": "カイゴロウジンホケンシセツ　セイシカノモリ",
    "address": "沖縄県石垣市字新川２１２７番地の２",
    "lat": 24.3606321,
    "lng": 124.1414932,
    "tel": "0980-83-5898",
    "url": "",
    "pref": "沖縄県",
    "city": "石垣市",
    "category": "rouken",
    "serviceType": "介護老人保健施設",
    "capacity": 0,
    "openDays": [],
    "openDaysNote": ""
  },
  {
    "id": "4750780001",
    "name": "介護老人保健施設いしがき太陽の里",
    "kana": "カイゴロウジンホケンシセツイシガキタイヨウノサト",
    "address": "沖縄県石垣市大浜１３４９番地の８１",
    "lat": 24.3561075066917,
    "lng": 124.205150803383,
    "tel": "0980-82-0011",
    "url": "http://ishigaki-taiyounosato.com/",
    "pref": "沖縄県",
    "city": "石垣市",
    "category": "rouken",
    "serviceType": "介護老人保健施設",
    "capacity": 0,
    "openDays": [],
    "openDaysNote": ""
  },
  {
    "id": "4751280076",
    "name": "介護老人保健施設　中城苑",
    "kana": "カイゴロウジンホケンシセツ　ナカグズクエン",
    "address": "沖縄県中城村字奥間９０９－１",
    "lat": 26.2553194,
    "lng": 127.789518,
    "tel": "098-895-4165",
    "url": "http://www.",
    "pref": "沖縄県",
    "city": "中城村",
    "category": "rouken",
    "serviceType": "介護老人保健施設",
    "capacity": null,
    "openDays": [],
    "openDaysNote": ""
  },
  {
    "id": "4751280027",
    "name": "介護老人保健施設信成苑",
    "kana": "カイゴロウジンホケンシセツシンセイエン",
    "address": "沖縄県中頭郡中城村字添石363番地",
    "lat": 26.2770482,
    "lng": 127.796658,
    "tel": "098-895-2055",
    "url": "http://www.inahokai@inahokai.jp",
    "pref": "沖縄県",
    "city": "中城村",
    "category": "rouken",
    "serviceType": "介護老人保健施設",
    "capacity": 0,
    "openDays": [],
    "openDaysNote": ""
  },
  {
    "id": "4750180061",
    "name": "介護老人保健施設　はなみずき",
    "kana": "カイゴロウジンホケンシセツ　ハナミズキ",
    "address": "沖縄県那覇市識名三丁目20番12号",
    "lat": 26.2043358,
    "lng": 127.70851724418,
    "tel": "098-836-8100",
    "url": "http://seihuuen.net",
    "pref": "沖縄県",
    "city": "那覇市",
    "category": "rouken",
    "serviceType": "介護老人保健施設",
    "capacity": null,
    "openDays": [],
    "openDaysNote": ""
  },
  {
    "id": "4750180046",
    "name": "介護老人保健施設　やすらぎの里",
    "kana": "カイゴロウジンホケンシセツ　ヤスラギノサト",
    "address": "沖縄県那覇市安里三丁目１番５７号",
    "lat": 26.2187177,
    "lng": 127.6963634,
    "tel": "098-869-0030",
    "url": "",
    "pref": "沖縄県",
    "city": "那覇市",
    "category": "rouken",
    "serviceType": "介護老人保健施設",
    "capacity": 0,
    "openDays": [],
    "openDaysNote": ""
  },
  {
    "id": "4750180038",
    "name": "介護老人保健施設　識名清風苑",
    "kana": "カイゴロウジンホケンシセツ　シキナセイフウエン",
    "address": "沖縄県那覇市識名3丁目20番12号",
    "lat": 26.2043059,
    "lng": 127.7084663,
    "tel": "098-836-8100",
    "url": "seifuen_jimu8100@orion.ocn.ne.jp",
    "pref": "沖縄県",
    "city": "那覇市",
    "category": "rouken",
    "serviceType": "介護老人保健施設",
    "capacity": 0,
    "openDays": [],
    "openDaysNote": ""
  },
  {
    "id": "4750180004",
    "name": "介護老人保健施設オリブ園",
    "kana": "カイゴロウジンホケンシセツオリブエン",
    "address": "沖縄県那覇市首里石嶺町４丁目３９１番地１",
    "lat": 26.230956,
    "lng": 127.7347815,
    "tel": "098-886-0214",
    "url": "https://oribuyama.jp/oribuen/",
    "pref": "沖縄県",
    "city": "那覇市",
    "category": "rouken",
    "serviceType": "介護老人保健施設",
    "capacity": 81,
    "openDays": [],
    "openDaysNote": ""
  },
  {
    "id": "4750180020",
    "name": "介護老人保健施設シルバーピアしきな",
    "kana": "カイゴロウジンホケンシセツシルバーピアシキナ",
    "address": "沖縄県那覇市識名2丁目6番35号",
    "lat": 26.2072667,
    "lng": 127.7086216,
    "tel": "098-833-1165",
    "url": "https://www.silverpiashikina.com",
    "pref": "沖縄県",
    "city": "那覇市",
    "category": "rouken",
    "serviceType": "介護老人保健施設",
    "capacity": 95,
    "openDays": [],
    "openDaysNote": ""
  },
  {
    "id": "4750180053",
    "name": "介護老人保健施設パークヒル天久",
    "kana": "カイゴロウジンホケンシセツパークヒルアメク",
    "address": "沖縄県那覇市字天久1123番地",
    "lat": 26.2311758650223,
    "lng": 127.683725324051,
    "tel": "098-868-4108",
    "url": "http://www.tjmc.or.jp",
    "pref": "沖縄県",
    "city": "那覇市",
    "category": "rouken",
    "serviceType": "介護老人保健施設",
    "capacity": 0,
    "openDays": [],
    "openDaysNote": ""
  },
  {
    "id": "4750180012",
    "name": "介護老人保健施設禄寿園",
    "kana": "カイゴロウジンホケンシセツロクジュエン",
    "address": "沖縄県那覇市小禄1丁目30番45号",
    "lat": 26.1915008,
    "lng": 127.6789696,
    "tel": "098-857-6225",
    "url": "http://www.rokujukai.or.jp",
    "pref": "沖縄県",
    "city": "那覇市",
    "category": "rouken",
    "serviceType": "介護老人保健施設",
    "capacity": 0,
    "openDays": [],
    "openDaysNote": ""
  },
  {
    "id": "4751380066",
    "name": "介護老人保健施設　おおざと信和苑",
    "kana": "カイゴロウジンホケンシセツ　オオザトシンワエン",
    "address": "沖縄県南城市大里字稲嶺1014番地",
    "lat": 26.1626415,
    "lng": 127.7372187,
    "tel": "098-946-8101",
    "url": "http://www.odh.or.jp/　　※　http://shinwaen.jimdo.com/",
    "pref": "沖縄県",
    "city": "南城市",
    "category": "rouken",
    "serviceType": "介護老人保健施設",
    "capacity": 0,
    "openDays": [],
    "openDaysNote": ""
  },
  {
    "id": "4755680016",
    "name": "介護老人保健施設　真徳苑",
    "kana": "カイゴロウジンホケンシセツ　シントクエン",
    "address": "沖縄県南城市佐敷字津波古西原2309番地",
    "lat": 26.1870530741033,
    "lng": 127.775307210104,
    "tel": "098-943-2799",
    "url": "http://www.o-medical.jp/shimtokuen/shimtokuen-index.htm",
    "pref": "沖縄県",
    "city": "南城市",
    "category": "rouken",
    "serviceType": "介護老人保健施設",
    "capacity": 0,
    "openDays": [],
    "openDaysNote": ""
  },
  {
    "id": "4751380090",
    "name": "介護老人保健施設　かりゆしの里",
    "kana": "カイゴロウジンホケンシセツ　カリユシノサト",
    "address": "沖縄県南風原町山川256-2",
    "lat": 26.1784538,
    "lng": 127.7211029,
    "tel": "098-835-6607",
    "url": "",
    "pref": "沖縄県",
    "city": "南風原町",
    "category": "rouken",
    "serviceType": "介護老人保健施設",
    "capacity": 75,
    "openDays": [],
    "openDaysNote": ""
  },
  {
    "id": "4753680018",
    "name": "介護老人保健施設　かりゆしの里",
    "kana": "カイゴロウジンホケンシセツ　カリユシノサト",
    "address": "沖縄県島尻郡南風原町山川256-2",
    "lat": 26.1782667,
    "lng": 127.7210683,
    "tel": "098-835-6607",
    "url": "",
    "pref": "沖縄県",
    "city": "南風原町",
    "category": "rouken",
    "serviceType": "介護老人保健施設",
    "capacity": 75,
    "openDays": [],
    "openDaysNote": ""
  },
  {
    "id": "4751380009",
    "name": "嬉野の園",
    "kana": "ウレシノノソノ",
    "address": "沖縄県南風原町字新川458-1",
    "lat": 26.2103365,
    "lng": 127.7286697,
    "tel": "098-888-1268",
    "url": "http://www.tazaki-group.or.jp/u-sono/u-sono.htm",
    "pref": "沖縄県",
    "city": "南風原町",
    "category": "rouken",
    "serviceType": "介護老人保健施設",
    "capacity": 0,
    "openDays": [],
    "openDaysNote": ""
  },
  {
    "id": "4755780014",
    "name": "介護老人保健施設　喜代の里",
    "kana": "カイゴロウジンホケンシセツ　キヨノサト",
    "address": "沖縄県八重瀬町字友寄４２",
    "lat": 26.1703214,
    "lng": 127.7210673,
    "tel": "098-998-6987",
    "url": "hppts//www.jowanokai.com",
    "pref": "沖縄県",
    "city": "八重瀬町",
    "category": "rouken",
    "serviceType": "介護老人保健施設",
    "capacity": null,
    "openDays": [],
    "openDaysNote": ""
  },
  {
    "id": "4751380058",
    "name": "介護老人保健施設　東風の里",
    "kana": "カイゴロウジンホケンシセツ　コチノサト",
    "address": "沖縄県八重瀬町字友寄８９１－１番地",
    "lat": 26.1696798,
    "lng": 127.725514,
    "tel": "098-998-9390",
    "url": "http://www.kochinosato.com/",
    "pref": "沖縄県",
    "city": "八重瀬町",
    "category": "rouken",
    "serviceType": "介護老人保健施設",
    "capacity": 100,
    "openDays": [],
    "openDaysNote": ""
  },
  {
    "id": "4751380017",
    "name": "介護老人保健施設　桜山荘",
    "kana": "カイゴロウジンホケンシセツ　オウザンソウ",
    "address": "沖縄県豊見城市字高嶺１１１番地",
    "lat": 26.1702532267074,
    "lng": 127.689290296295,
    "tel": "098-856-1111",
    "url": "http://www.ozanso.org/",
    "pref": "沖縄県",
    "city": "豊見城市",
    "category": "rouken",
    "serviceType": "介護老人保健施設",
    "capacity": 0,
    "openDays": [],
    "openDaysNote": ""
  },
  {
    "id": "4751380074",
    "name": "介護老人保健施設　平成苑",
    "kana": "カイゴロウジンホケンシセツ　ヘイセイエン",
    "address": "沖縄県豊見城市字名嘉地２１７番地２",
    "lat": 26.1743547,
    "lng": 127.6643687,
    "tel": "098-856-7222",
    "url": "https://www.heiseien-okinawa.com/",
    "pref": "沖縄県",
    "city": "豊見城市",
    "category": "rouken",
    "serviceType": "介護老人保健施設",
    "capacity": 0,
    "openDays": [],
    "openDaysNote": ""
  },
  {
    "id": "4751380033",
    "name": "介護老人保健施設　友愛園",
    "kana": "カイゴロウジンホケンシセツ　ユウアイエン",
    "address": "沖縄県豊見城市字上田25番地",
    "lat": 26.1755775587387,
    "lng": 127.675447647746,
    "tel": "098-856-4707",
    "url": "http://www.yuuai.or.jp/",
    "pref": "沖縄県",
    "city": "豊見城市",
    "category": "rouken",
    "serviceType": "介護老人保健施設",
    "capacity": 0,
    "openDays": [],
    "openDaysNote": ""
  },
  {
    "id": "4751380025",
    "name": "介護老人保健施設　養生の里",
    "kana": "カイゴロウジンホケンシセツ　ヨウジョウノサト",
    "address": "沖縄県豊見城市字豊見城344-5",
    "lat": 26.1842347,
    "lng": 127.6731344,
    "tel": "098-850-2161",
    "url": "http://www.yojonosato.com/",
    "pref": "沖縄県",
    "city": "豊見城市",
    "category": "rouken",
    "serviceType": "介護老人保健施設",
    "capacity": 100,
    "openDays": [],
    "openDaysNote": ""
  },
  {
    "id": "4751380082",
    "name": "介護老人保健施設はまゆう",
    "kana": "カイゴロウジンホケンシセツハマユウ",
    "address": "沖縄県豊見城市渡嘉敷150番地おもととよみの杜（総称） おもととよみの杜（総称）",
    "lat": 26.1727698,
    "lng": 127.683421,
    "tel": "098-851-0102",
    "url": "http://www.omotokai.or.jp",
    "pref": "沖縄県",
    "city": "豊見城市",
    "category": "rouken",
    "serviceType": "介護老人保健施設",
    "capacity": 0,
    "openDays": [],
    "openDaysNote": ""
  },
  {
    "id": "4751280001",
    "name": "介護老人保健施設　白川園",
    "kana": "カイゴロウジンホケンシセツ　シラカワエン",
    "address": "沖縄県中頭郡北谷町字吉原２６３番地",
    "lat": 26.3165555,
    "lng": 127.7775637,
    "tel": "098-936-5051",
    "url": "http://www.kouyoukai-oki.jp/news/info/entry-14",
    "pref": "沖縄県",
    "city": "北谷町",
    "category": "rouken",
    "serviceType": "介護老人保健施設",
    "capacity": 100,
    "openDays": [],
    "openDaysNote": ""
  },
  {
    "id": "4751280084",
    "name": "介護老人保健施設若松苑",
    "kana": "カイゴロウジンホケンシセツワカマツエン",
    "address": "沖縄県中頭郡北中城村字大城327番地",
    "lat": 26.2876168,
    "lng": 127.7996129,
    "tel": "098-935-5858",
    "url": "http://www.agape-wakamatsu.or.jp/index.jsp",
    "pref": "沖縄県",
    "city": "北中城村",
    "category": "rouken",
    "serviceType": "介護老人保健施設",
    "capacity": 0,
    "openDays": [],
    "openDaysNote": ""
  },
  {
    "id": "4751180029",
    "name": "介護老人保健施設もとぶふくぎの里",
    "kana": "カイゴロウジンホケンシセツモトブフクギノサト",
    "address": "沖縄県国頭郡本部町字石川988番地",
    "lat": 26.6932693,
    "lng": 127.8837816,
    "tel": "0980-51-7070",
    "url": "http://www.1979-hakujukai.or.jp",
    "pref": "沖縄県",
    "city": "本部町",
    "category": "rouken",
    "serviceType": "介護老人保健施設",
    "capacity": 70,
    "openDays": [],
    "openDaysNote": ""
  },
  {
    "id": "4750980015",
    "name": "介護老人保健施設　桃源の郷",
    "kana": "カイゴロウジンホケンシセツ　トウゲンノサト",
    "address": "沖縄県名護市大西３丁目１９番２５号",
    "lat": 26.5976017,
    "lng": 127.9830824,
    "tel": "0980-53-1155",
    "url": "http://www.",
    "pref": "沖縄県",
    "city": "名護市",
    "category": "rouken",
    "serviceType": "介護老人保健施設",
    "capacity": 0,
    "openDays": [],
    "openDaysNote": ""
  },
  {
    "id": "4751180011",
    "name": "介護老人保健施設あけみおの里",
    "kana": "カイゴロウジンホケンシセツアケミオノサト",
    "address": "沖縄県名護市字屋部468番地の1",
    "lat": 26.6069630286134,
    "lng": 127.946409035057,
    "tel": "0980-53-0999",
    "url": "http://ryushinkai.jp/akemio/",
    "pref": "沖縄県",
    "city": "名護市",
    "category": "rouken",
    "serviceType": "介護老人保健施設",
    "capacity": 100,
    "openDays": [],
    "openDaysNote": ""
  },
  {
    "id": "4751380108",
    "name": "介護老人保健施設　うりずん",
    "kana": "カイゴロウジンホケンシセツ　ウリズン",
    "address": "沖縄県島尻郡与那原町字板良敷1281番地1",
    "lat": 26.1907478,
    "lng": 127.7698563,
    "tel": "098-944-7000",
    "url": "http://urizunroken.jp",
    "pref": "沖縄県",
    "city": "与那原町",
    "category": "rouken",
    "serviceType": "介護老人保健施設",
    "capacity": 0,
    "openDays": [],
    "openDaysNote": ""
  }
]