[
  {
    "id": "2550480020",
    "name": "医療法人医誠会　介護老人保健施設　エスペラル近江八幡",
    "kana": "イリョウホウジンイセイカイ　カイゴロウジンホケンシセツ　エスペラルオウミハチマン",
    "address": "滋賀県近江八幡市大房町1002番地1",
    "lat": 35.1272427,
    "lng": 136.0780452,
    "tel": "0748-32-1165",
    "url": "https://esp.iseikaihp.com/fcl/esp-omi/",
    "pref": "滋賀県",
    "city": "近江八幡市",
    "category": "rouken",
    "serviceType": "介護老人保健施設",
    "capacity": 0,
    "openDays": [],
    "openDaysNote": ""
  },
  {
    "id": "2550480012",
    "name": "介護老人保健施設　ヴォーリズ老健センター",
    "kana": "カイゴロウジンホケンシセツ　ゔォーリズロウケンセンター",
    "address": "近江八幡市北之庄町４９２番地",
    "lat": 35.1524025,
    "lng": 136.0896716,
    "tel": "0748-32-2007",
    "url": "http://vo-roken.com/",
    "pref": "滋賀県",
    "city": "近江八幡市",
    "category": "rouken",
    "serviceType": "介護老人保健施設",
    "capacity": 0,
    "openDays": [],
    "openDaysNote": ""
  },
  {
    "id": "2551280015",
    "name": "介護老人保健施設ケアポート栗東",
    "kana": "カイゴロウジンホケンシセツケアポートリットウ",
    "address": "栗東市大橋二丁目８番２号",
    "lat": 35.031846,
    "lng": 136.0011841,
    "tel": "077-551-2600",
    "url": "http://www.careport-rittou.jp",
    "pref": "滋賀県",
    "city": "栗東市",
    "category": "rouken",
    "serviceType": "介護老人保健施設",
    "capacity": 100,
    "openDays": [],
    "openDaysNote": ""
  },
  {
    "id": "2552380020",
    "name": "介護老人保健施設　ケアセンターこうせい",
    "kana": "ケアセンターコウセイ",
    "address": "滋賀県湖南市菩提寺104-14",
    "lat": 35.0221787,
    "lng": 136.0729882,
    "tel": "0748-74-8411",
    "url": "http://carecenter-kosei.com",
    "pref": "滋賀県",
    "city": "湖南市",
    "category": "rouken",
    "serviceType": "介護老人保健施設",
    "capacity": 67,
    "openDays": [],
    "openDaysNote": ""
  },
  {
    "id": "2552380012",
    "name": "介護老人保健施設石部ケアセンター",
    "kana": "カイゴロウジンホケンシセツイシベケアセンター",
    "address": "湖南市丸山四丁目5番1号",
    "lat": 34.9987899,
    "lng": 136.0461164,
    "tel": "0748-77-0013",
    "url": "http://hachikikai.com",
    "pref": "滋賀県",
    "city": "湖南市",
    "category": "rouken",
    "serviceType": "介護老人保健施設",
    "capacity": 0,
    "openDays": [],
    "openDaysNote": ""
  },
  {
    "id": "2551480003",
    "name": "介護老人保健施設　スキナヴィラ水口",
    "kana": "カイゴロウジンホケンシセツ　スキナウ゛ィラミナクチ",
    "address": "滋賀県甲賀市水口町本町2丁目2番43号",
    "lat": 34.9711803,
    "lng": 136.1753164,
    "tel": "0748-62-1281",
    "url": "http://www.minakuchi-hp.or.jp/",
    "pref": "滋賀県",
    "city": "甲賀市",
    "category": "rouken",
    "serviceType": "介護老人保健施設",
    "capacity": 100,
    "openDays": [],
    "openDaysNote": ""
  },
  {
    "id": "2551480045",
    "name": "介護老人保健施設スキナヴィラ甲賀",
    "kana": "カイゴロウジンホケンシセツ　スキナヴィラコウカ",
    "address": "滋賀県甲賀市水口町新町１丁目１－１３",
    "lat": 34.9711722913725,
    "lng": 136.177276082803,
    "tel": "０７４８－６２－１４１１",
    "url": "http://www.minakuchi-hp.or.jp/",
    "pref": "滋賀県",
    "city": "甲賀市",
    "category": "rouken",
    "serviceType": "介護老人保健施設",
    "capacity": 100,
    "openDays": [],
    "openDaysNote": ""
  },
  {
    "id": "2552280022",
    "name": "介護老人保健施設グリーンテラス",
    "kana": "カイゴロウジンホケンシセツグリーンテラス",
    "address": "新旭町旭696",
    "lat": 35.3525659,
    "lng": 136.0459566,
    "tel": "0740-25-5090",
    "url": "",
    "pref": "滋賀県",
    "city": "高島市",
    "category": "rouken",
    "serviceType": "介護老人保健施設",
    "capacity": 0,
    "openDays": [],
    "openDaysNote": ""
  },
  {
    "id": "2552280014",
    "name": "介護老人保健施設陽光の里",
    "kana": "カイゴロウジンホケンシセツヨウコウノサト",
    "address": "滋賀県高島市勝野1667番地14",
    "lat": 35.2928518,
    "lng": 136.0122407,
    "tel": "0740-36-1220",
    "url": "http://www.city.takashima.lg.jp",
    "pref": "滋賀県",
    "city": "高島市",
    "category": "rouken",
    "serviceType": "介護老人保健施設",
    "capacity": 0,
    "openDays": [],
    "openDaysNote": ""
  },
  {
    "id": "2550780015",
    "name": "介護老人保健施設　守山すみれ苑",
    "kana": "カイゴロウジンホケンシセツ　モリヤマスミレエン",
    "address": "荒見町300番地１",
    "lat": 35.0850505,
    "lng": 135.9817856,
    "tel": "077-584-3811",
    "url": "",
    "pref": "滋賀県",
    "city": "守山市",
    "category": "rouken",
    "serviceType": "介護老人保健施設",
    "capacity": 100,
    "openDays": [],
    "openDaysNote": ""
  },
  {
    "id": "2550680025",
    "name": "介護老人保健施設ケアタウン南草津",
    "kana": "カイゴロウジンホケンシセツケアタウンミナミクサツ",
    "address": "草津市矢橋町６２１番地",
    "lat": 35.0031347,
    "lng": 135.9270253,
    "tel": "077-562-1001",
    "url": "http://www.yotsuba-lcn.jp",
    "pref": "滋賀県",
    "city": "草津市",
    "category": "rouken",
    "serviceType": "介護老人保健施設",
    "capacity": 0,
    "openDays": [],
    "openDaysNote": ""
  },
  {
    "id": "2550680017",
    "name": "社会医療法人　誠光会　介護老人保健施設草津ケアセンター",
    "kana": "シャカイイリョウホウジン　セイコウカイ　カイゴロウジンホケンシセツクサツケアセンター",
    "address": "草津市野村二丁目13-13",
    "lat": 35.0253266,
    "lng": 135.9533251,
    "tel": "077-567-1122",
    "url": "https://www.seikoukai-sc.or.jp/care_center/",
    "pref": "滋賀県",
    "city": "草津市",
    "category": "rouken",
    "serviceType": "介護老人保健施設",
    "capacity": 95,
    "openDays": [],
    "openDaysNote": ""
  },
  {
    "id": "2550180042",
    "name": "医療法人堅田病院介護老人保健施設虹水苑",
    "kana": "イリョウホウジンカタタビョウインカイゴロウジンホケンシセツコウスイエン",
    "address": "滋賀県大津市仰木七丁目18-15",
    "lat": 35.1144898,
    "lng": 135.8950871,
    "tel": "077-571-3336",
    "url": "",
    "pref": "滋賀県",
    "city": "大津市",
    "category": "rouken",
    "serviceType": "介護老人保健施設",
    "capacity": 50,
    "openDays": [],
    "openDaysNote": ""
  },
  {
    "id": "2550180026",
    "name": "医療法人弘英会　介護老人保健施設Ｂ・Ｏ・Ｈケア・サービスセンター",
    "kana": "イリョウホウジン　コウエイカイ　カイゴロウジンホケンシセツ　ビーオーエイチケアサービスセンター",
    "address": "滋賀県大津市伊香立途中町７０４番地",
    "lat": 35.1555354464129,
    "lng": 135.875519481073,
    "tel": "077-598-2133",
    "url": "http://www.boh-care.jp",
    "pref": "滋賀県",
    "city": "大津市",
    "category": "rouken",
    "serviceType": "介護老人保健施設",
    "capacity": 0,
    "openDays": [],
    "openDaysNote": ""
  },
  {
    "id": "2550180067",
    "name": "介護老人保健施設ケアセンター志賀",
    "kana": "カイゴロウジンホケンシセツケアセンターシガ",
    "address": "大津市和邇高城260番地の1",
    "lat": 35.1623293,
    "lng": 135.9195259,
    "tel": "077-594-0110",
    "url": "http://www.koseikai.care/",
    "pref": "滋賀県",
    "city": "大津市",
    "category": "rouken",
    "serviceType": "介護老人保健施設",
    "capacity": 50,
    "openDays": [],
    "openDaysNote": ""
  },
  {
    "id": "2550180075",
    "name": "介護老人保健施設チェルシー",
    "kana": "カイゴロウジンホケンシセツチェルシー",
    "address": "大石淀三丁目8-23",
    "lat": 34.9078687,
    "lng": 135.9072336,
    "tel": "077-546-1121",
    "url": "ｈｔｔｐ://ｗｗｗ.ｒｙｏｋｕｓｅｉｋａｉ.ｊｐ",
    "pref": "滋賀県",
    "city": "大津市",
    "category": "rouken",
    "serviceType": "介護老人保健施設",
    "capacity": null,
    "openDays": [],
    "openDaysNote": ""
  },
  {
    "id": "2550180000",
    "name": "介護老人保健施設レーク・ホロニー",
    "kana": "カイゴロウジンホケンシセツレーク・ホロニー",
    "address": "滋賀県大津市大萱七丁目7番3号介護老人保健施設レーク・ホロニー 介護老人保健施設レーク・ホロニー",
    "lat": 34.9953159,
    "lng": 135.9156238,
    "tel": "077-545-2555",
    "url": "http://kachokai.or.jp/lake/index.htm",
    "pref": "滋賀県",
    "city": "大津市",
    "category": "rouken",
    "serviceType": "介護老人保健施設",
    "capacity": 0,
    "openDays": [],
    "openDaysNote": ""
  },
  {
    "id": "2550180059",
    "name": "介護老人保健施設日和の里",
    "kana": "カイゴロウジンホケンシセツヒヨリノサト",
    "address": "滋賀県大津市坂本6丁目25番3号",
    "lat": 35.0745916,
    "lng": 135.8732541,
    "tel": "077-579-0309",
    "url": "http://shigamin.jp/hiyori/",
    "pref": "滋賀県",
    "city": "大津市",
    "category": "rouken",
    "serviceType": "介護老人保健施設",
    "capacity": 56,
    "openDays": [],
    "openDaysNote": ""
  },
  {
    "id": "2550180034",
    "name": "独立行政法人地域医療機能推進機構　滋賀病院附属介護老人保健施設",
    "kana": "ドクリツギョウセイホウジンチイキイリョウキノウスイシンキコウ　シガビョウインフゾクカイゴロウジンホケンシセツ",
    "address": "大津市富士見台16-1",
    "lat": 34.9857243666931,
    "lng": 135.885787195909,
    "tel": "077-537-3102",
    "url": "http://shiga.jcho.go.jp/rouken/",
    "pref": "滋賀県",
    "city": "大津市",
    "category": "rouken",
    "serviceType": "介護老人保健施設",
    "capacity": 0,
    "openDays": [],
    "openDaysNote": ""
  },
  {
    "id": "2550380030",
    "name": "介護老人保健施設　湖北やすらぎの里",
    "kana": "カイゴロウジンホケンシセツ　コホクヤスラギノサト",
    "address": "滋賀県長浜市木之本町黒田１２２１番地",
    "lat": 35.5041289569266,
    "lng": 136.212883933205,
    "tel": "0749-82-3725",
    "url": "http://www.ikbk.jp/kohokuyasuraginosato/",
    "pref": "滋賀県",
    "city": "長浜市",
    "category": "rouken",
    "serviceType": "介護老人保健施設",
    "capacity": 0,
    "openDays": [],
    "openDaysNote": ""
  },
  {
    "id": "2550380014",
    "name": "介護老人保健施設　長浜メディケアセンター",
    "kana": "カイゴロウジンホケンシセツ　ナガハマメディケアセンター",
    "address": "滋賀県長浜市加田町2984-1",
    "lat": 35.3602097,
    "lng": 136.3049189,
    "tel": "0749-65-2011",
    "url": "http://seishokai.jp/nmc",
    "pref": "滋賀県",
    "city": "長浜市",
    "category": "rouken",
    "serviceType": "介護老人保健施設",
    "capacity": 0,
    "openDays": [],
    "openDaysNote": ""
  },
  {
    "id": "2550380022",
    "name": "介護老人保健施設　琵琶",
    "kana": "カイゴロウジンホケンシセツ　ビワ",
    "address": "滋賀県長浜市川道町２６９４",
    "lat": 35.4029218,
    "lng": 136.2362956,
    "tel": "0749-72-8080",
    "url": "http://www.simosaka.jp/indexhtml",
    "pref": "滋賀県",
    "city": "長浜市",
    "category": "rouken",
    "serviceType": "介護老人保健施設",
    "capacity": 100,
    "openDays": [],
    "openDaysNote": ""
  },
  {
    "id": "2550580035",
    "name": "リハビリセンターあゆみ",
    "kana": "リハビリセンターアユミ",
    "address": "東近江市新宮町５５８",
    "lat": 35.2009388,
    "lng": 136.1494468,
    "tel": "0748-42-3355",
    "url": "http://shiga-shinjyukai.or.jp/",
    "pref": "滋賀県",
    "city": "東近江市",
    "category": "rouken",
    "serviceType": "介護老人保健施設",
    "capacity": 0,
    "openDays": [],
    "openDaysNote": ""
  },
  {
    "id": "2550580043",
    "name": "医療法人社団幸信会　介護老人保健施設ウェル青葉",
    "kana": "イリョウホウジンシャダンコウシンカイ　カイゴロウジンホケンシセツウェルアオバ",
    "address": "滋賀県東近江市青葉町1-46",
    "lat": 35.1060311,
    "lng": 136.197524,
    "tel": "0748-20-2345",
    "url": "https://aoba-med.com",
    "pref": "滋賀県",
    "city": "東近江市",
    "category": "rouken",
    "serviceType": "介護老人保健施設",
    "capacity": 0,
    "openDays": [],
    "openDaysNote": ""
  },
  {
    "id": "2550580019",
    "name": "介護老人保健施設　ここちの郷",
    "kana": "カイゴロウジンホケンシセツ　ココチノサト",
    "address": "滋賀県東近江市五個荘山本町４６６番地",
    "lat": 35.140083,
    "lng": 136.1805756,
    "tel": "0748-48-8300",
    "url": "https://www.rokushinkai.com/kokochi/",
    "pref": "滋賀県",
    "city": "東近江市",
    "category": "rouken",
    "serviceType": "介護老人保健施設",
    "capacity": 75,
    "openDays": [],
    "openDaysNote": ""
  },
  {
    "id": "2550580027",
    "name": "介護老人保健施設ケアセンター蒲生野",
    "kana": "カイゴロウジンホケンシセツケアセンターガモウノ",
    "address": "東近江市桜川西町３４０",
    "lat": 35.0591594098951,
    "lng": 136.188209393254,
    "tel": "0748-55-5533",
    "url": "http://care-net.biz/25/yukinokai/",
    "pref": "滋賀県",
    "city": "東近江市",
    "category": "rouken",
    "serviceType": "介護老人保健施設",
    "capacity": 0,
    "openDays": [],
    "openDaysNote": ""
  },
  {
    "id": "2551580059",
    "name": "医療法人社団昴会　介護老人保健施設リスタあすなろ",
    "kana": "イリョウホウジンシャダンスバルカイ　カイゴロウジンホケンシセツリスタアスナロ",
    "address": "上野田２４６番地",
    "lat": 35.0181052,
    "lng": 136.2362693,
    "tel": "０７４８－５２－６０００",
    "url": "http://www.subarukai.jp/cms_asunaro/",
    "pref": "滋賀県",
    "city": "日野町",
    "category": "rouken",
    "serviceType": "介護老人保健施設",
    "capacity": null,
    "openDays": [],
    "openDaysNote": ""
  },
  {
    "id": "2550280016",
    "name": "介護老人保健施設アロフェンテ彦根",
    "kana": "カイゴロウジンホケンシセツアロフェンテヒコネ",
    "address": "滋賀県彦根市竹ヶ鼻町80番地",
    "lat": 35.241159,
    "lng": 136.2487947,
    "tel": "0749-21-3300",
    "url": "http://www.yujin-yamazaki.co.jp",
    "pref": "滋賀県",
    "city": "彦根市",
    "category": "rouken",
    "serviceType": "介護老人保健施設",
    "capacity": 0,
    "openDays": [],
    "openDaysNote": ""
  },
  {
    "id": "2572400246",
    "name": "ケアセンターいぶき介護老人保健施設",
    "kana": "ケアセンターイブキカイゴロウジンホケンシセツ",
    "address": "滋賀県米原市春照58-1",
    "lat": 35.3835069,
    "lng": 136.3826509,
    "tel": "0749-58-1222",
    "url": "https://ibuki.jadecom.or.jp/",
    "pref": "滋賀県",
    "city": "米原市",
    "category": "rouken",
    "serviceType": "介護老人保健施設",
    "capacity": 0,
    "openDays": [],
    "openDaysNote": ""
  },
  {
    "id": "2552480010",
    "name": "介護老人保健施設　坂田メディケアセンター",
    "kana": "カイゴロウジンホケンシセツ　サカタメディケアセンター",
    "address": "滋賀県米原市野一色1136",
    "lat": 35.3860764,
    "lng": 136.3539265,
    "tel": "0749-55-8211",
    "url": "http://www.seishokai.jp/smc",
    "pref": "滋賀県",
    "city": "米原市",
    "category": "rouken",
    "serviceType": "介護老人保健施設",
    "capacity": 0,
    "openDays": [],
    "openDaysNote": ""
  },
  {
    "id": "2551880012",
    "name": "介護老人保健施設　パストラールとよさと",
    "kana": "カイゴロウジンホケンシセツ　パストラールトヨサト",
    "address": "滋賀県犬上郡豊郷町石畑２１２",
    "lat": 35.1996542,
    "lng": 136.2300627,
    "tel": "0749-35-3002",
    "url": "http://www.toyosato.or.jp/",
    "pref": "滋賀県",
    "city": "豊郷町",
    "category": "rouken",
    "serviceType": "介護老人保健施設",
    "capacity": 0,
    "openDays": [],
    "openDaysNote": ""
  },
  {
    "id": "2551380013",
    "name": "介護老人保健施設　寿々はうす",
    "kana": "カイゴロウジンホケンシセツジュジュハウス",
    "address": "滋賀県野洲市八夫2077",
    "lat": 35.0887735,
    "lng": 136.0214537,
    "tel": "077-589-8320",
    "url": "http://www.konan-psy.or.jp/",
    "pref": "滋賀県",
    "city": "野洲市",
    "category": "rouken",
    "serviceType": "介護老人保健施設",
    "capacity": 100,
    "openDays": [],
    "openDaysNote": ""
  },
  {
    "id": "2551380021",
    "name": "介護老人保健施設　野洲すみれ苑",
    "kana": "カイゴロウジンホケンシセツ　ヤススミレエン",
    "address": "滋賀県野洲市小篠原490-1",
    "lat": 35.0676621,
    "lng": 136.0348188,
    "tel": "077-588-3001",
    "url": "http://www.sumire.jp/",
    "pref": "滋賀県",
    "city": "野洲市",
    "category": "rouken",
    "serviceType": "介護老人保健施設",
    "capacity": 100,
    "openDays": [],
    "openDaysNote": ""
  }
]