[
  {
    "id": "4352780011",
    "name": "介護老人保健施設　阿蘇グリーンヒル",
    "kana": "カイゴロウジンホケンシセツ　アソグリーンヒル",
    "address": "熊本県阿蘇市一の宮町宮地121番地阿蘇グリーンヒル 阿蘇グリーンヒル",
    "lat": 32.9520677957347,
    "lng": 131.117857458336,
    "tel": "0967-22-0500",
    "url": "http://www.yamanami.ne.jp/greenhill.html",
    "pref": "熊本県",
    "city": "阿蘇市",
    "category": "rouken",
    "serviceType": "介護老人保健施設",
    "capacity": 80,
    "openDays": [],
    "openDaysNote": ""
  },
  {
    "id": "4352780029",
    "name": "介護老人保健施設　愛・ライフ内牧",
    "kana": "カイゴロウジンホケンシセツ　アイライフウチノマキ",
    "address": "熊本県阿蘇市内牧１１０５－１",
    "lat": 32.971701,
    "lng": 131.0450395,
    "tel": "0967-32-5511",
    "url": "http://www.asospahp.jp",
    "pref": "熊本県",
    "city": "阿蘇市",
    "category": "rouken",
    "serviceType": "介護老人保健施設",
    "capacity": 0,
    "openDays": [],
    "openDaysNote": ""
  },
  {
    "id": "4353080015",
    "name": "介護老人保健施設　新清苑",
    "kana": "カイゴロウジンホケンシセツ　シンセイエン",
    "address": "熊本県葦北郡芦北町大字芦北２７２７番１",
    "lat": 32.2981664,
    "lng": 130.4933166,
    "tel": "0966-61-3055",
    "url": "http://ｍc-shinseikai.com",
    "pref": "熊本県",
    "city": "芦北町",
    "category": "rouken",
    "serviceType": "介護老人保健施設",
    "capacity": 0,
    "openDays": [],
    "openDaysNote": ""
  },
  {
    "id": "4351380011",
    "name": "介護老人保健施設　松幸",
    "kana": "カイゴロウジンホケンシセツ　マツコウ",
    "address": "熊本県宇城市松橋町西下郷544番地",
    "lat": 32.634965,
    "lng": 130.6908932,
    "tel": "0964-32-5516",
    "url": "https://souyukai.or.jp/",
    "pref": "熊本県",
    "city": "宇城市",
    "category": "rouken",
    "serviceType": "介護老人保健施設",
    "capacity": 98,
    "openDays": [],
    "openDaysNote": ""
  },
  {
    "id": "4352280012",
    "name": "介護老人保健施設　青海苑",
    "kana": "カイゴロウジンホケンシセツセイカイエン",
    "address": "熊本県宇城市三角町郡浦７３９番地８",
    "lat": 32.6204276,
    "lng": 130.5365497,
    "tel": "0964-54-1311",
    "url": "seikaien.jp",
    "pref": "熊本県",
    "city": "宇城市",
    "category": "rouken",
    "serviceType": "介護老人保健施設",
    "capacity": 0,
    "openDays": [],
    "openDaysNote": ""
  },
  {
    "id": "4351180015",
    "name": "介護老人保健施設　　あさひコート",
    "kana": "カイゴロウジンホケンシセツ　アサヒコート",
    "address": "熊本県宇土市旭町１０６番地",
    "lat": 32.687982,
    "lng": 130.6651431,
    "tel": "0964-23-5211",
    "url": "http://www.kanamori.or.jp",
    "pref": "熊本県",
    "city": "宇土市",
    "category": "rouken",
    "serviceType": "介護老人保健施設",
    "capacity": 0,
    "openDays": [],
    "openDaysNote": ""
  },
  {
    "id": "4351180031",
    "name": "介護老人保健施設　あさひコート別館",
    "kana": "カイゴロウジンホケンシセツ　アサヒコートベッカン",
    "address": "熊本県宇土市旭町106番地",
    "lat": 32.687982,
    "lng": 130.6651431,
    "tel": "0964-23-5211",
    "url": "http://www.kanamori.or.jp",
    "pref": "熊本県",
    "city": "宇土市",
    "category": "rouken",
    "serviceType": "介護老人保健施設",
    "capacity": 60,
    "openDays": [],
    "openDaysNote": ""
  },
  {
    "id": "4351180023",
    "name": "介護老人保健施設　景雅苑",
    "kana": "カイゴロウジンホケンシセツ　ケイガエン",
    "address": "熊本県宇土市上網田町3676",
    "lat": 32.6798616,
    "lng": 130.5528697,
    "tel": "0964-27-1708",
    "url": "http://www.odakai.com",
    "pref": "熊本県",
    "city": "宇土市",
    "category": "rouken",
    "serviceType": "介護老人保健施設",
    "capacity": 0,
    "openDays": [],
    "openDaysNote": ""
  },
  {
    "id": "4352880068",
    "name": "介護老人保健施設ケアポート益城",
    "kana": "カイゴロウジンホケンシセツケアポートマシキ",
    "address": "熊本県上益城郡益城町安永1014介護老人保健施設ケアポート益城 介護老人保健施設ケアポート益城",
    "lat": 32.7966139163756,
    "lng": 130.808560686755,
    "tel": "096-289-0777",
    "url": "http://www.jikou-kai.com/",
    "pref": "熊本県",
    "city": "益城町",
    "category": "rouken",
    "serviceType": "介護老人保健施設",
    "capacity": 60,
    "openDays": [],
    "openDaysNote": ""
  },
  {
    "id": "4352880043",
    "name": "介護老人保健施設平成唯仁館",
    "kana": "カイゴロウジンホケンシセツ　ヘイセイイジンカン",
    "address": "熊本県上益城郡益城町宮園１１３９－１",
    "lat": 32.8086259,
    "lng": 130.8092371,
    "tel": "096-286-0666",
    "url": "https://seijin-kumamoto.or.jp/heisei-ijikan/",
    "pref": "熊本県",
    "city": "益城町",
    "category": "rouken",
    "serviceType": "介護老人保健施設",
    "capacity": 60,
    "openDays": [],
    "openDaysNote": ""
  },
  {
    "id": "4351080033",
    "name": "介護老人保健施設　リハビリセンター　きくちの里",
    "kana": "カイゴロウジンホケンシセツ　リハビリセンター　キクチノサト",
    "address": "熊本県菊池市大琳寺１２３番地",
    "lat": 32.9722833,
    "lng": 130.8037008,
    "tel": "0968-23-7721",
    "url": "",
    "pref": "熊本県",
    "city": "菊池市",
    "category": "rouken",
    "serviceType": "介護老人保健施設",
    "capacity": 60,
    "openDays": [],
    "openDaysNote": ""
  },
  {
    "id": "4352680054",
    "name": "介護老人保健施設　孔子の里",
    "kana": "カイゴロウジンホケンシセツ　コウシノサト",
    "address": "熊本県菊池市泗水町福本９０４番１",
    "lat": 32.9203543,
    "lng": 130.775052,
    "tel": "0968-38-5666",
    "url": "https://hckousikai.com/",
    "pref": "熊本県",
    "city": "菊池市",
    "category": "rouken",
    "serviceType": "介護老人保健施設",
    "capacity": 0,
    "openDays": [],
    "openDaysNote": ""
  },
  {
    "id": "4352680013",
    "name": "介護老人保健施設サンライズヒル",
    "kana": "カイゴロウジンホケンシセツ　サンライズヒル",
    "address": "熊本県菊池郡菊陽町曲手760",
    "lat": 32.8402701,
    "lng": 130.8353236,
    "tel": "096-232-5656",
    "url": "http://kumareha.net/sunrisehill/",
    "pref": "熊本県",
    "city": "菊陽町",
    "category": "rouken",
    "serviceType": "介護老人保健施設",
    "capacity": 0,
    "openDays": [],
    "openDaysNote": ""
  },
  {
    "id": "4352480042",
    "name": "介護老人保健施設　てんすい倶楽部",
    "kana": "カイゴロウジンホケンシセツ　テンスイクラブ",
    "address": "玉名市天水町部田見1214-15",
    "lat": 32.8742367,
    "lng": 130.5836539,
    "tel": "0968-71-5600",
    "url": "http://www.shunkokai.jp/tensui",
    "pref": "熊本県",
    "city": "玉名市",
    "category": "rouken",
    "serviceType": "介護老人保健施設",
    "capacity": 52,
    "openDays": [],
    "openDaysNote": ""
  },
  {
    "id": "4350680031",
    "name": "介護老人保健施設　幸",
    "kana": "カイゴロウジンホケンシセツ　サチ",
    "address": "熊本県玉名市岱明町鍋1831",
    "lat": 32.9040582,
    "lng": 130.4890206,
    "tel": "0968-57-5105",
    "url": "Googleサイトにて、https://souyukai.or.jp/",
    "pref": "熊本県",
    "city": "玉名市",
    "category": "rouken",
    "serviceType": "介護老人保健施設",
    "capacity": 0,
    "openDays": [],
    "openDaysNote": ""
  },
  {
    "id": "4352480000",
    "name": "介護老人保健施設　幸",
    "kana": "カイゴロウジンホケンシセツ　サチ",
    "address": "玉名市岱明町鍋1831",
    "lat": 32.9040582,
    "lng": 130.4890206,
    "tel": "0968-57-5105",
    "url": "Googleサイトにて、https://souyukai.or.jp/",
    "pref": "熊本県",
    "city": "玉名市",
    "category": "rouken",
    "serviceType": "介護老人保健施設",
    "capacity": 0,
    "openDays": [],
    "openDaysNote": ""
  },
  {
    "id": "4350680015",
    "name": "介護老人保健施設　樹心台",
    "kana": "カイゴロウジンホケンシセツ　ジュシンダイ",
    "address": "熊本県玉名市伊倉北方272-3",
    "lat": 32.9123979413124,
    "lng": 130.562476831213,
    "tel": "0968-73-4165",
    "url": "https://www.i-shinwa.com/jushindai/",
    "pref": "熊本県",
    "city": "玉名市",
    "category": "rouken",
    "serviceType": "介護老人保健施設",
    "capacity": 0,
    "openDays": [],
    "openDaysNote": ""
  },
  {
    "id": "4352480034",
    "name": "介護老人保健施設　星雲荘",
    "kana": "カイゴロウジンホケンシセツ　セイウンソウ",
    "address": "熊本県玉名市横島町横島3384番地",
    "lat": 32.8757888,
    "lng": 130.5668026,
    "tel": "0968-84-3717",
    "url": "http://seiunsou.net",
    "pref": "熊本県",
    "city": "玉名市",
    "category": "rouken",
    "serviceType": "介護老人保健施設",
    "capacity": 0,
    "openDays": [],
    "openDaysNote": ""
  },
  {
    "id": "4350680023",
    "name": "介護老人保健施設ゆうきの里",
    "kana": "カイゴロウジンホケンシセツ　ユウキノサト",
    "address": "熊本県玉名市上小田1063番地",
    "lat": 32.9521215,
    "lng": 130.5869767,
    "tel": "0968-74-0666",
    "url": "http://www.yukikai.or.jp",
    "pref": "熊本県",
    "city": "玉名市",
    "category": "rouken",
    "serviceType": "介護老人保健施設",
    "capacity": 0,
    "openDays": [],
    "openDaysNote": ""
  },
  {
    "id": "4350180230",
    "name": "医療法人社団青葉会　介護療養型老人保健施設　あかね",
    "kana": "カイゴリョウヨウガタロウジンホケンシセツ　アカネ",
    "address": "熊本市西区出町　2-15",
    "lat": 32.8202182,
    "lng": 130.7059691,
    "tel": "096-322-6018",
    "url": "",
    "pref": "熊本県",
    "city": "熊本市西区",
    "category": "rouken",
    "serviceType": "介護老人保健施設",
    "capacity": 15,
    "openDays": [],
    "openDaysNote": ""
  },
  {
    "id": "4350180180",
    "name": "介護老人保健施設　なすび園",
    "kana": "カイゴロウジンホケンシセツ　ナスビエン",
    "address": "熊本市西区沖新町3353番地",
    "lat": 32.7565919,
    "lng": 130.6123745,
    "tel": "096-329-5666",
    "url": "http://www.nasubien.or.jp/admin",
    "pref": "熊本県",
    "city": "熊本市西区",
    "category": "rouken",
    "serviceType": "介護老人保健施設",
    "capacity": 70,
    "openDays": [],
    "openDaysNote": ""
  },
  {
    "id": "4350180222",
    "name": "介護老人保健施設　葵の森",
    "kana": "カイゴロウジンホケンシセツ　アオイノモリ",
    "address": "熊本市西区松尾町近津1480番地",
    "lat": 32.8026188,
    "lng": 130.6055271,
    "tel": "096-311-4004",
    "url": "http://www.ryowakai.com",
    "pref": "熊本県",
    "city": "熊本市西区",
    "category": "rouken",
    "serviceType": "介護老人保健施設",
    "capacity": 0,
    "openDays": [],
    "openDaysNote": ""
  },
  {
    "id": "4350180065",
    "name": "介護老人保健施設　杏の里",
    "kana": "カイゴロウジンホケンシセツ　アンズノサト",
    "address": "熊本市西区池田1丁目14-78",
    "lat": 32.8221736,
    "lng": 130.7057385,
    "tel": "096-351-2788",
    "url": "",
    "pref": "熊本県",
    "city": "熊本市西区",
    "category": "rouken",
    "serviceType": "介護老人保健施設",
    "capacity": 0,
    "openDays": [],
    "openDaysNote": ""
  },
  {
    "id": "4350180040",
    "name": "介護老人保健施設　青翔苑",
    "kana": "カイゴロウジンホケンシセツ　セイショウエン",
    "address": "熊本市西区島崎2丁目21-10",
    "lat": 32.8080688,
    "lng": 130.6904427,
    "tel": "096-359-5377",
    "url": "https://www.seijino.or.jp",
    "pref": "熊本県",
    "city": "熊本市西区",
    "category": "rouken",
    "serviceType": "介護老人保健施設",
    "capacity": 0,
    "openDays": [],
    "openDaysNote": ""
  },
  {
    "id": "4350180313",
    "name": "介護老人保健施設葵の森",
    "kana": "カイゴロウジンホケンシセツアオイノモリ",
    "address": "熊本県熊本市西区松尾町近津1480番地",
    "lat": 32.8025684,
    "lng": 130.6056053,
    "tel": "096-311-4004",
    "url": "https://aoinomori-kumamoto.jp/",
    "pref": "熊本県",
    "city": "熊本市西区",
    "category": "rouken",
    "serviceType": "介護老人保健施設",
    "capacity": 59,
    "openDays": [],
    "openDaysNote": ""
  },
  {
    "id": "4350180172",
    "name": "フォレスト熊本",
    "kana": "フォレストクマモト",
    "address": "熊本県熊本市中央区渡鹿5丁目1番37号",
    "lat": 32.8114107221124,
    "lng": 130.730495902481,
    "tel": "096-363-0101",
    "url": "http://www.kyouninkai.jp/forest/",
    "pref": "熊本県",
    "city": "熊本市中央区",
    "category": "rouken",
    "serviceType": "介護老人保健施設",
    "capacity": 0,
    "openDays": [],
    "openDaysNote": ""
  },
  {
    "id": "4350180206",
    "name": "介護老人保健施設　なでしこ",
    "kana": "カイゴロウジンホケンシセツ　ナデシコ",
    "address": "熊本市中央区北千反畑町2番5号",
    "lat": 32.8089667,
    "lng": 130.7159765,
    "tel": "096-343-7450",
    "url": "http://www.kiseikai.or.jp",
    "pref": "熊本県",
    "city": "熊本市中央区",
    "category": "rouken",
    "serviceType": "介護老人保健施設",
    "capacity": 62,
    "openDays": [],
    "openDaysNote": ""
  },
  {
    "id": "4350180149",
    "name": "介護老人保健施設　のぞみ",
    "kana": "カイゴロウジンホケンシセツ　ノゾミ",
    "address": "熊本県熊本市中央区本荘３丁目７番１８号",
    "lat": 32.7947706,
    "lng": 130.7085968,
    "tel": "096-371-3399",
    "url": "http://sugimurakai.jp/",
    "pref": "熊本県",
    "city": "熊本市中央区",
    "category": "rouken",
    "serviceType": "介護老人保健施設",
    "capacity": 0,
    "openDays": [],
    "openDaysNote": ""
  },
  {
    "id": "4350180073",
    "name": "介護老人保健施設　南楓苑",
    "kana": "カイゴロウジンホケンシセツ　ナンプウエン",
    "address": "熊本市中央区南熊本二丁目１１番１号",
    "lat": 32.7885186108682,
    "lng": 130.712125446033,
    "tel": "096-371-5111",
    "url": "https://nanpu-en.jp/",
    "pref": "熊本県",
    "city": "熊本市中央区",
    "category": "rouken",
    "serviceType": "介護老人保健施設",
    "capacity": 0,
    "openDays": [],
    "openDaysNote": ""
  },
  {
    "id": "4350180099",
    "name": "介護老人保健施設　湧心苑",
    "kana": "カイゴロウジンホケンシセツユウシンエン",
    "address": "熊本市中央区出水４丁目１５番３０号",
    "lat": 32.78095,
    "lng": 130.733551,
    "tel": "096-371-4165",
    "url": "http://www.toueikai.or.jp/",
    "pref": "熊本県",
    "city": "熊本市中央区",
    "category": "rouken",
    "serviceType": "介護老人保健施設",
    "capacity": 75,
    "openDays": [],
    "openDaysNote": ""
  },
  {
    "id": "4350180156",
    "name": "老人保健施設　シルバーピア水前寺",
    "kana": "ロウジンホケンシセツ　シルバーピアスイゼンジ",
    "address": "熊本県熊本市中央区水前寺5丁目8番15号",
    "lat": 32.79439349663,
    "lng": 130.738021937712,
    "tel": "096-384-3399",
    "url": "http://www.tohya.or.jp",
    "pref": "熊本県",
    "city": "熊本市中央区",
    "category": "rouken",
    "serviceType": "介護老人保健施設",
    "capacity": 0,
    "openDays": [],
    "openDaysNote": ""
  },
  {
    "id": "4350180164",
    "name": "メディエイト鶴翔苑",
    "kana": "メディエイトカクショウエン",
    "address": "熊本市東区保田窪本町10番112",
    "lat": 32.808017,
    "lng": 130.7471057,
    "tel": "096-387-8181",
    "url": "https://kakuyuukai.or.jp/kakusyoen",
    "pref": "熊本県",
    "city": "熊本市東区",
    "category": "rouken",
    "serviceType": "介護老人保健施設",
    "capacity": 0,
    "openDays": [],
    "openDaysNote": ""
  },
  {
    "id": "4350180297",
    "name": "レ・ハビリス桜十字熊本東",
    "kana": "レ・ハビリスサクラジュウジクマモトヒガシ",
    "address": "熊本県熊本市東区三郎1丁目12番30号",
    "lat": 32.7994373,
    "lng": 130.7584803,
    "tel": "096-385-6262",
    "url": "www.sakurajyuji.or.jp/ｋ-higashi/",
    "pref": "熊本県",
    "city": "熊本市東区",
    "category": "rouken",
    "serviceType": "介護老人保健施設",
    "capacity": 0,
    "openDays": [],
    "openDaysNote": ""
  },
  {
    "id": "4350180289",
    "name": "医療法人　伸生紀　介護老人保健施設　総合ケアセンター　第二コスモピア熊本",
    "kana": "イリョウホウジン　シンセイキ　カイゴロウジンホケンシセツ　ソウゴウケアセンター　ダイニコスモピアクマモト",
    "address": "尾ノ上1丁目8-8",
    "lat": 32.7888187,
    "lng": 130.7509112,
    "tel": "096-360-3111",
    "url": "https://shinseiki.or.jp/",
    "pref": "熊本県",
    "city": "熊本市東区",
    "category": "rouken",
    "serviceType": "介護老人保健施設",
    "capacity": 0,
    "openDays": [],
    "openDaysNote": ""
  },
  {
    "id": "4350180271",
    "name": "介護老人保健施設　高齢者支援センター　コスモピア熊本",
    "kana": "カイゴロウジンホケンシセツ　コウレイシャシエンセンター　コスモピアクマモト",
    "address": "熊本県熊本市東区尾ノ上1丁目3-12",
    "lat": 32.7892465,
    "lng": 130.7504473,
    "tel": "096-384-8088",
    "url": "https://shinseiki.or.jp/",
    "pref": "熊本県",
    "city": "熊本市東区",
    "category": "rouken",
    "serviceType": "介護老人保健施設",
    "capacity": 0,
    "openDays": [],
    "openDaysNote": ""
  },
  {
    "id": "4350180263",
    "name": "介護老人保健施設　心ほか",
    "kana": "カイゴロウジンホケンシセツ　シンホカ",
    "address": "熊本県熊本市東区新外3-9-1",
    "lat": 32.7982542,
    "lng": 130.7632272,
    "tel": "096-285-6225",
    "url": "http://www.honjyo-hp.jp",
    "pref": "熊本県",
    "city": "熊本市東区",
    "category": "rouken",
    "serviceType": "介護老人保健施設",
    "capacity": 29,
    "openDays": [],
    "openDaysNote": ""
  },
  {
    "id": "4350180008",
    "name": "介護老人保健施設ケアセンター赤とんぼ",
    "kana": "カイゴロウジンホケンシセツケアセンターアカトンボ",
    "address": "熊本市東区戸島西２丁目３－１０",
    "lat": 32.8112451,
    "lng": 130.7810676,
    "tel": "096-331-3737",
    "url": "http://www.jinseikai.or.jp/akatonbo",
    "pref": "熊本県",
    "city": "熊本市東区",
    "category": "rouken",
    "serviceType": "介護老人保健施設",
    "capacity": 100,
    "openDays": [],
    "openDaysNote": ""
  },
  {
    "id": "4350180107",
    "name": "介護老人保健施設　ぼたん園",
    "kana": "カイゴロウジンホケンシセツ　ボタンエン",
    "address": "熊本県熊本市南区御幸笛田6丁目8番1号介護老人保健施設　ぼたん園 介護老人保健施設　ぼたん園",
    "lat": 32.7582156,
    "lng": 130.7096453,
    "tel": "096-370-1222",
    "url": "http://miyukinosato.or.jp",
    "pref": "熊本県",
    "city": "熊本市南区",
    "category": "rouken",
    "serviceType": "介護老人保健施設",
    "capacity": 0,
    "openDays": [],
    "openDaysNote": ""
  },
  {
    "id": "4352380010",
    "name": "介護老人保健施設　桔梗苑",
    "kana": "カイゴロウジンホケンシセツ　キキョウエン",
    "address": "熊本県熊本市南区城南町沈目1481",
    "lat": 32.6979797,
    "lng": 130.7496784,
    "tel": "0964-28-6811",
    "url": "http://www.k-group.jp/kikyo/index.html",
    "pref": "熊本県",
    "city": "熊本市南区",
    "category": "rouken",
    "serviceType": "介護老人保健施設",
    "capacity": 0,
    "openDays": [],
    "openDaysNote": ""
  },
  {
    "id": "4352380028",
    "name": "介護老人保健施設　光乃里",
    "kana": "カイゴロウジンホケンシセツ　ヒカリノサト",
    "address": "熊本県熊本市南区城南町今吉野1020",
    "lat": 32.7175252,
    "lng": 130.735673,
    "tel": "0964-28-8000",
    "url": "http://www.inouekai.com/",
    "pref": "熊本県",
    "city": "熊本市南区",
    "category": "rouken",
    "serviceType": "介護老人保健施設",
    "capacity": 72,
    "openDays": [],
    "openDaysNote": ""
  },
  {
    "id": "4350180198",
    "name": "介護老人保健施設　田迎ケアセンター",
    "kana": "カイゴロウジンホケンシセツ　タムカエケアセンター",
    "address": "熊本県熊本市南区出仲間５丁目２－２",
    "lat": 32.7699229126865,
    "lng": 130.716892617197,
    "tel": "096-378-2223",
    "url": "http://www.touyoukai.jp/",
    "pref": "熊本県",
    "city": "熊本市南区",
    "category": "rouken",
    "serviceType": "介護老人保健施設",
    "capacity": 50,
    "openDays": [],
    "openDaysNote": ""
  },
  {
    "id": "4350180123",
    "name": "介護老人保健施設白藤苑",
    "kana": "カイゴロウジンホケンシセツ　シラフジエン",
    "address": "熊本市南区白藤５丁目１番１号",
    "lat": 32.7544458,
    "lng": 130.6746622,
    "tel": "096-358-7200",
    "url": "http://www.matusita-kai.or.jp/",
    "pref": "熊本県",
    "city": "熊本市南区",
    "category": "rouken",
    "serviceType": "介護老人保健施設",
    "capacity": 100,
    "openDays": [],
    "openDaysNote": ""
  },
  {
    "id": "4350180214",
    "name": "介護老人保健施設　かなこぎ苑",
    "kana": "カイゴロウジンホケンシセツ　カナコギエン",
    "address": "熊本県熊本市北区硯川町768-1",
    "lat": 32.8709662,
    "lng": 130.6997273,
    "tel": "096-275-2788",
    "url": "https://ikueikai-2003.com",
    "pref": "熊本県",
    "city": "熊本市北区",
    "category": "rouken",
    "serviceType": "介護老人保健施設",
    "capacity": 0,
    "openDays": [],
    "openDaysNote": ""
  },
  {
    "id": "4350180081",
    "name": "介護老人保健施設　ぎんなんの里",
    "kana": "カイゴロウジンホケンシセツ　ギンナンノサト",
    "address": "熊本市北区楡木１丁目３番７０号",
    "lat": 32.8421445,
    "lng": 130.7521721,
    "tel": "096-337-2700",
    "url": "",
    "pref": "熊本県",
    "city": "熊本市北区",
    "category": "rouken",
    "serviceType": "介護老人保健施設",
    "capacity": 80,
    "openDays": [],
    "openDaysNote": ""
  },
  {
    "id": "4352580015",
    "name": "介護老人保健施設　ケアビレッジ箱根崎",
    "kana": "カイゴロウジンホケンシセツ　ケアビレッジハコネザキ",
    "address": "熊本県熊本市北区植木町正清８８８",
    "lat": 32.9681082,
    "lng": 130.7167495,
    "tel": "096-274-7700",
    "url": "http://www.hakonezaki.or.jp",
    "pref": "熊本県",
    "city": "熊本市北区",
    "category": "rouken",
    "serviceType": "介護老人保健施設",
    "capacity": 0,
    "openDays": [],
    "openDaysNote": ""
  },
  {
    "id": "4350180057",
    "name": "介護老人保健施設　阿房宮",
    "kana": "カイゴロウジンホケンシセツ　アボウキュウ",
    "address": "熊本県熊本市北区龍田陳内１丁目３番２０号",
    "lat": 32.8228407,
    "lng": 130.7447669,
    "tel": "096-337-1111",
    "url": "aboukyu.net",
    "pref": "熊本県",
    "city": "熊本市北区",
    "category": "rouken",
    "serviceType": "介護老人保健施設",
    "capacity": 100,
    "openDays": [],
    "openDaysNote": ""
  },
  {
    "id": "4350180131",
    "name": "介護老人保健施設みつぐ苑",
    "kana": "カイゴロウジンホケンシセツミツグエン",
    "address": "熊本市北区貢町１３５番地",
    "lat": 32.8429188844142,
    "lng": 130.702621631352,
    "tel": "096-323-6123",
    "url": "http://www.iseikai.info",
    "pref": "熊本県",
    "city": "熊本市北区",
    "category": "rouken",
    "serviceType": "介護老人保健施設",
    "capacity": 0,
    "openDays": [],
    "openDaysNote": ""
  },
  {
    "id": "4350180016",
    "name": "介護老人保健施設清雅苑",
    "kana": "カイゴロウジンホケンシセツセイガエン",
    "address": "熊本市北区山室六丁目８番１号",
    "lat": 32.8469031752707,
    "lng": 130.718919355295,
    "tel": "096-345-8112",
    "url": "http://www.juryo.or.jp/",
    "pref": "熊本県",
    "city": "熊本市北区",
    "category": "rouken",
    "serviceType": "介護老人保健施設",
    "capacity": 80,
    "openDays": [],
    "openDaysNote": ""
  },
  {
    "id": "4352880035",
    "name": "介護老人保健施設　御船清流園",
    "kana": "カイゴロウジンホケンシセツ　ミフネセイリュウエン",
    "address": "熊本県上益城郡御船町御船１０６２番地１",
    "lat": 32.7113464,
    "lng": 130.8011749,
    "tel": "096-282-1616",
    "url": "",
    "pref": "熊本県",
    "city": "御船町",
    "category": "rouken",
    "serviceType": "介護老人保健施設",
    "capacity": 0,
    "openDays": [],
    "openDaysNote": ""
  },
  {
    "id": "4352880050",
    "name": "介護老人保健施設ナーシングケア緑風苑",
    "kana": "カイゴロウジンホケンシセツナーシングケアリョクフウエン",
    "address": "熊本県上益城郡甲佐町白旗271",
    "lat": 32.6979307,
    "lng": 130.7894983,
    "tel": "096-234-3788",
    "url": "http://www.ryokufu-en.com/",
    "pref": "熊本県",
    "city": "甲佐町",
    "category": "rouken",
    "serviceType": "介護老人保健施設",
    "capacity": 0,
    "openDays": [],
    "openDaysNote": ""
  },
  {
    "id": "4350480010",
    "name": "医療法人　洗心会　介護老人保健施設　慈眼苑",
    "kana": "イリョウホウジンセンシンカイカイゴロウジンホケンシセツジゲンエン",
    "address": "熊本県荒尾市増永７０８番地２",
    "lat": 32.9726232,
    "lng": 130.4396443,
    "tel": "0968-64-1018",
    "url": "https://www.senshinkai.or.jp/jigen/",
    "pref": "熊本県",
    "city": "荒尾市",
    "category": "rouken",
    "serviceType": "介護老人保健施設",
    "capacity": 90,
    "openDays": [],
    "openDaysNote": ""
  },
  {
    "id": "4350480028",
    "name": "介護老人保健施設　平成ドリーム館",
    "kana": "カイゴロウジンホケンシセツ　ヘイセイドリームカン",
    "address": "熊本県荒尾市水野１５５６番地",
    "lat": 32.9622716,
    "lng": 130.4497936,
    "tel": "0968-68-7770",
    "url": "http：dream-yu．cheap．jp",
    "pref": "熊本県",
    "city": "荒尾市",
    "category": "rouken",
    "serviceType": "介護老人保健施設",
    "capacity": 0,
    "openDays": [],
    "openDaysNote": ""
  },
  {
    "id": "4352680047",
    "name": "介護老人保健施設　ひらせ記念リハビリ苑",
    "kana": "カイゴロウジンホケンシセツ　ヒラセキネンリハビリエン",
    "address": "熊本県合志市福原3111",
    "lat": 32.8787523,
    "lng": 130.7844463,
    "tel": "096-248-7100",
    "url": "",
    "pref": "熊本県",
    "city": "合志市",
    "category": "rouken",
    "serviceType": "介護老人保健施設",
    "capacity": 0,
    "openDays": [],
    "openDaysNote": ""
  },
  {
    "id": "4352680021",
    "name": "介護老人保健施設　桜の里",
    "kana": "カイゴロウジンホケンシセツ　サクラノサト",
    "address": "熊本県合志市須屋702",
    "lat": 32.8590124,
    "lng": 130.7302255,
    "tel": "096-343-8377",
    "url": "http://www.nakayamakai.jp/index.html",
    "pref": "熊本県",
    "city": "合志市",
    "category": "rouken",
    "serviceType": "介護老人保健施設",
    "capacity": 0,
    "openDays": [],
    "openDaysNote": ""
  },
  {
    "id": "4351680014",
    "name": "介護老人保健施設　有隣",
    "kana": "カイゴロウジンホケンシセツ　ユウリン",
    "address": "熊本県合志市野々島東原4414-17",
    "lat": 32.8859878,
    "lng": 130.789707,
    "tel": "096-242-5050",
    "url": "http://yurin-kaigo.com",
    "pref": "熊本県",
    "city": "合志市",
    "category": "rouken",
    "serviceType": "介護老人保健施設",
    "capacity": 0,
    "openDays": [],
    "openDaysNote": ""
  },
  {
    "id": "4353180021",
    "name": "介護老人保健施設つつじのさと",
    "kana": "カイゴロウジンホケンシセツツツジノサト",
    "address": "熊本県球磨郡山江村大字山田乙１７０５番地",
    "lat": 32.2424768980162,
    "lng": 130.773398284912,
    "tel": "0966-24-9800",
    "url": "https://mokkeikai.jp/",
    "pref": "熊本県",
    "city": "山江村",
    "category": "rouken",
    "serviceType": "介護老人保健施設",
    "capacity": 60,
    "openDays": [],
    "openDaysNote": ""
  },
  {
    "id": "4350880011",
    "name": "介護老人保健施設　希望の園",
    "kana": "カイゴロウジンホケンシセツ　キボウノソノ",
    "address": "熊本県山鹿市山鹿３６９番地",
    "lat": 33.0146309,
    "lng": 130.6932588,
    "tel": "0968-44-2100",
    "url": "https://kibou-sono.com",
    "pref": "熊本県",
    "city": "山鹿市",
    "category": "rouken",
    "serviceType": "介護老人保健施設",
    "capacity": 0,
    "openDays": [],
    "openDaysNote": ""
  },
  {
    "id": "4350880029",
    "name": "介護老人保健施設　山鹿リハビリセンター",
    "kana": "カイゴロウジンホケンシセツ　ヤマガリハビリセンター",
    "address": "熊本県山鹿市熊入町313番地",
    "lat": 33.0288008701403,
    "lng": 130.683363411639,
    "tel": "0968-43-4370",
    "url": "http://seiei-kai.com/",
    "pref": "熊本県",
    "city": "山鹿市",
    "category": "rouken",
    "serviceType": "介護老人保健施設",
    "capacity": 80,
    "openDays": [],
    "openDaysNote": ""
  },
  {
    "id": "4352580023",
    "name": "介護老人保健施設　太陽",
    "kana": "カイゴロウジンホケンシセツ　タイヨウ",
    "address": "熊本県山鹿市鹿本町津袋６５４－１",
    "lat": 33.0154253891608,
    "lng": 130.745518633066,
    "tel": "0968-46-6111",
    "url": "http://www.taiyoyamaga.com/",
    "pref": "熊本県",
    "city": "山鹿市",
    "category": "rouken",
    "serviceType": "介護老人保健施設",
    "capacity": 96,
    "openDays": [],
    "openDaysNote": ""
  },
  {
    "id": "4352880019",
    "name": "介護老人保健施設　彩雲苑",
    "kana": "カイゴロウジンホケンシセツ　サイウンエン",
    "address": "熊本県上益城郡山都町北中島2701",
    "lat": 32.7328352,
    "lng": 130.938408,
    "tel": "0967-75-0222",
    "url": "saiunen.com",
    "pref": "熊本県",
    "city": "山都町",
    "category": "rouken",
    "serviceType": "介護老人保健施設",
    "capacity": 70,
    "openDays": [],
    "openDaysNote": ""
  },
  {
    "id": "4352880027",
    "name": "老人保健施設　ライフライト矢部",
    "kana": "ロウジンホケンシセツ　ライフライトヤベ",
    "address": "熊本県上益城郡山都町下市60",
    "lat": 32.6835054,
    "lng": 130.9871218,
    "tel": "0967-72-1110",
    "url": "http://ban-lifelight.jp/",
    "pref": "熊本県",
    "city": "山都町",
    "category": "rouken",
    "serviceType": "介護老人保健施設",
    "capacity": 50,
    "openDays": [],
    "openDaysNote": ""
  },
  {
    "id": "4352780037",
    "name": "小国郷公立病院組合　おぐに老人保健施設",
    "kana": "オグニゴウコウリツビョウインクミアイ　オグニロウジンホケンシセツ",
    "address": "熊本県阿蘇郡小国町宮原１７４２番地の１",
    "lat": 33.1214594,
    "lng": 131.065161,
    "tel": "0967-46-6111",
    "url": "http://www.ogunihp.or.jp",
    "pref": "熊本県",
    "city": "小国町",
    "category": "rouken",
    "serviceType": "介護老人保健施設",
    "capacity": 50,
    "openDays": [],
    "openDaysNote": ""
  },
  {
    "id": "4351280005",
    "name": "介護老人保健施設　きららの里",
    "kana": "カイゴロウジンホケンシセツ　キララノサト",
    "address": "熊本県上天草市龍ヶ岳町高戸1419-19",
    "lat": 32.3936494,
    "lng": 130.3916354,
    "tel": "0969-62-1123",
    "url": "",
    "pref": "熊本県",
    "city": "上天草市",
    "category": "rouken",
    "serviceType": "介護老人保健施設",
    "capacity": 50,
    "openDays": [],
    "openDaysNote": ""
  },
  {
    "id": "4353280060",
    "name": "介護老人保健施設ほんごう苑",
    "kana": "カイゴロウジンホケンシセツホンゴウエン",
    "address": "熊本県上天草市大矢野町登立8607番地",
    "lat": 32.5938772,
    "lng": 130.4333817,
    "tel": "0964-56-5110",
    "url": "http://www.kaigo-kumamoto.jp/search/institution.php?id=81",
    "pref": "熊本県",
    "city": "上天草市",
    "category": "rouken",
    "serviceType": "介護老人保健施設",
    "capacity": 0,
    "openDays": [],
    "openDaysNote": ""
  },
  {
    "id": "4353280037",
    "name": "松朗園",
    "kana": "ショウロウエン",
    "address": "熊本県上天草市松島町今泉３２番地の１",
    "lat": 32.5019143,
    "lng": 130.404441,
    "tel": "0969-56-3111",
    "url": "http://www.syourouen.jp/",
    "pref": "熊本県",
    "city": "上天草市",
    "category": "rouken",
    "serviceType": "介護老人保健施設",
    "capacity": 80,
    "openDays": [],
    "openDaysNote": ""
  },
  {
    "id": "4350380020",
    "name": "介護老人保健施設　タンポポ",
    "kana": "カイゴロウジンホケンシセツ　タンポポ",
    "address": "熊本県人吉市下漆田町1538",
    "lat": 32.1908215,
    "lng": 130.7934963,
    "tel": "0966-25-1551",
    "url": "http://hamada-iin.con/",
    "pref": "熊本県",
    "city": "人吉市",
    "category": "rouken",
    "serviceType": "介護老人保健施設",
    "capacity": 80,
    "openDays": [],
    "openDaysNote": ""
  },
  {
    "id": "4350380004",
    "name": "介護老人保健施設　愛生",
    "kana": "カイゴロウジンホケンシセツ　アイセイ",
    "address": "熊本県人吉市南泉田町89",
    "lat": 32.2166154,
    "lng": 130.7626138,
    "tel": "0966-28-3586",
    "url": "http://www.h-aisei.or.jp/",
    "pref": "熊本県",
    "city": "人吉市",
    "category": "rouken",
    "serviceType": "介護老人保健施設",
    "capacity": 0,
    "openDays": [],
    "openDaysNote": ""
  },
  {
    "id": "4350380012",
    "name": "介護老人保健施設リバーサイド御薬園",
    "kana": "カイゴロウジンホケンシセツリバーサイドオヤクエン",
    "address": "熊本県人吉市七地町４９５番地",
    "lat": 32.2130432,
    "lng": 130.7730562,
    "tel": "0966-22-6811",
    "url": "http://www.oyakuen-g.or.jp",
    "pref": "熊本県",
    "city": "人吉市",
    "category": "rouken",
    "serviceType": "介護老人保健施設",
    "capacity": null,
    "openDays": [],
    "openDaysNote": ""
  },
  {
    "id": "4350380038",
    "name": "小規模介護老人保健施設もみの木",
    "kana": "ショウキボカイゴロウジンホケンシセツモミノキ",
    "address": "熊本県人吉市下林町232",
    "lat": 32.2178880384414,
    "lng": 130.735941458336,
    "tel": "0966-32-8233",
    "url": "https://www.tsutsumi-hospital.jp",
    "pref": "熊本県",
    "city": "人吉市",
    "category": "rouken",
    "serviceType": "介護老人保健施設",
    "capacity": 0,
    "openDays": [],
    "openDaysNote": ""
  },
  {
    "id": "4350580025",
    "name": "介護老人保健施設　白梅の里",
    "kana": "カイゴロウジンホケンシセツ　シラウメノサト",
    "address": "熊本県水俣市浜4098番地の１８",
    "lat": 32.2300336,
    "lng": 130.4148657,
    "tel": "0966-63-3888",
    "url": "http://www.kaigocsc.co.jp/shiraume/",
    "pref": "熊本県",
    "city": "水俣市",
    "category": "rouken",
    "serviceType": "介護老人保健施設",
    "capacity": 0,
    "openDays": [],
    "openDaysNote": ""
  },
  {
    "id": "4350580017",
    "name": "介護老人保健施設やすらぎ苑",
    "kana": "カイゴロウジンホケンシセツヤスラギエン",
    "address": "熊本県水俣市浜４０５１番地",
    "lat": 32.2238341,
    "lng": 130.3976763,
    "tel": "0966-63-8621",
    "url": "m-a-ishikai.com",
    "pref": "熊本県",
    "city": "水俣市",
    "category": "rouken",
    "serviceType": "介護老人保健施設",
    "capacity": 80,
    "openDays": [],
    "openDaysNote": ""
  },
  {
    "id": "4353180013",
    "name": "介護老人保健施設サンライフみのり",
    "kana": "カイゴロウジンホケンシセツサンライフミノリ",
    "address": "熊本県球磨郡相良村大字川辺１７７８番地",
    "lat": 32.2570878,
    "lng": 130.8152878,
    "tel": "0966-35-0840",
    "url": "http://www.pe-toru.or.jp",
    "pref": "熊本県",
    "city": "相良村",
    "category": "rouken",
    "serviceType": "介護老人保健施設",
    "capacity": 0,
    "openDays": [],
    "openDaysNote": ""
  },
  {
    "id": "4353180039",
    "name": "介護老人保健施設シルバーエイト",
    "kana": "カイゴロウジンホケンシセツシルバーエイト",
    "address": "熊本県球磨郡多良木町多良木４２１０",
    "lat": 32.2537811084153,
    "lng": 130.925718639287,
    "tel": "0966-42-5288",
    "url": "http://www.taragihp.jp/s8/",
    "pref": "熊本県",
    "city": "多良木町",
    "category": "rouken",
    "serviceType": "介護老人保健施設",
    "capacity": 0,
    "openDays": [],
    "openDaysNote": ""
  },
  {
    "id": "4352680039",
    "name": "介護老人保健施設　おおつかの郷",
    "kana": "カイゴロウジンホケンシセツ　オオツカノサト",
    "address": "熊本県菊池郡大津町陣内1165",
    "lat": 32.8629719,
    "lng": 130.873184,
    "tel": "096-294-1500",
    "url": "http://www.tanakakai.com/otsuka/",
    "pref": "熊本県",
    "city": "大津町",
    "category": "rouken",
    "serviceType": "介護老人保健施設",
    "capacity": 86,
    "openDays": [],
    "openDaysNote": ""
  },
  {
    "id": "4352480018",
    "name": "介護老人保健施設　聖ルカ苑",
    "kana": "カイゴロウジンホケンシセツ　セイルカエン",
    "address": "熊本県玉名郡長洲町宮野2772-10",
    "lat": 32.9516211,
    "lng": 130.4938017,
    "tel": "0968-78-5521",
    "url": "http://seiruka.net/",
    "pref": "熊本県",
    "city": "長洲町",
    "category": "rouken",
    "serviceType": "介護老人保健施設",
    "capacity": 78,
    "openDays": [],
    "openDaysNote": ""
  },
  {
    "id": "4350980019",
    "name": "介護老人保健施設　ケアセンター鶴丸",
    "kana": "カイゴロウジンホケンシセツ　ケアセンターツルマル",
    "address": "熊本県天草市久玉町62番地1",
    "lat": 32.2070128,
    "lng": 130.0285869,
    "tel": "0969-72-6072",
    "url": "",
    "pref": "熊本県",
    "city": "天草市",
    "category": "rouken",
    "serviceType": "介護老人保健施設",
    "capacity": 0,
    "openDays": [],
    "openDaysNote": ""
  },
  {
    "id": "4353280003",
    "name": "介護老人保健施設　ケーナ・ガーデン",
    "kana": "カイゴロウジンホケンシセツ　ケーナ・ガーデン",
    "address": "熊本県天草市河浦町河浦4778番地３",
    "lat": 32.3274193,
    "lng": 130.0749071,
    "tel": "0969-76-1808",
    "url": "gardeninfo@canvas.ocn.ne.jp",
    "pref": "熊本県",
    "city": "天草市",
    "category": "rouken",
    "serviceType": "介護老人保健施設",
    "capacity": 0,
    "openDays": [],
    "openDaysNote": ""
  },
  {
    "id": "4350780013",
    "name": "介護老人保健施設　本渡ケア・ホーム",
    "kana": "カイゴロウジンホケンシセツ　ホンドケア・ホーム",
    "address": "熊本県天草市下浦町2090-1",
    "lat": 32.4245016,
    "lng": 130.2222898,
    "tel": "0969-24-3331",
    "url": "",
    "pref": "熊本県",
    "city": "天草市",
    "category": "rouken",
    "serviceType": "介護老人保健施設",
    "capacity": 0,
    "openDays": [],
    "openDaysNote": ""
  },
  {
    "id": "4351580016",
    "name": "介護老人保健施設　夢織りの里　天草",
    "kana": "カイゴロウジンホケンシセツ　ユメオリノサトアマクサ",
    "address": "熊本県天草市楠浦町字掛場59番5",
    "lat": 32.4228962,
    "lng": 130.2153572,
    "tel": "0969-22-8288",
    "url": "http://www.kunpukai.or.jp/",
    "pref": "熊本県",
    "city": "天草市",
    "category": "rouken",
    "serviceType": "介護老人保健施設",
    "capacity": 50,
    "openDays": [],
    "openDaysNote": ""
  },
  {
    "id": "4353280045",
    "name": "介護老人保健施設ブルーマリン天草",
    "kana": "カイゴロウジンホケンシセツブルーマリンアマクサ",
    "address": "熊本県天草市五和町御領9133番地",
    "lat": 32.5311750821623,
    "lng": 130.19346749577,
    "tel": "0969-32-2112",
    "url": "https://www.bluemarine-amakusa.jp/",
    "pref": "熊本県",
    "city": "天草市",
    "category": "rouken",
    "serviceType": "介護老人保健施設",
    "capacity": 70,
    "openDays": [],
    "openDaysNote": ""
  },
  {
    "id": "4350780021",
    "name": "独立行政法人地域医療機能推進機構　天草中央総合病院附属介護老人保健施設",
    "kana": "ドクリツギョウセイホウジンチイキイリョウキノウスイシンキコウアマクサチュウオウソウゴウビョウインフゾクカイゴロウジンホケンシセツ",
    "address": "熊本県天草市東町１０１",
    "lat": 32.4493272,
    "lng": 130.2002436,
    "tel": "0969-22-2111",
    "url": "http://www.jcho.go.jp",
    "pref": "熊本県",
    "city": "天草市",
    "category": "rouken",
    "serviceType": "介護老人保健施設",
    "capacity": 0,
    "openDays": [],
    "openDaysNote": ""
  },
  {
    "id": "4352780003",
    "name": "介護老人保健施設　リハセンターひばり",
    "kana": "カイゴロウジンホケンシセツ　リハセンターヒバリ",
    "address": "熊本県阿蘇郡南阿蘇村吉田2044-2",
    "lat": 32.8325254,
    "lng": 131.0785921,
    "tel": "0967-64-8000",
    "url": "https://www.daitokukai.info/hibari/",
    "pref": "熊本県",
    "city": "南阿蘇村",
    "category": "rouken",
    "serviceType": "介護老人保健施設",
    "capacity": 0,
    "openDays": [],
    "openDaysNote": ""
  },
  {
    "id": "4350280063",
    "name": "ユニット型　介護老人保健施設　向春苑",
    "kana": "ユニットガタ　カイゴロウジンホケンシセツ　コウシュンエン",
    "address": "熊本県八代市大福寺町2411-1",
    "lat": 32.4734784,
    "lng": 130.5919012,
    "tel": "0965-33-8660",
    "url": "ttp://gongen.org/koureisya/sisetu/kousyunen/index.html",
    "pref": "熊本県",
    "city": "八代市",
    "category": "rouken",
    "serviceType": "介護老人保健施設",
    "capacity": 10,
    "openDays": [],
    "openDaysNote": ""
  },
  {
    "id": "4350280071",
    "name": "ユニット型介護老人保健施設　とまと",
    "kana": "ユニットガタカイゴロウジンホケンシセツ　トマト",
    "address": "熊本県八代市郡築1番町180番地1",
    "lat": 32.5152970939885,
    "lng": 130.564269390201,
    "tel": "0965-37-3737",
    "url": "http://www.tomato-r.com",
    "pref": "熊本県",
    "city": "八代市",
    "category": "rouken",
    "serviceType": "介護老人保健施設",
    "capacity": 0,
    "openDays": [],
    "openDaysNote": ""
  },
  {
    "id": "4350280055",
    "name": "介護老人保健施設　とまと",
    "kana": "カイゴロウジンホケンシセツ　トマト",
    "address": "熊本県八代市郡築１番町１８０番地１",
    "lat": 32.5418143,
    "lng": 130.576888,
    "tel": "0965-37-3737",
    "url": "http://www.tomato-r.com",
    "pref": "熊本県",
    "city": "八代市",
    "category": "rouken",
    "serviceType": "介護老人保健施設",
    "capacity": 0,
    "openDays": [],
    "openDaysNote": ""
  },
  {
    "id": "4350280014",
    "name": "介護老人保健施設　ハピネスケア日南",
    "kana": "カイゴロウジンホケンシセツ　ハピネスケアニチナン",
    "address": "熊本県八代市日奈久塩北町2922",
    "lat": 32.4332438,
    "lng": 130.5832905,
    "tel": "0965-38-0700",
    "url": "https://k-keiaikai.net/",
    "pref": "熊本県",
    "city": "八代市",
    "category": "rouken",
    "serviceType": "介護老人保健施設",
    "capacity": 80,
    "openDays": [],
    "openDaysNote": ""
  },
  {
    "id": "4350280022",
    "name": "介護老人保健施設　向春苑",
    "kana": "カイゴロウジンホケンシセツ　　コウシュンエン",
    "address": "熊本県八代市大福寺町2411-1",
    "lat": 32.4734784,
    "lng": 130.5919012,
    "tel": "0965-33-8660",
    "url": "ttp://gongen.org/koureisya/sisetu/kousyunnen/index.html",
    "pref": "熊本県",
    "city": "八代市",
    "category": "rouken",
    "serviceType": "介護老人保健施設",
    "capacity": 70,
    "openDays": [],
    "openDaysNote": ""
  },
  {
    "id": "4350280048",
    "name": "介護老人保健施設　皇寿園",
    "kana": "カイゴロウジンホケンシセツ　コウジュエン",
    "address": "熊本県八代市高島町4218番地",
    "lat": 32.5232769,
    "lng": 130.5825754,
    "tel": "0965-33-5545",
    "url": "http://www.tagata-group.jp/kohjuen/",
    "pref": "熊本県",
    "city": "八代市",
    "category": "rouken",
    "serviceType": "介護老人保健施設",
    "capacity": 0,
    "openDays": [],
    "openDaysNote": ""
  },
  {
    "id": "4352980025",
    "name": "介護老人保健施設かがみ苑",
    "kana": "カイゴロウジンホケンシセツ　カガミエン",
    "address": "熊本県八代市鏡町塩浜２３５番地",
    "lat": 32.5618590052068,
    "lng": 130.618106129608,
    "tel": "0965-30-4000",
    "url": "https://www.kagamien-kumamoto.com/",
    "pref": "熊本県",
    "city": "八代市",
    "category": "rouken",
    "serviceType": "介護老人保健施設",
    "capacity": 0,
    "openDays": [],
    "openDaysNote": ""
  },
  {
    "id": "4350280030",
    "name": "介護老人保健施設リハリート桜十字八代",
    "kana": "カイゴロウジンホケンシセツリハリートサクラジュウジヤツシロ",
    "address": "熊本県八代市古閑浜町西塩浜3401番地",
    "lat": 32.5375777074585,
    "lng": 130.599794478259,
    "tel": "0965-33-8880",
    "url": "http://www.yuurin.or.jp/",
    "pref": "熊本県",
    "city": "八代市",
    "category": "rouken",
    "serviceType": "介護老人保健施設",
    "capacity": 80,
    "openDays": [],
    "openDaysNote": ""
  },
  {
    "id": "4352380002",
    "name": "介護老人保健施設　なごみの里",
    "kana": "カイゴロウジンホケンシセツ　ナゴミノサト",
    "address": "熊本県下益城郡美里町堅志田192-1",
    "lat": 32.6470131,
    "lng": 130.790556,
    "tel": "0964-47-6011",
    "url": "http://www.ko-wakai.jp",
    "pref": "熊本県",
    "city": "美里町",
    "category": "rouken",
    "serviceType": "介護老人保健施設",
    "capacity": 0,
    "openDays": [],
    "openDaysNote": ""
  },
  {
    "id": "4352980017",
    "name": "介護老人保健施設　八祥苑",
    "kana": "カイゴロウジンホケンシセツ　ハッショウエン",
    "address": "熊本県八代郡氷川町早尾132番地",
    "lat": 32.5505169430199,
    "lng": 130.677108579207,
    "tel": "0965-62-4818",
    "url": "http://www.8shouen.org/index.html",
    "pref": "熊本県",
    "city": "氷川町",
    "category": "rouken",
    "serviceType": "介護老人保健施設",
    "capacity": 0,
    "openDays": [],
    "openDaysNote": ""
  },
  {
    "id": "4353280011",
    "name": "社会医療法人　稲穂会　介護老人保健施設　慈恵苑",
    "kana": "シャカイイリョウホウジンイナホカイ　カイゴロウジンホケンシセツ　ジケイエン",
    "address": "熊本県天草郡苓北町上津深江278-10",
    "lat": 32.5170923,
    "lng": 130.0679226,
    "tel": "0969-37-1567",
    "url": "http://www.inahokai.com",
    "pref": "熊本県",
    "city": "苓北町",
    "category": "rouken",
    "serviceType": "介護老人保健施設",
    "capacity": 0,
    "openDays": [],
    "openDaysNote": ""
  },
  {
    "id": "4352480026",
    "name": "介護老人保健施設　清風苑",
    "kana": "カイゴロウジンホケンシセツ　セイフウエン",
    "address": "熊本県玉名郡和水町上板楠1697-1",
    "lat": 33.0706134,
    "lng": 130.6147599,
    "tel": "0968-34-3700",
    "url": "",
    "pref": "熊本県",
    "city": "和水町",
    "category": "rouken",
    "serviceType": "介護老人保健施設",
    "capacity": 78,
    "openDays": [],
    "openDaysNote": ""
  }
]