[
  {
    "id": "1750780148",
    "name": "介護老人保健施設　白鳥苑",
    "kana": "カイゴロウジンホケンシセツ　ハクチョウエン",
    "address": "石川県羽咋市本江町へ１５番地",
    "lat": 36.912506,
    "lng": 136.8377724,
    "tel": "0767-26-0901",
    "url": "http://www.keiju-kai.com",
    "pref": "石川県",
    "city": "羽咋市",
    "category": "rouken",
    "serviceType": "介護老人保健施設",
    "capacity": 0,
    "openDays": [],
    "openDaysNote": ""
  },
  {
    "id": "1750680132",
    "name": "葵の園・丘の上",
    "kana": "アオイノソノ・オカノウエ",
    "address": "加賀市冨塚町中尾126-2",
    "lat": 36.3354366327351,
    "lng": 136.361893801852,
    "tel": "0761-74-0129",
    "url": "http://www.aoikai.jp/",
    "pref": "石川県",
    "city": "加賀市",
    "category": "rouken",
    "serviceType": "介護老人保健施設",
    "capacity": 0,
    "openDays": [],
    "openDaysNote": ""
  },
  {
    "id": "1750680041",
    "name": "介護老人保健施設　加賀のぞみ園",
    "kana": "カイゴロウジンホケンシセツ　カガノゾミエン",
    "address": "南郷町3乙4番地",
    "lat": 36.292387,
    "lng": 136.3263042,
    "tel": "0761－72－5211",
    "url": "http://www.kaganozomien.jp/",
    "pref": "石川県",
    "city": "加賀市",
    "category": "rouken",
    "serviceType": "介護老人保健施設",
    "capacity": 0,
    "openDays": [],
    "openDaysNote": ""
  },
  {
    "id": "1750680033",
    "name": "介護老人保健施設　加賀中央メディケアホーム",
    "kana": "カイゴロウジンホケンシセツ　カガチュウオウメディケアホーム",
    "address": "石川県加賀市山田町蛇谷1番地19",
    "lat": 36.325736,
    "lng": 136.3349188,
    "tel": "0761-73-1116",
    "url": "http://www.tokuhoukai.jp",
    "pref": "石川県",
    "city": "加賀市",
    "category": "rouken",
    "serviceType": "介護老人保健施設",
    "capacity": 100,
    "openDays": [],
    "openDaysNote": ""
  },
  {
    "id": "1750680330",
    "name": "介護老人保健施設　太陽の丘",
    "kana": "カイゴロウジンホケンシセツ　タイヨウノオカ",
    "address": "石川県加賀市深田町ロ２番地１",
    "lat": 36.3428671,
    "lng": 136.3027662,
    "tel": "0761-75-2100",
    "url": "http://suuki-kenko.jp",
    "pref": "石川県",
    "city": "加賀市",
    "category": "rouken",
    "serviceType": "介護老人保健施設",
    "capacity": null,
    "openDays": [],
    "openDaysNote": ""
  },
  {
    "id": "1750680215",
    "name": "山中温泉しらさぎ苑",
    "kana": "ヤマナカオンセンシラサギエン",
    "address": "石川県加賀市山中温泉長谷田町チ17-1",
    "lat": 36.2677826,
    "lng": 136.361171,
    "tel": "0761-78-0211",
    "url": "http://www.tokuhoukai.jp",
    "pref": "石川県",
    "city": "加賀市",
    "category": "rouken",
    "serviceType": "介護老人保健施設",
    "capacity": 0,
    "openDays": [],
    "openDaysNote": ""
  },
  {
    "id": "1750180067",
    "name": "みらいのさと太陽",
    "kana": "ミライノサトタイヨウ",
    "address": "金沢市鞍月東1丁目17番地",
    "lat": 36.5940428,
    "lng": 136.6311389,
    "tel": "076-237-2821",
    "url": "http://mirainosato-taiyou.com/",
    "pref": "石川県",
    "city": "金沢市",
    "category": "rouken",
    "serviceType": "介護老人保健施設",
    "capacity": 0,
    "openDays": [],
    "openDaysNote": ""
  },
  {
    "id": "1750180398",
    "name": "医療機関併設型小規模介護老人保健施設あんやと",
    "kana": "イリョウキカンヘイセツガタ　ショウキボカイゴロウジンホケンシセツ　アンヤト",
    "address": "金沢市弥勒町ニ１番地１",
    "lat": 36.6129329,
    "lng": 136.6910393,
    "tel": "076-257-0888",
    "url": "http://www.matoba.or.jp",
    "pref": "石川県",
    "city": "金沢市",
    "category": "rouken",
    "serviceType": "介護老人保健施設",
    "capacity": 0,
    "openDays": [],
    "openDaysNote": ""
  },
  {
    "id": "1750180125",
    "name": "介護老人保健施設　あっぷる",
    "kana": "カイゴロウジンホケンシセツ　アップル",
    "address": "金沢市長坂町チ15番地",
    "lat": 36.5321873,
    "lng": 136.6570752,
    "tel": "076-280-5454",
    "url": "http://www.rouken-apple.com",
    "pref": "石川県",
    "city": "金沢市",
    "category": "rouken",
    "serviceType": "介護老人保健施設",
    "capacity": 100,
    "openDays": [],
    "openDaysNote": ""
  },
  {
    "id": "1750180299",
    "name": "介護老人保健施設　ピカソ",
    "kana": "カイゴロウジンホケンシセツ　ピカソ",
    "address": "金沢市田上本町カ45番地1",
    "lat": 36.5294132,
    "lng": 136.701269,
    "tel": "076-231-6225",
    "url": "http://picasso-kaigo.jp",
    "pref": "石川県",
    "city": "金沢市",
    "category": "rouken",
    "serviceType": "介護老人保健施設",
    "capacity": 100,
    "openDays": [],
    "openDaysNote": ""
  },
  {
    "id": "1750180406",
    "name": "介護老人保健施設　ろうけん桜並木",
    "kana": "カイゴロウジンホケンシセツロウケンサクラナミキ",
    "address": "石川県金沢市田上さくら二丁目７２番地",
    "lat": 36.5436000580293,
    "lng": 136.68899260161,
    "tel": "076-208-3973",
    "url": "http://roukensakuranamiki.com/",
    "pref": "石川県",
    "city": "金沢市",
    "category": "rouken",
    "serviceType": "介護老人保健施設",
    "capacity": 0,
    "openDays": [],
    "openDaysNote": ""
  },
  {
    "id": "1750180018",
    "name": "金沢春日ケアセンター",
    "kana": "カナザワカスガケアセンター",
    "address": "金沢市元菊町20番1号",
    "lat": 36.573679,
    "lng": 136.6422611,
    "tel": "076-262-3300",
    "url": "http://www.jintikai.com",
    "pref": "石川県",
    "city": "金沢市",
    "category": "rouken",
    "serviceType": "介護老人保健施設",
    "capacity": 0,
    "openDays": [],
    "openDaysNote": ""
  },
  {
    "id": "1750180414",
    "name": "千木町ケアセンター",
    "kana": "センギマチケアセンター",
    "address": "石川県金沢市千木町ヘ3番地1",
    "lat": 36.611291,
    "lng": 136.671991,
    "tel": "076-257-3122",
    "url": "http://sengicare.info/index.html",
    "pref": "石川県",
    "city": "金沢市",
    "category": "rouken",
    "serviceType": "介護老人保健施設",
    "capacity": 150,
    "openDays": [],
    "openDaysNote": ""
  },
  {
    "id": "1750180315",
    "name": "地域医療機能推進機構金沢病院附属介護老人保健施設",
    "kana": "チイキイリョウキノウスイシンキコウカナザワビョウインフゾクカイゴロウジンホケンシセツ",
    "address": "金沢市沖町ハ部１５",
    "lat": 36.5915128,
    "lng": 136.6514267,
    "tel": "076-253-5088",
    "url": "http://kanazawa.jcho.go.jp/rouken/",
    "pref": "石川県",
    "city": "金沢市",
    "category": "rouken",
    "serviceType": "介護老人保健施設",
    "capacity": 0,
    "openDays": [],
    "openDaysNote": ""
  },
  {
    "id": "1750180075",
    "name": "田中町温泉ケア・センター",
    "kana": "タナカマチオンセンケアセンター",
    "address": "金沢市田中町は１６番地",
    "lat": 36.6004544694737,
    "lng": 136.660818549738,
    "tel": "076-253-2282",
    "url": "https://tanakamachi-care.jp/",
    "pref": "石川県",
    "city": "金沢市",
    "category": "rouken",
    "serviceType": "介護老人保健施設",
    "capacity": 0,
    "openDays": [],
    "openDaysNote": ""
  },
  {
    "id": "1750180224",
    "name": "福久ケアセンター",
    "kana": "フクヒサケアセンター",
    "address": "金沢市福久町ワ１番地１",
    "lat": 36.6173959,
    "lng": 136.6773376,
    "tel": "076-257-7333",
    "url": "http://www.fukuhisakai.net/",
    "pref": "石川県",
    "city": "金沢市",
    "category": "rouken",
    "serviceType": "介護老人保健施設",
    "capacity": 150,
    "openDays": [],
    "openDaysNote": ""
  },
  {
    "id": "1750180323",
    "name": "老健ホームいしかわ",
    "kana": "ロウケンホームイシカワ",
    "address": "石川県金沢市忠縄町１４４番地１老健ホームいしかわ 老健ホームいしかわ",
    "lat": 36.6289555,
    "lng": 136.6915054,
    "tel": "０７６－２５７－７１０１",
    "url": "http://care-net.biz/17/iskw/",
    "pref": "石川県",
    "city": "金沢市",
    "category": "rouken",
    "serviceType": "介護老人保健施設",
    "capacity": 100,
    "openDays": [],
    "openDaysNote": ""
  },
  {
    "id": "1750180091",
    "name": "老人保健施設　なでしこの丘",
    "kana": "ロウジンホケンシセツ　ナデシコノオカ",
    "address": "石川県金沢市馬替２丁目１４２番地",
    "lat": 36.5218431,
    "lng": 136.6209701,
    "tel": "076-296-3111",
    "url": "https://www.nadesikonooka.jp/",
    "pref": "石川県",
    "city": "金沢市",
    "category": "rouken",
    "serviceType": "介護老人保健施設",
    "capacity": 100,
    "openDays": [],
    "openDaysNote": ""
  },
  {
    "id": "1751780261",
    "name": "介護老人保健施設あゆみの里",
    "kana": "カイゴロウジンホケンシセツアユミノサト",
    "address": "石川県鳳珠郡穴水町字川島タの38",
    "lat": 37.2335386567184,
    "lng": 136.910183289893,
    "tel": "0768-52-3310",
    "url": "https://www.town.anamizu.lg.jp/site/hospital/100490.html#ayumi",
    "pref": "石川県",
    "city": "穴水町",
    "category": "rouken",
    "serviceType": "介護老人保健施設",
    "capacity": 0,
    "openDays": [],
    "openDaysNote": ""
  },
  {
    "id": "1751580182",
    "name": "介護老人保健施設　有縁の荘",
    "kana": "カイゴロウジンホケンシセツ　ウエンノソウ",
    "address": "羽咋郡志賀町仏木ク15-20",
    "lat": 37.0529764,
    "lng": 136.8180426,
    "tel": "0767-37-1122",
    "url": "http://care-net.biz/17/douhoukai/",
    "pref": "石川県",
    "city": "志賀町",
    "category": "rouken",
    "serviceType": "介護老人保健施設",
    "capacity": 50,
    "openDays": [],
    "openDaysNote": ""
  },
  {
    "id": "1750280024",
    "name": "介護老人保健施設　和光苑",
    "kana": "カイゴロウジンホケンシセツ　ワコウエン",
    "address": "石川県七尾市津向町ト部107番地",
    "lat": 37.0559800332962,
    "lng": 136.954815548827,
    "tel": "0767-52-3665",
    "url": "http://www.keiju.co.jp",
    "pref": "石川県",
    "city": "七尾市",
    "category": "rouken",
    "serviceType": "介護老人保健施設",
    "capacity": 0,
    "openDays": [],
    "openDaysNote": ""
  },
  {
    "id": "1750280420",
    "name": "介護老人保健施設「えんやま」",
    "kana": "カイゴロウジンホケンシセツ　エンヤマ",
    "address": "石川県七尾市千野町に部10番地",
    "lat": 37.0158738,
    "lng": 136.9526532,
    "tel": "0767-57-0177",
    "url": "enyama-hp.jp/clinic",
    "pref": "石川県",
    "city": "七尾市",
    "category": "rouken",
    "serviceType": "介護老人保健施設",
    "capacity": 29,
    "openDays": [],
    "openDaysNote": ""
  },
  {
    "id": "1750280198",
    "name": "介護老人保健施設寿老園",
    "kana": "カイゴロウジンホケンシセツジュロウエン",
    "address": "石川県七尾市中島町鹿島台は部14番地1",
    "lat": 37.1310423,
    "lng": 136.8895712,
    "tel": "0767‐66‐0300",
    "url": "http:/care-net.biz/17/jyuroen/",
    "pref": "石川県",
    "city": "七尾市",
    "category": "rouken",
    "serviceType": "介護老人保健施設",
    "capacity": 0,
    "openDays": [],
    "openDaysNote": ""
  },
  {
    "id": "1750580357",
    "name": "介護老人保健施設　美笑苑",
    "kana": "カイゴロウジンホケンシセツ　ビショウエン",
    "address": "石川県珠洲市三崎町小泊ト部３番１",
    "lat": 37.4492144,
    "lng": 137.3578773,
    "tel": "0768-88-8080",
    "url": "",
    "pref": "石川県",
    "city": "珠洲市",
    "category": "rouken",
    "serviceType": "介護老人保健施設",
    "capacity": null,
    "openDays": [],
    "openDaysNote": ""
  },
  {
    "id": "1750380204",
    "name": "介護老人保健施設　グリーン・ポート小松",
    "kana": "カイゴロウジンホケンシセツ　グリーン・ポートコマツ",
    "address": "石川県小松市岩渕町46-2",
    "lat": 36.3916450350291,
    "lng": 136.526753652779,
    "tel": "0761-47-2900",
    "url": "https://tayakai.or.jp/care/greenport/",
    "pref": "石川県",
    "city": "小松市",
    "category": "rouken",
    "serviceType": "介護老人保健施設",
    "capacity": 95,
    "openDays": [],
    "openDaysNote": ""
  },
  {
    "id": "1750380378",
    "name": "介護老人保健施設　さくら園",
    "kana": "カイゴロウジンホケンシセツ　サクラエン",
    "address": "小松市園町ホ35番地1",
    "lat": 36.4086303,
    "lng": 136.460531,
    "tel": "0761-21-7261",
    "url": "",
    "pref": "石川県",
    "city": "小松市",
    "category": "rouken",
    "serviceType": "介護老人保健施設",
    "capacity": 0,
    "openDays": [],
    "openDaysNote": ""
  },
  {
    "id": "1750380345",
    "name": "介護老人保健施設レイクサイド木場",
    "kana": "カイゴロウジンホケンシセツ　レイクサイドキバ",
    "address": "石川県小松市三谷町そ80番地",
    "lat": 36.3688861,
    "lng": 136.4538854,
    "tel": "0761-23-1800",
    "url": "https://tayakai.or.jp/",
    "pref": "石川県",
    "city": "小松市",
    "category": "rouken",
    "serviceType": "介護老人保健施設",
    "capacity": 100,
    "openDays": [],
    "openDaysNote": ""
  },
  {
    "id": "1750380170",
    "name": "老人保健施設まだら園",
    "kana": "ロウジンホケンシセツマダラエン",
    "address": "小松市北浅井町り125番地1",
    "lat": 36.3898764230021,
    "lng": 136.457169723943,
    "tel": "0761-21-8624",
    "url": "",
    "pref": "石川県",
    "city": "小松市",
    "category": "rouken",
    "serviceType": "介護老人保健施設",
    "capacity": 0,
    "openDays": [],
    "openDaysNote": ""
  },
  {
    "id": "1751280411",
    "name": "あんじん川北",
    "kana": "アンジンカワキタ",
    "address": "能美郡川北町壱ツ屋１９５",
    "lat": 36.4674409,
    "lng": 136.5430952,
    "tel": "076-277-8853",
    "url": "http://yowakai.jp",
    "pref": "石川県",
    "city": "川北町",
    "category": "rouken",
    "serviceType": "介護老人保健施設",
    "capacity": 0,
    "openDays": [],
    "openDaysNote": ""
  },
  {
    "id": "1751680354",
    "name": "介護老人保健施設　なごみの里鹿島",
    "kana": "カイゴロウジンホケンシセツ　ナゴミノサトカシマ",
    "address": "石川県鹿島郡中能登町浅井ろ部106番地",
    "lat": 36.9830497,
    "lng": 136.9013818,
    "tel": "0767－76－2270",
    "url": "https://www.eijyukai-nagomi.com",
    "pref": "石川県",
    "city": "中能登町",
    "category": "rouken",
    "serviceType": "介護老人保健施設",
    "capacity": 100,
    "openDays": [],
    "openDaysNote": ""
  },
  {
    "id": "1751480516",
    "name": "介護老人保健施設ふぃらーじゅ",
    "kana": "カイゴロウジンホケンシセツフィラージュ",
    "address": "河北郡津幡町字東荒屋354番地",
    "lat": 36.6639414,
    "lng": 136.7512134,
    "tel": "076-288-1465",
    "url": "http://www.feuillage.gr.jp/",
    "pref": "石川県",
    "city": "津幡町",
    "category": "rouken",
    "serviceType": "介護老人保健施設",
    "capacity": 50,
    "openDays": [],
    "openDaysNote": ""
  },
  {
    "id": "1751480102",
    "name": "内灘温泉保養館",
    "kana": "ウチナダオンセンホヨウカン",
    "address": "石川県河北郡内灘町白帆台1-88-1",
    "lat": 36.6704836,
    "lng": 136.6557296,
    "tel": "076-286-5218",
    "url": "",
    "pref": "石川県",
    "city": "内灘町",
    "category": "rouken",
    "serviceType": "介護老人保健施設",
    "capacity": 0,
    "openDays": [],
    "openDaysNote": ""
  },
  {
    "id": "1752380301",
    "name": "介護老人保健施設　手取の里",
    "kana": "カイゴロウジンホケンシセツ　テドリノサト",
    "address": "寺井町ウ84",
    "lat": 36.4385104680832,
    "lng": 136.488968028318,
    "tel": "0761-58-6616",
    "url": "http://www.terai-hospital.jp/tedori/index.html",
    "pref": "石川県",
    "city": "能美市",
    "category": "rouken",
    "serviceType": "介護老人保健施設",
    "capacity": 50,
    "openDays": [],
    "openDaysNote": ""
  },
  {
    "id": "1752380236",
    "name": "介護老人保健施設　陽翠の里",
    "kana": "カイゴロウジンホケンシセツ　ヒスイノサト",
    "address": "石川県能美市緑が丘11丁目77番地",
    "lat": 36.442473869149,
    "lng": 136.535520625795,
    "tel": "0761－51－7777",
    "url": "https://hisui.or.jp",
    "pref": "石川県",
    "city": "能美市",
    "category": "rouken",
    "serviceType": "介護老人保健施設",
    "capacity": 54,
    "openDays": [],
    "openDaysNote": ""
  },
  {
    "id": "1752380285",
    "name": "能美市介護老人保健施設はまなすの丘",
    "kana": "ノミシカイゴロウジンホケンシセツハマナスノオカ",
    "address": "石川県能美市大浜町ム52番地18",
    "lat": 36.4547691,
    "lng": 136.4532884,
    "tel": "0761-55-8855",
    "url": "",
    "pref": "石川県",
    "city": "能美市",
    "category": "rouken",
    "serviceType": "介護老人保健施設",
    "capacity": 0,
    "openDays": [],
    "openDaysNote": ""
  },
  {
    "id": "1752280055",
    "name": "介護老人保健施設　千代野苑",
    "kana": "カイゴロウジンホケンシセツ　チヨノエン",
    "address": "石川県白山市米永町303番地の5",
    "lat": 36.5156066,
    "lng": 136.5426295,
    "tel": "076-275-7700",
    "url": "http://ｗｗｗ.hakusankai.jp/",
    "pref": "石川県",
    "city": "白山市",
    "category": "rouken",
    "serviceType": "介護老人保健施設",
    "capacity": 0,
    "openDays": [],
    "openDaysNote": ""
  },
  {
    "id": "1752280360",
    "name": "介護老人保健施設なごみ苑",
    "kana": "カイゴロウジンホケンシセツナゴミエン",
    "address": "石川県白山市米永町300番地2",
    "lat": 36.5153554707569,
    "lng": 136.54373043842,
    "tel": "076-276-5100",
    "url": "https://www.hakusankai.jp/",
    "pref": "石川県",
    "city": "白山市",
    "category": "rouken",
    "serviceType": "介護老人保健施設",
    "capacity": 0,
    "openDays": [],
    "openDaysNote": ""
  },
  {
    "id": "1751380088",
    "name": "あんじん",
    "kana": "アンジン",
    "address": "石川県野々市市新庄２丁目３０番地",
    "lat": 36.4969323,
    "lng": 136.6102128,
    "tel": "076-248-4165",
    "url": "https://yowakai.jp",
    "pref": "石川県",
    "city": "野々市市",
    "category": "rouken",
    "serviceType": "介護老人保健施設",
    "capacity": 100,
    "openDays": [],
    "openDaysNote": ""
  },
  {
    "id": "1711311017",
    "name": "介護老人保健施設　おしのの里",
    "kana": "カイゴロウジンホケンシセツ　オシノノサト",
    "address": "石川県野々市市押野6丁目160番地",
    "lat": 36.5449209,
    "lng": 136.6188587,
    "tel": "076-246-1411",
    "url": "http://homepage2.nifty.com/o-shinseikai/frame.htm",
    "pref": "石川県",
    "city": "野々市市",
    "category": "rouken",
    "serviceType": "介護老人保健施設",
    "capacity": null,
    "openDays": [],
    "openDaysNote": ""
  },
  {
    "id": "1751380245",
    "name": "金沢南ケアセンター",
    "kana": "カナザワミナミケアセンター",
    "address": "野々市市蓮花寺町１番地１",
    "lat": 36.5305476,
    "lng": 136.5911339,
    "tel": "076-294-3737",
    "url": "http://www.jintikai.com",
    "pref": "石川県",
    "city": "野々市市",
    "category": "rouken",
    "serviceType": "介護老人保健施設",
    "capacity": 100,
    "openDays": [],
    "openDaysNote": ""
  },
  {
    "id": "1750480129",
    "name": "介護老人保健施設　百寿苑",
    "kana": "カイゴロウジンホケンシセツ　ヒャクジュエン",
    "address": "石川県輪島市気勝平町１番２８",
    "lat": 37.3822251,
    "lng": 136.8943694,
    "tel": "0768-22-9922",
    "url": "https://kotobukifukushikai.com/hyakujuen/",
    "pref": "石川県",
    "city": "輪島市",
    "category": "rouken",
    "serviceType": "介護老人保健施設",
    "capacity": 0,
    "openDays": [],
    "openDaysNote": ""
  }
]