[
  {
    "id": "1451680008",
    "name": "医療法人社団　愛清　介護老人保健施設　せせらぎ",
    "kana": "イリョウホウジンシャダン　アイセイ　カイゴロウジンホケンシセツセセラギ",
    "address": "神奈川県愛甲郡愛川町角田4369-18",
    "lat": 35.5273345,
    "lng": 139.298777,
    "tel": "046-281-4165",
    "url": "http://www.aisei-dc.jp",
    "pref": "神奈川県",
    "city": "愛川町",
    "category": "rouken",
    "serviceType": "介護老人保健施設",
    "capacity": 66,
    "openDays": [],
    "openDaysNote": ""
  },
  {
    "id": "1454480000",
    "name": "介護老人保健施設　メイプル",
    "kana": "カイゴロウジンホケンシセツ　メイプル",
    "address": "神奈川県綾瀬市吉岡2361-7",
    "lat": 35.4273206,
    "lng": 139.4103407,
    "tel": "0467-76-8001",
    "url": "http://www.jikoukai.com/care/index.html",
    "pref": "神奈川県",
    "city": "綾瀬市",
    "category": "rouken",
    "serviceType": "介護老人保健施設",
    "capacity": 0,
    "openDays": [],
    "openDaysNote": ""
  },
  {
    "id": "1454080016",
    "name": "医療法人社団　松和会　介護老人保健施設ききょう苑",
    "kana": "イリョウホウジンシャダン　ショウワカイ　カイゴロウジンホケンシセツキキョウエン",
    "address": "神奈川県伊勢原市沼目6‐1237",
    "lat": 35.388304,
    "lng": 139.331438,
    "tel": "0463-92-8101",
    "url": "http://www.mtnet.jp/kikyo-en/",
    "pref": "神奈川県",
    "city": "伊勢原市",
    "category": "rouken",
    "serviceType": "介護老人保健施設",
    "capacity": 75,
    "openDays": [],
    "openDaysNote": ""
  },
  {
    "id": "1454080027",
    "name": "医療法人社団佑樹会　介護老人保健施設あゆみの里",
    "kana": "イリョウホウジンシャダンユウキカイ　カイゴロウジンホケンシセツアユミノサト",
    "address": "神奈川県伊勢原市石田1710番地",
    "lat": 35.4148377,
    "lng": 139.3412051,
    "tel": "0463-92-5551",
    "url": "http://yuuki-kai.com/ayumi_top/",
    "pref": "神奈川県",
    "city": "伊勢原市",
    "category": "rouken",
    "serviceType": "介護老人保健施設",
    "capacity": 0,
    "openDays": [],
    "openDaysNote": ""
  },
  {
    "id": "1454080008",
    "name": "介護老人保健施設ほほえみの丘",
    "kana": "カイゴロウジンホケンシセツホホエミノオカ",
    "address": "神奈川県伊勢原市下平間700",
    "lat": 35.3835766,
    "lng": 139.3202145,
    "tel": "0463-97-5522",
    "url": "http://www.kouseiren.net/hohoemi/",
    "pref": "神奈川県",
    "city": "伊勢原市",
    "category": "rouken",
    "serviceType": "介護老人保健施設",
    "capacity": 0,
    "openDays": [],
    "openDaysNote": ""
  },
  {
    "id": "1451980085",
    "name": "介護老人保健施設　しんわ走水荘",
    "kana": "カイゴロウジンホケンシセツ　シンワハシリミズソウ",
    "address": "神奈川県横須賀市走水2-5-6",
    "lat": 35.2642758,
    "lng": 139.729773,
    "tel": "046-876-6066",
    "url": "http://hashirimizu.jp/",
    "pref": "神奈川県",
    "city": "横須賀市",
    "category": "rouken",
    "serviceType": "介護老人保健施設",
    "capacity": 0,
    "openDays": [],
    "openDaysNote": ""
  },
  {
    "id": "1451980044",
    "name": "介護老人保健施設　ソレイユカーマ",
    "kana": "カイゴロウジンホケンシセツ　ソレイユカーマ",
    "address": "神奈川県横須賀市西浦賀　５－３２－１",
    "lat": 35.2343985,
    "lng": 139.7206653,
    "tel": "046-845-1600",
    "url": "http://www.soleil-kama.jp/",
    "pref": "神奈川県",
    "city": "横須賀市",
    "category": "rouken",
    "serviceType": "介護老人保健施設",
    "capacity": 100,
    "openDays": [],
    "openDaysNote": ""
  },
  {
    "id": "1451980036",
    "name": "介護老人保健施設　ハートケア湘南・芦名",
    "kana": "カイゴロウジンホケンシセツ　ハートケアショウナン・アシナ",
    "address": "神奈川県横須賀市芦名１－１６－１２",
    "lat": 35.2290849,
    "lng": 139.6039028,
    "tel": "046-855-5211",
    "url": "https://hc-ashina.jp/",
    "pref": "神奈川県",
    "city": "横須賀市",
    "category": "rouken",
    "serviceType": "介護老人保健施設",
    "capacity": 0,
    "openDays": [],
    "openDaysNote": ""
  },
  {
    "id": "1451980002",
    "name": "介護老人保健施設　衣笠ろうけん",
    "kana": "カイゴロウジンホケンシセツ　キヌガサロウケン",
    "address": "神奈川県横須賀市小矢部2-23-1",
    "lat": 35.2554021,
    "lng": 139.6616538,
    "tel": "046-852-1185",
    "url": "http://www.kinugasa.or.jp/roken",
    "pref": "神奈川県",
    "city": "横須賀市",
    "category": "rouken",
    "serviceType": "介護老人保健施設",
    "capacity": null,
    "openDays": [],
    "openDaysNote": ""
  },
  {
    "id": "1451980069",
    "name": "介護老人保健施設　野比苑",
    "kana": "カイゴロウジンホケンシセツ　ノビエン",
    "address": "神奈川県横須賀市野比1-41-1",
    "lat": 35.2185893,
    "lng": 139.6897324,
    "tel": "046-839-2525",
    "url": "http://www.kurihama-uro.com",
    "pref": "神奈川県",
    "city": "横須賀市",
    "category": "rouken",
    "serviceType": "介護老人保健施設",
    "capacity": 100,
    "openDays": [],
    "openDaysNote": ""
  },
  {
    "id": "1451980051",
    "name": "介護老人保健施設フィオーレ久里浜",
    "kana": "カイゴロウジンホケンシセツフィオーレクリハマ",
    "address": "神奈川県横須賀市神明町１０２８－７",
    "lat": 35.2224999,
    "lng": 139.6979593,
    "tel": "046-835-0132",
    "url": "https://shofukai.or.jp/area-kanagawa/fiore-kurihama",
    "pref": "神奈川県",
    "city": "横須賀市",
    "category": "rouken",
    "serviceType": "介護老人保健施設",
    "capacity": 100,
    "openDays": [],
    "openDaysNote": ""
  },
  {
    "id": "1451980010",
    "name": "湘南グリーン介護老人保健施設",
    "kana": "ショウナングリーンカイゴロウジンホケンシセツ",
    "address": "神奈川県横須賀市大矢部1-9-32",
    "lat": 35.2422033,
    "lng": 139.6701142,
    "tel": "046-837-3500",
    "url": "https://soukoukai.jp/pages/31/",
    "pref": "神奈川県",
    "city": "横須賀市",
    "category": "rouken",
    "serviceType": "介護老人保健施設",
    "capacity": 0,
    "openDays": [],
    "openDaysNote": ""
  },
  {
    "id": "1451980077",
    "name": "第三湘南グリーン介護老人保健施設",
    "kana": "ダイサンショウナングリーンカイゴロウジンホケンシセツ",
    "address": "神奈川県横須賀市太田和5-85-20",
    "lat": 35.2325738,
    "lng": 139.6521491,
    "tel": "046-855-0678",
    "url": "https://soukoukai.jp/pages/33",
    "pref": "神奈川県",
    "city": "横須賀市",
    "category": "rouken",
    "serviceType": "介護老人保健施設",
    "capacity": 112,
    "openDays": [],
    "openDaysNote": ""
  },
  {
    "id": "1471906089",
    "name": "第三湘南グリーン介護老人保健施設（ユニット型）",
    "kana": "ダイサンショウナングリーンカイゴロウジンホケンシセツ(ユニットガタ)",
    "address": "神奈川県横須賀市太田和5-85-20",
    "lat": 35.2325738,
    "lng": 139.6521491,
    "tel": "046-855-0678",
    "url": "https://soukoukai.jp/pages/33",
    "pref": "神奈川県",
    "city": "横須賀市",
    "category": "rouken",
    "serviceType": "介護老人保健施設",
    "capacity": 30,
    "openDays": [],
    "openDaysNote": ""
  },
  {
    "id": "1451980028",
    "name": "第二湘南グリーン介護老人保健施設",
    "kana": "ダイニショウナングリーンカイゴロウジンホケンシセツ",
    "address": "神奈川県横須賀市太田和５－８５－１",
    "lat": 35.2322627,
    "lng": 139.6531574,
    "tel": "046-857-7550",
    "url": "https://soukoukai.jp",
    "pref": "神奈川県",
    "city": "横須賀市",
    "category": "rouken",
    "serviceType": "介護老人保健施設",
    "capacity": 0,
    "openDays": [],
    "openDaysNote": ""
  },
  {
    "id": "1453280021",
    "name": "医療法人社団　恵生会　介護老人保健施設　リハセンターさわやか",
    "kana": "イリョウホウジンシャダン　ケイセイカイ　カイゴロウジンホケンシセツ　リハセンターサワヤカ",
    "address": "神奈川県横浜市旭区白根町932-1",
    "lat": 35.4984558,
    "lng": 139.5489326,
    "tel": "045-955-4165",
    "url": "http://www.med-keiseikai.or.jp/riha/",
    "pref": "神奈川県",
    "city": "横浜市旭区",
    "category": "rouken",
    "serviceType": "介護老人保健施設",
    "capacity": 100,
    "openDays": [],
    "openDaysNote": ""
  },
  {
    "id": "1453280062",
    "name": "医療法人社団協友会　介護老人保健施設　ハートケア左近山",
    "kana": "イリョウホウジンシャダンキョウユウカイ　カイゴロウジンホケンシセツ　ハートケアサコンヤマ",
    "address": "神奈川県横浜市旭区市沢町971-1",
    "lat": 35.4543613,
    "lng": 139.5611019,
    "tel": "045-355-5033",
    "url": "https://hcsakonyama.jp/",
    "pref": "神奈川県",
    "city": "横浜市旭区",
    "category": "rouken",
    "serviceType": "介護老人保健施設",
    "capacity": 0,
    "openDays": [],
    "openDaysNote": ""
  },
  {
    "id": "1453280005",
    "name": "介護老人保健施設　グリーンリーブズ赤枝",
    "kana": "カイゴロウジンホケンシセツ　グリーンリーブズアカエダ",
    "address": "神奈川県横浜市旭区上川井町2694-7",
    "lat": 35.5017591,
    "lng": 139.500389,
    "tel": "045-921-1103",
    "url": "http://www.akaedakai.com/",
    "pref": "神奈川県",
    "city": "横浜市旭区",
    "category": "rouken",
    "serviceType": "介護老人保健施設",
    "capacity": 0,
    "openDays": [],
    "openDaysNote": ""
  },
  {
    "id": "1453280039",
    "name": "介護老人保健施設　けいあいの郷　今宿",
    "kana": "カイゴロウジンホケンシセツ　ケイアイノサト　イマジュク",
    "address": "神奈川県横浜市旭区今宿東町525-2",
    "lat": 35.4869849,
    "lng": 139.5328177,
    "tel": "045-955-5050",
    "url": "https://keiainosato-imajyuku.jp/",
    "pref": "神奈川県",
    "city": "横浜市旭区",
    "category": "rouken",
    "serviceType": "介護老人保健施設",
    "capacity": 100,
    "openDays": [],
    "openDaysNote": ""
  },
  {
    "id": "1453280120",
    "name": "介護老人保健施設　ほほえみの郷横浜",
    "kana": "カイゴロウジンホケンシセツ　ホホエミノサトヨコハマ",
    "address": "神奈川県横浜市旭区下川井町220-1",
    "lat": 35.4848128,
    "lng": 139.5168968,
    "tel": "045-955-5577",
    "url": "http://www.hohoemi-sato.com",
    "pref": "神奈川県",
    "city": "横浜市旭区",
    "category": "rouken",
    "serviceType": "介護老人保健施設",
    "capacity": 120,
    "openDays": [],
    "openDaysNote": ""
  },
  {
    "id": "1453280054",
    "name": "介護老人保健施設　四季の森",
    "kana": "カイゴロウジンホケンシセツ　シキノモリ",
    "address": "神奈川県横浜市旭区上白根町778-1",
    "lat": 35.4998251,
    "lng": 139.5383613,
    "tel": "045-958-0333",
    "url": "http://www.shikinomori-keiai.jp",
    "pref": "神奈川県",
    "city": "横浜市旭区",
    "category": "rouken",
    "serviceType": "介護老人保健施設",
    "capacity": 92,
    "openDays": [],
    "openDaysNote": ""
  },
  {
    "id": "1453280146",
    "name": "介護老人保健施設　老健リハビリよこはま",
    "kana": "カイゴロウジンホケンシセツ　ロウケンリハビリヨコハマ",
    "address": "神奈川県横浜市旭区金が谷614-3",
    "lat": 35.4811298,
    "lng": 139.5126639,
    "tel": "045-369-7711",
    "url": "https://aiyukai.com/",
    "pref": "神奈川県",
    "city": "横浜市旭区",
    "category": "rouken",
    "serviceType": "介護老人保健施設",
    "capacity": 130,
    "openDays": [],
    "openDaysNote": ""
  },
  {
    "id": "1453280179",
    "name": "介護老人保健施設ケアホーム横浜",
    "kana": "カイゴロウジンホケンシセツケアホームヨコハマ",
    "address": "神奈川県横浜市旭区上白根町1436-1",
    "lat": 35.5006089,
    "lng": 139.5270756,
    "tel": "045-954-2417",
    "url": "http://yokohama.rouken.jp",
    "pref": "神奈川県",
    "city": "横浜市旭区",
    "category": "rouken",
    "serviceType": "介護老人保健施設",
    "capacity": 100,
    "openDays": [],
    "openDaysNote": ""
  },
  {
    "id": "1453280153",
    "name": "介護老人保健施設シオンよこはま",
    "kana": "カイゴロウジンホケンシセツシオンヨコハマ",
    "address": "神奈川県横浜市旭区川井宿町１６８－１",
    "lat": 35.4976685,
    "lng": 139.5157513,
    "tel": "045-955-5801",
    "url": "http://rehabili-park.com/sisetu/shion/",
    "pref": "神奈川県",
    "city": "横浜市旭区",
    "category": "rouken",
    "serviceType": "介護老人保健施設",
    "capacity": 136,
    "openDays": [],
    "openDaysNote": ""
  },
  {
    "id": "1453280161",
    "name": "介護老人保健施設ナーシングピア横浜",
    "kana": "カイゴロウジンホケンシセツ　ナーシングピアヨコハマ",
    "address": "神奈川県横浜市旭区南本宿町118-19",
    "lat": 35.452245,
    "lng": 139.5457809,
    "tel": "045-351-0007",
    "url": "https://ns-pia.jp",
    "pref": "神奈川県",
    "city": "横浜市旭区",
    "category": "rouken",
    "serviceType": "介護老人保健施設",
    "capacity": null,
    "openDays": [],
    "openDaysNote": ""
  },
  {
    "id": "1453280138",
    "name": "介護老人保健施設希望の森",
    "kana": "カイゴロウジンホケンシセツキボウノモリ",
    "address": "神奈川県横浜市旭区上川井町２９６８－２",
    "lat": 35.50011,
    "lng": 139.5071136,
    "tel": "045-922-1717",
    "url": "http://www.kibounomori.ecweb.jp",
    "pref": "神奈川県",
    "city": "横浜市旭区",
    "category": "rouken",
    "serviceType": "介護老人保健施設",
    "capacity": 0,
    "openDays": [],
    "openDaysNote": ""
  },
  {
    "id": "1450780015",
    "name": "医療法人光陽会　横浜磯子介護老人保健施設",
    "kana": "イリョウホウジンコウヨウカイ　ヨコハマイソゴカイゴロウジンホケンシセツ",
    "address": "神奈川県横浜市磯子区森1-16-3",
    "lat": 35.3962226,
    "lng": 139.614664,
    "tel": "045-752-6988",
    "url": "http://isogorouken.com/",
    "pref": "神奈川県",
    "city": "横浜市磯子区",
    "category": "rouken",
    "serviceType": "介護老人保健施設",
    "capacity": 100,
    "openDays": [],
    "openDaysNote": ""
  },
  {
    "id": "1450780007",
    "name": "横浜市立脳卒中・神経脊椎センター介護老人保健施設コスモス",
    "kana": "ヨコハマシリツノウソッチュウ・シンケイセキツイセンターカイゴロウジンホケンシセツコスモス",
    "address": "神奈川県横浜市磯子区滝頭1-2-1",
    "lat": 35.4220441,
    "lng": 139.6178079,
    "tel": "045-751-4165",
    "url": "http://cosmos.jinai.jp/",
    "pref": "神奈川県",
    "city": "横浜市磯子区",
    "category": "rouken",
    "serviceType": "介護老人保健施設",
    "capacity": 80,
    "openDays": [],
    "openDaysNote": ""
  },
  {
    "id": "1450780023",
    "name": "介護老人保健施設　ひとりざわ",
    "kana": "カイゴロウジンホケンシセツ　ヒトリザワ",
    "address": "神奈川県横浜市磯子区氷取沢町９３－１",
    "lat": 35.3639625,
    "lng": 139.6083069,
    "tel": "045-772-7722",
    "url": "http://www.kokorocare.net/",
    "pref": "神奈川県",
    "city": "横浜市磯子区",
    "category": "rouken",
    "serviceType": "介護老人保健施設",
    "capacity": 0,
    "openDays": [],
    "openDaysNote": ""
  },
  {
    "id": "1450780049",
    "name": "介護老人保健施設ひとりざわ　ユニット館",
    "kana": "カイゴロウジンホケンシセツヒトリザワ　ユニットカン",
    "address": "神奈川県横浜市磯子区氷取沢町９３－１",
    "lat": 35.3639625,
    "lng": 139.6083069,
    "tel": "045-772-7722",
    "url": "http://www.kokorocare.net/",
    "pref": "神奈川県",
    "city": "横浜市磯子区",
    "category": "rouken",
    "serviceType": "介護老人保健施設",
    "capacity": null,
    "openDays": [],
    "openDaysNote": ""
  },
  {
    "id": "1450780031",
    "name": "介護老人保健施設ほのぼの",
    "kana": "カイゴロウジンホケンシセツホノボノ",
    "address": "神奈川県横浜市磯子区氷取沢町50番地",
    "lat": 35.3655512,
    "lng": 139.6096956,
    "tel": "045-776-3223",
    "url": "https://rouken-honobono.jp/",
    "pref": "神奈川県",
    "city": "横浜市磯子区",
    "category": "rouken",
    "serviceType": "介護老人保健施設",
    "capacity": 120,
    "openDays": [],
    "openDaysNote": ""
  },
  {
    "id": "1453585008",
    "name": "ケアポート・田谷",
    "kana": "ケアポート・タヤ",
    "address": "神奈川県横浜市栄区田谷町２０３０－３",
    "lat": 35.3726746,
    "lng": 139.5174252,
    "tel": "045-858-5882",
    "url": "http://care-net.biz/14/taya/sitemap.php",
    "pref": "神奈川県",
    "city": "横浜市栄区",
    "category": "rouken",
    "serviceType": "介護老人保健施設",
    "capacity": 0,
    "openDays": [],
    "openDaysNote": ""
  },
  {
    "id": "1453580032",
    "name": "医療法人社団協友会　ユニット型介護老人保健施設　リハビリポート横浜さかえ",
    "kana": "イリョウホウジンシャダンキョウユウカイ　ユニットガタカイゴロウジンホケンシセツ　リハビリポートヨコハマサカエ",
    "address": "神奈川県横浜市栄区公田町１０５０－２",
    "lat": 35.3499079,
    "lng": 139.5617805,
    "tel": "045-897-4580",
    "url": "http://www.rp-yokohama.jp/",
    "pref": "神奈川県",
    "city": "横浜市栄区",
    "category": "rouken",
    "serviceType": "介護老人保健施設",
    "capacity": 0,
    "openDays": [],
    "openDaysNote": ""
  },
  {
    "id": "1453580001",
    "name": "医療法人社団協友会　介護老人保健施設　リハビリポート横浜",
    "kana": "イリョウホウジンシャダンキョウユウカイ　カイゴロウジンホケンシセツ　リハビリポートヨコハマ",
    "address": "神奈川県横浜市栄区公田町1050-2リハビリポート横浜 リハビリポート横浜",
    "lat": 35.3499079,
    "lng": 139.5617805,
    "tel": "045-897-4580",
    "url": "https://rp-yokohama.jp/",
    "pref": "神奈川県",
    "city": "横浜市栄区",
    "category": "rouken",
    "serviceType": "介護老人保健施設",
    "capacity": 0,
    "openDays": [],
    "openDaysNote": ""
  },
  {
    "id": "1453580016",
    "name": "湘南グリーン介護老人保健施設　上郷",
    "kana": "ショウナングリーンカイゴロウジンホケンシセツカミゴウ",
    "address": "神奈川県横浜市栄区上郷町１０４５－１",
    "lat": 35.3566516,
    "lng": 139.5785873,
    "tel": "045-890-6106",
    "url": "http://soukoukai.jp/pages/34/",
    "pref": "神奈川県",
    "city": "横浜市栄区",
    "category": "rouken",
    "serviceType": "介護老人保健施設",
    "capacity": 0,
    "openDays": [],
    "openDaysNote": ""
  },
  {
    "id": "1453580040",
    "name": "湘南グリーン介護老人保健施設　上郷（ユニット型）",
    "kana": "ショウナングリーンカイゴロウジンホケンシセツ　カミゴウ（ユニットガタ）",
    "address": "神奈川県横浜市栄区上郷町1045-1",
    "lat": 35.3566516,
    "lng": 139.5785873,
    "tel": "045-890-6106",
    "url": "http://soukoukai.jp/pages/34/",
    "pref": "神奈川県",
    "city": "横浜市栄区",
    "category": "rouken",
    "serviceType": "介護老人保健施設",
    "capacity": 0,
    "openDays": [],
    "openDaysNote": ""
  },
  {
    "id": "1450880039",
    "name": "医療法人社団景翠会　介護老人保健施設　ふるさと",
    "kana": "イリョウホウジンシャダンケイスイカイ　カイゴロウジンホケンシセツ　フルサト",
    "address": "神奈川県横浜市金沢区柴町３９１－１０",
    "lat": 35.3425274,
    "lng": 139.635485,
    "tel": "045-788-8911",
    "url": "http://www.keisuikai.or.jp/furusato/",
    "pref": "神奈川県",
    "city": "横浜市金沢区",
    "category": "rouken",
    "serviceType": "介護老人保健施設",
    "capacity": 92,
    "openDays": [],
    "openDaysNote": ""
  },
  {
    "id": "1450880021",
    "name": "介護老人保健施設　あさひな",
    "kana": "カイゴロウジンホケンシセツ　アサヒナ",
    "address": "神奈川県横浜市金沢区朝比奈町107",
    "lat": 35.3315187,
    "lng": 139.591725,
    "tel": "045-788-1133",
    "url": "http://www.rouken-asahina.jp",
    "pref": "神奈川県",
    "city": "横浜市金沢区",
    "category": "rouken",
    "serviceType": "介護老人保健施設",
    "capacity": null,
    "openDays": [],
    "openDaysNote": ""
  },
  {
    "id": "1450880005",
    "name": "介護老人保健施設　こもれび",
    "kana": "カイゴロウジンホケンシセツ　コモレビ",
    "address": "神奈川県横浜市金沢区釜利谷東5-1-30",
    "lat": 35.350642,
    "lng": 139.6062848,
    "tel": "045-782-5611",
    "url": "http://www.keisuikai.or.jp/komorebi/",
    "pref": "神奈川県",
    "city": "横浜市金沢区",
    "category": "rouken",
    "serviceType": "介護老人保健施設",
    "capacity": 0,
    "openDays": [],
    "openDaysNote": ""
  },
  {
    "id": "1450880013",
    "name": "介護老人保健施設　能見台パートリア",
    "kana": "カイゴロウジンホケンシセツ　ノウケンダイパートリア",
    "address": "神奈川県横浜市金沢区能見台東10番1号",
    "lat": 35.3574884001786,
    "lng": 139.624305028836,
    "tel": "045-790-5733",
    "url": "http://www.kowakai-patria.com/",
    "pref": "神奈川県",
    "city": "横浜市金沢区",
    "category": "rouken",
    "serviceType": "介護老人保健施設",
    "capacity": 150,
    "openDays": [],
    "openDaysNote": ""
  },
  {
    "id": "1450880047",
    "name": "介護老人保健施設ふるさとユニット館　彩",
    "kana": "カイゴロウジンホケンシセツフルサトユニットカン　イロドリ",
    "address": "神奈川県横浜市金沢区柴町391-10",
    "lat": 35.3425274,
    "lng": 139.635485,
    "tel": "045-788-8911",
    "url": "http://www.keisuikai.or.jp/furusato/",
    "pref": "神奈川県",
    "city": "横浜市金沢区",
    "category": "rouken",
    "serviceType": "介護老人保健施設",
    "capacity": 48,
    "openDays": [],
    "openDaysNote": ""
  },
  {
    "id": "1451080043",
    "name": "医療法人社団　徳明会　介護老人保健施設　横浜莫愁苑",
    "kana": "イリョウホウジンシャダン　トクメイカイ　カイゴロウジンホケンシセツ　ヨコハマバクシュウエン",
    "address": "神奈川県横浜市戸塚区名瀬町2226番地1",
    "lat": 35.4330831,
    "lng": 139.5287325,
    "tel": "045-814-6028",
    "url": "",
    "pref": "神奈川県",
    "city": "横浜市戸塚区",
    "category": "rouken",
    "serviceType": "介護老人保健施設",
    "capacity": 108,
    "openDays": [],
    "openDaysNote": ""
  },
  {
    "id": "1451080035",
    "name": "医療法人社団協友会　介護老人保健施設　ハートケア横浜小雀",
    "kana": "イリョウホウジンシャダンキョウユウカイ　カイゴロウジンホケンシセツ　ハートケアヨコハマコスズメ",
    "address": "神奈川県横浜市戸塚区小雀町２２４８－１",
    "lat": 35.3717219,
    "lng": 139.5059262,
    "tel": "045-852-8611",
    "url": "https://www.hc-kosuzume.jp/",
    "pref": "神奈川県",
    "city": "横浜市戸塚区",
    "category": "rouken",
    "serviceType": "介護老人保健施設",
    "capacity": 0,
    "openDays": [],
    "openDaysNote": ""
  },
  {
    "id": "1451080076",
    "name": "医療法人積愛会　千の星・よこはま",
    "kana": "イリョウホウジンセキアイカイ　センノホシヨコハマ",
    "address": "神奈川県横浜市戸塚区柏尾町１４３４－３",
    "lat": 35.4112753,
    "lng": 139.552556,
    "tel": "045-822-2682",
    "url": "https://www.y-maiokahp.or.jp/sennohoshi-y/",
    "pref": "神奈川県",
    "city": "横浜市戸塚区",
    "category": "rouken",
    "serviceType": "介護老人保健施設",
    "capacity": 0,
    "openDays": [],
    "openDaysNote": ""
  },
  {
    "id": "1451080050",
    "name": "介護老人保健施設　うららの里",
    "kana": "カイゴロウジンホケンシセツ　ウララノサト",
    "address": "神奈川県横浜市戸塚区深谷町１４１２－１１",
    "lat": 35.3895831,
    "lng": 139.4947133,
    "tel": "045-853-2011",
    "url": "https://www.kenyoukai.or.jp/urara/",
    "pref": "神奈川県",
    "city": "横浜市戸塚区",
    "category": "rouken",
    "serviceType": "介護老人保健施設",
    "capacity": 100,
    "openDays": [],
    "openDaysNote": ""
  },
  {
    "id": "1451080027",
    "name": "介護老人保健施設　グリーンワーフ東戸塚",
    "kana": "カイゴロウジンホケンシセツ　グリーンワーフヒガシトツカ",
    "address": "神奈川県横浜市戸塚区川上町151",
    "lat": 35.4282922,
    "lng": 139.5524306,
    "tel": "045-827-1141",
    "url": "https://www.greenwharf.com/",
    "pref": "神奈川県",
    "city": "横浜市戸塚区",
    "category": "rouken",
    "serviceType": "介護老人保健施設",
    "capacity": 0,
    "openDays": [],
    "openDaysNote": ""
  },
  {
    "id": "1451080001",
    "name": "介護老人保健施設　ソフィア横浜",
    "kana": "カイゴロウジンホケンシセツ　ソフィアヨコハマ",
    "address": "神奈川県横浜市戸塚区東俣野町911",
    "lat": 35.3642201374725,
    "lng": 139.493063133205,
    "tel": "045-854-2233",
    "url": "http://www.sophia-pma.jp",
    "pref": "神奈川県",
    "city": "横浜市戸塚区",
    "category": "rouken",
    "serviceType": "介護老人保健施設",
    "capacity": 100,
    "openDays": [],
    "openDaysNote": ""
  },
  {
    "id": "1451080019",
    "name": "介護老人保健施設　ヒューマンライフケア横浜",
    "kana": "カイゴロウジンホケンシセツ　ヒューマンライフケアヨコハマ",
    "address": "神奈川県横浜市戸塚区戸塚町1800-3",
    "lat": 35.3819621,
    "lng": 139.5172196,
    "tel": "045-866-2000",
    "url": "https://www.hlc-yokohama.com/",
    "pref": "神奈川県",
    "city": "横浜市戸塚区",
    "category": "rouken",
    "serviceType": "介護老人保健施設",
    "capacity": 0,
    "openDays": [],
    "openDaysNote": ""
  },
  {
    "id": "1451080068",
    "name": "介護老人保健施設　ヒルズ東戸塚",
    "kana": "カイゴロウジンホケンシセツヒルズヒガシトツカ",
    "address": "神奈川県横浜市戸塚区上品濃１６番地７",
    "lat": 35.4388129,
    "lng": 139.5474919,
    "tel": "045-827-2630",
    "url": "http://www.fureai-g.or.jp/hills/",
    "pref": "神奈川県",
    "city": "横浜市戸塚区",
    "category": "rouken",
    "serviceType": "介護老人保健施設",
    "capacity": 120,
    "openDays": [],
    "openDaysNote": ""
  },
  {
    "id": "1451080084",
    "name": "介護老人保健施設リハパーク舞岡",
    "kana": "カイゴロウジンホケンシセツリハパークマイオカ",
    "address": "神奈川県横浜市戸塚区舞岡町3048-4",
    "lat": 35.404893,
    "lng": 139.5545783,
    "tel": "045-825-3388",
    "url": "https://www.shinzen-fukushi.jp/rehapark/",
    "pref": "神奈川県",
    "city": "横浜市戸塚区",
    "category": "rouken",
    "serviceType": "介護老人保健施設",
    "capacity": 0,
    "openDays": [],
    "openDaysNote": ""
  },
  {
    "id": "1453180023",
    "name": "介護老人保健施設　オアシス",
    "kana": "カイゴロウジンホケンシセツ　オアシス",
    "address": "神奈川県横浜市港南区野庭町146番地1",
    "lat": 35.3976411,
    "lng": 139.5754987,
    "tel": "045-844-7717",
    "url": "http://www.koufuukai.or.jp/",
    "pref": "神奈川県",
    "city": "横浜市港南区",
    "category": "rouken",
    "serviceType": "介護老人保健施設",
    "capacity": 150,
    "openDays": [],
    "openDaysNote": ""
  },
  {
    "id": "1453180007",
    "name": "介護老人保健施設　港南あおぞら",
    "kana": "カイゴロウジンホケンシセツ　コウナンアオゾラ",
    "address": "神奈川県横浜市港南区野庭町２１８７－１",
    "lat": 35.3816875,
    "lng": 139.5609111,
    "tel": "045-844-6661",
    "url": "http://www.himawarifukushi.or.jp/k-aozora/",
    "pref": "神奈川県",
    "city": "横浜市港南区",
    "category": "rouken",
    "serviceType": "介護老人保健施設",
    "capacity": 147,
    "openDays": [],
    "openDaysNote": ""
  },
  {
    "id": "1453180015",
    "name": "介護老人保健施設すこやか",
    "kana": "カイゴロウジンホケンシセツスコヤカ",
    "address": "神奈川県横浜市港南区下永谷5-81-18",
    "lat": 35.4103866,
    "lng": 139.5606582,
    "tel": "045-821-6600",
    "url": "http://www.meikakai-sukoyaka.jp/",
    "pref": "神奈川県",
    "city": "横浜市港南区",
    "category": "rouken",
    "serviceType": "介護老人保健施設",
    "capacity": 0,
    "openDays": [],
    "openDaysNote": ""
  },
  {
    "id": "1450980045",
    "name": "医療法人社団哺育会　介護老人保健施設　ナーシングプラザ港北",
    "kana": "イリョウホウジンシャダンホイクカイ　カイゴロウジンホケンシセツ　ナーシングプラザコウホク",
    "address": "神奈川県横浜市港北区新吉田町3170番地",
    "lat": 35.5345696,
    "lng": 139.6063962,
    "tel": "045-590-5667",
    "url": "https://www.np-kouhoku.jp",
    "pref": "神奈川県",
    "city": "横浜市港北区",
    "category": "rouken",
    "serviceType": "介護老人保健施設",
    "capacity": 0,
    "openDays": [],
    "openDaysNote": ""
  },
  {
    "id": "1450980003",
    "name": "横浜市総合保健医療センター",
    "kana": "ヨコハマシソウゴウホケンイリョウセンター",
    "address": "神奈川県横浜市港北区鳥山町１７３５",
    "lat": 35.5097694,
    "lng": 139.6092161,
    "tel": "045-475-0001",
    "url": "https://yccc.jp/care/shirasagi/",
    "pref": "神奈川県",
    "city": "横浜市港北区",
    "category": "rouken",
    "serviceType": "介護老人保健施設",
    "capacity": 0,
    "openDays": [],
    "openDaysNote": ""
  },
  {
    "id": "1450980011",
    "name": "介護老人保健施設　ウェルケア新吉田",
    "kana": "カイゴロウジンホケンシセツ　ウェルケアシンヨシダ",
    "address": "神奈川県横浜市港北区新吉田町６０２８－１",
    "lat": 35.5392649768287,
    "lng": 139.603627979762,
    "tel": "045-590-3855",
    "url": "http://www.welcare.or.jp/",
    "pref": "神奈川県",
    "city": "横浜市港北区",
    "category": "rouken",
    "serviceType": "介護老人保健施設",
    "capacity": 0,
    "openDays": [],
    "openDaysNote": ""
  },
  {
    "id": "1450980078",
    "name": "介護老人保健施設　ベルディーナ",
    "kana": "カイゴロウジンホケンシセツ　ベルディーナ",
    "address": "神奈川県横浜市港北区高田西3丁目１番12号",
    "lat": 35.5538274,
    "lng": 139.6206895,
    "tel": "045-590-3602",
    "url": "https://kanagawa-chiga.jp/verdina/",
    "pref": "神奈川県",
    "city": "横浜市港北区",
    "category": "rouken",
    "serviceType": "介護老人保健施設",
    "capacity": 80,
    "openDays": [],
    "openDaysNote": ""
  },
  {
    "id": "1450980060",
    "name": "介護老人保健施設ファイン新横浜",
    "kana": "カイゴロウジンホケンシセツファインシンヨコハマ",
    "address": "神奈川県横浜市港北区新羽町１０４１－３",
    "lat": 35.5182102,
    "lng": 139.6071522,
    "tel": "045-532-1118",
    "url": "http://takeuchikai.net/fine-shinyoko/",
    "pref": "神奈川県",
    "city": "横浜市港北区",
    "category": "rouken",
    "serviceType": "介護老人保健施設",
    "capacity": 0,
    "openDays": [],
    "openDaysNote": ""
  },
  {
    "id": "1450980029",
    "name": "新横浜介護老人保健施設　カメリア",
    "kana": "シンヨコハマカイゴロウジンホケンシセツ　カメリア",
    "address": "神奈川県横浜市港北区新羽町４０７６－５",
    "lat": 35.5293201,
    "lng": 139.6019358,
    "tel": "045-532-1008",
    "url": "http://www.camellia-kanei.or.jp/",
    "pref": "神奈川県",
    "city": "横浜市港北区",
    "category": "rouken",
    "serviceType": "介護老人保健施設",
    "capacity": 0,
    "openDays": [],
    "openDaysNote": ""
  },
  {
    "id": "1450280057",
    "name": "医療法人社団武蔵野会介護老人保健施設牧野ケアセンター",
    "kana": "イリョウホウジンシャダンムサシノカイカイゴロウジンホケンシセツマキノケアセンター",
    "address": "神奈川県横浜市神奈川区菅田町1481-1",
    "lat": 35.498708,
    "lng": 139.5836547,
    "tel": "045-472-9111",
    "url": "https://makino-care.jp/",
    "pref": "神奈川県",
    "city": "横浜市神奈川区",
    "category": "rouken",
    "serviceType": "介護老人保健施設",
    "capacity": 0,
    "openDays": [],
    "openDaysNote": ""
  },
  {
    "id": "1450280065",
    "name": "医療法人社団武蔵野会介護老人保健施設牧野ケアセンターユニット型",
    "kana": "イリョウホウジンシャダンムサシノカイカイゴロウジンホケンシセツマキノケアセンターユニットガタ",
    "address": "神奈川県横浜市神奈川区菅田町1481-1",
    "lat": 35.498708,
    "lng": 139.5836547,
    "tel": "045-472-9111",
    "url": "https://makino-care.jp/",
    "pref": "神奈川県",
    "city": "横浜市神奈川区",
    "category": "rouken",
    "serviceType": "介護老人保健施設",
    "capacity": null,
    "openDays": [],
    "openDaysNote": ""
  },
  {
    "id": "1450280016",
    "name": "介護老人保健施設　ラ・クラルテ",
    "kana": "カイゴロウジンホケンシセツ　ラ・クラルテ",
    "address": "神奈川県横浜市神奈川区菅田町656-1",
    "lat": 35.4951262,
    "lng": 139.5738809,
    "tel": "045-478-3777",
    "url": "http://www.hc-mugi.com",
    "pref": "神奈川県",
    "city": "横浜市神奈川区",
    "category": "rouken",
    "serviceType": "介護老人保健施設",
    "capacity": 0,
    "openDays": [],
    "openDaysNote": ""
  },
  {
    "id": "1450280032",
    "name": "介護老人保健施設　神奈川苑",
    "kana": "カイゴロウジンホケンシセツ　カナガワエン",
    "address": "神奈川県横浜市神奈川区菅田町1989番地",
    "lat": 35.495846,
    "lng": 139.5887687,
    "tel": "045-470-2502",
    "url": "http://www.kanagawaen.com/",
    "pref": "神奈川県",
    "city": "横浜市神奈川区",
    "category": "rouken",
    "serviceType": "介護老人保健施設",
    "capacity": 100,
    "openDays": [],
    "openDaysNote": ""
  },
  {
    "id": "1450280008",
    "name": "介護老人保健施設リハリゾートわかたけ",
    "kana": "カイゴロウジンホケンシセツリハリゾートワカタケ",
    "address": "神奈川県横浜市神奈川区菅田町1826",
    "lat": 35.5004371,
    "lng": 139.5880049,
    "tel": "045-476-1234",
    "url": "http://www.wakatake.net/",
    "pref": "神奈川県",
    "city": "横浜市神奈川区",
    "category": "rouken",
    "serviceType": "介護老人保健施設",
    "capacity": 143,
    "openDays": [],
    "openDaysNote": ""
  },
  {
    "id": "1453480035",
    "name": "医療法人社団善仁会　介護老人保健施設　ハートフル瀬谷",
    "kana": "イリョウホウジンシャダンゼンジンカイ　カイゴロウジンホケンシセツハートフルセヤ",
    "address": "神奈川県横浜市瀬谷区中屋敷2-2-1",
    "lat": 35.4804455,
    "lng": 139.4790491,
    "tel": "045-300-5065",
    "url": "https://www.zenjinkai-group.jp/zenjinkai/care_center/heartful/",
    "pref": "神奈川県",
    "city": "横浜市瀬谷区",
    "category": "rouken",
    "serviceType": "介護老人保健施設",
    "capacity": 112,
    "openDays": [],
    "openDaysNote": ""
  },
  {
    "id": "1453480001",
    "name": "介護老人保健施設　宮沢の里　はなもも苑",
    "kana": "カイゴロウジンホケンシセツ　ミヤザワノサト　ハナモモエン",
    "address": "神奈川県横浜市瀬谷区宮沢4-13-1",
    "lat": 35.4478904338979,
    "lng": 139.488922118962,
    "tel": "045-300-3335",
    "url": "https://hanamomoen.jp/",
    "pref": "神奈川県",
    "city": "横浜市瀬谷区",
    "category": "rouken",
    "serviceType": "介護老人保健施設",
    "capacity": 100,
    "openDays": [],
    "openDaysNote": ""
  },
  {
    "id": "1453480027",
    "name": "介護老人保健施設　恵の杜",
    "kana": "カイゴロウジンホケンシセツ　メグミノモリ",
    "address": "神奈川県横浜市瀬谷区阿久和南3-29-1",
    "lat": 35.4375381,
    "lng": 139.5043208,
    "tel": "045-390-3311",
    "url": "http://www.keisei-fukushikai.com/age/rouken.html",
    "pref": "神奈川県",
    "city": "横浜市瀬谷区",
    "category": "rouken",
    "serviceType": "介護老人保健施設",
    "capacity": 0,
    "openDays": [],
    "openDaysNote": ""
  },
  {
    "id": "1450380006",
    "name": "医療法人社団　愛友会　介護老人保健施設　ハートケア横浜",
    "kana": "イリョウホウジンシャダン　アイユウカイ　カイゴロウジンホケンシセツ　ハートケアヨコハマ",
    "address": "神奈川県横浜市西区高島１－４－１８",
    "lat": 35.4595559,
    "lng": 139.6245121,
    "tel": "045-440-0722",
    "url": "https://www.hcyokohama.jp",
    "pref": "神奈川県",
    "city": "横浜市西区",
    "category": "rouken",
    "serviceType": "介護老人保健施設",
    "capacity": 150,
    "openDays": [],
    "openDaysNote": ""
  },
  {
    "id": "1453780020",
    "name": "医療法人　社団協友会　介護老人保健施設　横浜あおばの里",
    "kana": "イリョウホウジンシャダンキョウユウカイカイゴロウジンホケンシセツヨコハマアオバノサト",
    "address": "神奈川県横浜市青葉区鉄町１３７５",
    "lat": 35.5635917,
    "lng": 139.5247581,
    "tel": "045-978-5310",
    "url": "http://www.aobanosato.com/",
    "pref": "神奈川県",
    "city": "横浜市青葉区",
    "category": "rouken",
    "serviceType": "介護老人保健施設",
    "capacity": 0,
    "openDays": [],
    "openDaysNote": ""
  },
  {
    "id": "1453780046",
    "name": "介護老人保健施設　リハリゾート青葉",
    "kana": "カイゴロウジンホケンシセツ　リハリゾートアオバ",
    "address": "神奈川県横浜市青葉区奈良4-6-13",
    "lat": 35.5504997,
    "lng": 139.4826825,
    "tel": "045-960-0191",
    "url": "https://wakatake.net/",
    "pref": "神奈川県",
    "city": "横浜市青葉区",
    "category": "rouken",
    "serviceType": "介護老人保健施設",
    "capacity": 66,
    "openDays": [],
    "openDaysNote": ""
  },
  {
    "id": "1453780061",
    "name": "介護老人保健施設　リハリゾート青葉　ユニット館",
    "kana": "カイゴロウジンホケンシセツ　リハリゾートアオバ　ユニットカン",
    "address": "神奈川県横浜市青葉区奈良４－６－１３",
    "lat": 35.5504997,
    "lng": 139.4826825,
    "tel": "045-960-0191",
    "url": "https://wakatake.net/",
    "pref": "神奈川県",
    "city": "横浜市青葉区",
    "category": "rouken",
    "serviceType": "介護老人保健施設",
    "capacity": 40,
    "openDays": [],
    "openDaysNote": ""
  },
  {
    "id": "1453780053",
    "name": "介護老人保健施設　横浜シルバープラザ",
    "kana": "カイゴロウジンホケンシセツ　ヨコハマシルバープラザ",
    "address": "神奈川県横浜市青葉区鉄町2075番地5",
    "lat": 35.5687271,
    "lng": 139.5264243,
    "tel": "045-972-7001",
    "url": "https://www.silverplaza.jp/",
    "pref": "神奈川県",
    "city": "横浜市青葉区",
    "category": "rouken",
    "serviceType": "介護老人保健施設",
    "capacity": null,
    "openDays": [],
    "openDaysNote": ""
  },
  {
    "id": "1453780012",
    "name": "介護老人保健施設　青葉の丘",
    "kana": "カイゴロウジンホケンシセツ　アオバノオカ",
    "address": "神奈川県横浜市青葉区元石川町６５６８",
    "lat": 35.5834421,
    "lng": 139.5375452,
    "tel": "045-904-2255",
    "url": "https://www.aobanooka.com/",
    "pref": "神奈川県",
    "city": "横浜市青葉区",
    "category": "rouken",
    "serviceType": "介護老人保健施設",
    "capacity": 125,
    "openDays": [],
    "openDaysNote": ""
  },
  {
    "id": "1453780072",
    "name": "介護老人保健施設プラチナ・ヴィラ青葉台",
    "kana": "カイゴロウジンホケンシセツプラチナ・ゔィラ　アオバダイ",
    "address": "神奈川県横浜市青葉区鴨志田町75-1",
    "lat": 35.5602916,
    "lng": 139.5117627,
    "tel": "045-963-0055",
    "url": "https://www.platinum-villa.jp",
    "pref": "神奈川県",
    "city": "横浜市青葉区",
    "category": "rouken",
    "serviceType": "介護老人保健施設",
    "capacity": 0,
    "openDays": [],
    "openDaysNote": ""
  },
  {
    "id": "1453680048",
    "name": "医療法人社団　純正会　介護老人保健施設　エスポワール和泉",
    "kana": "イリョウホウジンシャダン　ジュンセイカイ　カイゴロウジンホケンシセツ　エスポワールイズミ",
    "address": "神奈川県横浜市泉区和泉町2604-1",
    "lat": 35.4074917,
    "lng": 139.4901109,
    "tel": "045-805-6711",
    "url": "http://www.esp-izumi.com/",
    "pref": "神奈川県",
    "city": "横浜市泉区",
    "category": "rouken",
    "serviceType": "介護老人保健施設",
    "capacity": 100,
    "openDays": [],
    "openDaysNote": ""
  },
  {
    "id": "1453680022",
    "name": "横浜いずみ介護老人保健施設",
    "kana": "ヨコハマイズミカイゴロウジンホケンシセツ",
    "address": "神奈川県横浜市泉区上飯田町３８７３－１",
    "lat": 35.4311387,
    "lng": 139.4836725,
    "tel": "045-801-7291",
    "url": "https://izumidai.net/izurou",
    "pref": "神奈川県",
    "city": "横浜市泉区",
    "category": "rouken",
    "serviceType": "介護老人保健施設",
    "capacity": 1,
    "openDays": [],
    "openDaysNote": ""
  },
  {
    "id": "1453680055",
    "name": "介護老人保健施設　きららの里",
    "kana": "カイゴロウジンホケンシセツ　キララノサト",
    "address": "神奈川県横浜市泉区中田町3462-4",
    "lat": 35.4249979,
    "lng": 139.5021015,
    "tel": "045-805-6861",
    "url": "https://www.kenyoukai.or.jp",
    "pref": "神奈川県",
    "city": "横浜市泉区",
    "category": "rouken",
    "serviceType": "介護老人保健施設",
    "capacity": 160,
    "openDays": [],
    "openDaysNote": ""
  },
  {
    "id": "1453680030",
    "name": "介護老人保健施設　やよい台仁",
    "kana": "カイゴロウジンホケンシセツ　ヤヨイダイジン",
    "address": "神奈川県横浜市泉区弥生台５５－５５",
    "lat": 35.4260839,
    "lng": 139.5034792,
    "tel": "045-814-6601",
    "url": "https://yayoidai-jin.jp",
    "pref": "神奈川県",
    "city": "横浜市泉区",
    "category": "rouken",
    "serviceType": "介護老人保健施設",
    "capacity": 0,
    "openDays": [],
    "openDaysNote": ""
  },
  {
    "id": "1453680006",
    "name": "介護老人保健施設　阿久和鳳荘",
    "kana": "カイゴロウジンホケンシセツアクワオオトリソウ",
    "address": "神奈川県横浜市泉区新橋町１７８３",
    "lat": 35.4423986,
    "lng": 139.5112673,
    "tel": "045-812-8881",
    "url": "http://www.hoyukai.org/ootori/",
    "pref": "神奈川県",
    "city": "横浜市泉区",
    "category": "rouken",
    "serviceType": "介護老人保健施設",
    "capacity": 64,
    "openDays": [],
    "openDaysNote": ""
  },
  {
    "id": "1453680071",
    "name": "介護老人保健施設ゆめが丘",
    "kana": "カイゴロウジンホケンシセツユメガオカ",
    "address": "神奈川県横浜市泉区和泉町1202",
    "lat": 35.3994631,
    "lng": 139.4865478,
    "tel": "045-800-1717",
    "url": "https://www.rou-yumegaoka.jp/",
    "pref": "神奈川県",
    "city": "横浜市泉区",
    "category": "rouken",
    "serviceType": "介護老人保健施設",
    "capacity": 100,
    "openDays": [],
    "openDaysNote": ""
  },
  {
    "id": "1450480004",
    "name": "介護老人保健施設　えきさい横浜",
    "kana": "カイゴロウジンホケンシセツ　エキサイヨコハマ",
    "address": "神奈川県横浜市中区山田町１－１",
    "lat": 35.4383307,
    "lng": 139.6347621,
    "tel": "045-261-8821",
    "url": "https://www.ekisai-yokohama.com",
    "pref": "神奈川県",
    "city": "横浜市中区",
    "category": "rouken",
    "serviceType": "介護老人保健施設",
    "capacity": 0,
    "openDays": [],
    "openDaysNote": ""
  },
  {
    "id": "1450180000",
    "name": "うしおだ老健やすらぎ",
    "kana": "ウシオダロウケンヤスラギ",
    "address": "神奈川県横浜市鶴見区矢向1-5-29",
    "lat": 35.5290386855428,
    "lng": 139.678676921565,
    "tel": "045-574-3312",
    "url": "https://www.ushioda-care.jp/",
    "pref": "神奈川県",
    "city": "横浜市鶴見区",
    "category": "rouken",
    "serviceType": "介護老人保健施設",
    "capacity": 0,
    "openDays": [],
    "openDaysNote": ""
  },
  {
    "id": "1453880051",
    "name": "ソフィア都筑",
    "kana": "ソフィアツヅキ",
    "address": "神奈川県横浜市都筑区中川1丁目1番地1",
    "lat": 35.5630037,
    "lng": 139.5696353,
    "tel": "045-914-8555",
    "url": "http://www.sophia-pma.jp/publics/index/41/",
    "pref": "神奈川県",
    "city": "横浜市都筑区",
    "category": "rouken",
    "serviceType": "介護老人保健施設",
    "capacity": 90,
    "openDays": [],
    "openDaysNote": ""
  },
  {
    "id": "1450980052",
    "name": "医療法人　健水会　荏田介護老人保健施設　あすなろ",
    "kana": "イリョウホウジン　ケンスイカイ　エダカイゴロウジンホケンシセツ　アスナロ",
    "address": "神奈川県横浜市都筑区荏田南町4247",
    "lat": 35.5553102,
    "lng": 139.5650443,
    "tel": "045-910-0151",
    "url": "http://www.kensuikai-asunaro.or.jp",
    "pref": "神奈川県",
    "city": "横浜市都筑区",
    "category": "rouken",
    "serviceType": "介護老人保健施設",
    "capacity": null,
    "openDays": [],
    "openDaysNote": ""
  },
  {
    "id": "1453880069",
    "name": "医療法人　健水会　荏田介護老人保健施設　あすなろユニット館",
    "kana": "イリョウホウジン　ケンスイカイ　エダカイゴロウジンホケンシセツ　アスナロ　ユニットカン",
    "address": "神奈川県横浜市都筑区荏田南町4247",
    "lat": 35.5553102,
    "lng": 139.5650443,
    "tel": "045-910-0151",
    "url": "http://www.kensuikai-asunaro.or.jp/",
    "pref": "神奈川県",
    "city": "横浜市都筑区",
    "category": "rouken",
    "serviceType": "介護老人保健施設",
    "capacity": null,
    "openDays": [],
    "openDaysNote": ""
  },
  {
    "id": "1453880044",
    "name": "医療法人社団　朝菊会　介護老人保健施設　ヒルトップ池辺",
    "kana": "イリョウホウジンシャダン　トモギクカイ　カイゴロウジンホケンシセツ　ヒルトップイケベ",
    "address": "神奈川県横浜市都筑区池辺町２２１８",
    "lat": 35.5267,
    "lng": 139.5690613,
    "tel": "045-941-1110",
    "url": "",
    "pref": "神奈川県",
    "city": "横浜市都筑区",
    "category": "rouken",
    "serviceType": "介護老人保健施設",
    "capacity": 0,
    "openDays": [],
    "openDaysNote": ""
  },
  {
    "id": "1453880010",
    "name": "横浜茅ヶ崎老人保健施設",
    "kana": "ヨコハマチガサキロウジンホケンシセツ",
    "address": "神奈川県横浜市都筑区茅ケ崎東５－８－７",
    "lat": 35.5474061,
    "lng": 139.5841595,
    "tel": "045-948-1250",
    "url": "http://www.kyouwakai.or.jp/",
    "pref": "神奈川県",
    "city": "横浜市都筑区",
    "category": "rouken",
    "serviceType": "介護老人保健施設",
    "capacity": 0,
    "openDays": [],
    "openDaysNote": ""
  },
  {
    "id": "1453880036",
    "name": "介護老人保健施設　若葉が丘",
    "kana": "カイゴロウジンホケンシセツ　ワカバガオカ",
    "address": "神奈川県横浜市都筑区川和町２６７４－１",
    "lat": 35.5384399,
    "lng": 139.5481435,
    "tel": "045-948-1281",
    "url": "http://www.e-wakaba.jp/",
    "pref": "神奈川県",
    "city": "横浜市都筑区",
    "category": "rouken",
    "serviceType": "介護老人保健施設",
    "capacity": 0,
    "openDays": [],
    "openDaysNote": ""
  },
  {
    "id": "1453880002",
    "name": "介護老人保健施設　都筑シニアセンター",
    "kana": "カイゴロウジンホケンシセツ　ツヅキシニアセンター",
    "address": "神奈川県横浜市都筑区東山田町1357",
    "lat": 35.5600988,
    "lng": 139.6038402,
    "tel": "045-595-0021",
    "url": "http://www.tuduki-senior-c.com",
    "pref": "神奈川県",
    "city": "横浜市都筑区",
    "category": "rouken",
    "serviceType": "介護老人保健施設",
    "capacity": 163,
    "openDays": [],
    "openDaysNote": ""
  },
  {
    "id": "1453880028",
    "name": "介護老人保健施設　都筑ハートフルステーション",
    "kana": "カイゴロウジンホケンシセツ　ツヅキハートフルステーション",
    "address": "神奈川県横浜市都筑区大棚町７４－９",
    "lat": 35.5492794874546,
    "lng": 139.597278882803,
    "tel": "045-595-2641",
    "url": "https://www.katsujinkai.org/heartful/",
    "pref": "神奈川県",
    "city": "横浜市都筑区",
    "category": "rouken",
    "serviceType": "介護老人保健施設",
    "capacity": 0,
    "openDays": [],
    "openDaysNote": ""
  },
  {
    "id": "1450580019",
    "name": "介護老人保健施設レストア横浜",
    "kana": "カイゴロウジンホケンシセツレストアヨコハマ",
    "address": "神奈川県横浜市南区六ッ川3-5-1",
    "lat": 35.4209326,
    "lng": 139.5814395,
    "tel": "045-713-0111",
    "url": "https://restore-y.jp",
    "pref": "神奈川県",
    "city": "横浜市南区",
    "category": "rouken",
    "serviceType": "介護老人保健施設",
    "capacity": null,
    "openDays": [],
    "openDaysNote": ""
  },
  {
    "id": "1450680041",
    "name": "介護老人保健施設　けいあいの郷　西谷",
    "kana": "カイゴロウジンホケンシセツ　ケイアイノサト　ニシヤ",
    "address": "神奈川県横浜市保土ケ谷区西谷町1018-2",
    "lat": 35.4805416,
    "lng": 139.5650873,
    "tel": "045-370-5363",
    "url": "http://keiainosato-nishiya.jp/",
    "pref": "神奈川県",
    "city": "横浜市保土ケ谷区",
    "category": "rouken",
    "serviceType": "介護老人保健施設",
    "capacity": 120,
    "openDays": [],
    "openDaysNote": ""
  },
  {
    "id": "1450680025",
    "name": "介護老人保健施設　ライフモア保土ヶ谷",
    "kana": "カイゴロウジンホケンシセツ　ライフモアホドガヤ",
    "address": "神奈川県横浜市保土ケ谷区新井町291-1",
    "lat": 35.4926788,
    "lng": 139.5581153,
    "tel": "045-374-2003",
    "url": "http://www.lifemore.or.jp",
    "pref": "神奈川県",
    "city": "横浜市保土ケ谷区",
    "category": "rouken",
    "serviceType": "介護老人保健施設",
    "capacity": 0,
    "openDays": [],
    "openDaysNote": ""
  },
  {
    "id": "1450680033",
    "name": "介護老人保健施設　境木の丘",
    "kana": "カイゴロウジンホケンシセツ　サカイギノオカ",
    "address": "神奈川県横浜市保土ケ谷区境木町１７４－１",
    "lat": 35.442706326078,
    "lng": 139.565419884656,
    "tel": "045-355-5561",
    "url": "https://www.sakaiginooka.jp/",
    "pref": "神奈川県",
    "city": "横浜市保土ケ谷区",
    "category": "rouken",
    "serviceType": "介護老人保健施設",
    "capacity": 100,
    "openDays": [],
    "openDaysNote": ""
  },
  {
    "id": "1450680009",
    "name": "介護老人保健施設ユトリアム",
    "kana": "カイゴロウジンホケンシセツユトリアム",
    "address": "神奈川県横浜市保土ケ谷区狩場町200-7",
    "lat": 35.4403828,
    "lng": 139.576351,
    "tel": "045-712-9931",
    "url": "http://www.yutoriam.com/",
    "pref": "神奈川県",
    "city": "横浜市保土ケ谷区",
    "category": "rouken",
    "serviceType": "介護老人保健施設",
    "capacity": 0,
    "openDays": [],
    "openDaysNote": ""
  },
  {
    "id": "1453380037",
    "name": "医療法人社団　桜栄会　横浜セラトピア",
    "kana": "イリョウホウジンシャダン　オウエイカイ　ヨコハマセラトピア",
    "address": "神奈川県横浜市緑区北八朔町１３２３",
    "lat": 35.5252331,
    "lng": 139.5410554,
    "tel": "045-938-5660",
    "url": "https://www.oueikai.or.jp/",
    "pref": "神奈川県",
    "city": "横浜市緑区",
    "category": "rouken",
    "serviceType": "介護老人保健施設",
    "capacity": 100,
    "openDays": [],
    "openDaysNote": ""
  },
  {
    "id": "1453380029",
    "name": "医療法人社団　三喜会介護老人保健施設　ライフプラザ新緑",
    "kana": "イリョウホウジンシャダン　サンキカイカイゴロウジンホケンシセツ　ライフプラザシンミドリ",
    "address": "神奈川県横浜市緑区長津田町5708",
    "lat": 35.5120419,
    "lng": 139.4825618,
    "tel": "045-924-2200",
    "url": "https://www.sankikai.or.jp/life-shinmidori/",
    "pref": "神奈川県",
    "city": "横浜市緑区",
    "category": "rouken",
    "serviceType": "介護老人保健施設",
    "capacity": 0,
    "openDays": [],
    "openDaysNote": ""
  },
  {
    "id": "1453380052",
    "name": "介護老人保健施設　葵の園・ヨコハマ",
    "kana": "カイゴロウジンホケンシセツ　アオイノソノ・ヨコハマ",
    "address": "神奈川県横浜市緑区三保町１１８２",
    "lat": 35.5111959,
    "lng": 139.5211266,
    "tel": "045-930-3711",
    "url": "https://www.aoikai.jp/yokohama/",
    "pref": "神奈川県",
    "city": "横浜市緑区",
    "category": "rouken",
    "serviceType": "介護老人保健施設",
    "capacity": 0,
    "openDays": [],
    "openDaysNote": ""
  },
  {
    "id": "1453380045",
    "name": "介護老人保健施設フォーシーズンズヴィラいろどり",
    "kana": "カイゴロウジンホケンシセツフォーシーズンズウ゛ィライロドリ",
    "address": "神奈川県横浜市緑区三保町867",
    "lat": 35.5068937,
    "lng": 139.5236403,
    "tel": "045-938-5253",
    "url": "http://www.4seasons-v.jp/facilities/irodori.html",
    "pref": "神奈川県",
    "city": "横浜市緑区",
    "category": "rouken",
    "serviceType": "介護老人保健施設",
    "capacity": 120,
    "openDays": [],
    "openDaysNote": ""
  },
  {
    "id": "1453380011",
    "name": "介護老人保健施設みどりの杜",
    "kana": "カイゴロウジンホケンシセツミドリノモリ",
    "address": "神奈川県横浜市緑区西八朔町99-1",
    "lat": 35.5267968,
    "lng": 139.5313701,
    "tel": "045-929-5000",
    "url": "http://www.midorinokaze.biz",
    "pref": "神奈川県",
    "city": "横浜市緑区",
    "category": "rouken",
    "serviceType": "介護老人保健施設",
    "capacity": 100,
    "openDays": [],
    "openDaysNote": ""
  },
  {
    "id": "1454280012",
    "name": "社会医療法人ジャパンメディカルアライアンス介護老人保健施設　アゼリア",
    "kana": "シャカイイリョウホウジンジャパンメディカルアライアンスカイゴロウジンホケンシセツアゼリア",
    "address": "神奈川県海老名市中央四丁目16番3号",
    "lat": 35.4482953,
    "lng": 139.3859116,
    "tel": "046-231-1311",
    "url": "https://azalea.jinai.jp",
    "pref": "神奈川県",
    "city": "海老名市",
    "category": "rouken",
    "serviceType": "介護老人保健施設",
    "capacity": 0,
    "openDays": [],
    "openDaysNote": ""
  },
  {
    "id": "1454280004",
    "name": "老人保健施設えびな",
    "kana": "ロウジンホケンシセツエビナ",
    "address": "神奈川県海老名市柏ケ谷6-9-3",
    "lat": 35.4649659,
    "lng": 139.4105596,
    "tel": "046-236-3240",
    "url": "http://www.hanashi-seikeigeka.com",
    "pref": "神奈川県",
    "city": "海老名市",
    "category": "rouken",
    "serviceType": "介護老人保健施設",
    "capacity": 80,
    "openDays": [],
    "openDaysNote": ""
  },
  {
    "id": "1451480022",
    "name": "介護老人保健施設あじさいの郷",
    "kana": "カイゴロウジンホケンシセツアジサイノサト",
    "address": "神奈川県足柄上郡開成町金井島1966",
    "lat": 35.3499975,
    "lng": 139.111834,
    "tel": "0465-82-1165",
    "url": "https://katsumata-mc-hp.jp/ajisainosato/",
    "pref": "神奈川県",
    "city": "開成町",
    "category": "rouken",
    "serviceType": "介護老人保健施設",
    "capacity": null,
    "openDays": [],
    "openDaysNote": ""
  },
  {
    "id": "1452180068",
    "name": "医療法人徳洲会　介護老人保健施設かまくらしるばーほーむ",
    "kana": "イリョウホウジントクシュウカイ　カイゴロウジンホケンシセツカマクラシルバーホーム",
    "address": "神奈川県鎌倉市雪ノ下１－１０－１",
    "lat": 35.3220087,
    "lng": 139.5541781,
    "tel": "0467－22－0013",
    "url": "https://kiyokawa-hp.or.jp/silverhome/",
    "pref": "神奈川県",
    "city": "鎌倉市",
    "category": "rouken",
    "serviceType": "介護老人保健施設",
    "capacity": 0,
    "openDays": [],
    "openDaysNote": ""
  },
  {
    "id": "1452180032",
    "name": "介護老人保健施設　かまくら",
    "kana": "カイゴロウジンホケンシセツ　カマクラ",
    "address": "神奈川県鎌倉市上町屋宇谷戸７５０",
    "lat": 35.3369873,
    "lng": 139.5220886,
    "tel": "0467-42-1717",
    "url": "http://www.s-aishinkai.jp/index.html",
    "pref": "神奈川県",
    "city": "鎌倉市",
    "category": "rouken",
    "serviceType": "介護老人保健施設",
    "capacity": 120,
    "openDays": [],
    "openDaysNote": ""
  },
  {
    "id": "1452180050",
    "name": "介護老人保健施設　リハビリケア湘南かまくら",
    "kana": "カイゴロウジンホケンシセツ　リハビリケアショウナンカマクラ",
    "address": "神奈川県鎌倉市山崎1202-1",
    "lat": 35.34189,
    "lng": 139.5276426,
    "tel": "0467-41-1616",
    "url": "https://www.tokushukai.or.jp/introduction/facility/ns-shonan",
    "pref": "神奈川県",
    "city": "鎌倉市",
    "category": "rouken",
    "serviceType": "介護老人保健施設",
    "capacity": 0,
    "openDays": [],
    "openDaysNote": ""
  },
  {
    "id": "1452180016",
    "name": "介護老人保健施設　鎌倉幸寿苑",
    "kana": "カイゴロウジンホケンシセツ　カマクラコウジュエン",
    "address": "神奈川県鎌倉市関谷918",
    "lat": 35.3616371,
    "lng": 139.5105869,
    "tel": "0467-42-5388",
    "url": "http://www.koujukai.com/",
    "pref": "神奈川県",
    "city": "鎌倉市",
    "category": "rouken",
    "serviceType": "介護老人保健施設",
    "capacity": 0,
    "openDays": [],
    "openDaysNote": ""
  },
  {
    "id": "1452180024",
    "name": "老健ぬかだ",
    "kana": "ロウケンヌカダ",
    "address": "神奈川県鎌倉市大町４丁目６番６号",
    "lat": 35.3120007186246,
    "lng": 139.558260627509,
    "tel": "0467-25-3511",
    "url": "https://nukada.info/rk/rouken.html",
    "pref": "神奈川県",
    "city": "鎌倉市",
    "category": "rouken",
    "serviceType": "介護老人保健施設",
    "capacity": 0,
    "openDays": [],
    "openDaysNote": ""
  },
  {
    "id": "1452480002",
    "name": "介護老人保健施設　ふれあいの丘",
    "kana": "カイゴロウジンホケンシセツ　フレアイノオカ",
    "address": "神奈川県茅ヶ崎市行谷583-1",
    "lat": 35.3686719645743,
    "lng": 139.412969064418,
    "tel": "0467-54-8111",
    "url": "http://www.fureai-g.or.jp/oka/",
    "pref": "神奈川県",
    "city": "茅ヶ崎市",
    "category": "rouken",
    "serviceType": "介護老人保健施設",
    "capacity": 0,
    "openDays": [],
    "openDaysNote": ""
  },
  {
    "id": "1452480036",
    "name": "介護老人保健施設　ふれあいの渚",
    "kana": "カイゴロウジンホケンシセツ　フレアイノナギサ",
    "address": "神奈川県茅ケ崎市中島1220番地",
    "lat": 35.3272424,
    "lng": 139.3772798,
    "tel": "0467-84-6650",
    "url": "http://www.fureai-g.or.jp/nagisa/",
    "pref": "神奈川県",
    "city": "茅ヶ崎市",
    "category": "rouken",
    "serviceType": "介護老人保健施設",
    "capacity": 0,
    "openDays": [],
    "openDaysNote": ""
  },
  {
    "id": "1452480028",
    "name": "介護老人保健施設　茅ヶ崎浜之郷",
    "kana": "カイゴロウジンホケンシセツ　チガサキハマノゴウ",
    "address": "神奈川県茅ヶ崎市浜之郷8-1",
    "lat": 35.3455403,
    "lng": 139.3881113,
    "tel": "0467-57-2666",
    "url": "http://ro-hama.qwc.jp/",
    "pref": "神奈川県",
    "city": "茅ヶ崎市",
    "category": "rouken",
    "serviceType": "介護老人保健施設",
    "capacity": 0,
    "openDays": [],
    "openDaysNote": ""
  },
  {
    "id": "1452480044",
    "name": "介護老人保健施設ケアパーク茅ヶ崎",
    "kana": "カイゴロウジンホケンシセツケアパークチガサキ",
    "address": "神奈川県茅ヶ崎市甘沼151番地",
    "lat": 35.3560518,
    "lng": 139.4208763,
    "tel": "0467-40-9001",
    "url": "http://www.muratakai.or.jp/rcpark_chigasaki/index.html",
    "pref": "神奈川県",
    "city": "茅ヶ崎市",
    "category": "rouken",
    "serviceType": "介護老人保健施設",
    "capacity": 0,
    "openDays": [],
    "openDaysNote": ""
  },
  {
    "id": "1452480051",
    "name": "介護老人保健施設ふれあいの百合",
    "kana": "カイゴロウジンホケンシセツフレアイノユリ",
    "address": "神奈川県茅ヶ崎市南湖1丁目6番14号",
    "lat": 35.3287203407458,
    "lng": 139.390888635807,
    "tel": "0467-84-6501",
    "url": "http://www.fureai-g.or.jp/yuri/",
    "pref": "神奈川県",
    "city": "茅ヶ崎市",
    "category": "rouken",
    "serviceType": "介護老人保健施設",
    "capacity": 100,
    "openDays": [],
    "openDaysNote": ""
  },
  {
    "id": "1451280007",
    "name": "宗教法人寒川神社　介護老人保健施設　神恵苑",
    "kana": "シュウキョウホウジン　サムカワジンジャ　カイゴロウケンシセツ　シンケイエン",
    "address": "神奈川県高座郡寒川町宮山１８０－１",
    "lat": 35.3734976,
    "lng": 139.3822861,
    "tel": "0467-75-8677",
    "url": "https://shinkeien.jp",
    "pref": "神奈川県",
    "city": "寒川町",
    "category": "rouken",
    "serviceType": "介護老人保健施設",
    "capacity": 0,
    "openDays": [],
    "openDaysNote": ""
  },
  {
    "id": "1452980087",
    "name": "介護老人保健施設　ケアセンター上依知",
    "kana": "カイゴロウジンホケンシセツ　ケアセンターカミエチ",
    "address": "神奈川県厚木市上依知418-1",
    "lat": 35.5157384089256,
    "lng": 139.360426388886,
    "tel": "046-281-8640",
    "url": "http://seijukai-gp.jp",
    "pref": "神奈川県",
    "city": "厚木市",
    "category": "rouken",
    "serviceType": "介護老人保健施設",
    "capacity": null,
    "openDays": [],
    "openDaysNote": ""
  },
  {
    "id": "1452980019",
    "name": "介護老人保健施設　コミュニティケア北部",
    "kana": "カイゴロウジンホケンシセツ　コミュニティケアホクブ",
    "address": "神奈川県厚木市下荻野９４１－１",
    "lat": 35.4907869,
    "lng": 139.338177,
    "tel": "046-291-2111",
    "url": "https://care-hokubu.jp/",
    "pref": "神奈川県",
    "city": "厚木市",
    "category": "rouken",
    "serviceType": "介護老人保健施設",
    "capacity": 0,
    "openDays": [],
    "openDaysNote": ""
  },
  {
    "id": "1452980035",
    "name": "介護老人保健施設　さくら",
    "kana": "カイゴロウジンホケンシセツサクラ",
    "address": "神奈川県厚木市上古沢１９１５番地",
    "lat": 35.4632697,
    "lng": 139.3139951,
    "tel": "046-250-0600",
    "url": "https://goto-seikei.net/",
    "pref": "神奈川県",
    "city": "厚木市",
    "category": "rouken",
    "serviceType": "介護老人保健施設",
    "capacity": 0,
    "openDays": [],
    "openDaysNote": ""
  },
  {
    "id": "1452980027",
    "name": "介護老人保健施設　ぬるみず",
    "kana": "カイゴロウジンホケンシセツヌルミズ",
    "address": "神奈川県厚木市温水1845-1",
    "lat": 35.447911,
    "lng": 139.3336881,
    "tel": "046-248-2871",
    "url": "http://nurumizu.com/",
    "pref": "神奈川県",
    "city": "厚木市",
    "category": "rouken",
    "serviceType": "介護老人保健施設",
    "capacity": 0,
    "openDays": [],
    "openDaysNote": ""
  },
  {
    "id": "1452980079",
    "name": "介護老人保健施設　リハビリケア湘南厚木",
    "kana": "カイゴロウジンホケンシセツ　リハビリケアショウナンアツギ",
    "address": "神奈川県厚木市戸田2446-15",
    "lat": 35.399864,
    "lng": 139.369519,
    "tel": "046-230-5111",
    "url": "https://www.reha-atsugi.jp",
    "pref": "神奈川県",
    "city": "厚木市",
    "category": "rouken",
    "serviceType": "介護老人保健施設",
    "capacity": null,
    "openDays": [],
    "openDaysNote": ""
  },
  {
    "id": "1452980043",
    "name": "介護老人保健施設こまち",
    "kana": "カイゴロウジンホケンシセツコマチ",
    "address": "神奈川県厚木市小野763-1",
    "lat": 35.433148980758,
    "lng": 139.312877797592,
    "tel": "046-247-1239",
    "url": "http://www.touwakai.com/komachi",
    "pref": "神奈川県",
    "city": "厚木市",
    "category": "rouken",
    "serviceType": "介護老人保健施設",
    "capacity": 100,
    "openDays": [],
    "openDaysNote": ""
  },
  {
    "id": "1452980050",
    "name": "介護老人保健施設さくらサテライト",
    "kana": "カイゴロウジンホケンシセツサクラサテライト",
    "address": "神奈川県厚木市上古沢１７０２番地",
    "lat": 35.4637372086137,
    "lng": 139.309295869806,
    "tel": "046-250-0055",
    "url": "https://goto-seikei.net/",
    "pref": "神奈川県",
    "city": "厚木市",
    "category": "rouken",
    "serviceType": "介護老人保健施設",
    "capacity": 0,
    "openDays": [],
    "openDaysNote": ""
  },
  {
    "id": "1452980001",
    "name": "介護老人保健施設さつきの里あつぎ",
    "kana": "カイゴロウジンホケンシセツサツキノサトアツギ",
    "address": "神奈川県厚木市船子322-1",
    "lat": 35.428019161793,
    "lng": 139.355616225559,
    "tel": "046-227-1188",
    "url": "https://www.tomei.or.jp",
    "pref": "神奈川県",
    "city": "厚木市",
    "category": "rouken",
    "serviceType": "介護老人保健施設",
    "capacity": 0,
    "openDays": [],
    "openDaysNote": ""
  },
  {
    "id": "1454180014",
    "name": "介護老人保健施設　神奈川セントラルケアセンター",
    "kana": "カイゴロウジンホケンシセツ　カナガワセントラルケアセンター",
    "address": "神奈川県座間市栗原９１２－２",
    "lat": 35.4906433918583,
    "lng": 139.419048247221,
    "tel": "046-298-2277",
    "url": "",
    "pref": "神奈川県",
    "city": "座間市",
    "category": "rouken",
    "serviceType": "介護老人保健施設",
    "capacity": 0,
    "openDays": [],
    "openDaysNote": ""
  },
  {
    "id": "1454180006",
    "name": "介護老人保健施設　老健さがみ",
    "kana": "カイゴロウジンホケンシセツ　ロウケンサガミ",
    "address": "神奈川県座間市相模が丘６－２１－２７",
    "lat": 35.5063114,
    "lng": 139.4266098,
    "tel": "046-266-5010",
    "url": "http://www.sagamidai.com/kanren/rouken.html",
    "pref": "神奈川県",
    "city": "座間市",
    "category": "rouken",
    "serviceType": "介護老人保健施設",
    "capacity": 56,
    "openDays": [],
    "openDaysNote": ""
  },
  {
    "id": "1452780013",
    "name": "介護老人保健施設　なぎさ",
    "kana": "カイゴロウジンホケンシセツ　ナギサ",
    "address": "神奈川県三浦市南下浦町上宮田１３０８",
    "lat": 35.1926641,
    "lng": 139.651755,
    "tel": "046-888-7080",
    "url": "https://www.shinjinkai.or.jp/nagisa/riyou/nyusho.html",
    "pref": "神奈川県",
    "city": "三浦市",
    "category": "rouken",
    "serviceType": "介護老人保健施設",
    "capacity": 0,
    "openDays": [],
    "openDaysNote": ""
  },
  {
    "id": "1452780005",
    "name": "介護老人保健施設　なのはな苑",
    "kana": "カイゴロウジンホケンシセツ　ナノハナエン",
    "address": "神奈川県三浦市初声町高円坊１０４０－２",
    "lat": 35.2032162,
    "lng": 139.6448637,
    "tel": "046-889-2400",
    "url": "http://www.bmk.or.jp/nanohana/",
    "pref": "神奈川県",
    "city": "三浦市",
    "category": "rouken",
    "serviceType": "介護老人保健施設",
    "capacity": 0,
    "openDays": [],
    "openDaysNote": ""
  },
  {
    "id": "1472303765",
    "name": "介護老人保健施設　葵の園・小田原",
    "kana": "カイゴロウジンホケンシセツ　アオイノソノ　オダワラ",
    "address": "神奈川県小田原市曽比字前河原1350番地",
    "lat": 35.317767843693,
    "lng": 139.136866284181,
    "tel": "0465-39-0115",
    "url": "https://www.aoikai.jp/odawara/",
    "pref": "神奈川県",
    "city": "小田原市",
    "category": "rouken",
    "serviceType": "介護老人保健施設",
    "capacity": 0,
    "openDays": [],
    "openDaysNote": ""
  },
  {
    "id": "1452380004",
    "name": "介護老人保健施設　水之尾",
    "kana": "カイゴロウジンホケンシセツ　　ミズノオ",
    "address": "神奈川県小田原市水之尾３８－１",
    "lat": 35.2533785,
    "lng": 139.1327257,
    "tel": "0465-24-6051",
    "url": "http://ro-ken-mizunoo.weblike.jp/",
    "pref": "神奈川県",
    "city": "小田原市",
    "category": "rouken",
    "serviceType": "介護老人保健施設",
    "capacity": 100,
    "openDays": [],
    "openDaysNote": ""
  },
  {
    "id": "1452380038",
    "name": "介護老人保健施設“悠久”",
    "kana": "カイゴロウジンホケンシセツ“ユウキュウ”",
    "address": "神奈川県小田原市延清196-1",
    "lat": 35.2943602,
    "lng": 139.1718414,
    "tel": "0465-39-2240",
    "url": "http://yuukyuu-odawara.jp/",
    "pref": "神奈川県",
    "city": "小田原市",
    "category": "rouken",
    "serviceType": "介護老人保健施設",
    "capacity": 100,
    "openDays": [],
    "openDaysNote": ""
  },
  {
    "id": "1452380020",
    "name": "介護老人保健施設リバーイースト",
    "kana": "カイゴロウジンホケンシセツリバーイースト",
    "address": "神奈川県小田原市永塚344-1",
    "lat": 35.3004801219229,
    "lng": 139.181309571828,
    "tel": "0465-42-8006",
    "url": "https://river-roken.com/",
    "pref": "神奈川県",
    "city": "小田原市",
    "category": "rouken",
    "serviceType": "介護老人保健施設",
    "capacity": 0,
    "openDays": [],
    "openDaysNote": ""
  },
  {
    "id": "1452380012",
    "name": "山近記念総合病院　介護老人保健施設　わかば",
    "kana": "ヤマチカキネンソウゴウビョウイン　カイゴロウジンホケンシセツ　ワカバ",
    "address": "神奈川県小田原市小八幡３－６－２２",
    "lat": 35.2764106,
    "lng": 139.2013861,
    "tel": "0465-45-3600",
    "url": "https://www.yamachika-hp.jp/",
    "pref": "神奈川県",
    "city": "小田原市",
    "category": "rouken",
    "serviceType": "介護老人保健施設",
    "capacity": 0,
    "openDays": [],
    "openDaysNote": ""
  },
  {
    "id": "1452880029",
    "name": "医療法人社団　三喜会　介護老人保健施設　ライフプラザ鶴巻",
    "kana": "イリョウホウジンシャダン　サンキカイ　カイゴロウジンホケンシセツ　ライフプラザツルマキ",
    "address": "神奈川県秦野市鶴巻北3-1-3",
    "lat": 35.3821172,
    "lng": 139.276205,
    "tel": "0463-69-3741",
    "url": "https://www.sankikai.or.jp/life-tsurumaki/",
    "pref": "神奈川県",
    "city": "秦野市",
    "category": "rouken",
    "serviceType": "介護老人保健施設",
    "capacity": 0,
    "openDays": [],
    "openDaysNote": ""
  },
  {
    "id": "1452880037",
    "name": "医療法人社団栄相会　介護老人保健施設ミノゲール",
    "kana": "イリョウホウジンシャダンエイアイカイ　カイゴロウジンホケンシセツミノゲール",
    "address": "神奈川県秦野市蓑毛字芝原ヶ谷戸164－1",
    "lat": 35.4066996,
    "lng": 139.231225,
    "tel": "0463-81-1488",
    "url": "http://minoge-ei.webnode.jp/",
    "pref": "神奈川県",
    "city": "秦野市",
    "category": "rouken",
    "serviceType": "介護老人保健施設",
    "capacity": 0,
    "openDays": [],
    "openDaysNote": ""
  },
  {
    "id": "1452880052",
    "name": "医療法人社団佑樹会　介護老人保健施設　ひまわりの里",
    "kana": "イリョウホウジンシャダンユウキカイ　カイゴロウジンホケンシセツ　ヒマワリノサト",
    "address": "神奈川県秦野市西大竹914番地の1",
    "lat": 35.3540503575762,
    "lng": 139.233367176166,
    "tel": "0463-85-5011",
    "url": "http://yuuki-kai.com/himawari_top/",
    "pref": "神奈川県",
    "city": "秦野市",
    "category": "rouken",
    "serviceType": "介護老人保健施設",
    "capacity": 98,
    "openDays": [],
    "openDaysNote": ""
  },
  {
    "id": "1452880045",
    "name": "医療法人社団佑樹会　介護老人保健施設めぐみの里",
    "kana": "イリョウホウジンシャダンユウキカイ　カイゴロウジンホケンシセツ　メグミノサト",
    "address": "神奈川県秦野市渋沢1296番地の1",
    "lat": 35.3669442160866,
    "lng": 139.195241009787,
    "tel": "0463-89-2225",
    "url": "http://www.yuuki-kai.com",
    "pref": "神奈川県",
    "city": "秦野市",
    "category": "rouken",
    "serviceType": "介護老人保健施設",
    "capacity": 148,
    "openDays": [],
    "openDaysNote": ""
  },
  {
    "id": "1452880003",
    "name": "秦野老人保健施設みかん",
    "kana": "ハダノロウジンホケンシセツミカン",
    "address": "神奈川県秦野市平沢2407-2",
    "lat": 35.3587703,
    "lng": 139.1930402,
    "tel": "0463-84-4165",
    "url": "http://www.hadano.or.jp/",
    "pref": "神奈川県",
    "city": "秦野市",
    "category": "rouken",
    "serviceType": "介護老人保健施設",
    "capacity": 0,
    "openDays": [],
    "openDaysNote": ""
  },
  {
    "id": "1452580009",
    "name": "医療法人社団　柏信会　介護老人保健施設　グリーンハウス逗子",
    "kana": "イリョウホウジンシャダンハクシンカイカイゴロウジンホケンシセツグリーンハウスズシ",
    "address": "神奈川県逗子市桜山６－１３５５",
    "lat": 35.2928923,
    "lng": 139.5902526,
    "tel": "046-870-3135",
    "url": "https://aoki-hospital.or.jp/greenhouse/index.html",
    "pref": "神奈川県",
    "city": "逗子市",
    "category": "rouken",
    "serviceType": "介護老人保健施設",
    "capacity": null,
    "openDays": [],
    "openDaysNote": ""
  },
  {
    "id": "1455580030",
    "name": "介護老人保健施設　プラチナ・ヴィラ宮前",
    "kana": "カイゴロウジンホケンシセツ　プラチナ・ウ゛ィラミヤマエ",
    "address": "神奈川県川﨑市宮前区南野川3丁目23番1号",
    "lat": 35.5697306,
    "lng": 139.6124722,
    "tel": "044-753-5530",
    "url": "http://www.t-group.net",
    "pref": "神奈川県",
    "city": "川崎市宮前区",
    "category": "rouken",
    "serviceType": "介護老人保健施設",
    "capacity": 0,
    "openDays": [],
    "openDaysNote": ""
  },
  {
    "id": "1455580022",
    "name": "介護老人保健施設　ろうけん宮前",
    "kana": "カイゴロウジンホケンシセツ　ロウケンミヤマエ",
    "address": "神奈川県川崎市宮前区水沢2-20-1",
    "lat": 35.5921215,
    "lng": 139.5384142,
    "tel": "044-975-3811",
    "url": "http://www.rouken-miyamae.jp/",
    "pref": "神奈川県",
    "city": "川崎市宮前区",
    "category": "rouken",
    "serviceType": "介護老人保健施設",
    "capacity": 0,
    "openDays": [],
    "openDaysNote": ""
  },
  {
    "id": "1455580006",
    "name": "帝京大学老人保健センター",
    "kana": "テイキョウダイガクロウジンホケンセンター",
    "address": "神奈川県川崎市宮前区野川本町２－１３－６",
    "lat": 35.5760530861817,
    "lng": 139.616265664418,
    "tel": "044-777-1711",
    "url": "http://teikyo-rouken.blue.coocan.jp/",
    "pref": "神奈川県",
    "city": "川崎市宮前区",
    "category": "rouken",
    "serviceType": "介護老人保健施設",
    "capacity": null,
    "openDays": [],
    "openDaysNote": ""
  },
  {
    "id": "1455580041",
    "name": "老人保健施設　レストア川崎",
    "kana": "ロウジンホケンシセツ　レストアカワサキ",
    "address": "神奈川県川崎市宮前区犬蔵2-25-9",
    "lat": 35.5861285,
    "lng": 139.5599484,
    "tel": "044-976-7111",
    "url": "https://restore-k.jp/",
    "pref": "神奈川県",
    "city": "川崎市宮前区",
    "category": "rouken",
    "serviceType": "介護老人保健施設",
    "capacity": 0,
    "openDays": [],
    "openDaysNote": ""
  },
  {
    "id": "1455180005",
    "name": "介護老人保健施設　幸正の苑",
    "kana": "カイゴロウジンホケンシセツ　コウセイノソノ",
    "address": "神奈川県川崎市幸区小倉2-30-13",
    "lat": 35.5397070726729,
    "lng": 139.667040066271,
    "tel": "044-599-2666",
    "url": "http://www.kurita-hp.com/",
    "pref": "神奈川県",
    "city": "川崎市幸区",
    "category": "rouken",
    "serviceType": "介護老人保健施設",
    "capacity": 0,
    "openDays": [],
    "openDaysNote": ""
  },
  {
    "id": "1455180013",
    "name": "介護老人保健施設　千の風・川崎",
    "kana": "カイゴロウジンホケンシセツ　センノカゼカワサキ",
    "address": "神奈川県川崎市幸区小向町15-25",
    "lat": 35.547895,
    "lng": 139.6959872,
    "tel": "044-520-1033",
    "url": "http://www.kenjin.or.jp/sennokaze/kawasaki/index.html",
    "pref": "神奈川県",
    "city": "川崎市幸区",
    "category": "rouken",
    "serviceType": "介護老人保健施設",
    "capacity": 0,
    "openDays": [],
    "openDaysNote": ""
  },
  {
    "id": "1455380001",
    "name": "介護老人保健施設　たかつ",
    "kana": "カイゴロウジンホケンシセツタカツ",
    "address": "神奈川県川崎市高津区子母口４９８－２",
    "lat": 35.5724079,
    "lng": 139.6324727,
    "tel": "044-741-3077",
    "url": "https://www.sounkai.com",
    "pref": "神奈川県",
    "city": "川崎市高津区",
    "category": "rouken",
    "serviceType": "介護老人保健施設",
    "capacity": 0,
    "openDays": [],
    "openDaysNote": ""
  },
  {
    "id": "1455380035",
    "name": "介護老人保健施設　ベルサンテ",
    "kana": "カイゴロウジンホケンシセツ　ベルサンテ",
    "address": "神奈川県川崎市高津区久末７０３－４",
    "lat": 35.5697861,
    "lng": 139.6188576,
    "tel": "044-740-0740",
    "url": "https://belsante.or.jp/",
    "pref": "神奈川県",
    "city": "川崎市高津区",
    "category": "rouken",
    "serviceType": "介護老人保健施設",
    "capacity": 0,
    "openDays": [],
    "openDaysNote": ""
  },
  {
    "id": "1455380027",
    "name": "介護老人保健施設　ゆい",
    "kana": "カイゴロウジンホケンシセツ　ユイ",
    "address": "神奈川県川崎市高津区新作3-7-1",
    "lat": 35.5848783,
    "lng": 139.6175596,
    "tel": "044-862-4321",
    "url": "https://www.kaigo-yui.jp/",
    "pref": "神奈川県",
    "city": "川崎市高津区",
    "category": "rouken",
    "serviceType": "介護老人保健施設",
    "capacity": 0,
    "openDays": [],
    "openDaysNote": ""
  },
  {
    "id": "1455380019",
    "name": "介護老人保健施設　樹の丘",
    "kana": "カイゴロウジンホケンシセツ　キノオカ",
    "address": "神奈川県川崎市高津区久地4-19-1",
    "lat": 35.609126823521,
    "lng": 139.593572,
    "tel": "044-820-0350",
    "url": "https://kinooka.com/",
    "pref": "神奈川県",
    "city": "川崎市高津区",
    "category": "rouken",
    "serviceType": "介護老人保健施設",
    "capacity": 80,
    "openDays": [],
    "openDaysNote": ""
  },
  {
    "id": "1455080023",
    "name": "介護老人保健施設　葵の園・川崎（ユニット）",
    "kana": "カイゴロウジンホケンシセツ　アオイノソノ・カワサキ（ユニット）",
    "address": "神奈川県川崎市川崎区小田栄2-1-6",
    "lat": 35.5126026,
    "lng": 139.7092872,
    "tel": "044-328-3711",
    "url": "https://www.aoikai.jp/kawasaki/",
    "pref": "神奈川県",
    "city": "川崎市川崎区",
    "category": "rouken",
    "serviceType": "介護老人保健施設",
    "capacity": 38,
    "openDays": [],
    "openDaysNote": ""
  },
  {
    "id": "1455080031",
    "name": "介護老人保健施設　葵の園・川崎南部",
    "kana": "カイゴロウジンホケンシセツ　アオイノソノ・カワサキナンブ",
    "address": "神奈川県川崎市川崎区田町2-9-2",
    "lat": 35.5343031999999,
    "lng": 139.7461089,
    "tel": "044-277-6600",
    "url": "http://www.aoikai.jp/kawasakinanbu/",
    "pref": "神奈川県",
    "city": "川崎市川崎区",
    "category": "rouken",
    "serviceType": "介護老人保健施設",
    "capacity": 0,
    "openDays": [],
    "openDaysNote": ""
  },
  {
    "id": "1455080015",
    "name": "介護老人保健施設葵の園・川崎",
    "kana": "カイゴロウジンホケンシセツアオイノソノ・カワサキ",
    "address": "神奈川県川崎市川崎区小田栄2-1-6",
    "lat": 35.5126026,
    "lng": 139.7092872,
    "tel": "044-328-3711",
    "url": "https://www.aoikai.jp/kawasaki/",
    "pref": "神奈川県",
    "city": "川崎市川崎区",
    "category": "rouken",
    "serviceType": "介護老人保健施設",
    "capacity": 112,
    "openDays": [],
    "openDaysNote": ""
  },
  {
    "id": "1455480041",
    "name": "よみうりランドケアセンター",
    "kana": "ヨミウリランドケアセンター",
    "address": "神奈川県川崎市多摩区菅仙谷４－１－３",
    "lat": 35.62211068027,
    "lng": 139.52313048322,
    "tel": "044-948-1611",
    "url": "http://www.landcare.jp/",
    "pref": "神奈川県",
    "city": "川崎市多摩区",
    "category": "rouken",
    "serviceType": "介護老人保健施設",
    "capacity": 0,
    "openDays": [],
    "openDaysNote": ""
  },
  {
    "id": "1455480058",
    "name": "よみうりランドケアセンター（ユニットケア型）",
    "kana": "ヨミウリランドケアセンター（ユニットケアガタ）",
    "address": "神奈川県川崎市多摩区菅仙谷４－１－３",
    "lat": 35.6212778,
    "lng": 139.5206253,
    "tel": "044-948-1611",
    "url": "http://www.landcare.jp/",
    "pref": "神奈川県",
    "city": "川崎市多摩区",
    "category": "rouken",
    "serviceType": "介護老人保健施設",
    "capacity": 0,
    "openDays": [],
    "openDaysNote": ""
  },
  {
    "id": "1455480033",
    "name": "介護老人保健施設　三田あすみの丘",
    "kana": "カイゴロウジンホケンシセツ　ミタアスミノオカ",
    "address": "神奈川県川崎市多摩区三1丁目14番2号",
    "lat": 35.6111686,
    "lng": 139.5436266,
    "tel": "044-935-5401",
    "url": "https://www.misasakai.or.jp/shisetsu/mitaasuminooka.php",
    "pref": "神奈川県",
    "city": "川崎市多摩区",
    "category": "rouken",
    "serviceType": "介護老人保健施設",
    "capacity": 84,
    "openDays": [],
    "openDaysNote": ""
  },
  {
    "id": "1455480017",
    "name": "介護老人保健施設遊花園",
    "kana": "カイゴロウジンホケンシセツユウカエン",
    "address": "神奈川県川崎市多摩区枡形6-4-25",
    "lat": 35.6132170442975,
    "lng": 139.560289925348,
    "tel": "044-900-9332",
    "url": "https://www.aoikai.jp/yuukaen/",
    "pref": "神奈川県",
    "city": "川崎市多摩区",
    "category": "rouken",
    "serviceType": "介護老人保健施設",
    "capacity": 98,
    "openDays": [],
    "openDaysNote": ""
  },
  {
    "id": "1455280011",
    "name": "介護老人保健施設　葵の園・武蔵小杉",
    "kana": "カイゴロウジンホケンシセツ　アオイノソノ・ムサシコスギ",
    "address": "神奈川県川崎市中原区今井西町2-58",
    "lat": 35.576921294304,
    "lng": 139.648152854106,
    "tel": "044-711-0880",
    "url": "https://www.aoikai.jp/musashikosugi/",
    "pref": "神奈川県",
    "city": "川崎市中原区",
    "category": "rouken",
    "serviceType": "介護老人保健施設",
    "capacity": 0,
    "openDays": [],
    "openDaysNote": ""
  },
  {
    "id": "1455680020",
    "name": "介護老人保健施設　アクアピア新百合",
    "kana": "カイゴロウジンホケンシセツ　アクアピアシンユリ",
    "address": "神奈川県川崎市麻生区黒川３１８",
    "lat": 35.6129087,
    "lng": 139.4691007,
    "tel": "044-981-5667",
    "url": "http://www.aquapia.or.jp",
    "pref": "神奈川県",
    "city": "川崎市麻生区",
    "category": "rouken",
    "serviceType": "介護老人保健施設",
    "capacity": null,
    "openDays": [],
    "openDaysNote": ""
  },
  {
    "id": "1455680004",
    "name": "介護老人保健施設　虹が丘リハビリケアセンター",
    "kana": "カイゴロウジンホケンシセツ　ニジガオカリハビリケアセンター",
    "address": "神奈川県川崎市麻生区王禅寺９６３－１１",
    "lat": 35.5832196,
    "lng": 139.5230241,
    "tel": "044-987-9853",
    "url": "https://www.nijigaoka.jp/",
    "pref": "神奈川県",
    "city": "川崎市麻生区",
    "category": "rouken",
    "serviceType": "介護老人保健施設",
    "capacity": 0,
    "openDays": [],
    "openDaysNote": ""
  },
  {
    "id": "1455680012",
    "name": "新百合ケ丘介護老人保健施設　つくしの里",
    "kana": "シンユリガオカカイゴロウジンホケンシセツ　ツクシノサト",
    "address": "神奈川県川崎市麻生区上麻生３－１４－２０",
    "lat": 35.5984998,
    "lng": 139.5018442,
    "tel": "044-969-3366",
    "url": "https://www.reimeikai.care",
    "pref": "神奈川県",
    "city": "川崎市麻生区",
    "category": "rouken",
    "serviceType": "介護老人保健施設",
    "capacity": 0,
    "openDays": [],
    "openDaysNote": ""
  },
  {
    "id": "1452680056",
    "name": "医療法人社団小松会　介護老人保健施設　清泉の郷",
    "kana": "イリョウホウジンシャダンコマツカイ　カイゴロウジンホケンシセツ　セイセンノサト",
    "address": "神奈川県相模原市中央区上溝１１３２－１",
    "lat": 35.5444835,
    "lng": 139.3746939,
    "tel": "042-730-5150",
    "url": "http://www.seisen.komatsukai.com",
    "pref": "神奈川県",
    "city": "相模原市中央区",
    "category": "rouken",
    "serviceType": "介護老人保健施設",
    "capacity": 0,
    "openDays": [],
    "openDaysNote": ""
  },
  {
    "id": "1452680072",
    "name": "医療法人社団仁和会　介護老人保健施設　とき",
    "kana": "イリョウホウジンシャダンジンワカイ　カイゴロウジンホケンシセツ　トキ",
    "address": "神奈川県相模原市中央区相模原4-11-5",
    "lat": 35.577072,
    "lng": 139.3778426,
    "tel": "042-786-7725",
    "url": "https://jinwakai-toki.com",
    "pref": "神奈川県",
    "city": "相模原市中央区",
    "category": "rouken",
    "serviceType": "介護老人保健施設",
    "capacity": 0,
    "openDays": [],
    "openDaysNote": ""
  },
  {
    "id": "1452680064",
    "name": "上溝介護老人保健施設　いずみ",
    "kana": "カミミゾカイゴロウジンホケンシセツ　イズミ",
    "address": "神奈川県相模原市中央区上溝6丁目18番40号",
    "lat": 35.5544772,
    "lng": 139.3570007,
    "tel": "042-760-1715",
    "url": "https://izumi.meiwa-gr.jp/long",
    "pref": "神奈川県",
    "city": "相模原市中央区",
    "category": "rouken",
    "serviceType": "介護老人保健施設",
    "capacity": 90,
    "openDays": [],
    "openDaysNote": ""
  },
  {
    "id": "1452680049",
    "name": "相和会介護老人保健施設　青葉の郷",
    "kana": "ソウワカイカイゴロウジンホケンシセツ　アオバノサト",
    "address": "神奈川県相模原市中央区青葉３－３６－１",
    "lat": 35.5486652,
    "lng": 139.389723,
    "tel": "042-750-1116",
    "url": "https://www.sowa-kai.jp/aoba/",
    "pref": "神奈川県",
    "city": "相模原市中央区",
    "category": "rouken",
    "serviceType": "介護老人保健施設",
    "capacity": 100,
    "openDays": [],
    "openDaysNote": ""
  },
  {
    "id": "1452680031",
    "name": "田名老人保健施設　光生",
    "kana": "タナロウジンホケンシセツ　コウセイ",
    "address": "神奈川県相模原市中央区田名7654-1",
    "lat": 35.5449458,
    "lng": 139.3494851,
    "tel": "042-763-1717",
    "url": "http://www.tokujukai.or.jp/kousei/index.html",
    "pref": "神奈川県",
    "city": "相模原市中央区",
    "category": "rouken",
    "serviceType": "介護老人保健施設",
    "capacity": 0,
    "openDays": [],
    "openDaysNote": ""
  },
  {
    "id": "1452680023",
    "name": "介護老人保健施設　のどか",
    "kana": "カイゴロウジンホケンシセツ　ノドカ",
    "address": "神奈川県相模原市南区新磯野５－３６－１",
    "lat": 35.5128441,
    "lng": 139.4016618,
    "tel": "042-766-4788",
    "url": "https://www.smg-net.com/nodoka/",
    "pref": "神奈川県",
    "city": "相模原市南区",
    "category": "rouken",
    "serviceType": "介護老人保健施設",
    "capacity": 0,
    "openDays": [],
    "openDaysNote": ""
  },
  {
    "id": "1452680015",
    "name": "介護老人保健施設　相模大野",
    "kana": "カイゴロウジンホケンシセツ　サガミオオノ",
    "address": "神奈川県相模原市南区豊町17-36",
    "lat": 35.5282729,
    "lng": 139.4273868,
    "tel": "042-741-1321",
    "url": "https://www.sagamioono.or.jp",
    "pref": "神奈川県",
    "city": "相模原市南区",
    "category": "rouken",
    "serviceType": "介護老人保健施設",
    "capacity": 91,
    "openDays": [],
    "openDaysNote": ""
  },
  {
    "id": "1452680080",
    "name": "医療法人財団　明理会　介護老人保健施設　相模原ロイヤルケアセンター",
    "kana": "イリョウホウジンザイダン　メイリカイ　カイゴロウジンホケンシセツ　サガミハラロイヤルケアセンター",
    "address": "神奈川県相模原市緑区大島380-1",
    "lat": 35.5820734,
    "lng": 139.3105015,
    "tel": "042-760-0040",
    "url": "https://www.ims.gr.jp/sagamihara_royal/",
    "pref": "神奈川県",
    "city": "相模原市緑区",
    "category": "rouken",
    "serviceType": "介護老人保健施設",
    "capacity": 150,
    "openDays": [],
    "openDaysNote": ""
  },
  {
    "id": "1452680007",
    "name": "介護老人保健施設　グリーンヒルズ相模原",
    "kana": "カイゴロウジンホケンシセツ　グリーンヒルズサガミハラ",
    "address": "神奈川県相模原市緑区大島１５８３－１",
    "lat": 35.5752418,
    "lng": 139.3242864,
    "tel": "042-760-5600",
    "url": "https://koyu.or.jp/hills/",
    "pref": "神奈川県",
    "city": "相模原市緑区",
    "category": "rouken",
    "serviceType": "介護老人保健施設",
    "capacity": 0,
    "openDays": [],
    "openDaysNote": ""
  },
  {
    "id": "1451780014",
    "name": "介護老人保健施設　ケアガーデンさがみ湖",
    "kana": "カイゴロウジンホケンシセツ　ケアガーデンサガミコ",
    "address": "神奈川県相模原市緑区寸沢嵐3333-1",
    "lat": 35.5981639,
    "lng": 139.2067712,
    "tel": "042-685-0615",
    "url": "https://caregarden.xsrv.jp/",
    "pref": "神奈川県",
    "city": "相模原市緑区",
    "category": "rouken",
    "serviceType": "介護老人保健施設",
    "capacity": 40,
    "openDays": [],
    "openDaysNote": ""
  },
  {
    "id": "1452680091",
    "name": "介護老人保健施設ケアガーデンさがみ湖（ユニット型）",
    "kana": "カイゴロウジンホケンシセツ　ケアガーデンサガミコ（ユニットガタ）",
    "address": "神奈川県相模原市緑区寸沢嵐3333-1",
    "lat": 35.6027515,
    "lng": 139.1977608,
    "tel": "042-685-0615",
    "url": "https://caregarden.xsrv.jp/",
    "pref": "神奈川県",
    "city": "相模原市緑区",
    "category": "rouken",
    "serviceType": "介護老人保健施設",
    "capacity": 40,
    "openDays": [],
    "openDaysNote": ""
  },
  {
    "id": "1452680106",
    "name": "介護老人保健施設リハビリパーク城山",
    "kana": "カイゴロウジンホケンシセツリハビリパークシロヤマ",
    "address": "神奈川県相模原市緑区久保沢1-7-10",
    "lat": 35.5974559,
    "lng": 139.3030877,
    "tel": "042-783-5677",
    "url": "http://rehabili-park.com/sisetu/shiroyama/index.html",
    "pref": "神奈川県",
    "city": "相模原市緑区",
    "category": "rouken",
    "serviceType": "介護老人保健施設",
    "capacity": 0,
    "openDays": [],
    "openDaysNote": ""
  },
  {
    "id": "1451780006",
    "name": "老人保健施設　なごみの里",
    "kana": "ロウジンホケンシセツ　ナゴミノサト",
    "address": "神奈川県相模原市緑区牧野８１１０－２",
    "lat": 35.5920842,
    "lng": 139.1332641,
    "tel": "042-689-2421",
    "url": "https://www.fujino-hp.or.jp/nagomi/",
    "pref": "神奈川県",
    "city": "相模原市緑区",
    "category": "rouken",
    "serviceType": "介護老人保健施設",
    "capacity": 0,
    "openDays": [],
    "openDaysNote": ""
  },
  {
    "id": "1451380005",
    "name": "介護老人保健施設　大磯幸寿苑",
    "kana": "カイゴロウジンホケンシセツ　オオイソコウジュエン",
    "address": "神奈川県中郡大磯町西小磯2466",
    "lat": 35.3215841,
    "lng": 139.2980673,
    "tel": "0463-60-3525",
    "url": "http://www.koujukai.com/oiso/",
    "pref": "神奈川県",
    "city": "大磯町",
    "category": "rouken",
    "serviceType": "介護老人保健施設",
    "capacity": 0,
    "openDays": [],
    "openDaysNote": ""
  },
  {
    "id": "1453080025",
    "name": "介護老人保健施設　しょうじゅの里大和",
    "kana": "カイゴロウジンホケンシセツ　ショウジュノサトヤマト",
    "address": "神奈川県大和市上和田２６３３",
    "lat": 35.4416454,
    "lng": 139.4709092,
    "tel": "046-268-8666",
    "url": "http://www.akaedakai.com/yamato/index.html",
    "pref": "神奈川県",
    "city": "大和市",
    "category": "rouken",
    "serviceType": "介護老人保健施設",
    "capacity": 134,
    "openDays": [],
    "openDaysNote": ""
  },
  {
    "id": "1453080041",
    "name": "介護老人保健施設　葵の園・大和",
    "kana": "カイゴロウジンホケンシセツ　アオイノソノ・ヤマト",
    "address": "神奈川県大和市深見台１丁目７番３３号",
    "lat": 35.4655035,
    "lng": 139.4670504,
    "tel": "046-260-3300",
    "url": "https://www.aoikai.jp/yamato/",
    "pref": "神奈川県",
    "city": "大和市",
    "category": "rouken",
    "serviceType": "介護老人保健施設",
    "capacity": 100,
    "openDays": [],
    "openDaysNote": ""
  },
  {
    "id": "1453080017",
    "name": "介護老人保健施設　成和ナーシングプラザ",
    "kana": "カイゴロウジンホケンシセツ　セイワナーシングプラザ",
    "address": "神奈川県大和市南林間9-8-9",
    "lat": 35.4950719,
    "lng": 139.4346039,
    "tel": "046-272-1515",
    "url": "https://www.fureai-g.or.jp/seiwa-np/",
    "pref": "神奈川県",
    "city": "大和市",
    "category": "rouken",
    "serviceType": "介護老人保健施設",
    "capacity": 0,
    "openDays": [],
    "openDaysNote": ""
  },
  {
    "id": "1453080033",
    "name": "介護老人保健施設　大地",
    "kana": "カイゴロウジンホケンシセツ　ダイチ",
    "address": "神奈川県大和市中央林間9-31-20",
    "lat": 35.5140234366685,
    "lng": 139.448239209123,
    "tel": "046-278-2500",
    "url": "http://www.sensinkai-daichi.com",
    "pref": "神奈川県",
    "city": "大和市",
    "category": "rouken",
    "serviceType": "介護老人保健施設",
    "capacity": 0,
    "openDays": [],
    "openDaysNote": ""
  },
  {
    "id": "1453080009",
    "name": "南大和老人保健施設",
    "kana": "ミナミヤマトロウジンホケンシセツ",
    "address": "神奈川県大和市下和田1150番地",
    "lat": 35.4317883,
    "lng": 139.4680957,
    "tel": "046-269-5611",
    "url": "http://www.minamiyamato-hosp.or.jp/introduction/group/sakura/index.html",
    "pref": "神奈川県",
    "city": "大和市",
    "category": "rouken",
    "serviceType": "介護老人保健施設",
    "capacity": 83,
    "openDays": [],
    "openDaysNote": ""
  },
  {
    "id": "1451480011",
    "name": "介護老人保健施設　グレースヒル・湘南",
    "kana": "カイゴロウジンホケンシセツ　グレースヒル・ショウナン",
    "address": "神奈川県足柄上郡中井町松本1135-1",
    "lat": 35.3457861461226,
    "lng": 139.195353646627,
    "tel": "0465-80-3000",
    "url": "http://www.ittokai.or.jp/grace/",
    "pref": "神奈川県",
    "city": "中井町",
    "category": "rouken",
    "serviceType": "介護老人保健施設",
    "capacity": 136,
    "openDays": [],
    "openDaysNote": ""
  },
  {
    "id": "1451580018",
    "name": "ニューライフ湯河原",
    "kana": "ニューライフユガワラ",
    "address": "神奈川県足柄下郡湯河原町吉浜字白沼田１９０６",
    "lat": 35.1598314403184,
    "lng": 139.114617773979,
    "tel": "0465-60-1555",
    "url": "http://www.newlife-web.ne.jp/",
    "pref": "神奈川県",
    "city": "湯河原町",
    "category": "rouken",
    "serviceType": "介護老人保健施設",
    "capacity": 0,
    "openDays": [],
    "openDaysNote": ""
  },
  {
    "id": "1452280030",
    "name": "介護老人保健施設　ガーデニア・ごしょみ",
    "kana": "カイゴロウジンホケンシセツ　ガーデニア・ゴショミ",
    "address": "神奈川県藤沢市獺郷218",
    "lat": 35.396449,
    "lng": 139.4102655,
    "tel": "0466-47-0580",
    "url": "https://gardenia.or.jp/goshomi",
    "pref": "神奈川県",
    "city": "藤沢市",
    "category": "rouken",
    "serviceType": "介護老人保健施設",
    "capacity": 0,
    "openDays": [],
    "openDaysNote": ""
  },
  {
    "id": "1452280055",
    "name": "介護老人保健施設　ふれあいの桜",
    "kana": "カイゴロウジンホケンシセツ　フレアイノサクラ",
    "address": "神奈川県藤沢市遠藤４４６－１",
    "lat": 35.3736859,
    "lng": 139.4296343,
    "tel": "0466-86-9311",
    "url": "http://www.fureai-g.or.jp/f-sakura",
    "pref": "神奈川県",
    "city": "藤沢市",
    "category": "rouken",
    "serviceType": "介護老人保健施設",
    "capacity": 0,
    "openDays": [],
    "openDaysNote": ""
  },
  {
    "id": "1452280014",
    "name": "介護老人保健施設　清流苑",
    "kana": "カイゴロウジンホケンシセツ　セイリュウエン",
    "address": "神奈川県藤沢市高谷１１６－１",
    "lat": 35.3332015,
    "lng": 139.5032125,
    "tel": "0466-50-0550",
    "url": "https://www.fhp.or.jp/seiryuen/",
    "pref": "神奈川県",
    "city": "藤沢市",
    "category": "rouken",
    "serviceType": "介護老人保健施設",
    "capacity": 0,
    "openDays": [],
    "openDaysNote": ""
  },
  {
    "id": "1452280048",
    "name": "介護老人保健施設ケアパ－ク湘南台",
    "kana": "カイゴロウジンホケンシセツケアパ－クショウナンダイ",
    "address": "神奈川県藤沢市円行９９１番地",
    "lat": 35.3870609,
    "lng": 139.4601632,
    "tel": "0466-43-0800",
    "url": "http://www.muratakai.or.jp",
    "pref": "神奈川県",
    "city": "藤沢市",
    "category": "rouken",
    "serviceType": "介護老人保健施設",
    "capacity": 0,
    "openDays": [],
    "openDaysNote": ""
  },
  {
    "id": "1452280022",
    "name": "湘南わかば苑",
    "kana": "ショウナンワカバエン",
    "address": "神奈川県藤沢市石川591番地",
    "lat": 35.3701183,
    "lng": 139.4530447,
    "tel": "0466-89-0551",
    "url": "http://www.swg.or.jp/",
    "pref": "神奈川県",
    "city": "藤沢市",
    "category": "rouken",
    "serviceType": "介護老人保健施設",
    "capacity": 0,
    "openDays": [],
    "openDaysNote": ""
  },
  {
    "id": "1452280063",
    "name": "老健リハビリセンタークローバーヴィラ",
    "kana": "ロウケンリハビリセンタークローバーウ゛ィラ",
    "address": "神奈川県藤沢市鵠沼神明3-1-1",
    "lat": 35.3389384504402,
    "lng": 139.469168222061,
    "tel": "0466-55-3011",
    "url": "http://www.clover-villa.jp/",
    "pref": "神奈川県",
    "city": "藤沢市",
    "category": "rouken",
    "serviceType": "介護老人保健施設",
    "capacity": 0,
    "openDays": [],
    "openDaysNote": ""
  },
  {
    "id": "1454380002",
    "name": "介護老人保健施設　にじの丘足柄",
    "kana": "カイゴロウジンホケンシセツ　ニジノオカアシガラ",
    "address": "神奈川県南足柄市岩原６９９",
    "lat": 35.2941196152108,
    "lng": 139.124082030688,
    "tel": "0465-70-2222",
    "url": "http://www.kiyoukai.jp/",
    "pref": "神奈川県",
    "city": "南足柄市",
    "category": "rouken",
    "serviceType": "介護老人保健施設",
    "capacity": 82,
    "openDays": [],
    "openDaysNote": ""
  },
  {
    "id": "1451580000",
    "name": "介護老人保健施設　デンマークイン箱根",
    "kana": "カイゴロウジンホケンシセツデンマークインハコネ",
    "address": "神奈川県足柄下郡箱根町仙石原１２８５",
    "lat": 35.263883228011,
    "lng": 139.021816321924,
    "tel": "0460-84-5620",
    "url": "http://www.kensei-hakone.com/",
    "pref": "神奈川県",
    "city": "箱根町",
    "category": "rouken",
    "serviceType": "介護老人保健施設",
    "capacity": 0,
    "openDays": [],
    "openDaysNote": ""
  },
  {
    "id": "1452080018",
    "name": "しんど老人保健施設",
    "kana": "シンドロウジンホケンシセツ",
    "address": "神奈川県平塚市東真土4-5-27",
    "lat": 35.3609995,
    "lng": 139.3528279,
    "tel": "0463-53-1970",
    "url": "http://www.shindo-roken.com",
    "pref": "神奈川県",
    "city": "平塚市",
    "category": "rouken",
    "serviceType": "介護老人保健施設",
    "capacity": null,
    "openDays": [],
    "openDaysNote": ""
  },
  {
    "id": "1452080034",
    "name": "医療法人　研水会　介護老人保健施設　あさひの郷",
    "kana": "イリョウホウジン　ケンスイカイ　カイゴロウジンホケンシセツ　アサヒノサト",
    "address": "神奈川県平塚市出縄88",
    "lat": 35.3324483325001,
    "lng": 139.303714066795,
    "tel": "0463-37-1730",
    "url": "http://www.kensuikai.or.jp",
    "pref": "神奈川県",
    "city": "平塚市",
    "category": "rouken",
    "serviceType": "介護老人保健施設",
    "capacity": 0,
    "openDays": [],
    "openDaysNote": ""
  },
  {
    "id": "1452080060",
    "name": "介護老人保健施設　なでしこの里リハビリひらつか",
    "kana": "カイゴロウジンホケンシセツ　ナデシコノサトリハビリヒラツカ",
    "address": "神奈川県平塚市東八幡四丁目19番3号",
    "lat": 35.3504894,
    "lng": 139.3592499,
    "tel": "0463-23-7045",
    "url": "https://www.tomei.or.jp/fukushi/nadeshiko/",
    "pref": "神奈川県",
    "city": "平塚市",
    "category": "rouken",
    "serviceType": "介護老人保健施設",
    "capacity": 0,
    "openDays": [],
    "openDaysNote": ""
  },
  {
    "id": "1452080059",
    "name": "介護老人保健施設　フィオーレ湘南真田",
    "kana": "カイゴロウジンホケンシセツ　フィオーレショウナンサナダ",
    "address": "神奈川県平塚市真田三丁目１番１号",
    "lat": 35.3728352,
    "lng": 139.2834016,
    "tel": "0463-75-8802",
    "url": "https://shofukai.or.jp/area-kanagawa/fiore-shounansanada",
    "pref": "神奈川県",
    "city": "平塚市",
    "category": "rouken",
    "serviceType": "介護老人保健施設",
    "capacity": null,
    "openDays": [],
    "openDaysNote": ""
  },
  {
    "id": "1452080000",
    "name": "介護老人保健施設　社会福祉法人　恩賜財団済生会湘南苑",
    "kana": "カイゴロウジンホケンシセツ　シャカイフクシホウジン　オンシザイダンサイセイカイショウナンエン",
    "address": "神奈川県平塚市立野町37-1",
    "lat": 35.33283,
    "lng": 139.3396244,
    "tel": "0463-35-5780",
    "url": "https://www.hiratsuka.saiseikai.or.jp/shonanen/",
    "pref": "神奈川県",
    "city": "平塚市",
    "category": "rouken",
    "serviceType": "介護老人保健施設",
    "capacity": 0,
    "openDays": [],
    "openDaysNote": ""
  },
  {
    "id": "1452080042",
    "name": "介護老人保健施設湘南シルバーガーデン",
    "kana": "カイゴロウジンホケンシセツショウナンシルバーガーデン",
    "address": "神奈川県平塚市袖ケ浜1-12",
    "lat": 35.3195538,
    "lng": 139.3527963,
    "tel": "0463-23-7151",
    "url": "http://www.fureai-g.or.jp/sg/",
    "pref": "神奈川県",
    "city": "平塚市",
    "category": "rouken",
    "serviceType": "介護老人保健施設",
    "capacity": 0,
    "openDays": [],
    "openDaysNote": ""
  },
  {
    "id": "1451180009",
    "name": "湘南グリーン介護老人保健施設　葉山",
    "kana": "ショウナングリーンカイゴロウジンホケンシセツ　ハヤマ",
    "address": "神奈川県三浦郡葉山町一色2448-1",
    "lat": 35.2680084,
    "lng": 139.5706004,
    "tel": "046-877-5660",
    "url": "https://soukoukai.jp/pages/35/",
    "pref": "神奈川県",
    "city": "葉山町",
    "category": "rouken",
    "serviceType": "介護老人保健施設",
    "capacity": 0,
    "openDays": [],
    "openDaysNote": ""
  },
  {
    "id": "1451180017",
    "name": "湘南グリーン介護老人保健施設　葉山（ユニット型）",
    "kana": "ショウナングリーンカイゴロウジンホケンシセツ　ハヤマ（ユニットガタ）",
    "address": "神奈川県三浦郡葉山町一色2448-1",
    "lat": 35.2680084,
    "lng": 139.5706004,
    "tel": "046-877-5660",
    "url": "https://soukoukai.jp/pages/35/",
    "pref": "神奈川県",
    "city": "葉山町",
    "category": "rouken",
    "serviceType": "介護老人保健施設",
    "capacity": null,
    "openDays": [],
    "openDaysNote": ""
  }
]