[
  {
    "id": "1850880038",
    "name": "加納老健",
    "kana": "カノウロウケン",
    "address": "あわら市花乃杜1-2-39",
    "lat": 36.2160385,
    "lng": 136.2245951,
    "tel": "0776-73-1002",
    "url": "http://www.kanouhp.jp/",
    "pref": "福井県",
    "city": "あわら市",
    "category": "rouken",
    "serviceType": "介護老人保健施設",
    "capacity": 29,
    "openDays": [],
    "openDaysNote": ""
  },
  {
    "id": "1850880012",
    "name": "介護老人保健施設　ナイスケア木村",
    "kana": "カイゴロウジンホケンシセツ　ナイスケアキムラ",
    "address": "福井県あわら市市姫3-23-4",
    "lat": 36.2091948,
    "lng": 136.22837,
    "tel": "0776-73-5678",
    "url": "http://kimura-hospital.jp/",
    "pref": "福井県",
    "city": "あわら市",
    "category": "rouken",
    "serviceType": "介護老人保健施設",
    "capacity": 0,
    "openDays": [],
    "openDaysNote": ""
  },
  {
    "id": "1852380029",
    "name": "介護老人保健施設　なごみ",
    "kana": "カイゴロウジンホケンシセツ　ナゴミ",
    "address": "福井県大飯郡おおい町本郷第92号51番地1",
    "lat": 35.474744,
    "lng": 135.624178,
    "tel": "0770-77-3184",
    "url": "http://www.jadecom.or.jp/jadecomhp/nagomi",
    "pref": "福井県",
    "city": "おおい町",
    "category": "rouken",
    "serviceType": "介護老人保健施設",
    "capacity": 0,
    "openDays": [],
    "openDaysNote": ""
  },
  {
    "id": "1850380013",
    "name": "シルバーハイツ武生",
    "kana": "シルバーハイツタケフ",
    "address": "越前市中央2-9-40",
    "lat": 35.9026927,
    "lng": 136.1564422,
    "tel": "0778-21-3111",
    "url": "http://aiki-hp.jp/",
    "pref": "福井県",
    "city": "越前市",
    "category": "rouken",
    "serviceType": "介護老人保健施設",
    "capacity": 136,
    "openDays": [],
    "openDaysNote": ""
  },
  {
    "id": "1850380021",
    "name": "介護老人保健施設　シルバーケア藤",
    "kana": "カイゴロウジンホケンシセツシルバーケアフジ",
    "address": "福井県越前市北府三丁目５番１号",
    "lat": 35.9109781,
    "lng": 136.1649523,
    "tel": "0778-22-8821",
    "url": "",
    "pref": "福井県",
    "city": "越前市",
    "category": "rouken",
    "serviceType": "介護老人保健施設",
    "capacity": 0,
    "openDays": [],
    "openDaysNote": ""
  },
  {
    "id": "1852380011",
    "name": "独立行政法人　地域医療機能推進機構　若狭高浜病院附属介護老人保健施設",
    "kana": "ドクリツギョウセイホウジン　ワカサタカハマビョウインフゾクカイゴロウジンホケンシセツ",
    "address": "大飯郡高浜町宮崎８７－１４－２",
    "lat": 35.4887754,
    "lng": 135.5462821,
    "tel": "0770-72-5115",
    "url": "http://takahama.jcho.go.jp/rouken/",
    "pref": "福井県",
    "city": "高浜町",
    "category": "rouken",
    "serviceType": "介護老人保健施設",
    "capacity": 0,
    "openDays": [],
    "openDaysNote": ""
  },
  {
    "id": "1871700975",
    "name": "介護老人保健施設　ライフケアはるさか",
    "kana": "カイゴロウジンホケンシセツ　ライフケアハルサカ",
    "address": "春江町中筋第100号77番地",
    "lat": 36.1273938,
    "lng": 136.2361783,
    "tel": "0776-58-0183",
    "url": "",
    "pref": "福井県",
    "city": "坂井市",
    "category": "rouken",
    "serviceType": "介護老人保健施設",
    "capacity": null,
    "openDays": [],
    "openDaysNote": ""
  },
  {
    "id": "1851780047",
    "name": "介護老人保健施設　東尋坊ひまわりの丘",
    "kana": "カイゴロウジンホケンシセツ　トウジンボウヒマワリノオカ",
    "address": "福井県坂井市三国町陣ヶ岡16-13-18",
    "lat": 36.2383927,
    "lng": 136.1421148,
    "tel": "0776-82-8500",
    "url": "http://fj-g.jp/",
    "pref": "福井県",
    "city": "坂井市",
    "category": "rouken",
    "serviceType": "介護老人保健施設",
    "capacity": 80,
    "openDays": [],
    "openDaysNote": ""
  },
  {
    "id": "1851780013",
    "name": "介護老人保健施設ディーパあかね",
    "kana": "カイゴロウジンホケンシセツディーパアカネ",
    "address": "福井県坂井市丸岡町羽崎31-11-3",
    "lat": 36.1151158,
    "lng": 136.2626235,
    "tel": "0776-67-0811",
    "url": "http://akanekai.net",
    "pref": "福井県",
    "city": "坂井市",
    "category": "rouken",
    "serviceType": "介護老人保健施設",
    "capacity": 0,
    "openDays": [],
    "openDaysNote": ""
  },
  {
    "id": "1851780021",
    "name": "坂井ケアセンター",
    "kana": "サカイケアセンター",
    "address": "福井県坂井市坂井町折戸第１号５８番地",
    "lat": 36.171583683372,
    "lng": 136.169951521426,
    "tel": "0776-72-7373",
    "url": "https://sakaicare.com/",
    "pref": "福井県",
    "city": "坂井市",
    "category": "rouken",
    "serviceType": "介護老人保健施設",
    "capacity": 0,
    "openDays": [],
    "openDaysNote": ""
  },
  {
    "id": "1850780014",
    "name": "リハビリセンター王山",
    "kana": "リハビリセンターオウザン",
    "address": "福井県鯖江市旭町１丁目3番22号",
    "lat": 35.9442307094452,
    "lng": 136.188322882803,
    "tel": "0778-51-7720",
    "url": "http://www4.ttn.ne.jp/~ohzan/",
    "pref": "福井県",
    "city": "鯖江市",
    "category": "rouken",
    "serviceType": "介護老人保健施設",
    "capacity": 62,
    "openDays": [],
    "openDaysNote": ""
  },
  {
    "id": "1850780022",
    "name": "鯖江ケアセンターみどり荘",
    "kana": "サバエケアセンタア　ミドリソウ",
    "address": "鯖江市中野町33-20-1",
    "lat": 35.9475163,
    "lng": 136.2061218,
    "tel": "0778-51-7540",
    "url": "http://higashiyamakai.org/m_kaigo/",
    "pref": "福井県",
    "city": "鯖江市",
    "category": "rouken",
    "serviceType": "介護老人保健施設",
    "capacity": 160,
    "openDays": [],
    "openDaysNote": ""
  },
  {
    "id": "1850780030",
    "name": "神明ケアセンター",
    "kana": "シンメイケアセンター",
    "address": "福井県鯖江市幸町１丁目2-2",
    "lat": 35.9731367,
    "lng": 136.1810822,
    "tel": "0778-51-8228",
    "url": "",
    "pref": "福井県",
    "city": "鯖江市",
    "category": "rouken",
    "serviceType": "介護老人保健施設",
    "capacity": 0,
    "openDays": [],
    "openDaysNote": ""
  },
  {
    "id": "1852480019",
    "name": "介護老人保健施設　ゆなみ",
    "kana": "カイゴロウジンホケンシセツ　ユナミ",
    "address": "福井県三方上中郡若狭町岩屋61-31",
    "lat": 35.5147443,
    "lng": 135.8941973,
    "tel": "0770-45-3200",
    "url": "http://www.tsurugaonsen-hp.or.jp/yunami/",
    "pref": "福井県",
    "city": "若狭町",
    "category": "rouken",
    "serviceType": "介護老人保健施設",
    "capacity": null,
    "openDays": [],
    "openDaysNote": ""
  },
  {
    "id": "1850680016",
    "name": "介護老人保健施設　鷲巣苑",
    "kana": "カイゴロウジンホケンシセツ　ワシスエン",
    "address": "福井県勝山市北郷町坂東島第８号２番地",
    "lat": 36.0810274,
    "lng": 136.4240688,
    "tel": "0779-89-3390",
    "url": "https://dainichien.net/washisuen/",
    "pref": "福井県",
    "city": "勝山市",
    "category": "rouken",
    "serviceType": "介護老人保健施設",
    "capacity": 63,
    "openDays": [],
    "openDaysNote": ""
  },
  {
    "id": "1850680032",
    "name": "福井勝山総合病院附属介護老人保健施設",
    "kana": "フクイカツヤマソウゴウビョウインフゾクカイゴロウジンホケンシセツ",
    "address": "福井県勝山市長山町2-6-21",
    "lat": 36.0708578,
    "lng": 136.5060888,
    "tel": "0779-87-3100",
    "url": "http://fukui.jcho.go.jp/rouken/",
    "pref": "福井県",
    "city": "勝山市",
    "category": "rouken",
    "serviceType": "介護老人保健施設",
    "capacity": 0,
    "openDays": [],
    "openDaysNote": ""
  },
  {
    "id": "1850480011",
    "name": "介護老人保健施設アクール若狭",
    "kana": "カイゴロウジンホケンシセツアクールワカサ",
    "address": "福井県小浜市大手町2-2",
    "lat": 35.4942738,
    "lng": 135.74668,
    "tel": "0770-52-0989",
    "url": "http://www.obamahp-wakasa.jp/aculu/",
    "pref": "福井県",
    "city": "小浜市",
    "category": "rouken",
    "serviceType": "介護老人保健施設",
    "capacity": 0,
    "openDays": [],
    "openDaysNote": ""
  },
  {
    "id": "1850580018",
    "name": "キラキラの町",
    "kana": "キラキラノマチ",
    "address": "大野市要町１－１３",
    "lat": 35.990482,
    "lng": 136.4890386,
    "tel": "０７７９－６６－７６７６",
    "url": "www.kirakirakai-matsuda.or.jp",
    "pref": "福井県",
    "city": "大野市",
    "category": "rouken",
    "serviceType": "介護老人保健施設",
    "capacity": 29,
    "openDays": [],
    "openDaysNote": ""
  },
  {
    "id": "1850280015",
    "name": "ヒバリヒルズ",
    "kana": "ヒバリヒルズ",
    "address": "福井県敦賀市ひばりヶ丘町249番地",
    "lat": 35.6237883,
    "lng": 136.0428537,
    "tel": "0770-22-8600",
    "url": "http://www.ihara-hp.or.jp/",
    "pref": "福井県",
    "city": "敦賀市",
    "category": "rouken",
    "serviceType": "介護老人保健施設",
    "capacity": 0,
    "openDays": [],
    "openDaysNote": ""
  },
  {
    "id": "1850280049",
    "name": "介護老人保健施設　リバーサイド気比の杜",
    "kana": "カイゴロウジンホケンシセツ　リバーサイドケヒノモリ",
    "address": "福井県敦賀市昭和町2-2801",
    "lat": 35.6402478,
    "lng": 136.0635567,
    "tel": "0770-20-1171",
    "url": "http://meihoukai.com/kehinomori/",
    "pref": "福井県",
    "city": "敦賀市",
    "category": "rouken",
    "serviceType": "介護老人保健施設",
    "capacity": 0,
    "openDays": [],
    "openDaysNote": ""
  },
  {
    "id": "1850280023",
    "name": "介護老人保健施設　リバーサイド気比の杜",
    "kana": "カイゴロウジンホケンシセツ　リバーサイドケヒノモリ",
    "address": "福井県敦賀市昭和町2-2801",
    "lat": 35.6402478,
    "lng": 136.0635567,
    "tel": "0770-20-1171",
    "url": "http://meihoukai.com/kehinomori/",
    "pref": "福井県",
    "city": "敦賀市",
    "category": "rouken",
    "serviceType": "介護老人保健施設",
    "capacity": 0,
    "openDays": [],
    "openDaysNote": ""
  },
  {
    "id": "1850280031",
    "name": "小規模サテライト型介護老人保健施設　「気比の風」",
    "kana": "ショウキボサテライトガタカイゴロウジンホケンシセツ　「ケヒノカゼ」",
    "address": "福井県敦賀市津内町３丁目６－２１",
    "lat": 35.6467752,
    "lng": 136.0700557,
    "tel": "0770-20-0211",
    "url": "https://meihoukai.com/service/kehinokaze/",
    "pref": "福井県",
    "city": "敦賀市",
    "category": "rouken",
    "serviceType": "介護老人保健施設",
    "capacity": 0,
    "openDays": [],
    "openDaysNote": ""
  },
  {
    "id": "1850280007",
    "name": "湯の里ナーシングホーム",
    "kana": "ユノサトナーシングホーム",
    "address": "福井県敦賀市中８１号岩ケ鼻1-11",
    "lat": 35.6384289333802,
    "lng": 136.087329246884,
    "tel": "0770-22-4400",
    "url": "http://yunosato.jimdo.com/",
    "pref": "福井県",
    "city": "敦賀市",
    "category": "rouken",
    "serviceType": "介護老人保健施設",
    "capacity": 0,
    "openDays": [],
    "openDaysNote": ""
  },
  {
    "id": "1851980019",
    "name": "シルバーケア日野",
    "kana": "シルバーケアヒノ",
    "address": "南条郡南越前町東大道33-10-1",
    "lat": 35.8336476,
    "lng": 136.19421,
    "tel": "0778-47-3270",
    "url": "http://www.yamamoto-naikaiin.com/hino",
    "pref": "福井県",
    "city": "南越前町",
    "category": "rouken",
    "serviceType": "介護老人保健施設",
    "capacity": null,
    "openDays": [],
    "openDaysNote": ""
  },
  {
    "id": "1851980035",
    "name": "今庄老人保健施設",
    "kana": "イマジョウロウジンホケンシセツ",
    "address": "福井県南条郡南越前町今庄84-26",
    "lat": 35.7724385,
    "lng": 136.2006347,
    "tel": "0778-45-1724",
    "url": "https:www.town.minamiechizen.lg.jp/sisetu/3004/p001123.html",
    "pref": "福井県",
    "city": "南越前町",
    "category": "rouken",
    "serviceType": "介護老人保健施設",
    "capacity": 0,
    "openDays": [],
    "openDaysNote": ""
  },
  {
    "id": "1850180116",
    "name": "ひかりケアホーム",
    "kana": "ヒカリケアホーム",
    "address": "板垣５丁目２０１奥村病院・ひかりケアホーム 奥村病院・ひかりケアホーム",
    "lat": 36.0442511,
    "lng": 136.2282103,
    "tel": "0776-33-1600",
    "url": "hikaricare@hikarigroup.jp",
    "pref": "福井県",
    "city": "福井市",
    "category": "rouken",
    "serviceType": "介護老人保健施設",
    "capacity": 0,
    "openDays": [],
    "openDaysNote": ""
  },
  {
    "id": "1850180108",
    "name": "介護療養型老人保健施設　さくら",
    "kana": "カイゴリョウヨウガタロウジンホケンシセツ　サクラ",
    "address": "福井市花堂東2丁目408番地",
    "lat": 36.041787,
    "lng": 136.2228171,
    "tel": "0776-34-3500",
    "url": "http://sensuikai.jp/",
    "pref": "福井県",
    "city": "福井市",
    "category": "rouken",
    "serviceType": "介護老人保健施設",
    "capacity": 0,
    "openDays": [],
    "openDaysNote": ""
  },
  {
    "id": "1850180090",
    "name": "介護老人保健施設　あじさい",
    "kana": "カイゴロウジンホケンシセツ　アジサイ",
    "address": "福井県福井市西下野町１５－１２",
    "lat": 36.0653853,
    "lng": 136.1644835,
    "tel": "0776-33-5911",
    "url": "http://www.kotobukinokai.com/ajisai",
    "pref": "福井県",
    "city": "福井市",
    "category": "rouken",
    "serviceType": "介護老人保健施設",
    "capacity": 100,
    "openDays": [],
    "openDaysNote": ""
  },
  {
    "id": "1850180066",
    "name": "介護老人保健施設　アルマ千寿",
    "kana": "カイゴロウジンホケンシセツ　アルマセンジュ",
    "address": "福井県福井市川合鷲塚町４９－５",
    "lat": 36.1135839200133,
    "lng": 136.212777711423,
    "tel": "0776-55-1600",
    "url": "http://www.senjukai.com",
    "pref": "福井県",
    "city": "福井市",
    "category": "rouken",
    "serviceType": "介護老人保健施設",
    "capacity": 100,
    "openDays": [],
    "openDaysNote": ""
  },
  {
    "id": "1850180041",
    "name": "介護老人保健施設　ヴィラ岩井",
    "kana": "カイゴロウジンホケンシセツ　ゔィライワイ",
    "address": "福井市日之出２丁目１３－２",
    "lat": 36.0636228,
    "lng": 136.2273405,
    "tel": "0776-24-0177",
    "url": "http://www.horae.dti.ne.jp/~akio-i/",
    "pref": "福井県",
    "city": "福井市",
    "category": "rouken",
    "serviceType": "介護老人保健施設",
    "capacity": 0,
    "openDays": [],
    "openDaysNote": ""
  },
  {
    "id": "1850180058",
    "name": "介護老人保健施設　ひかりケアホーム",
    "kana": "カイゴロウジンホケンシセツ　ヒカリケアホーム",
    "address": "福井市板垣5丁目201",
    "lat": 36.044252696781,
    "lng": 136.228041890104,
    "tel": "0776-33-1600",
    "url": "http://www.hikarigroup.jp",
    "pref": "福井県",
    "city": "福井市",
    "category": "rouken",
    "serviceType": "介護老人保健施設",
    "capacity": 0,
    "openDays": [],
    "openDaysNote": ""
  },
  {
    "id": "1850180025",
    "name": "介護老人保健施設　福井ケアセンター",
    "kana": "カイゴロウジンホケンシセツ　フクイケアセンター",
    "address": "福井県福井市乾徳４丁目５番８号",
    "lat": 36.0714381,
    "lng": 136.2050203,
    "tel": "0776-26-5155",
    "url": "http://www.otaki-hp.or.jp/group/fukui-carecenter/",
    "pref": "福井県",
    "city": "福井市",
    "category": "rouken",
    "serviceType": "介護老人保健施設",
    "capacity": 0,
    "openDays": [],
    "openDaysNote": ""
  },
  {
    "id": "1850180033",
    "name": "九頭竜長生苑",
    "kana": "クズリュウチョウセイエン",
    "address": "福井県福井市寺前町２－２－２",
    "lat": 36.1032184,
    "lng": 136.2342292,
    "tel": "0776-54-4681",
    "url": "http://fukusenkai.jp/",
    "pref": "福井県",
    "city": "福井市",
    "category": "rouken",
    "serviceType": "介護老人保健施設",
    "capacity": 0,
    "openDays": [],
    "openDaysNote": ""
  },
  {
    "id": "1850180074",
    "name": "新田塚ハイツ",
    "kana": "ニッタヅカハイツ",
    "address": "福井市新田塚町５０６番地",
    "lat": 36.0882389,
    "lng": 136.2101869,
    "tel": "0776-22-8367",
    "url": "https://www.f-gh.jp/househeights/househeights.html",
    "pref": "福井県",
    "city": "福井市",
    "category": "rouken",
    "serviceType": "介護老人保健施設",
    "capacity": 0,
    "openDays": [],
    "openDaysNote": ""
  },
  {
    "id": "1850180082",
    "name": "福井県済生会介護老人保健施設　ケアホームさいせい",
    "kana": "フクイケンサイセイカイカイゴロウジンホケンシセツケアホームサイセイ",
    "address": "福井市和田中町徳万28",
    "lat": 36.0410595,
    "lng": 136.2471018,
    "tel": "0776-30-7660",
    "url": "http://carehomesaisei.server-shared.com/",
    "pref": "福井県",
    "city": "福井市",
    "category": "rouken",
    "serviceType": "介護老人保健施設",
    "capacity": 0,
    "openDays": [],
    "openDaysNote": ""
  }
]