[
  {
    "id": "4053380079",
    "name": "介護老人保健施設うきは",
    "kana": "カイゴロウジンホケンシセツウキハ",
    "address": "福岡県うきは市浮羽町古川1053番地の8",
    "lat": 33.3575308,
    "lng": 130.8100768,
    "tel": "0943-77-8282",
    "url": "https://onsen-hp.or.jp",
    "pref": "福岡県",
    "city": "うきは市",
    "category": "rouken",
    "serviceType": "介護老人保健施設",
    "capacity": 0,
    "openDays": [],
    "openDaysNote": ""
  },
  {
    "id": "4057380083",
    "name": "アデリーヌみやこ",
    "kana": "アデリーヌミヤコ",
    "address": "福岡県京都郡みやこ町豊津２１２８番地",
    "lat": 33.6638187,
    "lng": 130.9735837,
    "tel": "0930-33-5688",
    "url": "http://www.forise.net/sei10/company/seiyukai/adeline‐miyako.html",
    "pref": "福岡県",
    "city": "みやこ町",
    "category": "rouken",
    "serviceType": "介護老人保健施設",
    "capacity": 100,
    "openDays": [],
    "openDaysNote": ""
  },
  {
    "id": "4057380117",
    "name": "介護老人保健施設　御所",
    "kana": "カイゴロウジンホケンシセツ　ゴショ",
    "address": "福岡県京都郡みやこ町勝山箕田317",
    "lat": 33.6923091,
    "lng": 130.9065028,
    "tel": "0930-32-2311",
    "url": "http://www.youmeikai.jp/",
    "pref": "福岡県",
    "city": "みやこ町",
    "category": "rouken",
    "serviceType": "介護老人保健施設",
    "capacity": null,
    "openDays": [],
    "openDaysNote": ""
  },
  {
    "id": "4057380109",
    "name": "介護老人保健施設　菖蒲",
    "kana": "カイゴロウジンホケンシセツ　ショウブ",
    "address": "福岡県京都郡みやこ町勝山箕田317番地",
    "lat": 33.6931794486853,
    "lng": 130.90576787473,
    "tel": "0930-32-2311",
    "url": "http://www.youmeikai.jp/",
    "pref": "福岡県",
    "city": "みやこ町",
    "category": "rouken",
    "serviceType": "介護老人保健施設",
    "capacity": null,
    "openDays": [],
    "openDaysNote": ""
  },
  {
    "id": "4054280096",
    "name": "介護老人保健施設　アルテンハイムヨコクラ",
    "kana": "カイゴロウジンホケンシセツ　アルテンハイムヨコクラ",
    "address": "福岡県みやま市高田町濃施409",
    "lat": 33.0992526,
    "lng": 130.4596417,
    "tel": "0944-22-6751",
    "url": "https://yokokura-hp.or.jp",
    "pref": "福岡県",
    "city": "みやま市",
    "category": "rouken",
    "serviceType": "介護老人保健施設",
    "capacity": 0,
    "openDays": [],
    "openDaysNote": ""
  },
  {
    "id": "4054280070",
    "name": "介護老人保健施設　こうわか苑",
    "kana": "カイゴロウジンホケンシセツ　コウワカエン",
    "address": "福岡県みやま市瀬高町大江1687番地2",
    "lat": 33.1421486,
    "lng": 130.4841113,
    "tel": "0944-63-8888",
    "url": "http://www.ykta.jp/kouwakaen",
    "pref": "福岡県",
    "city": "みやま市",
    "category": "rouken",
    "serviceType": "介護老人保健施設",
    "capacity": 0,
    "openDays": [],
    "openDaysNote": ""
  },
  {
    "id": "4054280047",
    "name": "介護老人保健施設　寿苑",
    "kana": "カイゴロウジンホケンシセツ　コトブキエン",
    "address": "福岡県みやま市瀬高町坂田59-1",
    "lat": 33.1663409,
    "lng": 130.4983742,
    "tel": "0944-63-3943",
    "url": "http://www.k-kotobukien.com",
    "pref": "福岡県",
    "city": "みやま市",
    "category": "rouken",
    "serviceType": "介護老人保健施設",
    "capacity": 76,
    "openDays": [],
    "openDaysNote": ""
  },
  {
    "id": "4056180096",
    "name": "リカバリーセンターひびき",
    "kana": "リカバリーセンターヒビキ",
    "address": "福岡県遠賀郡芦屋町大字芦屋1145-3",
    "lat": 33.8713257,
    "lng": 130.6498612,
    "tel": "093-222-1717",
    "url": "http://www.hibiki.or.jp",
    "pref": "福岡県",
    "city": "芦屋町",
    "category": "rouken",
    "serviceType": "介護老人保健施設",
    "capacity": 0,
    "openDays": [],
    "openDaysNote": ""
  },
  {
    "id": "4055180113",
    "name": "地方独立行政法人くらて病院介護老人保健施設　鞍寿の里",
    "kana": "チホウドクリツギョウセイホウジンクラテビョウイン　カイゴロウジンホケンシセツ　アンジュノサト",
    "address": "福岡県鞍手郡鞍手町大字中山2425-8",
    "lat": 33.7852529,
    "lng": 130.6876737,
    "tel": "0949-42-1233",
    "url": "http://kurate-hp.com/anju_no_sato/index.html",
    "pref": "福岡県",
    "city": "鞍手町",
    "category": "rouken",
    "serviceType": "介護老人保健施設",
    "capacity": 60,
    "openDays": [],
    "openDaysNote": ""
  },
  {
    "id": "4056180127",
    "name": "介護老人保健施設　すずらん",
    "kana": "カイゴロウジンホケンシセツ　スズラン",
    "address": "福岡県遠賀郡遠賀町大字木守１１８９番地",
    "lat": 33.8364618561138,
    "lng": 130.667772241403,
    "tel": "０９３－７０１－７７３１",
    "url": "www.kenai.or.jp/",
    "pref": "福岡県",
    "city": "遠賀町",
    "category": "rouken",
    "serviceType": "介護老人保健施設",
    "capacity": 0,
    "openDays": [],
    "openDaysNote": ""
  },
  {
    "id": "4056180112",
    "name": "介護老人保健施設　更生会にじの郷",
    "kana": "カイゴロウジンホケンシセツ　コウセイカイニジノサト",
    "address": "福岡県遠賀郡岡垣町中央台3丁目22番1号",
    "lat": 33.847855097159,
    "lng": 130.622654504845,
    "tel": "093-283-3484",
    "url": "https://nihonsyouisya.jp/",
    "pref": "福岡県",
    "city": "岡垣町",
    "category": "rouken",
    "serviceType": "介護老人保健施設",
    "capacity": 80,
    "openDays": [],
    "openDaysNote": ""
  },
  {
    "id": "4056180088",
    "name": "高倉苑",
    "kana": "タカクラエン",
    "address": "福岡県遠賀郡岡垣町公園通り１－７－１",
    "lat": 33.8488887,
    "lng": 130.611132,
    "tel": "093-282-1557",
    "url": "http://www.takakuraen.com",
    "pref": "福岡県",
    "city": "岡垣町",
    "category": "rouken",
    "serviceType": "介護老人保健施設",
    "capacity": 119,
    "openDays": [],
    "openDaysNote": ""
  },
  {
    "id": "4055780086",
    "name": "介護老人保健施設　シルバーケア嘉穂",
    "kana": "カイゴロウジンホケンシセツ　シルバーケアカホ",
    "address": "嘉麻市鴨生480番地1",
    "lat": 33.6077473457516,
    "lng": 130.724130417197,
    "tel": "0948-43-1777",
    "url": "http://care-net.biz/40/silvercarekaho/",
    "pref": "福岡県",
    "city": "嘉麻市",
    "category": "rouken",
    "serviceType": "介護老人保健施設",
    "capacity": 100,
    "openDays": [],
    "openDaysNote": ""
  },
  {
    "id": "4055780078",
    "name": "介護老人保健施設　ほ乃ぼの園",
    "kana": "カイゴロウジンホケンシセツホノボノエン",
    "address": "福岡県嘉麻市馬見64番地2",
    "lat": 33.5301257,
    "lng": 130.7541191,
    "tel": "0948-57-0505",
    "url": "http://www.himawarikai.net/",
    "pref": "福岡県",
    "city": "嘉麻市",
    "category": "rouken",
    "serviceType": "介護老人保健施設",
    "capacity": 100,
    "openDays": [],
    "openDaysNote": ""
  },
  {
    "id": "4057380091",
    "name": "介護老人保健施設　博愛苑",
    "kana": "カイゴロウジンホケンシセツ　ハクアイエン",
    "address": "福岡県京都郡苅田町大字提字唐松2781番地",
    "lat": 33.7759209,
    "lng": 130.9805103,
    "tel": "093-436-0743",
    "url": "http://www.hakuaikai-group.jp/hakuaien/",
    "pref": "福岡県",
    "city": "苅田町",
    "category": "rouken",
    "serviceType": "介護老人保健施設",
    "capacity": 0,
    "openDays": [],
    "openDaysNote": ""
  },
  {
    "id": "4057380125",
    "name": "介護老人保健施設こもれび",
    "kana": "カイゴロウジンホケンシセツコモレビ",
    "address": "福岡県京都郡苅田町大字法正寺５６８番地",
    "lat": 33.7486728,
    "lng": 130.9276733,
    "tel": "0930-23-3612",
    "url": "https://www.hakujukai-med.org/",
    "pref": "福岡県",
    "city": "苅田町",
    "category": "rouken",
    "serviceType": "介護老人保健施設",
    "capacity": 96,
    "openDays": [],
    "openDaysNote": ""
  },
  {
    "id": "4052280098",
    "name": "介護老人保健施設　ヴィラくしはら",
    "kana": "カイゴロウジンホケンシセツ　ヴィラクシハラ",
    "address": "久留米市東櫛原町１３５６",
    "lat": 33.3242614,
    "lng": 130.5225305,
    "tel": "0942-30-0100",
    "url": "http://www.villa-kushihara-pr.jp/",
    "pref": "福岡県",
    "city": "久留米市",
    "category": "rouken",
    "serviceType": "介護老人保健施設",
    "capacity": 0,
    "openDays": [],
    "openDaysNote": ""
  },
  {
    "id": "4052280130",
    "name": "介護老人保健施設　こが２１",
    "kana": "カイゴロウジンホケンシセツ　コガ２１",
    "address": "福岡県久留米市宮ノ陣3丁目3番9号",
    "lat": 33.3360507471618,
    "lng": 130.536627851065,
    "tel": "0942-38-3386",
    "url": "http://www.tenjinkai.or.jp/page/kaigo/index.html",
    "pref": "福岡県",
    "city": "久留米市",
    "category": "rouken",
    "serviceType": "介護老人保健施設",
    "capacity": 60,
    "openDays": [],
    "openDaysNote": ""
  },
  {
    "id": "4052280106",
    "name": "介護老人保健施設　サンダイヤル",
    "kana": "カイゴロウジンホケンシセツ　サンダイヤル",
    "address": "福岡県久留米市西町６３６番地",
    "lat": 33.3037099,
    "lng": 130.5169776,
    "tel": "0942-31-1255",
    "url": "http://www.horikawa.or.jp",
    "pref": "福岡県",
    "city": "久留米市",
    "category": "rouken",
    "serviceType": "介護老人保健施設",
    "capacity": 0,
    "openDays": [],
    "openDaysNote": ""
  },
  {
    "id": "4052780006",
    "name": "介護老人保健施設　サンライフ聖峰",
    "kana": "カイゴロウジンホケンシセツ　サンライフセイホウ",
    "address": "福岡県久留米市田主丸町田主丸1001-2",
    "lat": 33.3365099,
    "lng": 130.6907556,
    "tel": "0943-72-3446",
    "url": "https://seihoukai.or.jp/facility/sunlife/",
    "pref": "福岡県",
    "city": "久留米市",
    "category": "rouken",
    "serviceType": "介護老人保健施設",
    "capacity": 100,
    "openDays": [],
    "openDaysNote": ""
  },
  {
    "id": "4052280072",
    "name": "介護老人保健施設　高良台",
    "kana": "カイゴロウジンホケンシセツ　コウラダイ",
    "address": "久留米市荒木町荒木2020",
    "lat": 33.2632372222609,
    "lng": 130.509207730453,
    "tel": "0942-51-3777",
    "url": "http://www.kyueikai.jp/",
    "pref": "福岡県",
    "city": "久留米市",
    "category": "rouken",
    "serviceType": "介護老人保健施設",
    "capacity": 100,
    "openDays": [],
    "openDaysNote": ""
  },
  {
    "id": "4052280080",
    "name": "介護老人保健施設　聖母の家",
    "kana": "カイゴロウジンホケンシセツ　セイボノイエ",
    "address": "福岡県久留米市津福本町387-1",
    "lat": 33.3042405634033,
    "lng": 130.507550433205,
    "tel": "0942-34-3573",
    "url": "http:/www.st-mary-med.or.jp",
    "pref": "福岡県",
    "city": "久留米市",
    "category": "rouken",
    "serviceType": "介護老人保健施設",
    "capacity": 100,
    "openDays": [],
    "openDaysNote": ""
  },
  {
    "id": "4052280122",
    "name": "介護老人保健施設　明星苑コスモス",
    "kana": "カイゴロウジンホケンシセツ　ミョウジョウエンコスモス",
    "address": "福岡県久留米市国分町991-1",
    "lat": 33.2918532946774,
    "lng": 130.534357453143,
    "tel": "0942-21-0775",
    "url": "http://www.tsuji-i.com/cosmos.html",
    "pref": "福岡県",
    "city": "久留米市",
    "category": "rouken",
    "serviceType": "介護老人保健施設",
    "capacity": 70,
    "openDays": [],
    "openDaysNote": ""
  },
  {
    "id": "4052280114",
    "name": "独立行政法人地域医療機能推進機構　久留米総合病院附属介護老人保健施設",
    "kana": "ドクリツギョウセイホウジンチイキイリョウキノウスイシンキコウ　クルメソウゴウビョウインフゾクカイゴロウジンホケンシセツ",
    "address": "福岡県久留米市櫛原町２１番地",
    "lat": 33.3188420861553,
    "lng": 130.51367890741,
    "tel": "0942-33-1211",
    "url": "http://kurume.jcho.go.jp/",
    "pref": "福岡県",
    "city": "久留米市",
    "category": "rouken",
    "serviceType": "介護老人保健施設",
    "capacity": 0,
    "openDays": [],
    "openDaysNote": ""
  },
  {
    "id": "4055880100",
    "name": "介護老人保健施設　けいあい",
    "kana": "カイゴロウジンホケンシセツ　ケイアイ",
    "address": "福岡県宮若市宮田４７９５",
    "lat": 33.7256284,
    "lng": 130.6627245,
    "tel": "0949-32-0323",
    "url": "http://keiaiclinic.or.jp/",
    "pref": "福岡県",
    "city": "宮若市",
    "category": "rouken",
    "serviceType": "介護老人保健施設",
    "capacity": 0,
    "openDays": [],
    "openDaysNote": ""
  },
  {
    "id": "4055880084",
    "name": "介護老人保健施設　リストーロ若宮",
    "kana": "カイゴロウジンホケンシセツ　リストーロワカミヤ",
    "address": "福岡県宮若市沼口９６４番地１",
    "lat": 33.7364651,
    "lng": 130.6110747,
    "tel": "0949-52-3336",
    "url": "http://www.shiseikai.jp/",
    "pref": "福岡県",
    "city": "宮若市",
    "category": "rouken",
    "serviceType": "介護老人保健施設",
    "capacity": 70,
    "openDays": [],
    "openDaysNote": ""
  },
  {
    "id": "4055880092",
    "name": "介護老人保健施設なびき苑",
    "kana": "カイゴロウジンホケンシセツナビキエン",
    "address": "福岡県宮若市下有木1517-1",
    "lat": 33.7509722,
    "lng": 130.6235402,
    "tel": "0949-33-3988",
    "url": "nabiki.mints.ne.jp/",
    "pref": "福岡県",
    "city": "宮若市",
    "category": "rouken",
    "serviceType": "介護老人保健施設",
    "capacity": 0,
    "openDays": [],
    "openDaysNote": ""
  },
  {
    "id": "4055280111",
    "name": "介護老人保健施設さくら園",
    "kana": "カイゴロウジンホケンシセツサクラエン",
    "address": "福岡県嘉穂郡桂川町大字土居８７７番地",
    "lat": 33.5889405,
    "lng": 130.6732317,
    "tel": "0948-65-5550",
    "url": "https://sakuraen5550.jp",
    "pref": "福岡県",
    "city": "桂川町",
    "category": "rouken",
    "serviceType": "介護老人保健施設",
    "capacity": null,
    "openDays": [],
    "openDaysNote": ""
  },
  {
    "id": "4053580082",
    "name": "介護老人保健施設舞風台",
    "kana": "カイゴロウジンホケンシセツブフウダイ",
    "address": "福岡県八女郡広川町大字水原1498番地",
    "lat": 33.242734,
    "lng": 130.5897963,
    "tel": "0943-32-0333",
    "url": "htt://www.yh-bufudai.jp/",
    "pref": "福岡県",
    "city": "広川町",
    "category": "rouken",
    "serviceType": "介護老人保健施設",
    "capacity": 46,
    "openDays": [],
    "openDaysNote": ""
  },
  {
    "id": "4053580090",
    "name": "介護老人保健施設舞風台ユニットケア棟",
    "kana": "カイゴロウジンホケンシセツブフウダイユニットケアトウ",
    "address": "福岡県八女郡広川町大字水原1498番地",
    "lat": 33.242784699963,
    "lng": 130.589807157533,
    "tel": "0943-32-0333",
    "url": "http://www.yh-bufudai.jp/",
    "pref": "福岡県",
    "city": "広川町",
    "category": "rouken",
    "serviceType": "介護老人保健施設",
    "capacity": 0,
    "openDays": [],
    "openDaysNote": ""
  },
  {
    "id": "4057580039",
    "name": "介護老人保健施設　行橋園",
    "kana": "カイゴロウジンホケンシセツ　ユクハシエン",
    "address": "行橋市北泉3丁目11-1",
    "lat": 33.7162788286934,
    "lng": 130.990110389549,
    "tel": "0930-25-3434",
    "url": "http://www.yukuhashi-hp.or.jp/yukuhashien/",
    "pref": "福岡県",
    "city": "行橋市",
    "category": "rouken",
    "serviceType": "介護老人保健施設",
    "capacity": 0,
    "openDays": [],
    "openDaysNote": ""
  },
  {
    "id": "4059580029",
    "name": "介護老人保健施設ユニット型レイクヴィラたぎり",
    "kana": "カイゴロウジンホケンシセツユニットガタレイクウ‘ィラタギリ",
    "address": "福岡県田川郡糸田町字木実浦870-3介護老人保健施設ユニット型レイクヴィラたぎり 介護老人保健施設ユニット型レイクヴィラたぎり",
    "lat": 33.6489577932376,
    "lng": 130.766755678157,
    "tel": "0947-47-6000",
    "url": "http://www.lakevillatagiri.sakura.ne.jp/ask.html",
    "pref": "福岡県",
    "city": "糸田町",
    "category": "rouken",
    "serviceType": "介護老人保健施設",
    "capacity": 20,
    "openDays": [],
    "openDaysNote": ""
  },
  {
    "id": "4059580011",
    "name": "介護老人保健施設レイクヴィラたぎり",
    "kana": "カイゴロウジンホケンシセツレイクウ‘ィラタギリ",
    "address": "福岡県田川郡糸田町字木実浦870-3介護老人保健施設レイクヴィラたぎり 介護老人保健施設レイクヴィラたぎり",
    "lat": 33.6489176028329,
    "lng": 130.766798593501,
    "tel": "947476000",
    "url": "http://www.lakevillatagiri.sakura.ne.jp/",
    "pref": "福岡県",
    "city": "糸田町",
    "category": "rouken",
    "serviceType": "介護老人保健施設",
    "capacity": 60,
    "openDays": [],
    "openDaysNote": ""
  },
  {
    "id": "4052080076",
    "name": "介護老人保健施設　ケアプラザ伊都",
    "kana": "カイゴロウジンホケンシセツ　ケアプラザイト",
    "address": "福岡県糸島市波多江223-1",
    "lat": 33.5582798,
    "lng": 130.2314845,
    "tel": "092-322-5116",
    "url": "http://www.tomogiku.or.jp/",
    "pref": "福岡県",
    "city": "糸島市",
    "category": "rouken",
    "serviceType": "介護老人保健施設",
    "capacity": 100,
    "openDays": [],
    "openDaysNote": ""
  },
  {
    "id": "4052080084",
    "name": "介護老人保健施設　まえばる老健センター",
    "kana": "カイゴロウジンホケンシセツ　マエバルロウケンセンター",
    "address": "福岡県糸島市志登567-1",
    "lat": 33.5718442,
    "lng": 130.2180105,
    "tel": "092-323-2211",
    "url": "http://www.keishin.or.jp/maebarurouken/",
    "pref": "福岡県",
    "city": "糸島市",
    "category": "rouken",
    "serviceType": "介護老人保健施設",
    "capacity": 0,
    "openDays": [],
    "openDaysNote": ""
  },
  {
    "id": "4052080126",
    "name": "介護老人保健施設おおた",
    "kana": "カイゴロウジンホケンシセツオオタ",
    "address": "福岡県糸島市浦志二丁目２１番２１号",
    "lat": 33.5616759,
    "lng": 130.2101033,
    "tel": "092-323-1251",
    "url": "",
    "pref": "福岡県",
    "city": "糸島市",
    "category": "rouken",
    "serviceType": "介護老人保健施設",
    "capacity": 18,
    "openDays": [],
    "openDaysNote": ""
  },
  {
    "id": "4052080134",
    "name": "介護老人保健施設ふくせい",
    "kana": "カイゴロウジンホケンシセツフクセイ",
    "address": "福岡県糸島市高田4-24-1",
    "lat": 33.572692,
    "lng": 130.2393085,
    "tel": "092-324-0676",
    "url": "fukuyo-naika.com",
    "pref": "福岡県",
    "city": "糸島市",
    "category": "rouken",
    "serviceType": "介護老人保健施設",
    "capacity": null,
    "openDays": [],
    "openDaysNote": ""
  },
  {
    "id": "4052080118",
    "name": "介護老人保健施設ふる里",
    "kana": "カイゴロウジンホケンシセツフルサト",
    "address": "福岡県糸島市二丈深江２３５９－２",
    "lat": 33.5084687,
    "lng": 130.1325728,
    "tel": "092-325-2333",
    "url": "http://furusato1995.com/",
    "pref": "福岡県",
    "city": "糸島市",
    "category": "rouken",
    "serviceType": "介護老人保健施設",
    "capacity": 100,
    "openDays": [],
    "openDaysNote": ""
  },
  {
    "id": "4052080100",
    "name": "志摩老健センター・パキス",
    "kana": "シマロウケンセンター・パキス",
    "address": "福岡県糸島市志摩小富士257",
    "lat": 33.5643744,
    "lng": 130.182695,
    "tel": "092-327-2000",
    "url": "http://hataegeka.or.jp/pacis/",
    "pref": "福岡県",
    "city": "糸島市",
    "category": "rouken",
    "serviceType": "介護老人保健施設",
    "capacity": 0,
    "openDays": [],
    "openDaysNote": ""
  },
  {
    "id": "4050480112",
    "name": "医療法人井上会　介護老人保健施設サンライフ陽光苑",
    "kana": "イリョウホウジン　イノウエカイ　サンライフヨウコウエン",
    "address": "福岡県糟屋郡篠栗町田中1丁目10番1号",
    "lat": 33.6243696,
    "lng": 130.5214623,
    "tel": "092-947-1107",
    "url": "http://www.sasaguri.or.jp",
    "pref": "福岡県",
    "city": "篠栗町",
    "category": "rouken",
    "serviceType": "介護老人保健施設",
    "capacity": 0,
    "openDays": [],
    "openDaysNote": ""
  },
  {
    "id": "4050480096",
    "name": "医療法人泯江堂三野原病院介護老人保健施設　ささぐり泯江苑",
    "kana": "イリョウホウジンミンコウドウミノハラビョウインカイゴロウジンホケンシセツササグリミンコウエン",
    "address": "福岡県糟屋郡篠栗町大字金出3558-2",
    "lat": 33.624157543883,
    "lng": 130.536679464232,
    "tel": "092-947-0350",
    "url": "http://www.minkodo-minohara.com/",
    "pref": "福岡県",
    "city": "篠栗町",
    "category": "rouken",
    "serviceType": "介護老人保健施設",
    "capacity": 100,
    "openDays": [],
    "openDaysNote": ""
  },
  {
    "id": "4050680075",
    "name": "介護老人保健施設宗像アコール",
    "kana": "カイゴロウジンホケンシセツムナカタアコール",
    "address": "福岡県宗像市光岡１３０",
    "lat": 33.787678,
    "lng": 130.5593199,
    "tel": "0940-36-8181",
    "url": "http://www.ako-ru.jp",
    "pref": "福岡県",
    "city": "宗像市",
    "category": "rouken",
    "serviceType": "介護老人保健施設",
    "capacity": 100,
    "openDays": [],
    "openDaysNote": ""
  },
  {
    "id": "4050680083",
    "name": "宗像医師会介護老人保健施設よつづか",
    "kana": "ムナカタイシカイカイゴロウジンホケンシセツヨツヅカ",
    "address": "福岡県宗像市田熊五丁目５番６号",
    "lat": 33.7995678,
    "lng": 130.5284972,
    "tel": "0940-37-0681",
    "url": "http://www.munakata-med.or.jp",
    "pref": "福岡県",
    "city": "宗像市",
    "category": "rouken",
    "serviceType": "介護老人保健施設",
    "capacity": 0,
    "openDays": [],
    "openDaysNote": ""
  },
  {
    "id": "4051680074",
    "name": "医療法人つくし会病院　介護老人保健施設はなつくし",
    "kana": "イリョウホウジンツクシカイビョウイン　カイゴロウジンホケンシセツハナツクシ",
    "address": "福岡県春日市宝町３丁目２３番１号",
    "lat": 33.5339734,
    "lng": 130.4618341,
    "tel": "092-585-4666",
    "url": "http://www.tsukushi-kai.com/hanatsukushi/index.html",
    "pref": "福岡県",
    "city": "春日市",
    "category": "rouken",
    "serviceType": "介護老人保健施設",
    "capacity": 80,
    "openDays": [],
    "openDaysNote": ""
  },
  {
    "id": "4052680016",
    "name": "介護老人保健施設　しらさぎ苑",
    "kana": "カイゴロウジンホケンシセツ　シラサギエン",
    "address": "福岡県小郡市三沢字花聳８５１－１",
    "lat": 33.4199806,
    "lng": 130.5434891,
    "tel": "0942-75-7291",
    "url": "http://www.chouseikai.jp/",
    "pref": "福岡県",
    "city": "小郡市",
    "category": "rouken",
    "serviceType": "介護老人保健施設",
    "capacity": 100,
    "openDays": [],
    "openDaysNote": ""
  },
  {
    "id": "4052980035",
    "name": "介護老人保健施設　弥生園",
    "kana": "カイゴロウジンホケンシセツ　ヤヨイエン",
    "address": "福岡県小郡市山隈273-8",
    "lat": 33.408469,
    "lng": 130.5963188,
    "tel": "0942-41-2888",
    "url": "https://www.tenjinkai.or.jp/welfare/service/yayoien",
    "pref": "福岡県",
    "city": "小郡市",
    "category": "rouken",
    "serviceType": "介護老人保健施設",
    "capacity": null,
    "openDays": [],
    "openDaysNote": ""
  },
  {
    "id": "4055180121",
    "name": "ユニット型介護老人保健施設　きんもくせい",
    "kana": "ユニットガタカイゴロウジンホケンシセツ　キンモクセイ",
    "address": "福岡県鞍手郡小竹町大字勝野４２０４－１５１",
    "lat": 33.6854391,
    "lng": 130.6994996,
    "tel": "0949-62-8870",
    "url": "http://fukuoka-shinwakai.jp",
    "pref": "福岡県",
    "city": "小竹町",
    "category": "rouken",
    "serviceType": "介護老人保健施設",
    "capacity": 17,
    "openDays": [],
    "openDaysNote": ""
  },
  {
    "id": "4055180089",
    "name": "介護老人保健施設　きんもくせい",
    "kana": "カイゴロウジンホケンシセツキンモクセイ",
    "address": "福岡県鞍手郡小竹町大字勝野４２０４－１５１",
    "lat": 33.6854391,
    "lng": 130.6994996,
    "tel": "0949-62-8870",
    "url": "f-shinwakai.or.jp",
    "pref": "福岡県",
    "city": "小竹町",
    "category": "rouken",
    "serviceType": "介護老人保健施設",
    "capacity": 8,
    "openDays": [],
    "openDaysNote": ""
  },
  {
    "id": "4050480070",
    "name": "介護老人保健施設　　　　　若　杉　の　里",
    "kana": "カイゴロウジンホケンシセツ　　ワカスギノサト",
    "address": "福岡県糟屋郡須恵町大字上須恵１１２番地７９",
    "lat": 33.5887788,
    "lng": 130.522466,
    "tel": "092-933-1630",
    "url": "http://www.keitokukai.jp/",
    "pref": "福岡県",
    "city": "須恵町",
    "category": "rouken",
    "serviceType": "介護老人保健施設",
    "capacity": 0,
    "openDays": [],
    "openDaysNote": ""
  },
  {
    "id": "4050480104",
    "name": "介護老人保健施設　ニューライフ須恵",
    "kana": "カイゴロウジンホケンシセツ　ニューライフスエ",
    "address": "福岡県糟屋郡須恵町大字旅石１１５－４８３",
    "lat": 33.5842405,
    "lng": 130.4964637,
    "tel": "092-937-1055",
    "url": "http://www.s-mito.org",
    "pref": "福岡県",
    "city": "須恵町",
    "category": "rouken",
    "serviceType": "介護老人保健施設",
    "capacity": 100,
    "openDays": [],
    "openDaysNote": ""
  },
  {
    "id": "4050480088",
    "name": "介護老人保健施設　永寿苑",
    "kana": "カイゴロウジンホケンシセツ　エイジュエン",
    "address": "福岡県粕屋郡須恵町大字新原14-7",
    "lat": 33.5792244,
    "lng": 130.5148089,
    "tel": "092-933-5335",
    "url": "http://www.taihei.or.jp/",
    "pref": "福岡県",
    "city": "須恵町",
    "category": "rouken",
    "serviceType": "介護老人保健施設",
    "capacity": 0,
    "openDays": [],
    "openDaysNote": ""
  },
  {
    "id": "4056180104",
    "name": "介護老人保健施設　友和松快園",
    "kana": "カイゴロウジンホケンシセツ　ユウワショウカイエン",
    "address": "遠賀郡水巻町吉田南2丁目9番1号",
    "lat": 33.8366196,
    "lng": 130.7099096,
    "tel": "093-202-8088",
    "url": "http://www.shokaien.com",
    "pref": "福岡県",
    "city": "水巻町",
    "category": "rouken",
    "serviceType": "介護老人保健施設",
    "capacity": 0,
    "openDays": [],
    "openDaysNote": ""
  },
  {
    "id": "4055380077",
    "name": "介護老人保健施設　恵の里",
    "kana": "カイゴロウジンホケンシセツ　メグミノサト",
    "address": "福岡県田川郡川崎町大字川崎3204番地1",
    "lat": 33.5964625,
    "lng": 130.8257527,
    "tel": "0947-47-4044",
    "url": "meguminosato4044@yahoo.co.jp",
    "pref": "福岡県",
    "city": "川崎町",
    "category": "rouken",
    "serviceType": "介護老人保健施設",
    "capacity": 80,
    "openDays": [],
    "openDaysNote": ""
  },
  {
    "id": "4051480079",
    "name": "介護老人保健施設　同朋",
    "kana": "カイゴロウジンホケンシセツ　ドウホウ",
    "address": "福岡県太宰府市宰都２丁目8-12",
    "lat": 33.5178647,
    "lng": 130.4966116,
    "tel": "092-924-6988",
    "url": "http://www.dohogroup.jp/",
    "pref": "福岡県",
    "city": "太宰府市",
    "category": "rouken",
    "serviceType": "介護老人保健施設",
    "capacity": 80,
    "openDays": [],
    "openDaysNote": ""
  },
  {
    "id": "4052580075",
    "name": "介護老人保健施設　　ふれあいの里道海",
    "kana": "カイゴロウジンホケンシセツ　フレアイノサトドウカイ",
    "address": "福岡県大川市大字道海島861",
    "lat": 33.2319918,
    "lng": 130.3774502,
    "tel": "0944-88-0800",
    "url": "http://www.eijunosato.com",
    "pref": "福岡県",
    "city": "大川市",
    "category": "rouken",
    "serviceType": "介護老人保健施設",
    "capacity": 0,
    "openDays": [],
    "openDaysNote": ""
  },
  {
    "id": "4052580083",
    "name": "介護老人保健施設　ハッピーライフ",
    "kana": "カイゴロウジンホケンシセツ　ハッピーライフ",
    "address": "福岡県大川市向島１５５５－１",
    "lat": 33.211791,
    "lng": 130.3733731,
    "tel": "0944-88-2803",
    "url": "http://fukuda-hp.net",
    "pref": "福岡県",
    "city": "大川市",
    "category": "rouken",
    "serviceType": "介護老人保健施設",
    "capacity": 80,
    "openDays": [],
    "openDaysNote": ""
  },
  {
    "id": "4054480084",
    "name": "介護老人保健施設　サンファミリー",
    "kana": "カイゴロウジンホケンシセツ　サンファミリー",
    "address": "大牟田市大字甘木１１５８",
    "lat": 33.0634309,
    "lng": 130.4561468,
    "tel": "0944-58-7722",
    "url": "http://www.sunfamily-omuta.com",
    "pref": "福岡県",
    "city": "大牟田市",
    "category": "rouken",
    "serviceType": "介護老人保健施設",
    "capacity": 100,
    "openDays": [],
    "openDaysNote": ""
  },
  {
    "id": "4054480092",
    "name": "介護老人保健施設くろさき苑",
    "kana": "カイゴロウジンホケンシセツクロサキエン",
    "address": "福岡県大牟田市大字岬1254-1",
    "lat": 33.0683854,
    "lng": 130.4412558,
    "tel": "0944-54-9639",
    "url": "https://www.k-kurosakien.com/",
    "pref": "福岡県",
    "city": "大牟田市",
    "category": "rouken",
    "serviceType": "介護老人保健施設",
    "capacity": 0,
    "openDays": [],
    "openDaysNote": ""
  },
  {
    "id": "4054480118",
    "name": "介護老人保健施設さんぽ",
    "kana": "カイゴロウジンホケンシセツサンポ",
    "address": "福岡県大牟田市大字三池866",
    "lat": 33.0531546569857,
    "lng": 130.478681865082,
    "tel": "0944-53-1001",
    "url": "http://www.miikehp.com/",
    "pref": "福岡県",
    "city": "大牟田市",
    "category": "rouken",
    "serviceType": "介護老人保健施設",
    "capacity": 0,
    "openDays": [],
    "openDaysNote": ""
  },
  {
    "id": "4054480100",
    "name": "介護老人保健施設ハッピーランド",
    "kana": "カイゴロウジンホケンシセツハッピーランド",
    "address": "福岡県大牟田市大字宮部１７１－２",
    "lat": 33.0621122,
    "lng": 130.4805927,
    "tel": "0944-51-0556",
    "url": "http://www.fukuju.or.jp",
    "pref": "福岡県",
    "city": "大牟田市",
    "category": "rouken",
    "serviceType": "介護老人保健施設",
    "capacity": null,
    "openDays": [],
    "openDaysNote": ""
  },
  {
    "id": "4054480126",
    "name": "介護老人保健施設はなぞの",
    "kana": "カイゴロウジンホケンシセツハナゾノ",
    "address": "福岡県大牟田市花園町６４－５",
    "lat": 33.0211604,
    "lng": 130.451071,
    "tel": "0944-52-8600",
    "url": "http://www.i-shinwa.com/hanazono/",
    "pref": "福岡県",
    "city": "大牟田市",
    "category": "rouken",
    "serviceType": "介護老人保健施設",
    "capacity": 0,
    "openDays": [],
    "openDaysNote": ""
  },
  {
    "id": "4054480134",
    "name": "介護老人保健施設ぷらいえ",
    "kana": "カイゴロウジンホケンシセツプライエ",
    "address": "大牟田市田隅830-1",
    "lat": 33.0575957,
    "lng": 130.4650994,
    "tel": "0944-56-4169",
    "url": "http://db.omuta.fukuoka.med.or.jp/php/kikan2/disphp.phtml?db=124",
    "pref": "福岡県",
    "city": "大牟田市",
    "category": "rouken",
    "serviceType": "介護老人保健施設",
    "capacity": 0,
    "openDays": [],
    "openDaysNote": ""
  },
  {
    "id": "4054480076",
    "name": "済生会大牟田ライフケア院",
    "kana": "サイセイカイオオムタライフケアイン",
    "address": "福岡県大牟田市大字田隈５９９－１８",
    "lat": 33.0580457,
    "lng": 130.4693325,
    "tel": "0944-52-8899",
    "url": "https://omuta-saiseikai.jp/lifecarein/",
    "pref": "福岡県",
    "city": "大牟田市",
    "category": "rouken",
    "serviceType": "介護老人保健施設",
    "capacity": 0,
    "openDays": [],
    "openDaysNote": ""
  },
  {
    "id": "4054480142",
    "name": "済生会大牟田ライフケア院ユニット",
    "kana": "サイセイカイオオムタライフケアインユニット",
    "address": "福岡県大牟田市田隈599-18",
    "lat": 33.0580383390742,
    "lng": 130.469380607935,
    "tel": "0944-52-8899",
    "url": "https://omuta-saiseikai.jp/lifecarein/",
    "pref": "福岡県",
    "city": "大牟田市",
    "category": "rouken",
    "serviceType": "介護老人保健施設",
    "capacity": 0,
    "openDays": [],
    "openDaysNote": ""
  },
  {
    "id": "4053480010",
    "name": "介護老人保健施設　大木しょうふく苑",
    "kana": "カイゴロウジンホケンシセツオオキショウフクエン",
    "address": "福岡県三潴郡大木町大字上八院1597",
    "lat": 33.2132404,
    "lng": 130.439983,
    "tel": "0944-33-2566",
    "url": "",
    "pref": "福岡県",
    "city": "大木町",
    "category": "rouken",
    "serviceType": "介護老人保健施設",
    "capacity": 90,
    "openDays": [],
    "openDaysNote": ""
  },
  {
    "id": "4051580084",
    "name": "医療法人　同仁会　介護老人保険施設　くすの郷",
    "kana": "イリョウホウジン　ドウジンカイ　カイゴロウジンホケンシセツ　クスノサト",
    "address": "福岡県大野城市乙金東2丁目17-3",
    "lat": 33.5566577,
    "lng": 130.5001833,
    "tel": "092-504-2555",
    "url": "http://www.otogane.or.jp",
    "pref": "福岡県",
    "city": "大野城市",
    "category": "rouken",
    "serviceType": "介護老人保健施設",
    "capacity": 0,
    "openDays": [],
    "openDaysNote": ""
  },
  {
    "id": "4051580076",
    "name": "介護老人保健施設カトレア",
    "kana": "カイゴロウジンホケンシセツカトレア",
    "address": "福岡県大野城市南大利二丁目7番1号",
    "lat": 33.5100919904707,
    "lng": 130.480205779762,
    "tel": "092-595-6101",
    "url": "http://www.seiai-riha.com/catorea/",
    "pref": "福岡県",
    "city": "大野城市",
    "category": "rouken",
    "serviceType": "介護老人保健施設",
    "capacity": 100,
    "openDays": [],
    "openDaysNote": ""
  },
  {
    "id": "4057280101",
    "name": "ピア・ハートⅡ",
    "kana": "ピアハートツー",
    "address": "福岡県築上郡築上町大字安武844-2",
    "lat": 33.657942,
    "lng": 131.0047922,
    "tel": "0930-53-1688",
    "url": "",
    "pref": "福岡県",
    "city": "築上町",
    "category": "rouken",
    "serviceType": "介護老人保健施設",
    "capacity": 40,
    "openDays": [],
    "openDaysNote": ""
  },
  {
    "id": "4057280119",
    "name": "ユニット型介護老人保健施設青海山荘",
    "kana": "ユニットガタカイゴロウジンホケンシセツセイカイサンソウ",
    "address": "福岡県築上郡築上町大字湊1277番地3",
    "lat": 33.6507718,
    "lng": 131.0732337,
    "tel": "0930-57-1110",
    "url": "http://mamorukai.biz/",
    "pref": "福岡県",
    "city": "築上町",
    "category": "rouken",
    "serviceType": "介護老人保健施設",
    "capacity": 0,
    "openDays": [],
    "openDaysNote": ""
  },
  {
    "id": "4057280077",
    "name": "介護老人保健施設　青海山荘",
    "kana": "カイゴロウジンホケンシセツ　セイカイサンソウ",
    "address": "福岡県築上郡築上町大字湊1277番地3",
    "lat": 33.6507774,
    "lng": 131.0731698,
    "tel": "0930-57-1110",
    "url": "http://mamorukai,biz/",
    "pref": "福岡県",
    "city": "築上町",
    "category": "rouken",
    "serviceType": "介護老人保健施設",
    "capacity": 0,
    "openDays": [],
    "openDaysNote": ""
  },
  {
    "id": "4057280093",
    "name": "社会福祉法人　清心福祉会　介護老人福祉施設　ピア・ハート",
    "kana": "シャカイフクシホウジン　セイシンフクシカイ　カイゴロウジンホケンシセツ",
    "address": "福岡県　築上郡　築上町　大字安武８４４－２",
    "lat": 33.657942,
    "lng": 131.0047922,
    "tel": "0930-53-1688",
    "url": "http://care-net.biz/40/peerheart/",
    "pref": "福岡県",
    "city": "築上町",
    "category": "rouken",
    "serviceType": "介護老人保健施設",
    "capacity": 0,
    "openDays": [],
    "openDaysNote": ""
  },
  {
    "id": "4052380070",
    "name": "介護老人保健施設　クリーンパル・ゆう",
    "kana": "カイゴロウジンホケンシセツ　クリーンパル・ユウ",
    "address": "筑後市大字西牟田６３６３－２",
    "lat": 33.2407658,
    "lng": 130.5001477,
    "tel": "0942-52-1181",
    "url": "http://www.cleanpal.jp",
    "pref": "福岡県",
    "city": "筑後市",
    "category": "rouken",
    "serviceType": "介護老人保健施設",
    "capacity": 100,
    "openDays": [],
    "openDaysNote": ""
  },
  {
    "id": "4052380088",
    "name": "介護老人保健施設　のぞみ船小屋",
    "kana": "カイゴロウジンホケンシセツ　ノゾミフナゴヤ",
    "address": "福岡県筑後市大字志55",
    "lat": 33.1852666,
    "lng": 130.4986296,
    "tel": "0942-54-2300",
    "url": "http://www.youzankai.net",
    "pref": "福岡県",
    "city": "筑後市",
    "category": "rouken",
    "serviceType": "介護老人保健施設",
    "capacity": 82,
    "openDays": [],
    "openDaysNote": ""
  },
  {
    "id": "4051780080",
    "name": "医療法人　牧和会　介護老人保健施設リハビリハイツアシスト桜台",
    "kana": "イリョウホウジン　ボクワカイ　カイゴロウジンホケンシセツリハビリハイツアシストサクラダイ",
    "address": "福岡県筑紫野市大字常松456-2",
    "lat": 33.4705059,
    "lng": 130.5395814,
    "tel": "092-923-8800",
    "url": "http://www.maki.or.jp",
    "pref": "福岡県",
    "city": "筑紫野市",
    "category": "rouken",
    "serviceType": "介護老人保健施設",
    "capacity": 100,
    "openDays": [],
    "openDaysNote": ""
  },
  {
    "id": "4051780072",
    "name": "介護老人保健施設　ハーモニー聖和",
    "kana": "カイゴロウジンホケンシセツ　ハーモニーセイワ",
    "address": "福岡県筑紫野市大字西小田991番地の3",
    "lat": 33.445411,
    "lng": 130.5679436,
    "tel": "092-927-1811",
    "url": "http://www.seiwa-kai.com",
    "pref": "福岡県",
    "city": "筑紫野市",
    "category": "rouken",
    "serviceType": "介護老人保健施設",
    "capacity": 99,
    "openDays": [],
    "openDaysNote": ""
  },
  {
    "id": "4051780098",
    "name": "介護老人保健施設　ハーモニー聖和（ユニット型）",
    "kana": "カイゴロウジンホケンシセツ　ハーモニーセイワ（ユニットガタ）",
    "address": "福岡県筑紫野市大字西小田991番地の3",
    "lat": 33.445411,
    "lng": 130.5679436,
    "tel": "092－927-1811",
    "url": "http://seiwa-kai.com",
    "pref": "福岡県",
    "city": "筑紫野市",
    "category": "rouken",
    "serviceType": "介護老人保健施設",
    "capacity": 17,
    "openDays": [],
    "openDaysNote": ""
  },
  {
    "id": "4053180081",
    "name": "介護老人保健施設　サンビレッヂ朝日ヶ丘",
    "kana": "カイゴロウジンホケンシセツ　サンビレッヂアサヒガオカ",
    "address": "福岡県朝倉郡筑前町朝日568番地",
    "lat": 33.4748222,
    "lng": 130.5699933,
    "tel": "092-927-1621",
    "url": "http://www.chourouen.or.jp/",
    "pref": "福岡県",
    "city": "筑前町",
    "category": "rouken",
    "serviceType": "介護老人保健施設",
    "capacity": 0,
    "openDays": [],
    "openDaysNote": ""
  },
  {
    "id": "4053180091",
    "name": "介護老人保健施設　ふじ",
    "kana": "カイゴロウジンホケンシセツ　フジ",
    "address": "福岡県朝倉郡筑前町山隈842-1",
    "lat": 33.424889,
    "lng": 130.6177768,
    "tel": "0946-22-2561",
    "url": "http://www.kouikai.jp/",
    "pref": "福岡県",
    "city": "筑前町",
    "category": "rouken",
    "serviceType": "介護老人保健施設",
    "capacity": 0,
    "openDays": [],
    "openDaysNote": ""
  },
  {
    "id": "4053180073",
    "name": "介護老人保健施設　城山荘",
    "kana": "カイゴロウジンホケンシセツ　シロヤマソウ",
    "address": "福岡県朝倉郡筑前町大久保５０１番地",
    "lat": 33.4322463,
    "lng": 130.6130271,
    "tel": "0946-22-1051",
    "url": "http://uraume.jp",
    "pref": "福岡県",
    "city": "筑前町",
    "category": "rouken",
    "serviceType": "介護老人保健施設",
    "capacity": 0,
    "openDays": [],
    "openDaysNote": ""
  },
  {
    "id": "4056280086",
    "name": "介護老人保健施設　ガーデンヒルズ",
    "kana": "カイゴロウジンホケンシセツ　ガーデンヒルズ",
    "address": "福岡県　中間市　扇ヶ浦１丁目－１４番－１号",
    "lat": 33.8175639,
    "lng": 130.7201898,
    "tel": "093-245-7666",
    "url": "http://www.ejkai-noda.com/",
    "pref": "福岡県",
    "city": "中間市",
    "category": "rouken",
    "serviceType": "介護老人保健施設",
    "capacity": 30,
    "openDays": [],
    "openDaysNote": ""
  },
  {
    "id": "4056280078",
    "name": "介護老人保健施設千寿中間",
    "kana": "カイゴロウジンホケンシセツセンジュナカマ",
    "address": "福岡県中間市通谷1-36-6",
    "lat": 33.8238189,
    "lng": 130.7326301,
    "tel": "093-243-1200",
    "url": "http://www.senju-n.com",
    "pref": "福岡県",
    "city": "中間市",
    "category": "rouken",
    "serviceType": "介護老人保健施設",
    "capacity": 0,
    "openDays": [],
    "openDaysNote": ""
  },
  {
    "id": "4052480102",
    "name": "一般社団法人朝倉医師会介護老人保健施設アスピア",
    "kana": "イッパンシャダンホウジンアサクライシカイカイゴロウジンホケンシセツアスピア",
    "address": "福岡県朝倉市三奈木２４２０－１５",
    "lat": 33.3997741,
    "lng": 130.7046451,
    "tel": "0946-23-2200",
    "url": "http://www.asakura-med.or.jp/aspia/",
    "pref": "福岡県",
    "city": "朝倉市",
    "category": "rouken",
    "serviceType": "介護老人保健施設",
    "capacity": 100,
    "openDays": [],
    "openDaysNote": ""
  },
  {
    "id": "4052480094",
    "name": "介護老人保健施設　アルファ俊聖",
    "kana": "カイゴロウジンホケンシセツ　アルファシュンセイ",
    "address": "福岡県朝倉市甘木　１９９－１",
    "lat": 33.416524,
    "lng": 130.659221,
    "tel": "0946-22-5551",
    "url": "http//www.amagichuuou-hp.jp/",
    "pref": "福岡県",
    "city": "朝倉市",
    "category": "rouken",
    "serviceType": "介護老人保健施設",
    "capacity": 0,
    "openDays": [],
    "openDaysNote": ""
  },
  {
    "id": "4052480078",
    "name": "介護老人保健施設　ラ・パス",
    "kana": "カイゴロウジンホケンシセツ　ラパス",
    "address": "福岡県朝倉市菩提寺１８３－５３",
    "lat": 33.4311118,
    "lng": 130.6668671,
    "tel": "0946-23-1322",
    "url": "https://jusenkai.com",
    "pref": "福岡県",
    "city": "朝倉市",
    "category": "rouken",
    "serviceType": "介護老人保健施設",
    "capacity": 0,
    "openDays": [],
    "openDaysNote": ""
  },
  {
    "id": "4055480117",
    "name": "ユニット型介護老人保健施設　ゆうあい福智",
    "kana": "ユニットガタカイゴロウジンホケンシセツ　ユウアイフクチ",
    "address": "福岡県直方市大字上頓野字堂山2761番地1",
    "lat": 33.7690751914745,
    "lng": 130.767210348299,
    "tel": "0949-29-2060",
    "url": "http://yuuai.ichiju-kai.jp",
    "pref": "福岡県",
    "city": "直方市",
    "category": "rouken",
    "serviceType": "介護老人保健施設",
    "capacity": 0,
    "openDays": [],
    "openDaysNote": ""
  },
  {
    "id": "4055480075",
    "name": "介護老人保健施設　　青風苑",
    "kana": "カイゴロウジンホケンシセツセイフウエン",
    "address": "福岡県直方市大字上新入2490番地の14",
    "lat": 33.7416589,
    "lng": 130.7143922,
    "tel": "0949-22-2601",
    "url": "http://www.kenmeikai.jp/index.html",
    "pref": "福岡県",
    "city": "直方市",
    "category": "rouken",
    "serviceType": "介護老人保健施設",
    "capacity": 50,
    "openDays": [],
    "openDaysNote": ""
  },
  {
    "id": "4055480109",
    "name": "介護老人保健施設　ゆうあい福智",
    "kana": "カイゴロウジンホケンシセツ　ユウアイフクチ",
    "address": "福岡県直方市大字上頓野字堂山2761番地1",
    "lat": 33.7441839,
    "lng": 130.7296326,
    "tel": "0949-29-2060",
    "url": "http://yuuai.ichiju-kai.jp",
    "pref": "福岡県",
    "city": "直方市",
    "category": "rouken",
    "serviceType": "介護老人保健施設",
    "capacity": 0,
    "openDays": [],
    "openDaysNote": ""
  },
  {
    "id": "4055480083",
    "name": "介護老人保健施設サンシルバー直方",
    "kana": "カイゴロウジンホケンシセツサンシルバーノオガタ",
    "address": "福岡県直方市大字永満寺1347番地",
    "lat": 33.7282611,
    "lng": 130.7681769,
    "tel": "0949-28-3171",
    "url": "",
    "pref": "福岡県",
    "city": "直方市",
    "category": "rouken",
    "serviceType": "介護老人保健施設",
    "capacity": 0,
    "openDays": [],
    "openDaysNote": ""
  },
  {
    "id": "4055480091",
    "name": "介護老人保健施設すこやか",
    "kana": "カイゴロウジンホケンシセツスコヤカ",
    "address": "福岡県直方市大字頓野975番地",
    "lat": 33.7602959,
    "lng": 130.7586575,
    "tel": "0949-26-7550",
    "url": "http://www.onkokai.jp",
    "pref": "福岡県",
    "city": "直方市",
    "category": "rouken",
    "serviceType": "介護老人保健施設",
    "capacity": 80,
    "openDays": [],
    "openDaysNote": ""
  },
  {
    "id": "4055380051",
    "name": "介護老人保健施設　サングリーンそえだ",
    "kana": "カイゴロウジンホケンシセツ　サングリーンソエダ",
    "address": "福岡県田川郡添田町大字庄1130",
    "lat": 33.5776677,
    "lng": 130.8531572,
    "tel": "0947-82-0100",
    "url": "http://www.tenjyu-kai.com/",
    "pref": "福岡県",
    "city": "添田町",
    "category": "rouken",
    "serviceType": "介護老人保健施設",
    "capacity": 0,
    "openDays": [],
    "openDaysNote": ""
  },
  {
    "id": "4055680070",
    "name": "介護老人保健施設　あけぼの荘",
    "kana": "カイゴロウジンホケンシセツ　アケボノソウ",
    "address": "福岡県田川市大字夏吉４６番地",
    "lat": 33.6575506,
    "lng": 130.8355864,
    "tel": "0947-46-1750",
    "url": "http://www.wakoukai.or.jp/",
    "pref": "福岡県",
    "city": "田川市",
    "category": "rouken",
    "serviceType": "介護老人保健施設",
    "capacity": 0,
    "openDays": [],
    "openDaysNote": ""
  },
  {
    "id": "4055680096",
    "name": "介護老人保健施設　サンドリーム田川",
    "kana": "カイゴロウジンホケンシセツ　サンドリームタガワ",
    "address": "福岡県田川市大字伊加利　２０４７－４",
    "lat": 33.6220486,
    "lng": 130.8256436,
    "tel": "0947-42-1452",
    "url": "https://sundreamtagawa14528.wixsite.com/my-site",
    "pref": "福岡県",
    "city": "田川市",
    "category": "rouken",
    "serviceType": "介護老人保健施設",
    "capacity": 80,
    "openDays": [],
    "openDaysNote": ""
  },
  {
    "id": "4055680088",
    "name": "介護老人保健施設　明寿苑",
    "kana": "カイゴロウジンホケンシセツ　メイジュエン",
    "address": "福岡県田川市大字川宮1569番地の2",
    "lat": 33.6402628226488,
    "lng": 130.800404228236,
    "tel": "0947-45-3232",
    "url": "http://meijuen.jp/",
    "pref": "福岡県",
    "city": "田川市",
    "category": "rouken",
    "serviceType": "介護老人保健施設",
    "capacity": 0,
    "openDays": [],
    "openDaysNote": ""
  },
  {
    "id": "4051880088",
    "name": "介護老人保健施設あじさい",
    "kana": "カイゴロウジンホケンシセツアジサイ",
    "address": "福岡県那珂川市下梶原二丁目６番１号",
    "lat": 33.4990092,
    "lng": 130.4392555,
    "tel": "092-954-1000",
    "url": "https://www.nakafuku.jp/about/ajisai/",
    "pref": "福岡県",
    "city": "那珂川市",
    "category": "rouken",
    "serviceType": "介護老人保健施設",
    "capacity": 80,
    "openDays": [],
    "openDaysNote": ""
  },
  {
    "id": "4050480138",
    "name": "社会医療法人青洲会　介護老人保健施設　青洲の里",
    "kana": "シャカイイリョウホウジンセイシュウカイ　カイゴロウジンホケンシセツ　セイシュウノサト",
    "address": "福岡県糟屋郡粕屋町長者原西3丁目13番1号",
    "lat": 33.6183696364396,
    "lng": 130.46367764736,
    "tel": "092-939-0208",
    "url": "www.seisyukai-st.jp/",
    "pref": "福岡県",
    "city": "粕屋町",
    "category": "rouken",
    "serviceType": "介護老人保健施設",
    "capacity": 100,
    "openDays": [],
    "openDaysNote": ""
  },
  {
    "id": "4052180090",
    "name": "介護老人保健施設　グリーンビュー希望ヶ丘",
    "kana": "カイゴロウジンホケンシセツ　　　　　　　キボウガオカ",
    "address": "八女市吉田2221-2",
    "lat": 33.2324433,
    "lng": 130.5626961,
    "tel": "0943-25-2588",
    "url": "http://www.ryuuikukai.com/green/index.htm/",
    "pref": "福岡県",
    "city": "八女市",
    "category": "rouken",
    "serviceType": "介護老人保健施設",
    "capacity": 95,
    "openDays": [],
    "openDaysNote": ""
  },
  {
    "id": "4052180082",
    "name": "介護老人保健施設　ビハーラ光風",
    "kana": "カイゴロウジンホケンシセツビハーラコウフウ",
    "address": "八女市津江513-1",
    "lat": 33.2140259,
    "lng": 130.5749844,
    "tel": "0943-24-1220",
    "url": "",
    "pref": "福岡県",
    "city": "八女市",
    "category": "rouken",
    "serviceType": "介護老人保健施設",
    "capacity": 0,
    "openDays": [],
    "openDaysNote": ""
  },
  {
    "id": "4052180108",
    "name": "介護老人保健施設　回寿苑",
    "kana": "カイゴロウジンホケンシセツ　カイジュエン",
    "address": "福岡県八女市黒木町湯辺田270番地",
    "lat": 33.2108381,
    "lng": 130.6307053,
    "tel": "0943-42-3131",
    "url": "http://www.yamehp.jp/hpmain",
    "pref": "福岡県",
    "city": "八女市",
    "category": "rouken",
    "serviceType": "介護老人保健施設",
    "capacity": 90,
    "openDays": [],
    "openDaysNote": ""
  },
  {
    "id": "4055580122",
    "name": "ユニット型介護老人保健施設コスモス苑",
    "kana": "ユニットガタカイゴロウジンホケンシセツコスモスエン",
    "address": "福岡県飯塚市伊川1262番地1",
    "lat": 33.656483,
    "lng": 130.6550642,
    "tel": "0948-25-5600",
    "url": "http://f-shinwakai.or.jp/",
    "pref": "福岡県",
    "city": "飯塚市",
    "category": "rouken",
    "serviceType": "介護老人保健施設",
    "capacity": 0,
    "openDays": [],
    "openDaysNote": ""
  },
  {
    "id": "4055580072",
    "name": "介護老人保健施設　コスモス苑",
    "kana": "カイゴロウジンホケンシセツ　コスモスエン",
    "address": "福岡県飯塚市伊川１２６２番地１",
    "lat": 33.656483,
    "lng": 130.6550642,
    "tel": "0948-25-5600",
    "url": "http://f-shinwakai.or.jp/",
    "pref": "福岡県",
    "city": "飯塚市",
    "category": "rouken",
    "serviceType": "介護老人保健施設",
    "capacity": 100,
    "openDays": [],
    "openDaysNote": ""
  },
  {
    "id": "4055580106",
    "name": "介護老人保健施設　すみれ園",
    "kana": "カイゴロウジンホケンシセツ　スミレエン",
    "address": "福岡県飯塚市秋松７０２番地",
    "lat": 33.6238399,
    "lng": 130.6729415,
    "tel": "0948-23-3363",
    "url": "https://sumireen3363.jp/",
    "pref": "福岡県",
    "city": "飯塚市",
    "category": "rouken",
    "serviceType": "介護老人保健施設",
    "capacity": 0,
    "openDays": [],
    "openDaysNote": ""
  },
  {
    "id": "4055580098",
    "name": "介護老人保健施設　ベスト・シルバー飯塚",
    "kana": "カイゴロウジンホケンシセツ　ベストシルバーイイヅカ",
    "address": "福岡県飯塚市新飯塚1903",
    "lat": 33.6442022,
    "lng": 130.6886504,
    "tel": "0948-22-8888",
    "url": "",
    "pref": "福岡県",
    "city": "飯塚市",
    "category": "rouken",
    "serviceType": "介護老人保健施設",
    "capacity": 80,
    "openDays": [],
    "openDaysNote": ""
  },
  {
    "id": "4055580114",
    "name": "介護老人保健施設和泉の澤",
    "kana": "カイゴロウジンホケンシセツイズミノサワ",
    "address": "福岡県飯塚市勢田1806-1",
    "lat": 33.6960301,
    "lng": 130.7215181,
    "tel": "0948-92-0700",
    "url": "http://www.kouwagroup.or.jp",
    "pref": "福岡県",
    "city": "飯塚市",
    "category": "rouken",
    "serviceType": "介護老人保健施設",
    "capacity": 100,
    "openDays": [],
    "openDaysNote": ""
  },
  {
    "id": "4055580130",
    "name": "社会保険二瀬病院介護老人保健施設",
    "kana": "シャカイホケンフタセビョウインカイゴロウジンホケンシセツ",
    "address": "福岡県飯塚市伊川１２４３番地１",
    "lat": 33.6577829,
    "lng": 130.6555057,
    "tel": "0948-22-2225",
    "url": "http://futase-hp.jp/",
    "pref": "福岡県",
    "city": "飯塚市",
    "category": "rouken",
    "serviceType": "介護老人保健施設",
    "capacity": null,
    "openDays": [],
    "openDaysNote": ""
  },
  {
    "id": "4051180158",
    "name": "とりかい介護老人保健施設",
    "kana": "トリカイカイゴロウジンホケンシセツ",
    "address": "福岡市城南区鳥飼6丁目3番7号",
    "lat": 33.5754614940986,
    "lng": 130.367440706221,
    "tel": "092-831-6062",
    "url": "http://www.kouikai.jp/",
    "pref": "福岡県",
    "city": "福岡市城南区",
    "category": "rouken",
    "serviceType": "介護老人保健施設",
    "capacity": 0,
    "openDays": [],
    "openDaysNote": ""
  },
  {
    "id": "4051180190",
    "name": "介護老人保健施設　老健センターながお",
    "kana": "カイゴロウジンホケンシセツ　ロウケンセンターナガオ",
    "address": "福岡市城南区樋井川3丁目47-1",
    "lat": 33.5441322,
    "lng": 130.3878236,
    "tel": "092-541-1003",
    "url": "http://www.nagao.or.jp/rouken/",
    "pref": "福岡県",
    "city": "福岡市城南区",
    "category": "rouken",
    "serviceType": "介護老人保健施設",
    "capacity": 70,
    "openDays": [],
    "openDaysNote": ""
  },
  {
    "id": "4051180125",
    "name": "介護老人保健施設「いこいの森」",
    "kana": "カイゴロウジンホケンシセツイコイノモリ",
    "address": "福岡県福岡市城南区東油山6丁目19番23号",
    "lat": 33.5278501,
    "lng": 130.3824719,
    "tel": "092-866-3500",
    "url": "http://www.ikoinomori-8717.or.jp",
    "pref": "福岡県",
    "city": "福岡市城南区",
    "category": "rouken",
    "serviceType": "介護老人保健施設",
    "capacity": 0,
    "openDays": [],
    "openDaysNote": ""
  },
  {
    "id": "4051180174",
    "name": "介護老人保健施設　ケアプラザ北原",
    "kana": "カイゴロウジンホケンシセツ　ケアプラザキタバル",
    "address": "福岡市西区北原2−2−15",
    "lat": 33.5805111699218,
    "lng": 130.255887689937,
    "tel": "092-807-2096",
    "url": "https://itofukushikai.com/guide/care_plaza_kitahara/",
    "pref": "福岡県",
    "city": "福岡市西区",
    "category": "rouken",
    "serviceType": "介護老人保健施設",
    "capacity": 65,
    "openDays": [],
    "openDaysNote": ""
  },
  {
    "id": "4051180083",
    "name": "介護老人保健施設　松寿苑",
    "kana": "カイゴロウジンホケンシセツ　ショウジュエン",
    "address": "福岡市西区今宿町379-1",
    "lat": 33.5720989,
    "lng": 130.2688562,
    "tel": "092-807-6710",
    "url": "http://www.syoujyuen.jp",
    "pref": "福岡県",
    "city": "福岡市西区",
    "category": "rouken",
    "serviceType": "介護老人保健施設",
    "capacity": 0,
    "openDays": [],
    "openDaysNote": ""
  },
  {
    "id": "4051180182",
    "name": "介護老人保健施設　西寿",
    "kana": "カイゴロウジンホケンシセツ　セイジュ",
    "address": "福岡県福岡市西区生の松原3-18-9",
    "lat": 33.5763277,
    "lng": 130.2965459,
    "tel": "092-892-3060",
    "url": "http://www.nishifukuhp.or.jp",
    "pref": "福岡県",
    "city": "福岡市西区",
    "category": "rouken",
    "serviceType": "介護老人保健施設",
    "capacity": 100,
    "openDays": [],
    "openDaysNote": ""
  },
  {
    "id": "4071204335",
    "name": "介護老人保健施設サンライズ壱岐",
    "kana": "カイゴロウジンホケンシセツサンライズイキ",
    "address": "福岡市西区野方1丁目16番32号",
    "lat": 33.5579938,
    "lng": 130.3119335,
    "tel": "928125010",
    "url": "sunrise-iki.jp",
    "pref": "福岡県",
    "city": "福岡市西区",
    "category": "rouken",
    "serviceType": "介護老人保健施設",
    "capacity": null,
    "openDays": [],
    "openDaysNote": ""
  },
  {
    "id": "4051180109",
    "name": "介護老人保健施設春風",
    "kana": "カイゴロウジンホケンシセツハルカゼ",
    "address": "福岡市西区大字飯氏字都ヶ浦２４３－１",
    "lat": 33.562579,
    "lng": 130.247938,
    "tel": "092-807-7000",
    "url": "http://kaiyokai.jp/",
    "pref": "福岡県",
    "city": "福岡市西区",
    "category": "rouken",
    "serviceType": "介護老人保健施設",
    "capacity": 0,
    "openDays": [],
    "openDaysNote": ""
  },
  {
    "id": "4051180091",
    "name": "日の出会　介護老人保健施設サンライズ壱岐",
    "kana": "ヒノデカイ　カイゴロウジンホケンシセツ　サンライズイキ",
    "address": "福岡市西区野方1丁目16－32",
    "lat": 33.557963,
    "lng": 130.3119394,
    "tel": "092-812-5010",
    "url": "http://sunrise-iki.jp/",
    "pref": "福岡県",
    "city": "福岡市西区",
    "category": "rouken",
    "serviceType": "介護老人保健施設",
    "capacity": 0,
    "openDays": [],
    "openDaysNote": ""
  },
  {
    "id": "4051180133",
    "name": "ケアセンターひまわり苑",
    "kana": "ケアセンターヒマワリエン",
    "address": "福岡市早良区早良１丁目５－５６",
    "lat": 33.5064898,
    "lng": 130.3369503,
    "tel": "092-804-8000",
    "url": "http://www.fukuseikai-group.com/himawari/",
    "pref": "福岡県",
    "city": "福岡市早良区",
    "category": "rouken",
    "serviceType": "介護老人保健施設",
    "capacity": 100,
    "openDays": [],
    "openDaysNote": ""
  },
  {
    "id": "4051180075",
    "name": "さわら老健センター",
    "kana": "サワラロウケンセンター",
    "address": "福岡市早良区早良１丁目１－６０",
    "lat": 33.5084341,
    "lng": 130.3370363,
    "tel": "092-804-7716",
    "url": "http://www.fukuseikai.com/sub5.htm",
    "pref": "福岡県",
    "city": "福岡市早良区",
    "category": "rouken",
    "serviceType": "介護老人保健施設",
    "capacity": 100,
    "openDays": [],
    "openDaysNote": ""
  },
  {
    "id": "4051180166",
    "name": "介護老人保健施設　からざステーション",
    "kana": "カイゴロウジンホケンシセツ　カラザステーション",
    "address": "福岡市早良区野芥５丁目６番３８号",
    "lat": 33.5391927,
    "lng": 130.3482986,
    "tel": "092-871-8778",
    "url": "http://www.minkodo.com",
    "pref": "福岡県",
    "city": "福岡市早良区",
    "category": "rouken",
    "serviceType": "介護老人保健施設",
    "capacity": 80,
    "openDays": [],
    "openDaysNote": ""
  },
  {
    "id": "4051180208",
    "name": "介護老人保健施設　サンシャインシティ",
    "kana": "カイゴロウジンホケンシセツ　サンシャインシティ",
    "address": "福岡市早良区田村二丁目15番1号",
    "lat": 33.5464235829815,
    "lng": 130.331766014549,
    "tel": "092-801-0539",
    "url": "https://s.fdcnet.ac.jp",
    "pref": "福岡県",
    "city": "福岡市早良区",
    "category": "rouken",
    "serviceType": "介護老人保健施設",
    "capacity": 85,
    "openDays": [],
    "openDaysNote": ""
  },
  {
    "id": "4051180117",
    "name": "介護老人保健施設ひいらぎ",
    "kana": "カイゴロウジンホケンシセツヒイラギ",
    "address": "福岡市早良区干隈3丁目9番2号",
    "lat": 33.5535856,
    "lng": 130.3491926,
    "tel": "092-864-2468",
    "url": "http://www.seiwakai-muta-hp.or.jp",
    "pref": "福岡県",
    "city": "福岡市早良区",
    "category": "rouken",
    "serviceType": "介護老人保健施設",
    "capacity": 0,
    "openDays": [],
    "openDaysNote": ""
  },
  {
    "id": "4050380114",
    "name": "介護老人保健施設レ・ハビリス桜十字",
    "kana": "カイゴロウジンホケンシセツ　レ・ハビリスサクラジュウジ",
    "address": "福岡県福岡市中央区渡辺通3丁目5番11号桜十字メディカルスクエア 桜十字メディカルスクエア",
    "lat": 33.5852195512628,
    "lng": 130.404380592004,
    "tel": "092-791-1150",
    "url": "http://www.sj-fukuoka.or.jp/",
    "pref": "福岡県",
    "city": "福岡市中央区",
    "category": "rouken",
    "serviceType": "介護老人保健施設",
    "capacity": 100,
    "openDays": [],
    "openDaysNote": ""
  },
  {
    "id": "4051180141",
    "name": "老健センター　ささおか",
    "kana": "ロウケンセンター　ササオカ",
    "address": "福岡市中央区笹丘１丁目２８番２５号",
    "lat": 33.5638989,
    "lng": 130.377515,
    "tel": "092-741-3737",
    "url": "http://www.hakuaikai.or.jp",
    "pref": "福岡県",
    "city": "福岡市中央区",
    "category": "rouken",
    "serviceType": "介護老人保健施設",
    "capacity": 0,
    "openDays": [],
    "openDaysNote": ""
  },
  {
    "id": "4050380106",
    "name": "みつみ介護老人保健施設",
    "kana": "ミツミカイゴロウジンホケンシセツ",
    "address": "福岡市東区西戸崎5丁目8－55",
    "lat": 33.6513476,
    "lng": 130.3505564,
    "tel": "092-603-6321",
    "url": "https://fukumitsu.or.jp/mitsumi/",
    "pref": "福岡県",
    "city": "福岡市東区",
    "category": "rouken",
    "serviceType": "介護老人保健施設",
    "capacity": 100,
    "openDays": [],
    "openDaysNote": ""
  },
  {
    "id": "4050380064",
    "name": "介護老人保健施設　Ｍ．Ｔ奈多ケア院",
    "kana": "カイゴロウジンホケンシセツ　エムティナタケアイン",
    "address": "福岡県福岡市東区雁の巣1-7-30",
    "lat": 33.6881241,
    "lng": 130.4084804,
    "tel": "092-607-1211",
    "url": "http://www.souseikai.or.jp",
    "pref": "福岡県",
    "city": "福岡市東区",
    "category": "rouken",
    "serviceType": "介護老人保健施設",
    "capacity": 0,
    "openDays": [],
    "openDaysNote": ""
  },
  {
    "id": "4050380130",
    "name": "介護老人保健施設ローズガーデンM.K.",
    "kana": "カイゴロウジンホケンシセツローズガーデンエム.ケイ.",
    "address": "福岡県福岡市東区名子１丁目１番５号",
    "lat": 33.6383201,
    "lng": 130.4728561,
    "tel": "092-691-8881",
    "url": "http://asunaro-mk.jp/",
    "pref": "福岡県",
    "city": "福岡市東区",
    "category": "rouken",
    "serviceType": "介護老人保健施設",
    "capacity": 0,
    "openDays": [],
    "openDaysNote": ""
  },
  {
    "id": "4051280073",
    "name": "医療法人　イースタンクリニック　老人保健施設　木の葉の里",
    "kana": "イリョウホウジン　イースタンクリニック　ロウジンホケンシセツ　コノハノサト",
    "address": "福岡県福岡市南区多賀２丁目４番６号",
    "lat": 33.5597164,
    "lng": 130.4112766,
    "tel": "092-557-3600",
    "url": "http://konohano-sato.com",
    "pref": "福岡県",
    "city": "福岡市南区",
    "category": "rouken",
    "serviceType": "介護老人保健施設",
    "capacity": 0,
    "openDays": [],
    "openDaysNote": ""
  },
  {
    "id": "4051280099",
    "name": "介護老人保健施設　ひのき",
    "kana": "カイゴロウジンホケンシセツ　ヒノキ",
    "address": "福岡県福岡市南区桧原6-44-20",
    "lat": 33.5283057,
    "lng": 130.3844301,
    "tel": "092-567-8800",
    "url": "http://hinoki-kai.com/",
    "pref": "福岡県",
    "city": "福岡市南区",
    "category": "rouken",
    "serviceType": "介護老人保健施設",
    "capacity": 0,
    "openDays": [],
    "openDaysNote": ""
  },
  {
    "id": "4051280081",
    "name": "介護老人保健施設　湯の里まとば",
    "kana": "カイゴロウジンホケンシセツ　ユノサトマトバ",
    "address": "福岡市南区的場2丁目32-17",
    "lat": 33.5408829,
    "lng": 130.4337588,
    "tel": "092-501-3100",
    "url": "https://www.fukukoukai.or.jp/index.php",
    "pref": "福岡県",
    "city": "福岡市南区",
    "category": "rouken",
    "serviceType": "介護老人保健施設",
    "capacity": 0,
    "openDays": [],
    "openDaysNote": ""
  },
  {
    "id": "4051280107",
    "name": "原病院介護老人保健施設花菖蒲",
    "kana": "ハラビョウインカイゴロウジンホケンシセツハナショウブ",
    "address": "福岡県福岡市南区若久２丁目６―１",
    "lat": 33.5538866,
    "lng": 130.4176181,
    "tel": "092-551-2577",
    "url": ":http://www.hara-hospital.com/",
    "pref": "福岡県",
    "city": "福岡市南区",
    "category": "rouken",
    "serviceType": "介護老人保健施設",
    "capacity": null,
    "openDays": [],
    "openDaysNote": ""
  },
  {
    "id": "4050380122",
    "name": "ケアセンターサンハウス",
    "kana": "ケアセンター　サンハウス",
    "address": "福岡県福岡市博多区諸岡4丁目28-32介護老人保健施設　ケアセンターサンハウス 介護老人保健施設　ケアセンターサンハウス",
    "lat": 33.5591672,
    "lng": 130.4472436,
    "tel": "092-571-8222",
    "url": "http://yuaikai-tomoda.or.jp/",
    "pref": "福岡県",
    "city": "福岡市博多区",
    "category": "rouken",
    "serviceType": "介護老人保健施設",
    "capacity": 89,
    "openDays": [],
    "openDaysNote": ""
  },
  {
    "id": "4050380171",
    "name": "介護老人保健施設　楽陽園",
    "kana": "カイゴロウジンホケンシセツ　ラクヨウエン",
    "address": "福岡市博多区金の隈３丁目２４番１６号",
    "lat": 33.5568992749829,
    "lng": 130.482499246835,
    "tel": "092-504-2671",
    "url": "https://www.kanenokuma-hp.jp/rakuyouen/",
    "pref": "福岡県",
    "city": "福岡市博多区",
    "category": "rouken",
    "serviceType": "介護老人保健施設",
    "capacity": 0,
    "openDays": [],
    "openDaysNote": ""
  },
  {
    "id": "4050380189",
    "name": "介護老人保健施設光",
    "kana": "カイゴロウジンホケンシセツヒカリ",
    "address": "福岡市博多区吉塚７丁目６番４０号",
    "lat": 33.6084744940939,
    "lng": 130.432050556483,
    "tel": "092-629-1631",
    "url": "https://www.lta-yoshizuka-g.jp/",
    "pref": "福岡県",
    "city": "福岡市博多区",
    "category": "rouken",
    "serviceType": "介護老人保健施設",
    "capacity": 0,
    "openDays": [],
    "openDaysNote": ""
  },
  {
    "id": "4050380072",
    "name": "金隈老人保健施設フラワーハウス博多",
    "kana": "カネノクマロウジンホケンシセツフラワーハウスハカタ",
    "address": "福岡県福岡市博多区金の隈3-24-8",
    "lat": 33.5562825,
    "lng": 130.4804852,
    "tel": "092-504-3355",
    "url": "http://www.seifu-kai.jp",
    "pref": "福岡県",
    "city": "福岡市博多区",
    "category": "rouken",
    "serviceType": "介護老人保健施設",
    "capacity": 0,
    "openDays": [],
    "openDaysNote": ""
  },
  {
    "id": "4055380028",
    "name": "介護老人保健施設　慈恵苑",
    "kana": "カイゴロウジンホケンシセツ　ジケイエン",
    "address": "福岡県田川郡福智町弁城３５５７番地",
    "lat": 33.6926587801223,
    "lng": 130.785730155156,
    "tel": "0947-22-1018",
    "url": "http://keiwakai-group.or.jp/jikeien/",
    "pref": "福岡県",
    "city": "福智町",
    "category": "rouken",
    "serviceType": "介護老人保健施設",
    "capacity": 100,
    "openDays": [],
    "openDaysNote": ""
  },
  {
    "id": "4055380085",
    "name": "介護老人保健施設　笑寿の森",
    "kana": "カイゴロウジンホケンシセツ　ショウジュノモリ",
    "address": "田川郡福智町赤池510番地131",
    "lat": 33.6955396,
    "lng": 130.7606424,
    "tel": "0947-28-5111",
    "url": "http://www.kyuwakai.or.jp",
    "pref": "福岡県",
    "city": "福智町",
    "category": "rouken",
    "serviceType": "介護老人保健施設",
    "capacity": 0,
    "openDays": [],
    "openDaysNote": ""
  },
  {
    "id": "4050580085",
    "name": "ナーシング・ケア宗像",
    "kana": "ナーシングケア・ムナカタ",
    "address": "福岡県福津市上西郷734-3",
    "lat": 33.7581615,
    "lng": 130.5107137,
    "tel": "0940-42-8333",
    "url": "http://www.kenjien.com/",
    "pref": "福岡県",
    "city": "福津市",
    "category": "rouken",
    "serviceType": "介護老人保健施設",
    "capacity": 0,
    "openDays": [],
    "openDaysNote": ""
  },
  {
    "id": "4050580077",
    "name": "介護老人保健施設　水光苑",
    "kana": "カイゴロウジンホケンシセツ　スイコウエン",
    "address": "福岡県福津市日蒔野5丁目7-2",
    "lat": 33.7597857973672,
    "lng": 130.49683033484,
    "tel": "0940-42-2221",
    "url": "http://www.suikokai.or.jp",
    "pref": "福岡県",
    "city": "福津市",
    "category": "rouken",
    "serviceType": "介護老人保健施設",
    "capacity": 100,
    "openDays": [],
    "openDaysNote": ""
  },
  {
    "id": "4057480073",
    "name": "介護老人保健施設　ケアハイツぶぜん",
    "kana": "カイゴロウジンホケンシセツ　ケアハイツブゼン",
    "address": "福岡県豊前市大字千束157－2",
    "lat": 33.6014338,
    "lng": 131.1281264,
    "tel": "0979-82-1212",
    "url": "",
    "pref": "福岡県",
    "city": "豊前市",
    "category": "rouken",
    "serviceType": "介護老人保健施設",
    "capacity": 100,
    "openDays": [],
    "openDaysNote": ""
  },
  {
    "id": "4057480081",
    "name": "介護老人保健施設　ほうらい山荘",
    "kana": "カイゴロウジンホケンシセツ　ホウライサンソウ",
    "address": "福岡県豊前市大字四郎丸１６９０－３",
    "lat": 33.6044603,
    "lng": 131.0921238,
    "tel": "0979-83-1155",
    "url": "http://www.houraisansou.com/",
    "pref": "福岡県",
    "city": "豊前市",
    "category": "rouken",
    "serviceType": "介護老人保健施設",
    "capacity": 0,
    "openDays": [],
    "openDaysNote": ""
  },
  {
    "id": "4056480017",
    "name": "介護老人保健施設　あやめの里",
    "kana": "カイゴロウジンホケンシセツ　アヤメノサト",
    "address": "北九州市戸畑区小芝２丁目４番１８号",
    "lat": 33.8954547,
    "lng": 130.8366992,
    "tel": "093-871-5902",
    "url": "https://www.kyoaikai.com/ayame/",
    "pref": "福岡県",
    "city": "北九州市戸畑区",
    "category": "rouken",
    "serviceType": "介護老人保健施設",
    "capacity": 100,
    "openDays": [],
    "openDaysNote": ""
  },
  {
    "id": "4056480009",
    "name": "介護老人保健施設　牧山いわき苑",
    "kana": "カイゴロウジンホケンシセツ　マキヤマイワキエン",
    "address": "北九州市戸畑区牧山1丁目1番1号",
    "lat": 33.8924586,
    "lng": 130.8196611,
    "tel": "093-871-3991",
    "url": "http://www.iwakikai.com",
    "pref": "福岡県",
    "city": "北九州市戸畑区",
    "category": "rouken",
    "serviceType": "介護老人保健施設",
    "capacity": 95,
    "openDays": [],
    "openDaysNote": ""
  },
  {
    "id": "4056580097",
    "name": "シルバーケア玄海",
    "kana": "シルバーケアゲンカイ",
    "address": "福岡県北九州市若松区大字有毛２９２４",
    "lat": 33.9340499,
    "lng": 130.6890308,
    "tel": "093-742-2555",
    "url": "http://care-net.biz/40/seishukai/mizumaki/php",
    "pref": "福岡県",
    "city": "北九州市若松区",
    "category": "rouken",
    "serviceType": "介護老人保健施設",
    "capacity": 100,
    "openDays": [],
    "openDaysNote": ""
  },
  {
    "id": "4056580071",
    "name": "介護老人保健施設　グリーン・ヒル若松",
    "kana": "カイゴシロウジンホケンシセツ　グリーンヒルワカマツ",
    "address": "北九州市若松区小敷ひびきの1丁目10番1号介護老人保健施設　グリーン・ヒル若松 介護老人保健施設　グリーン・ヒル若松",
    "lat": 33.8968496854554,
    "lng": 130.705131960188,
    "tel": "093-742-0033",
    "url": "http://www.wakato.or.jp/green_hil/index.html",
    "pref": "福岡県",
    "city": "北九州市若松区",
    "category": "rouken",
    "serviceType": "介護老人保健施設",
    "capacity": 100,
    "openDays": [],
    "openDaysNote": ""
  },
  {
    "id": "4056580089",
    "name": "介護老人保健施設　グリーンライフ",
    "kana": "カイゴロウジンホケンシセツ　グリーンライフ",
    "address": "福岡県北九州市若松区童子丸2丁目7番7号",
    "lat": 33.8896204,
    "lng": 130.763256,
    "tel": "093-701-0807",
    "url": "",
    "pref": "福岡県",
    "city": "北九州市若松区",
    "category": "rouken",
    "serviceType": "介護老人保健施設",
    "capacity": 55,
    "openDays": [],
    "openDaysNote": ""
  },
  {
    "id": "4056580105",
    "name": "介護老人保健施設　けやき",
    "kana": "カイゴロウジンホケンシセツ　ケヤキ",
    "address": "福岡県北九州市若松区西畑町９番７２号",
    "lat": 33.9107104,
    "lng": 130.7918585,
    "tel": "093-751-1888",
    "url": "http://www.e-keyaki.jp",
    "pref": "福岡県",
    "city": "北九州市若松区",
    "category": "rouken",
    "serviceType": "介護老人保健施設",
    "capacity": 0,
    "openDays": [],
    "openDaysNote": ""
  },
  {
    "id": "4057780159",
    "name": "介護老人保健施設　あけぼの苑",
    "kana": "カイゴロウジンホケンシセツ　アケボノエン",
    "address": "福岡県北九州市小倉南区大字湯川139番地の21",
    "lat": 33.8506108,
    "lng": 130.9097693,
    "tel": "093-475-6000",
    "url": "http:/www.akebonoen@kitakyu-hp.or.jp.",
    "pref": "福岡県",
    "city": "北九州市小倉南区",
    "category": "rouken",
    "serviceType": "介護老人保健施設",
    "capacity": 0,
    "openDays": [],
    "openDaysNote": ""
  },
  {
    "id": "4057780092",
    "name": "介護老人保健施設　さくら苑",
    "kana": "カイゴロウジンホケンシセツ　サクラエン",
    "address": "北九州市小倉南区朽網西一丁目６番６号",
    "lat": 33.811964,
    "lng": 130.9527921,
    "tel": "093-475-3311",
    "url": "http://www.sakurakai52.or.jp",
    "pref": "福岡県",
    "city": "北九州市小倉南区",
    "category": "rouken",
    "serviceType": "介護老人保健施設",
    "capacity": 0,
    "openDays": [],
    "openDaysNote": ""
  },
  {
    "id": "4057780183",
    "name": "介護老人保健施設　シルバーケア若園",
    "kana": "カイゴロウジンホケンシセツ　シルバーケアワカゾノ",
    "address": "福岡県北九州市小倉南区若園3丁目2-7",
    "lat": 33.8487993,
    "lng": 130.8887635,
    "tel": "093-952-5581",
    "url": "http://care-net.biz/40/seishukai/",
    "pref": "福岡県",
    "city": "北九州市小倉南区",
    "category": "rouken",
    "serviceType": "介護老人保健施設",
    "capacity": 0,
    "openDays": [],
    "openDaysNote": ""
  },
  {
    "id": "4057780134",
    "name": "介護老人保健施設わかくさ",
    "kana": "カイゴロウジンホケンシセツワカクサ",
    "address": "福岡県北九州市小倉南区沼本町4丁目2番19号",
    "lat": 33.8459061023732,
    "lng": 130.9444522295,
    "tel": "093-475-2001",
    "url": "http://www.jikeikai.jp",
    "pref": "福岡県",
    "city": "北九州市小倉南区",
    "category": "rouken",
    "serviceType": "介護老人保健施設",
    "capacity": 100,
    "openDays": [],
    "openDaysNote": ""
  },
  {
    "id": "4057780100",
    "name": "介護老人保健施設博慈苑",
    "kana": "カイゴロウジンホケンシセツハクジエン",
    "address": "福岡県北九州市小倉南区大字堀越358番",
    "lat": 33.8170364,
    "lng": 130.8821316,
    "tel": "093-961-8920",
    "url": "http://www.tsutsumikokura.com/",
    "pref": "福岡県",
    "city": "北九州市小倉南区",
    "category": "rouken",
    "serviceType": "介護老人保健施設",
    "capacity": 0,
    "openDays": [],
    "openDaysNote": ""
  },
  {
    "id": "4057780118",
    "name": "小倉南ヴィラガーデン",
    "kana": "コクラミナミウ゛ィラガーデン",
    "address": "北九州市　小倉南区　葛原東2-14-2",
    "lat": 33.8400090056596,
    "lng": 130.929441655981,
    "tel": "093-473-1011",
    "url": "http://www.jojinkai.com/villa/",
    "pref": "福岡県",
    "city": "北九州市小倉南区",
    "category": "rouken",
    "serviceType": "介護老人保健施設",
    "capacity": 0,
    "openDays": [],
    "openDaysNote": ""
  },
  {
    "id": "4050580010",
    "name": "小倉南ヴィラガーデン（ユニット）",
    "kana": "コクラミナミウ゛ィラガーデン（ユニット）",
    "address": "北九州市　小倉南区　葛原東2-14-2",
    "lat": 33.8401599,
    "lng": 130.9299732,
    "tel": "093-473-1011",
    "url": "http://www.jojinkai.com/villa/index.html",
    "pref": "福岡県",
    "city": "北九州市小倉南区",
    "category": "rouken",
    "serviceType": "介護老人保健施設",
    "capacity": 0,
    "openDays": [],
    "openDaysNote": ""
  },
  {
    "id": "4070404373",
    "name": "医療法人　社団響会　介護老人保健施設　エバーグリーン",
    "kana": "イリョウホウジン　シャダンヒビキカイ　カイゴロウジンホケンシセツ　エバーグリーン",
    "address": "福岡県　北九州市　小倉北区　大畠２丁目６番４８号",
    "lat": 33.8751466,
    "lng": 130.8992866,
    "tel": "093-522-4101",
    "url": "",
    "pref": "福岡県",
    "city": "北九州市小倉北区",
    "category": "rouken",
    "serviceType": "介護老人保健施設",
    "capacity": 60,
    "openDays": [],
    "openDaysNote": ""
  },
  {
    "id": "4057780167",
    "name": "医療法人　北愛会　介護老人保健施設　桜丘",
    "kana": "イリョウホウジンホクアイカイカイゴロウジンホケンシセツサクラガオカ",
    "address": "福岡県北九州市小倉北区上富野3丁目17-1",
    "lat": 33.8851903,
    "lng": 130.9029943,
    "tel": "093-541-0300",
    "url": "http://hoku-i.jp",
    "pref": "福岡県",
    "city": "北九州市小倉北区",
    "category": "rouken",
    "serviceType": "介護老人保健施設",
    "capacity": 50,
    "openDays": [],
    "openDaysNote": ""
  },
  {
    "id": "4057780175",
    "name": "介護老人保健施設　「ハーモニー」",
    "kana": "カイゴロウジンホケンシセツ　「ハーモニー」",
    "address": "福岡県北九州市小倉北区熊谷2-1-4",
    "lat": 33.8582332282807,
    "lng": 130.865797832541,
    "tel": "093-571-1441",
    "url": "http://www.sinai.or.jp/",
    "pref": "福岡県",
    "city": "北九州市小倉北区",
    "category": "rouken",
    "serviceType": "介護老人保健施設",
    "capacity": 50,
    "openDays": [],
    "openDaysNote": ""
  },
  {
    "id": "4057780126",
    "name": "介護老人保健施設　エメロード三萩野",
    "kana": "カイゴロウジンホケンシセツ　エメロードミハギノ",
    "address": "北九州市小倉北区東篠崎１丁目９番３号",
    "lat": 33.8661139,
    "lng": 130.8787664,
    "tel": "093-932-1277",
    "url": "http://www.tensuikai.or.jp/tensui/mihagino.html",
    "pref": "福岡県",
    "city": "北九州市小倉北区",
    "category": "rouken",
    "serviceType": "介護老人保健施設",
    "capacity": 80,
    "openDays": [],
    "openDaysNote": ""
  },
  {
    "id": "4057780001",
    "name": "介護老人保健施設　伸寿苑",
    "kana": "カイゴロウジンホケンシセツ　シンジュエン",
    "address": "北九州市小倉北区篠崎一丁目５番１号",
    "lat": 33.8681414,
    "lng": 130.869078,
    "tel": "093-591-9050",
    "url": "https://kyouwakai.net/shinjuen/",
    "pref": "福岡県",
    "city": "北九州市小倉北区",
    "category": "rouken",
    "serviceType": "介護老人保健施設",
    "capacity": 120,
    "openDays": [],
    "openDaysNote": ""
  },
  {
    "id": "4057780142",
    "name": "介護老人保健施設みやこ",
    "kana": "カイゴロウジンホケンシセツミヤコ",
    "address": "北九州市小倉北区都二丁目１３番８号",
    "lat": 33.8785316,
    "lng": 130.8454767,
    "tel": "093-652-3714",
    "url": "http://www.r-miyako.com",
    "pref": "福岡県",
    "city": "北九州市小倉北区",
    "category": "rouken",
    "serviceType": "介護老人保健施設",
    "capacity": 100,
    "openDays": [],
    "openDaysNote": ""
  },
  {
    "id": "4056680079",
    "name": "介護老人保健施設　サンフラワーズ北九州",
    "kana": "カイゴロウジンホケンシセツ　サンフラワーズ　キタキュウシュウ",
    "address": "福岡県北九州市八幡西区塔野三丁目16番２号",
    "lat": 33.8231069220003,
    "lng": 130.734055706082,
    "tel": "093-612-5285",
    "url": "http://www.sunflowers-k.com",
    "pref": "福岡県",
    "city": "北九州市八幡西区",
    "category": "rouken",
    "serviceType": "介護老人保健施設",
    "capacity": 0,
    "openDays": [],
    "openDaysNote": ""
  },
  {
    "id": "4056680095",
    "name": "介護老人保健施設　ナーシングセンター八幡",
    "kana": "カイゴロウジンホケンシセツ　ナーシングセンターヤハタ",
    "address": "福岡県北九州市八幡西区里中3-12-12",
    "lat": 33.8422450686182,
    "lng": 130.736063446696,
    "tel": "093-691-3366",
    "url": "http://www.yahata-hp.com",
    "pref": "福岡県",
    "city": "北九州市八幡西区",
    "category": "rouken",
    "serviceType": "介護老人保健施設",
    "capacity": 0,
    "openDays": [],
    "openDaysNote": ""
  },
  {
    "id": "4056680152",
    "name": "介護老人保健施設　ひまわり",
    "kana": "カイゴロウジンホケンシセツ　ヒマワリ",
    "address": "福岡県北九州市八幡西区町上津役東3丁目17番10号",
    "lat": 33.8207558,
    "lng": 130.7605749,
    "tel": "093-614-1753",
    "url": "http://www.shinseikai-hos.or.jp",
    "pref": "福岡県",
    "city": "北九州市八幡西区",
    "category": "rouken",
    "serviceType": "介護老人保健施設",
    "capacity": 0,
    "openDays": [],
    "openDaysNote": ""
  },
  {
    "id": "4056680178",
    "name": "介護老人保健施設　香月の杜",
    "kana": "カイゴロウジンホケンシセツ　　カツキノモリ",
    "address": "福岡県北九州市八幡西区香月西三丁目10番20号",
    "lat": 33.8023519881307,
    "lng": 130.724287708598,
    "tel": "093-618-7337",
    "url": "",
    "pref": "福岡県",
    "city": "北九州市八幡西区",
    "category": "rouken",
    "serviceType": "介護老人保健施設",
    "capacity": 0,
    "openDays": [],
    "openDaysNote": ""
  },
  {
    "id": "4056680160",
    "name": "介護老人保健施設　宗寿苑",
    "kana": "カイゴロウジンホケンシセツ　ソウジュエン",
    "address": "福岡県北九州市八幡西区友田二丁目４番１号",
    "lat": 33.871102,
    "lng": 130.7234212,
    "tel": "093-602-6670",
    "url": "http://www.soujyuen.com",
    "pref": "福岡県",
    "city": "北九州市八幡西区",
    "category": "rouken",
    "serviceType": "介護老人保健施設",
    "capacity": 0,
    "openDays": [],
    "openDaysNote": ""
  },
  {
    "id": "4056680103",
    "name": "介護老人保健施設　翡翠苑",
    "kana": "カイゴロウジンホケンシセツ　ヒスイエン",
    "address": "北九州市八幡西区森下町２７番４３号",
    "lat": 33.8495560931957,
    "lng": 130.742069898811,
    "tel": "093-622-0333",
    "url": "http://www.touchiku-hospital.com/",
    "pref": "福岡県",
    "city": "北九州市八幡西区",
    "category": "rouken",
    "serviceType": "介護老人保健施設",
    "capacity": 0,
    "openDays": [],
    "openDaysNote": ""
  },
  {
    "id": "4056680111",
    "name": "介護老人保健施設サングレース",
    "kana": "カイゴロウジンホケンシセツサングレース",
    "address": "北九州市八幡西区大字則松１０３番地の１",
    "lat": 33.8526238,
    "lng": 130.7293435,
    "tel": "093-693-1666",
    "url": "https://sungrace1996.jp",
    "pref": "福岡県",
    "city": "北九州市八幡西区",
    "category": "rouken",
    "serviceType": "介護老人保健施設",
    "capacity": 0,
    "openDays": [],
    "openDaysNote": ""
  },
  {
    "id": "4056680145",
    "name": "介護老人保健施設しんわ苑",
    "kana": "カイゴロウジンホケンシセツシンワエン",
    "address": "福岡県北九州市八幡西区楠橋南2丁目19-6",
    "lat": 33.7844013,
    "lng": 130.7318254,
    "tel": "093-619-1800",
    "url": "http://shinwakai-gr.jp",
    "pref": "福岡県",
    "city": "北九州市八幡西区",
    "category": "rouken",
    "serviceType": "介護老人保健施設",
    "capacity": 100,
    "openDays": [],
    "openDaysNote": ""
  },
  {
    "id": "4056680087",
    "name": "介護老人保健施設　正寿園",
    "kana": "カイゴロウジンホケンシセツ　セイジュエン",
    "address": "福岡県北九州市八幡東区大蔵3丁目2番1号介護老人保健施設　正寿園 介護老人保健施設　正寿園",
    "lat": 33.8566604776547,
    "lng": 130.816891541139,
    "tel": "093-652-3911",
    "url": "https://n-sato.com",
    "pref": "福岡県",
    "city": "北九州市八幡東区",
    "category": "rouken",
    "serviceType": "介護老人保健施設",
    "capacity": 100,
    "openDays": [],
    "openDaysNote": ""
  },
  {
    "id": "4056680137",
    "name": "介護老人保健施設やすらぎ",
    "kana": "カイゴロウジンホケンシセツヤスラギ",
    "address": "福岡県北九州市八幡東区槻田一丁目16-12",
    "lat": 33.8627362,
    "lng": 130.8461965,
    "tel": "093-653-1112",
    "url": "http://www.furate.net/",
    "pref": "福岡県",
    "city": "北九州市八幡東区",
    "category": "rouken",
    "serviceType": "介護老人保健施設",
    "capacity": 0,
    "openDays": [],
    "openDaysNote": ""
  },
  {
    "id": "4056680129",
    "name": "介護老人保健施設済生会くれたけ荘",
    "kana": "カイゴロウジンホケンシセツサイセイカイクレタケソウ",
    "address": "北九州市八幡東区中尾1丁目22-18",
    "lat": 33.8600944,
    "lng": 130.8294231,
    "tel": "093-653-1121",
    "url": "http://www.saiseikai-kuretakesou.jp",
    "pref": "福岡県",
    "city": "北九州市八幡東区",
    "category": "rouken",
    "serviceType": "介護老人保健施設",
    "capacity": 100,
    "openDays": [],
    "openDaysNote": ""
  },
  {
    "id": "4057680110",
    "name": "介護老人保健施設　フレンドリー松ヶ江",
    "kana": "カイゴロウジンホケンシセツ　フレンドリーマツガエ",
    "address": "北九州市門司区大字畑355番地",
    "lat": 33.8859002,
    "lng": 130.9734687,
    "tel": "093-481-6308",
    "url": "http://matsugae.or.jp/",
    "pref": "福岡県",
    "city": "北九州市門司区",
    "category": "rouken",
    "serviceType": "介護老人保健施設",
    "capacity": 52,
    "openDays": [],
    "openDaysNote": ""
  },
  {
    "id": "4057680086",
    "name": "介護老人保健施設　春幸苑",
    "kana": "カイゴロウジンホケンシセツシュンコウエン",
    "address": "福岡県北九州市門司区春日町12番8号",
    "lat": 33.9297703,
    "lng": 130.972423,
    "tel": "093-341-0011",
    "url": "http://www.yojuen.com/shunkou/",
    "pref": "福岡県",
    "city": "北九州市門司区",
    "category": "rouken",
    "serviceType": "介護老人保健施設",
    "capacity": 0,
    "openDays": [],
    "openDaysNote": ""
  },
  {
    "id": "4057680094",
    "name": "介護老人保健施設　清友荘",
    "kana": "カイゴロウジンホケンシセツ　セイユウソウ",
    "address": "福岡県北九州市門司区白野江二丁目12番39号",
    "lat": 33.9363895,
    "lng": 131.0049644,
    "tel": "093-341-1165",
    "url": "",
    "pref": "福岡県",
    "city": "北九州市門司区",
    "category": "rouken",
    "serviceType": "介護老人保健施設",
    "capacity": 37,
    "openDays": [],
    "openDaysNote": ""
  },
  {
    "id": "4057680102",
    "name": "松恒園",
    "kana": "ショウコウエン",
    "address": "福岡県北九州市門司区吉志5-5-10",
    "lat": 33.8651967,
    "lng": 130.9609455,
    "tel": "093-481-6548",
    "url": "http://www.torisu-hp.or.jp",
    "pref": "福岡県",
    "city": "北九州市門司区",
    "category": "rouken",
    "serviceType": "介護老人保健施設",
    "capacity": 100,
    "openDays": [],
    "openDaysNote": ""
  },
  {
    "id": "4054380078",
    "name": "介護老人保健施設　水郷苑",
    "kana": "カイゴロウジンホケンシセツ　スイゴウエン",
    "address": "福岡県柳川市上宮永町柴原２６９番地",
    "lat": 33.1553676,
    "lng": 130.4064032,
    "tel": "0944-74-4001",
    "url": "http://www.kouhoukai.org/suigouen/",
    "pref": "福岡県",
    "city": "柳川市",
    "category": "rouken",
    "serviceType": "介護老人保健施設",
    "capacity": 0,
    "openDays": [],
    "openDaysNote": ""
  },
  {
    "id": "4054380086",
    "name": "介護老人保健施設　柳川やすらぎの里",
    "kana": "カイゴロウジンホケンシセツ　ヤナガワヤスラギノサト",
    "address": "福岡県柳川市西浜武1076-5介護老人保健施設　柳川やすらぎの里 介護老人保健施設　柳川やすらぎの里",
    "lat": 33.170318,
    "lng": 130.3859776,
    "tel": "0944-74-2230",
    "url": "http://y-jikeikai.jp",
    "pref": "福岡県",
    "city": "柳川市",
    "category": "rouken",
    "serviceType": "介護老人保健施設",
    "capacity": 0,
    "openDays": [],
    "openDaysNote": ""
  },
  {
    "id": "4054380094",
    "name": "介護老人保健施設シャンティ",
    "kana": "カイゴロウジンホケンシセツシャンティ",
    "address": "柳川市大和町豊原521-7",
    "lat": 33.147844,
    "lng": 130.4234766,
    "tel": "0944-72-3508",
    "url": "http://www.seiwakai.info",
    "pref": "福岡県",
    "city": "柳川市",
    "category": "rouken",
    "serviceType": "介護老人保健施設",
    "capacity": 0,
    "openDays": [],
    "openDaysNote": ""
  }
]