[
  {
    "id": "750485096",
    "name": "医療法人　桂生会　介護老人保健施設　四季庵",
    "kana": "イリョウホウジン　ケイセイカイ　カイゴロウジンホケンシセツ　シキアン",
    "address": "福島県いわき市好間町中好間字六反歩１－４６",
    "lat": 37.0515256,
    "lng": 140.8428249,
    "tel": "0246-26-8900",
    "url": "sikian-iwaki.com",
    "pref": "福島県",
    "city": "いわき市",
    "category": "rouken",
    "serviceType": "介護老人保健施設",
    "capacity": 0,
    "openDays": [],
    "openDaysNote": ""
  },
  {
    "id": "750485013",
    "name": "医療法人社団秀友会介護老人保健施設　サンライフゆもと",
    "kana": "イリョウホウジンシャダンシュウユウカイカイゴロウジンホケンシセツ　サンライフユモト",
    "address": "福島県いわき市常磐藤原町大畑13-１",
    "lat": 37.0011338,
    "lng": 140.8135278,
    "tel": "0246-43-6116",
    "url": "http://www.sunlife-yumoto.com/",
    "pref": "福島県",
    "city": "いわき市",
    "category": "rouken",
    "serviceType": "介護老人保健施設",
    "capacity": 150,
    "openDays": [],
    "openDaysNote": ""
  },
  {
    "id": "750485104",
    "name": "医療法人社団正風会　介護老人保健施設　いきがい村",
    "kana": "イリョウホウジンシャダン　セイフウカイ　カイゴロウジンホケンシセツ　イキガイムラ",
    "address": "福島県いわき市小浜町東ノ作１６４の２番地",
    "lat": 36.9170222,
    "lng": 140.8430049,
    "tel": "0246-62-0030",
    "url": "http://www.ishiihp.or.jp",
    "pref": "福島県",
    "city": "いわき市",
    "category": "rouken",
    "serviceType": "介護老人保健施設",
    "capacity": 100,
    "openDays": [],
    "openDaysNote": ""
  },
  {
    "id": "750485047",
    "name": "介護老人保健施設　うらら苑",
    "kana": "カイゴロウジンホケンシセツ　ウララエン",
    "address": "福島県いわき市常磐長孫町大平８０番地",
    "lat": 36.9718245,
    "lng": 140.85331,
    "tel": "0246-44-2455",
    "url": "http://syunyoukai.sakura.ne.jp",
    "pref": "福島県",
    "city": "いわき市",
    "category": "rouken",
    "serviceType": "介護老人保健施設",
    "capacity": 100,
    "openDays": [],
    "openDaysNote": ""
  },
  {
    "id": "750480022",
    "name": "介護老人保健施設　ガーデニア",
    "kana": "カイゴロウジンホケンシセツ　ガーデニア",
    "address": "福島県いわき市錦町落合１番地１",
    "lat": 36.900462878219,
    "lng": 140.782424803041,
    "tel": "0246-77-2201",
    "url": "https://www.kureha-hosp.jp/guidance/gardenia/",
    "pref": "福島県",
    "city": "いわき市",
    "category": "rouken",
    "serviceType": "介護老人保健施設",
    "capacity": 0,
    "openDays": [],
    "openDaysNote": ""
  },
  {
    "id": "750480048",
    "name": "介護老人保健施設　しろがねの里",
    "kana": "カイゴロウジンホケンシセツ　シロガネノサト",
    "address": "いわき市四倉町字東一丁目５４番地",
    "lat": 37.1000771,
    "lng": 140.9855515,
    "tel": "０２４６－３８－８２９６",
    "url": "https://www.big-advance.site/c/191/1452",
    "pref": "福島県",
    "city": "いわき市",
    "category": "rouken",
    "serviceType": "介護老人保健施設",
    "capacity": 0,
    "openDays": [],
    "openDaysNote": ""
  },
  {
    "id": "750485070",
    "name": "介護老人保健施設　ヒーリングホーム四倉",
    "kana": "カイゴロウジンホケンシセツ　ヒーリングホームヨツクラ",
    "address": "福島県いわき市四倉町下仁井田南追切２３番地",
    "lat": 37.0898531,
    "lng": 140.9724701,
    "tel": "0246-32-8877",
    "url": "http://www.yotsukura.or.jp/healing-home-yotsukura.html",
    "pref": "福島県",
    "city": "いわき市",
    "category": "rouken",
    "serviceType": "介護老人保健施設",
    "capacity": 100,
    "openDays": [],
    "openDaysNote": ""
  },
  {
    "id": "750480030",
    "name": "介護老人保健施設　佳勝園",
    "kana": "カイゴロウジンホケンシセツ　カショウエン",
    "address": "福島県いわき市金山町月見台134-1",
    "lat": 36.9249125,
    "lng": 140.8312462,
    "tel": "0246-62-0655",
    "url": "https://www.kashouen.net/",
    "pref": "福島県",
    "city": "いわき市",
    "category": "rouken",
    "serviceType": "介護老人保健施設",
    "capacity": 0,
    "openDays": [],
    "openDaysNote": ""
  },
  {
    "id": "750485088",
    "name": "介護老人保健施設　小名浜ときわ苑",
    "kana": "カイゴロウジンホケンシセツ　オナハマトキワエン",
    "address": "福島県いわき市小名浜金成字町田18-1",
    "lat": 36.988131,
    "lng": 140.8971404,
    "tel": "0246-58-2300",
    "url": "http://www.onahama-tokiwaen.com/",
    "pref": "福島県",
    "city": "いわき市",
    "category": "rouken",
    "serviceType": "介護老人保健施設",
    "capacity": 0,
    "openDays": [],
    "openDaysNote": ""
  },
  {
    "id": "750480055",
    "name": "介護老人保健施設　小名浜ときわ苑",
    "kana": "カイゴロウジンホケンシセツ　オナハマトキワエン",
    "address": "福島県いわき市小名浜金成字町田18-1",
    "lat": 36.988131,
    "lng": 140.8971404,
    "tel": "0246-58-2300",
    "url": "http://www.onahama-tokiwaen.com",
    "pref": "福島県",
    "city": "いわき市",
    "category": "rouken",
    "serviceType": "介護老人保健施設",
    "capacity": 0,
    "openDays": [],
    "openDaysNote": ""
  },
  {
    "id": "753280023",
    "name": "介護老人保健施設　楢葉ときわ苑",
    "kana": "カイゴロウジンホケンシセツ　ナラハトキワエン",
    "address": "福島県いわき市内郷高坂町四方木田155（仮設）",
    "lat": 37.0447188920283,
    "lng": 140.865551580624,
    "tel": "0246-27-1117",
    "url": "https://www.tokiwa.or.jp/welfare/naraha/summary.html",
    "pref": "福島県",
    "city": "いわき市",
    "category": "rouken",
    "serviceType": "介護老人保健施設",
    "capacity": 0,
    "openDays": [],
    "openDaysNote": ""
  },
  {
    "id": "750485021",
    "name": "社会福祉法人昌平黌　介護老人保健施設二ツ箭荘",
    "kana": "シャカイフクシホウジンショウヘイコウ　カイゴロウジンホケンシセツフタツヤソウ",
    "address": "福島県いわき市小川町上小川字大坂68番地の1",
    "lat": 37.1415997,
    "lng": 140.8568609,
    "tel": "0246-83-2428",
    "url": "http://syouheikou.or.jp/futatsuya/",
    "pref": "福島県",
    "city": "いわき市",
    "category": "rouken",
    "serviceType": "介護老人保健施設",
    "capacity": 80,
    "openDays": [],
    "openDaysNote": ""
  },
  {
    "id": "752085019",
    "name": "プライムケア桃花林",
    "kana": "プライムケアトウカリン",
    "address": "福島県伊達市保原町字岡代9番地1",
    "lat": 37.810914,
    "lng": 140.5617891,
    "tel": "024-575-0750",
    "url": "http://www.jinsenkai.or.jp/prime/",
    "pref": "福島県",
    "city": "伊達市",
    "category": "rouken",
    "serviceType": "介護老人保健施設",
    "capacity": 0,
    "openDays": [],
    "openDaysNote": ""
  },
  {
    "id": "752685016",
    "name": "坂下厚生総合病院併設介護老人保健施設　なごみ",
    "kana": "バンゲコウセイソウゴウビョウインヘイセツカイゴロウジンホケンシセツナゴミ",
    "address": "福島県河沼郡会津坂下町字上柳田2210-1",
    "lat": 37.5650813475007,
    "lng": 139.808988816193,
    "tel": "0242-83-7530",
    "url": "https://fkosei-nagomi.jp/",
    "pref": "福島県",
    "city": "会津坂下町",
    "category": "rouken",
    "serviceType": "介護老人保健施設",
    "capacity": 0,
    "openDays": [],
    "openDaysNote": ""
  },
  {
    "id": "750285025",
    "name": "一般財団法人　竹田健康財団　介護老人保健施設エミネンス芦ノ牧",
    "kana": "イッパンザイダンホウジン　タケダケンコウザイダン　カイゴロウジンホケンシセツ　エミネンスアシノマキ",
    "address": "福島県会津若松市大戸町大字芦牧字湯平５２７－１",
    "lat": 37.3640019,
    "lng": 139.9138266,
    "tel": "0242-92-5111",
    "url": "http//www.takeda.or.jp",
    "pref": "福島県",
    "city": "会津若松市",
    "category": "rouken",
    "serviceType": "介護老人保健施設",
    "capacity": 116,
    "openDays": [],
    "openDaysNote": ""
  },
  {
    "id": "750280059",
    "name": "介護療養型老人保健施設天生",
    "kana": "カイゴリョウヨウガタロウジンホケンシセツテンショウ",
    "address": "福島県会津若松市一箕町松長6丁目12番地1",
    "lat": 37.5251481123153,
    "lng": 139.958435583328,
    "tel": "0242-37-7088",
    "url": "https://www.onchikai.jp/hillstensho/rouken/",
    "pref": "福島県",
    "city": "会津若松市",
    "category": "rouken",
    "serviceType": "介護老人保健施設",
    "capacity": 174,
    "openDays": [],
    "openDaysNote": ""
  },
  {
    "id": "750280067",
    "name": "介護老人保健施設　ライフケア鶴賀",
    "kana": "カイゴロウジンホケンシセツ　ライフケアツルガ",
    "address": "福島県会津若松市一箕町大字鶴賀字船ヶ森東535-1",
    "lat": 37.5215305,
    "lng": 139.9492445,
    "tel": "0242-33-0375",
    "url": "",
    "pref": "福島県",
    "city": "会津若松市",
    "category": "rouken",
    "serviceType": "介護老人保健施設",
    "capacity": 0,
    "openDays": [],
    "openDaysNote": ""
  },
  {
    "id": "750280075",
    "name": "介護老人保健施設　ライフサポート寧寧",
    "kana": "カイゴロウジンホケンシセツ　ライフサポート　ネネ",
    "address": "福島県会津若松市一箕町大字鶴賀字苅林39番地１",
    "lat": 37.523222,
    "lng": 139.9520901,
    "tel": "0242-33-3412",
    "url": "",
    "pref": "福島県",
    "city": "会津若松市",
    "category": "rouken",
    "serviceType": "介護老人保健施設",
    "capacity": 70,
    "openDays": [],
    "openDaysNote": ""
  },
  {
    "id": "752485011",
    "name": "介護老人保健施設　美野里",
    "kana": "カイゴロウジンホケンシセツ　ミノリ",
    "address": "福島県会津若松市北会津町東小松字南古川12番地",
    "lat": 37.4724038,
    "lng": 139.8909535,
    "tel": "0242-56-5000",
    "url": "http://www.meisei-kai.or.jp",
    "pref": "福島県",
    "city": "会津若松市",
    "category": "rouken",
    "serviceType": "介護老人保健施設",
    "capacity": 0,
    "openDays": [],
    "openDaysNote": ""
  },
  {
    "id": "750280042",
    "name": "介護老人保健施設　悠悠",
    "kana": "カイゴロウジンホケンシセツ　ユウユウ",
    "address": "福島県会津若松市一箕町大字松長字上長原54",
    "lat": 37.5218054,
    "lng": 139.9603977,
    "tel": "0242-24-0333",
    "url": "https://www.onchikai.jp/yuyu/",
    "pref": "福島県",
    "city": "会津若松市",
    "category": "rouken",
    "serviceType": "介護老人保健施設",
    "capacity": 0,
    "openDays": [],
    "openDaysNote": ""
  },
  {
    "id": "750280018",
    "name": "介護老人保健施設悠悠",
    "kana": "カイゴロウジンホケンシセツユウユウ",
    "address": "福島県会津若松市一箕町大字松長字上長原54",
    "lat": 37.5217582,
    "lng": 139.9603588,
    "tel": "0242-24-0333",
    "url": "http://www.onchikai.jp/yuyu",
    "pref": "福島県",
    "city": "会津若松市",
    "category": "rouken",
    "serviceType": "介護老人保健施設",
    "capacity": 0,
    "openDays": [],
    "openDaysNote": ""
  },
  {
    "id": "752780015",
    "name": "介護老人保健施設　グリーンケアハイツ",
    "kana": "カイゴロウジンホケンシセツ　グリーンケアハイツ",
    "address": "福島県大沼郡会津美里町荻窪字上野１８５番地",
    "lat": 37.4508187463294,
    "lng": 139.809499517722,
    "tel": "0242-54-2300",
    "url": "http://www.heiseikai-group.com/",
    "pref": "福島県",
    "city": "会津美里町",
    "category": "rouken",
    "serviceType": "介護老人保健施設",
    "capacity": 0,
    "openDays": [],
    "openDaysNote": ""
  },
  {
    "id": "752785014",
    "name": "介護老人保健施設　グリーンケアハイツ",
    "kana": "カイゴロウジンホケンシセツ　グリーンケアハイツ",
    "address": "福島県大沼郡会津美里町荻窪字上野１８５番地",
    "lat": 37.4507846768773,
    "lng": 139.809456602377,
    "tel": "0242-54-2300",
    "url": "http://www.heiseikai-group.com/",
    "pref": "福島県",
    "city": "会津美里町",
    "category": "rouken",
    "serviceType": "介護老人保健施設",
    "capacity": 0,
    "openDays": [],
    "openDaysNote": ""
  },
  {
    "id": "750880023",
    "name": "医療機関併設型小規模介護老人保健施設ハートランドケア東町",
    "kana": "イリョウキカンヘイセツガタショウキボカイゴロウジンホケンシセツハートランドケアヒガシマチ",
    "address": "福島県喜多方市字蒔田3106番地の4",
    "lat": 37.6556451,
    "lng": 139.8829382,
    "tel": "0241-22-0221",
    "url": "https://keiwakai.net/",
    "pref": "福島県",
    "city": "喜多方市",
    "category": "rouken",
    "serviceType": "介護老人保健施設",
    "capacity": 0,
    "openDays": [],
    "openDaysNote": ""
  },
  {
    "id": "752580019",
    "name": "介護老人保健施設　ケアホームやまと",
    "kana": "カイゴロウジンホケンシセツ　ケアホームヤマト",
    "address": "福島県喜多方市山都町木幡字鼬塚丁１５７１",
    "lat": 37.6547738,
    "lng": 139.775271,
    "tel": "0241-38-2600",
    "url": "http://www.sawara.or.jp",
    "pref": "福島県",
    "city": "喜多方市",
    "category": "rouken",
    "serviceType": "介護老人保健施設",
    "capacity": 90,
    "openDays": [],
    "openDaysNote": ""
  },
  {
    "id": "750885022",
    "name": "介護老人保健施設　パステルヴィレッジ小野",
    "kana": "カイゴロウジンホケンシセツ　パステルウ゛ィレッジオノ",
    "address": "福島県喜多方市字加登２９７１－１",
    "lat": 37.6583266,
    "lng": 139.8809635,
    "tel": "0241-22-7110",
    "url": "http://onohp.jp/publics/index/65/",
    "pref": "福島県",
    "city": "喜多方市",
    "category": "rouken",
    "serviceType": "介護老人保健施設",
    "capacity": 0,
    "openDays": [],
    "openDaysNote": ""
  },
  {
    "id": "750885014",
    "name": "介護老人保健施設　天心ケアハイツ",
    "kana": "カイゴロウジンホケンシセツ　テンシンケアイハツ",
    "address": "福島県喜多方市松山町村松字北原3656-3",
    "lat": 37.6836482,
    "lng": 139.8699967,
    "tel": "0241-23-3422",
    "url": "http://www.tenshinkai.or.jp",
    "pref": "福島県",
    "city": "喜多方市",
    "category": "rouken",
    "serviceType": "介護老人保健施設",
    "capacity": 0,
    "openDays": [],
    "openDaysNote": ""
  },
  {
    "id": "752080010",
    "name": "介護老人保健施設　桑折「聖・オリーブの郷」",
    "kana": "カイゴロウジンホケンシセツ　コオリセイオリーブノサト",
    "address": "福島県伊達郡桑折町大字上郡字内記1番地1",
    "lat": 37.848955559929,
    "lng": 140.523220056484,
    "tel": "024-581-2100",
    "url": "http://sosei.org",
    "pref": "福島県",
    "city": "桑折町",
    "category": "rouken",
    "serviceType": "介護老人保健施設",
    "capacity": 100,
    "openDays": [],
    "openDaysNote": ""
  },
  {
    "id": "750385056",
    "name": "一般財団法人太田綜合病院附属介護老人保健施設桔梗",
    "kana": "イッパンザイダンホウジンオオタソウゴウビョウインフゾクカイゴロウジンホケンシセツキキョウ",
    "address": "福島県郡山市熱海町玉川字万海田46番地7",
    "lat": 37.4824087780408,
    "lng": 140.287407028172,
    "tel": "024-984-6688",
    "url": "http://roken.ohta-hp.or.jp",
    "pref": "福島県",
    "city": "郡山市",
    "category": "rouken",
    "serviceType": "介護老人保健施設",
    "capacity": 0,
    "openDays": [],
    "openDaysNote": ""
  },
  {
    "id": "750385031",
    "name": "介護老人保健施設　ゴールドメディア",
    "kana": "カイゴロウジンホケンシセツ　ゴールドメディア",
    "address": "福島県郡山市八山田七丁目136",
    "lat": 37.4216411,
    "lng": 140.3837476,
    "tel": "024-934-5530",
    "url": "http://www.minamitohoku.or.jp/goldmedia/",
    "pref": "福島県",
    "city": "郡山市",
    "category": "rouken",
    "serviceType": "介護老人保健施設",
    "capacity": 0,
    "openDays": [],
    "openDaysNote": ""
  },
  {
    "id": "750385015",
    "name": "介護老人保健施設　啓寿園",
    "kana": "カイゴロウジンホケンシセツ　ケイジュエン",
    "address": "福島県郡山市安積町笹川字経坦31番地",
    "lat": 37.3487957,
    "lng": 140.3637439,
    "tel": "024-946-6145",
    "url": "http://www.asaka.or.jp",
    "pref": "福島県",
    "city": "郡山市",
    "category": "rouken",
    "serviceType": "介護老人保健施設",
    "capacity": 0,
    "openDays": [],
    "openDaysNote": ""
  },
  {
    "id": "750385072",
    "name": "介護老人保健施設　光の森",
    "kana": "カイゴロウジンホケンシセツ　ヒカリノモリ",
    "address": "福島県郡山市横川町字遠後５０－１",
    "lat": 37.3913759,
    "lng": 140.4152737,
    "tel": "024-956-8100",
    "url": "http://hikarino-mori.jp/",
    "pref": "福島県",
    "city": "郡山市",
    "category": "rouken",
    "serviceType": "介護老人保健施設",
    "capacity": 0,
    "openDays": [],
    "openDaysNote": ""
  },
  {
    "id": "750385064",
    "name": "介護老人保健施設　紫泉の里",
    "kana": "カイゴロウジンホケンシセツ　シセンノサト",
    "address": "郡山市田村町岩作字穂多礼218",
    "lat": 37.3219609,
    "lng": 140.4151683,
    "tel": "024-955-2700",
    "url": "http://www.jihankai.jp",
    "pref": "福島県",
    "city": "郡山市",
    "category": "rouken",
    "serviceType": "介護老人保健施設",
    "capacity": 0,
    "openDays": [],
    "openDaysNote": ""
  },
  {
    "id": "750385023",
    "name": "介護老人保健施設オリオン",
    "kana": "カイゴロウジンホケンシセツオリオン",
    "address": "福島県郡山市片平町字峯三天２",
    "lat": 37.4339081,
    "lng": 140.3210473,
    "tel": "024-952-6413",
    "url": "http://www.hoshipital.jp/orion/index.html",
    "pref": "福島県",
    "city": "郡山市",
    "category": "rouken",
    "serviceType": "介護老人保健施設",
    "capacity": 100,
    "openDays": [],
    "openDaysNote": ""
  },
  {
    "id": "750385049",
    "name": "介護老人保健施設コスモス通り",
    "kana": "カイゴロウジンホケンシセツコスモスドオリ",
    "address": "福島県郡山市鳴神三丁目１１０番地",
    "lat": 37.3940124,
    "lng": 140.3350613,
    "tel": "024-952-8778",
    "url": "http://www.koriyama-seikeigeka.jp/",
    "pref": "福島県",
    "city": "郡山市",
    "category": "rouken",
    "serviceType": "介護老人保健施設",
    "capacity": 0,
    "openDays": [],
    "openDaysNote": ""
  },
  {
    "id": "750380024",
    "name": "介護老人保健施設さかえハートみらい",
    "kana": "カイゴロウジンホケンシセツサカエハートミライ",
    "address": "郡山市東原3-112",
    "lat": 37.4327259,
    "lng": 140.3547443,
    "tel": "024-927-0222",
    "url": "",
    "pref": "福島県",
    "city": "郡山市",
    "category": "rouken",
    "serviceType": "介護老人保健施設",
    "capacity": 60,
    "openDays": [],
    "openDaysNote": ""
  },
  {
    "id": "753080050",
    "name": "（医）誠励会介護老人保健施設サテライト大久田リハビリテーション・ケアセンター",
    "kana": "イリョウホウジンセイレイカイカイゴロウジンホケンシセツサテライトオオグタリハビリテーションケアセンター",
    "address": "福島県石川郡古殿町大字大久田字石神44-1",
    "lat": 37.0919906,
    "lng": 140.5965451,
    "tel": "0247-57-5100",
    "url": "http://www.seireikai.net",
    "pref": "福島県",
    "city": "古殿町",
    "category": "rouken",
    "serviceType": "介護老人保健施設",
    "capacity": 0,
    "openDays": [],
    "openDaysNote": ""
  },
  {
    "id": "753180017",
    "name": "介護老人保健施設　三春南東北リハビリテーション・ケアセンター",
    "kana": "カイゴロウジンホケンシセツ　ミハルミナミトウホクリハビリテーション・ケアセンター",
    "address": "福島県田村郡三春町大字山田字クルミヤツ3-3",
    "lat": 37.4266348,
    "lng": 140.4481947,
    "tel": "0247-61-2511",
    "url": "http://www.kaigo-miharu.com/",
    "pref": "福島県",
    "city": "三春町",
    "category": "rouken",
    "serviceType": "介護老人保健施設",
    "capacity": 0,
    "openDays": [],
    "openDaysNote": ""
  },
  {
    "id": "750780017",
    "name": "介護老人保健施設　南東北春日リハビリテーション・ケアセンター",
    "kana": "カイゴロウジンホケンシセツ　ミナミトウホクカスガリハビリテーション・ケアセンター",
    "address": "福島県須賀川市南上町１２３番地ー１",
    "lat": 37.2834419,
    "lng": 140.3864457,
    "tel": "0248-63-7279",
    "url": "http://www.kasuga-rehabili.com",
    "pref": "福島県",
    "city": "須賀川市",
    "category": "rouken",
    "serviceType": "介護老人保健施設",
    "capacity": null,
    "openDays": [],
    "openDaysNote": ""
  },
  {
    "id": "750780025",
    "name": "介護老人保健施設　南東北春日リハビリテーション・ケアセンター",
    "kana": "カイゴロウジンホケンシセツ　ミナミトウホクカスガリハビリテーション・ケアセンター",
    "address": "福島県須賀川市南上町123番地の1",
    "lat": 37.2834807,
    "lng": 140.3865235,
    "tel": "0248-63-7279",
    "url": "http://www.kasuga-rehabili.com",
    "pref": "福島県",
    "city": "須賀川市",
    "category": "rouken",
    "serviceType": "介護老人保健施設",
    "capacity": null,
    "openDays": [],
    "openDaysNote": ""
  },
  {
    "id": "750785016",
    "name": "介護老人保健施設アネシス",
    "kana": "カイゴロウジンホケンシセツアネシス",
    "address": "福島県須賀川市稲字古舘３９－２",
    "lat": 37.2858264,
    "lng": 140.3264144,
    "tel": "0248-63-2300",
    "url": "http://www.h3.dion.ne.jp/~heishin/index2.htm",
    "pref": "福島県",
    "city": "須賀川市",
    "category": "rouken",
    "serviceType": "介護老人保健施設",
    "capacity": 0,
    "openDays": [],
    "openDaysNote": ""
  },
  {
    "id": "750785024",
    "name": "介護老人保健施設オープンアームズ",
    "kana": "カイゴロウジンホケンシセツオープンアームズ",
    "address": "福島県須賀川市西川字池ノ上５１－１０２",
    "lat": 37.3074141,
    "lng": 140.3673988,
    "tel": "0248-76-7708",
    "url": "http://open-arms.or.jp",
    "pref": "福島県",
    "city": "須賀川市",
    "category": "rouken",
    "serviceType": "介護老人保健施設",
    "capacity": 0,
    "openDays": [],
    "openDaysNote": ""
  },
  {
    "id": "752580092",
    "name": "西会津町介護老人保健施設｢憩の森」",
    "kana": "ニシアイヅマチカイゴロウジンホケンシセツイコイノモリ",
    "address": "福島県耶麻郡西会津町登世島字田畑乙2042-65",
    "lat": 37.5979247,
    "lng": 139.6395615,
    "tel": "0241-45-4231",
    "url": "http://nishiaizu-fukushi.jp/",
    "pref": "福島県",
    "city": "西会津町",
    "category": "rouken",
    "serviceType": "介護老人保健施設",
    "capacity": 0,
    "openDays": [],
    "openDaysNote": ""
  },
  {
    "id": "752880013",
    "name": "介護老人保健施設ニコニコリハビリ",
    "kana": "カイゴロウジンホケンシセツニコニコリハビリ",
    "address": "福島県西白河郡西郷村字下前田東４",
    "lat": 37.122910072806,
    "lng": 140.19062938532,
    "tel": "0248-24-2525",
    "url": "http://www.hakueikai.gr.jp/",
    "pref": "福島県",
    "city": "西郷村",
    "category": "rouken",
    "serviceType": "介護老人保健施設",
    "capacity": 100,
    "openDays": [],
    "openDaysNote": ""
  },
  {
    "id": "753080068",
    "name": "（医）誠励会　医療併設型介護老人保健施設　いしかわリハビリテーション・ケアセンター",
    "kana": "イリョウホウジン　セイレイカイ　イリョウヘイセツガタカイゴロウジンホケンシセツ　イシカワリハビリテーションケアセンター",
    "address": "福島県石川郡石川町字新町46-1",
    "lat": 37.1483597,
    "lng": 140.4545923,
    "tel": "0247-26-1156",
    "url": "http://www.seireikai.net",
    "pref": "福島県",
    "city": "石川町",
    "category": "rouken",
    "serviceType": "介護老人保健施設",
    "capacity": 0,
    "openDays": [],
    "openDaysNote": ""
  },
  {
    "id": "753080035",
    "name": "介護老人保健施設オルキス",
    "kana": "カイゴロウジンホケンシセツオルキス",
    "address": "福島県石川郡石川町大字沢井字西ノ作89-40",
    "lat": 37.1389778,
    "lng": 140.3917899,
    "tel": "0247-26-3030",
    "url": "http://www.h3.dion.ne.jp/~heishin/o/index.html",
    "pref": "福島県",
    "city": "石川町",
    "category": "rouken",
    "serviceType": "介護老人保健施設",
    "capacity": 0,
    "openDays": [],
    "openDaysNote": ""
  },
  {
    "id": "752080044",
    "name": "介護老人保健施設　めがみ",
    "kana": "カイゴロウジンホケンシセツ　メガミ",
    "address": "福島県伊達郡川俣町字五百田２０－１",
    "lat": 37.6659941,
    "lng": 140.5991161,
    "tel": "024-566-2661",
    "url": "http://kawamata.saiseikai.or.jp/nadeshiko-kawamata/",
    "pref": "福島県",
    "city": "川俣町",
    "category": "rouken",
    "serviceType": "介護老人保健施設",
    "capacity": 29,
    "openDays": [],
    "openDaysNote": ""
  },
  {
    "id": "752080036",
    "name": "介護老人保健施設　リハビリ南東北川俣",
    "kana": "カイゴロウジンホケンシセツ　リハビリミナミトウホクカワマタ",
    "address": "福島県伊達郡川俣町大字鶴沢字池ノ上30-1",
    "lat": 37.6636992,
    "lng": 140.5750517,
    "tel": "024-538-1611",
    "url": "http://www.kaigo-kawamata.com/",
    "pref": "福島県",
    "city": "川俣町",
    "category": "rouken",
    "serviceType": "介護老人保健施設",
    "capacity": 0,
    "openDays": [],
    "openDaysNote": ""
  },
  {
    "id": "752880021",
    "name": "介護老人保健施設　泉崎南東北リハビリテーション・ケアセンター",
    "kana": "カイゴロウジンホケンシセツ　イズミザキミナミトウホクリハビリテーション・ケアセンター",
    "address": "福島県西白河郡泉崎村大字泉崎字山ヶ入56",
    "lat": 37.1572856,
    "lng": 140.2919965,
    "tel": "0248-53-2415",
    "url": "http://www.izumizaki-rehabili.com/",
    "pref": "福島県",
    "city": "泉崎村",
    "category": "rouken",
    "serviceType": "介護老人保健施設",
    "capacity": 0,
    "openDays": [],
    "openDaysNote": ""
  },
  {
    "id": "750980013",
    "name": "介護老人保健施設　森の都",
    "kana": "カイゴロウジンホケンシセツ　　モリノミヤコ",
    "address": "福島県相馬市柚木字大関70-１",
    "lat": 37.7443884,
    "lng": 140.9553357,
    "tel": "0244-37-2530",
    "url": "http://www.koureikai.jp/",
    "pref": "福島県",
    "city": "相馬市",
    "category": "rouken",
    "serviceType": "介護老人保健施設",
    "capacity": 0,
    "openDays": [],
    "openDaysNote": ""
  },
  {
    "id": "750985012",
    "name": "介護老人保健施設ベテランズサークル",
    "kana": "カイゴロウジンホケンシセツベテランズサークル",
    "address": "福島県相馬市小泉字高池319-1",
    "lat": 37.8074731,
    "lng": 140.9192082,
    "tel": "0244-35-6161",
    "url": "",
    "pref": "福島県",
    "city": "相馬市",
    "category": "rouken",
    "serviceType": "介護老人保健施設",
    "capacity": 0,
    "openDays": [],
    "openDaysNote": ""
  },
  {
    "id": "752385013",
    "name": "只見町介護老人保健施設「こぶし苑」",
    "kana": "タダミマチカイゴロウジンホケンシセツ「コブシエン」",
    "address": "福島県南会津郡只見町大字長浜字唱平３１番地",
    "lat": 37.3040678,
    "lng": 139.3745813,
    "tel": "0241-84-2101",
    "url": "http://business4.plala.or.jp/kobusi04/",
    "pref": "福島県",
    "city": "只見町",
    "category": "rouken",
    "serviceType": "介護老人保健施設",
    "capacity": 0,
    "openDays": [],
    "openDaysNote": ""
  },
  {
    "id": "752980011",
    "name": "介護老人保健施設　志宝台",
    "kana": "カイゴロウジンホケンシセツ　シホウダイ",
    "address": "福島県東白川郡棚倉町大字関口字上志宝73番地",
    "lat": 37.0359076041116,
    "lng": 140.388455468123,
    "tel": "0247-57-5231",
    "url": "https://kujikai.or.jp/",
    "pref": "福島県",
    "city": "棚倉町",
    "category": "rouken",
    "serviceType": "介護老人保健施設",
    "capacity": 0,
    "openDays": [],
    "openDaysNote": ""
  },
  {
    "id": "752580118",
    "name": "介護老人保健施設　ケアテル猪苗代(ユニット型）",
    "kana": "カイゴロウジンホケンシセツケアテルイナワシロユニットガタ",
    "address": "福島県耶麻郡猪苗代町大字川桁字元寺2403番地1",
    "lat": 37.5421088,
    "lng": 140.1533904,
    "tel": "0242-66-3030",
    "url": "http:/www.caretel.jp/",
    "pref": "福島県",
    "city": "猪苗代町",
    "category": "rouken",
    "serviceType": "介護老人保健施設",
    "capacity": 0,
    "openDays": [],
    "openDaysNote": ""
  },
  {
    "id": "752580068",
    "name": "介護老人保健施設　ケアテル猪苗代(従来型)",
    "kana": "カイゴロウジンホケンシセツケアテルイナワシロジュウライガタ",
    "address": "福島県耶麻郡猪苗代町大字川桁字元寺2403番地1",
    "lat": 37.5421088,
    "lng": 140.1533904,
    "tel": "0242-66-3030",
    "url": "http://www.caretel.jp/",
    "pref": "福島県",
    "city": "猪苗代町",
    "category": "rouken",
    "serviceType": "介護老人保健施設",
    "capacity": 0,
    "openDays": [],
    "openDaysNote": ""
  },
  {
    "id": "752580100",
    "name": "介護老人保健施設　多生苑猪苗代",
    "kana": "カイゴロウジンホケンシセツ　タショウエンイナワシロ",
    "address": "福島県耶麻郡猪苗代町字梨木西101番地",
    "lat": 37.5553772,
    "lng": 140.1116765,
    "tel": "0242-72-1818",
    "url": "https://www.onchikai.jp/tashouen-inawashiro/",
    "pref": "福島県",
    "city": "猪苗代町",
    "category": "rouken",
    "serviceType": "介護老人保健施設",
    "capacity": 100,
    "openDays": [],
    "openDaysNote": ""
  },
  {
    "id": "753185016",
    "name": "介護老人保健施設　桜美苑",
    "kana": "カイゴロウジンホケンシセツ　オウビエン",
    "address": "福島県田村市船引町船引字馬場41-2",
    "lat": 37.4424771,
    "lng": 140.5690589,
    "tel": "0247-81-1551",
    "url": "https://www.shukeikai-s.jp",
    "pref": "福島県",
    "city": "田村市",
    "category": "rouken",
    "serviceType": "介護老人保健施設",
    "capacity": 100,
    "openDays": [],
    "openDaysNote": ""
  },
  {
    "id": "751180019",
    "name": "介護老人保健施設　滝根「聖・オリオンの郷」",
    "kana": "カイゴロウジンホケンシセツ　タキネ「セイ・オリオンノサト」",
    "address": "福島県田村市滝根町神俣字大平２６６－３",
    "lat": 37.3261503,
    "lng": 140.6785575,
    "tel": "0247-68-1121",
    "url": "https://sosei.org/publics/index/127/",
    "pref": "福島県",
    "city": "田村市",
    "category": "rouken",
    "serviceType": "介護老人保健施設",
    "capacity": 0,
    "openDays": [],
    "openDaysNote": ""
  },
  {
    "id": "751180027",
    "name": "介護老人保健施設　歩",
    "kana": "カイゴロウジンホケンシセツ　アユム",
    "address": "福島県田村市船引町船引字砂子田42",
    "lat": 37.446090427075,
    "lng": 140.571241260049,
    "tel": "0247-82-6788",
    "url": "https://funehiki.clinic/",
    "pref": "福島県",
    "city": "田村市",
    "category": "rouken",
    "serviceType": "介護老人保健施設",
    "capacity": 29,
    "openDays": [],
    "openDaysNote": ""
  },
  {
    "id": "752380022",
    "name": "南会津町介護老人保健施設湯花里苑",
    "kana": "ミナミアイヅマチカイゴロウジンホケンシセツユカリエン",
    "address": "福島県南会津郡南会津町湯ノ花６４８番地",
    "lat": 37.0675423,
    "lng": 139.5226001,
    "tel": "0241-78-8250",
    "url": "",
    "pref": "福島県",
    "city": "南会津町",
    "category": "rouken",
    "serviceType": "介護老人保健施設",
    "capacity": 0,
    "openDays": [],
    "openDaysNote": ""
  },
  {
    "id": "750685018",
    "name": "介護老人保健施設　長生院",
    "kana": "カイゴロウジンホケンシセツ　チョウセイイン",
    "address": "福島県南相馬市原町区本町一丁目１４１番地",
    "lat": 37.6392056,
    "lng": 140.9598867,
    "tel": "0244-22-6000",
    "url": "www.chouseiin.jp/",
    "pref": "福島県",
    "city": "南相馬市",
    "category": "rouken",
    "serviceType": "介護老人保健施設",
    "capacity": 100,
    "openDays": [],
    "openDaysNote": ""
  },
  {
    "id": "751280017",
    "name": "介護老人保健施設ヨッシーランド",
    "kana": "カイゴロウジンホケンシセツヨッシーランド",
    "address": "原町区石神字赤坂110番地1",
    "lat": 37.6434999,
    "lng": 140.9243667,
    "tel": "0244-24-0000",
    "url": "jiseikai-mc.jp/",
    "pref": "福島県",
    "city": "南相馬市",
    "category": "rouken",
    "serviceType": "介護老人保健施設",
    "capacity": 0,
    "openDays": [],
    "openDaysNote": ""
  },
  {
    "id": "753385012",
    "name": "福島県厚生農業協同組合連合会鹿島厚生病院併設介護老人保健施設厚寿苑",
    "kana": "フクシマケンコウセイノウギョウキョウドウクミアイレンゴウカイカシマコウセイビョウインヘイセツカイゴロウジンホケンシセツコウジュエン",
    "address": "福島県南相馬市鹿島区横手字八郎内３番地",
    "lat": 37.7089284886547,
    "lng": 140.962700390074,
    "tel": "0244-46-1113",
    "url": "http://kashima-koujuen.net/",
    "pref": "福島県",
    "city": "南相馬市",
    "category": "rouken",
    "serviceType": "介護老人保健施設",
    "capacity": 100,
    "openDays": [],
    "openDaysNote": ""
  },
  {
    "id": "751085028",
    "name": "介護老人保健施設　やまびこ苑",
    "kana": "カイゴロウジンホケンシセツ　ヤマビコエン",
    "address": "福島県二本松市住吉100",
    "lat": 37.5545189,
    "lng": 140.4039022,
    "tel": "0243-22-3618",
    "url": "http://www.masu-med.or.jp",
    "pref": "福島県",
    "city": "二本松市",
    "category": "rouken",
    "serviceType": "介護老人保健施設",
    "capacity": 0,
    "openDays": [],
    "openDaysNote": ""
  },
  {
    "id": "751080011",
    "name": "介護老人保健施設あだたら",
    "kana": "カイゴロウジンホケンシセツアダタラ",
    "address": "福島県二本松市油井字戸ノ内21-1",
    "lat": 37.6145274,
    "lng": 140.4639664,
    "tel": "0243-62-3700",
    "url": "http://www.sg-adatara.jp/",
    "pref": "福島県",
    "city": "二本松市",
    "category": "rouken",
    "serviceType": "介護老人保健施設",
    "capacity": 0,
    "openDays": [],
    "openDaysNote": ""
  },
  {
    "id": "751085010",
    "name": "二本松病院附属介護老人保健施設",
    "kana": "ニホンマツビョウインフゾクカイゴロウジンホケンシセツ",
    "address": "福島県二本松市成田町１丁目８６７番地",
    "lat": 37.5910489,
    "lng": 140.4215742,
    "tel": "0243-22-6517",
    "url": "http://nihonmatsu.jcho.go.jp/",
    "pref": "福島県",
    "city": "二本松市",
    "category": "rouken",
    "serviceType": "介護老人保健施設",
    "capacity": 0,
    "openDays": [],
    "openDaysNote": ""
  },
  {
    "id": "750580011",
    "name": "介護老人保健施設　陽護　すずらん",
    "kana": "カイゴロウジンホケンシセツ　ヨウゴ　スズラン",
    "address": "福島県白河市郭内11",
    "lat": 37.1279481,
    "lng": 140.2168643,
    "tel": "0248-24-1111",
    "url": "",
    "pref": "福島県",
    "city": "白河市",
    "category": "rouken",
    "serviceType": "介護老人保健施設",
    "capacity": 75,
    "openDays": [],
    "openDaysNote": ""
  },
  {
    "id": "750585010",
    "name": "介護老人保健施設「ひもろぎの園」",
    "kana": "カイゴロウジンホケンシセツヒモロギノソノ",
    "address": "福島県白河市関辺川前88",
    "lat": 37.0953891,
    "lng": 140.2508437,
    "tel": "0248-31-8888",
    "url": "https://sono-himorogi.org/",
    "pref": "福島県",
    "city": "白河市",
    "category": "rouken",
    "serviceType": "介護老人保健施設",
    "capacity": 0,
    "openDays": [],
    "openDaysNote": ""
  },
  {
    "id": "752985010",
    "name": "塙厚生病院併設　介護老人保健施設久慈の郷",
    "kana": "ハナワコウセイビョウインヘイセツカイゴロウジンホケンシセツクジノサト",
    "address": "福島県東白川郡塙町大字塙字材木町14番地",
    "lat": 36.9605479,
    "lng": 140.409109,
    "tel": "0247-43-1101",
    "url": "",
    "pref": "福島県",
    "city": "塙町",
    "category": "rouken",
    "serviceType": "介護老人保健施設",
    "capacity": 0,
    "openDays": [],
    "openDaysNote": ""
  },
  {
    "id": "752580084",
    "name": "磐梯町介護老人保健施設「りんどう」",
    "kana": "バンダイマチカイゴロウジンホケンシセツ「リンドウ」",
    "address": "福島県耶麻郡磐梯町大字磐梯字諏訪山２９２６番地",
    "lat": 37.5571353,
    "lng": 139.981228,
    "tel": "0242-74-1660",
    "url": "http://www.jadecom.or.jp",
    "pref": "福島県",
    "city": "磐梯町",
    "category": "rouken",
    "serviceType": "介護老人保健施設",
    "capacity": 100,
    "openDays": [],
    "openDaysNote": ""
  },
  {
    "id": "750185035",
    "name": "医療法人　生愛会　附属介護老人保健施設　生愛会ナーシングケアセンター",
    "kana": "イリョウホウジン　セイアイカイ　フゾクカイゴロウジンホケンシセツセイアイカイナーシングケアセンター",
    "address": "福島県福島市大笹生字向平１３－１",
    "lat": 37.796467,
    "lng": 140.3917513,
    "tel": "024-555-2244",
    "url": "http://www.seiaikai.jp/",
    "pref": "福島県",
    "city": "福島市",
    "category": "rouken",
    "serviceType": "介護老人保健施設",
    "capacity": 0,
    "openDays": [],
    "openDaysNote": ""
  },
  {
    "id": "750185027",
    "name": "介護老人保健施設　「聖・オリーブの郷」",
    "kana": "カイゴロウジンホケンシセツ　「セイ・オリーブノサト」",
    "address": "福島県福島市山口字梅本１１－１",
    "lat": 37.7668537,
    "lng": 140.5136661,
    "tel": "024-536-5000",
    "url": "https://sosei.org/publics/index/86/",
    "pref": "福島県",
    "city": "福島市",
    "category": "rouken",
    "serviceType": "介護老人保健施設",
    "capacity": 0,
    "openDays": [],
    "openDaysNote": ""
  },
  {
    "id": "750180051",
    "name": "介護老人保健施設　ケアタウンひまわり",
    "kana": "カイゴロウジンホケンシセツ　ケアタウンヒマワリ",
    "address": "福島県福島市伏拝字沼ノ上2-17",
    "lat": 37.7113198,
    "lng": 140.4675532,
    "tel": "024-547-2211",
    "url": "http://www.seijukai.org/",
    "pref": "福島県",
    "city": "福島市",
    "category": "rouken",
    "serviceType": "介護老人保健施設",
    "capacity": 0,
    "openDays": [],
    "openDaysNote": ""
  },
  {
    "id": "750180036",
    "name": "介護老人保健施設　ケアフォーラムあづま",
    "kana": "カイゴロウジンホケンシセツ　ケアフォーラムアヅマ",
    "address": "福島県福島市大森字柳下４８－１",
    "lat": 37.7388828,
    "lng": 140.4447483,
    "tel": "024-544-0311",
    "url": "http://www.azumanh.or.jp/",
    "pref": "福島県",
    "city": "福島市",
    "category": "rouken",
    "serviceType": "介護老人保健施設",
    "capacity": 0,
    "openDays": [],
    "openDaysNote": ""
  },
  {
    "id": "750180069",
    "name": "介護老人保健施設　ホリスティカかまた",
    "kana": "カイゴロウジンホケンシセツ　ホリスティカカマタ",
    "address": "福島県福島市鎌田字門丈壇4番1",
    "lat": 37.7962722,
    "lng": 140.4803042,
    "tel": "024-552-5111",
    "url": "http://www.holistica-kamata.jp",
    "pref": "福島県",
    "city": "福島市",
    "category": "rouken",
    "serviceType": "介護老人保健施設",
    "capacity": 0,
    "openDays": [],
    "openDaysNote": ""
  },
  {
    "id": "750180010",
    "name": "介護老人保健施設　リハビリ南東北福島",
    "kana": "カイゴロウジンホケンシセツ　リハビリミナミトウホクフクシマ",
    "address": "福島県福島市荒井北3丁目1-18",
    "lat": 37.7256446479041,
    "lng": 140.387326298811,
    "tel": "024-594-0155",
    "url": "https://f-str.jp/healthcare_facility/index.html",
    "pref": "福島県",
    "city": "福島市",
    "category": "rouken",
    "serviceType": "介護老人保健施設",
    "capacity": 0,
    "openDays": [],
    "openDaysNote": ""
  },
  {
    "id": "750180028",
    "name": "介護老人保健施設「聖・オリーブの郷」東館",
    "kana": "カイゴロウジンホケンシセツ　セイ・オリーブノサトヒガシカン",
    "address": "福島県福島市山口字四至田１－１",
    "lat": 37.7641567,
    "lng": 140.5141718,
    "tel": "024-526-7700",
    "url": "http://www.seiolivenosatohigashikan.jp/",
    "pref": "福島県",
    "city": "福島市",
    "category": "rouken",
    "serviceType": "介護老人保健施設",
    "capacity": 100,
    "openDays": [],
    "openDaysNote": ""
  },
  {
    "id": "750185019",
    "name": "介護老人保健施設エルダーランド",
    "kana": "カイゴロウジンホケンシセツ　エルダーランド",
    "address": "福島県福島市吉倉字谷地５２",
    "lat": 37.7423852,
    "lng": 140.4462675,
    "tel": "024-545-8431",
    "url": "http://www.elder-land.jp/",
    "pref": "福島県",
    "city": "福島市",
    "category": "rouken",
    "serviceType": "介護老人保健施設",
    "capacity": 90,
    "openDays": [],
    "openDaysNote": ""
  },
  {
    "id": "750185043",
    "name": "介護老人保健施設はなひらの",
    "kana": "カイゴロウジンホケンシセツハナヒラノ",
    "address": "福島県福島市飯坂町平野字小深田1-5",
    "lat": 37.8015067,
    "lng": 140.4407743,
    "tel": "024-542-8755",
    "url": "https://watari-fukushikai.jp/",
    "pref": "福島県",
    "city": "福島市",
    "category": "rouken",
    "serviceType": "介護老人保健施設",
    "capacity": 0,
    "openDays": [],
    "openDaysNote": ""
  },
  {
    "id": "750180077",
    "name": "敬愛シニアガーデン卸町",
    "kana": "ケイアイシニアガーデンオロシマチ",
    "address": "福島県福島市鎌田字卸町８－１",
    "lat": 37.7942113,
    "lng": 140.4808126,
    "tel": "024-553-5221",
    "url": "http://www.keiai-kai.or.jp/publics/index/321/",
    "pref": "福島県",
    "city": "福島市",
    "category": "rouken",
    "serviceType": "介護老人保健施設",
    "capacity": 0,
    "openDays": [],
    "openDaysNote": ""
  },
  {
    "id": "750180085",
    "name": "小規模介護老人保健施設　回生",
    "kana": "ショウキボカイゴロウジンホケンシセツ　カイセイ",
    "address": "福島県福島市西中央一丁目12番地の２",
    "lat": 37.7586273,
    "lng": 140.4333154,
    "tel": "024-533-6652",
    "url": "http://kaiseido.or.jp",
    "pref": "福島県",
    "city": "福島市",
    "category": "rouken",
    "serviceType": "介護老人保健施設",
    "capacity": 19,
    "openDays": [],
    "openDaysNote": ""
  },
  {
    "id": "750185050",
    "name": "老人保健施設にじのまち",
    "kana": "ロウジンホケンシセツニジノマチ",
    "address": "福島県福島市北沢又字番匠田5",
    "lat": 37.7854746,
    "lng": 140.4346031,
    "tel": "024-557-7501",
    "url": "http://www.kirari-hcoop.com",
    "pref": "福島県",
    "city": "福島市",
    "category": "rouken",
    "serviceType": "介護老人保健施設",
    "capacity": 100,
    "openDays": [],
    "openDaysNote": ""
  },
  {
    "id": "753080043",
    "name": "医療法人誠励会介護老人保健施設ひらたリハビリテーション・ケアセンター",
    "kana": "イリョウホウジンセイレイカイカイゴロウジンホケンシセツヒラタリハビリテーションケアセンター",
    "address": "福島県石川郡平田村上蓬田字清水内18-2",
    "lat": 37.2433604,
    "lng": 140.5677566,
    "tel": "0247-57-5222",
    "url": "http://www.seireikai.net/",
    "pref": "福島県",
    "city": "平田村",
    "category": "rouken",
    "serviceType": "介護老人保健施設",
    "capacity": 0,
    "openDays": [],
    "openDaysNote": ""
  },
  {
    "id": "752185017",
    "name": "医療法人慈久会　介護老人保健施設明生苑",
    "kana": "イリョウホウジンジキュウカイ　カイゴロウジンホケンシセツメイセイエン",
    "address": "福島県本宮市本宮字南町裡１４９番地",
    "lat": 37.5170615064445,
    "lng": 140.401542179314,
    "tel": "0243-34-6799",
    "url": "http://www.tanihospital.jp/meiseien/",
    "pref": "福島県",
    "city": "本宮市",
    "category": "rouken",
    "serviceType": "介護老人保健施設",
    "capacity": 0,
    "openDays": [],
    "openDaysNote": ""
  },
  {
    "id": "752185025",
    "name": "介護老人保健施設　まゆみの里",
    "kana": "カイゴロウジンホケンシセツ　マユミノサト",
    "address": "福島県本宮市青田字花掛20番地",
    "lat": 37.5021603,
    "lng": 140.3928851,
    "tel": "0243-34-3305",
    "url": "http://www.ochiaikai.jp/",
    "pref": "福島県",
    "city": "本宮市",
    "category": "rouken",
    "serviceType": "介護老人保健施設",
    "capacity": 96,
    "openDays": [],
    "openDaysNote": ""
  },
  {
    "id": "752880047",
    "name": "医療法人あさひ会　介護老人保健施設南東北プロヴィデンス",
    "kana": "イリョウホウジンアサヒカイ　カイゴロウジンホケンシセツミナミトウホクプロウ˝ィデンス",
    "address": "福島県西白河郡矢吹町文京町226",
    "lat": 37.1881902,
    "lng": 140.3387341,
    "tel": "0248-44-4111",
    "url": "http://www.asahi-providence.com./",
    "pref": "福島県",
    "city": "矢吹町",
    "category": "rouken",
    "serviceType": "介護老人保健施設",
    "capacity": 0,
    "openDays": [],
    "openDaysNote": ""
  },
  {
    "id": "752880039",
    "name": "介護老人保健施設ほのぼの",
    "kana": "カイゴロウジンホケンシセツホノボノ",
    "address": "福島県西白河郡矢吹町井戸尻４４５番地６",
    "lat": 37.2052045,
    "lng": 140.3088419,
    "tel": "0248-41-1411",
    "url": "http://www.ns-hp.ecnet.jp",
    "pref": "福島県",
    "city": "矢吹町",
    "category": "rouken",
    "serviceType": "介護老人保健施設",
    "capacity": 0,
    "openDays": [],
    "openDaysNote": ""
  }
]