[
  {
    "id": "552580011",
    "name": "介護老人保健施設　栗山荘",
    "kana": "カイゴロウジンホケンシセツ　クリヤマソウ",
    "address": "秋田県にかほ市象潟町小滝字麻針堰18",
    "lat": 39.1687605,
    "lng": 139.9470352,
    "tel": "0184-44-2210",
    "url": "http://www.kisakata-kunpukai.or.jp/",
    "pref": "秋田県",
    "city": "にかほ市",
    "category": "rouken",
    "serviceType": "介護老人保健施設",
    "capacity": 0,
    "openDays": [],
    "openDaysNote": ""
  },
  {
    "id": "552380032",
    "name": "介護老人保健施設　　翠香苑",
    "kana": "カイゴロウジンホケンシセツ　　スイコウエン",
    "address": "秋田県南秋田郡井川町小竹花字道端14-1",
    "lat": 39.9099694,
    "lng": 140.0844048,
    "tel": "018-874-2930",
    "url": "http://smc-jinseikai.com/jinseikai/124/",
    "pref": "秋田県",
    "city": "井川町",
    "category": "rouken",
    "serviceType": "介護老人保健施設",
    "capacity": 0,
    "openDays": [],
    "openDaysNote": ""
  },
  {
    "id": "552880015",
    "name": "介護老人保健施設　照隅苑",
    "kana": "カイゴロウジンホケンシセツ　ショウグウエン",
    "address": "秋田県雄勝郡羽後町床舞字軽内１９８番地１",
    "lat": 39.1812133,
    "lng": 140.4128809,
    "tel": "0183-78-7200",
    "url": "",
    "pref": "秋田県",
    "city": "羽後町",
    "category": "rouken",
    "serviceType": "介護老人保健施設",
    "capacity": 0,
    "openDays": [],
    "openDaysNote": ""
  },
  {
    "id": "550380026",
    "name": "横手市介護老人保健施設　老健おおもり",
    "kana": "ヨコテシカイゴロウジンホケンシセツ　ロウケンオオモリ",
    "address": "秋田県横手市大森町字菅生田245-207",
    "lat": 39.3516919,
    "lng": 140.4174949,
    "tel": "0182-26-4021",
    "url": "",
    "pref": "秋田県",
    "city": "横手市",
    "category": "rouken",
    "serviceType": "介護老人保健施設",
    "capacity": 0,
    "openDays": [],
    "openDaysNote": ""
  },
  {
    "id": "552780017",
    "name": "介護老人保健施設　りんごの里　福寿園",
    "kana": "カイゴロウジンホケンシセツ　リンゴノサト　フクジュエン",
    "address": "秋田県横手市増田町吉野字梨木塚100-1番地",
    "lat": 39.2016884,
    "lng": 140.5820218,
    "tel": "0182-45-3131",
    "url": "http://yokote-fukuzyukai.jp/",
    "pref": "秋田県",
    "city": "横手市",
    "category": "rouken",
    "serviceType": "介護老人保健施設",
    "capacity": 0,
    "openDays": [],
    "openDaysNote": ""
  },
  {
    "id": "552780033",
    "name": "介護老人保健施設　西風苑",
    "kana": "カイゴロウジンホケンシセツ　セイフウエン",
    "address": "秋田県横手市平鹿町浅舞字新堀９１",
    "lat": 39.2697486,
    "lng": 140.4837314,
    "tel": "0182-24-3033",
    "url": "https://roukenseifuen.wixsite.com/seifuen",
    "pref": "秋田県",
    "city": "横手市",
    "category": "rouken",
    "serviceType": "介護老人保健施設",
    "capacity": null,
    "openDays": [],
    "openDaysNote": ""
  },
  {
    "id": "550380018",
    "name": "介護老人保健施設やすらぎの苑",
    "kana": "カイゴロウジンホケンシセツヤスラギノソノ",
    "address": "秋田県横手市杉沢字中杉沢400番地",
    "lat": 39.3506931,
    "lng": 140.5654969,
    "tel": "0182-33-4001",
    "url": "http://www.kohseikai.com/",
    "pref": "秋田県",
    "city": "横手市",
    "category": "rouken",
    "serviceType": "介護老人保健施設",
    "capacity": 150,
    "openDays": [],
    "openDaysNote": ""
  },
  {
    "id": "552380040",
    "name": "介護老人保健施設　ほのぼの苑",
    "kana": "カイゴロウジンホケンシセツ　ホノボノエン",
    "address": "秋田県潟上市昭和大久保字街道下92-1",
    "lat": 39.8710814,
    "lng": 140.0608796,
    "tel": "018-877-7115",
    "url": "http://www.seiwakai-net.com/",
    "pref": "秋田県",
    "city": "潟上市",
    "category": "rouken",
    "serviceType": "介護老人保健施設",
    "capacity": 100,
    "openDays": [],
    "openDaysNote": ""
  },
  {
    "id": "552380024",
    "name": "老人保健施設　くらかけの里",
    "kana": "ロウジンホケンシセツ　クラカケノサト",
    "address": "秋田県潟上市天王字鶴沼台４３－２３１",
    "lat": 39.8613208,
    "lng": 140.0169173,
    "tel": "018-878-6622",
    "url": "https://keijinkai.akita.jp/facilities/kurakake.html",
    "pref": "秋田県",
    "city": "潟上市",
    "category": "rouken",
    "serviceType": "介護老人保健施設",
    "capacity": 0,
    "openDays": [],
    "openDaysNote": ""
  },
  {
    "id": "552380057",
    "name": "社会医療法人　正和会　介護老人保健施設　湖東老健",
    "kana": "シャカイイリョウホウジン　セイワカイ　カイゴロウジンホケンシセツ　コトウロウケン",
    "address": "秋田県南秋田郡五城目町字上町２８４－１",
    "lat": 39.947539,
    "lng": 140.1254709,
    "tel": "018-855-1570",
    "url": "http://www.seiwakai-net.com",
    "pref": "秋田県",
    "city": "五城目町",
    "category": "rouken",
    "serviceType": "介護老人保健施設",
    "capacity": 0,
    "openDays": [],
    "openDaysNote": ""
  },
  {
    "id": "552280018",
    "name": "介護老人保健施設やかた",
    "kana": "カイゴロウジンホケンシセツヤカタ",
    "address": "秋田県山本郡三種町鹿渡字猿田牛渕２５番地６１",
    "lat": 40.0409981415892,
    "lng": 140.094686420793,
    "tel": "0185-72-2010",
    "url": "http://www.yakata.org/",
    "pref": "秋田県",
    "city": "三種町",
    "category": "rouken",
    "serviceType": "介護老人保健施設",
    "capacity": 100,
    "openDays": [],
    "openDaysNote": ""
  },
  {
    "id": "550980015",
    "name": "介護老人保健施設　いこいの里",
    "kana": "カイゴロウジンホケンシセツ　イコイノサト",
    "address": "秋田県鹿角市八幡平字小山50番地",
    "lat": 40.1400952,
    "lng": 140.8020412,
    "tel": "0186-32-3330",
    "url": "https://suihoukai-ikoinosato.com/",
    "pref": "秋田県",
    "city": "鹿角市",
    "category": "rouken",
    "serviceType": "介護老人保健施設",
    "capacity": 100,
    "openDays": [],
    "openDaysNote": ""
  },
  {
    "id": "550980056",
    "name": "介護老人保健施設　けいあい",
    "kana": "カイゴロウジンホケンシセツ　ケイアイ",
    "address": "秋田県鹿角市花輪字六月田78番地1",
    "lat": 40.1994683086828,
    "lng": 140.790609006885,
    "tel": "0186-25-8500",
    "url": "",
    "pref": "秋田県",
    "city": "鹿角市",
    "category": "rouken",
    "serviceType": "介護老人保健施設",
    "capacity": 29,
    "openDays": [],
    "openDaysNote": ""
  },
  {
    "id": "550180103",
    "name": "医療法人　運忠会　介護老人保健施設なぎさ",
    "kana": "イリョウホウジン　ウンチュウカイ　カイゴロウジンホケンシセツナギサ",
    "address": "秋田県秋田市土崎港中央四丁目４番２３号",
    "lat": 39.7532254,
    "lng": 140.0720263,
    "tel": "018-845-3526",
    "url": "https://www.tsuchizakihp.or.jp/nagisa/",
    "pref": "秋田県",
    "city": "秋田市",
    "category": "rouken",
    "serviceType": "介護老人保健施設",
    "capacity": 80,
    "openDays": [],
    "openDaysNote": ""
  },
  {
    "id": "550180061",
    "name": "介護老人保健施設　　三楽園",
    "kana": "カイゴロウジンホケンシセツ　サンラクエン",
    "address": "秋田県秋田市飯島字堀川８４番地２０",
    "lat": 39.7911351,
    "lng": 140.0615638,
    "tel": "018-857-3101",
    "url": "http://www.kyusei.or.jp",
    "pref": "秋田県",
    "city": "秋田市",
    "category": "rouken",
    "serviceType": "介護老人保健施設",
    "capacity": 0,
    "openDays": [],
    "openDaysNote": ""
  },
  {
    "id": "550180137",
    "name": "介護老人保健施設　かみの里",
    "kana": "カイゴロウジンホケンシセツ　カミノサト",
    "address": "秋田市上北手百崎二タ子沢1-6",
    "lat": 39.6895439,
    "lng": 140.1543721,
    "tel": "018-889-6294",
    "url": "http://www.kaminosato.or.jp/",
    "pref": "秋田県",
    "city": "秋田市",
    "category": "rouken",
    "serviceType": "介護老人保健施設",
    "capacity": 0,
    "openDays": [],
    "openDaysNote": ""
  },
  {
    "id": "552480014",
    "name": "介護老人保健施設　シルバーケアセンター清遊園",
    "kana": "カイゴロウジンホケンシセツ　シルバーケアセンター　セイユウエン",
    "address": "秋田県秋田市河辺戸島字上野４－３",
    "lat": 39.6329852,
    "lng": 140.1942157,
    "tel": "018-882-3730",
    "url": "http://www.kato-byoin.com/",
    "pref": "秋田県",
    "city": "秋田市",
    "category": "rouken",
    "serviceType": "介護老人保健施設",
    "capacity": 0,
    "openDays": [],
    "openDaysNote": ""
  },
  {
    "id": "550180129",
    "name": "介護老人保健施設　ふれ愛の里",
    "kana": "カイゴロウジンホケンシセツ　フレアイノサト",
    "address": "秋田県秋田市豊岩小山字中山２１６番地２７",
    "lat": 39.6348468,
    "lng": 140.1237581,
    "tel": "018-888-8201",
    "url": "http://fureainosato.or.jp",
    "pref": "秋田県",
    "city": "秋田市",
    "category": "rouken",
    "serviceType": "介護老人保健施設",
    "capacity": 0,
    "openDays": [],
    "openDaysNote": ""
  },
  {
    "id": "550180046",
    "name": "介護老人保健施設　桜の園",
    "kana": "カイゴロウジンホケンシセツ　サクラノソノ",
    "address": "秋田市下北手梨平字登館8番地",
    "lat": 39.7021176,
    "lng": 140.1615905,
    "tel": "018-839-5977",
    "url": "http://www.oukyukai.net/",
    "pref": "秋田県",
    "city": "秋田市",
    "category": "rouken",
    "serviceType": "介護老人保健施設",
    "capacity": 0,
    "openDays": [],
    "openDaysNote": ""
  },
  {
    "id": "550180111",
    "name": "介護老人保健施設　山盛苑",
    "kana": "カイゴロウジンホケンシセツ　サンセイエン",
    "address": "秋田県秋田市太平山谷字中山谷227番地2",
    "lat": 39.7291588,
    "lng": 140.2644796,
    "tel": "018-838-3700",
    "url": "http://www.sanfuku.or.jp/",
    "pref": "秋田県",
    "city": "秋田市",
    "category": "rouken",
    "serviceType": "介護老人保健施設",
    "capacity": 100,
    "openDays": [],
    "openDaysNote": ""
  },
  {
    "id": "550180020",
    "name": "介護老人保健施設　友愛の郷",
    "kana": "カイゴロウジンホケンシセツ　ユウアイノサト",
    "address": "秋田市浜田字元中村２８０番地２９",
    "lat": 39.6811087,
    "lng": 140.0688585,
    "tel": "018-828-1100",
    "url": "http://shinseikai-akita.com",
    "pref": "秋田県",
    "city": "秋田市",
    "category": "rouken",
    "serviceType": "介護老人保健施設",
    "capacity": 0,
    "openDays": [],
    "openDaysNote": ""
  },
  {
    "id": "550180053",
    "name": "介護老人保健施設　悠久荘",
    "kana": "カイゴロウジンホケンシセツ　ユウキュウソウ",
    "address": "秋田市御所野堤台3丁目3番1",
    "lat": 39.6717128698191,
    "lng": 140.172483952051,
    "tel": "018-892-7800",
    "url": "https://yukyusou.jp/",
    "pref": "秋田県",
    "city": "秋田市",
    "category": "rouken",
    "serviceType": "介護老人保健施設",
    "capacity": 0,
    "openDays": [],
    "openDaysNote": ""
  },
  {
    "id": "550180087",
    "name": "介護老人保健施設あいぜん苑",
    "kana": "カイゴロウジンホケンシセツアイゼンエン",
    "address": "秋田県秋田市上新城道川字愛染58番地",
    "lat": 39.7811162434757,
    "lng": 140.145852919049,
    "tel": "018-870-2001",
    "url": "http://aizenkai.com/",
    "pref": "秋田県",
    "city": "秋田市",
    "category": "rouken",
    "serviceType": "介護老人保健施設",
    "capacity": 100,
    "openDays": [],
    "openDaysNote": ""
  },
  {
    "id": "550180038",
    "name": "介護老人保健施設ニコニコ苑",
    "kana": "カイゴロウジンホケンシセツニコニコエン",
    "address": "秋田市下新城中野字琵琶沼138-1介護老人保健施設ニコニコ苑 介護老人保健施設ニコニコ苑",
    "lat": 39.803242146923,
    "lng": 140.059585259677,
    "tel": "018-873-2525",
    "url": "http://www.kyukokai.com/kyukokai/nikoniko/",
    "pref": "秋田県",
    "city": "秋田市",
    "category": "rouken",
    "serviceType": "介護老人保健施設",
    "capacity": 0,
    "openDays": [],
    "openDaysNote": ""
  },
  {
    "id": "550180079",
    "name": "介護老人保健施設千秋苑",
    "kana": "カイゴロウジンホケンシセツセンシュウエン",
    "address": "秋田県秋田市外旭川字神田592番地",
    "lat": 39.7511131974975,
    "lng": 140.118485560713,
    "tel": "018-868-1355",
    "url": "http://www.kenjukai-senshuen.jp",
    "pref": "秋田県",
    "city": "秋田市",
    "category": "rouken",
    "serviceType": "介護老人保健施設",
    "capacity": 95,
    "openDays": [],
    "openDaysNote": ""
  },
  {
    "id": "550180095",
    "name": "介護老人保健施設遊心苑",
    "kana": "カイゴロウジンホケンシセツユウシンエン",
    "address": "秋田県秋田市添川字境内川原１９６番地１",
    "lat": 39.7523980730294,
    "lng": 140.133335919049,
    "tel": "018-831-3666",
    "url": "http://www.yushinen.or.jp/",
    "pref": "秋田県",
    "city": "秋田市",
    "category": "rouken",
    "serviceType": "介護老人保健施設",
    "capacity": 0,
    "openDays": [],
    "openDaysNote": ""
  },
  {
    "id": "552680068",
    "name": "介護老人保健施設　田沢の郷",
    "kana": "カイゴロウジンホケンシセツ　タザワノサト",
    "address": "秋田県仙北市田沢湖生保内字上清水６９８番地",
    "lat": 39.6989522,
    "lng": 140.7159229,
    "tel": "0187-58-0112",
    "url": "http://www.tazawanosato.jp",
    "pref": "秋田県",
    "city": "仙北市",
    "category": "rouken",
    "serviceType": "介護老人保健施設",
    "capacity": 0,
    "openDays": [],
    "openDaysNote": ""
  },
  {
    "id": "551280019",
    "name": "仙北市介護老人保健施設にしき園",
    "kana": "センボクシカイゴロウジンホケンシセツニシキエン",
    "address": "秋田県仙北市西木町門屋字屋敷田100番地",
    "lat": 39.6596384,
    "lng": 140.5656128,
    "tel": "0187-47-3211",
    "url": "",
    "pref": "秋田県",
    "city": "仙北市",
    "category": "rouken",
    "serviceType": "介護老人保健施設",
    "capacity": 100,
    "openDays": [],
    "openDaysNote": ""
  },
  {
    "id": "550480024",
    "name": "医療法人光智会　介護老人保健施設大館園",
    "kana": "イリョウホウジンコウチカイ　カイゴロウジンホケンシセツオオダテエン",
    "address": "秋田県大館市芦田子字芦田子南275番地",
    "lat": 40.2991916,
    "lng": 140.5986088,
    "tel": "0186-48-5777",
    "url": "https://www.kochikai.jp/",
    "pref": "秋田県",
    "city": "大館市",
    "category": "rouken",
    "serviceType": "介護老人保健施設",
    "capacity": 0,
    "openDays": [],
    "openDaysNote": ""
  },
  {
    "id": "550480032",
    "name": "介護老人保健施設成寿苑",
    "kana": "カイゴロウジンホケンシセツセイジュエン",
    "address": "秋田県大館市釈迦内字狼穴７９番地",
    "lat": 40.3119643,
    "lng": 140.5727935,
    "tel": "0186-48-4975",
    "url": "http://seijuen.or.jp/",
    "pref": "秋田県",
    "city": "大館市",
    "category": "rouken",
    "serviceType": "介護老人保健施設",
    "capacity": 0,
    "openDays": [],
    "openDaysNote": ""
  },
  {
    "id": "550880066",
    "name": "介護老人保健施設　なごみのさと",
    "kana": "カイゴロウジンホケンシセツ　ナゴミノサト",
    "address": "秋田県大仙市大曲船場町１丁目１番４号",
    "lat": 39.4579376,
    "lng": 140.4714484,
    "tel": "0187-86-0511",
    "url": "http://www.nagomi-a.jp/",
    "pref": "秋田県",
    "city": "大仙市",
    "category": "rouken",
    "serviceType": "介護老人保健施設",
    "capacity": 100,
    "openDays": [],
    "openDaysNote": ""
  },
  {
    "id": "552680043",
    "name": "介護老人保健施設サングレイス",
    "kana": "カイゴロウジンホケンシセツサングレイス",
    "address": "秋田県大仙市協和上淀川字五百刈田２７８番地５",
    "lat": 39.5984385381301,
    "lng": 140.303385323804,
    "tel": "018-892-3260",
    "url": "https://keishinkai-akita.net/sungrace/",
    "pref": "秋田県",
    "city": "大仙市",
    "category": "rouken",
    "serviceType": "介護老人保健施設",
    "capacity": 0,
    "openDays": [],
    "openDaysNote": ""
  },
  {
    "id": "550880041",
    "name": "介護老人保健施設幸寿園",
    "kana": "カイゴロウジンホケンシセツコウジュエン",
    "address": "秋田県大仙市強首字上野台12-15",
    "lat": 39.5438602,
    "lng": 140.2999093,
    "tel": "0187-77-2226",
    "url": "https://www.daisen-f.com/shisetu/koujuen/index.php",
    "pref": "秋田県",
    "city": "大仙市",
    "category": "rouken",
    "serviceType": "介護老人保健施設",
    "capacity": 0,
    "openDays": [],
    "openDaysNote": ""
  },
  {
    "id": "550880058",
    "name": "介護老人保健施設八乙女荘",
    "kana": "カイゴロウジンホケンシセツヤオトメソウ",
    "address": "秋田県大仙市北長野字野口前２３番地",
    "lat": 39.5491133,
    "lng": 140.5472051,
    "tel": "0187-56-2888",
    "url": "http://www.daisen-f.com",
    "pref": "秋田県",
    "city": "大仙市",
    "category": "rouken",
    "serviceType": "介護老人保健施設",
    "capacity": 0,
    "openDays": [],
    "openDaysNote": ""
  },
  {
    "id": "550680029",
    "name": "介護老人保健施設　たらちね",
    "kana": "カイゴロウジンホケンシセツ　タラチネ",
    "address": "秋田県男鹿市船越字一向６７－１",
    "lat": 39.8980698,
    "lng": 139.948746,
    "tel": "0185-22-6660",
    "url": "http://www.jusinkai.or.jp",
    "pref": "秋田県",
    "city": "男鹿市",
    "category": "rouken",
    "serviceType": "介護老人保健施設",
    "capacity": 100,
    "openDays": [],
    "openDaysNote": ""
  },
  {
    "id": "550680045",
    "name": "介護老人保健施設男鹿老健",
    "kana": "カイゴロウジンホケンシセツオガロウケン",
    "address": "秋田県男鹿市脇本富永字南前田72番地介護老人保健施設男鹿老健 介護老人保健施設男鹿老健",
    "lat": 39.9158345,
    "lng": 139.902242,
    "tel": "0185-25-2581",
    "url": "https://www.seiwakai-net.com/ogaroken",
    "pref": "秋田県",
    "city": "男鹿市",
    "category": "rouken",
    "serviceType": "介護老人保健施設",
    "capacity": 0,
    "openDays": [],
    "openDaysNote": ""
  },
  {
    "id": "550780035",
    "name": "介護療養型老人保健施設「あきのみや」",
    "kana": "カイゴリョウヨウガタロウジンホケンシセツアキノミヤ",
    "address": "秋田県湯沢市秋ノ宮字根木103-1",
    "lat": 38.9639418,
    "lng": 140.5271245,
    "tel": "0183-56-2341",
    "url": "",
    "pref": "秋田県",
    "city": "湯沢市",
    "category": "rouken",
    "serviceType": "介護老人保健施設",
    "capacity": 0,
    "openDays": [],
    "openDaysNote": ""
  },
  {
    "id": "552880023",
    "name": "介護老人保健施設　ゆーとぴあ神室",
    "kana": "カイゴロウジンホケンシセツ　ユートピアカムロ",
    "address": "秋田県湯沢市小野字東堺76番地",
    "lat": 39.0647332,
    "lng": 140.4549184,
    "tel": "0183-52-5111",
    "url": "http://kamuro5111.com/",
    "pref": "秋田県",
    "city": "湯沢市",
    "category": "rouken",
    "serviceType": "介護老人保健施設",
    "capacity": 0,
    "openDays": [],
    "openDaysNote": ""
  },
  {
    "id": "550780019",
    "name": "介護老人保健施設昭平苑",
    "kana": "カイゴロウジンホケンシセツショウヘイエン",
    "address": "秋田県湯沢市柳田字中嶋２２７番地の１",
    "lat": 39.1845288,
    "lng": 140.4608076,
    "tel": "0183-72-1117",
    "url": "http://jinkeikai.jp/shohei/",
    "pref": "秋田県",
    "city": "湯沢市",
    "category": "rouken",
    "serviceType": "介護老人保健施設",
    "capacity": 0,
    "openDays": [],
    "openDaysNote": ""
  },
  {
    "id": "550280036",
    "name": "介護老人保健施設　ケアネットのしろ",
    "kana": "カイゴロウジンホケンシセツ　ケアネットノシロ",
    "address": "秋田県能代市落合字上悪土207番地",
    "lat": 40.2247797,
    "lng": 140.0209378,
    "tel": "0185-52-8882",
    "url": "http://noshiro-carenet.com/",
    "pref": "秋田県",
    "city": "能代市",
    "category": "rouken",
    "serviceType": "介護老人保健施設",
    "capacity": 100,
    "openDays": [],
    "openDaysNote": ""
  },
  {
    "id": "550280010",
    "name": "介護老人保健施設　友楽苑",
    "kana": "カイゴロウジンホケンシセツ　ユウラクエン",
    "address": "秋田県能代市檜山字新田沢105番地",
    "lat": 40.1781304,
    "lng": 140.0717045,
    "tel": "0185-58-2621",
    "url": "https://noshiro-yuurakuen.com",
    "pref": "秋田県",
    "city": "能代市",
    "category": "rouken",
    "serviceType": "介護老人保健施設",
    "capacity": 0,
    "openDays": [],
    "openDaysNote": ""
  },
  {
    "id": "550280028",
    "name": "独立行政法人地域医療機能推進機構秋田病院附属介護老人保健施設",
    "kana": "ドクリツギョウセイホウジンチイキイリョウキノウスイシンキコウアキタビョウインフゾクカイゴロウジンホケンシセツ",
    "address": "秋田県能代市緑町5番47号",
    "lat": 40.1980277,
    "lng": 140.0358569,
    "tel": "0185-52-6600",
    "url": "http://akita.jcho.go.jp/",
    "pref": "秋田県",
    "city": "能代市",
    "category": "rouken",
    "serviceType": "介護老人保健施設",
    "capacity": 0,
    "openDays": [],
    "openDaysNote": ""
  },
  {
    "id": "552380016",
    "name": "介護老人保健施設　榮寿苑",
    "kana": "カイゴロウジンホケンシセツ　エイジュエン",
    "address": "秋田県南秋田郡八郎潟町真坂字沢田43-10",
    "lat": 39.9681585,
    "lng": 140.0832413,
    "tel": "018-875-3881",
    "url": "http://www13.plala.or.jp/eijyuen/",
    "pref": "秋田県",
    "city": "八郎潟町",
    "category": "rouken",
    "serviceType": "介護老人保健施設",
    "capacity": 0,
    "openDays": [],
    "openDaysNote": ""
  },
  {
    "id": "552680050",
    "name": "介護老人保健施設　杏授苑",
    "kana": "カイゴロウジンホケンシセツ　キョウジュエン",
    "address": "秋田県仙北郡美郷町野中字下明子２１４",
    "lat": 39.4261421,
    "lng": 140.5559257,
    "tel": "0187-84-4065",
    "url": "",
    "pref": "秋田県",
    "city": "美郷町",
    "category": "rouken",
    "serviceType": "介護老人保健施設",
    "capacity": 0,
    "openDays": [],
    "openDaysNote": ""
  },
  {
    "id": "551180045",
    "name": "介護老人保健施設ケアタウンたかのす",
    "kana": "カイゴロウジンホケンシセツケアタウンタカノス",
    "address": "秋田県北秋田市脇神字南陣場岱10番地",
    "lat": 40.2115066,
    "lng": 140.3921636,
    "tel": "0186-60-1203",
    "url": "http://www.kitaakita-shakyo.or.jp",
    "pref": "秋田県",
    "city": "北秋田市",
    "category": "rouken",
    "serviceType": "介護老人保健施設",
    "capacity": 80,
    "openDays": [],
    "openDaysNote": ""
  },
  {
    "id": "552180010",
    "name": "介護老人保健施設もりよし荘",
    "kana": "カイゴロウジンホケンシセツモリヨシソウ",
    "address": "秋田県北秋田市米内沢字七曲２５番地",
    "lat": 40.1184336,
    "lng": 140.3798269,
    "tel": "0186-72-5030",
    "url": "http://www.akita-kouraku.jp/",
    "pref": "秋田県",
    "city": "北秋田市",
    "category": "rouken",
    "serviceType": "介護老人保健施設",
    "capacity": 100,
    "openDays": [],
    "openDaysNote": ""
  },
  {
    "id": "552580037",
    "name": "介護老人保健施設　あまさぎ園",
    "kana": "カイゴロウジンホケンシセツ　アマサギエン",
    "address": "秋田県由利本荘市岩城冨田字根本9-3",
    "lat": 39.5053038,
    "lng": 140.0869654,
    "tel": "0184-62-5001",
    "url": "http://www.amasagi.or.jp",
    "pref": "秋田県",
    "city": "由利本荘市",
    "category": "rouken",
    "serviceType": "介護老人保健施設",
    "capacity": 0,
    "openDays": [],
    "openDaysNote": ""
  },
  {
    "id": "550580013",
    "name": "介護老人保健施設「しょうわ」",
    "kana": "カイゴロウジンホケンシセツ　ショウワ",
    "address": "秋田県由利本荘市石脇字田尻33番地",
    "lat": 39.3901145,
    "lng": 140.0228902,
    "tel": "0184-23-7100",
    "url": "http://www.showa-kai.or.jp/",
    "pref": "秋田県",
    "city": "由利本荘市",
    "category": "rouken",
    "serviceType": "介護老人保健施設",
    "capacity": 100,
    "openDays": [],
    "openDaysNote": ""
  },
  {
    "id": "552580029",
    "name": "介護老人保健施設グランドファミリー西目",
    "kana": "カイゴロウジンホケンシセツグランドファミリーニシメ",
    "address": "秋田県由利本荘市西目町沼田字新道下２－６介護老人保健施設　グランドファミリー西目 介護老人保健施設　グランドファミリー西目",
    "lat": 39.3531278,
    "lng": 140.0174205,
    "tel": "0184-32-1011",
    "url": "",
    "pref": "秋田県",
    "city": "由利本荘市",
    "category": "rouken",
    "serviceType": "介護老人保健施設",
    "capacity": 100,
    "openDays": [],
    "openDaysNote": ""
  },
  {
    "id": "550580021",
    "name": "介護老人保健施設ひまわりの里",
    "kana": "カイゴロウジンホケンシセツヒマワリノサト",
    "address": "秋田県由利本荘市浜三川字小山口２０番地",
    "lat": 39.4158117055752,
    "lng": 140.03377528214,
    "tel": "0184-27-1133",
    "url": "http://www.honjo-kyujyukai.net/",
    "pref": "秋田県",
    "city": "由利本荘市",
    "category": "rouken",
    "serviceType": "介護老人保健施設",
    "capacity": 0,
    "openDays": [],
    "openDaysNote": ""
  }
]