[
  {
    "id": "1053080014",
    "name": "介護老人保健施設　プランタンおおまま",
    "kana": "カイゴロウジンホケンシセツ　プランタンオオママ",
    "address": "群馬県みどり市大間々町桐原1570-498",
    "lat": 36.4417463,
    "lng": 139.2657599,
    "tel": "0277-72-0202",
    "url": "https://www.syunkoukai.or.jp/",
    "pref": "群馬県",
    "city": "みどり市",
    "category": "rouken",
    "serviceType": "介護老人保健施設",
    "capacity": 100,
    "openDays": [],
    "openDaysNote": ""
  },
  {
    "id": "1052980024",
    "name": "介護老人保健施設サンホープ笠懸",
    "kana": "カイゴロウジンホケンシセツサンホープカサカケ",
    "address": "群馬県みどり市笠懸町鹿２６４６－１",
    "lat": 36.3997376,
    "lng": 139.2815624,
    "tel": "0277-76-1100",
    "url": "http://sunhope.or.jp",
    "pref": "群馬県",
    "city": "みどり市",
    "category": "rouken",
    "serviceType": "介護老人保健施設",
    "capacity": 100,
    "openDays": [],
    "openDaysNote": ""
  },
  {
    "id": "1052780036",
    "name": "介護老人保健施設　草笛の里",
    "kana": "カイゴロウジンホケンシセツ　クサブエノサト",
    "address": "群馬県利根郡みなかみ町石倉194番地1",
    "lat": 36.7403491,
    "lng": 138.9829941,
    "tel": "0278-72-4011",
    "url": "http://www.kamimoku-spa-hp.com/kusabue/index.html",
    "pref": "群馬県",
    "city": "みなかみ町",
    "category": "rouken",
    "serviceType": "介護老人保健施設",
    "capacity": 0,
    "openDays": [],
    "openDaysNote": ""
  },
  {
    "id": "1051180022",
    "name": "介護老人施設うららく",
    "kana": "カイゴロウジンホケンシセツウララク",
    "address": "群馬県安中市鷺宮２０５－１",
    "lat": 36.3051779,
    "lng": 138.8969657,
    "tel": "０２７－３８２－８５１１",
    "url": "http://www.honda-hospital.jp/",
    "pref": "群馬県",
    "city": "安中市",
    "category": "rouken",
    "serviceType": "介護老人保健施設",
    "capacity": 0,
    "openDays": [],
    "openDaysNote": ""
  },
  {
    "id": "1052580014",
    "name": "介護老人保健施設　せせらぎ苑",
    "kana": "カイゴロウジンホケンシセツ　セセラギエン",
    "address": "群馬県安中市松井田町新堀1300-1",
    "lat": 36.3183193,
    "lng": 138.792669,
    "tel": "027-393-0956",
    "url": "http://www.matsuida-hp.com",
    "pref": "群馬県",
    "city": "安中市",
    "category": "rouken",
    "serviceType": "介護老人保健施設",
    "capacity": 50,
    "openDays": [],
    "openDaysNote": ""
  },
  {
    "id": "1051180014",
    "name": "介護老人保健施設　めぐみ",
    "kana": "カイゴロウジンホケンシセツ　メグミ",
    "address": "群馬県安中市安中3-25-13",
    "lat": 36.3287816,
    "lng": 138.9002364,
    "tel": "027-382-5951",
    "url": "http://med.wind.ne,jp/sutoh-hp",
    "pref": "群馬県",
    "city": "安中市",
    "category": "rouken",
    "serviceType": "介護老人保健施設",
    "capacity": 0,
    "openDays": [],
    "openDaysNote": ""
  },
  {
    "id": "1050480050",
    "name": "アルボース（ユニット）",
    "kana": "アルボース（ユニット）",
    "address": "群馬県伊勢崎市太田町427-3",
    "lat": 36.3283671,
    "lng": 139.1800576,
    "tel": "0270-21-2700",
    "url": "http://mihara-ibbv.jp/arbos/",
    "pref": "群馬県",
    "city": "伊勢崎市",
    "category": "rouken",
    "serviceType": "介護老人保健施設",
    "capacity": 10,
    "openDays": [],
    "openDaysNote": ""
  },
  {
    "id": "1050480035",
    "name": "介護老人保健施設　まゆ玉",
    "kana": "カイゴロウジンホケンシセツ　マユダマ",
    "address": "群馬県伊勢崎市長沼町２６６４－１",
    "lat": 36.2648893,
    "lng": 139.2132979,
    "tel": "0270-40-3511",
    "url": "http://www.mayudama.or.jp",
    "pref": "群馬県",
    "city": "伊勢崎市",
    "category": "rouken",
    "serviceType": "介護老人保健施設",
    "capacity": 0,
    "openDays": [],
    "openDaysNote": ""
  },
  {
    "id": "1052880034",
    "name": "介護老人保健施設　旭ヶ丘",
    "kana": "カイゴロウジンホケンシセツ　アサヒガオカ",
    "address": "群馬県伊勢崎市間野谷町１３５－１",
    "lat": 36.3740785,
    "lng": 139.2667165,
    "tel": "0270-70-5111",
    "url": "http://www.asahigaoka.or.jp",
    "pref": "群馬県",
    "city": "伊勢崎市",
    "category": "rouken",
    "serviceType": "介護老人保健施設",
    "capacity": 100,
    "openDays": [],
    "openDaysNote": ""
  },
  {
    "id": "1050480019",
    "name": "介護老人保健施設アルボース",
    "kana": "カイゴロウジンホケンシセツアルボース",
    "address": "群馬県伊勢崎市太田町427-3",
    "lat": 36.3282338,
    "lng": 139.1800909,
    "tel": "0270-21-2700",
    "url": "http://mihara-ibbv.jp/arbos/",
    "pref": "群馬県",
    "city": "伊勢崎市",
    "category": "rouken",
    "serviceType": "介護老人保健施設",
    "capacity": 90,
    "openDays": [],
    "openDaysNote": ""
  },
  {
    "id": "1050480043",
    "name": "介護老人保健施設ひまわり",
    "kana": "カイゴロウジンホケンシセツ　ヒマワリ",
    "address": "群馬県伊勢崎市連取本町12番地１",
    "lat": 36.3230399,
    "lng": 139.1775638,
    "tel": "0270-25-5022",
    "url": "http://wwww.hospital.isesaki.gunma.jp",
    "pref": "群馬県",
    "city": "伊勢崎市",
    "category": "rouken",
    "serviceType": "介護老人保健施設",
    "capacity": 0,
    "openDays": [],
    "openDaysNote": ""
  },
  {
    "id": "1052880018",
    "name": "介護老人保健施設鶴寿園",
    "kana": "カイゴロウジンホケンシセツカクジュエン",
    "address": "群馬県伊勢崎市境百々421",
    "lat": 36.2772801,
    "lng": 139.2544239,
    "tel": "0270-74-1177",
    "url": "",
    "pref": "群馬県",
    "city": "伊勢崎市",
    "category": "rouken",
    "serviceType": "介護老人保健施設",
    "capacity": 100,
    "openDays": [],
    "openDaysNote": ""
  },
  {
    "id": "1050780046",
    "name": "ナーシングホーム館林（ユニット）",
    "kana": "ナーシングホームタテバヤシ（ユニット）",
    "address": "群馬県館林市赤生田町1865-1",
    "lat": 36.2271847,
    "lng": 139.5633471,
    "tel": "0276-75-3711",
    "url": "http://www.med-ueno.jp/",
    "pref": "群馬県",
    "city": "館林市",
    "category": "rouken",
    "serviceType": "介護老人保健施設",
    "capacity": 20,
    "openDays": [],
    "openDaysNote": ""
  },
  {
    "id": "1050780012",
    "name": "介護老人保健施設　ナーシングホーム館林",
    "kana": "カイゴロウジンホケンシセツ　ナーシングホームタテバヤシ",
    "address": "群馬県館林市赤生田町1865-1",
    "lat": 36.2271847,
    "lng": 139.5633471,
    "tel": "0276-75-3711",
    "url": "http://www.med-ueno.jp/",
    "pref": "群馬県",
    "city": "館林市",
    "category": "rouken",
    "serviceType": "介護老人保健施設",
    "capacity": 80,
    "openDays": [],
    "openDaysNote": ""
  },
  {
    "id": "1050780020",
    "name": "介護老人保健施設すみれの里",
    "kana": "カイゴロウジンホケンシセツスミレノサト",
    "address": "群馬県館林市坂下町3191-1",
    "lat": 36.2559901,
    "lng": 139.534483,
    "tel": "0276-75-6511",
    "url": "http://www.rikkakai.jp",
    "pref": "群馬県",
    "city": "館林市",
    "category": "rouken",
    "serviceType": "介護老人保健施設",
    "capacity": 100,
    "openDays": [],
    "openDaysNote": ""
  },
  {
    "id": "1050780038",
    "name": "介護老人保健施設虹の郷すわ",
    "kana": "カイゴロウジンホケンシセツニジノサトスワ",
    "address": "群馬県館林市諏訪町1509",
    "lat": 36.2321466,
    "lng": 139.5172814,
    "tel": "0276-71-0123",
    "url": "https://tsutsujimental.jp/sw/",
    "pref": "群馬県",
    "city": "館林市",
    "category": "rouken",
    "serviceType": "介護老人保健施設",
    "capacity": 0,
    "openDays": [],
    "openDaysNote": ""
  },
  {
    "id": "1052280029",
    "name": "みずき荘（ユニット）",
    "kana": "ミズキソウ（ユニット）",
    "address": "群馬県北群馬郡吉岡町陣場９８番地",
    "lat": 36.4310385,
    "lng": 139.0054201,
    "tel": "0279-54-9982",
    "url": "https://www.gunneikai.jp/mizuki/index.html",
    "pref": "群馬県",
    "city": "吉岡町",
    "category": "rouken",
    "serviceType": "介護老人保健施設",
    "capacity": 0,
    "openDays": [],
    "openDaysNote": ""
  },
  {
    "id": "1052280011",
    "name": "介護老人保健施設みずき荘",
    "kana": "カイゴロウジンホケンシセツミズキソウ",
    "address": "群馬県北群馬郡吉岡町陣場９８番地",
    "lat": 36.4310385,
    "lng": 139.0054201,
    "tel": "0279-54-9984",
    "url": "https://gunneikai.jp/mizuki/index.html",
    "pref": "群馬県",
    "city": "吉岡町",
    "category": "rouken",
    "serviceType": "介護老人保健施設",
    "capacity": 0,
    "openDays": [],
    "openDaysNote": ""
  },
  {
    "id": "1052880042",
    "name": "ユニット型介護老人保健施設たまむら",
    "kana": "ユニットガタカイゴロウジンホケンシセツタマムラ",
    "address": "群馬県佐波郡玉村町上新田６７５‐１",
    "lat": 36.3108591,
    "lng": 139.0981017,
    "tel": "0270-65-0500",
    "url": "https://www.jyushinkai.or.jp/rouken/",
    "pref": "群馬県",
    "city": "玉村町",
    "category": "rouken",
    "serviceType": "介護老人保健施設",
    "capacity": 23,
    "openDays": [],
    "openDaysNote": ""
  },
  {
    "id": "1052880026",
    "name": "介護老人保健施設たまむら",
    "kana": "カイゴロウジンホケンシセツタマムラ",
    "address": "群馬県佐波郡玉村町上新田675-1",
    "lat": 36.3108591,
    "lng": 139.0981017,
    "tel": "0270-65-0500",
    "url": "https://www.jyushinkai.or.jp/rouken/",
    "pref": "群馬県",
    "city": "玉村町",
    "category": "rouken",
    "serviceType": "介護老人保健施設",
    "capacity": 77,
    "openDays": [],
    "openDaysNote": ""
  },
  {
    "id": "1050380060",
    "name": "ユニット型介護老人保健施設クララトーホー",
    "kana": "ユニットガタカイゴロウジンホケンシセツクララトーホー",
    "address": "群馬県桐生市広沢町2丁目3208-1",
    "lat": 36.3905801253754,
    "lng": 139.321004791402,
    "tel": "0277-52-2700",
    "url": "http://www.kurara-toho.or.jp/index.html",
    "pref": "群馬県",
    "city": "桐生市",
    "category": "rouken",
    "serviceType": "介護老人保健施設",
    "capacity": 24,
    "openDays": [],
    "openDaysNote": ""
  },
  {
    "id": "1050380029",
    "name": "介護老人保健施設　かがやき",
    "kana": "カイゴロウジンホケンシセツ　カガヤキ",
    "address": "群馬県桐生市川内町１－４０７－１",
    "lat": 36.4346094,
    "lng": 139.3240158,
    "tel": "0277-40-3100",
    "url": "http://www.sanikukai.com",
    "pref": "群馬県",
    "city": "桐生市",
    "category": "rouken",
    "serviceType": "介護老人保健施設",
    "capacity": 0,
    "openDays": [],
    "openDaysNote": ""
  },
  {
    "id": "1050380037",
    "name": "介護老人保健施設　クララトーホー",
    "kana": "カイゴロウジンホケンシセツ　クララトーホー",
    "address": "群馬県桐生市広沢町2-3208-1",
    "lat": 36.3906449,
    "lng": 139.3210638,
    "tel": "0277-52-2700",
    "url": "http://www.kurara-toho.or.jp/index.html",
    "pref": "群馬県",
    "city": "桐生市",
    "category": "rouken",
    "serviceType": "介護老人保健施設",
    "capacity": 56,
    "openDays": [],
    "openDaysNote": ""
  },
  {
    "id": "1050380045",
    "name": "介護老人保健施設　ナーシングケア川内の杜",
    "kana": "カイゴロウジンホケンシセツ　ナーシングケアカワウチノモリ",
    "address": "群馬県桐生市川内町4丁目315-1",
    "lat": 36.433317945473,
    "lng": 139.293888124874,
    "tel": "0277-65-5557",
    "url": "http:/www.koaikai.or.jp",
    "pref": "群馬県",
    "city": "桐生市",
    "category": "rouken",
    "serviceType": "介護老人保健施設",
    "capacity": 100,
    "openDays": [],
    "openDaysNote": ""
  },
  {
    "id": "1050380052",
    "name": "介護老人保健施設　幸の杜",
    "kana": "カイゴロウジンホケンシセツ　シアワセノモリ",
    "address": "群馬県桐生市相生町1丁目253-1",
    "lat": 36.3980294269642,
    "lng": 139.321767172492,
    "tel": "0277-40-2600",
    "url": "https://kiryu-seikei.com",
    "pref": "群馬県",
    "city": "桐生市",
    "category": "rouken",
    "serviceType": "介護老人保健施設",
    "capacity": 40,
    "openDays": [],
    "openDaysNote": ""
  },
  {
    "id": "1052080023",
    "name": "介護老人保健施設さくら苑",
    "kana": "カイゴロウジンホケンシセツサクラエン",
    "address": "群馬県桐生市新里町新川２４８８",
    "lat": 36.4221876,
    "lng": 139.2507201,
    "tel": "0277-74-1165",
    "url": "http://www.kiryuushisakura.com/",
    "pref": "群馬県",
    "city": "桐生市",
    "category": "rouken",
    "serviceType": "介護老人保健施設",
    "capacity": 0,
    "openDays": [],
    "openDaysNote": ""
  },
  {
    "id": "1050280120",
    "name": "介護療養型老人保健施設みさと",
    "kana": "カイゴリョウヨウガタロウジンホケンシセツ　ミサト",
    "address": "群馬県高崎市箕郷町上芝６２８－２",
    "lat": 36.3827323,
    "lng": 138.9566258,
    "tel": "０２７－３７１－４３５２",
    "url": "http://mizuhokai-misato.or.jp",
    "pref": "群馬県",
    "city": "高崎市",
    "category": "rouken",
    "serviceType": "介護老人保健施設",
    "capacity": 0,
    "openDays": [],
    "openDaysNote": ""
  },
  {
    "id": "1052180013",
    "name": "介護老人保健施設　あけぼの苑",
    "kana": "カイゴロウジンホケンシセツ　アケボノエン",
    "address": "群馬県高崎市中室田町2258-1",
    "lat": 36.3975901039349,
    "lng": 138.859285383467,
    "tel": "027-384-8612",
    "url": "https://www.harunaso.or.jp/akebonoen/",
    "pref": "群馬県",
    "city": "高崎市",
    "category": "rouken",
    "serviceType": "介護老人保健施設",
    "capacity": 100,
    "openDays": [],
    "openDaysNote": ""
  },
  {
    "id": "1050280062",
    "name": "介護老人保健施設　あけぼの苑高崎",
    "kana": "カイゴロウジンホケンシセツ　アケボノエンタカサキ",
    "address": "群馬県高崎市上豊岡町８２７－１",
    "lat": 36.3432312,
    "lng": 138.9669324,
    "tel": "027-343-2253",
    "url": "http://www.harunaso.or.jp/",
    "pref": "群馬県",
    "city": "高崎市",
    "category": "rouken",
    "serviceType": "介護老人保健施設",
    "capacity": 50,
    "openDays": [],
    "openDaysNote": ""
  },
  {
    "id": "1050280054",
    "name": "介護老人保健施設　ケアピース",
    "kana": "カイゴロウジンホケンシセツ　ケアピース",
    "address": "群馬県高崎市上豊岡町１１６８－１",
    "lat": 36.3431625,
    "lng": 138.9697008,
    "tel": "027-344-2800",
    "url": "http://carepeace.net/",
    "pref": "群馬県",
    "city": "高崎市",
    "category": "rouken",
    "serviceType": "介護老人保健施設",
    "capacity": 0,
    "openDays": [],
    "openDaysNote": ""
  },
  {
    "id": "1050280112",
    "name": "介護老人保健施設　ことりの園",
    "kana": "カイゴロウジンホケンシセツ　コトリノソノ",
    "address": "群馬県高崎市下小鳥町1277番地",
    "lat": 36.3480292,
    "lng": 138.9997039,
    "tel": "027-362-1812",
    "url": "http://www.daiichi-hp.or.jp/",
    "pref": "群馬県",
    "city": "高崎市",
    "category": "rouken",
    "serviceType": "介護老人保健施設",
    "capacity": 50,
    "openDays": [],
    "openDaysNote": ""
  },
  {
    "id": "1050280021",
    "name": "介護老人保健施設　若宮苑",
    "kana": "カイゴロウジンホケンシセツ　ワカミヤエン",
    "address": "群馬県高崎市上大類町７５９",
    "lat": 36.3339895,
    "lng": 139.0302105,
    "tel": "０２７－３５２－１０１９",
    "url": "http://www.juuyakukai.or.jp",
    "pref": "群馬県",
    "city": "高崎市",
    "category": "rouken",
    "serviceType": "介護老人保健施設",
    "capacity": 0,
    "openDays": [],
    "openDaysNote": ""
  },
  {
    "id": "1050280047",
    "name": "介護老人保健施設　春照苑",
    "kana": "カイゴロウジンホケンシセツ　シュンショウエン",
    "address": "群馬県高崎市江木町　７１７番地春照苑 春照苑",
    "lat": 36.3354172889665,
    "lng": 139.02028164418,
    "tel": "０２７－３２４－５６６６",
    "url": "http://www.kibokan-hp.or.jp/shunshouen/",
    "pref": "群馬県",
    "city": "高崎市",
    "category": "rouken",
    "serviceType": "介護老人保健施設",
    "capacity": 0,
    "openDays": [],
    "openDaysNote": ""
  },
  {
    "id": "1052180047",
    "name": "介護老人保健施設　森の泉",
    "kana": "カイゴロウジンホケンシセツ　モリノイズミ",
    "address": "群馬県高崎市井出町1280-4",
    "lat": 36.3738178,
    "lng": 138.9841626,
    "tel": "027-344-4499",
    "url": "http://care-net.biz/1-/erin",
    "pref": "群馬県",
    "city": "高崎市",
    "category": "rouken",
    "serviceType": "介護老人保健施設",
    "capacity": 0,
    "openDays": [],
    "openDaysNote": ""
  },
  {
    "id": "1050280146",
    "name": "介護老人保健施設　森の泉",
    "kana": "カイゴロウジンホケンシセツ　モリノイズミ",
    "address": "群馬県高崎市井出町1280-4",
    "lat": 36.3738178,
    "lng": 138.9841626,
    "tel": "027-344-4499",
    "url": "http://care-net.biz/1-/erin",
    "pref": "群馬県",
    "city": "高崎市",
    "category": "rouken",
    "serviceType": "介護老人保健施設",
    "capacity": 0,
    "openDays": [],
    "openDaysNote": ""
  },
  {
    "id": "1050280070",
    "name": "介護老人保健施設　太陽",
    "kana": "カイゴロウジンホケンシセツ　タイヨウ",
    "address": "群馬県高崎市井野町1040",
    "lat": 36.3526129,
    "lng": 139.0274047,
    "tel": "027-370-6222",
    "url": "https://www.ra-inoue-hp.com/taiyo/",
    "pref": "群馬県",
    "city": "高崎市",
    "category": "rouken",
    "serviceType": "介護老人保健施設",
    "capacity": 0,
    "openDays": [],
    "openDaysNote": ""
  },
  {
    "id": "1050280153",
    "name": "介護老人保健施設　老健くろさわ",
    "kana": "カイゴロウジンホケンシセツ　ロウケンクロサワ",
    "address": "群馬県高崎市中居町3-19-2",
    "lat": 36.3144099,
    "lng": 139.0407768,
    "tel": "027-352-3366",
    "url": "http://www.bishinkai.or.jp/roken_kurosawa/",
    "pref": "群馬県",
    "city": "高崎市",
    "category": "rouken",
    "serviceType": "介護老人保健施設",
    "capacity": 60,
    "openDays": [],
    "openDaysNote": ""
  },
  {
    "id": "1050280161",
    "name": "介護老人保健施設　老健くろさわユニットさくら",
    "kana": "カイゴロウジンホケンシセツ　ロウケンクロサワユニットサクラ",
    "address": "群馬県高崎市中居町3-19-2",
    "lat": 36.3148200267858,
    "lng": 139.040226102867,
    "tel": "027-352-3366",
    "url": "http://www.bishinkai.or.jp/roken_kurosawa/",
    "pref": "群馬県",
    "city": "高崎市",
    "category": "rouken",
    "serviceType": "介護老人保健施設",
    "capacity": 40,
    "openDays": [],
    "openDaysNote": ""
  },
  {
    "id": "1050280187",
    "name": "介護老人保健施設いずみ",
    "kana": "カイゴロウジンホケンシセツイズミ",
    "address": "群馬県高崎市箕郷町矢原12番地1",
    "lat": 36.3972831,
    "lng": 138.9627778,
    "tel": "027－371－8555",
    "url": "http://www.izuminosono.com",
    "pref": "群馬県",
    "city": "高崎市",
    "category": "rouken",
    "serviceType": "介護老人保健施設",
    "capacity": 0,
    "openDays": [],
    "openDaysNote": ""
  },
  {
    "id": "1052180039",
    "name": "介護老人保健施設ウェルライフ三愛",
    "kana": "カイゴロウジンホケンシセツ　ウェルライフサンアイ",
    "address": "群馬県高崎市金古町1758",
    "lat": 36.4168869,
    "lng": 138.9881031,
    "tel": "027-373-3113",
    "url": "http://www.sanaiclinic.or.jp",
    "pref": "群馬県",
    "city": "高崎市",
    "category": "rouken",
    "serviceType": "介護老人保健施設",
    "capacity": 0,
    "openDays": [],
    "openDaysNote": ""
  },
  {
    "id": "1052380019",
    "name": "介護老人保健施設グッドウェル",
    "kana": "カイゴロウジンホケンシセツグッドウェル",
    "address": "群馬県高崎市吉井町吉井415-1",
    "lat": 36.2563809,
    "lng": 138.983693,
    "tel": "027-320-3939",
    "url": "",
    "pref": "群馬県",
    "city": "高崎市",
    "category": "rouken",
    "serviceType": "介護老人保健施設",
    "capacity": 0,
    "openDays": [],
    "openDaysNote": ""
  },
  {
    "id": "1050280179",
    "name": "介護老人保健施設ジャスミン",
    "kana": "カイゴロウジンホケンシセツ　ジャスミン",
    "address": "群馬県高崎市上小塙町565番地1もてき介護福祉センター2階 もてき介護福祉センター2階",
    "lat": 36.3599341424188,
    "lng": 138.978803915869,
    "tel": "027-343-5500",
    "url": "https://suika.or.jp/",
    "pref": "群馬県",
    "city": "高崎市",
    "category": "rouken",
    "serviceType": "介護老人保健施設",
    "capacity": 20,
    "openDays": [],
    "openDaysNote": ""
  },
  {
    "id": "1052180005",
    "name": "介護老人保健施設みさと",
    "kana": "カイゴロウジンホケンシセツ　ミサト",
    "address": "群馬県高崎市箕郷町上芝６２８－１",
    "lat": 36.3830489,
    "lng": 138.956623,
    "tel": "０２７－３５０－６０８１",
    "url": "http://mizuhokai-misato.or.jp/",
    "pref": "群馬県",
    "city": "高崎市",
    "category": "rouken",
    "serviceType": "介護老人保健施設",
    "capacity": 0,
    "openDays": [],
    "openDaysNote": ""
  },
  {
    "id": "1050280013",
    "name": "介護老人保健施設和光園",
    "kana": "カイゴロウジンホケンシセツワコウエン",
    "address": "群馬県高崎市矢島町449-2",
    "lat": 36.3391454,
    "lng": 139.049367,
    "tel": "027-367-7700",
    "url": "https://komai-hp.com/corporation/wakoen/",
    "pref": "群馬県",
    "city": "高崎市",
    "category": "rouken",
    "serviceType": "介護老人保健施設",
    "capacity": 100,
    "openDays": [],
    "openDaysNote": ""
  },
  {
    "id": "1050280138",
    "name": "高崎老人保健施設　幸寿苑",
    "kana": "タカサキロウジンホケンシセツ　コウジュエン",
    "address": "群馬県高崎市矢中町841",
    "lat": 36.3047688,
    "lng": 139.0513151,
    "tel": "027-347-4032",
    "url": "https://www.iwata-hp.or.jp",
    "pref": "群馬県",
    "city": "高崎市",
    "category": "rouken",
    "serviceType": "介護老人保健施設",
    "capacity": 0,
    "openDays": [],
    "openDaysNote": ""
  },
  {
    "id": "1050280039",
    "name": "高崎老人保健施設　福寿苑",
    "kana": "タカサキロウジンホケンシセツ　フクジュエン",
    "address": "群馬県高崎市矢中町841",
    "lat": 36.3047688,
    "lng": 139.0513151,
    "tel": "027-346-0666",
    "url": "https://www.iwata-hp.or.jp",
    "pref": "群馬県",
    "city": "高崎市",
    "category": "rouken",
    "serviceType": "介護老人保健施設",
    "capacity": 0,
    "openDays": [],
    "openDaysNote": ""
  },
  {
    "id": "1052180021",
    "name": "二之沢パナケア介護老人保健施設",
    "kana": "ニノサワパナケアカイゴロウジンホケンシセツ",
    "address": "群馬県高崎市足門町158-2",
    "lat": 36.402619,
    "lng": 138.981196,
    "tel": "027-372-3711",
    "url": "http://www.ninosawahp.com/rouken/",
    "pref": "群馬県",
    "city": "高崎市",
    "category": "rouken",
    "serviceType": "介護老人保健施設",
    "capacity": 0,
    "openDays": [],
    "openDaysNote": ""
  },
  {
    "id": "1052680038",
    "name": "介護老人保健施設りんどうの里",
    "kana": "カイゴロウジンホケンシセツリンドウノサト",
    "address": "群馬県吾妻郡高山村大字中山２７１５番地２",
    "lat": 36.6226336,
    "lng": 138.9519402,
    "tel": "0279-70-5100",
    "url": "http://www.rindo.jp",
    "pref": "群馬県",
    "city": "高山村",
    "category": "rouken",
    "serviceType": "介護老人保健施設",
    "capacity": 0,
    "openDays": [],
    "openDaysNote": ""
  },
  {
    "id": "1052080015",
    "name": "介護老人保健施設　たちばな荘",
    "kana": "カイゴロウジンホケンシセツ　タチバナソウ",
    "address": "群馬県渋川市北橘町上南室163番地1",
    "lat": 36.4992903,
    "lng": 139.0661784,
    "tel": "0279-52-4567",
    "url": "",
    "pref": "群馬県",
    "city": "渋川市",
    "category": "rouken",
    "serviceType": "介護老人保健施設",
    "capacity": null,
    "openDays": [],
    "openDaysNote": ""
  },
  {
    "id": "1050880010",
    "name": "介護老人保健施設　銀玲",
    "kana": "カイゴロウジンホケンシセツ　ギンレイ",
    "address": "群馬県渋川市石原564-1",
    "lat": 36.4848267,
    "lng": 139.0042119,
    "tel": "0279-60-6655",
    "url": "http://hirakatakai.jp",
    "pref": "群馬県",
    "city": "渋川市",
    "category": "rouken",
    "serviceType": "介護老人保健施設",
    "capacity": 0,
    "openDays": [],
    "openDaysNote": ""
  },
  {
    "id": "1050880028",
    "name": "介護老人保健施設　銀玲(ユニット)",
    "kana": "カイゴロウジンホケンシセツ　ギンレイ(ユニット)",
    "address": "群馬県渋川市石原564-1",
    "lat": 36.48486,
    "lng": 139.004248,
    "tel": "0279-60-6655",
    "url": "http://hirakatakai.jp",
    "pref": "群馬県",
    "city": "渋川市",
    "category": "rouken",
    "serviceType": "介護老人保健施設",
    "capacity": 30,
    "openDays": [],
    "openDaysNote": ""
  },
  {
    "id": "1052080031",
    "name": "介護老人保健施設　赤城苑",
    "kana": "カイゴロウジンホケンシセツ　アカギエン",
    "address": "群馬県渋川市赤城町北赤城山1055-1",
    "lat": 36.5403991,
    "lng": 139.0671882,
    "tel": "0279-60-3030",
    "url": "https://www.akagien.com/",
    "pref": "群馬県",
    "city": "渋川市",
    "category": "rouken",
    "serviceType": "介護老人保健施設",
    "capacity": 0,
    "openDays": [],
    "openDaysNote": ""
  },
  {
    "id": "1050880051",
    "name": "介護老人保健施設　赤城苑（ユニット型）",
    "kana": "カイゴロウジンホケンシセツ　アカギエン（ユニットガタ）",
    "address": "群馬県渋川市赤城町北赤城山１０５５－１",
    "lat": 36.5403991,
    "lng": 139.0671882,
    "tel": "0279-60-3030",
    "url": "https://www.akagien.com/",
    "pref": "群馬県",
    "city": "渋川市",
    "category": "rouken",
    "serviceType": "介護老人保健施設",
    "capacity": 0,
    "openDays": [],
    "openDaysNote": ""
  },
  {
    "id": "1050880036",
    "name": "介護老人保健施設からたちの丘",
    "kana": "カイゴロウジンホケンシセツカラタチノオカ",
    "address": "群馬県渋川市赤城町津久田4013-1",
    "lat": 36.5376373,
    "lng": 139.0532831,
    "tel": "0279-26-2000",
    "url": "http://www.karatachi-web.com/",
    "pref": "群馬県",
    "city": "渋川市",
    "category": "rouken",
    "serviceType": "介護老人保健施設",
    "capacity": 0,
    "openDays": [],
    "openDaysNote": ""
  },
  {
    "id": "1050880044",
    "name": "介護老人保健施設からたちの丘（ユニット型）",
    "kana": "カイゴロウジンホケンシセツカラタチノオカ（ユニットガタ）",
    "address": "群馬県渋川市赤城町津久田4013-1",
    "lat": 36.5376373,
    "lng": 139.0532831,
    "tel": "0279-26-2000",
    "url": "http://www.karatachi-web.com/",
    "pref": "群馬県",
    "city": "渋川市",
    "category": "rouken",
    "serviceType": "介護老人保健施設",
    "capacity": 0,
    "openDays": [],
    "openDaysNote": ""
  },
  {
    "id": "1050880002",
    "name": "介護老人保健施設ほくもう",
    "kana": "カイゴロウジンホケンシセツホクモウ",
    "address": "群馬県渋川市有馬259-1",
    "lat": 36.4720386222736,
    "lng": 139.007535906406,
    "tel": "0279-60-5550",
    "url": "",
    "pref": "群馬県",
    "city": "渋川市",
    "category": "rouken",
    "serviceType": "介護老人保健施設",
    "capacity": 0,
    "openDays": [],
    "openDaysNote": ""
  },
  {
    "id": "1050680022",
    "name": "介護老人保健施設　恵寿の園",
    "kana": "カイゴロウジンホケンシセツ　ケイジュノソノ",
    "address": "群馬県沼田市上原町１５５５－３",
    "lat": 36.6472327,
    "lng": 139.0596788,
    "tel": "0278-22-3673",
    "url": "",
    "pref": "群馬県",
    "city": "沼田市",
    "category": "rouken",
    "serviceType": "介護老人保健施設",
    "capacity": 0,
    "openDays": [],
    "openDaysNote": ""
  },
  {
    "id": "1050680014",
    "name": "介護老人保健施設　大誠苑",
    "kana": "カイゴロウジンホケンシセツ　タイセイエン",
    "address": "群馬県沼田市久屋原町３４５－１",
    "lat": 36.6658499,
    "lng": 139.1043159,
    "tel": "０２７８－２３－４８１１",
    "url": "http://www.taiseikai-group.com",
    "pref": "群馬県",
    "city": "沼田市",
    "category": "rouken",
    "serviceType": "介護老人保健施設",
    "capacity": 100,
    "openDays": [],
    "openDaysNote": ""
  },
  {
    "id": "1050680030",
    "name": "介護老人保健施設とね",
    "kana": "カイゴロウジンホケンシセツトネ",
    "address": "群馬県沼田市東原新町1917番地1",
    "lat": 36.6508156,
    "lng": 139.0551763,
    "tel": "0278-22-8855",
    "url": "http://www.tonehoken.or.jp/",
    "pref": "群馬県",
    "city": "沼田市",
    "category": "rouken",
    "serviceType": "介護老人保健施設",
    "capacity": 50,
    "openDays": [],
    "openDaysNote": ""
  },
  {
    "id": "1052280037",
    "name": "介護老人保健施設　リハビリホーム喜望峰（ユニット型）",
    "kana": "カイゴロウジンホケンシセツ　リハビリホームキボウホウ（ユニットガタ）",
    "address": "群馬県北群馬郡榛東村山子田2547-1",
    "lat": 36.4401668,
    "lng": 138.966487,
    "tel": "0279-30-5655",
    "url": "ｈｔｔｐ//inoseikeiwebmedipr.jp/",
    "pref": "群馬県",
    "city": "榛東村",
    "category": "rouken",
    "serviceType": "介護老人保健施設",
    "capacity": null,
    "openDays": [],
    "openDaysNote": ""
  },
  {
    "id": "1052280003",
    "name": "介護老人保健施設リハビリホーム喜望峰",
    "kana": "カイゴロウジンホケンシセツリハビリホ－ム　キボウホウ",
    "address": "群馬県北群馬郡榛東村山子田2547-1",
    "lat": 36.4401668,
    "lng": 138.966487,
    "tel": "0279-30-5655",
    "url": "http://inoseikei.webmedipr.jp/",
    "pref": "群馬県",
    "city": "榛東村",
    "category": "rouken",
    "serviceType": "介護老人保健施設",
    "capacity": 0,
    "openDays": [],
    "openDaysNote": ""
  },
  {
    "id": "1052780010",
    "name": "介護老人保健施設　武尊荘",
    "kana": "カイゴロウジンホケンシセツ　ホタカソウ",
    "address": "群馬県利根郡川場村生品１８６１",
    "lat": 36.6683135,
    "lng": 139.0776349,
    "tel": "0278-52-3000",
    "url": "http://www.hotaka.or.jp",
    "pref": "群馬県",
    "city": "川場村",
    "category": "rouken",
    "serviceType": "介護老人保健施設",
    "capacity": 0,
    "openDays": [],
    "openDaysNote": ""
  },
  {
    "id": "1050180148",
    "name": "介護老人保健施設　おうみ",
    "kana": "カイゴロウジンホケンシセツ　オウミ",
    "address": "群馬県前橋市総社町総社２６２８",
    "lat": 36.3957021,
    "lng": 139.0329195,
    "tel": "027-212-1780",
    "url": "http://ken-ei-kai.or.jp/publics/index/103/",
    "pref": "群馬県",
    "city": "前橋市",
    "category": "rouken",
    "serviceType": "介護老人保健施設",
    "capacity": 0,
    "openDays": [],
    "openDaysNote": ""
  },
  {
    "id": "1050180098",
    "name": "介護老人保健施設　山王ライフ",
    "kana": "カイゴロウジンホケンシセツ　サンノウライフ",
    "address": "群馬県前橋市山王町133番地",
    "lat": 36.3500372,
    "lng": 139.1245433,
    "tel": "027-266-8611",
    "url": "http://www.sannou-life.jp",
    "pref": "群馬県",
    "city": "前橋市",
    "category": "rouken",
    "serviceType": "介護老人保健施設",
    "capacity": 0,
    "openDays": [],
    "openDaysNote": ""
  },
  {
    "id": "1050180106",
    "name": "介護老人保健施設　創春館",
    "kana": "カイゴロウジンホケンシセツ　ソウシュンカン",
    "address": "群馬県前橋市日輪寺町東田342-1",
    "lat": 36.4325422502018,
    "lng": 139.062683358336,
    "tel": "027-230-8282",
    "url": "https://www.sousyunkan.or.jp/center/kaigo_roujin_hoken_sisetsu_sousyunkan/",
    "pref": "群馬県",
    "city": "前橋市",
    "category": "rouken",
    "serviceType": "介護老人保健施設",
    "capacity": 0,
    "openDays": [],
    "openDaysNote": ""
  },
  {
    "id": "1050180122",
    "name": "介護老人保健施設おうみ",
    "kana": "カイゴロウジンホケンシセツ　オウミ",
    "address": "群馬県前橋市総社町総社２６２８",
    "lat": 36.3956938,
    "lng": 139.0329057,
    "tel": "０２７－２１２－１７８０",
    "url": "http://ken-ei-kai.or.jp/publics/index/103/",
    "pref": "群馬県",
    "city": "前橋市",
    "category": "rouken",
    "serviceType": "介護老人保健施設",
    "capacity": 0,
    "openDays": [],
    "openDaysNote": ""
  },
  {
    "id": "1050180056",
    "name": "介護老人保健施設けやき苑",
    "kana": "カイゴロウジンホケンシセツケヤキエン",
    "address": "群馬県前橋市下大島町５９６－１",
    "lat": 36.3608978668721,
    "lng": 139.114909875919,
    "tel": "027-266-2262",
    "url": "http://keyaki-en.com/",
    "pref": "群馬県",
    "city": "前橋市",
    "category": "rouken",
    "serviceType": "介護老人保健施設",
    "capacity": 100,
    "openDays": [],
    "openDaysNote": ""
  },
  {
    "id": "1050180114",
    "name": "介護老人保健施設やまぶき",
    "kana": "カイゴロウジンホケンシセツヤマブキ",
    "address": "群馬県前橋市小屋原町977-3",
    "lat": 36.3575598044133,
    "lng": 139.135684640831,
    "tel": "027-266-1602",
    "url": "",
    "pref": "群馬県",
    "city": "前橋市",
    "category": "rouken",
    "serviceType": "介護老人保健施設",
    "capacity": 0,
    "openDays": [],
    "openDaysNote": ""
  },
  {
    "id": "1050180130",
    "name": "介護老人保健施設やまぶき",
    "kana": "カイゴロウジンホケンシセツヤマブキ",
    "address": "群馬県前橋市小屋原町977-3",
    "lat": 36.3574863619376,
    "lng": 139.135684640831,
    "tel": "027-266-1602",
    "url": "www.nakajimakai.or.jp",
    "pref": "群馬県",
    "city": "前橋市",
    "category": "rouken",
    "serviceType": "介護老人保健施設",
    "capacity": 0,
    "openDays": [],
    "openDaysNote": ""
  },
  {
    "id": "1050180072",
    "name": "介護老人保健施設青梨子荘",
    "kana": "カイゴロウジンホケンシセツアオナシソウ",
    "address": "群馬県前橋市青梨子町１６７０",
    "lat": 36.4058111,
    "lng": 139.0113072,
    "tel": "027-253-6115",
    "url": "https://hotakakai.or.jp",
    "pref": "群馬県",
    "city": "前橋市",
    "category": "rouken",
    "serviceType": "介護老人保健施設",
    "capacity": 100,
    "openDays": [],
    "openDaysNote": ""
  },
  {
    "id": "1050180015",
    "name": "群馬老人保健センター陽光苑",
    "kana": "グンマロウジンホケンセンターヨウコウエン",
    "address": "群馬県前橋市大友町3-26-8",
    "lat": 36.3927889,
    "lng": 139.0422854,
    "tel": "027-253-3310",
    "url": "http://www.ronenbyo.or.jp/youkouen/",
    "pref": "群馬県",
    "city": "前橋市",
    "category": "rouken",
    "serviceType": "介護老人保健施設",
    "capacity": 0,
    "openDays": [],
    "openDaysNote": ""
  },
  {
    "id": "1050180023",
    "name": "社会福祉法人恩賜財団済生会支部群馬県済生会老人保健施設あずま荘",
    "kana": "シャカイフクシホウジンオンシザイダンサイセイカイシブグンマケンサイセイカイロウジンホケンシセツアズマソウ",
    "address": "群馬県前橋市上新田町603-1",
    "lat": 36.3681624,
    "lng": 139.0604762,
    "tel": "027-254-0108",
    "url": "http://www.maebashi.saiseikai.or.jp/azumasou/",
    "pref": "群馬県",
    "city": "前橋市",
    "category": "rouken",
    "serviceType": "介護老人保健施設",
    "capacity": null,
    "openDays": [],
    "openDaysNote": ""
  },
  {
    "id": "1050180080",
    "name": "独立行政法人地域医療機能推進機構群馬中央病院附属介護老人保健施設",
    "kana": "ドクリツギョウセイホウジンチイキイリョウキノウスイシンキコウグンマチュウオウビョウインフゾクカイゴロウジンホケンシセツ",
    "address": "群馬県前橋市紅雲町一丁目７番１３号",
    "lat": 36.3859742347439,
    "lng": 139.060937859193,
    "tel": "027-221-2011",
    "url": "http://gunma.jcho.go.jp/rouken/",
    "pref": "群馬県",
    "city": "前橋市",
    "category": "rouken",
    "serviceType": "介護老人保健施設",
    "capacity": 0,
    "openDays": [],
    "openDaysNote": ""
  },
  {
    "id": "1050180049",
    "name": "老人保健施設　ビハーラ寿苑",
    "kana": "ロウジンホケンシセツ　ビハーラジュエン",
    "address": "群馬県前橋市江木町1072",
    "lat": 36.3998073,
    "lng": 139.1387346,
    "tel": "027-269-1161",
    "url": "http://www3.wind.ne.jp/akagi-hospital/vihara/",
    "pref": "群馬県",
    "city": "前橋市",
    "category": "rouken",
    "serviceType": "介護老人保健施設",
    "capacity": 80,
    "openDays": [],
    "openDaysNote": ""
  },
  {
    "id": "1050180064",
    "name": "老人保健施設　一羊館",
    "kana": "ロウジンホケンシセツ　イチヨウカン",
    "address": "群馬県前橋市小坂子町1012-5",
    "lat": 36.4228755,
    "lng": 139.1153934,
    "tel": "027-269-6667",
    "url": "http://www.maroon.dti.ne.jp/sheep2/",
    "pref": "群馬県",
    "city": "前橋市",
    "category": "rouken",
    "serviceType": "介護老人保健施設",
    "capacity": 100,
    "openDays": [],
    "openDaysNote": ""
  },
  {
    "id": "1050580099",
    "name": "ふじあく光荘（ユニット）",
    "kana": "フジアクヒカリソウ（ユニット）",
    "address": "群馬県太田市藤阿久町345",
    "lat": 36.2852643,
    "lng": 139.3606913,
    "tel": "0276-32-1212",
    "url": "http://www.f-hikari.com",
    "pref": "群馬県",
    "city": "太田市",
    "category": "rouken",
    "serviceType": "介護老人保健施設",
    "capacity": 0,
    "openDays": [],
    "openDaysNote": ""
  },
  {
    "id": "1050580073",
    "name": "医療法人財団明理会介護老人保健施設　イムスやぶづかロイヤルケアセンター",
    "kana": "イリョウホウジンザイダンメイリカイカイゴロウジンホケンシセツ　イムスヤブヅカロイヤルケアセンター",
    "address": "群馬県太田市大原町531-3",
    "lat": 36.3568174,
    "lng": 139.296267,
    "tel": "0277-78-8533",
    "url": "http://www.ims.gr.jp/yabuduka-royal/",
    "pref": "群馬県",
    "city": "太田市",
    "category": "rouken",
    "serviceType": "介護老人保健施設",
    "capacity": 70,
    "openDays": [],
    "openDaysNote": ""
  },
  {
    "id": "1050580032",
    "name": "介護老人保健施設　　あけぼの荘",
    "kana": "カイゴロウジンホケンシセツ　アケボノソウ",
    "address": "群馬県太田市西本町１３－９",
    "lat": 36.2947856,
    "lng": 139.3669073,
    "tel": "0276-32-2100",
    "url": "",
    "pref": "群馬県",
    "city": "太田市",
    "category": "rouken",
    "serviceType": "介護老人保健施設",
    "capacity": 0,
    "openDays": [],
    "openDaysNote": ""
  },
  {
    "id": "1050580065",
    "name": "介護老人保健施設　ふじあく光荘",
    "kana": "カイゴロウジンホケンシセツ　フジアクヒカリソウ",
    "address": "群馬県太田市藤阿久町３４５",
    "lat": 36.2852643,
    "lng": 139.3606913,
    "tel": "0276-32-1212",
    "url": "http://www.f-hikari.com",
    "pref": "群馬県",
    "city": "太田市",
    "category": "rouken",
    "serviceType": "介護老人保健施設",
    "capacity": 49,
    "openDays": [],
    "openDaysNote": ""
  },
  {
    "id": "1050580057",
    "name": "介護老人保健施設　まなびの苑",
    "kana": "カイゴロウジンホケンシセツ　マナビノソノ",
    "address": "群馬県太田市細谷町1547-3",
    "lat": 36.2777568,
    "lng": 139.3534476,
    "tel": "0276-61-3550",
    "url": "http://www.nagomikai-ota.or.jp",
    "pref": "群馬県",
    "city": "太田市",
    "category": "rouken",
    "serviceType": "介護老人保健施設",
    "capacity": 45,
    "openDays": [],
    "openDaysNote": ""
  },
  {
    "id": "1050580024",
    "name": "介護老人保健施設　希望の苑",
    "kana": "カイゴロウジンホケンシセツ　キボウノソノ",
    "address": "群馬県太田市高林北町1138",
    "lat": 36.2636,
    "lng": 139.3714416,
    "tel": "0276-38-1912",
    "url": "http://www.horie.or.jp/group/sono/",
    "pref": "群馬県",
    "city": "太田市",
    "category": "rouken",
    "serviceType": "介護老人保健施設",
    "capacity": 0,
    "openDays": [],
    "openDaysNote": ""
  },
  {
    "id": "1050580107",
    "name": "介護老人保健施設　金山",
    "kana": "カイゴロウジンホケンシセツ　カナヤマ",
    "address": "群馬県太田市東金井町1856-18",
    "lat": 36.3085285708588,
    "lng": 139.384663363368,
    "tel": "0276-22-1251",
    "url": "http://fujigaoka-hosp.jp",
    "pref": "群馬県",
    "city": "太田市",
    "category": "rouken",
    "serviceType": "介護老人保健施設",
    "capacity": 90,
    "openDays": [],
    "openDaysNote": ""
  },
  {
    "id": "1050380011",
    "name": "介護老人保健施設　宏愛苑",
    "kana": "カイゴロウジンホケンシセツ　コウアイエン",
    "address": "群馬県太田市六千石町59",
    "lat": 36.3357386207374,
    "lng": 139.288691574955,
    "tel": "0277-78-3821",
    "url": "http://www.koaikai.jp/koaien/index.html",
    "pref": "群馬県",
    "city": "太田市",
    "category": "rouken",
    "serviceType": "介護老人保健施設",
    "capacity": 90,
    "openDays": [],
    "openDaysNote": ""
  },
  {
    "id": "1050580040",
    "name": "介護老人保健施設　高砂荘",
    "kana": "カイゴロウジンホケンシセツ　タカサゴソウ",
    "address": "群馬県太田市飯塚町973-1",
    "lat": 36.2767544,
    "lng": 139.3888565,
    "tel": "0276-49-2323",
    "url": "http://www.takasagosou.org",
    "pref": "群馬県",
    "city": "太田市",
    "category": "rouken",
    "serviceType": "介護老人保健施設",
    "capacity": 50,
    "openDays": [],
    "openDaysNote": ""
  },
  {
    "id": "1050580016",
    "name": "介護老人保健施設　聖寿園",
    "kana": "カイゴロウジンホケンシセツ　セイジュエン",
    "address": "群馬県太田市熊野町３８－８１",
    "lat": 36.3080707,
    "lng": 139.3837922,
    "tel": "０２７６－２２－１１７０",
    "url": "http://www.fujigaoka-hosp.jp",
    "pref": "群馬県",
    "city": "太田市",
    "category": "rouken",
    "serviceType": "介護老人保健施設",
    "capacity": 0,
    "openDays": [],
    "openDaysNote": ""
  },
  {
    "id": "1053180020",
    "name": "介護老人保健施設　いずみの里",
    "kana": "カイゴロウジンホケンシセツ　イズミノサト",
    "address": "群馬県邑楽郡大泉町北小泉1丁目26-1",
    "lat": 36.2652008,
    "lng": 139.4217011,
    "tel": "0276-20-3533",
    "url": "http://www.houenkai.jp/izumi/index.htm",
    "pref": "群馬県",
    "city": "大泉町",
    "category": "rouken",
    "serviceType": "介護老人保健施設",
    "capacity": 0,
    "openDays": [],
    "openDaysNote": ""
  },
  {
    "id": "1052680020",
    "name": "中之条町介護老人保健施設ゆうあい荘",
    "kana": "ナカノジョウマチカイゴロウジンホケンシセツユウアイソウ",
    "address": "群馬県吾妻郡中之条町大字上沢渡２１３３－４",
    "lat": 36.6248592,
    "lng": 138.7663737,
    "tel": "0279-66-2662",
    "url": "https://www.town.nakanojo.gunma.jp/soshiki/5/1298.html",
    "pref": "群馬県",
    "city": "中之条町",
    "category": "rouken",
    "serviceType": "介護老人保健施設",
    "capacity": 100,
    "openDays": [],
    "openDaysNote": ""
  },
  {
    "id": "1050980018",
    "name": "介護老人保健施設　藤岡みどりの園",
    "kana": "カイゴロウジンホケンシセツ　フジオカミドリノソノ",
    "address": "群馬県藤岡市下大塚525",
    "lat": 36.2547684,
    "lng": 139.0625927,
    "tel": "0274-24-5771",
    "url": "http://www.shinozuka-hp.or.jp/",
    "pref": "群馬県",
    "city": "藤岡市",
    "category": "rouken",
    "serviceType": "介護老人保健施設",
    "capacity": 0,
    "openDays": [],
    "openDaysNote": ""
  },
  {
    "id": "1050980034",
    "name": "介護老人保健施設藤岡みどりの園（ユニット）",
    "kana": "ロウジンホケンシセツ　フジオカミドリノソノ（ユニット）",
    "address": "群馬県藤岡市下大塚字東525",
    "lat": 36.2547684,
    "lng": 139.0625927,
    "tel": "0274-24-5771",
    "url": "http://ｗｗｗ.shinozuka-hp.or.jp/",
    "pref": "群馬県",
    "city": "藤岡市",
    "category": "rouken",
    "serviceType": "介護老人保健施設",
    "capacity": 67,
    "openDays": [],
    "openDaysNote": ""
  },
  {
    "id": "1050980000",
    "name": "藤岡市介護老人保健施設鬼石",
    "kana": "フジオカシカイゴロウジンホケンシセツオニシ",
    "address": "群馬県藤岡市鬼石１３９－１",
    "lat": 36.1576539546185,
    "lng": 139.061652924606,
    "tel": "0274-52-3666",
    "url": "http//www.city.fujioka.gunma.jp/",
    "pref": "群馬県",
    "city": "藤岡市",
    "category": "rouken",
    "serviceType": "介護老人保健施設",
    "capacity": 0,
    "openDays": [],
    "openDaysNote": ""
  },
  {
    "id": "1051080057",
    "name": "サテライト型小規模介護老人保健施設ぬきさき",
    "kana": "サテライトガタショウキボカイゴロウジンホケンシセツヌキサキ",
    "address": "群馬県富岡市一ノ宮1745-1",
    "lat": 36.2518027,
    "lng": 138.8617436,
    "tel": "0274-70-2211",
    "url": "http://www3.wind.ne.jp/cocon/",
    "pref": "群馬県",
    "city": "富岡市",
    "category": "rouken",
    "serviceType": "介護老人保健施設",
    "capacity": 0,
    "openDays": [],
    "openDaysNote": ""
  },
  {
    "id": "1051080073",
    "name": "介護老人保健施設　細谷",
    "kana": "カイゴロウジンホケンシセツ　ホソヤ",
    "address": "群馬県富岡市富岡1375",
    "lat": 36.257727,
    "lng": 138.8939819,
    "tel": "0274-67-7736",
    "url": "www.hosoya.or.jp",
    "pref": "群馬県",
    "city": "富岡市",
    "category": "rouken",
    "serviceType": "介護老人保健施設",
    "capacity": 0,
    "openDays": [],
    "openDaysNote": ""
  },
  {
    "id": "1051080032",
    "name": "介護老人保健施設ココン",
    "kana": "カイゴロウジンホケンシセツココン",
    "address": "群馬県富岡市上小林47",
    "lat": 36.2372239,
    "lng": 138.8259949,
    "tel": "0274-60-2500",
    "url": "http://www3.wind.ne.jp/cocon/",
    "pref": "群馬県",
    "city": "富岡市",
    "category": "rouken",
    "serviceType": "介護老人保健施設",
    "capacity": 80,
    "openDays": [],
    "openDaysNote": ""
  },
  {
    "id": "1051080024",
    "name": "介護老人保健施設こまち",
    "kana": "カイゴロウジンホケンシセツコマチ",
    "address": "群馬県富岡市相野田469",
    "lat": 36.2834982791134,
    "lng": 138.924868485181,
    "tel": "0274-62-5811",
    "url": "http://www.ryokuyou.jp",
    "pref": "群馬県",
    "city": "富岡市",
    "category": "rouken",
    "serviceType": "介護老人保健施設",
    "capacity": 100,
    "openDays": [],
    "openDaysNote": ""
  },
  {
    "id": "1051080016",
    "name": "介護老人保健施設ミドルホーム富岡",
    "kana": "カイゴロウジンホケンシセツミドルホームトミオカ",
    "address": "群馬県富岡市岡本９６５",
    "lat": 36.2381682,
    "lng": 138.8886781,
    "tel": "０２７４－６４－３９１１",
    "url": "http://www.middle-home.org/",
    "pref": "群馬県",
    "city": "富岡市",
    "category": "rouken",
    "serviceType": "介護老人保健施設",
    "capacity": 0,
    "openDays": [],
    "openDaysNote": ""
  },
  {
    "id": "1053180012",
    "name": "介護老人保健施設　ラポール・レイゾン",
    "kana": "カイゴロウジンホケンシセツ　ラポール・レイゾン",
    "address": "群馬県邑楽郡邑楽町大字赤堀1031番地",
    "lat": 36.235761,
    "lng": 139.4847843,
    "tel": "0276-88-8000",
    "url": "",
    "pref": "群馬県",
    "city": "邑楽町",
    "category": "rouken",
    "serviceType": "介護老人保健施設",
    "capacity": 70,
    "openDays": [],
    "openDaysNote": ""
  }
]