[
  {
    "id": "853080018",
    "name": "介護老人保健施設　ホワイトハウス千代田",
    "kana": "カイゴロウジンホケンシセツ　ホワイトハウスチヨダ",
    "address": "茨城県かすみがうら市東野寺４９５－２",
    "lat": 36.1642479,
    "lng": 140.2621257,
    "tel": "0299-23-1133",
    "url": "http://www.e-seiwakai.jp/",
    "pref": "茨城県",
    "city": "かすみがうら市",
    "category": "rouken",
    "serviceType": "介護老人保健施設",
    "capacity": 100,
    "openDays": [],
    "openDaysNote": ""
  },
  {
    "id": "853080026",
    "name": "介護老人保健施設　葵の園・霞ヶ浦",
    "kana": "カイゴロウジンホケンシセツ　アオイノソノ・カスミガウラ",
    "address": "茨城県かすみがうら市下稲吉入内伝1136番地40",
    "lat": 36.1413768207145,
    "lng": 140.245645194801,
    "tel": "0299-59-0505",
    "url": "https://www.aoikai.jp/kasumigaura/",
    "pref": "茨城県",
    "city": "かすみがうら市",
    "category": "rouken",
    "serviceType": "介護老人保健施設",
    "capacity": null,
    "openDays": [],
    "openDaysNote": ""
  },
  {
    "id": "852080043",
    "name": "医療法人社団　桜水会　介護老人保健施設「豊浦」",
    "kana": "イリョウホウジンシャダン　オウスイカイ　カイゴロウジンホケンシセツ「トヨウラ」",
    "address": "茨城県つくば市神郡2013-1",
    "lat": 36.1917742,
    "lng": 140.1055503,
    "tel": "029-850-7111",
    "url": "http://www.toyoura.e-tsukuba.jp/index.htm",
    "pref": "茨城県",
    "city": "つくば市",
    "category": "rouken",
    "serviceType": "介護老人保健施設",
    "capacity": 0,
    "openDays": [],
    "openDaysNote": ""
  },
  {
    "id": "852080084",
    "name": "医療法人社団双愛会　介護老人保健施設　ひまわり",
    "kana": "イリョウホウジンシャダンソウアイカイ　カイゴロウジンホケンシセツ　ヒマワリ",
    "address": "茨城県つくば市高崎１００８",
    "lat": 36.0038966,
    "lng": 140.1158816,
    "tel": "029-871-5749",
    "url": "https://tsukuba-souai.jp/",
    "pref": "茨城県",
    "city": "つくば市",
    "category": "rouken",
    "serviceType": "介護老人保健施設",
    "capacity": 78,
    "openDays": [],
    "openDaysNote": ""
  },
  {
    "id": "852080050",
    "name": "介護老人保健施設　つくばケアセンター",
    "kana": "カイゴロウジンホケンシセツ　ツクバケアセンター",
    "address": "茨城県つくば市要76",
    "lat": 36.1085856,
    "lng": 140.0803195,
    "tel": "029-877-1313",
    "url": "http://www.tsukuba-kinen.or.jp/",
    "pref": "茨城県",
    "city": "つくば市",
    "category": "rouken",
    "serviceType": "介護老人保健施設",
    "capacity": 0,
    "openDays": [],
    "openDaysNote": ""
  },
  {
    "id": "852080035",
    "name": "介護老人保健施設　つくばリハビリテーションセンター",
    "kana": "カイゴロウジンホケンシセツ　ツクバリハビリテーションセンター",
    "address": "茨城県つくば市大曽根３６８１",
    "lat": 36.13860737088,
    "lng": 140.080491765746,
    "tel": "029-864-8300",
    "url": "http://www.ichihara-hospital.or.jp/",
    "pref": "茨城県",
    "city": "つくば市",
    "category": "rouken",
    "serviceType": "介護老人保健施設",
    "capacity": 0,
    "openDays": [],
    "openDaysNote": ""
  },
  {
    "id": "852080019",
    "name": "介護老人保健施設アリエッタ",
    "kana": "カイゴロウジンホケンシセツアリエッタ",
    "address": "茨城県つくば市北条1174",
    "lat": 36.1801972,
    "lng": 140.0976017,
    "tel": "029-867-1182",
    "url": "http://www.intio.or.jp/arietta/",
    "pref": "茨城県",
    "city": "つくば市",
    "category": "rouken",
    "serviceType": "介護老人保健施設",
    "capacity": 100,
    "openDays": [],
    "openDaysNote": ""
  },
  {
    "id": "852080027",
    "name": "介護老人保健施設そよかぜ",
    "kana": "カイゴロウジンホケンシセツソヨカゼ",
    "address": "茨城県つくば市上横場2573-1",
    "lat": 36.0391148,
    "lng": 140.0987774,
    "tel": "029-836-0517",
    "url": "http://www.gakuen-hospital.or.jp/",
    "pref": "茨城県",
    "city": "つくば市",
    "category": "rouken",
    "serviceType": "介護老人保健施設",
    "capacity": null,
    "openDays": [],
    "openDaysNote": ""
  },
  {
    "id": "852080076",
    "name": "介護老人保健施設プレミエール元気館",
    "kana": "カイゴロウジンホケンシセツプレミエールゲンキカン",
    "address": "茨城県つくば市谷田部6107-1",
    "lat": 36.0424213,
    "lng": 140.0806513,
    "tel": "029-838-1919",
    "url": "http://www.ssv-tsukubaclub.jp/",
    "pref": "茨城県",
    "city": "つくば市",
    "category": "rouken",
    "serviceType": "介護老人保健施設",
    "capacity": null,
    "openDays": [],
    "openDaysNote": ""
  },
  {
    "id": "852180017",
    "name": "医療法人社団克仁会　介護老人保健施設サンライズ湊",
    "kana": "イリョウホウジンシャダンカツジンカイカイゴロウジンホケンシセツサンライズミナト",
    "address": "茨城県ひたちなか市阿字ヶ浦字原１４０６－１",
    "lat": 36.3751833,
    "lng": 140.6012098,
    "tel": "029-265-8711",
    "url": "http://www.ktsujinkai.or.jp/sunrise2/index.html",
    "pref": "茨城県",
    "city": "ひたちなか市",
    "category": "rouken",
    "serviceType": "介護老人保健施設",
    "capacity": 0,
    "openDays": [],
    "openDaysNote": ""
  },
  {
    "id": "852180041",
    "name": "介護老人保健施設　いちご苑",
    "kana": "カイゴロウジンホケンシセツ　イチゴエン",
    "address": "茨城県ひたちなか市笹野町１－３－２０",
    "lat": 36.3953595,
    "lng": 140.5413504,
    "tel": "029-271-1750",
    "url": "http://www.ivy-ichigo.com",
    "pref": "茨城県",
    "city": "ひたちなか市",
    "category": "rouken",
    "serviceType": "介護老人保健施設",
    "capacity": 0,
    "openDays": [],
    "openDaysNote": ""
  },
  {
    "id": "852180033",
    "name": "介護老人保健施設　みなと苑",
    "kana": "カイゴロウジンホケンシセツ　ミナトエン",
    "address": "茨城県ひたちなか市幸町16-1",
    "lat": 36.3485772,
    "lng": 140.5853582,
    "tel": "029-263-0655",
    "url": "minatoen@katsujinkai.or.jp",
    "pref": "茨城県",
    "city": "ひたちなか市",
    "category": "rouken",
    "serviceType": "介護老人保健施設",
    "capacity": 0,
    "openDays": [],
    "openDaysNote": ""
  },
  {
    "id": "852180082",
    "name": "介護老人保健施設　勝田",
    "kana": "カイゴロウジンホケンシセツ　カツタ",
    "address": "茨城県ひたちなか市中根5125-2",
    "lat": 36.3849732,
    "lng": 140.5448588,
    "tel": "029-276-3111",
    "url": "https://katsuta-aiyukai.jp/roukenkatsuta/",
    "pref": "茨城県",
    "city": "ひたちなか市",
    "category": "rouken",
    "serviceType": "介護老人保健施設",
    "capacity": null,
    "openDays": [],
    "openDaysNote": ""
  },
  {
    "id": "852180058",
    "name": "介護老人保健施設プロスペクトガーデンひたちなか",
    "kana": "カイゴロウジンホケンシセツプロスペクトガーデンヒタチナカ",
    "address": "茨城県ひたちなか市高野字柏野２４５５－１",
    "lat": 36.4384773,
    "lng": 140.5426139,
    "tel": "029-354-3210",
    "url": "http://www.morita-kinenkai.com",
    "pref": "茨城県",
    "city": "ひたちなか市",
    "category": "rouken",
    "serviceType": "介護老人保健施設",
    "capacity": 0,
    "openDays": [],
    "openDaysNote": ""
  },
  {
    "id": "852180066",
    "name": "介護老人保健施設ラプラス津田",
    "kana": "カイゴロウジンホケンシセツラプラスツダ",
    "address": "茨城県ひたちなか市津田3728",
    "lat": 36.3930113,
    "lng": 140.488192,
    "tel": "029-222-4186",
    "url": "http://www.laplacetsuda.com",
    "pref": "茨城県",
    "city": "ひたちなか市",
    "category": "rouken",
    "serviceType": "介護老人保健施設",
    "capacity": 0,
    "openDays": [],
    "openDaysNote": ""
  },
  {
    "id": "852180074",
    "name": "介護老人保健施設ラプラス津田",
    "kana": "カイゴロウジンホケンシセツラプラスツダ",
    "address": "茨城県ひたちなか市津田3728",
    "lat": 36.3930753,
    "lng": 140.4882556,
    "tel": "029-222-4186",
    "url": "www.laplacetsuda.com",
    "pref": "茨城県",
    "city": "ひたちなか市",
    "category": "rouken",
    "serviceType": "介護老人保健施設",
    "capacity": 0,
    "openDays": [],
    "openDaysNote": ""
  },
  {
    "id": "853880037",
    "name": "介護老人保健施設　スーペリア３６０",
    "kana": "カイゴロウジンホケンシセツ　スーペリアサンロクマル",
    "address": "茨城県稲敷郡阿見町荒川本郷2033-508",
    "lat": 36.0245867,
    "lng": 140.1867498,
    "tel": "029-830-5300",
    "url": "http://www.kouheikai.jp/s360/",
    "pref": "茨城県",
    "city": "阿見町",
    "category": "rouken",
    "serviceType": "介護老人保健施設",
    "capacity": 0,
    "openDays": [],
    "openDaysNote": ""
  },
  {
    "id": "853880011",
    "name": "老人保健施設ケアセンター阿見",
    "kana": "ロウジンホケンシセツケアセンターアミ",
    "address": "茨城県稲敷郡阿見町若栗2957番4",
    "lat": 36.005675665104,
    "lng": 140.222958508459,
    "tel": "029-889-1180",
    "url": "http://www.eikakai.jp/",
    "pref": "茨城県",
    "city": "阿見町",
    "category": "rouken",
    "serviceType": "介護老人保健施設",
    "capacity": 100,
    "openDays": [],
    "openDaysNote": ""
  },
  {
    "id": "852780022",
    "name": "介護老人保健施設　プエブロ稲敷",
    "kana": "カイゴロウジンホケンシセツ　プエブロイナシキ",
    "address": "茨城県稲敷市狸穴11番地",
    "lat": 35.9131694,
    "lng": 140.2868469,
    "tel": "0297-87-7511",
    "url": "http://pueblo-inashiki.jp/",
    "pref": "茨城県",
    "city": "稲敷市",
    "category": "rouken",
    "serviceType": "介護老人保健施設",
    "capacity": 0,
    "openDays": [],
    "openDaysNote": ""
  },
  {
    "id": "852980010",
    "name": "介護老人保健施設　プエブロ稲敷",
    "kana": "カイゴロウジンホケンシセツ　プエブロイナシキ",
    "address": "茨城県稲敷市狸穴11番地",
    "lat": 35.9131694,
    "lng": 140.2868469,
    "tel": "0297-87-7511",
    "url": "http://pueblo-inasiki.jp/",
    "pref": "茨城県",
    "city": "稲敷市",
    "category": "rouken",
    "serviceType": "介護老人保健施設",
    "capacity": 0,
    "openDays": [],
    "openDaysNote": ""
  },
  {
    "id": "852780014",
    "name": "介護老人保健施設いなしきの郷",
    "kana": "カイゴロウジンホケンシセツイナシキノサト",
    "address": "茨城県稲敷市佐原組新田1378-1",
    "lat": 35.9318537,
    "lng": 140.4092809,
    "tel": "0299-79-3811",
    "url": "http://www.koubun.or.jp",
    "pref": "茨城県",
    "city": "稲敷市",
    "category": "rouken",
    "serviceType": "介護老人保健施設",
    "capacity": 100,
    "openDays": [],
    "openDaysNote": ""
  },
  {
    "id": "852980028",
    "name": "介護老人保健施設いなしきの郷",
    "kana": "カイゴロウジンホケンシセツイナシキノサト",
    "address": "茨城県稲敷市佐原組新田1378-1",
    "lat": 35.931837,
    "lng": 140.409273,
    "tel": "0299-79-3811",
    "url": "http://www.koubun.or.jp",
    "pref": "茨城県",
    "city": "稲敷市",
    "category": "rouken",
    "serviceType": "介護老人保健施設",
    "capacity": 0,
    "openDays": [],
    "openDaysNote": ""
  },
  {
    "id": "853180123",
    "name": "葵の園・水戸",
    "kana": "アオイノソノ・ミト",
    "address": "茨城県東茨城郡茨城町桜の郷231番6",
    "lat": 36.3243352,
    "lng": 140.4081475,
    "tel": "029-219-0321",
    "url": "",
    "pref": "茨城県",
    "city": "茨城町",
    "category": "rouken",
    "serviceType": "介護老人保健施設",
    "capacity": 0,
    "openDays": [],
    "openDaysNote": ""
  },
  {
    "id": "853180024",
    "name": "介護老人保健施設　エバーグリーン",
    "kana": "カイゴロウジンホケンシセツエバーグリーン",
    "address": "茨城県東茨城郡茨城町若宮字向ヒ393-1",
    "lat": 36.3119046,
    "lng": 140.4933874,
    "tel": "029-293-9460",
    "url": "http://www6.ocn.ne.jp/~ebagreen",
    "pref": "茨城県",
    "city": "茨城町",
    "category": "rouken",
    "serviceType": "介護老人保健施設",
    "capacity": 0,
    "openDays": [],
    "openDaysNote": ""
  },
  {
    "id": "853180057",
    "name": "介護老人保健施設　レイクヒルひぬま",
    "kana": "カイゴロウジンホケンシセツ　レイクヒルヒヌマ",
    "address": "茨城県東茨城郡茨城町下石崎２３２４",
    "lat": 36.2855535,
    "lng": 140.512998,
    "tel": "029-240-8120",
    "url": "http://www.tannno-h.com/hinuma/l-hinumahtml",
    "pref": "茨城県",
    "city": "茨城町",
    "category": "rouken",
    "serviceType": "介護老人保健施設",
    "capacity": 0,
    "openDays": [],
    "openDaysNote": ""
  },
  {
    "id": "853180099",
    "name": "介護老人保健施設　桜の郷敬愛の杜",
    "kana": "カイゴロウジンホケンシセツ　サクラノサトケイアイノモリ",
    "address": "茨城県東茨城郡茨城町桜の郷1000番地2",
    "lat": 36.3224005877584,
    "lng": 140.41487068214,
    "tel": "029-353-6581",
    "url": "http//wwwheart-pia.com/meguminokai/",
    "pref": "茨城県",
    "city": "茨城町",
    "category": "rouken",
    "serviceType": "介護老人保健施設",
    "capacity": 100,
    "openDays": [],
    "openDaysNote": ""
  },
  {
    "id": "853180131",
    "name": "介護老人保健施設　桜の郷敬愛の杜",
    "kana": "カイゴロウジンホケンシセツ　サクラノサトケイアイノモリ",
    "address": "茨城県東茨城群茨城町桜の郷１０００番地２",
    "lat": 36.3226403690654,
    "lng": 140.414540455865,
    "tel": "029-353-6581",
    "url": "http://www.heart-pia.com/meguminokai/facility/sakura_keiai.html",
    "pref": "茨城県",
    "city": "茨城町",
    "category": "rouken",
    "serviceType": "介護老人保健施設",
    "capacity": 0,
    "openDays": [],
    "openDaysNote": ""
  },
  {
    "id": "851080010",
    "name": "医療法人　光潤会　介護老人保健施設　ルーエしもつま",
    "kana": "イリョウホウジン　コウジュンカイ　カイゴロウジンホケンシセツ　ルーエシモツマ",
    "address": "茨城県下妻市江1832",
    "lat": 36.2283614,
    "lng": 139.9346687,
    "tel": "0296-44-8000",
    "url": "https://ruhe-s.jp/",
    "pref": "茨城県",
    "city": "下妻市",
    "category": "rouken",
    "serviceType": "介護老人保健施設",
    "capacity": 0,
    "openDays": [],
    "openDaysNote": ""
  },
  {
    "id": "854280013",
    "name": "介護老人保健施設　しろかね",
    "kana": "カイゴロウジンホケンシセツ　シロカネ",
    "address": "茨城県下妻市下栗１２１７",
    "lat": 36.1640718394558,
    "lng": 139.959218882279,
    "tel": "0296-30-1811",
    "url": "https://www.rouken-shirokane.com/",
    "pref": "茨城県",
    "city": "下妻市",
    "category": "rouken",
    "serviceType": "介護老人保健施設",
    "capacity": 0,
    "openDays": [],
    "openDaysNote": ""
  },
  {
    "id": "853280030",
    "name": "介護老人保健施設　あたごナーシングビラ",
    "kana": "カイゴロウジンホケンシセツ　アタゴナーシングビラ",
    "address": "茨城県笠間市土師1080-1",
    "lat": 36.3071874,
    "lng": 140.2974936,
    "tel": "0299-37-6511",
    "url": "info@atago-nursing.com",
    "pref": "茨城県",
    "city": "笠間市",
    "category": "rouken",
    "serviceType": "介護老人保健施設",
    "capacity": 0,
    "openDays": [],
    "openDaysNote": ""
  },
  {
    "id": "853280022",
    "name": "介護老人保健施設　シルバービィレッジ",
    "kana": "カイゴロウジンホケンシセツ　シルバービィレッジ",
    "address": "笠間市南小泉977-1",
    "lat": 36.3285459,
    "lng": 140.2851217,
    "tel": "0296-78-2211",
    "url": "https://www.silver-village.jp/",
    "pref": "茨城県",
    "city": "笠間市",
    "category": "rouken",
    "serviceType": "介護老人保健施設",
    "capacity": 0,
    "openDays": [],
    "openDaysNote": ""
  },
  {
    "id": "851689125",
    "name": "介護老人保健施設オリーブ友部館",
    "kana": "カイゴロウジンホケンシセツオリーブトモベカン",
    "address": "茨城県笠間市旭町32",
    "lat": 36.3261092998821,
    "lng": 140.314619048253,
    "tel": "0296-71-5135",
    "url": "http://i-seihoukai.or.jp/olive/",
    "pref": "茨城県",
    "city": "笠間市",
    "category": "rouken",
    "serviceType": "介護老人保健施設",
    "capacity": 0,
    "openDays": [],
    "openDaysNote": ""
  },
  {
    "id": "851689117",
    "name": "介護老人保健施設すみれ",
    "kana": "カイゴロウジンホケンシセツスミレ",
    "address": "茨城県笠間市石井２０４５",
    "lat": 36.3851369,
    "lng": 140.2479875,
    "tel": "0296-70-0035",
    "url": "http://www.seihoukai.jp/",
    "pref": "茨城県",
    "city": "笠間市",
    "category": "rouken",
    "serviceType": "介護老人保健施設",
    "capacity": 88,
    "openDays": [],
    "openDaysNote": ""
  },
  {
    "id": "851680017",
    "name": "笠間シルバーケアセンター　パル",
    "kana": "カサマシルバーケアセンター　パル",
    "address": "茨城県笠間市来栖255-1",
    "lat": 36.3780109,
    "lng": 140.2387598,
    "tel": "0296-70-1185",
    "url": "http:www.k-pal.or.jp/",
    "pref": "茨城県",
    "city": "笠間市",
    "category": "rouken",
    "serviceType": "介護老人保健施設",
    "capacity": 80,
    "openDays": [],
    "openDaysNote": ""
  },
  {
    "id": "851980037",
    "name": "介護老人保健施設　セントラルふれあい",
    "kana": "カイゴロウジンホケンシセツ　セントラルフレアイ",
    "address": "茨城県牛久市柏田町1604番6",
    "lat": 35.9811278,
    "lng": 140.156509,
    "tel": "０２９－８７２－８８５１",
    "url": "https://central.or.jp/facilities/fureai.php",
    "pref": "茨城県",
    "city": "牛久市",
    "category": "rouken",
    "serviceType": "介護老人保健施設",
    "capacity": 0,
    "openDays": [],
    "openDaysNote": ""
  },
  {
    "id": "851980011",
    "name": "介護老人保健施設　セントラルゆうあい",
    "kana": "カイゴロウジンホケンシセツ　セントラルユウアイ",
    "address": "茨城県牛久市柏田町1590-3",
    "lat": 35.9824859,
    "lng": 140.1571395,
    "tel": "029-872-8833",
    "url": "http://www.central.or.jp/yuuai/index.htm",
    "pref": "茨城県",
    "city": "牛久市",
    "category": "rouken",
    "serviceType": "介護老人保健施設",
    "capacity": 100,
    "openDays": [],
    "openDaysNote": ""
  },
  {
    "id": "851980045",
    "name": "介護老人保健施設　春秋園",
    "kana": "カイゴロウジンホケンシセツ　シュンジュウエン",
    "address": "茨城県牛久市猪子町891番地2",
    "lat": 35.9984973,
    "lng": 140.1409459,
    "tel": "029-870-3100",
    "url": "http://www.jojinkai.com",
    "pref": "茨城県",
    "city": "牛久市",
    "category": "rouken",
    "serviceType": "介護老人保健施設",
    "capacity": 0,
    "openDays": [],
    "openDaysNote": ""
  },
  {
    "id": "851980029",
    "name": "介護老人保健施設　春秋園",
    "kana": "カイゴロウジンホケンシセツ　シュンジュウエン",
    "address": "茨城県牛久市猪子町891番地2",
    "lat": 35.9985334,
    "lng": 140.1409514,
    "tel": "029-870-3100",
    "url": "http://www.jojinkai.com",
    "pref": "茨城県",
    "city": "牛久市",
    "category": "rouken",
    "serviceType": "介護老人保健施設",
    "capacity": 0,
    "openDays": [],
    "openDaysNote": ""
  },
  {
    "id": "854380045",
    "name": "介護老人保健施設夢彩の舎",
    "kana": "カイゴロウジンホケンシセツユメサイノイエ",
    "address": "茨城県猿島郡境町若林2269-1",
    "lat": 36.0778132,
    "lng": 139.8324143,
    "tel": "0280-33-7300",
    "url": "https://www.nogihosp.or.jp/",
    "pref": "茨城県",
    "city": "境町",
    "category": "rouken",
    "serviceType": "介護老人保健施設",
    "capacity": 0,
    "openDays": [],
    "openDaysNote": ""
  },
  {
    "id": "854380037",
    "name": "老人保健施設境町メディカルピクニック",
    "kana": "ロウジンホケンシセツサカイマチメディカルピクニック",
    "address": "茨城県猿島郡境町塚崎2555-1",
    "lat": 36.1261957,
    "lng": 139.7741319,
    "tel": "0280-81-1055",
    "url": "https://sakaimachimadeical.wixsite.com/my-site-1",
    "pref": "茨城県",
    "city": "境町",
    "category": "rouken",
    "serviceType": "介護老人保健施設",
    "capacity": 80,
    "openDays": [],
    "openDaysNote": ""
  },
  {
    "id": "850780032",
    "name": "介護老人保健施設　あんしん",
    "kana": "カイゴロウジンホケンシセツ　アンシン",
    "address": "茨城県結城市大字結城字西繫昌塚9628-2",
    "lat": 36.2887846802863,
    "lng": 139.855296308958,
    "tel": "0296-33-0880",
    "url": "https://roken-yuki.or.jp/",
    "pref": "茨城県",
    "city": "結城市",
    "category": "rouken",
    "serviceType": "介護老人保健施設",
    "capacity": 0,
    "openDays": [],
    "openDaysNote": ""
  },
  {
    "id": "850780040",
    "name": "介護老人保健施設　すばる",
    "kana": "カイゴロウジンホケンシセツ　スバル",
    "address": "茨城県結城市大字結城１０７８０",
    "lat": 36.3060079,
    "lng": 139.8494131,
    "tel": "0296-21-2088",
    "url": "subaruchikuseikai@josai-hp.com",
    "pref": "茨城県",
    "city": "結城市",
    "category": "rouken",
    "serviceType": "介護老人保健施設",
    "capacity": 100,
    "openDays": [],
    "openDaysNote": ""
  },
  {
    "id": "850780024",
    "name": "介護老人保健施設生きいき倶楽部",
    "kana": "カイゴロウジンホケンシセツイキイキクラブ",
    "address": "茨城県結城市大字結城9143-1",
    "lat": 36.2858517,
    "lng": 139.8599545,
    "tel": "0296-20-8666",
    "url": "http://asmss.jp/",
    "pref": "茨城県",
    "city": "結城市",
    "category": "rouken",
    "serviceType": "介護老人保健施設",
    "capacity": 50,
    "openDays": [],
    "openDaysNote": ""
  },
  {
    "id": "850480013",
    "name": "医療法人　慈政会　介護老人保健施設　平成園",
    "kana": "イリョウホウジン　ジセイカイ　カイゴロウジンホケンシセツ　ヘイセイエン",
    "address": "茨城県古河市旭町１－１７－３９",
    "lat": 36.1975717,
    "lng": 139.7217057,
    "tel": "0280-31-5998",
    "url": "https://www.heiseien.jp",
    "pref": "茨城県",
    "city": "古河市",
    "category": "rouken",
    "serviceType": "介護老人保健施設",
    "capacity": 0,
    "openDays": [],
    "openDaysNote": ""
  },
  {
    "id": "850480047",
    "name": "介護老人保健施設けやきの舎",
    "kana": "カイゴロウジンホケンシセツケヤキノイエ",
    "address": "茨城県古河市仁連601",
    "lat": 36.1830133,
    "lng": 139.8060194,
    "tel": "0280-77-3333",
    "url": "http://www.nogihosp.or.jp",
    "pref": "茨城県",
    "city": "古河市",
    "category": "rouken",
    "serviceType": "介護老人保健施設",
    "capacity": 0,
    "openDays": [],
    "openDaysNote": ""
  },
  {
    "id": "850480021",
    "name": "介護老人保健施設まくらがの郷",
    "kana": "カイゴロウジンホケンシセツマクラガノサト",
    "address": "茨城県古河市東本町四丁目2番2号",
    "lat": 36.1937521460925,
    "lng": 139.724112476582,
    "tel": "0280-33-1234",
    "url": "http://www.makuraganosato.net/",
    "pref": "茨城県",
    "city": "古河市",
    "category": "rouken",
    "serviceType": "介護老人保健施設",
    "capacity": null,
    "openDays": [],
    "openDaysNote": ""
  },
  {
    "id": "854380011",
    "name": "青嵐荘ケア・アシスタンス",
    "kana": "セイランソウケア・アシスタンス",
    "address": "茨城県古河市上大野703-1",
    "lat": 36.2099162,
    "lng": 139.7745932,
    "tel": "0280-98-2711",
    "url": "http://www.houkoukai.or.jp/care/index.html",
    "pref": "茨城県",
    "city": "古河市",
    "category": "rouken",
    "serviceType": "介護老人保健施設",
    "capacity": 0,
    "openDays": [],
    "openDaysNote": ""
  },
  {
    "id": "853780039",
    "name": "介護老人保健施設かすみがうら",
    "kana": "カイゴロウジンホケンシセツ　カスミガウラ",
    "address": "茨城県行方市若海７９３－５",
    "lat": 36.1229813,
    "lng": 140.4335071,
    "tel": "0299-55-0122",
    "url": "http://www.s-kasumigaura.com",
    "pref": "茨城県",
    "city": "行方市",
    "category": "rouken",
    "serviceType": "介護老人保健施設",
    "capacity": 0,
    "openDays": [],
    "openDaysNote": ""
  },
  {
    "id": "853780021",
    "name": "介護老人保健施設リヒトハウス北浦",
    "kana": "カイゴロウジンホケンシセツリヒトハウスキタウラ",
    "address": "茨城県行方市繁昌1712-1",
    "lat": 36.0569023,
    "lng": 140.519167,
    "tel": "0291-35-0471",
    "url": "http://care-net.biz/08/rihito/index.html",
    "pref": "茨城県",
    "city": "行方市",
    "category": "rouken",
    "serviceType": "介護老人保健施設",
    "capacity": null,
    "openDays": [],
    "openDaysNote": ""
  },
  {
    "id": "851480012",
    "name": "介護老人保健施設　博純苑",
    "kana": "カイゴロウジンホケンシセツ　ハクジュンエン",
    "address": "茨城県高萩市秋山６２５",
    "lat": 36.7152799,
    "lng": 140.6849703,
    "tel": "0293-23-2900",
    "url": "https://hakujun.jimdofree.com",
    "pref": "茨城県",
    "city": "高萩市",
    "category": "rouken",
    "serviceType": "介護老人保健施設",
    "capacity": 0,
    "openDays": [],
    "openDaysNote": ""
  },
  {
    "id": "851480020",
    "name": "介護老人保健施設ノア",
    "kana": "カイゴロウジンホケンシセツノア",
    "address": "茨城県高萩市高浜町3-154-1",
    "lat": 36.7021519,
    "lng": 140.7179266,
    "tel": "0293-24-2100",
    "url": "http://www.jsdi.or.jp/~noa/",
    "pref": "茨城県",
    "city": "高萩市",
    "category": "rouken",
    "serviceType": "介護老人保健施設",
    "capacity": 0,
    "openDays": [],
    "openDaysNote": ""
  },
  {
    "id": "852880012",
    "name": "介護老人保健施設　きねぶち",
    "kana": "カイゴロウジンホケンシセツ　キネブチ",
    "address": "茨城県坂東市長谷989番地5",
    "lat": 36.0379226,
    "lng": 139.8859737,
    "tel": "0297-47-3333",
    "url": "http://www.kine.jp/roken/",
    "pref": "茨城県",
    "city": "坂東市",
    "category": "rouken",
    "serviceType": "介護老人保健施設",
    "capacity": 0,
    "openDays": [],
    "openDaysNote": ""
  },
  {
    "id": "854380029",
    "name": "介護老人保健施設　寿桂苑",
    "kana": "カイゴロウジンホケンシセツ　ジュケイエン",
    "address": "茨城県坂東市沓掛4527-1",
    "lat": 36.0889448999977,
    "lng": 139.898078427323,
    "tel": "0297-44-2345",
    "url": "http://www.group-seifu.or.jp",
    "pref": "茨城県",
    "city": "坂東市",
    "category": "rouken",
    "serviceType": "介護老人保健施設",
    "capacity": 100,
    "openDays": [],
    "openDaysNote": ""
  },
  {
    "id": "854180049",
    "name": "介護老人保健施設さくらがわ",
    "kana": "カイゴロウジンホケンシセツサクラガワ",
    "address": "茨城県桜川市東飯田６５９",
    "lat": 36.3100303,
    "lng": 140.1110623,
    "tel": "0296-20-6071",
    "url": "http://www.douaikai.or.jp",
    "pref": "茨城県",
    "city": "桜川市",
    "category": "rouken",
    "serviceType": "介護老人保健施設",
    "capacity": 100,
    "openDays": [],
    "openDaysNote": ""
  },
  {
    "id": "853280014",
    "name": "介護老人保健施設さざんか荘",
    "kana": "カイゴロウジンホケンシセツサザンカソウ",
    "address": "茨城県桜川市亀岡992",
    "lat": 36.3746424,
    "lng": 140.1345188,
    "tel": "0296-76-2021",
    "url": "http://www.kenseikai.cc",
    "pref": "茨城県",
    "city": "桜川市",
    "category": "rouken",
    "serviceType": "介護老人保健施設",
    "capacity": 0,
    "openDays": [],
    "openDaysNote": ""
  },
  {
    "id": "854180031",
    "name": "介護老人保健施設マカベシルバートピア",
    "kana": "カイゴロウジンホケンシセツマカベシルバートピア",
    "address": "茨城県桜川市真壁町東山田1945",
    "lat": 36.2624826,
    "lng": 140.0768756,
    "tel": "0296-54-2800",
    "url": "http://www.shoutokukai.com",
    "pref": "茨城県",
    "city": "桜川市",
    "category": "rouken",
    "serviceType": "介護老人保健施設",
    "capacity": 0,
    "openDays": [],
    "openDaysNote": ""
  },
  {
    "id": "852280015",
    "name": "医療法人社団善仁会　介護老人保健施設鹿野苑",
    "kana": "イリョウホウジンシャダンゼンジンカイ　カイゴロウジンホケンシセツロクノエン",
    "address": "茨城県鹿嶋市宮津台188-17",
    "lat": 35.9821035,
    "lng": 140.6552615,
    "tel": "0299-83-7311",
    "url": "https://www.rokunoen.jp/",
    "pref": "茨城県",
    "city": "鹿嶋市",
    "category": "rouken",
    "serviceType": "介護老人保健施設",
    "capacity": 0,
    "openDays": [],
    "openDaysNote": ""
  },
  {
    "id": "852280023",
    "name": "介護老人保健施設　松寿園リハビリケアセンター",
    "kana": "カイゴロウジンホケンシセツ　ショウジュエンリハビリケアセンター",
    "address": "茨城県鹿嶋市武井1961番地1",
    "lat": 36.0571663221767,
    "lng": 140.585088236246,
    "tel": "0299-78-7080",
    "url": "http://matsukura-shojuen.jp/rehabili/",
    "pref": "茨城県",
    "city": "鹿嶋市",
    "category": "rouken",
    "serviceType": "介護老人保健施設",
    "capacity": 0,
    "openDays": [],
    "openDaysNote": ""
  },
  {
    "id": "852280031",
    "name": "松寿園リハビリケアセンター",
    "kana": "ショウジュエンリハビリケアセンター",
    "address": "茨城県鹿嶋市武井1961-1",
    "lat": 36.0573058836581,
    "lng": 140.585884962498,
    "tel": "0299-78-7080",
    "url": "http://matsukura-shojuen.jp/rehabili/",
    "pref": "茨城県",
    "city": "鹿嶋市",
    "category": "rouken",
    "serviceType": "介護老人保健施設",
    "capacity": 0,
    "openDays": [],
    "openDaysNote": ""
  },
  {
    "id": "854480019",
    "name": "医療法人社団　宗仁会　介護老人保健施設　サンライフ宗仁会",
    "kana": "イリョウホウジンシャダンソウジンカイ　カイゴロウジンホケンシセツ　サンライフソウジンカイ",
    "address": "茨城県取手市岡１４７１番地",
    "lat": 35.9221211,
    "lng": 140.0563258,
    "tel": "0297-85-8743",
    "url": "http://www/soujinkai.com",
    "pref": "茨城県",
    "city": "取手市",
    "category": "rouken",
    "serviceType": "介護老人保健施設",
    "capacity": 0,
    "openDays": [],
    "openDaysNote": ""
  },
  {
    "id": "851780031",
    "name": "介護療養型老人保健施設　ネオテラス宗仁会",
    "kana": "カイゴリョウヨウガタロウジンホケンシセツ　ネオテラスソウジンカイ",
    "address": "取手市岡１４９３番地",
    "lat": 35.9207796,
    "lng": 140.0573507,
    "tel": "0297-85-8815",
    "url": "http://www.soujinkai.com",
    "pref": "茨城県",
    "city": "取手市",
    "category": "rouken",
    "serviceType": "介護老人保健施設",
    "capacity": 84,
    "openDays": [],
    "openDaysNote": ""
  },
  {
    "id": "851780023",
    "name": "介護老人保健施設　はあとぴあ",
    "kana": "カイゴロウジンホケンシセツ　ハアトピア",
    "address": "取手市井野２５３",
    "lat": 35.9025077,
    "lng": 140.0864829,
    "tel": "0297-74-3335",
    "url": "http://www.haatopia.or.jp",
    "pref": "茨城県",
    "city": "取手市",
    "category": "rouken",
    "serviceType": "介護老人保健施設",
    "capacity": 0,
    "openDays": [],
    "openDaysNote": ""
  },
  {
    "id": "851780015",
    "name": "取手市介護老人保健施設緑寿荘",
    "kana": "トリデシカイゴロウジンホケンシセツリョクジュソウ",
    "address": "茨城県取手市野々井１９２６番地８",
    "lat": 35.9181202,
    "lng": 140.0256013,
    "tel": "0297-78-9100",
    "url": "http://www.ryokujyusou.com",
    "pref": "茨城県",
    "city": "取手市",
    "category": "rouken",
    "serviceType": "介護老人保健施設",
    "capacity": 0,
    "openDays": [],
    "openDaysNote": ""
  },
  {
    "id": "852480029",
    "name": "介護老人保健施設　アイケア",
    "kana": "カイゴロウジンホケンシセツ　アイケア",
    "address": "茨城県守谷市小山３１８番５",
    "lat": 35.9301381,
    "lng": 140.0120077,
    "tel": "０２９７-３８-６７６７",
    "url": "http://icare-moriya.jp/",
    "pref": "茨城県",
    "city": "守谷市",
    "category": "rouken",
    "serviceType": "介護老人保健施設",
    "capacity": 0,
    "openDays": [],
    "openDaysNote": ""
  },
  {
    "id": "852480037",
    "name": "介護老人保健施設　アイケア",
    "kana": "カイゴロウジンホケンシセツ　アイケア",
    "address": "茨城県守谷市小山３１８番５",
    "lat": 35.9301381,
    "lng": 140.0120077,
    "tel": "0297-38-6767",
    "url": "http://icare-moriya.jp/",
    "pref": "茨城県",
    "city": "守谷市",
    "category": "rouken",
    "serviceType": "介護老人保健施設",
    "capacity": 0,
    "openDays": [],
    "openDaysNote": ""
  },
  {
    "id": "852480011",
    "name": "介護老人保健施設　ダ・ジャーレ　もりや",
    "kana": "カイゴロウジンホケンシセツ　ダ・ジャーレ　モリヤ",
    "address": "守谷市松並1630-1",
    "lat": 35.9558370515278,
    "lng": 139.998622341769,
    "tel": "0297-20-6616",
    "url": "http://www.keiyu.or.jp",
    "pref": "茨城県",
    "city": "守谷市",
    "category": "rouken",
    "serviceType": "介護老人保健施設",
    "capacity": 0,
    "openDays": [],
    "openDaysNote": ""
  },
  {
    "id": "853980035",
    "name": "介護老人保健施設　サン・テレーズ",
    "kana": "カイゴロウジンホケンシセツ　サン・テレーズ",
    "address": "茨城県小美玉市栗又四ケ1752－1",
    "lat": 36.1777587,
    "lng": 140.330524,
    "tel": "0299－37－1115",
    "url": "http://www.ishinou.jp",
    "pref": "茨城県",
    "city": "小美玉市",
    "category": "rouken",
    "serviceType": "介護老人保健施設",
    "capacity": 0,
    "openDays": [],
    "openDaysNote": ""
  },
  {
    "id": "853180032",
    "name": "介護老人保健施設　みのり苑",
    "kana": "カイゴロウジンホケンシセツ　ミノリエン",
    "address": "茨城県小美玉市橋場美２１",
    "lat": 36.2539511,
    "lng": 140.3724571,
    "tel": "0299-48-3556",
    "url": "",
    "pref": "茨城県",
    "city": "小美玉市",
    "category": "rouken",
    "serviceType": "介護老人保健施設",
    "capacity": 0,
    "openDays": [],
    "openDaysNote": ""
  },
  {
    "id": "855680039",
    "name": "介護老人保健施設　小川敬愛の杜",
    "kana": "カイゴロウジンホケンシセツ　オガワケイアイノモリ",
    "address": "茨城県小美玉市野田576-3",
    "lat": 36.1929353292632,
    "lng": 140.370546423279,
    "tel": "0299-56-7131",
    "url": "https://www.heart-pia.com/meguminokai/facility/ogawa.html",
    "pref": "茨城県",
    "city": "小美玉市",
    "category": "rouken",
    "serviceType": "介護老人保健施設",
    "capacity": 0,
    "openDays": [],
    "openDaysNote": ""
  },
  {
    "id": "855680021",
    "name": "介護老人保健施設　小川敬愛の杜",
    "kana": "カイゴロウジンホケンシセツ　オガワケイアイノモリ",
    "address": "茨城県小美玉市野田576-3",
    "lat": 36.192931,
    "lng": 140.370761,
    "tel": "0299-56-7131",
    "url": "http://www.heart-pia.com",
    "pref": "茨城県",
    "city": "小美玉市",
    "category": "rouken",
    "serviceType": "介護老人保健施設",
    "capacity": 100,
    "openDays": [],
    "openDaysNote": ""
  },
  {
    "id": "855680013",
    "name": "介護老人保健施設　小美玉敬愛の杜",
    "kana": "カイゴロウジンホケンシセツオミタマケイアイノモリ",
    "address": "小美玉市中台148",
    "lat": 36.2247759,
    "lng": 140.3162932,
    "tel": "0299-56-5181",
    "url": "http://www.heart.pia.com",
    "pref": "茨城県",
    "city": "小美玉市",
    "category": "rouken",
    "serviceType": "介護老人保健施設",
    "capacity": 80,
    "openDays": [],
    "openDaysNote": ""
  },
  {
    "id": "855680047",
    "name": "小美玉敬愛の杜",
    "kana": "オミタマケイアイノモリ",
    "address": "中台148",
    "lat": 36.2246894,
    "lng": 140.316101,
    "tel": "0299-56-5181",
    "url": "http://www.heart-pia.com",
    "pref": "茨城県",
    "city": "小美玉市",
    "category": "rouken",
    "serviceType": "介護老人保健施設",
    "capacity": 20,
    "openDays": [],
    "openDaysNote": ""
  },
  {
    "id": "853180107",
    "name": "介護老人保健施設　　きんもくせい",
    "kana": "カイゴロウジンホケンシセツ　　キンモクセイ",
    "address": "茨城県東茨城郡城里町石塚1223-1",
    "lat": 36.4841378,
    "lng": 140.3696827,
    "tel": "029-288-7221",
    "url": "www.seijunkai.or.jp/kinmokusei",
    "pref": "茨城県",
    "city": "城里町",
    "category": "rouken",
    "serviceType": "介護老人保健施設",
    "capacity": 0,
    "openDays": [],
    "openDaysNote": ""
  },
  {
    "id": "853180081",
    "name": "介護老人保健施設　カーサ・ビアンしろさと",
    "kana": "カイゴロウジンホケンシセツ　カーサ・ビアンシロサト",
    "address": "茨城県東茨城郡城里町阿波山原６０２",
    "lat": 36.4795744,
    "lng": 140.375388,
    "tel": "029-240-9595",
    "url": "https://casabien.lsv.jp/",
    "pref": "茨城県",
    "city": "城里町",
    "category": "rouken",
    "serviceType": "介護老人保健施設",
    "capacity": 80,
    "openDays": [],
    "openDaysNote": ""
  },
  {
    "id": "851180018",
    "name": "けんちの苑水海道",
    "kana": "ケンチノソノミツカイドウ",
    "address": "茨城県常総市豊岡町丙３２６４番地",
    "lat": 36.0299288,
    "lng": 139.9731133,
    "tel": "0297-24-5511",
    "url": "http://www.kenchi.jp/",
    "pref": "茨城県",
    "city": "常総市",
    "category": "rouken",
    "serviceType": "介護老人保健施設",
    "capacity": 100,
    "openDays": [],
    "openDaysNote": ""
  },
  {
    "id": "851180026",
    "name": "介護老人保健施設　葵の園・常総",
    "kana": "カイゴロウジンホケンシセツ　アオイノソノ　ジョウソウ",
    "address": "菅生町1308番地の1",
    "lat": 35.989488172267,
    "lng": 139.934375029608,
    "tel": "0297-27-3311",
    "url": "",
    "pref": "茨城県",
    "city": "常総市",
    "category": "rouken",
    "serviceType": "介護老人保健施設",
    "capacity": 0,
    "openDays": [],
    "openDaysNote": ""
  },
  {
    "id": "851280016",
    "name": "介護老人保健施設　くじらヶ丘",
    "kana": "カイゴロウジンホケンシセツ　クジラガオカ",
    "address": "茨城県常陸太田市田渡町８５５－１",
    "lat": 36.5644003,
    "lng": 140.5487999,
    "tel": "0294-70-2611",
    "url": "kawasaki-hos.or.jp/kujiragaoka/top.html",
    "pref": "茨城県",
    "city": "常陸太田市",
    "category": "rouken",
    "serviceType": "介護老人保健施設",
    "capacity": 100,
    "openDays": [],
    "openDaysNote": ""
  },
  {
    "id": "852580026",
    "name": "医療法人芳栄会　介護老人保健施設　プラタナスの丘",
    "kana": "イリョウホウジンホウエイカイカイゴロウジンホケンシセツプラタナスノオカ",
    "address": "茨城県常陸大宮市宇留野３１０９",
    "lat": 36.5438849,
    "lng": 140.4183363,
    "tel": "0295-54-1150",
    "url": "https://www.platanus.or.jp",
    "pref": "茨城県",
    "city": "常陸大宮市",
    "category": "rouken",
    "serviceType": "介護老人保健施設",
    "capacity": 0,
    "openDays": [],
    "openDaysNote": ""
  },
  {
    "id": "853380020",
    "name": "老人保健施設　大宮フロイデハイム",
    "kana": "ロウジンホケンシセツ　オオミヤフロイデハイム",
    "address": "茨城県常陸大宮市上町３１８－１",
    "lat": 36.5492243896178,
    "lng": 140.412988741919,
    "tel": "0295-53-1000",
    "url": "http://www.hakujinkai.com",
    "pref": "茨城県",
    "city": "常陸大宮市",
    "category": "rouken",
    "serviceType": "介護老人保健施設",
    "capacity": 0,
    "openDays": [],
    "openDaysNote": ""
  },
  {
    "id": "853680015",
    "name": "介護老人保健施設　ばんなん白光園",
    "kana": "カイゴロウジンホケンシセツ　バンナンハッコウエン",
    "address": "茨城県神栖市賀２１４８",
    "lat": 35.9004581,
    "lng": 140.6240223,
    "tel": "0299-93-1162",
    "url": "http://www.hakkoen.jp",
    "pref": "茨城県",
    "city": "神栖市",
    "category": "rouken",
    "serviceType": "介護老人保健施設",
    "capacity": 0,
    "openDays": [],
    "openDaysNote": ""
  },
  {
    "id": "855280012",
    "name": "介護老人保健施設　葵の園・神栖",
    "kana": "カイゴロウジンホケンシセツ　アオイノソノ　カミス",
    "address": "神栖市神栖四丁目8-30",
    "lat": 35.9107132,
    "lng": 140.6536691,
    "tel": "0299-90-1177",
    "url": "http://www,aoikai,jp",
    "pref": "茨城県",
    "city": "神栖市",
    "category": "rouken",
    "serviceType": "介護老人保健施設",
    "capacity": 0,
    "openDays": [],
    "openDaysNote": ""
  },
  {
    "id": "853680049",
    "name": "介護老人保健施設シオン",
    "kana": "カイゴロウジンホケンシセツシオン",
    "address": "茨城県神栖市土合本町2丁目9809番地126",
    "lat": 35.7926413,
    "lng": 140.7780866,
    "tel": "0479-48-1888",
    "url": "https://watanabe-hospital.net/",
    "pref": "茨城県",
    "city": "神栖市",
    "category": "rouken",
    "serviceType": "介護老人保健施設",
    "capacity": 0,
    "openDays": [],
    "openDaysNote": ""
  },
  {
    "id": "850180019",
    "name": "介護老人保健施設　くるみ館",
    "kana": "カイゴロウジンホケンシセツ　クルミカン",
    "address": "茨城県水戸市河和田町3335-1",
    "lat": 36.3672261,
    "lng": 140.4022467,
    "tel": "029-255-4774",
    "url": "http://www.hokusuikai.or.jp",
    "pref": "茨城県",
    "city": "水戸市",
    "category": "rouken",
    "serviceType": "介護老人保健施設",
    "capacity": 80,
    "openDays": [],
    "openDaysNote": ""
  },
  {
    "id": "850180043",
    "name": "介護老人保健施設　つねずみ",
    "kana": "カイゴロウジンホケンシセツツネズミ",
    "address": "茨城県水戸市大場町２-１４",
    "lat": null,
    "lng": null,
    "tel": "029-247-6250",
    "url": "http://www.aikawanaika.or.jp/",
    "pref": "茨城県",
    "city": "水戸市",
    "category": "rouken",
    "serviceType": "介護老人保健施設",
    "capacity": 80,
    "openDays": [],
    "openDaysNote": ""
  },
  {
    "id": "853180040",
    "name": "介護老人保健施設　つまさと",
    "kana": "カイゴロウジンホケンシセツ　ツマサト",
    "address": "茨城県水戸市有賀町2228",
    "lat": 36.3823183,
    "lng": 140.3630632,
    "tel": "029-259-7677",
    "url": "https://www.tsumasato.ibaraki.jp/",
    "pref": "茨城県",
    "city": "水戸市",
    "category": "rouken",
    "serviceType": "介護老人保健施設",
    "capacity": 0,
    "openDays": [],
    "openDaysNote": ""
  },
  {
    "id": "850180027",
    "name": "介護老人保健施設　ナーシングホームかたくり",
    "kana": "カイゴロウジンホケンシセツ　ナーシングホームカタクリ",
    "address": "茨城県水戸市河和田町4516-1",
    "lat": 36.3485814,
    "lng": 140.392487,
    "tel": "029-255-5222",
    "url": "http://www.suisei.or.jp",
    "pref": "茨城県",
    "city": "水戸市",
    "category": "rouken",
    "serviceType": "介護老人保健施設",
    "capacity": 80,
    "openDays": [],
    "openDaysNote": ""
  },
  {
    "id": "850180126",
    "name": "介護老人保健施設　はなみずき",
    "kana": "カイゴロウジンホケンシセツハナミズキ",
    "address": "茨城県水戸市東原3-2-8",
    "lat": 36.3862421,
    "lng": 140.4467616,
    "tel": "029-303-3501",
    "url": "http://www.hokusuikai.jp",
    "pref": "茨城県",
    "city": "水戸市",
    "category": "rouken",
    "serviceType": "介護老人保健施設",
    "capacity": 0,
    "openDays": [],
    "openDaysNote": ""
  },
  {
    "id": "850180076",
    "name": "介護老人保健施設　はなみずき",
    "kana": "カイゴロウジンホケンシセツ　ハナミズキ",
    "address": "茨城県水戸市東原3-2-8",
    "lat": 36.3862421,
    "lng": 140.4467616,
    "tel": "029-303-3501",
    "url": "http://www.hokuyoukai.jp/",
    "pref": "茨城県",
    "city": "水戸市",
    "category": "rouken",
    "serviceType": "介護老人保健施設",
    "capacity": 100,
    "openDays": [],
    "openDaysNote": ""
  },
  {
    "id": "850180100",
    "name": "介護老人保健施設　ひまわり水戸",
    "kana": "カイゴロウジンホケンシセツ　ヒマワリミト",
    "address": "百合が丘町814-477",
    "lat": 36.3506982661175,
    "lng": 140.507287248935,
    "tel": "029-240-1007",
    "url": "http://www.mitochuo-hsp.or.jp",
    "pref": "茨城県",
    "city": "水戸市",
    "category": "rouken",
    "serviceType": "介護老人保健施設",
    "capacity": 0,
    "openDays": [],
    "openDaysNote": ""
  },
  {
    "id": "850180050",
    "name": "介護老人保健施設　みがわ",
    "kana": "カイゴロウジンホケンシセツ　ミガワ",
    "address": "茨城県　水戸市　見川町　2131-105",
    "lat": 36.358442,
    "lng": 140.425706,
    "tel": "029-305-6868",
    "url": "https://www.ohhashikai.or.jp/migawa",
    "pref": "茨城県",
    "city": "水戸市",
    "category": "rouken",
    "serviceType": "介護老人保健施設",
    "capacity": 100,
    "openDays": [],
    "openDaysNote": ""
  },
  {
    "id": "850180142",
    "name": "介護老人保健施設　葵の園・水戸中央",
    "kana": "カイゴロウジンホケンシセツ　アオイノソノ・ミトチュウオウ",
    "address": "水戸市米沢町608-1",
    "lat": 36.3371415,
    "lng": 140.4587515,
    "tel": "029-277-8080",
    "url": "https://www.aoikai.jp/mitocyuo/",
    "pref": "茨城県",
    "city": "水戸市",
    "category": "rouken",
    "serviceType": "介護老人保健施設",
    "capacity": 100,
    "openDays": [],
    "openDaysNote": ""
  },
  {
    "id": "850180084",
    "name": "介護老人保健施設　大串の里",
    "kana": "カイゴロウジンホケンシセツ　オオクシノサト",
    "address": "茨城県水戸市大串町５８４番1",
    "lat": 36.3322786,
    "lng": 140.5422229,
    "tel": "029-269-6477",
    "url": "http://www.toumae-hospital.jp/senior.html",
    "pref": "茨城県",
    "city": "水戸市",
    "category": "rouken",
    "serviceType": "介護老人保健施設",
    "capacity": 100,
    "openDays": [],
    "openDaysNote": ""
  },
  {
    "id": "850180035",
    "name": "介護老人保健施設こすもぴあ",
    "kana": "カイゴロウジンホケンシセツコスモピア",
    "address": "茨城県水戸市石川４－４０２７",
    "lat": 36.3899824,
    "lng": 140.4243024,
    "tel": "029-252-4777",
    "url": "r-cospiy@dream.ocn.ne.jp",
    "pref": "茨城県",
    "city": "水戸市",
    "category": "rouken",
    "serviceType": "介護老人保健施設",
    "capacity": 0,
    "openDays": [],
    "openDaysNote": ""
  },
  {
    "id": "850180092",
    "name": "介護老人保健施設しもいち",
    "kana": "カイゴロウジンホケンシセツシモイチ",
    "address": "茨城県水戸市柳町２－１０－１１",
    "lat": 36.3655168,
    "lng": 140.4900925,
    "tel": "029-231-2341",
    "url": "",
    "pref": "茨城県",
    "city": "水戸市",
    "category": "rouken",
    "serviceType": "介護老人保健施設",
    "capacity": 0,
    "openDays": [],
    "openDaysNote": ""
  },
  {
    "id": "850180068",
    "name": "介護老人保健施設はぁもにか",
    "kana": "カイゴロウジンホケンシセツハァモニカ",
    "address": "茨城県水戸市石川４－４０３９－２６",
    "lat": 36.3911072,
    "lng": 140.4237635,
    "tel": "029-254-5777",
    "url": "http://www.okubo.hsp.or.jp",
    "pref": "茨城県",
    "city": "水戸市",
    "category": "rouken",
    "serviceType": "介護老人保健施設",
    "capacity": 0,
    "openDays": [],
    "openDaysNote": ""
  },
  {
    "id": "850180134",
    "name": "介護老人保健施設ひまわり水戸",
    "kana": "カイゴロウジンホケンシセツヒマワリミト",
    "address": "茨城県水戸市百合が丘町814-477",
    "lat": 36.3505823,
    "lng": 140.5073332,
    "tel": "029-240-1007",
    "url": "https://www.mitochuo-hsp.or.jp",
    "pref": "茨城県",
    "city": "水戸市",
    "category": "rouken",
    "serviceType": "介護老人保健施設",
    "capacity": null,
    "openDays": [],
    "openDaysNote": ""
  },
  {
    "id": "850180118",
    "name": "介護老人保健施設渡里の里",
    "kana": "カイゴロウジンホケンシセツワタリノサト",
    "address": "茨城県水戸市渡里町285-1",
    "lat": 36.4035168703675,
    "lng": 140.450667740475,
    "tel": "029-353-6300",
    "url": "http://www.watarino-sato.jp/",
    "pref": "茨城県",
    "city": "水戸市",
    "category": "rouken",
    "serviceType": "介護老人保健施設",
    "capacity": 0,
    "openDays": [],
    "openDaysNote": ""
  },
  {
    "id": "850580036",
    "name": "医療法人美湖会　介護老人保健施設ウイケア",
    "kana": "イリョウホウジンミズミカイ　カイゴロウジンホケンシセツウイケア",
    "address": "茨城県石岡市行里川12951-1",
    "lat": 36.2089299,
    "lng": 140.2927271,
    "tel": "0299-56-2533",
    "url": "http://wecare-ishioka.jp",
    "pref": "茨城県",
    "city": "石岡市",
    "category": "rouken",
    "serviceType": "介護老人保健施設",
    "capacity": 100,
    "openDays": [],
    "openDaysNote": ""
  },
  {
    "id": "850580028",
    "name": "医療法人幕内会　介護老人保健施設あいあい",
    "kana": "イリョウホウジンマクウチカイ　カイゴロウジンホケンシセツアイアイ",
    "address": "茨城県石岡市東石岡5-2-26",
    "lat": 36.1891481128244,
    "lng": 140.292862057686,
    "tel": "0299-28-3838",
    "url": "http://www.sannoudai.or.jp",
    "pref": "茨城県",
    "city": "石岡市",
    "category": "rouken",
    "serviceType": "介護老人保健施設",
    "capacity": 0,
    "openDays": [],
    "openDaysNote": ""
  },
  {
    "id": "853980027",
    "name": "介護老人保健施設　八郷プロバンス",
    "kana": "カイゴロウジンホケンシセツ　ヤサトプロバンス",
    "address": "石岡市瓦谷766番地の28",
    "lat": 36.2646323,
    "lng": 140.2204181,
    "tel": "0299-44-3213",
    "url": "http://www.bungosou.or.jp/yprovence/",
    "pref": "茨城県",
    "city": "石岡市",
    "category": "rouken",
    "serviceType": "介護老人保健施設",
    "capacity": 80,
    "openDays": [],
    "openDaysNote": ""
  },
  {
    "id": "853980019",
    "name": "介護老人保健施設サングリーンやさと",
    "kana": "カイゴロウジンホケンシセツサングリーンヤサト",
    "address": "茨城県石岡市小倉４４３－１",
    "lat": 36.2414678,
    "lng": 140.1707233,
    "tel": "0299-43-3120",
    "url": "http://www.taijinkai.or.jp/index.html",
    "pref": "茨城県",
    "city": "石岡市",
    "category": "rouken",
    "serviceType": "介護老人保健施設",
    "capacity": 80,
    "openDays": [],
    "openDaysNote": ""
  },
  {
    "id": "850580044",
    "name": "社会福祉法人欅会　介護老人保健施設ゆうゆう",
    "kana": "シャカイフクシホウジンケヤキカイ　カイゴロウジンホケンシセツユウユウ",
    "address": "茨城県石岡市大砂10528-14",
    "lat": 36.2258031,
    "lng": 140.247907,
    "tel": "0299-24-1611",
    "url": "https://yuuyuu.ishioka-keyakikai.or.jp/",
    "pref": "茨城県",
    "city": "石岡市",
    "category": "rouken",
    "serviceType": "介護老人保健施設",
    "capacity": null,
    "openDays": [],
    "openDaysNote": ""
  },
  {
    "id": "853480028",
    "name": "医療法人聖友会介護老人保健施設やすらぎ",
    "kana": "イリョウホウジンセイユウカイカイゴロウジンホケンシセツヤスラギ",
    "address": "茨城県久慈郡大子町大子８８８",
    "lat": 36.7688461,
    "lng": 140.3536435,
    "tel": "0295-72-6622",
    "url": "https://www.jisendou-byouin.com",
    "pref": "茨城県",
    "city": "大子町",
    "category": "rouken",
    "serviceType": "介護老人保健施設",
    "capacity": 4,
    "openDays": [],
    "openDaysNote": ""
  },
  {
    "id": "853480010",
    "name": "温泉リハビリセンター虹の丘",
    "kana": "オンセンリハビリセンターニジノオカ",
    "address": "茨城県久慈郡大子町大字矢田93-1",
    "lat": 36.7959541,
    "lng": 140.3587395,
    "tel": "0295-72-6331",
    "url": "",
    "pref": "茨城県",
    "city": "大子町",
    "category": "rouken",
    "serviceType": "介護老人保健施設",
    "capacity": 0,
    "openDays": [],
    "openDaysNote": ""
  },
  {
    "id": "853180073",
    "name": "介護老人保健施設おおあらい",
    "kana": "カイゴロウジンホケンシセツオオアライ",
    "address": "茨城県東茨城郡大洗町大貫町1212-11",
    "lat": 36.292365,
    "lng": 140.5580186,
    "tel": "029-267-1331",
    "url": "http://watanabekai.net",
    "pref": "茨城県",
    "city": "大洗町",
    "category": "rouken",
    "serviceType": "介護老人保健施設",
    "capacity": 100,
    "openDays": [],
    "openDaysNote": ""
  },
  {
    "id": "852780030",
    "name": "プレミエール元気館筑西",
    "kana": "プレミエールゲンキカン　チクセイ",
    "address": "茨城県筑西市古郡554-3",
    "lat": 36.3482916557466,
    "lng": 140.039902098231,
    "tel": "0296-57-7000",
    "url": "http://www.ssv-tsukuba.jp/genki/",
    "pref": "茨城県",
    "city": "筑西市",
    "category": "rouken",
    "serviceType": "介護老人保健施設",
    "capacity": 100,
    "openDays": [],
    "openDaysNote": ""
  },
  {
    "id": "850680018",
    "name": "介護老人保健施設　ごぎょうの里",
    "kana": "カイゴロウジンホケンシセツ　ゴギョウノサト",
    "address": "茨城県筑西市小林４６７－１",
    "lat": 36.3199258,
    "lng": 139.9801621,
    "tel": "0296-25-5710",
    "url": "http://gogyo.hs.plala.or.jp/index.html",
    "pref": "茨城県",
    "city": "筑西市",
    "category": "rouken",
    "serviceType": "介護老人保健施設",
    "capacity": 0,
    "openDays": [],
    "openDaysNote": ""
  },
  {
    "id": "854180023",
    "name": "介護老人保健施設梨花苑",
    "kana": "カイゴロウジンホケンシセツリカエン",
    "address": "筑西市木戸348番地",
    "lat": 36.2438601,
    "lng": 139.9778012,
    "tel": "0296-37-4810",
    "url": "http://ohata-hospital.jp/",
    "pref": "茨城県",
    "city": "筑西市",
    "category": "rouken",
    "serviceType": "介護老人保健施設",
    "capacity": 0,
    "openDays": [],
    "openDaysNote": ""
  },
  {
    "id": "854180015",
    "name": "社会医療法人恒貴会　協和ヘルシーセンター",
    "kana": "シャカイイリョウホウジンコウキカイ　キョウワヘルシーセンター",
    "address": "茨城県筑西市門井1669番地2",
    "lat": 36.3290897,
    "lng": 140.0148803,
    "tel": "0296-57-6030",
    "url": "http://www.kyowachuo.jp/healthycenter/",
    "pref": "茨城県",
    "city": "筑西市",
    "category": "rouken",
    "serviceType": "介護老人保健施設",
    "capacity": 100,
    "openDays": [],
    "openDaysNote": ""
  },
  {
    "id": "852380013",
    "name": "介護老人保健施設　あおぞら",
    "kana": "カイゴロウジンホケンシセツ　アオゾラ",
    "address": "茨城県潮来市延方5405番地1",
    "lat": 35.9323398,
    "lng": 140.6012073,
    "tel": "0299-66-4811",
    "url": "http://www.aoikai.jp/aozora/",
    "pref": "茨城県",
    "city": "潮来市",
    "category": "rouken",
    "serviceType": "介護老人保健施設",
    "capacity": 100,
    "openDays": [],
    "openDaysNote": ""
  },
  {
    "id": "850380064",
    "name": "介護老人保健施設　いっせい",
    "kana": "カイゴロウジンホケンシセツ　イッセイ",
    "address": "茨城県土浦市東崎6-15",
    "lat": 36.082816,
    "lng": 140.2063966,
    "tel": "029-875-6900",
    "url": "http://rs-issei.jp/",
    "pref": "茨城県",
    "city": "土浦市",
    "category": "rouken",
    "serviceType": "介護老人保健施設",
    "capacity": 0,
    "openDays": [],
    "openDaysNote": ""
  },
  {
    "id": "850380015",
    "name": "介護老人保健施設　さくら",
    "kana": "カイゴロウジンホケンシセツ　サクラ",
    "address": "茨城県土浦市神立町字前原444番地2号",
    "lat": 36.1051607317792,
    "lng": 140.240574025795,
    "tel": "029-833-1020",
    "url": "http://www.sakurahonobono.jp/",
    "pref": "茨城県",
    "city": "土浦市",
    "category": "rouken",
    "serviceType": "介護老人保健施設",
    "capacity": 0,
    "openDays": [],
    "openDaysNote": ""
  },
  {
    "id": "850380023",
    "name": "介護老人保健施設　シルバーケア土浦",
    "kana": "カイゴロウジンホケンシセツ　シルバーケアツチウラ",
    "address": "茨城県　土浦市　木田余一丁田台４６０６",
    "lat": 36.109379,
    "lng": 140.214181,
    "tel": "029-826-7021",
    "url": "https://kasuikai.or.jp",
    "pref": "茨城県",
    "city": "土浦市",
    "category": "rouken",
    "serviceType": "介護老人保健施設",
    "capacity": 100,
    "openDays": [],
    "openDaysNote": ""
  },
  {
    "id": "850380080",
    "name": "介護老人保健施設　セントラル土浦",
    "kana": "カイゴロウジンホケンシセツ　セントラルツチウラ",
    "address": "茨城県土浦市真鍋新町12番10号",
    "lat": 36.0905062,
    "lng": 140.2097975,
    "tel": "029-893-6100",
    "url": "http://www.central.or.jp",
    "pref": "茨城県",
    "city": "土浦市",
    "category": "rouken",
    "serviceType": "介護老人保健施設",
    "capacity": 100,
    "openDays": [],
    "openDaysNote": ""
  },
  {
    "id": "850380072",
    "name": "介護老人保健施設　常総の郷",
    "kana": "カイゴロウジンホケンシセツ　ジョウソウノサト",
    "address": "茨城県土浦市荒川沖6-110",
    "lat": 36.0205279,
    "lng": 140.1547407,
    "tel": "029-843-5580",
    "url": "http://www.aoikai.jp",
    "pref": "茨城県",
    "city": "土浦市",
    "category": "rouken",
    "serviceType": "介護老人保健施設",
    "capacity": null,
    "openDays": [],
    "openDaysNote": ""
  },
  {
    "id": "850380056",
    "name": "介護老人保健施設えがお",
    "kana": "カイゴロウジンホケンシセツエガオ",
    "address": "茨城県土浦市中村東2-21-1",
    "lat": 36.0450171,
    "lng": 140.173653,
    "tel": "029-869-9020",
    "url": "egao@r-hikari.jp",
    "pref": "茨城県",
    "city": "土浦市",
    "category": "rouken",
    "serviceType": "介護老人保健施設",
    "capacity": null,
    "openDays": [],
    "openDaysNote": ""
  },
  {
    "id": "850380031",
    "name": "介護老人保健施設ひかり",
    "kana": "カイゴロウジンホケンシセツヒカリ",
    "address": "茨城県土浦市右籾１１１３－１",
    "lat": 36.0498057,
    "lng": 140.1817442,
    "tel": "029-843-3321",
    "url": "http://kaigo-hikari.jikokai.or.jp",
    "pref": "茨城県",
    "city": "土浦市",
    "category": "rouken",
    "serviceType": "介護老人保健施設",
    "capacity": 100,
    "openDays": [],
    "openDaysNote": ""
  },
  {
    "id": "853380046",
    "name": "介護老人保健施設　フェニックス那珂",
    "kana": "カイゴロウジンホケンシセツ　フェニックスナカ",
    "address": "那珂市飯田1733－1",
    "lat": 36.4537713,
    "lng": 140.4632528,
    "tel": "029-298-8787",
    "url": "",
    "pref": "茨城県",
    "city": "那珂市",
    "category": "rouken",
    "serviceType": "介護老人保健施設",
    "capacity": 100,
    "openDays": [],
    "openDaysNote": ""
  },
  {
    "id": "853380038",
    "name": "介護老人保健施設　ライブリーライフ那珂",
    "kana": "カイゴロウジンホケンシセツ　ライブリーライフナカ",
    "address": "茨城県那珂市菅谷605-2",
    "lat": 36.4610992,
    "lng": 140.4966778,
    "tel": "029-295-6835",
    "url": "http://care-net.biz/08/lively/",
    "pref": "茨城県",
    "city": "那珂市",
    "category": "rouken",
    "serviceType": "介護老人保健施設",
    "capacity": null,
    "openDays": [],
    "openDaysNote": ""
  },
  {
    "id": "852680016",
    "name": "介護老人保健施設　第2フェニックス那珂",
    "kana": "カイゴロウジンホケンシセツ　ダイ２フェニックスナカ",
    "address": "飯田1733-1",
    "lat": 36.4537713,
    "lng": 140.4632528,
    "tel": "029-298-7812",
    "url": "",
    "pref": "茨城県",
    "city": "那珂市",
    "category": "rouken",
    "serviceType": "介護老人保健施設",
    "capacity": 80,
    "openDays": [],
    "openDaysNote": ""
  },
  {
    "id": "850280059",
    "name": "ひたちの森　ハピネス",
    "kana": "ヒタチノモリ　ハピネス",
    "address": "茨城県日立市十王町伊師725-1",
    "lat": 36.6680669,
    "lng": 140.7122442,
    "tel": "0294-20-6699",
    "url": "http://www.h-happiness.jp",
    "pref": "茨城県",
    "city": "日立市",
    "category": "rouken",
    "serviceType": "介護老人保健施設",
    "capacity": 100,
    "openDays": [],
    "openDaysNote": ""
  },
  {
    "id": "850280066",
    "name": "医療法人圭友会　介護老人保健施設　藍",
    "kana": "イリョウホウジンケイユウカイ　カイゴロウジンホケンシセツ　アイ",
    "address": "茨城県日立市千石町2丁目11-14",
    "lat": 36.5534932455151,
    "lng": 140.627490116642,
    "tel": "0294-33-2122",
    "url": "https://rouken-ai.com",
    "pref": "茨城県",
    "city": "日立市",
    "category": "rouken",
    "serviceType": "介護老人保健施設",
    "capacity": 80,
    "openDays": [],
    "openDaysNote": ""
  },
  {
    "id": "850280033",
    "name": "介護老人保健施設　さくら日立",
    "kana": "カイゴロウジンホケンシセツ　サクラヒタチ",
    "address": "日立市城南町1-1-11",
    "lat": 36.5863109,
    "lng": 140.6476676,
    "tel": "0294-22-8811",
    "url": "http://www.syujinkai-kh.or.jp/sakurahitachi/",
    "pref": "茨城県",
    "city": "日立市",
    "category": "rouken",
    "serviceType": "介護老人保健施設",
    "capacity": 0,
    "openDays": [],
    "openDaysNote": ""
  },
  {
    "id": "850280074",
    "name": "介護老人保健施設　しおさい",
    "kana": "カイゴロウジンホケンシセツ　シオサイ",
    "address": "茨城県日立市国分町3-6-1",
    "lat": 36.5652295,
    "lng": 140.6480816,
    "tel": "0294-34-3311",
    "url": "",
    "pref": "茨城県",
    "city": "日立市",
    "category": "rouken",
    "serviceType": "介護老人保健施設",
    "capacity": 0,
    "openDays": [],
    "openDaysNote": ""
  },
  {
    "id": "850280017",
    "name": "介護老人保健施設　田尻ヶ丘ヘルシーケア",
    "kana": "カイゴロウジンホケンシセツ　タジリガオカヘルシーケア",
    "address": "日立市田尻町２－８－１１",
    "lat": 36.6333947,
    "lng": 140.6663973,
    "tel": "0294-43-6343",
    "url": "https://healthy-care.org",
    "pref": "茨城県",
    "city": "日立市",
    "category": "rouken",
    "serviceType": "介護老人保健施設",
    "capacity": 100,
    "openDays": [],
    "openDaysNote": ""
  },
  {
    "id": "850280025",
    "name": "介護老人保健施設　日立南ヘルシーセンター",
    "kana": "カイゴロウジンホケンシセツ　ヒタチミナミヘルシーセンター",
    "address": "茨城県日立市大みか町6-17-1",
    "lat": 36.5117094613059,
    "lng": 140.608276650787,
    "tel": "0294-52-6825",
    "url": "http://www.hitachiminami.jp/",
    "pref": "茨城県",
    "city": "日立市",
    "category": "rouken",
    "serviceType": "介護老人保健施設",
    "capacity": 100,
    "openDays": [],
    "openDaysNote": ""
  },
  {
    "id": "854280021",
    "name": "介護老人保健施設　葵の園・八千代",
    "kana": "カイゴロウジンホケンシセツ　アオイノソノヤチヨ",
    "address": "茨城県結城郡八千代町大字新井１１５番1",
    "lat": 36.1957752105644,
    "lng": 139.902562841772,
    "tel": "0296-30-3700",
    "url": "http://www.aoikai.jp/yachiyo/",
    "pref": "茨城県",
    "city": "八千代町",
    "category": "rouken",
    "serviceType": "介護老人保健施設",
    "capacity": 100,
    "openDays": [],
    "openDaysNote": ""
  },
  {
    "id": "853880029",
    "name": "介護老人保健施設　ゴーエン美浦",
    "kana": "カイゴロウジンホケンシセツ　ゴーエンミホ",
    "address": "茨城県稲敷郡美浦村宮地678番地",
    "lat": 36.0051346,
    "lng": 140.3169599,
    "tel": "029-885-5522",
    "url": "https://mihochu.or.jp/goenmiho/",
    "pref": "茨城県",
    "city": "美浦村",
    "category": "rouken",
    "serviceType": "介護老人保健施設",
    "capacity": 0,
    "openDays": [],
    "openDaysNote": ""
  },
  {
    "id": "853880045",
    "name": "介護老人保健施設　葵の園・美浦",
    "kana": "カイゴロウジンホケンシセツ　アオイノソノ・ミホ",
    "address": "茨城県稲敷郡美浦村大字土屋字山下1979番地",
    "lat": 36.004562,
    "lng": 140.3019141,
    "tel": "029-885-1121",
    "url": "http://www.aoikai.jp/",
    "pref": "茨城県",
    "city": "美浦村",
    "category": "rouken",
    "serviceType": "介護老人保健施設",
    "capacity": 0,
    "openDays": [],
    "openDaysNote": ""
  },
  {
    "id": "853680056",
    "name": "介護老人保健施設　コミュニティケアセンター樅山",
    "kana": "カイゴロウジンホケンシセツ　コミュニティケアセンターモミヤマ",
    "address": "茨城県鉾田市樅山497",
    "lat": 36.198373,
    "lng": 140.5541104,
    "tel": "0291-37-3850",
    "url": "http://www.momiyama-kai.org/",
    "pref": "茨城県",
    "city": "鉾田市",
    "category": "rouken",
    "serviceType": "介護老人保健施設",
    "capacity": 0,
    "openDays": [],
    "openDaysNote": ""
  },
  {
    "id": "853680031",
    "name": "介護老人保健施設　フロンティア鉾田　春の場所",
    "kana": "カイゴロウジンホケンシセツ　フロンティアホコタ　ハルノバショ",
    "address": "鉾田市柏熊９８５－１",
    "lat": 36.1785216,
    "lng": 140.5419586,
    "tel": "0291-32-5408",
    "url": "https://www.toukokai.com/frontier-hokota/",
    "pref": "茨城県",
    "city": "鉾田市",
    "category": "rouken",
    "serviceType": "介護老人保健施設",
    "capacity": 0,
    "openDays": [],
    "openDaysNote": ""
  },
  {
    "id": "855480018",
    "name": "介護老人保健施設　ゆず",
    "kana": "カイゴロウジンホケンシセツ　ユズ",
    "address": "茨城県鉾田市鉾田１３４７番地１",
    "lat": 36.1607675,
    "lng": 140.5160917,
    "tel": "0291-33-3159",
    "url": "",
    "pref": "茨城県",
    "city": "鉾田市",
    "category": "rouken",
    "serviceType": "介護老人保健施設",
    "capacity": 0,
    "openDays": [],
    "openDaysNote": ""
  },
  {
    "id": "851580019",
    "name": "介護老人保健施設　おはよう館",
    "kana": "カイゴロウジンホケンシセツ　オハヨウカン",
    "address": "茨城県北茨城市磯原町磯原字前大沢1919-4",
    "lat": 36.8083029969905,
    "lng": 140.747654054257,
    "tel": "0293-44-0088",
    "url": "http://www.syujinkai-kh.or.jp/ohayoukan/",
    "pref": "茨城県",
    "city": "北茨城市",
    "category": "rouken",
    "serviceType": "介護老人保健施設",
    "capacity": 0,
    "openDays": [],
    "openDaysNote": ""
  },
  {
    "id": "851580027",
    "name": "介護老人保健施設ひだまり倶楽部",
    "kana": "カイゴロウジンホケンシセツヒダマリクラブ",
    "address": "北茨城市磯原町磯原２－３０５",
    "lat": 36.7910925,
    "lng": 140.7397967,
    "tel": "0293-30-1710",
    "url": "http://www.takih.jp/",
    "pref": "茨城県",
    "city": "北茨城市",
    "category": "rouken",
    "serviceType": "介護老人保健施設",
    "capacity": 0,
    "openDays": [],
    "openDaysNote": ""
  },
  {
    "id": "854480035",
    "name": "介護老人保健施設もえぎ野",
    "kana": "カイゴロウジンホケンシセツモエギノ",
    "address": "茨城県北相馬郡利根町もえぎ野台1－1－8",
    "lat": 35.8781256,
    "lng": 140.1581624,
    "tel": "0297-84-6081",
    "url": "http://www.moegino.org/",
    "pref": "茨城県",
    "city": "利根町",
    "category": "rouken",
    "serviceType": "介護老人保健施設",
    "capacity": 0,
    "openDays": [],
    "openDaysNote": ""
  },
  {
    "id": "854480043",
    "name": "介護老人保健施設もえぎ野",
    "kana": "カイゴロウジンホケンシセツモエギノ",
    "address": "茨城県北相馬郡利根町もえぎ野台1－1－8",
    "lat": 35.8779062,
    "lng": 140.1580763,
    "tel": "0297-84-6081",
    "url": "http://www.moegino.org/",
    "pref": "茨城県",
    "city": "利根町",
    "category": "rouken",
    "serviceType": "介護老人保健施設",
    "capacity": null,
    "openDays": [],
    "openDaysNote": ""
  },
  {
    "id": "850880022",
    "name": "介護老人保健施設　けやきの郷",
    "kana": "カイゴロウジンホケンシセツ　ケヤキノサト",
    "address": "茨城県龍ケ崎市若柴町字沖餅１７４１－１",
    "lat": 35.9237451,
    "lng": 140.1443923,
    "tel": "0297-61-5133",
    "url": "http://www.ryujinkai.or.jp/",
    "pref": "茨城県",
    "city": "龍ヶ崎市",
    "category": "rouken",
    "serviceType": "介護老人保健施設",
    "capacity": 0,
    "openDays": [],
    "openDaysNote": ""
  },
  {
    "id": "850880014",
    "name": "介護老人保健施設　涼風苑",
    "kana": "カイゴロウジンホケンシセツ　リョウフウエン",
    "address": "龍ケ崎市貝原塚町3689",
    "lat": 35.9421189,
    "lng": 140.1880901,
    "tel": "0297-63-0008",
    "url": "http://www.ryofuen.or.jp",
    "pref": "茨城県",
    "city": "龍ヶ崎市",
    "category": "rouken",
    "serviceType": "介護老人保健施設",
    "capacity": null,
    "openDays": [],
    "openDaysNote": ""
  },
  {
    "id": "850880030",
    "name": "介護老人保健施設ビオラセア",
    "kana": "カイゴロウジンホケンシセツビオラセア",
    "address": "茨城県龍ケ崎市字野原1360-1",
    "lat": 35.9118169,
    "lng": 140.1996604,
    "tel": "0297-85-5111",
    "url": "http://violacea.jp/wp/",
    "pref": "茨城県",
    "city": "龍ヶ崎市",
    "category": "rouken",
    "serviceType": "介護老人保健施設",
    "capacity": 80,
    "openDays": [],
    "openDaysNote": ""
  }
]