[
  {
    "id": "4251780013",
    "name": "介護老人保健施設壱岐",
    "kana": "カイゴロウジンホケンシセツイキ",
    "address": "長崎県壱岐市勝本町本宮南触236番地",
    "lat": 33.8082883,
    "lng": 129.6865361,
    "tel": "0920-43-0888",
    "url": "",
    "pref": "長崎県",
    "city": "壱岐市",
    "category": "rouken",
    "serviceType": "介護老人保健施設",
    "capacity": null,
    "openDays": [],
    "openDaysNote": ""
  },
  {
    "id": "4251780005",
    "name": "社会医療法人玄州会介護老人保健施設光風",
    "kana": "シャカイイリョウホウジンゲンシュウカイカイゴロウジンホケンシセツコウフウ",
    "address": "長崎県壱岐市郷ノ浦町東触1006番地1",
    "lat": 33.7521834,
    "lng": 129.7065947,
    "tel": "0920-47-5623",
    "url": "ｗｗｗ.ｇｅｎｓｙｕｋａｉ.ｏｒ.ｊｐ",
    "pref": "長崎県",
    "city": "壱岐市",
    "category": "rouken",
    "serviceType": "介護老人保健施設",
    "capacity": 0,
    "openDays": [],
    "openDaysNote": ""
  },
  {
    "id": "4251480044",
    "name": "医療法人　伴帥会　介護老人保健施設　ガイアの里",
    "kana": "イリョウホウジン　バンスイカイ　カイゴロウジンホケンシセツ　ガイアノサト",
    "address": "長崎県雲仙市愛野町乙2314-1",
    "lat": 32.8012697,
    "lng": 130.1603217,
    "tel": "0957-36-3550",
    "url": "http://www.ainomhp.jp/gaia.html",
    "pref": "長崎県",
    "city": "雲仙市",
    "category": "rouken",
    "serviceType": "介護老人保健施設",
    "capacity": 0,
    "openDays": [],
    "openDaysNote": ""
  },
  {
    "id": "4251480002",
    "name": "介護老人保健施設　真寿苑",
    "kana": "カイゴロウジンホケンシセツ　シンジュエン",
    "address": "長崎県雲仙市瑞穂町伊福甲６８１番地",
    "lat": 32.861447,
    "lng": 130.2384365,
    "tel": "0957-77-2120",
    "url": "http://www.sinwakai.net",
    "pref": "長崎県",
    "city": "雲仙市",
    "category": "rouken",
    "serviceType": "介護老人保健施設",
    "capacity": 90,
    "openDays": [],
    "openDaysNote": ""
  },
  {
    "id": "4251480051",
    "name": "公立介護老人保健施設老健おばま",
    "kana": "コウリツカイゴロウジンホケンシセツロウケンオバマ",
    "address": "長崎県雲仙市小浜町南本町５９番地",
    "lat": 32.7215234,
    "lng": 130.2046322,
    "tel": "0957-74-2711",
    "url": "http://rouken-obama.com/",
    "pref": "長崎県",
    "city": "雲仙市",
    "category": "rouken",
    "serviceType": "介護老人保健施設",
    "capacity": 0,
    "openDays": [],
    "openDaysNote": ""
  },
  {
    "id": "4250680016",
    "name": "リハビリセンターふくえ",
    "kana": "リハビリセンターフクエ",
    "address": "長崎県五島市吉田町2390",
    "lat": 32.6879492,
    "lng": 128.8176803,
    "tel": "0959-72-3535",
    "url": "http://www.rehabilicenter-fukue.jp",
    "pref": "長崎県",
    "city": "五島市",
    "category": "rouken",
    "serviceType": "介護老人保健施設",
    "capacity": null,
    "openDays": [],
    "openDaysNote": ""
  },
  {
    "id": "4250680008",
    "name": "介護老人保健施設　五島福寿園",
    "kana": "カイゴロウジンホケンシセツ　ゴトウフクジュエン",
    "address": "長崎県五島市吉久木町908-1",
    "lat": 32.6995599,
    "lng": 128.8187525,
    "tel": "0959-74-2131",
    "url": "http://gotokai.jp/",
    "pref": "長崎県",
    "city": "五島市",
    "category": "rouken",
    "serviceType": "介護老人保健施設",
    "capacity": 70,
    "openDays": [],
    "openDaysNote": ""
  },
  {
    "id": "4250680024",
    "name": "末広荘",
    "kana": "スエヒロソウ",
    "address": "長崎県五島市末広町7番地5",
    "lat": 32.695916735298,
    "lng": 128.842822134988,
    "tel": "0959-74-5289",
    "url": "https://www.suehirosou.com/",
    "pref": "長崎県",
    "city": "五島市",
    "category": "rouken",
    "serviceType": "介護老人保健施設",
    "capacity": 0,
    "openDays": [],
    "openDaysNote": ""
  },
  {
    "id": "4251580017",
    "name": "介護老人保健施設　さざ・煌きの里",
    "kana": "カイゴロウジンホケンシセツ　サザ・キラメキノサト",
    "address": "長崎県北松浦郡佐々町八口免８０５－２",
    "lat": 33.2556827,
    "lng": 129.6833134,
    "tel": "0956-41-1122",
    "url": "http://www.kiramekinosato.com/",
    "pref": "長崎県",
    "city": "佐々町",
    "category": "rouken",
    "serviceType": "介護老人保健施設",
    "capacity": 80,
    "openDays": [],
    "openDaysNote": ""
  },
  {
    "id": "4250280023",
    "name": "医療法人松栄会　介護老人保健施設　松寿園",
    "kana": "イリョウホウジンショウエイカイカイゴロウジンホケンシセツショウジュエン",
    "address": "長崎県佐世保市小佐世保町2番1号",
    "lat": 33.1738106,
    "lng": 129.731192,
    "tel": "0956-26-0678",
    "url": "",
    "pref": "長崎県",
    "city": "佐世保市",
    "category": "rouken",
    "serviceType": "介護老人保健施設",
    "capacity": 80,
    "openDays": [],
    "openDaysNote": ""
  },
  {
    "id": "4250280056",
    "name": "介護老人保健施設　サクラ",
    "kana": "カイゴロウジンホケンシセツ　サクラ",
    "address": "長崎県佐世保市八幡町１番地の２",
    "lat": 33.1832511,
    "lng": 129.722212,
    "tel": "0956-23-1802",
    "url": "http://roukensakura.floppy.jp/",
    "pref": "長崎県",
    "city": "佐世保市",
    "category": "rouken",
    "serviceType": "介護老人保健施設",
    "capacity": 0,
    "openDays": [],
    "openDaysNote": ""
  },
  {
    "id": "4250280049",
    "name": "介護老人保健施設　サン",
    "kana": "カイゴロウジンホケンシセツ　サン",
    "address": "長崎県佐世保市大和町30",
    "lat": 33.1563016,
    "lng": 129.7470023,
    "tel": "0956-33-7771",
    "url": "http://www.hakujyujikai-san.jp",
    "pref": "長崎県",
    "city": "佐世保市",
    "category": "rouken",
    "serviceType": "介護老人保健施設",
    "capacity": 0,
    "openDays": [],
    "openDaysNote": ""
  },
  {
    "id": "4251580025",
    "name": "介護老人保健施設　つつじの郷",
    "kana": "カイゴロウジンホケンシセツ　ツツジノサト",
    "address": "長崎県佐世保市鹿町町下歌ケ浦109-1",
    "lat": 33.2751641892152,
    "lng": 129.592044514017,
    "tel": "0956-73-2004",
    "url": "http://www.seisyukai.jp/establishment/tutujinosato.html",
    "pref": "長崎県",
    "city": "佐世保市",
    "category": "rouken",
    "serviceType": "介護老人保健施設",
    "capacity": 55,
    "openDays": [],
    "openDaysNote": ""
  },
  {
    "id": "4250280114",
    "name": "介護老人保健施設　リハビリサポートひうみ",
    "kana": "カイゴロウジンホケンシセツ　リハビリサポートヒウミ",
    "address": "長崎県佐世保市ひうみ町1879番31",
    "lat": 33.1540805,
    "lng": 129.7633231,
    "tel": "0956-37-9850",
    "url": "https://hakujyujikai.or.jp/hiumi/",
    "pref": "長崎県",
    "city": "佐世保市",
    "category": "rouken",
    "serviceType": "介護老人保健施設",
    "capacity": 0,
    "openDays": [],
    "openDaysNote": ""
  },
  {
    "id": "4250280007",
    "name": "介護老人保健施設　長寿苑",
    "kana": "カイゴロウジンホケンシセツ　チョウジュエン",
    "address": "長崎県佐世保市日宇町2835番地",
    "lat": 33.1554688,
    "lng": 129.7668258,
    "tel": "0956-32-3800",
    "url": "http://www.hakujyujikai.or.jp/tjn/",
    "pref": "長崎県",
    "city": "佐世保市",
    "category": "rouken",
    "serviceType": "介護老人保健施設",
    "capacity": 170,
    "openDays": [],
    "openDaysNote": ""
  },
  {
    "id": "4250280080",
    "name": "介護老人保健施設サン　ユニット",
    "kana": "カイゴロウジンホケンシセツ　サン　ユニット",
    "address": "長崎県佐世保市大和町30番地",
    "lat": 33.1569821,
    "lng": 129.7473856,
    "tel": "0956-33-7771",
    "url": "https://hakujyujikai-san.jp",
    "pref": "長崎県",
    "city": "佐世保市",
    "category": "rouken",
    "serviceType": "介護老人保健施設",
    "capacity": null,
    "openDays": [],
    "openDaysNote": ""
  },
  {
    "id": "4250280031",
    "name": "介護老人保健施設すいざん荘",
    "kana": "カイゴロウジンホケンシセツスイザンソウ",
    "address": "長崎県佐世保市赤崎町74-2",
    "lat": 33.164439,
    "lng": 129.6938655,
    "tel": "0956-26-0555",
    "url": "https://www.suizankai.com",
    "pref": "長崎県",
    "city": "佐世保市",
    "category": "rouken",
    "serviceType": "介護老人保健施設",
    "capacity": 0,
    "openDays": [],
    "openDaysNote": ""
  },
  {
    "id": "4250280064",
    "name": "介護老人保健施設ひまわり",
    "kana": "カイゴロウジンホケンシセツヒマワリ",
    "address": "長崎県佐世保市指方町５０４０番地３",
    "lat": 33.091139,
    "lng": 129.784181,
    "tel": "0956-20-2100",
    "url": "http://www.hoyukai.info/himawari/",
    "pref": "長崎県",
    "city": "佐世保市",
    "category": "rouken",
    "serviceType": "介護老人保健施設",
    "capacity": 80,
    "openDays": [],
    "openDaysNote": ""
  },
  {
    "id": "4250280098",
    "name": "介護老人保健施設マハロ倶楽部",
    "kana": "カイゴロウジンホケンシセツマハロクラブ",
    "address": "長崎県佐世保市城山町３－２１",
    "lat": 33.1836983,
    "lng": 129.7173098,
    "tel": "0956-76-7103",
    "url": "www.aiwakai.com",
    "pref": "長崎県",
    "city": "佐世保市",
    "category": "rouken",
    "serviceType": "介護老人保健施設",
    "capacity": 0,
    "openDays": [],
    "openDaysNote": ""
  },
  {
    "id": "4250280015",
    "name": "老人保健施設コスモス",
    "kana": "ロウジンホケンシセツコスモス",
    "address": "佐世保市上柚木町２５１５番地",
    "lat": 33.2108472,
    "lng": 129.7700964,
    "tel": "0956-46-0988",
    "url": "http://www.cos-mos.jp",
    "pref": "長崎県",
    "city": "佐世保市",
    "category": "rouken",
    "serviceType": "介護老人保健施設",
    "capacity": 0,
    "openDays": [],
    "openDaysNote": ""
  },
  {
    "id": "4251180065",
    "name": "モン・サン　トラバーユ長崎",
    "kana": "モン・サン　トラバーユナガサキ",
    "address": "長崎県西彼杵郡時津町浜田郷726",
    "lat": 32.8305879,
    "lng": 129.8578128,
    "tel": "095-894-1777",
    "url": "",
    "pref": "長崎県",
    "city": "時津町",
    "category": "rouken",
    "serviceType": "介護老人保健施設",
    "capacity": 0,
    "openDays": [],
    "openDaysNote": ""
  },
  {
    "id": "4251180073",
    "name": "介護療養型老人保健施設なづみ",
    "kana": "カイゴリョウヨウガタロウジンホケンシセツナヅミ",
    "address": "長崎県西彼杵郡時津町左底郷38-1",
    "lat": 32.8333154,
    "lng": 129.8399222,
    "tel": "095-813-2870",
    "url": "http://www.nosc.or.jp/nadumi/",
    "pref": "長崎県",
    "city": "時津町",
    "category": "rouken",
    "serviceType": "介護老人保健施設",
    "capacity": 17,
    "openDays": [],
    "openDaysNote": ""
  },
  {
    "id": "4251180024",
    "name": "介護老人保健施設　トラバーユ長崎",
    "kana": "カイゴロウジンホケンシセツ　トラバーユナガサキ",
    "address": "長崎県西彼杵郡時津町浜田郷572",
    "lat": 32.8334822,
    "lng": 129.8594127,
    "tel": "095-882-9123",
    "url": "http://www.keiseikai.biz/",
    "pref": "長崎県",
    "city": "時津町",
    "category": "rouken",
    "serviceType": "介護老人保健施設",
    "capacity": 0,
    "openDays": [],
    "openDaysNote": ""
  },
  {
    "id": "4250880004",
    "name": "介護老人保健施設　よかとこ",
    "kana": "カイゴロウジンホケンシセツヨカトコ",
    "address": "長崎県松浦市星鹿町牟田免４０１",
    "lat": 33.3768264,
    "lng": 129.6614847,
    "tel": "0956-75-0711",
    "url": "http://sousihkai.webcrow.jp/yokatoko.html",
    "pref": "長崎県",
    "city": "松浦市",
    "category": "rouken",
    "serviceType": "介護老人保健施設",
    "capacity": 0,
    "openDays": [],
    "openDaysNote": ""
  },
  {
    "id": "4251680007",
    "name": "グリーンヒルかみごとう",
    "kana": "グリーンヒルカミゴトウ",
    "address": "長崎県南松浦郡新上五島町浦桑郷643番地1",
    "lat": 32.9899778,
    "lng": 129.0835372,
    "tel": "0959-43-6767",
    "url": "https://www.greenhill-kamigoto.com/",
    "pref": "長崎県",
    "city": "新上五島町",
    "category": "rouken",
    "serviceType": "介護老人保健施設",
    "capacity": 0,
    "openDays": [],
    "openDaysNote": ""
  },
  {
    "id": "4251680015",
    "name": "介護老人保健施設　つくしの里",
    "kana": "カイゴロウジンホケンシセツ　ツクシノサト",
    "address": "長崎県南松浦郡新上五島町鯛ノ浦郷437-1",
    "lat": 32.9636835,
    "lng": 129.1020035,
    "tel": "0959-53-0007",
    "url": "http://syuhoukai.jp/",
    "pref": "長崎県",
    "city": "新上五島町",
    "category": "rouken",
    "serviceType": "介護老人保健施設",
    "capacity": 0,
    "openDays": [],
    "openDaysNote": ""
  },
  {
    "id": "4252380011",
    "name": "介護療養型老人保健施設　さいかい",
    "kana": "カイゴリョウヨウガタロウジンホケンシセツ　サイカイ",
    "address": "長崎県西海市大島町1876番地59",
    "lat": 33.0350554906277,
    "lng": 129.619484890352,
    "tel": "0959-34-2226",
    "url": "http://www.fukuikai.com/",
    "pref": "長崎県",
    "city": "西海市",
    "category": "rouken",
    "serviceType": "介護老人保健施設",
    "capacity": 40,
    "openDays": [],
    "openDaysNote": ""
  },
  {
    "id": "4251180032",
    "name": "元亀の里",
    "kana": "ゲンキノサト",
    "address": "長崎県西海市西彼町鳥加郷2201番地2",
    "lat": 32.9911482914918,
    "lng": 129.748855631403,
    "tel": "0959-28-1100",
    "url": "https://www.seihikai.jp/",
    "pref": "長崎県",
    "city": "西海市",
    "category": "rouken",
    "serviceType": "介護老人保健施設",
    "capacity": 0,
    "openDays": [],
    "openDaysNote": ""
  },
  {
    "id": "4251880003",
    "name": "介護老人保健施設　つしま彩光園",
    "kana": "カイゴロウジンホケンシセツ　ツシマサイコウエン",
    "address": "長崎県対馬市厳原町東里338番地1",
    "lat": 34.1983156,
    "lng": 129.2926817,
    "tel": "0920-52-9051",
    "url": "https://asukafukushikai.com",
    "pref": "長崎県",
    "city": "対馬市",
    "category": "rouken",
    "serviceType": "介護老人保健施設",
    "capacity": 80,
    "openDays": [],
    "openDaysNote": ""
  },
  {
    "id": "4251980001",
    "name": "介護老人保健施設結石山荘",
    "kana": "カイゴロウジンホケンシセツユイシサンソウ",
    "address": "長崎県対馬市上対馬町大浦字浜在所原66番地1",
    "lat": 34.6719865,
    "lng": 129.4339509,
    "tel": "0920-86-3018",
    "url": "http://www.sun.tcctv.ne.jp/keichoukai/",
    "pref": "長崎県",
    "city": "対馬市",
    "category": "rouken",
    "serviceType": "介護老人保健施設",
    "capacity": 0,
    "openDays": [],
    "openDaysNote": ""
  },
  {
    "id": "4250580000",
    "name": "リハビリセンター大村",
    "kana": "リハビリセンターオオムラ",
    "address": "長崎県大村市田下町930-3",
    "lat": 32.952473421048,
    "lng": 130.000706064418,
    "tel": "0957-55-7811",
    "url": "http://www.midori-group.com",
    "pref": "長崎県",
    "city": "大村市",
    "category": "rouken",
    "serviceType": "介護老人保健施設",
    "capacity": 0,
    "openDays": [],
    "openDaysNote": ""
  },
  {
    "id": "4250580018",
    "name": "医療法人　檜山会　介護老人保健施設うぐいすの丘",
    "kana": "イリョウホウジン　ヒザンカイ　カイゴロウジンホケンシセツウグイスノオカ",
    "address": "長崎県大村市東大村１丁目2526-13",
    "lat": 32.9296356,
    "lng": 130.0080951,
    "tel": "0957-54-7199",
    "url": "http://www.hizankai.or.jp/uguisu/",
    "pref": "長崎県",
    "city": "大村市",
    "category": "rouken",
    "serviceType": "介護老人保健施設",
    "capacity": 0,
    "openDays": [],
    "openDaysNote": ""
  },
  {
    "id": "4251180016",
    "name": "エスポアールそとめ",
    "kana": "エスポアールソトメ",
    "address": "長崎県長崎市上黒崎町2201番地3",
    "lat": 32.8542718145619,
    "lng": 129.723545414156,
    "tel": "0959-25-0001",
    "url": "http://hiurakai.jp/",
    "pref": "長崎県",
    "city": "長崎市",
    "category": "rouken",
    "serviceType": "介護老人保健施設",
    "capacity": 0,
    "openDays": [],
    "openDaysNote": ""
  },
  {
    "id": "4250180116",
    "name": "サテライト型小規模介護老人保健施設　サンブライト愛宕II",
    "kana": "サテライトガタショウキボカイゴロウジンホケンシセツ　サンブライトアタゴ2",
    "address": "長崎県長崎市愛宕４丁目１１番１号",
    "lat": 32.734143,
    "lng": 129.8920303,
    "tel": "095-816-0222",
    "url": "http://sunbright-atago.jp",
    "pref": "長崎県",
    "city": "長崎市",
    "category": "rouken",
    "serviceType": "介護老人保健施設",
    "capacity": 0,
    "openDays": [],
    "openDaysNote": ""
  },
  {
    "id": "4250180058",
    "name": "サンブライト愛宕",
    "kana": "サンブライトアタゴ",
    "address": "長崎県長崎市愛宕４丁目１４番２号",
    "lat": 32.7333625,
    "lng": 129.8923275,
    "tel": "095-827-5222",
    "url": "http://sunbright-atago.jp/",
    "pref": "長崎県",
    "city": "長崎市",
    "category": "rouken",
    "serviceType": "介護老人保健施設",
    "capacity": 0,
    "openDays": [],
    "openDaysNote": ""
  },
  {
    "id": "4250180124",
    "name": "医療法人　泉田外科　介護老人保健施設　メープル",
    "kana": "イリョウホウジン　イズミダゲカ　カイゴロウジンホケンシセツ　メープル",
    "address": "長崎県長崎市宿町３６番地",
    "lat": 32.7582831,
    "lng": 129.9419034,
    "tel": "095-838-2256",
    "url": "",
    "pref": "長崎県",
    "city": "長崎市",
    "category": "rouken",
    "serviceType": "介護老人保健施設",
    "capacity": 15,
    "openDays": [],
    "openDaysNote": ""
  },
  {
    "id": "4250180033",
    "name": "医療法人　和仁会　介護老人保健施設　中の里",
    "kana": "イリョウホウジン　ワジンカイ　カイゴロウジンホケンシセツ　ナカノサト",
    "address": "長崎県長崎市古賀町８１５－２",
    "lat": 32.7979605,
    "lng": 129.9617371,
    "tel": "095-837-8880",
    "url": "",
    "pref": "長崎県",
    "city": "長崎市",
    "category": "rouken",
    "serviceType": "介護老人保健施設",
    "capacity": 0,
    "openDays": [],
    "openDaysNote": ""
  },
  {
    "id": "4251180040",
    "name": "医療法人清潮会　介護老人保健施設　みどりの里",
    "kana": "イリョウホウジン　セイチョウカイ　カイゴロウジンホケンシセツ　ミドリノサト",
    "address": "長崎県長崎市布巻町１６５番地１",
    "lat": 32.6542122,
    "lng": 129.8323169,
    "tel": "095-892-8888",
    "url": "https://midorinosato.ne.jp",
    "pref": "長崎県",
    "city": "長崎市",
    "category": "rouken",
    "serviceType": "介護老人保健施設",
    "capacity": 0,
    "openDays": [],
    "openDaysNote": ""
  },
  {
    "id": "4250180108",
    "name": "介護老人保健施設　コスモスガーデン桜の里",
    "kana": "カイゴロウジンホケンシセツコスモスガーデンサクラノサト",
    "address": "長崎県長崎市さくらの里2丁目27番28号",
    "lat": 32.8356698,
    "lng": 129.7642471,
    "tel": "095-840-1200",
    "url": "http://www.cosmos-garden.com/",
    "pref": "長崎県",
    "city": "長崎市",
    "category": "rouken",
    "serviceType": "介護老人保健施設",
    "capacity": 0,
    "openDays": [],
    "openDaysNote": ""
  },
  {
    "id": "4250180009",
    "name": "介護老人保健施設　シンフォニー稲佐の森",
    "kana": "カイゴロウジンホケンシセツ　シンフォニーイナサノモリ",
    "address": "長崎県長崎市大谷町418番地1",
    "lat": 32.7483184,
    "lng": 129.850955,
    "tel": "095-862-8000",
    "url": "http://www.symphony@nagasaki-kouseifukushidan.or.jp",
    "pref": "長崎県",
    "city": "長崎市",
    "category": "rouken",
    "serviceType": "介護老人保健施設",
    "capacity": 0,
    "openDays": [],
    "openDaysNote": ""
  },
  {
    "id": "4250180090",
    "name": "介護老人保健施設　シンフォニー稲佐の森Ⅱ",
    "kana": "カイゴロウジンホケンシセツ　シンフォニーイナサノモリ　ツー",
    "address": "長崎県長崎市大谷町４１８番地１",
    "lat": 32.7485555001477,
    "lng": 129.850890860049,
    "tel": "095-862-8600",
    "url": "http://www.nagasaki-kouseifukushidan.or.jp",
    "pref": "長崎県",
    "city": "長崎市",
    "category": "rouken",
    "serviceType": "介護老人保健施設",
    "capacity": 0,
    "openDays": [],
    "openDaysNote": ""
  },
  {
    "id": "4250180066",
    "name": "介護老人保健施設　にしきの里",
    "kana": "カイゴロウジンホケンシセツ　ニシキノサト",
    "address": "長崎県長崎市錦2丁目1番1号",
    "lat": 32.7884088,
    "lng": 129.8556202,
    "tel": "095-845-2133",
    "url": "https://www.youi-med-psychiatry.com/nishiki/",
    "pref": "長崎県",
    "city": "長崎市",
    "category": "rouken",
    "serviceType": "介護老人保健施設",
    "capacity": 0,
    "openDays": [],
    "openDaysNote": ""
  },
  {
    "id": "4250180025",
    "name": "介護老人保健施設　ハーモニーガーデン",
    "kana": "カイゴロウジンホケンシセツ　ハーモニーガーデン",
    "address": "長崎県長崎市網場町４９２番地１３",
    "lat": 32.7572722,
    "lng": 129.9463365,
    "tel": "095-839-5587",
    "url": "http://www.yugikai.or.jp/harmony.html",
    "pref": "長崎県",
    "city": "長崎市",
    "category": "rouken",
    "serviceType": "介護老人保健施設",
    "capacity": 100,
    "openDays": [],
    "openDaysNote": ""
  },
  {
    "id": "4250180017",
    "name": "介護老人保健施設　三原の園",
    "kana": "カイゴロウジンホケンシセツ　ミハラノソノ",
    "address": "長崎県長崎市三原1丁目8番35号",
    "lat": 32.7816269,
    "lng": 129.8760524,
    "tel": "095-845-7111",
    "url": "http://www.miharadai.or.jp/",
    "pref": "長崎県",
    "city": "長崎市",
    "category": "rouken",
    "serviceType": "介護老人保健施設",
    "capacity": 0,
    "openDays": [],
    "openDaysNote": ""
  },
  {
    "id": "4250180074",
    "name": "介護老人保健施設　東長崎ナーシングホーム",
    "kana": "カイゴロウジンホケンシセツ　ヒガシナガサキナーシングホーム",
    "address": "長崎県長崎市東町1893-5",
    "lat": 32.779165,
    "lng": 129.956263,
    "tel": "095-839-8002",
    "url": "http://fusoukai.jp/",
    "pref": "長崎県",
    "city": "長崎市",
    "category": "rouken",
    "serviceType": "介護老人保健施設",
    "capacity": 80,
    "openDays": [],
    "openDaysNote": ""
  },
  {
    "id": "4250180041",
    "name": "社会福祉法人　平成会　介護老人保健施設・ナーシングケア横尾",
    "kana": "シャカイフクシホウジン　ヘイセイカイ　カイゴロウジンホケンシセツ・ナーシングケアヨコオ",
    "address": "長崎県長崎市横尾3丁目26番2号",
    "lat": 32.8168669,
    "lng": 129.8394533,
    "tel": "095-855-0151",
    "url": "http://www.heisei-kai.or.jp/",
    "pref": "長崎県",
    "city": "長崎市",
    "category": "rouken",
    "serviceType": "介護老人保健施設",
    "capacity": 100,
    "openDays": [],
    "openDaysNote": ""
  },
  {
    "id": "4250180082",
    "name": "老人保健施設　ダイヤランド崎望館",
    "kana": "ロウジンホケンシセツ　ダイヤランドキボウカン",
    "address": "長崎県長崎市ダイヤランド3丁目31番3号",
    "lat": 32.7028893,
    "lng": 129.8555002,
    "tel": "095-879-7878",
    "url": "http://kiboukan.ecgo.jp/",
    "pref": "長崎県",
    "city": "長崎市",
    "category": "rouken",
    "serviceType": "介護老人保健施設",
    "capacity": 0,
    "openDays": [],
    "openDaysNote": ""
  },
  {
    "id": "4251180008",
    "name": "介護老人保健施設　長与リハビリセンター",
    "kana": "カイゴロウジンホケンシセツナガヨリハビリセンター",
    "address": "長崎県西彼杵郡長与町高田郷６２３－５",
    "lat": 32.800291,
    "lng": 129.867791,
    "tel": "095-857-5151",
    "url": "http//kakuseikai.jp",
    "pref": "長崎県",
    "city": "長与町",
    "category": "rouken",
    "serviceType": "介護老人保健施設",
    "capacity": null,
    "openDays": [],
    "openDaysNote": ""
  },
  {
    "id": "4250380013",
    "name": "ろうけん長庚堂",
    "kana": "ロウケンチョウコウドウ",
    "address": "長崎県島原市中堀町61番地アプリコット アプリコット",
    "lat": 32.7826948,
    "lng": 130.3698335,
    "tel": "0957-68-7700",
    "url": "http://www.saikakai.jp/",
    "pref": "長崎県",
    "city": "島原市",
    "category": "rouken",
    "serviceType": "介護老人保健施設",
    "capacity": 29,
    "openDays": [],
    "openDaysNote": ""
  },
  {
    "id": "4250380005",
    "name": "介護老人保健施設　フォスター島原",
    "kana": "カイゴロウジンホケンシセツ　フォスターシマバラ",
    "address": "長崎県島原市中野町丙２７番地１",
    "lat": 32.8277656,
    "lng": 130.3497307,
    "tel": "0957-63-5500",
    "url": "",
    "pref": "長崎県",
    "city": "島原市",
    "category": "rouken",
    "serviceType": "介護老人保健施設",
    "capacity": 0,
    "openDays": [],
    "openDaysNote": ""
  },
  {
    "id": "4251280006",
    "name": "介護老人保健施設　さざなみ",
    "kana": "カイゴロウジンホケンシセツ　サザナミ",
    "address": "長崎県東彼杵郡東彼杵町彼杵宿郷1085",
    "lat": 33.0299407,
    "lng": 129.9275987,
    "tel": "0957-46-0222",
    "url": "http://www.sazanami.or.jp/",
    "pref": "長崎県",
    "city": "東彼杵町",
    "category": "rouken",
    "serviceType": "介護老人保健施設",
    "capacity": 0,
    "openDays": [],
    "openDaysNote": ""
  },
  {
    "id": "4251480036",
    "name": "医療法人　弘池会　介護老人保健施設ろうけんかづさ",
    "kana": "イリョウホウジン　コウチカイ　カイゴロウジンホケンシセツロウケンカヅサ",
    "address": "長崎県南島原市加津佐町戊4450番地",
    "lat": 32.6283445,
    "lng": 130.1940344,
    "tel": "0957-87-5678",
    "url": "http://www.kouchikai.com/index.html",
    "pref": "長崎県",
    "city": "南島原市",
    "category": "rouken",
    "serviceType": "介護老人保健施設",
    "capacity": 70,
    "openDays": [],
    "openDaysNote": ""
  },
  {
    "id": "4252580016",
    "name": "介護療養型老人保健施設　ふれあい",
    "kana": "カイゴリョウヨウガタロウジンホケンシセツ　フレアイ",
    "address": "長崎県南島原市有家町山川347-1",
    "lat": 32.6629216,
    "lng": 130.3135596,
    "tel": "0957-82-0993",
    "url": "",
    "pref": "長崎県",
    "city": "南島原市",
    "category": "rouken",
    "serviceType": "介護老人保健施設",
    "capacity": 0,
    "openDays": [],
    "openDaysNote": ""
  },
  {
    "id": "4251480010",
    "name": "介護老人保健施設　フォンテ",
    "kana": "カイゴロウジンホケンシセツ　フォンテ",
    "address": "長崎県南島原市深江町丁２４２１",
    "lat": 32.7181514,
    "lng": 130.3506286,
    "tel": "0957-72-6123",
    "url": "http://www.izumikawa.or.jp/index.php/c_Main/showPg51",
    "pref": "長崎県",
    "city": "南島原市",
    "category": "rouken",
    "serviceType": "介護老人保健施設",
    "capacity": 100,
    "openDays": [],
    "openDaysNote": ""
  },
  {
    "id": "4251480028",
    "name": "介護老人保健施設　夢織りの里",
    "kana": "カイゴロウジンホケンシセツ　ユメオリノサト",
    "address": "長崎県南島原市西有家町里坊41番地1",
    "lat": 32.6597741,
    "lng": 130.2990721,
    "tel": "0957-82-6082",
    "url": "http://www.kunpukai.or.jp/",
    "pref": "長崎県",
    "city": "南島原市",
    "category": "rouken",
    "serviceType": "介護老人保健施設",
    "capacity": 70,
    "openDays": [],
    "openDaysNote": ""
  },
  {
    "id": "4250780014",
    "name": "医療法人裕光会　介護療養型老人保健施設「のぞみ」",
    "kana": "イリョウホウジンユウコウカイ　カイゴリョウヨウガタロウジンホケンシセツ「ノゾミ」",
    "address": "長崎県平戸市田平町山内免400番地",
    "lat": 33.3635596,
    "lng": 129.5820391,
    "tel": "0950-57-0046",
    "url": "http://tanigawa-hospital.jp",
    "pref": "長崎県",
    "city": "平戸市",
    "category": "rouken",
    "serviceType": "介護老人保健施設",
    "capacity": 28,
    "openDays": [],
    "openDaysNote": ""
  },
  {
    "id": "4251580009",
    "name": "介護老人保健施設　ひらどせと",
    "kana": "カイゴロウジンホケンシセツ　ヒラドセト",
    "address": "長崎県平戸市田平町山内免613-18",
    "lat": 33.3647512,
    "lng": 129.5749728,
    "tel": "0950-57-2222",
    "url": "https://hs.seisyukai.jp/",
    "pref": "長崎県",
    "city": "平戸市",
    "category": "rouken",
    "serviceType": "介護老人保健施設",
    "capacity": 100,
    "openDays": [],
    "openDaysNote": ""
  },
  {
    "id": "4250780006",
    "name": "介護老人保健施設ひらんど",
    "kana": "カイゴロウジンホケンシセツヒランド",
    "address": "長崎県平戸市浦の町745番地1",
    "lat": 33.3721363,
    "lng": 129.5522407,
    "tel": "0950-23-8288",
    "url": "http://kyk-kitagawahp.com/",
    "pref": "長崎県",
    "city": "平戸市",
    "category": "rouken",
    "serviceType": "介護老人保健施設",
    "capacity": 70,
    "openDays": [],
    "openDaysNote": ""
  },
  {
    "id": "4251180057",
    "name": "医療法人　社団　淳生会　介護老人保健施設　恵風園",
    "kana": "イリョウホウジン　シャダン　ジュンセイカイ　カイゴロウジンホケンシセツ　ケイフウエン",
    "address": "長崎県諫早市多良見町化屋９９５番",
    "lat": 32.8282548,
    "lng": 129.9830482,
    "tel": "0957-43-2116",
    "url": "http://www.jyunseikai-jikei.jp/",
    "pref": "長崎県",
    "city": "諫早市",
    "category": "rouken",
    "serviceType": "介護老人保健施設",
    "capacity": 0,
    "openDays": [],
    "openDaysNote": ""
  },
  {
    "id": "4250480003",
    "name": "医療法人　祥仁会　介護老人保健施設　ろうけん西諫早",
    "kana": "イリョウホウジン　ショウジンカイ　カイゴロウジンホケンシセツ　ロウケンニシイサハヤ",
    "address": "長崎県諫早市貝津町3015番地",
    "lat": 32.8370364952762,
    "lng": 130.020298895174,
    "tel": "0957-25-2266",
    "url": "http://www.syoujinkai.com/rouken/",
    "pref": "長崎県",
    "city": "諫早市",
    "category": "rouken",
    "serviceType": "介護老人保健施設",
    "capacity": null,
    "openDays": [],
    "openDaysNote": ""
  },
  {
    "id": "4250480011",
    "name": "介護老人保健施設　ケアホーム・クローバー",
    "kana": "カイゴロウジンホケンシセツ　ケアホーム・クローバー",
    "address": "長崎県諫早市長田町２５４７",
    "lat": 32.8627315,
    "lng": 130.0805733,
    "tel": "0957-24-8810",
    "url": "http://danno-clover.com/",
    "pref": "長崎県",
    "city": "諫早市",
    "category": "rouken",
    "serviceType": "介護老人保健施設",
    "capacity": 0,
    "openDays": [],
    "openDaysNote": ""
  },
  {
    "id": "4250480045",
    "name": "介護老人保健施設　恵仁荘",
    "kana": "カイゴロウジンホケンシセツ　ケイジンソウ",
    "address": "長崎県諫早市有喜町648",
    "lat": 32.7910256,
    "lng": 130.0770071,
    "tel": "0957-28-3267",
    "url": "http://uki-fukushimura.jp/keijinso/",
    "pref": "長崎県",
    "city": "諫早市",
    "category": "rouken",
    "serviceType": "介護老人保健施設",
    "capacity": 100,
    "openDays": [],
    "openDaysNote": ""
  }
]