[
  {
    "id": "2052580046",
    "name": "介護老人保健施設アルテンハイム会地の郷",
    "kana": "カイゴロウジンホケンシセツアルテンハイムオウチノサト",
    "address": "長野県下伊那郡阿智村駒場１２４－１",
    "lat": 35.4490623,
    "lng": 137.7470351,
    "tel": "0265-43-4848",
    "url": "http://www.alten-heim.com/alten/alten.html",
    "pref": "長野県",
    "city": "阿智村",
    "category": "rouken",
    "serviceType": "介護老人保健施設",
    "capacity": 0,
    "openDays": [],
    "openDaysNote": ""
  },
  {
    "id": "2052580038",
    "name": "長野県阿南介護老人保健施設",
    "kana": "ナガノケンアナンカイゴロウジンホケンシセツ",
    "address": "長野県下伊那郡阿南町北條２００９－１",
    "lat": 35.3342035,
    "lng": 137.8347087,
    "tel": "0260-22-3800",
    "url": "http://anan-hosp.jp/ailife/index.html",
    "pref": "長野県",
    "city": "阿南町",
    "category": "rouken",
    "serviceType": "介護老人保健施設",
    "capacity": 0,
    "openDays": [],
    "openDaysNote": ""
  },
  {
    "id": "2052880040",
    "name": "介護老人保健施設　孝穂舘",
    "kana": "カイゴロウジンホケンシセツ　コウホカン",
    "address": "長野県安曇野市穂高北穂高２５３１-３",
    "lat": 36.3533415,
    "lng": 137.8789995,
    "tel": "0263-82-1323",
    "url": "http://www.koumei.or.jp",
    "pref": "長野県",
    "city": "安曇野市",
    "category": "rouken",
    "serviceType": "介護老人保健施設",
    "capacity": 76,
    "openDays": [],
    "openDaysNote": ""
  },
  {
    "id": "2052880016",
    "name": "介護老人保健施設安曇野メディア",
    "kana": "カイゴロウジンホケンシセツアズミノメディア",
    "address": "長野県安曇野市豊科５６３３－１",
    "lat": 36.3042342,
    "lng": 137.9044872,
    "tel": "0263-73-5800",
    "url": "http://www.shironishi.or.jp/az/01.htm",
    "pref": "長野県",
    "city": "安曇野市",
    "category": "rouken",
    "serviceType": "介護老人保健施設",
    "capacity": 70,
    "openDays": [],
    "openDaysNote": ""
  },
  {
    "id": "2052880024",
    "name": "有明苑",
    "kana": "アリアケエン",
    "address": "長野県安曇野市穂高有明7261-3",
    "lat": 36.3845409,
    "lng": 137.816721,
    "tel": "0263-83-7735",
    "url": "https://ariakeen.jp/",
    "pref": "長野県",
    "city": "安曇野市",
    "category": "rouken",
    "serviceType": "介護老人保健施設",
    "capacity": 72,
    "openDays": [],
    "openDaysNote": ""
  },
  {
    "id": "2052880032",
    "name": "老人保健施設あずみの里",
    "kana": "ロウジンホケンシセツアズミノサト",
    "address": "長野県安曇野市豊科高家5285-11",
    "lat": 36.2474265,
    "lng": 137.9161078,
    "tel": "0263-71-2300",
    "url": "http://www18.ocn.ne.jp/~azumino1/kyouritsufukushikai/index.html",
    "pref": "長野県",
    "city": "安曇野市",
    "category": "rouken",
    "serviceType": "介護老人保健施設",
    "capacity": 100,
    "openDays": [],
    "openDaysNote": ""
  },
  {
    "id": "2050980040",
    "name": "介護老人保健施設みぶの里",
    "kana": "カイゴロウジンホケンシセツミブノサト",
    "address": "長野県伊那市美篶5324-1複合福祉施設みぶの里 複合福祉施設みぶの里",
    "lat": 35.8325594695876,
    "lng": 138.006597434393,
    "tel": "0265-96-7184",
    "url": "http://s-sawayaka.or.jp",
    "pref": "長野県",
    "city": "伊那市",
    "category": "rouken",
    "serviceType": "介護老人保健施設",
    "capacity": 0,
    "openDays": [],
    "openDaysNote": ""
  },
  {
    "id": "2050980016",
    "name": "介護老人保健施設辛夷園",
    "kana": "カイゴロウジンホケンシセツコブシエン",
    "address": "長野県伊那市荒井３８３１",
    "lat": 35.8494642335821,
    "lng": 137.943966741803,
    "tel": "0265-76-8110",
    "url": "http://wwwe-seizankai.or.jp",
    "pref": "長野県",
    "city": "伊那市",
    "category": "rouken",
    "serviceType": "介護老人保健施設",
    "capacity": 0,
    "openDays": [],
    "openDaysNote": ""
  },
  {
    "id": "2050980032",
    "name": "老人保健施設すずたけ",
    "kana": "ロウジンホケンシセツスズタケ",
    "address": "長野県伊那市美篶７７９２番地3",
    "lat": 35.8427713,
    "lng": 138.0017809,
    "tel": "0265-74-0201",
    "url": "",
    "pref": "長野県",
    "city": "伊那市",
    "category": "rouken",
    "serviceType": "介護老人保健施設",
    "capacity": 80,
    "openDays": [],
    "openDaysNote": ""
  },
  {
    "id": "2050980024",
    "name": "老人保健施設はびろの里",
    "kana": "ロウジンホケンシセツハビロノサト",
    "address": "長野県伊那市西箕輪2758-1",
    "lat": 35.888089,
    "lng": 137.924805,
    "tel": "0265-77-0105",
    "url": "http://www.kamiina-mcoop.com/habiro/index.html",
    "pref": "長野県",
    "city": "伊那市",
    "category": "rouken",
    "serviceType": "介護老人保健施設",
    "capacity": 100,
    "openDays": [],
    "openDaysNote": ""
  },
  {
    "id": "2051580013",
    "name": "ロングライフ塩尻",
    "kana": "ロングライフシオジリ",
    "address": "長野県塩尻市広丘高出１６１４－１",
    "lat": 36.1216828,
    "lng": 137.9590731,
    "tel": "0263-53-8522",
    "url": "http://www.longlife-shiojiri.jp/guide/residential.php",
    "pref": "長野県",
    "city": "塩尻市",
    "category": "rouken",
    "serviceType": "介護老人保健施設",
    "capacity": 100,
    "openDays": [],
    "openDaysNote": ""
  },
  {
    "id": "2051580021",
    "name": "介護老人保健施設まほろばの郷",
    "kana": "カイゴロウジンホケンシセツマホロバノサト",
    "address": "長野県塩尻市宗賀１２９５番地",
    "lat": 36.1111004,
    "lng": 137.9330066,
    "tel": "0263-54-5551",
    "url": "http://www.keijin-kai.jp/home-health-care/mahorobanosato",
    "pref": "長野県",
    "city": "塩尻市",
    "category": "rouken",
    "serviceType": "介護老人保健施設",
    "capacity": 0,
    "openDays": [],
    "openDaysNote": ""
  },
  {
    "id": "2052680028",
    "name": "萌生の里",
    "kana": "モエウノサト",
    "address": "長野県塩尻市大字木曽平沢２３９６－１",
    "lat": 35.9811914,
    "lng": 137.8286378,
    "tel": "0264-34-1100",
    "url": "https://www.keijin-kai.jp/home-health-care/moeunosato",
    "pref": "長野県",
    "city": "塩尻市",
    "category": "rouken",
    "serviceType": "介護老人保健施設",
    "capacity": 0,
    "openDays": [],
    "openDaysNote": ""
  },
  {
    "id": "2051580039",
    "name": "老人保健施設こもれび",
    "kana": "ロウジンホケンシセツコモレビ",
    "address": "長野県塩尻市大門六番町4-36",
    "lat": 36.1149112,
    "lng": 137.9546767,
    "tel": "0263-51-1700",
    "url": "http://shiojiri-komorebi.jp/",
    "pref": "長野県",
    "city": "塩尻市",
    "category": "rouken",
    "serviceType": "介護老人保健施設",
    "capacity": 70,
    "openDays": [],
    "openDaysNote": ""
  },
  {
    "id": "2050480025",
    "name": "介護老人保健施設第２グレイスフル岡谷",
    "kana": "カイゴロウジンホケンシセツダイニグレイスフルオカヤ",
    "address": "長野県岡谷市加茂町３丁目８番７号",
    "lat": 36.0752634,
    "lng": 138.0532527,
    "tel": "0266-89-1211",
    "url": "http://www.sun-vision.or.jp",
    "pref": "長野県",
    "city": "岡谷市",
    "category": "rouken",
    "serviceType": "介護老人保健施設",
    "capacity": 20,
    "openDays": [],
    "openDaysNote": ""
  },
  {
    "id": "2050480017",
    "name": "介護老人保健施設白寿荘",
    "kana": "カイゴロウジンホケンシセツハクジュソウ",
    "address": "長野県岡谷市長地小萩１－１１－３０",
    "lat": 36.0808878,
    "lng": 138.055519,
    "tel": "0266-28-8910",
    "url": "http://www.kensei-kai.jp/senior/index.html",
    "pref": "長野県",
    "city": "岡谷市",
    "category": "rouken",
    "serviceType": "介護老人保健施設",
    "capacity": 150,
    "openDays": [],
    "openDaysNote": ""
  },
  {
    "id": "2052380025",
    "name": "介護老人保健施設グレイスフル下諏訪",
    "kana": "カイゴロウジンホケンシセツグレイスフルシモスワ",
    "address": "長野県諏訪郡下諏訪町９３７５－１",
    "lat": 36.0672207,
    "lng": 138.1067947,
    "tel": "0266-26-7001",
    "url": "http://www.sun-vision.or.jp/",
    "pref": "長野県",
    "city": "下諏訪町",
    "category": "rouken",
    "serviceType": "介護老人保健施設",
    "capacity": 0,
    "openDays": [],
    "openDaysNote": ""
  },
  {
    "id": "2052380047",
    "name": "老健すずかぜ",
    "kana": "ロウケンスズカゼ",
    "address": "長野県諏訪郡下諏訪町西赤砂4429-6諏訪共立ケアセンター赤砂 諏訪共立ケアセンター赤砂",
    "lat": 36.062783492214,
    "lng": 138.076210356622,
    "tel": "0266-26-3053",
    "url": "http://www.skhp.or.jp/",
    "pref": "長野県",
    "city": "下諏訪町",
    "category": "rouken",
    "serviceType": "介護老人保健施設",
    "capacity": 0,
    "openDays": [],
    "openDaysNote": ""
  },
  {
    "id": "2051480024",
    "name": "介護老人保健施設　虹の森　(既存棟）",
    "kana": "カイゴロウジンホケンシセツ　ニジノモリ　　（キゾントウ）",
    "address": "長野県茅野市ちの3094‐6",
    "lat": 35.9934956,
    "lng": 138.15018,
    "tel": "0266-73-2000",
    "url": "http://www.lcv.ne.jp/~komakusa/niji01.html",
    "pref": "長野県",
    "city": "茅野市",
    "category": "rouken",
    "serviceType": "介護老人保健施設",
    "capacity": 0,
    "openDays": [],
    "openDaysNote": ""
  },
  {
    "id": "2051480016",
    "name": "諏訪中央病院組合介護老人保健施設やすらぎの丘",
    "kana": "スワチュウオウビョウインクミアイカイゴロウジンホケンシセツヤスラギノオカ",
    "address": "長野県茅野市玉川４３００",
    "lat": 35.9910467,
    "lng": 138.1769583,
    "tel": "0266-73-1212",
    "url": "",
    "pref": "長野県",
    "city": "茅野市",
    "category": "rouken",
    "serviceType": "介護老人保健施設",
    "capacity": 0,
    "openDays": [],
    "openDaysNote": ""
  },
  {
    "id": "2051480032",
    "name": "虹の森ユニット棟",
    "kana": "ニジノモリユニットトウ",
    "address": "長野県茅野市ちの3094-6",
    "lat": 35.9934956,
    "lng": 138.15018,
    "tel": "0266-73-2000",
    "url": "http://www.lcv.ne.jp/~komakusa/",
    "pref": "長野県",
    "city": "茅野市",
    "category": "rouken",
    "serviceType": "介護老人保健施設",
    "capacity": null,
    "openDays": [],
    "openDaysNote": ""
  },
  {
    "id": "2052480023",
    "name": "介護老人保健施設プラムの里",
    "kana": "カイゴロウジンホケンシセツプラムノサト",
    "address": "長野県上伊那郡宮田村4804-1",
    "lat": 35.7510211,
    "lng": 137.9428292,
    "tel": "0265-84-1311",
    "url": "http://s-sawayaka.or.jp/",
    "pref": "長野県",
    "city": "宮田村",
    "category": "rouken",
    "serviceType": "介護老人保健施設",
    "capacity": 0,
    "openDays": [],
    "openDaysNote": ""
  },
  {
    "id": "2051080022",
    "name": "介護老人保健施設エーデルこまがね",
    "kana": "カイゴロウジンホケンシセツエーデルコマガネ",
    "address": "長野県駒ヶ根市赤穂14421番地1",
    "lat": 35.7181107,
    "lng": 137.9507004,
    "tel": "0265-82-8822",
    "url": "https://care-net.biz/20/edel-komagane/",
    "pref": "長野県",
    "city": "駒ヶ根市",
    "category": "rouken",
    "serviceType": "介護老人保健施設",
    "capacity": 50,
    "openDays": [],
    "openDaysNote": ""
  },
  {
    "id": "2051080030",
    "name": "介護老人保健施設花の道",
    "kana": "カイゴロウジンホケンシセツハナノミチ",
    "address": "長野県駒ヶ根市赤穂16621番地5",
    "lat": 35.7063749,
    "lng": 137.9156207,
    "tel": "0265-81-8171",
    "url": "https://www.hanamichi-clinic.com/",
    "pref": "長野県",
    "city": "駒ヶ根市",
    "category": "rouken",
    "serviceType": "介護老人保健施設",
    "capacity": 19,
    "openDays": [],
    "openDaysNote": ""
  },
  {
    "id": "2051080014",
    "name": "老人保健施設フラワーハイツ",
    "kana": "ロウジンホケンシセツフラワーハイツ",
    "address": "長野県駒ヶ根市赤穂３２４９番地４",
    "lat": 35.7369844,
    "lng": 137.9198109,
    "tel": "0265-81-4070",
    "url": "http://inanfukushi.or.jp/",
    "pref": "長野県",
    "city": "駒ヶ根市",
    "category": "rouken",
    "serviceType": "介護老人保健施設",
    "capacity": 0,
    "openDays": [],
    "openDaysNote": ""
  },
  {
    "id": "2052300015",
    "name": "介護老人保健施設さくらの",
    "kana": "カイゴロウジンホケンシセツサクラノ",
    "address": "長野県諏訪郡原村13220番地1",
    "lat": 35.9561074223323,
    "lng": 138.23682474776,
    "tel": "0266-70-1222",
    "url": "http://fujimihp.com/",
    "pref": "長野県",
    "city": "原村",
    "category": "rouken",
    "serviceType": "介護老人保健施設",
    "capacity": 53,
    "openDays": [],
    "openDaysNote": ""
  },
  {
    "id": "2052180011",
    "name": "介護老人保健施設やまゆりの園",
    "kana": "カイゴロウジンホケンシセツヤマユリノソノ",
    "address": "長野県北佐久郡御代田町大字御代田４１０７－１３９",
    "lat": 36.3116679,
    "lng": 138.5161586,
    "tel": "0267-31-2131",
    "url": "http://www.miyotahp.or.jp/yamayuri/",
    "pref": "長野県",
    "city": "御代田町",
    "category": "rouken",
    "serviceType": "介護老人保健施設",
    "capacity": 0,
    "openDays": [],
    "openDaysNote": ""
  },
  {
    "id": "2052180029",
    "name": "介護老人保健施設やまゆりの園ユニット型",
    "kana": "カイゴロウジンホケンシセツヤマユリノソノユニットガタ",
    "address": "長野県北佐久郡御代田町大字御代田４１０７－１３９",
    "lat": 36.3116651,
    "lng": 138.5161753,
    "tel": "0267-31-2131",
    "url": "http://www.miyotahp.or.jp/yamayuri/",
    "pref": "長野県",
    "city": "御代田町",
    "category": "rouken",
    "serviceType": "介護老人保健施設",
    "capacity": 0,
    "openDays": [],
    "openDaysNote": ""
  },
  {
    "id": "2053280018",
    "name": "介護老人保健施設朝日ホームおんせんリハビリテーションセンター",
    "kana": "カイゴロウジンホケンシセツアサヒホームオンセンリハビリテーションセンター",
    "address": "長野県上高井郡高山村大字牧１５１番地１",
    "lat": 36.6798428,
    "lng": 138.3765625,
    "tel": "026-242-1151",
    "url": "",
    "pref": "長野県",
    "city": "高山村",
    "category": "rouken",
    "serviceType": "介護老人保健施設",
    "capacity": 0,
    "openDays": [],
    "openDaysNote": ""
  },
  {
    "id": "2052580012",
    "name": "円会センテナリアン",
    "kana": "マドカカイセンテナリアン",
    "address": "長野県下伊那郡高森町牛牧２４６８番地４",
    "lat": 35.5606287,
    "lng": 137.852089,
    "tel": "0265-34-2525",
    "url": "http://www.seguchi-nouge.or.jp/cente-toppage.html",
    "pref": "長野県",
    "city": "高森町",
    "category": "rouken",
    "serviceType": "介護老人保健施設",
    "capacity": null,
    "openDays": [],
    "openDaysNote": ""
  },
  {
    "id": "2051780068",
    "name": "サテライト介護老人保健施設なかごみ",
    "kana": "サテライトカイゴロウジンホケンシセツナカゴミ",
    "address": "長野県佐久市中込3丁目15番地６",
    "lat": 36.2276769,
    "lng": 138.4779059,
    "tel": "0267-63-1721",
    "url": "https://www.keijinnet.or.jp",
    "pref": "長野県",
    "city": "佐久市",
    "category": "rouken",
    "serviceType": "介護老人保健施設",
    "capacity": 0,
    "openDays": [],
    "openDaysNote": ""
  },
  {
    "id": "2051780043",
    "name": "介護老人保健施設愛の郷",
    "kana": "カイゴロウジンホケンシセツメグミノサト",
    "address": "長野県佐久市長土呂８６０－２",
    "lat": 36.2918136,
    "lng": 138.4715415,
    "tel": "0267-67-8870",
    "url": "http://skdf.jp/",
    "pref": "長野県",
    "city": "佐久市",
    "category": "rouken",
    "serviceType": "介護老人保健施設",
    "capacity": 0,
    "openDays": [],
    "openDaysNote": ""
  },
  {
    "id": "2051780050",
    "name": "介護老人保健施設愛の郷サテライト",
    "kana": "カイゴロウジンホケンシセツメグミノサトサテライト",
    "address": "長野県佐久市長土呂865-1",
    "lat": 36.2928802,
    "lng": 138.4720234,
    "tel": "0267-78-6336",
    "url": "http://skdf.jp/",
    "pref": "長野県",
    "city": "佐久市",
    "category": "rouken",
    "serviceType": "介護老人保健施設",
    "capacity": 0,
    "openDays": [],
    "openDaysNote": ""
  },
  {
    "id": "2051780019",
    "name": "介護老人保健施設安寿苑",
    "kana": "カイゴロウジンホケンシセツアンジュエン",
    "address": "長野県佐久市中込１丁目１７番地８",
    "lat": 36.2274391676746,
    "lng": 138.477885217197,
    "tel": "0267-64-1721",
    "url": "https://www.keijinnet.or.jp",
    "pref": "長野県",
    "city": "佐久市",
    "category": "rouken",
    "serviceType": "介護老人保健施設",
    "capacity": 82,
    "openDays": [],
    "openDaysNote": ""
  },
  {
    "id": "2052080013",
    "name": "佐久総合病院老人保健施設",
    "kana": "サクソウゴウビョウインロウジンホケンシセツ",
    "address": "長野県佐久市臼田779番地4",
    "lat": 36.2077607669285,
    "lng": 138.477785930936,
    "tel": "0267-82-7100",
    "url": "",
    "pref": "長野県",
    "city": "佐久市",
    "category": "rouken",
    "serviceType": "介護老人保健施設",
    "capacity": 0,
    "openDays": [],
    "openDaysNote": ""
  },
  {
    "id": "2051780035",
    "name": "老人保健施設シルバーポートつかばら",
    "kana": "ロウジンホケンシセツシルバーポートツカバラ",
    "address": "長野県佐久市塚原1894-1",
    "lat": 36.2664683,
    "lng": 138.436167,
    "tel": "0267-64-1691",
    "url": "https://www.keijinnet.or.jp",
    "pref": "長野県",
    "city": "佐久市",
    "category": "rouken",
    "serviceType": "介護老人保健施設",
    "capacity": 0,
    "openDays": [],
    "openDaysNote": ""
  },
  {
    "id": "2052080021",
    "name": "佐久穂町老人保健施設",
    "kana": "サクホマチロウジンホケンシセツ",
    "address": "長野県南佐久郡佐久穂町大字高野町３５２番地２",
    "lat": 36.1632337,
    "lng": 138.4782441,
    "tel": "0267-86-5330",
    "url": "https://www.town.sakuho.nagano.jp/shisetsu/sayaka.html",
    "pref": "長野県",
    "city": "佐久穂町",
    "category": "rouken",
    "serviceType": "介護老人保健施設",
    "capacity": 0,
    "openDays": [],
    "openDaysNote": ""
  },
  {
    "id": "2052080039",
    "name": "佐久総合病院老人保健施設こうみ",
    "kana": "サクソウゴウビョウインロウジンホケンシセツコウミ",
    "address": "長野県南佐久郡小海町大字小海4487-1",
    "lat": 36.0863618,
    "lng": 138.4846172,
    "tel": "0267-92-5500",
    "url": "",
    "pref": "長野県",
    "city": "小海町",
    "category": "rouken",
    "serviceType": "介護老人保健施設",
    "capacity": 0,
    "openDays": [],
    "openDaysNote": ""
  },
  {
    "id": "2050880034",
    "name": "介護老人保健施設しののめの里",
    "kana": "カイゴロウジンホケンシセツシノノメノサト",
    "address": "長野県小諸市東雲5-8-1",
    "lat": 36.3334938,
    "lng": 138.4408513,
    "tel": "0267-25-7591",
    "url": "http://www.sinonomenosato.com",
    "pref": "長野県",
    "city": "小諸市",
    "category": "rouken",
    "serviceType": "介護老人保健施設",
    "capacity": 0,
    "openDays": [],
    "openDaysNote": ""
  },
  {
    "id": "2050880026",
    "name": "介護老人保健施設メディトピア小諸",
    "kana": "カイゴロウジンホケンシセツメディトピアコモロ",
    "address": "長野県小諸市大字諸３５１",
    "lat": 36.3390064,
    "lng": 138.4119615,
    "tel": "0267-23-6133",
    "url": "http://www.yanagibashi.or.jp",
    "pref": "長野県",
    "city": "小諸市",
    "category": "rouken",
    "serviceType": "介護老人保健施設",
    "capacity": 100,
    "openDays": [],
    "openDaysNote": ""
  },
  {
    "id": "2050880018",
    "name": "老人保健施設こまくさ",
    "kana": "ロウジンホケンシセツコマクサ",
    "address": "長野県小諸市南町二丁目２番２７号",
    "lat": 36.323378,
    "lng": 138.4276579,
    "tel": "0267-25-1770",
    "url": "http://komoro-mc.com",
    "pref": "長野県",
    "city": "小諸市",
    "category": "rouken",
    "serviceType": "介護老人保健施設",
    "capacity": 0,
    "openDays": [],
    "openDaysNote": ""
  },
  {
    "id": "2052980030",
    "name": "介護老人保健施設ライフ２",
    "kana": "カイゴロウジンホケンシセツライフツー",
    "address": "長野県北安曇郡松川村字南神戸４３６０-１７",
    "lat": 36.3953282669612,
    "lng": 137.847992798148,
    "tel": "0261-61-1839",
    "url": "http://koushu-nagano.jp/index.php?id=26",
    "pref": "長野県",
    "city": "松川村",
    "category": "rouken",
    "serviceType": "介護老人保健施設",
    "capacity": 0,
    "openDays": [],
    "openDaysNote": ""
  },
  {
    "id": "2052980014",
    "name": "介護老人保健施設孝松舘",
    "kana": "カイゴロウジンホケンシセツコウショウカン",
    "address": "長野県北安曇郡松川村５６５０番地２３",
    "lat": 36.4037562054617,
    "lng": 137.866293921426,
    "tel": "0261-61-1800",
    "url": "http://www.koumei.or.jp",
    "pref": "長野県",
    "city": "松川村",
    "category": "rouken",
    "serviceType": "介護老人保健施設",
    "capacity": 85,
    "openDays": [],
    "openDaysNote": ""
  },
  {
    "id": "2050280029",
    "name": "ローズガーデン",
    "kana": "ローズガーデン",
    "address": "長野県松本市中山７４９４－８",
    "lat": 36.1712388,
    "lng": 138.0066752,
    "tel": "0263-57-8002",
    "url": "http://www.rosegarden-s.com/",
    "pref": "長野県",
    "city": "松本市",
    "category": "rouken",
    "serviceType": "介護老人保健施設",
    "capacity": 0,
    "openDays": [],
    "openDaysNote": ""
  },
  {
    "id": "2070202524",
    "name": "介護療養型老人保健施設びおら",
    "kana": "カイゴリョウヨウガタロウジンホケンシセツビオラ",
    "address": "長野県松本市島内3533",
    "lat": 36.2381901,
    "lng": 137.94667,
    "tel": "0263-47-4341",
    "url": "https://okubo-clinic.wixsite.com/roken-viola",
    "pref": "長野県",
    "city": "松本市",
    "category": "rouken",
    "serviceType": "介護老人保健施設",
    "capacity": 18,
    "openDays": [],
    "openDaysNote": ""
  },
  {
    "id": "2050280060",
    "name": "介護老人保健施設つかまの里",
    "kana": "カイゴロウジンホケンシセツツカマノサト",
    "address": "長野県松本市筑摩３－１５－３１",
    "lat": 36.2198244,
    "lng": 137.983156,
    "tel": "0263-29-1210",
    "url": "http://www.mhl.janis.or.jp/~kokusai/",
    "pref": "長野県",
    "city": "松本市",
    "category": "rouken",
    "serviceType": "介護老人保健施設",
    "capacity": 80,
    "openDays": [],
    "openDaysNote": ""
  },
  {
    "id": "2052780018",
    "name": "介護老人保健施設のむぎ",
    "kana": "カイゴロウジンホケンシセツノムギ",
    "address": "長野県松本市波田9802番地1",
    "lat": 36.198239,
    "lng": 137.854937,
    "tel": "0263-92-7870",
    "url": "https://nomugi.jp/",
    "pref": "長野県",
    "city": "松本市",
    "category": "rouken",
    "serviceType": "介護老人保健施設",
    "capacity": 82,
    "openDays": [],
    "openDaysNote": ""
  },
  {
    "id": "2050280045",
    "name": "介護老人保健施設ハーモニー",
    "kana": "カイゴロウジンホケンシセツハーモニー",
    "address": "長野県松本市島内広田4064番地２",
    "lat": 36.247019,
    "lng": 137.944989,
    "tel": "0263-48-6321",
    "url": "http://www.harmony-matsumoto.or.jp/service/index.html",
    "pref": "長野県",
    "city": "松本市",
    "category": "rouken",
    "serviceType": "介護老人保健施設",
    "capacity": 0,
    "openDays": [],
    "openDaysNote": ""
  },
  {
    "id": "2070202532",
    "name": "介護老人保健施設びおら",
    "kana": "カイゴロウジンホケンシセツビオラ",
    "address": "長野県松本市島内３５３３",
    "lat": 36.2381646,
    "lng": 137.9467033,
    "tel": "0263-47-4341",
    "url": "https://okubo-clinic.wixsite.com/roken-viola",
    "pref": "長野県",
    "city": "松本市",
    "category": "rouken",
    "serviceType": "介護老人保健施設",
    "capacity": 7,
    "openDays": [],
    "openDaysNote": ""
  },
  {
    "id": "2050280052",
    "name": "介護老人保健施設山望苑",
    "kana": "カイゴロウジンホケンシセツサンボウエン",
    "address": "長野県松本市新村１９５６-１",
    "lat": 36.2178606,
    "lng": 137.9067735,
    "tel": "0263-40-4300",
    "url": "http://www.washinkai.jp/policy.html",
    "pref": "長野県",
    "city": "松本市",
    "category": "rouken",
    "serviceType": "介護老人保健施設",
    "capacity": 100,
    "openDays": [],
    "openDaysNote": ""
  },
  {
    "id": "2050280011",
    "name": "寿の里",
    "kana": "コトブキノサト",
    "address": "長野県松本市寿北８丁目２１番２号",
    "lat": 36.1907667,
    "lng": 137.9763635,
    "tel": "0263-57-5233",
    "url": "http://www.seiunkai.or.jp",
    "pref": "長野県",
    "city": "松本市",
    "category": "rouken",
    "serviceType": "介護老人保健施設",
    "capacity": 80,
    "openDays": [],
    "openDaysNote": ""
  },
  {
    "id": "2050280037",
    "name": "松本市城山介護老人保健施設",
    "kana": "マツモトシジョウヤマカイゴロウジンホケンシセツ",
    "address": "長野県松本市蟻ケ崎２１３２",
    "lat": 36.2524654617299,
    "lng": 137.956345347546,
    "tel": "0263-37-5611",
    "url": "http://www.matsu-med.or.jp",
    "pref": "長野県",
    "city": "松本市",
    "category": "rouken",
    "serviceType": "介護老人保健施設",
    "capacity": 119,
    "openDays": [],
    "openDaysNote": ""
  },
  {
    "id": "2050380019",
    "name": "ケアホーム上田",
    "kana": "ケアホームウエダ",
    "address": "長野県上田市中野29番地2",
    "lat": 36.3603141,
    "lng": 138.1981218,
    "tel": "0268-38-2905",
    "url": "http://shioda-hp.jp/",
    "pref": "長野県",
    "city": "上田市",
    "category": "rouken",
    "serviceType": "介護老人保健施設",
    "capacity": 0,
    "openDays": [],
    "openDaysNote": ""
  },
  {
    "id": "2050380043",
    "name": "介護老人保健施設チェリーガーデン",
    "kana": "カイゴロウジンホケンシセツチェリーガーデン",
    "address": "長野県上田市保野７１０番地",
    "lat": 36.3743389,
    "lng": 138.1924838,
    "tel": "0268-39-1187",
    "url": "http://www.koujin-kai.or.jp",
    "pref": "長野県",
    "city": "上田市",
    "category": "rouken",
    "serviceType": "介護老人保健施設",
    "capacity": 178,
    "openDays": [],
    "openDaysNote": ""
  },
  {
    "id": "2050380035",
    "name": "介護老人保健施設ほのぼの",
    "kana": "カイゴロウジンホケンシセツホノボノ",
    "address": "長野県上田市住吉322",
    "lat": 36.4058444,
    "lng": 138.279236,
    "tel": "0268-27-6755",
    "url": "http://www.jishyukai.or.jp/honobono/",
    "pref": "長野県",
    "city": "上田市",
    "category": "rouken",
    "serviceType": "介護老人保健施設",
    "capacity": 0,
    "openDays": [],
    "openDaysNote": ""
  },
  {
    "id": "2050380027",
    "name": "御所苑",
    "kana": "ゴショエン",
    "address": "長野県上田市御所666",
    "lat": 36.3986841,
    "lng": 138.234151,
    "tel": "0268-22-2222",
    "url": "https://gosyoen.maruyamakai.jp/",
    "pref": "長野県",
    "city": "上田市",
    "category": "rouken",
    "serviceType": "介護老人保健施設",
    "capacity": 100,
    "openDays": [],
    "openDaysNote": ""
  },
  {
    "id": "2050380050",
    "name": "長野県厚生農業協同組合連合会鹿教湯三才山リハビリテーションセンター介護療養型老人保健施設いずみの",
    "kana": "ナガノケンコウセイノウギョウキョウドウクミアイレンゴウカイミサイヤマリハビリテーションセンターカイゴリョウヨウガタロウジンホケンシセツイズミノ",
    "address": "長野県上田市小泉７２番地１",
    "lat": 36.3863681,
    "lng": 138.1949387,
    "tel": "0268-26-6600",
    "url": "http://www.janis.or.jp/users/kakeyuh2/izumino/index.html",
    "pref": "長野県",
    "city": "上田市",
    "category": "rouken",
    "serviceType": "介護老人保健施設",
    "capacity": 120,
    "openDays": [],
    "openDaysNote": ""
  },
  {
    "id": "2050380068",
    "name": "老人保健施設なないろ",
    "kana": "ロウジンホケンシセツナナイロ",
    "address": "長野県上田市上塩尻393-1",
    "lat": 36.4148017,
    "lng": 138.2213595,
    "tel": "0268-71-7716",
    "url": "",
    "pref": "長野県",
    "city": "上田市",
    "category": "rouken",
    "serviceType": "介護老人保健施設",
    "capacity": 0,
    "openDays": [],
    "openDaysNote": ""
  },
  {
    "id": "2070600545",
    "name": "サテライト老健　こまくさの森",
    "kana": "サテライトロウケン　コマクサノモリ",
    "address": "長野県諏訪市中洲豆田5924",
    "lat": 36.0089431,
    "lng": 138.1289451,
    "tel": "0266-53-8833",
    "url": "http://www.lcv.ne.jp/~komakusa",
    "pref": "長野県",
    "city": "諏訪市",
    "category": "rouken",
    "serviceType": "介護老人保健施設",
    "capacity": null,
    "openDays": [],
    "openDaysNote": ""
  },
  {
    "id": "2050680012",
    "name": "介護老人保健施設かりんの里",
    "kana": "カイゴロウジンホケンシセツカリンノサト",
    "address": "長野県諏訪市湖岸通り5-11-5",
    "lat": 36.0421328,
    "lng": 138.1092986,
    "tel": "0266-57-5755",
    "url": "http://suwafukushi.com/",
    "pref": "長野県",
    "city": "諏訪市",
    "category": "rouken",
    "serviceType": "介護老人保健施設",
    "capacity": 100,
    "openDays": [],
    "openDaysNote": ""
  },
  {
    "id": "2050680038",
    "name": "介護老人保健施設掬水",
    "kana": "カイゴロウジンホケンシセツキクスイ",
    "address": "長野県諏訪市豊田８３７－１",
    "lat": 36.0324476,
    "lng": 138.0953836,
    "tel": "0266-58-3232",
    "url": "http://www.heisei-kai.jp",
    "pref": "長野県",
    "city": "諏訪市",
    "category": "rouken",
    "serviceType": "介護老人保健施設",
    "capacity": 0,
    "openDays": [],
    "openDaysNote": ""
  },
  {
    "id": "2050680046",
    "name": "老人保健施設みづうみ",
    "kana": "ロウジンホケンシセツミヅウミ",
    "address": "長野県諏訪市豊田2400-9",
    "lat": 36.0291087,
    "lng": 138.0815517,
    "tel": "0266-54-2111",
    "url": "https://fujimihp.com/facility/老人保健施設みづうみ",
    "pref": "長野県",
    "city": "諏訪市",
    "category": "rouken",
    "serviceType": "介護老人保健施設",
    "capacity": 0,
    "openDays": [],
    "openDaysNote": ""
  },
  {
    "id": "2050780028",
    "name": "ウィングラス",
    "kana": "ウィングラス",
    "address": "長野県須坂市大字仁礼７番地１０",
    "lat": 36.6137439,
    "lng": 138.3386647,
    "tel": "026-215-2662",
    "url": "http://www.greenarum.jp",
    "pref": "長野県",
    "city": "須坂市",
    "category": "rouken",
    "serviceType": "介護老人保健施設",
    "capacity": null,
    "openDays": [],
    "openDaysNote": ""
  },
  {
    "id": "2050780010",
    "name": "老人保健施設須坂やすらぎの園",
    "kana": "ロウジンホケンシセツスザカヤスラギノソノ",
    "address": "長野県須坂市大字日滝字寺窪２８８７-2",
    "lat": 36.6510973,
    "lng": 138.3071917,
    "tel": "026-246-6883",
    "url": "http://suzaka-yasuraginosono.com/index",
    "pref": "長野県",
    "city": "須坂市",
    "category": "rouken",
    "serviceType": "介護老人保健施設",
    "capacity": 0,
    "openDays": [],
    "openDaysNote": ""
  },
  {
    "id": "2051880017",
    "name": "フランセーズ悠とぐら",
    "kana": "フランセーズユウトグラ",
    "address": "長野県千曲市大字上徳間３３７－１",
    "lat": 36.4958488,
    "lng": 138.1442075,
    "tel": "026-261-0012",
    "url": "http://www.hakuyukai.com",
    "pref": "長野県",
    "city": "千曲市",
    "category": "rouken",
    "serviceType": "介護老人保健施設",
    "capacity": 80,
    "openDays": [],
    "openDaysNote": ""
  },
  {
    "id": "2051680011",
    "name": "医療法人財団大西会老人保健施設ひまわり",
    "kana": "ロウジンホケンシセツヒマワリ",
    "address": "長野県千曲市大字桑原1670-1",
    "lat": 36.5254045,
    "lng": 138.0887079,
    "tel": "026-274-1711",
    "url": "http://chikuma-chp.com/",
    "pref": "長野県",
    "city": "千曲市",
    "category": "rouken",
    "serviceType": "介護老人保健施設",
    "capacity": 0,
    "openDays": [],
    "openDaysNote": ""
  },
  {
    "id": "2051280010",
    "name": "介護老人保健施設虹の家",
    "kana": "カイゴロウジンホケンシセツニジノイエ",
    "address": "長野県大町市大町３１３０",
    "lat": 36.501429233162,
    "lng": 137.857174297484,
    "tel": "0261-22-2424",
    "url": "http://www.kita-alps.omachi.nagano.jp/",
    "pref": "長野県",
    "city": "大町市",
    "category": "rouken",
    "serviceType": "介護老人保健施設",
    "capacity": 0,
    "openDays": [],
    "openDaysNote": ""
  },
  {
    "id": "2052480056",
    "name": "老人保健施設きりとう",
    "kana": "ロウジンホケンシセツキリトウ",
    "address": "長野県上伊那郡辰野町小野1290番地5",
    "lat": 36.0461544022073,
    "lng": 137.968978501714,
    "tel": "0266-46-2041",
    "url": "https://fujimihp.com/facility/",
    "pref": "長野県",
    "city": "辰野町",
    "category": "rouken",
    "serviceType": "介護老人保健施設",
    "capacity": 29,
    "openDays": [],
    "openDaysNote": ""
  },
  {
    "id": "2052780026",
    "name": "介護老人保健施設にしじょう",
    "kana": "カイゴロウジンホケンシセツ　ニシジョウ",
    "address": "長野県東筑摩郡筑北村西条３８６８－１",
    "lat": 36.4054305,
    "lng": 138.011566,
    "tel": "０２６３－６６－３１２０",
    "url": "http://www.ten-yu-do.jp",
    "pref": "長野県",
    "city": "筑北村",
    "category": "rouken",
    "serviceType": "介護老人保健施設",
    "capacity": 29,
    "openDays": [],
    "openDaysNote": ""
  },
  {
    "id": "2051180012",
    "name": "北信総合病院老人保健施設もえぎ",
    "kana": "ホクシンソウゴウビョウインロウジンホケンシセツモエギ",
    "address": "長野県中野市吉田１２３-１",
    "lat": 36.7525731,
    "lng": 138.3519214,
    "tel": "0269-22-7800",
    "url": "http://www.hokushin-hosp.jp/",
    "pref": "長野県",
    "city": "中野市",
    "category": "rouken",
    "serviceType": "介護老人保健施設",
    "capacity": 0,
    "openDays": [],
    "openDaysNote": ""
  },
  {
    "id": "2050180021",
    "name": "コンフォート岡田",
    "kana": "コンフォートオカダ",
    "address": "長野県長野市大字北長池９１４番地",
    "lat": 36.6501153,
    "lng": 138.247595,
    "tel": "026-263-3361",
    "url": "https://www.keiseikai-group.org",
    "pref": "長野県",
    "city": "長野市",
    "category": "rouken",
    "serviceType": "介護老人保健施設",
    "capacity": 198,
    "openDays": [],
    "openDaysNote": ""
  },
  {
    "id": "2050180088",
    "name": "ふるさと",
    "kana": "フルサト",
    "address": "長野県長野市大字三才６８３",
    "lat": 36.6863634768805,
    "lng": 138.251826121692,
    "tel": "026-251-3155",
    "url": "http://www.healthcoop-nagano.or.jp/",
    "pref": "長野県",
    "city": "長野市",
    "category": "rouken",
    "serviceType": "介護老人保健施設",
    "capacity": 100,
    "openDays": [],
    "openDaysNote": ""
  },
  {
    "id": "2053480014",
    "name": "ゆたかの",
    "kana": "ユタカノ",
    "address": "長野県長野市豊野町豊野６３４",
    "lat": 36.7109033,
    "lng": 138.2828214,
    "tel": "026-257-3000",
    "url": "http://www.san-ikukai.or.jp",
    "pref": "長野県",
    "city": "長野市",
    "category": "rouken",
    "serviceType": "介護老人保健施設",
    "capacity": 0,
    "openDays": [],
    "openDaysNote": ""
  },
  {
    "id": "2050180054",
    "name": "介護老人保健施設インターコート藤",
    "kana": "カイゴロウジンホケンシセツインターコートフジ",
    "address": "長野県長野市青木島町綱島字小中島７８２番地６",
    "lat": 36.6121602011464,
    "lng": 138.208504327106,
    "tel": "026-284-5777",
    "url": "https://www.intercourt-fuji.com",
    "pref": "長野県",
    "city": "長野市",
    "category": "rouken",
    "serviceType": "介護老人保健施設",
    "capacity": 150,
    "openDays": [],
    "openDaysNote": ""
  },
  {
    "id": "2050180013",
    "name": "介護老人保健施設コスモスあがたまち",
    "kana": "カイゴロウジンホケンシセツコスモスアガタマチ",
    "address": "長野県長野市南長野南県町６５８",
    "lat": 36.6510876,
    "lng": 138.1838276,
    "tel": "026-237-3800",
    "url": "https://www.cosmoslife.or.jp",
    "pref": "長野県",
    "city": "長野市",
    "category": "rouken",
    "serviceType": "介護老人保健施設",
    "capacity": 72,
    "openDays": [],
    "openDaysNote": ""
  },
  {
    "id": "2050180096",
    "name": "介護老人保健施設コスモスさいなみ",
    "kana": "カイゴロウジンホケンシセツコスモスサイナミ",
    "address": "長野県長野市小島田町４４９番地",
    "lat": 36.5954945,
    "lng": 138.1810597,
    "tel": "026-283-3173",
    "url": "http://www.cosmosnet.or.jp/",
    "pref": "長野県",
    "city": "長野市",
    "category": "rouken",
    "serviceType": "介護老人保健施設",
    "capacity": 0,
    "openDays": [],
    "openDaysNote": ""
  },
  {
    "id": "2050180039",
    "name": "介護老人保健施設コスモス長野",
    "kana": "カイゴロウジンホケンシセツコスモスナガノ",
    "address": "長野県長野市小島田町３８０番地",
    "lat": 36.597411,
    "lng": 138.1812513,
    "tel": "026-285-2654",
    "url": "http://www.cosmosnet.or.jp",
    "pref": "長野県",
    "city": "長野市",
    "category": "rouken",
    "serviceType": "介護老人保健施設",
    "capacity": 0,
    "openDays": [],
    "openDaysNote": ""
  },
  {
    "id": "2053480022",
    "name": "介護老人保健施設すめらぎ",
    "kana": "カイゴロウジンホケンシセツスメラギ",
    "address": "長野県長野市中条住良木８２９１番地１",
    "lat": 36.6053826,
    "lng": 138.0134007,
    "tel": "026-267-3311",
    "url": "https://www.sumeragi.jp",
    "pref": "長野県",
    "city": "長野市",
    "category": "rouken",
    "serviceType": "介護老人保健施設",
    "capacity": 0,
    "openDays": [],
    "openDaysNote": ""
  },
  {
    "id": "2050180104",
    "name": "介護老人保健施設桜ホーム",
    "kana": "カイゴロウジンホケンシセツサクラホーム",
    "address": "長野県長野市篠ノ井二ツ柳字大当1432-3",
    "lat": 36.5664819131701,
    "lng": 138.132922803072,
    "tel": "026-290-1133",
    "url": "http://www.sakurahome.aor.jp/shisetsu.html#home",
    "pref": "長野県",
    "city": "長野市",
    "category": "rouken",
    "serviceType": "介護老人保健施設",
    "capacity": 0,
    "openDays": [],
    "openDaysNote": ""
  },
  {
    "id": "2050180047",
    "name": "介護老人保健施設城山",
    "kana": "カイゴロウジンホケンシセツジョウヤマ",
    "address": "長野県長野市箱清水１丁目１２－１４",
    "lat": 36.6652607,
    "lng": 138.1904353,
    "tel": "026-234-7382",
    "url": "http://medi-oasis.com",
    "pref": "長野県",
    "city": "長野市",
    "category": "rouken",
    "serviceType": "介護老人保健施設",
    "capacity": 0,
    "openDays": [],
    "openDaysNote": ""
  },
  {
    "id": "2050180146",
    "name": "介護老人保健施設朝日リハビリテーションセンター",
    "kana": "カイゴロウジンホケンシセツアサヒリハビリテーションセンター",
    "address": "長野県長野市大字南堀137-1",
    "lat": 36.6633732,
    "lng": 138.2414763,
    "tel": "026-217-2210",
    "url": "http://highness-life.com/",
    "pref": "長野県",
    "city": "長野市",
    "category": "rouken",
    "serviceType": "介護老人保健施設",
    "capacity": 0,
    "openDays": [],
    "openDaysNote": ""
  },
  {
    "id": "2050180062",
    "name": "老人保健施設ケアポート三輪",
    "kana": "ロウジンホケンシセツケアポートミワ",
    "address": "長野市三輪５-４３-２０",
    "lat": 36.6584928,
    "lng": 138.2020061,
    "tel": "026-238-2655",
    "url": "http://www7.ocn.ne.jp/~keapoto/index.html",
    "pref": "長野県",
    "city": "長野市",
    "category": "rouken",
    "serviceType": "介護老人保健施設",
    "capacity": 0,
    "openDays": [],
    "openDaysNote": ""
  },
  {
    "id": "2050180070",
    "name": "老人保健施設星のさと",
    "kana": "ロウジンホケンシセツホシノサト",
    "address": "長野県長野市篠ノ井小松原2360",
    "lat": 36.6062752,
    "lng": 138.1310478,
    "tel": "026-261-1555",
    "url": "",
    "pref": "長野県",
    "city": "長野市",
    "category": "rouken",
    "serviceType": "介護老人保健施設",
    "capacity": 86,
    "openDays": [],
    "openDaysNote": ""
  },
  {
    "id": "2052280019",
    "name": "依田窪老人保健施設",
    "kana": "ヨダクボロウジンホケンシセツ",
    "address": "長野県小県郡長和町古町3365-5",
    "lat": 36.273477,
    "lng": 138.2667681,
    "tel": "0268-68-0281",
    "url": "http://www.kokuyou.ne.jp/~r-ikoi/",
    "pref": "長野県",
    "city": "長和町",
    "category": "rouken",
    "serviceType": "介護老人保健施設",
    "capacity": 0,
    "openDays": [],
    "openDaysNote": ""
  },
  {
    "id": "2052280027",
    "name": "介護老人保健施設ハーモニック東部",
    "kana": "カイゴロウジンホケンシセツハーモニックトウブ",
    "address": "長野県東御市祢津３４６番地１",
    "lat": 36.3691518,
    "lng": 138.3574145,
    "tel": "0268-61-0008",
    "url": "http://www.ryokufuukai.or.jp/index.html",
    "pref": "長野県",
    "city": "東御市",
    "category": "rouken",
    "serviceType": "介護老人保健施設",
    "capacity": 90,
    "openDays": [],
    "openDaysNote": ""
  },
  {
    "id": "2052980022",
    "name": "介護老人保健施設白馬メディア",
    "kana": "カイゴロウジンホケンシセツシロウマメディア",
    "address": "長野県北安曇郡白馬村大字神城２２８４４",
    "lat": 36.6639722,
    "lng": 137.8461966,
    "tel": "0261-75-7100",
    "url": "http://www.shironishi.or.jp/",
    "pref": "長野県",
    "city": "白馬村",
    "category": "rouken",
    "serviceType": "介護老人保健施設",
    "capacity": 80,
    "openDays": [],
    "openDaysNote": ""
  },
  {
    "id": "2051380018",
    "name": "医療法人みゆき会飯山介護老人保健施設みゆき",
    "kana": "イリョウホウジンミユキカイイイヤマカイゴロウジンホケンシセツミユキ",
    "address": "長野県飯山市大字下木島9番地",
    "lat": 36.8550558,
    "lng": 138.3876285,
    "tel": "0269-81-3850",
    "url": "http://www.miyuki-g.or.jp/",
    "pref": "長野県",
    "city": "飯山市",
    "category": "rouken",
    "serviceType": "介護老人保健施設",
    "capacity": 0,
    "openDays": [],
    "openDaysNote": ""
  },
  {
    "id": "2070501610",
    "name": "介護老人保健施設　千年の緑",
    "kana": "カイゴロウジンホケンシセツセンネンノミドリ",
    "address": "飯田市鼎中平２２５８",
    "lat": 35.5080064,
    "lng": 137.826266,
    "tel": "0265-48-5588",
    "url": "",
    "pref": "長野県",
    "city": "飯田市",
    "category": "rouken",
    "serviceType": "介護老人保健施設",
    "capacity": 0,
    "openDays": [],
    "openDaysNote": ""
  },
  {
    "id": "2050580014",
    "name": "介護老人保健施設アップルハイツ飯田",
    "kana": "カイゴロウジンホケンシセツアップルハイツイイダ",
    "address": "長野県飯田市羽場権現１６１８番地",
    "lat": 35.5206159,
    "lng": 137.7990156,
    "tel": "0265-21-1165",
    "url": "http://www.iida.or.jp/related-facility/apple/",
    "pref": "長野県",
    "city": "飯田市",
    "category": "rouken",
    "serviceType": "介護老人保健施設",
    "capacity": 0,
    "openDays": [],
    "openDaysNote": ""
  },
  {
    "id": "2050580030",
    "name": "介護老人保健施設万年青苑",
    "kana": "カイゴロウジンホケンシセツオモトエン",
    "address": "長野県飯田市毛賀１７０７番地",
    "lat": 35.4778990384733,
    "lng": 137.841097301061,
    "tel": "0265-26-6866",
    "url": "http://www.kizankai.or.jp/omoto/index.html",
    "pref": "長野県",
    "city": "飯田市",
    "category": "rouken",
    "serviceType": "介護老人保健施設",
    "capacity": 0,
    "openDays": [],
    "openDaysNote": ""
  },
  {
    "id": "2050580022",
    "name": "飯田市立病院介護老人保健施設",
    "kana": "イイダシリツビョウインカイゴロウジンホケンシセツ",
    "address": "長野県飯田市上郷黒田341番地",
    "lat": 35.5179668,
    "lng": 137.8401752,
    "tel": "0265-53-6048",
    "url": "https://www.imh.jp/section/yuuyuu",
    "pref": "長野県",
    "city": "飯田市",
    "category": "rouken",
    "serviceType": "介護老人保健施設",
    "capacity": 0,
    "openDays": [],
    "openDaysNote": ""
  },
  {
    "id": "2052380017",
    "name": "老人保健施設あららぎ",
    "kana": "ロウジンホケンシセツアララギ",
    "address": "長野県諏訪郡富士見町落合11106番地1",
    "lat": 35.9150380120395,
    "lng": 138.243986120238,
    "tel": "0266-62-8008",
    "url": "https://fujimihp.com/facility/%e8%80%81%e4%ba%ba%e4%bf%9d%e5%81%a5%e6%96%bd%e8%a8%ad%e3%81%82%e3%82%89%e3%82%89%e3%81%8e/",
    "pref": "長野県",
    "city": "富士見町",
    "category": "rouken",
    "serviceType": "介護老人保健施設",
    "capacity": 0,
    "openDays": [],
    "openDaysNote": ""
  },
  {
    "id": "2052580020",
    "name": "介護老人保健施設はやしの杜",
    "kana": "カイゴロウジンホケンシセツハヤシノモリ",
    "address": "長野県下伊那郡豊丘村大字神稲４１７６",
    "lat": 35.5430317,
    "lng": 137.8969217,
    "tel": "0265-35-1870",
    "url": "https://hayashinomori.notion.site/",
    "pref": "長野県",
    "city": "豊丘村",
    "category": "rouken",
    "serviceType": "介護老人保健施設",
    "capacity": 90,
    "openDays": [],
    "openDaysNote": ""
  },
  {
    "id": "2052480031",
    "name": "介護老人保健施設　わかな",
    "kana": "カイゴロウジンホケンシセツ　ワカナ",
    "address": "長野県上伊那郡箕輪町大字東箕輪３２９６－１",
    "lat": 35.9357685602114,
    "lng": 137.9945875409,
    "tel": "0265-70-1818",
    "url": "http://www.heisei-kai.jp/",
    "pref": "長野県",
    "city": "箕輪町",
    "category": "rouken",
    "serviceType": "介護老人保健施設",
    "capacity": 0,
    "openDays": [],
    "openDaysNote": ""
  },
  {
    "id": "2052680010",
    "name": "長野県木曽介護老人保健施設",
    "kana": "ナガノケンキソカイゴロウジンホケンシセツ",
    "address": "長野県木曽郡木曽町福島６６１３－４",
    "lat": 35.8355507,
    "lng": 137.6838866,
    "tel": "0264-22-2677",
    "url": "https://kiso-hosp.jp/",
    "pref": "長野県",
    "city": "木曽町",
    "category": "rouken",
    "serviceType": "介護老人保健施設",
    "capacity": 0,
    "openDays": [],
    "openDaysNote": ""
  }
]