[
  {
    "id": "252580022",
    "name": "介護老人保健施設しもだ",
    "kana": "カイゴロウジンホケンシセツシモダ",
    "address": "青森県上北郡おいらせ町山崎２５９２－７",
    "lat": 40.6149236130743,
    "lng": 141.402263190511,
    "tel": "0178-56-4888",
    "url": "https://www.sg-shimoda.org/",
    "pref": "青森県",
    "city": "おいらせ町",
    "category": "rouken",
    "serviceType": "介護老人保健施設",
    "capacity": null,
    "openDays": [],
    "openDaysNote": ""
  },
  {
    "id": "252180005",
    "name": "介護老人保健施設　えんじゅの里",
    "kana": "カイゴロウジンホケンシセツ　エンジュノサト",
    "address": "青森県つがる市木造曙82",
    "lat": 40.8078478,
    "lng": 140.3922443,
    "tel": "0173-42-3734",
    "url": "http://www.aomori-seijinkai.or.jp/enju.html",
    "pref": "青森県",
    "city": "つがる市",
    "category": "rouken",
    "serviceType": "介護老人保健施設",
    "capacity": 100,
    "openDays": [],
    "openDaysNote": ""
  },
  {
    "id": "250880028",
    "name": "むつ市介護老人保健施設やげん",
    "kana": "ムツシカイゴロウジンホケンシセツヤゲン",
    "address": "青森県むつ市大畑町観音堂２５－１国民健康保険大畑診療所内 国民健康保険大畑診療所内",
    "lat": 41.399487,
    "lng": 141.1573197,
    "tel": "0175-34-2211",
    "url": "",
    "pref": "青森県",
    "city": "むつ市",
    "category": "rouken",
    "serviceType": "介護老人保健施設",
    "capacity": 29,
    "openDays": [],
    "openDaysNote": ""
  },
  {
    "id": "250880010",
    "name": "介護老人保健施設　はまなす苑",
    "kana": "カイゴロウジンホケンシセツ　ハマナスエン",
    "address": "青森県むつ市大字奥内字金谷沢１－１６７",
    "lat": 41.2323503,
    "lng": 141.2470574,
    "tel": "0175-26-3333",
    "url": "hamanasuen.net",
    "pref": "青森県",
    "city": "むつ市",
    "category": "rouken",
    "serviceType": "介護老人保健施設",
    "capacity": 0,
    "openDays": [],
    "openDaysNote": ""
  },
  {
    "id": "250880002",
    "name": "老人保健施設シルバーケアセンターむつ",
    "kana": "ロウジンホケンシセツシルバーケアセンタームツ",
    "address": "青森県むつ市中央一丁目18番1号",
    "lat": 41.2940872,
    "lng": 141.1839421,
    "tel": "0175-22-9925",
    "url": "https://www.silvercarecenter-mutsu.com/",
    "pref": "青森県",
    "city": "むつ市",
    "category": "rouken",
    "serviceType": "介護老人保健施設",
    "capacity": 0,
    "openDays": [],
    "openDaysNote": ""
  },
  {
    "id": "252080007",
    "name": "外ヶ浜町介護老人保健施設たんぽぽ",
    "kana": "ソトガハママチカイゴロウジンホケンシセツタンポポ",
    "address": "青森県東津軽郡外ヶ浜町下蟹田４２番地１",
    "lat": 41.0421902,
    "lng": 140.639959,
    "tel": "0174-22-3070",
    "url": "",
    "pref": "青森県",
    "city": "外ヶ浜町",
    "category": "rouken",
    "serviceType": "介護老人保健施設",
    "capacity": 0,
    "openDays": [],
    "openDaysNote": ""
  },
  {
    "id": "252480009",
    "name": "介護老人保健施設　サンライフかなぎ",
    "kana": "カイゴロウジンホケンシセツ　サンライフカナギ",
    "address": "青森県五所川原市金木町芦野200番地301",
    "lat": 40.9125937,
    "lng": 140.4576705,
    "tel": "0173-53-3292",
    "url": "http://hojyukai.or.jp",
    "pref": "青森県",
    "city": "五所川原市",
    "category": "rouken",
    "serviceType": "介護老人保健施設",
    "capacity": 0,
    "openDays": [],
    "openDaysNote": ""
  },
  {
    "id": "250580008",
    "name": "介護老人保健施設緑風苑",
    "kana": "カイゴロウジンホケンシセツ　リョクフウエン",
    "address": "青森県五所川原市金山字竹崎254",
    "lat": 40.8071143,
    "lng": 140.475018,
    "tel": "0173-33-4155",
    "url": "http://ryoku.hakuseikai.com/",
    "pref": "青森県",
    "city": "五所川原市",
    "category": "rouken",
    "serviceType": "介護老人保健施設",
    "capacity": 0,
    "openDays": [],
    "openDaysNote": ""
  },
  {
    "id": "250280112",
    "name": "ユニット型介護老人保健施設　サンタハウス弘前",
    "kana": "ユニットガタカイゴロウジンホケンシセツ　サンタハウスヒロサキ",
    "address": "青森県弘前市大字大川字中桜川１８番地１０４号館 ４号館",
    "lat": 40.6760908038129,
    "lng": 140.456012086508,
    "tel": "０１７２－９９－１１３３",
    "url": "https://houtokukai.org/",
    "pref": "青森県",
    "city": "弘前市",
    "category": "rouken",
    "serviceType": "介護老人保健施設",
    "capacity": 0,
    "openDays": [],
    "openDaysNote": ""
  },
  {
    "id": "250280039",
    "name": "介護老人保健施設　ヴィラ弘前",
    "kana": "カイゴロウジンホケンシセツ　ウ゛ィラヒロサキ",
    "address": "青森県弘前市大字岩賀２丁目１２－１１",
    "lat": 40.6445752,
    "lng": 140.4747525,
    "tel": "0172-37-7300",
    "url": "http://villahiro7300.ec-net.jp",
    "pref": "青森県",
    "city": "弘前市",
    "category": "rouken",
    "serviceType": "介護老人保健施設",
    "capacity": 115,
    "openDays": [],
    "openDaysNote": ""
  },
  {
    "id": "250280070",
    "name": "介護老人保健施設　ふじ苑",
    "kana": "カイゴロウジンホケンシセツ　フジエン",
    "address": "青森県弘前市大字土堂字長瀬385－1",
    "lat": 40.6206412,
    "lng": 140.450186,
    "tel": "0172-38-5550",
    "url": "",
    "pref": "青森県",
    "city": "弘前市",
    "category": "rouken",
    "serviceType": "介護老人保健施設",
    "capacity": 100,
    "openDays": [],
    "openDaysNote": ""
  },
  {
    "id": "250280062",
    "name": "介護老人保健施設　希望ヶ丘ホーム",
    "kana": "カイゴロウジンホケンシセツ　キボウガオカホーム",
    "address": "青森県弘前市大字小沢字山崎４４－９",
    "lat": 40.5662562,
    "lng": 140.4519918,
    "tel": "0172-87-6655",
    "url": "http://kibogaoka.net",
    "pref": "青森県",
    "city": "弘前市",
    "category": "rouken",
    "serviceType": "介護老人保健施設",
    "capacity": 100,
    "openDays": [],
    "openDaysNote": ""
  },
  {
    "id": "250280054",
    "name": "介護老人保健施設　幸陽荘",
    "kana": "カイゴロウジンホケンシセツ　コウヨウソウ",
    "address": "青森県弘前市清野袋字岡部433-1",
    "lat": 40.6363459,
    "lng": 140.4832108,
    "tel": "0172-37-8311",
    "url": "http://koyoso.com/",
    "pref": "青森県",
    "city": "弘前市",
    "category": "rouken",
    "serviceType": "介護老人保健施設",
    "capacity": 100,
    "openDays": [],
    "openDaysNote": ""
  },
  {
    "id": "250280021",
    "name": "介護老人保健施設　弘前リカバリーセンター",
    "kana": "カイゴロウジンホケンシセツヒロサキリカバリーセンター",
    "address": "青森県弘前市高田1丁目１０－７",
    "lat": 40.5981676,
    "lng": 140.4995809,
    "tel": "0172-27-3322",
    "url": "https:recovery-center.jp/",
    "pref": "青森県",
    "city": "弘前市",
    "category": "rouken",
    "serviceType": "介護老人保健施設",
    "capacity": null,
    "openDays": [],
    "openDaysNote": ""
  },
  {
    "id": "252280003",
    "name": "介護老人保健施設　鳥井野荘",
    "kana": "カイゴロウジンホケンシセツ　トリイノソウ",
    "address": "青森県弘前市大字鳥井野字長田265番地",
    "lat": 40.5998758,
    "lng": 140.4137841,
    "tel": "0172-82-5600",
    "url": "http://toriinoso.jp/",
    "pref": "青森県",
    "city": "弘前市",
    "category": "rouken",
    "serviceType": "介護老人保健施設",
    "capacity": 0,
    "openDays": [],
    "openDaysNote": ""
  },
  {
    "id": "250280088",
    "name": "介護老人保健施設サンタハウス弘前",
    "kana": "カイゴロウジンホケンシセツサンタハウスヒロサキ",
    "address": "青森県弘前市大字大川字中桜川１８番地１０４号館 ４号館",
    "lat": 40.6760541881228,
    "lng": 140.456022815344,
    "tel": "0172-99-1133",
    "url": "https://houtokukai.org/",
    "pref": "青森県",
    "city": "弘前市",
    "category": "rouken",
    "serviceType": "介護老人保健施設",
    "capacity": 0,
    "openDays": [],
    "openDaysNote": ""
  },
  {
    "id": "250280013",
    "name": "介護老人保健施設平成の家",
    "kana": "カイゴロウジンホケンシセツ　ヘイセイノイエ",
    "address": "弘前市大字独狐字石田121番地１",
    "lat": 40.6469407,
    "lng": 140.4457375,
    "tel": "0172-95-3981",
    "url": "http://www.heisei-ie.jp",
    "pref": "青森県",
    "city": "弘前市",
    "category": "rouken",
    "serviceType": "介護老人保健施設",
    "capacity": 100,
    "openDays": [],
    "openDaysNote": ""
  },
  {
    "id": "250280005",
    "name": "老人保健施設ケアセンター弘前",
    "kana": "ロウジンホケンシセツケアセンターヒロサキ",
    "address": "青森県弘前市山崎一丁目３番地７",
    "lat": 40.5743637,
    "lng": 140.4719374,
    "tel": "0172-87-0111",
    "url": "http://tsugarufujimikai.com/",
    "pref": "青森県",
    "city": "弘前市",
    "category": "rouken",
    "serviceType": "介護老人保健施設",
    "capacity": 0,
    "openDays": [],
    "openDaysNote": ""
  },
  {
    "id": "250480001",
    "name": "介護老人保健施設「あしたばの里・黒石」",
    "kana": "カイゴロウジンホケンシセツ「アシタバノサト・クロイシ」",
    "address": "青森県黒石市末広6番地1",
    "lat": 40.6617796,
    "lng": 140.5957724,
    "tel": "0172-53-1213",
    "url": "http://www.ashitabanosato.jp",
    "pref": "青森県",
    "city": "黒石市",
    "category": "rouken",
    "serviceType": "介護老人保健施設",
    "capacity": 100,
    "openDays": [],
    "openDaysNote": ""
  },
  {
    "id": "252780044",
    "name": "老人保健施設ほほえみ三戸",
    "kana": "ロウジンホケンシセツホホエミサンノヘ",
    "address": "青森県三戸郡三戸町大字同心町字諏訪内１０番地",
    "lat": 40.3759427,
    "lng": 141.2533489,
    "tel": "0179-23-5050",
    "url": "https://hohoemi-sannohe.com",
    "pref": "青森県",
    "city": "三戸町",
    "category": "rouken",
    "serviceType": "介護老人保健施設",
    "capacity": 0,
    "openDays": [],
    "openDaysNote": ""
  },
  {
    "id": "250780004",
    "name": "老人保健施設　やすらぎ苑",
    "kana": "ロウジンホケンシセツヤスラギエン",
    "address": "青森県三沢市大字三沢字淋代平１１６－３０９７",
    "lat": 40.7456334,
    "lng": 141.3745621,
    "tel": "0176-59-3784",
    "url": "https://www.dohjinkai-aomori.or.jp/yasuragi",
    "pref": "青森県",
    "city": "三沢市",
    "category": "rouken",
    "serviceType": "介護老人保健施設",
    "capacity": 100,
    "openDays": [],
    "openDaysNote": ""
  },
  {
    "id": "252580006",
    "name": "介護老人保健施設　「ナーシングセンター柏葉」",
    "kana": "カイゴロウジンホケンシセツ　ナーシングセンターカシワバ",
    "address": "青森県上北郡七戸町字笊田川久保100-1",
    "lat": 40.6978522,
    "lng": 141.159723,
    "tel": "0176-62-2200",
    "url": "http://kenjinkaikashiwaba.jp",
    "pref": "青森県",
    "city": "七戸町",
    "category": "rouken",
    "serviceType": "介護老人保健施設",
    "capacity": 100,
    "openDays": [],
    "openDaysNote": ""
  },
  {
    "id": "250680006",
    "name": "介護老人保健施設　みちのく苑",
    "kana": "カイゴロウジンホケンシセツ　ミチノクエン",
    "address": "青森県十和田市大字三本木字里ノ沢１－６２",
    "lat": 40.6259085,
    "lng": 141.2483724,
    "tel": "0176-25-1333",
    "url": "",
    "pref": "青森県",
    "city": "十和田市",
    "category": "rouken",
    "serviceType": "介護老人保健施設",
    "capacity": 0,
    "openDays": [],
    "openDaysNote": ""
  },
  {
    "id": "250680048",
    "name": "介護老人保健施設とわだ",
    "kana": "カイゴロウジンホケンシセツトワダ",
    "address": "青森県十和田市大字洞内字長田60-6",
    "lat": 40.6659893,
    "lng": 141.1818865,
    "tel": "0176-27-3131",
    "url": "https://www.facebook.com/sgtowada/",
    "pref": "青森県",
    "city": "十和田市",
    "category": "rouken",
    "serviceType": "介護老人保健施設",
    "capacity": 0,
    "openDays": [],
    "openDaysNote": ""
  },
  {
    "id": "250680055",
    "name": "介護老人保健施設ハートランド",
    "kana": "カイゴロウジンホケンシセツハートランド",
    "address": "十和田市大字相坂字高清水78-450",
    "lat": 40.6216813,
    "lng": 141.2557913,
    "tel": "0176-25-0122",
    "url": "https://www.sg-heart.or.jp/",
    "pref": "青森県",
    "city": "十和田市",
    "category": "rouken",
    "serviceType": "介護老人保健施設",
    "capacity": 0,
    "openDays": [],
    "openDaysNote": ""
  },
  {
    "id": "250680014",
    "name": "老人保健施設　みのり苑",
    "kana": "ロウジンホケンシセツ　ミノリエン",
    "address": "青森県十和田市大字切田字横道100-22",
    "lat": 40.5693306,
    "lng": 141.1927911,
    "tel": "0176-25-1100",
    "url": "http://www.fukushinosato.com",
    "pref": "青森県",
    "city": "十和田市",
    "category": "rouken",
    "serviceType": "介護老人保健施設",
    "capacity": 0,
    "openDays": [],
    "openDaysNote": ""
  },
  {
    "id": "252780028",
    "name": "医療法人仁泉会　介護老人保健施設しんごう",
    "kana": "イリョウホウジンジンセンカイ　カイゴロウジンホケンシセツシンゴウ",
    "address": "青森県三戸郡新郷村大字戸来字金ヶ沢森ノ下24",
    "lat": 40.470056,
    "lng": 141.1781854,
    "tel": "0178-78-3181",
    "url": "",
    "pref": "青森県",
    "city": "新郷村",
    "category": "rouken",
    "serviceType": "介護老人保健施設",
    "capacity": 0,
    "openDays": [],
    "openDaysNote": ""
  },
  {
    "id": "252180021",
    "name": "介護老人保健施設しらかみのさと",
    "kana": "カイゴロウジンホケンシセツシラカミノサト",
    "address": "青森県西津軽郡深浦町大字関字小島崎５３－１",
    "lat": 40.7295644,
    "lng": 140.1176171,
    "tel": "0173-84-3111",
    "url": "https://www.shirakaminosato.or.jp/",
    "pref": "青森県",
    "city": "深浦町",
    "category": "rouken",
    "serviceType": "介護老人保健施設",
    "capacity": 0,
    "openDays": [],
    "openDaysNote": ""
  },
  {
    "id": "250180015",
    "name": "ユニット型介護老人保健施設　青照苑",
    "kana": "ユニットガタカイゴロウジンホケンシセツ　セイショウエン",
    "address": "青森市羽白字野木和４５",
    "lat": 40.8473199,
    "lng": 140.6789547,
    "tel": "017-788-3000",
    "url": "http://www.jikei-kai.org",
    "pref": "青森県",
    "city": "青森市",
    "category": "rouken",
    "serviceType": "介護老人保健施設",
    "capacity": 100,
    "openDays": [],
    "openDaysNote": ""
  },
  {
    "id": "250180072",
    "name": "医療法人芙蓉会　介護老人保健施設ニューライフ芙蓉",
    "kana": "イリョウホウジンフヨウカイカイゴロウジンホケンシセツニュウライフフヨウ",
    "address": "青森県青森市妙見3丁目11-14",
    "lat": 40.7884312769094,
    "lng": 140.762824751451,
    "tel": "017-728-2200",
    "url": "http://www.fuyoukai.or.jp/",
    "pref": "青森県",
    "city": "青森市",
    "category": "rouken",
    "serviceType": "介護老人保健施設",
    "capacity": 0,
    "openDays": [],
    "openDaysNote": ""
  },
  {
    "id": "250180080",
    "name": "介護老人保健施設　みちのく青海荘",
    "kana": "カイゴロウジンホケンシセツ　ミチノクセイカイソウ",
    "address": "青森県青森市港町三丁目6番3号",
    "lat": 40.8310499114002,
    "lng": 140.768771976057,
    "tel": "017-741-5188",
    "url": "m-hakujukai.com",
    "pref": "青森県",
    "city": "青森市",
    "category": "rouken",
    "serviceType": "介護老人保健施設",
    "capacity": 0,
    "openDays": [],
    "openDaysNote": ""
  },
  {
    "id": "250180007",
    "name": "介護老人保健施設　青森ナーシングライフ",
    "kana": "カイゴロウジンホケンシセツ　アオモリナーシングライフ",
    "address": "青森県青森市大字矢田前字弥生田４７－２",
    "lat": 40.8292307,
    "lng": 140.8084787,
    "tel": "017-726-5211",
    "url": "http://www.keiju-w.or.jp/",
    "pref": "青森県",
    "city": "青森市",
    "category": "rouken",
    "serviceType": "介護老人保健施設",
    "capacity": 100,
    "openDays": [],
    "openDaysNote": ""
  },
  {
    "id": "250180098",
    "name": "介護老人保健施設ケア・ガーデン青森",
    "kana": "カイゴロウジンホケンシセツケアガーデンアオモリ",
    "address": "青森市古館1丁目2-1",
    "lat": 40.8062743,
    "lng": 140.7792959,
    "tel": "017-744-3311",
    "url": "http://www.hokushoukai.com/",
    "pref": "青森県",
    "city": "青森市",
    "category": "rouken",
    "serviceType": "介護老人保健施設",
    "capacity": 100,
    "openDays": [],
    "openDaysNote": ""
  },
  {
    "id": "250180155",
    "name": "介護老人保健施設なみおか",
    "kana": "カイゴロウジンホケンシセツナミオカ",
    "address": "青森県青森市浪岡杉沢字山元454-238",
    "lat": 40.7260916,
    "lng": 140.581377,
    "tel": "0172-69-1120",
    "url": "",
    "pref": "青森県",
    "city": "青森市",
    "category": "rouken",
    "serviceType": "介護老人保健施設",
    "capacity": 0,
    "openDays": [],
    "openDaysNote": ""
  },
  {
    "id": "250180064",
    "name": "桐紫苑",
    "kana": "トウシエン",
    "address": "青森県青森市大字幸畑字谷脇214-1",
    "lat": 40.7905596,
    "lng": 140.7927285,
    "tel": "017-738-8080",
    "url": "",
    "pref": "青森県",
    "city": "青森市",
    "category": "rouken",
    "serviceType": "介護老人保健施設",
    "capacity": 80,
    "openDays": [],
    "openDaysNote": ""
  },
  {
    "id": "250180023",
    "name": "社会福祉法人諏訪ノ森会　介護老人保健施設いちい荘",
    "kana": "シャカイフクシホウジンスワノモリカイ　カイゴロウジンホケンシセツイチイソウ",
    "address": "青森県青森市大字諏訪沢字丸山７２番地",
    "lat": 40.8216379,
    "lng": 140.8330459,
    "tel": "017-726-3855",
    "url": "http://www.suwanomorikai.or.jp",
    "pref": "青森県",
    "city": "青森市",
    "category": "rouken",
    "serviceType": "介護老人保健施設",
    "capacity": 100,
    "openDays": [],
    "openDaysNote": ""
  },
  {
    "id": "250180049",
    "name": "青森南老人保健施設甲田苑",
    "kana": "アオモリミナミロウジンホケンシセツコウダエン",
    "address": "青森県青森市大字横内字亀井２５９－２",
    "lat": 40.769083,
    "lng": 140.7700534,
    "tel": "017-728-3939",
    "url": "",
    "pref": "青森県",
    "city": "青森市",
    "category": "rouken",
    "serviceType": "介護老人保健施設",
    "capacity": 0,
    "openDays": [],
    "openDaysNote": ""
  },
  {
    "id": "250180056",
    "name": "老人保健施設　すずかけの里",
    "kana": "ロウジンホケンシセツ　スズカケノサト",
    "address": "青森県青森市里見2丁目13番１号",
    "lat": 40.8156162,
    "lng": 140.713356,
    "tel": "017-761-1111",
    "url": "www.amc-headquarters-med.or.jp",
    "pref": "青森県",
    "city": "青森市",
    "category": "rouken",
    "serviceType": "介護老人保健施設",
    "capacity": 0,
    "openDays": [],
    "openDaysNote": ""
  },
  {
    "id": "250180122",
    "name": "老人保健施設　すずかけの里",
    "kana": "ロウジンホケンシセツ　スズカケノサト",
    "address": "青森県青森市里見2丁目13番1号",
    "lat": 40.8156162,
    "lng": 140.713356,
    "tel": "017-761-1111",
    "url": "www.amc-headquarters-med.or.jp/suzukake.html",
    "pref": "青森県",
    "city": "青森市",
    "category": "rouken",
    "serviceType": "介護老人保健施設",
    "capacity": 0,
    "openDays": [],
    "openDaysNote": ""
  },
  {
    "id": "252480017",
    "name": "介護老人保健施設　湖水荘",
    "kana": "カイゴロウジンホケンシセツ　コスイソウ",
    "address": "青森県北津軽郡鶴田町大字廻堰字東下山９１番地２",
    "lat": 40.7580808,
    "lng": 140.3874935,
    "tel": "0173-22-5694",
    "url": "http://keikyukai.ecnet.jp",
    "pref": "青森県",
    "city": "鶴田町",
    "category": "rouken",
    "serviceType": "介護老人保健施設",
    "capacity": 0,
    "openDays": [],
    "openDaysNote": ""
  },
  {
    "id": "252780051",
    "name": "田子町介護老人保健施設老健たっこ",
    "kana": "タッコマチカイゴロウジンホケンシセツロウケンタッコ",
    "address": "青森県三戸郡田子町大字田子字前田２－１７",
    "lat": 40.3410531,
    "lng": 141.1545079,
    "tel": "0179-32-3172",
    "url": "https://www.town.takko.lg.jp/",
    "pref": "青森県",
    "city": "田子町",
    "category": "rouken",
    "serviceType": "介護老人保健施設",
    "capacity": 0,
    "openDays": [],
    "openDaysNote": ""
  },
  {
    "id": "252680004",
    "name": "東通村介護老人保健施設「のはなしょうぶ」",
    "kana": "ヒガシドオリムラカイゴロウジンホケンシセツ「ノハナショウブ」",
    "address": "青森県下北郡東通村砂子又字里１７番地２",
    "lat": 41.2766568,
    "lng": 141.3374774,
    "tel": "0175-28-5400",
    "url": "https://higashidori.jadecom.or.jp/",
    "pref": "青森県",
    "city": "東通村",
    "category": "rouken",
    "serviceType": "介護老人保健施設",
    "capacity": 50,
    "openDays": [],
    "openDaysNote": ""
  },
  {
    "id": "252380001",
    "name": "医療法人ときわ会　介護老人保健施設明生園",
    "kana": "イリョウホウジン　トキワカイ　カイゴロウジンホケンシセツ　メイセイエン",
    "address": "青森県南津軽郡藤崎町大字榊字亀田2-1",
    "lat": 40.6728375,
    "lng": 140.533038,
    "tel": "0172-65-4066",
    "url": "http://www.tokiwakai.or.jp/",
    "pref": "青森県",
    "city": "藤崎町",
    "category": "rouken",
    "serviceType": "介護老人保健施設",
    "capacity": 0,
    "openDays": [],
    "openDaysNote": ""
  },
  {
    "id": "252780010",
    "name": "介護老人保健施設　孔明荘",
    "kana": "カイゴロウジンホケンシセツ　コウメイソウ",
    "address": "青森県三戸郡南部町大字苫米地字蒼前11-1",
    "lat": 40.4667071,
    "lng": 141.3881378,
    "tel": "0178-84-3333",
    "url": "http://komeisou.or.jp/",
    "pref": "青森県",
    "city": "南部町",
    "category": "rouken",
    "serviceType": "介護老人保健施設",
    "capacity": 0,
    "openDays": [],
    "openDaysNote": ""
  },
  {
    "id": "252780069",
    "name": "介護老人保健施設なんぶ",
    "kana": "カイゴロウジンホケンシセツナンブ",
    "address": "青森県三戸郡南部町大字沖田面字千刈３２－１",
    "lat": 40.4117982550743,
    "lng": 141.280881640475,
    "tel": "0179-34-3260",
    "url": "http://chorokai.or.jp/",
    "pref": "青森県",
    "city": "南部町",
    "category": "rouken",
    "serviceType": "介護老人保健施設",
    "capacity": 70,
    "openDays": [],
    "openDaysNote": ""
  },
  {
    "id": "250380029",
    "name": "サンライフ豊寿苑",
    "kana": "サンライフホウジュエン",
    "address": "青森県八戸市石堂一丁目14-11",
    "lat": 40.5295923,
    "lng": 141.480563,
    "tel": "0178-29-3232",
    "url": "http://www.jouhoku-hp.jp/",
    "pref": "青森県",
    "city": "八戸市",
    "category": "rouken",
    "serviceType": "介護老人保健施設",
    "capacity": 100,
    "openDays": [],
    "openDaysNote": ""
  },
  {
    "id": "250380060",
    "name": "ナーシングホームオリーブ",
    "kana": "ナーシングホームオリーブ",
    "address": "八戸市湊高台二丁目４－６",
    "lat": 40.5067367221671,
    "lng": 141.538085475533,
    "tel": "0178-31-5500",
    "url": "http://www.heiwa-hp.or.jp/olv/olv.html",
    "pref": "青森県",
    "city": "八戸市",
    "category": "rouken",
    "serviceType": "介護老人保健施設",
    "capacity": 100,
    "openDays": [],
    "openDaysNote": ""
  },
  {
    "id": "250380011",
    "name": "介護老人保健施設　ひばりの里",
    "kana": "カイゴロウジンホケンシセツ　ヒバリノサト",
    "address": "青森県八戸市大字是川字雲畑９－２",
    "lat": 40.4598705,
    "lng": 141.4715055,
    "tel": "0178-96-1212",
    "url": "https://www.aikeikai-hibari.com/",
    "pref": "青森県",
    "city": "八戸市",
    "category": "rouken",
    "serviceType": "介護老人保健施設",
    "capacity": 0,
    "openDays": [],
    "openDaysNote": ""
  },
  {
    "id": "250380037",
    "name": "介護老人保健施設　リハビリパーク",
    "kana": "カイゴロウジンホケンシセツ　リハビリパーク",
    "address": "青森県八戸市小中野一丁目1-14",
    "lat": 40.5185999,
    "lng": 141.5060602,
    "tel": "0178-47-3000",
    "url": "http://www.rehabili-park.com",
    "pref": "青森県",
    "city": "八戸市",
    "category": "rouken",
    "serviceType": "介護老人保健施設",
    "capacity": 0,
    "openDays": [],
    "openDaysNote": ""
  },
  {
    "id": "252780002",
    "name": "介護老人保健施設　南郷メディエルデプラザ",
    "kana": "カイゴロウジンホケンシセツ　ナンゴウメディエルデプラザ",
    "address": "青森県八戸市南郷大字島守字阿庄内15番地6",
    "lat": 40.4071274113702,
    "lng": 141.456113671164,
    "tel": "0178-82-2000",
    "url": "http://www.nanrokukai.com/",
    "pref": "青森県",
    "city": "八戸市",
    "category": "rouken",
    "serviceType": "介護老人保健施設",
    "capacity": 0,
    "openDays": [],
    "openDaysNote": ""
  },
  {
    "id": "250380052",
    "name": "介護老人保健施設　南山苑",
    "kana": "カイゴロウジンホケンシセツ　ナンザンエン",
    "address": "青森県八戸市大字田面木字赤坂24-1",
    "lat": 40.5000069,
    "lng": 141.4550975,
    "tel": "0178-27-3027",
    "url": "http://www.seijin.or.jp/",
    "pref": "青森県",
    "city": "八戸市",
    "category": "rouken",
    "serviceType": "介護老人保健施設",
    "capacity": 100,
    "openDays": [],
    "openDaysNote": ""
  },
  {
    "id": "250380003",
    "name": "介護老人保健施設はくじゅ",
    "kana": "カイゴロウジンホケンシセツハクジュ",
    "address": "青森県八戸市河原木字北沼２２－３９",
    "lat": 40.5523339,
    "lng": 141.484859,
    "tel": "0178-28-4001",
    "url": "http://sg-hakuju.com/",
    "pref": "青森県",
    "city": "八戸市",
    "category": "rouken",
    "serviceType": "介護老人保健施設",
    "capacity": 0,
    "openDays": [],
    "openDaysNote": ""
  },
  {
    "id": "252380043",
    "name": "一般財団法人　黎明郷　介護老人保健施設　つがる",
    "kana": "イッパンザイダンホウジン　レイメイキョウ　カイゴロウジンホケンシセツ　ツガル",
    "address": "青森県平川市碇ヶ関湯向川添30番地",
    "lat": 40.4785053,
    "lng": 140.6260428,
    "tel": "0172-45-3525",
    "url": "https://www.reimeikyou.jp/tsugaru/",
    "pref": "青森県",
    "city": "平川市",
    "category": "rouken",
    "serviceType": "介護老人保健施設",
    "capacity": 0,
    "openDays": [],
    "openDaysNote": ""
  },
  {
    "id": "252380027",
    "name": "介護老人保健施設のぞみ",
    "kana": "カイゴロウジンホケンシセツノゾミ",
    "address": "青森県平川市李平上山崎54-1",
    "lat": 40.6210709,
    "lng": 140.5926938,
    "tel": "0172-57-5100",
    "url": "https://www.miraikai.cloud-line.com",
    "pref": "青森県",
    "city": "平川市",
    "category": "rouken",
    "serviceType": "介護老人保健施設",
    "capacity": 0,
    "openDays": [],
    "openDaysNote": ""
  },
  {
    "id": "252380019",
    "name": "介護老人保健施設三笠ケアセンター",
    "kana": "カイゴロウジンホケンシセツミカサケアセンター",
    "address": "青森県平川市館田西和田195番地",
    "lat": 40.5866316,
    "lng": 140.5394387,
    "tel": "0172-44-8811",
    "url": "https://www.mikasaen-hp.com/",
    "pref": "青森県",
    "city": "平川市",
    "category": "rouken",
    "serviceType": "介護老人保健施設",
    "capacity": 0,
    "openDays": [],
    "openDaysNote": ""
  },
  {
    "id": "252580014",
    "name": "介護老人保健施設　えぼし",
    "kana": "カイゴロウジンホケンシセツ　エボシ",
    "address": "青森県上北郡野辺地町字川目８８－１",
    "lat": 40.8349221,
    "lng": 141.1320135,
    "tel": "0175-65-2666",
    "url": "www.tenjuen.net",
    "pref": "青森県",
    "city": "野辺地町",
    "category": "rouken",
    "serviceType": "介護老人保健施設",
    "capacity": 0,
    "openDays": [],
    "openDaysNote": ""
  },
  {
    "id": "252580030",
    "name": "介護老人保健施設　のへじ",
    "kana": "カイゴロウジンホケンシセツ　ノヘジ",
    "address": "青森県上北郡野辺地町字餅粟川原4",
    "lat": 40.8542341,
    "lng": 141.1278522,
    "tel": "0175-65-2333",
    "url": "http://www.fukushinosato.com",
    "pref": "青森県",
    "city": "野辺地町",
    "category": "rouken",
    "serviceType": "介護老人保健施設",
    "capacity": 0,
    "openDays": [],
    "openDaysNote": ""
  },
  {
    "id": "252580055",
    "name": "六ヶ所村介護老人保健施設ニッコウキスゲ",
    "kana": "ロッカショムラカイゴロウジンホケンシセツニッコウキスゲ",
    "address": "青森県上北郡六ヶ所村大字尾駮字野附986-4",
    "lat": 40.9650053,
    "lng": 141.374944,
    "tel": "0175-73-7200",
    "url": "http://rokkasyo.jadecom.or.jp",
    "pref": "青森県",
    "city": "六ヶ所村",
    "category": "rouken",
    "serviceType": "介護老人保健施設",
    "capacity": 29,
    "openDays": [],
    "openDaysNote": ""
  },
  {
    "id": "252180013",
    "name": "老人保健施設ながだい荘",
    "kana": "ロウジンホケンシセツ　ナガダイソウ",
    "address": "青森県西津軽郡鯵ヶ沢町大字長平町字甲音羽山６５－４１２",
    "lat": 40.7115014,
    "lng": 140.2859318,
    "tel": "0173-72-1122",
    "url": "http://otowakai.or.jp/",
    "pref": "青森県",
    "city": "鰺ヶ沢町",
    "category": "rouken",
    "serviceType": "介護老人保健施設",
    "capacity": null,
    "openDays": [],
    "openDaysNote": ""
  }
]