[
  {
    "id": "2250480023",
    "name": "伊東市介護老人保健施設みはらし",
    "kana": "イトウシカイゴロウジンホケンシセツミハラシ",
    "address": "伊東市岡１８７番地",
    "lat": 34.9611396,
    "lng": 139.0885402,
    "tel": "0557-37-3804",
    "url": "http://ito-miharashi.jp",
    "pref": "静岡県",
    "city": "伊東市",
    "category": "rouken",
    "serviceType": "介護老人保健施設",
    "capacity": 125,
    "openDays": [],
    "openDaysNote": ""
  },
  {
    "id": "2250480031",
    "name": "医療法人啓仁会　介護老人保健施設　いとうの杜",
    "kana": "イリョウホウジンケイジンカイ　カイゴロウジンホケンシセツ　イトウノモリ",
    "address": "静岡県伊東市湯川２８８番地９",
    "lat": 34.9746746,
    "lng": 139.0908588,
    "tel": "0557-35-4165",
    "url": "http://itou-mori.jp/",
    "pref": "静岡県",
    "city": "伊東市",
    "category": "rouken",
    "serviceType": "介護老人保健施設",
    "capacity": 137,
    "openDays": [],
    "openDaysNote": ""
  },
  {
    "id": "2250480049",
    "name": "介護老人保健施設のぞみ",
    "kana": "カイゴロウジンホケンシセツノゾミ",
    "address": "静岡県伊東市宇佐美2405-2",
    "lat": 35.0001981082439,
    "lng": 139.064419703041,
    "tel": "0557-48-0658",
    "url": "https://e-nozomi.com/",
    "pref": "静岡県",
    "city": "伊東市",
    "category": "rouken",
    "serviceType": "介護老人保健施設",
    "capacity": 0,
    "openDays": [],
    "openDaysNote": ""
  },
  {
    "id": "2250380017",
    "name": "安寧の郷",
    "kana": "アンネイノサト",
    "address": "伊豆の国市田京1258番地の44",
    "lat": 35.0087888,
    "lng": 138.9705487,
    "tel": "0558-76-8100",
    "url": "http://www.keiju-kai.or.jp/annei/",
    "pref": "静岡県",
    "city": "伊豆の国市",
    "category": "rouken",
    "serviceType": "介護老人保健施設",
    "capacity": 0,
    "openDays": [],
    "openDaysNote": ""
  },
  {
    "id": "2250280019",
    "name": "介護老人保健施設　ふれあいの下田",
    "kana": "カイゴロウジンホケンシセツ　フレアイノシモダ",
    "address": "下田市柿崎32-10",
    "lat": 34.6756482,
    "lng": 138.963595,
    "tel": "0558-27-0700",
    "url": "http://www.fureai-g.or.jp/fshimoda/",
    "pref": "静岡県",
    "city": "下田市",
    "category": "rouken",
    "serviceType": "介護老人保健施設",
    "capacity": 0,
    "openDays": [],
    "openDaysNote": ""
  },
  {
    "id": "2250180078",
    "name": "介護老人保健施設　河津おもと苑",
    "kana": "カイゴロウジンホケンシセツ　カワヅオモトエン",
    "address": "静岡県賀茂郡河津町川津筏場1512-18",
    "lat": 34.786849,
    "lng": 138.9736713,
    "tel": "0558-35-7770",
    "url": "http://www.kawazuhama-omoto.sakura.ne.jp/kaigo.html",
    "pref": "静岡県",
    "city": "河津町",
    "category": "rouken",
    "serviceType": "介護老人保健施設",
    "capacity": null,
    "openDays": [],
    "openDaysNote": ""
  },
  {
    "id": "2257480018",
    "name": "えいせい掛川介護老人保健施設",
    "kana": "エイセイカケガワカイゴロウジンホケンシセツ",
    "address": "静岡県掛川市上西郷8021番地",
    "lat": 34.8181451,
    "lng": 138.0204507,
    "tel": "0537-20-1611",
    "url": "http://www.keiseikai.org/",
    "pref": "静岡県",
    "city": "掛川市",
    "category": "rouken",
    "serviceType": "介護老人保健施設",
    "capacity": 0,
    "openDays": [],
    "openDaysNote": ""
  },
  {
    "id": "2257480026",
    "name": "介護老人保健施設　桔梗の丘",
    "kana": "カイゴロウジンホケンシセツ　キキョウノオカ",
    "address": "静岡県掛川市杉谷南１丁目１－１掛川東病院内 掛川東病院内",
    "lat": 34.762029,
    "lng": 138.0272795,
    "tel": "0537－23－7110",
    "url": "www.ryouwa-kai.com",
    "pref": "静岡県",
    "city": "掛川市",
    "category": "rouken",
    "serviceType": "介護老人保健施設",
    "capacity": 100,
    "openDays": [],
    "openDaysNote": ""
  },
  {
    "id": "2256180023",
    "name": "介護老人保健施設あおばケアガーデン",
    "kana": "カイゴロウジンホケンシセツアオバケアガーデン",
    "address": "静岡県掛川市大渕4345番地",
    "lat": 34.6694933,
    "lng": 138.0164184,
    "tel": "0537-48-0002",
    "url": "http://www.aoba-caredarden-mc.com/",
    "pref": "静岡県",
    "city": "掛川市",
    "category": "rouken",
    "serviceType": "介護老人保健施設",
    "capacity": 100,
    "openDays": [],
    "openDaysNote": ""
  },
  {
    "id": "2256280013",
    "name": "介護老人保健施設エバーグリーン掛川",
    "kana": "エバーグリーンカケガワ",
    "address": "掛川市大池680",
    "lat": 34.7759859999684,
    "lng": 137.988046604369,
    "tel": "0537-21-0550",
    "url": "https://evergreenkakegawa.com/",
    "pref": "静岡県",
    "city": "掛川市",
    "category": "rouken",
    "serviceType": "介護老人保健施設",
    "capacity": 0,
    "openDays": [],
    "openDaysNote": ""
  },
  {
    "id": "2256280021",
    "name": "介護老人保健施設神子の園",
    "kana": "ミコノソノ",
    "address": "掛川市逆川100",
    "lat": 34.7804551,
    "lng": 138.0409529,
    "tel": "0537-20-0080",
    "url": "http://www..mikosono.or.jp/miko-top.html",
    "pref": "静岡県",
    "city": "掛川市",
    "category": "rouken",
    "serviceType": "介護老人保健施設",
    "capacity": 100,
    "openDays": [],
    "openDaysNote": ""
  },
  {
    "id": "2256880010",
    "name": "介護老人保健施設　さわだの庄",
    "kana": "カイゴロウジンホケンシセツ　サワダノショウ",
    "address": "菊川市西方５５１１番地",
    "lat": 34.773995,
    "lng": 138.0721507,
    "tel": "0537-35-8889",
    "url": "http://www.seiwakai-sawada.or.jp",
    "pref": "静岡県",
    "city": "菊川市",
    "category": "rouken",
    "serviceType": "介護老人保健施設",
    "capacity": 0,
    "openDays": [],
    "openDaysNote": ""
  },
  {
    "id": "2255580033",
    "name": "コミュニティーケア吉田",
    "kana": "コミュニティーケアヨシダ",
    "address": "榛原郡吉田町川尻1700-1",
    "lat": 34.7691842,
    "lng": 138.2723913,
    "tel": "0548-34-5577",
    "url": "",
    "pref": "静岡県",
    "city": "吉田町",
    "category": "rouken",
    "serviceType": "介護老人保健施設",
    "capacity": 0,
    "openDays": [],
    "openDaysNote": ""
  },
  {
    "id": "2258480025",
    "name": "介護老人保健施設　まんさくの里",
    "kana": "カイゴロウジンホケンシセツ　マンサクノサト",
    "address": "静岡県湖西市岡崎1353-1",
    "lat": 34.7170952,
    "lng": 137.5026225,
    "tel": "（053）572-3911",
    "url": "mansakunosato.com",
    "pref": "静岡県",
    "city": "湖西市",
    "category": "rouken",
    "serviceType": "介護老人保健施設",
    "capacity": 100,
    "openDays": [],
    "openDaysNote": ""
  },
  {
    "id": "2256180015",
    "name": "老人保健施設はまおか",
    "kana": "ロウジンホケンシセツハマオカ",
    "address": "静岡県御前崎市池新田2070御前崎市総合保健福祉センター 御前崎市総合保健福祉センター",
    "lat": 34.645441,
    "lng": 138.1201691,
    "tel": "0537-86-8822",
    "url": "https://omaezaki-hospital.jp/carecenter/",
    "pref": "静岡県",
    "city": "御前崎市",
    "category": "rouken",
    "serviceType": "介護老人保健施設",
    "capacity": 0,
    "openDays": [],
    "openDaysNote": ""
  },
  {
    "id": "2251280018",
    "name": "介護老人保健施設　Kanon",
    "kana": "カイゴロウジンホケンシセツ　カノン",
    "address": "静岡県御殿場市新橋１１７５－１",
    "lat": 35.288597408172,
    "lng": 138.936409396017,
    "tel": "0550-83-3567",
    "url": "https://roken-kanon.com/",
    "pref": "静岡県",
    "city": "御殿場市",
    "category": "rouken",
    "serviceType": "介護老人保健施設",
    "capacity": 92,
    "openDays": [],
    "openDaysNote": ""
  },
  {
    "id": "2251280026",
    "name": "介護老人保健施設あすなろ",
    "kana": "カイゴロウジンホケンシセツアスナロ",
    "address": "静岡県御殿場市川島田1076-2",
    "lat": 35.2953993,
    "lng": 138.9186057,
    "tel": "0550-88-0007",
    "url": "http://www:toranomon.or.jp/",
    "pref": "静岡県",
    "city": "御殿場市",
    "category": "rouken",
    "serviceType": "介護老人保健施設",
    "capacity": 199,
    "openDays": [],
    "openDaysNote": ""
  },
  {
    "id": "2250680028",
    "name": "介護老人保健施設ラ・サンテふよう",
    "kana": "カイゴロウジンホケンシセツラ・サンテフヨウ",
    "address": "三島市佐野1205-3",
    "lat": 35.15779,
    "lng": 138.9163372,
    "tel": "055-989-7000",
    "url": "http://mchp.or.jp/lasante/",
    "pref": "静岡県",
    "city": "三島市",
    "category": "rouken",
    "serviceType": "介護老人保健施設",
    "capacity": 0,
    "openDays": [],
    "openDaysNote": ""
  },
  {
    "id": "2250680010",
    "name": "介護老人保健施設梅名の里",
    "kana": "カイゴロウジンホケンシセツウメナノサト",
    "address": "三島市梅名578番地",
    "lat": 35.0977851,
    "lng": 138.923246,
    "tel": "055-977-8686",
    "url": "http://www.umenanosato.com",
    "pref": "静岡県",
    "city": "三島市",
    "category": "rouken",
    "serviceType": "介護老人保健施設",
    "capacity": 0,
    "openDays": [],
    "openDaysNote": ""
  },
  {
    "id": "2250680036",
    "name": "三島総合病院附属介護老人保健施設",
    "kana": "ミシマソウゴウビョウインフゾクカイゴロウジンホケンシセツ",
    "address": "静岡県三島市谷田字藤久保２２７６",
    "lat": 35.123895988163,
    "lng": 138.951808130841,
    "tel": "055-983-6050",
    "url": "http://mishima.jcho.go.jp/rouken/",
    "pref": "静岡県",
    "city": "三島市",
    "category": "rouken",
    "serviceType": "介護老人保健施設",
    "capacity": 0,
    "openDays": [],
    "openDaysNote": ""
  },
  {
    "id": "2251380032",
    "name": "介護老人保健施設　おやまの杜",
    "kana": "カイゴロウジンホケンシセツ　オヤマノモリ",
    "address": "静岡県駿東郡小山町菅沼１８３９番３",
    "lat": 35.3484027,
    "lng": 138.9496116,
    "tel": "０５５０－７８－１９１１",
    "url": "http://seijukai-gp.jp",
    "pref": "静岡県",
    "city": "小山町",
    "category": "rouken",
    "serviceType": "介護老人保健施設",
    "capacity": 100,
    "openDays": [],
    "openDaysNote": ""
  },
  {
    "id": "2251380040",
    "name": "介護老人保健施設　菜の花の丘",
    "kana": "カイゴロウジンホケンシセツ　ナノハナノオカ",
    "address": "竹之下321",
    "lat": 35.3316767062301,
    "lng": 138.975367458691,
    "tel": "0550-76-5800",
    "url": "http://toranomon.or.jp/index/nanohana.html",
    "pref": "静岡県",
    "city": "小山町",
    "category": "rouken",
    "serviceType": "介護老人保健施設",
    "capacity": 100,
    "openDays": [],
    "openDaysNote": ""
  },
  {
    "id": "2251180069",
    "name": "介護療養型老人保健施設　あしたかケアセンター",
    "kana": "カイゴリョウヨウガタロウジンホケンシセツ　アシタカケアセンター",
    "address": "沼津市今沢字西畑３７２-５",
    "lat": 35.1221638,
    "lng": 138.8159315,
    "tel": "055-967-3711",
    "url": "",
    "pref": "静岡県",
    "city": "沼津市",
    "category": "rouken",
    "serviceType": "介護老人保健施設",
    "capacity": 75,
    "openDays": [],
    "openDaysNote": ""
  },
  {
    "id": "2251180028",
    "name": "介護老人保健施設　おおひら",
    "kana": "カイゴロウジンホケンシセツ　オオヒラ",
    "address": "沼津市大平1117-1",
    "lat": 35.0734736,
    "lng": 138.9036149,
    "tel": "055-934-1165",
    "url": "http://shinyoukai.or.jp/rokenoh/",
    "pref": "静岡県",
    "city": "沼津市",
    "category": "rouken",
    "serviceType": "介護老人保健施設",
    "capacity": 0,
    "openDays": [],
    "openDaysNote": ""
  },
  {
    "id": "2251180044",
    "name": "介護老人保健施設　椎路の里",
    "kana": "カイゴロウジンホケンシセツ　シイジノサト",
    "address": "静岡県沼津市東椎路32-1",
    "lat": 35.1183786,
    "lng": 138.841688,
    "tel": "055-927-3900",
    "url": "",
    "pref": "静岡県",
    "city": "沼津市",
    "category": "rouken",
    "serviceType": "介護老人保健施設",
    "capacity": 100,
    "openDays": [],
    "openDaysNote": ""
  },
  {
    "id": "2251180077",
    "name": "介護老人保健施設かどいけプラス",
    "kana": "カイゴロウジンホケンシセツカドイケプラス",
    "address": "静岡県沼津市岡一色672番地の2",
    "lat": 35.1345399,
    "lng": 138.8774794,
    "tel": "055-924-5391",
    "url": "http://seijukai-gp.jp/",
    "pref": "静岡県",
    "city": "沼津市",
    "category": "rouken",
    "serviceType": "介護老人保健施設",
    "capacity": 0,
    "openDays": [],
    "openDaysNote": ""
  },
  {
    "id": "2251180036",
    "name": "介護老人保健施設サン静浦",
    "kana": "カイゴロウジンホケンシセツサンシズウラ",
    "address": "沼津市志下３４４－１",
    "lat": 35.0617602,
    "lng": 138.8794449,
    "tel": "055-934-6000",
    "url": "http://care-net.biz/22/sun-shizuura/",
    "pref": "静岡県",
    "city": "沼津市",
    "category": "rouken",
    "serviceType": "介護老人保健施設",
    "capacity": 100,
    "openDays": [],
    "openDaysNote": ""
  },
  {
    "id": "2251180010",
    "name": "介護老人保健施設タカネ園",
    "kana": "カイゴロウジンホケンシセツタカネエン",
    "address": "沼津市鳥谷字土橋611-1",
    "lat": 35.1405324421152,
    "lng": 138.823268131799,
    "tel": "055-967-8800",
    "url": "",
    "pref": "静岡県",
    "city": "沼津市",
    "category": "rouken",
    "serviceType": "介護老人保健施設",
    "capacity": 0,
    "openDays": [],
    "openDaysNote": ""
  },
  {
    "id": "2251180051",
    "name": "介護老人保健施設ヒルズかどいけ",
    "kana": "カイゴロウジンホケンシセツヒルズカドイケ",
    "address": "沼津市岡一色672番地の2",
    "lat": 35.1345399,
    "lng": 138.8774794,
    "tel": "055-924-5391",
    "url": "http://seijukai-gp.jp/",
    "pref": "静岡県",
    "city": "沼津市",
    "category": "rouken",
    "serviceType": "介護老人保健施設",
    "capacity": 0,
    "openDays": [],
    "openDaysNote": ""
  },
  {
    "id": "2255180024",
    "name": "コミュニティーケア高草",
    "kana": "コミュニティーケアタカクサ",
    "address": "焼津市方ノ上358-1",
    "lat": 34.8927314,
    "lng": 138.3053582,
    "tel": "054-627-5588",
    "url": "https://www.sunkohkai.or.jp/takakusa/",
    "pref": "静岡県",
    "city": "焼津市",
    "category": "rouken",
    "serviceType": "介護老人保健施設",
    "capacity": 84,
    "openDays": [],
    "openDaysNote": ""
  },
  {
    "id": "2255180057",
    "name": "コミュニティーケア大井川",
    "kana": "コミュニティーケアオオイガワ",
    "address": "静岡県焼津市相川577-1",
    "lat": 34.8059327,
    "lng": 138.2649392,
    "tel": "054-625-8560",
    "url": "",
    "pref": "静岡県",
    "city": "焼津市",
    "category": "rouken",
    "serviceType": "介護老人保健施設",
    "capacity": 100,
    "openDays": [],
    "openDaysNote": ""
  },
  {
    "id": "2255180040",
    "name": "介護老人保健施設　浜当目",
    "kana": "カイゴロウジンホケンシセツ　ハマトウメ",
    "address": "静岡県焼津市浜当目4丁目12番1号",
    "lat": 34.8813234898265,
    "lng": 138.333971803705,
    "tel": "054-625-8550",
    "url": "",
    "pref": "静岡県",
    "city": "焼津市",
    "category": "rouken",
    "serviceType": "介護老人保健施設",
    "capacity": 100,
    "openDays": [],
    "openDaysNote": ""
  },
  {
    "id": "2255180032",
    "name": "介護老人保健施設ケアセンターゆうゆう",
    "kana": "カイゴロウジンホケンシセツケアセンターユウユウ",
    "address": "焼津市田尻４番地",
    "lat": 34.8302944,
    "lng": 138.314938,
    "tel": "054-625-0321",
    "url": "http://yuuyuu-kaigo.com/",
    "pref": "静岡県",
    "city": "焼津市",
    "category": "rouken",
    "serviceType": "介護老人保健施設",
    "capacity": 0,
    "openDays": [],
    "openDaysNote": ""
  },
  {
    "id": "2255180016",
    "name": "焼津ケアセンター",
    "kana": "ヤイヅケアセンター",
    "address": "焼津市中根新田１３１５",
    "lat": 34.8291035,
    "lng": 138.2869143,
    "tel": "054-623-8111",
    "url": "http://www.yaizucare.or.jp/",
    "pref": "静岡県",
    "city": "焼津市",
    "category": "rouken",
    "serviceType": "介護老人保健施設",
    "capacity": 150,
    "openDays": [],
    "openDaysNote": ""
  },
  {
    "id": "2256380029",
    "name": "介護老人保健施設　風の杜",
    "kana": "カイゴロウジンホケンシセツ　カゼノモリ",
    "address": "静岡県周智郡森町草ケ谷104-1",
    "lat": 34.8264908,
    "lng": 137.9163328,
    "tel": "0538-85-1121",
    "url": "http://www.ryokufu.jp/",
    "pref": "静岡県",
    "city": "森町",
    "category": "rouken",
    "serviceType": "介護老人保健施設",
    "capacity": 0,
    "openDays": [],
    "openDaysNote": ""
  },
  {
    "id": "2251480022",
    "name": "医療法人社団榮紀会　介護老人保健施設　みしゅくケアセンターわか葉",
    "kana": "イリョウホウジンシャダン　エイキカイ　カイゴロウジンホケンシセツ　ミシュクケアセンターワカバ",
    "address": "裾野市御宿１４７５番地",
    "lat": 35.2135801,
    "lng": 138.9104638,
    "tel": "055-997-8181",
    "url": "http://www.eikikai.or.jp/outline.html",
    "pref": "静岡県",
    "city": "裾野市",
    "category": "rouken",
    "serviceType": "介護老人保健施設",
    "capacity": 100,
    "openDays": [],
    "openDaysNote": ""
  },
  {
    "id": "2251480014",
    "name": "介護老人保健施設　あいの郷",
    "kana": "カイゴロウジンホケンシセツ　アイノサト",
    "address": "裾野市深良2929番地",
    "lat": 35.208145,
    "lng": 138.9243262,
    "tel": "055-965-4123",
    "url": "http://www.s-shinjinkai.or.jp",
    "pref": "静岡県",
    "city": "裾野市",
    "category": "rouken",
    "serviceType": "介護老人保健施設",
    "capacity": 0,
    "openDays": [],
    "openDaysNote": ""
  },
  {
    "id": "2251380024",
    "name": "夢の樹の郷",
    "kana": "ユメノキノサト",
    "address": "駿東郡清水町玉川183-1",
    "lat": 35.106012,
    "lng": 138.9079334,
    "tel": "055-971-1000",
    "url": "https://www.kaiju-kai.or.jp/yumenoki/",
    "pref": "静岡県",
    "city": "清水町",
    "category": "rouken",
    "serviceType": "介護老人保健施設",
    "capacity": 0,
    "openDays": [],
    "openDaysNote": ""
  },
  {
    "id": "2250180029",
    "name": "介護老人保健施設　しおさい",
    "kana": "カイゴロウジンホケンシセツ　シオサイ",
    "address": "賀茂郡西伊豆町仁科243-1",
    "lat": 34.7696707,
    "lng": 138.7775895,
    "tel": "0558-52-3000",
    "url": "http://www.kmcb.or.jp/index2.htm",
    "pref": "静岡県",
    "city": "西伊豆町",
    "category": "rouken",
    "serviceType": "介護老人保健施設",
    "capacity": 0,
    "openDays": [],
    "openDaysNote": ""
  },
  {
    "id": "2254280130",
    "name": "エスコートタウン静清",
    "kana": "エスコートタウンセイセイ",
    "address": "柚木９０番地の１",
    "lat": 34.9801314,
    "lng": 138.4056629,
    "tel": "054-267-1010",
    "url": "https://www.r-and-o.jp/escort-town/",
    "pref": "静岡県",
    "city": "静岡市葵区",
    "category": "rouken",
    "serviceType": "介護老人保健施設",
    "capacity": 0,
    "openDays": [],
    "openDaysNote": ""
  },
  {
    "id": "2254280114",
    "name": "エスコートタウン静清",
    "kana": "エスコートタウンセイセイ",
    "address": "静岡市葵区柚木９０番地の１",
    "lat": 34.9801314,
    "lng": 138.4056629,
    "tel": "054-267-1010",
    "url": "https://www.r-and-o.jp/escort-town/",
    "pref": "静岡県",
    "city": "静岡市葵区",
    "category": "rouken",
    "serviceType": "介護老人保健施設",
    "capacity": 0,
    "openDays": [],
    "openDaysNote": ""
  },
  {
    "id": "2254180017",
    "name": "ケアセンター瀬名",
    "kana": "ケアセンターセナ",
    "address": "静岡市葵区長尾３９番地の5",
    "lat": 35.0365392,
    "lng": 138.4281269,
    "tel": "054-264-2221",
    "url": "http://kojinkai-iryou.com/caresena/",
    "pref": "静岡県",
    "city": "静岡市葵区",
    "category": "rouken",
    "serviceType": "介護老人保健施設",
    "capacity": 0,
    "openDays": [],
    "openDaysNote": ""
  },
  {
    "id": "2254280221",
    "name": "サテライト介護老人保健施設かるむ",
    "kana": "サテライトカイゴロウジンホケンシセツカルム",
    "address": "静岡県静岡市葵区上伝馬23-6",
    "lat": 35.0100802266305,
    "lng": 138.372656918385,
    "tel": "054-266-6611",
    "url": "https://www.shouei-kai.com",
    "pref": "静岡県",
    "city": "静岡市葵区",
    "category": "rouken",
    "serviceType": "介護老人保健施設",
    "capacity": null,
    "openDays": [],
    "openDaysNote": ""
  },
  {
    "id": "2254280239",
    "name": "サテライト型小規模介護老人保健施設　リハビリパーク駿府別館",
    "kana": "サテライトガタ　ショウキボカイゴロウジンホケンシセツ　リハビリパークスンプベッカン",
    "address": "静岡市葵区平和1丁目3-6",
    "lat": 34.9884366,
    "lng": 138.364675,
    "tel": "054-204-3366",
    "url": "",
    "pref": "静岡県",
    "city": "静岡市葵区",
    "category": "rouken",
    "serviceType": "介護老人保健施設",
    "capacity": null,
    "openDays": [],
    "openDaysNote": ""
  },
  {
    "id": "2254180074",
    "name": "介護老人保健施設　あみ",
    "kana": "カイゴロウジンホケンシセツ　アミ",
    "address": "静岡市葵区福田ケ谷７３－２",
    "lat": 35.0262198,
    "lng": 138.3797368,
    "tel": "054-206-1777",
    "url": "http//www.shouei-kai.com",
    "pref": "静岡県",
    "city": "静岡市葵区",
    "category": "rouken",
    "serviceType": "介護老人保健施設",
    "capacity": 0,
    "openDays": [],
    "openDaysNote": ""
  },
  {
    "id": "2254280163",
    "name": "介護老人保健施設　リハビリパーク駿府",
    "kana": "カイゴロウジンホケンシセツ　リハビリパークスンプ",
    "address": "静岡県静岡市葵区籠上８番６号",
    "lat": 34.9894909,
    "lng": 138.3683466,
    "tel": "054-266-3611",
    "url": "http://www.rehabili-park.com/sisetu/sunpu/index.html",
    "pref": "静岡県",
    "city": "静岡市葵区",
    "category": "rouken",
    "serviceType": "介護老人保健施設",
    "capacity": 100,
    "openDays": [],
    "openDaysNote": ""
  },
  {
    "id": "2254180033",
    "name": "介護老人保健施設　楽寿",
    "kana": "カイゴロウジンホケンシセツ　　ラクジュ",
    "address": "静岡市葵区与左衛門新田98-11",
    "lat": 35.0144962,
    "lng": 138.3582109,
    "tel": "054-296-1112",
    "url": "http://www.rakuju.or.jp",
    "pref": "静岡県",
    "city": "静岡市葵区",
    "category": "rouken",
    "serviceType": "介護老人保健施設",
    "capacity": 0,
    "openDays": [],
    "openDaysNote": ""
  },
  {
    "id": "2254280148",
    "name": "介護老人保健施設　星のしずく",
    "kana": "カイゴロウジンホケンシセツ　ホシノシズク",
    "address": "静岡県静岡市葵区城北87番地",
    "lat": 35.0015868,
    "lng": 138.3939855,
    "tel": "054-200-5555",
    "url": "http://www.hoshino-shizuku.jp",
    "pref": "静岡県",
    "city": "静岡市葵区",
    "category": "rouken",
    "serviceType": "介護老人保健施設",
    "capacity": 0,
    "openDays": [],
    "openDaysNote": ""
  },
  {
    "id": "2254280213",
    "name": "介護老人保健施設　静岡徳洲苑",
    "kana": "カイゴロウジンホケンシセツ　シズオカトクシュウエン",
    "address": "牧ケ谷811－15",
    "lat": 34.9707163,
    "lng": 138.352996,
    "tel": "054-277-3300",
    "url": "https://tokushuen.com/",
    "pref": "静岡県",
    "city": "静岡市葵区",
    "category": "rouken",
    "serviceType": "介護老人保健施設",
    "capacity": 100,
    "openDays": [],
    "openDaysNote": ""
  },
  {
    "id": "2254180041",
    "name": "介護老人保健施設こみに",
    "kana": "カイゴロウジンホケンシセツ　コミニ",
    "address": "静岡市葵区赤松８－１６",
    "lat": 35.0248563,
    "lng": 138.3964019,
    "tel": "054-209-7000",
    "url": "http://www.communi.or.jp",
    "pref": "静岡県",
    "city": "静岡市葵区",
    "category": "rouken",
    "serviceType": "介護老人保健施設",
    "capacity": 0,
    "openDays": [],
    "openDaysNote": ""
  },
  {
    "id": "2254280090",
    "name": "ケアセンター池田の街",
    "kana": "ケアセンターイケダノマチ",
    "address": "静岡市駿河区池田185番地1",
    "lat": 34.9852507,
    "lng": 138.4218919,
    "tel": "054-267-2211",
    "url": "http://www.houtoku-kai.or.jp/",
    "pref": "静岡県",
    "city": "静岡市駿河区",
    "category": "rouken",
    "serviceType": "介護老人保健施設",
    "capacity": 110,
    "openDays": [],
    "openDaysNote": ""
  },
  {
    "id": "2254180066",
    "name": "介護老人保健施設　葵の里",
    "kana": "カイゴロウジンホケンシセツ　アオイノサト",
    "address": "静岡市駿河区小坂３７６－１",
    "lat": 34.9289617,
    "lng": 138.3522996,
    "tel": "054-257-2281",
    "url": "http://seijukai-gp.jp",
    "pref": "静岡県",
    "city": "静岡市駿河区",
    "category": "rouken",
    "serviceType": "介護老人保健施設",
    "capacity": 0,
    "openDays": [],
    "openDaysNote": ""
  },
  {
    "id": "2254280108",
    "name": "介護老人保健施設かりん",
    "kana": "カイゴロウジンホケンシセツカリン",
    "address": "静岡県静岡市駿河区宇津ノ谷1-1",
    "lat": 34.9391957,
    "lng": 138.3137561,
    "tel": "054-268-6666",
    "url": "http://seiyukai6666.com/",
    "pref": "静岡県",
    "city": "静岡市駿河区",
    "category": "rouken",
    "serviceType": "介護老人保健施設",
    "capacity": 0,
    "openDays": [],
    "openDaysNote": ""
  },
  {
    "id": "2254180025",
    "name": "介護老人保健施設サンライズ大浜",
    "kana": "カイゴロウジンホケンシセツサンライズオオハマ",
    "address": "静岡県静岡市駿河区西島５２８番地",
    "lat": 34.9434993,
    "lng": 138.4027893,
    "tel": "054-282-2839",
    "url": "http://care-net.biz/22/sunriseohhama/",
    "pref": "静岡県",
    "city": "静岡市駿河区",
    "category": "rouken",
    "serviceType": "介護老人保健施設",
    "capacity": 121,
    "openDays": [],
    "openDaysNote": ""
  },
  {
    "id": "2254280205",
    "name": "介護老人保健施設プルメリア",
    "kana": "カイゴロウジンホケンシセツプルメリア",
    "address": "静岡県静岡市駿河区下島３６５番1",
    "lat": 34.9458095385686,
    "lng": 138.407642880287,
    "tel": "054-236-5353",
    "url": "http://www.yamanoue-hospital.jp/affiliated/plumeria/index.html",
    "pref": "静岡県",
    "city": "静岡市駿河区",
    "category": "rouken",
    "serviceType": "介護老人保健施設",
    "capacity": 0,
    "openDays": [],
    "openDaysNote": ""
  },
  {
    "id": "2254180058",
    "name": "介護老人保健施設萩の里",
    "kana": "カイゴロウジンホケンシセツハギノサト",
    "address": "静岡市駿河区西大谷12-5",
    "lat": 34.9523736,
    "lng": 138.4269979,
    "tel": "054-236-1155",
    "url": "https://www.shujikai.jp/",
    "pref": "静岡県",
    "city": "静岡市駿河区",
    "category": "rouken",
    "serviceType": "介護老人保健施設",
    "capacity": 100,
    "openDays": [],
    "openDaysNote": ""
  },
  {
    "id": "2254280189",
    "name": "リハビリパーク清水",
    "kana": "リハビリパークシミズ",
    "address": "静岡県静岡市清水区石川135",
    "lat": 35.0381456,
    "lng": 138.4620516,
    "tel": "054-367-0101",
    "url": "http://www.rehabili-park.com/sisetu/shimizu/index.html",
    "pref": "静岡県",
    "city": "静岡市清水区",
    "category": "rouken",
    "serviceType": "介護老人保健施設",
    "capacity": 100,
    "openDays": [],
    "openDaysNote": ""
  },
  {
    "id": "2253280016",
    "name": "介護老人保健施設　あかつきの園",
    "kana": "カイゴロウジンホケンシセツ　アカツキノソノ",
    "address": "静岡市清水区駒越2883-1",
    "lat": 34.9746306,
    "lng": 138.4776157,
    "tel": "054-334-5533",
    "url": "http://www.seijin-kai.or.jp/akatsuki/",
    "pref": "静岡県",
    "city": "静岡市清水区",
    "category": "rouken",
    "serviceType": "介護老人保健施設",
    "capacity": 100,
    "openDays": [],
    "openDaysNote": ""
  },
  {
    "id": "2253280032",
    "name": "介護老人保健施設　アリス草薙",
    "kana": "カイゴロウジンホケンシセツ　アリスクサナギ",
    "address": "静岡市清水区草薙424-7",
    "lat": 34.9868788,
    "lng": 138.4554643,
    "tel": "054-347-6511",
    "url": "www.hakukeikai.jp/alice-kusanagi/",
    "pref": "静岡県",
    "city": "静岡市清水区",
    "category": "rouken",
    "serviceType": "介護老人保健施設",
    "capacity": 0,
    "openDays": [],
    "openDaysNote": ""
  },
  {
    "id": "2253280024",
    "name": "介護老人保健施設　ケア・センター　ひまわり",
    "kana": "カイゴロウジンホケンシセツ　ケア・センター　ヒマワリ",
    "address": "静岡市清水区村松原1-2-34",
    "lat": 34.9997064,
    "lng": 138.4894919,
    "tel": "054-336-3033",
    "url": "http://www.seishukai-h.com",
    "pref": "静岡県",
    "city": "静岡市清水区",
    "category": "rouken",
    "serviceType": "介護老人保健施設",
    "capacity": 100,
    "openDays": [],
    "openDaysNote": ""
  },
  {
    "id": "2254280197",
    "name": "介護老人保健施設　サテライト葵",
    "kana": "カイゴロウジンホケンシセツ　サテライトアオイ",
    "address": "静岡県静岡市清水区押切９９７－５",
    "lat": 35.034929,
    "lng": 138.4521025,
    "tel": "054-625-5222",
    "url": "http://seijukai-gp.jp/",
    "pref": "静岡県",
    "city": "静岡市清水区",
    "category": "rouken",
    "serviceType": "介護老人保健施設",
    "capacity": 0,
    "openDays": [],
    "openDaysNote": ""
  },
  {
    "id": "2254280023",
    "name": "介護老人保健施設　鶴舞乃城",
    "kana": "カイゴロウジンホケンシセツ　ツルマイノシロ",
    "address": "静岡市清水区庵原町3158番地",
    "lat": 35.0577573,
    "lng": 138.4681173,
    "tel": "054-361-1234",
    "url": "http://tsurumainoshiro.jp/",
    "pref": "静岡県",
    "city": "静岡市清水区",
    "category": "rouken",
    "serviceType": "介護老人保健施設",
    "capacity": 0,
    "openDays": [],
    "openDaysNote": ""
  },
  {
    "id": "2253280040",
    "name": "介護老人保健施設きよみの里",
    "kana": "カイゴロウジンホケンシセツキヨミノサト",
    "address": "静岡市清水区興津東町1829",
    "lat": 35.061791,
    "lng": 138.5348606,
    "tel": "054-369-7700",
    "url": "http://www.ja-shizuoka.or.jp/k-kiyomi",
    "pref": "静岡県",
    "city": "静岡市清水区",
    "category": "rouken",
    "serviceType": "介護老人保健施設",
    "capacity": 0,
    "openDays": [],
    "openDaysNote": ""
  },
  {
    "id": "2254280122",
    "name": "介護老人保健施設もくれん",
    "kana": "カイゴロウジンホケンシセツモクレン",
    "address": "草ヶ谷字クツソウヶ谷624-22",
    "lat": 35.0511715331299,
    "lng": 138.4910386993,
    "tel": "054-366-5101",
    "url": "",
    "pref": "静岡県",
    "city": "静岡市清水区",
    "category": "rouken",
    "serviceType": "介護老人保健施設",
    "capacity": 0,
    "openDays": [],
    "openDaysNote": ""
  },
  {
    "id": "2257380010",
    "name": "ナーシングホーム　オンフルール",
    "kana": "ナーシングホーム　オンフルール",
    "address": "袋井市高尾1439番地の3",
    "lat": 34.7327728,
    "lng": 137.929793,
    "tel": "0538-45-0080",
    "url": "http://koshikai.or.jp/",
    "pref": "静岡県",
    "city": "袋井市",
    "category": "rouken",
    "serviceType": "介護老人保健施設",
    "capacity": 100,
    "openDays": [],
    "openDaysNote": ""
  },
  {
    "id": "2256480019",
    "name": "袋井ケアセンター",
    "kana": "フクロイケアセンター",
    "address": "袋井市萱間933番地の1",
    "lat": 34.8105882,
    "lng": 137.8869627,
    "tel": "0538-49-4911",
    "url": "",
    "pref": "静岡県",
    "city": "袋井市",
    "category": "rouken",
    "serviceType": "介護老人保健施設",
    "capacity": 0,
    "openDays": [],
    "openDaysNote": ""
  },
  {
    "id": "2251380016",
    "name": "介護老人保健施設　長泉ケアセンター博寿園",
    "kana": "カイゴロウジンホケンシセツ　ナガイズミケアセンターハクジュエン",
    "address": "静岡県駿東郡長泉町本宿418番地の1",
    "lat": 35.1208634,
    "lng": 138.8900457,
    "tel": "055-989-1121",
    "url": "http://www.ikeda-hp-g.or.jp",
    "pref": "静岡県",
    "city": "長泉町",
    "category": "rouken",
    "serviceType": "介護老人保健施設",
    "capacity": 0,
    "openDays": [],
    "openDaysNote": ""
  },
  {
    "id": "2255480036",
    "name": "サテライト型介護老人保健施設アポロン伊太",
    "kana": "サテライトガタカイゴロウジンホケンシセツアポロンイタ",
    "address": "島田市伊太２１７０－１",
    "lat": 34.8509669,
    "lng": 138.1536409,
    "tel": "0547-37-7000",
    "url": "www.apolon-shizuoka.com",
    "pref": "静岡県",
    "city": "島田市",
    "category": "rouken",
    "serviceType": "介護老人保健施設",
    "capacity": 20,
    "openDays": [],
    "openDaysNote": ""
  },
  {
    "id": "2255480010",
    "name": "介護老人保健施設アポロン",
    "kana": "カイゴロウジンホケンシセツアポロン",
    "address": "静岡県島田市中溝町１７１４－１",
    "lat": 34.8404352,
    "lng": 138.1709834,
    "tel": "0547-34-2000",
    "url": "https://www.apolon-shizuoka.com/",
    "pref": "静岡県",
    "city": "島田市",
    "category": "rouken",
    "serviceType": "介護老人保健施設",
    "capacity": 0,
    "openDays": [],
    "openDaysNote": ""
  },
  {
    "id": "2255580017",
    "name": "介護老人保健施設エコトープ",
    "kana": "カイゴロウジンホケンシセツエコトープ",
    "address": "島田市島534-1",
    "lat": 34.8421675,
    "lng": 138.1260099,
    "tel": "0547-45-0111",
    "url": "http://www.ecotope.jp",
    "pref": "静岡県",
    "city": "島田市",
    "category": "rouken",
    "serviceType": "介護老人保健施設",
    "capacity": 150,
    "openDays": [],
    "openDaysNote": ""
  },
  {
    "id": "2255480028",
    "name": "介護老人保健施設さくら",
    "kana": "カイゴロウジンホケンシセツサクラ",
    "address": "静岡県島田市東町１３３１番地",
    "lat": 34.8346028,
    "lng": 138.2275418,
    "tel": "0547-33-0800",
    "url": "http://seiyukai6666.com/",
    "pref": "静岡県",
    "city": "島田市",
    "category": "rouken",
    "serviceType": "介護老人保健施設",
    "capacity": 150,
    "openDays": [],
    "openDaysNote": ""
  },
  {
    "id": "2255380012",
    "name": "医療法人社団　平成会　介護老人保健施設　カリタス・メンテ",
    "kana": "ヘイセイカイ　カイゴロウジンホケンシセツ　カリタス・メンテ",
    "address": "藤枝市水上123-1",
    "lat": 34.8540598,
    "lng": 138.2429044,
    "tel": "054-643-1266",
    "url": "http://www.heiseihp.com",
    "pref": "静岡県",
    "city": "藤枝市",
    "category": "rouken",
    "serviceType": "介護老人保健施設",
    "capacity": 50,
    "openDays": [],
    "openDaysNote": ""
  },
  {
    "id": "2255380020",
    "name": "介護老人保健施設　グリーンヒルズ藤枝",
    "kana": "カイゴロウジンホケンシセツ　グリーンヒルズフジエダ",
    "address": "藤枝市宮原４２０－１",
    "lat": 34.8970948,
    "lng": 138.2047576,
    "tel": "0054-639-1234",
    "url": "https://g-hills.jp",
    "pref": "静岡県",
    "city": "藤枝市",
    "category": "rouken",
    "serviceType": "介護老人保健施設",
    "capacity": 100,
    "openDays": [],
    "openDaysNote": ""
  },
  {
    "id": "2255380038",
    "name": "介護老人保健施設　フォレスタ藤枝",
    "kana": "カイゴロウジンホケンシセツ　フォレスタフジエダ",
    "address": "藤枝市小石川町２－８－１３",
    "lat": 34.8567267,
    "lng": 138.2564977,
    "tel": "054-647-3833",
    "url": "http://www.forestafujieda.jp/",
    "pref": "静岡県",
    "city": "藤枝市",
    "category": "rouken",
    "serviceType": "介護老人保健施設",
    "capacity": 0,
    "openDays": [],
    "openDaysNote": ""
  },
  {
    "id": "2255380046",
    "name": "介護老人保健施設　マインド",
    "kana": "カイゴロウジンホケンシセツ　マインド",
    "address": "藤枝市瀬戸新屋487番地の２",
    "lat": 34.857951,
    "lng": 138.2388824,
    "tel": "054-643-3601",
    "url": "http://www.heiseihp.com/mind/",
    "pref": "静岡県",
    "city": "藤枝市",
    "category": "rouken",
    "serviceType": "介護老人保健施設",
    "capacity": 0,
    "openDays": [],
    "openDaysNote": ""
  },
  {
    "id": "2255280014",
    "name": "介護老人保健施設　ユニケア岡部",
    "kana": "カイゴロウジンホケンシセツ　ユニケアオカベ",
    "address": "藤枝市岡部町内谷１４７３－３",
    "lat": 34.9069849,
    "lng": 138.2882378,
    "tel": "054-667-5555",
    "url": "https://www.e-miwasan.com/",
    "pref": "静岡県",
    "city": "藤枝市",
    "category": "rouken",
    "serviceType": "介護老人保健施設",
    "capacity": 100,
    "openDays": [],
    "openDaysNote": ""
  },
  {
    "id": "2250180045",
    "name": "介護老人保健施設なぎさ園",
    "kana": "カイゴロウジンホケンシセツナギサエン",
    "address": "賀茂郡南伊豆町湊674",
    "lat": 34.6369367288391,
    "lng": 138.893630380941,
    "tel": "0558-62-6800",
    "url": "http://www.s-m-a.or.jp/nagisa/",
    "pref": "静岡県",
    "city": "南伊豆町",
    "category": "rouken",
    "serviceType": "介護老人保健施設",
    "capacity": 0,
    "openDays": [],
    "openDaysNote": ""
  },
  {
    "id": "2250580020",
    "name": "医療法人社団ちとせ会　介護老人保健施設　葵の園・熱海",
    "kana": "イリョウホウジンシャダンチトセカイ　カイゴロウジンホケンシセツ　アオイノソノ・アタミ",
    "address": "静岡県熱海市泉６１番地の１",
    "lat": 35.1433353,
    "lng": 139.0778418,
    "tel": "０４６５－６０－２２１１",
    "url": "http://www.aoikai.jp/atami/",
    "pref": "静岡県",
    "city": "熱海市",
    "category": "rouken",
    "serviceType": "介護老人保健施設",
    "capacity": 0,
    "openDays": [],
    "openDaysNote": ""
  },
  {
    "id": "2250580038",
    "name": "介護老人保健施設　菜の花",
    "kana": "カイゴロウジンホケンシセツ　ナノハナ",
    "address": "静岡県熱海市字七尾原1173-172",
    "lat": 35.1223334094184,
    "lng": 139.079514754028,
    "tel": "0557-80-3712",
    "url": "http://seijukai-gp.jp/",
    "pref": "静岡県",
    "city": "熱海市",
    "category": "rouken",
    "serviceType": "介護老人保健施設",
    "capacity": 82,
    "openDays": [],
    "openDaysNote": ""
  },
  {
    "id": "2256680022",
    "name": "於保老健センター",
    "kana": "オホロウケンセンター",
    "address": "磐田市一色　26番地",
    "lat": 34.6779922,
    "lng": 137.8571592,
    "tel": "0538-58-2550",
    "url": "http://kinokinenkai.com",
    "pref": "静岡県",
    "city": "磐田市",
    "category": "rouken",
    "serviceType": "介護老人保健施設",
    "capacity": 80,
    "openDays": [],
    "openDaysNote": ""
  },
  {
    "id": "2256780020",
    "name": "介護老人保健施設　さくらの苑",
    "kana": "カイゴロウジンホケンシセツ　サクラノソノ",
    "address": "磐田市二之宮字仙水１１６２",
    "lat": 34.704141,
    "lng": 137.8529764,
    "tel": "0538-33-3800",
    "url": "URL:http://www.sakura-sono.info/",
    "pref": "静岡県",
    "city": "磐田市",
    "category": "rouken",
    "serviceType": "介護老人保健施設",
    "capacity": 100,
    "openDays": [],
    "openDaysNote": ""
  },
  {
    "id": "2216710109",
    "name": "介護老人保健施設　さくらんぼ",
    "kana": "カイゴロウジンホケンシセツ　サクランボ",
    "address": "静岡県磐田市国府台100番地1",
    "lat": 53.41291,
    "lng": -8.24388999999997,
    "tel": "0538-36-1700",
    "url": "",
    "pref": "静岡県",
    "city": "磐田市",
    "category": "rouken",
    "serviceType": "介護老人保健施設",
    "capacity": 0,
    "openDays": [],
    "openDaysNote": ""
  },
  {
    "id": "2256980018",
    "name": "介護老人保健施設　白梅豊岡ケアホーム",
    "kana": "カイゴロウジンホケンシセツ　シラウメトヨオカケアホーム",
    "address": "磐田市下神増183番地1",
    "lat": 34.8076044523394,
    "lng": 137.837296825131,
    "tel": "0539-62-1601",
    "url": "https://www.shiraume.or.jp",
    "pref": "静岡県",
    "city": "磐田市",
    "category": "rouken",
    "serviceType": "介護老人保健施設",
    "capacity": 100,
    "openDays": [],
    "openDaysNote": ""
  },
  {
    "id": "2256780012",
    "name": "介護老人保健施設おおふじ五幸ホーム",
    "kana": "カイゴロウジンホケンシセツオオフジゴコウホーム",
    "address": "磐田市大久保508-3",
    "lat": 34.7673528,
    "lng": 137.8581751,
    "tel": "0538-38-5511",
    "url": "https://www.toyugokokai.com/",
    "pref": "静岡県",
    "city": "磐田市",
    "category": "rouken",
    "serviceType": "介護老人保健施設",
    "capacity": 0,
    "openDays": [],
    "openDaysNote": ""
  },
  {
    "id": "2256680014",
    "name": "介護老人保健施設なかよし",
    "kana": "カイゴロウジンホケンシセツナカヨシ",
    "address": "磐田市小立野132",
    "lat": 34.727162,
    "lng": 137.8195855,
    "tel": "0538-34-6543",
    "url": "http://www.keiseikai.org/",
    "pref": "静岡県",
    "city": "磐田市",
    "category": "rouken",
    "serviceType": "介護老人保健施設",
    "capacity": 100,
    "openDays": [],
    "openDaysNote": ""
  },
  {
    "id": "2256980026",
    "name": "介護老人保健施設五洋の里",
    "kana": "カイゴロウジンホケンシセツゴヨウノサト",
    "address": "磐田市掛塚３１９０－１",
    "lat": 34.6654387,
    "lng": 137.8030027,
    "tel": "0538-67-1755",
    "url": "http://toyugokokai.com/",
    "pref": "静岡県",
    "city": "磐田市",
    "category": "rouken",
    "serviceType": "介護老人保健施設",
    "capacity": 0,
    "openDays": [],
    "openDaysNote": ""
  },
  {
    "id": "2257180121",
    "name": "みかたはら介護老人保健施設",
    "kana": "ミカタハラカイゴロウジンホケンシセツ",
    "address": "浜松市中央区三方原町675-6",
    "lat": 34.7789372,
    "lng": 137.711841,
    "tel": "053-438-5886",
    "url": "www.touikai.or.jp",
    "pref": "静岡県",
    "city": "浜松市中央区",
    "category": "rouken",
    "serviceType": "介護老人保健施設",
    "capacity": 0,
    "openDays": [],
    "openDaysNote": ""
  },
  {
    "id": "2257280061",
    "name": "みずほケアセンター",
    "kana": "ミズホケアセンター",
    "address": "静岡県浜松市中央区高丘西2-32-36",
    "lat": 34.7604502,
    "lng": 137.7000873,
    "tel": "053-414-2220",
    "url": "http://www.kotou-wakeikai.com",
    "pref": "静岡県",
    "city": "浜松市中央区",
    "category": "rouken",
    "serviceType": "介護老人保健施設",
    "capacity": 0,
    "openDays": [],
    "openDaysNote": ""
  },
  {
    "id": "2257280129",
    "name": "介護老人保健施設　ハイマート有玉",
    "kana": "カイゴロウジンホケンシセツ　ハイマートアリタマ",
    "address": "静岡県浜松市中央区有玉南町1436番地",
    "lat": 34.7524622,
    "lng": 137.7535626,
    "tel": "053-434-7877",
    "url": "http://www.okazakikai.or.jp",
    "pref": "静岡県",
    "city": "浜松市中央区",
    "category": "rouken",
    "serviceType": "介護老人保健施設",
    "capacity": null,
    "openDays": [],
    "openDaysNote": ""
  },
  {
    "id": "2257180014",
    "name": "介護老人保健施設　西山ウエルケア",
    "kana": "カイゴロウジンホケンシセツ　ニシヤマウエルケア",
    "address": "静岡県浜松市西区西山町411番地の2",
    "lat": 34.7360756,
    "lng": 137.6903106,
    "tel": "053-485-5500",
    "url": "http://www.nishiyama.or.jp",
    "pref": "静岡県",
    "city": "浜松市中央区",
    "category": "rouken",
    "serviceType": "介護老人保健施設",
    "capacity": 0,
    "openDays": [],
    "openDaysNote": ""
  },
  {
    "id": "2257180139",
    "name": "介護老人保健施設　長鶴の郷",
    "kana": "カイゴロウジンホケンシセツ　ナガツルノサト",
    "address": "浜松市中央区長鶴町290",
    "lat": 34.7146668,
    "lng": 137.7828133,
    "tel": "053-423-2700",
    "url": "http://www.nagatsuru.com",
    "pref": "静岡県",
    "city": "浜松市中央区",
    "category": "rouken",
    "serviceType": "介護老人保健施設",
    "capacity": 100,
    "openDays": [],
    "openDaysNote": ""
  },
  {
    "id": "2257180105",
    "name": "介護老人保健施設ケアセンター芳川",
    "kana": "カイゴロウジンホケンシセツケアセンターホウガワ",
    "address": "浜松市中央区鼡野町24番地",
    "lat": 34.6768859,
    "lng": 137.7638143,
    "tel": "053-426-0003",
    "url": "http://www.yamakawakai.net",
    "pref": "静岡県",
    "city": "浜松市中央区",
    "category": "rouken",
    "serviceType": "介護老人保健施設",
    "capacity": 0,
    "openDays": [],
    "openDaysNote": ""
  },
  {
    "id": "2257280053",
    "name": "介護老人保健施設平安の森",
    "kana": "カイゴロウジンホケンシセツヘイアンノモリ",
    "address": "浜松市中央区八幡町181介護老人保健施設平安の森 介護老人保健施設平安の森",
    "lat": 34.7151481,
    "lng": 137.7345834,
    "tel": "053-476-1156",
    "url": "http://www.azumakai.or.jp",
    "pref": "静岡県",
    "city": "浜松市中央区",
    "category": "rouken",
    "serviceType": "介護老人保健施設",
    "capacity": 0,
    "openDays": [],
    "openDaysNote": ""
  },
  {
    "id": "2257280095",
    "name": "坂の上ろうけん曳馬野",
    "kana": "サカノウエロウケンヒクマノ",
    "address": "浜松市中央区幸４丁目３６－３",
    "lat": 34.7459210456751,
    "lng": 137.73308748176,
    "tel": "053-416-2015",
    "url": "https://www.sakanoue-fc.jp/facility/roken-hikumano/",
    "pref": "静岡県",
    "city": "浜松市中央区",
    "category": "rouken",
    "serviceType": "介護老人保健施設",
    "capacity": 0,
    "openDays": [],
    "openDaysNote": ""
  },
  {
    "id": "2257180097",
    "name": "天王介護老人保健施設",
    "kana": "テンノウカイゴロウジンホケンシセツ",
    "address": "浜松市中央区市野町2495",
    "lat": 34.7427709,
    "lng": 137.7664386,
    "tel": "053-423-1070",
    "url": "http://www.tennou-hospital/or.jp",
    "pref": "静岡県",
    "city": "浜松市中央区",
    "category": "rouken",
    "serviceType": "介護老人保健施設",
    "capacity": 0,
    "openDays": [],
    "openDaysNote": ""
  },
  {
    "id": "2257180055",
    "name": "入野ケアセンター",
    "kana": "イリノケアセンター",
    "address": "浜松市中央区入野町6417",
    "lat": 34.6975384,
    "lng": 137.6867548,
    "tel": "053-440-1200",
    "url": "http://www.kotou-wakeikai.com",
    "pref": "静岡県",
    "city": "浜松市中央区",
    "category": "rouken",
    "serviceType": "介護老人保健施設",
    "capacity": 150,
    "openDays": [],
    "openDaysNote": ""
  },
  {
    "id": "2257180030",
    "name": "白梅ケアホーム",
    "kana": "シラウメケアホーム",
    "address": "静岡県浜松市中央区大人見町３０１１－１",
    "lat": 34.7403351,
    "lng": 137.6584865,
    "tel": "053-485-7711",
    "url": "http://www.shiraume.or.jp",
    "pref": "静岡県",
    "city": "浜松市中央区",
    "category": "rouken",
    "serviceType": "介護老人保健施設",
    "capacity": 0,
    "openDays": [],
    "openDaysNote": ""
  },
  {
    "id": "2257280038",
    "name": "白梅県居ケアホーム",
    "kana": "シラウメアガタイケアホーム",
    "address": "静岡県浜松市中央区東伊場二丁目14番35号",
    "lat": 34.6975136,
    "lng": 137.7176992,
    "tel": "053-458-2100",
    "url": "http://www.shiraume.or.jp/",
    "pref": "静岡県",
    "city": "浜松市中央区",
    "category": "rouken",
    "serviceType": "介護老人保健施設",
    "capacity": 0,
    "openDays": [],
    "openDaysNote": ""
  },
  {
    "id": "2257180071",
    "name": "白脇ケアセンター",
    "kana": "シラワキケアセンター",
    "address": "浜松市中央区白羽町1424",
    "lat": 34.6785944,
    "lng": 137.7279017,
    "tel": "053-444-3131",
    "url": "http://www.kotou-wakeikai.com/",
    "pref": "静岡県",
    "city": "浜松市中央区",
    "category": "rouken",
    "serviceType": "介護老人保健施設",
    "capacity": 0,
    "openDays": [],
    "openDaysNote": ""
  },
  {
    "id": "2256580016",
    "name": "介護老人保健施設　さいわい",
    "kana": "カイゴロウジンホケンシセツ　サイワイ",
    "address": "浜松市天竜区渡ヶ島221",
    "lat": 34.8573438153783,
    "lng": 137.793526041139,
    "tel": "053-583-1156",
    "url": "https://www.tenryu-kohseikai.or.jp/senior/saiwai/index.html",
    "pref": "静岡県",
    "city": "浜松市天竜区",
    "category": "rouken",
    "serviceType": "介護老人保健施設",
    "capacity": 0,
    "openDays": [],
    "openDaysNote": ""
  },
  {
    "id": "2257280046",
    "name": "介護老人保健施設　はるのケアセンター",
    "kana": "カイゴロウジンホケンシセツ　ハルノケアセンター",
    "address": "浜松市天竜区春野町気田776-5",
    "lat": 35.0063900878406,
    "lng": 137.907190614156,
    "tel": "053-989-1500",
    "url": "https://www.koukyukai.jp/",
    "pref": "静岡県",
    "city": "浜松市天竜区",
    "category": "rouken",
    "serviceType": "介護老人保健施設",
    "capacity": 0,
    "openDays": [],
    "openDaysNote": ""
  },
  {
    "id": "2257280020",
    "name": "介護老人保健施設　鹿島の郷",
    "kana": "カイゴロウジンホケンシセツ　カジマノサト",
    "address": "静岡県浜松市天竜区二俣町南鹿島36-1-2",
    "lat": 34.8442082,
    "lng": 137.8083606,
    "tel": "053-925-5019",
    "url": "http://seijukai-gp.jp/",
    "pref": "静岡県",
    "city": "浜松市天竜区",
    "category": "rouken",
    "serviceType": "介護老人保健施設",
    "capacity": 0,
    "openDays": [],
    "openDaysNote": ""
  },
  {
    "id": "2257280012",
    "name": "クロヤナギ介護老人保健施設",
    "kana": "クロヤナギカイゴロウジンホケンシセツ",
    "address": "静岡県浜松市浜名区三ヶ日町宇志３４－１",
    "lat": 34.8003684,
    "lng": 137.5612189,
    "tel": "053-524-1000",
    "url": "",
    "pref": "静岡県",
    "city": "浜松市浜名区",
    "category": "rouken",
    "serviceType": "介護老人保健施設",
    "capacity": 0,
    "openDays": [],
    "openDaysNote": ""
  },
  {
    "id": "2258180013",
    "name": "はまなこ介護老人保健施設",
    "kana": "ハマナコカイゴロウジンホケンシセツ",
    "address": "浜松市浜名区三ヶ日町都筑３６６４－１０",
    "lat": 34.7944616,
    "lng": 137.585751,
    "tel": "053-526-1154",
    "url": "http://www.toyookakai.or.jp",
    "pref": "静岡県",
    "city": "浜松市浜名区",
    "category": "rouken",
    "serviceType": "介護老人保健施設",
    "capacity": 0,
    "openDays": [],
    "openDaysNote": ""
  },
  {
    "id": "2258180039",
    "name": "みっかび東介護老人保健施設",
    "kana": "ミッカビヒガシカイゴロウジンホケンシセツ",
    "address": "浜松市浜名区三ケ日町宇志３４－１",
    "lat": 34.8003684,
    "lng": 137.5612189,
    "tel": "053-524-2000",
    "url": "",
    "pref": "静岡県",
    "city": "浜松市浜名区",
    "category": "rouken",
    "serviceType": "介護老人保健施設",
    "capacity": 0,
    "openDays": [],
    "openDaysNote": ""
  },
  {
    "id": "2258380019",
    "name": "介護老人保健施設　エーデルワイス",
    "kana": "カイゴロウジンホケンシセツ　エーデルワイス",
    "address": "浜松市浜名区平口２４０５",
    "lat": 34.7965640933399,
    "lng": 137.767255034918,
    "tel": "053-585-1500",
    "url": "http://www.e-del.jp",
    "pref": "静岡県",
    "city": "浜松市浜名区",
    "category": "rouken",
    "serviceType": "介護老人保健施設",
    "capacity": 0,
    "openDays": [],
    "openDaysNote": ""
  },
  {
    "id": "2277203176",
    "name": "介護老人保健施設　きらりの森",
    "kana": "カイゴロウジンホケンシセツ　キラリノモリ",
    "address": "静岡県浜松市浜名区染地台3丁目29番20号",
    "lat": 34.793159,
    "lng": 137.744404,
    "tel": "053-589-3331",
    "url": "http://www.kirarinomori.com",
    "pref": "静岡県",
    "city": "浜松市浜名区",
    "category": "rouken",
    "serviceType": "介護老人保健施設",
    "capacity": 100,
    "openDays": [],
    "openDaysNote": ""
  },
  {
    "id": "2258180021",
    "name": "介護老人保健施設　三方原ベテルホーム",
    "kana": "カイゴロウジンホケンシセツ　ミカタバラベテルホーム",
    "address": "静岡県浜松市浜名区細江町中川7421-1",
    "lat": 34.7905209,
    "lng": 137.6922592,
    "tel": "053-436-6600",
    "url": "http://www.seirei.or.jp/elderlyhome/beteru/",
    "pref": "静岡県",
    "city": "浜松市浜名区",
    "category": "rouken",
    "serviceType": "介護老人保健施設",
    "capacity": 150,
    "openDays": [],
    "openDaysNote": ""
  },
  {
    "id": "2257280103",
    "name": "介護老人保健施設あらたま",
    "kana": "カイゴロウジンホケンシセツアラタマ",
    "address": "静岡県浜松市浜名区宮口3152番地介護老人保健施設あらたま 介護老人保健施設あらたま",
    "lat": 34.82289,
    "lng": 137.772559,
    "tel": "053-582-3211",
    "url": "https://www.daizen-f.com",
    "pref": "静岡県",
    "city": "浜松市浜名区",
    "category": "rouken",
    "serviceType": "介護老人保健施設",
    "capacity": 80,
    "openDays": [],
    "openDaysNote": ""
  },
  {
    "id": "2258180047",
    "name": "介護老人保健施設花平ケアセンター",
    "kana": "カイゴロウジンホケンシセツハナダイラケアセンター",
    "address": "静岡県浜松市浜名区引佐町花平708",
    "lat": 34.8461386,
    "lng": 137.6720395,
    "tel": "053-542-4187",
    "url": "http://www.hanadaira.com",
    "pref": "静岡県",
    "city": "浜松市浜名区",
    "category": "rouken",
    "serviceType": "介護老人保健施設",
    "capacity": 0,
    "openDays": [],
    "openDaysNote": ""
  },
  {
    "id": "2257180022",
    "name": "都ケアセンター",
    "kana": "ミヤコケアセンター",
    "address": "浜松市浜名区都田町7555-47",
    "lat": 34.8035100681462,
    "lng": 137.708571304893,
    "tel": "053-428-3331",
    "url": "http://www.kaigo.or.jp",
    "pref": "静岡県",
    "city": "浜松市浜名区",
    "category": "rouken",
    "serviceType": "介護老人保健施設",
    "capacity": 0,
    "openDays": [],
    "openDaysNote": ""
  },
  {
    "id": "2252180035",
    "name": "介護老人保健施設　みゆきの苑",
    "kana": "カイゴロウジンホケンシセツ　ミユキノソノ",
    "address": "富士宮市宮原337-4",
    "lat": 35.251336,
    "lng": 138.6114601,
    "tel": "0544-28-3900",
    "url": "http://miyuki.iryou-jinshinkai.jp/",
    "pref": "静岡県",
    "city": "富士宮市",
    "category": "rouken",
    "serviceType": "介護老人保健施設",
    "capacity": 0,
    "openDays": [],
    "openDaysNote": ""
  },
  {
    "id": "2252180027",
    "name": "介護老人保健施設　富士ケアセンター",
    "kana": "カイゴロウジンホケンシセツ　フジケアセンター",
    "address": "静岡県富士宮市星山1129",
    "lat": 35.1942571,
    "lng": 138.6133969,
    "tel": "0544-22-3111",
    "url": "http://www.fujireha.org",
    "pref": "静岡県",
    "city": "富士宮市",
    "category": "rouken",
    "serviceType": "介護老人保健施設",
    "capacity": 0,
    "openDays": [],
    "openDaysNote": ""
  },
  {
    "id": "2252180068",
    "name": "介護老人保健施設いかる野",
    "kana": "カイゴロウジンホケンシセツイカルノ",
    "address": "富士宮市原７０９番地",
    "lat": 35.3128643,
    "lng": 138.5838614,
    "tel": "0544-54-3200",
    "url": "http://www.fujiyama-hosp.com",
    "pref": "静岡県",
    "city": "富士宮市",
    "category": "rouken",
    "serviceType": "介護老人保健施設",
    "capacity": 0,
    "openDays": [],
    "openDaysNote": ""
  },
  {
    "id": "2252180076",
    "name": "介護老人保健施設リバブルケア",
    "kana": "カイゴロウジンホケンシセツリバブルケア",
    "address": "静岡県富士宮市原682",
    "lat": 35.3152167,
    "lng": 138.5834058,
    "tel": "0544-54-1800",
    "url": "http://www.fujiyama-hosp.com",
    "pref": "静岡県",
    "city": "富士宮市",
    "category": "rouken",
    "serviceType": "介護老人保健施設",
    "capacity": 0,
    "openDays": [],
    "openDaysNote": ""
  },
  {
    "id": "2252180050",
    "name": "介護老人保健施設旭ヶ丘",
    "kana": "カイゴロウジンホケンシセツアサヒガオカ",
    "address": "静岡県富士宮市山宮1027番地の2",
    "lat": 35.2594614438599,
    "lng": 138.62288474418,
    "tel": "0544-58-1634",
    "url": "http://seijukai-gp.jp/",
    "pref": "静岡県",
    "city": "富士宮市",
    "category": "rouken",
    "serviceType": "介護老人保健施設",
    "capacity": 0,
    "openDays": [],
    "openDaysNote": ""
  },
  {
    "id": "2252380049",
    "name": "介護老人保健施設　かぐや富士",
    "kana": "カイゴロウジンホケンシセツ　カグヤフジ",
    "address": "富士市中里２５４６－７",
    "lat": 35.1376132,
    "lng": 138.7487632,
    "tel": "0545-32-2150",
    "url": "http://seijukai-gp.jp/w",
    "pref": "静岡県",
    "city": "富士市",
    "category": "rouken",
    "serviceType": "介護老人保健施設",
    "capacity": 0,
    "openDays": [],
    "openDaysNote": ""
  },
  {
    "id": "2252380023",
    "name": "介護老人保健施設　ききょうの郷",
    "kana": "カイゴロウジンホケンシセツ　キキョウノサト",
    "address": "富士市五貫島175番地",
    "lat": 35.1333599,
    "lng": 138.6522442,
    "tel": "0545-65-2000",
    "url": "http://www.kikyounosato.com",
    "pref": "静岡県",
    "city": "富士市",
    "category": "rouken",
    "serviceType": "介護老人保健施設",
    "capacity": 0,
    "openDays": [],
    "openDaysNote": ""
  },
  {
    "id": "2252380015",
    "name": "介護老人保健施設　ヒューマンライフ富士",
    "kana": "カイゴロウジンホケンシセツ　ヒューマンライフフジ",
    "address": "富士市大淵3901－1",
    "lat": 35.215856,
    "lng": 138.6688449,
    "tel": "0545-36-0511",
    "url": "http://www.shinfuji.or.jp/human/index.html",
    "pref": "静岡県",
    "city": "富士市",
    "category": "rouken",
    "serviceType": "介護老人保健施設",
    "capacity": 0,
    "openDays": [],
    "openDaysNote": ""
  },
  {
    "id": "2252380064",
    "name": "介護老人保健施設　富士中央ケアセンター",
    "kana": "カイゴロウジンホケンシセツ　フジチュウオウケアセンター",
    "address": "静岡県富士市厚原372-1",
    "lat": 35.1807545,
    "lng": 138.65728,
    "tel": "0545-72-3800",
    "url": "https://www.syuuseikai.or.jp/",
    "pref": "静岡県",
    "city": "富士市",
    "category": "rouken",
    "serviceType": "介護老人保健施設",
    "capacity": 100,
    "openDays": [],
    "openDaysNote": ""
  },
  {
    "id": "2252380031",
    "name": "介護老人保健施設ひろみ",
    "kana": "カイゴロウジンホケンシセツヒロミ",
    "address": "富士市大渕39-1",
    "lat": 35.1871843,
    "lng": 138.6893155,
    "tel": "0545-21-6600",
    "url": "https://www.hiromikai.jp",
    "pref": "静岡県",
    "city": "富士市",
    "category": "rouken",
    "serviceType": "介護老人保健施設",
    "capacity": 0,
    "openDays": [],
    "openDaysNote": ""
  },
  {
    "id": "2253180018",
    "name": "共立蒲原総合病院組合介護老人保健施設芙蓉の丘",
    "kana": "キョウリツカンバラソウゴウビョウインクミアイカイゴロウジンホケンシセツフヨウノオカ",
    "address": "富士市中之郷2500－1",
    "lat": 35.13327,
    "lng": 138.615405,
    "tel": "0545-56-2311",
    "url": "http://www.kanbarahp.com/",
    "pref": "静岡県",
    "city": "富士市",
    "category": "rouken",
    "serviceType": "介護老人保健施設",
    "capacity": 0,
    "openDays": [],
    "openDaysNote": ""
  },
  {
    "id": "2255880029",
    "name": "介護老人保健施設　あじさい",
    "kana": "カイゴロウジンホケンシセツアジサイ",
    "address": "静岡県牧之原市細江3208番地1",
    "lat": 34.7594064864119,
    "lng": 138.240147110451,
    "tel": "0548-23-0231",
    "url": "http://www.roken-ajisai.com/",
    "pref": "静岡県",
    "city": "牧之原市",
    "category": "rouken",
    "serviceType": "介護老人保健施設",
    "capacity": 0,
    "openDays": [],
    "openDaysNote": ""
  },
  {
    "id": "2255580025",
    "name": "介護老人保健施設　はるかぜ",
    "kana": "カイゴロウジンホケンシセツ　ハルカゼ",
    "address": "静岡県牧之原市菅ヶ谷１２４０－１",
    "lat": 34.6967374,
    "lng": 138.1754111,
    "tel": "0548-52-7771",
    "url": "",
    "pref": "静岡県",
    "city": "牧之原市",
    "category": "rouken",
    "serviceType": "介護老人保健施設",
    "capacity": null,
    "openDays": [],
    "openDaysNote": ""
  }
]