[
  {
    "id": "3751180039",
    "name": "介護老人保健施設　ポタラの森",
    "kana": "カイゴロウジンホケンシセツ　ポタラノモリ",
    "address": "香川県さぬき市志度1102番地3",
    "lat": 34.3247015,
    "lng": 134.1799851,
    "tel": "087-894-8686",
    "url": "http://www.potara.jp",
    "pref": "香川県",
    "city": "さぬき市",
    "category": "rouken",
    "serviceType": "介護老人保健施設",
    "capacity": 100,
    "openDays": [],
    "openDaysNote": ""
  },
  {
    "id": "3751180054",
    "name": "介護老人保健施設ヌーベルさんがわ",
    "kana": "カイゴロウジンホケンシセツ　ヌーベルサンガワ",
    "address": "香川県さぬき市寒川町石田東甲170番地",
    "lat": 34.2678274130981,
    "lng": 134.20267437581,
    "tel": "0879-43-1102",
    "url": "http://www.yu-sho.or.jp",
    "pref": "香川県",
    "city": "さぬき市",
    "category": "rouken",
    "serviceType": "介護老人保健施設",
    "capacity": 80,
    "openDays": [],
    "openDaysNote": ""
  },
  {
    "id": "3751180021",
    "name": "介護老人保健施設悠々荘",
    "kana": "カイゴロウジンホケンシセツユウユウソウ",
    "address": "香川県さぬき市昭和１００５－５",
    "lat": 34.2471772,
    "lng": 134.1650433,
    "tel": "0879-52-1312",
    "url": "http://you2sou.com",
    "pref": "香川県",
    "city": "さぬき市",
    "category": "rouken",
    "serviceType": "介護老人保健施設",
    "capacity": null,
    "openDays": [],
    "openDaysNote": ""
  },
  {
    "id": "3751180047",
    "name": "老人保健施設さわやか荘",
    "kana": "ロウジンホケンシセツサワヤカソウ",
    "address": "香川県さぬき市津田町津田２２０７番地",
    "lat": 34.2944693,
    "lng": 134.2389743,
    "tel": "0879-42-1150",
    "url": "https://sawayakakaigo.or.jp/",
    "pref": "香川県",
    "city": "さぬき市",
    "category": "rouken",
    "serviceType": "介護老人保健施設",
    "capacity": 80,
    "openDays": [],
    "openDaysNote": ""
  },
  {
    "id": "3751680038",
    "name": "介護老人保健施設グリーンヒル満濃",
    "kana": "カイゴロウジンホケンシセツグリーンヒルマンノウ",
    "address": "香川県仲多度郡まんのう町岸上1638番地30",
    "lat": 34.1709201,
    "lng": 133.8431883,
    "tel": "0877-73-0625",
    "url": "http://greenhillmannou.web.fc2.com/",
    "pref": "香川県",
    "city": "まんのう町",
    "category": "rouken",
    "serviceType": "介護老人保健施設",
    "capacity": 79,
    "openDays": [],
    "openDaysNote": ""
  },
  {
    "id": "3751580063",
    "name": "介護老人保健施設　あやがわ（多床室）",
    "kana": "カイゴロウジンホケンシセツ　アヤガワ（タショウシツ）",
    "address": "香川県綾歌郡綾川町陶1720番地1",
    "lat": 34.2595458,
    "lng": 133.9434777,
    "tel": "087-876-6260",
    "url": "https://www.jadecom.or.jp/hospital/ayagawa.html",
    "pref": "香川県",
    "city": "綾川町",
    "category": "rouken",
    "serviceType": "介護老人保健施設",
    "capacity": 30,
    "openDays": [],
    "openDaysNote": ""
  },
  {
    "id": "3751580055",
    "name": "介護老人保健施設あやがわ",
    "kana": "カイゴロウジンホケンシセツアヤガワ",
    "address": "香川県綾歌郡綾川町陶1720番地1",
    "lat": 34.2595458,
    "lng": 133.9434777,
    "tel": "087-876-6260",
    "url": "https://www.jadecom.or.jp/hospital/ayagawa.html",
    "pref": "香川県",
    "city": "綾川町",
    "category": "rouken",
    "serviceType": "介護老人保健施設",
    "capacity": 30,
    "openDays": [],
    "openDaysNote": ""
  },
  {
    "id": "3751580030",
    "name": "介護老人保健施設ライトハートいきいき荘",
    "kana": "カイゴロウジンホケンシセツライトハートイキイキソウ",
    "address": "綾歌郡宇多津町浜5番丁53-1",
    "lat": 34.3071874,
    "lng": 133.812731,
    "tel": "0877-49-7255",
    "url": "http://www.utazufukushikai.or.jp",
    "pref": "香川県",
    "city": "宇多津町",
    "category": "rouken",
    "serviceType": "介護老人保健施設",
    "capacity": 80,
    "openDays": [],
    "openDaysNote": ""
  },
  {
    "id": "3750580015",
    "name": "介護老人保健施設　はがみ苑",
    "kana": "カイゴロウジンホケンシセツ　ハガミエン",
    "address": "香川県観音寺市原町1273番地3",
    "lat": 34.1063298,
    "lng": 133.6929085,
    "tel": "0875-57-1220",
    "url": "http://care-net.biz/37/hagami/",
    "pref": "香川県",
    "city": "観音寺市",
    "category": "rouken",
    "serviceType": "介護老人保健施設",
    "capacity": 100,
    "openDays": [],
    "openDaysNote": ""
  },
  {
    "id": "3751780010",
    "name": "介護老人保健施設　ひうち荘",
    "kana": "カイゴロウジンホケンシセツヒウチソウ",
    "address": "香川県観音寺市大野原町内野々394番地1",
    "lat": 34.0600466,
    "lng": 133.7006763,
    "tel": "0875-54-5101",
    "url": "http://onoharahukushi.com",
    "pref": "香川県",
    "city": "観音寺市",
    "category": "rouken",
    "serviceType": "介護老人保健施設",
    "capacity": 100,
    "openDays": [],
    "openDaysNote": ""
  },
  {
    "id": "3750580031",
    "name": "介護老人保健施設かわた",
    "kana": "カイゴロウジンホケンシセツカワタ",
    "address": "香川県観音寺市茂木町五丁目5番32号",
    "lat": 36.204824,
    "lng": 138.252924,
    "tel": "0875-25-6998",
    "url": "",
    "pref": "香川県",
    "city": "観音寺市",
    "category": "rouken",
    "serviceType": "介護老人保健施設",
    "capacity": 57,
    "openDays": [],
    "openDaysNote": ""
  },
  {
    "id": "3750580023",
    "name": "介護老人保健施設観音寺ケアセンター",
    "kana": "カイゴロウジンホケンシセツカンオンジケアセンター",
    "address": "観音寺市村黒町750番地",
    "lat": 34.1329518,
    "lng": 133.6660723,
    "tel": "0875-23-2311",
    "url": "",
    "pref": "香川県",
    "city": "観音寺市",
    "category": "rouken",
    "serviceType": "介護老人保健施設",
    "capacity": 0,
    "openDays": [],
    "openDaysNote": ""
  },
  {
    "id": "3751780051",
    "name": "三豊総合病院企業団介護老人保健施設わたつみ苑",
    "kana": "ミトヨソウゴウビョウインキギョウダンカイゴロウジンホケンシセツワタツミエン",
    "address": "香川県観音寺市豊浜町姫浜1260番地1",
    "lat": 34.0811052,
    "lng": 133.6420279,
    "tel": "0875-52-6665",
    "url": "http://www.mitoyo-hosp.jp",
    "pref": "香川県",
    "city": "観音寺市",
    "category": "rouken",
    "serviceType": "介護老人保健施設",
    "capacity": 80,
    "openDays": [],
    "openDaysNote": ""
  },
  {
    "id": "3750280020",
    "name": "介護老人保健施設　あおのやま",
    "kana": "カイゴロウジンホケンシセツ　アオノヤマ",
    "address": "香川県丸亀市土器町東四丁目７８番地３",
    "lat": 34.2919559,
    "lng": 133.8201389,
    "tel": "0877-25-1500",
    "url": "https://houjyuen.web.fc2.com/index.html",
    "pref": "香川県",
    "city": "丸亀市",
    "category": "rouken",
    "serviceType": "介護老人保健施設",
    "capacity": 60,
    "openDays": [],
    "openDaysNote": ""
  },
  {
    "id": "3751580014",
    "name": "介護老人保健施設　瀬戸荘",
    "kana": "カイゴロウジンホケンシセツ　セトソウ",
    "address": "丸亀市綾歌町岡田下３６５",
    "lat": 34.2235086,
    "lng": 133.8613299,
    "tel": "0877-86-3800",
    "url": "http://www.netwave.or.jp/~setosou/",
    "pref": "香川県",
    "city": "丸亀市",
    "category": "rouken",
    "serviceType": "介護老人保健施設",
    "capacity": 74,
    "openDays": [],
    "openDaysNote": ""
  },
  {
    "id": "3751580048",
    "name": "介護老人保健施設　桃源苑",
    "kana": "カイゴロウジンホケンシセツ　トウゲンエン",
    "address": "香川県丸亀市飯山町下法軍寺８６５－１",
    "lat": 34.252594,
    "lng": 133.8553879,
    "tel": "0877-56-8111",
    "url": "http://www.kensui-kai.or.jp/tougenen/",
    "pref": "香川県",
    "city": "丸亀市",
    "category": "rouken",
    "serviceType": "介護老人保健施設",
    "capacity": 80,
    "openDays": [],
    "openDaysNote": ""
  },
  {
    "id": "3750280012",
    "name": "介護老人保健施設　福寿荘",
    "kana": "カイゴロウジンホケンシセツ　フクジュソウ",
    "address": "香川県丸亀市柞原町187番地1",
    "lat": 34.2663979,
    "lng": 133.8059358,
    "tel": "0877-25-5757",
    "url": "https://www.mifune-hp.jp/",
    "pref": "香川県",
    "city": "丸亀市",
    "category": "rouken",
    "serviceType": "介護老人保健施設",
    "capacity": 0,
    "openDays": [],
    "openDaysNote": ""
  },
  {
    "id": "3750280038",
    "name": "介護老人保健施設すこやか苑",
    "kana": "カイゴロウジンホケンシセツスコヤカエン",
    "address": "香川県丸亀市郡家町2472番",
    "lat": 34.2558408,
    "lng": 133.8097022,
    "tel": "0877-28-1811",
    "url": "http://www.k-ih.com",
    "pref": "香川県",
    "city": "丸亀市",
    "category": "rouken",
    "serviceType": "介護老人保健施設",
    "capacity": 55,
    "openDays": [],
    "openDaysNote": ""
  },
  {
    "id": "3751680012",
    "name": "介護老人保健施設　ふぁみりえ",
    "kana": "カイゴロウジンホケンシセツ　ファミリエ",
    "address": "香川県仲多度郡琴平町378番地1",
    "lat": 34.193034293876,
    "lng": 133.817458206824,
    "tel": "0877-75-6565",
    "url": "http://www:ritmo.or.jp/ohnishi",
    "pref": "香川県",
    "city": "琴平町",
    "category": "rouken",
    "serviceType": "介護老人保健施設",
    "capacity": 80,
    "openDays": [],
    "openDaysNote": ""
  },
  {
    "id": "3750180014",
    "name": "医療法人　和光会　高松老人保健施設フローラ",
    "kana": "イリョウホウジン　ワコウカイ　タカマツロウジンホケンシセツフローラ",
    "address": "香川県高松市東ハゼ町８３０－１",
    "lat": 34.3204982,
    "lng": 134.0392142,
    "tel": "087-865-2600",
    "url": "http://k-rouken.com/facilities/index.php?facility_id=2",
    "pref": "香川県",
    "city": "高松市",
    "category": "rouken",
    "serviceType": "介護老人保健施設",
    "capacity": 80,
    "openDays": [],
    "openDaysNote": ""
  },
  {
    "id": "3751380019",
    "name": "医療法人社団光風会介護老人保健施設　コリーナ",
    "kana": "イリョウホウジンシャダンコウフウカイカイゴロウジンホケンシセツコリーナ",
    "address": "高松市牟礼町原943-1",
    "lat": 34.330995,
    "lng": 134.1502587,
    "tel": "087-845-7750",
    "url": "",
    "pref": "香川県",
    "city": "高松市",
    "category": "rouken",
    "serviceType": "介護老人保健施設",
    "capacity": 80,
    "openDays": [],
    "openDaysNote": ""
  },
  {
    "id": "3750180063",
    "name": "介護老人保健施設　ヴィヴァン",
    "kana": "カイゴロウジンホケンシセツ　ヴィヴァン",
    "address": "香川県高松市木太町4443-1",
    "lat": 34.3099799,
    "lng": 134.0792006,
    "tel": "087-869-1111",
    "url": "http://vivant.jp.net/",
    "pref": "香川県",
    "city": "高松市",
    "category": "rouken",
    "serviceType": "介護老人保健施設",
    "capacity": 60,
    "openDays": [],
    "openDaysNote": ""
  },
  {
    "id": "3750180089",
    "name": "介護老人保健施設　さつき荘",
    "kana": "カイゴロウジンホケンシセツ　サツキソウ",
    "address": "高松市三谷町1680番地",
    "lat": 34.2798723,
    "lng": 134.059942,
    "tel": "087-840-1122",
    "url": "https://seimeikai.jp/satsuki/",
    "pref": "香川県",
    "city": "高松市",
    "category": "rouken",
    "serviceType": "介護老人保健施設",
    "capacity": 80,
    "openDays": [],
    "openDaysNote": ""
  },
  {
    "id": "3750180154",
    "name": "介護老人保健施設　ハートフルこくぶんじ荘",
    "kana": "カイゴロウジンホケンシセツ　ハートフルコクブンジソウ",
    "address": "香川県高松市国分寺町新名2081番地1",
    "lat": 34.2730054,
    "lng": 133.9523877,
    "tel": "087-874-7575",
    "url": "",
    "pref": "香川県",
    "city": "高松市",
    "category": "rouken",
    "serviceType": "介護老人保健施設",
    "capacity": 80,
    "openDays": [],
    "openDaysNote": ""
  },
  {
    "id": "3750180048",
    "name": "介護老人保健施設　ハピネス",
    "kana": "カイゴロウジンホケンシセツ　ハピネス",
    "address": "香川県高松市中山町741番地1",
    "lat": 34.3562904,
    "lng": 133.972836,
    "tel": "087-881-8123",
    "url": "http://www.shinboukai.net/",
    "pref": "香川県",
    "city": "高松市",
    "category": "rouken",
    "serviceType": "介護老人保健施設",
    "capacity": 80,
    "openDays": [],
    "openDaysNote": ""
  },
  {
    "id": "3750180139",
    "name": "介護老人保健施設　まゆみの里",
    "kana": "カイゴロウジンホケンシセツマユミノサト",
    "address": "香川県高松市木太町２６９１番１",
    "lat": 34.3401188,
    "lng": 134.0814937,
    "tel": "087-863-7282",
    "url": "http://satokikai.jp/sato/",
    "pref": "香川県",
    "city": "高松市",
    "category": "rouken",
    "serviceType": "介護老人保健施設",
    "capacity": 60,
    "openDays": [],
    "openDaysNote": ""
  },
  {
    "id": "3751480033",
    "name": "介護老人保健施設　鮎の里",
    "kana": "カイゴロウジンホケンシセツ　アユノサト",
    "address": "香川県高松市香川町川東上150番地1",
    "lat": 34.2137707,
    "lng": 134.0343685,
    "tel": "087-840-5000",
    "url": "http://www.jinsenkai.jp/ayu/",
    "pref": "香川県",
    "city": "高松市",
    "category": "rouken",
    "serviceType": "介護老人保健施設",
    "capacity": 80,
    "openDays": [],
    "openDaysNote": ""
  },
  {
    "id": "3751480017",
    "name": "介護老人保健施設　香南苑",
    "kana": "カイゴロウジンホケンシセツ　コウナンエン",
    "address": "香川県高松市香南町池内701番地",
    "lat": 34.2503029,
    "lng": 133.997615097623,
    "tel": "087-879-9700",
    "url": "https://kounanen.com",
    "pref": "香川県",
    "city": "高松市",
    "category": "rouken",
    "serviceType": "介護老人保健施設",
    "capacity": 80,
    "openDays": [],
    "openDaysNote": ""
  },
  {
    "id": "3750180147",
    "name": "介護老人保健施設　渡の里",
    "kana": "カイゴロウジンホケンシセツ　ワタシノサト",
    "address": "高松市香川町浅野2061番地",
    "lat": 34.2513122,
    "lng": 134.0418804,
    "tel": "087-888-8555",
    "url": "http://www.jinsenkai.jp/watashi/",
    "pref": "香川県",
    "city": "高松市",
    "category": "rouken",
    "serviceType": "介護老人保健施設",
    "capacity": 60,
    "openDays": [],
    "openDaysNote": ""
  },
  {
    "id": "3750180030",
    "name": "介護老人保健施設　明けの星",
    "kana": "カイゴロウジンホケンシセツ　アケノホシ",
    "address": "香川県高松市番町三丁目３－１",
    "lat": 34.3427767,
    "lng": 134.0422992,
    "tel": "087-861-3731",
    "url": "http://akenohoshi.main.jp/",
    "pref": "香川県",
    "city": "高松市",
    "category": "rouken",
    "serviceType": "介護老人保健施設",
    "capacity": 100,
    "openDays": [],
    "openDaysNote": ""
  },
  {
    "id": "3750180113",
    "name": "介護老人保健施設サンフラワー",
    "kana": "カイゴロウジンホケンシセツサンフラワー",
    "address": "香川県高松市一宮町1556-2",
    "lat": 34.2902795898141,
    "lng": 134.02010742209,
    "tel": "087-885-5000",
    "url": "http://www.tanimoto-c.or.jp/connection/",
    "pref": "香川県",
    "city": "高松市",
    "category": "rouken",
    "serviceType": "介護老人保健施設",
    "capacity": 60,
    "openDays": [],
    "openDaysNote": ""
  },
  {
    "id": "3750180055",
    "name": "介護老人保健施設サンライズ屋島",
    "kana": "カイゴロウジンホケンシセツ　サンライズヤシマ",
    "address": "香川県高松市新田町甲2723番地2",
    "lat": 34.3292505,
    "lng": 134.0993031,
    "tel": "087-841-8090",
    "url": "https://www.sunrise-yashima.com",
    "pref": "香川県",
    "city": "高松市",
    "category": "rouken",
    "serviceType": "介護老人保健施設",
    "capacity": 80,
    "openDays": [],
    "openDaysNote": ""
  },
  {
    "id": "3750180170",
    "name": "介護老人保健施設らく楽八栗の里",
    "kana": "カイゴロウジンホケンシセツラクラクヤクリノサト",
    "address": "香川県高松市牟礼町牟礼239番地3",
    "lat": 34.3398562,
    "lng": 134.1361661,
    "tel": "087-845-0888",
    "url": "http://www.rakuraku-group.jp/",
    "pref": "香川県",
    "city": "高松市",
    "category": "rouken",
    "serviceType": "介護老人保健施設",
    "capacity": 60,
    "openDays": [],
    "openDaysNote": ""
  },
  {
    "id": "3750180097",
    "name": "介護老人保健施設ロイヤル三好",
    "kana": "カイゴロウジンホケンシセツロイヤルミヨシ",
    "address": "香川県高松市下田井町628-1",
    "lat": 34.2902047,
    "lng": 134.0891968,
    "tel": "087-847-1611",
    "url": "",
    "pref": "香川県",
    "city": "高松市",
    "category": "rouken",
    "serviceType": "介護老人保健施設",
    "capacity": 50,
    "openDays": [],
    "openDaysNote": ""
  },
  {
    "id": "3750180071",
    "name": "介護老人保健施設虹の里",
    "kana": "カイゴロウジンホケンシセツニジノサト",
    "address": "香川県高松市栗林町一丁目3番24号",
    "lat": 34.3318083,
    "lng": 134.0468217,
    "tel": "087-862-6541",
    "url": "https://kagawa.coop",
    "pref": "香川県",
    "city": "高松市",
    "category": "rouken",
    "serviceType": "介護老人保健施設",
    "capacity": 51,
    "openDays": [],
    "openDaysNote": ""
  },
  {
    "id": "3751480025",
    "name": "老人保健施設　健祥会バーデン",
    "kana": "ロウジンホケンシセツ　ケンショウカイバーデン",
    "address": "香川県高松市塩江町安原上東137番地",
    "lat": 34.1712382,
    "lng": 134.0818203,
    "tel": "087-893-1220",
    "url": "https://www.kenshokai.group/",
    "pref": "香川県",
    "city": "高松市",
    "category": "rouken",
    "serviceType": "介護老人保健施設",
    "capacity": 100,
    "openDays": [],
    "openDaysNote": ""
  },
  {
    "id": "3750380028",
    "name": "介護老人保健施設　小山荘",
    "kana": "カイゴロウジンホケンシセツ　コヤマソウ",
    "address": "香川県坂出市小山町1番62号",
    "lat": 34.2994335,
    "lng": 133.8525067,
    "tel": "0877-46-5300",
    "url": "https://koyamasou.jimdofree.com",
    "pref": "香川県",
    "city": "坂出市",
    "category": "rouken",
    "serviceType": "介護老人保健施設",
    "capacity": 0,
    "openDays": [],
    "openDaysNote": ""
  },
  {
    "id": "3750380044",
    "name": "介護老人保健施設　松寿荘",
    "kana": "カイゴロウジンホケンシセツ　ショウジュソウ",
    "address": "香川県坂出市大屋冨町３１００番地２６",
    "lat": 34.3559393,
    "lng": 133.8935142,
    "tel": "0877-47-4611",
    "url": "http://www.shouju.or.jp/",
    "pref": "香川県",
    "city": "坂出市",
    "category": "rouken",
    "serviceType": "介護老人保健施設",
    "capacity": 80,
    "openDays": [],
    "openDaysNote": ""
  },
  {
    "id": "3750380051",
    "name": "介護老人保健施設　城山苑",
    "kana": "カイゴロウジンホケンシセツ　キヤマエン",
    "address": "坂出市川津町1493番地",
    "lat": 34.2917282,
    "lng": 133.8699857,
    "tel": "0877-45-1178",
    "url": "http://www.kbn.ne.jp/home/kym0007",
    "pref": "香川県",
    "city": "坂出市",
    "category": "rouken",
    "serviceType": "介護老人保健施設",
    "capacity": 0,
    "openDays": [],
    "openDaysNote": ""
  },
  {
    "id": "3750380036",
    "name": "介護老人保健施設五色台",
    "kana": "カイゴロウジンホケンシセツゴシキダイ",
    "address": "香川県坂出市加茂町194番地1",
    "lat": 34.3025945,
    "lng": 133.9226386,
    "tel": "0877-48-3300",
    "url": "http://www.goshikidai.or.jp",
    "pref": "香川県",
    "city": "坂出市",
    "category": "rouken",
    "serviceType": "介護老人保健施設",
    "capacity": 100,
    "openDays": [],
    "openDaysNote": ""
  },
  {
    "id": "3751780036",
    "name": "介護老人保健施設　ハートフルあいあい荘",
    "kana": "カイゴロウジンホケンシセツ　ハートフルアイアイソウ",
    "address": "香川県三豊市仁尾町仁尾辛42-14",
    "lat": 34.1922079,
    "lng": 133.6438864,
    "tel": "0875-82-2000",
    "url": "http://www.junshinkai.com/facilitie/heartfull_a.html",
    "pref": "香川県",
    "city": "三豊市",
    "category": "rouken",
    "serviceType": "介護老人保健施設",
    "capacity": 80,
    "openDays": [],
    "openDaysNote": ""
  },
  {
    "id": "3751780044",
    "name": "介護老人保健施設　白寿の杜",
    "kana": "カイゴロウジンホケンシセツ　ハクジュノモリ",
    "address": "香川県三豊市詫間町詫間1338番地170",
    "lat": 34.2221153,
    "lng": 133.6732607,
    "tel": "0875-83-3030",
    "url": "http://hakujunomori.jp",
    "pref": "香川県",
    "city": "三豊市",
    "category": "rouken",
    "serviceType": "介護老人保健施設",
    "capacity": 77,
    "openDays": [],
    "openDaysNote": ""
  },
  {
    "id": "3751780028",
    "name": "介護老人保健施設みの荘",
    "kana": "カイゴロウジンホケンシセツミノソウ",
    "address": "香川県三豊市三野町大見乙９１番地８",
    "lat": 34.2266288,
    "lng": 133.7206251,
    "tel": "0875-72-1200",
    "url": "http://minofukushikai.sun-age.or.jp",
    "pref": "香川県",
    "city": "三豊市",
    "category": "rouken",
    "serviceType": "介護老人保健施設",
    "capacity": 80,
    "openDays": [],
    "openDaysNote": ""
  },
  {
    "id": "3750880019",
    "name": "介護老人保健施設宝壽苑",
    "kana": "カイゴロウジンホケンシセツホウジュエン",
    "address": "香川県三豊市高瀬町上高瀬712番地3",
    "lat": 34.1984061,
    "lng": 133.7262566,
    "tel": "0875-56-2522",
    "url": "http://houjyukai.info/",
    "pref": "香川県",
    "city": "三豊市",
    "category": "rouken",
    "serviceType": "介護老人保健施設",
    "capacity": 50,
    "openDays": [],
    "openDaysNote": ""
  },
  {
    "id": "3751280011",
    "name": "介護老人保健施設　豊寿園",
    "kana": "カイゴロウジンホケンシセツ　ホウジュエン",
    "address": "香川県小豆郡小豆島町池田799",
    "lat": 34.4841259,
    "lng": 134.2300209,
    "tel": "0879-75-1677",
    "url": "kaigosite@mx82.tiki.ne.jp",
    "pref": "香川県",
    "city": "小豆島町",
    "category": "rouken",
    "serviceType": "介護老人保健施設",
    "capacity": 70,
    "openDays": [],
    "openDaysNote": ""
  },
  {
    "id": "3751280037",
    "name": "介護老人保健施設うちのみ",
    "kana": "カイゴロウジンホケンシセツウチノミ",
    "address": "香川県小豆郡小豆島町片城甲44番地95",
    "lat": 34.4793503908167,
    "lng": 134.308230737434,
    "tel": "0879-82-7031",
    "url": "",
    "pref": "香川県",
    "city": "小豆島町",
    "category": "rouken",
    "serviceType": "介護老人保健施設",
    "capacity": 28,
    "openDays": [],
    "openDaysNote": ""
  },
  {
    "id": "3750480026",
    "name": "介護老人保健施設　ハートフルねんりん荘",
    "kana": "カイゴロウジンホケンシセツ　ハートフルネンリンソウ",
    "address": "香川県善通寺市中村町851-1",
    "lat": 34.244683,
    "lng": 133.763865,
    "tel": "0877-63-3111",
    "url": "http://www.junshinkai/com/facilitie/heartfull_n.html",
    "pref": "香川県",
    "city": "善通寺市",
    "category": "rouken",
    "serviceType": "介護老人保健施設",
    "capacity": 80,
    "openDays": [],
    "openDaysNote": ""
  },
  {
    "id": "3751680020",
    "name": "介護老人保健施設　やすらぎの森",
    "kana": "カイゴロウジンホケンシセツ　ヤスラギノモリ",
    "address": "香川県仲多度郡多度津町寿町７番３号",
    "lat": 34.2701493,
    "lng": 133.7588266,
    "tel": "0877-32-1020",
    "url": "http://katouhp.net/",
    "pref": "香川県",
    "city": "多度津町",
    "category": "rouken",
    "serviceType": "介護老人保健施設",
    "capacity": 99,
    "openDays": [],
    "openDaysNote": ""
  },
  {
    "id": "3751180062",
    "name": "介護老人保健施設ひまわり",
    "kana": "カイゴロウジンホケンシセツヒマワリ",
    "address": "東かがわ市三本松１６６５－１",
    "lat": 34.2471521,
    "lng": 134.3379557,
    "tel": "0879-25-6600",
    "url": "http://www.ohta-medical.org/roken/",
    "pref": "香川県",
    "city": "東かがわ市",
    "category": "rouken",
    "serviceType": "介護老人保健施設",
    "capacity": 80,
    "openDays": [],
    "openDaysNote": ""
  },
  {
    "id": "3751180013",
    "name": "介護老人保健施設リリックケアセンター",
    "kana": "カイゴロウジンホケンシセツリリックケアセンター",
    "address": "香川県東かがわ市湊1867番地2",
    "lat": 34.2427867177924,
    "lng": 134.36100227158,
    "tel": "0879-25-0103",
    "url": "http://www.zuishou.net/",
    "pref": "香川県",
    "city": "東かがわ市",
    "category": "rouken",
    "serviceType": "介護老人保健施設",
    "capacity": 0,
    "openDays": [],
    "openDaysNote": ""
  }
]