[
  {
    "id": "3952480022",
    "name": "いの町立介護老人保健施設仁淀清流苑",
    "kana": "イノチョウリツカイゴロウジンホケンシセツニヨドセイリュウエン",
    "address": "高知県吾川郡いの町1482-2",
    "lat": 33.5477047,
    "lng": 133.4328863,
    "tel": "088-893-3443",
    "url": "http://www.town.ino.kochi.jp/niyodo-hospital/seiryuen.html",
    "pref": "高知県",
    "city": "いの町",
    "category": "rouken",
    "serviceType": "介護老人保健施設",
    "capacity": 0,
    "openDays": [],
    "openDaysNote": ""
  },
  {
    "id": "3952580011",
    "name": "介護老人保健施設　ライブリーハウス輝",
    "kana": "カイゴロウジンホケンシセツ　ライブリーハウスカガヤキ",
    "address": "高岡郡越知町越知甲１６６７番地３",
    "lat": 33.5307477,
    "lng": 133.2530185,
    "tel": "0889-26-1003",
    "url": "http://www.kitajima-hp.com",
    "pref": "高知県",
    "city": "越知町",
    "category": "rouken",
    "serviceType": "介護老人保健施設",
    "capacity": 0,
    "openDays": [],
    "openDaysNote": ""
  },
  {
    "id": "3952080038",
    "name": "介護老人保健施設リゾートヒルやわらぎ",
    "kana": "カイゴロウジンホケンシセツリゾートヒルヤワラギ",
    "address": "高知県安芸郡芸西村和食甲4249",
    "lat": 33.5210571,
    "lng": 133.8201185,
    "tel": "0887-33-3720",
    "url": "https：//okura-kai.com/",
    "pref": "高知県",
    "city": "芸西村",
    "category": "rouken",
    "serviceType": "介護老人保健施設",
    "capacity": 0,
    "openDays": [],
    "openDaysNote": ""
  },
  {
    "id": "3952180028",
    "name": "介護老人保健施設　あいの里",
    "kana": "カイゴロウジンホケンシセツ　アイノサト",
    "address": "高知県香南市香我美町岸本328-174",
    "lat": 33.5393098,
    "lng": 133.7315445,
    "tel": "0887-54-5555",
    "url": "https://www.chisio-group.or.jp/ainosato/",
    "pref": "高知県",
    "city": "香南市",
    "category": "rouken",
    "serviceType": "介護老人保健施設",
    "capacity": 0,
    "openDays": [],
    "openDaysNote": ""
  },
  {
    "id": "3952180036",
    "name": "老人保健施設　しお風",
    "kana": "ロウジンホケンシセツシオカゼ",
    "address": "高知県香南市赤岡町1186番地1",
    "lat": 33.54697,
    "lng": 133.7301389,
    "tel": "0887-55-2688",
    "url": "https://www.kounankai.jp/",
    "pref": "高知県",
    "city": "香南市",
    "category": "rouken",
    "serviceType": "介護老人保健施設",
    "capacity": 0,
    "openDays": [],
    "openDaysNote": ""
  },
  {
    "id": "3952180044",
    "name": "介護老人保健施設　　あじさいの里",
    "kana": "カイゴロウジンホケンシセツ　アジサイノサト",
    "address": "高知県香美市香北町美良布1317番地",
    "lat": 33.6482639,
    "lng": 133.7795931,
    "tel": "0887-57-1465",
    "url": "https://www.iwagawakai.com/",
    "pref": "高知県",
    "city": "香美市",
    "category": "rouken",
    "serviceType": "介護老人保健施設",
    "capacity": 50,
    "openDays": [],
    "openDaysNote": ""
  },
  {
    "id": "3952180010",
    "name": "介護老人保健施設　とさやまだファミリア",
    "kana": "カイゴロウジンホケンシセツ　トサヤマダファミリア",
    "address": "高知県香美市土佐山田町548",
    "lat": 33.6085984,
    "lng": 133.675557,
    "tel": "0887-53-2500",
    "url": "http://www.kuzume.or.jp/",
    "pref": "高知県",
    "city": "香美市",
    "category": "rouken",
    "serviceType": "介護老人保健施設",
    "capacity": 95,
    "openDays": [],
    "openDaysNote": ""
  },
  {
    "id": "3950180087",
    "name": "介護老人保健施設　あいおい",
    "kana": "カイゴロウジンホケンシセツ　アイオイ",
    "address": "高知県高知市相生町１番３５号",
    "lat": 33.5646475501601,
    "lng": 133.544382664418,
    "tel": "088-885-2281",
    "url": "http://www.nonami-kai.com/aioi/",
    "pref": "高知県",
    "city": "高知市",
    "category": "rouken",
    "serviceType": "介護老人保健施設",
    "capacity": 0,
    "openDays": [],
    "openDaysNote": ""
  },
  {
    "id": "3950180061",
    "name": "介護老人保健施設　あったかケアみずき",
    "kana": "カイゴロウジンホケンシセツ　アッタカケアミズキ",
    "address": "高知市一宮中町2丁目９・４",
    "lat": 33.5820905,
    "lng": 133.5727496,
    "tel": "088-846-6800",
    "url": "http://www.attakacaremizuki.jp/",
    "pref": "高知県",
    "city": "高知市",
    "category": "rouken",
    "serviceType": "介護老人保健施設",
    "capacity": 0,
    "openDays": [],
    "openDaysNote": ""
  },
  {
    "id": "3950180046",
    "name": "介護老人保健施設　ピアハウス高知",
    "kana": "カイゴロウジンホケンシセツ　ピアハウスコウチ",
    "address": "高知県高知市塚ノ原３６番地",
    "lat": 33.561191,
    "lng": 133.4948666,
    "tel": "088-843-4700",
    "url": "http://jyosenkai-piahouse.jp",
    "pref": "高知県",
    "city": "高知市",
    "category": "rouken",
    "serviceType": "介護老人保健施設",
    "capacity": 0,
    "openDays": [],
    "openDaysNote": ""
  },
  {
    "id": "3950180012",
    "name": "介護老人保健施設　梅壽苑",
    "kana": "カイゴロウジンホケンシセツ　バイジュエン",
    "address": "高知市土居町９－１８",
    "lat": 33.5542955899593,
    "lng": 133.544569435582,
    "tel": "088-833-8777",
    "url": "https://www.takashiokai.jp",
    "pref": "高知県",
    "city": "高知市",
    "category": "rouken",
    "serviceType": "介護老人保健施設",
    "capacity": 0,
    "openDays": [],
    "openDaysNote": ""
  },
  {
    "id": "3950180103",
    "name": "介護老人保健施設こうせい",
    "kana": "カイゴロウジンホケンシセツコウセイ",
    "address": "高知県高知市葛島1丁目9-50高知厚生病院内３階 高知厚生病院内３階",
    "lat": 53.41291,
    "lng": -8.24388999999996,
    "tel": "088-882-6205",
    "url": "http://www.kochi-koseihp.jp",
    "pref": "高知県",
    "city": "高知市",
    "category": "rouken",
    "serviceType": "介護老人保健施設",
    "capacity": 0,
    "openDays": [],
    "openDaysNote": ""
  },
  {
    "id": "3950180079",
    "name": "老人保健施設　あうん高知",
    "kana": "ロウジンホケンシセツ　アウンコウチ",
    "address": "高知県高知市一宮西町１丁目７番２５号",
    "lat": 33.5833695007441,
    "lng": 133.567434952137,
    "tel": "088-846-1515",
    "url": "http://www.sanai-hospital.jp/cont3/cont3.html",
    "pref": "高知県",
    "city": "高知市",
    "category": "rouken",
    "serviceType": "介護老人保健施設",
    "capacity": 0,
    "openDays": [],
    "openDaysNote": ""
  },
  {
    "id": "3950180038",
    "name": "老人保健施設　シルバーマリン",
    "kana": "ロウジンホケンシセツ　シルバーマリン",
    "address": "高知市仁井田１６１２－２１",
    "lat": 33.514232,
    "lng": 133.5729574,
    "tel": "088-847-0002",
    "url": "http://www.marine-hosp.jp/silver-marine/index.html",
    "pref": "高知県",
    "city": "高知市",
    "category": "rouken",
    "serviceType": "介護老人保健施設",
    "capacity": 0,
    "openDays": [],
    "openDaysNote": ""
  },
  {
    "id": "3950180095",
    "name": "老人保健施設　優",
    "kana": "ロウジンホケンシセツ　ユウ",
    "address": "高知市長浜小日出1681-1",
    "lat": 33.4994599465917,
    "lng": 133.537437486508,
    "tel": "088-842-7770",
    "url": "http://www.rouken-yu.jp",
    "pref": "高知県",
    "city": "高知市",
    "category": "rouken",
    "serviceType": "介護老人保健施設",
    "capacity": null,
    "openDays": [],
    "openDaysNote": ""
  },
  {
    "id": "3952580052",
    "name": "介護老人保健施設　希望",
    "kana": "カイゴロウジンホケンシセツ　キボウ",
    "address": "高知県高岡郡佐川町甲１６８７番地",
    "lat": 33.5038598287302,
    "lng": 133.287196162813,
    "tel": "0889-22-1207",
    "url": "http://www.town.sakawa.lg.jp/kouhoku_hospital/",
    "pref": "高知県",
    "city": "佐川町",
    "category": "rouken",
    "serviceType": "介護老人保健施設",
    "capacity": 0,
    "openDays": [],
    "openDaysNote": ""
  },
  {
    "id": "3950780027",
    "name": "介護老人保健施設　いろは館",
    "kana": "カイゴロウジンホケンシセツ　イロハカン",
    "address": "高知県四万十市不破巾着島2050-20",
    "lat": 32.981217110792,
    "lng": 132.92818778174,
    "tel": "0880-37-2611",
    "url": "",
    "pref": "高知県",
    "city": "四万十市",
    "category": "rouken",
    "serviceType": "介護老人保健施設",
    "capacity": 0,
    "openDays": [],
    "openDaysNote": ""
  },
  {
    "id": "3950780019",
    "name": "老人保健施設　治優園",
    "kana": "ロウジンホケンシセツ　チユウエン",
    "address": "高知県四万十市中村愛宕町２９",
    "lat": 32.9940569800011,
    "lng": 132.933041034393,
    "tel": "0880-35-3000",
    "url": "https://kuroshiofukushikai.com/index.html",
    "pref": "高知県",
    "city": "四万十市",
    "category": "rouken",
    "serviceType": "介護老人保健施設",
    "capacity": 0,
    "openDays": [],
    "openDaysNote": ""
  },
  {
    "id": "3952580029",
    "name": "医療法人　高幡会　介護老人保健施設あけぼの",
    "kana": "イリョウホウジン　コウバンカイ　カイゴロウジンホケンシセツアケボノ",
    "address": "高知県高岡郡四万十町古市町６番１２号",
    "lat": 33.2095728,
    "lng": 133.1411484,
    "tel": "0880-22-1108",
    "url": "http://www.oonishi-hp.or.jp/facility/care_akbn.html",
    "pref": "高知県",
    "city": "四万十町",
    "category": "rouken",
    "serviceType": "介護老人保健施設",
    "capacity": 70,
    "openDays": [],
    "openDaysNote": ""
  },
  {
    "id": "3952580037",
    "name": "介護老人保健施設　アザレア",
    "kana": "カイゴロウジンホケンシセツ　アザレア",
    "address": "高知県高岡郡四万十町見付902-1",
    "lat": 33.2061123,
    "lng": 133.1485171,
    "tel": "0880-22-1112",
    "url": "http://www.kawamurakai.com/",
    "pref": "高知県",
    "city": "四万十町",
    "category": "rouken",
    "serviceType": "介護老人保健施設",
    "capacity": null,
    "openDays": [],
    "openDaysNote": ""
  },
  {
    "id": "3950280010",
    "name": "介護老人保健施設　あさひ",
    "kana": "カイゴロウジンホケンシセツ　アサヒ",
    "address": "高知県室戸市領家１番１",
    "lat": 33.2944285,
    "lng": 134.1654968,
    "tel": "0887-22-2200",
    "url": "http://muroto-aiseikai.com",
    "pref": "高知県",
    "city": "室戸市",
    "category": "rouken",
    "serviceType": "介護老人保健施設",
    "capacity": 0,
    "openDays": [],
    "openDaysNote": ""
  },
  {
    "id": "3950980015",
    "name": "老人保健施設　ぎんなん荘",
    "kana": "ロウジンホケンシセツ　ギンナンソウ",
    "address": "高知県宿毛市平田町戸内1802",
    "lat": 32.9593806,
    "lng": 132.7979288,
    "tel": "0880-66-1177",
    "url": "http://goseikai.jp/ginnan.html",
    "pref": "高知県",
    "city": "宿毛市",
    "category": "rouken",
    "serviceType": "介護老人保健施設",
    "capacity": 0,
    "openDays": [],
    "openDaysNote": ""
  },
  {
    "id": "3950680011",
    "name": "老人保健施設　暖流",
    "kana": "ロウジンホケンシセツ　ダンリュウ",
    "address": "高知県須崎市緑町4-30",
    "lat": 33.4120161,
    "lng": 133.2894632,
    "tel": "0889-43-0005",
    "url": "http://susaki-kuroshio-hp.or.jp/publics/index/13/",
    "pref": "高知県",
    "city": "須崎市",
    "category": "rouken",
    "serviceType": "介護老人保健施設",
    "capacity": 0,
    "openDays": [],
    "openDaysNote": ""
  },
  {
    "id": "3950580013",
    "name": "介護老人保健施設　ヴィラフローラ",
    "kana": "カイゴロウジンホケンシセツ　ビラフローラ",
    "address": "土佐市新居274-1",
    "lat": 33.4492283,
    "lng": 133.4587875,
    "tel": "088-856-2220",
    "url": "http://siragiku.jp/Vila_flora/villa_flora_top.html",
    "pref": "高知県",
    "city": "土佐市",
    "category": "rouken",
    "serviceType": "介護老人保健施設",
    "capacity": 0,
    "openDays": [],
    "openDaysNote": ""
  },
  {
    "id": "3950880017",
    "name": "介護老人保健施設サンケアしみず",
    "kana": "カイゴロウジンホケンシセツサンケアシミズ",
    "address": "高知県土佐清水市天神町１４番１８号",
    "lat": 32.7827583,
    "lng": 132.9543529,
    "tel": "0880-82-5588",
    "url": "http://matsutani-hp.or.jp/",
    "pref": "高知県",
    "city": "土佐清水市",
    "category": "rouken",
    "serviceType": "介護老人保健施設",
    "capacity": 0,
    "openDays": [],
    "openDaysNote": ""
  },
  {
    "id": "3952380016",
    "name": "介護老人保健施設　レイクビューさめうら",
    "kana": "カイゴロウジンホケンシセツ　レイクビューサメウラ",
    "address": "高知県土佐郡土佐町田井１３７２番地",
    "lat": 33.7468936,
    "lng": 133.5573535,
    "tel": "0887-82-0117",
    "url": "http://juzen-kai.or.jp/LV/index.html",
    "pref": "高知県",
    "city": "土佐町",
    "category": "rouken",
    "serviceType": "介護老人保健施設",
    "capacity": 0,
    "openDays": [],
    "openDaysNote": ""
  },
  {
    "id": "3952080012",
    "name": "介護老人保健施設ヘルシーケアなはり",
    "kana": "カイゴロウジンホケンシセツヘルシーケアナハリ",
    "address": "高知県安芸郡奈半利町乙３７４０－１",
    "lat": 33.4365547,
    "lng": 134.0277491,
    "tel": "0887-38-5566",
    "url": "http://www.ccc-21.co.jp/hcn/",
    "pref": "高知県",
    "city": "奈半利町",
    "category": "rouken",
    "serviceType": "介護老人保健施設",
    "capacity": 0,
    "openDays": [],
    "openDaysNote": ""
  },
  {
    "id": "3950480032",
    "name": "介護老人保健施設　JAいなほ",
    "kana": "カイゴロウジンホケンシセツ　ジェイエイイナホ",
    "address": "高知県南国市明見字八反田６４５－１",
    "lat": 33.5678045,
    "lng": 133.631002,
    "tel": "088-878-2223",
    "url": "http://www.kouseiren.ja-kochi.or.jp/inaho/index.html",
    "pref": "高知県",
    "city": "南国市",
    "category": "rouken",
    "serviceType": "介護老人保健施設",
    "capacity": 0,
    "openDays": [],
    "openDaysNote": ""
  },
  {
    "id": "3950480016",
    "name": "介護老人保健施設　ケアポート南国",
    "kana": "カイゴロウジンホケンシセツ　ケアポートナンゴク",
    "address": "高知県南国市大そね乙1069-1",
    "lat": 33.5659386,
    "lng": 133.6503869,
    "tel": "088-864-5400",
    "url": "",
    "pref": "高知県",
    "city": "南国市",
    "category": "rouken",
    "serviceType": "介護老人保健施設",
    "capacity": 0,
    "openDays": [],
    "openDaysNote": ""
  },
  {
    "id": "3950480024",
    "name": "介護老人保健施設　夢の里",
    "kana": "カイゴロウジンホケンシセツ　ユメノサト",
    "address": "高知県南国市岡豊町中島1521-1",
    "lat": 33.5902185,
    "lng": 133.6163037,
    "tel": "088-866-6666",
    "url": "http://www.chisio-group.or.jp",
    "pref": "高知県",
    "city": "南国市",
    "category": "rouken",
    "serviceType": "介護老人保健施設",
    "capacity": 0,
    "openDays": [],
    "openDaysNote": ""
  }
]