[
  {
    "id": "3150480063",
    "name": "介護老人保健施設　さかい幸朋苑",
    "kana": "カイゴロウジンホケンシセツ　サカイコウホウエン",
    "address": "鳥取県境港市誠道町2082番地",
    "lat": 35.5190659,
    "lng": 133.2354475,
    "tel": "0859-45-6782",
    "url": "http://www.kohoen.jp",
    "pref": "鳥取県",
    "city": "境港市",
    "category": "rouken",
    "serviceType": "介護老人保健施設",
    "capacity": 50,
    "openDays": [],
    "openDaysNote": ""
  },
  {
    "id": "3150480261",
    "name": "介護老人保健施設　花の里",
    "kana": "カイゴロウジンホケンシセツ　ハナノサト",
    "address": "鳥取県境港市上道町1959-1",
    "lat": 35.5418304,
    "lng": 133.2363859,
    "tel": "0859-47-6363",
    "url": "http://www.motomachi-hp.jp/",
    "pref": "鳥取県",
    "city": "境港市",
    "category": "rouken",
    "serviceType": "介護老人保健施設",
    "capacity": 67,
    "openDays": [],
    "openDaysNote": ""
  },
  {
    "id": "3150480246",
    "name": "鳥取県済生会介護老人保健施設はまかぜ",
    "kana": "トットリケンサイセイカイカイゴロウジンホケンシセツハマカゼ",
    "address": "鳥取県境港市蓮池町78-1",
    "lat": 35.5394111,
    "lng": 133.2236756,
    "tel": "0859-42-3190",
    "url": "http://www.sakaiminato-saiseikai.jp",
    "pref": "鳥取県",
    "city": "境港市",
    "category": "rouken",
    "serviceType": "介護老人保健施設",
    "capacity": 0,
    "openDays": [],
    "openDaysNote": ""
  },
  {
    "id": "3171600392",
    "name": "介護老人保健施設あやめ",
    "kana": "カイゴロウジンホケンシセツアヤメ",
    "address": "鳥取県日野郡江府町武庫４７５番地",
    "lat": 35.2662582,
    "lng": 133.4777848,
    "tel": "0859-75-3230",
    "url": "syoujin.or.jp",
    "pref": "鳥取県",
    "city": "江府町",
    "category": "rouken",
    "serviceType": "介護老人保健施設",
    "capacity": 40,
    "openDays": [],
    "openDaysNote": ""
  },
  {
    "id": "3171600400",
    "name": "介護老人保健施設あやめ（ユニット型）",
    "kana": "カイゴロウジンホケンシセツアヤメ（ユニットガタ）",
    "address": "鳥取県日野郡江府町武庫４７５番地",
    "lat": 35.2662582,
    "lng": 133.4777848,
    "tel": "0859-75-3230",
    "url": "syoujin.or.jp",
    "pref": "鳥取県",
    "city": "江府町",
    "category": "rouken",
    "serviceType": "介護老人保健施設",
    "capacity": 40,
    "openDays": [],
    "openDaysNote": ""
  },
  {
    "id": "3170300895",
    "name": "ユニット型介護老人保健施設　ル・サンテリオン",
    "kana": "ユニットガタカイゴロウジンホケンシセツ　ル・サンテリオン",
    "address": "鳥取県倉吉市山根５５－２３３",
    "lat": 35.4525435872232,
    "lng": 133.857285088886,
    "tel": "0858-26-3051",
    "url": "https://www.med-wel.jp/",
    "pref": "鳥取県",
    "city": "倉吉市",
    "category": "rouken",
    "serviceType": "介護老人保健施設",
    "capacity": 60,
    "openDays": [],
    "openDaysNote": ""
  },
  {
    "id": "3170300879",
    "name": "ユニット型介護老人保健施設ひまわり",
    "kana": "ユニットガタカイゴロウジンホケンシセツヒマワリ",
    "address": "鳥取県倉吉市関金町関金宿1891番地1",
    "lat": 35.3571905,
    "lng": 133.7631484,
    "tel": "0858-45-6111",
    "url": "http://www.siseikai.com/",
    "pref": "鳥取県",
    "city": "倉吉市",
    "category": "rouken",
    "serviceType": "介護老人保健施設",
    "capacity": 44,
    "openDays": [],
    "openDaysNote": ""
  },
  {
    "id": "3150380032",
    "name": "介護老人保健施設　うつぶき",
    "kana": "カイゴロウジンホケンシセツ　ウツブキ",
    "address": "鳥取県倉吉市上井301",
    "lat": 35.4541771,
    "lng": 133.8461284,
    "tel": "0858-26-6331",
    "url": "http://seiwa-med.jp/roukenutsubuki/",
    "pref": "鳥取県",
    "city": "倉吉市",
    "category": "rouken",
    "serviceType": "介護老人保健施設",
    "capacity": 100,
    "openDays": [],
    "openDaysNote": ""
  },
  {
    "id": "3150380024",
    "name": "介護老人保健施設　ル・サンテリオン",
    "kana": "カイゴロウジンホケンシセツ　ル・サンテリオン",
    "address": "鳥取県倉吉市山根５５－２３３",
    "lat": 35.4524693,
    "lng": 133.8577357,
    "tel": "0858-26-3051",
    "url": "https://www.med-wel.jp/",
    "pref": "鳥取県",
    "city": "倉吉市",
    "category": "rouken",
    "serviceType": "介護老人保健施設",
    "capacity": 40,
    "openDays": [],
    "openDaysNote": ""
  },
  {
    "id": "3151480278",
    "name": "介護老人保健施設ひまわり",
    "kana": "カイゴロウジンホケンシセツヒマワリ",
    "address": "鳥取県倉吉市関金町関金宿1891番地1",
    "lat": 35.3571905,
    "lng": 133.7631484,
    "tel": "0858-45-6111",
    "url": "http://www.siseikai.com/",
    "pref": "鳥取県",
    "city": "倉吉市",
    "category": "rouken",
    "serviceType": "介護老人保健施設",
    "capacity": 54,
    "openDays": [],
    "openDaysNote": ""
  },
  {
    "id": "3150380107",
    "name": "老人保健施設のじま",
    "kana": "ロウジンホケンシセツノジマ",
    "address": "鳥取県倉吉市瀬崎町2714-1",
    "lat": 35.4314068,
    "lng": 133.8191866,
    "tel": "0858-23-7100",
    "url": "http://www.nojima-hospital.jp/",
    "pref": "鳥取県",
    "city": "倉吉市",
    "category": "rouken",
    "serviceType": "介護老人保健施設",
    "capacity": 106,
    "openDays": [],
    "openDaysNote": ""
  },
  {
    "id": "3151580085",
    "name": "介護老人保健施設サンライズ名和",
    "kana": "カイゴロウジンホケンシセツ　サンライズナワ",
    "address": "鳥取県西伯郡大山町富長750-3",
    "lat": 35.4983508,
    "lng": 133.4771299,
    "tel": "0859-54-3232",
    "url": "",
    "pref": "鳥取県",
    "city": "大山町",
    "category": "rouken",
    "serviceType": "介護老人保健施設",
    "capacity": 0,
    "openDays": [],
    "openDaysNote": ""
  },
  {
    "id": "3151580184",
    "name": "介護老人保健施設はまなす",
    "kana": "カイゴロウジンホケンシセツハマナス",
    "address": "鳥取県西伯郡大山町田中1383",
    "lat": 35.5200274,
    "lng": 133.5889167,
    "tel": "0858-58-6161",
    "url": "sasakicl.jp/hamanasu",
    "pref": "鳥取県",
    "city": "大山町",
    "category": "rouken",
    "serviceType": "介護老人保健施設",
    "capacity": 50,
    "openDays": [],
    "openDaysNote": ""
  },
  {
    "id": "3151580044",
    "name": "介護老人保健施設小谷苑",
    "kana": "カイゴロウジンホケンシセツコダニエン",
    "address": "鳥取県西伯郡大山町西坪５４５番地１",
    "lat": 35.51339702667,
    "lng": 133.502385896959,
    "tel": "0859-54-3388",
    "url": "http://www.kodanien.com",
    "pref": "鳥取県",
    "city": "大山町",
    "category": "rouken",
    "serviceType": "介護老人保健施設",
    "capacity": 94,
    "openDays": [],
    "openDaysNote": ""
  },
  {
    "id": "3151280256",
    "name": "介護老人保健施設　ほのぼの",
    "kana": "カイゴロウジンホケンシセツ　ホノボノ",
    "address": "鳥取県八頭郡智頭町智頭1875番地",
    "lat": 35.2635228,
    "lng": 134.2241069,
    "tel": "0858-75-3211",
    "url": "https://www2.town.chizu.tottori.jp",
    "pref": "鳥取県",
    "city": "智頭町",
    "category": "rouken",
    "serviceType": "介護老人保健施設",
    "capacity": 45,
    "openDays": [],
    "openDaysNote": ""
  },
  {
    "id": "3170103026",
    "name": "ユニット型介護老人保健施設　まさたみの郷",
    "kana": "ユニットガタカイゴロウジンホケンシセツ　マサタミノサト",
    "address": "鳥取県鳥取市杉崎５９６番地介護老人保健施設まさたみの郷 介護老人保健施設まさたみの郷",
    "lat": 35.4644758,
    "lng": 134.2481636,
    "tel": "0857-53-0002",
    "url": "http://www.masataminosato.jp/",
    "pref": "鳥取県",
    "city": "鳥取市",
    "category": "rouken",
    "serviceType": "介護老人保健施設",
    "capacity": 0,
    "openDays": [],
    "openDaysNote": ""
  },
  {
    "id": "3170102929",
    "name": "ユニット型介護老人保健施設　みやこ苑",
    "kana": "ユニットガタカイゴロウジンホケンシセツ　ミヤコエン",
    "address": "鳥取県鳥取市三津1072番地307",
    "lat": 35.521642,
    "lng": 134.1540287,
    "tel": "0857-38-3838",
    "url": "http://www.miyakoen.jp/",
    "pref": "鳥取県",
    "city": "鳥取市",
    "category": "rouken",
    "serviceType": "介護老人保健施設",
    "capacity": 18,
    "openDays": [],
    "openDaysNote": ""
  },
  {
    "id": "3150180283",
    "name": "ユニット型介護老人保健施設いなば幸朋苑",
    "kana": "ユニットガタカイゴロウジンホケンシセツイナバコウホウエン",
    "address": "鳥取県鳥取市浜坂228番地１",
    "lat": 35.5241425043467,
    "lng": 134.227321221426,
    "tel": "0857-23-6611",
    "url": "http://www.kohoen.jp",
    "pref": "鳥取県",
    "city": "鳥取市",
    "category": "rouken",
    "serviceType": "介護老人保健施設",
    "capacity": 0,
    "openDays": [],
    "openDaysNote": ""
  },
  {
    "id": "3150180259",
    "name": "介護老人保健施設　まさたみの郷",
    "kana": "カイゴロウジシセツ　マサタミノサト",
    "address": "鳥取県鳥取市杉崎５９６番地",
    "lat": 35.4644758,
    "lng": 134.2481636,
    "tel": "0857-53-0002",
    "url": "http://masataminosato.jp/",
    "pref": "鳥取県",
    "city": "鳥取市",
    "category": "rouken",
    "serviceType": "介護老人保健施設",
    "capacity": 0,
    "openDays": [],
    "openDaysNote": ""
  },
  {
    "id": "3150180226",
    "name": "介護老人保健施設　みやこ苑",
    "kana": "カイゴロウジンホケンシセツミヤコエン",
    "address": "鳥取県鳥取市三津1072番地307",
    "lat": 35.521642,
    "lng": 134.1540287,
    "tel": "0857-38-3838",
    "url": "http://www.miyakoen.jp/",
    "pref": "鳥取県",
    "city": "鳥取市",
    "category": "rouken",
    "serviceType": "介護老人保健施設",
    "capacity": 92,
    "openDays": [],
    "openDaysNote": ""
  },
  {
    "id": "3170103224",
    "name": "介護老人保健施設　ル・サンテリオン鹿野　ユニット型",
    "kana": "カイゴロウジンホケンシセツ　ル・サンテリオンシカノユニットガタ",
    "address": "鳥取県鳥取市鹿野町今市80",
    "lat": 35.4607305,
    "lng": 134.0502704,
    "tel": "0857-84-3700",
    "url": "https：//www.med-wel.jp",
    "pref": "鳥取県",
    "city": "鳥取市",
    "category": "rouken",
    "serviceType": "介護老人保健施設",
    "capacity": 0,
    "openDays": [],
    "openDaysNote": ""
  },
  {
    "id": "3150180135",
    "name": "介護老人保健施設いなば幸朋苑",
    "kana": "カイゴロウジンホケンシセツイナバコウホウエン",
    "address": "鳥取県鳥取市浜坂２２８番地1",
    "lat": 35.5241687,
    "lng": 134.2276109,
    "tel": "0857-23-6611",
    "url": "http://www.kohoen.jp",
    "pref": "鳥取県",
    "city": "鳥取市",
    "category": "rouken",
    "serviceType": "介護老人保健施設",
    "capacity": 0,
    "openDays": [],
    "openDaysNote": ""
  },
  {
    "id": "3150180309",
    "name": "介護老人保健施設ウェルケアいなば",
    "kana": "カイゴロウジンホケンシセツウェルケアイナバ",
    "address": "鳥取県鳥取市河原町稲常463番地介護老人保健施設ウェルケアいなば 介護老人保健施設ウェルケアいなば",
    "lat": 35.4233444,
    "lng": 134.2079766,
    "tel": "0858-85-1681",
    "url": "http://www.tokuwakai.jp/",
    "pref": "鳥取県",
    "city": "鳥取市",
    "category": "rouken",
    "serviceType": "介護老人保健施設",
    "capacity": 0,
    "openDays": [],
    "openDaysNote": ""
  },
  {
    "id": "3151380205",
    "name": "介護老人保健施設ル・サンテリオン鹿野",
    "kana": "カイゴロウジンホケンシセツ　ル・サンテリオンシカノ",
    "address": "鳥取県鳥取市鹿野町今市８０",
    "lat": 35.4607305,
    "lng": 134.0502704,
    "tel": "0857-84-3700",
    "url": "https://www.med-wel.jp/",
    "pref": "鳥取県",
    "city": "鳥取市",
    "category": "rouken",
    "serviceType": "介護老人保健施設",
    "capacity": 0,
    "openDays": [],
    "openDaysNote": ""
  },
  {
    "id": "3150180267",
    "name": "鳥取市介護老人保健施設やすらぎ",
    "kana": "トットリシカイゴロウジンホケンシセツヤスラギ",
    "address": "鳥取県鳥取市的場１丁目１１",
    "lat": 35.4737636,
    "lng": 134.2345812,
    "tel": "0857-53-5770",
    "url": "",
    "pref": "鳥取県",
    "city": "鳥取市",
    "category": "rouken",
    "serviceType": "介護老人保健施設",
    "capacity": 0,
    "openDays": [],
    "openDaysNote": ""
  },
  {
    "id": "3150180234",
    "name": "老人保健施設はまゆう",
    "kana": "ロウジンホケンシセツハマユウ",
    "address": "鳥取県鳥取市野寺62番地1",
    "lat": 35.4740964,
    "lng": 134.205226,
    "tel": "0857-51-7801",
    "url": "https://hamayu.or.jp",
    "pref": "鳥取県",
    "city": "鳥取市",
    "category": "rouken",
    "serviceType": "介護老人保健施設",
    "capacity": 0,
    "openDays": [],
    "openDaysNote": ""
  },
  {
    "id": "3151180209",
    "name": "老人保健施設ふたば",
    "kana": "ロウジンホケンシセツ",
    "address": "鳥取県鳥取市国府町稲葉丘3丁目303番地",
    "lat": 35.4839403,
    "lng": 134.262137,
    "tel": "0857-23-1830",
    "url": "",
    "pref": "鳥取県",
    "city": "鳥取市",
    "category": "rouken",
    "serviceType": "介護老人保健施設",
    "capacity": 100,
    "openDays": [],
    "openDaysNote": ""
  },
  {
    "id": "3171400959",
    "name": "ユニット型介護老人保健施設　ル・サンテリオン東郷",
    "kana": "ユニットガタカイゴロウジンホケンシセツ　ル・サンテリオントウゴウ",
    "address": "鳥取県東伯郡湯梨浜町野花443番地1",
    "lat": 35.4637077,
    "lng": 133.8902571,
    "tel": "0858-32-2570",
    "url": "https://www.med-wel.jp/",
    "pref": "鳥取県",
    "city": "湯梨浜町",
    "category": "rouken",
    "serviceType": "介護老人保健施設",
    "capacity": 18,
    "openDays": [],
    "openDaysNote": ""
  },
  {
    "id": "3151480286",
    "name": "ル・サンテリオン東郷",
    "kana": "ル・サンテリオントウゴウ",
    "address": "鳥取県東伯郡湯梨浜町野花443番地1",
    "lat": 35.4637077,
    "lng": 133.8902571,
    "tel": "0858-32-2570",
    "url": "https://www.med-wel.jp/",
    "pref": "鳥取県",
    "city": "湯梨浜町",
    "category": "rouken",
    "serviceType": "介護老人保健施設",
    "capacity": 47,
    "openDays": [],
    "openDaysNote": ""
  },
  {
    "id": "3151480146",
    "name": "介護老人保健施設ハワイ信生苑",
    "kana": "カイゴロウジンホケンシセツハワイシンセイエン",
    "address": "鳥取県東伯郡湯梨浜町はわい温泉５８－５",
    "lat": 35.4757477,
    "lng": 133.8802133,
    "tel": "0858-35-5211",
    "url": "http://www3.torichu.ne.jp/~sinseien",
    "pref": "鳥取県",
    "city": "湯梨浜町",
    "category": "rouken",
    "serviceType": "介護老人保健施設",
    "capacity": 0,
    "openDays": [],
    "openDaysNote": ""
  },
  {
    "id": "3151580200",
    "name": "介護老人保健施設　サンライズひえづ",
    "kana": "カイゴロウジンホケンシセツ　サンライズヒエヅ",
    "address": "鳥取県西伯郡日吉津村今吉202-1",
    "lat": 35.4542172,
    "lng": 133.3822102,
    "tel": "0859-37-0765",
    "url": "",
    "pref": "鳥取県",
    "city": "日吉津村",
    "category": "rouken",
    "serviceType": "介護老人保健施設",
    "capacity": 0,
    "openDays": [],
    "openDaysNote": ""
  },
  {
    "id": "3151680125",
    "name": "医療法人社団　日翔会　　介護老人保健施設　おしどり荘",
    "kana": "イリョウホウジンシャダン　ニッショウカイ　カイゴロウジンホケンシセツ　オシドリソウ",
    "address": "鳥取県日野郡日野町根雨９０９－１",
    "lat": 35.2339226,
    "lng": 133.4401117,
    "tel": "0859-72-0410",
    "url": "http://www.nissyoukai.com/",
    "pref": "鳥取県",
    "city": "日野町",
    "category": "rouken",
    "serviceType": "介護老人保健施設",
    "capacity": 67,
    "openDays": [],
    "openDaysNote": ""
  },
  {
    "id": "3151580192",
    "name": "介護老人保健施設　しびのさと",
    "kana": "カイゴロウジンホケンシセツ　シビノサト",
    "address": "鳥取県西伯郡伯耆町久古１１０９－２",
    "lat": 35.3861749,
    "lng": 133.4292207,
    "tel": "0859-68-6565",
    "url": "shibinosato.kouheikai-fukusi.com/",
    "pref": "鳥取県",
    "city": "伯耆町",
    "category": "rouken",
    "serviceType": "介護老人保健施設",
    "capacity": 0,
    "openDays": [],
    "openDaysNote": ""
  },
  {
    "id": "3151680190",
    "name": "介護老人保健施設　寿楽荘",
    "kana": "カイゴロウジンホケンシセツ　ジュラクソウ",
    "address": "鳥取県西伯郡伯耆町長山１５２－１",
    "lat": 35.3517415838591,
    "lng": 133.434297990877,
    "tel": "0859-62-7500",
    "url": "http://care-net.biz/31/houkichp/",
    "pref": "鳥取県",
    "city": "伯耆町",
    "category": "rouken",
    "serviceType": "介護老人保健施設",
    "capacity": 0,
    "openDays": [],
    "openDaysNote": ""
  },
  {
    "id": "3151280215",
    "name": "介護老人保健施設すこやか",
    "kana": "カイゴロウジンホケンシセツスコヤカ",
    "address": "鳥取県八頭郡八頭町宮谷１２３番地",
    "lat": 35.4138208,
    "lng": 134.258492,
    "tel": "0858-76-7600",
    "url": "https://swc-yazu.studio.site/",
    "pref": "鳥取県",
    "city": "八頭町",
    "category": "rouken",
    "serviceType": "介護老人保健施設",
    "capacity": 76,
    "openDays": [],
    "openDaysNote": ""
  },
  {
    "id": "3150280356",
    "name": "ユニット型介護老人保健施設なんぶ幸朋苑",
    "kana": "ユニットガタカイゴロウジンホケンシセツナンブコウホウエン",
    "address": "鳥取県米子市石井１２３８番地",
    "lat": 35.4023122371852,
    "lng": 133.351384366718,
    "tel": "0859-26-5566",
    "url": "http://www.kohoen.jp/untitled58.html",
    "pref": "鳥取県",
    "city": "米子市",
    "category": "rouken",
    "serviceType": "介護老人保健施設",
    "capacity": 44,
    "openDays": [],
    "openDaysNote": ""
  },
  {
    "id": "3170202653",
    "name": "ユニット型介護老人保健施設やわらぎ",
    "kana": "ユニットガタカイゴロウジンホケンシセツヤワラギ",
    "address": "鳥取県米子市新開4丁目11-13",
    "lat": 35.4604662,
    "lng": 133.3405295,
    "tel": "0859-31-1000",
    "url": "https://yawaragi.doaikai.jp/",
    "pref": "鳥取県",
    "city": "米子市",
    "category": "rouken",
    "serviceType": "介護老人保健施設",
    "capacity": 10,
    "openDays": [],
    "openDaysNote": ""
  },
  {
    "id": "3170202562",
    "name": "ユニット型介護老人保健施設仁風荘",
    "kana": "ユニットガタカイゴロウジンホケンシセツジンプウソウ",
    "address": "鳥取県米子市上後藤３－５－１",
    "lat": 35.4486694,
    "lng": 133.3174198,
    "tel": "0859-24-0007",
    "url": "http://www.yowakai.com/",
    "pref": "鳥取県",
    "city": "米子市",
    "category": "rouken",
    "serviceType": "介護老人保健施設",
    "capacity": 0,
    "openDays": [],
    "openDaysNote": ""
  },
  {
    "id": "3150280059",
    "name": "介護老人保健施設　あわしま",
    "kana": "カイゴロウジンホケンシセツ　アワシマ",
    "address": "鳥取県米子市彦名町1250番地",
    "lat": 35.446153,
    "lng": 133.2940498,
    "tel": "0859-24-1503",
    "url": "http://www.chukai.or.jp/awashima/",
    "pref": "鳥取県",
    "city": "米子市",
    "category": "rouken",
    "serviceType": "介護老人保健施設",
    "capacity": 87,
    "openDays": [],
    "openDaysNote": ""
  },
  {
    "id": "3150280117",
    "name": "介護老人保健施設　ゆうとぴあ",
    "kana": "カイゴロウジンホケンシセツ　ユウトピア",
    "address": "鳥取県米子市河崎581-3",
    "lat": 35.4579131,
    "lng": 133.3109118,
    "tel": "0859-30-3939",
    "url": "http://www.hospitown.or.jp/",
    "pref": "鳥取県",
    "city": "米子市",
    "category": "rouken",
    "serviceType": "介護老人保健施設",
    "capacity": 89,
    "openDays": [],
    "openDaysNote": ""
  },
  {
    "id": "3150280299",
    "name": "介護老人保健施設　ル・サンテリオンよどえ",
    "kana": "カイゴロウジンホケンシセツ　ル・サンテリオンヨドエ",
    "address": "鳥取県米子市淀江町佐陀２１６９",
    "lat": 35.452267205168,
    "lng": 133.396074963893,
    "tel": "0859-56-4073",
    "url": "https:/www.med-wel.jp/yodoe/",
    "pref": "鳥取県",
    "city": "米子市",
    "category": "rouken",
    "serviceType": "介護老人保健施設",
    "capacity": 0,
    "openDays": [],
    "openDaysNote": ""
  },
  {
    "id": "3150280331",
    "name": "介護老人保健施設　ル・サンテリオンよどえ　ユニット型",
    "kana": "カイゴロウジンホケンシセツ　ル・サンテリオンヨドエ　ユニットガタ",
    "address": "鳥取県米子市淀江町佐陀2169",
    "lat": 35.4522409860656,
    "lng": 133.396074963893,
    "tel": "0859-56-4073",
    "url": "https:/www.med-wel.jp/yodoe/",
    "pref": "鳥取県",
    "city": "米子市",
    "category": "rouken",
    "serviceType": "介護老人保健施設",
    "capacity": 0,
    "openDays": [],
    "openDaysNote": ""
  },
  {
    "id": "3150280265",
    "name": "介護老人保健施設　弓浜ゆうとぴあ",
    "kana": "カイゴロウジンホケンシセツ　キュウヒンユウトピア",
    "address": "鳥取県米子市大崎1511-1",
    "lat": 35.4736494,
    "lng": 133.2530832,
    "tel": "0859-48-2334",
    "url": "http://www.hospitown.or.jp",
    "pref": "鳥取県",
    "city": "米子市",
    "category": "rouken",
    "serviceType": "介護老人保健施設",
    "capacity": 70,
    "openDays": [],
    "openDaysNote": ""
  },
  {
    "id": "3150280281",
    "name": "介護老人保健施設アイアイ",
    "kana": "カイゴロウジンホケンシセツアイアイ",
    "address": "鳥取県米子市榎原1823",
    "lat": 35.3980808,
    "lng": 133.3595325,
    "tel": "0859-39-7700",
    "url": "http://sfg21.com/aiai/",
    "pref": "鳥取県",
    "city": "米子市",
    "category": "rouken",
    "serviceType": "介護老人保健施設",
    "capacity": 70,
    "openDays": [],
    "openDaysNote": ""
  },
  {
    "id": "3150280174",
    "name": "介護老人保健施設なんぶ幸朋苑",
    "kana": "カイゴロウジンホケンシセツナンブコウホウエン",
    "address": "鳥取県米子市石井1238番地",
    "lat": 35.4022552,
    "lng": 133.3514525,
    "tel": "0859-26-5566",
    "url": "http://www.kohoen.jp/untitled58.html",
    "pref": "鳥取県",
    "city": "米子市",
    "category": "rouken",
    "serviceType": "介護老人保健施設",
    "capacity": 36,
    "openDays": [],
    "openDaysNote": ""
  },
  {
    "id": "3150280091",
    "name": "介護老人保健施設やわらぎ",
    "kana": "カイゴロウジンホケンシセツヤワラギ",
    "address": "鳥取県米子市新開４丁目11-13",
    "lat": 35.4604662,
    "lng": 133.3405267,
    "tel": "0859-31-1000",
    "url": "https://yawaragi.doaikai.jp/",
    "pref": "鳥取県",
    "city": "米子市",
    "category": "rouken",
    "serviceType": "介護老人保健施設",
    "capacity": 67,
    "openDays": [],
    "openDaysNote": ""
  },
  {
    "id": "3150280323",
    "name": "介護老人保健施設新田",
    "kana": "カイゴロウジンホケンシセツ　ニッタ",
    "address": "鳥取県米子市中島２‐１‐４６",
    "lat": 35.4336022,
    "lng": 133.350021,
    "tel": "０８５９‐３８‐２３５５",
    "url": "",
    "pref": "鳥取県",
    "city": "米子市",
    "category": "rouken",
    "serviceType": "介護老人保健施設",
    "capacity": 28,
    "openDays": [],
    "openDaysNote": ""
  },
  {
    "id": "3150280018",
    "name": "介護老人保健施設仁風荘",
    "kana": "カイゴロウジンホケンシセツジンプウソウ",
    "address": "鳥取県米子市上後藤３－５－１",
    "lat": 35.4486694,
    "lng": 133.3174198,
    "tel": "0859-24-0007",
    "url": "http://www.yowakai.com/",
    "pref": "鳥取県",
    "city": "米子市",
    "category": "rouken",
    "serviceType": "介護老人保健施設",
    "capacity": 56,
    "openDays": [],
    "openDaysNote": ""
  },
  {
    "id": "3150280315",
    "name": "高島病院介護老人保健施設",
    "kana": "タカシマビョウインカイゴロウジンホケンシセツ",
    "address": "鳥取県米子市西町６番地",
    "lat": 35.4303631,
    "lng": 133.3280698,
    "tel": "0859-32-7711",
    "url": "http://www.takashima-hp.or.jp",
    "pref": "鳥取県",
    "city": "米子市",
    "category": "rouken",
    "serviceType": "介護老人保健施設",
    "capacity": 0,
    "openDays": [],
    "openDaysNote": ""
  },
  {
    "id": "3151480252",
    "name": "介護老人保健施設　ル・サンテリオン北条",
    "kana": "カイゴロウジンホケンシセツ　ルサンテリオンホウジョウ",
    "address": "鳥取県東伯郡北栄町土下123-1",
    "lat": 35.4787737,
    "lng": 133.8199916,
    "tel": "0858-36-5220",
    "url": "https://www.med-wel.jp/houjou/",
    "pref": "鳥取県",
    "city": "北栄町",
    "category": "rouken",
    "serviceType": "介護老人保健施設",
    "capacity": 0,
    "openDays": [],
    "openDaysNote": ""
  },
  {
    "id": "3171400942",
    "name": "介護老人保健施設　ル・サンテリオン北条（ユニット型）",
    "kana": "カイゴロウジンホケンシセツ　ルサンテリオンホウジョウ　ユニットガタ",
    "address": "鳥取県東伯郡北栄町土下123-1",
    "lat": 35.4787737,
    "lng": 133.8199916,
    "tel": "0858-36-5220",
    "url": "https://www.med-wel.jp/houjou",
    "pref": "鳥取県",
    "city": "北栄町",
    "category": "rouken",
    "serviceType": "介護老人保健施設",
    "capacity": 0,
    "openDays": [],
    "openDaysNote": ""
  },
  {
    "id": "3151480153",
    "name": "老人保健施設　セラトピア",
    "kana": "ロウジンホケンシセツ　セラトピア",
    "address": "鳥取県東伯郡北栄町瀬戸45-2",
    "lat": 35.4832085,
    "lng": 133.7759676,
    "tel": "0858-37-3766",
    "url": "http://seiikai.hp.gogo.jp",
    "pref": "鳥取県",
    "city": "北栄町",
    "category": "rouken",
    "serviceType": "介護老人保健施設",
    "capacity": 0,
    "openDays": [],
    "openDaysNote": ""
  }
]