[
  {
    "id": "4650580022",
    "name": "介護老人保健施設　ゆくさ白浜",
    "kana": "カイゴロウジンホケンシセツ　ユクサシラハマ",
    "address": "鹿児島県いちき串木野市羽島265番地15",
    "lat": 31.748104,
    "lng": 130.2267896,
    "tel": "0996-35-0800",
    "url": "https://shinkikai.net/yukusashirahama.php",
    "pref": "鹿児島県",
    "city": "いちき串木野市",
    "category": "rouken",
    "serviceType": "介護老人保健施設",
    "capacity": 0,
    "openDays": [],
    "openDaysNote": ""
  },
  {
    "id": "4652480056",
    "name": "介護老人保健施設　ライフハーバーいちき",
    "kana": "カイゴロウジンホケンシセツ　ライフハーバーイチキ",
    "address": "大里2901番地2",
    "lat": 31.6662087,
    "lng": 130.3015246,
    "tel": "0996-36-5353",
    "url": "http://www.maruta.or.jp/",
    "pref": "鹿児島県",
    "city": "いちき串木野市",
    "category": "rouken",
    "serviceType": "介護老人保健施設",
    "capacity": 69,
    "openDays": [],
    "openDaysNote": ""
  },
  {
    "id": "4650580030",
    "name": "介護老人保健施設　希望",
    "kana": "カイゴロウジンホケンシセツ　キボウ",
    "address": "いちき串木野市春日町116",
    "lat": 31.7217159,
    "lng": 130.2678318,
    "tel": "0996-33-1217",
    "url": "",
    "pref": "鹿児島県",
    "city": "いちき串木野市",
    "category": "rouken",
    "serviceType": "介護老人保健施設",
    "capacity": 0,
    "openDays": [],
    "openDaysNote": ""
  },
  {
    "id": "4650580014",
    "name": "介護老人保健施設さるびあ苑",
    "kana": "カイゴロウジンホケンシセツサルビアエン",
    "address": "春日町６３番地",
    "lat": 31.7201494,
    "lng": 130.2681762,
    "tel": "0996-32-8841",
    "url": "https://jiseikai-kushikino.jp/",
    "pref": "鹿児島県",
    "city": "いちき串木野市",
    "category": "rouken",
    "serviceType": "介護老人保健施設",
    "capacity": 0,
    "openDays": [],
    "openDaysNote": ""
  },
  {
    "id": "4652580020",
    "name": "パラディーノ　ほたるの里",
    "kana": "パラディーノ　ホタルノサト",
    "address": "鹿児島県薩摩郡さつま町柏原493-5",
    "lat": 31.9314979,
    "lng": 130.4575087,
    "tel": "0996-53-1010",
    "url": "",
    "pref": "鹿児島県",
    "city": "さつま町",
    "category": "rouken",
    "serviceType": "介護老人保健施設",
    "capacity": 56,
    "openDays": [],
    "openDaysNote": ""
  },
  {
    "id": "4652580012",
    "name": "介護老人保健施設クオリエ",
    "kana": "カイゴロウジンホケンシセツクオリエ",
    "address": "薩摩郡さつま町船木2311番地8",
    "lat": 31.8730211,
    "lng": 130.4402541,
    "tel": "0996-52-1100",
    "url": "https://www.qoler.jp/qualie/",
    "pref": "鹿児島県",
    "city": "さつま町",
    "category": "rouken",
    "serviceType": "介護老人保健施設",
    "capacity": 0,
    "openDays": [],
    "openDaysNote": ""
  },
  {
    "id": "4650680012",
    "name": "介護老人保健施設　回生苑",
    "kana": "カイゴロウジンホケンシセツ　カイセイエン",
    "address": "阿久根市赤瀬川551番地",
    "lat": 32.0262465,
    "lng": 130.2015588,
    "tel": "0996-72-1661",
    "url": "http://www.kouwa-kaiseien.com",
    "pref": "鹿児島県",
    "city": "阿久根市",
    "category": "rouken",
    "serviceType": "介護老人保健施設",
    "capacity": 84,
    "openDays": [],
    "openDaysNote": ""
  },
  {
    "id": "4650680020",
    "name": "介護老人保健施設グリーンフォレストみかさ",
    "kana": "カイゴロウジンホケンシセツグリーンフォレストミカサ",
    "address": "鹿児島県阿久根市脇本字柞木迫6313番地1",
    "lat": 32.0760562559236,
    "lng": 130.214273057947,
    "tel": "0996-75-3222",
    "url": "",
    "pref": "鹿児島県",
    "city": "阿久根市",
    "category": "rouken",
    "serviceType": "介護老人保健施設",
    "capacity": null,
    "openDays": [],
    "openDaysNote": ""
  },
  {
    "id": "4650680038",
    "name": "小規模介護老人保健施設　真和苑",
    "kana": "ショウキボカイゴロウジンホケンシセツ　シンワエン",
    "address": "赤瀬川４０５９番地1",
    "lat": 32.0350097,
    "lng": 130.19952,
    "tel": "０９９６－７２－５６６６",
    "url": "",
    "pref": "鹿児島県",
    "city": "阿久根市",
    "category": "rouken",
    "serviceType": "介護老人保健施設",
    "capacity": 29,
    "openDays": [],
    "openDaysNote": ""
  },
  {
    "id": "4652880065",
    "name": "ろうけん姶良",
    "kana": "ロウケンアイラ",
    "address": "鹿児島県姶良市平松5062番地",
    "lat": 31.7124431,
    "lng": 130.5974167,
    "tel": "0995-65-8091",
    "url": "http://www.minc.ne.jp/kibou/roukenaira",
    "pref": "鹿児島県",
    "city": "姶良市",
    "category": "rouken",
    "serviceType": "介護老人保健施設",
    "capacity": 80,
    "openDays": [],
    "openDaysNote": ""
  },
  {
    "id": "4652880081",
    "name": "介護老人保健施設　ろうけん大楠",
    "kana": "カイゴロウジンホケンシセツ　ロウケンオオクス",
    "address": "鹿児島県姶良市蒲生町下久徳１２４９番地１",
    "lat": 31.7509729,
    "lng": 130.5954931,
    "tel": "０９９５－５４－３３３３",
    "url": "",
    "pref": "鹿児島県",
    "city": "姶良市",
    "category": "rouken",
    "serviceType": "介護老人保健施設",
    "capacity": 0,
    "openDays": [],
    "openDaysNote": ""
  },
  {
    "id": "4652880099",
    "name": "介護老人保健施設　青雲荘",
    "kana": "カイゴロウジンホケンシセツ　セイウンソウ",
    "address": "鹿児島県姶良市西餅田3024-1",
    "lat": 31.7212287761377,
    "lng": 130.613424718029,
    "tel": "0995-65-8181",
    "url": "http://www.seiunkaibyouin.jp/seiun_sou/",
    "pref": "鹿児島県",
    "city": "姶良市",
    "category": "rouken",
    "serviceType": "介護老人保健施設",
    "capacity": 74,
    "openDays": [],
    "openDaysNote": ""
  },
  {
    "id": "4652880032",
    "name": "介護老人保健施設シルバータウン加治木",
    "kana": "カイゴロウジンホケンシセツ　シルバータウンカジキ",
    "address": "鹿児島県姶良市加治木町木田4719-1",
    "lat": 31.750578470218,
    "lng": 130.662855495229,
    "tel": "0995-62-5755",
    "url": "http://kajiki-shokikai.jp/silver-t-k",
    "pref": "鹿児島県",
    "city": "姶良市",
    "category": "rouken",
    "serviceType": "介護老人保健施設",
    "capacity": 96,
    "openDays": [],
    "openDaysNote": ""
  },
  {
    "id": "4650980016",
    "name": "はやひと",
    "kana": "ハヤヒト",
    "address": "伊佐市大口青木３０２２番地３３",
    "lat": 32.0569036,
    "lng": 130.6337535,
    "tel": "０９９５－２２－８０００",
    "url": "ｈｔｔｐ：//ｗｗｗ.ｈａｙａｈｉｔｏ.ｃｏｍ",
    "pref": "鹿児島県",
    "city": "伊佐市",
    "category": "rouken",
    "serviceType": "介護老人保健施設",
    "capacity": 0,
    "openDays": [],
    "openDaysNote": ""
  },
  {
    "id": "4653280067",
    "name": "介護老人保健施設　アマンデー",
    "kana": "カイゴロウジンホケンシセツ　アマンデー",
    "address": "鹿児島県奄美市笠利町節田1451-1",
    "lat": 28.4131557,
    "lng": 129.6791999,
    "tel": "0997-63-1555",
    "url": "https://amande.synapse.kagoshima.jp",
    "pref": "鹿児島県",
    "city": "奄美市",
    "category": "rouken",
    "serviceType": "介護老人保健施設",
    "capacity": 46,
    "openDays": [],
    "openDaysNote": ""
  },
  {
    "id": "4670701152",
    "name": "介護老人保健施設アマンデー（ユニット型）",
    "kana": "カイゴロウジンホケンシセツアマンデー（ユニットガタ）",
    "address": "鹿児島県奄美市笠利町節田1451-1",
    "lat": 28.4131557,
    "lng": 129.6791999,
    "tel": "0997-63-1555",
    "url": "https://amande.synapse.kagoshima.jp",
    "pref": "鹿児島県",
    "city": "奄美市",
    "category": "rouken",
    "serviceType": "介護老人保健施設",
    "capacity": 24,
    "openDays": [],
    "openDaysNote": ""
  },
  {
    "id": "4650780010",
    "name": "介護老人保健施設虹の丘",
    "kana": "カイゴロウジンホケンシセツニジノオカ",
    "address": "名瀬小宿字苗代田３４１６番１",
    "lat": 28.385852,
    "lng": 129.474689,
    "tel": "0997-54-8888",
    "url": "http://www4.synapse.ne.jp/nijinooka/",
    "pref": "鹿児島県",
    "city": "奄美市",
    "category": "rouken",
    "serviceType": "介護老人保健施設",
    "capacity": 0,
    "openDays": [],
    "openDaysNote": ""
  },
  {
    "id": "4653080012",
    "name": "介護老人保健施設　老春苑",
    "kana": "カイゴロウジンホケンシセツ　ロウシュンエン",
    "address": "鹿児島県肝属郡肝付町新富525番地",
    "lat": 31.3518693,
    "lng": 130.9470781,
    "tel": "0994-65-1500",
    "url": "www.synapse.ne.jp/shunyoukai/",
    "pref": "鹿児島県",
    "city": "肝付町",
    "category": "rouken",
    "serviceType": "介護老人保健施設",
    "capacity": 0,
    "openDays": [],
    "openDaysNote": ""
  },
  {
    "id": "4653080038",
    "name": "肝属郡医師会立介護老人保健施設みなみかぜ",
    "kana": "キモツキグンイシカイリツ　カイゴロウジンホケンシセツ　ミナミカゼ",
    "address": "鹿児島県肝属郡錦江町神川88-1",
    "lat": 31.2597728,
    "lng": 130.7916831,
    "tel": "0994-22-3100",
    "url": "http://k-minamikaze.jp/",
    "pref": "鹿児島県",
    "city": "錦江町",
    "category": "rouken",
    "serviceType": "介護老人保健施設",
    "capacity": 0,
    "openDays": [],
    "openDaysNote": ""
  },
  {
    "id": "4650280011",
    "name": "介護老人保健施設　あじさい苑",
    "kana": "カイゴロウジンホケンシセツ　アジサイエン",
    "address": "鹿児島県薩摩川内市横馬場町８番１１号",
    "lat": 31.8172281,
    "lng": 130.3103938,
    "tel": "０９９６－２３－６０００",
    "url": "http://ajisaien-kagoshima.com",
    "pref": "鹿児島県",
    "city": "薩摩川内市",
    "category": "rouken",
    "serviceType": "介護老人保健施設",
    "capacity": null,
    "openDays": [],
    "openDaysNote": ""
  },
  {
    "id": "4651580013",
    "name": "介護老人保健施設　グラン・ベリテアネックス",
    "kana": "カイゴロウジンホケンシセツ　グラン・ベリテアネックス",
    "address": "鹿児島県薩摩川内市原田町８番１号",
    "lat": 31.8275044826069,
    "lng": 130.307016068123,
    "tel": "0996-29-3900",
    "url": "",
    "pref": "鹿児島県",
    "city": "薩摩川内市",
    "category": "rouken",
    "serviceType": "介護老人保健施設",
    "capacity": 0,
    "openDays": [],
    "openDaysNote": ""
  },
  {
    "id": "4652580038",
    "name": "介護老人保健施設　グラン・ベリテひわき",
    "kana": "カイゴロウジンホケンシセツ　グラン・ベリテヒワキ",
    "address": "鹿児島県薩摩川内市樋脇町市比野2995番地",
    "lat": 31.7863604,
    "lng": 130.4021796,
    "tel": "0996-38-2500",
    "url": "http://www.takushokai.com/グラン・ベリテひわき/",
    "pref": "鹿児島県",
    "city": "薩摩川内市",
    "category": "rouken",
    "serviceType": "介護老人保健施設",
    "capacity": 0,
    "openDays": [],
    "openDaysNote": ""
  },
  {
    "id": "4650280037",
    "name": "介護老人保健施設　グリーンライフ川内",
    "kana": "カイゴロウジンホケンシセツ　グリーンライフセンダイ",
    "address": "鹿児島県薩摩川内市宮内町磯田２６３３番",
    "lat": 31.830598,
    "lng": 130.291576,
    "tel": "0996-20-2500",
    "url": "http://enokai.jp",
    "pref": "鹿児島県",
    "city": "薩摩川内市",
    "category": "rouken",
    "serviceType": "介護老人保健施設",
    "capacity": 0,
    "openDays": [],
    "openDaysNote": ""
  },
  {
    "id": "4652580046",
    "name": "介護老人保健施設グレースホーム",
    "kana": "カイゴロウジンホケンシセツグレースホーム",
    "address": "薩摩川内市東郷町斧渕8920",
    "lat": 31.874797,
    "lng": 130.3332031,
    "tel": "0996-21-6311",
    "url": "http//www.kamimura-hp.com",
    "pref": "鹿児島県",
    "city": "薩摩川内市",
    "category": "rouken",
    "serviceType": "介護老人保健施設",
    "capacity": 0,
    "openDays": [],
    "openDaysNote": ""
  },
  {
    "id": "4650280029",
    "name": "長生園ナーシングセンター",
    "kana": "チョウセイエンナーシングセンター",
    "address": "鹿児島県薩摩川内市大小路町51番3号",
    "lat": 31.8235162,
    "lng": 130.3035331,
    "tel": "0996-22-1121",
    "url": "http://www.doujunkai.or.jp",
    "pref": "鹿児島県",
    "city": "薩摩川内市",
    "category": "rouken",
    "serviceType": "介護老人保健施設",
    "capacity": 0,
    "openDays": [],
    "openDaysNote": ""
  },
  {
    "id": "4651780019",
    "name": "かいごろうじんんほけんしせつありあけえん（ゆにっと）",
    "kana": "介護老人保健施設アリアケ苑（ユニット）",
    "address": "鹿児島県志布志市有明町野井倉8288-1",
    "lat": 31.4558735,
    "lng": 131.066221,
    "tel": "099-477-2331",
    "url": "http://www.btvm.ne.jp/~r-ariake/",
    "pref": "鹿児島県",
    "city": "志布志市",
    "category": "rouken",
    "serviceType": "介護老人保健施設",
    "capacity": 30,
    "openDays": [],
    "openDaysNote": ""
  },
  {
    "id": "4652980055",
    "name": "介護老人保健施設　ありあけ苑",
    "kana": "カイゴロウジンホケンシセツ　アリアケエン",
    "address": "志布志市有明町野井倉8288-1",
    "lat": 31.455654,
    "lng": 131.066721,
    "tel": "０９９－４７７－２３３１",
    "url": "http://www.btvm.ne.jp/~r-ariake/",
    "pref": "鹿児島県",
    "city": "志布志市",
    "category": "rouken",
    "serviceType": "介護老人保健施設",
    "capacity": 56,
    "openDays": [],
    "openDaysNote": ""
  },
  {
    "id": "4652980030",
    "name": "介護老人保健施設つわぶき",
    "kana": "カイゴロウジンホケンシセツツワブキ",
    "address": "鹿児島県志布志市志布志町志布志１丁目１３番３号",
    "lat": 31.4767082,
    "lng": 131.1032635,
    "tel": "０９９－４７２－５６６６",
    "url": "http://www.sayuukai.or.jp",
    "pref": "鹿児島県",
    "city": "志布志市",
    "category": "rouken",
    "serviceType": "介護老人保健施設",
    "capacity": 86,
    "openDays": [],
    "openDaysNote": ""
  },
  {
    "id": "4651080014",
    "name": "介護老人保健施設　指宿温泉菜の花苑",
    "kana": "カイゴロウジンホケンシセツ　イブスキオンセンナノハナエン",
    "address": "鹿児島県指宿市十町418-1",
    "lat": 31.253709,
    "lng": 130.6336229,
    "tel": "0993-24-3255",
    "url": "https://www.meiseikai.or.jp/",
    "pref": "鹿児島県",
    "city": "指宿市",
    "category": "rouken",
    "serviceType": "介護老人保健施設",
    "capacity": 100,
    "openDays": [],
    "openDaysNote": ""
  },
  {
    "id": "4652280027",
    "name": "介護老人保健施設ヴァンベールみどりの風",
    "kana": "カイゴロウジンホケンシセツゔァンベールミドリノカゼ",
    "address": "鹿児島県指宿市山川大山2056-4",
    "lat": 31.2007765,
    "lng": 130.5920726,
    "tel": "0993-35-3355",
    "url": "https://ventvert-1001.com",
    "pref": "鹿児島県",
    "city": "指宿市",
    "category": "rouken",
    "serviceType": "介護老人保健施設",
    "capacity": 85,
    "openDays": [],
    "openDaysNote": ""
  },
  {
    "id": "4651080022",
    "name": "指宿やすらぎ園",
    "kana": "イブスキヤスラギエン",
    "address": "鹿児島県指宿市東方7531番地",
    "lat": 31.256153,
    "lng": 130.6219489,
    "tel": "0993-24-5593",
    "url": "https://www.ibutake.com/",
    "pref": "鹿児島県",
    "city": "指宿市",
    "category": "rouken",
    "serviceType": "介護老人保健施設",
    "capacity": 98,
    "openDays": [],
    "openDaysNote": ""
  },
  {
    "id": "4611010788",
    "name": "指宿温泉ケアサポート",
    "kana": "イブスキオンセンケアサポート",
    "address": "鹿児島県指宿市西方1050番地",
    "lat": 31.2607221,
    "lng": 130.6239097,
    "tel": "0993-25-3653",
    "url": "https://ibusukionsen-cs.com/",
    "pref": "鹿児島県",
    "city": "指宿市",
    "category": "rouken",
    "serviceType": "介護老人保健施設",
    "capacity": 97,
    "openDays": [],
    "openDaysNote": ""
  },
  {
    "id": "4650380019",
    "name": "介護老人保健施設　ナーシングホームひだまり",
    "kana": "カイゴロウジンホケンシセツ　ナーシングホーム　ヒダマリ",
    "address": "鹿児島県鹿屋市下祓川町1853",
    "lat": 31.4140111,
    "lng": 130.8513875,
    "tel": "0994-41-1200",
    "url": "ｈｔｔｐ：//ikeda-hp.com",
    "pref": "鹿児島県",
    "city": "鹿屋市",
    "category": "rouken",
    "serviceType": "介護老人保健施設",
    "capacity": 0,
    "openDays": [],
    "openDaysNote": ""
  },
  {
    "id": "4650380043",
    "name": "介護老人保健施設　ナーシングホームひだまり（ユニット型）",
    "kana": "カイゴロウジンホケンシセツ　ナーシングホーム　ヒダマリ（ユニットガタ）",
    "address": "鹿児島県鹿屋市下祓川町1853",
    "lat": 31.4140111,
    "lng": 130.8513875,
    "tel": "0994-41-1200",
    "url": "ｈｔｔｐ：//ikeda-hp.com",
    "pref": "鹿児島県",
    "city": "鹿屋市",
    "category": "rouken",
    "serviceType": "介護老人保健施設",
    "capacity": 0,
    "openDays": [],
    "openDaysNote": ""
  },
  {
    "id": "4650380027",
    "name": "介護老人保健施設ヴィラかのや",
    "kana": "カイゴロウジンホケンシセツウ\"ィラカノヤ",
    "address": "鹿児島県鹿屋市寿八丁目21－2",
    "lat": 31.3865256,
    "lng": 130.8802998,
    "tel": "0994－44－0021",
    "url": "http://www.koshinkai.or.jp",
    "pref": "鹿児島県",
    "city": "鹿屋市",
    "category": "rouken",
    "serviceType": "介護老人保健施設",
    "capacity": 0,
    "openDays": [],
    "openDaysNote": ""
  },
  {
    "id": "4650380035",
    "name": "介護老人保健施設ハーモニーガーデン",
    "kana": "カイゴロウジンホケンシセツ　ハーモニーガーデン",
    "address": "鹿児島県鹿屋市寿4丁目1番43号",
    "lat": 31.3890474,
    "lng": 130.8736114,
    "tel": "0994-41-7800",
    "url": "http://wakeikai-g.or.jp",
    "pref": "鹿児島県",
    "city": "鹿屋市",
    "category": "rouken",
    "serviceType": "介護老人保健施設",
    "capacity": 0,
    "openDays": [],
    "openDaysNote": ""
  },
  {
    "id": "4653080020",
    "name": "老人保健施設おさしお",
    "kana": "ロウジンホケンシセツオサシオ",
    "address": "鹿屋市吾平町麓3766番地1",
    "lat": 31.3236409,
    "lng": 130.8922537,
    "tel": "0994-58-5858",
    "url": "http://www.minc.ne.jp/osasio/",
    "pref": "鹿児島県",
    "city": "鹿屋市",
    "category": "rouken",
    "serviceType": "介護老人保健施設",
    "capacity": 0,
    "openDays": [],
    "openDaysNote": ""
  },
  {
    "id": "4650180088",
    "name": "あさひ",
    "kana": "アサヒ",
    "address": "鹿児島市泉町8番2号",
    "lat": 31.5936956,
    "lng": 130.5592851,
    "tel": "099-225-8660",
    "url": "http://www.tenyoukai.org/rouken/index.html",
    "pref": "鹿児島県",
    "city": "鹿児島市",
    "category": "rouken",
    "serviceType": "介護老人保健施設",
    "capacity": 50,
    "openDays": [],
    "openDaysNote": ""
  },
  {
    "id": "4650180187",
    "name": "サテライトろうけん青空",
    "kana": "サテライト　ロウケンアオゾラ",
    "address": "吉野3丁目5番8号",
    "lat": 31.6540066999331,
    "lng": 130.569959226984,
    "tel": "0570-00-4330",
    "url": "http://www.meikikai.com",
    "pref": "鹿児島県",
    "city": "鹿児島市",
    "category": "rouken",
    "serviceType": "介護老人保健施設",
    "capacity": 29,
    "openDays": [],
    "openDaysNote": ""
  },
  {
    "id": "4650180120",
    "name": "まろにえ介護老人保健施設",
    "kana": "マロニエカイゴロウジンホケンシセツ",
    "address": "鹿児島市草牟田二丁目26番45号",
    "lat": 31.6069824,
    "lng": 130.538861,
    "tel": "099-226-3270",
    "url": "https://www.yonemorihp.jp/maronierouken/",
    "pref": "鹿児島県",
    "city": "鹿児島市",
    "category": "rouken",
    "serviceType": "介護老人保健施設",
    "capacity": 70,
    "openDays": [],
    "openDaysNote": ""
  },
  {
    "id": "4670109901",
    "name": "ユニット型介護老人保健施設　ナーシングホーム田上苑",
    "kana": "ユニットガタカイゴロウジンホケンシセツ　ナーシングホームタガミエン",
    "address": "西陵六丁目21番18号",
    "lat": 31.5817406,
    "lng": 130.5041848,
    "tel": "099-283-0120",
    "url": "https://www.tagamien.com/",
    "pref": "鹿児島県",
    "city": "鹿児島市",
    "category": "rouken",
    "serviceType": "介護老人保健施設",
    "capacity": 0,
    "openDays": [],
    "openDaysNote": ""
  },
  {
    "id": "4650180161",
    "name": "ろうけん青空",
    "kana": "ロウケンアオゾラ",
    "address": "鹿児島市吉野町6040番地7",
    "lat": 31.6507374,
    "lng": 130.5915617,
    "tel": "0570-00-4330",
    "url": "http://www.meikikai.com",
    "pref": "鹿児島県",
    "city": "鹿児島市",
    "category": "rouken",
    "serviceType": "介護老人保健施設",
    "capacity": 70,
    "openDays": [],
    "openDaysNote": ""
  },
  {
    "id": "4650180112",
    "name": "医療法人　仁風会　介護老人保健施設　西千石",
    "kana": "イリョウホウジン　ジンプウカイ　カイゴロウジンホケンシセツニシセンゴク",
    "address": "鹿児島市西千石町8番13号",
    "lat": 31.5883737,
    "lng": 130.5481221,
    "tel": "099-223-3300",
    "url": "http://www.jinpuh.or.jp",
    "pref": "鹿児島県",
    "city": "鹿児島市",
    "category": "rouken",
    "serviceType": "介護老人保健施設",
    "capacity": 0,
    "openDays": [],
    "openDaysNote": ""
  },
  {
    "id": "4650180195",
    "name": "医療法人徳洲会　介護老人保健施設　光徳苑",
    "kana": "イリョウホウジントクシュウカイ　カイゴロウジンホケンシセツ　コウトクエン",
    "address": "谷山中央2-4515",
    "lat": 31.5231295160716,
    "lng": 130.519374610141,
    "tel": "099-260-9777",
    "url": "https://www.tokushukai.or.jp",
    "pref": "鹿児島県",
    "city": "鹿児島市",
    "category": "rouken",
    "serviceType": "介護老人保健施設",
    "capacity": 94,
    "openDays": [],
    "openDaysNote": ""
  },
  {
    "id": "4650180047",
    "name": "介護老人保健施設　さくらんぼ",
    "kana": "カイゴロウジンホケンシセツ　サクランボ",
    "address": "鹿児島市下田町1759番地",
    "lat": 31.6460182,
    "lng": 130.5452366,
    "tel": "099-244-8811",
    "url": "http://www.kanyoukai.or.jp/sakuranbo/index.html",
    "pref": "鹿児島県",
    "city": "鹿児島市",
    "category": "rouken",
    "serviceType": "介護老人保健施設",
    "capacity": 80,
    "openDays": [],
    "openDaysNote": ""
  },
  {
    "id": "4650180138",
    "name": "介護老人保健施設　ナーシングホーム田上苑",
    "kana": "カイゴロウジンホケンシセツ　ナーシングホームタガミエン",
    "address": "西陵六丁目21番18号",
    "lat": 31.5818182885213,
    "lng": 130.504039960713,
    "tel": "099-283-0120",
    "url": "https://www.tagamien.com/",
    "pref": "鹿児島県",
    "city": "鹿児島市",
    "category": "rouken",
    "serviceType": "介護老人保健施設",
    "capacity": 0,
    "openDays": [],
    "openDaysNote": ""
  },
  {
    "id": "4652180011",
    "name": "介護老人保健施設　吉田ナーシングホーム",
    "kana": "カイゴロウジンホケンシセツ　ヨシダナーシングホーム",
    "address": "本名町４７２番地",
    "lat": 31.6922444,
    "lng": 130.546221,
    "tel": "099-294-4561",
    "url": "https://nurshing.sekisaikai.jp",
    "pref": "鹿児島県",
    "city": "鹿児島市",
    "category": "rouken",
    "serviceType": "介護老人保健施設",
    "capacity": 76,
    "openDays": [],
    "openDaysNote": ""
  },
  {
    "id": "4650180013",
    "name": "介護老人保健施設　城山老健施設",
    "kana": "カイゴロウジンホケンシセツ　シロヤマロウケンシセツ",
    "address": "鹿児島市草牟田一丁目４番１０号",
    "lat": 31.6022634,
    "lng": 130.5392639,
    "tel": "099-225-3582",
    "url": "http://www.koseikai-uemura.jp",
    "pref": "鹿児島県",
    "city": "鹿児島市",
    "category": "rouken",
    "serviceType": "介護老人保健施設",
    "capacity": 0,
    "openDays": [],
    "openDaysNote": ""
  },
  {
    "id": "4650180021",
    "name": "介護老人保健施設スイートケアなかよし",
    "kana": "カイゴロウジンホケンシセツ　スイートケアナカヨシ",
    "address": "鹿児島県鹿児島市下伊敷1丁目1番5号",
    "lat": 31.60881,
    "lng": 130.53485,
    "tel": "099-223-3390",
    "url": "https://gyokusuikai.jp",
    "pref": "鹿児島県",
    "city": "鹿児島市",
    "category": "rouken",
    "serviceType": "介護老人保健施設",
    "capacity": 0,
    "openDays": [],
    "openDaysNote": ""
  },
  {
    "id": "4650180153",
    "name": "介護老人保健施設ナーシングホーム城山の森",
    "kana": "カイゴロウジンホケンシセツナーシングホームシロヤマノモリ",
    "address": "鹿児島県鹿児島市長田町223番地",
    "lat": 31.6040165,
    "lng": 130.5560767,
    "tel": "099-219-1122",
    "url": "htt:/www.shiroyamanomori.com/",
    "pref": "鹿児島県",
    "city": "鹿児島市",
    "category": "rouken",
    "serviceType": "介護老人保健施設",
    "capacity": 0,
    "openDays": [],
    "openDaysNote": ""
  },
  {
    "id": "4650180096",
    "name": "介護老人保健施設ひまわり",
    "kana": "カイゴロウジンホケンシセツヒマワリ",
    "address": "真砂本町3番81号",
    "lat": 31.5571077,
    "lng": 130.549162,
    "tel": "099-285-2211",
    "url": "rouken-himawari@owa.bbiq.jp",
    "pref": "鹿児島県",
    "city": "鹿児島市",
    "category": "rouken",
    "serviceType": "介護老人保健施設",
    "capacity": 0,
    "openDays": [],
    "openDaysNote": ""
  },
  {
    "id": "4650180054",
    "name": "介護老人保健施設フレンドホーム",
    "kana": "カイゴロウジンホケンシセツフレンドホーム",
    "address": "山田町450番地",
    "lat": 31.5539159,
    "lng": 130.5080077,
    "tel": "099-260-6000",
    "url": "friend.thch.jp/",
    "pref": "鹿児島県",
    "city": "鹿児島市",
    "category": "rouken",
    "serviceType": "介護老人保健施設",
    "capacity": 0,
    "openDays": [],
    "openDaysNote": ""
  },
  {
    "id": "4650180070",
    "name": "介護老人保険施設　愛と結の街",
    "kana": "カイゴロウジンホケンシセツ　アイトユイノマチ",
    "address": "鹿児島県鹿児島市小原町8-3",
    "lat": 31.5418619,
    "lng": 130.5310363,
    "tel": "099-260-6060",
    "url": "http://www.jiaikai.or.jp/aitoyui/",
    "pref": "鹿児島県",
    "city": "鹿児島市",
    "category": "rouken",
    "serviceType": "介護老人保健施設",
    "capacity": 100,
    "openDays": [],
    "openDaysNote": ""
  },
  {
    "id": "4650180062",
    "name": "鴨池慈風苑",
    "kana": "カモイケジフウエン",
    "address": "鹿児島市東郡元町11番6号",
    "lat": 31.5540052,
    "lng": 130.5498204,
    "tel": "099-252-8291",
    "url": "https://jifuen.jifukai.jp/",
    "pref": "鹿児島県",
    "city": "鹿児島市",
    "category": "rouken",
    "serviceType": "介護老人保健施設",
    "capacity": 50,
    "openDays": [],
    "openDaysNote": ""
  },
  {
    "id": "4650180039",
    "name": "城西ナーシングホーム",
    "kana": "ジョウセイナーシングホーム",
    "address": "西田１丁目１６番地1",
    "lat": 31.5887818,
    "lng": 130.543403,
    "tel": "099－258－9180",
    "url": "http://www.jikeikai.net",
    "pref": "鹿児島県",
    "city": "鹿児島市",
    "category": "rouken",
    "serviceType": "介護老人保健施設",
    "capacity": 96,
    "openDays": [],
    "openDaysNote": ""
  },
  {
    "id": "4652280019",
    "name": "老人保健施設　サンシャインきいれ",
    "kana": "ロウジンホケンシセツ　サンシャインキイレ",
    "address": "鹿児島県鹿児島市喜入前之浜町7808-1",
    "lat": 31.3508791,
    "lng": 130.5529946,
    "tel": "099-343-1176",
    "url": "http://kiire.jp/",
    "pref": "鹿児島県",
    "city": "鹿児島市",
    "category": "rouken",
    "serviceType": "介護老人保健施設",
    "capacity": 78,
    "openDays": [],
    "openDaysNote": ""
  },
  {
    "id": "4650880018",
    "name": "ニューライフいずみ",
    "kana": "ニューライフイズミ",
    "address": "鹿児島県出水市平和町336番地１",
    "lat": 32.0823558,
    "lng": 130.3236827,
    "tel": "０９９６－６３－８０００",
    "url": "http://kisshokai.com/",
    "pref": "鹿児島県",
    "city": "出水市",
    "category": "rouken",
    "serviceType": "介護老人保健施設",
    "capacity": 94,
    "openDays": [],
    "openDaysNote": ""
  },
  {
    "id": "4650880034",
    "name": "ユニット型　老健　グランアージュ",
    "kana": "ユニットガタ　ロウケン　グランアージュ",
    "address": "出水市平和町236番地",
    "lat": 32.0824364,
    "lng": 130.330735,
    "tel": "0996-62-8186",
    "url": "http://www.minc.ne.jp/kishoukai",
    "pref": "鹿児島県",
    "city": "出水市",
    "category": "rouken",
    "serviceType": "介護老人保健施設",
    "capacity": 0,
    "openDays": [],
    "openDaysNote": ""
  },
  {
    "id": "4650880026",
    "name": "介護老人保健施設　ラ・フォンテいずみ",
    "kana": "カイゴロウジンホケンシセツ　ラ・フォンテイズミ",
    "address": "出水市五万石２８１番地",
    "lat": 32.073693,
    "lng": 130.344215,
    "tel": "０９９６－６２－７００５",
    "url": "",
    "pref": "鹿児島県",
    "city": "出水市",
    "category": "rouken",
    "serviceType": "介護老人保健施設",
    "capacity": 70,
    "openDays": [],
    "openDaysNote": ""
  },
  {
    "id": "4651480024",
    "name": "介護老人保健施設　絆",
    "kana": "カイゴロウジンホケンシセツ　キズナ",
    "address": "田神3536番地1",
    "lat": 31.4970003,
    "lng": 130.6985366,
    "tel": "0994-32-6161",
    "url": "http://www.kouaikai.or.jp/",
    "pref": "鹿児島県",
    "city": "垂水市",
    "category": "rouken",
    "serviceType": "介護老人保健施設",
    "capacity": 0,
    "openDays": [],
    "openDaysNote": ""
  },
  {
    "id": "4651480016",
    "name": "垂水市立介護老人保健施設コスモス苑",
    "kana": "タルミズシリツカイゴロウジンホケンシセツコスモスエン",
    "address": "鹿児島県垂水市錦江町１－１４０",
    "lat": 31.4907502945989,
    "lng": 130.693331697484,
    "tel": "0994-32-5200",
    "url": "http://www.cosmos-en.jp/",
    "pref": "鹿児島県",
    "city": "垂水市",
    "category": "rouken",
    "serviceType": "介護老人保健施設",
    "capacity": 0,
    "openDays": [],
    "openDaysNote": ""
  },
  {
    "id": "4653280042",
    "name": "介護老人保健施設　せとうち",
    "kana": "カイゴロウジンホケンシセツ　セトウチ",
    "address": "鹿児島県大島郡瀬戸内町阿木名１９７５介護老人保健施設　せとうち 介護老人保健施設　せとうち",
    "lat": 28.1705905,
    "lng": 129.3357277,
    "tel": "0997-73-1155",
    "url": "",
    "pref": "鹿児島県",
    "city": "瀬戸内町",
    "category": "rouken",
    "serviceType": "介護老人保健施設",
    "capacity": 60,
    "openDays": [],
    "openDaysNote": ""
  },
  {
    "id": "4651380018",
    "name": "介護老人保健施設わらび苑",
    "kana": "カイゴロウジンホケンシセツワラビエン",
    "address": "西之表市西之表２９８１－１",
    "lat": 30.7376235,
    "lng": 131.0258521,
    "tel": "0997-22-2600",
    "url": "warabien-care.jp",
    "pref": "鹿児島県",
    "city": "西之表市",
    "category": "rouken",
    "serviceType": "介護老人保健施設",
    "capacity": 97,
    "openDays": [],
    "openDaysNote": ""
  },
  {
    "id": "4652980022",
    "name": "ケアセンターやごろう苑",
    "kana": "ケアセンターヤゴロウエン",
    "address": "曽於市大隅町岩川５５１５番地",
    "lat": 31.5958469,
    "lng": 130.9874338,
    "tel": "099-482-5963",
    "url": "https://aisei-kai.com/yagorouen/",
    "pref": "鹿児島県",
    "city": "曽於市",
    "category": "rouken",
    "serviceType": "介護老人保健施設",
    "capacity": 0,
    "openDays": [],
    "openDaysNote": ""
  },
  {
    "id": "4652980014",
    "name": "高原ナーシングホーム",
    "kana": "タカハラナーシングホーム",
    "address": "曽於市末吉町栄町二丁目11番地1",
    "lat": 31.6570457,
    "lng": 131.0179739,
    "tel": "0986-76-1170",
    "url": "http://www.takahara-net.or.jp",
    "pref": "鹿児島県",
    "city": "曽於市",
    "category": "rouken",
    "serviceType": "介護老人保健施設",
    "capacity": 0,
    "openDays": [],
    "openDaysNote": ""
  },
  {
    "id": "4652980048",
    "name": "介護老人保健施設　サンセリテのがた",
    "kana": "カイゴロウジンホケンシセツ　サンセリテノガタ",
    "address": "鹿児島県曽於郡大崎町野方6047番地3",
    "lat": 31.5108892,
    "lng": 130.948625,
    "tel": "099-471-0088",
    "url": "http:/www.reishinkai.or.jp/",
    "pref": "鹿児島県",
    "city": "大崎町",
    "category": "rouken",
    "serviceType": "介護老人保健施設",
    "capacity": 100,
    "openDays": [],
    "openDaysNote": ""
  },
  {
    "id": "4653280026",
    "name": "医療法人徳洲会介護老人保健施設愛心園",
    "kana": "イリョウホウジントクシュウカイカイゴロウジンホケンシセツアイシンエン",
    "address": "瀬滝３９８番地",
    "lat": 27.775862,
    "lng": 128.9134768,
    "tel": "0997-85-5501",
    "url": "aisinen@voice.ocn.ne.jp",
    "pref": "鹿児島県",
    "city": "天城町",
    "category": "rouken",
    "serviceType": "介護老人保健施設",
    "capacity": 0,
    "openDays": [],
    "openDaysNote": ""
  },
  {
    "id": "4659180014",
    "name": "介護老人保健施設サザンコート",
    "kana": "カイゴロウジンホケンシセツサザンコート",
    "address": "鹿児島県大島郡徳之島町亀津7268番地",
    "lat": 27.7281641313036,
    "lng": 129.019036393054,
    "tel": "0997-83-0061",
    "url": "http://sazancoat.com/",
    "pref": "鹿児島県",
    "city": "徳之島町",
    "category": "rouken",
    "serviceType": "介護老人保健施設",
    "capacity": 29,
    "openDays": [],
    "openDaysNote": ""
  },
  {
    "id": "4652380025",
    "name": "さつま野菊園",
    "kana": "サツマノギクエン",
    "address": "南さつま市笠沙町赤生木１１３７２－３９７",
    "lat": 31.3903139,
    "lng": 130.208908,
    "tel": "０９９３－６３－１０００",
    "url": "www.koujin-ayanokai.or.jp",
    "pref": "鹿児島県",
    "city": "南さつま市",
    "category": "rouken",
    "serviceType": "介護老人保健施設",
    "capacity": 50,
    "openDays": [],
    "openDaysNote": ""
  },
  {
    "id": "4651180012",
    "name": "老人保健施設　ラポール吉井",
    "kana": "ロウジンホケンシセツ　ラポールヨシイ",
    "address": "南さつま市加世田村原１丁目１０-１０",
    "lat": 31.4227418,
    "lng": 130.3260041,
    "tel": "0993-53-8888",
    "url": "http://www.nonohanakai.or.jp",
    "pref": "鹿児島県",
    "city": "南さつま市",
    "category": "rouken",
    "serviceType": "介護老人保健施設",
    "capacity": 0,
    "openDays": [],
    "openDaysNote": ""
  },
  {
    "id": "4652380033",
    "name": "シルバーライフちらん",
    "kana": "シルバーライフチラン",
    "address": "鹿児島県南九州市知覧町塩屋１６０１６番地",
    "lat": 31.2893897,
    "lng": 130.3819991,
    "tel": "０９９３－８５－４０９５",
    "url": "http://www.roken-chiran.or.jp",
    "pref": "鹿児島県",
    "city": "南九州市",
    "category": "rouken",
    "serviceType": "介護老人保健施設",
    "capacity": null,
    "openDays": [],
    "openDaysNote": ""
  },
  {
    "id": "4652380017",
    "name": "老人保健施設　かわなべ寿光苑",
    "kana": "ロウジンホケンシセツ　カワナベジュコウエン",
    "address": "南九州市川辺町田部田4848-4",
    "lat": 31.3868176,
    "lng": 130.3896561,
    "tel": "0993-56-4311",
    "url": "http://minc.ne.jp.kikuno/",
    "pref": "鹿児島県",
    "city": "南九州市",
    "category": "rouken",
    "serviceType": "介護老人保健施設",
    "capacity": 0,
    "openDays": [],
    "openDaysNote": ""
  },
  {
    "id": "4652480015",
    "name": "シルバーセンター光の里",
    "kana": "シルバーセンターヒカリノサト",
    "address": "鹿児島県日置市伊集院町妙円寺1丁目1番地6",
    "lat": 31.6412188140379,
    "lng": 130.395083169817,
    "tel": "099-273-5600",
    "url": "http://www.seishin-kai.org",
    "pref": "鹿児島県",
    "city": "日置市",
    "category": "rouken",
    "serviceType": "介護老人保健施設",
    "capacity": 0,
    "openDays": [],
    "openDaysNote": ""
  },
  {
    "id": "4652480023",
    "name": "医療法人昭泉会介護老人保健施設湯の浦ナーシングホーム",
    "kana": "イリョウホウジンショウセンカイカイゴロウジンホケンシセツユノウラナーシングホーム",
    "address": "日置市吹上町湯之浦1353番地",
    "lat": 31.5032449,
    "lng": 130.3589585,
    "tel": "099-296-5411",
    "url": "",
    "pref": "鹿児島県",
    "city": "日置市",
    "category": "rouken",
    "serviceType": "介護老人保健施設",
    "capacity": 0,
    "openDays": [],
    "openDaysNote": ""
  },
  {
    "id": "4652480031",
    "name": "介護老人保健施設　アンダンテ伊集院",
    "kana": "カイゴロウジンホケンシセツ　アンダンテイジュウイン",
    "address": "鹿児島県日置市伊集院町妙円寺3-1303-10",
    "lat": 31.6464072,
    "lng": 130.4014686,
    "tel": "099-272-5181",
    "url": "http://kenseikai.biz",
    "pref": "鹿児島県",
    "city": "日置市",
    "category": "rouken",
    "serviceType": "介護老人保健施設",
    "capacity": 0,
    "openDays": [],
    "openDaysNote": ""
  },
  {
    "id": "4650480017",
    "name": "エスポワール立神",
    "kana": "エスポワールタテガミ",
    "address": "鹿児島県枕崎市火之神町６３０番地",
    "lat": 31.2542208,
    "lng": 130.2768179,
    "tel": "0993-73-2266",
    "url": "http://www5.synapse.ne.jp/espotategami/",
    "pref": "鹿児島県",
    "city": "枕崎市",
    "category": "rouken",
    "serviceType": "介護老人保健施設",
    "capacity": null,
    "openDays": [],
    "openDaysNote": ""
  },
  {
    "id": "4650480025",
    "name": "サザンケアセンター",
    "kana": "サザンケアセンター",
    "address": "緑町２３６番地",
    "lat": 31.2772663,
    "lng": 130.2932685,
    "tel": "０９９３－７２－８８５５",
    "url": "http://southernregion.jp/",
    "pref": "鹿児島県",
    "city": "枕崎市",
    "category": "rouken",
    "serviceType": "介護老人保健施設",
    "capacity": 0,
    "openDays": [],
    "openDaysNote": ""
  },
  {
    "id": "4650480033",
    "name": "社会医療法人　聖医会　介護老人保健施設　サザン・ユニットケアセンター",
    "kana": "シャカイイリョウホウジン　セイイカイ　カイゴロウジンホケンシセツ　サザン・ユニットケアセンター",
    "address": "緑町２３６番地",
    "lat": 31.2772663,
    "lng": 130.2932685,
    "tel": "０９９３－７２－８８５５",
    "url": "",
    "pref": "鹿児島県",
    "city": "枕崎市",
    "category": "rouken",
    "serviceType": "介護老人保健施設",
    "capacity": 20,
    "openDays": [],
    "openDaysNote": ""
  },
  {
    "id": "4652880016",
    "name": "介護老人保健施設　希望の里",
    "kana": "カイゴロウジンホケンシセツ　キボウノサト",
    "address": "霧島市隼人町姫城二丁目157番地",
    "lat": 31.7657049,
    "lng": 130.7576547,
    "tel": "0995-43-1600",
    "url": "http://hayato-spa.hospi.jp/",
    "pref": "鹿児島県",
    "city": "霧島市",
    "category": "rouken",
    "serviceType": "介護老人保健施設",
    "capacity": 0,
    "openDays": [],
    "openDaysNote": ""
  },
  {
    "id": "4651280010",
    "name": "介護老人保健施設アメニティ国分",
    "kana": "カイゴロウジンホケンシセツ　アメニティコクブ",
    "address": "霧島市国分重久３６１－１",
    "lat": 31.7676187,
    "lng": 130.7783783,
    "tel": "0995-64-0666",
    "url": "https://syunseikai.or.jp/",
    "pref": "鹿児島県",
    "city": "霧島市",
    "category": "rouken",
    "serviceType": "介護老人保健施設",
    "capacity": 0,
    "openDays": [],
    "openDaysNote": ""
  },
  {
    "id": "4652880073",
    "name": "介護老人保健施設きりしま",
    "kana": "カイゴロウジンホケンシセツキリシマ",
    "address": "鹿児島県霧島市霧島田口２１１５番地１",
    "lat": 31.8488060032038,
    "lng": 130.85524163373,
    "tel": "０９９５－５７－３４１０",
    "url": "https://www.kouseikai.info/",
    "pref": "鹿児島県",
    "city": "霧島市",
    "category": "rouken",
    "serviceType": "介護老人保健施設",
    "capacity": 0,
    "openDays": [],
    "openDaysNote": ""
  },
  {
    "id": "4652880057",
    "name": "介護老人保健施設サンライトホーム",
    "kana": "カイゴロウジンホケンシセツサンライトホーム",
    "address": "霧島市牧園町高千穂3617番地623",
    "lat": 31.8799288,
    "lng": 130.8184346,
    "tel": "0995-78-3811",
    "url": "http://www.toukeikai.jp/",
    "pref": "鹿児島県",
    "city": "霧島市",
    "category": "rouken",
    "serviceType": "介護老人保健施設",
    "capacity": 70,
    "openDays": [],
    "openDaysNote": ""
  },
  {
    "id": "4652880107",
    "name": "介護老人保健施設　しらうめ",
    "kana": "カイゴロウジンホケンシセツ　シラウメ",
    "address": "鹿児島県姶良郡湧水町木場９７３番地１",
    "lat": 31.9546023,
    "lng": 130.7276183,
    "tel": "０９９５－７４－１５０５",
    "url": "",
    "pref": "鹿児島県",
    "city": "湧水町",
    "category": "rouken",
    "serviceType": "介護老人保健施設",
    "capacity": 19,
    "openDays": [],
    "openDaysNote": ""
  },
  {
    "id": "4652880024",
    "name": "介護老人保健施設　寿芳苑",
    "kana": "カイゴロウジンホケンシセツ　ジュホウエン",
    "address": "鹿児島県姶良郡湧水町北方1857番地",
    "lat": 31.9579931,
    "lng": 130.7129803,
    "tel": "0995-74-3300",
    "url": "",
    "pref": "鹿児島県",
    "city": "湧水町",
    "category": "rouken",
    "serviceType": "介護老人保健施設",
    "capacity": 0,
    "openDays": [],
    "openDaysNote": ""
  },
  {
    "id": "4653280059",
    "name": "介護老人保健施設　風花苑",
    "kana": "カイゴロウジンホケンシセツ　カザハナエン",
    "address": "鹿児島県大島郡与論町大字麦屋字風花1305番5",
    "lat": 27.0201246542327,
    "lng": 128.444272126147,
    "tel": "0997－97－5011",
    "url": "http://www.kazahanaen.com",
    "pref": "鹿児島県",
    "city": "与論町",
    "category": "rouken",
    "serviceType": "介護老人保健施設",
    "capacity": null,
    "openDays": [],
    "openDaysNote": ""
  },
  {
    "id": "4658880010",
    "name": "介護老人保健施設　秋名の郷",
    "kana": "カイゴロウジンホケンシセツ　アキナノサト",
    "address": "鹿児島県大島郡龍郷町幾里字濱崎179番地",
    "lat": 28.4488266500204,
    "lng": 129.562251713908,
    "tel": "0997-62-4111",
    "url": "http://tokushukai-amami-area.com/pg43.html",
    "pref": "鹿児島県",
    "city": "龍郷町",
    "category": "rouken",
    "serviceType": "介護老人保健施設",
    "capacity": 80,
    "openDays": [],
    "openDaysNote": ""
  },
  {
    "id": "4653280018",
    "name": "沖永良部寿恵苑",
    "kana": "オキノエラブジュケイエン",
    "address": "大島郡和泊町和泊９５－１",
    "lat": 27.3883096,
    "lng": 128.6530142,
    "tel": "０９９７－９２－３６９１",
    "url": "",
    "pref": "鹿児島県",
    "city": "和泊町",
    "category": "rouken",
    "serviceType": "介護老人保健施設",
    "capacity": 0,
    "openDays": [],
    "openDaysNote": ""
  }
]