[
  {
    "id": "2472100193",
    "name": "特別養護老人ホームアイリス",
    "kana": "トクベツヨウゴロウジンホームアイリス",
    "address": "三重県いなべ市阿下喜３７２８番地２",
    "lat": 35.1450849016989,
    "lng": 136.516811311721,
    "tel": "0594-72-7722",
    "url": "http://hokusei-you.net/iris/index.php",
    "pref": "三重県",
    "city": "いなべ市",
    "category": "tokuyou",
    "serviceType": "介護老人福祉施設",
    "capacity": 0,
    "openDays": [],
    "openDaysNote": ""
  },
  {
    "id": "2472100136",
    "name": "特別養護老人ホーム翠明院",
    "kana": "トクベツヨウゴロウジンホーム　スイメイイン",
    "address": "三重県いなべ市藤原町上之山田1433番地3",
    "lat": 35.2173818,
    "lng": 136.4734699,
    "tel": "0594-46-4678",
    "url": "http://suimeiin.or.jp/",
    "pref": "三重県",
    "city": "いなべ市",
    "category": "tokuyou",
    "serviceType": "介護老人福祉施設",
    "capacity": 50,
    "openDays": [],
    "openDaysNote": ""
  },
  {
    "id": "2471201174",
    "name": "ユニット型特養　さわやか園",
    "kana": "ユニットガタトクヨウ　サワヤカエン",
    "address": "三重県伊賀市山出字金坪２２２０番地の１０",
    "lat": 34.7140257506425,
    "lng": 136.120409108321,
    "tel": "0595-22-0001",
    "url": "https://www.sawayakaen.or.jp/",
    "pref": "三重県",
    "city": "伊賀市",
    "category": "tokuyou",
    "serviceType": "介護老人福祉施設",
    "capacity": 30,
    "openDays": [],
    "openDaysNote": ""
  },
  {
    "id": "2473200109",
    "name": "指定介護老人福祉施設　特別養護老人ホーム　ぬくもり園",
    "kana": "シテイカイゴロウジンフクシシセツ　トクベツヨウゴロウジンホームヌクモリエン",
    "address": "三重県伊賀市馬場600番地",
    "lat": 34.8264579,
    "lng": 136.168707,
    "tel": "0595-43-2300",
    "url": "https://nukumorien.com/",
    "pref": "三重県",
    "city": "伊賀市",
    "category": "tokuyou",
    "serviceType": "介護老人福祉施設",
    "capacity": 0,
    "openDays": [],
    "openDaysNote": ""
  },
  {
    "id": "2471200176",
    "name": "従来型特養　さわやか園",
    "kana": "ジュウライガタトクヨウ　サワヤカエン",
    "address": "三重県伊賀市山出字金坪２２２０番地の１０",
    "lat": 34.7140330715723,
    "lng": 136.120401455681,
    "tel": "0595-22-0001",
    "url": "https://www.sawayakaen.or.jp/",
    "pref": "三重県",
    "city": "伊賀市",
    "category": "tokuyou",
    "serviceType": "介護老人福祉施設",
    "capacity": 60,
    "openDays": [],
    "openDaysNote": ""
  },
  {
    "id": "2473200083",
    "name": "特別養護老人ホーム　おおやまだ鶴寿園",
    "kana": "トクベツヨウゴロウジンホーム　オオヤマダカクジュエン",
    "address": "三重県伊賀市真泥２０６６番地",
    "lat": 34.7602119,
    "lng": 136.1970444,
    "tel": "0595-46-1021",
    "url": "http://www.green-center.or.jp",
    "pref": "三重県",
    "city": "伊賀市",
    "category": "tokuyou",
    "serviceType": "介護老人福祉施設",
    "capacity": 0,
    "openDays": [],
    "openDaysNote": ""
  },
  {
    "id": "2471201372",
    "name": "特別養護老人ホーム　伊賀の街",
    "kana": "トクベツヨウゴロウジンホーム　イガノマチ",
    "address": "三重県伊賀市小田町３４６－１",
    "lat": 34.7783416,
    "lng": 136.1300711,
    "tel": "0595-41-1120",
    "url": "http://www.keihoukai.net",
    "pref": "三重県",
    "city": "伊賀市",
    "category": "tokuyou",
    "serviceType": "介護老人福祉施設",
    "capacity": 80,
    "openDays": [],
    "openDaysNote": ""
  },
  {
    "id": "2471200085",
    "name": "特別養護老人ホーム　彩四季",
    "kana": "トクベツヨウゴロウジンホーム　サイシキ",
    "address": "三重県伊賀市市部奥山2611番5",
    "lat": 34.7387656861472,
    "lng": 136.178812362749,
    "tel": "0595-26-0011",
    "url": "",
    "pref": "三重県",
    "city": "伊賀市",
    "category": "tokuyou",
    "serviceType": "介護老人福祉施設",
    "capacity": 0,
    "openDays": [],
    "openDaysNote": ""
  },
  {
    "id": "2473300032",
    "name": "特別養護老人ホーム　森の里",
    "kana": "トクベツヨウゴロウジンホーム　モリノサト",
    "address": "三重県伊賀市腰山1135番地",
    "lat": 34.6319609,
    "lng": 136.2088813,
    "tel": "0595-54-1331",
    "url": "http://www.nava21.ne.jp/~tokuyo-m/",
    "pref": "三重県",
    "city": "伊賀市",
    "category": "tokuyou",
    "serviceType": "介護老人福祉施設",
    "capacity": 50,
    "openDays": [],
    "openDaysNote": ""
  },
  {
    "id": "2471201216",
    "name": "特別養護老人ホーム　森の里　木精館",
    "kana": "トクベツヨウゴロウジンホーム　モリノサト　コダマカン",
    "address": "三重県伊賀市腰山1135番地",
    "lat": 34.6319609,
    "lng": 136.2088813,
    "tel": "0595-54-1331",
    "url": "https://aoyama-fukushikai.or.jp/",
    "pref": "三重県",
    "city": "伊賀市",
    "category": "tokuyou",
    "serviceType": "介護老人福祉施設",
    "capacity": 40,
    "openDays": [],
    "openDaysNote": ""
  },
  {
    "id": "2471200424",
    "name": "特別養護老人ホームいがの里",
    "kana": "トクベツヨウゴロウジンホームイガノサト",
    "address": "三重県伊賀市愛田550番地",
    "lat": 34.8071001,
    "lng": 136.2230609,
    "tel": "0595-45-8875",
    "url": "https://aoyama-fukushikai.or.jp",
    "pref": "三重県",
    "city": "伊賀市",
    "category": "tokuyou",
    "serviceType": "介護老人福祉施設",
    "capacity": 60,
    "openDays": [],
    "openDaysNote": ""
  },
  {
    "id": "2471201208",
    "name": "特別養護老人ホームぬくもり園",
    "kana": "トクベツヨウゴロウジンホームヌクモリエン",
    "address": "伊賀市馬場600番地",
    "lat": 34.8263245,
    "lng": 136.1688042,
    "tel": "0595-43-2300",
    "url": "https://nukumorien.com/",
    "pref": "三重県",
    "city": "伊賀市",
    "category": "tokuyou",
    "serviceType": "介護老人福祉施設",
    "capacity": 0,
    "openDays": [],
    "openDaysNote": ""
  },
  {
    "id": "2471201075",
    "name": "特別養護老人ホームゆめが丘鶴寿園",
    "kana": "トクベツヨウゴロウジンホームユメガオカカクジュエン",
    "address": "ゆめが丘2-1-3",
    "lat": 34.7396892,
    "lng": 136.1613052,
    "tel": "0595-48-6840",
    "url": "http://www.green-center.or.jp",
    "pref": "三重県",
    "city": "伊賀市",
    "category": "tokuyou",
    "serviceType": "介護老人福祉施設",
    "capacity": 80,
    "openDays": [],
    "openDaysNote": ""
  },
  {
    "id": "2471200994",
    "name": "特別養護老人ホーム伊賀シルバーケア豊壽園",
    "kana": "トクベツヨウゴロウジンホームイガシルバーケアホウジュエン",
    "address": "伊賀市久米町字大木872番地1",
    "lat": 34.7540096345764,
    "lng": 136.141678490443,
    "tel": "0595－23－6500",
    "url": "http：//www．sensin．or．jp/",
    "pref": "三重県",
    "city": "伊賀市",
    "category": "tokuyou",
    "serviceType": "介護老人福祉施設",
    "capacity": 0,
    "openDays": [],
    "openDaysNote": ""
  },
  {
    "id": "2471201364",
    "name": "特別養護老人ホーム伊賀の街(ユニット型)",
    "kana": "トクベツヨウゴロウジンホーム　イガノマチ(ユニットガタ)",
    "address": "三重県伊賀市小田町346-1",
    "lat": 34.7783416,
    "lng": 136.1300711,
    "tel": "0595-41-1120",
    "url": "http://www.keihokai.net/",
    "pref": "三重県",
    "city": "伊賀市",
    "category": "tokuyou",
    "serviceType": "介護老人福祉施設",
    "capacity": 22,
    "openDays": [],
    "openDaysNote": ""
  },
  {
    "id": "2471200101",
    "name": "特別養護老人ホーム第二梨ノ木園",
    "kana": "トクベツヨウゴロウジンホームダイニナシノキエン",
    "address": "三重県伊賀市朝屋731番地",
    "lat": 34.7556547,
    "lng": 136.1071794,
    "tel": "0595-24-3030",
    "url": "http://www.iga-sjk.or.jp/",
    "pref": "三重県",
    "city": "伊賀市",
    "category": "tokuyou",
    "serviceType": "介護老人福祉施設",
    "capacity": 0,
    "openDays": [],
    "openDaysNote": ""
  },
  {
    "id": "2471200093",
    "name": "特別養護老人ホーム福寿園",
    "kana": "トクベツヨウゴロウジンホームフクジュエン",
    "address": "三重県伊賀市西山宇治田東1650番地",
    "lat": 34.7922059,
    "lng": 136.081695,
    "tel": "0595-24-3636",
    "url": "http://www.fukujyukai.or.jp/",
    "pref": "三重県",
    "city": "伊賀市",
    "category": "tokuyou",
    "serviceType": "介護老人福祉施設",
    "capacity": 80,
    "openDays": [],
    "openDaysNote": ""
  },
  {
    "id": "2470802493",
    "name": "特別養護老人ホーム　ふたみ苑",
    "kana": "トクベツヨウゴロウジンホーム　フタミエン",
    "address": "三重県伊勢市二見町三津字南浦1201番地68特別養護老人ホーム　ふたみ苑 特別養護老人ホーム　ふたみ苑",
    "lat": 34.4966169036913,
    "lng": 136.783122286183,
    "tel": "0596-44-0700",
    "url": "http://www.koushin.or.jp/",
    "pref": "三重県",
    "city": "伊勢市",
    "category": "tokuyou",
    "serviceType": "介護老人福祉施設",
    "capacity": 100,
    "openDays": [],
    "openDaysNote": ""
  },
  {
    "id": "2470800315",
    "name": "特別養護老人ホーム　伊勢あさま苑",
    "kana": "トクベツヨウゴロウジンホーム　イセアサマエン",
    "address": "三重県伊勢市朝熊町3074-11",
    "lat": 34.490104,
    "lng": 136.7590013,
    "tel": "0596-20-5511",
    "url": "http://www.asamaen.jp",
    "pref": "三重県",
    "city": "伊勢市",
    "category": "tokuyou",
    "serviceType": "介護老人福祉施設",
    "capacity": null,
    "openDays": [],
    "openDaysNote": ""
  },
  {
    "id": "2470802022",
    "name": "特別養護老人ホーム　雅之園",
    "kana": "トクベツヨウゴロウジンホーム　ミヤビノソノ",
    "address": "三重県伊勢市小俣町本町341-104",
    "lat": 34.5029604,
    "lng": 136.6645427,
    "tel": "0596-27-5880",
    "url": "http://www.hoeikai.or.jp",
    "pref": "三重県",
    "city": "伊勢市",
    "category": "tokuyou",
    "serviceType": "介護老人福祉施設",
    "capacity": 0,
    "openDays": [],
    "openDaysNote": ""
  },
  {
    "id": "2472800289",
    "name": "特別養護老人ホーム　高砂寮",
    "kana": "トクベツヨウゴロウジンホームタカサゴリョウ",
    "address": "三重県伊勢市小俣町宮前38",
    "lat": 34.4950954,
    "lng": 136.6813162,
    "tel": "0596-22-1045",
    "url": "http://takasago-ise.jp",
    "pref": "三重県",
    "city": "伊勢市",
    "category": "tokuyou",
    "serviceType": "介護老人福祉施設",
    "capacity": 0,
    "openDays": [],
    "openDaysNote": ""
  },
  {
    "id": "2470800182",
    "name": "特別養護老人ホーム　神路園",
    "kana": "トクベツヨウゴロウジンホーム　カミジエン",
    "address": "三重県伊勢市二俣町577番地9",
    "lat": 34.4748179,
    "lng": 136.6816021,
    "tel": "0596-22-6010",
    "url": "http://www.amigo2.ne.jp/~kamizien/",
    "pref": "三重県",
    "city": "伊勢市",
    "category": "tokuyou",
    "serviceType": "介護老人福祉施設",
    "capacity": 0,
    "openDays": [],
    "openDaysNote": ""
  },
  {
    "id": "2470800216",
    "name": "特別養護老人ホーム　正邦苑",
    "kana": "トクベツヨウゴロウジンホーム　ショウホウエン",
    "address": "三重県伊勢市村松町３２９４番地１",
    "lat": 34.5442729,
    "lng": 136.689518,
    "tel": "0596-38-1800",
    "url": "http://www.jikeikai-ise.or.jp/",
    "pref": "三重県",
    "city": "伊勢市",
    "category": "tokuyou",
    "serviceType": "介護老人福祉施設",
    "capacity": 0,
    "openDays": [],
    "openDaysNote": ""
  },
  {
    "id": "2470800935",
    "name": "特別養護老人ホーム　正邦苑靜乾",
    "kana": "トクベツヨウゴロウジンホーム　ショウホウエンセイカン",
    "address": "三重県伊勢市村松町3355番1",
    "lat": 34.5440646,
    "lng": 136.6910928,
    "tel": "0596-38-0505",
    "url": "http://www.jikeikai-ise.or.jp/shisetsu/seikan.html",
    "pref": "三重県",
    "city": "伊勢市",
    "category": "tokuyou",
    "serviceType": "介護老人福祉施設",
    "capacity": 0,
    "openDays": [],
    "openDaysNote": ""
  },
  {
    "id": "2470800190",
    "name": "特別養護老人ホーム　双寿園",
    "kana": "トクベツヨウゴロウジンホーム　ソウジュエン",
    "address": "三重県伊勢市河崎3丁目15番33号",
    "lat": 34.4957555,
    "lng": 136.7187656,
    "tel": "0596-27-6177",
    "url": "http://www.hoeikai.or.jp/main/",
    "pref": "三重県",
    "city": "伊勢市",
    "category": "tokuyou",
    "serviceType": "介護老人福祉施設",
    "capacity": 0,
    "openDays": [],
    "openDaysNote": ""
  },
  {
    "id": "2470800620",
    "name": "特別養護老人ホームいすず苑",
    "kana": "トクベツヨウゴロウジンホームイスズエン",
    "address": "三重県伊勢市楠部町若ノ山2605-33",
    "lat": 34.476925,
    "lng": 136.7389948,
    "tel": "0596-28-1010",
    "url": "https://isuzukai.or.jp",
    "pref": "三重県",
    "city": "伊勢市",
    "category": "tokuyou",
    "serviceType": "介護老人福祉施設",
    "capacity": 0,
    "openDays": [],
    "openDaysNote": ""
  },
  {
    "id": "2470802725",
    "name": "特別養護老人ホーム賀集楽",
    "kana": "トクベツヨウゴロウジンホームカシュウラク",
    "address": "三重県伊勢市宇治浦田三丁目23番15号",
    "lat": 34.4686226,
    "lng": 136.7150854,
    "tel": "0596-20-2118",
    "url": "https://www.kashuraku.jp/",
    "pref": "三重県",
    "city": "伊勢市",
    "category": "tokuyou",
    "serviceType": "介護老人福祉施設",
    "capacity": 40,
    "openDays": [],
    "openDaysNote": ""
  },
  {
    "id": "2470800208",
    "name": "特別養護老人ホーム白百合園",
    "kana": "トクベツヨウゴロウジンホーム　シラユリエン",
    "address": "三重県伊勢市上地町3130番地",
    "lat": 34.5008105,
    "lng": 136.6565239,
    "tel": "0596-27-1511",
    "url": "https://fukutokukai.jp/",
    "pref": "三重県",
    "city": "伊勢市",
    "category": "tokuyou",
    "serviceType": "介護老人福祉施設",
    "capacity": 50,
    "openDays": [],
    "openDaysNote": ""
  },
  {
    "id": "2473100028",
    "name": "宝寿園",
    "kana": "ホウジュエン",
    "address": "三重県南牟婁郡紀宝町北桧杖90番地",
    "lat": 33.7289154,
    "lng": 135.9721927,
    "tel": "0735-21-0903",
    "url": "",
    "pref": "三重県",
    "city": "紀宝町",
    "category": "tokuyou",
    "serviceType": "介護老人福祉施設",
    "capacity": 0,
    "openDays": [],
    "openDaysNote": ""
  },
  {
    "id": "2473000095",
    "name": "紀北町立老人ホーム赤羽寮",
    "kana": "キホクチョウリツロウジンホームアカバリョウ",
    "address": "三重県北牟婁郡紀北町島原1402番地1",
    "lat": 34.2152007,
    "lng": 136.3025266,
    "tel": "0597-47-1830",
    "url": "",
    "pref": "三重県",
    "city": "紀北町",
    "category": "tokuyou",
    "serviceType": "介護老人福祉施設",
    "capacity": 50,
    "openDays": [],
    "openDaysNote": ""
  },
  {
    "id": "2473000400",
    "name": "特別養護老人ホーム　どじょっこ",
    "kana": "トクベツヨウゴロウジンホーム　ドジョッコ",
    "address": "北牟婁郡紀北町馬瀬字広田1635番地1",
    "lat": 34.1516083513475,
    "lng": 136.251125555076,
    "tel": "0597-33-1120",
    "url": "http://www.owasechojuen.or.jp",
    "pref": "三重県",
    "city": "紀北町",
    "category": "tokuyou",
    "serviceType": "介護老人福祉施設",
    "capacity": 50,
    "openDays": [],
    "openDaysNote": ""
  },
  {
    "id": "2473000103",
    "name": "特別養護老人ホーム　みやま園",
    "kana": "トクベツヨウゴロウジンホーム　ミヤマエン",
    "address": "三重県北牟婁郡紀北町矢口浦842番地",
    "lat": 34.1372244,
    "lng": 136.2672017,
    "tel": "0597-39-1010",
    "url": "http://www.zd.ztv.ne.jp/miyamaen/",
    "pref": "三重県",
    "city": "紀北町",
    "category": "tokuyou",
    "serviceType": "介護老人福祉施設",
    "capacity": 0,
    "openDays": [],
    "openDaysNote": ""
  },
  {
    "id": "2470400991",
    "name": "ユニット型特別養護老人ホーム安全の里",
    "kana": "ユニットガタトクベツヨウゴロウジンホームアンゼンノサト",
    "address": "三重県亀山市住山町590番地1",
    "lat": 34.8753086,
    "lng": 136.4299195,
    "tel": "0595-83-1294",
    "url": "https://www.anzenfukushikai.or.jp/",
    "pref": "三重県",
    "city": "亀山市",
    "category": "tokuyou",
    "serviceType": "介護老人福祉施設",
    "capacity": 40,
    "openDays": [],
    "openDaysNote": ""
  },
  {
    "id": "2470400660",
    "name": "特別養護老人ホ－ム　亀山愛の里",
    "kana": "トクベツヨウゴロウジンホ－ム　カメヤマアイノサト",
    "address": "亀山市川合町1288-4",
    "lat": 34.8626441,
    "lng": 136.4754248,
    "tel": "0595-84-1500",
    "url": "https://kameyama-ainosato.com",
    "pref": "三重県",
    "city": "亀山市",
    "category": "tokuyou",
    "serviceType": "介護老人福祉施設",
    "capacity": 50,
    "openDays": [],
    "openDaysNote": ""
  },
  {
    "id": "2472300041",
    "name": "特別養護老人ホーム　華旺寿",
    "kana": "トクベツヨウゴロウジンホーム　カオス",
    "address": "三重県亀山市関町坂下252番地",
    "lat": 34.8909225,
    "lng": 136.3558184,
    "tel": "0595-96-3131",
    "url": "https://www.hiragikaikaosu.com/",
    "pref": "三重県",
    "city": "亀山市",
    "category": "tokuyou",
    "serviceType": "介護老人福祉施設",
    "capacity": 50,
    "openDays": [],
    "openDaysNote": ""
  },
  {
    "id": "2470400199",
    "name": "特別養護老人ホーム　亀寿苑",
    "kana": "トクベツヨウゴロウジンホーム　キジュエン",
    "address": "三重県亀山市阿野田町2443-1",
    "lat": 34.8380106,
    "lng": 136.4645271,
    "tel": "0595-84-1212",
    "url": "https://www.kijuen.jp/",
    "pref": "三重県",
    "city": "亀山市",
    "category": "tokuyou",
    "serviceType": "介護老人福祉施設",
    "capacity": 50,
    "openDays": [],
    "openDaysNote": ""
  },
  {
    "id": "2470400017",
    "name": "特別養護老人ホーム安全の里",
    "kana": "トクベツヨウゴロウジンホームアンゼンノサト",
    "address": "三重県亀山市住山町590番地1",
    "lat": 34.8752726,
    "lng": 136.4298888,
    "tel": "0595-83-1294",
    "url": "http://www.anzenfukushikai.or.jp/",
    "pref": "三重県",
    "city": "亀山市",
    "category": "tokuyou",
    "serviceType": "介護老人福祉施設",
    "capacity": 40,
    "openDays": [],
    "openDaysNote": ""
  },
  {
    "id": "2472800479",
    "name": "介護老人福祉施設　はなのその",
    "kana": "カイゴロウジンフクシシセツ　ハナノソノ",
    "address": "三重県度会郡玉城町勝田字濱塚3086番地42",
    "lat": 34.4764701663876,
    "lng": 136.631561516949,
    "tel": "0596-58-0087",
    "url": "https://yurihananosono.jp/",
    "pref": "三重県",
    "city": "玉城町",
    "category": "tokuyou",
    "serviceType": "介護老人福祉施設",
    "capacity": null,
    "openDays": [],
    "openDaysNote": ""
  },
  {
    "id": "2472801535",
    "name": "介護老人福祉施設　はなのその",
    "kana": "カイゴロウジンフクシシセツ　ハナノソノ",
    "address": "三重県度会郡玉城町勝田３０８６－４２",
    "lat": 34.4768246,
    "lng": 136.631706,
    "tel": "０５９６－５８－００８７",
    "url": "https://yurihananosono.jp/",
    "pref": "三重県",
    "city": "玉城町",
    "category": "tokuyou",
    "serviceType": "介護老人福祉施設",
    "capacity": null,
    "openDays": [],
    "openDaysNote": ""
  },
  {
    "id": "2473100069",
    "name": "ケアホーム　熊南",
    "kana": "ケアホーム　ユウナン",
    "address": "三重県熊野市紀和町板屋１３２－２",
    "lat": 33.873145,
    "lng": 135.9138296,
    "tel": "0597-97-0005",
    "url": "https://yuunan3.wixsite.com/kiwakai",
    "pref": "三重県",
    "city": "熊野市",
    "category": "tokuyou",
    "serviceType": "介護老人福祉施設",
    "capacity": 50,
    "openDays": [],
    "openDaysNote": ""
  },
  {
    "id": "2471100392",
    "name": "特別養護老人ホーム　たちばな園あすか",
    "kana": "トクベツヨウゴロウジンホーム　タチバナエンアスカ",
    "address": "三重県熊野市飛鳥町大又250特別養護老人ホームたちばな園あすか 特別養護老人ホームたちばな園あすか",
    "lat": 33.9628925,
    "lng": 136.1053759,
    "tel": "0597-84-1250",
    "url": "http://www.za.ztv.ne.jp/tachibanaen/",
    "pref": "三重県",
    "city": "熊野市",
    "category": "tokuyou",
    "serviceType": "介護老人福祉施設",
    "capacity": 0,
    "openDays": [],
    "openDaysNote": ""
  },
  {
    "id": "2471100012",
    "name": "特別養護老人ホームたちばな園",
    "kana": "トクベツヨウゴロウジンホームタチバナエン",
    "address": "三重県熊野市有馬町字中曽3466-1",
    "lat": 33.873143632202,
    "lng": 136.063653761996,
    "tel": "0597-89-5565",
    "url": "http://www.za.ztv.ne.jp/tachibanaen/",
    "pref": "三重県",
    "city": "熊野市",
    "category": "tokuyou",
    "serviceType": "介護老人福祉施設",
    "capacity": 0,
    "openDays": [],
    "openDaysNote": ""
  },
  {
    "id": "2470100518",
    "name": "特別養護老人ホーム　いこい",
    "kana": "トクベツヨウゴロウジンホーム　イコイ",
    "address": "三重県桑名市大字西金井字村中１７０番地",
    "lat": 35.0508638,
    "lng": 136.6661185,
    "tel": "0594-25-2666",
    "url": "http://www.ikoi-mie.com",
    "pref": "三重県",
    "city": "桑名市",
    "category": "tokuyou",
    "serviceType": "介護老人福祉施設",
    "capacity": 0,
    "openDays": [],
    "openDaysNote": ""
  },
  {
    "id": "2472000161",
    "name": "特別養護老人ホーム　ソフトハウス",
    "kana": "トクベツヨウゴロウジンホーム　ソフトハウス",
    "address": "三重県桑名市多度町福永字西福永４４０番地４８",
    "lat": 35.1450040793913,
    "lng": 136.648613916008,
    "tel": "0594-49-3300",
    "url": "http://softhouse.jp/",
    "pref": "三重県",
    "city": "桑名市",
    "category": "tokuyou",
    "serviceType": "介護老人福祉施設",
    "capacity": 0,
    "openDays": [],
    "openDaysNote": ""
  },
  {
    "id": "2470100872",
    "name": "特別養護老人ホームアパティア長島苑",
    "kana": "トクベツヨウゴロウジンホームアパティアナガシマエン",
    "address": "三重県桑名市長島町西外面１０７０番地",
    "lat": 35.0938962,
    "lng": 136.6920959,
    "tel": "0594-42-1600",
    "url": "http://www/apatheia.jp",
    "pref": "三重県",
    "city": "桑名市",
    "category": "tokuyou",
    "serviceType": "介護老人福祉施設",
    "capacity": 0,
    "openDays": [],
    "openDaysNote": ""
  },
  {
    "id": "2470102142",
    "name": "特別養護老人ホームほほえみ桑名",
    "kana": "トクベツヨウゴロウジンホーム　ホホエミクワナ",
    "address": "三重県桑名市大字桑部字中貝戸681-4",
    "lat": 35.0497494485404,
    "lng": 136.651825705588,
    "tel": "0594-82-7711",
    "url": "https://hohoemi-g.com",
    "pref": "三重県",
    "city": "桑名市",
    "category": "tokuyou",
    "serviceType": "介護老人福祉施設",
    "capacity": 29,
    "openDays": [],
    "openDaysNote": ""
  },
  {
    "id": "2470100195",
    "name": "特別養護老人ホーム長寿苑",
    "kana": "トクベツヨウゴロウジンホーム　チョウジュエン",
    "address": "三重県桑名市額田1256番地2",
    "lat": 35.0736425173101,
    "lng": 136.6392827002,
    "tel": "0594-31-7200",
    "url": "https://www.chojuen.org/",
    "pref": "三重県",
    "city": "桑名市",
    "category": "tokuyou",
    "serviceType": "介護老人福祉施設",
    "capacity": 0,
    "openDays": [],
    "openDaysNote": ""
  },
  {
    "id": "2472200027",
    "name": "三重県三重郡老人福祉施設組合　特別養護老人ホームみずほ寮",
    "kana": "ミエケンミエグンロウジンフクシシセツクミアイ　トクベツヨウゴロウジンホームミズホリョウ",
    "address": "三重県三重郡菰野町菰野5833-1",
    "lat": 35.0101433,
    "lng": 136.4758443,
    "tel": "059-394-1121",
    "url": "http://www.mizuho-ryo.net",
    "pref": "三重県",
    "city": "菰野町",
    "category": "tokuyou",
    "serviceType": "介護老人福祉施設",
    "capacity": 50,
    "openDays": [],
    "openDaysNote": ""
  },
  {
    "id": "2472200761",
    "name": "特別養護老人ホーム　菰野聖十字の家（ユニット）",
    "kana": "トクベツヨウゴロウジンホーム　コモノセイジュウジノイエ（ユニット）",
    "address": "三重県三重郡菰野町宿野1433-69菰野聖十字の家 菰野聖十字の家",
    "lat": 35.0031422,
    "lng": 136.5189368,
    "tel": "059-394-2511",
    "url": "https://www.suzukaseijujikai.jp/",
    "pref": "三重県",
    "city": "菰野町",
    "category": "tokuyou",
    "serviceType": "介護老人福祉施設",
    "capacity": 60,
    "openDays": [],
    "openDaysNote": ""
  },
  {
    "id": "2472200076",
    "name": "特別養護老人ホーム菰野聖十字の家",
    "kana": "トクベツヨウゴロウジンホームコモノセイジュウジノイエ",
    "address": "三重県三重郡菰野町宿野1433-69",
    "lat": 35.003151,
    "lng": 136.5194011,
    "tel": "059-394-2511",
    "url": "http://www.suzukaseijujikai.jp",
    "pref": "三重県",
    "city": "菰野町",
    "category": "tokuyou",
    "serviceType": "介護老人福祉施設",
    "capacity": 30,
    "openDays": [],
    "openDaysNote": ""
  },
  {
    "id": "2473100077",
    "name": "特別養護老人ホームエイジハウス",
    "kana": "トクベツヨウゴロウジンホームエイジハウス",
    "address": "三重県南牟婁郡御浜町神木23",
    "lat": 33.8540339,
    "lng": 136.0286195,
    "tel": "05979-2-4320",
    "url": "http://www.zc.ztv.ne.jp/agehouse/",
    "pref": "三重県",
    "city": "御浜町",
    "category": "tokuyou",
    "serviceType": "介護老人福祉施設",
    "capacity": 0,
    "openDays": [],
    "openDaysNote": ""
  },
  {
    "id": "2470203791",
    "name": "くぬぎの木特別養護老人ホーム",
    "kana": "クヌギノキトクベツヨウゴロウジンホーム",
    "address": "1245-7",
    "lat": 44.2503223,
    "lng": -77.2579585,
    "tel": "059-327-2826",
    "url": "http://www.kunuginoki.jp",
    "pref": "三重県",
    "city": "四日市市",
    "category": "tokuyou",
    "serviceType": "介護老人福祉施設",
    "capacity": 0,
    "openDays": [],
    "openDaysNote": ""
  },
  {
    "id": "2470200169",
    "name": "介護総合センターかんざき",
    "kana": "カイゴソウゴウセンターカンザキ",
    "address": "三重県四日市市寺方町字東谷986-4",
    "lat": 34.9916281,
    "lng": 136.5587986,
    "tel": "059-327-2177",
    "url": "info@seizanrikai.jp",
    "pref": "三重県",
    "city": "四日市市",
    "category": "tokuyou",
    "serviceType": "介護老人福祉施設",
    "capacity": 0,
    "openDays": [],
    "openDaysNote": ""
  },
  {
    "id": "2470204724",
    "name": "介護老人福祉施設　ヴィラ四日市ユニット",
    "kana": "カイゴロウジンフクシシセツ　ヴィラヨッカイチユニット",
    "address": "四日市市垂坂町8番地の2",
    "lat": 35.0053741,
    "lng": 136.6276554,
    "tel": "059-363-2121",
    "url": "http//yokkaichi.tokuyou.jp/index.html",
    "pref": "三重県",
    "city": "四日市市",
    "category": "tokuyou",
    "serviceType": "介護老人福祉施設",
    "capacity": 100,
    "openDays": [],
    "openDaysNote": ""
  },
  {
    "id": "2472200175",
    "name": "介護老人福祉施設　みのりの里",
    "kana": "カイゴロウジンフクシシセツ　ミノリノサト",
    "address": "三重県四日市市楠町本郷1139番地１",
    "lat": 34.9103254,
    "lng": 136.6185202,
    "tel": "059-398-2110",
    "url": "ｔｏｋｕｊｕｋａｉ．ｃｏｍ",
    "pref": "三重県",
    "city": "四日市市",
    "category": "tokuyou",
    "serviceType": "介護老人福祉施設",
    "capacity": 0,
    "openDays": [],
    "openDaysNote": ""
  },
  {
    "id": "2470200433",
    "name": "小山田特別養護老人ホーム",
    "kana": "オヤマダトクベツヨウゴロウジンホーム",
    "address": "三重県四日市市山田町5500-1",
    "lat": 34.9468736,
    "lng": 136.5283727,
    "tel": "059-328-2177",
    "url": "http://www.normari.jp/",
    "pref": "三重県",
    "city": "四日市市",
    "category": "tokuyou",
    "serviceType": "介護老人福祉施設",
    "capacity": 70,
    "openDays": [],
    "openDaysNote": ""
  },
  {
    "id": "2470204716",
    "name": "小山田特別養護老人ホーム",
    "kana": "オヤマダトクベツヨウゴロウジンホーム",
    "address": "四日市市山田5500-1",
    "lat": 34.9468340258645,
    "lng": 136.528361971164,
    "tel": "059-328-2177",
    "url": "http://www.normari.jp",
    "pref": "三重県",
    "city": "四日市市",
    "category": "tokuyou",
    "serviceType": "介護老人福祉施設",
    "capacity": 0,
    "openDays": [],
    "openDaysNote": ""
  },
  {
    "id": "2470200441",
    "name": "第二小山田特別養護老人ホーム",
    "kana": "ダイニオヤマダトクベツヨウゴロウジンホーム",
    "address": "三重県四日市市山田町5513",
    "lat": 34.9419353,
    "lng": 136.5392554,
    "tel": "059-328-2276",
    "url": "http://seizanrikai.jp",
    "pref": "三重県",
    "city": "四日市市",
    "category": "tokuyou",
    "serviceType": "介護老人福祉施設",
    "capacity": 0,
    "openDays": [],
    "openDaysNote": ""
  },
  {
    "id": "2470204328",
    "name": "特別養護老人ホーム　かすみの里",
    "kana": "トクベツヨウゴロウジンホーム　カスミノサト",
    "address": "白須賀１丁目１２番８号",
    "lat": 34.9898678,
    "lng": 136.6426938,
    "tel": "059-334-1171",
    "url": "http://www.eiko-kai.jp",
    "pref": "三重県",
    "city": "四日市市",
    "category": "tokuyou",
    "serviceType": "介護老人福祉施設",
    "capacity": 80,
    "openDays": [],
    "openDaysNote": ""
  },
  {
    "id": "2470200425",
    "name": "特別養護老人ホーム　よっかいち諧朋苑",
    "kana": "トクベツヨウゴロウジンホーム　ヨッカイチカイホウエン",
    "address": "四日市市西大鐘町字山添１５８０番地",
    "lat": 35.0432385265383,
    "lng": 136.60357366326,
    "tel": "059-338-3000",
    "url": "http://www.kaihouen.jp",
    "pref": "三重県",
    "city": "四日市市",
    "category": "tokuyou",
    "serviceType": "介護老人福祉施設",
    "capacity": 0,
    "openDays": [],
    "openDaysNote": ""
  },
  {
    "id": "2470204559",
    "name": "特別養護老人ホーム　よっかいち諧朋苑（ユニット型）",
    "kana": "トクベツヨウゴロウジンホーム　ヨッカイチカイホウエンユニットガタ",
    "address": "三重県四日市市西大鐘町字山添1580番地",
    "lat": 35.0432209587354,
    "lng": 136.603562934424,
    "tel": "059-338-3000",
    "url": "http://www.kaihouen.jp/",
    "pref": "三重県",
    "city": "四日市市",
    "category": "tokuyou",
    "serviceType": "介護老人福祉施設",
    "capacity": 0,
    "openDays": [],
    "openDaysNote": ""
  },
  {
    "id": "2470200391",
    "name": "特別養護老人ホーム　英水苑",
    "kana": "トクベツヨウゴロウジンホーム　エイスイエン",
    "address": "三重県四日市市智積町中須34-1",
    "lat": 34.9996771,
    "lng": 136.5430052,
    "tel": "059-326-7511",
    "url": "http://www.eisuikai.jp",
    "pref": "三重県",
    "city": "四日市市",
    "category": "tokuyou",
    "serviceType": "介護老人福祉施設",
    "capacity": 50,
    "openDays": [],
    "openDaysNote": ""
  },
  {
    "id": "2470204567",
    "name": "特別養護老人ホーム　英水苑（ユニット型小規模）",
    "kana": "トクベツヨウゴロウジンホーム　エイスイエン（ユニットガタショウキボ）",
    "address": "三重県四日市市智積町中須34-1",
    "lat": 34.9996771,
    "lng": 136.5430052,
    "tel": "059-326-7511",
    "url": "http://www.eisuikai.jp/",
    "pref": "三重県",
    "city": "四日市市",
    "category": "tokuyou",
    "serviceType": "介護老人福祉施設",
    "capacity": 30,
    "openDays": [],
    "openDaysNote": ""
  },
  {
    "id": "2470205556",
    "name": "特別養護老人ホーム　高浜楽々館",
    "kana": "トクベツヨウゴロウジンホーム　タカハマラクラクカン",
    "address": "三重県四日市市高浜町8番26号",
    "lat": 34.9773306,
    "lng": 136.6383917,
    "tel": "059-334-8587",
    "url": "http://www.suzuranfukushikai.jp/",
    "pref": "三重県",
    "city": "四日市市",
    "category": "tokuyou",
    "serviceType": "介護老人福祉施設",
    "capacity": 60,
    "openDays": [],
    "openDaysNote": ""
  },
  {
    "id": "2470204641",
    "name": "特別養護老人ホーム　日永英水苑　（ユニット型）",
    "kana": "トクベツヨウゴロウジンホーム　ヒナガエイスイエン　（ユニットガタ）",
    "address": "三重県四日市市大字日永5530番地の23",
    "lat": 34.9412035882772,
    "lng": 136.585446932541,
    "tel": "059-340-3668",
    "url": "http://www.eisuikai.jp",
    "pref": "三重県",
    "city": "四日市市",
    "category": "tokuyou",
    "serviceType": "介護老人福祉施設",
    "capacity": 0,
    "openDays": [],
    "openDaysNote": ""
  },
  {
    "id": "2470204633",
    "name": "特別養護老人ホーム　日永英水苑　（従来型）",
    "kana": "トクベツヨウゴロウジンホーム　ヒナガエイスイエン　（ジュウライガタ）",
    "address": "三重県四日市市大字日永5530番地の23",
    "lat": 34.9411772036979,
    "lng": 136.585489847885,
    "tel": "059-340-3668",
    "url": "http://www.eisuikai.jp",
    "pref": "三重県",
    "city": "四日市市",
    "category": "tokuyou",
    "serviceType": "介護老人福祉施設",
    "capacity": 0,
    "openDays": [],
    "openDaysNote": ""
  },
  {
    "id": "2470202314",
    "name": "特別養護老人ホーム　風の路",
    "kana": "トクベツヨウゴロウジンホーム　カゼノミチ",
    "address": "四日市市塩浜栄町471",
    "lat": 34.9295725674623,
    "lng": 136.616474688005,
    "tel": "059-349-6383",
    "url": "http://kazekaorukai.com/",
    "pref": "三重県",
    "city": "四日市市",
    "category": "tokuyou",
    "serviceType": "介護老人福祉施設",
    "capacity": 0,
    "openDays": [],
    "openDaysNote": ""
  },
  {
    "id": "2470205127",
    "name": "特別養護老人ホームアリビオ",
    "kana": "トクベツヨウゴロウジンホームアリビオ",
    "address": "三重県四日市市大字塩浜字八幡149-1",
    "lat": 34.9279361303476,
    "lng": 136.614806128836,
    "tel": "059-325-7762",
    "url": "http://kazekaorukai.jimdo.com/",
    "pref": "三重県",
    "city": "四日市市",
    "category": "tokuyou",
    "serviceType": "介護老人福祉施設",
    "capacity": 50,
    "openDays": [],
    "openDaysNote": ""
  },
  {
    "id": "2470202009",
    "name": "特別養護老人ホームうねめの里",
    "kana": "トクベツヨウゴロウジンホームウネメノサト",
    "address": "四日市市釆女町字森ヶ山４１８番の１特別養護老人ホーム　うねめの里 特別養護老人ホーム　うねめの里",
    "lat": 34.9330323834374,
    "lng": 136.580823542358,
    "tel": "059-348-7760",
    "url": "https://www.eiko-kai.jp",
    "pref": "三重県",
    "city": "四日市市",
    "category": "tokuyou",
    "serviceType": "介護老人福祉施設",
    "capacity": 0,
    "openDays": [],
    "openDaysNote": ""
  },
  {
    "id": "2470205549",
    "name": "特別養護老人ホームさくらスマイル",
    "kana": "トクベツヨウゴロウジンホームサクラスマイル",
    "address": "三重県四日市市浜一色町15番14-1号特別養護老人ホームさくらスマイル 特別養護老人ホームさくらスマイル",
    "lat": 34.9788061617351,
    "lng": 136.634578912303,
    "tel": "059-340-0001",
    "url": "sakuracom.or.jp",
    "pref": "三重県",
    "city": "四日市市",
    "category": "tokuyou",
    "serviceType": "介護老人福祉施設",
    "capacity": 0,
    "openDays": [],
    "openDaysNote": ""
  },
  {
    "id": "2470200409",
    "name": "特別養護老人ホーム南部陽光苑",
    "kana": "トクベツヨウゴロウジンホームナンブヨウコウエン",
    "address": "三重県四日市市河原田町２１４６番地",
    "lat": 34.9102136,
    "lng": 136.5990718,
    "tel": "059-347-7337",
    "url": "http://www.miefukushikai.or.jp/",
    "pref": "三重県",
    "city": "四日市市",
    "category": "tokuyou",
    "serviceType": "介護老人福祉施設",
    "capacity": 0,
    "openDays": [],
    "openDaysNote": ""
  },
  {
    "id": "2470200417",
    "name": "特別養護老人ホーム陽光苑",
    "kana": "トクベツヨウゴロウジンホームヨウコウエン",
    "address": "三重県四日市市西坂部町1127番地",
    "lat": 35.0074542,
    "lng": 136.586632,
    "tel": "059-331-5183",
    "url": "http://www.miefukushikai.jp/",
    "pref": "三重県",
    "city": "四日市市",
    "category": "tokuyou",
    "serviceType": "介護老人福祉施設",
    "capacity": 80,
    "openDays": [],
    "openDaysNote": ""
  },
  {
    "id": "2470203825",
    "name": "富田浜特別養護老人ホーム浜風",
    "kana": "トミダハマトクベツヨウゴロウジンホームハマカゼ",
    "address": "三重県四日市市富田浜町25－10",
    "lat": 34.9975168,
    "lng": 136.6532568,
    "tel": "059－365-1665",
    "url": "https://tomidahama.jp/stay-hamakaze/",
    "pref": "三重県",
    "city": "四日市市",
    "category": "tokuyou",
    "serviceType": "介護老人福祉施設",
    "capacity": null,
    "openDays": [],
    "openDaysNote": ""
  },
  {
    "id": "2472900667",
    "name": "志摩シルバーケア豊壽園",
    "kana": "シマシルバーケアホウジュエン",
    "address": "三重県志摩市阿児町神明878-39",
    "lat": 34.3185108196784,
    "lng": 136.816974092993,
    "tel": "0599-44-1055",
    "url": "http://www.sensin.or.jp",
    "pref": "三重県",
    "city": "志摩市",
    "category": "tokuyou",
    "serviceType": "介護老人福祉施設",
    "capacity": 0,
    "openDays": [],
    "openDaysNote": ""
  },
  {
    "id": "2472900071",
    "name": "志摩特別養護老人ホームともやま苑",
    "kana": "シマトクベツヨウゴロウジンホームトモヤマエン",
    "address": "三重県志摩市大王町波切２２３３番地２",
    "lat": 34.2838159,
    "lng": 136.8501206,
    "tel": "0599-73-8181",
    "url": "http://www.shima.mctv.ne.jp/~sikouiki/",
    "pref": "三重県",
    "city": "志摩市",
    "category": "tokuyou",
    "serviceType": "介護老人福祉施設",
    "capacity": 0,
    "openDays": [],
    "openDaysNote": ""
  },
  {
    "id": "2472900097",
    "name": "志摩特別養護老人ホーム才庭寮",
    "kana": "シマトクベツヨウゴロウジンホームサイニワリョウ",
    "address": "志摩市阿児町神明1537番地１",
    "lat": 34.3215192,
    "lng": 136.8505277,
    "tel": "0599-43-2112",
    "url": "http://www.shima.mctv.ne.jp/~sikouiki/",
    "pref": "三重県",
    "city": "志摩市",
    "category": "tokuyou",
    "serviceType": "介護老人福祉施設",
    "capacity": 86,
    "openDays": [],
    "openDaysNote": ""
  },
  {
    "id": "2472901566",
    "name": "特別養護老人ホーム　うがた苑",
    "kana": "トクベツヨウゴロウジンホーム　ウガタエン",
    "address": "三重県志摩市阿児町鵜方2824番地85",
    "lat": 34.3301099540732,
    "lng": 136.847792742853,
    "tel": "0599-65-7766",
    "url": "https://koushin.or.jp/",
    "pref": "三重県",
    "city": "志摩市",
    "category": "tokuyou",
    "serviceType": "介護老人福祉施設",
    "capacity": 60,
    "openDays": [],
    "openDaysNote": ""
  },
  {
    "id": "2472901558",
    "name": "特別養護老人ホーム　うがた苑",
    "kana": "トクベツヨウゴロウジンホーム　ウガタエン",
    "address": "三重県志摩市阿児町鵜方2824番地85",
    "lat": 34.3291265,
    "lng": 136.8483721,
    "tel": "0599-65-7766",
    "url": "https://koushin.or.jp/",
    "pref": "三重県",
    "city": "志摩市",
    "category": "tokuyou",
    "serviceType": "介護老人福祉施設",
    "capacity": 60,
    "openDays": [],
    "openDaysNote": ""
  },
  {
    "id": "2472901053",
    "name": "特別養護老人ホームビビアン",
    "kana": "トクベツヨウゴロウジンホームビビアン",
    "address": "三重県志摩市大王町船越540番地14",
    "lat": 34.2656102,
    "lng": 136.8661307,
    "tel": "0599-73-8000",
    "url": "www.magocoro.or.jp/kizyun.htm",
    "pref": "三重県",
    "city": "志摩市",
    "category": "tokuyou",
    "serviceType": "介護老人福祉施設",
    "capacity": 80,
    "openDays": [],
    "openDaysNote": ""
  },
  {
    "id": "2472901251",
    "name": "特別養護老人ホーム百楽",
    "kana": "トクベツヨウゴロウジンホームヒャクラク",
    "address": "志摩市阿児町鵜方3195番地55",
    "lat": 34.3248675929335,
    "lng": 136.829461347885,
    "tel": "0599-43-5775",
    "url": "http://www.100rakunokai.com/",
    "pref": "三重県",
    "city": "志摩市",
    "category": "tokuyou",
    "serviceType": "介護老人福祉施設",
    "capacity": 50,
    "openDays": [],
    "openDaysNote": ""
  },
  {
    "id": "2470701448",
    "name": "介護老人福祉施設　花みずき",
    "kana": "カイゴロウジンフクシシセツ　ハナミズキ",
    "address": "三重県松阪市久保町1926-1",
    "lat": 34.5391308,
    "lng": 136.527455,
    "tel": "0598-60-1700",
    "url": "",
    "pref": "三重県",
    "city": "松阪市",
    "category": "tokuyou",
    "serviceType": "介護老人福祉施設",
    "capacity": 50,
    "openDays": [],
    "openDaysNote": ""
  },
  {
    "id": "2470703030",
    "name": "特別養護老人ホーム　愛生苑",
    "kana": "トクベツヨウゴロウジンホーム　アイセイエン",
    "address": "三重県松阪市上川町3461番地36",
    "lat": 34.5408401,
    "lng": 136.5646155,
    "tel": "0598-61-1737",
    "url": "http://miekf.com",
    "pref": "三重県",
    "city": "松阪市",
    "category": "tokuyou",
    "serviceType": "介護老人福祉施設",
    "capacity": 0,
    "openDays": [],
    "openDaysNote": ""
  },
  {
    "id": "2470700234",
    "name": "特別養護老人ホーム　吉祥苑",
    "kana": "トクベツヨウゴロウジンホーム　キッショウエン",
    "address": "三重県松阪市鎌田町275-1",
    "lat": 34.5822543,
    "lng": 136.536339,
    "tel": "0598-51-1788",
    "url": "http://www.sumire-kai.or.jp/",
    "pref": "三重県",
    "city": "松阪市",
    "category": "tokuyou",
    "serviceType": "介護老人福祉施設",
    "capacity": 0,
    "openDays": [],
    "openDaysNote": ""
  },
  {
    "id": "2470701414",
    "name": "特別養護老人ホーム　松阪天啓苑",
    "kana": "トクベツヨウゴロウジンホーム　マツサカテンケイエン",
    "address": "松阪市高須町3460番17",
    "lat": 34.5970592,
    "lng": 136.5656498,
    "tel": "0598-50-5800",
    "url": "ikushinkai-tm.jp",
    "pref": "三重県",
    "city": "松阪市",
    "category": "tokuyou",
    "serviceType": "介護老人福祉施設",
    "capacity": 0,
    "openDays": [],
    "openDaysNote": ""
  },
  {
    "id": "2470700432",
    "name": "特別養護老人ホーム　第2まごころ苑",
    "kana": "トクベツヨウゴロウジンホーム　ダイニマゴコロエン",
    "address": "三重県松阪市川井町1354‐1",
    "lat": 34.5876699,
    "lng": 136.5259453,
    "tel": "0598-50-2588",
    "url": "http://www.sawayaka-well.jp/",
    "pref": "三重県",
    "city": "松阪市",
    "category": "tokuyou",
    "serviceType": "介護老人福祉施設",
    "capacity": 0,
    "openDays": [],
    "openDaysNote": ""
  },
  {
    "id": "2472600051",
    "name": "特別養護老人ホーム　飯高有徳園",
    "kana": "トクベツヨウゴロウジンホーム　イイタカユウトクエン",
    "address": "三重県松阪市飯高町下滝野1350番地2",
    "lat": 34.4376856,
    "lng": 136.3413825,
    "tel": "0598-46-1294",
    "url": "http://www.yu-toku.jp",
    "pref": "三重県",
    "city": "松阪市",
    "category": "tokuyou",
    "serviceType": "介護老人福祉施設",
    "capacity": 0,
    "openDays": [],
    "openDaysNote": ""
  },
  {
    "id": "2470702735",
    "name": "特別養護老人ホーム　飯高有徳園",
    "kana": "トクベツヨウゴロウジンホーム　イイタカユウトウエン",
    "address": "三重県松阪市飯高町下滝野1350番地2",
    "lat": 34.4376856,
    "lng": 136.3413825,
    "tel": "0598-46-1294",
    "url": "http://www.yu-toku.jp",
    "pref": "三重県",
    "city": "松阪市",
    "category": "tokuyou",
    "serviceType": "介護老人福祉施設",
    "capacity": 0,
    "openDays": [],
    "openDaysNote": ""
  },
  {
    "id": "2470703022",
    "name": "特別養護老人ホームさくらの郷",
    "kana": "トクベツヨウゴロウジンホームサクラノサト",
    "address": "三重県松阪市桜町35番地",
    "lat": 34.5686161913389,
    "lng": 136.511208533424,
    "tel": "0598-31-2213",
    "url": "http://www.sakuraen.com/sakuranosato/",
    "pref": "三重県",
    "city": "松阪市",
    "category": "tokuyou",
    "serviceType": "介護老人福祉施設",
    "capacity": 0,
    "openDays": [],
    "openDaysNote": ""
  },
  {
    "id": "2470702073",
    "name": "特別養護老人ホームさくら園",
    "kana": "トクベツヨウゴロウジンホームサクラエン",
    "address": "三重県松阪市下蛸路町409-1",
    "lat": 34.524333,
    "lng": 136.5424374,
    "tel": "0598-29-1352",
    "url": "http://www.sakuraen.com",
    "pref": "三重県",
    "city": "松阪市",
    "category": "tokuyou",
    "serviceType": "介護老人福祉施設",
    "capacity": 0,
    "openDays": [],
    "openDaysNote": ""
  },
  {
    "id": "2470703956",
    "name": "特別養護老人ホームなでしこ苑（ユニット型）",
    "kana": "トクベツヨウゴロウジンホームナデシコエン（ユニットガタ）",
    "address": "三重県松阪市曲町字小紋1481番地",
    "lat": 34.5837429047912,
    "lng": 136.511181885767,
    "tel": "0598-31-1810",
    "url": "https://www.nadesicoen.net",
    "pref": "三重県",
    "city": "松阪市",
    "category": "tokuyou",
    "serviceType": "介護老人福祉施設",
    "capacity": 30,
    "openDays": [],
    "openDaysNote": ""
  },
  {
    "id": "2470703949",
    "name": "特別養護老人ホームなでしこ苑（従来型）",
    "kana": "トクベツヨウゴロウジンホームナデシコエン（ジュウライガタ）",
    "address": "三重県松阪市曲町字小紋1481番地",
    "lat": 34.5837811844503,
    "lng": 136.511242684468,
    "tel": "0598-31-1810",
    "url": "http://www.nadesicoen.com/",
    "pref": "三重県",
    "city": "松阪市",
    "category": "tokuyou",
    "serviceType": "介護老人福祉施設",
    "capacity": 30,
    "openDays": [],
    "openDaysNote": ""
  },
  {
    "id": "2470701158",
    "name": "特別養護老人ホームやまゆりの里",
    "kana": "トクベツヨウゴロウジンホームヤマユリノサト",
    "address": "松阪市嬉野中川町1528－101",
    "lat": 34.6249485,
    "lng": 136.4763723,
    "tel": "0598-42-1116",
    "url": "http://www.akeai.or.jp/",
    "pref": "三重県",
    "city": "松阪市",
    "category": "tokuyou",
    "serviceType": "介護老人福祉施設",
    "capacity": 50,
    "openDays": [],
    "openDaysNote": ""
  },
  {
    "id": "2470702289",
    "name": "特別養護老人ホーム松阪有徳園",
    "kana": "トクベツヨウゴロウジンホームマツサカユウトクエン",
    "address": "三重県松阪市久保町1855番地113",
    "lat": 34.5424139,
    "lng": 136.5329127,
    "tel": "0598‐30‐6508",
    "url": "http://www.yu-toku.jp",
    "pref": "三重県",
    "city": "松阪市",
    "category": "tokuyou",
    "serviceType": "介護老人福祉施設",
    "capacity": 0,
    "openDays": [],
    "openDaysNote": ""
  },
  {
    "id": "2472500392",
    "name": "特別養護老人ホーム第二吉祥苑",
    "kana": "トクベツヨウゴロウジンホームダイニキッショウエン",
    "address": "三重県松阪市五主町391-1",
    "lat": 34.6270802,
    "lng": 136.537599,
    "tel": "0598-56-5666",
    "url": "http://www.sumire-kai.or.jp/",
    "pref": "三重県",
    "city": "松阪市",
    "category": "tokuyou",
    "serviceType": "介護老人福祉施設",
    "capacity": 0,
    "openDays": [],
    "openDaysNote": ""
  },
  {
    "id": "2470700218",
    "name": "南勢カトリック特別養護老人ホーム",
    "kana": "ナンセイカトリックトクベツヨウゴロウジンホーム",
    "address": "三重県松阪市小阿坂町1986番地",
    "lat": 34.5787248,
    "lng": 136.4733788,
    "tel": "0598-58-2230",
    "url": "http://nankato.or.jp",
    "pref": "三重県",
    "city": "松阪市",
    "category": "tokuyou",
    "serviceType": "介護老人福祉施設",
    "capacity": 0,
    "openDays": [],
    "openDaysNote": ""
  },
  {
    "id": "2472700521",
    "name": "特別養護老人ホーム　多気彩幸",
    "kana": "トクベツヨウゴ　ロウジンホーム　タキサイコウ",
    "address": "三重県多気郡多気町五佐奈字八重谷４３２－４８",
    "lat": 34.4954981,
    "lng": 136.5611697,
    "tel": "0598-39-6211",
    "url": "https://www.taki-saiko.jp/",
    "pref": "三重県",
    "city": "多気町",
    "category": "tokuyou",
    "serviceType": "介護老人福祉施設",
    "capacity": 0,
    "openDays": [],
    "openDaysNote": ""
  },
  {
    "id": "2472700232",
    "name": "特別養護老人ホーム多気天啓苑",
    "kana": "トクベツヨウゴロウジンホームタキテンケイエン",
    "address": "三重県多気郡多気町四疋田字コウボシ５８０番",
    "lat": 34.5033268,
    "lng": 136.5307613,
    "tel": "0598-38-8822",
    "url": "https://ikushinkai-tm.jp",
    "pref": "三重県",
    "city": "多気町",
    "category": "tokuyou",
    "serviceType": "介護老人福祉施設",
    "capacity": 50,
    "openDays": [],
    "openDaysNote": ""
  },
  {
    "id": "2472800446",
    "name": "特別養護老人ホーム　大宮園",
    "kana": "トクベツヨウゴロウジンホウム　オオミヤエン",
    "address": "三重県度会郡大紀町野原５１９番地１",
    "lat": 34.4320597,
    "lng": 136.5085889,
    "tel": "0598-85-7020",
    "url": "http://www.ma.mctv.ne.jp/~oomiyaen/",
    "pref": "三重県",
    "city": "大紀町",
    "category": "tokuyou",
    "serviceType": "介護老人福祉施設",
    "capacity": 80,
    "openDays": [],
    "openDaysNote": ""
  },
  {
    "id": "2472800255",
    "name": "特別養護老人ホーム共生園",
    "kana": "トクベツヨウゴロウジンホームキョウセイエン",
    "address": "三重県度会郡大紀町崎1785",
    "lat": 34.2834694,
    "lng": 136.4010605,
    "tel": "0598-74-0211",
    "url": "http://www.kg-mie.com/",
    "pref": "三重県",
    "city": "大紀町",
    "category": "tokuyou",
    "serviceType": "介護老人福祉施設",
    "capacity": 0,
    "openDays": [],
    "openDaysNote": ""
  },
  {
    "id": "2472801337",
    "name": "特別養護老人ホーム大宮園",
    "kana": "トクベツヨウゴロウジンホウムオオミヤエン",
    "address": "三重県度会郡大紀町野原５１９番地１",
    "lat": 34.4320597,
    "lng": 136.5085889,
    "tel": "0598-85-7020",
    "url": "http://www.ma.mctv.ne.jp/~oomiyaen/",
    "pref": "三重県",
    "city": "大紀町",
    "category": "tokuyou",
    "serviceType": "介護老人福祉施設",
    "capacity": 30,
    "openDays": [],
    "openDaysNote": ""
  },
  {
    "id": "2472701396",
    "name": "特別養護老人ホームやまびこ荘",
    "kana": "トクベツヨウゴロウジンホームヤマビコソウ",
    "address": "三重県多気郡大台町江馬260",
    "lat": 34.3649744,
    "lng": 136.3364583,
    "tel": "0598-76-1366",
    "url": "",
    "pref": "三重県",
    "city": "大台町",
    "category": "tokuyou",
    "serviceType": "介護老人福祉施設",
    "capacity": 0,
    "openDays": [],
    "openDaysNote": ""
  },
  {
    "id": "2472700372",
    "name": "特別養護老人ホーム大台共生園",
    "kana": "トクベツヨウゴロウジンホームオオダイキョウセイエン",
    "address": "三重県多気郡大台町千代997",
    "lat": 34.4454232,
    "lng": 136.5481986,
    "tel": "0598-84-6521",
    "url": "https://kg-m.com/",
    "pref": "三重県",
    "city": "大台町",
    "category": "tokuyou",
    "serviceType": "介護老人福祉施設",
    "capacity": 50,
    "openDays": [],
    "openDaysNote": ""
  },
  {
    "id": "2472200365",
    "name": "特別養護老人ホーム往還",
    "kana": "トクベツヨウゴロウジンホームオウカン",
    "address": "三重県三重郡朝日町大字柿字熊之田564番地",
    "lat": 35.0318235742673,
    "lng": 136.666500449421,
    "tel": "059-377-6011",
    "url": "https：//miekenjukai.com",
    "pref": "三重県",
    "city": "朝日町",
    "category": "tokuyou",
    "serviceType": "介護老人福祉施設",
    "capacity": 100,
    "openDays": [],
    "openDaysNote": ""
  },
  {
    "id": "2470900339",
    "name": "特別養護老人ホームあらしま苑",
    "kana": "トクベツヨウゴロウジンホームアラシマエン",
    "address": "三重県鳥羽市安楽島町字高山1075番地58",
    "lat": 34.4756361349815,
    "lng": 136.857961003474,
    "tel": "0599-26-7000",
    "url": "http://www.koushin.or.jp/",
    "pref": "三重県",
    "city": "鳥羽市",
    "category": "tokuyou",
    "serviceType": "介護老人福祉施設",
    "capacity": 0,
    "openDays": [],
    "openDaysNote": ""
  },
  {
    "id": "2470900040",
    "name": "特別養護老人ホーム鳥羽陽光苑",
    "kana": "トクベツヨウゴロウジンホーム　トバヨウコウエン",
    "address": "三重県鳥羽市岩倉町６０９番地",
    "lat": 34.4428947,
    "lng": 136.848354,
    "tel": "0599-25-7640",
    "url": "http://www.miefukushikai.jp/",
    "pref": "三重県",
    "city": "鳥羽市",
    "category": "tokuyou",
    "serviceType": "介護老人福祉施設",
    "capacity": 50,
    "openDays": [],
    "openDaysNote": ""
  },
  {
    "id": "2470900321",
    "name": "特別養護老人ホーム鳥羽陽光苑ユニット",
    "kana": "トクベツヨウゴロウジンホームトバヨウコウエン　ユニット",
    "address": "三重県鳥羽市岩倉町６０９番地",
    "lat": 34.4428947,
    "lng": 136.848354,
    "tel": "0599-25-7640",
    "url": "ｈｔｔｐ//ｗｗｗ．ｍｉｅｆｕｋｕｓｉｋａｉ．ｊｐ/",
    "pref": "三重県",
    "city": "鳥羽市",
    "category": "tokuyou",
    "serviceType": "介護老人福祉施設",
    "capacity": 30,
    "openDays": [],
    "openDaysNote": ""
  },
  {
    "id": "2470503604",
    "name": "しおりの里広域型特別養護老人ホーム",
    "kana": "シオリノサトコウイキガタトクベツヨウゴロウジンホーム",
    "address": "三重県津市野田2035番地2",
    "lat": 34.7089491,
    "lng": 136.4620871,
    "tel": "059-239-1326",
    "url": "https://www.pmc.or.jp/ymcg/shiori/",
    "pref": "三重県",
    "city": "津市",
    "category": "tokuyou",
    "serviceType": "介護老人福祉施設",
    "capacity": 0,
    "openDays": [],
    "openDaysNote": ""
  },
  {
    "id": "2472400221",
    "name": "特別養護老人ホーム　　ハートヒルかわげ",
    "kana": "トクベツヨウゴロウジンホーム　ハートヒルカワゲ",
    "address": "三重県津市河芸町浜田８６０",
    "lat": 34.7869755,
    "lng": 136.5319704,
    "tel": "059-245-7800",
    "url": "http://www.heart-hill.or.jp",
    "pref": "三重県",
    "city": "津市",
    "category": "tokuyou",
    "serviceType": "介護老人福祉施設",
    "capacity": 0,
    "openDays": [],
    "openDaysNote": ""
  },
  {
    "id": "2470504578",
    "name": "特別養護老人ホーム　アガペホーム",
    "kana": "トクベツヨウゴロウジンホーム　アガペホーム",
    "address": "三重県津市豊が丘５丁目47番8号",
    "lat": 34.8067484988382,
    "lng": 136.459494218047,
    "tel": "059-253-6517",
    "url": "http://betaniya.jp/",
    "pref": "三重県",
    "city": "津市",
    "category": "tokuyou",
    "serviceType": "介護老人福祉施設",
    "capacity": 0,
    "openDays": [],
    "openDaysNote": ""
  },
  {
    "id": "2470505211",
    "name": "特別養護老人ホーム　カサデマドレ",
    "kana": "トクベツヨウゴロウジンホーム　カサデマドレ",
    "address": "三重県津市安濃町戸島569番3",
    "lat": 34.7820741,
    "lng": 136.4294611,
    "tel": "059-271-5611",
    "url": "http://www.care-net.biz/24/st-francisco/",
    "pref": "三重県",
    "city": "津市",
    "category": "tokuyou",
    "serviceType": "介護老人福祉施設",
    "capacity": 60,
    "openDays": [],
    "openDaysNote": ""
  },
  {
    "id": "2470505567",
    "name": "特別養護老人ホーム　グリーンヒル",
    "kana": "トクベツヨウゴロウジンホーム　グリーンヒル",
    "address": "三重県津市緑が丘一丁目1-2",
    "lat": 34.7142655978509,
    "lng": 136.472203797949,
    "tel": "059-269-5555",
    "url": "http://www.akeai.or.jp",
    "pref": "三重県",
    "city": "津市",
    "category": "tokuyou",
    "serviceType": "介護老人福祉施設",
    "capacity": 0,
    "openDays": [],
    "openDaysNote": ""
  },
  {
    "id": "2472400205",
    "name": "特別養護老人ホーム　げいのう逢春園",
    "kana": "トクベツヨウゴロウジンホーム　ゲイノウホウシュンエン",
    "address": "三重県津市芸濃町椋本5310番地１",
    "lat": 34.8166838,
    "lng": 136.4302044,
    "tel": "059-265-5500",
    "url": "",
    "pref": "三重県",
    "city": "津市",
    "category": "tokuyou",
    "serviceType": "介護老人福祉施設",
    "capacity": null,
    "openDays": [],
    "openDaysNote": ""
  },
  {
    "id": "2472500137",
    "name": "特別養護老人ホーム　フルハウス",
    "kana": "トクベツヨウゴロウジンホーム　フルハウス",
    "address": "三重県津市香良洲町1990",
    "lat": 34.6409231,
    "lng": 136.5415456,
    "tel": "059-292-4888",
    "url": "https://hamayu-kai.or.jp",
    "pref": "三重県",
    "city": "津市",
    "category": "tokuyou",
    "serviceType": "介護老人福祉施設",
    "capacity": 0,
    "openDays": [],
    "openDaysNote": ""
  },
  {
    "id": "2470502648",
    "name": "特別養護老人ホーム　みえ愛の里",
    "kana": "トクベツヨウゴロウジンホーム　ミエアイノサト",
    "address": "三重県津市雲出本郷町字連方前２１２８番",
    "lat": 34.6584535,
    "lng": 136.5205868,
    "tel": "059-234-1500",
    "url": "http://www.ainosato-mie.jp",
    "pref": "三重県",
    "city": "津市",
    "category": "tokuyou",
    "serviceType": "介護老人福祉施設",
    "capacity": 0,
    "openDays": [],
    "openDaysNote": ""
  },
  {
    "id": "2470502374",
    "name": "特別養護老人ホーム　ライフかざはや",
    "kana": "トクベツヨウゴロウジンホーム　ライフカザハヤ",
    "address": "三重県津市戸木町４１６９－４",
    "lat": 34.6849991,
    "lng": 136.4508335,
    "tel": "059-254-6610",
    "url": "http://seiju-kai.or.jp/main/life/",
    "pref": "三重県",
    "city": "津市",
    "category": "tokuyou",
    "serviceType": "介護老人福祉施設",
    "capacity": 60,
    "openDays": [],
    "openDaysNote": ""
  },
  {
    "id": "2470503935",
    "name": "特別養護老人ホーム　安濃聖母の家",
    "kana": "トクベツヨウゴロウジンホーム　アノウセイボノイエ",
    "address": "三重県津市安濃町今徳81の2",
    "lat": 34.7429885008429,
    "lng": 136.445496910451,
    "tel": "059-267-0281",
    "url": "http://care-net.biz/24/st-francisco/",
    "pref": "三重県",
    "city": "津市",
    "category": "tokuyou",
    "serviceType": "介護老人福祉施設",
    "capacity": 50,
    "openDays": [],
    "openDaysNote": ""
  },
  {
    "id": "2470500469",
    "name": "特別養護老人ホーム　泉園",
    "kana": "トクベツヨウゴロウジンホーム　イズミエン",
    "address": "津市野田２０５９",
    "lat": 34.7105433,
    "lng": 136.4615454,
    "tel": "059-237-2526",
    "url": "http://www.pmc.or.jp",
    "pref": "三重県",
    "city": "津市",
    "category": "tokuyou",
    "serviceType": "介護老人福祉施設",
    "capacity": 0,
    "openDays": [],
    "openDaysNote": ""
  },
  {
    "id": "2470503596",
    "name": "特別養護老人ホーム　第二フルハウス",
    "kana": "トクベツヨウゴロウジンホーム　ダイニフルハウス",
    "address": "三重県津市香良洲町3952-1",
    "lat": 34.645142,
    "lng": 136.5462617,
    "tel": "059-292-2890",
    "url": "https://hamayu-kai.or.jp",
    "pref": "三重県",
    "city": "津市",
    "category": "tokuyou",
    "serviceType": "介護老人福祉施設",
    "capacity": 0,
    "openDays": [],
    "openDaysNote": ""
  },
  {
    "id": "2470500485",
    "name": "特別養護老人ホーム　報徳園",
    "kana": "トクベツヨウゴロウジンホーム　ホウトクエン",
    "address": "三重県津市河辺町1317番地1",
    "lat": 34.7500239,
    "lng": 136.4859988,
    "tel": "059-228-1951",
    "url": "http://www.houtokuen.jp/",
    "pref": "三重県",
    "city": "津市",
    "category": "tokuyou",
    "serviceType": "介護老人福祉施設",
    "capacity": 110,
    "openDays": [],
    "openDaysNote": ""
  },
  {
    "id": "2472400213",
    "name": "特別養護老人ホーム　明合乃里",
    "kana": "トクベツヨウゴロウジンホーム　アケアイノサト",
    "address": "三重県津市安濃町田端上野970-3",
    "lat": 34.7635184,
    "lng": 136.4369078,
    "tel": "059-268-3333",
    "url": "http://www.akeai.or.jp/",
    "pref": "三重県",
    "city": "津市",
    "category": "tokuyou",
    "serviceType": "介護老人福祉施設",
    "capacity": 0,
    "openDays": [],
    "openDaysNote": ""
  },
  {
    "id": "2470504958",
    "name": "特別養護老人ホーム　優美",
    "kana": "トクベツヨウゴロウジンホーム　ユウビ",
    "address": "三重県津市白山町二本木4009-3",
    "lat": 34.6541775549405,
    "lng": 136.367191553551,
    "tel": "059-264-0505",
    "url": "",
    "pref": "三重県",
    "city": "津市",
    "category": "tokuyou",
    "serviceType": "介護老人福祉施設",
    "capacity": 60,
    "openDays": [],
    "openDaysNote": ""
  },
  {
    "id": "2470502036",
    "name": "特別養護老人ホームきずな",
    "kana": "トクベツヨウゴロウジンホーム　キズナ",
    "address": "三重県津市白山町二本木1163",
    "lat": 34.6680964,
    "lng": 136.3711877,
    "tel": "059-264-0222",
    "url": "http://www.akeai.or.jp",
    "pref": "三重県",
    "city": "津市",
    "category": "tokuyou",
    "serviceType": "介護老人福祉施設",
    "capacity": 50,
    "openDays": [],
    "openDaysNote": ""
  },
  {
    "id": "2470500477",
    "name": "特別養護老人ホームシルバーケア豊壽園",
    "kana": "トクベツヨウゴロウジンホームシルバーケアホウジュエン",
    "address": "津市高茶屋小森町字瓦ｹ野4152番地",
    "lat": 34.6727271550995,
    "lng": 136.494793986692,
    "tel": "059-235-2102",
    "url": "http://www.sensin.or.jp",
    "pref": "三重県",
    "city": "津市",
    "category": "tokuyou",
    "serviceType": "介護老人福祉施設",
    "capacity": 58,
    "openDays": [],
    "openDaysNote": ""
  },
  {
    "id": "2470506045",
    "name": "特別養護老人ホームときの音色",
    "kana": "トクベツヨウゴロウジンホームトキノネイロ",
    "address": "三重県津市中村町745-25ときの音色 ときの音色",
    "lat": 34.6722084071918,
    "lng": 136.407143946598,
    "tel": "059-252-8020",
    "url": "https://kaigo-momotaro.jp/",
    "pref": "三重県",
    "city": "津市",
    "category": "tokuyou",
    "serviceType": "介護老人福祉施設",
    "capacity": 60,
    "openDays": [],
    "openDaysNote": ""
  },
  {
    "id": "2470500493",
    "name": "特別養護老人ホーム高田光寿園",
    "kana": "トクベツヨウゴロウジンホームタカダコウジュエン",
    "address": "三重県津市大里野田町1124-1",
    "lat": 34.7842308524802,
    "lng": 136.481689798811,
    "tel": "059-230-7811",
    "url": "http://www.takada-fukushi.jp/",
    "pref": "三重県",
    "city": "津市",
    "category": "tokuyou",
    "serviceType": "介護老人福祉施設",
    "capacity": 100,
    "openDays": [],
    "openDaysNote": ""
  },
  {
    "id": "2470600160",
    "name": "特別養護老人ホーム榊原陽光苑",
    "kana": "トクベツヨウゴロウジンホームサカキバラヨウコウエン",
    "address": "三重県津市榊原町５６８４番地",
    "lat": 34.7022326,
    "lng": 136.3725693,
    "tel": "059-252-2650",
    "url": "http://www.miefukushikai.jp/",
    "pref": "三重県",
    "city": "津市",
    "category": "tokuyou",
    "serviceType": "介護老人福祉施設",
    "capacity": 0,
    "openDays": [],
    "openDaysNote": ""
  },
  {
    "id": "2470500238",
    "name": "特別養護老人ホーム慈宗院",
    "kana": "トクベツヨウゴロウジンホーム　ジソウイン",
    "address": "三重県津市片田長谷町167-1",
    "lat": 34.7272064,
    "lng": 136.4256789,
    "tel": "059-237-0069",
    "url": "http://www.mie-keiaikai.or.jp",
    "pref": "三重県",
    "city": "津市",
    "category": "tokuyou",
    "serviceType": "介護老人福祉施設",
    "capacity": 110,
    "openDays": [],
    "openDaysNote": ""
  },
  {
    "id": "2470500451",
    "name": "特別養護老人ホーム青松園",
    "kana": "トクベツヨウゴロウジンホームセイショウエン",
    "address": "三重県津市高洲町１５番４３号",
    "lat": 34.7257784,
    "lng": 136.526306,
    "tel": "059-228-2661",
    "url": "https://seisyouen.org",
    "pref": "三重県",
    "city": "津市",
    "category": "tokuyou",
    "serviceType": "介護老人福祉施設",
    "capacity": 50,
    "openDays": [],
    "openDaysNote": ""
  },
  {
    "id": "2470506516",
    "name": "特別養護老人ホーム千年希望の杜美杉",
    "kana": "トクベツヨウゴロウジンホームセンネンキボウノモリミスギ",
    "address": "美杉町八知729番地1特別養護老人ホーム千年希望の杜美杉 特別養護老人ホーム千年希望の杜美杉",
    "lat": 34.5825619,
    "lng": 136.2803915,
    "tel": "059-272-8800",
    "url": "https://keishukai.or.jp/overview/",
    "pref": "三重県",
    "city": "津市",
    "category": "tokuyou",
    "serviceType": "介護老人福祉施設",
    "capacity": 0,
    "openDays": [],
    "openDaysNote": ""
  },
  {
    "id": "2470504727",
    "name": "特別養護老人ホーム津の街",
    "kana": "トクベツヨウゴロウジンホームツノマチ",
    "address": "三重県津市一身田平野726番地6",
    "lat": 34.751964896278,
    "lng": 136.512077723248,
    "tel": "059-271-6186",
    "url": "http://www.keihoukai.net/",
    "pref": "三重県",
    "city": "津市",
    "category": "tokuyou",
    "serviceType": "介護老人福祉施設",
    "capacity": 80,
    "openDays": [],
    "openDaysNote": ""
  },
  {
    "id": "2472400445",
    "name": "特別養護老人ホーム美里ヒルズ",
    "kana": "トクベツヨウゴロウジンホームミサトヒルズ",
    "address": "三重県津市美里町三郷430番地",
    "lat": 34.7243686,
    "lng": 136.386703,
    "tel": "059-279-5100",
    "url": "https://www.misatohills.jp",
    "pref": "三重県",
    "city": "津市",
    "category": "tokuyou",
    "serviceType": "介護老人福祉施設",
    "capacity": 60,
    "openDays": [],
    "openDaysNote": ""
  },
  {
    "id": "2470502044",
    "name": "特別養護老人ホーム豊野みかんの里",
    "kana": "トクベツヨウゴロウジンホウム　トヨノミカンノサト",
    "address": "三重県津市一身田豊野１６５９番地",
    "lat": 34.7706767,
    "lng": 136.5192552,
    "tel": "059-236-5610",
    "url": "http://care-net.biz/24/toyono-mikan/",
    "pref": "三重県",
    "city": "津市",
    "category": "tokuyou",
    "serviceType": "介護老人福祉施設",
    "capacity": 0,
    "openDays": [],
    "openDaysNote": ""
  },
  {
    "id": "2472800271",
    "name": "指定介護老人福祉施設特別養護老人ホームわたらい緑清苑",
    "kana": "シテイカイゴロウジンフクシシセツトクベツヨウゴロウジンホームワタライリョクセイエン",
    "address": "三重県度会郡度会町棚橋1202番地",
    "lat": 34.438428,
    "lng": 136.6216882,
    "tel": "0596-62-2200",
    "url": "",
    "pref": "三重県",
    "city": "度会町",
    "category": "tokuyou",
    "serviceType": "介護老人福祉施設",
    "capacity": 0,
    "openDays": [],
    "openDaysNote": ""
  },
  {
    "id": "2472801063",
    "name": "特別養護老人ホームかりん",
    "kana": "トクベツヨウゴロウジンホームカリン",
    "address": "三重県度会郡度会町田間字前山319番地18",
    "lat": 34.4355910156176,
    "lng": 136.600906303938,
    "tel": "0596-62-3300",
    "url": "http://karin0502.com",
    "pref": "三重県",
    "city": "度会町",
    "category": "tokuyou",
    "serviceType": "介護老人福祉施設",
    "capacity": 80,
    "openDays": [],
    "openDaysNote": ""
  },
  {
    "id": "2472100250",
    "name": "特別養護老人ホーム　パークレジデンス",
    "kana": "トクベツヨウゴロウジンホーム　パークレジデンス",
    "address": "三重県員弁郡東員町長深３１４０番２",
    "lat": 35.0552615,
    "lng": 136.5702073,
    "tel": "0594-76-0760",
    "url": "http://www.kenwakai.com/",
    "pref": "三重県",
    "city": "東員町",
    "category": "tokuyou",
    "serviceType": "介護老人福祉施設",
    "capacity": 0,
    "openDays": [],
    "openDaysNote": ""
  },
  {
    "id": "2472100847",
    "name": "北部陽光苑",
    "kana": "ホクブヨウコウエン",
    "address": "三重県員弁郡東員町山田3600番１",
    "lat": 35.0908141569196,
    "lng": 136.598592364806,
    "tel": "0594-87-7730",
    "url": "https://miefukushikai.jp/?page_id=277",
    "pref": "三重県",
    "city": "東員町",
    "category": "tokuyou",
    "serviceType": "介護老人福祉施設",
    "capacity": 0,
    "openDays": [],
    "openDaysNote": ""
  },
  {
    "id": "2472801659",
    "name": "特別養護老人ホーム　メディカルケア伊勢志摩",
    "kana": "トクベツヨウゴロウジンホーム　メディカルケアイセシマ",
    "address": "三重県度会郡南伊勢町下津浦767番地8",
    "lat": 34.3340219821059,
    "lng": 136.731758561438,
    "tel": "0599-67-0080",
    "url": "http://www.seichokai.org/",
    "pref": "三重県",
    "city": "南伊勢町",
    "category": "tokuyou",
    "serviceType": "介護老人福祉施設",
    "capacity": 30,
    "openDays": [],
    "openDaysNote": ""
  },
  {
    "id": "2472801667",
    "name": "特別養護老人ホーム　メディカルケア伊勢志摩",
    "kana": "トクベツヨウゴロウジンホーム　メディカルケアイセシマ",
    "address": "三重県度会郡南伊勢町下津浦７６７番地８",
    "lat": 34.3346953,
    "lng": 136.7234759,
    "tel": "0599-67-0080",
    "url": "http://www.seichokai.org",
    "pref": "三重県",
    "city": "南伊勢町",
    "category": "tokuyou",
    "serviceType": "介護老人福祉施設",
    "capacity": 40,
    "openDays": [],
    "openDaysNote": ""
  },
  {
    "id": "2472800263",
    "name": "特別養護老人ホーム柑洋苑",
    "kana": "トクベツヨウゴロウジンホームカンヨウエン",
    "address": "三重県度会郡南伊勢町五ヶ所浦　2870",
    "lat": 34.3511567,
    "lng": 136.7074522,
    "tel": "0599-66-0500",
    "url": "http://www.kanyoen.jp/",
    "pref": "三重県",
    "city": "南伊勢町",
    "category": "tokuyou",
    "serviceType": "介護老人福祉施設",
    "capacity": 0,
    "openDays": [],
    "openDaysNote": ""
  },
  {
    "id": "2472800297",
    "name": "特別養護老人ホーム真砂寮",
    "kana": "トクベツヨウゴロウジンホームマサゴリョウ",
    "address": "三重県度会郡南伊勢町小方竈17番地",
    "lat": 34.275515,
    "lng": 136.5529809,
    "tel": "0596-76-2115",
    "url": "",
    "pref": "三重県",
    "city": "南伊勢町",
    "category": "tokuyou",
    "serviceType": "介護老人福祉施設",
    "capacity": 0,
    "openDays": [],
    "openDaysNote": ""
  },
  {
    "id": "2471000204",
    "name": "特別養護老人ホーム　あさひ",
    "kana": "トクベツヨウゴロウジンホーム　アサヒ",
    "address": "三重県尾鷲市三木里町字木場967番8",
    "lat": 33.9995239,
    "lng": 136.2029653,
    "tel": "0597-28-3551",
    "url": "",
    "pref": "三重県",
    "city": "尾鷲市",
    "category": "tokuyou",
    "serviceType": "介護老人福祉施設",
    "capacity": 0,
    "openDays": [],
    "openDaysNote": ""
  },
  {
    "id": "2471000063",
    "name": "特別養護老人ホームスバル台",
    "kana": "トクベツヨウゴロウジンホームスバルダイ",
    "address": "三重県尾鷲市大字南浦4587番地4",
    "lat": 34.0821872,
    "lng": 136.206438,
    "tel": "0597-22-8100",
    "url": "http://www.owasechojuen.or.jp/",
    "pref": "三重県",
    "city": "尾鷲市",
    "category": "tokuyou",
    "serviceType": "介護老人福祉施設",
    "capacity": 80,
    "openDays": [],
    "openDaysNote": ""
  },
  {
    "id": "2471301248",
    "name": "特別養護老人ホーム　グランツァ",
    "kana": "トクベツヨウゴロウジンホーム　グランツァ",
    "address": "三重県名張市美旗中村１４１７番地２",
    "lat": 34.6458839558063,
    "lng": 136.132581437804,
    "tel": "０５９５－６７－０１２３",
    "url": "https://www.n-ikuseien.jp",
    "pref": "三重県",
    "city": "名張市",
    "category": "tokuyou",
    "serviceType": "介護老人福祉施設",
    "capacity": null,
    "openDays": [],
    "openDaysNote": ""
  },
  {
    "id": "2471300141",
    "name": "特別養護老人ホーム　はなの里",
    "kana": "トクベツヨウゴロウジンホーム　ハナノサト",
    "address": "三重県名張市西田原2000番地",
    "lat": 34.6556786,
    "lng": 136.1066172,
    "tel": "0595-66-1234",
    "url": "http://www.hananosato-nabari.com",
    "pref": "三重県",
    "city": "名張市",
    "category": "tokuyou",
    "serviceType": "介護老人福祉施設",
    "capacity": 0,
    "openDays": [],
    "openDaysNote": ""
  },
  {
    "id": "2471300638",
    "name": "特別養護老人ホーム　第２はなの里",
    "kana": "トクベツヨウゴロウジンホーム　ダイニハナノサト",
    "address": "三重県名張市百合が丘西５番町１番地",
    "lat": 34.6040027,
    "lng": 136.0962618,
    "tel": "0595-64-2525",
    "url": "http://www.hananosato-nabari.com",
    "pref": "三重県",
    "city": "名張市",
    "category": "tokuyou",
    "serviceType": "介護老人福祉施設",
    "capacity": null,
    "openDays": [],
    "openDaysNote": ""
  },
  {
    "id": "2471301446",
    "name": "特別養護老人ホーム　第5はなの里",
    "kana": "トクベツヨウゴロウジンホーム　ダイゴハナノサト",
    "address": "三重県名張市百合が丘西5番町27番地",
    "lat": 34.606209,
    "lng": 136.0938879,
    "tel": "0595-62-1110",
    "url": "https://hananosato-nabari.com",
    "pref": "三重県",
    "city": "名張市",
    "category": "tokuyou",
    "serviceType": "介護老人福祉施設",
    "capacity": null,
    "openDays": [],
    "openDaysNote": ""
  },
  {
    "id": "2471300794",
    "name": "特別養護老人ホーム　名張もみじ山荘",
    "kana": "トクベツヨウゴロウジンホーム　ナバリモミジサンソウ",
    "address": "三重県名張市赤目町長坂日之谷250番3特別養護老人ホーム名張もみじ山荘 特別養護老人ホーム名張もみじ山荘",
    "lat": 34.5726339635713,
    "lng": 136.07873773461,
    "tel": "0595-62-5500",
    "url": "http://nabari-momiji.jp@rice.ocn.ne.jp",
    "pref": "三重県",
    "city": "名張市",
    "category": "tokuyou",
    "serviceType": "介護老人福祉施設",
    "capacity": 80,
    "openDays": [],
    "openDaysNote": ""
  },
  {
    "id": "2471300125",
    "name": "特別養護老人ホーム国津園",
    "kana": "トクベツヨウゴロウジンホームクニツエン",
    "address": "三重県名張市神屋７６５番地",
    "lat": 34.5881776,
    "lng": 136.1459184,
    "tel": "0595-69-1316",
    "url": "https://www.kunitsuen.jp",
    "pref": "三重県",
    "city": "名張市",
    "category": "tokuyou",
    "serviceType": "介護老人福祉施設",
    "capacity": 80,
    "openDays": [],
    "openDaysNote": ""
  },
  {
    "id": "2471300778",
    "name": "特別養護老人ホーム第３はなの里",
    "kana": "トクベツヨウゴロウジンホームダイサンハナノサト",
    "address": "西田原２１００番地",
    "lat": 34.6548065,
    "lng": 136.106845,
    "tel": "0595-67-1100",
    "url": "http://www.hananosato-nabari.com",
    "pref": "三重県",
    "city": "名張市",
    "category": "tokuyou",
    "serviceType": "介護老人福祉施設",
    "capacity": 0,
    "openDays": [],
    "openDaysNote": ""
  },
  {
    "id": "2471300067",
    "name": "名張特別養護老人ホーム",
    "kana": "ナバリトクベツヨウゴロウジンホーム",
    "address": "三重県名張市新田2230-2",
    "lat": 34.662558085847,
    "lng": 136.126730834021,
    "tel": "0595-65-2539",
    "url": "http://cadstation.co.jp/NabariKoseiKyokai/00_top.aspx/",
    "pref": "三重県",
    "city": "名張市",
    "category": "tokuyou",
    "serviceType": "介護老人福祉施設",
    "capacity": 80,
    "openDays": [],
    "openDaysNote": ""
  },
  {
    "id": "2472700299",
    "name": "三重県済生会介護老人福祉施設明和苑",
    "kana": "ミエケンサイセイカイカイゴロウジンフクシシセツメイワエン",
    "address": "三重県多気郡明和町大字上野４３５",
    "lat": 34.5315811,
    "lng": 136.6314679,
    "tel": "0596-52-0386",
    "url": "https://www.meiwa-saiseikai.jp/meiwaen/",
    "pref": "三重県",
    "city": "明和町",
    "category": "tokuyou",
    "serviceType": "介護老人福祉施設",
    "capacity": 0,
    "openDays": [],
    "openDaysNote": ""
  },
  {
    "id": "2472700752",
    "name": "特別養護老人ホーム　ウェルハート明和",
    "kana": "トクベツヨウゴロウジンホーム　ウェルハートメイワ",
    "address": "三重県多気郡明和町大字志貴1334番地",
    "lat": 34.5764957416253,
    "lng": 136.617007459138,
    "tel": "0596-55-8800",
    "url": "http://www.wellheart.jp",
    "pref": "三重県",
    "city": "明和町",
    "category": "tokuyou",
    "serviceType": "介護老人福祉施設",
    "capacity": 60,
    "openDays": [],
    "openDaysNote": ""
  },
  {
    "id": "2472000203",
    "name": "特別養護老人ホームすいせんの里",
    "kana": "スイセンノサト",
    "address": "桑名郡木曽岬町和富10-8番地",
    "lat": 35.0663678,
    "lng": 136.751196,
    "tel": "0567-68-6565",
    "url": "http://suisen-no-sato.com/",
    "pref": "三重県",
    "city": "木曽岬町",
    "category": "tokuyou",
    "serviceType": "介護老人福祉施設",
    "capacity": 62,
    "openDays": [],
    "openDaysNote": ""
  },
  {
    "id": "2470300308",
    "name": "介護老人福祉施設　かなしょうず園",
    "kana": "カイゴロウジンフクシシセツ　カナショウズエン",
    "address": "鈴鹿市地子町字金生水８１４番地の３０",
    "lat": 34.8664498,
    "lng": 136.5619829,
    "tel": "059-383-0955",
    "url": "http://tennenkai.or.jp/",
    "pref": "三重県",
    "city": "鈴鹿市",
    "category": "tokuyou",
    "serviceType": "介護老人福祉施設",
    "capacity": 80,
    "openDays": [],
    "openDaysNote": ""
  },
  {
    "id": "2470300282",
    "name": "介護老人福祉施設　くすのき園",
    "kana": "カイゴロウジンフクシシセツ　クスノキエン",
    "address": "三重県鈴鹿市若松西六丁目28番18号",
    "lat": 34.876572,
    "lng": 136.6123541,
    "tel": "059-385-3100",
    "url": "https://jidoukai-kusunokien.com/",
    "pref": "三重県",
    "city": "鈴鹿市",
    "category": "tokuyou",
    "serviceType": "介護老人福祉施設",
    "capacity": 80,
    "openDays": [],
    "openDaysNote": ""
  },
  {
    "id": "2470302833",
    "name": "特別養護老人ホーム　ルーエハイム",
    "kana": "トクベツヨウゴロウジンホーム　ルーエハイム",
    "address": "三重県鈴鹿市長法寺町字権現763番地",
    "lat": 34.8264992017196,
    "lng": 136.508437666916,
    "tel": "059-372-3811",
    "url": "http://www.ruheheim.com",
    "pref": "三重県",
    "city": "鈴鹿市",
    "category": "tokuyou",
    "serviceType": "介護老人福祉施設",
    "capacity": 0,
    "openDays": [],
    "openDaysNote": ""
  },
  {
    "id": "2470303856",
    "name": "特別養護老人ホーム　ルーエハイム庄野",
    "kana": "トクベツヨウゴロウジンホーム　ルーエハイムショウノ",
    "address": "三重県鈴鹿市庄野町８５６番地",
    "lat": 34.8814133571426,
    "lng": 136.533541353442,
    "tel": "059-373-5190",
    "url": "http://hakuaikai.ruheheim.com/",
    "pref": "三重県",
    "city": "鈴鹿市",
    "category": "tokuyou",
    "serviceType": "介護老人福祉施設",
    "capacity": null,
    "openDays": [],
    "openDaysNote": ""
  },
  {
    "id": "2470300290",
    "name": "特別養護老人ホーム　伊勢マリンホーム",
    "kana": "トクベツヨウゴロウジンホーム　イセマリンホーム",
    "address": "三重県鈴鹿市南若松町字南新田1",
    "lat": 34.8383243835919,
    "lng": 136.599608297284,
    "tel": "059-387-6868",
    "url": "http://isemarin,jp/",
    "pref": "三重県",
    "city": "鈴鹿市",
    "category": "tokuyou",
    "serviceType": "介護老人福祉施設",
    "capacity": 0,
    "openDays": [],
    "openDaysNote": ""
  },
  {
    "id": "2470302817",
    "name": "特別養護老人ホーム　伊勢マリンホーム　ユニット",
    "kana": "トクベツヨウゴロウジンホーム　イセマリンホーム　ユニット",
    "address": "三重県鈴鹿市南若松町1番地",
    "lat": 34.8383342,
    "lng": 136.5996194,
    "tel": "059-387-6868",
    "url": "http://isemarin.jp/",
    "pref": "三重県",
    "city": "鈴鹿市",
    "category": "tokuyou",
    "serviceType": "介護老人福祉施設",
    "capacity": 30,
    "openDays": [],
    "openDaysNote": ""
  },
  {
    "id": "2470303237",
    "name": "特別養護老人ホーム　鈴鹿香寿苑",
    "kana": "トクベツヨウゴロウジンホーム　スズカコウジュエン",
    "address": "鈴鹿市稲生西3丁目17番17号鈴鹿香寿苑 鈴鹿香寿苑",
    "lat": 34.8417227619907,
    "lng": 136.556858760049,
    "tel": "０５９－３８９－７６６６",
    "url": "http://www.keyakien.jp/",
    "pref": "三重県",
    "city": "鈴鹿市",
    "category": "tokuyou",
    "serviceType": "介護老人福祉施設",
    "capacity": 80,
    "openDays": [],
    "openDaysNote": ""
  },
  {
    "id": "2470300035",
    "name": "特別養護老人ホーム　鈴鹿聖十字の家",
    "kana": "トクベツヨウゴロウジンホーム　スズカセイジュウジノイエ",
    "address": "三重県鈴鹿市木田町1961番地",
    "lat": 34.9049943,
    "lng": 136.5630736,
    "tel": "059-374-0318",
    "url": "http://www.suzukaseijujikai.jp/",
    "pref": "三重県",
    "city": "鈴鹿市",
    "category": "tokuyou",
    "serviceType": "介護老人福祉施設",
    "capacity": 60,
    "openDays": [],
    "openDaysNote": ""
  },
  {
    "id": "2470300902",
    "name": "特別養護老人ホームひまわり苑",
    "kana": "トクベツヨウゴロウジンホームヒマワリエン",
    "address": "鈴鹿市須賀一丁目２８－２３",
    "lat": 34.8857738,
    "lng": 136.591381,
    "tel": "059-383-3077",
    "url": "http://www.murase.or.jp/nyusho_yougo.php",
    "pref": "三重県",
    "city": "鈴鹿市",
    "category": "tokuyou",
    "serviceType": "介護老人福祉施設",
    "capacity": 0,
    "openDays": [],
    "openDaysNote": ""
  },
  {
    "id": "2470302460",
    "name": "特別養護老人ホームひまわり苑（従来型）",
    "kana": "トクベツヨウゴロウジンホームヒマワリエンジュウライガタ",
    "address": "須賀一丁目28-23",
    "lat": 34.8857738,
    "lng": 136.591381,
    "tel": "059-383-3077",
    "url": "http://www.murase.or.jp/youkoukai-web/",
    "pref": "三重県",
    "city": "鈴鹿市",
    "category": "tokuyou",
    "serviceType": "介護老人福祉施設",
    "capacity": 0,
    "openDays": [],
    "openDaysNote": ""
  },
  {
    "id": "2470300167",
    "name": "特別養護老人ホームルーエハイム",
    "kana": "トクベツヨウゴロウジンホーム　ルーエハイム",
    "address": "三重県鈴鹿市長法寺町字権現763番地",
    "lat": 34.8264784163851,
    "lng": 136.508463302853,
    "tel": "059-372-3811",
    "url": "http://www.ruheheim.com",
    "pref": "三重県",
    "city": "鈴鹿市",
    "category": "tokuyou",
    "serviceType": "介護老人福祉施設",
    "capacity": 0,
    "openDays": [],
    "openDaysNote": ""
  },
  {
    "id": "2470303013",
    "name": "特別養護老人ホーム桜の森白子ホーム",
    "kana": "トクベツヨウゴロウジンホーム　サクラノモリシロコホーム",
    "address": "三重県鈴鹿市南玉垣町７３００－２特別養護老人ホーム桜の森白子ホーム 特別養護老人ホーム桜の森白子ホーム",
    "lat": 34.8582043,
    "lng": 136.585187,
    "tel": "０５９－３７３－４６５０",
    "url": "http://www.shiroko-home.com/",
    "pref": "三重県",
    "city": "鈴鹿市",
    "category": "tokuyou",
    "serviceType": "介護老人福祉施設",
    "capacity": 0,
    "openDays": [],
    "openDaysNote": ""
  },
  {
    "id": "2470300274",
    "name": "特別養護老人ホーム鈴鹿グリーンホーム",
    "kana": "トクベツヨウゴロウジンホームスズカグリーンホーム",
    "address": "三重県鈴鹿市深溝町字北林2956番地",
    "lat": 34.9353406,
    "lng": 136.5059255,
    "tel": "059-374-4600",
    "url": "https://suzuka-greenhome.jp/",
    "pref": "三重県",
    "city": "鈴鹿市",
    "category": "tokuyou",
    "serviceType": "介護老人福祉施設",
    "capacity": 80,
    "openDays": [],
    "openDaysNote": ""
  }
]