[
  {
    "id": "2671800023",
    "name": "特別養護老人ホーム　いこいの村梅の木寮",
    "kana": "トクベツヨウゴロウジンホームイコイノムラウメノキリョウ",
    "address": "綾部市十倉名畑町久瀬谷2番地",
    "lat": 35.3380429,
    "lng": 135.3480714,
    "tel": "0773-46-0101",
    "url": "http://www.kyoto-chogen.or.jp/ikoi/",
    "pref": "京都府",
    "city": "綾部市",
    "category": "tokuyou",
    "serviceType": "介護老人福祉施設",
    "capacity": 87,
    "openDays": [],
    "openDaysNote": ""
  },
  {
    "id": "2671800072",
    "name": "特別養護老人ホーム　丹の国荘",
    "kana": "トクベツヨウゴロウジンホーム　ニノクニソウ",
    "address": "綾部市小畑町埋野67番地",
    "lat": 35.3445569,
    "lng": 135.2025301,
    "tel": "0773-48-0701",
    "url": "http://wwwinfo@ninokunifukusikai.com",
    "pref": "京都府",
    "city": "綾部市",
    "category": "tokuyou",
    "serviceType": "介護老人福祉施設",
    "capacity": 0,
    "openDays": [],
    "openDaysNote": ""
  },
  {
    "id": "2671800221",
    "name": "特別養護老人ホーム京都綾部ききょうの郷",
    "kana": "トクベツヨウゴロウジンホームキョウトアヤベキキョウノサト",
    "address": "綾部市高津町遠所1番621",
    "lat": 35.3042849,
    "lng": 135.2176627,
    "tel": "0773-40-1300",
    "url": "http://www.shinseifukushikai.jp/hanamizuki/",
    "pref": "京都府",
    "city": "綾部市",
    "category": "tokuyou",
    "serviceType": "介護老人福祉施設",
    "capacity": 0,
    "openDays": [],
    "openDaysNote": ""
  },
  {
    "id": "2671800064",
    "name": "特別養護老人ホーム松寿苑",
    "kana": "トクベツヨイウゴロウジンホームショウジュエン",
    "address": "綾部市田野町田野山2番地の163",
    "lat": 35.2878982,
    "lng": 135.2502325,
    "tel": "0773-42-0386",
    "url": "http://www.asjn.jp",
    "pref": "京都府",
    "city": "綾部市",
    "category": "tokuyou",
    "serviceType": "介護老人福祉施設",
    "capacity": 34,
    "openDays": [],
    "openDaysNote": ""
  },
  {
    "id": "2671800031",
    "name": "特別養護老人ホーム第２松寿苑",
    "kana": "ダイニショウジュエン",
    "address": "京都府綾部市田野町田野山2-169",
    "lat": 35.2870483,
    "lng": 135.248691,
    "tel": "0773-43-1123",
    "url": "http://www.asjn.jp",
    "pref": "京都府",
    "city": "綾部市",
    "category": "tokuyou",
    "serviceType": "介護老人福祉施設",
    "capacity": 0,
    "openDays": [],
    "openDaysNote": ""
  },
  {
    "id": "2672000011",
    "name": "特別養護老人ホーム長寿苑",
    "kana": "トクベツヨウゴロウジンホームチョウジュエン",
    "address": "京都府与謝郡伊根町字六万部小字ヤクシノ１５４番地",
    "lat": 35.6751459,
    "lng": 135.2726392,
    "tel": "0772-32-1280",
    "url": "http://yofuku.or.jp/chojuen/",
    "pref": "京都府",
    "city": "伊根町",
    "category": "tokuyou",
    "serviceType": "介護老人福祉施設",
    "capacity": 0,
    "openDays": [],
    "openDaysNote": ""
  },
  {
    "id": "2671300206",
    "name": "特別養護老人ホーム　いでの里",
    "kana": "トクベツヨウゴロウジンホーム　イデノサト",
    "address": "京都府綴喜郡井手町尾大字井手小字弥勒1番地の1",
    "lat": 34.798408,
    "lng": 135.8033058,
    "tel": "0774-99-4356",
    "url": "http://www.fushimi-shimizu.jp/",
    "pref": "京都府",
    "city": "井手町",
    "category": "tokuyou",
    "serviceType": "介護老人福祉施設",
    "capacity": 0,
    "openDays": [],
    "openDaysNote": ""
  },
  {
    "id": "2671200042",
    "name": "宇治明星園特別養護老人ホーム",
    "kana": "ウジミョウジョウエントクベツヨウゴロウジンホーム",
    "address": "京都府宇治市菟道岡谷16-3",
    "lat": 34.897343,
    "lng": 135.8203629,
    "tel": "0774-23-6922",
    "url": "http://www.myoujyo.or.jp",
    "pref": "京都府",
    "city": "宇治市",
    "category": "tokuyou",
    "serviceType": "介護老人福祉施設",
    "capacity": 0,
    "openDays": [],
    "openDaysNote": ""
  },
  {
    "id": "2671200091",
    "name": "宇治明星園白川特別養護老人ホーム",
    "kana": "ウジミョウジョウエンシラカワトクベツヨウゴロウジンホーム",
    "address": "京都府宇治市白川鍋倉山22番地10",
    "lat": 34.8651127,
    "lng": 135.8127425,
    "tel": "0774-21-6055",
    "url": "http://www.myoujyo.or.jp",
    "pref": "京都府",
    "city": "宇治市",
    "category": "tokuyou",
    "serviceType": "介護老人福祉施設",
    "capacity": 50,
    "openDays": [],
    "openDaysNote": ""
  },
  {
    "id": "2671200893",
    "name": "笠取ふれあい福祉センター　特別養護老人ホーム",
    "kana": "カサトリフレアイフクシセンター　トクベツヨウゴロウジンホーム",
    "address": "京都府宇治市西笠取下荘川西7番地の2",
    "lat": 34.9261356,
    "lng": 135.8543662,
    "tel": "075-573-2002",
    "url": "http://www.uji-hosp.or.jp/",
    "pref": "京都府",
    "city": "宇治市",
    "category": "tokuyou",
    "serviceType": "介護老人福祉施設",
    "capacity": 0,
    "openDays": [],
    "openDaysNote": ""
  },
  {
    "id": "2671200927",
    "name": "特別養護老人ホーム　宇治愛の郷",
    "kana": "トクベツヨウゴロウジンホウム　ウジアイノサト",
    "address": "京都府宇治市槙島町石橋151-1",
    "lat": 34.9033332,
    "lng": 135.7888405,
    "tel": "0774-21-0005",
    "url": "http://www.uji-ainosato.jp/",
    "pref": "京都府",
    "city": "宇治市",
    "category": "tokuyou",
    "serviceType": "介護老人福祉施設",
    "capacity": null,
    "openDays": [],
    "openDaysNote": ""
  },
  {
    "id": "2671200034",
    "name": "特別養護老人ホーム　天ヶ瀬苑",
    "kana": "トクベツヨウゴロウジンホーム　アマガセエン",
    "address": "京都府宇治市白川東山15番地",
    "lat": 34.8760221214062,
    "lng": 135.819518074938,
    "tel": "0774-23-0030",
    "url": "http://fudouen.com/",
    "pref": "京都府",
    "city": "宇治市",
    "category": "tokuyou",
    "serviceType": "介護老人福祉施設",
    "capacity": 50,
    "openDays": [],
    "openDaysNote": ""
  },
  {
    "id": "2671200554",
    "name": "特別養護老人ホームヴィラ鳳凰",
    "kana": "トクベツヨウゴロウジンホームヴィラホウオウ",
    "address": "京都府宇治市宇治里尻36番35",
    "lat": 34.8929819,
    "lng": 135.8017788,
    "tel": "0774-25-2577",
    "url": "https://www.takedahp.or.jp/group/welfare/kyotoninchisho02/index.html",
    "pref": "京都府",
    "city": "宇治市",
    "category": "tokuyou",
    "serviceType": "介護老人福祉施設",
    "capacity": 0,
    "openDays": [],
    "openDaysNote": ""
  },
  {
    "id": "2671200752",
    "name": "特別養護老人ホームまごころ園",
    "kana": "トクベツヨウゴロウジンホームマゴコロエン",
    "address": "京都府宇治市菟道薮里11番3",
    "lat": 34.9030061,
    "lng": 135.8087138,
    "tel": "0774-28-5737",
    "url": "http://micro-fukushikai.or.jp",
    "pref": "京都府",
    "city": "宇治市",
    "category": "tokuyou",
    "serviceType": "介護老人福祉施設",
    "capacity": 80,
    "openDays": [],
    "openDaysNote": ""
  },
  {
    "id": "2671200141",
    "name": "特別養護老人ホーム宇治さわらび園",
    "kana": "トクベツヨウゴロウジンホームウジサワラビエン",
    "address": "宇治市槙島町郡50-1",
    "lat": 34.9029278,
    "lng": 135.7920542,
    "tel": "0774-21-6603",
    "url": "http://www.sawarabi.or.jp/",
    "pref": "京都府",
    "city": "宇治市",
    "category": "tokuyou",
    "serviceType": "介護老人福祉施設",
    "capacity": 0,
    "openDays": [],
    "openDaysNote": ""
  },
  {
    "id": "2671200182",
    "name": "特別養護老人ホーム桃花苑",
    "kana": "トクベツヨウゴロウジンホームトウカエン",
    "address": "宇治市神明石塚39番地62",
    "lat": 34.8838272,
    "lng": 135.7880112,
    "tel": "0774-23-8839",
    "url": "http://www.toukaen-uji.com",
    "pref": "京都府",
    "city": "宇治市",
    "category": "tokuyou",
    "serviceType": "介護老人福祉施設",
    "capacity": 50,
    "openDays": [],
    "openDaysNote": ""
  },
  {
    "id": "2671300057",
    "name": "サンビレッジ宇治田原",
    "kana": "サンビレッジウジタワラ",
    "address": "京都府綴喜郡宇治田原町大字禅定寺小字砂川１１５－１",
    "lat": 34.8648442,
    "lng": 135.8776732,
    "tel": "0774-88-5311",
    "url": "http://www.sunvillage-ujitawara.jp/",
    "pref": "京都府",
    "city": "宇治田原町",
    "category": "tokuyou",
    "serviceType": "介護老人福祉施設",
    "capacity": 0,
    "openDays": [],
    "openDaysNote": ""
  },
  {
    "id": "2671600019",
    "name": "亀岡友愛園",
    "kana": "カメオカユウアイエン",
    "address": "京都府亀岡市本梅町ナベ倉11",
    "lat": 35.0200016,
    "lng": 135.4940165,
    "tel": "0771-26-2115",
    "url": "http://www.yuaien.or.jp",
    "pref": "京都府",
    "city": "亀岡市",
    "category": "tokuyou",
    "serviceType": "介護老人福祉施設",
    "capacity": 0,
    "openDays": [],
    "openDaysNote": ""
  },
  {
    "id": "2671600043",
    "name": "特別養護老人ホーム　亀岡園",
    "kana": "トクベツヨウゴロウジンホーム　カメオカエン",
    "address": "京都府亀岡市河原林町河原尻上砂股100",
    "lat": 35.0486887,
    "lng": 135.573801,
    "tel": "0771-24-5408",
    "url": "http://www.rishoukai.com",
    "pref": "京都府",
    "city": "亀岡市",
    "category": "tokuyou",
    "serviceType": "介護老人福祉施設",
    "capacity": 100,
    "openDays": [],
    "openDaysNote": ""
  },
  {
    "id": "2671600423",
    "name": "特別養護老人ホーム京都亀岡たなばたの郷",
    "kana": "トクベツヨウゴロウジンホームキョウトカメオカタナバタノサト",
    "address": "京都府亀岡市余部町谷川尻１１番地５",
    "lat": 35.0114695,
    "lng": 135.5644155,
    "tel": "0771-29-3150",
    "url": "http://shinseifukushikai.jp/tanabata",
    "pref": "京都府",
    "city": "亀岡市",
    "category": "tokuyou",
    "serviceType": "介護老人福祉施設",
    "capacity": 150,
    "openDays": [],
    "openDaysNote": ""
  },
  {
    "id": "2671600035",
    "name": "特別養護老人ホーム第二亀岡園",
    "kana": "トクベツヨウゴロウジンホームダイニカメオカエン",
    "address": "京都府亀岡市ひえ田野町奥条古畑2番地",
    "lat": 35.0297009,
    "lng": 135.5098647,
    "tel": "0771-25-9700",
    "url": "https://www.rishoukai.com/",
    "pref": "京都府",
    "city": "亀岡市",
    "category": "tokuyou",
    "serviceType": "介護老人福祉施設",
    "capacity": 50,
    "openDays": [],
    "openDaysNote": ""
  },
  {
    "id": "2671100028",
    "name": "特別養護老人ホーム　楽生苑",
    "kana": "トクベツヨウゴロウジンホーム　ラクセイエン",
    "address": "京都府久世郡久御山町坊之池坊村中66番地",
    "lat": 34.8915429,
    "lng": 135.7323956,
    "tel": "075-632-1094",
    "url": "http://kumiyama-rakuseien.or.jp",
    "pref": "京都府",
    "city": "久御山町",
    "category": "tokuyou",
    "serviceType": "介護老人福祉施設",
    "capacity": 0,
    "openDays": [],
    "openDaysNote": ""
  },
  {
    "id": "2671100150",
    "name": "特別養護老人ホーム　久御山しみずの里",
    "kana": "トクベツヨウゴロウジンホーム　クミヤマシミズノサト",
    "address": "京都府久世郡久御山町佐山西ノ口146番地1",
    "lat": 34.8741552,
    "lng": 135.748841,
    "tel": "774411081",
    "url": "https://ksmcs.jp/kumiyama/",
    "pref": "京都府",
    "city": "久御山町",
    "category": "tokuyou",
    "serviceType": "介護老人福祉施設",
    "capacity": 0,
    "openDays": [],
    "openDaysNote": ""
  },
  {
    "id": "2672100209",
    "name": "マ・ルート",
    "kana": "マ・ルート",
    "address": "京都府宮津市字波路716-3マ・ルート マ・ルート",
    "lat": 35.5505905236549,
    "lng": 135.210651719496,
    "tel": "0772-20-1150",
    "url": "http://www.mineyama-fukusikai.jp",
    "pref": "京都府",
    "city": "宮津市",
    "category": "tokuyou",
    "serviceType": "介護老人福祉施設",
    "capacity": 0,
    "openDays": [],
    "openDaysNote": ""
  },
  {
    "id": "2672100175",
    "name": "ユニット型特別養護老人ホーム　安寿の里",
    "kana": "ユニットガタトクベツヨウゴロウジンホーム　アンジュノサト",
    "address": "京都府宮津市字由良751番地",
    "lat": 35.5176455412249,
    "lng": 135.280401575702,
    "tel": "0772-26-0333",
    "url": "https://www.kounankai.jp",
    "pref": "京都府",
    "city": "宮津市",
    "category": "tokuyou",
    "serviceType": "介護老人福祉施設",
    "capacity": 0,
    "openDays": [],
    "openDaysNote": ""
  },
  {
    "id": "2672100134",
    "name": "特別養護老人ホーム　夕凪の里",
    "kana": "トクベツヨウゴロウジンホーム　ユウナギノサト",
    "address": "宮津市字波路小字新町２４３３番地",
    "lat": 35.5377142040144,
    "lng": 135.205909573958,
    "tel": "0772-22-0428",
    "url": "https://428kai.or.jp/",
    "pref": "京都府",
    "city": "宮津市",
    "category": "tokuyou",
    "serviceType": "介護老人福祉施設",
    "capacity": 80,
    "openDays": [],
    "openDaysNote": ""
  },
  {
    "id": "2672100068",
    "name": "特別養護老人ホーム青嵐荘",
    "kana": "トクベツヨウゴロウジンホームセイランソウ",
    "address": "京都府宮津市字日置７８０番地",
    "lat": 35.6037805,
    "lng": 135.2168023,
    "tel": "0772-27-1733",
    "url": "http://www.seiransou.jp/",
    "pref": "京都府",
    "city": "宮津市",
    "category": "tokuyou",
    "serviceType": "介護老人福祉施設",
    "capacity": 0,
    "openDays": [],
    "openDaysNote": ""
  },
  {
    "id": "2672100092",
    "name": "特別養護老人ホーム天橋の郷",
    "kana": "トクベツヨウゴロウジンホームテンキョウノサト",
    "address": "京都府宮津市字獅子190番地の4",
    "lat": 35.5616404,
    "lng": 135.224325,
    "tel": "0772-22-0066",
    "url": "http://www.hokuseikai.or.jp/tenkyonosato/",
    "pref": "京都府",
    "city": "宮津市",
    "category": "tokuyou",
    "serviceType": "介護老人福祉施設",
    "capacity": 70,
    "openDays": [],
    "openDaysNote": ""
  },
  {
    "id": "2672200017",
    "name": "総合老人福祉施設はごろも苑",
    "kana": "ソウゴウロウジンフクシシセツハゴロモエン",
    "address": "京都府京丹後市峰山町長岡2093",
    "lat": 35.5969342441815,
    "lng": 135.066139033695,
    "tel": "0772-62-7001",
    "url": "https://www.mineyama-fukusikai.jp/",
    "pref": "京都府",
    "city": "京丹後市",
    "category": "tokuyou",
    "serviceType": "介護老人福祉施設",
    "capacity": 0,
    "openDays": [],
    "openDaysNote": ""
  },
  {
    "id": "2673300162",
    "name": "総合老人福祉施設弥栄はごろも苑",
    "kana": "ソウゴウロウジンフクシシセツヤサカハゴロモエン",
    "address": "京都府京丹後市弥栄町溝谷３５２４番地",
    "lat": 35.6613339,
    "lng": 135.0890363,
    "tel": "0772-65-0131",
    "url": "http://www.mineyama-fukusikai.jp",
    "pref": "京都府",
    "city": "京丹後市",
    "category": "tokuyou",
    "serviceType": "介護老人福祉施設",
    "capacity": 50,
    "openDays": [],
    "openDaysNote": ""
  },
  {
    "id": "2673300238",
    "name": "特別養護老人ホーム　ふるさと",
    "kana": "トクベツヨウゴロウジンホーム　フルサト",
    "address": "京都府京丹後市網野町小浜613番地2",
    "lat": 35.6945482,
    "lng": 135.0373144,
    "tel": "0772-72-3400",
    "url": "https://www.furusatonokai.net",
    "pref": "京都府",
    "city": "京丹後市",
    "category": "tokuyou",
    "serviceType": "介護老人福祉施設",
    "capacity": 100,
    "openDays": [],
    "openDaysNote": ""
  },
  {
    "id": "2672300015",
    "name": "特別養護老人ホームいちがお園",
    "kana": "トクベツヨウゴロウジンホームイチガオエン",
    "address": "京都府京丹後市丹後町岩木487番地",
    "lat": 35.7255354,
    "lng": 135.1082975,
    "tel": "0772-75-2496",
    "url": "http://www.ichigaoen.com",
    "pref": "京都府",
    "city": "京丹後市",
    "category": "tokuyou",
    "serviceType": "介護老人福祉施設",
    "capacity": 50,
    "openDays": [],
    "openDaysNote": ""
  },
  {
    "id": "2672200025",
    "name": "特別養護老人ホームおおみや苑",
    "kana": "トクベツヨウゴロウジンホームオオミヤエン",
    "address": "京丹後市大宮町口大野295番地",
    "lat": 35.5919342,
    "lng": 135.0827663,
    "tel": "0772-68-1525",
    "url": "http://www.oomiyaen.com",
    "pref": "京都府",
    "city": "京丹後市",
    "category": "tokuyou",
    "serviceType": "介護老人福祉施設",
    "capacity": 0,
    "openDays": [],
    "openDaysNote": ""
  },
  {
    "id": "2672400062",
    "name": "特別養護老人ホーム海山園",
    "kana": "トクベツヨウゴロウジンホームカイザンエン",
    "address": "京都府京丹後市久美浜町湊宮467-60",
    "lat": 35.6416938,
    "lng": 134.925792,
    "tel": "0772-83-2111",
    "url": "http://taiyoufukushikai.jp/",
    "pref": "京都府",
    "city": "京丹後市",
    "category": "tokuyou",
    "serviceType": "介護老人福祉施設",
    "capacity": 0,
    "openDays": [],
    "openDaysNote": ""
  },
  {
    "id": "2672400013",
    "name": "特別養護老人ホーム久美浜苑",
    "kana": "トクベツヨウゴロウジンホームクミハマエン",
    "address": "京都府京丹後市久美浜町169番地",
    "lat": 35.5996228,
    "lng": 134.9004849,
    "tel": "0772-82-1555",
    "url": "http://www.kitatango.jp",
    "pref": "京都府",
    "city": "京丹後市",
    "category": "tokuyou",
    "serviceType": "介護老人福祉施設",
    "capacity": 0,
    "openDays": [],
    "openDaysNote": ""
  },
  {
    "id": "2673300113",
    "name": "特別養護老人ホーム第二丹後園",
    "kana": "トクベツヨウゴロウジンホームダイニタンゴエン",
    "address": "京都府京丹後市網野町木津225番地の２",
    "lat": 35.6558295,
    "lng": 134.9650743,
    "tel": "0772-74-9888",
    "url": "https://tangoen.net/",
    "pref": "京都府",
    "city": "京丹後市",
    "category": "tokuyou",
    "serviceType": "介護老人福祉施設",
    "capacity": 50,
    "openDays": [],
    "openDaysNote": ""
  },
  {
    "id": "2672300023",
    "name": "特別養護老人ホーム丹後園",
    "kana": "トクベツヨウゴロウジンホームタンゴエン",
    "address": "京都府京丹後市網野町木津225番地の２特別養護老人ホーム丹後園 特別養護老人ホーム丹後園",
    "lat": 35.6558295,
    "lng": 134.9650743,
    "tel": "0772-74-0888",
    "url": "https://tangoen.net/",
    "pref": "京都府",
    "city": "京丹後市",
    "category": "tokuyou",
    "serviceType": "介護老人福祉施設",
    "capacity": 50,
    "openDays": [],
    "openDaysNote": ""
  },
  {
    "id": "2673300204",
    "name": "特別養護老人ホーム満寿園",
    "kana": "トクベツヨウゴロウジンホウムマンジュエン",
    "address": "京都府京丹後市弥栄町溝谷39番地の6外村満寿園 外村満寿園",
    "lat": 35.6549565757836,
    "lng": 135.116516462085,
    "tel": "0772-65-0222",
    "url": "http://www.ashiginu.or.jp/",
    "pref": "京都府",
    "city": "京丹後市",
    "category": "tokuyou",
    "serviceType": "介護老人福祉施設",
    "capacity": 50,
    "openDays": [],
    "openDaysNote": ""
  },
  {
    "id": "2671500060",
    "name": "特別養護老人ホーム　長老苑",
    "kana": "トクベツヨウゴロウジンホーム　チョウロウエン",
    "address": "京都府船井郡京丹波町市場丸ヶ野8番地2",
    "lat": 35.2579235,
    "lng": 135.4133556,
    "tel": "0771-84-1748",
    "url": "http://tyorouen.com/",
    "pref": "京都府",
    "city": "京丹波町",
    "category": "tokuyou",
    "serviceType": "介護老人福祉施設",
    "capacity": 60,
    "openDays": [],
    "openDaysNote": ""
  },
  {
    "id": "2671500110",
    "name": "特別養護老人ホーム瑞穂山彦苑",
    "kana": "トクベツヨウゴロウジンホームミズホヤマビコエン",
    "address": "京都府船井郡京丹波町三ノ宮小谷30番地",
    "lat": 35.2215675,
    "lng": 135.3315335,
    "tel": "0771-88-0150",
    "url": "https://yamabikokai-kyoto.com",
    "pref": "京都府",
    "city": "京丹波町",
    "category": "tokuyou",
    "serviceType": "介護老人福祉施設",
    "capacity": 0,
    "openDays": [],
    "openDaysNote": ""
  },
  {
    "id": "2671500094",
    "name": "特別養護老人ホーム丹波高原荘",
    "kana": "トクベツヨウゴロウジンホームタンバコウゲンソウ",
    "address": "京都府船井郡京丹波町蒲生蒲生野173番地",
    "lat": 35.1674024942914,
    "lng": 135.424603717383,
    "tel": "0771-82-2000",
    "url": "https://kougensou.net/index.html",
    "pref": "京都府",
    "city": "京丹波町",
    "category": "tokuyou",
    "serviceType": "介護老人福祉施設",
    "capacity": 80,
    "openDays": [],
    "openDaysNote": ""
  },
  {
    "id": "2673200081",
    "name": "特別養護老人ホーム　セピアの園",
    "kana": "トクベツヨウゴロウジンホーム　セピアノソノ",
    "address": "京都府京田辺市飯岡南原41番地",
    "lat": 34.8036433,
    "lng": 135.7940512,
    "tel": "0774-65-4881",
    "url": "https://sepianosono.jp/",
    "pref": "京都府",
    "city": "京田辺市",
    "category": "tokuyou",
    "serviceType": "介護老人福祉施設",
    "capacity": 50,
    "openDays": [],
    "openDaysNote": ""
  },
  {
    "id": "2673200222",
    "name": "特別養護老人ホーム　つつきの郷",
    "kana": "トクベツヨウゴロウジンホーム　ツツキノサト",
    "address": "京都府京田辺市三山木西ノ河原４３－２",
    "lat": 34.800749,
    "lng": 135.7778442,
    "tel": "0774-68-5155",
    "url": "http://www.tsutsukinosato.or.jp",
    "pref": "京都府",
    "city": "京田辺市",
    "category": "tokuyou",
    "serviceType": "介護老人福祉施設",
    "capacity": 0,
    "openDays": [],
    "openDaysNote": ""
  },
  {
    "id": "2673200396",
    "name": "特別養護老人ホームやすらぎの杜",
    "kana": "トクベツヨウゴロウジンホームヤスラギノモリ",
    "address": "京都府京田辺市同志社山手二丁目1番2",
    "lat": 34.7901722,
    "lng": 135.7763083,
    "tel": "0774-68-5800",
    "url": "http://www.yasuragifukushikai.or.jp",
    "pref": "京都府",
    "city": "京田辺市",
    "category": "tokuyou",
    "serviceType": "介護老人福祉施設",
    "capacity": 90,
    "openDays": [],
    "openDaysNote": ""
  },
  {
    "id": "2673200032",
    "name": "特別養護老人ホーム九十九園",
    "kana": "トクベツヨウゴロウジンホームツクモエン",
    "address": "京都府京田辺市大住池平99番1",
    "lat": 34.8390539,
    "lng": 135.7409635,
    "tel": "0774-63-0804",
    "url": "http://www.tsukumo-en.or.jp",
    "pref": "京都府",
    "city": "京田辺市",
    "category": "tokuyou",
    "serviceType": "介護老人福祉施設",
    "capacity": 0,
    "openDays": [],
    "openDaysNote": ""
  },
  {
    "id": "2670700398",
    "name": "介護老人福祉施設　花友にしこうじ",
    "kana": "カイゴロウジンフクシシセツ　カユウニシコウジ",
    "address": "京都府京都市右京区西京極南庄境町6番地",
    "lat": 34.99159,
    "lng": 135.7260527,
    "tel": "075-326-3900",
    "url": "http://www.itihara.or.jp/",
    "pref": "京都府",
    "city": "京都市右京区",
    "category": "tokuyou",
    "serviceType": "介護老人福祉施設",
    "capacity": 0,
    "openDays": [],
    "openDaysNote": ""
  },
  {
    "id": "2670701891",
    "name": "特別養護老人ホーム　うずまさ共生の郷",
    "kana": "トクベツヨウゴロウジンホーム　ウズマサキョウセイノサト",
    "address": "京都府京都市右京区太秦蜂岡町31番",
    "lat": 35.0139405018893,
    "lng": 135.706763584131,
    "tel": "０７５－８６４－２４００",
    "url": "http://shimei-f.net",
    "pref": "京都府",
    "city": "京都市右京区",
    "category": "tokuyou",
    "serviceType": "介護老人福祉施設",
    "capacity": 0,
    "openDays": [],
    "openDaysNote": ""
  },
  {
    "id": "2670702642",
    "name": "特別養護老人ホーム　すないの家　太秦",
    "kana": "トクベツヨウゴロウジンホーム　スナイノイエ　ウズマサ",
    "address": "京都府京都市右京区常盤森町12番１",
    "lat": 35.0182354,
    "lng": 135.7127268,
    "tel": "075-950-3800",
    "url": "https://kanae-gr.or.jp/kaigo/sunai/uzumasa/",
    "pref": "京都府",
    "city": "京都市右京区",
    "category": "tokuyou",
    "serviceType": "介護老人福祉施設",
    "capacity": 0,
    "openDays": [],
    "openDaysNote": ""
  },
  {
    "id": "2670700026",
    "name": "特別養護老人ホーム　梅津富士園",
    "kana": "トクベツヨウゴロウジンホーム　ウメヅフジエン",
    "address": "京都市右京区梅津尻溝町28番地",
    "lat": 35.0012196,
    "lng": 135.6938584,
    "tel": "075-862-5100",
    "url": "https://fujien.jp/",
    "pref": "京都府",
    "city": "京都市右京区",
    "category": "tokuyou",
    "serviceType": "介護老人福祉施設",
    "capacity": 0,
    "openDays": [],
    "openDaysNote": ""
  },
  {
    "id": "2670700463",
    "name": "特別養護老人ホーム　豊和園",
    "kana": "トクベツヨウゴロウジン　ホームホウワエン",
    "address": "京都市右京区京北上中町宮ノ下22番地",
    "lat": 35.2022886,
    "lng": 135.6369449,
    "tel": "075-854-0314",
    "url": "http://www.hokusoukai.com",
    "pref": "京都府",
    "city": "京都市右京区",
    "category": "tokuyou",
    "serviceType": "介護老人福祉施設",
    "capacity": 0,
    "openDays": [],
    "openDaysNote": ""
  },
  {
    "id": "2670700042",
    "name": "特別養護老人ホームアムールうずまさ",
    "kana": "トクベツヨウゴロウジンホームアムールウズマサ",
    "address": "京都府京都市右京区太秦一ノ井町39番地8",
    "lat": 35.017757,
    "lng": 135.7103537,
    "tel": "075-881-6666",
    "url": "https://nanasekai.or.jp",
    "pref": "京都府",
    "city": "京都市右京区",
    "category": "tokuyou",
    "serviceType": "介護老人福祉施設",
    "capacity": 0,
    "openDays": [],
    "openDaysNote": ""
  },
  {
    "id": "2670700703",
    "name": "特別養護老人ホームはなぞの",
    "kana": "トクベツヨウゴロウジンホームハナゾノ",
    "address": "京都市右京区花園鷹司町1-1",
    "lat": 35.025212,
    "lng": 135.7251911,
    "tel": "075-465-8787",
    "url": "http://www.kenkouen.jp/",
    "pref": "京都府",
    "city": "京都市右京区",
    "category": "tokuyou",
    "serviceType": "介護老人福祉施設",
    "capacity": 0,
    "openDays": [],
    "openDaysNote": ""
  },
  {
    "id": "2660790052",
    "name": "特別養護老人ホーム健光園あらしやま",
    "kana": "トクベツヨウゴロウジンホームケンコウエンアラシヤマ",
    "address": "京都市右京区嵯峨柳田町36-5",
    "lat": 35.0118512,
    "lng": 135.6879884,
    "tel": "075-881-0502",
    "url": "http://www.kenkouen.jp/",
    "pref": "京都府",
    "city": "京都市右京区",
    "category": "tokuyou",
    "serviceType": "介護老人福祉施設",
    "capacity": 110,
    "openDays": [],
    "openDaysNote": ""
  },
  {
    "id": "2670700059",
    "name": "特別養護老人ホーム嵐山寮",
    "kana": "トクベツヨウゴロウジンホームアラシヤマリョウ",
    "address": "京都市右京区嵯峨天龍寺北造路町17番地",
    "lat": 35.0166034402912,
    "lng": 135.6778381695,
    "tel": "075-871-0032",
    "url": "http://www.arashiyamaryo.or.jp",
    "pref": "京都府",
    "city": "京都市右京区",
    "category": "tokuyou",
    "serviceType": "介護老人福祉施設",
    "capacity": 30,
    "openDays": [],
    "openDaysNote": ""
  },
  {
    "id": "2670701057",
    "name": "嵐山寮特別養護老人ホームうたの",
    "kana": "アラシヤマリョウトクベツヨウゴロウジンホームウタノ",
    "address": "京都市右京区太秦中山町１５番地嵐山寮特別養護老人ホームうたの 嵐山寮特別養護老人ホームうたの",
    "lat": 35.0258146,
    "lng": 135.701446,
    "tel": "075-366-3601",
    "url": "http://www.arashiyamaryo.or.jp",
    "pref": "京都府",
    "city": "京都市右京区",
    "category": "tokuyou",
    "serviceType": "介護老人福祉施設",
    "capacity": 0,
    "openDays": [],
    "openDaysNote": ""
  },
  {
    "id": "2670400296",
    "name": "京都市修徳特別養護老人ホーム",
    "kana": "キョウトシシュウトクトクベツヨウゴロウジンホーム",
    "address": "京都市下京区富永町110-1",
    "lat": 34.997934311815,
    "lng": 135.756890597762,
    "tel": "075-351-2181",
    "url": "http://www.kyoto-fukushi.org/",
    "pref": "京都府",
    "city": "京都市下京区",
    "category": "tokuyou",
    "serviceType": "介護老人福祉施設",
    "capacity": 0,
    "openDays": [],
    "openDaysNote": ""
  },
  {
    "id": "2670400932",
    "name": "特別養護老人ホーム　京都五条ひまわりの郷",
    "kana": "トクベツヨウゴロウジンホーム　キョウトゴジョウヒマワリノサト",
    "address": "京都府京都市下京区中堂寺前田町26番地特別養護老人ホーム　京都五条ひまわりの郷 特別養護老人ホーム　京都五条ひまわりの郷",
    "lat": 34.9957173,
    "lng": 135.7466671,
    "tel": "075-352-6700",
    "url": "www.shinseifukushikai.jp/himawari",
    "pref": "京都府",
    "city": "京都市下京区",
    "category": "tokuyou",
    "serviceType": "介護老人福祉施設",
    "capacity": null,
    "openDays": [],
    "openDaysNote": ""
  },
  {
    "id": "2670401286",
    "name": "特別養護老人ホーム京・みやこ",
    "kana": "トクベツヨウゴロウジンホームキョウミヤコ",
    "address": "京都府京都市下京区西七条八幡町31",
    "lat": 34.9923342,
    "lng": 135.729615,
    "tel": "075-313-8888",
    "url": "https://yamabikokai-kyoto.com",
    "pref": "京都府",
    "city": "京都市下京区",
    "category": "tokuyou",
    "serviceType": "介護老人福祉施設",
    "capacity": 0,
    "openDays": [],
    "openDaysNote": ""
  },
  {
    "id": "2670400205",
    "name": "特別養護老人ホーム西七条",
    "kana": "トクベツヨウゴロウジンホームニシシチジョウ",
    "address": "京都市下京区西七条八幡町29番地",
    "lat": 34.9924401,
    "lng": 135.7289608,
    "tel": "075-315-7067",
    "url": "",
    "pref": "京都府",
    "city": "京都市下京区",
    "category": "tokuyou",
    "serviceType": "介護老人福祉施設",
    "capacity": 50,
    "openDays": [],
    "openDaysNote": ""
  },
  {
    "id": "2670601109",
    "name": "介護老人福祉施設　花友いちはら",
    "kana": "カイゴロウジンフクシシセツ　カユウイチハラ",
    "address": "京都市左京区静市市原町1300番地1",
    "lat": 35.0898616544804,
    "lng": 135.761225597519,
    "tel": "075-705-6030",
    "url": "http://www.itihara.or.jp/",
    "pref": "京都府",
    "city": "京都市左京区",
    "category": "tokuyou",
    "serviceType": "介護老人福祉施設",
    "capacity": 100,
    "openDays": [],
    "openDaysNote": ""
  },
  {
    "id": "2670600267",
    "name": "介護老人福祉施設花友しらかわ",
    "kana": "カイゴロウジンフクシシセツカユウシラカワ",
    "address": "京都府京都市左京区浄土寺真如町155-3",
    "lat": 35.0205394186584,
    "lng": 135.791701118385,
    "tel": "075-762-5517",
    "url": "http://www.itihara.or.jp/",
    "pref": "京都府",
    "city": "京都市左京区",
    "category": "tokuyou",
    "serviceType": "介護老人福祉施設",
    "capacity": 0,
    "openDays": [],
    "openDaysNote": ""
  },
  {
    "id": "2670600010",
    "name": "介護老人福祉施設市原寮",
    "kana": "カイゴロウジンフクシシセツイチハラリョウ",
    "address": "京都府京都市左京区静市市原町1278番地",
    "lat": 35.0906859,
    "lng": 135.761518,
    "tel": "075-741-2102",
    "url": "http://www.itihara.or.jp/",
    "pref": "京都府",
    "city": "京都市左京区",
    "category": "tokuyou",
    "serviceType": "介護老人福祉施設",
    "capacity": 94,
    "openDays": [],
    "openDaysNote": ""
  },
  {
    "id": "2670600101",
    "name": "特別養護老人ホーム　バプテスト・ホーム",
    "kana": "トクベツヨウゴロウジンホームバプテスト・ホーム",
    "address": "京都市左京区北白川山ノ元町47-2",
    "lat": 35.0345399,
    "lng": 135.7960129,
    "tel": "075-711-8792",
    "url": "http://www.baptist-megumikai.com",
    "pref": "京都府",
    "city": "京都市左京区",
    "category": "tokuyou",
    "serviceType": "介護老人福祉施設",
    "capacity": 0,
    "openDays": [],
    "openDaysNote": ""
  },
  {
    "id": "2670600150",
    "name": "特別養護老人ホーム　静原寮",
    "kana": "トクベツヨウゴロウジンホーム　シズハラリョウ",
    "address": "京都府京都市左京区静市静原町582番地の1",
    "lat": 35.1071424,
    "lng": 135.7833409,
    "tel": "075-741-2866",
    "url": "https://www.shizuhararyo.com",
    "pref": "京都府",
    "city": "京都市左京区",
    "category": "tokuyou",
    "serviceType": "介護老人福祉施設",
    "capacity": 0,
    "openDays": [],
    "openDaysNote": ""
  },
  {
    "id": "2670600283",
    "name": "特別養護老人ホーム　洛翠園",
    "kana": "トクベツヨウゴロウジンホーム　ラクスイエン",
    "address": "京都市左京区岩倉村松町203番地",
    "lat": 35.088414,
    "lng": 135.7816551,
    "tel": "075-707-7878",
    "url": "https://www.iwakuranosato.jp",
    "pref": "京都府",
    "city": "京都市左京区",
    "category": "tokuyou",
    "serviceType": "介護老人福祉施設",
    "capacity": 0,
    "openDays": [],
    "openDaysNote": ""
  },
  {
    "id": "2670600051",
    "name": "特別養護老人ホーム大原ホーム",
    "kana": "トクベツヨウゴロウジンホームオオハラホーム",
    "address": "京都市左京区大原戸寺町380",
    "lat": 35.1046547,
    "lng": 135.8224449,
    "tel": "075-744-3510",
    "url": "https://kyotoohara.or.jp/facilityservice/oharahome_sn/",
    "pref": "京都府",
    "city": "京都市左京区",
    "category": "tokuyou",
    "serviceType": "介護老人福祉施設",
    "capacity": 0,
    "openDays": [],
    "openDaysNote": ""
  },
  {
    "id": "2654180070",
    "name": "かいごろうじんふくししせつ　こうとうえんやましな",
    "kana": "介護老人福祉施設　香東園ヤマシナ",
    "address": "京都府京都市山科区西野野色町15-88",
    "lat": 34.986211,
    "lng": 135.8050649,
    "tel": "075-595-6511",
    "url": "http://www.koutouen.com/",
    "pref": "京都府",
    "city": "京都市山科区",
    "category": "tokuyou",
    "serviceType": "介護老人福祉施設",
    "capacity": 0,
    "openDays": [],
    "openDaysNote": ""
  },
  {
    "id": "2674100041",
    "name": "特別養護老人ホーム　ヴィラ山科",
    "kana": "トクベツヨウゴロウジンホーム　ウ゛ィラヤマシナ",
    "address": "京都市山科区大宅御所田町115番地１",
    "lat": 34.9710253,
    "lng": 135.8258567,
    "tel": "075-572-6677",
    "url": "http://www.takedahp.or.jp/",
    "pref": "京都府",
    "city": "京都市山科区",
    "category": "tokuyou",
    "serviceType": "介護老人福祉施設",
    "capacity": 80,
    "openDays": [],
    "openDaysNote": ""
  },
  {
    "id": "2674100025",
    "name": "特別養護老人ホーム　山科苑",
    "kana": "トクベツヨウゴロウジンホーム　ヤマシナエン",
    "address": "京都市山科区大塚野溝町3番地",
    "lat": 34.9834406,
    "lng": 135.8334894,
    "tel": "075-593-0800",
    "url": "http://ryokujukai.com/toku_yamashina/",
    "pref": "京都府",
    "city": "京都市山科区",
    "category": "tokuyou",
    "serviceType": "介護老人福祉施設",
    "capacity": 50,
    "openDays": [],
    "openDaysNote": ""
  },
  {
    "id": "2674100579",
    "name": "特別養護老人ホーム　山科積慶園",
    "kana": "トクベツヨウゴロウジンホーム　ヤマシナセッケイエン",
    "address": "京都市山科区北花山大林町３４番地",
    "lat": 34.9820927,
    "lng": 135.7987265,
    "tel": "075-583-6277",
    "url": "http://www.sekkeien.or.jp/",
    "pref": "京都府",
    "city": "京都市山科区",
    "category": "tokuyou",
    "serviceType": "介護老人福祉施設",
    "capacity": 0,
    "openDays": [],
    "openDaysNote": ""
  },
  {
    "id": "2674100975",
    "name": "特別養護老人ホームそらの木",
    "kana": "トクベツヨウゴロウジンホームソラノキ",
    "address": "大宅打明町15番地",
    "lat": 34.9735472,
    "lng": 135.8219792,
    "tel": "075-502-1030",
    "url": "http://www.toumonkai.net/",
    "pref": "京都府",
    "city": "京都市山科区",
    "category": "tokuyou",
    "serviceType": "介護老人福祉施設",
    "capacity": 90,
    "openDays": [],
    "openDaysNote": ""
  },
  {
    "id": "2674101809",
    "name": "特別養護老人ホーム御陵洛東園",
    "kana": "トクベツヨウゴロウジンホームミササギラクトウエン",
    "address": "御陵岡町１番地2",
    "lat": 34.9937736,
    "lng": 135.8027626,
    "tel": "075-582-5558",
    "url": "http://www.wf-rakutouen.com/",
    "pref": "京都府",
    "city": "京都市山科区",
    "category": "tokuyou",
    "serviceType": "介護老人福祉施設",
    "capacity": 100,
    "openDays": [],
    "openDaysNote": ""
  },
  {
    "id": "2674102104",
    "name": "特別養護老人ホーム山科すみれ園",
    "kana": "トクベツヨウゴロウジンホームヤマシナスミレエン",
    "address": "京都府京都市山科区四ノ宮芝畑町23番地1",
    "lat": 34.9903483,
    "lng": 135.8341971,
    "tel": "075-748-8025",
    "url": "https://yamashina-sumire-en.com/",
    "pref": "京都府",
    "city": "京都市山科区",
    "category": "tokuyou",
    "serviceType": "介護老人福祉施設",
    "capacity": 0,
    "openDays": [],
    "openDaysNote": ""
  },
  {
    "id": "2674100108",
    "name": "特別養護老人ホーム長楽園",
    "kana": "カイゴロウジンフクシシセツチョウラクエン",
    "address": "京都市山科区勧修寺仁王堂町13番地3",
    "lat": 34.9613786,
    "lng": 135.8085668,
    "tel": "075-572-6317",
    "url": "http://care-netbiz/26/kanshu1985/",
    "pref": "京都府",
    "city": "京都市山科区",
    "category": "tokuyou",
    "serviceType": "介護老人福祉施設",
    "capacity": null,
    "openDays": [],
    "openDaysNote": ""
  },
  {
    "id": "2674100132",
    "name": "特別養護老人ホーム東旺苑",
    "kana": "トクベツヨウゴロウジンホームトウオウエン",
    "address": "京都市山科区川田岩ヶ谷町1番地の3",
    "lat": 34.9809688158871,
    "lng": 135.792502084364,
    "tel": "075-594-4547",
    "url": "http:///www.eikoukai.kyoto.jp",
    "pref": "京都府",
    "city": "京都市山科区",
    "category": "tokuyou",
    "serviceType": "介護老人福祉施設",
    "capacity": 0,
    "openDays": [],
    "openDaysNote": ""
  },
  {
    "id": "2670200431",
    "name": "介護老人福祉施設　つきかげ苑",
    "kana": "カイゴロウジンフクシシセツ　ツキカゲエン",
    "address": "京都市上京区寺町通清和院口上ル二丁目北ノ辺町395番地20",
    "lat": 35.0323732,
    "lng": 135.749697,
    "tel": "075-223-1165",
    "url": "http://jozankai.jp/",
    "pref": "京都府",
    "city": "京都市上京区",
    "category": "tokuyou",
    "serviceType": "介護老人福祉施設",
    "capacity": 0,
    "openDays": [],
    "openDaysNote": ""
  },
  {
    "id": "2670200894",
    "name": "京都市小川特別養護老人ホーム",
    "kana": "キョウトシオガワトクベツヨウゴロウジンホーム",
    "address": "京都市上京区小川通今出川下る西入東今町375番地",
    "lat": 35.0289165986602,
    "lng": 135.753629590738,
    "tel": "075-415-8833",
    "url": "https://www.kyoto-fukushi.org/office/detail/oga/",
    "pref": "京都府",
    "city": "京都市上京区",
    "category": "tokuyou",
    "serviceType": "介護老人福祉施設",
    "capacity": 90,
    "openDays": [],
    "openDaysNote": ""
  },
  {
    "id": "2670200498",
    "name": "特別養護老人ホーム西陣憩いの郷",
    "kana": "トクベツヨウゴロウジンホームニシジンイコイノサト",
    "address": "桐木町885番1",
    "lat": 35.0317369,
    "lng": 135.7424254,
    "tel": "075-431-1513",
    "url": "http://nishijin.kitano-kenjukai.or.jp/",
    "pref": "京都府",
    "city": "京都市上京区",
    "category": "tokuyou",
    "serviceType": "介護老人福祉施設",
    "capacity": 100,
    "openDays": [],
    "openDaysNote": ""
  },
  {
    "id": "2674000191",
    "name": "介護老人福祉施設　シオンの里",
    "kana": "カイゴロウジンフクシシセツシオンノサト",
    "address": "京都市西京区樫原秤谷21-2",
    "lat": 34.9706446,
    "lng": 135.6833037,
    "tel": "075-382-5551",
    "url": "http://zion1205.com",
    "pref": "京都府",
    "city": "京都市西京区",
    "category": "tokuyou",
    "serviceType": "介護老人福祉施設",
    "capacity": 50,
    "openDays": [],
    "openDaysNote": ""
  },
  {
    "id": "2674000050",
    "name": "京都市桂川特別養護老人ホーム",
    "kana": "キョウトシカツラガワトクベツヨウゴロウジンホーム",
    "address": "京都市西京区下津林東大般若町32番地",
    "lat": 34.9760774,
    "lng": 135.7139066,
    "tel": "075-391-1675",
    "url": "http://www.katsuragawaen.com/",
    "pref": "京都府",
    "city": "京都市西京区",
    "category": "tokuyou",
    "serviceType": "介護老人福祉施設",
    "capacity": 0,
    "openDays": [],
    "openDaysNote": ""
  },
  {
    "id": "2674001314",
    "name": "特別養護老人ホーム　すないの家桂",
    "kana": "トクベツヨウゴロウジンホーム　スナイノイエカツラ",
    "address": "京都府京都市西京区御陵塚ノ越町17番１",
    "lat": 34.9791844,
    "lng": 135.6902035,
    "tel": "075‐874-5137",
    "url": "https://kanae-gr.or.jp/kaigo/",
    "pref": "京都府",
    "city": "京都市西京区",
    "category": "tokuyou",
    "serviceType": "介護老人福祉施設",
    "capacity": 0,
    "openDays": [],
    "openDaysNote": ""
  },
  {
    "id": "2674000035",
    "name": "特別養護老人ホーム　京都厚生園",
    "kana": "トクベツヨウゴロウジンホーム　キョウトコウセイエン",
    "address": "京都市西京区山田平尾町46番地",
    "lat": 34.9822621337551,
    "lng": 135.684397425131,
    "tel": "075-391-7870",
    "url": "http://www.kyotokouseien.com",
    "pref": "京都府",
    "city": "京都市西京区",
    "category": "tokuyou",
    "serviceType": "介護老人福祉施設",
    "capacity": 80,
    "openDays": [],
    "openDaysNote": ""
  },
  {
    "id": "2674000027",
    "name": "特別養護老人ホームまほろば",
    "kana": "トクベツヨウゴロウジンホームマホロバ",
    "address": "京都市西京区大原野上羽町39-1",
    "lat": 34.9527765,
    "lng": 135.6745622,
    "tel": "075-332-4165",
    "url": "https://ooharanofukushikai.com/",
    "pref": "京都府",
    "city": "京都市西京区",
    "category": "tokuyou",
    "serviceType": "介護老人福祉施設",
    "capacity": 0,
    "openDays": [],
    "openDaysNote": ""
  },
  {
    "id": "2674000076",
    "name": "特別養護老人ホーム沓掛寮",
    "kana": "トクベツヨウゴロウジンホームクツカケリョウ",
    "address": "京都府京都市西京区大枝北沓掛町1丁目2番地",
    "lat": 34.9883291,
    "lng": 135.6544104,
    "tel": "075-332-2941",
    "url": "http://rakusaifukusikai.or.jp",
    "pref": "京都府",
    "city": "京都市西京区",
    "category": "tokuyou",
    "serviceType": "介護老人福祉施設",
    "capacity": 115,
    "openDays": [],
    "openDaysNote": ""
  },
  {
    "id": "2674001371",
    "name": "特別養護老人ホーム桂まほろばテラス",
    "kana": "トクベツヨウゴロウジンホームカツラマホロバテラス",
    "address": "京都市西京区下津林南大般若町1番地",
    "lat": 34.9748697773352,
    "lng": 135.711598126479,
    "tel": "075-394-7707",
    "url": "https://ooharanofukushikai.com/",
    "pref": "京都府",
    "city": "京都市西京区",
    "category": "tokuyou",
    "serviceType": "介護老人福祉施設",
    "capacity": 0,
    "openDays": [],
    "openDaysNote": ""
  },
  {
    "id": "2674000084",
    "name": "特別養護老人ホーム西山寮",
    "kana": "トクベツヨウゴロウジンホームセイザンリョウ",
    "address": "京都市西京区大原野石作町256番地1",
    "lat": 34.9503986,
    "lng": 135.6535416,
    "tel": "075-332-2030",
    "url": "https://seizanryo.jp/",
    "pref": "京都府",
    "city": "京都市西京区",
    "category": "tokuyou",
    "serviceType": "介護老人福祉施設",
    "capacity": 0,
    "openDays": [],
    "openDaysNote": ""
  },
  {
    "id": "2674001512",
    "name": "特別養護老人ホーム大枝美郷",
    "kana": "トクベツヨウゴロウジンホームオオエミサト",
    "address": "大枝西長町１２番地２５",
    "lat": 34.9735434,
    "lng": 135.6657383,
    "tel": "075-366-4700",
    "url": "http://www.misugikai.jp/ooemisato/index.html",
    "pref": "京都府",
    "city": "京都市西京区",
    "category": "tokuyou",
    "serviceType": "介護老人福祉施設",
    "capacity": null,
    "openDays": [],
    "openDaysNote": ""
  },
  {
    "id": "2670301056",
    "name": "介護老人福祉施設　ライトハウス朱雀",
    "kana": "カイゴロウジンフクシシセツ　ライトハウススザク",
    "address": "京都府京都市中京区西ノ京新建町3番地",
    "lat": 35.0095331,
    "lng": 135.7325936,
    "tel": "075-803-1739",
    "url": "www.kyoto-lighthouse.or.jp",
    "pref": "京都府",
    "city": "京都市中京区",
    "category": "tokuyou",
    "serviceType": "介護老人福祉施設",
    "capacity": 65,
    "openDays": [],
    "openDaysNote": ""
  },
  {
    "id": "2670300553",
    "name": "京都市本能特別養護老人ホーム",
    "kana": "キョウトシホンノウトクベツヨウゴロウジンホーム",
    "address": "京都市中京区蛸薬師通油小路東入元本能寺南町３４６番地",
    "lat": 35.0125724,
    "lng": 135.7581802,
    "tel": "075-254-0020",
    "url": "http://kyoto-fukushi.org",
    "pref": "京都府",
    "city": "京都市中京区",
    "category": "tokuyou",
    "serviceType": "介護老人福祉施設",
    "capacity": 90,
    "openDays": [],
    "openDaysNote": ""
  },
  {
    "id": "2670300025",
    "name": "特別養護老人ホーム　壬生老人ホーム",
    "kana": "トクベツヨウゴロウジンホーム　ミブロウジンホーム",
    "address": "京都市中京区壬生梛ノ宮町２７",
    "lat": 35.0013536,
    "lng": 135.7440289,
    "tel": "075-801-1243",
    "url": "http://www.mibuhomu.com/",
    "pref": "京都府",
    "city": "京都市中京区",
    "category": "tokuyou",
    "serviceType": "介護老人福祉施設",
    "capacity": 50,
    "openDays": [],
    "openDaysNote": ""
  },
  {
    "id": "2670800271",
    "name": "特別養護老人ホーム修道洛東園",
    "kana": "トクベツヨウゴロウジンホームシュウドウラクトウエン",
    "address": "京都府京都市東山区渋谷通本町東入三丁目上新シ町358番地",
    "lat": 34.9938532698413,
    "lng": 135.773340173849,
    "tel": "075-533-2114",
    "url": "http://www.wf-rakutouen.com/",
    "pref": "京都府",
    "city": "京都市東山区",
    "category": "tokuyou",
    "serviceType": "介護老人福祉施設",
    "capacity": 63,
    "openDays": [],
    "openDaysNote": ""
  },
  {
    "id": "2670800032",
    "name": "特別養護老人ホーム洛東園",
    "kana": "トクベツヨウゴロウジンホームラクトウエン",
    "address": "京都府京都市東山区本町15丁目794番地",
    "lat": 34.9798535,
    "lng": 135.7731652,
    "tel": "075-561-1171",
    "url": "http://www.wf-rakutouen.com",
    "pref": "京都府",
    "city": "京都市東山区",
    "category": "tokuyou",
    "serviceType": "介護老人福祉施設",
    "capacity": 56,
    "openDays": [],
    "openDaysNote": ""
  },
  {
    "id": "2670500012",
    "name": "京都市久世特別養護老人ホーム",
    "kana": "キョウトシクゼトクベツヨウゴロウジンホーム",
    "address": "京都市南区久世築山町328",
    "lat": 34.9578146049544,
    "lng": 135.724863464764,
    "tel": "075-933-5772",
    "url": "http://www.seiwaen.or.jp",
    "pref": "京都府",
    "city": "京都市南区",
    "category": "tokuyou",
    "serviceType": "介護老人福祉施設",
    "capacity": 50,
    "openDays": [],
    "openDaysNote": ""
  },
  {
    "id": "2670500061",
    "name": "東九条のぞみ特別養護老人ホーム",
    "kana": "ヒガシクジョウノゾミトクベツヨウゴロウジンホーム",
    "address": "京都市南区東九条西岩本町1-1",
    "lat": 34.9821308,
    "lng": 135.7630661,
    "tel": "075-662-3961",
    "url": "https://www.nozominosono.net/",
    "pref": "京都府",
    "city": "京都市南区",
    "category": "tokuyou",
    "serviceType": "介護老人福祉施設",
    "capacity": 50,
    "openDays": [],
    "openDaysNote": ""
  },
  {
    "id": "2670500350",
    "name": "特別養護老人ホームビハーラ十条",
    "kana": "トクベツヨウゴロウジンホームビハーラジュウジョウ",
    "address": "京都市南区吉祥院南落合町40-4",
    "lat": 34.9729826957245,
    "lng": 135.740709596295,
    "tel": "075-661-4501",
    "url": "http://www.vhr10.jp",
    "pref": "京都府",
    "city": "京都市南区",
    "category": "tokuyou",
    "serviceType": "介護老人福祉施設",
    "capacity": 0,
    "openDays": [],
    "openDaysNote": ""
  },
  {
    "id": "2670500020",
    "name": "特別養護老人ホーム吉祥ホーム",
    "kana": "トクベツヨウゴロウジンホームキッショウホーム",
    "address": "京都市南区吉祥院石原橋上1-4",
    "lat": 34.968156,
    "lng": 135.7239362,
    "tel": "075-682-8150",
    "url": "http://www.seiwaen.or.jp",
    "pref": "京都府",
    "city": "京都市南区",
    "category": "tokuyou",
    "serviceType": "介護老人福祉施設",
    "capacity": 0,
    "openDays": [],
    "openDaysNote": ""
  },
  {
    "id": "2670500442",
    "name": "特別養護老人ホーム故郷の家・京都",
    "kana": "トクベツヨウゴロウジンホームコキョウノイエ・キョウト",
    "address": "京都市南区東九条南松ノ木町４７",
    "lat": 34.9767675,
    "lng": 135.7664547,
    "tel": "075-691-4448",
    "url": "http://www.kokorono.or.jp/",
    "pref": "京都府",
    "city": "京都市南区",
    "category": "tokuyou",
    "serviceType": "介護老人福祉施設",
    "capacity": 100,
    "openDays": [],
    "openDaysNote": ""
  },
  {
    "id": "2670500046",
    "name": "特別養護老人ホーム塔南の園",
    "kana": "トクベツヨウゴロウジンホームトウナンノソノ",
    "address": "京都市南区西九条菅田町4番地の2総合福祉施設　塔南の園 総合福祉施設　塔南の園",
    "lat": 34.9740395,
    "lng": 135.7468731,
    "tel": "075-662-2731",
    "url": "https://www.kyoto-fukushi.org/",
    "pref": "京都府",
    "city": "京都市南区",
    "category": "tokuyou",
    "serviceType": "介護老人福祉施設",
    "capacity": 0,
    "openDays": [],
    "openDaysNote": ""
  },
  {
    "id": "2670900261",
    "name": "特別養護老人ホーム　　　城南ホーム",
    "kana": "トクベツヨウゴロウジンホーム　　ジョウナンホーム",
    "address": "京都市伏見区竹田中内畑町53",
    "lat": 34.9534582,
    "lng": 135.7536609,
    "tel": "075-622-6496",
    "url": "http://www.seiwaen.or.jp/",
    "pref": "京都府",
    "city": "京都市伏見区",
    "category": "tokuyou",
    "serviceType": "介護老人福祉施設",
    "capacity": 80,
    "openDays": [],
    "openDaysNote": ""
  },
  {
    "id": "2670900121",
    "name": "特別養護老人ホーム　ヴィラ向島",
    "kana": "トクベツヨウゴロウジンホーム　ウ゛ィラムカイジマ",
    "address": "京都市伏見区向島新上林町16",
    "lat": 34.9156207,
    "lng": 135.7634734,
    "tel": "075-622-8687",
    "url": "https://www.mukaijima.jp",
    "pref": "京都府",
    "city": "京都市伏見区",
    "category": "tokuyou",
    "serviceType": "介護老人福祉施設",
    "capacity": 60,
    "openDays": [],
    "openDaysNote": ""
  },
  {
    "id": "2670917539",
    "name": "特別養護老人ホーム　京都指月あさがおの郷1号館",
    "kana": "トクベツヨウゴロウジンホーム　キョウトシゲツアサガオノサト　イチゴウカン",
    "address": "京都府京都市伏見区常磐町40番の3",
    "lat": 34.940455,
    "lng": 135.7491556,
    "tel": "075-611-1011",
    "url": "http://shinseifukushikai.jp/asagao/",
    "pref": "京都府",
    "city": "京都市伏見区",
    "category": "tokuyou",
    "serviceType": "介護老人福祉施設",
    "capacity": 0,
    "openDays": [],
    "openDaysNote": ""
  },
  {
    "id": "2670900139",
    "name": "特別養護老人ホーム　京都老人ホーム",
    "kana": "トクベツヨウゴロウジンホーム　キョウトロウジンホーム",
    "address": "京都市伏見区深草大亀谷東古御香町59番地・60番合地",
    "lat": 34.9432184,
    "lng": 135.7869048,
    "tel": "075-641-6622",
    "url": "http://www.kyoro.or.jp",
    "pref": "京都府",
    "city": "京都市伏見区",
    "category": "tokuyou",
    "serviceType": "介護老人福祉施設",
    "capacity": 182,
    "openDays": [],
    "openDaysNote": ""
  },
  {
    "id": "2670900188",
    "name": "特別養護老人ホーム　同和園",
    "kana": "トクベツヨウゴロウジンホウムドウワエン",
    "address": "京都市伏見区醍醐上ノ山町11番地",
    "lat": 34.9570819,
    "lng": 135.8146939,
    "tel": "075-571-0010",
    "url": "https://dowaen.jp/",
    "pref": "京都府",
    "city": "京都市伏見区",
    "category": "tokuyou",
    "serviceType": "介護老人福祉施設",
    "capacity": 304,
    "openDays": [],
    "openDaysNote": ""
  },
  {
    "id": "2670900436",
    "name": "特別養護老人ホーム　淀の里",
    "kana": "トクベツヨウゴロウジンホーム　ヨドノサト",
    "address": "京都市伏見区淀美豆町1055番地",
    "lat": 34.8976555,
    "lng": 135.7122528,
    "tel": "075-631-8834",
    "url": "http://www.kyoto.zaq.jp/fusiminitirinfukusikai/",
    "pref": "京都府",
    "city": "京都市伏見区",
    "category": "tokuyou",
    "serviceType": "介護老人福祉施設",
    "capacity": 107,
    "openDays": [],
    "openDaysNote": ""
  },
  {
    "id": "2670900790",
    "name": "特別養護老人ホームあじさい苑",
    "kana": "トクベツヨウゴロウジンホーム　アジサイエン",
    "address": "京都市伏見区向島二ノ丸町151番53",
    "lat": 34.9167568,
    "lng": 135.7764222,
    "tel": "075-601-6171",
    "url": "http://www.ajisai-kosyokai.com",
    "pref": "京都府",
    "city": "京都市伏見区",
    "category": "tokuyou",
    "serviceType": "介護老人福祉施設",
    "capacity": 100,
    "openDays": [],
    "openDaysNote": ""
  },
  {
    "id": "2670900899",
    "name": "特別養護老人ホームヴィラ稲荷山",
    "kana": "トクベツヨウゴロウジンホームウ゛ィライナリヤマ",
    "address": "京都市伏見区深草正覚町23番",
    "lat": 34.9733236,
    "lng": 135.7731124,
    "tel": "075-561-6550",
    "url": "https://www.takedahp.or.jp/group/welfare/villa_i/index.html",
    "pref": "京都府",
    "city": "京都市伏見区",
    "category": "tokuyou",
    "serviceType": "介護老人福祉施設",
    "capacity": 100,
    "openDays": [],
    "openDaysNote": ""
  },
  {
    "id": "2670900055",
    "name": "特別養護老人ホームヴィラ端山",
    "kana": "トクベツヨウゴロウジンホームヴィラハヤマ",
    "address": "京都市伏見区醍醐下端山町36",
    "lat": 34.9478801,
    "lng": 135.8198156,
    "tel": "075-573-7215",
    "url": "https://www.villa.or.jp",
    "pref": "京都府",
    "city": "京都市伏見区",
    "category": "tokuyou",
    "serviceType": "介護老人福祉施設",
    "capacity": 50,
    "openDays": [],
    "openDaysNote": ""
  },
  {
    "id": "2670900113",
    "name": "特別養護老人ホームそせい苑",
    "kana": "トクベツヨウゴロウジンホームソセイエン",
    "address": "京都市伏見区下鳥羽但馬町150番地",
    "lat": 34.9320774,
    "lng": 135.7500938,
    "tel": "075-605-1026",
    "url": "http://www.soseien.jp",
    "pref": "京都府",
    "city": "京都市伏見区",
    "category": "tokuyou",
    "serviceType": "介護老人福祉施設",
    "capacity": 0,
    "openDays": [],
    "openDaysNote": ""
  },
  {
    "id": "2670917547",
    "name": "特別養護老人ホームひかる苑",
    "kana": "トクベツヨウゴロウジンホームヒカルエン",
    "address": "京都府京都市伏見区醍醐川久保町18番地1",
    "lat": 34.9537374,
    "lng": 135.8118823,
    "tel": "075-573-2129",
    "url": "https://yukyukai-hikaruen.or.jp",
    "pref": "京都府",
    "city": "京都市伏見区",
    "category": "tokuyou",
    "serviceType": "介護老人福祉施設",
    "capacity": 0,
    "openDays": [],
    "openDaysNote": ""
  },
  {
    "id": "2670900246",
    "name": "特別養護老人ホームフジの園",
    "kana": "トクベツヨウゴロウジンホ－ム　フジノエン",
    "address": "京都市伏見区深草泓ノ壺町37－1",
    "lat": 34.9490282,
    "lng": 135.7603824,
    "tel": "075-643-3003",
    "url": "https://www.fujinokai.jp",
    "pref": "京都府",
    "city": "京都市伏見区",
    "category": "tokuyou",
    "serviceType": "介護老人福祉施設",
    "capacity": 49,
    "openDays": [],
    "openDaysNote": ""
  },
  {
    "id": "2670900162",
    "name": "特別養護老人ホームみやびのその",
    "kana": "トクベツヨウゴロウジンホームミヤビノソノ",
    "address": "京都市伏見区深草泓ノ壺町35-1",
    "lat": 34.9491699,
    "lng": 135.7598074,
    "tel": "075-645-2000",
    "url": "http://www.fujinokai.jp",
    "pref": "京都府",
    "city": "京都市伏見区",
    "category": "tokuyou",
    "serviceType": "介護老人福祉施設",
    "capacity": 0,
    "openDays": [],
    "openDaysNote": ""
  },
  {
    "id": "2670900444",
    "name": "特別養護老人ホームももやま",
    "kana": "トクベツヨウゴロウジンホームモモヤマ",
    "address": "京都市伏見区桃山町立売1-6",
    "lat": 34.9320329,
    "lng": 135.7707811,
    "tel": "075-605-5679",
    "url": "http://www.kenkouen.jp/",
    "pref": "京都府",
    "city": "京都市伏見区",
    "category": "tokuyou",
    "serviceType": "介護老人福祉施設",
    "capacity": 84,
    "openDays": [],
    "openDaysNote": ""
  },
  {
    "id": "2670917232",
    "name": "特別養護老人ホーム深草しみずの里",
    "kana": "トクベツヨウゴロウジンホームフカクサシミズノサト",
    "address": "京都府京都市伏見区深草越後屋敷町17番地の5",
    "lat": 34.9494000783506,
    "lng": 135.764574723557,
    "tel": "075-646-1001",
    "url": "http://www.fushimi-shimizu.jp/",
    "pref": "京都府",
    "city": "京都市伏見区",
    "category": "tokuyou",
    "serviceType": "介護老人福祉施設",
    "capacity": 0,
    "openDays": [],
    "openDaysNote": ""
  },
  {
    "id": "2670901434",
    "name": "特別養護老人ホーム日野しみずの里",
    "kana": "トクベツヨウゴロウジンホームヒノシミズノサト",
    "address": "京都市伏見区日野田頬町７２番地１",
    "lat": 34.9298899,
    "lng": 135.8130523,
    "tel": "075-573-6351",
    "url": "https://ksmcs.jp/",
    "pref": "京都府",
    "city": "京都市伏見区",
    "category": "tokuyou",
    "serviceType": "介護老人福祉施設",
    "capacity": 110,
    "openDays": [],
    "openDaysNote": ""
  },
  {
    "id": "2670900022",
    "name": "特別養護老人ホーム洛和ヴィラ桃山",
    "kana": "トクベツヨウゴロウジンホームラクワヴィラモモヤマ",
    "address": "京都府京都市伏見区桃山町大島38-528",
    "lat": 34.9254563,
    "lng": 135.7905321,
    "tel": "075-622-2181",
    "url": "https://kaigo.rakuwa.or.jp/service/station/tokuyou-momoyama/",
    "pref": "京都府",
    "city": "京都市伏見区",
    "category": "tokuyou",
    "serviceType": "介護老人福祉施設",
    "capacity": 80,
    "openDays": [],
    "openDaysNote": ""
  },
  {
    "id": "2670100813",
    "name": "介護老人福祉施設にしがも舟山庵",
    "kana": "カイゴロウジンフクシシセツ　ニシガモフナヤマアン",
    "address": "京都市北区大宮西山ノ前町3番地1",
    "lat": 35.0587118,
    "lng": 135.7405227,
    "tel": "075-495-1121",
    "url": "http://funayamaan.com/",
    "pref": "京都府",
    "city": "京都市北区",
    "category": "tokuyou",
    "serviceType": "介護老人福祉施設",
    "capacity": 80,
    "openDays": [],
    "openDaysNote": ""
  },
  {
    "id": "2670100037",
    "name": "京都市柊野特別養護老人ホーム",
    "kana": "キョウトシヒラギノトクベツヨウゴロウジンホーム",
    "address": "京都市北区上賀茂馬ノ目町１０－１",
    "lat": 35.0668888,
    "lng": 135.7475526,
    "tel": "075-705-4131",
    "url": "http://www.hiragino.or.jp",
    "pref": "京都府",
    "city": "京都市北区",
    "category": "tokuyou",
    "serviceType": "介護老人福祉施設",
    "capacity": 50,
    "openDays": [],
    "openDaysNote": ""
  },
  {
    "id": "2670100060",
    "name": "特別養護老人ホーム　原谷こぶしの里",
    "kana": "トクベツヨウゴロウジンホーム　ハラダニコブシノサト",
    "address": "京都市北区大北山長谷町5-36",
    "lat": 35.0451156,
    "lng": 135.7193496,
    "tel": "075-463-4888",
    "url": "http://www.nananokai.com",
    "pref": "京都府",
    "city": "京都市北区",
    "category": "tokuyou",
    "serviceType": "介護老人福祉施設",
    "capacity": 0,
    "openDays": [],
    "openDaysNote": ""
  },
  {
    "id": "2670100128",
    "name": "特別養護老人ホーム「ヴィラ上賀茂」",
    "kana": "トクベツヨウゴロウジンホーム「ヴィラカミガモ」",
    "address": "京都市北区上賀茂中ノ河原町22-1",
    "lat": 35.0664416,
    "lng": 135.7474804,
    "tel": "075-711-1851",
    "url": "http://www.hiragino.or.jp//kamigamo1.htm",
    "pref": "京都府",
    "city": "京都市北区",
    "category": "tokuyou",
    "serviceType": "介護老人福祉施設",
    "capacity": 50,
    "openDays": [],
    "openDaysNote": ""
  },
  {
    "id": "2670100219",
    "name": "特別養護老人ホームユーカリの里",
    "kana": "トクベツヨウゴロウジンホームユーカリノサト",
    "address": "京都市北区上賀茂ケシ山１-４３",
    "lat": 35.0603618,
    "lng": 135.7695896,
    "tel": "075-712-1120",
    "url": "http://web.kyoto-inet.or.jp/people/koalamet/",
    "pref": "京都府",
    "city": "京都市北区",
    "category": "tokuyou",
    "serviceType": "介護老人福祉施設",
    "capacity": 0,
    "openDays": [],
    "openDaysNote": ""
  },
  {
    "id": "2670100433",
    "name": "特別養護老人ホーム紫野",
    "kana": "トクベツヨウゴロウジンホームムラサキノ",
    "address": "京都市北区紫野西野町15番地",
    "lat": 35.0413943,
    "lng": 135.7415531,
    "tel": "075-494-3341",
    "url": "http://www.e-caretown.com/26/kyoto-murasakino/index.html",
    "pref": "京都府",
    "city": "京都市北区",
    "category": "tokuyou",
    "serviceType": "介護老人福祉施設",
    "capacity": 0,
    "openDays": [],
    "openDaysNote": ""
  },
  {
    "id": "2670100508",
    "name": "特別養護老人ホーム和順の里",
    "kana": "トクベツヨウゴロウジンホームワジュンノサト",
    "address": "京都市北区大北山原谷乾町102－1",
    "lat": 35.0434436,
    "lng": 135.7156082,
    "tel": "075-467-3670",
    "url": "http://www.wajunkyouseikai.sakura.ne.jp/",
    "pref": "京都府",
    "city": "京都市北区",
    "category": "tokuyou",
    "serviceType": "介護老人福祉施設",
    "capacity": 0,
    "openDays": [],
    "openDaysNote": ""
  },
  {
    "id": "2673100133",
    "name": "特別養護老人ホーム　サンフラワーガーデン",
    "kana": "トクベツヨウゴロウジンホーム　サンフラワーガーデン",
    "address": "京都府向日市物集女町森ノ下12番地1",
    "lat": 34.962987,
    "lng": 135.6998216,
    "tel": "075-922-1700",
    "url": "http://www.sgarden.or.jp",
    "pref": "京都府",
    "city": "向日市",
    "category": "tokuyou",
    "serviceType": "介護老人福祉施設",
    "capacity": null,
    "openDays": [],
    "openDaysNote": ""
  },
  {
    "id": "2673100018",
    "name": "特別養護老人ホーム向陽苑",
    "kana": "トクベツヨウゴロウジンホームコウヨウエン",
    "address": "京都府向日市上植野町五ノ坪1番地の2",
    "lat": 34.9376427,
    "lng": 135.7112976,
    "tel": "075-921-0026",
    "url": "http://www.kouyouen26.com/",
    "pref": "京都府",
    "city": "向日市",
    "category": "tokuyou",
    "serviceType": "介護老人福祉施設",
    "capacity": 50,
    "openDays": [],
    "openDaysNote": ""
  },
  {
    "id": "2672800261",
    "name": "ひだまり久世",
    "kana": "ヒダマリクセ",
    "address": "京都府城陽市久世里ノ西82番地の１",
    "lat": 34.8592882,
    "lng": 135.7666584,
    "tel": "0774-54-7539",
    "url": "http://www.joyofukushikai.com",
    "pref": "京都府",
    "city": "城陽市",
    "category": "tokuyou",
    "serviceType": "介護老人福祉施設",
    "capacity": null,
    "openDays": [],
    "openDaysNote": ""
  },
  {
    "id": "2672800071",
    "name": "社会福祉法人和光会特別養護老人ホーム梅林園",
    "kana": "シャカイフクシホウジンワコウカイトクベツヨウゴロウジンホームバイリンエン",
    "address": "京都府城陽市中芦原55番地",
    "lat": 34.8322776,
    "lng": 135.8195815,
    "tel": "0774-52-4500",
    "url": "https://bairinen.jp/",
    "pref": "京都府",
    "city": "城陽市",
    "category": "tokuyou",
    "serviceType": "介護老人福祉施設",
    "capacity": null,
    "openDays": [],
    "openDaysNote": ""
  },
  {
    "id": "2672800279",
    "name": "特別養護老人ホーム　ビハーラ本願寺",
    "kana": "トクベツヨウゴロウジンホーム　ビハーラホンガンジ",
    "address": "京都府城陽市奈島内垣内１番地",
    "lat": 34.8323658,
    "lng": 135.7953726,
    "tel": "0774-54-0700",
    "url": "http://www.vihara-hongwanji.jp",
    "pref": "京都府",
    "city": "城陽市",
    "category": "tokuyou",
    "serviceType": "介護老人福祉施設",
    "capacity": null,
    "openDays": [],
    "openDaysNote": ""
  },
  {
    "id": "2671400311",
    "name": "特別養護老人ホーム神の園",
    "kana": "トクベツヨウゴロウジンホームカミノソノ",
    "address": "京都府相楽郡精華町大字南稲八妻小字笛竹41",
    "lat": 34.762536,
    "lng": 135.7831887,
    "tel": "0774-94-4125",
    "url": "http://kami-home.jp/",
    "pref": "京都府",
    "city": "精華町",
    "category": "tokuyou",
    "serviceType": "介護老人福祉施設",
    "capacity": 90,
    "openDays": [],
    "openDaysNote": ""
  },
  {
    "id": "2671000046",
    "name": "洛和ヴィラ大山崎",
    "kana": "ラクワウ゛ィラオオヤマザキ",
    "address": "京都府乙訓郡大山崎町円明寺開キ3-3特別養護老人ホーム　洛和ヴィラ大山崎 特別養護老人ホーム　洛和ヴィラ大山崎",
    "lat": 34.9039173,
    "lng": 135.6854314,
    "tel": "075-958-3855",
    "url": "http://www.rakuwa.or.jp",
    "pref": "京都府",
    "city": "大山崎町",
    "category": "tokuyou",
    "serviceType": "介護老人福祉施設",
    "capacity": 60,
    "openDays": [],
    "openDaysNote": ""
  },
  {
    "id": "2673000051",
    "name": "特別養護老人ホーム　旭が丘ホーム",
    "kana": "トクベツヨウゴロウジンホーム　アサヒガオカホーム",
    "address": "京都府長岡京市井ノ内朝日寺23番",
    "lat": 34.9398337850471,
    "lng": 135.681531610451,
    "tel": "075-955-9000",
    "url": "https://www.oz-well.jp",
    "pref": "京都府",
    "city": "長岡京市",
    "category": "tokuyou",
    "serviceType": "介護老人福祉施設",
    "capacity": 92,
    "openDays": [],
    "openDaysNote": ""
  },
  {
    "id": "2673000606",
    "name": "特別養護老人ホーム　旭が丘ホーム紅葉葵",
    "kana": "トクベツヨウゴロウジンホーム　アサヒガオカホームモミジアオイ",
    "address": "京都府長岡京市長岡1丁目44番2号",
    "lat": 34.9324938212078,
    "lng": 135.693625069772,
    "tel": "075-952-0111",
    "url": "https://www.oz-well.jp/",
    "pref": "京都府",
    "city": "長岡京市",
    "category": "tokuyou",
    "serviceType": "介護老人福祉施設",
    "capacity": 30,
    "openDays": [],
    "openDaysNote": ""
  },
  {
    "id": "2673000333",
    "name": "特別養護老人ホーム　第二天神の杜",
    "kana": "トクベツヨウゴロウジンホーム　ダイニテンジンノモリ",
    "address": "長岡京市奥海印寺竹ノ下１９番地",
    "lat": 34.9239151,
    "lng": 135.6715931,
    "tel": "075-959-1220",
    "url": "http://www.tenjin-no-mori.or.jp",
    "pref": "京都府",
    "city": "長岡京市",
    "category": "tokuyou",
    "serviceType": "介護老人福祉施設",
    "capacity": 0,
    "openDays": [],
    "openDaysNote": ""
  },
  {
    "id": "2673000168",
    "name": "特別養護老人ホーム　天神の杜",
    "kana": "トクベツヨウゴロウジンホーム　テンジンノモリ",
    "address": "京都府長岡京市天神二丁目3番10号",
    "lat": 34.9254431,
    "lng": 135.6867695,
    "tel": "075-959-1230",
    "url": "http://www.tenjin-no-mori.or.jp",
    "pref": "京都府",
    "city": "長岡京市",
    "category": "tokuyou",
    "serviceType": "介護老人福祉施設",
    "capacity": 0,
    "openDays": [],
    "openDaysNote": ""
  },
  {
    "id": "2673000044",
    "name": "特別養護老人ホーム竹の里ホーム",
    "kana": "トクベツヨウゴロウジンホームタケノサトホーム",
    "address": "京都府長岡京市奥海印寺走田1-1",
    "lat": 34.9273621,
    "lng": 135.6756538,
    "tel": "075-951-2230",
    "url": "http://www.takenosato-home.com",
    "pref": "京都府",
    "city": "長岡京市",
    "category": "tokuyou",
    "serviceType": "介護老人福祉施設",
    "capacity": 0,
    "openDays": [],
    "openDaysNote": ""
  },
  {
    "id": "2671500250",
    "name": "特別養護老人ホーム　ヴィラ多国山",
    "kana": "トクベツヨウゴロウジンホーム　ウ゛ィラタコクヤマ",
    "address": "京都府南丹市八木町西田早田３番地",
    "lat": 35.0798971,
    "lng": 135.5387735,
    "tel": "0771-43-0228",
    "url": "https://www.shimizu-hospital.or.jp/kaigo/care/iris/",
    "pref": "京都府",
    "city": "南丹市",
    "category": "tokuyou",
    "serviceType": "介護老人福祉施設",
    "capacity": 125,
    "openDays": [],
    "openDaysNote": ""
  },
  {
    "id": "2671500078",
    "name": "特別養護老人ホーム　はぎの里",
    "kana": "トクベツヨウゴロウジンホーム　ハギノサト",
    "address": "京都府南丹市日吉町胡麻萩原15番地",
    "lat": 35.1840992,
    "lng": 135.4860661,
    "tel": "0771-72-1500",
    "url": "http://www.cans.zaq.ne.jp/haginosato",
    "pref": "京都府",
    "city": "南丹市",
    "category": "tokuyou",
    "serviceType": "介護老人福祉施設",
    "capacity": 50,
    "openDays": [],
    "openDaysNote": ""
  },
  {
    "id": "2671500102",
    "name": "特別養護老人ホーム　長生園",
    "kana": "トクベツヨウゴロウジンホーム　チョウセイエン",
    "address": "京都府南丹市園部町上木崎町坪ノ内19番地",
    "lat": 35.1156483,
    "lng": 135.4723617,
    "tel": "0771-62-0223",
    "url": "http://www.choseien.com",
    "pref": "京都府",
    "city": "南丹市",
    "category": "tokuyou",
    "serviceType": "介護老人福祉施設",
    "capacity": null,
    "openDays": [],
    "openDaysNote": ""
  },
  {
    "id": "2671700017",
    "name": "特別養護老人ホーム　美山やすらぎホーム",
    "kana": "トクベツヨウゴロウジンホーム　ミヤマヤスラギホーム",
    "address": "京都府南丹市美山町島小栗栖山13番地1",
    "lat": 35.2620929,
    "lng": 135.553292,
    "tel": "0771-75-0847",
    "url": "http://www.hokusoukai.com/",
    "pref": "京都府",
    "city": "南丹市",
    "category": "tokuyou",
    "serviceType": "介護老人福祉施設",
    "capacity": 50,
    "openDays": [],
    "openDaysNote": ""
  },
  {
    "id": "2672900020",
    "name": "特別養護老人ホーム　京都八勝館",
    "kana": "トクベツヨウゴロウジンホーム　キョウトハッショウカン",
    "address": "京都府八幡市橋本塩釜21番地",
    "lat": 34.8758594,
    "lng": 135.6854315,
    "tel": "075-982-3887",
    "url": "http://www.hassyoukan.jp/",
    "pref": "京都府",
    "city": "八幡市",
    "category": "tokuyou",
    "serviceType": "介護老人福祉施設",
    "capacity": 0,
    "openDays": [],
    "openDaysNote": ""
  },
  {
    "id": "2672900327",
    "name": "特別養護老人ホーム　有智の郷",
    "kana": "トクベツヨウゴロウジンホーム　ウチノサト",
    "address": "京都府八幡市内里北ノ口5-1",
    "lat": 34.8637933,
    "lng": 135.7282223,
    "tel": "075-972-1000",
    "url": "http://ws-kyoto.jp",
    "pref": "京都府",
    "city": "八幡市",
    "category": "tokuyou",
    "serviceType": "介護老人福祉施設",
    "capacity": 0,
    "openDays": [],
    "openDaysNote": ""
  },
  {
    "id": "2672700362",
    "name": "グレイスヴィルまいづる",
    "kana": "グレイスウ゛ィル　マイヅル",
    "address": "京都府舞鶴市字布敷小字中島52-1",
    "lat": 35.4747971,
    "lng": 135.3859918,
    "tel": "0773-75-7121",
    "url": "https://gracemura.org/",
    "pref": "京都府",
    "city": "舞鶴市",
    "category": "tokuyou",
    "serviceType": "介護老人福祉施設",
    "capacity": 0,
    "openDays": [],
    "openDaysNote": ""
  },
  {
    "id": "2672700016",
    "name": "特別養護老人ホーム　やすらぎ苑",
    "kana": "トクベツヨウゴロウジンホーム　ヤスラギエン",
    "address": "京都府舞鶴市北浜町3番地-10",
    "lat": 35.4695649968166,
    "lng": 135.397634655463,
    "tel": "0773-64-6060",
    "url": "http://daijukai.jp/",
    "pref": "京都府",
    "city": "舞鶴市",
    "category": "tokuyou",
    "serviceType": "介護老人福祉施設",
    "capacity": 80,
    "openDays": [],
    "openDaysNote": ""
  },
  {
    "id": "2672700040",
    "name": "特別養護老人ホーム　真愛の家寿荘",
    "kana": "トクベツヨウゴロウジンホーム　シンアイノイエコトブキソウ",
    "address": "京都府舞鶴市字上安小字中ノ脇1697番地36",
    "lat": 35.4747971,
    "lng": 135.3859918,
    "tel": "0773-75-1333",
    "url": "http://www.sinainoie.org",
    "pref": "京都府",
    "city": "舞鶴市",
    "category": "tokuyou",
    "serviceType": "介護老人福祉施設",
    "capacity": 110,
    "openDays": [],
    "openDaysNote": ""
  },
  {
    "id": "2672700164",
    "name": "特別養護老人ホームグリーンプラザ博愛苑",
    "kana": "トクベツヨウゴロウジンホームグリーンプラザハクアイエン",
    "address": "京都府舞鶴市字市場390番地",
    "lat": 35.4752888,
    "lng": 135.416739,
    "tel": "0773-65-3700",
    "url": "http://www.hakuaien.jp",
    "pref": "京都府",
    "city": "舞鶴市",
    "category": "tokuyou",
    "serviceType": "介護老人福祉施設",
    "capacity": null,
    "openDays": [],
    "openDaysNote": ""
  },
  {
    "id": "2672700032",
    "name": "特別養護老人ホーム安寿苑",
    "kana": "トクベツヨウゴロウジンホームアンジュエン",
    "address": "上安481番地",
    "lat": 35.455596,
    "lng": 135.3446515,
    "tel": "0773-75-8981",
    "url": "https://maizuru-anjukai.net/",
    "pref": "京都府",
    "city": "舞鶴市",
    "category": "tokuyou",
    "serviceType": "介護老人福祉施設",
    "capacity": 0,
    "openDays": [],
    "openDaysNote": ""
  },
  {
    "id": "2671900054",
    "name": "グリーンビラ夜久野",
    "kana": "グリーンビラヤクノ",
    "address": "京都府福知山市夜久野町平野1030番地",
    "lat": 35.344289,
    "lng": 134.9356593,
    "tel": "0773-38-1031",
    "url": "http://www.greenvilla.kyoto.jp/",
    "pref": "京都府",
    "city": "福知山市",
    "category": "tokuyou",
    "serviceType": "介護老人福祉施設",
    "capacity": null,
    "openDays": [],
    "openDaysNote": ""
  },
  {
    "id": "2672600075",
    "name": "サンヒルズ紫豊館",
    "kana": "サンヒルズ　シホウカン",
    "address": "京都府福知山市字榎原小字平180番地の2",
    "lat": 35.2873570283089,
    "lng": 135.062675381321,
    "tel": "0773-34-0557",
    "url": "https://swc-seikouen.jp/shihoukan/",
    "pref": "京都府",
    "city": "福知山市",
    "category": "tokuyou",
    "serviceType": "介護老人福祉施設",
    "capacity": 0,
    "openDays": [],
    "openDaysNote": ""
  },
  {
    "id": "2672600083",
    "name": "岩戸ホーム",
    "kana": "イワトホーム",
    "address": "京都府福知山市字猪野々31-1",
    "lat": 35.3280343,
    "lng": 135.0430479,
    "tel": "0773-33-3155",
    "url": "https://swc-seikouen.jp/iwato/",
    "pref": "京都府",
    "city": "福知山市",
    "category": "tokuyou",
    "serviceType": "介護老人福祉施設",
    "capacity": 90,
    "openDays": [],
    "openDaysNote": ""
  },
  {
    "id": "2672600117",
    "name": "特別養護老人ホーム　にれの木園",
    "kana": "トクベツヨウゴロウジンホーム　ニレノキエン",
    "address": "福知山市字天田小字大塚14番地の2",
    "lat": 35.283398,
    "lng": 135.122643,
    "tel": "0773-24-1015",
    "url": "http://www.skymind.jp",
    "pref": "京都府",
    "city": "福知山市",
    "category": "tokuyou",
    "serviceType": "介護老人福祉施設",
    "capacity": 0,
    "openDays": [],
    "openDaysNote": ""
  },
  {
    "id": "2671900252",
    "name": "特別養護老人ホーム　みわの里",
    "kana": "トクベツヨウゴロウジンホーム　ミワノサト",
    "address": "福知山市三和町友渕小字大原野79番地132",
    "lat": 35.1835753809139,
    "lng": 135.270596068587,
    "tel": "0773-59-2525",
    "url": "",
    "pref": "京都府",
    "city": "福知山市",
    "category": "tokuyou",
    "serviceType": "介護老人福祉施設",
    "capacity": 0,
    "openDays": [],
    "openDaysNote": ""
  },
  {
    "id": "2672600109",
    "name": "特別養護老人ホーム　三愛荘",
    "kana": "トクベツヨウゴロウジンホーム　サンアイソウ",
    "address": "京都府福知山市字猪崎25-1",
    "lat": 35.3077803278363,
    "lng": 135.142572030688,
    "tel": "0773-23-1436",
    "url": "http://www.mitsumi.or.jp/",
    "pref": "京都府",
    "city": "福知山市",
    "category": "tokuyou",
    "serviceType": "介護老人福祉施設",
    "capacity": 0,
    "openDays": [],
    "openDaysNote": ""
  },
  {
    "id": "2672500176",
    "name": "特別養護老人ホーム五十鈴荘",
    "kana": "トクベツヨウゴロウジンホームイスズソウ",
    "address": "京都府福知山市大江町二俣1607番地",
    "lat": 35.4184222,
    "lng": 135.1583768,
    "tel": "0773-56-1981",
    "url": "http://www.isuzukai.org",
    "pref": "京都府",
    "city": "福知山市",
    "category": "tokuyou",
    "serviceType": "介護老人福祉施設",
    "capacity": 80,
    "openDays": [],
    "openDaysNote": ""
  },
  {
    "id": "2672600448",
    "name": "特別養護老人ホーム豊の郷",
    "kana": "トクベツヨウゴロウジンホームトヨノサト",
    "address": "京都府福知山市字大門900番地",
    "lat": 35.3040235,
    "lng": 135.0780065,
    "tel": "0773-23-4072",
    "url": "http://kibounooka.or.jp/",
    "pref": "京都府",
    "city": "福知山市",
    "category": "tokuyou",
    "serviceType": "介護老人福祉施設",
    "capacity": 0,
    "openDays": [],
    "openDaysNote": ""
  },
  {
    "id": "2672600422",
    "name": "特別養護老人ホーム六人部晴風",
    "kana": "トクベツヨウゴロウジンホームムトベハルカゼ",
    "address": "京都府福知山市字大内3173-1",
    "lat": 35.2534374,
    "lng": 135.1746937,
    "tel": "0773-20-2750",
    "url": "http://www.skymind.jp",
    "pref": "京都府",
    "city": "福知山市",
    "category": "tokuyou",
    "serviceType": "介護老人福祉施設",
    "capacity": null,
    "openDays": [],
    "openDaysNote": ""
  },
  {
    "id": "2671400063",
    "name": "社会福祉法人　三福福祉会　特別養護老人ホームきはだの郷",
    "kana": "トクベツヨウゴロウジンホームキハダノサト",
    "address": "京都府木津川市梅美台一丁目2-2",
    "lat": 34.7640654,
    "lng": 135.8868497,
    "tel": "0774-66-2112",
    "url": "https://www.kihada-kaigo.com/",
    "pref": "京都府",
    "city": "木津川市",
    "category": "tokuyou",
    "serviceType": "介護老人福祉施設",
    "capacity": 100,
    "openDays": [],
    "openDaysNote": ""
  },
  {
    "id": "2673500035",
    "name": "特別養護老人ホーム　ゆりのき",
    "kana": "トクベツヨウゴロウジンホーム　ユリノキ",
    "address": "京都府木津川市木津川台1丁目19番1",
    "lat": 34.7469796,
    "lng": 135.7926272,
    "tel": "0774-75-1132",
    "url": "http://www.iseikai.jp/yurinoki/index.html",
    "pref": "京都府",
    "city": "木津川市",
    "category": "tokuyou",
    "serviceType": "介護老人福祉施設",
    "capacity": 50,
    "openDays": [],
    "openDaysNote": ""
  },
  {
    "id": "2671400048",
    "name": "特別養護老人ホーム　加茂の里",
    "kana": "トクベツヨウゴロウジンホーム　カモノサト",
    "address": "京都府木津川市加茂町駅東四丁目1番地3",
    "lat": 34.7543971,
    "lng": 135.871787,
    "tel": "0774-76-7607",
    "url": "http://www.takedahp.or.jp/",
    "pref": "京都府",
    "city": "木津川市",
    "category": "tokuyou",
    "serviceType": "介護老人福祉施設",
    "capacity": 0,
    "openDays": [],
    "openDaysNote": ""
  },
  {
    "id": "2673500316",
    "name": "特別養護老人ホーム山城ぬくもりの里",
    "kana": "トクベツヨウゴロウジンホームヤマシロヌクモリノサト",
    "address": "京都府木津川市山城町上狛天竺堂1番地1",
    "lat": 34.7543484,
    "lng": 135.8235744,
    "tel": "0774-86-5460",
    "url": "http://www.s-rakuji.com",
    "pref": "京都府",
    "city": "木津川市",
    "category": "tokuyou",
    "serviceType": "介護老人福祉施設",
    "capacity": null,
    "openDays": [],
    "openDaysNote": ""
  },
  {
    "id": "2671400022",
    "name": "特別養護老人ホーム木津芳梅園",
    "kana": "トクベツヨウゴロウジンホームキヅホウバイエン",
    "address": "京都府木津川市鹿背山東大池4-1",
    "lat": 34.7289081,
    "lng": 135.8420789,
    "tel": "0774-72-8246",
    "url": "http://www.houbaikai.com/",
    "pref": "京都府",
    "city": "木津川市",
    "category": "tokuyou",
    "serviceType": "介護老人福祉施設",
    "capacity": 50,
    "openDays": [],
    "openDaysNote": ""
  },
  {
    "id": "2672000094",
    "name": "特別養護老人ホーム　与謝の園",
    "kana": "トクベツヨウゴロウジンホームヨザノエン",
    "address": "京都府与謝郡与謝野町字明石2120番地",
    "lat": 35.507997971945,
    "lng": 135.106729827545,
    "tel": "0772-42-0051",
    "url": "http://www.hokuseikai.or.jp/yozanoen/",
    "pref": "京都府",
    "city": "与謝野町",
    "category": "tokuyou",
    "serviceType": "介護老人福祉施設",
    "capacity": null,
    "openDays": [],
    "openDaysNote": ""
  },
  {
    "id": "2672000284",
    "name": "特別養護老人ホームやすら苑",
    "kana": "トクベツヨウゴロウジンホームヤスラエン",
    "address": "京都府与謝郡与謝野町字加悦802番地7",
    "lat": 35.5057300788291,
    "lng": 135.089681132541,
    "tel": "0772-43-2500",
    "url": "https://yosagun-fukushikai.net/",
    "pref": "京都府",
    "city": "与謝野町",
    "category": "tokuyou",
    "serviceType": "介護老人福祉施設",
    "capacity": 0,
    "openDays": [],
    "openDaysNote": ""
  },
  {
    "id": "2672000045",
    "name": "特別養護老人ホーム岩滝あじさい苑",
    "kana": "トクベツヨウゴロウジンホームイワタキアジサイエン",
    "address": "京都府与謝郡与謝野町弓木１３番地の６",
    "lat": 35.5654285,
    "lng": 135.1448919,
    "tel": "0772-46-5761",
    "url": "https://yosagun-fukushikai.net/",
    "pref": "京都府",
    "city": "与謝野町",
    "category": "tokuyou",
    "serviceType": "介護老人福祉施設",
    "capacity": 50,
    "openDays": [],
    "openDaysNote": ""
  },
  {
    "id": "2672000029",
    "name": "特別養護老人ホーム虹ヶ丘",
    "kana": "トクベツヨウゴロウジンホームニジガオカ",
    "address": "京都府与謝郡与謝野町字岩屋小字庄内600番地３",
    "lat": 35.5243956613716,
    "lng": 135.074678179459,
    "tel": "0772-43-2011",
    "url": "http://yofuku.or.jp/nijigaoka/",
    "pref": "京都府",
    "city": "与謝野町",
    "category": "tokuyou",
    "serviceType": "介護老人福祉施設",
    "capacity": 0,
    "openDays": [],
    "openDaysNote": ""
  },
  {
    "id": "2671400352",
    "name": "特別養護老人ホーム　わらく",
    "kana": "トクベツヨウゴロウジンホーム　ワラク",
    "address": "京都府相楽郡和束町大字釜塚小字縄手25番地",
    "lat": 34.7946033788982,
    "lng": 135.90598819259,
    "tel": "0774-78-0165",
    "url": "http://www.waraku.or.jp",
    "pref": "京都府",
    "city": "和束町",
    "category": "tokuyou",
    "serviceType": "介護老人福祉施設",
    "capacity": 50,
    "openDays": [],
    "openDaysNote": ""
  }
]