[
  {
    "id": "4171200191",
    "name": "特別養護老人ホーム　　なかばる紀水苑",
    "kana": "トクベツヨウゴロウジンホーム　ナカバルキスイエン",
    "address": "佐賀県三養基郡みやき町大字簑原４２６０番地特別養護老人ホーム　なかばる紀水苑 特別養護老人ホーム　なかばる紀水苑",
    "lat": 33.3638395620072,
    "lng": 130.450637535551,
    "tel": "0942-94-9211",
    "url": "http://kisuikai.net/",
    "pref": "佐賀県",
    "city": "みやき町",
    "category": "tokuyou",
    "serviceType": "介護老人福祉施設",
    "capacity": 53,
    "openDays": [],
    "openDaysNote": ""
  },
  {
    "id": "4171200209",
    "name": "特別養護老人ホーム　花のみね",
    "kana": "トクベツヨウゴロウジンホウム　ハナノミネ",
    "address": "佐賀県三養基郡みやき町大字西島２７３０番地１",
    "lat": 33.3044642,
    "lng": 130.4509966,
    "tel": "0942-96-3377",
    "url": "https：//peraichi.com/landing_pages/view/mirai‐hananomine1",
    "pref": "佐賀県",
    "city": "みやき町",
    "category": "tokuyou",
    "serviceType": "介護老人福祉施設",
    "capacity": 50,
    "openDays": [],
    "openDaysNote": ""
  },
  {
    "id": "4171200365",
    "name": "特別養護老人ホーム　花のみね弐番館",
    "kana": "トクベツヨウゴロウジンホーム　ハナノミネニバンカン",
    "address": "佐賀県三養基郡みやき町大字中津隈5919番地",
    "lat": 33.3238240231954,
    "lng": 130.446215922537,
    "tel": "0942-89-1855",
    "url": "http://www.fuku-mirai.com",
    "pref": "佐賀県",
    "city": "みやき町",
    "category": "tokuyou",
    "serviceType": "介護老人福祉施設",
    "capacity": 53,
    "openDays": [],
    "openDaysNote": ""
  },
  {
    "id": "4170500013",
    "name": "長生園",
    "kana": "チョウセイエン",
    "address": "佐賀県伊万里市立花町２７０３番地２",
    "lat": 33.264877,
    "lng": 129.8902522,
    "tel": "0955-22-3115",
    "url": "http://chousei-imari.jp",
    "pref": "佐賀県",
    "city": "伊万里市",
    "category": "tokuyou",
    "serviceType": "介護老人福祉施設",
    "capacity": 0,
    "openDays": [],
    "openDaysNote": ""
  },
  {
    "id": "4170500286",
    "name": "特別養護老人ホーム　グランパランいまり",
    "kana": "トクベツヨウゴロウジンホーム　グランパランイマリ",
    "address": "佐賀県伊万里市大坪町乙1579番地2",
    "lat": 33.2745712,
    "lng": 129.8963092,
    "tel": "0955-23-5261",
    "url": "http://kashinkai.or.jp",
    "pref": "佐賀県",
    "city": "伊万里市",
    "category": "tokuyou",
    "serviceType": "介護老人福祉施設",
    "capacity": 50,
    "openDays": [],
    "openDaysNote": ""
  },
  {
    "id": "4170500039",
    "name": "特別養護老人ホーム　敬愛園",
    "kana": "トクベツヨウゴロウジンホーム　ケイアイエン",
    "address": "佐賀県伊万里市黒川町大黒川2201番地",
    "lat": 33.3331811713234,
    "lng": 129.870135655325,
    "tel": "0955-27-2101",
    "url": "http://imari-keiaikai.com",
    "pref": "佐賀県",
    "city": "伊万里市",
    "category": "tokuyou",
    "serviceType": "介護老人福祉施設",
    "capacity": 0,
    "openDays": [],
    "openDaysNote": ""
  },
  {
    "id": "4171700018",
    "name": "特別養護老人ホーム　済昭園",
    "kana": "トクベツヨウゴロウジンホーム　サイショウエン",
    "address": "佐賀県嬉野市塩田町大字五町田甲3432番地3",
    "lat": 33.1253621,
    "lng": 130.0624031,
    "tel": "0954-66-4301",
    "url": "http://www.saisyouen.jp",
    "pref": "佐賀県",
    "city": "嬉野市",
    "category": "tokuyou",
    "serviceType": "介護老人福祉施設",
    "capacity": 0,
    "openDays": [],
    "openDaysNote": ""
  },
  {
    "id": "4171700059",
    "name": "特別養護老人ホームうれしの",
    "kana": "トクベツヨウゴロウジンホームウレシノ",
    "address": "佐賀県嬉野市嬉野町大字下宿甲2088番地",
    "lat": 33.111745,
    "lng": 129.9924025,
    "tel": "0954-43-2511",
    "url": "http://tokuyou-ureshino.jp/",
    "pref": "佐賀県",
    "city": "嬉野市",
    "category": "tokuyou",
    "serviceType": "介護老人福祉施設",
    "capacity": 0,
    "openDays": [],
    "openDaysNote": ""
  },
  {
    "id": "4171700117",
    "name": "特別養護老人ホーム済昭園・清涼館",
    "kana": "トクベツヨウゴロウジンホームサイショウエン・セイリョウカン",
    "address": "佐賀県嬉野市塩田町大字五町田甲７７番地",
    "lat": 33.1253621,
    "lng": 130.0624031,
    "tel": "0954-66-9023",
    "url": "http://www.saisyouen.jp",
    "pref": "佐賀県",
    "city": "嬉野市",
    "category": "tokuyou",
    "serviceType": "介護老人福祉施設",
    "capacity": 0,
    "openDays": [],
    "openDaysNote": ""
  },
  {
    "id": "4171100201",
    "name": "特別養護老人ホーム　シルバーケア吉野ヶ里",
    "kana": "トクベツヨウゴロウジンホーム　シルバーケア　ヨシノガリ",
    "address": "佐賀県神埼郡吉野ヶ里町大字吉田1493番地1",
    "lat": 33.3317081,
    "lng": 130.3962164,
    "tel": "0952-55-6221",
    "url": "https://www.silvercare-yoshinogari.com/",
    "pref": "佐賀県",
    "city": "吉野ヶ里町",
    "category": "tokuyou",
    "serviceType": "介護老人福祉施設",
    "capacity": 0,
    "openDays": [],
    "openDaysNote": ""
  },
  {
    "id": "4171400098",
    "name": "特別養護老人ホーム　玄海園",
    "kana": "トクベツヨウゴロウジンホーム　ゲンカイエン",
    "address": "佐賀県東松浦郡玄海町大字平尾432-8",
    "lat": 33.4937474,
    "lng": 129.8499075,
    "tel": "0955-51-3600",
    "url": "http://www.tenjyukai.com",
    "pref": "佐賀県",
    "city": "玄海町",
    "category": "tokuyou",
    "serviceType": "介護老人福祉施設",
    "capacity": 92,
    "openDays": [],
    "openDaysNote": ""
  },
  {
    "id": "4171600036",
    "name": "特別養護老人ホーム　るんびに園",
    "kana": "トクベツヨウゴロウジンホームルンビニエン",
    "address": "佐賀県杵島郡江北町惣領分４１５３",
    "lat": 33.2276056,
    "lng": 130.1766404,
    "tel": "0952-86-5500",
    "url": "http://www.jisankai.jp",
    "pref": "佐賀県",
    "city": "江北町",
    "category": "tokuyou",
    "serviceType": "介護老人福祉施設",
    "capacity": 0,
    "openDays": [],
    "openDaysNote": ""
  },
  {
    "id": "4171100045",
    "name": "介護老人福祉施設　シルバーケア三瀬",
    "kana": "カイゴロウジンフクシシセツ　シルバーケアミツセ",
    "address": "佐賀県佐賀市三瀬村三瀬38番地1",
    "lat": 33.4378293,
    "lng": 130.2707906,
    "tel": "0952-56-2947",
    "url": "http://www.saganet.ne.jp/KEIAIKAI/",
    "pref": "佐賀県",
    "city": "佐賀市",
    "category": "tokuyou",
    "serviceType": "介護老人福祉施設",
    "capacity": 50,
    "openDays": [],
    "openDaysNote": ""
  },
  {
    "id": "4170100020",
    "name": "介護老人福祉施設　桂寿苑",
    "kana": "カイゴロウジンフクシシセツ　ケイジュエン",
    "address": "久保泉町大字川久保１９８６番地1",
    "lat": 33.3222775116378,
    "lng": 130.318565066795,
    "tel": "0952-98-3521",
    "url": "http://www.ryoyuukai.jp",
    "pref": "佐賀県",
    "city": "佐賀市",
    "category": "tokuyou",
    "serviceType": "介護老人福祉施設",
    "capacity": 50,
    "openDays": [],
    "openDaysNote": ""
  },
  {
    "id": "4171000047",
    "name": "介護老人福祉施設なごみ荘",
    "kana": "カイゴロウジンフクシシセツナゴミソウ",
    "address": "佐賀市富士町大字小副川５６２",
    "lat": 33.3652717773552,
    "lng": 130.244162946033,
    "tel": "0952-64-2314",
    "url": "https://www.kenjyu-nagomi.jp",
    "pref": "佐賀県",
    "city": "佐賀市",
    "category": "tokuyou",
    "serviceType": "介護老人福祉施設",
    "capacity": 0,
    "openDays": [],
    "openDaysNote": ""
  },
  {
    "id": "4170100111",
    "name": "扇寿荘指定介護老人福祉施設",
    "kana": "センジュソウシテイカイゴロウジンフクシシセツ",
    "address": "佐賀県佐賀市嘉瀬町大字中原2585番地",
    "lat": 33.2395133,
    "lng": 130.2537957,
    "tel": "0952-28-6166",
    "url": "",
    "pref": "佐賀県",
    "city": "佐賀市",
    "category": "tokuyou",
    "serviceType": "介護老人福祉施設",
    "capacity": 0,
    "openDays": [],
    "openDaysNote": ""
  },
  {
    "id": "4170100012",
    "name": "特別養護老人ホーム　ケアポート晴寿",
    "kana": "トクベツヨウゴロウジンホーム　ケアポートセイジュ",
    "address": "佐賀県佐賀市高木瀬町東高木1170",
    "lat": 33.2874809013215,
    "lng": 130.299046344319,
    "tel": "0952-30-1165",
    "url": "http://www.seijyukai.com/",
    "pref": "佐賀県",
    "city": "佐賀市",
    "category": "tokuyou",
    "serviceType": "介護老人福祉施設",
    "capacity": 0,
    "openDays": [],
    "openDaysNote": ""
  },
  {
    "id": "4170100103",
    "name": "特別養護老人ホーム　つぼみ荘",
    "kana": "トクベツヨウゴロウジンホーム　ツボミソウ",
    "address": "佐賀市北川副町光法1480-2",
    "lat": 33.2321383,
    "lng": 130.3312584,
    "tel": "0952-25-2803",
    "url": "http://www.tsubomi-sou.jp",
    "pref": "佐賀県",
    "city": "佐賀市",
    "category": "tokuyou",
    "serviceType": "介護老人福祉施設",
    "capacity": 0,
    "openDays": [],
    "openDaysNote": ""
  },
  {
    "id": "4171000013",
    "name": "特別養護老人ホーム　ロザリオの園",
    "kana": "トクベツヨウゴロウジンホーム　ロザリオノソノ",
    "address": "佐賀県佐賀市大和町大字久池井1386-2",
    "lat": 33.3257233,
    "lng": 130.2881707,
    "tel": "0952-62-0303",
    "url": "http://www.rosaryo.jp/",
    "pref": "佐賀県",
    "city": "佐賀市",
    "category": "tokuyou",
    "serviceType": "介護老人福祉施設",
    "capacity": 74,
    "openDays": [],
    "openDaysNote": ""
  },
  {
    "id": "4170103156",
    "name": "特別養護老人ホーム　ロザリオの園　ユニット",
    "kana": "トクベツヨウゴロウジンホーム　ロザリオノソノ　ユニット",
    "address": "佐賀県佐賀市大和町大字久池井1386番地2",
    "lat": 33.325765,
    "lng": 130.2884194,
    "tel": "0952-62-0303",
    "url": "rosaryo@vip.saganet.ne.jp",
    "pref": "佐賀県",
    "city": "佐賀市",
    "category": "tokuyou",
    "serviceType": "介護老人福祉施設",
    "capacity": 0,
    "openDays": [],
    "openDaysNote": ""
  },
  {
    "id": "4170101044",
    "name": "特別養護老人ホーム　春庵",
    "kana": "トクベツヨウゴロウジンホーム　シュンアン",
    "address": "佐賀県佐賀市鍋島町蛎久１３１３番地",
    "lat": 33.2879155,
    "lng": 130.2805779,
    "tel": "0952-31-0711",
    "url": "http://www.2006shunan.sakura.ne.jp",
    "pref": "佐賀県",
    "city": "佐賀市",
    "category": "tokuyou",
    "serviceType": "介護老人福祉施設",
    "capacity": 0,
    "openDays": [],
    "openDaysNote": ""
  },
  {
    "id": "4171000039",
    "name": "特別養護老人ホーム　南鴎荘",
    "kana": "トクベツヨウゴロウジンホーム　ナンオウソウ",
    "address": "佐賀市久保田町大字久富３４５９番地２",
    "lat": 33.2195266,
    "lng": 130.2382026,
    "tel": "0952-68-2136",
    "url": "https://www.nanousou.com",
    "pref": "佐賀県",
    "city": "佐賀市",
    "category": "tokuyou",
    "serviceType": "介護老人福祉施設",
    "capacity": 0,
    "openDays": [],
    "openDaysNote": ""
  },
  {
    "id": "4171000096",
    "name": "特別養護老人ホーム　福壽園",
    "kana": "トクベツヨウゴロウジンホーム　フクジュエン",
    "address": "佐賀県佐賀市諸富町大字諸富津２０９番地３",
    "lat": 33.2197317,
    "lng": 130.3609971,
    "tel": "0952-47-5091",
    "url": "https://fukujukaisaga.com/",
    "pref": "佐賀県",
    "city": "佐賀市",
    "category": "tokuyou",
    "serviceType": "介護老人福祉施設",
    "capacity": 0,
    "openDays": [],
    "openDaysNote": ""
  },
  {
    "id": "4171000054",
    "name": "特別養護老人ホームけやき荘",
    "kana": "トクベツヨウゴロウジンホームケヤキソウ",
    "address": "佐賀県佐賀市川副町大字福富866－1",
    "lat": 33.2134622,
    "lng": 130.3212816,
    "tel": "0952-45-5193",
    "url": "http://www.keyakisou.or.jp/",
    "pref": "佐賀県",
    "city": "佐賀市",
    "category": "tokuyou",
    "serviceType": "介護老人福祉施設",
    "capacity": 50,
    "openDays": [],
    "openDaysNote": ""
  },
  {
    "id": "4161090032",
    "name": "特別養護老人ホームシオンの園",
    "kana": "トクベツヨウゴロウジンホームシオンノソノ",
    "address": "佐賀市大和町大字久留間3865-1",
    "lat": 33.3123104,
    "lng": 130.2433294,
    "tel": "0952-62-5566",
    "url": "http://www.sion.or.jp",
    "pref": "佐賀県",
    "city": "佐賀市",
    "category": "tokuyou",
    "serviceType": "介護老人福祉施設",
    "capacity": 0,
    "openDays": [],
    "openDaysNote": ""
  },
  {
    "id": "4170700027",
    "name": "特別養護老人ホーム　好日の園",
    "kana": "トクベツヨウゴロウジンホーム　コウジツノソノ",
    "address": "佐賀県鹿島市古枝乙1035番地2",
    "lat": 33.0743023012264,
    "lng": 130.112687398178,
    "tel": "0954-62-5437",
    "url": "https://www.koujitu.or.jp/",
    "pref": "佐賀県",
    "city": "鹿島市",
    "category": "tokuyou",
    "serviceType": "介護老人福祉施設",
    "capacity": 0,
    "openDays": [],
    "openDaysNote": ""
  },
  {
    "id": "4171300108",
    "name": "特別養護老人ホーム　あしはらの園",
    "kana": "トクベツヨウゴロウジンホーム　アシハラノソノ",
    "address": "佐賀県小城市芦刈町三王崎1523番地",
    "lat": 33.2247811,
    "lng": 130.2071603,
    "tel": "0952-51-5033",
    "url": "https://rikushinfukushikai.com/",
    "pref": "佐賀県",
    "city": "小城市",
    "category": "tokuyou",
    "serviceType": "介護老人福祉施設",
    "capacity": 0,
    "openDays": [],
    "openDaysNote": ""
  },
  {
    "id": "4171300025",
    "name": "特別養護老人ホーム　鳳寿苑",
    "kana": "トクベツヨウゴロウジンホーム　ホウジュエン",
    "address": "佐賀県小城市甲柳原６８番地１",
    "lat": 33.2726452,
    "lng": 130.2098894,
    "tel": "0952-72-8011",
    "url": "http://jikeikai.saga.jp/",
    "pref": "佐賀県",
    "city": "小城市",
    "category": "tokuyou",
    "serviceType": "介護老人福祉施設",
    "capacity": 58,
    "openDays": [],
    "openDaysNote": ""
  },
  {
    "id": "4171300017",
    "name": "特別養護老人ホーム清水園",
    "kana": "トクベツヨウゴロウジンホームキヨミズエン",
    "address": "佐賀県小城市小城町773番地",
    "lat": 33.30077,
    "lng": 130.2058155,
    "tel": "0952-72-3165",
    "url": "http://wwwkiyonet@star.saganet.ne.jp",
    "pref": "佐賀県",
    "city": "小城市",
    "category": "tokuyou",
    "serviceType": "介護老人福祉施設",
    "capacity": 0,
    "openDays": [],
    "openDaysNote": ""
  },
  {
    "id": "4171200696",
    "name": "特別養護老人ホームプルメリア",
    "kana": "トクベツヨウゴロウジンホームプルメリア",
    "address": "佐賀県三養基郡上峰町大字前牟田１８９６番地",
    "lat": 33.3134598,
    "lng": 130.4182258,
    "tel": "０９５２－５２－４６５５",
    "url": "https://www.gajumaru.or.jp/",
    "pref": "佐賀県",
    "city": "上峰町",
    "category": "tokuyou",
    "serviceType": "介護老人福祉施設",
    "capacity": 0,
    "openDays": [],
    "openDaysNote": ""
  },
  {
    "id": "4171100011",
    "name": "こすもす苑",
    "kana": "コスモスエン",
    "address": "佐賀県神埼市千代田町詫田９８３番地",
    "lat": 33.2673805,
    "lng": 130.378439,
    "tel": "0952-44-4411",
    "url": "https://cosmosen.com",
    "pref": "佐賀県",
    "city": "神埼市",
    "category": "tokuyou",
    "serviceType": "介護老人福祉施設",
    "capacity": 0,
    "openDays": [],
    "openDaysNote": ""
  },
  {
    "id": "4171100037",
    "name": "佐賀整肢学園　かんざき清流苑",
    "kana": "サガセイシガクエン　カンザキセイリュウエン",
    "address": "佐賀県神埼市神埼町鶴２９２７番地２",
    "lat": 33.3221697,
    "lng": 130.3700351,
    "tel": "0952-52-8890",
    "url": "http://k-seiryu.wixsite.com/mysite",
    "pref": "佐賀県",
    "city": "神埼市",
    "category": "tokuyou",
    "serviceType": "介護老人福祉施設",
    "capacity": 0,
    "openDays": [],
    "openDaysNote": ""
  },
  {
    "id": "4171100128",
    "name": "特別養護老人ホーム昌普久苑",
    "kana": "トクベツヨウゴロウジンホームショウフクエン",
    "address": "神埼市脊振町鹿路２２９０番地６",
    "lat": 33.3733116,
    "lng": 130.3179825,
    "tel": "0952-51-9111",
    "url": "https://m-fukushi.com/",
    "pref": "佐賀県",
    "city": "神埼市",
    "category": "tokuyou",
    "serviceType": "介護老人福祉施設",
    "capacity": 0,
    "openDays": [],
    "openDaysNote": ""
  },
  {
    "id": "4170400305",
    "name": "特別養護老人ホーム　天寿荘",
    "kana": "トクベツヨウゴロウジンホーム　テンジュソウ",
    "address": "佐賀県多久市北多久町大字小侍640番地１",
    "lat": 33.289809390559,
    "lng": 130.101107569064,
    "tel": "0952-74-3100",
    "url": "http://www.tenjyukai.com",
    "pref": "佐賀県",
    "city": "多久市",
    "category": "tokuyou",
    "serviceType": "介護老人福祉施設",
    "capacity": 0,
    "openDays": [],
    "openDaysNote": ""
  },
  {
    "id": "4171700026",
    "name": "特別養護老人ホーム　光風荘",
    "kana": "トクベツヨウゴロウジンホーム　コウフウソウ",
    "address": "佐賀県藤津郡太良町大字多良1849番地9",
    "lat": 33.0280462073546,
    "lng": 130.178823062566,
    "tel": "0954-67-2023",
    "url": "",
    "pref": "佐賀県",
    "city": "太良町",
    "category": "tokuyou",
    "serviceType": "介護老人福祉施設",
    "capacity": 0,
    "openDays": [],
    "openDaysNote": ""
  },
  {
    "id": "4171600010",
    "name": "特別養護老人ホーム　すみれ園",
    "kana": "トクベツヨウゴロウジンホーム　スミレエン",
    "address": "佐賀県杵島郡大町町大字福母3031-1",
    "lat": 33.2191249770341,
    "lng": 130.101158889549,
    "tel": "0952-82-3311",
    "url": "",
    "pref": "佐賀県",
    "city": "大町町",
    "category": "tokuyou",
    "serviceType": "介護老人福祉施設",
    "capacity": 60,
    "openDays": [],
    "openDaysNote": ""
  },
  {
    "id": "4170300034",
    "name": "介護老人福祉施設　真心の園",
    "kana": "カイゴロウジンフクシシセツ　マゴコロノソノ",
    "address": "佐賀県鳥栖市村田町1250番地1",
    "lat": 33.3647055871212,
    "lng": 130.478230211639,
    "tel": "0942-82-2301",
    "url": "http://www.magokoro.or.jp",
    "pref": "佐賀県",
    "city": "鳥栖市",
    "category": "tokuyou",
    "serviceType": "介護老人福祉施設",
    "capacity": 0,
    "openDays": [],
    "openDaysNote": ""
  },
  {
    "id": "4170300042",
    "name": "社会福祉法人健翔会　特別養護老人ホームひまわりの園",
    "kana": "シャカイフクシホウジンケンショウカイ　トクベツヨウゴロウジンホームヒマワリノソノ",
    "address": "佐賀県鳥栖市田代本町924-1",
    "lat": 33.3944258,
    "lng": 130.5181928,
    "tel": "0942-81-5125",
    "url": "http://www.kensyoukai.or.jp",
    "pref": "佐賀県",
    "city": "鳥栖市",
    "category": "tokuyou",
    "serviceType": "介護老人福祉施設",
    "capacity": 60,
    "openDays": [],
    "openDaysNote": ""
  },
  {
    "id": "4171200043",
    "name": "特別養護老人ホーム寿楽園",
    "kana": "トクベツヨウゴロウジンホームジュラクエン",
    "address": "佐賀県鳥栖市弥生が丘二丁目146番地1",
    "lat": 33.4047941,
    "lng": 130.5230074,
    "tel": "0942-50-8740",
    "url": "http://www.jurakuen.jp/",
    "pref": "佐賀県",
    "city": "鳥栖市",
    "category": "tokuyou",
    "serviceType": "介護老人福祉施設",
    "capacity": 95,
    "openDays": [],
    "openDaysNote": ""
  },
  {
    "id": "4170201315",
    "name": "介護老人福祉施設　浜玉荘",
    "kana": "カイゴロウジンフクシシセツ　ハマタマソウ",
    "address": "佐賀県唐津市浜玉町東山田2399番地",
    "lat": 33.4300291,
    "lng": 130.0456136,
    "tel": "0955-56-8711",
    "url": "http://k-fukushikai/h_about_riyou.html",
    "pref": "佐賀県",
    "city": "唐津市",
    "category": "tokuyou",
    "serviceType": "介護老人福祉施設",
    "capacity": 0,
    "openDays": [],
    "openDaysNote": ""
  },
  {
    "id": "4171400049",
    "name": "介護老人福祉施設　浜玉荘ユニット型",
    "kana": "カイゴロウジンフクシシセツ　ハマタマソウ",
    "address": "佐賀県唐津市浜玉町東山田２３９９番地",
    "lat": 33.4300291,
    "lng": 130.0456136,
    "tel": "0955-56-8711",
    "url": "http://k-fukushikai/h_about_riyou.html",
    "pref": "佐賀県",
    "city": "唐津市",
    "category": "tokuyou",
    "serviceType": "介護老人福祉施設",
    "capacity": null,
    "openDays": [],
    "openDaysNote": ""
  },
  {
    "id": "4170200093",
    "name": "指定介護老人福祉施設めずら荘",
    "kana": "シテイカイゴロウジンフクシシセツメズラソウ",
    "address": "佐賀県唐津市東唐津4丁目7-26",
    "lat": 33.4489152567135,
    "lng": 129.988665088683,
    "tel": "0955-73-0988",
    "url": "http://mezurasou.jp/",
    "pref": "佐賀県",
    "city": "唐津市",
    "category": "tokuyou",
    "serviceType": "介護老人福祉施設",
    "capacity": 110,
    "openDays": [],
    "openDaysNote": ""
  },
  {
    "id": "4171400106",
    "name": "社会福祉法人唐津福祉会　特別養護老人ホーム潮荘",
    "kana": "シャカイフクシホウジンカラツフクシカイ　トクベツヨウゴロウジンホームウシオソウ",
    "address": "佐賀県唐津市鎮西町打上3075番地1",
    "lat": 33.5166544,
    "lng": 129.9012112,
    "tel": "0955-51-1130",
    "url": "http://www.k-fukushikai.jp/",
    "pref": "佐賀県",
    "city": "唐津市",
    "category": "tokuyou",
    "serviceType": "介護老人福祉施設",
    "capacity": 0,
    "openDays": [],
    "openDaysNote": ""
  },
  {
    "id": "4170200796",
    "name": "特別養護老人ホームちぐさの",
    "kana": "トクベツヨウゴロウジンホームチグサノ",
    "address": "唐津市北波多徳須恵1201-1",
    "lat": 33.3735265,
    "lng": 129.9467998,
    "tel": "0955-64-2239",
    "url": "http://otakaro.wixsite.com/takachihoen",
    "pref": "佐賀県",
    "city": "唐津市",
    "category": "tokuyou",
    "serviceType": "介護老人福祉施設",
    "capacity": 0,
    "openDays": [],
    "openDaysNote": ""
  },
  {
    "id": "4170200739",
    "name": "特別養護老人ホームみなと園",
    "kana": "トクベツヨウゴロウジンホームミナトエン",
    "address": "佐賀県唐津市湊町4290-1",
    "lat": 33.5273043,
    "lng": 129.9450408,
    "tel": "0955-51-7200",
    "url": "http://www.shofukai-saga.com/index.html",
    "pref": "佐賀県",
    "city": "唐津市",
    "category": "tokuyou",
    "serviceType": "介護老人福祉施設",
    "capacity": 0,
    "openDays": [],
    "openDaysNote": ""
  },
  {
    "id": "4170200028",
    "name": "特別養護老人ホーム栄荘",
    "kana": "トクベツヨウゴロウジンホームサカエソウ",
    "address": "佐賀県唐津市栄町2588-19",
    "lat": 33.4493601,
    "lng": 129.9769635,
    "tel": "0955-75-2521",
    "url": "http://k-fukushikai.jp/sakae_gaiyou.html",
    "pref": "佐賀県",
    "city": "唐津市",
    "category": "tokuyou",
    "serviceType": "介護老人福祉施設",
    "capacity": 70,
    "openDays": [],
    "openDaysNote": ""
  },
  {
    "id": "4171400072",
    "name": "特別養護老人ホーム作礼荘",
    "kana": "トクベツヨウゴロウジンホームサクレイソウ",
    "address": "佐賀県唐津市相知町中山3544番地1",
    "lat": 33.3509978,
    "lng": 130.0159951,
    "tel": "0955-62-3903",
    "url": "http://web.people-i.ne.jp/~sakureisou/",
    "pref": "佐賀県",
    "city": "唐津市",
    "category": "tokuyou",
    "serviceType": "介護老人福祉施設",
    "capacity": 0,
    "openDays": [],
    "openDaysNote": ""
  },
  {
    "id": "4170201406",
    "name": "特別養護老人ホーム宝寿荘",
    "kana": "トクベツヨウゴロウジンホームホウジュソウ",
    "address": "唐津市呼子町殿ノ浦797番地23",
    "lat": 33.531855,
    "lng": 129.8892372,
    "tel": "0955-82-4845",
    "url": "ｋ－fukushikai.jp",
    "pref": "佐賀県",
    "city": "唐津市",
    "category": "tokuyou",
    "serviceType": "介護老人福祉施設",
    "capacity": 70,
    "openDays": [],
    "openDaysNote": ""
  },
  {
    "id": "4171400171",
    "name": "特別養護老人ホーム岬荘",
    "kana": "トクベツヨウゴロウジンホームミサキソウ",
    "address": "佐賀県唐津市肥前町鶴牧106番地11",
    "lat": 33.4485187,
    "lng": 129.8356074,
    "tel": "0955-51-6160",
    "url": "www.k-fukushikai.jp/",
    "pref": "佐賀県",
    "city": "唐津市",
    "category": "tokuyou",
    "serviceType": "介護老人福祉施設",
    "capacity": 0,
    "openDays": [],
    "openDaysNote": ""
  },
  {
    "id": "4171600044",
    "name": "特別養護老人ホーム歌垣之園",
    "kana": "トクベツヨウゴロウジンホームウタガキノソノ",
    "address": "佐賀県杵島郡白石町大字大渡６００番地１",
    "lat": 33.1986879876894,
    "lng": 130.103307783882,
    "tel": "0952-84-4000",
    "url": "http://www.cableone.ne.jp/~utagaki-sato",
    "pref": "佐賀県",
    "city": "白石町",
    "category": "tokuyou",
    "serviceType": "介護老人福祉施設",
    "capacity": 55,
    "openDays": [],
    "openDaysNote": ""
  },
  {
    "id": "4171600028",
    "name": "特別養護老人ホーム桜の園",
    "kana": "トクベツヨウゴロウジンホームサクラノソノ",
    "address": "佐賀県杵島郡白石町大字福富下分２３８７番地３",
    "lat": 33.1922521,
    "lng": 130.1989918,
    "tel": "0952-87-3939",
    "url": "http://www.sakuranosono.biz",
    "pref": "佐賀県",
    "city": "白石町",
    "category": "tokuyou",
    "serviceType": "介護老人福祉施設",
    "capacity": 0,
    "openDays": [],
    "openDaysNote": ""
  },
  {
    "id": "4171600069",
    "name": "特別養護老人ホーム　そよかぜの杜",
    "kana": "トクベツヨウゴロウジンホーム　ソヨカゼノモリ",
    "address": "佐賀県武雄市山内町大字大野7045番地",
    "lat": 33.2058735,
    "lng": 129.9350154,
    "tel": "0954-45-5155",
    "url": "https://www.seiwafukushikai.net/",
    "pref": "佐賀県",
    "city": "武雄市",
    "category": "tokuyou",
    "serviceType": "介護老人福祉施設",
    "capacity": 50,
    "openDays": [],
    "openDaysNote": ""
  },
  {
    "id": "4170600128",
    "name": "特別養護老人ホーム　ひいらぎ",
    "kana": "トクベツヨウゴロウジンホーム　ヒイラギ",
    "address": "佐賀県武雄市武内町大字真手野２６３４６番地",
    "lat": 33.2454259,
    "lng": 129.9704318,
    "tel": "0954-20-8001",
    "url": "http://www.tokurou.com",
    "pref": "佐賀県",
    "city": "武雄市",
    "category": "tokuyou",
    "serviceType": "介護老人福祉施設",
    "capacity": 0,
    "openDays": [],
    "openDaysNote": ""
  },
  {
    "id": "4171600085",
    "name": "特別養護老人ホーム杏花苑",
    "kana": "トクベツヨウゴロウジンホームキョウカエン",
    "address": "佐賀県武雄市北方町大字志久4641-26",
    "lat": 33.2214798012462,
    "lng": 130.084959747685,
    "tel": "0954-36-5350",
    "url": "https://kyokaen.wixsite.com/nicelandkitagata",
    "pref": "佐賀県",
    "city": "武雄市",
    "category": "tokuyou",
    "serviceType": "介護老人福祉施設",
    "capacity": 0,
    "openDays": [],
    "openDaysNote": ""
  },
  {
    "id": "4170600029",
    "name": "特別養護老人ホーム御船荘",
    "kana": "トクベツヨウゴロウジンホームミフネソウ",
    "address": "佐賀県武雄市東川登町大字永野4058番地5",
    "lat": 33.1624876,
    "lng": 130.0160403,
    "tel": "0954-23-5523",
    "url": "https://takeo-seiwafukushikai.jp/",
    "pref": "佐賀県",
    "city": "武雄市",
    "category": "tokuyou",
    "serviceType": "介護老人福祉施設",
    "capacity": 0,
    "openDays": [],
    "openDaysNote": ""
  },
  {
    "id": "4171500038",
    "name": "伊万里・有田地区特別養護老人ホーム｢くにみ｣",
    "kana": "イマリ・アリタチクトクベツヨウゴロウジンホームクニミ",
    "address": "佐賀県西松浦郡有田町立部乙2460番地",
    "lat": 33.2102356,
    "lng": 129.8479644,
    "tel": "0955-46-4181",
    "url": "http://aritakunimi.com/",
    "pref": "佐賀県",
    "city": "有田町",
    "category": "tokuyou",
    "serviceType": "介護老人福祉施設",
    "capacity": 90,
    "openDays": [],
    "openDaysNote": ""
  },
  {
    "id": "4171500087",
    "name": "社会福祉法人　慈光会　特別養護老人施設　りんでんホームズ",
    "kana": "シャカイフクシホウジンジコウカイトクベツヨウゴロウジンシセツリンデンホームズ",
    "address": "佐賀県西松浦郡有田町戸矢乙614-1",
    "lat": 33.1622573,
    "lng": 129.899439,
    "tel": "0955-41-0500",
    "url": "http://www.jikou-kai.net/ｒinden/index.html",
    "pref": "佐賀県",
    "city": "有田町",
    "category": "tokuyou",
    "serviceType": "介護老人福祉施設",
    "capacity": 35,
    "openDays": [],
    "openDaysNote": ""
  },
  {
    "id": "4171500053",
    "name": "特別養護老人ホーム　それいゆホームズ",
    "kana": "トクベツヨウゴロウジンホーム　ソレイユホームズ",
    "address": "佐賀県西松浦郡有田町二ノ瀬甲1250番地1",
    "lat": 33.2353217,
    "lng": 129.85731,
    "tel": "0955-41-2150",
    "url": "http://www.jikou-kai.net/",
    "pref": "佐賀県",
    "city": "有田町",
    "category": "tokuyou",
    "serviceType": "介護老人福祉施設",
    "capacity": 50,
    "openDays": [],
    "openDaysNote": ""
  }
]