[
  {
    "id": "2873600049",
    "name": "西はりまグリーンホーム",
    "kana": "ニシハリマグリーンホーム",
    "address": "兵庫県たつの市誉田町福田780-1",
    "lat": 34.84955,
    "lng": 134.5769598,
    "tel": "0791-63-2880",
    "url": "http://www.enshoukai.com/",
    "pref": "兵庫県",
    "city": "たつの市",
    "category": "tokuyou",
    "serviceType": "介護老人福祉施設",
    "capacity": 0,
    "openDays": [],
    "openDaysNote": ""
  },
  {
    "id": "2873600973",
    "name": "西はりまグリーンホーム",
    "kana": "ニシハリマグリーンホーム",
    "address": "兵庫県たつの市誉田町福田780-1",
    "lat": 34.84955,
    "lng": 134.5769598,
    "tel": "0791-63-2880",
    "url": "http://www.enshoukai.com/",
    "pref": "兵庫県",
    "city": "たつの市",
    "category": "tokuyou",
    "serviceType": "介護老人福祉施設",
    "capacity": 0,
    "openDays": [],
    "openDaysNote": ""
  },
  {
    "id": "2874100247",
    "name": "特別養護老人ホーム　いぼがわ荘",
    "kana": "トクベツヨウゴロウジンホーム　イボガワソウ",
    "address": "兵庫県たつの市揖保川町半田608-1",
    "lat": 34.8461196,
    "lng": 134.5357054,
    "tel": "0791-72-6600",
    "url": "",
    "pref": "兵庫県",
    "city": "たつの市",
    "category": "tokuyou",
    "serviceType": "介護老人福祉施設",
    "capacity": null,
    "openDays": [],
    "openDaysNote": ""
  },
  {
    "id": "2874100254",
    "name": "特別養護老人ホーム　シスナブ御津",
    "kana": "トクベツヨウゴロウジンホーム　シスナブミツ",
    "address": "兵庫県たつの市御津町中島980-3",
    "lat": 34.7935458,
    "lng": 134.5566185,
    "tel": "079-324-0767",
    "url": "http://www.yumekoubou.or.jp",
    "pref": "兵庫県",
    "city": "たつの市",
    "category": "tokuyou",
    "serviceType": "介護老人福祉施設",
    "capacity": 60,
    "openDays": [],
    "openDaysNote": ""
  },
  {
    "id": "2874100213",
    "name": "特別養護老人ホーム　栗栖の荘",
    "kana": "トクベツヨウゴロウジンホーム　クリスノソウ",
    "address": "兵庫県たつの市新宮町平野７７８－５",
    "lat": 34.931751,
    "lng": 134.5339229,
    "tel": "0791-75-3878",
    "url": "http://www.tokuyou-kurisunosou.jp/",
    "pref": "兵庫県",
    "city": "たつの市",
    "category": "tokuyou",
    "serviceType": "介護老人福祉施設",
    "capacity": 85,
    "openDays": [],
    "openDaysNote": ""
  },
  {
    "id": "2874100239",
    "name": "特別養護老人ホーム　揖保の郷",
    "kana": "トクベツヨウゴロウジンホーム　イボノサト",
    "address": "兵庫県たつの市揖保川町馬場７４７番地",
    "lat": 34.7934002,
    "lng": 134.5163812,
    "tel": "0791-72-2000",
    "url": "https://www.harimaseibu.com/",
    "pref": "兵庫県",
    "city": "たつの市",
    "category": "tokuyou",
    "serviceType": "介護老人福祉施設",
    "capacity": 0,
    "openDays": [],
    "openDaysNote": ""
  },
  {
    "id": "2873600031",
    "name": "特別養護老人ホーム桑の実園",
    "kana": "トクベツヨウゴロウジンホームクワノミエン",
    "address": "たつの市揖西町小神字塚原１５５１番地",
    "lat": 34.8494749206167,
    "lng": 134.527569622446,
    "tel": "0791-66-1360",
    "url": "http://www.kuwanomien.jp",
    "pref": "兵庫県",
    "city": "たつの市",
    "category": "tokuyou",
    "serviceType": "介護老人福祉施設",
    "capacity": 0,
    "openDays": [],
    "openDaysNote": ""
  },
  {
    "id": "2871001919",
    "name": "ナーシングホーム豊泉家芦屋山手",
    "kana": "ナーシングホームホウセンカアシヤヤマテ",
    "address": "兵庫県芦屋市剣谷9番地1",
    "lat": 34.7488259,
    "lng": 135.2995997,
    "tel": "0797-23-5353",
    "url": "https://www.housenka.com/",
    "pref": "兵庫県",
    "city": "芦屋市",
    "category": "tokuyou",
    "serviceType": "介護老人福祉施設",
    "capacity": null,
    "openDays": [],
    "openDaysNote": ""
  },
  {
    "id": "2871000812",
    "name": "介護老人福祉施設　愛しや",
    "kana": "カイゴロウジンフクシシセツ　アシヤ",
    "address": "兵庫県芦屋市浜風町31-3",
    "lat": 34.7181227,
    "lng": 135.3212218,
    "tel": "0797-23-7300",
    "url": "http://meirinfukushi.or.jp/ashiya/",
    "pref": "兵庫県",
    "city": "芦屋市",
    "category": "tokuyou",
    "serviceType": "介護老人福祉施設",
    "capacity": 0,
    "openDays": [],
    "openDaysNote": ""
  },
  {
    "id": "2871000101",
    "name": "特別養護老人ホーム　あしや喜楽苑",
    "kana": "トクベツヨウゴロウジンホーム　アシヤキラクエン",
    "address": "兵庫県芦屋市潮見町31-1",
    "lat": 34.7161867,
    "lng": 135.3061901,
    "tel": "0797-34-9287",
    "url": "http://www.kirakuen.or.jp",
    "pref": "兵庫県",
    "city": "芦屋市",
    "category": "tokuyou",
    "serviceType": "介護老人福祉施設",
    "capacity": 60,
    "openDays": [],
    "openDaysNote": ""
  },
  {
    "id": "2871000093",
    "name": "特別養護老人ホームあしや聖徳園",
    "kana": "トクベツヨウゴロウジンホーム　アシヤショウトクエン",
    "address": "兵庫県芦屋市六麓荘町３番５７号",
    "lat": 34.7501724,
    "lng": 135.3087697,
    "tel": "0797-32-7667",
    "url": "http://www.shotokuen.or.jp/",
    "pref": "兵庫県",
    "city": "芦屋市",
    "category": "tokuyou",
    "serviceType": "介護老人福祉施設",
    "capacity": 50,
    "openDays": [],
    "openDaysNote": ""
  },
  {
    "id": "2871000119",
    "name": "特別養護老人ホームエルホーム芦屋",
    "kana": "トクベツヨウゴロウジンホームエルホームアシヤ",
    "address": "芦屋市浜町１２番３号",
    "lat": 34.7259608,
    "lng": 135.3166861,
    "tel": "0797-35-8341",
    "url": "https://ellehome.jp/",
    "pref": "兵庫県",
    "city": "芦屋市",
    "category": "tokuyou",
    "serviceType": "介護老人福祉施設",
    "capacity": 0,
    "openDays": [],
    "openDaysNote": ""
  },
  {
    "id": "2873300756",
    "name": "オアシス千歳　特別養護老人ホーム",
    "kana": "オアシスチトセ　トクベツヨウゴロウジンホーム",
    "address": "伊丹市中央４丁目５番６号",
    "lat": 34.7782846,
    "lng": 135.4158318,
    "tel": "072-771-1500",
    "url": "http://ja-oasis.com/",
    "pref": "兵庫県",
    "city": "伊丹市",
    "category": "tokuyou",
    "serviceType": "介護老人福祉施設",
    "capacity": 0,
    "openDays": [],
    "openDaysNote": ""
  },
  {
    "id": "2873301044",
    "name": "特別養護老人ホーム　ケアハイツいたみ",
    "kana": "トクベツヨウゴロウジンホーム　ケアハイツイタミ",
    "address": "伊丹市中野西1丁目141番地",
    "lat": 34.7876612901225,
    "lng": 135.384728975291,
    "tel": "072-773-2286",
    "url": "http://jigyoudan-itami-hyogo.jp/",
    "pref": "兵庫県",
    "city": "伊丹市",
    "category": "tokuyou",
    "serviceType": "介護老人福祉施設",
    "capacity": 0,
    "openDays": [],
    "openDaysNote": ""
  },
  {
    "id": "2873300202",
    "name": "特別養護老人ホーム　協同の苑ケイ・メゾンときめき",
    "kana": "トクベツヨウゴロウジンホーム　キョウドウノソノケイ・メゾントキメキ",
    "address": "伊丹市森本１丁目８－１９",
    "lat": 34.7789376,
    "lng": 135.4292528,
    "tel": "072-777-0771",
    "url": "http://www.kyodo-no-sono.or.jp/",
    "pref": "兵庫県",
    "city": "伊丹市",
    "category": "tokuyou",
    "serviceType": "介護老人福祉施設",
    "capacity": 94,
    "openDays": [],
    "openDaysNote": ""
  },
  {
    "id": "2873300186",
    "name": "特別養護老人ホームあそか苑",
    "kana": "トクベツヨウゴロウジンホームアソカエン",
    "address": "兵庫県伊丹市中野西１丁目18番地",
    "lat": 34.7890889,
    "lng": 135.3888456,
    "tel": "072-785-0109",
    "url": "http://www.asokaen.or.jp",
    "pref": "兵庫県",
    "city": "伊丹市",
    "category": "tokuyou",
    "serviceType": "介護老人福祉施設",
    "capacity": 59,
    "openDays": [],
    "openDaysNote": ""
  },
  {
    "id": "2873300194",
    "name": "特別養護老人ホーム伸幸苑",
    "kana": "トクベツヨウゴロウジンホームシンコウエン",
    "address": "伊丹市寺本６丁目１５０番地",
    "lat": 34.7807649,
    "lng": 135.3871377,
    "tel": "072-778-6765",
    "url": "http://www.shinkoen.jp",
    "pref": "兵庫県",
    "city": "伊丹市",
    "category": "tokuyou",
    "serviceType": "介護老人福祉施設",
    "capacity": 0,
    "openDays": [],
    "openDaysNote": ""
  },
  {
    "id": "2872800095",
    "name": "特別養護老人ホーム　稲美苑",
    "kana": "トクベツヨウゴロウジンホーム　イナミエン",
    "address": "兵庫県加古郡稲美町国安１２５６番地",
    "lat": 34.7471879,
    "lng": 134.917945,
    "tel": "079-492-7601",
    "url": "https://hinode.or.jp/",
    "pref": "兵庫県",
    "city": "稲美町",
    "category": "tokuyou",
    "serviceType": "介護老人福祉施設",
    "capacity": 80,
    "openDays": [],
    "openDaysNote": ""
  },
  {
    "id": "2872204009",
    "name": "フェニックス加古川ケアセンター",
    "kana": "フェニックスカコガワケアセンター",
    "address": "兵庫県加古川市米田町平津384－16",
    "lat": 34.7864923,
    "lng": 134.8158716,
    "tel": "079ー432ー1555",
    "url": "www.kobe-wako.jp",
    "pref": "兵庫県",
    "city": "加古川市",
    "category": "tokuyou",
    "serviceType": "介護老人福祉施設",
    "capacity": null,
    "openDays": [],
    "openDaysNote": ""
  },
  {
    "id": "2872200320",
    "name": "介護老人福祉施設　ヴィラ播磨",
    "kana": "カイゴロウジンフクシシセツ　ゔィラハリマ",
    "address": "兵庫県加古川市志方町成井１００番地",
    "lat": 34.8161521,
    "lng": 134.8032418,
    "tel": "079-453-2100",
    "url": "https://harima.tokuyou.jp",
    "pref": "兵庫県",
    "city": "加古川市",
    "category": "tokuyou",
    "serviceType": "介護老人福祉施設",
    "capacity": 80,
    "openDays": [],
    "openDaysNote": ""
  },
  {
    "id": "2872201484",
    "name": "特別養護老人ホーム　グランはりま",
    "kana": "トクベツヨウゴロウジンホーム　グランハリマ",
    "address": "加古川市平岡町高畑１－１",
    "lat": 34.7304395,
    "lng": 134.8790994,
    "tel": "079-451-1525",
    "url": "http://www.gurannharima.com/",
    "pref": "兵庫県",
    "city": "加古川市",
    "category": "tokuyou",
    "serviceType": "介護老人福祉施設",
    "capacity": 0,
    "openDays": [],
    "openDaysNote": ""
  },
  {
    "id": "2872204330",
    "name": "特別養護老人ホーム　まつかぜの郷",
    "kana": "トクベツヨウゴロウジンホーム　マツカゼノサト",
    "address": "兵庫県加古川市別府町新野辺５７４番88",
    "lat": 34.7338928,
    "lng": 134.8381587,
    "tel": "079-437-3100",
    "url": "https://matsukazeno310.com/",
    "pref": "兵庫県",
    "city": "加古川市",
    "category": "tokuyou",
    "serviceType": "介護老人福祉施設",
    "capacity": 50,
    "openDays": [],
    "openDaysNote": ""
  },
  {
    "id": "2872200304",
    "name": "特別養護老人ホーム　みどり園",
    "kana": "トクベツヨウゴロウジンホーム　ミドリエン",
    "address": "兵庫県加古川市平岡町423-9",
    "lat": 34.7284594,
    "lng": 134.8961838,
    "tel": "078-941-6700",
    "url": "http://www.midorien.org",
    "pref": "兵庫県",
    "city": "加古川市",
    "category": "tokuyou",
    "serviceType": "介護老人福祉施設",
    "capacity": 60,
    "openDays": [],
    "openDaysNote": ""
  },
  {
    "id": "2872202417",
    "name": "特別養護老人ホーム　加古川さくら園",
    "kana": "トクベツヨウゴロウジンホーム　カコガワサクラエン",
    "address": "兵庫県加古川市東神吉町神吉１８４４－５",
    "lat": 34.8018684,
    "lng": 134.8332637,
    "tel": "079-432-7300",
    "url": "http://www.kakogawa-sakuraen.com/",
    "pref": "兵庫県",
    "city": "加古川市",
    "category": "tokuyou",
    "serviceType": "介護老人福祉施設",
    "capacity": 0,
    "openDays": [],
    "openDaysNote": ""
  },
  {
    "id": "2872200338",
    "name": "特別養護老人ホーム　鹿児の郷",
    "kana": "トクベツヨウゴロウジンホーム　カコノサト",
    "address": "加古川市平荘町山角１０３８－４",
    "lat": 34.8043182,
    "lng": 134.873174,
    "tel": "079-428-1765",
    "url": "https://ftk1998.or.jp/",
    "pref": "兵庫県",
    "city": "加古川市",
    "category": "tokuyou",
    "serviceType": "介護老人福祉施設",
    "capacity": 0,
    "openDays": [],
    "openDaysNote": ""
  },
  {
    "id": "2872201245",
    "name": "特別養護老人ホーム　泰生",
    "kana": "トクベツヨウゴロウジンホーム　タイセイ",
    "address": "兵庫県加古川市神野町石守２３８－１",
    "lat": 34.7654107,
    "lng": 134.8747378,
    "tel": "079-425-0888",
    "url": "http://akari-fukushikai.com",
    "pref": "兵庫県",
    "city": "加古川市",
    "category": "tokuyou",
    "serviceType": "介護老人福祉施設",
    "capacity": 70,
    "openDays": [],
    "openDaysNote": ""
  },
  {
    "id": "2872200205",
    "name": "特別養護老人ホームこすもす園",
    "kana": "トクベツヨウゴロウジンホームコスモスエン",
    "address": "加古川市神野町神野１３６－８",
    "lat": 34.7726822,
    "lng": 134.8862811,
    "tel": "079-438-7770",
    "url": "http://nojigiku.or.jp/page27/",
    "pref": "兵庫県",
    "city": "加古川市",
    "category": "tokuyou",
    "serviceType": "介護老人福祉施設",
    "capacity": 0,
    "openDays": [],
    "openDaysNote": ""
  },
  {
    "id": "2872200296",
    "name": "特別養護老人ホームせいりょう園",
    "kana": "トクベツヨウゴロウジンホームセイリョウエン",
    "address": "兵庫県加古川市野口町長砂95-2",
    "lat": 34.7494392617986,
    "lng": 134.849082501852,
    "tel": "079-421-7156",
    "url": "http://www.seiryoen.or.jp",
    "pref": "兵庫県",
    "city": "加古川市",
    "category": "tokuyou",
    "serviceType": "介護老人福祉施設",
    "capacity": 0,
    "openDays": [],
    "openDaysNote": ""
  },
  {
    "id": "2872200312",
    "name": "特別養護老人ホーム鶴林園",
    "kana": "トクベツヨウゴロウジンホームカクリンエン",
    "address": "兵庫県加古川市志方町細工所1086番地",
    "lat": 34.8403443,
    "lng": 134.8415935,
    "tel": "079-452-0162",
    "url": "https://www.kakurinen.com",
    "pref": "兵庫県",
    "city": "加古川市",
    "category": "tokuyou",
    "serviceType": "介護老人福祉施設",
    "capacity": 112,
    "openDays": [],
    "openDaysNote": ""
  },
  {
    "id": "2872200288",
    "name": "特別養護老人ホーム万亀園",
    "kana": "トクベツヨウゴロウジンホームマンキエン",
    "address": "兵庫県加古川市野口町水足１０７－１",
    "lat": 34.7623054,
    "lng": 134.8697162,
    "tel": "079-426-8200",
    "url": "http://mankien.com./category02/",
    "pref": "兵庫県",
    "city": "加古川市",
    "category": "tokuyou",
    "serviceType": "介護老人福祉施設",
    "capacity": 70,
    "openDays": [],
    "openDaysNote": ""
  },
  {
    "id": "2872203407",
    "name": "特別養護老人ホーム佰楽苑",
    "kana": "トクベツヨウゴロウジンホームヒャクラクエン",
    "address": "兵庫県加古川市別府町新野辺1429番地の10",
    "lat": 34.7313499,
    "lng": 134.8352479,
    "tel": "079-441-0752",
    "url": "http://seiwa-w.com/",
    "pref": "兵庫県",
    "city": "加古川市",
    "category": "tokuyou",
    "serviceType": "介護老人福祉施設",
    "capacity": 0,
    "openDays": [],
    "openDaysNote": ""
  },
  {
    "id": "2872201203",
    "name": "浜の宮松竹園",
    "kana": "ハマノミヤショウチクエン",
    "address": "兵庫県加古川市別府町新野辺５３８－９",
    "lat": 34.7368132,
    "lng": 134.8403946,
    "tel": "079-422-5552",
    "url": "http://syo-chikuen.com/",
    "pref": "兵庫県",
    "city": "加古川市",
    "category": "tokuyou",
    "serviceType": "介護老人福祉施設",
    "capacity": 80,
    "openDays": [],
    "openDaysNote": ""
  },
  {
    "id": "2872600271",
    "name": "特別養護老人ホーム　春夏秋冬",
    "kana": "トクベツヨウゴロウジンホーム　シュンカシュウトウ",
    "address": "兵庫県加西市坂本町１０２７－５",
    "lat": 34.8713001,
    "lng": 134.825332,
    "tel": "0790-48-8888",
    "url": "keiaigojokai@mve.biglobe.ne.jp",
    "pref": "兵庫県",
    "city": "加西市",
    "category": "tokuyou",
    "serviceType": "介護老人福祉施設",
    "capacity": 0,
    "openDays": [],
    "openDaysNote": ""
  },
  {
    "id": "2872600107",
    "name": "特別養護老人ホーム　第二サルビア荘",
    "kana": "トクベツヨウゴロウジンホーム　ダイニサルビアソウ",
    "address": "兵庫県加西市国正町１９３１－２",
    "lat": 34.943487,
    "lng": 134.9334433,
    "tel": "0790-45-1801",
    "url": "http://www.enyuukai.jp",
    "pref": "兵庫県",
    "city": "加西市",
    "category": "tokuyou",
    "serviceType": "介護老人福祉施設",
    "capacity": null,
    "openDays": [],
    "openDaysNote": ""
  },
  {
    "id": "2872600099",
    "name": "特別養護老人ホーム加西の里",
    "kana": "トクベツヨウゴロウジンホームカサイノサト",
    "address": "兵庫県加西市段下町８４８－１４",
    "lat": 34.9077499,
    "lng": 134.8440692,
    "tel": "0790-48-2552",
    "url": "",
    "pref": "兵庫県",
    "city": "加西市",
    "category": "tokuyou",
    "serviceType": "介護老人福祉施設",
    "capacity": 50,
    "openDays": [],
    "openDaysNote": ""
  },
  {
    "id": "2872500216",
    "name": "高齢者総合ケア福祉施設　「伽の里」",
    "kana": "コウレイシャソウゴウケアフクシシセツ　「トギノサト」",
    "address": "兵庫県加東市天神608番地",
    "lat": 34.9124967,
    "lng": 135.061734,
    "tel": "0795-47-5500",
    "url": "https://hinode.or.jp/establishment/toginosato/",
    "pref": "兵庫県",
    "city": "加東市",
    "category": "tokuyou",
    "serviceType": "介護老人福祉施設",
    "capacity": 70,
    "openDays": [],
    "openDaysNote": ""
  },
  {
    "id": "2872500604",
    "name": "特別養護老人ホーム　社すみれ園",
    "kana": "トクベツヨウゴロウジンホーム　ヤシロスミレエン",
    "address": "兵庫県加東市藤田字東山９４４－２７",
    "lat": 34.9104185846375,
    "lng": 135.000058214417,
    "tel": "0795-43-0222",
    "url": "http://www.yashiro-sumire.com",
    "pref": "兵庫県",
    "city": "加東市",
    "category": "tokuyou",
    "serviceType": "介護老人福祉施設",
    "capacity": 0,
    "openDays": [],
    "openDaysNote": ""
  },
  {
    "id": "2872500059",
    "name": "特別養護老人ホームフロイデ滝野",
    "kana": "トクベツヨウゴロウジンホームフロイデタキノ",
    "address": "兵庫県加東市下滝野１２８３－３７",
    "lat": 34.9463962686721,
    "lng": 134.934358315344,
    "tel": "0795-48-1726",
    "url": "http://www.furoide-takino.or.jp",
    "pref": "兵庫県",
    "city": "加東市",
    "category": "tokuyou",
    "serviceType": "介護老人福祉施設",
    "capacity": 62,
    "openDays": [],
    "openDaysNote": ""
  },
  {
    "id": "2874700079",
    "name": "特別養護老人ホームこぶし園",
    "kana": "トクベツヨウゴロウジンホームコブシエン",
    "address": "兵庫県美方郡香美町小代区神水638番地",
    "lat": 35.4672683,
    "lng": 134.5458161,
    "tel": "0796-97-2725",
    "url": "http://www.kobushinosato.jp/",
    "pref": "兵庫県",
    "city": "香美町",
    "category": "tokuyou",
    "serviceType": "介護老人福祉施設",
    "capacity": 86,
    "openDays": [],
    "openDaysNote": ""
  },
  {
    "id": "2874500099",
    "name": "特別養護老人ホームしいの木荘",
    "kana": "トクベツヨウゴロウジンホームシイノキソウ",
    "address": "兵庫県美方郡香美町香住区森61-1",
    "lat": 35.6260311,
    "lng": 134.6279088,
    "tel": "0796-36-3833",
    "url": "https://www.kami-koujyukai.jp",
    "pref": "兵庫県",
    "city": "香美町",
    "category": "tokuyou",
    "serviceType": "介護老人福祉施設",
    "capacity": 0,
    "openDays": [],
    "openDaysNote": ""
  },
  {
    "id": "2874700442",
    "name": "特別養護老人ホームむらおかこぶし園",
    "kana": "トクベツヨウゴロウジンホームムラオカコブシエン",
    "address": "兵庫県美方郡香美町村岡区村岡２２０５番地",
    "lat": 35.4757632,
    "lng": 134.5995721,
    "tel": "0796-94-0051",
    "url": "http://kobushinosato.jp/",
    "pref": "兵庫県",
    "city": "香美町",
    "category": "tokuyou",
    "serviceType": "介護老人福祉施設",
    "capacity": 0,
    "openDays": [],
    "openDaysNote": ""
  },
  {
    "id": "2872100066",
    "name": "特別養護老人ホームサンリットひまわり園",
    "kana": "トクベツヨウゴロウジンホームサンリットヒマワリエン",
    "address": "高砂市高砂町松波町４４０番５",
    "lat": 34.7527138,
    "lng": 134.7973159,
    "tel": "079-443-0070",
    "url": "http://care-net.biz/28/matunami",
    "pref": "兵庫県",
    "city": "高砂市",
    "category": "tokuyou",
    "serviceType": "介護老人福祉施設",
    "capacity": 0,
    "openDays": [],
    "openDaysNote": ""
  },
  {
    "id": "2872100983",
    "name": "特別養護老人ホームサンリットひまわり園（ユニット型）",
    "kana": "トクベツヨウゴロウジンホームサンリットヒマワリエン（ユニットガタ）",
    "address": "兵庫県高砂市高砂町松波町４４０－５",
    "lat": 34.7527638,
    "lng": 134.7973992,
    "tel": "079-443-0070",
    "url": "http://care-net.biz/28/matunami",
    "pref": "兵庫県",
    "city": "高砂市",
    "category": "tokuyou",
    "serviceType": "介護老人福祉施設",
    "capacity": 30,
    "openDays": [],
    "openDaysNote": ""
  },
  {
    "id": "2872100322",
    "name": "特別養護老人ホームのじぎくの里",
    "kana": "トクベツヨウゴロウジンホ－ムノジギクノサト",
    "address": "兵庫県高砂市北浜町西浜773-3",
    "lat": 34.7855176,
    "lng": 134.7484018,
    "tel": "079-247-9200",
    "url": "http://www.nojigiku.or.jp/",
    "pref": "兵庫県",
    "city": "高砂市",
    "category": "tokuyou",
    "serviceType": "介護老人福祉施設",
    "capacity": 70,
    "openDays": [],
    "openDaysNote": ""
  },
  {
    "id": "2872100082",
    "name": "特別養護老人ホームめぐみ苑",
    "kana": "トクベツヨウゴロウジンホームメグミエン",
    "address": "兵庫県高砂市阿弥陀町阿弥陀４３番の１",
    "lat": 34.79779,
    "lng": 134.7864572,
    "tel": "079-449-0111",
    "url": "http://www.megumien.jp",
    "pref": "兵庫県",
    "city": "高砂市",
    "category": "tokuyou",
    "serviceType": "介護老人福祉施設",
    "capacity": 60,
    "openDays": [],
    "openDaysNote": ""
  },
  {
    "id": "2872100074",
    "name": "特別養護老人ホーム常寿園",
    "kana": "トクベツヨウゴロウジンホームジョウジュエン",
    "address": "兵庫県高砂市北浜町牛谷721-1",
    "lat": 34.7934785,
    "lng": 134.7606667,
    "tel": "079-446-1165",
    "url": "http://www.jyoujyuen.com/",
    "pref": "兵庫県",
    "city": "高砂市",
    "category": "tokuyou",
    "serviceType": "介護老人福祉施設",
    "capacity": 0,
    "openDays": [],
    "openDaysNote": ""
  },
  {
    "id": "2873700138",
    "name": "特別養護老人ホーム　サンホームみかづき",
    "kana": "トクベツヨウゴロウジンホーム　サンホームミカヅキ",
    "address": "兵庫県佐用郡佐用町志文５１５番地",
    "lat": 35.0119406,
    "lng": 134.4355641,
    "tel": "0790-79-3145",
    "url": "http://www.sunhome-cat.jp",
    "pref": "兵庫県",
    "city": "佐用町",
    "category": "tokuyou",
    "serviceType": "介護老人福祉施設",
    "capacity": 0,
    "openDays": [],
    "openDaysNote": ""
  },
  {
    "id": "2873700310",
    "name": "特別養護老人ホーム　はなみずき",
    "kana": "トクベツヨウゴロウジンホーム　ハナミズキ",
    "address": "兵庫県佐用郡佐用町安川401番地",
    "lat": 34.9805681,
    "lng": 134.3819696,
    "tel": "0790-78-8003",
    "url": "http://hanasakimura.jp",
    "pref": "兵庫県",
    "city": "佐用町",
    "category": "tokuyou",
    "serviceType": "介護老人福祉施設",
    "capacity": 40,
    "openDays": [],
    "openDaysNote": ""
  },
  {
    "id": "2873700245",
    "name": "特別養護老人ホーム　朝陽ケ丘荘",
    "kana": "トクベツヨウゴロウジン　　アサヒガオカソウ",
    "address": "兵庫県佐用郡佐用町平福１３８‐１",
    "lat": 35.0500188,
    "lng": 134.3707067,
    "tel": "0790-83-2008",
    "url": "http://www.hwc.or.jp/asahigaoka/",
    "pref": "兵庫県",
    "city": "佐用町",
    "category": "tokuyou",
    "serviceType": "介護老人福祉施設",
    "capacity": 0,
    "openDays": [],
    "openDaysNote": ""
  },
  {
    "id": "2873700112",
    "name": "特別養護老人ホーム　祐あいホーム上月",
    "kana": "トクベツヨウゴロウジンホーム　ユウアイホームコウヅキ",
    "address": "兵庫県佐用郡佐用町福吉７２１番地",
    "lat": 35.0117692,
    "lng": 134.3085304,
    "tel": "0790-87-0011",
    "url": "http://www.seifukai.or.jp",
    "pref": "兵庫県",
    "city": "佐用町",
    "category": "tokuyou",
    "serviceType": "介護老人福祉施設",
    "capacity": 56,
    "openDays": [],
    "openDaysNote": ""
  },
  {
    "id": "2871200099",
    "name": "三田楽寿荘",
    "kana": "サンダラクジュソウ",
    "address": "兵庫県三田市東本庄1188番地",
    "lat": 34.9554695934995,
    "lng": 135.166046871828,
    "tel": "079-568-2652",
    "url": "http://www.hirakataryoiku-med.or.jp/sanda/",
    "pref": "兵庫県",
    "city": "三田市",
    "category": "tokuyou",
    "serviceType": "介護老人福祉施設",
    "capacity": 0,
    "openDays": [],
    "openDaysNote": ""
  },
  {
    "id": "2871201386",
    "name": "特別養護老人ホーム　オーキッド",
    "kana": "トクベツヨウゴロウジンホーム　オーキッド",
    "address": "兵庫県三田市駅前町3番15号101",
    "lat": 34.8876795,
    "lng": 135.2284115,
    "tel": "079-556-7557",
    "url": "http://www.reimeikai.org/orchid/",
    "pref": "兵庫県",
    "city": "三田市",
    "category": "tokuyou",
    "serviceType": "介護老人福祉施設",
    "capacity": 0,
    "openDays": [],
    "openDaysNote": ""
  },
  {
    "id": "2871200180",
    "name": "特別養護老人ホーム　サンウエスト",
    "kana": "トクベツヨウゴロウジンホーム　サンウエスト",
    "address": "兵庫県三田市小野1139-1",
    "lat": 34.9522718,
    "lng": 135.2321214,
    "tel": "079-560-3070",
    "url": "http://www.sunwest-kaigo.jp",
    "pref": "兵庫県",
    "city": "三田市",
    "category": "tokuyou",
    "serviceType": "介護老人福祉施設",
    "capacity": 0,
    "openDays": [],
    "openDaysNote": ""
  },
  {
    "id": "2871201568",
    "name": "特別養護老人ホーム　サンサリテ三田",
    "kana": "トクベツヨウゴロウジンホーム　サンサリテサンダ",
    "address": "兵庫県三田市中町１６-３",
    "lat": 34.8842583,
    "lng": 135.2326313,
    "tel": "079-556-5822",
    "url": "https://www.sincerite-kenwakai.com/",
    "pref": "兵庫県",
    "city": "三田市",
    "category": "tokuyou",
    "serviceType": "介護老人福祉施設",
    "capacity": null,
    "openDays": [],
    "openDaysNote": ""
  },
  {
    "id": "2871200081",
    "name": "特別養護老人ホームさんすい園",
    "kana": "トクベツヨウゴロウジンホームサンスイエン",
    "address": "兵庫県三田市下相野薬師尾1460番地の1",
    "lat": 34.9387814364,
    "lng": 135.165475415019,
    "tel": "079-568-1314",
    "url": "http://sansui-en.org",
    "pref": "兵庫県",
    "city": "三田市",
    "category": "tokuyou",
    "serviceType": "介護老人福祉施設",
    "capacity": 46,
    "openDays": [],
    "openDaysNote": ""
  },
  {
    "id": "2871201121",
    "name": "特別養護老人ホームさんすい園",
    "kana": "トクベツヨウゴロウジンホームサンスイエン",
    "address": "兵庫県三田市下相野薬師尾1460番地の1",
    "lat": 34.9387528522598,
    "lng": 135.16533862236,
    "tel": "079-568-1314",
    "url": "http://sansui-en.org",
    "pref": "兵庫県",
    "city": "三田市",
    "category": "tokuyou",
    "serviceType": "介護老人福祉施設",
    "capacity": 54,
    "openDays": [],
    "openDaysNote": ""
  },
  {
    "id": "2871200727",
    "name": "特別養護老人ホームゼフィール三田",
    "kana": "トクベツヨウゴロウジンホームゼフィールサンダ",
    "address": "兵庫県三田市富士が丘5丁目17番3",
    "lat": 34.892321,
    "lng": 135.203325,
    "tel": "079-559-1800",
    "url": "http://keijyukinenkai.or.jp/",
    "pref": "兵庫県",
    "city": "三田市",
    "category": "tokuyou",
    "serviceType": "介護老人福祉施設",
    "capacity": 0,
    "openDays": [],
    "openDaysNote": ""
  },
  {
    "id": "2872300708",
    "name": "介護老人福祉施設　カトレア三木",
    "kana": "カトレアミキ",
    "address": "兵庫県三木市福井１９８１－１",
    "lat": 34.7924268514795,
    "lng": 134.990907057672,
    "tel": "0794-83-0088",
    "url": "http://www.imwg.or.jp/miki/",
    "pref": "兵庫県",
    "city": "三木市",
    "category": "tokuyou",
    "serviceType": "介護老人福祉施設",
    "capacity": null,
    "openDays": [],
    "openDaysNote": ""
  },
  {
    "id": "2872400029",
    "name": "高齢者総合福祉施設　さざんかの郷",
    "kana": "コウレイシャソウゴウフクシシセツ　サザンカノサト",
    "address": "兵庫県三木市吉川町大沢４１８番地",
    "lat": 34.8835051,
    "lng": 135.1212506,
    "tel": "0794-72-1170",
    "url": "http://www.sazankanosato.com",
    "pref": "兵庫県",
    "city": "三木市",
    "category": "tokuyou",
    "serviceType": "介護老人福祉施設",
    "capacity": 0,
    "openDays": [],
    "openDaysNote": ""
  },
  {
    "id": "2872300104",
    "name": "特別養護老人ホーム　グリーンホーム三木",
    "kana": "トクベツヨウゴロウジンホーム　グリーンホームミキ",
    "address": "兵庫県三木市与呂木683-397",
    "lat": 34.8074929,
    "lng": 135.0092922,
    "tel": "0794-86-1212",
    "url": "http://yuwa-fukushikai.or.jp/",
    "pref": "兵庫県",
    "city": "三木市",
    "category": "tokuyou",
    "serviceType": "介護老人福祉施設",
    "capacity": 56,
    "openDays": [],
    "openDaysNote": ""
  },
  {
    "id": "2872300096",
    "name": "特別養護老人ホーム　しゅうらく苑",
    "kana": "トクベツヨウゴロウジンホーム　シュウラクエン",
    "address": "兵庫県三木市別所町興治１５８８番地",
    "lat": 34.7690081269819,
    "lng": 134.970906265251,
    "tel": "0794-83-6767",
    "url": "http://shuraku.upper.jp",
    "pref": "兵庫県",
    "city": "三木市",
    "category": "tokuyou",
    "serviceType": "介護老人福祉施設",
    "capacity": 0,
    "openDays": [],
    "openDaysNote": ""
  },
  {
    "id": "2872301359",
    "name": "特別養護老人ホーム　みずき",
    "kana": "トクベツヨウゴロウジンホーム　ミズキ",
    "address": "兵庫県三木市加佐58-1",
    "lat": 34.8029119130617,
    "lng": 134.983927252779,
    "tel": "0794-82-5050",
    "url": "http://www.mizuki-nh.com",
    "pref": "兵庫県",
    "city": "三木市",
    "category": "tokuyou",
    "serviceType": "介護老人福祉施設",
    "capacity": 0,
    "openDays": [],
    "openDaysNote": ""
  },
  {
    "id": "2872300294",
    "name": "特別養護老人ホーム　りんどうの里",
    "kana": "トクベツヨウゴロウジンホーム　リンドウノサト",
    "address": "兵庫県三木市志染町四合谷字伊賀ノ垣341番地",
    "lat": 34.7812509,
    "lng": 135.0243326,
    "tel": "0794-84-0237",
    "url": "http://rindounosato.or.jp/",
    "pref": "兵庫県",
    "city": "三木市",
    "category": "tokuyou",
    "serviceType": "介護老人福祉施設",
    "capacity": 0,
    "openDays": [],
    "openDaysNote": ""
  },
  {
    "id": "2872301102",
    "name": "特別養護老人ホームえびすの郷",
    "kana": "トクベツヨウゴロウジンホームエビスノサト",
    "address": "兵庫県三木市大塚206-6",
    "lat": 34.8001742,
    "lng": 134.9995431,
    "tel": "0794-82-0300",
    "url": "https://ebisunosato.com",
    "pref": "兵庫県",
    "city": "三木市",
    "category": "tokuyou",
    "serviceType": "介護老人福祉施設",
    "capacity": 60,
    "openDays": [],
    "openDaysNote": ""
  },
  {
    "id": "2873400184",
    "name": "介護老人福祉施設　ひまわり荘",
    "kana": "カイゴロウジンフクシシセツ　ヒマワリソウ",
    "address": "神崎郡市川町下牛尾680",
    "lat": 35.0013723,
    "lng": 134.8209971,
    "tel": "0790-27-0800",
    "url": "http://www.himawarisou.or.jp",
    "pref": "兵庫県",
    "city": "市川町",
    "category": "tokuyou",
    "serviceType": "介護老人福祉施設",
    "capacity": 0,
    "openDays": [],
    "openDaysNote": ""
  },
  {
    "id": "2873800516",
    "name": "介護老人福祉施設　ありがとう",
    "kana": "カイゴロウジンフクシシセツ　アリガトウ",
    "address": "宍粟市山崎町東下野２７３－２",
    "lat": 35.0500319,
    "lng": 134.5153236,
    "tel": "0790-65-0790",
    "url": "http://shoeikai.org",
    "pref": "兵庫県",
    "city": "宍粟市",
    "category": "tokuyou",
    "serviceType": "介護老人福祉施設",
    "capacity": 60,
    "openDays": [],
    "openDaysNote": ""
  },
  {
    "id": "2873800235",
    "name": "特別養護老人ホーム　まどか園",
    "kana": "トクベツヨウゴロウジンホーム　マドカエン",
    "address": "兵庫県宍粟市一宮町福知１０３０番地の１",
    "lat": 35.1541201,
    "lng": 134.6195774,
    "tel": "0790-74-1622",
    "url": "http://www.shoukyu.com",
    "pref": "兵庫県",
    "city": "宍粟市",
    "category": "tokuyou",
    "serviceType": "介護老人福祉施設",
    "capacity": 0,
    "openDays": [],
    "openDaysNote": ""
  },
  {
    "id": "2873800243",
    "name": "特別養護老人ホームかえで園",
    "kana": "トクベツヨウゴロウジンホームカエデエン",
    "address": "兵庫県宍粟市波賀町安賀４５０－２",
    "lat": 35.1564093,
    "lng": 134.5437958,
    "tel": "0790-75-2551",
    "url": "http://haganosato.jp/",
    "pref": "兵庫県",
    "city": "宍粟市",
    "category": "tokuyou",
    "serviceType": "介護老人福祉施設",
    "capacity": 60,
    "openDays": [],
    "openDaysNote": ""
  },
  {
    "id": "2873801068",
    "name": "特別養護老人ホームしそうの杜",
    "kana": "トクベツヨウゴロウジンホームシソウノモリ",
    "address": "兵庫県宍粟市山崎町川戸1821",
    "lat": 34.9801590882096,
    "lng": 134.54164634418,
    "tel": "0790-64-0101",
    "url": "https://www.ontoku.or.jp/",
    "pref": "兵庫県",
    "city": "宍粟市",
    "category": "tokuyou",
    "serviceType": "介護老人福祉施設",
    "capacity": null,
    "openDays": [],
    "openDaysNote": ""
  },
  {
    "id": "2873800086",
    "name": "特別養護老人ホームちくさの郷",
    "kana": "トクベツヨウゴロウジンホームチクサノサト",
    "address": "兵庫県宍粟市千種町河呂189番地4",
    "lat": 35.1616999,
    "lng": 134.4512268,
    "tel": "0790-76-2500",
    "url": "http://www.chikusakai.or.jp",
    "pref": "兵庫県",
    "city": "宍粟市",
    "category": "tokuyou",
    "serviceType": "介護老人福祉施設",
    "capacity": 0,
    "openDays": [],
    "openDaysNote": ""
  },
  {
    "id": "2873800219",
    "name": "特別養護老人ホームやまさき白寿園",
    "kana": "トクベツヨウゴロウジンホームヤマサキハクジュエン",
    "address": "兵庫県宍粟市山崎町春安１１１－１",
    "lat": 35.003481,
    "lng": 134.5322009,
    "tel": "0790-62-8833",
    "url": "http://www.aoyama-med.gr.jp/yamasaki-hakujyu/",
    "pref": "兵庫県",
    "city": "宍粟市",
    "category": "tokuyou",
    "serviceType": "介護老人福祉施設",
    "capacity": 0,
    "openDays": [],
    "openDaysNote": ""
  },
  {
    "id": "2871500266",
    "name": "洲本特別養護老人ホームラガール",
    "kana": "スモトトクベツヨウゴロウジンホームラガール",
    "address": "兵庫県洲本市中川原町安坂字居屋敷９８６番地",
    "lat": 34.3567879,
    "lng": 134.8656105,
    "tel": "0799-25-8585",
    "url": "http://www.koudoukai.or.jp/sumoto/",
    "pref": "兵庫県",
    "city": "洲本市",
    "category": "tokuyou",
    "serviceType": "介護老人福祉施設",
    "capacity": 0,
    "openDays": [],
    "openDaysNote": ""
  },
  {
    "id": "2871501181",
    "name": "特別養護老人ホーム　くにうみの里",
    "kana": "トクベツヨウゴロウジンホームクニウミノサト",
    "address": "下加茂一丁目６－６",
    "lat": 34.3477001,
    "lng": 134.8771515,
    "tel": "0799-22-3344",
    "url": "http://www.hwc.or.jp/kuniumi/",
    "pref": "兵庫県",
    "city": "洲本市",
    "category": "tokuyou",
    "serviceType": "介護老人福祉施設",
    "capacity": 0,
    "openDays": [],
    "openDaysNote": ""
  },
  {
    "id": "2871500506",
    "name": "特別養護老人ホーム　五色・サルビアホール",
    "kana": "トクベツヨウゴロウジンホーム　ゴシキ・サルビアホール",
    "address": "兵庫県洲本市五色町都志大日707番地",
    "lat": 34.4051285,
    "lng": 134.7896661,
    "tel": "0799-33-0503",
    "url": "http://www.hwc.or.jp/sumoto/index.html",
    "pref": "兵庫県",
    "city": "洲本市",
    "category": "tokuyou",
    "serviceType": "介護老人福祉施設",
    "capacity": 0,
    "openDays": [],
    "openDaysNote": ""
  },
  {
    "id": "2871500118",
    "name": "特別養護老人ホームたちばな苑",
    "kana": "トクベツヨウゴロウジンホームタチバナエン",
    "address": "兵庫県洲本市由良1丁目6番7号",
    "lat": 34.287322,
    "lng": 134.9451053,
    "tel": "0799-27-0146",
    "url": "http://www.sumoto-tachibana.or.jp",
    "pref": "兵庫県",
    "city": "洲本市",
    "category": "tokuyou",
    "serviceType": "介護老人福祉施設",
    "capacity": 0,
    "openDays": [],
    "openDaysNote": ""
  },
  {
    "id": "2871500530",
    "name": "特別養護老人ホーム淡路ふくろうの郷",
    "kana": "トクベツヨウゴロウジンホームアワジフクロウノサト",
    "address": "兵庫県洲本市中川原町中川原28-1",
    "lat": 34.3719705,
    "lng": 134.8715953,
    "tel": "799258550",
    "url": "https://hyoufuku.main.jp/",
    "pref": "兵庫県",
    "city": "洲本市",
    "category": "tokuyou",
    "serviceType": "介護老人福祉施設",
    "capacity": 0,
    "openDays": [],
    "openDaysNote": ""
  },
  {
    "id": "2871900342",
    "name": "高齢者総合ケア福祉施設ふたばの里",
    "kana": "コウレイシャソウゴウケアフクシシセツフタバノサト",
    "address": "小野市二葉町８０番地の１２３",
    "lat": 34.8395001,
    "lng": 134.9465281,
    "tel": "0794-70-0200",
    "url": "https://hinode.or.jp/establishment/futabanosato/",
    "pref": "兵庫県",
    "city": "小野市",
    "category": "tokuyou",
    "serviceType": "介護老人福祉施設",
    "capacity": 0,
    "openDays": [],
    "openDaysNote": ""
  },
  {
    "id": "2871900664",
    "name": "特別養護老人ホーム　なごみの杜",
    "kana": "トクベツヨウゴロウジンホーム　ナゴミノモリ",
    "address": "兵庫県小野市天神町973番",
    "lat": 34.8450718,
    "lng": 134.9424477,
    "tel": "0794-62-0753",
    "url": "http://www.nagomi.eikofukushi2007.or.jp/",
    "pref": "兵庫県",
    "city": "小野市",
    "category": "tokuyou",
    "serviceType": "介護老人福祉施設",
    "capacity": 0,
    "openDays": [],
    "openDaysNote": ""
  },
  {
    "id": "2871900086",
    "name": "特別養護老人ホーム　粟生逢花苑",
    "kana": "トクベツヨウゴロウジンホーム　アオオウカエン",
    "address": "小野市粟生町字前田３６１０－１",
    "lat": 34.8569378161292,
    "lng": 134.908455800447,
    "tel": "0794-65-2800",
    "url": "http://www.aoyama-med.gr.jp/ontokuwelfare/",
    "pref": "兵庫県",
    "city": "小野市",
    "category": "tokuyou",
    "serviceType": "介護老人福祉施設",
    "capacity": null,
    "openDays": [],
    "openDaysNote": ""
  },
  {
    "id": "2871900789",
    "name": "特別養護老人ホームくつろぎの杜",
    "kana": "トクベツヨウゴロウジンホームクツロギノモリ",
    "address": "兵庫県小野市市場町926番462",
    "lat": 34.8297107328724,
    "lng": 134.953587365221,
    "tel": "0794-62-1560",
    "url": "http://www.yasuragi-swc.or.jp",
    "pref": "兵庫県",
    "city": "小野市",
    "category": "tokuyou",
    "serviceType": "介護老人福祉施設",
    "capacity": null,
    "openDays": [],
    "openDaysNote": ""
  },
  {
    "id": "2871900078",
    "name": "特別養護老人ホーム青山荘",
    "kana": "トクベツヨウゴロウジンホームセイザンソウ",
    "address": "兵庫県小野市復井町673番地20",
    "lat": 34.9001599007426,
    "lng": 134.934782942328,
    "tel": "0794-66-7305",
    "url": "http://seizansou.or.jp/",
    "pref": "兵庫県",
    "city": "小野市",
    "category": "tokuyou",
    "serviceType": "介護老人福祉施設",
    "capacity": null,
    "openDays": [],
    "openDaysNote": ""
  },
  {
    "id": "2873900183",
    "name": "特別養護老人ホーム　野桑の里",
    "kana": "トクベツヨウゴロウジンホーム　ノグワノサト",
    "address": "兵庫県赤穂郡上郡町野桑3027番地",
    "lat": 34.8948059,
    "lng": 134.389569,
    "tel": "0791-57-7000",
    "url": "https://youandi.takaminefukushikai.com/高齢者支援/野桑の里",
    "pref": "兵庫県",
    "city": "上郡町",
    "category": "tokuyou",
    "serviceType": "介護老人福祉施設",
    "capacity": 50,
    "openDays": [],
    "openDaysNote": ""
  },
  {
    "id": "2873900050",
    "name": "特別養護老人ホームほうらいの里",
    "kana": "トクベツヨウゴロウジンホームホウライノサト",
    "address": "兵庫県赤穂郡上郡町中野1118番地1",
    "lat": 34.8562546,
    "lng": 134.3933281,
    "tel": "0791-52-5900",
    "url": "http://www.hohrainosato.com/",
    "pref": "兵庫県",
    "city": "上郡町",
    "category": "tokuyou",
    "serviceType": "介護老人福祉施設",
    "capacity": 0,
    "openDays": [],
    "openDaysNote": ""
  },
  {
    "id": "2874700467",
    "name": "特別養護老人ホーム　はまさかの里",
    "kana": "トクベツヨウゴロウジンホーム　ハマサカノサト",
    "address": "兵庫県美方郡新温泉町戸田１７５－１",
    "lat": 35.6176352,
    "lng": 134.4715371,
    "tel": "0796-82-5533",
    "url": "http://www.shotokukai-th.or.jp/",
    "pref": "兵庫県",
    "city": "新温泉町",
    "category": "tokuyou",
    "serviceType": "介護老人福祉施設",
    "capacity": 60,
    "openDays": [],
    "openDaysNote": ""
  },
  {
    "id": "2874700087",
    "name": "特別養護老人ホーム　ゆむら",
    "kana": "トクベツヨウゴロウジンホーム　ユムラ",
    "address": "兵庫県美方郡新温泉町歌長字熊田６００番地",
    "lat": 35.546263,
    "lng": 134.5015489,
    "tel": "0796-92-2520",
    "url": "https://tokuyo-yumura.com/",
    "pref": "兵庫県",
    "city": "新温泉町",
    "category": "tokuyou",
    "serviceType": "介護老人福祉施設",
    "capacity": 0,
    "openDays": [],
    "openDaysNote": ""
  },
  {
    "id": "2874700525",
    "name": "特別養護老人ホームやすらぎの里",
    "kana": "トクベツヨウゴロウジンホームヤスラギノサト",
    "address": "兵庫県美方郡新温泉町湯３２２",
    "lat": 35.5519897457076,
    "lng": 134.486589462848,
    "tel": "796920351",
    "url": "http://www.tokuwakai.jp/",
    "pref": "兵庫県",
    "city": "新温泉町",
    "category": "tokuyou",
    "serviceType": "介護老人福祉施設",
    "capacity": 80,
    "openDays": [],
    "openDaysNote": ""
  },
  {
    "id": "2873400218",
    "name": "特別養護老人ホーム　あやめ苑",
    "kana": "トクベツヨウゴロウジンホーム　アヤメエン",
    "address": "兵庫県神崎郡神河町比延２７７",
    "lat": 35.0603045,
    "lng": 134.7401697,
    "tel": "0790-34-1800",
    "url": "http://kourin-ayame.or.jp/",
    "pref": "兵庫県",
    "city": "神河町",
    "category": "tokuyou",
    "serviceType": "介護老人福祉施設",
    "capacity": 0,
    "openDays": [],
    "openDaysNote": ""
  },
  {
    "id": "2873400176",
    "name": "特別養護老人ホーム　うぐいす荘",
    "kana": "トクベツヨウゴロウジンホーム　ウグイスソウ",
    "address": "兵庫県神崎郡神河町福本字中茶屋山１２４１－３",
    "lat": 35.058386,
    "lng": 134.7710638,
    "tel": "0790-32-2257",
    "url": "http://www.hujyu-kai.or.jp/",
    "pref": "兵庫県",
    "city": "神河町",
    "category": "tokuyou",
    "serviceType": "介護老人福祉施設",
    "capacity": 0,
    "openDays": [],
    "openDaysNote": ""
  },
  {
    "id": "2870702343",
    "name": "KOBE須磨きらくえん",
    "kana": "コウベスマキラクエン",
    "address": "神戸市須磨区車字菅ノ池1351-14",
    "lat": 34.6817382,
    "lng": 135.10946,
    "tel": "078-747-3001",
    "url": "http://www.kirakuen.or.jp/",
    "pref": "兵庫県",
    "city": "神戸市須磨区",
    "category": "tokuyou",
    "serviceType": "介護老人福祉施設",
    "capacity": 100,
    "openDays": [],
    "openDaysNote": ""
  },
  {
    "id": "2870700248",
    "name": "介護老人福祉施設　友が丘YUAI",
    "kana": "カイゴロウジンフクシシセツ　トモガオカユウアイ",
    "address": "神戸市須磨区友が丘３丁目１２６番地",
    "lat": 34.6653035,
    "lng": 135.0959366,
    "tel": "078-792-2340",
    "url": "http://www.kitasumahoiku-center.or.jp/yuai/",
    "pref": "兵庫県",
    "city": "神戸市須磨区",
    "category": "tokuyou",
    "serviceType": "介護老人福祉施設",
    "capacity": 0,
    "openDays": [],
    "openDaysNote": ""
  },
  {
    "id": "2870700255",
    "name": "神港園サニーライフ白川",
    "kana": "シンコウエンサニーライフシラカワ",
    "address": "兵庫県神戸市須磨区白川台1丁目35-3",
    "lat": 34.6896094,
    "lng": 135.0952447,
    "tel": "078-793-8071",
    "url": "https://www.shinkouen.or.jp/shisetsu/shirakawa.html",
    "pref": "兵庫県",
    "city": "神戸市須磨区",
    "category": "tokuyou",
    "serviceType": "介護老人福祉施設",
    "capacity": 50,
    "openDays": [],
    "openDaysNote": ""
  },
  {
    "id": "2870701329",
    "name": "特別養護老人ホーム　須磨シニアコミュニティ",
    "kana": "トクベツヨウゴロウジンホウム　スマシニアコミュニテイ",
    "address": "神戸市須磨区外浜町３－３－１８",
    "lat": 34.6431617,
    "lng": 135.1352726,
    "tel": "078-737-3737",
    "url": "http://www.yoneda-hospital.com/suma/",
    "pref": "兵庫県",
    "city": "神戸市須磨区",
    "category": "tokuyou",
    "serviceType": "介護老人福祉施設",
    "capacity": 0,
    "openDays": [],
    "openDaysNote": ""
  },
  {
    "id": "2870702038",
    "name": "特別養護老人ホーム　宙カミーノ",
    "kana": "トクベツヨウゴロウジンホーム　ソラカミーノ",
    "address": "兵庫県神戸市須磨区神の谷５－２－２",
    "lat": 34.6892315,
    "lng": 135.0847624,
    "tel": "078-797-7002",
    "url": "http://soracamino.com/",
    "pref": "兵庫県",
    "city": "神戸市須磨区",
    "category": "tokuyou",
    "serviceType": "介護老人福祉施設",
    "capacity": 88,
    "openDays": [],
    "openDaysNote": ""
  },
  {
    "id": "2870700453",
    "name": "特別養護老人ホーム　離宮しあわせ荘",
    "kana": "トクベツヨウゴロウジンホーム　リキュウシアワセソウ",
    "address": "神戸市須磨区離宮西町２丁目２番３号",
    "lat": 34.6520414,
    "lng": 135.116038,
    "tel": "078-731-4164",
    "url": "http://www.rikyu-s.jp",
    "pref": "兵庫県",
    "city": "神戸市須磨区",
    "category": "tokuyou",
    "serviceType": "介護老人福祉施設",
    "capacity": 0,
    "openDays": [],
    "openDaysNote": ""
  },
  {
    "id": "2870700230",
    "name": "特別養護老人ホームあいハート須磨",
    "kana": "トクベツヨウゴロウジンホ－ムアイハートスマ",
    "address": "神戸市須磨区松風町４丁目２－２６",
    "lat": 34.6482168,
    "lng": 135.1267593,
    "tel": "078-737-2525",
    "url": "http://www.ai-heart-suma.or.jp",
    "pref": "兵庫県",
    "city": "神戸市須磨区",
    "category": "tokuyou",
    "serviceType": "介護老人福祉施設",
    "capacity": 70,
    "openDays": [],
    "openDaysNote": ""
  },
  {
    "id": "2870700222",
    "name": "特別養護老人ホーム愛の園",
    "kana": "トクベツヨウゴロウジンホームアイノソノ",
    "address": "神戸市須磨区妙法寺字野路山1053",
    "lat": 34.6829383,
    "lng": 135.1211644,
    "tel": "078-741-8750",
    "url": "https://ainosono.jp",
    "pref": "兵庫県",
    "city": "神戸市須磨区",
    "category": "tokuyou",
    "serviceType": "介護老人福祉施設",
    "capacity": 0,
    "openDays": [],
    "openDaysNote": ""
  },
  {
    "id": "2870700834",
    "name": "特別養護老人ホーム須磨浦の里",
    "kana": "トクベツヨウゴロウジホームスマウラノサト",
    "address": "神戸市須磨区一ノ谷町３丁目３番２１号",
    "lat": 34.6404897,
    "lng": 135.1012758,
    "tel": "078-732-4165",
    "url": "http:sumauranosato.jp",
    "pref": "兵庫県",
    "city": "神戸市須磨区",
    "category": "tokuyou",
    "serviceType": "介護老人福祉施設",
    "capacity": 60,
    "openDays": [],
    "openDaysNote": ""
  },
  {
    "id": "2870804164",
    "name": "ケアホーム神戸垂水ちどり",
    "kana": "ケアホームコウベタルミチドリ",
    "address": "高丸6丁目7番2号",
    "lat": 34.6400909,
    "lng": 135.0561329,
    "tel": "078-786-3755",
    "url": "https://www.chidori.or.jp",
    "pref": "兵庫県",
    "city": "神戸市垂水区",
    "category": "tokuyou",
    "serviceType": "介護老人福祉施設",
    "capacity": 0,
    "openDays": [],
    "openDaysNote": ""
  },
  {
    "id": "2870803398",
    "name": "さん舞子神港園いこいの家",
    "kana": "サンマイコシンコウエンイコイノイエ",
    "address": "兵庫県神戸市垂水区五色山７丁目１２－３８",
    "lat": 34.6301236,
    "lng": 135.0397088,
    "tel": "０７８－７０４－１２２１",
    "url": "http://www.shinkouen.or.jp",
    "pref": "兵庫県",
    "city": "神戸市垂水区",
    "category": "tokuyou",
    "serviceType": "介護老人福祉施設",
    "capacity": 50,
    "openDays": [],
    "openDaysNote": ""
  },
  {
    "id": "2870803794",
    "name": "介護老人福祉施設　エクレ小束台",
    "kana": "カイゴロウジンフクシシセツ　エクレコヅカダイ",
    "address": "兵庫県神戸市垂水区小束台868-1134",
    "lat": 34.6732755469949,
    "lng": 135.054463413492,
    "tel": "078-794-2700",
    "url": "www.kouyukai.jp",
    "pref": "兵庫県",
    "city": "神戸市垂水区",
    "category": "tokuyou",
    "serviceType": "介護老人福祉施設",
    "capacity": 0,
    "openDays": [],
    "openDaysNote": ""
  },
  {
    "id": "2870800568",
    "name": "介護老人福祉施設　舞子台ホーム",
    "kana": "カイゴロウジンフクシシセツ　マイコダイホーム",
    "address": "兵庫県神戸市垂水区舞子台７丁目２番１号",
    "lat": 34.6398624241665,
    "lng": 135.042006379237,
    "tel": "078-785-8666",
    "url": "http://maikodaihome.jp",
    "pref": "兵庫県",
    "city": "神戸市垂水区",
    "category": "tokuyou",
    "serviceType": "介護老人福祉施設",
    "capacity": 0,
    "openDays": [],
    "openDaysNote": ""
  },
  {
    "id": "2870800238",
    "name": "特別養護老人ホーム　オービーホーム",
    "kana": "トクベツヨウゴロウジンホーム　オービーホーム",
    "address": "兵庫県神戸市垂水区名谷町字猿倉２７３－７",
    "lat": 34.6497935661497,
    "lng": 135.063171946558,
    "tel": "078-706-9488",
    "url": "http://www.obh2525.or.jp",
    "pref": "兵庫県",
    "city": "神戸市垂水区",
    "category": "tokuyou",
    "serviceType": "介護老人福祉施設",
    "capacity": 50,
    "openDays": [],
    "openDaysNote": ""
  },
  {
    "id": "2870804214",
    "name": "特別養護老人ホーム　オービーホーム高丸",
    "kana": "トクベツヨウゴロウジンホーム　オービーホームタカマル",
    "address": "兵庫県神戸市垂水区上高丸３丁目７－２２",
    "lat": 34.6459193,
    "lng": 135.0537988,
    "tel": "078-754-8522",
    "url": "http://obh2525.or.jp",
    "pref": "兵庫県",
    "city": "神戸市垂水区",
    "category": "tokuyou",
    "serviceType": "介護老人福祉施設",
    "capacity": 80,
    "openDays": [],
    "openDaysNote": ""
  },
  {
    "id": "2870800394",
    "name": "特別養護老人ホーム　ファボール星陵",
    "kana": "トクベツヨウゴロウジンホームファボールセイリョウ",
    "address": "神戸市垂水区星陵台４丁目４番４３号",
    "lat": 34.6476913,
    "lng": 135.0481357,
    "tel": "078-787-7377",
    "url": "http://kyowakai.main.jp/",
    "pref": "兵庫県",
    "city": "神戸市垂水区",
    "category": "tokuyou",
    "serviceType": "介護老人福祉施設",
    "capacity": 58,
    "openDays": [],
    "openDaysNote": ""
  },
  {
    "id": "2870802069",
    "name": "特別養護老人ホーム　メープルホーム",
    "kana": "トクベツヨウゴロウジンホーム　メープルホーム",
    "address": "兵庫県神戸市垂水区名谷町大谷１９０５－1特別養護老人ホームメープルホーム 特別養護老人ホームメープルホーム",
    "lat": 34.6640151393053,
    "lng": 135.069924935057,
    "tel": "078-794-6584",
    "url": "http://haganosato.jp",
    "pref": "兵庫県",
    "city": "神戸市垂水区",
    "category": "tokuyou",
    "serviceType": "介護老人福祉施設",
    "capacity": 0,
    "openDays": [],
    "openDaysNote": ""
  },
  {
    "id": "2870800246",
    "name": "特別養護老人ホーム　桃山台ホーム",
    "kana": "トクベツヨウゴロウジンホーム　モモヤマダイホーム",
    "address": "神戸市垂水区桃山台5丁目1139番地3",
    "lat": 34.6570488,
    "lng": 135.0852295,
    "tel": "078-751-0006",
    "url": "http://www.momoyamadaihome.jp/",
    "pref": "兵庫県",
    "city": "神戸市垂水区",
    "category": "tokuyou",
    "serviceType": "介護老人福祉施設",
    "capacity": 56,
    "openDays": [],
    "openDaysNote": ""
  },
  {
    "id": "2870804115",
    "name": "特別養護老人ホームオレンジ神戸",
    "kana": "トクベツヨウゴロウジンホームオレンジコウベ",
    "address": "兵庫県神戸市垂水区舞子台4丁目9ー11特別養護老人ホームオレンジ神戸 特別養護老人ホームオレンジ神戸",
    "lat": 34.6389586,
    "lng": 135.0372989,
    "tel": "078‐782-3030",
    "url": "orangegroup-swc.com",
    "pref": "兵庫県",
    "city": "神戸市垂水区",
    "category": "tokuyou",
    "serviceType": "介護老人福祉施設",
    "capacity": 0,
    "openDays": [],
    "openDaysNote": ""
  },
  {
    "id": "2870800493",
    "name": "特別養護老人ホームふるさと",
    "kana": "トクベツヨウゴロウジンホームフルサト",
    "address": "兵庫県神戸市垂水区塩屋町6丁目38番8号",
    "lat": 34.6361596,
    "lng": 135.0739283,
    "tel": "078-752-8349",
    "url": "http://www.tokuyo-furusato.or.jp/",
    "pref": "兵庫県",
    "city": "神戸市垂水区",
    "category": "tokuyou",
    "serviceType": "介護老人福祉施設",
    "capacity": 0,
    "openDays": [],
    "openDaysNote": ""
  },
  {
    "id": "2870802077",
    "name": "特別養護老人ホーム塩屋さくら苑",
    "kana": "トクベツヨウゴロウジンホーム　シオヤサクラエン",
    "address": "神戸市垂水区塩屋町4丁目25-11",
    "lat": 34.6367151,
    "lng": 135.0804166,
    "tel": "078-755-5671",
    "url": "https://kobechuofukusikai.net/shioyasakuraen/",
    "pref": "兵庫県",
    "city": "神戸市垂水区",
    "category": "tokuyou",
    "serviceType": "介護老人福祉施設",
    "capacity": 0,
    "openDays": [],
    "openDaysNote": ""
  },
  {
    "id": "2870800253",
    "name": "本多聞ケアホーム",
    "kana": "ホンタモンケアホーム",
    "address": "神戸市垂水区本多聞７－２－２",
    "lat": 34.6518323,
    "lng": 135.0430582,
    "tel": "078-786-1865",
    "url": "http://hontamon.jp/",
    "pref": "兵庫県",
    "city": "神戸市垂水区",
    "category": "tokuyou",
    "serviceType": "介護老人福祉施設",
    "capacity": 80,
    "openDays": [],
    "openDaysNote": ""
  },
  {
    "id": "2875200301",
    "name": "神港園シルビアホーム",
    "kana": "シンコウエンシルビアホーム",
    "address": "神戸市西区神出町東1188-345",
    "lat": 34.7572867,
    "lng": 135.0197025,
    "tel": "078-965-1407",
    "url": "http://www.shinkouen.or.jp",
    "pref": "兵庫県",
    "city": "神戸市西区",
    "category": "tokuyou",
    "serviceType": "介護老人福祉施設",
    "capacity": 0,
    "openDays": [],
    "openDaysNote": ""
  },
  {
    "id": "2875200327",
    "name": "特別養護法人ホーム　透鹿園",
    "kana": "トクベツヨウゴロウジンホーム　トウカエン",
    "address": "兵庫県神戸市西区平野町常本309-5",
    "lat": 34.721135,
    "lng": 134.9841094,
    "tel": "078-961-2335",
    "url": "http://www.hakuyusya.jp/",
    "pref": "兵庫県",
    "city": "神戸市西区",
    "category": "tokuyou",
    "serviceType": "介護老人福祉施設",
    "capacity": 50,
    "openDays": [],
    "openDaysNote": ""
  },
  {
    "id": "2875203198",
    "name": "特別養護老人ﾎｰﾑ　ラグナケア春日台",
    "kana": "トクベツヨウゴロウジンホーム　ラグナケアカスガダイ",
    "address": "神戸市西区春日台７丁目４５番２号",
    "lat": 34.7086779,
    "lng": 134.9907616,
    "tel": "０７８－９６３－３４００",
    "url": "http://houonkai.jp/",
    "pref": "兵庫県",
    "city": "神戸市西区",
    "category": "tokuyou",
    "serviceType": "介護老人福祉施設",
    "capacity": 80,
    "openDays": [],
    "openDaysNote": ""
  },
  {
    "id": "2875200673",
    "name": "特別養護老人ホーム　サンビラこうべ",
    "kana": "トクベツヨウゴロウジンホーム　サンビラコウベ",
    "address": "兵庫県神戸市西区神出町宝勢774番地の39特別養護老人ホーム　サンビラこうべ 特別養護老人ホーム　サンビラこうべ",
    "lat": 34.7291482,
    "lng": 134.9725438,
    "tel": "078-964-3838",
    "url": "https://www.ontoku.or.jp/facilities/sunvilla-home/",
    "pref": "兵庫県",
    "city": "神戸市西区",
    "category": "tokuyou",
    "serviceType": "介護老人福祉施設",
    "capacity": 100,
    "openDays": [],
    "openDaysNote": ""
  },
  {
    "id": "2875200343",
    "name": "特別養護老人ホーム　サンホーム神戸西",
    "kana": "トクベツヨウゴロウジンホーム　サンホームコウベニシ",
    "address": "神戸市西区平野町印路８８７－８",
    "lat": 34.7166021,
    "lng": 134.9649723,
    "tel": "078-961-5200",
    "url": "http://www.kobe-hinode.or.jp",
    "pref": "兵庫県",
    "city": "神戸市西区",
    "category": "tokuyou",
    "serviceType": "介護老人福祉施設",
    "capacity": 0,
    "openDays": [],
    "openDaysNote": ""
  },
  {
    "id": "2875200335",
    "name": "特別養護老人ホーム　花園ホーム",
    "kana": "トクベツヨウゴロウジンホーム　ハナゾノホーム",
    "address": "兵庫県神戸市西区平野町慶明字花岡77",
    "lat": 34.6919575,
    "lng": 134.9843486,
    "tel": "078-924-0300",
    "url": "http://hanazono-h.com/links.html",
    "pref": "兵庫県",
    "city": "神戸市西区",
    "category": "tokuyou",
    "serviceType": "介護老人福祉施設",
    "capacity": 100,
    "openDays": [],
    "openDaysNote": ""
  },
  {
    "id": "2875204329",
    "name": "特別養護老人ホーム　三芳苑",
    "kana": "トクベツヨウゴロウジンホーム　サンポウエン",
    "address": "兵庫県神戸市西区伊川谷町潤和1447‐1",
    "lat": 34.662919,
    "lng": 135.0040003,
    "tel": "078‐975‐0500",
    "url": "http://www.syofukai.jp",
    "pref": "兵庫県",
    "city": "神戸市西区",
    "category": "tokuyou",
    "serviceType": "介護老人福祉施設",
    "capacity": 0,
    "openDays": [],
    "openDaysNote": ""
  },
  {
    "id": "2875200368",
    "name": "特別養護老人ホーム　神出シニアコミュニティ",
    "kana": "トクベツヨウゴロウジンホーム　カンデシニアコミュニティ",
    "address": "兵庫県神戸市西区神出町南字谷畑３６８－１１９",
    "lat": 34.7441994,
    "lng": 134.9987743,
    "tel": "078-965-3080",
    "url": "http://www.yoneda-hpspital.com/",
    "pref": "兵庫県",
    "city": "神戸市西区",
    "category": "tokuyou",
    "serviceType": "介護老人福祉施設",
    "capacity": 100,
    "openDays": [],
    "openDaysNote": ""
  },
  {
    "id": "2875204196",
    "name": "特別養護老人ホーム　大慈智音園",
    "kana": "トクベツヨウゴロウジンホームダイジチオンエン",
    "address": "玉津町今津364-61大慈智音園 大慈智音園",
    "lat": 34.6778314,
    "lng": 134.9933455,
    "tel": "078-913-0065",
    "url": "http://www.daijien.com",
    "pref": "兵庫県",
    "city": "神戸市西区",
    "category": "tokuyou",
    "serviceType": "介護老人福祉施設",
    "capacity": 10,
    "openDays": [],
    "openDaysNote": ""
  },
  {
    "id": "2875200350",
    "name": "特別養護老人ホーム　大慈弥勒園",
    "kana": "トクベツヨウゴロウジンホームダイジミロクエン",
    "address": "神戸市西区櫨谷町長谷13-1",
    "lat": 34.7057512,
    "lng": 135.0237391,
    "tel": "078-992-0065",
    "url": "http://www.daijien.com",
    "pref": "兵庫県",
    "city": "神戸市西区",
    "category": "tokuyou",
    "serviceType": "介護老人福祉施設",
    "capacity": 100,
    "openDays": [],
    "openDaysNote": ""
  },
  {
    "id": "2875200137",
    "name": "特別養護老人ホーム　萬寿園",
    "kana": "トクベツヨウゴロウジンホーム　マンジュエン",
    "address": "兵庫県神戸市西区神出町小束野５８番地の９２特別養護老人ホーム　萬寿園 特別養護老人ホーム　萬寿園",
    "lat": 34.77246,
    "lng": 134.9876831,
    "tel": "078-965-2218",
    "url": "https://www.kobe-manjuen.or.jp/",
    "pref": "兵庫県",
    "city": "神戸市西区",
    "category": "tokuyou",
    "serviceType": "介護老人福祉施設",
    "capacity": 100,
    "openDays": [],
    "openDaysNote": ""
  },
  {
    "id": "2875204709",
    "name": "特別養護老人ホームときわ",
    "kana": "トクベツヨウゴロウジンホームトキワ",
    "address": "兵庫県神戸市西区前開南町二丁目１番１２号",
    "lat": 34.685647,
    "lng": 135.047048,
    "tel": "078-974-1515",
    "url": "https://kobe-senshinkai.or.jp/senshinkai/",
    "pref": "兵庫県",
    "city": "神戸市西区",
    "category": "tokuyou",
    "serviceType": "介護老人福祉施設",
    "capacity": 0,
    "openDays": [],
    "openDaysNote": ""
  },
  {
    "id": "2875200319",
    "name": "特別養護老人ホーム永栄園",
    "kana": "トクベツヨウゴロウジンホーム　ナガサカエン",
    "address": "神戸市西区伊川谷町長坂800番地",
    "lat": 34.6721852,
    "lng": 135.033517,
    "tel": "078-974-4812",
    "url": "http://www.kobe-fukuseikai.com",
    "pref": "兵庫県",
    "city": "神戸市西区",
    "category": "tokuyou",
    "serviceType": "介護老人福祉施設",
    "capacity": 100,
    "openDays": [],
    "openDaysNote": ""
  },
  {
    "id": "2875205078",
    "name": "特別養護老人ホーム岩岡の郷",
    "kana": "トクベツヨウゴロウジンホームイワオカノサト",
    "address": "神戸市西区岩岡町岩岡656-2",
    "lat": 34.7171792,
    "lng": 134.9465519,
    "tel": "078-967-5566",
    "url": "https://www.chikusakai.jp/",
    "pref": "兵庫県",
    "city": "神戸市西区",
    "category": "tokuyou",
    "serviceType": "介護老人福祉施設",
    "capacity": 0,
    "openDays": [],
    "openDaysNote": ""
  },
  {
    "id": "2875200863",
    "name": "特別養護老人ホーム西神の里",
    "kana": "トクベツヨウゴロウジンホームセイシンノサト",
    "address": "兵庫県神戸市西区岩岡町古郷２８８８番地",
    "lat": 34.7253041,
    "lng": 134.9230893,
    "tel": "078-967-7151",
    "url": "http://www.seishinnosato.jp/",
    "pref": "兵庫県",
    "city": "神戸市西区",
    "category": "tokuyou",
    "serviceType": "介護老人福祉施設",
    "capacity": 83,
    "openDays": [],
    "openDaysNote": ""
  },
  {
    "id": "2875204873",
    "name": "特別養護老人ホーム櫻ホーム西神",
    "kana": "トクベツヨウゴロウジンホームサクラホームセイシン",
    "address": "兵庫県神戸市西区月が丘1丁目41-12",
    "lat": 34.7561036840711,
    "lng": 135.051795111639,
    "tel": "078-995-7145",
    "url": "https://seishin.sakuradani-fukushikai.com/",
    "pref": "兵庫県",
    "city": "神戸市西区",
    "category": "tokuyou",
    "serviceType": "介護老人福祉施設",
    "capacity": 0,
    "openDays": [],
    "openDaysNote": ""
  },
  {
    "id": "2875100410",
    "name": "ケアポート神戸",
    "kana": "ケアポートコウベ",
    "address": "兵庫県神戸市中央区脇浜海岸通3-2-6",
    "lat": 34.6953605,
    "lng": 135.207235,
    "tel": "078-221-1515",
    "url": "http://www.yasuragi-swc.or.jp/careport/index.html",
    "pref": "兵庫県",
    "city": "神戸市中央区",
    "category": "tokuyou",
    "serviceType": "介護老人福祉施設",
    "capacity": null,
    "openDays": [],
    "openDaysNote": ""
  },
  {
    "id": "2875100931",
    "name": "社会福祉法人明倫福祉会　介護老人福祉施設　ぽー愛",
    "kana": "シャカイフクシホウジンメイリンフクシカイカイゴロウジンフクシシセツポーアイ",
    "address": "兵庫県神戸市中央区港島中町５－２",
    "lat": 34.6638886,
    "lng": 135.2091301,
    "tel": "078-303-0600",
    "url": "http//:www.meirinfukushi.or.jp",
    "pref": "兵庫県",
    "city": "神戸市中央区",
    "category": "tokuyou",
    "serviceType": "介護老人福祉施設",
    "capacity": 0,
    "openDays": [],
    "openDaysNote": ""
  },
  {
    "id": "2875102788",
    "name": "神戸海岸特養ケアセンター　特別養護老人ホーム",
    "kana": "コウベカイガントクヨウケアセンター　トクベツヨウゴロウジンホーム",
    "address": "神戸市中央区磯辺通1丁目1-28",
    "lat": 34.6908657486673,
    "lng": 135.200277803041,
    "tel": "078-252-3003",
    "url": "http://www.kobekaigan-tokuyou.com/index.html",
    "pref": "兵庫県",
    "city": "神戸市中央区",
    "category": "tokuyou",
    "serviceType": "介護老人福祉施設",
    "capacity": 0,
    "openDays": [],
    "openDaysNote": ""
  },
  {
    "id": "2875100394",
    "name": "特別養護老人ホーム　オリンピア",
    "kana": "トクベツヨウゴロウジンホーム　オリンピア",
    "address": "兵庫県神戸市中央区生田町1丁目２－３２",
    "lat": 34.703729640504,
    "lng": 135.196428581615,
    "tel": "078-221-7098",
    "url": "http://www.olympia.or.jp",
    "pref": "兵庫県",
    "city": "神戸市中央区",
    "category": "tokuyou",
    "serviceType": "介護老人福祉施設",
    "capacity": 0,
    "openDays": [],
    "openDaysNote": ""
  },
  {
    "id": "2875101004",
    "name": "特別養護老人ホーム山手さくら苑",
    "kana": "トクベツヨウゴロウジンホームヤマテサクラエン",
    "address": "神戸市中央区下山手通7丁目１番１６号",
    "lat": 34.6881648205196,
    "lng": 135.178941715344,
    "tel": "078-367-3780",
    "url": "http://kobechuofukusikai.net",
    "pref": "兵庫県",
    "city": "神戸市中央区",
    "category": "tokuyou",
    "serviceType": "介護老人福祉施設",
    "capacity": 0,
    "openDays": [],
    "openDaysNote": ""
  },
  {
    "id": "2870600414",
    "name": "ふれあいホーム",
    "kana": "フレアイホーム",
    "address": "兵庫県神戸市長田区三番町１丁目４－１",
    "lat": 34.6702205,
    "lng": 135.1576032,
    "tel": "078-515-8200",
    "url": "https://www.kobe-salvia.or.jp/",
    "pref": "兵庫県",
    "city": "神戸市長田区",
    "category": "tokuyou",
    "serviceType": "介護老人福祉施設",
    "capacity": 50,
    "openDays": [],
    "openDaysNote": ""
  },
  {
    "id": "2870600125",
    "name": "長田ケアホーム",
    "kana": "ナガタケアホーム",
    "address": "神戸市長田区北町３丁目３番地",
    "lat": 34.6654708,
    "lng": 135.1517177,
    "tel": "078-575-8777",
    "url": "http://www.kobe-fukuseikai.com/html/03top.html",
    "pref": "兵庫県",
    "city": "神戸市長田区",
    "category": "tokuyou",
    "serviceType": "介護老人福祉施設",
    "capacity": 50,
    "openDays": [],
    "openDaysNote": ""
  },
  {
    "id": "2870603616",
    "name": "特別養護老人ホーム　雲雀丘すみれ園",
    "kana": "トクベツヨウゴロウジンホ-ムヒバリガオカスミレエン",
    "address": "兵庫県神戸市長田区雲雀ヶ丘1丁目１番2号",
    "lat": 34.6912471403002,
    "lng": 135.134715806746,
    "tel": "078-631-9908",
    "url": "http://www.sumire.or.jp",
    "pref": "兵庫県",
    "city": "神戸市長田区",
    "category": "tokuyou",
    "serviceType": "介護老人福祉施設",
    "capacity": 100,
    "openDays": [],
    "openDaysNote": ""
  },
  {
    "id": "2870600299",
    "name": "特別養護老人ホーム　故郷の家・神戸",
    "kana": "トクベツヨウゴロウジンホーム　コキョウノイエ・コウベ",
    "address": "神戸市長田区東尻池町7-4-21",
    "lat": 34.6558078,
    "lng": 135.157037,
    "tel": "078-651-1555",
    "url": "http://www.kokorono.or.jp",
    "pref": "兵庫県",
    "city": "神戸市長田区",
    "category": "tokuyou",
    "serviceType": "介護老人福祉施設",
    "capacity": 0,
    "openDays": [],
    "openDaysNote": ""
  },
  {
    "id": "2870603079",
    "name": "特別養護老人ホーム　神戸まどか園",
    "kana": "トクベツヨウゴロウジンホーム　コウベマドカエン",
    "address": "兵庫県神戸市長田区大丸町1丁目5番1号",
    "lat": 34.6764865,
    "lng": 135.150726,
    "tel": "078－646－3111",
    "url": "https://www.shoukyu.com/",
    "pref": "兵庫県",
    "city": "神戸市長田区",
    "category": "tokuyou",
    "serviceType": "介護老人福祉施設",
    "capacity": 0,
    "openDays": [],
    "openDaysNote": ""
  },
  {
    "id": "2870600133",
    "name": "特別養護老人ホーム　長田すみれ園",
    "kana": "トクベツヨウゴロウジンホーム　ナガタスミレエン",
    "address": "兵庫県神戸市長田区雲雀ヶ丘1丁目1番3号",
    "lat": 34.6907374528871,
    "lng": 135.134819537314,
    "tel": "078-091-8008",
    "url": "http://www.sumire.or.jp",
    "pref": "兵庫県",
    "city": "神戸市長田区",
    "category": "tokuyou",
    "serviceType": "介護老人福祉施設",
    "capacity": 68,
    "openDays": [],
    "openDaysNote": ""
  },
  {
    "id": "2870600984",
    "name": "特別養護老人ホームふたば",
    "kana": "トクベツヨウゴロウジンホームフタバ",
    "address": "神戸市長田区二葉町5丁目１－１－１０１",
    "lat": 34.6525359,
    "lng": 135.1485961,
    "tel": "078-642-8628",
    "url": "https://komadory.com",
    "pref": "兵庫県",
    "city": "神戸市長田区",
    "category": "tokuyou",
    "serviceType": "介護老人福祉施設",
    "capacity": 0,
    "openDays": [],
    "openDaysNote": ""
  },
  {
    "id": "2870103641",
    "name": "介護老人福祉施設ケアホーム住吉",
    "kana": "カイゴロウジンフクシシセツケアホームスミヨシ",
    "address": "兵庫県神戸市東灘区住吉山手7-1-2",
    "lat": 34.7329326,
    "lng": 135.2532667,
    "tel": "078-858-7588",
    "url": "sumiyoshi@tokuyou.jp",
    "pref": "兵庫県",
    "city": "神戸市東灘区",
    "category": "tokuyou",
    "serviceType": "介護老人福祉施設",
    "capacity": 100,
    "openDays": [],
    "openDaysNote": ""
  },
  {
    "id": "2870103385",
    "name": "特別養護老人ホーム　かもこの風",
    "kana": "トクベツヨウゴロウジンホーム　カモコノカゼ",
    "address": "鴨子ヶ原3丁目19番30号特別養護老人ホーム　かもこの風 特別養護老人ホーム　かもこの風",
    "lat": 34.7332407,
    "lng": 135.249074,
    "tel": "078-858-5070",
    "url": "http://www.krh-sumiyoshi.com/",
    "pref": "兵庫県",
    "city": "神戸市東灘区",
    "category": "tokuyou",
    "serviceType": "介護老人福祉施設",
    "capacity": null,
    "openDays": [],
    "openDaysNote": ""
  },
  {
    "id": "2870100357",
    "name": "特別養護老人ホーム　サンライフ魚崎",
    "kana": "トクベツヨウゴロウジンホーム　サンライフウオザキ",
    "address": "神戸市東灘区魚崎中町４丁目１０番５０号",
    "lat": 34.7152533,
    "lng": 135.2702242,
    "tel": "078-435-6688",
    "url": "https://sunlifeuozaki.jp",
    "pref": "兵庫県",
    "city": "神戸市東灘区",
    "category": "tokuyou",
    "serviceType": "介護老人福祉施設",
    "capacity": 0,
    "openDays": [],
    "openDaysNote": ""
  },
  {
    "id": "2870100225",
    "name": "特別養護老人ホーム　セ・ラ・ヴィ",
    "kana": "トクベツヨウゴロウジンホーム　セ・ラ・ウ゛ィ",
    "address": "神戸市東灘区住吉宮町３－４－１７",
    "lat": 34.7162086,
    "lng": 135.2612389,
    "tel": "078-811-2344",
    "url": "http://www.ninindoshinkai.or.jp",
    "pref": "兵庫県",
    "city": "神戸市東灘区",
    "category": "tokuyou",
    "serviceType": "介護老人福祉施設",
    "capacity": 0,
    "openDays": [],
    "openDaysNote": ""
  },
  {
    "id": "2870100639",
    "name": "特別養護老人ホーム　ロングステージKOBE岡本",
    "kana": "トクベツヨウゴロウジンホーム　ロングステージ　コウベオカモト",
    "address": "神戸市東灘区西岡本2-25-4-101",
    "lat": 34.7241522,
    "lng": 135.2648439,
    "tel": "078-414-0789",
    "url": "http://www.long-stage.com",
    "pref": "兵庫県",
    "city": "神戸市東灘区",
    "category": "tokuyou",
    "serviceType": "介護老人福祉施設",
    "capacity": 0,
    "openDays": [],
    "openDaysNote": ""
  },
  {
    "id": "2870101389",
    "name": "特別養護老人ホーム　ロングステージ御影",
    "kana": "トクベツヨウゴロウジンホーム　ロングステージミカゲ",
    "address": "神戸市東灘区御影石町１－２－１８",
    "lat": 34.7090733,
    "lng": 135.2519898,
    "tel": "078-822-5620",
    "url": "http://www.long-stage.com",
    "pref": "兵庫県",
    "city": "神戸市東灘区",
    "category": "tokuyou",
    "serviceType": "介護老人福祉施設",
    "capacity": 0,
    "openDays": [],
    "openDaysNote": ""
  },
  {
    "id": "2870100233",
    "name": "特別養護老人ホーム　協同の苑六甲アイランド",
    "kana": "トクベツヨウゴロウジンホーム　キョウドウノソノ　ロッコウアイランド",
    "address": "神戸市東灘区向洋町中３丁目１－２",
    "lat": 34.6876754,
    "lng": 135.2751769,
    "tel": "078-857-5088",
    "url": "http://www.kyodo-no-sono.or.jp",
    "pref": "兵庫県",
    "city": "神戸市東灘区",
    "category": "tokuyou",
    "serviceType": "介護老人福祉施設",
    "capacity": 0,
    "openDays": [],
    "openDaysNote": ""
  },
  {
    "id": "2870100258",
    "name": "特別養護老人ホーム　光明苑",
    "kana": "トクベツヨウゴロウジンホーム　コウミョウエン",
    "address": "兵庫県神戸市東灘区住吉本町3丁目7番41号",
    "lat": 34.7240771,
    "lng": 135.2590694,
    "tel": "078-851-2560",
    "url": "http://www.krh-sumiyoshi.com",
    "pref": "兵庫県",
    "city": "神戸市東灘区",
    "category": "tokuyou",
    "serviceType": "介護老人福祉施設",
    "capacity": 57,
    "openDays": [],
    "openDaysNote": ""
  },
  {
    "id": "2870101363",
    "name": "特別養護老人ホーム　友愛苑",
    "kana": "トクベツヨウゴロウジンホーム　ユウアイエン",
    "address": "兵庫県神戸市東灘区鴨子ヶ原２丁目14-17",
    "lat": 34.7342008,
    "lng": 135.2503614,
    "tel": "078-845-3660",
    "url": "http://www.krh-sumiyoshi.com",
    "pref": "兵庫県",
    "city": "神戸市東灘区",
    "category": "tokuyou",
    "serviceType": "介護老人福祉施設",
    "capacity": 0,
    "openDays": [],
    "openDaysNote": ""
  },
  {
    "id": "2870100241",
    "name": "特別養護老人ホームおおぎの郷",
    "kana": "トクベツヨウゴロウジンホームオオギノサト",
    "address": "神戸市東灘区北青木1-1-3",
    "lat": 34.7217167,
    "lng": 135.2865642,
    "tel": "078-431-0001",
    "url": "http://www.chikusakai.jp",
    "pref": "兵庫県",
    "city": "神戸市東灘区",
    "category": "tokuyou",
    "serviceType": "介護老人福祉施設",
    "capacity": 0,
    "openDays": [],
    "openDaysNote": ""
  },
  {
    "id": "2870103476",
    "name": "特別養護老人ホーム芦屋すみれ園",
    "kana": "トクベツヨウゴロウジンホームアシヤスミレエン",
    "address": "兵庫県神戸市東灘区深江南町1丁目1番20号",
    "lat": 34.7195873299439,
    "lng": 135.301820609123,
    "tel": "078-862-9994",
    "url": "https://www.ashiya-sumire.jp/",
    "pref": "兵庫県",
    "city": "神戸市東灘区",
    "category": "tokuyou",
    "serviceType": "介護老人福祉施設",
    "capacity": 80,
    "openDays": [],
    "openDaysNote": ""
  },
  {
    "id": "2870200280",
    "name": "特別養護老人ホーム　ハピータウンKOBE",
    "kana": "トクベツヨウゴロウジンホーム　ハピータウンコウベ",
    "address": "神戸市灘区摩耶海岸通２－３－９",
    "lat": 34.7011047,
    "lng": 135.220517,
    "tel": "078-803-3609",
    "url": "http://hakuyusha.org/",
    "pref": "兵庫県",
    "city": "神戸市灘区",
    "category": "tokuyou",
    "serviceType": "介護老人福祉施設",
    "capacity": 0,
    "openDays": [],
    "openDaysNote": ""
  },
  {
    "id": "2870200272",
    "name": "特別養護老人ホーム　ブルーバレイ",
    "kana": "トクベツヨウゴロウジンホーム　ブルーバレイ",
    "address": "神戸市灘区青谷町２丁目１－９",
    "lat": 34.7133503,
    "lng": 135.2138812,
    "tel": "078-801-1702",
    "url": "bluevally-amaryllis.com",
    "pref": "兵庫県",
    "city": "神戸市灘区",
    "category": "tokuyou",
    "serviceType": "介護老人福祉施設",
    "capacity": 50,
    "openDays": [],
    "openDaysNote": ""
  },
  {
    "id": "2870200264",
    "name": "特別養護老人ホーム　ロングステージ灘",
    "kana": "トクベツヨウゴロウジンホーム　ロングステージナダ",
    "address": "兵庫県　神戸市　灘区　大石東町１－２－１",
    "lat": 34.7094482,
    "lng": 135.238535,
    "tel": "078-821-3888",
    "url": "http://www.long-stage.com",
    "pref": "兵庫県",
    "city": "神戸市灘区",
    "category": "tokuyou",
    "serviceType": "介護老人福祉施設",
    "capacity": 0,
    "openDays": [],
    "openDaysNote": ""
  },
  {
    "id": "2870200298",
    "name": "特別養護老人ホームうみのほし",
    "kana": "トクベツヨウゴロウジンホームウミノホシ",
    "address": "兵庫県神戸市灘区篠原北町3丁目11番15号特別養護老人ホームうみのほし 特別養護老人ホームうみのほし",
    "lat": 34.7237437,
    "lng": 135.2257132,
    "tel": "078-881-1345",
    "url": "https://www.uminohosi.jp",
    "pref": "兵庫県",
    "city": "神戸市灘区",
    "category": "tokuyou",
    "serviceType": "介護老人福祉施設",
    "capacity": 0,
    "openDays": [],
    "openDaysNote": ""
  },
  {
    "id": "2870203011",
    "name": "特別養護老人ホームエル・グレイス六甲",
    "kana": "トクベツヨウゴロウジンホームエル・グレイスロッコウ",
    "address": "兵庫県神戸市灘区鶴甲1丁目5-2特別養護老人ホームエル・グレイス六甲 特別養護老人ホームエル・グレイス六甲",
    "lat": 34.7329695,
    "lng": 135.239881,
    "tel": "078-862-6521",
    "url": "https://tokuwakai.jp/facilities/el_grace/",
    "pref": "兵庫県",
    "city": "神戸市灘区",
    "category": "tokuyou",
    "serviceType": "介護老人福祉施設",
    "capacity": 78,
    "openDays": [],
    "openDaysNote": ""
  },
  {
    "id": "2870202906",
    "name": "特別養護老人ホームまんてん六甲の丘",
    "kana": "トクベツヨウゴロウジンホームマンテンロッコウノオカ",
    "address": "神戸市灘区篠原伯母野町3丁目996-27",
    "lat": 34.7325101087289,
    "lng": 135.226424771689,
    "tel": "078-801-8151",
    "url": "http://www.sankei-kai.or.jp/",
    "pref": "兵庫県",
    "city": "神戸市灘区",
    "category": "tokuyou",
    "serviceType": "介護老人福祉施設",
    "capacity": 60,
    "openDays": [],
    "openDaysNote": ""
  },
  {
    "id": "2870503584",
    "name": "真愛あらたホーム",
    "kana": "シンアイアラタホーム",
    "address": "荒田町3丁目47-1",
    "lat": 34.6867433511982,
    "lng": 135.168258532653,
    "tel": "078-335-8120",
    "url": "http://shin-ai.biz",
    "pref": "兵庫県",
    "city": "神戸市兵庫区",
    "category": "tokuyou",
    "serviceType": "介護老人福祉施設",
    "capacity": 0,
    "openDays": [],
    "openDaysNote": ""
  },
  {
    "id": "2870500259",
    "name": "特別養護老人ホーム　ラグナケア中道",
    "kana": "トクベツヨウゴロウジンホーム　ラグナケアナカミチ",
    "address": "兵庫県　神戸市　兵庫区　中道通　6丁目　1-33",
    "lat": 34.6736147,
    "lng": 135.1629501,
    "tel": "078-575-2500",
    "url": "ｈｔｔｐ：//www.houonkai.jp",
    "pref": "兵庫県",
    "city": "神戸市兵庫区",
    "category": "tokuyou",
    "serviceType": "介護老人福祉施設",
    "capacity": 50,
    "openDays": [],
    "openDaysNote": ""
  },
  {
    "id": "2870501661",
    "name": "特別養護老人ホーム　花みさき",
    "kana": "トクベツヨウゴロウジンホーム　ハナミサキ",
    "address": "神戸市兵庫区浜中町1丁目16-18",
    "lat": 34.6557247,
    "lng": 135.165928,
    "tel": "078-682-8731",
    "url": "http://www.hanamisaki.or.jp",
    "pref": "兵庫県",
    "city": "神戸市兵庫区",
    "category": "tokuyou",
    "serviceType": "介護老人福祉施設",
    "capacity": 0,
    "openDays": [],
    "openDaysNote": ""
  },
  {
    "id": "2870502941",
    "name": "特別養護老人ホーム　真愛たきやまホーム",
    "kana": "トクベツヨウゴロウジンホーム　シンアイタキヤマホーム",
    "address": "滝山町511番地",
    "lat": 34.6831365926905,
    "lng": 135.152049681442,
    "tel": "078-595-9401",
    "url": "http://shin-ai.biz/",
    "pref": "兵庫県",
    "city": "神戸市兵庫区",
    "category": "tokuyou",
    "serviceType": "介護老人福祉施設",
    "capacity": 0,
    "openDays": [],
    "openDaysNote": ""
  },
  {
    "id": "2870500242",
    "name": "特別養護老人ホームモーツァルト兵庫駅前",
    "kana": "トクベツヨウゴロウジンホームモーツァルトヒョウゴエキマエ",
    "address": "神戸市兵庫区駅南通5丁目1-2",
    "lat": 34.6671265,
    "lng": 135.1638723,
    "tel": "078-681-0080",
    "url": "http://www.kobe-mozart.jp",
    "pref": "兵庫県",
    "city": "神戸市兵庫区",
    "category": "tokuyou",
    "serviceType": "介護老人福祉施設",
    "capacity": 0,
    "openDays": [],
    "openDaysNote": ""
  },
  {
    "id": "2870500234",
    "name": "特別養護老人ホーム海光園ミラホーム",
    "kana": "トクベツヨウゴロウジンホームカイコウエンミラホーム",
    "address": "神戸市兵庫区菊水町10丁目40番地の１",
    "lat": 34.6799195,
    "lng": 135.154209,
    "tel": "078-511-7767",
    "url": "http://www.kaikouen.or.jp/index.html",
    "pref": "兵庫県",
    "city": "神戸市兵庫区",
    "category": "tokuyou",
    "serviceType": "介護老人福祉施設",
    "capacity": 0,
    "openDays": [],
    "openDaysNote": ""
  },
  {
    "id": "2870500622",
    "name": "特別養護老人ホーム高齢者ケアセンターひょうご",
    "kana": "トクベツヨウゴロウジンホーム　コウレイシャケアセンターヒョウゴ",
    "address": "神戸市兵庫区里山町１番４８",
    "lat": 34.6926209,
    "lng": 135.1409349,
    "tel": "078-612-3335",
    "url": "http:www.kobe-fukuseikai.com",
    "pref": "兵庫県",
    "city": "神戸市兵庫区",
    "category": "tokuyou",
    "serviceType": "介護老人福祉施設",
    "capacity": 0,
    "openDays": [],
    "openDaysNote": ""
  },
  {
    "id": "2875003606",
    "name": "介護老人福祉施設　カトレア鈴蘭台",
    "kana": "カイゴロウジンフクシシセツ　カトレアスズランダイ",
    "address": "兵庫県神戸市北区鈴蘭台北町1丁目21－10",
    "lat": 34.7254812,
    "lng": 135.1480949,
    "tel": "078‐592-0077",
    "url": "https://www.imwg.or.jp/katoreasuzurandai/",
    "pref": "兵庫県",
    "city": "神戸市北区",
    "category": "tokuyou",
    "serviceType": "介護老人福祉施設",
    "capacity": 0,
    "openDays": [],
    "openDaysNote": ""
  },
  {
    "id": "2875000305",
    "name": "社会福祉法人　神港園　　　　　神港園しあわせの家",
    "kana": "シャカイフクシホウジン　シンコウエン　　シンコウエンシアワセノイエ",
    "address": "神戸市北区しあわせの村１番10号",
    "lat": 34.7047082305874,
    "lng": 135.113166369559,
    "tel": "078-743-8291",
    "url": "http://www.shinkouen.or.jp",
    "pref": "兵庫県",
    "city": "神戸市北区",
    "category": "tokuyou",
    "serviceType": "介護老人福祉施設",
    "capacity": 0,
    "openDays": [],
    "openDaysNote": ""
  },
  {
    "id": "2875003077",
    "name": "神港園しあわせの家",
    "kana": "シンコウエンシアワセノイエ",
    "address": "兵庫県神戸市北区しあわせの村１番10号",
    "lat": 34.7052973853332,
    "lng": 135.113082732124,
    "tel": "078-743-8291",
    "url": "http://www.shinkouen.or.jp",
    "pref": "兵庫県",
    "city": "神戸市北区",
    "category": "tokuyou",
    "serviceType": "介護老人福祉施設",
    "capacity": 0,
    "openDays": [],
    "openDaysNote": ""
  },
  {
    "id": "2875000289",
    "name": "大池サンホーム",
    "kana": "オオイケサンホーム",
    "address": "神戸市北区山田町上谷上字ヤンゲン３番地",
    "lat": 34.7768643,
    "lng": 135.1937681,
    "tel": "078-581-0230",
    "url": "http://www.ooikesunhome.com/",
    "pref": "兵庫県",
    "city": "神戸市北区",
    "category": "tokuyou",
    "serviceType": "介護老人福祉施設",
    "capacity": 0,
    "openDays": [],
    "openDaysNote": ""
  },
  {
    "id": "2875004034",
    "name": "特別養護老人ホーム　さくらガーデン",
    "kana": "トクベツヨウゴロウジンホーム　サクラガーデン",
    "address": "神戸市北区長尾町上津４５６８－６",
    "lat": 34.888732662075,
    "lng": 135.168087175868,
    "tel": "078-986-6571",
    "url": "http://aijukai.org",
    "pref": "兵庫県",
    "city": "神戸市北区",
    "category": "tokuyou",
    "serviceType": "介護老人福祉施設",
    "capacity": 0,
    "openDays": [],
    "openDaysNote": ""
  },
  {
    "id": "2875000511",
    "name": "特別養護老人ホーム　さつき園",
    "kana": "トクベツヨウゴロウジンホーム　サツキエン",
    "address": "兵庫県神戸市北区山田町小部字杉ノ木３番地の２",
    "lat": 34.7285311,
    "lng": 135.16113,
    "tel": "078-594-7711",
    "url": "http://www.yasuragi-swc.or.jp",
    "pref": "兵庫県",
    "city": "神戸市北区",
    "category": "tokuyou",
    "serviceType": "介護老人福祉施設",
    "capacity": 0,
    "openDays": [],
    "openDaysNote": ""
  },
  {
    "id": "2875000313",
    "name": "特別養護老人ホーム　つくし園",
    "kana": "トクベツヨウゴロウジンホーム　ツクシエン",
    "address": "兵庫県神戸市北区山田町東下字野田南30",
    "lat": 34.7639487,
    "lng": 135.1137138,
    "tel": "078-582-0041",
    "url": "http://www.yasuragi-swc.or.jp",
    "pref": "兵庫県",
    "city": "神戸市北区",
    "category": "tokuyou",
    "serviceType": "介護老人福祉施設",
    "capacity": 0,
    "openDays": [],
    "openDaysNote": ""
  },
  {
    "id": "2875000347",
    "name": "特別養護老人ホーム　やすらぎの里道場",
    "kana": "トクベツヨウゴロウジンホーム　ヤスラギノサトドウジョウ",
    "address": "神戸市北区道場町塩田３０８０番地",
    "lat": 34.8721919,
    "lng": 135.2454516,
    "tel": "078-985-1165",
    "url": "http://www.syobikai.or.jp",
    "pref": "兵庫県",
    "city": "神戸市北区",
    "category": "tokuyou",
    "serviceType": "介護老人福祉施設",
    "capacity": 100,
    "openDays": [],
    "openDaysNote": ""
  },
  {
    "id": "2875003374",
    "name": "特別養護老人ホーム　駒どりの郷",
    "kana": "トクベツヨウゴロウジンホーム　コマドリノサト",
    "address": "兵庫県神戸市北区西大池2丁目7-41特別養護老人ホーム駒どりの郷 特別養護老人ホーム駒どりの郷",
    "lat": 34.7745675018473,
    "lng": 135.196255761516,
    "tel": "078-583-3100",
    "url": "http://komadory.com",
    "pref": "兵庫県",
    "city": "神戸市北区",
    "category": "tokuyou",
    "serviceType": "介護老人福祉施設",
    "capacity": 80,
    "openDays": [],
    "openDaysNote": ""
  },
  {
    "id": "2875003952",
    "name": "特別養護老人ホーム　万寿の家",
    "kana": "トクベツヨウゴロウジンホーム　マンジュノイエ",
    "address": "神戸市北区鳴子3丁目1－18",
    "lat": 34.7259937950157,
    "lng": 135.128515052917,
    "tel": "078-595-7010",
    "url": "https://www.manjyunoie.com",
    "pref": "兵庫県",
    "city": "神戸市北区",
    "category": "tokuyou",
    "serviceType": "介護老人福祉施設",
    "capacity": null,
    "openDays": [],
    "openDaysNote": ""
  },
  {
    "id": "2875000057",
    "name": "特別養護老人ホーム　六甲の館",
    "kana": "トクベツヨウゴロウジンホーム　ロッコウノヤカタ",
    "address": "兵庫県神戸市北区山田町小部字妙賀山13番地17",
    "lat": 34.7366134,
    "lng": 135.1669211,
    "tel": "078-594-2451",
    "url": "http://rokko-yakata.jp/",
    "pref": "兵庫県",
    "city": "神戸市北区",
    "category": "tokuyou",
    "serviceType": "介護老人福祉施設",
    "capacity": 70,
    "openDays": [],
    "openDaysNote": ""
  },
  {
    "id": "2875003465",
    "name": "特別養護老人ホームひよどりホーム",
    "kana": "トクベツヨウゴロウジンホームヒヨドリホーム",
    "address": "兵庫県神戸市北区ひよどり北町3丁目2番地",
    "lat": 34.7086297,
    "lng": 135.1196834,
    "tel": "078-743-6100",
    "url": "http://www.yasuragi-swc.or.jp/hiyodori/",
    "pref": "兵庫県",
    "city": "神戸市北区",
    "category": "tokuyou",
    "serviceType": "介護老人福祉施設",
    "capacity": 0,
    "openDays": [],
    "openDaysNote": ""
  },
  {
    "id": "2875003473",
    "name": "特別養護老人ホームひよどりホーム",
    "kana": "トクベツヨウゴロウジンホームヒヨドリホーム",
    "address": "兵庫県神戸市北区ひよどり北町3丁目2番地",
    "lat": 34.7085370927978,
    "lng": 135.119973078574,
    "tel": "078-743-6100",
    "url": "http://www.yasuragi-swc.or.jp/hiyodori/",
    "pref": "兵庫県",
    "city": "神戸市北区",
    "category": "tokuyou",
    "serviceType": "介護老人福祉施設",
    "capacity": 0,
    "openDays": [],
    "openDaysNote": ""
  },
  {
    "id": "2875000321",
    "name": "特別養護老人ホームふじの里",
    "kana": "トクベツヨウゴロウジンホームフジノサト",
    "address": "兵庫県神戸市北区藤原台中町5丁目1番2号",
    "lat": 34.8225235,
    "lng": 135.2146628,
    "tel": "078-987-2230",
    "url": "http://fujinosato.info/",
    "pref": "兵庫県",
    "city": "神戸市北区",
    "category": "tokuyou",
    "serviceType": "介護老人福祉施設",
    "capacity": null,
    "openDays": [],
    "openDaysNote": ""
  },
  {
    "id": "2875002921",
    "name": "特別養護老人ホームやすらぎの里神戸赤松台",
    "kana": "トクベツヨウゴロウジンホームヤスラギノサトコウベアカマツダイ",
    "address": "神戸市北区赤松台1丁目1番77号",
    "lat": 34.8743904794045,
    "lng": 135.180035116394,
    "tel": "078-986-8228",
    "url": "http://www.syobikai.or.jp",
    "pref": "兵庫県",
    "city": "神戸市北区",
    "category": "tokuyou",
    "serviceType": "介護老人福祉施設",
    "capacity": 50,
    "openDays": [],
    "openDaysNote": ""
  },
  {
    "id": "2875003440",
    "name": "特別養護老人ホーム恵風園",
    "kana": "トクベツヨウゴロウジンホームケイフウエン",
    "address": "兵庫県神戸市北区山田町小部字惣六畑山8番地88",
    "lat": 34.7366273,
    "lng": 135.1607798,
    "tel": "078-592-7100",
    "url": "http://www.yasuragi-swc.or.jp/keihuen/",
    "pref": "兵庫県",
    "city": "神戸市北区",
    "category": "tokuyou",
    "serviceType": "介護老人福祉施設",
    "capacity": null,
    "openDays": [],
    "openDaysNote": ""
  },
  {
    "id": "2875000339",
    "name": "特別養護老人ホーム八多の里",
    "kana": "トクベツヨウゴロウジンホウムハタノサト",
    "address": "神戸市北区八多町中６８１番地",
    "lat": 34.8501266,
    "lng": 135.2132519,
    "tel": "078-951-1130",
    "url": "http://www.hatanosato.or.jp/",
    "pref": "兵庫県",
    "city": "神戸市北区",
    "category": "tokuyou",
    "serviceType": "介護老人福祉施設",
    "capacity": 50,
    "openDays": [],
    "openDaysNote": ""
  },
  {
    "id": "2870909005",
    "name": "コティコート　西宮仁川",
    "kana": "コティコート　ニシノミヤニガワ",
    "address": "一里山町1-14",
    "lat": 34.7736499801731,
    "lng": 135.370838346558,
    "tel": "0798-52-7770",
    "url": "https://www.ikufuku.or.jp/nishinomiya",
    "pref": "兵庫県",
    "city": "西宮市",
    "category": "tokuyou",
    "serviceType": "介護老人福祉施設",
    "capacity": 0,
    "openDays": [],
    "openDaysNote": ""
  },
  {
    "id": "2870900343",
    "name": "ななくさ白寿荘",
    "kana": "ナナクサハクジュソウ",
    "address": "兵庫県西宮市山口町下山口１６５０番地２６",
    "lat": 34.8334594,
    "lng": 135.2647936,
    "tel": "078-903-1665",
    "url": "https://www.nanakusa.or.jp/facility/306/",
    "pref": "兵庫県",
    "city": "西宮市",
    "category": "tokuyou",
    "serviceType": "介護老人福祉施設",
    "capacity": 0,
    "openDays": [],
    "openDaysNote": ""
  },
  {
    "id": "2870900384",
    "name": "にしのみや苑",
    "kana": "ニシノミヤエン",
    "address": "兵庫県西宮市甲山町５３番地",
    "lat": 34.7757951,
    "lng": 135.3232315,
    "tel": "0798-71-9210",
    "url": "http://www.nishinomiyaen.jp/",
    "pref": "兵庫県",
    "city": "西宮市",
    "category": "tokuyou",
    "serviceType": "介護老人福祉施設",
    "capacity": 67,
    "openDays": [],
    "openDaysNote": ""
  },
  {
    "id": "2870907025",
    "name": "ローズガーデン甲子園",
    "kana": "ローズガーデンコウシエン",
    "address": "兵庫県西宮市甲子園九番町10番50号",
    "lat": 34.7134327231417,
    "lng": 135.364261984656,
    "tel": "0798-81-5037",
    "url": "http://rg-koshien.toyonaka-fukushikai.com/",
    "pref": "兵庫県",
    "city": "西宮市",
    "category": "tokuyou",
    "serviceType": "介護老人福祉施設",
    "capacity": 75,
    "openDays": [],
    "openDaysNote": ""
  },
  {
    "id": "2870901168",
    "name": "社会福祉法人　円勝会　シルバーコースト甲子園",
    "kana": "シャカイフクシホウジン　エンショウカイ　シルバーコーストコウシエン",
    "address": "兵庫県西宮市枝川町17番40号",
    "lat": 34.7110542,
    "lng": 135.3586859,
    "tel": "0798-43-0470",
    "url": "http://www.enshoukai.com",
    "pref": "兵庫県",
    "city": "西宮市",
    "category": "tokuyou",
    "serviceType": "介護老人福祉施設",
    "capacity": 0,
    "openDays": [],
    "openDaysNote": ""
  },
  {
    "id": "2870900368",
    "name": "社会福祉法人　聖徳園",
    "kana": "シャカイフクシホウジン　ショウトクエン",
    "address": "西宮市段上町6丁目24番１号",
    "lat": 34.7733319,
    "lng": 135.3687896,
    "tel": "0798-54-8885",
    "url": "http://www.shotokuen.or.jp",
    "pref": "兵庫県",
    "city": "西宮市",
    "category": "tokuyou",
    "serviceType": "介護老人福祉施設",
    "capacity": 57,
    "openDays": [],
    "openDaysNote": ""
  },
  {
    "id": "2870900210",
    "name": "社会福祉法人慈仁会　特別養護老人ホーム山口苑",
    "kana": "シャカイフクシホウジンジニンカイ　トクベツヨウゴロウジンホームヤマグチエン",
    "address": "兵庫県西宮市山口町下山口1203-1",
    "lat": 34.8327317,
    "lng": 135.2555859,
    "tel": "078-903-5591",
    "url": "http://care-net.biz/28/jininkai/",
    "pref": "兵庫県",
    "city": "西宮市",
    "category": "tokuyou",
    "serviceType": "介護老人福祉施設",
    "capacity": 0,
    "openDays": [],
    "openDaysNote": ""
  },
  {
    "id": "2870906704",
    "name": "第２シルバーコースト甲子園",
    "kana": "ダイニシルバーコーストコウシエン",
    "address": "兵庫県西宮市枝川町17-55第2シルバーコースト甲子園 第2シルバーコースト甲子園",
    "lat": 34.7117902,
    "lng": 135.3586498,
    "tel": "0798-43-0801",
    "url": "http://www.ensyokai.com",
    "pref": "兵庫県",
    "city": "西宮市",
    "category": "tokuyou",
    "serviceType": "介護老人福祉施設",
    "capacity": 0,
    "openDays": [],
    "openDaysNote": ""
  },
  {
    "id": "2870902034",
    "name": "特別養護老人ホーム　ウエルライフ西宮",
    "kana": "トクベツヨウゴロウジンホーム　ウエルライフニシノミヤ",
    "address": "兵庫県西宮市西宮浜４丁目１５番３号",
    "lat": 34.7122205,
    "lng": 135.3323487,
    "tel": "0798-32-1115",
    "url": "http://www.wellife.or.jp",
    "pref": "兵庫県",
    "city": "西宮市",
    "category": "tokuyou",
    "serviceType": "介護老人福祉施設",
    "capacity": null,
    "openDays": [],
    "openDaysNote": ""
  },
  {
    "id": "2870902885",
    "name": "特別養護老人ホーム　メヌエット",
    "kana": "トクベツヨウゴロウジンホーム　メヌエット",
    "address": "兵庫県西宮市浜脇町4-28",
    "lat": 34.7317864274585,
    "lng": 135.337670773016,
    "tel": "0798-32-0600",
    "url": "http://www.kensei-fukushikai-minuet.jp/",
    "pref": "兵庫県",
    "city": "西宮市",
    "category": "tokuyou",
    "serviceType": "介護老人福祉施設",
    "capacity": 100,
    "openDays": [],
    "openDaysNote": ""
  },
  {
    "id": "2870903669",
    "name": "特別養護老人ホーム　メヌエット東館",
    "kana": "トクベツヨウゴロウジンホーム　メヌエットヒガシカン",
    "address": "浜脇町　4番33号",
    "lat": 34.7316968,
    "lng": 135.3381092,
    "tel": "0798-38-2218",
    "url": "http://www.kensei-fukushikai-minuet.jp/east/",
    "pref": "兵庫県",
    "city": "西宮市",
    "category": "tokuyou",
    "serviceType": "介護老人福祉施設",
    "capacity": 70,
    "openDays": [],
    "openDaysNote": ""
  },
  {
    "id": "2870901853",
    "name": "特別養護老人ホーム　幸泉サンズ",
    "kana": "トクベツヨウゴロウジンホーム　コウセンサンズ",
    "address": "兵庫県西宮市山口町下山口1585-111",
    "lat": 34.8252205567317,
    "lng": 135.25298255369,
    "tel": "078-904-1078",
    "url": "http://www.kosen.org",
    "pref": "兵庫県",
    "city": "西宮市",
    "category": "tokuyou",
    "serviceType": "介護老人福祉施設",
    "capacity": 0,
    "openDays": [],
    "openDaysNote": ""
  },
  {
    "id": "2870906811",
    "name": "特別養護老人ホーム　幸泉サンズユニット",
    "kana": "トクベツヨウゴロウジンホーム　コウセンサンズユニット",
    "address": "兵庫県西宮市山口町下山口1585-111",
    "lat": 34.8251603,
    "lng": 135.2530669,
    "tel": "078-904-1078",
    "url": "https://www.kosen.org",
    "pref": "兵庫県",
    "city": "西宮市",
    "category": "tokuyou",
    "serviceType": "介護老人福祉施設",
    "capacity": 0,
    "openDays": [],
    "openDaysNote": ""
  },
  {
    "id": "2870900350",
    "name": "特別養護老人ホーム　武庫アルテンハイム",
    "kana": "トクベツヨウゴロウジンホーム　ムコアルテンハイム",
    "address": "兵庫県西宮市田近野町7番32号",
    "lat": 34.777512,
    "lng": 135.3721392,
    "tel": "0798-52-6665",
    "url": "https://amagasakimukogawaen.or.jp/facility/06.php",
    "pref": "兵庫県",
    "city": "西宮市",
    "category": "tokuyou",
    "serviceType": "介護老人福祉施設",
    "capacity": 0,
    "openDays": [],
    "openDaysNote": ""
  },
  {
    "id": "2870900681",
    "name": "特別養護老人ホーム　名塩さくら苑",
    "kana": "トクベツヨウゴロウジンホーム　ナジオサクラエン",
    "address": "兵庫県西宮市名塩さくら台2-44",
    "lat": 34.8356785,
    "lng": 135.2788483,
    "tel": "0797-63-3200",
    "url": "http://care-net.biz/28/jininkai/",
    "pref": "兵庫県",
    "city": "西宮市",
    "category": "tokuyou",
    "serviceType": "介護老人福祉施設",
    "capacity": null,
    "openDays": [],
    "openDaysNote": ""
  },
  {
    "id": "2870905136",
    "name": "特別養護老人ホームアリス甲子園",
    "kana": "トクベツヨウゴロウジンホームアリスコウシエン",
    "address": "兵庫県西宮市枝川町8-68",
    "lat": 34.7082323,
    "lng": 135.3644717,
    "tel": "0798-48-0770",
    "url": "http://www.toyonakafamily.jp/Koshien/",
    "pref": "兵庫県",
    "city": "西宮市",
    "category": "tokuyou",
    "serviceType": "介護老人福祉施設",
    "capacity": 0,
    "openDays": [],
    "openDaysNote": ""
  },
  {
    "id": "2870903230",
    "name": "特別養護老人ホームセントポーリア愛の郷",
    "kana": "トクベツヨウゴロウジンホームセントポーリアアイノサト",
    "address": "西宮市山口町上山口池ノ谷１５８４－１",
    "lat": 34.81777050965,
    "lng": 135.236881834163,
    "tel": "078-907-1165",
    "url": "http://www.ryokuhokai.com/",
    "pref": "兵庫県",
    "city": "西宮市",
    "category": "tokuyou",
    "serviceType": "介護老人福祉施設",
    "capacity": 110,
    "openDays": [],
    "openDaysNote": ""
  },
  {
    "id": "2870900335",
    "name": "特別養護老人ホーム甲寿園",
    "kana": "トクベツヨウゴロウジンホーム　コウジュエン",
    "address": "西宮市甲山町53番地",
    "lat": 34.7757951,
    "lng": 135.3232315,
    "tel": "0798-71-8236",
    "url": "http://kojyuen.jp",
    "pref": "兵庫県",
    "city": "西宮市",
    "category": "tokuyou",
    "serviceType": "介護老人福祉施設",
    "capacity": 168,
    "openDays": [],
    "openDaysNote": ""
  },
  {
    "id": "2870900376",
    "name": "特別養護老人ホーム西宮恵泉",
    "kana": "トクベツヨウゴロウジンホームニシノミヤケイセン",
    "address": "西宮市西宮浜3丁目7番7",
    "lat": 34.7174284403159,
    "lng": 135.328935031877,
    "tel": "0798-32-6060",
    "url": "http://www.akashi-keisen.com",
    "pref": "兵庫県",
    "city": "西宮市",
    "category": "tokuyou",
    "serviceType": "介護老人福祉施設",
    "capacity": 100,
    "openDays": [],
    "openDaysNote": ""
  },
  {
    "id": "2871800377",
    "name": "特別養護老人ホーム　オンベリーコ",
    "kana": "トクベツヨウゴロウジンホーム　オンベリーコ",
    "address": "兵庫県西脇市上比延町1422番地14",
    "lat": 35.0036251,
    "lng": 135.0160146,
    "tel": "0795-25-0050",
    "url": "http://www.seihoukai.com/onbelico/",
    "pref": "兵庫県",
    "city": "西脇市",
    "category": "tokuyou",
    "serviceType": "介護老人福祉施設",
    "capacity": null,
    "openDays": [],
    "openDaysNote": ""
  },
  {
    "id": "2871800666",
    "name": "特別養護老人ホーム　コモエスタにしわき",
    "kana": "トクベツヨウゴロウジンホーム　コモエスタニシワキ",
    "address": "兵庫県西脇市蒲江551-1",
    "lat": 35.0106678,
    "lng": 134.9875867,
    "tel": "0795-23-6551",
    "url": "https://www.seihoukai-grp.com/comoestanishiwaki",
    "pref": "兵庫県",
    "city": "西脇市",
    "category": "tokuyou",
    "serviceType": "介護老人福祉施設",
    "capacity": null,
    "openDays": [],
    "openDaysNote": ""
  },
  {
    "id": "2871800054",
    "name": "特別養護老人ホーム　楽寿園",
    "kana": "トクベツヨウゴロウジンホーム　ラクジュエン",
    "address": "兵庫県　西脇市　前島町　２６０－１",
    "lat": 35.0241715,
    "lng": 134.9624389,
    "tel": "0795-23-7700",
    "url": "http://www.rakujuen.jp/",
    "pref": "兵庫県",
    "city": "西脇市",
    "category": "tokuyou",
    "serviceType": "介護老人福祉施設",
    "capacity": 0,
    "openDays": [],
    "openDaysNote": ""
  },
  {
    "id": "2871800609",
    "name": "特別養護老人ホーム　楽寿園（ユニット型）",
    "kana": "トクベツヨウゴロウジンホーム　ラクジュエン（ユニットガタ）",
    "address": "兵庫県西脇市前島町２６０－１",
    "lat": 35.0241715,
    "lng": 134.9624389,
    "tel": "0795-23-7700",
    "url": "http://www.rakujuen.jp/",
    "pref": "兵庫県",
    "city": "西脇市",
    "category": "tokuyou",
    "serviceType": "介護老人福祉施設",
    "capacity": 0,
    "openDays": [],
    "openDaysNote": ""
  },
  {
    "id": "2871800047",
    "name": "特別養護老人ホームみぎわ園",
    "kana": "トクベツヨウゴロウジンホームミギワエン",
    "address": "兵庫県西脇市八坂町213-1",
    "lat": 34.9660878,
    "lng": 134.9455304,
    "tel": "0795-22-1358",
    "url": "http://www.migiwa.or.jp/",
    "pref": "兵庫県",
    "city": "西脇市",
    "category": "tokuyou",
    "serviceType": "介護老人福祉施設",
    "capacity": 135,
    "openDays": [],
    "openDaysNote": ""
  },
  {
    "id": "2872700147",
    "name": "特別養護老人ホーム向陽苑",
    "kana": "トクベツヨウゴロウジンホームコウヨウエン",
    "address": "兵庫県西脇市黒田庄町黒田字北山783",
    "lat": 35.0510961521432,
    "lng": 135.012230807918,
    "tel": "0795-28-3293",
    "url": "http://koyo-en.jp",
    "pref": "兵庫県",
    "city": "西脇市",
    "category": "tokuyou",
    "serviceType": "介護老人福祉施設",
    "capacity": null,
    "openDays": [],
    "openDaysNote": ""
  },
  {
    "id": "2874300540",
    "name": "介護老人福祉施設　櫂の家",
    "kana": "カイゴロウジンフクシシセツ　カイノイエ",
    "address": "浜市949番地",
    "lat": 34.7691814079971,
    "lng": 134.421385824939,
    "tel": "0791-46-8282",
    "url": "http://www.hakuho.or.jp/genbukai/kainoie.html",
    "pref": "兵庫県",
    "city": "赤穂市",
    "category": "tokuyou",
    "serviceType": "介護老人福祉施設",
    "capacity": 0,
    "openDays": [],
    "openDaysNote": ""
  },
  {
    "id": "2874300359",
    "name": "特別養護老人ホーム　玄武会ヒルズ",
    "kana": "トクベツヨウゴロウジンホーム　ゲンブカイヒルズ",
    "address": "兵庫県赤穂市片浜町227番地",
    "lat": 34.7542699,
    "lng": 134.3746826,
    "tel": "0791-45-1113",
    "url": "http://www.hakuho.or.jp/genbukai/",
    "pref": "兵庫県",
    "city": "赤穂市",
    "category": "tokuyou",
    "serviceType": "介護老人福祉施設",
    "capacity": 50,
    "openDays": [],
    "openDaysNote": ""
  },
  {
    "id": "2874300078",
    "name": "特別養護老人ホーム　瀬戸内ホーム",
    "kana": "セトウチホーム",
    "address": "兵庫県赤穂市尾崎字向山2470番地469",
    "lat": 34.7439314618762,
    "lng": 134.420554574188,
    "tel": "0791-48-8113",
    "url": "http://nagomi-ako.com/",
    "pref": "兵庫県",
    "city": "赤穂市",
    "category": "tokuyou",
    "serviceType": "介護老人福祉施設",
    "capacity": 0,
    "openDays": [],
    "openDaysNote": ""
  },
  {
    "id": "2874300573",
    "name": "特別養護老人ホーム　瀬戸内ホーム",
    "kana": "セトウチホーム",
    "address": "兵庫県赤穂市尾崎向山2470番地469",
    "lat": 34.7439349692965,
    "lng": 134.420563585677,
    "tel": "0791-48-8113",
    "url": "http://nagomi-ako.com/",
    "pref": "兵庫県",
    "city": "赤穂市",
    "category": "tokuyou",
    "serviceType": "介護老人福祉施設",
    "capacity": 0,
    "openDays": [],
    "openDaysNote": ""
  },
  {
    "id": "2874300086",
    "name": "特別養護老人ホーム　千種の苑",
    "kana": "トクベツヨウゴロウジンホーム　チクサノソノ",
    "address": "兵庫県赤穂市東有年６６４番地１",
    "lat": 34.8280646851678,
    "lng": 134.369407912164,
    "tel": "0791-49-2887",
    "url": "http://www.shunjyukai.or.jp/",
    "pref": "兵庫県",
    "city": "赤穂市",
    "category": "tokuyou",
    "serviceType": "介護老人福祉施設",
    "capacity": 0,
    "openDays": [],
    "openDaysNote": ""
  },
  {
    "id": "2874300060",
    "name": "特別養護老人ホーム桜谷荘",
    "kana": "トクベツヨウゴロウジンホームサクラダニソウ",
    "address": "兵庫県赤穂市塩屋３４５０番地の３８",
    "lat": 34.7681799,
    "lng": 134.38014,
    "tel": "0791-45-1820",
    "url": "https://sakuradani-fukushikai.or.jp/",
    "pref": "兵庫県",
    "city": "赤穂市",
    "category": "tokuyou",
    "serviceType": "介護老人福祉施設",
    "capacity": 0,
    "openDays": [],
    "openDaysNote": ""
  },
  {
    "id": "2873101428",
    "name": "ハピネス川西特別養護老人ホーム",
    "kana": "ハピネスカワニシ　トクベツヨウゴロウジンホーム",
    "address": "兵庫県川西市加茂3丁目13番26号",
    "lat": 34.8130084,
    "lng": 135.4024854,
    "tel": "072-755-1313",
    "url": "http://www.seisin.or.jp/",
    "pref": "兵庫県",
    "city": "川西市",
    "category": "tokuyou",
    "serviceType": "介護老人福祉施設",
    "capacity": 0,
    "openDays": [],
    "openDaysNote": ""
  },
  {
    "id": "2873101741",
    "name": "介護老人福祉施設　あいな清和苑　あいなホーム",
    "kana": "カイゴロウジンフクシシセツ　アイナセイワエン　アイナホーム",
    "address": "川西市久代６丁目１番９８号",
    "lat": 34.8028678,
    "lng": 135.4183481,
    "tel": "072-767-1112",
    "url": "https://www.ufo-group.jp/",
    "pref": "兵庫県",
    "city": "川西市",
    "category": "tokuyou",
    "serviceType": "介護老人福祉施設",
    "capacity": 100,
    "openDays": [],
    "openDaysNote": ""
  },
  {
    "id": "2873102392",
    "name": "特別養護老人ホーム　やわらぎの里　西多田",
    "kana": "トクベツヨウゴロウジンホーム　ヤワラギノサト　ニシタダ",
    "address": "西多田2丁目1-7",
    "lat": 34.8531212,
    "lng": 135.4063494,
    "tel": "072-793-6700",
    "url": "http://www.plusone-group.co.jp/showakai/",
    "pref": "兵庫県",
    "city": "川西市",
    "category": "tokuyou",
    "serviceType": "介護老人福祉施設",
    "capacity": 100,
    "openDays": [],
    "openDaysNote": ""
  },
  {
    "id": "2873101642",
    "name": "特別養護老人ホーム　やわらぎの里ぷらす館",
    "kana": "トクベツヨウゴロウジンホーム　ヤワラギノサトプラスカン",
    "address": "兵庫県　川西市　清和台東4丁目５－１",
    "lat": 34.8707107,
    "lng": 135.3958684,
    "tel": "072－799－8665",
    "url": "http://www.plusone-group.co.jp/showakai/index.html",
    "pref": "兵庫県",
    "city": "川西市",
    "category": "tokuyou",
    "serviceType": "介護老人福祉施設",
    "capacity": 100,
    "openDays": [],
    "openDaysNote": ""
  },
  {
    "id": "2873101170",
    "name": "特別養護老人ホーム　やわらぎの里東谷",
    "kana": "トクベツヨウゴロウジンホーム　ヤワラギノサトヒガシタニ",
    "address": "兵庫県川西市一庫字北中島1-1",
    "lat": 34.9006506,
    "lng": 135.4030314,
    "tel": "072-791-6500",
    "url": "http://www.plusone-group.co.jp/showakai/index.html",
    "pref": "兵庫県",
    "city": "川西市",
    "category": "tokuyou",
    "serviceType": "介護老人福祉施設",
    "capacity": 100,
    "openDays": [],
    "openDaysNote": ""
  },
  {
    "id": "2873100131",
    "name": "特別養護老人ホーム　清和苑ゆうホーム",
    "kana": "特別養護老人ホーム　セイワエンユウホーム",
    "address": "川西市清和台東2丁目4番地３２",
    "lat": 34.8758576,
    "lng": 135.3920244,
    "tel": "072-799-6200",
    "url": "http://www.ufo-group.jp",
    "pref": "兵庫県",
    "city": "川西市",
    "category": "tokuyou",
    "serviceType": "介護老人福祉施設",
    "capacity": 108,
    "openDays": [],
    "openDaysNote": ""
  },
  {
    "id": "2873100123",
    "name": "特別養護老人ホームさぎそう園",
    "kana": "トクベツヨウゴロウジンホームサギソウエン",
    "address": "兵庫県川西市丸山台３丁目５番地の６",
    "lat": 34.9154829,
    "lng": 135.4082058,
    "tel": "072-794-7600",
    "url": "http://www.seisin.or.jp",
    "pref": "兵庫県",
    "city": "川西市",
    "category": "tokuyou",
    "serviceType": "介護老人福祉施設",
    "capacity": 80,
    "openDays": [],
    "openDaysNote": ""
  },
  {
    "id": "2873100867",
    "name": "特別養護老人ホームやわらぎの里清和台",
    "kana": "トクベツヨウゴロウジンホーム　ヤワラギノサトセイワダイ",
    "address": "兵庫県川西市清和台東４丁目５－２６",
    "lat": 34.8719662,
    "lng": 135.3955212,
    "tel": "072-798-0007",
    "url": "http://www.plusone-goroup.co.jp/",
    "pref": "兵庫県",
    "city": "川西市",
    "category": "tokuyou",
    "serviceType": "介護老人福祉施設",
    "capacity": 110,
    "openDays": [],
    "openDaysNote": ""
  },
  {
    "id": "2873100453",
    "name": "特別養護老人ホーム湯々館",
    "kana": "トクベツヨウゴロウジンホームトウトウカン",
    "address": "兵庫県川西市西多田字平井田筋５番地",
    "lat": 34.8517237,
    "lng": 135.3991098,
    "tel": "072-793-2727",
    "url": "http://toto-kan.org/",
    "pref": "兵庫県",
    "city": "川西市",
    "category": "tokuyou",
    "serviceType": "介護老人福祉施設",
    "capacity": 98,
    "openDays": [],
    "openDaysNote": ""
  },
  {
    "id": "2874200013",
    "name": "特別養護老人ホーム　グリーンハウス",
    "kana": "トクベツヨウゴロウジンホーム　グリーンハウス",
    "address": "若狭野町雨内800-146",
    "lat": 34.8266118893064,
    "lng": 134.419853926984,
    "tel": "0791-28-1756",
    "url": "http://www.midori-fukushi.com",
    "pref": "兵庫県",
    "city": "相生市",
    "category": "tokuyou",
    "serviceType": "介護老人福祉施設",
    "capacity": 0,
    "openDays": [],
    "openDaysNote": ""
  },
  {
    "id": "2874200245",
    "name": "特別養護老人ホームこすもす倶楽部",
    "kana": "トクベツヨウゴロウジンホームコスモスクラブ",
    "address": "兵庫県相生市野瀬１３５６番地",
    "lat": 34.7881056,
    "lng": 134.4831156,
    "tel": "0791-24-0600",
    "url": "http://cosmos2000.com/",
    "pref": "兵庫県",
    "city": "相生市",
    "category": "tokuyou",
    "serviceType": "介護老人福祉施設",
    "capacity": 70,
    "openDays": [],
    "openDaysNote": ""
  },
  {
    "id": "2874200088",
    "name": "特別養護老人ホーム若狭野の里",
    "kana": "トクベツヨウゴロウジンホームワカサノノサト",
    "address": "兵庫県相生市若狭野町若狭野234番15",
    "lat": 34.8277665,
    "lng": 134.4172463,
    "tel": "0791-28-1567",
    "url": "https://wakasanonosato.jp",
    "pref": "兵庫県",
    "city": "相生市",
    "category": "tokuyou",
    "serviceType": "介護老人福祉施設",
    "capacity": 60,
    "openDays": [],
    "openDaysNote": ""
  },
  {
    "id": "2872700535",
    "name": "特別養護老人ホーム　グリーンヴィラ妙見",
    "kana": "トクベツヨウゴロウジンホーム　グリーンビラ　ミョウケン",
    "address": "多可郡多可町中区牧野字国木谷１６６－２５・１６６－３３",
    "lat": 35.071669,
    "lng": 134.9271605,
    "tel": "0795-30-0870",
    "url": "http://nakanosato.com/",
    "pref": "兵庫県",
    "city": "多可町",
    "category": "tokuyou",
    "serviceType": "介護老人福祉施設",
    "capacity": 0,
    "openDays": [],
    "openDaysNote": ""
  },
  {
    "id": "2872700139",
    "name": "特別養護老人ホーム　ゆりの荘",
    "kana": "トクベツヨウゴロウジンホーム　ユリノソウ",
    "address": "兵庫県多可郡多可町八千代区俵田111-27",
    "lat": 35.0149509,
    "lng": 134.8917764,
    "tel": "0795-37-0174",
    "url": "http://www.rakuenkai.or.jp",
    "pref": "兵庫県",
    "city": "多可町",
    "category": "tokuyou",
    "serviceType": "介護老人福祉施設",
    "capacity": 50,
    "openDays": [],
    "openDaysNote": ""
  },
  {
    "id": "2872700113",
    "name": "特別養護老人ホームしあわせ荘",
    "kana": "トクベツヨウゴロウジンホームシアワセソウ",
    "address": "兵庫県多可郡多可町中区鍛冶屋763番地3",
    "lat": 35.0702102,
    "lng": 134.9312459,
    "tel": "0795-32-3330",
    "url": "https://siawase-sou.com",
    "pref": "兵庫県",
    "city": "多可町",
    "category": "tokuyou",
    "serviceType": "介護老人福祉施設",
    "capacity": 0,
    "openDays": [],
    "openDaysNote": ""
  },
  {
    "id": "2872700121",
    "name": "特別養護老人ホームヘルシービラ加美",
    "kana": "トクベツヨウゴロウジンホームヘルシービラカミ",
    "address": "兵庫県多可郡多可町加美区多田字宮前430番地10",
    "lat": 35.1080441,
    "lng": 134.884278,
    "tel": "0795-35-0777",
    "url": "http://www.sengaminekai.or.jp/",
    "pref": "兵庫県",
    "city": "多可町",
    "category": "tokuyou",
    "serviceType": "介護老人福祉施設",
    "capacity": 0,
    "openDays": [],
    "openDaysNote": ""
  },
  {
    "id": "2872700592",
    "name": "特別養護老人ホームヘルシービラ加美（ユニット型）",
    "kana": "トクベツヨウゴロウジンホームヘルシービラカミ（ユニットガタ）",
    "address": "兵庫県多可郡多可町加美区多田字宮前４３０－１０兵庫県多可郡多可町加美区多田４３０－１０ 兵庫県多可郡多可町加美区多田４３０－１０",
    "lat": 35.1080441,
    "lng": 134.884278,
    "tel": "0795-35-0777",
    "url": "http://www.sengaminekai.or.jp/",
    "pref": "兵庫県",
    "city": "多可町",
    "category": "tokuyou",
    "serviceType": "介護老人福祉施設",
    "capacity": null,
    "openDays": [],
    "openDaysNote": ""
  },
  {
    "id": "2874100494",
    "name": "特別養護老人ホーム　まほろばの里",
    "kana": "トクベツヨウゴロウジンホーム　マホロバノサト",
    "address": "兵庫県揖保郡太子町塚森125-1",
    "lat": 34.8142658,
    "lng": 134.5704666,
    "tel": "079-275-1858",
    "url": "http://mahorobanosato.jp/",
    "pref": "兵庫県",
    "city": "太子町",
    "category": "tokuyou",
    "serviceType": "介護老人福祉施設",
    "capacity": null,
    "openDays": [],
    "openDaysNote": ""
  },
  {
    "id": "2874100825",
    "name": "特別養護老人ホーム　太子の郷",
    "kana": "トクベツヨウゴロウジンホーム　タイシノサト",
    "address": "兵庫県揖保郡太子町太田231番地の1",
    "lat": 34.8358394,
    "lng": 134.5983542,
    "tel": "079-277-5000",
    "url": "http://taishinosato.org/",
    "pref": "兵庫県",
    "city": "太子町",
    "category": "tokuyou",
    "serviceType": "介護老人福祉施設",
    "capacity": 0,
    "openDays": [],
    "openDaysNote": ""
  },
  {
    "id": "2871300162",
    "name": "特別養護老人ホーム　おかの花",
    "kana": "トクベツヨウゴロウジンホーム　オカノハナ",
    "address": "兵庫県丹波市春日町山田１７０",
    "lat": 35.1842307,
    "lng": 135.0838607,
    "tel": "0795-74-1700",
    "url": "http://okanohana.jp/",
    "pref": "兵庫県",
    "city": "丹波市",
    "category": "tokuyou",
    "serviceType": "介護老人福祉施設",
    "capacity": 58,
    "openDays": [],
    "openDaysNote": ""
  },
  {
    "id": "2871301509",
    "name": "特別養護老人ホームおかの花",
    "kana": "トクベツヨウゴロウジンホームオカノハナ",
    "address": "兵庫県丹波市春日町山田170",
    "lat": 35.1842307,
    "lng": 135.0838607,
    "tel": "0795-74-1700",
    "url": "http://okanohana.jp",
    "pref": "兵庫県",
    "city": "丹波市",
    "category": "tokuyou",
    "serviceType": "介護老人福祉施設",
    "capacity": 30,
    "openDays": [],
    "openDaysNote": ""
  },
  {
    "id": "2871300154",
    "name": "特別養護老人ホームふれあいの郷「もくせい」",
    "kana": "トクベツヨウゴロウジンホームフレアイノサト「モクセイ」",
    "address": "兵庫県丹波市青垣町東芦田1303番地1303 1303",
    "lat": 35.2366013,
    "lng": 135.037305,
    "tel": "0795-87-1170",
    "url": "http://keijyukinenkai.or.jp/",
    "pref": "兵庫県",
    "city": "丹波市",
    "category": "tokuyou",
    "serviceType": "介護老人福祉施設",
    "capacity": 0,
    "openDays": [],
    "openDaysNote": ""
  },
  {
    "id": "2871300170",
    "name": "特別養護老人ホーム山路園",
    "kana": "トクベツヨウゴロウジンホームヤマジエン",
    "address": "兵庫県丹波市山南町野坂181-1",
    "lat": 35.0854135,
    "lng": 135.0008343,
    "tel": "0795-77-3240",
    "url": "http://www.yamajien.orjp",
    "pref": "兵庫県",
    "city": "丹波市",
    "category": "tokuyou",
    "serviceType": "介護老人福祉施設",
    "capacity": 60,
    "openDays": [],
    "openDaysNote": ""
  },
  {
    "id": "2871300832",
    "name": "特別養護老人ホーム丹寿荘",
    "kana": "トクベツヨウゴロウジンホームタンジュソウ",
    "address": "兵庫県丹波市市島町上竹田2336-1",
    "lat": 35.2345175,
    "lng": 135.1263118,
    "tel": "0795-85-3251",
    "url": "http://www.hwc.or.jp/tanju/",
    "pref": "兵庫県",
    "city": "丹波市",
    "category": "tokuyou",
    "serviceType": "介護老人福祉施設",
    "capacity": 90,
    "openDays": [],
    "openDaysNote": ""
  },
  {
    "id": "2871300527",
    "name": "特別養護老人ホーム柏原けやき苑",
    "kana": "トクベツヨウゴロウジンホームカイバラケヤキエン",
    "address": "兵庫県丹波市柏原町北山２８９－１",
    "lat": 35.1353687,
    "lng": 135.0444542,
    "tel": "0795-73-1185",
    "url": "http://www.kaibara-keyaki.or.jp/",
    "pref": "兵庫県",
    "city": "丹波市",
    "category": "tokuyou",
    "serviceType": "介護老人福祉施設",
    "capacity": 80,
    "openDays": [],
    "openDaysNote": ""
  },
  {
    "id": "2871301558",
    "name": "特別養護老人ホーム柏原けやき苑",
    "kana": "トクベツヨウゴロウジンホームカイバラケヤキエン",
    "address": "兵庫県丹波市柏原町北山289-1",
    "lat": 35.1353687,
    "lng": 135.0444542,
    "tel": "0795-73-1185",
    "url": "http://www.kaibara-keyaki.or.jp/",
    "pref": "兵庫県",
    "city": "丹波市",
    "category": "tokuyou",
    "serviceType": "介護老人福祉施設",
    "capacity": 0,
    "openDays": [],
    "openDaysNote": ""
  },
  {
    "id": "2871400137",
    "name": "介護老人福祉施設　やまゆりの里",
    "kana": "カイゴロウジンフクシシセツ　ヤマユリノサト",
    "address": "兵庫県丹波篠山市福住657-2",
    "lat": 35.0701585042491,
    "lng": 135.343895314834,
    "tel": "079-557-1158",
    "url": "http://yamayurinosato.com/",
    "pref": "兵庫県",
    "city": "丹波篠山市",
    "category": "tokuyou",
    "serviceType": "介護老人福祉施設",
    "capacity": 0,
    "openDays": [],
    "openDaysNote": ""
  },
  {
    "id": "2871400152",
    "name": "特別養護老人ホーム　やすらぎ園",
    "kana": "トクベツヨウゴロウジンホーム　ヤスラギエン",
    "address": "兵庫県丹波篠山市味間奥字水坂ノ坪８３３番地３",
    "lat": 35.059569,
    "lng": 135.138816,
    "tel": "079-594-3333",
    "url": "https://sasayama-yasuragien.com/",
    "pref": "兵庫県",
    "city": "丹波篠山市",
    "category": "tokuyou",
    "serviceType": "介護老人福祉施設",
    "capacity": 58,
    "openDays": [],
    "openDaysNote": ""
  },
  {
    "id": "2871400665",
    "name": "特別養護老人ホーム　やすらぎ園",
    "kana": "トクベツヨウゴロウジンホーム　ヤスラギエン",
    "address": "兵庫県丹波篠山市味間奥字水坂ノ坪833番地3",
    "lat": 35.0596142219083,
    "lng": 135.138813702811,
    "tel": "079-594-3333",
    "url": "https://sasayama-yasuragien.com/",
    "pref": "兵庫県",
    "city": "丹波篠山市",
    "category": "tokuyou",
    "serviceType": "介護老人福祉施設",
    "capacity": 30,
    "openDays": [],
    "openDaysNote": ""
  },